{"last_updated":1688069279,"ttl":30,"version":"2.2","data":{"bikes":[{"bike_id":"666c1415-28e9-4944-87f5-29a628446c75","system_id":"levelo_inurba_marseille","lat":43.312239,"lon":5.368562,"is_reserved":false,"is_disabled":false,"rental_uris":{"android":"levelo://app?vid=666c1415-28e9-4944-87f5-29a628446c75","ios":"levelo://app?vid=666c1415-28e9-4944-87f5-29a628446c75"},"vehicle_type_id":"4","last_reported":1688069279,"current_range_meters":31200,"station_id":"ce4bgl92rcd13ifvqbq0","pricing_plan_id":"free"},{"bike_id":"d66aad9b-ffab-4565-86ba-69c989a8ded8","system_id":"levelo_inurba_marseille","lat":43.30941,"lon":5.36698,"is_reserved":false,"is_disabled":false,"rental_uris":{"android":"levelo://app?vid=d66aad9b-ffab-4565-86ba-69c989a8ded8","ios":"levelo://app?vid=d66aad9b-ffab-4565-86ba-69c989a8ded8"},"vehicle_type_id":"4","last_reported":1688069279,"current_range_meters":13600,"station_id":"","pricing_plan_id":"free"},{"bike_id":"645972d7-7755-4741-89dd-d0b16191332f","system_id":"levelo_inurba_marseille","lat":43.314811,"lon":5.373103,"is_reserved":false,"is_disabled":false,"rental_uris":{"android":"levelo://app?vid=645972d7-7755-4741-89dd-d0b16191332f","ios":"levelo://app?vid=645972d7-7755-4741-89dd-d0b16191332f"},"vehicle_type_id":"4","last_reported":1688069279,"current_range_meters":6800,"station_id":"ce4bgt12rcd13ifvqcd0","pricing_plan_id":"free"},{"bike_id":"89be3d9c-8a4c-4622-be6b-bdb4340ebd2f","system_id":"levelo_inurba_marseille","lat":43.314811,"lon":5.373103,"is_reserved":false,"is_disabled":false,"rental_uris":{"android":"levelo://app?vid=89be3d9c-8a4c-4622-be6b-bdb4340ebd2f","ios":"levelo://app?vid=89be3d9c-8a4c-4622-be6b-bdb4340ebd2f"},"vehicle_type_id":"4","last_reported":1688069279,"current_range_meters":31200,"station_id":"ce4bgt12rcd13ifvqcd0","pricing_plan_id":"free"},{"bike_id":"3fd649c2-026f-4654-9922-aa5a44c6af17","system_id":"levelo_inurba_marseille","lat":43.314811,"lon":5.373103,"is_reserved":false,"is_disabled":false,"rental_uris":{"android":"levelo://app?vid=3fd649c2-026f-4654-9922-aa5a44c6af17","ios":"levelo://app?vid=3fd649c2-026f-4654-9922-aa5a44c6af17"},"vehicle_type_id":"4","last_reported":1688069279,"current_range_meters":31200,"station_id":"ce4bgt12rcd13ifvqcd0","pricing_plan_id":"free"},{"bike_id":"fbc60c05-e3f1-4275-87e1-d8c7e611a37b","system_id":"levelo_inurba_marseille","lat":43.314811,"lon":5.373103,"is_reserved":false,"is_disabled":false,"rental_uris":{"android":"levelo://app?vid=fbc60c05-e3f1-4275-87e1-d8c7e611a37b","ios":"levelo://app?vid=fbc60c05-e3f1-4275-87e1-d8c7e611a37b"},"vehicle_type_id":"4","last_reported":1688069279,"current_range_meters":28400,"station_id":"ce4bgt12rcd13ifvqcd0","pricing_plan_id":"free"},{"bike_id":"aad6ac47-5ecb-431c-8791-daca1e296625","system_id":"levelo_inurba_marseille","lat":43.314811,"lon":5.373104,"is_reserved":false,"is_disabled":false,"rental_uris":{"android":"levelo://app?vid=aad6ac47-5ecb-431c-8791-daca1e296625","ios":"levelo://app?vid=aad6ac47-5ecb-431c-8791-daca1e296625"},"vehicle_type_id":"4","last_reported":1688069279,"current_range_meters":4800,"station_id":"ce4bgt12rcd13ifvqcd0","pricing_plan_id":"free"},{"bike_id":"f5c12de1-6bea-4ac3-ab63-48d09116eeb8","system_id":"levelo_inurba_marseille","lat":43.305368,"lon":5.367343,"is_reserved":false,"is_disabled":false,"rental_uris":{"android":"levelo://app?vid=f5c12de1-6bea-4ac3-ab63-48d09116eeb8","ios":"levelo://app?vid=f5c12de1-6bea-4ac3-ab63-48d09116eeb8"},"vehicle_type_id":"4","last_reported":1688069279,"current_range_meters":0,"station_id":"ce4bgrp2rcd13ifvqc9g","pricing_plan_id":"free"},{"bike_id":"66ea6df2-b244-4050-b89b-f5ac323bfefd","system_id":"levelo_inurba_marseille","lat":43.311125,"lon":5.377624,"is_reserved":false,"is_disabled":false,"rental_uris":{"android":"levelo://app?vid=66ea6df2-b244-4050-b89b-f5ac323bfefd","ios":"levelo://app?vid=66ea6df2-b244-4050-b89b-f5ac323bfefd"},"vehicle_type_id":"4","last_reported":1688069279,"current_range_meters":18400,"station_id":"ce4bgt92rcd13ifvqcg0","pricing_plan_id":"free"},{"bike_id":"4566eaeb-3c5b-4e5c-91c5-92facc463fde","system_id":"levelo_inurba_marseille","lat":43.30304,"lon":5.368987,"is_reserved":false,"is_disabled":false,"rental_uris":{"android":"levelo://app?vid=4566eaeb-3c5b-4e5c-91c5-92facc463fde","ios":"levelo://app?vid=4566eaeb-3c5b-4e5c-91c5-92facc463fde"},"vehicle_type_id":"4","last_reported":1688069279,"current_range_meters":8400,"station_id":"ce4bgqh2rcd13ifvqc5g","pricing_plan_id":"free"},{"bike_id":"0bebeb1c-9e04-435a-9669-b2490be44145","system_id":"levelo_inurba_marseille","lat":43.30304,"lon":5.368987,"is_reserved":false,"is_disabled":false,"rental_uris":{"android":"levelo://app?vid=0bebeb1c-9e04-435a-9669-b2490be44145","ios":"levelo://app?vid=0bebeb1c-9e04-435a-9669-b2490be44145"},"vehicle_type_id":"4","last_reported":1688069279,"current_range_meters":4400,"station_id":"ce4bgqh2rcd13ifvqc5g","pricing_plan_id":"free"},{"bike_id":"30936496-f416-4c3d-bd53-c668c007aeaa","system_id":"levelo_inurba_marseille","lat":43.30194,"lon":5.36618,"is_reserved":false,"is_disabled":false,"rental_uris":{"android":"levelo://app?vid=30936496-f416-4c3d-bd53-c668c007aeaa","ios":"levelo://app?vid=30936496-f416-4c3d-bd53-c668c007aeaa"},"vehicle_type_id":"4","last_reported":1688069279,"current_range_meters":31200,"station_id":"ce4bgrh2rcd13ifvqc8g","pricing_plan_id":"free"},{"bike_id":"3f4bc108-9874-463f-9614-18aee0f42d62","system_id":"levelo_inurba_marseille","lat":43.301939,"lon":5.366286,"is_reserved":false,"is_disabled":false,"rental_uris":{"android":"levelo://app?vid=3f4bc108-9874-463f-9614-18aee0f42d62","ios":"levelo://app?vid=3f4bc108-9874-463f-9614-18aee0f42d62"},"vehicle_type_id":"4","last_reported":1688069279,"current_range_meters":31200,"station_id":"ce4bgrh2rcd13ifvqc8g","pricing_plan_id":"free"},{"bike_id":"fc35deee-64d7-4c5b-86dc-3d373c85bc2c","system_id":"levelo_inurba_marseille","lat":43.301939,"lon":5.366286,"is_reserved":false,"is_disabled":false,"rental_uris":{"android":"levelo://app?vid=fc35deee-64d7-4c5b-86dc-3d373c85bc2c","ios":"levelo://app?vid=fc35deee-64d7-4c5b-86dc-3d373c85bc2c"},"vehicle_type_id":"4","last_reported":1688069279,"current_range_meters":26800,"station_id":"ce4bgrh2rcd13ifvqc8g","pricing_plan_id":"free"},{"bike_id":"c6a5c1a4-9387-44ea-864b-899d829a8f64","system_id":"levelo_inurba_marseille","lat":43.3081,"lon":5.38145,"is_reserved":false,"is_disabled":false,"rental_uris":{"android":"levelo://app?vid=c6a5c1a4-9387-44ea-864b-899d829a8f64","ios":"levelo://app?vid=c6a5c1a4-9387-44ea-864b-899d829a8f64"},"vehicle_type_id":"4","last_reported":1688069279,"current_range_meters":6400,"station_id":"ce4bgt12rcd13ifvqce0","pricing_plan_id":"free"},{"bike_id":"34ee49b9-c50b-4a68-a7c0-e16e42a93913","system_id":"levelo_inurba_marseille","lat":43.32534,"lon":5.36873,"is_reserved":false,"is_disabled":false,"rental_uris":{"android":"levelo://app?vid=34ee49b9-c50b-4a68-a7c0-e16e42a93913","ios":"levelo://app?vid=34ee49b9-c50b-4a68-a7c0-e16e42a93913"},"vehicle_type_id":"4","last_reported":1688069279,"current_range_meters":15600,"station_id":"","pricing_plan_id":"free"},{"bike_id":"a95db9a8-3544-4127-a403-ba78eeb190c7","system_id":"levelo_inurba_marseille","lat":43.319935,"lon":5.381699,"is_reserved":false,"is_disabled":false,"rental_uris":{"android":"levelo://app?vid=a95db9a8-3544-4127-a403-ba78eeb190c7","ios":"levelo://app?vid=a95db9a8-3544-4127-a403-ba78eeb190c7"},"vehicle_type_id":"4","last_reported":1688069279,"current_range_meters":4800,"station_id":"ce4bhr12rcd13ifvqhpg","pricing_plan_id":"free"},{"bike_id":"c6e29822-c919-4841-82f1-6591d0b3432d","system_id":"levelo_inurba_marseille","lat":43.319935,"lon":5.381699,"is_reserved":false,"is_disabled":false,"rental_uris":{"android":"levelo://app?vid=c6e29822-c919-4841-82f1-6591d0b3432d","ios":"levelo://app?vid=c6e29822-c919-4841-82f1-6591d0b3432d"},"vehicle_type_id":"4","last_reported":1688069279,"current_range_meters":17200,"station_id":"ce4bhr12rcd13ifvqhpg","pricing_plan_id":"free"},{"bike_id":"c2c086e5-f0d6-47d3-9b71-f53bb711a396","system_id":"levelo_inurba_marseille","lat":43.31362,"lon":5.38492,"is_reserved":false,"is_disabled":false,"rental_uris":{"android":"levelo://app?vid=c2c086e5-f0d6-47d3-9b71-f53bb711a396","ios":"levelo://app?vid=c2c086e5-f0d6-47d3-9b71-f53bb711a396"},"vehicle_type_id":"4","last_reported":1688069279,"current_range_meters":16800,"station_id":"ce4bgt92rcd13ifvqcf0","pricing_plan_id":"free"},{"bike_id":"3a0d680e-e37f-4d97-b418-47c49bb7dbac","system_id":"levelo_inurba_marseille","lat":43.30062,"lon":5.37441,"is_reserved":false,"is_disabled":false,"rental_uris":{"android":"levelo://app?vid=3a0d680e-e37f-4d97-b418-47c49bb7dbac","ios":"levelo://app?vid=3a0d680e-e37f-4d97-b418-47c49bb7dbac"},"vehicle_type_id":"4","last_reported":1688069279,"current_range_meters":13600,"station_id":"","pricing_plan_id":"free"},{"bike_id":"1f3da379-5dde-4506-979c-182956029f98","system_id":"levelo_inurba_marseille","lat":43.298433,"lon":5.362774,"is_reserved":false,"is_disabled":false,"rental_uris":{"android":"levelo://app?vid=1f3da379-5dde-4506-979c-182956029f98","ios":"levelo://app?vid=1f3da379-5dde-4506-979c-182956029f98"},"vehicle_type_id":"4","last_reported":1688069279,"current_range_meters":29600,"station_id":"ce4bgpp2rcd13ifvqc3g","pricing_plan_id":"free"},{"bike_id":"f87db846-ed1f-409d-9e46-18c5d908460c","system_id":"levelo_inurba_marseille","lat":43.298433,"lon":5.362774,"is_reserved":false,"is_disabled":false,"rental_uris":{"android":"levelo://app?vid=f87db846-ed1f-409d-9e46-18c5d908460c","ios":"levelo://app?vid=f87db846-ed1f-409d-9e46-18c5d908460c"},"vehicle_type_id":"4","last_reported":1688069279,"current_range_meters":13600,"station_id":"ce4bgpp2rcd13ifvqc3g","pricing_plan_id":"free"},{"bike_id":"c4fb79fe-52f0-4029-8f24-e083904b5abd","system_id":"levelo_inurba_marseille","lat":43.298433,"lon":5.362774,"is_reserved":false,"is_disabled":false,"rental_uris":{"android":"levelo://app?vid=c4fb79fe-52f0-4029-8f24-e083904b5abd","ios":"levelo://app?vid=c4fb79fe-52f0-4029-8f24-e083904b5abd"},"vehicle_type_id":"4","last_reported":1688069279,"current_range_meters":31600,"station_id":"ce4bgpp2rcd13ifvqc3g","pricing_plan_id":"free"},{"bike_id":"787fdc33-224b-4b0c-b855-041060f406bc","system_id":"levelo_inurba_marseille","lat":43.29848,"lon":5.36278,"is_reserved":false,"is_disabled":false,"rental_uris":{"android":"levelo://app?vid=787fdc33-224b-4b0c-b855-041060f406bc","ios":"levelo://app?vid=787fdc33-224b-4b0c-b855-041060f406bc"},"vehicle_type_id":"4","last_reported":1688069279,"current_range_meters":15600,"station_id":"ce4bgpp2rcd13ifvqc3g","pricing_plan_id":"free"},{"bike_id":"a0112dca-73c5-4c06-a097-214db23e23da","system_id":"levelo_inurba_marseille","lat":43.298433,"lon":5.362774,"is_reserved":false,"is_disabled":false,"rental_uris":{"android":"levelo://app?vid=a0112dca-73c5-4c06-a097-214db23e23da","ios":"levelo://app?vid=a0112dca-73c5-4c06-a097-214db23e23da"},"vehicle_type_id":"4","last_reported":1688069279,"current_range_meters":25200,"station_id":"ce4bgpp2rcd13ifvqc3g","pricing_plan_id":"free"},{"bike_id":"e64bdc6d-e5f3-4dc3-8a79-c2fee50cd614","system_id":"levelo_inurba_marseille","lat":43.29847,"lon":5.36279,"is_reserved":false,"is_disabled":false,"rental_uris":{"android":"levelo://app?vid=e64bdc6d-e5f3-4dc3-8a79-c2fee50cd614","ios":"levelo://app?vid=e64bdc6d-e5f3-4dc3-8a79-c2fee50cd614"},"vehicle_type_id":"4","last_reported":1688069279,"current_range_meters":0,"station_id":"ce4bgpp2rcd13ifvqc3g","pricing_plan_id":"free"},{"bike_id":"ad36ee4c-f1bd-4213-9f71-334da842d7e2","system_id":"levelo_inurba_marseille","lat":43.298433,"lon":5.362774,"is_reserved":false,"is_disabled":false,"rental_uris":{"android":"levelo://app?vid=ad36ee4c-f1bd-4213-9f71-334da842d7e2","ios":"levelo://app?vid=ad36ee4c-f1bd-4213-9f71-334da842d7e2"},"vehicle_type_id":"4","last_reported":1688069279,"current_range_meters":13600,"station_id":"ce4bgpp2rcd13ifvqc3g","pricing_plan_id":"free"},{"bike_id":"87cef420-e224-4de2-9a66-083b58905f1c","system_id":"levelo_inurba_marseille","lat":43.298433,"lon":5.362774,"is_reserved":false,"is_disabled":false,"rental_uris":{"android":"levelo://app?vid=87cef420-e224-4de2-9a66-083b58905f1c","ios":"levelo://app?vid=87cef420-e224-4de2-9a66-083b58905f1c"},"vehicle_type_id":"4","last_reported":1688069279,"current_range_meters":29600,"station_id":"ce4bgpp2rcd13ifvqc3g","pricing_plan_id":"free"},{"bike_id":"ba093526-8d2e-4bed-9f80-d217533526f1","system_id":"levelo_inurba_marseille","lat":43.298433,"lon":5.362774,"is_reserved":false,"is_disabled":false,"rental_uris":{"android":"levelo://app?vid=ba093526-8d2e-4bed-9f80-d217533526f1","ios":"levelo://app?vid=ba093526-8d2e-4bed-9f80-d217533526f1"},"vehicle_type_id":"4","last_reported":1688069279,"current_range_meters":14000,"station_id":"ce4bgpp2rcd13ifvqc3g","pricing_plan_id":"free"},{"bike_id":"47bad5d9-1cf3-47b1-b2d4-0ce4efb122aa","system_id":"levelo_inurba_marseille","lat":43.298433,"lon":5.362774,"is_reserved":false,"is_disabled":false,"rental_uris":{"android":"levelo://app?vid=47bad5d9-1cf3-47b1-b2d4-0ce4efb122aa","ios":"levelo://app?vid=47bad5d9-1cf3-47b1-b2d4-0ce4efb122aa"},"vehicle_type_id":"4","last_reported":1688069279,"current_range_meters":20800,"station_id":"ce4bgpp2rcd13ifvqc3g","pricing_plan_id":"free"},{"bike_id":"68d85987-52b3-4ee5-bde5-0c677444edeb","system_id":"levelo_inurba_marseille","lat":43.29845,"lon":5.36272,"is_reserved":false,"is_disabled":false,"rental_uris":{"android":"levelo://app?vid=68d85987-52b3-4ee5-bde5-0c677444edeb","ios":"levelo://app?vid=68d85987-52b3-4ee5-bde5-0c677444edeb"},"vehicle_type_id":"4","last_reported":1688069279,"current_range_meters":6400,"station_id":"ce4bgpp2rcd13ifvqc3g","pricing_plan_id":"free"},{"bike_id":"180a1432-3f2d-4200-9fb6-19c8696217ca","system_id":"levelo_inurba_marseille","lat":43.29844,"lon":5.36273,"is_reserved":false,"is_disabled":false,"rental_uris":{"android":"levelo://app?vid=180a1432-3f2d-4200-9fb6-19c8696217ca","ios":"levelo://app?vid=180a1432-3f2d-4200-9fb6-19c8696217ca"},"vehicle_type_id":"4","last_reported":1688069279,"current_range_meters":28000,"station_id":"ce4bgpp2rcd13ifvqc3g","pricing_plan_id":"free"},{"bike_id":"589b5030-b9de-4893-8421-19282d24d671","system_id":"levelo_inurba_marseille","lat":43.29844,"lon":5.36271,"is_reserved":false,"is_disabled":false,"rental_uris":{"android":"levelo://app?vid=589b5030-b9de-4893-8421-19282d24d671","ios":"levelo://app?vid=589b5030-b9de-4893-8421-19282d24d671"},"vehicle_type_id":"4","last_reported":1688069279,"current_range_meters":29600,"station_id":"ce4bgpp2rcd13ifvqc3g","pricing_plan_id":"free"},{"bike_id":"9e308144-b59d-4d47-917d-825a14557ebd","system_id":"levelo_inurba_marseille","lat":43.29841,"lon":5.36266,"is_reserved":false,"is_disabled":false,"rental_uris":{"android":"levelo://app?vid=9e308144-b59d-4d47-917d-825a14557ebd","ios":"levelo://app?vid=9e308144-b59d-4d47-917d-825a14557ebd"},"vehicle_type_id":"4","last_reported":1688069279,"current_range_meters":13200,"station_id":"ce4bgpp2rcd13ifvqc3g","pricing_plan_id":"free"},{"bike_id":"2d9217ab-1a1e-4c26-8f12-f75f4a7b1b7b","system_id":"levelo_inurba_marseille","lat":43.2984,"lon":5.36269,"is_reserved":false,"is_disabled":false,"rental_uris":{"android":"levelo://app?vid=2d9217ab-1a1e-4c26-8f12-f75f4a7b1b7b","ios":"levelo://app?vid=2d9217ab-1a1e-4c26-8f12-f75f4a7b1b7b"},"vehicle_type_id":"4","last_reported":1688069279,"current_range_meters":8400,"station_id":"ce4bgpp2rcd13ifvqc3g","pricing_plan_id":"free"},{"bike_id":"1f8006df-8d53-47a4-8551-f94ee72aceb7","system_id":"levelo_inurba_marseille","lat":43.299243,"lon":5.374807,"is_reserved":false,"is_disabled":false,"rental_uris":{"android":"levelo://app?vid=1f8006df-8d53-47a4-8551-f94ee72aceb7","ios":"levelo://app?vid=1f8006df-8d53-47a4-8551-f94ee72aceb7"},"vehicle_type_id":"4","last_reported":1688069279,"current_range_meters":19600,"station_id":"ce4bgjh2rcd13ifvqbg0","pricing_plan_id":"free"},{"bike_id":"f168c22e-1bd9-4f86-929d-de9d3fcaa06b","system_id":"levelo_inurba_marseille","lat":43.297794,"lon":5.370888,"is_reserved":false,"is_disabled":false,"rental_uris":{"android":"levelo://app?vid=f168c22e-1bd9-4f86-929d-de9d3fcaa06b","ios":"levelo://app?vid=f168c22e-1bd9-4f86-929d-de9d3fcaa06b"},"vehicle_type_id":"4","last_reported":1688069279,"current_range_meters":19200,"station_id":"ce4bgop2rcd13ifvqc1g","pricing_plan_id":"free"},{"bike_id":"1d99c5dd-9272-41e6-8f34-20552c1edfe1","system_id":"levelo_inurba_marseille","lat":43.297774,"lon":5.370875,"is_reserved":false,"is_disabled":false,"rental_uris":{"android":"levelo://app?vid=1d99c5dd-9272-41e6-8f34-20552c1edfe1","ios":"levelo://app?vid=1d99c5dd-9272-41e6-8f34-20552c1edfe1"},"vehicle_type_id":"4","last_reported":1688069279,"current_range_meters":400,"station_id":"ce4bgop2rcd13ifvqc1g","pricing_plan_id":"free"},{"bike_id":"12fe207e-d36c-49f5-acf0-ceca4625620f","system_id":"levelo_inurba_marseille","lat":43.328371,"lon":5.366909,"is_reserved":false,"is_disabled":false,"rental_uris":{"android":"levelo://app?vid=12fe207e-d36c-49f5-acf0-ceca4625620f","ios":"levelo://app?vid=12fe207e-d36c-49f5-acf0-ceca4625620f"},"vehicle_type_id":"4","last_reported":1688069279,"current_range_meters":14400,"station_id":"ce4bhs92rcd13ifvqi0g","pricing_plan_id":"free"},{"bike_id":"20c02e23-49c7-47df-b27e-dc44dba2ecdc","system_id":"levelo_inurba_marseille","lat":43.328371,"lon":5.366909,"is_reserved":false,"is_disabled":false,"rental_uris":{"android":"levelo://app?vid=20c02e23-49c7-47df-b27e-dc44dba2ecdc","ios":"levelo://app?vid=20c02e23-49c7-47df-b27e-dc44dba2ecdc"},"vehicle_type_id":"4","last_reported":1688069279,"current_range_meters":29600,"station_id":"ce4bhs92rcd13ifvqi0g","pricing_plan_id":"free"},{"bike_id":"d7680171-9f2a-4429-9470-08a8b6ed934b","system_id":"levelo_inurba_marseille","lat":43.328371,"lon":5.366909,"is_reserved":false,"is_disabled":false,"rental_uris":{"android":"levelo://app?vid=d7680171-9f2a-4429-9470-08a8b6ed934b","ios":"levelo://app?vid=d7680171-9f2a-4429-9470-08a8b6ed934b"},"vehicle_type_id":"4","last_reported":1688069279,"current_range_meters":29600,"station_id":"ce4bhs92rcd13ifvqi0g","pricing_plan_id":"free"},{"bike_id":"c308155a-030c-4de2-86d3-17e39d98d109","system_id":"levelo_inurba_marseille","lat":43.32837,"lon":5.36688,"is_reserved":false,"is_disabled":false,"rental_uris":{"android":"levelo://app?vid=c308155a-030c-4de2-86d3-17e39d98d109","ios":"levelo://app?vid=c308155a-030c-4de2-86d3-17e39d98d109"},"vehicle_type_id":"4","last_reported":1688069279,"current_range_meters":23200,"station_id":"ce4bhs92rcd13ifvqi0g","pricing_plan_id":"free"},{"bike_id":"ffcb9e12-6652-498f-b5fa-ec00e4a0a2ae","system_id":"levelo_inurba_marseille","lat":43.297163,"lon":5.365866,"is_reserved":false,"is_disabled":false,"rental_uris":{"android":"levelo://app?vid=ffcb9e12-6652-498f-b5fa-ec00e4a0a2ae","ios":"levelo://app?vid=ffcb9e12-6652-498f-b5fa-ec00e4a0a2ae"},"vehicle_type_id":"4","last_reported":1688069279,"current_range_meters":22000,"station_id":"ce4bgn12rcd13ifvqbt0","pricing_plan_id":"free"},{"bike_id":"155b4aee-522d-4903-939f-42395a21d214","system_id":"levelo_inurba_marseille","lat":43.29678,"lon":5.37289,"is_reserved":false,"is_disabled":false,"rental_uris":{"android":"levelo://app?vid=155b4aee-522d-4903-939f-42395a21d214","ios":"levelo://app?vid=155b4aee-522d-4903-939f-42395a21d214"},"vehicle_type_id":"4","last_reported":1688069279,"current_range_meters":2800,"station_id":"ce4bgk12rcd13ifvqbj0","pricing_plan_id":"free"},{"bike_id":"f48a6764-f1b7-41de-a832-3aed154703e7","system_id":"levelo_inurba_marseille","lat":43.29664,"lon":5.37298,"is_reserved":false,"is_disabled":false,"rental_uris":{"android":"levelo://app?vid=f48a6764-f1b7-41de-a832-3aed154703e7","ios":"levelo://app?vid=f48a6764-f1b7-41de-a832-3aed154703e7"},"vehicle_type_id":"4","last_reported":1688069279,"current_range_meters":0,"station_id":"ce4bgk12rcd13ifvqbj0","pricing_plan_id":"free"},{"bike_id":"49494bbb-3005-4ede-bf56-5edaa8ee5e1e","system_id":"levelo_inurba_marseille","lat":43.296129,"lon":5.370777,"is_reserved":false,"is_disabled":false,"rental_uris":{"android":"levelo://app?vid=49494bbb-3005-4ede-bf56-5edaa8ee5e1e","ios":"levelo://app?vid=49494bbb-3005-4ede-bf56-5edaa8ee5e1e"},"vehicle_type_id":"4","last_reported":1688069279,"current_range_meters":27200,"station_id":"ce4bgnh2rcd13ifvqc0g","pricing_plan_id":"free"},{"bike_id":"d2d69a30-9b68-4484-8d79-d8cf3126fbf3","system_id":"levelo_inurba_marseille","lat":43.296131,"lon":5.370773,"is_reserved":false,"is_disabled":false,"rental_uris":{"android":"levelo://app?vid=d2d69a30-9b68-4484-8d79-d8cf3126fbf3","ios":"levelo://app?vid=d2d69a30-9b68-4484-8d79-d8cf3126fbf3"},"vehicle_type_id":"4","last_reported":1688069279,"current_range_meters":21600,"station_id":"ce4bgnh2rcd13ifvqc0g","pricing_plan_id":"free"},{"bike_id":"262a731b-0e01-42ba-80fa-b694da07c4c7","system_id":"levelo_inurba_marseille","lat":43.29579,"lon":5.36739,"is_reserved":false,"is_disabled":false,"rental_uris":{"android":"levelo://app?vid=262a731b-0e01-42ba-80fa-b694da07c4c7","ios":"levelo://app?vid=262a731b-0e01-42ba-80fa-b694da07c4c7"},"vehicle_type_id":"4","last_reported":1688069279,"current_range_meters":12400,"station_id":"ce4bgph2rcd13ifvqc2g","pricing_plan_id":"free"},{"bike_id":"415647bf-f696-4dfc-be0a-68b1fa502390","system_id":"levelo_inurba_marseille","lat":43.296921,"lon":5.376579,"is_reserved":false,"is_disabled":false,"rental_uris":{"android":"levelo://app?vid=415647bf-f696-4dfc-be0a-68b1fa502390","ios":"levelo://app?vid=415647bf-f696-4dfc-be0a-68b1fa502390"},"vehicle_type_id":"4","last_reported":1688069279,"current_range_meters":0,"station_id":"ce4bgkh2rcd13ifvqbl0","pricing_plan_id":"free"},{"bike_id":"a4ee8c8f-3409-494c-8ea0-c120a0b36427","system_id":"levelo_inurba_marseille","lat":43.29907,"lon":5.38134,"is_reserved":false,"is_disabled":false,"rental_uris":{"android":"levelo://app?vid=a4ee8c8f-3409-494c-8ea0-c120a0b36427","ios":"levelo://app?vid=a4ee8c8f-3409-494c-8ea0-c120a0b36427"},"vehicle_type_id":"4","last_reported":1688069279,"current_range_meters":27200,"station_id":"ce4bgj12rcd13ifvqbc0","pricing_plan_id":"free"},{"bike_id":"c044613d-ec3f-43e6-ad09-cba1325d88f8","system_id":"levelo_inurba_marseille","lat":43.299028,"lon":5.381509,"is_reserved":false,"is_disabled":false,"rental_uris":{"android":"levelo://app?vid=c044613d-ec3f-43e6-ad09-cba1325d88f8","ios":"levelo://app?vid=c044613d-ec3f-43e6-ad09-cba1325d88f8"},"vehicle_type_id":"4","last_reported":1688069279,"current_range_meters":0,"station_id":"ce4bgj12rcd13ifvqbc0","pricing_plan_id":"free"},{"bike_id":"82572966-5578-4287-8ad8-e8bb77a2191b","system_id":"levelo_inurba_marseille","lat":43.296921,"lon":5.376579,"is_reserved":false,"is_disabled":false,"rental_uris":{"android":"levelo://app?vid=82572966-5578-4287-8ad8-e8bb77a2191b","ios":"levelo://app?vid=82572966-5578-4287-8ad8-e8bb77a2191b"},"vehicle_type_id":"4","last_reported":1688069279,"current_range_meters":23600,"station_id":"ce4bgkh2rcd13ifvqbl0","pricing_plan_id":"free"},{"bike_id":"507e846a-b91e-40ad-9f38-fef15211a32c","system_id":"levelo_inurba_marseille","lat":43.296921,"lon":5.376579,"is_reserved":false,"is_disabled":false,"rental_uris":{"android":"levelo://app?vid=507e846a-b91e-40ad-9f38-fef15211a32c","ios":"levelo://app?vid=507e846a-b91e-40ad-9f38-fef15211a32c"},"vehicle_type_id":"4","last_reported":1688069279,"current_range_meters":14400,"station_id":"ce4bgkh2rcd13ifvqbl0","pricing_plan_id":"free"},{"bike_id":"615bcacf-b453-498f-93d9-03ce5249b58b","system_id":"levelo_inurba_marseille","lat":43.309589,"lon":5.390258,"is_reserved":false,"is_disabled":false,"rental_uris":{"android":"levelo://app?vid=615bcacf-b453-498f-93d9-03ce5249b58b","ios":"levelo://app?vid=615bcacf-b453-498f-93d9-03ce5249b58b"},"vehicle_type_id":"4","last_reported":1688069279,"current_range_meters":8000,"station_id":"ce4bgup2rcd13ifvqco0","pricing_plan_id":"free"},{"bike_id":"dd095bbd-b36b-4028-aa2e-d5d95f6a7486","system_id":"levelo_inurba_marseille","lat":43.30945,"lon":5.39029,"is_reserved":false,"is_disabled":false,"rental_uris":{"android":"levelo://app?vid=dd095bbd-b36b-4028-aa2e-d5d95f6a7486","ios":"levelo://app?vid=dd095bbd-b36b-4028-aa2e-d5d95f6a7486"},"vehicle_type_id":"4","last_reported":1688069279,"current_range_meters":26400,"station_id":"ce4bgup2rcd13ifvqco0","pricing_plan_id":"free"},{"bike_id":"91df2f6a-1c49-4a3d-a83b-01f8917cb691","system_id":"levelo_inurba_marseille","lat":43.309589,"lon":5.390258,"is_reserved":false,"is_disabled":false,"rental_uris":{"android":"levelo://app?vid=91df2f6a-1c49-4a3d-a83b-01f8917cb691","ios":"levelo://app?vid=91df2f6a-1c49-4a3d-a83b-01f8917cb691"},"vehicle_type_id":"4","last_reported":1688069279,"current_range_meters":24800,"station_id":"ce4bgup2rcd13ifvqco0","pricing_plan_id":"free"},{"bike_id":"f1f22362-04bc-4743-ac4a-c2d946b12470","system_id":"levelo_inurba_marseille","lat":43.30949,"lon":5.39036,"is_reserved":false,"is_disabled":false,"rental_uris":{"android":"levelo://app?vid=f1f22362-04bc-4743-ac4a-c2d946b12470","ios":"levelo://app?vid=f1f22362-04bc-4743-ac4a-c2d946b12470"},"vehicle_type_id":"4","last_reported":1688069279,"current_range_meters":20000,"station_id":"","pricing_plan_id":"free"},{"bike_id":"bc126430-3bf2-4233-b018-bc8efa93b9f4","system_id":"levelo_inurba_marseille","lat":43.309589,"lon":5.390258,"is_reserved":false,"is_disabled":false,"rental_uris":{"android":"levelo://app?vid=bc126430-3bf2-4233-b018-bc8efa93b9f4","ios":"levelo://app?vid=bc126430-3bf2-4233-b018-bc8efa93b9f4"},"vehicle_type_id":"4","last_reported":1688069279,"current_range_meters":7200,"station_id":"ce4bgup2rcd13ifvqco0","pricing_plan_id":"free"},{"bike_id":"77ae6c0a-0deb-4d3d-807d-237832fbf57b","system_id":"levelo_inurba_marseille","lat":43.309589,"lon":5.390258,"is_reserved":false,"is_disabled":false,"rental_uris":{"android":"levelo://app?vid=77ae6c0a-0deb-4d3d-807d-237832fbf57b","ios":"levelo://app?vid=77ae6c0a-0deb-4d3d-807d-237832fbf57b"},"vehicle_type_id":"4","last_reported":1688069279,"current_range_meters":5200,"station_id":"ce4bgup2rcd13ifvqco0","pricing_plan_id":"free"},{"bike_id":"12f05c40-02c4-4d30-9f39-7318f522ca7b","system_id":"levelo_inurba_marseille","lat":43.317557,"lon":5.390173,"is_reserved":false,"is_disabled":false,"rental_uris":{"android":"levelo://app?vid=12f05c40-02c4-4d30-9f39-7318f522ca7b","ios":"levelo://app?vid=12f05c40-02c4-4d30-9f39-7318f522ca7b"},"vehicle_type_id":"4","last_reported":1688069279,"current_range_meters":30400,"station_id":"ce4bhqp2rcd13ifvqhng","pricing_plan_id":"free"},{"bike_id":"7ce2c1d6-98e4-46e5-a037-cd069f88c4f4","system_id":"levelo_inurba_marseille","lat":43.317557,"lon":5.390173,"is_reserved":false,"is_disabled":false,"rental_uris":{"android":"levelo://app?vid=7ce2c1d6-98e4-46e5-a037-cd069f88c4f4","ios":"levelo://app?vid=7ce2c1d6-98e4-46e5-a037-cd069f88c4f4"},"vehicle_type_id":"4","last_reported":1688069279,"current_range_meters":7600,"station_id":"ce4bhqp2rcd13ifvqhng","pricing_plan_id":"free"},{"bike_id":"ae5fdc26-b14e-4702-8059-ec0fad748573","system_id":"levelo_inurba_marseille","lat":43.295748,"lon":5.37522,"is_reserved":false,"is_disabled":false,"rental_uris":{"android":"levelo://app?vid=ae5fdc26-b14e-4702-8059-ec0fad748573","ios":"levelo://app?vid=ae5fdc26-b14e-4702-8059-ec0fad748573"},"vehicle_type_id":"4","last_reported":1688069279,"current_range_meters":30800,"station_id":"ce4bgh92rcd13ifvqb50","pricing_plan_id":"free"},{"bike_id":"6e2d9f92-9da7-4a4e-9f86-a01a82ec2f53","system_id":"levelo_inurba_marseille","lat":43.295748,"lon":5.37522,"is_reserved":false,"is_disabled":false,"rental_uris":{"android":"levelo://app?vid=6e2d9f92-9da7-4a4e-9f86-a01a82ec2f53","ios":"levelo://app?vid=6e2d9f92-9da7-4a4e-9f86-a01a82ec2f53"},"vehicle_type_id":"4","last_reported":1688069279,"current_range_meters":3200,"station_id":"ce4bgh92rcd13ifvqb50","pricing_plan_id":"free"},{"bike_id":"1854c30b-7411-44ca-a1ff-f9670f34329a","system_id":"levelo_inurba_marseille","lat":43.29792,"lon":5.381,"is_reserved":false,"is_disabled":false,"rental_uris":{"android":"levelo://app?vid=1854c30b-7411-44ca-a1ff-f9670f34329a","ios":"levelo://app?vid=1854c30b-7411-44ca-a1ff-f9670f34329a"},"vehicle_type_id":"4","last_reported":1688069279,"current_range_meters":20000,"station_id":"ce4bgip2rcd13ifvqbb0","pricing_plan_id":"free"},{"bike_id":"66d99559-6c6b-4bc7-b394-183f704e1b22","system_id":"levelo_inurba_marseille","lat":43.29647,"lon":5.37767,"is_reserved":false,"is_disabled":false,"rental_uris":{"android":"levelo://app?vid=66d99559-6c6b-4bc7-b394-183f704e1b22","ios":"levelo://app?vid=66d99559-6c6b-4bc7-b394-183f704e1b22"},"vehicle_type_id":"4","last_reported":1688069279,"current_range_meters":13600,"station_id":"","pricing_plan_id":"free"},{"bike_id":"da575e94-14b1-4db6-92e3-e697b731d4e8","system_id":"levelo_inurba_marseille","lat":43.295748,"lon":5.37522,"is_reserved":false,"is_disabled":false,"rental_uris":{"android":"levelo://app?vid=da575e94-14b1-4db6-92e3-e697b731d4e8","ios":"levelo://app?vid=da575e94-14b1-4db6-92e3-e697b731d4e8"},"vehicle_type_id":"4","last_reported":1688069279,"current_range_meters":10000,"station_id":"ce4bgh92rcd13ifvqb50","pricing_plan_id":"free"},{"bike_id":"e9cd9c07-87c5-4456-9d86-1ab9d57a47cc","system_id":"levelo_inurba_marseille","lat":43.309589,"lon":5.390258,"is_reserved":false,"is_disabled":false,"rental_uris":{"android":"levelo://app?vid=e9cd9c07-87c5-4456-9d86-1ab9d57a47cc","ios":"levelo://app?vid=e9cd9c07-87c5-4456-9d86-1ab9d57a47cc"},"vehicle_type_id":"4","last_reported":1688069279,"current_range_meters":6000,"station_id":"ce4bgup2rcd13ifvqco0","pricing_plan_id":"free"},{"bike_id":"e5a4d109-16da-4369-9981-ff655d254cae","system_id":"levelo_inurba_marseille","lat":43.297526,"lon":5.380432,"is_reserved":false,"is_disabled":false,"rental_uris":{"android":"levelo://app?vid=e5a4d109-16da-4369-9981-ff655d254cae","ios":"levelo://app?vid=e5a4d109-16da-4369-9981-ff655d254cae"},"vehicle_type_id":"4","last_reported":1688069279,"current_range_meters":21200,"station_id":"","pricing_plan_id":"free"},{"bike_id":"de8c96e0-71f1-47a6-9b44-95feebc0d2a5","system_id":"levelo_inurba_marseille","lat":43.29629,"lon":5.37736,"is_reserved":false,"is_disabled":false,"rental_uris":{"android":"levelo://app?vid=de8c96e0-71f1-47a6-9b44-95feebc0d2a5","ios":"levelo://app?vid=de8c96e0-71f1-47a6-9b44-95feebc0d2a5"},"vehicle_type_id":"4","last_reported":1688069279,"current_range_meters":9600,"station_id":"ce4bgi92rcd13ifvqb90","pricing_plan_id":"free"},{"bike_id":"33d951ca-4b4c-4a0b-8a39-197a0eb652a5","system_id":"levelo_inurba_marseille","lat":43.295748,"lon":5.37522,"is_reserved":false,"is_disabled":false,"rental_uris":{"android":"levelo://app?vid=33d951ca-4b4c-4a0b-8a39-197a0eb652a5","ios":"levelo://app?vid=33d951ca-4b4c-4a0b-8a39-197a0eb652a5"},"vehicle_type_id":"4","last_reported":1688069279,"current_range_meters":12400,"station_id":"ce4bgh92rcd13ifvqb50","pricing_plan_id":"free"},{"bike_id":"20c808d8-f8d2-4086-85ce-823aea2abd68","system_id":"levelo_inurba_marseille","lat":43.29622,"lon":5.37733,"is_reserved":false,"is_disabled":false,"rental_uris":{"android":"levelo://app?vid=20c808d8-f8d2-4086-85ce-823aea2abd68","ios":"levelo://app?vid=20c808d8-f8d2-4086-85ce-823aea2abd68"},"vehicle_type_id":"4","last_reported":1688069279,"current_range_meters":0,"station_id":"ce4bgi92rcd13ifvqb90","pricing_plan_id":"free"},{"bike_id":"423f2140-39a5-46e9-b7ee-57648e62023b","system_id":"levelo_inurba_marseille","lat":43.295748,"lon":5.37522,"is_reserved":false,"is_disabled":false,"rental_uris":{"android":"levelo://app?vid=423f2140-39a5-46e9-b7ee-57648e62023b","ios":"levelo://app?vid=423f2140-39a5-46e9-b7ee-57648e62023b"},"vehicle_type_id":"4","last_reported":1688069279,"current_range_meters":0,"station_id":"ce4bgh92rcd13ifvqb50","pricing_plan_id":"free"},{"bike_id":"9417937e-bc01-4c25-b49c-e9f406258353","system_id":"levelo_inurba_marseille","lat":43.29623,"lon":5.37739,"is_reserved":false,"is_disabled":false,"rental_uris":{"android":"levelo://app?vid=9417937e-bc01-4c25-b49c-e9f406258353","ios":"levelo://app?vid=9417937e-bc01-4c25-b49c-e9f406258353"},"vehicle_type_id":"4","last_reported":1688069279,"current_range_meters":0,"station_id":"ce4bgi92rcd13ifvqb90","pricing_plan_id":"free"},{"bike_id":"cb379276-9d4c-406f-b093-635b7e80ebb0","system_id":"levelo_inurba_marseille","lat":43.2962,"lon":5.37734,"is_reserved":false,"is_disabled":false,"rental_uris":{"android":"levelo://app?vid=cb379276-9d4c-406f-b093-635b7e80ebb0","ios":"levelo://app?vid=cb379276-9d4c-406f-b093-635b7e80ebb0"},"vehicle_type_id":"4","last_reported":1688069279,"current_range_meters":14000,"station_id":"","pricing_plan_id":"free"},{"bike_id":"cf600c25-04e9-4070-b32d-94e8b24d6227","system_id":"levelo_inurba_marseille","lat":43.296277,"lon":5.377108,"is_reserved":false,"is_disabled":false,"rental_uris":{"android":"levelo://app?vid=cf600c25-04e9-4070-b32d-94e8b24d6227","ios":"levelo://app?vid=cf600c25-04e9-4070-b32d-94e8b24d6227"},"vehicle_type_id":"4","last_reported":1688069279,"current_range_meters":11600,"station_id":"ce4bgi92rcd13ifvqb90","pricing_plan_id":"free"},{"bike_id":"87628d11-59e4-40dd-8b3e-06a0410da782","system_id":"levelo_inurba_marseille","lat":43.295279,"lon":5.375048,"is_reserved":false,"is_disabled":false,"rental_uris":{"android":"levelo://app?vid=87628d11-59e4-40dd-8b3e-06a0410da782","ios":"levelo://app?vid=87628d11-59e4-40dd-8b3e-06a0410da782"},"vehicle_type_id":"4","last_reported":1688069279,"current_range_meters":0,"station_id":"ce4bgkp2rcd13ifvqbmg","pricing_plan_id":"free"},{"bike_id":"9eaad2a4-fd47-4fe0-9189-59000a52490d","system_id":"levelo_inurba_marseille","lat":43.299724,"lon":5.384848,"is_reserved":false,"is_disabled":false,"rental_uris":{"android":"levelo://app?vid=9eaad2a4-fd47-4fe0-9189-59000a52490d","ios":"levelo://app?vid=9eaad2a4-fd47-4fe0-9189-59000a52490d"},"vehicle_type_id":"4","last_reported":1688069279,"current_range_meters":0,"station_id":"ce4bgj92rcd13ifvqbd0","pricing_plan_id":"free"},{"bike_id":"4a618e71-363c-4fd3-be81-2613f21c3d65","system_id":"levelo_inurba_marseille","lat":43.299717,"lon":5.384845,"is_reserved":false,"is_disabled":false,"rental_uris":{"android":"levelo://app?vid=4a618e71-363c-4fd3-be81-2613f21c3d65","ios":"levelo://app?vid=4a618e71-363c-4fd3-be81-2613f21c3d65"},"vehicle_type_id":"4","last_reported":1688069279,"current_range_meters":0,"station_id":"ce4bgj92rcd13ifvqbd0","pricing_plan_id":"free"},{"bike_id":"1a5190d2-564f-4255-ac24-bd10d34670de","system_id":"levelo_inurba_marseille","lat":43.299724,"lon":5.384848,"is_reserved":false,"is_disabled":false,"rental_uris":{"android":"levelo://app?vid=1a5190d2-564f-4255-ac24-bd10d34670de","ios":"levelo://app?vid=1a5190d2-564f-4255-ac24-bd10d34670de"},"vehicle_type_id":"4","last_reported":1688069279,"current_range_meters":0,"station_id":"ce4bgj92rcd13ifvqbd0","pricing_plan_id":"free"},{"bike_id":"99d1765e-2ebc-474d-996b-792ff2adb9db","system_id":"levelo_inurba_marseille","lat":43.32195,"lon":5.38954,"is_reserved":false,"is_disabled":false,"rental_uris":{"android":"levelo://app?vid=99d1765e-2ebc-474d-996b-792ff2adb9db","ios":"levelo://app?vid=99d1765e-2ebc-474d-996b-792ff2adb9db"},"vehicle_type_id":"4","last_reported":1688069279,"current_range_meters":24800,"station_id":"","pricing_plan_id":"free"},{"bike_id":"cae8fc90-3f96-42e1-8086-7eb9e0e56cac","system_id":"levelo_inurba_marseille","lat":43.30118,"lon":5.38776,"is_reserved":false,"is_disabled":false,"rental_uris":{"android":"levelo://app?vid=cae8fc90-3f96-42e1-8086-7eb9e0e56cac","ios":"levelo://app?vid=cae8fc90-3f96-42e1-8086-7eb9e0e56cac"},"vehicle_type_id":"4","last_reported":1688069279,"current_range_meters":26400,"station_id":"","pricing_plan_id":"free"},{"bike_id":"5be71fd1-292c-4fc7-b8a4-98ece97074a4","system_id":"levelo_inurba_marseille","lat":43.32372,"lon":5.38883,"is_reserved":false,"is_disabled":false,"rental_uris":{"android":"levelo://app?vid=5be71fd1-292c-4fc7-b8a4-98ece97074a4","ios":"levelo://app?vid=5be71fd1-292c-4fc7-b8a4-98ece97074a4"},"vehicle_type_id":"4","last_reported":1688069279,"current_range_meters":2800,"station_id":"ce4bhqp2rcd13ifvqhog","pricing_plan_id":"free"},{"bike_id":"c737b305-2f9e-411a-b1ca-26b0f745d0f2","system_id":"levelo_inurba_marseille","lat":43.3318,"lon":5.36162,"is_reserved":false,"is_disabled":false,"rental_uris":{"android":"levelo://app?vid=c737b305-2f9e-411a-b1ca-26b0f745d0f2","ios":"levelo://app?vid=c737b305-2f9e-411a-b1ca-26b0f745d0f2"},"vehicle_type_id":"4","last_reported":1688069279,"current_range_meters":4400,"station_id":"","pricing_plan_id":"free"},{"bike_id":"acd84b82-d0a4-4313-a1d8-5f1357f07f84","system_id":"levelo_inurba_marseille","lat":43.32299,"lon":5.38989,"is_reserved":false,"is_disabled":false,"rental_uris":{"android":"levelo://app?vid=acd84b82-d0a4-4313-a1d8-5f1357f07f84","ios":"levelo://app?vid=acd84b82-d0a4-4313-a1d8-5f1357f07f84"},"vehicle_type_id":"4","last_reported":1688069279,"current_range_meters":6400,"station_id":"","pricing_plan_id":"free"},{"bike_id":"95f53426-0b6f-4c00-8f89-492e376fd90c","system_id":"levelo_inurba_marseille","lat":43.29301,"lon":5.3697,"is_reserved":false,"is_disabled":false,"rental_uris":{"android":"levelo://app?vid=95f53426-0b6f-4c00-8f89-492e376fd90c","ios":"levelo://app?vid=95f53426-0b6f-4c00-8f89-492e376fd90c"},"vehicle_type_id":"4","last_reported":1688069279,"current_range_meters":4000,"station_id":"","pricing_plan_id":"free"},{"bike_id":"ddeba398-4ba9-4896-b44c-9f6f96829d4c","system_id":"levelo_inurba_marseille","lat":43.295279,"lon":5.375048,"is_reserved":false,"is_disabled":false,"rental_uris":{"android":"levelo://app?vid=ddeba398-4ba9-4896-b44c-9f6f96829d4c","ios":"levelo://app?vid=ddeba398-4ba9-4896-b44c-9f6f96829d4c"},"vehicle_type_id":"4","last_reported":1688069279,"current_range_meters":1600,"station_id":"ce4bgkp2rcd13ifvqbmg","pricing_plan_id":"free"},{"bike_id":"a3d6f110-2e87-4bd1-8ee9-06c7497cdac3","system_id":"levelo_inurba_marseille","lat":43.293009,"lon":5.374584,"is_reserved":false,"is_disabled":false,"rental_uris":{"android":"levelo://app?vid=a3d6f110-2e87-4bd1-8ee9-06c7497cdac3","ios":"levelo://app?vid=a3d6f110-2e87-4bd1-8ee9-06c7497cdac3"},"vehicle_type_id":"4","last_reported":1688069279,"current_range_meters":0,"station_id":"ce4bgi12rcd13ifvqb70","pricing_plan_id":"free"},{"bike_id":"1d0976c3-bd18-4201-b04d-09a3fb498d66","system_id":"levelo_inurba_marseille","lat":43.302992,"lon":5.392136,"is_reserved":false,"is_disabled":false,"rental_uris":{"android":"levelo://app?vid=1d0976c3-bd18-4201-b04d-09a3fb498d66","ios":"levelo://app?vid=1d0976c3-bd18-4201-b04d-09a3fb498d66"},"vehicle_type_id":"4","last_reported":1688069279,"current_range_meters":0,"station_id":"ce4bgkh2rcd13ifvqbk0","pricing_plan_id":"free"},{"bike_id":"de6b5011-8ef7-4000-a527-75c284256e7e","system_id":"levelo_inurba_marseille","lat":43.302992,"lon":5.392136,"is_reserved":false,"is_disabled":false,"rental_uris":{"android":"levelo://app?vid=de6b5011-8ef7-4000-a527-75c284256e7e","ios":"levelo://app?vid=de6b5011-8ef7-4000-a527-75c284256e7e"},"vehicle_type_id":"4","last_reported":1688069279,"current_range_meters":21600,"station_id":"ce4bgkh2rcd13ifvqbk0","pricing_plan_id":"free"},{"bike_id":"8f222049-b637-42db-801c-e4955696e6d4","system_id":"levelo_inurba_marseille","lat":43.2936,"lon":5.37835,"is_reserved":false,"is_disabled":false,"rental_uris":{"android":"levelo://app?vid=8f222049-b637-42db-801c-e4955696e6d4","ios":"levelo://app?vid=8f222049-b637-42db-801c-e4955696e6d4"},"vehicle_type_id":"4","last_reported":1688069279,"current_range_meters":22000,"station_id":"ce4bgjh2rcd13ifvqbf0","pricing_plan_id":"free"},{"bike_id":"c4206620-06fc-48b6-8dc8-06ceab7ff6db","system_id":"levelo_inurba_marseille","lat":43.29226,"lon":5.36059,"is_reserved":false,"is_disabled":false,"rental_uris":{"android":"levelo://app?vid=c4206620-06fc-48b6-8dc8-06ceab7ff6db","ios":"levelo://app?vid=c4206620-06fc-48b6-8dc8-06ceab7ff6db"},"vehicle_type_id":"4","last_reported":1688069279,"current_range_meters":4400,"station_id":"","pricing_plan_id":"free"},{"bike_id":"c978a82b-f60a-457a-9027-8e4765ace7a9","system_id":"levelo_inurba_marseille","lat":43.30085,"lon":5.390856,"is_reserved":false,"is_disabled":false,"rental_uris":{"android":"levelo://app?vid=c978a82b-f60a-457a-9027-8e4765ace7a9","ios":"levelo://app?vid=c978a82b-f60a-457a-9027-8e4765ace7a9"},"vehicle_type_id":"4","last_reported":1688069279,"current_range_meters":19600,"station_id":"ce4bh192rcd13ifvqdb0","pricing_plan_id":"free"},{"bike_id":"d9d55826-0729-4b8e-90ac-12bbfe2ff6e4","system_id":"levelo_inurba_marseille","lat":43.298764,"lon":5.388973,"is_reserved":false,"is_disabled":false,"rental_uris":{"android":"levelo://app?vid=d9d55826-0729-4b8e-90ac-12bbfe2ff6e4","ios":"levelo://app?vid=d9d55826-0729-4b8e-90ac-12bbfe2ff6e4"},"vehicle_type_id":"4","last_reported":1688069279,"current_range_meters":5200,"station_id":"ce4bh392rcd13ifvqdl0","pricing_plan_id":"free"},{"bike_id":"0251023e-d916-4250-9322-442067d8078a","system_id":"levelo_inurba_marseille","lat":43.292663,"lon":5.376389,"is_reserved":false,"is_disabled":false,"rental_uris":{"android":"levelo://app?vid=0251023e-d916-4250-9322-442067d8078a","ios":"levelo://app?vid=0251023e-d916-4250-9322-442067d8078a"},"vehicle_type_id":"4","last_reported":1688069279,"current_range_meters":14800,"station_id":"ce4bgi12rcd13ifvqb80","pricing_plan_id":"free"},{"bike_id":"7645eb5c-0ee9-411a-b174-55819872b615","system_id":"levelo_inurba_marseille","lat":43.291994,"lon":5.357886,"is_reserved":false,"is_disabled":false,"rental_uris":{"android":"levelo://app?vid=7645eb5c-0ee9-411a-b174-55819872b615","ios":"levelo://app?vid=7645eb5c-0ee9-411a-b174-55819872b615"},"vehicle_type_id":"4","last_reported":1688069279,"current_range_meters":400,"station_id":"ce4bhb12rcd13ifvqel0","pricing_plan_id":"free"},{"bike_id":"c19477f7-27fc-4f16-8f51-badba2db392c","system_id":"levelo_inurba_marseille","lat":43.313301,"lon":5.397002,"is_reserved":false,"is_disabled":false,"rental_uris":{"android":"levelo://app?vid=c19477f7-27fc-4f16-8f51-badba2db392c","ios":"levelo://app?vid=c19477f7-27fc-4f16-8f51-badba2db392c"},"vehicle_type_id":"4","last_reported":1688069279,"current_range_meters":0,"station_id":"ce4bgvp2rcd13ifvqcu0","pricing_plan_id":"free"},{"bike_id":"46f5c5f2-9a7f-483e-9f81-c6a19aac93e8","system_id":"levelo_inurba_marseille","lat":43.313333,"lon":5.397015,"is_reserved":false,"is_disabled":false,"rental_uris":{"android":"levelo://app?vid=46f5c5f2-9a7f-483e-9f81-c6a19aac93e8","ios":"levelo://app?vid=46f5c5f2-9a7f-483e-9f81-c6a19aac93e8"},"vehicle_type_id":"4","last_reported":1688069279,"current_range_meters":0,"station_id":"ce4bgvp2rcd13ifvqcu0","pricing_plan_id":"free"},{"bike_id":"b6757c30-ddb6-48d3-953d-ec62d30a9df3","system_id":"levelo_inurba_marseille","lat":43.309038,"lon":5.396546,"is_reserved":false,"is_disabled":false,"rental_uris":{"android":"levelo://app?vid=b6757c30-ddb6-48d3-953d-ec62d30a9df3","ios":"levelo://app?vid=b6757c30-ddb6-48d3-953d-ec62d30a9df3"},"vehicle_type_id":"4","last_reported":1688069279,"current_range_meters":2400,"station_id":"ce4bh012rcd13ifvqcv0","pricing_plan_id":"free"},{"bike_id":"212c2c22-079d-477d-85e1-84bf314ecfe9","system_id":"levelo_inurba_marseille","lat":43.309038,"lon":5.396546,"is_reserved":false,"is_disabled":false,"rental_uris":{"android":"levelo://app?vid=212c2c22-079d-477d-85e1-84bf314ecfe9","ios":"levelo://app?vid=212c2c22-079d-477d-85e1-84bf314ecfe9"},"vehicle_type_id":"4","last_reported":1688069279,"current_range_meters":1600,"station_id":"ce4bh012rcd13ifvqcv0","pricing_plan_id":"free"},{"bike_id":"ef5e8fcd-290b-45f7-9ea9-25d612b3a010","system_id":"levelo_inurba_marseille","lat":43.309038,"lon":5.396546,"is_reserved":false,"is_disabled":false,"rental_uris":{"android":"levelo://app?vid=ef5e8fcd-290b-45f7-9ea9-25d612b3a010","ios":"levelo://app?vid=ef5e8fcd-290b-45f7-9ea9-25d612b3a010"},"vehicle_type_id":"4","last_reported":1688069279,"current_range_meters":2400,"station_id":"ce4bh012rcd13ifvqcv0","pricing_plan_id":"free"},{"bike_id":"7c578e9d-ac89-4cec-8cac-a0731b443f68","system_id":"levelo_inurba_marseille","lat":43.29529,"lon":5.385581,"is_reserved":false,"is_disabled":false,"rental_uris":{"android":"levelo://app?vid=7c578e9d-ac89-4cec-8cac-a0731b443f68","ios":"levelo://app?vid=7c578e9d-ac89-4cec-8cac-a0731b443f68"},"vehicle_type_id":"4","last_reported":1688069279,"current_range_meters":0,"station_id":"ce4bgih2rcd13ifvqba0","pricing_plan_id":"free"},{"bike_id":"92e70de3-6d3b-4176-9496-e4b867fd2a8a","system_id":"levelo_inurba_marseille","lat":43.29529,"lon":5.385581,"is_reserved":false,"is_disabled":false,"rental_uris":{"android":"levelo://app?vid=92e70de3-6d3b-4176-9496-e4b867fd2a8a","ios":"levelo://app?vid=92e70de3-6d3b-4176-9496-e4b867fd2a8a"},"vehicle_type_id":"4","last_reported":1688069279,"current_range_meters":10400,"station_id":"ce4bgih2rcd13ifvqba0","pricing_plan_id":"free"},{"bike_id":"60ce31f4-c357-41ae-99df-85cc4ecd053f","system_id":"levelo_inurba_marseille","lat":43.29529,"lon":5.385581,"is_reserved":false,"is_disabled":false,"rental_uris":{"android":"levelo://app?vid=60ce31f4-c357-41ae-99df-85cc4ecd053f","ios":"levelo://app?vid=60ce31f4-c357-41ae-99df-85cc4ecd053f"},"vehicle_type_id":"4","last_reported":1688069279,"current_range_meters":6000,"station_id":"ce4bgih2rcd13ifvqba0","pricing_plan_id":"free"},{"bike_id":"5989600d-924c-4bef-8109-3dab07ef0ea8","system_id":"levelo_inurba_marseille","lat":43.29529,"lon":5.385581,"is_reserved":false,"is_disabled":false,"rental_uris":{"android":"levelo://app?vid=5989600d-924c-4bef-8109-3dab07ef0ea8","ios":"levelo://app?vid=5989600d-924c-4bef-8109-3dab07ef0ea8"},"vehicle_type_id":"4","last_reported":1688069279,"current_range_meters":0,"station_id":"ce4bgih2rcd13ifvqba0","pricing_plan_id":"free"},{"bike_id":"387770e1-d027-4dc9-8672-43478cee3665","system_id":"levelo_inurba_marseille","lat":43.302008,"lon":5.394694,"is_reserved":false,"is_disabled":false,"rental_uris":{"android":"levelo://app?vid=387770e1-d027-4dc9-8672-43478cee3665","ios":"levelo://app?vid=387770e1-d027-4dc9-8672-43478cee3665"},"vehicle_type_id":"4","last_reported":1688069279,"current_range_meters":400,"station_id":"ce4bh0p2rcd13ifvqd70","pricing_plan_id":"free"},{"bike_id":"d86a2607-1e6e-4abe-bad9-d9a824e3f7ad","system_id":"levelo_inurba_marseille","lat":43.30206,"lon":5.39465,"is_reserved":false,"is_disabled":false,"rental_uris":{"android":"levelo://app?vid=d86a2607-1e6e-4abe-bad9-d9a824e3f7ad","ios":"levelo://app?vid=d86a2607-1e6e-4abe-bad9-d9a824e3f7ad"},"vehicle_type_id":"4","last_reported":1688069279,"current_range_meters":20000,"station_id":"ce4bh0p2rcd13ifvqd70","pricing_plan_id":"free"},{"bike_id":"78c6a090-dd5a-43a2-ba2f-d4e3a0432e82","system_id":"levelo_inurba_marseille","lat":43.294153,"lon":5.386305,"is_reserved":false,"is_disabled":false,"rental_uris":{"android":"levelo://app?vid=78c6a090-dd5a-43a2-ba2f-d4e3a0432e82","ios":"levelo://app?vid=78c6a090-dd5a-43a2-ba2f-d4e3a0432e82"},"vehicle_type_id":"4","last_reported":1688069279,"current_range_meters":14800,"station_id":"ce4bh2h2rcd13ifvqdh0","pricing_plan_id":"free"},{"bike_id":"0f464675-4b03-4abb-940d-e31941e76d1d","system_id":"levelo_inurba_marseille","lat":43.294153,"lon":5.386305,"is_reserved":false,"is_disabled":false,"rental_uris":{"android":"levelo://app?vid=0f464675-4b03-4abb-940d-e31941e76d1d","ios":"levelo://app?vid=0f464675-4b03-4abb-940d-e31941e76d1d"},"vehicle_type_id":"4","last_reported":1688069279,"current_range_meters":800,"station_id":"ce4bh2h2rcd13ifvqdh0","pricing_plan_id":"free"},{"bike_id":"845ab173-2be2-4789-bf49-87feb188569f","system_id":"levelo_inurba_marseille","lat":43.294153,"lon":5.386305,"is_reserved":false,"is_disabled":false,"rental_uris":{"android":"levelo://app?vid=845ab173-2be2-4789-bf49-87feb188569f","ios":"levelo://app?vid=845ab173-2be2-4789-bf49-87feb188569f"},"vehicle_type_id":"4","last_reported":1688069279,"current_range_meters":21200,"station_id":"ce4bh2h2rcd13ifvqdh0","pricing_plan_id":"free"},{"bike_id":"ccf6458a-865c-4172-a108-aca1366e01a9","system_id":"levelo_inurba_marseille","lat":43.294153,"lon":5.386305,"is_reserved":false,"is_disabled":false,"rental_uris":{"android":"levelo://app?vid=ccf6458a-865c-4172-a108-aca1366e01a9","ios":"levelo://app?vid=ccf6458a-865c-4172-a108-aca1366e01a9"},"vehicle_type_id":"4","last_reported":1688069279,"current_range_meters":4800,"station_id":"ce4bh2h2rcd13ifvqdh0","pricing_plan_id":"free"},{"bike_id":"59a8ce78-a04d-4f7b-8568-6dd3d0a6f498","system_id":"levelo_inurba_marseille","lat":43.29037,"lon":5.37562,"is_reserved":false,"is_disabled":false,"rental_uris":{"android":"levelo://app?vid=59a8ce78-a04d-4f7b-8568-6dd3d0a6f498","ios":"levelo://app?vid=59a8ce78-a04d-4f7b-8568-6dd3d0a6f498"},"vehicle_type_id":"4","last_reported":1688069279,"current_range_meters":7600,"station_id":"ce4bh692rcd13ifvqe90","pricing_plan_id":"free"},{"bike_id":"a2d7ab07-574d-4a41-afb5-499fd976fddd","system_id":"levelo_inurba_marseille","lat":43.294153,"lon":5.386305,"is_reserved":false,"is_disabled":false,"rental_uris":{"android":"levelo://app?vid=a2d7ab07-574d-4a41-afb5-499fd976fddd","ios":"levelo://app?vid=a2d7ab07-574d-4a41-afb5-499fd976fddd"},"vehicle_type_id":"4","last_reported":1688069279,"current_range_meters":10000,"station_id":"ce4bh2h2rcd13ifvqdh0","pricing_plan_id":"free"},{"bike_id":"b57f696f-9770-44fd-a7f1-db029d8402cc","system_id":"levelo_inurba_marseille","lat":43.29042,"lon":5.37593,"is_reserved":false,"is_disabled":false,"rental_uris":{"android":"levelo://app?vid=b57f696f-9770-44fd-a7f1-db029d8402cc","ios":"levelo://app?vid=b57f696f-9770-44fd-a7f1-db029d8402cc"},"vehicle_type_id":"4","last_reported":1688069279,"current_range_meters":8800,"station_id":"ce4bh692rcd13ifvqe90","pricing_plan_id":"free"},{"bike_id":"b1980316-f30a-4554-8caf-4bacde446165","system_id":"levelo_inurba_marseille","lat":43.294153,"lon":5.386305,"is_reserved":false,"is_disabled":false,"rental_uris":{"android":"levelo://app?vid=b1980316-f30a-4554-8caf-4bacde446165","ios":"levelo://app?vid=b1980316-f30a-4554-8caf-4bacde446165"},"vehicle_type_id":"4","last_reported":1688069279,"current_range_meters":6800,"station_id":"ce4bh2h2rcd13ifvqdh0","pricing_plan_id":"free"},{"bike_id":"17d377a5-a9b4-42d6-ba94-e7defbf12d3d","system_id":"levelo_inurba_marseille","lat":43.29411,"lon":5.38609,"is_reserved":false,"is_disabled":false,"rental_uris":{"android":"levelo://app?vid=17d377a5-a9b4-42d6-ba94-e7defbf12d3d","ios":"levelo://app?vid=17d377a5-a9b4-42d6-ba94-e7defbf12d3d"},"vehicle_type_id":"4","last_reported":1688069279,"current_range_meters":1600,"station_id":"","pricing_plan_id":"free"},{"bike_id":"901dbf74-6462-4af1-b702-aba49ac2e489","system_id":"levelo_inurba_marseille","lat":43.294153,"lon":5.386305,"is_reserved":false,"is_disabled":false,"rental_uris":{"android":"levelo://app?vid=901dbf74-6462-4af1-b702-aba49ac2e489","ios":"levelo://app?vid=901dbf74-6462-4af1-b702-aba49ac2e489"},"vehicle_type_id":"4","last_reported":1688069279,"current_range_meters":8800,"station_id":"ce4bh2h2rcd13ifvqdh0","pricing_plan_id":"free"},{"bike_id":"421f55cd-b7c1-450c-b14e-38d9d6d75389","system_id":"levelo_inurba_marseille","lat":43.294174,"lon":5.386231,"is_reserved":false,"is_disabled":false,"rental_uris":{"android":"levelo://app?vid=421f55cd-b7c1-450c-b14e-38d9d6d75389","ios":"levelo://app?vid=421f55cd-b7c1-450c-b14e-38d9d6d75389"},"vehicle_type_id":"4","last_reported":1688069279,"current_range_meters":6000,"station_id":"","pricing_plan_id":"free"},{"bike_id":"399ef6b6-bd49-40a3-a085-0dfa050cfb9f","system_id":"levelo_inurba_marseille","lat":43.29411,"lon":5.38614,"is_reserved":false,"is_disabled":false,"rental_uris":{"android":"levelo://app?vid=399ef6b6-bd49-40a3-a085-0dfa050cfb9f","ios":"levelo://app?vid=399ef6b6-bd49-40a3-a085-0dfa050cfb9f"},"vehicle_type_id":"4","last_reported":1688069279,"current_range_meters":0,"station_id":"","pricing_plan_id":"free"},{"bike_id":"7cd6877d-28ff-4364-8c2e-c29ea370fe44","system_id":"levelo_inurba_marseille","lat":43.294153,"lon":5.386305,"is_reserved":false,"is_disabled":false,"rental_uris":{"android":"levelo://app?vid=7cd6877d-28ff-4364-8c2e-c29ea370fe44","ios":"levelo://app?vid=7cd6877d-28ff-4364-8c2e-c29ea370fe44"},"vehicle_type_id":"4","last_reported":1688069279,"current_range_meters":13600,"station_id":"ce4bh2h2rcd13ifvqdh0","pricing_plan_id":"free"},{"bike_id":"70bb75cd-6370-4734-ac7c-3c55602b01c7","system_id":"levelo_inurba_marseille","lat":43.29417,"lon":5.38625,"is_reserved":false,"is_disabled":false,"rental_uris":{"android":"levelo://app?vid=70bb75cd-6370-4734-ac7c-3c55602b01c7","ios":"levelo://app?vid=70bb75cd-6370-4734-ac7c-3c55602b01c7"},"vehicle_type_id":"4","last_reported":1688069279,"current_range_meters":800,"station_id":"ce4bh2h2rcd13ifvqdh0","pricing_plan_id":"free"},{"bike_id":"36ed8017-a0ef-47c0-a0ef-de79e49508ce","system_id":"levelo_inurba_marseille","lat":43.289184,"lon":5.366408,"is_reserved":false,"is_disabled":false,"rental_uris":{"android":"levelo://app?vid=36ed8017-a0ef-47c0-a0ef-de79e49508ce","ios":"levelo://app?vid=36ed8017-a0ef-47c0-a0ef-de79e49508ce"},"vehicle_type_id":"4","last_reported":1688069279,"current_range_meters":15200,"station_id":"ce4bhap2rcd13ifvqek0","pricing_plan_id":"free"},{"bike_id":"9bd8f1c0-023c-4f37-9ca6-dddfd6174d06","system_id":"levelo_inurba_marseille","lat":43.292642,"lon":5.384254,"is_reserved":false,"is_disabled":false,"rental_uris":{"android":"levelo://app?vid=9bd8f1c0-023c-4f37-9ca6-dddfd6174d06","ios":"levelo://app?vid=9bd8f1c0-023c-4f37-9ca6-dddfd6174d06"},"vehicle_type_id":"4","last_reported":1688069279,"current_range_meters":1600,"station_id":"ce4bh692rcd13ifvqea0","pricing_plan_id":"free"},{"bike_id":"c561856a-083f-455d-bfd9-dcecbe3a56ac","system_id":"levelo_inurba_marseille","lat":43.292644,"lon":5.384257,"is_reserved":false,"is_disabled":false,"rental_uris":{"android":"levelo://app?vid=c561856a-083f-455d-bfd9-dcecbe3a56ac","ios":"levelo://app?vid=c561856a-083f-455d-bfd9-dcecbe3a56ac"},"vehicle_type_id":"4","last_reported":1688069279,"current_range_meters":6800,"station_id":"ce4bh692rcd13ifvqea0","pricing_plan_id":"free"},{"bike_id":"dde11c73-6d66-4685-8b68-5bfc68d61d41","system_id":"levelo_inurba_marseille","lat":43.29263,"lon":5.38447,"is_reserved":false,"is_disabled":false,"rental_uris":{"android":"levelo://app?vid=dde11c73-6d66-4685-8b68-5bfc68d61d41","ios":"levelo://app?vid=dde11c73-6d66-4685-8b68-5bfc68d61d41"},"vehicle_type_id":"4","last_reported":1688069279,"current_range_meters":1600,"station_id":"ce4bh692rcd13ifvqea0","pricing_plan_id":"free"},{"bike_id":"64cde654-70bd-4de0-aea3-c6fa6ec97d93","system_id":"levelo_inurba_marseille","lat":43.29263,"lon":5.38449,"is_reserved":false,"is_disabled":false,"rental_uris":{"android":"levelo://app?vid=64cde654-70bd-4de0-aea3-c6fa6ec97d93","ios":"levelo://app?vid=64cde654-70bd-4de0-aea3-c6fa6ec97d93"},"vehicle_type_id":"4","last_reported":1688069279,"current_range_meters":14000,"station_id":"ce4bh692rcd13ifvqea0","pricing_plan_id":"free"},{"bike_id":"ef36ea3c-4832-40c0-9e96-1f49e25ba520","system_id":"levelo_inurba_marseille","lat":43.29009,"lon":5.35618,"is_reserved":false,"is_disabled":false,"rental_uris":{"android":"levelo://app?vid=ef36ea3c-4832-40c0-9e96-1f49e25ba520","ios":"levelo://app?vid=ef36ea3c-4832-40c0-9e96-1f49e25ba520"},"vehicle_type_id":"4","last_reported":1688069279,"current_range_meters":31200,"station_id":"ce4bhb92rcd13ifvqen0","pricing_plan_id":"free"},{"bike_id":"f76326d0-3c61-41bc-abc9-91cb5e4b8332","system_id":"levelo_inurba_marseille","lat":43.33045,"lon":5.38918,"is_reserved":false,"is_disabled":false,"rental_uris":{"android":"levelo://app?vid=f76326d0-3c61-41bc-abc9-91cb5e4b8332","ios":"levelo://app?vid=f76326d0-3c61-41bc-abc9-91cb5e4b8332"},"vehicle_type_id":"4","last_reported":1688069279,"current_range_meters":17200,"station_id":"ce4bhr92rcd13ifvqhrg","pricing_plan_id":"free"},{"bike_id":"4953a8f9-fcb8-417f-8b50-6a5518a98f48","system_id":"levelo_inurba_marseille","lat":43.290103,"lon":5.356114,"is_reserved":false,"is_disabled":false,"rental_uris":{"android":"levelo://app?vid=4953a8f9-fcb8-417f-8b50-6a5518a98f48","ios":"levelo://app?vid=4953a8f9-fcb8-417f-8b50-6a5518a98f48"},"vehicle_type_id":"4","last_reported":1688069279,"current_range_meters":31200,"station_id":"ce4bhb92rcd13ifvqen0","pricing_plan_id":"free"},{"bike_id":"161a8ed2-ca2f-40ed-b64f-daa59afd4f43","system_id":"levelo_inurba_marseille","lat":43.290995,"lon":5.381361,"is_reserved":false,"is_disabled":false,"rental_uris":{"android":"levelo://app?vid=161a8ed2-ca2f-40ed-b64f-daa59afd4f43","ios":"levelo://app?vid=161a8ed2-ca2f-40ed-b64f-daa59afd4f43"},"vehicle_type_id":"4","last_reported":1688069279,"current_range_meters":0,"station_id":"ce4bh512rcd13ifvqe2g","pricing_plan_id":"free"},{"bike_id":"cf3918fd-a1b6-4766-864d-172ba4903854","system_id":"levelo_inurba_marseille","lat":43.295169,"lon":5.390426,"is_reserved":false,"is_disabled":false,"rental_uris":{"android":"levelo://app?vid=cf3918fd-a1b6-4766-864d-172ba4903854","ios":"levelo://app?vid=cf3918fd-a1b6-4766-864d-172ba4903854"},"vehicle_type_id":"4","last_reported":1688069279,"current_range_meters":14400,"station_id":"ce4bh3p2rcd13ifvqdp0","pricing_plan_id":"free"},{"bike_id":"1efb15ca-298e-4ef9-8fb4-6302c85606d2","system_id":"levelo_inurba_marseille","lat":43.295169,"lon":5.390426,"is_reserved":false,"is_disabled":false,"rental_uris":{"android":"levelo://app?vid=1efb15ca-298e-4ef9-8fb4-6302c85606d2","ios":"levelo://app?vid=1efb15ca-298e-4ef9-8fb4-6302c85606d2"},"vehicle_type_id":"4","last_reported":1688069279,"current_range_meters":6400,"station_id":"ce4bh3p2rcd13ifvqdp0","pricing_plan_id":"free"},{"bike_id":"7f6f0157-2c0e-4d4e-86db-917b6c99e422","system_id":"levelo_inurba_marseille","lat":43.295169,"lon":5.390426,"is_reserved":false,"is_disabled":false,"rental_uris":{"android":"levelo://app?vid=7f6f0157-2c0e-4d4e-86db-917b6c99e422","ios":"levelo://app?vid=7f6f0157-2c0e-4d4e-86db-917b6c99e422"},"vehicle_type_id":"4","last_reported":1688069279,"current_range_meters":0,"station_id":"ce4bh3p2rcd13ifvqdp0","pricing_plan_id":"free"},{"bike_id":"f15aa247-c6b2-4de4-83b9-9c1c15d85e05","system_id":"levelo_inurba_marseille","lat":43.295169,"lon":5.390426,"is_reserved":false,"is_disabled":false,"rental_uris":{"android":"levelo://app?vid=f15aa247-c6b2-4de4-83b9-9c1c15d85e05","ios":"levelo://app?vid=f15aa247-c6b2-4de4-83b9-9c1c15d85e05"},"vehicle_type_id":"4","last_reported":1688069279,"current_range_meters":8000,"station_id":"ce4bh3p2rcd13ifvqdp0","pricing_plan_id":"free"},{"bike_id":"2654068a-e91d-4665-a12f-08c2a5a2c984","system_id":"levelo_inurba_marseille","lat":43.2901,"lon":5.381269,"is_reserved":false,"is_disabled":false,"rental_uris":{"android":"levelo://app?vid=2654068a-e91d-4665-a12f-08c2a5a2c984","ios":"levelo://app?vid=2654068a-e91d-4665-a12f-08c2a5a2c984"},"vehicle_type_id":"4","last_reported":1688069279,"current_range_meters":0,"station_id":"ce4bh4p2rcd13ifvqe1g","pricing_plan_id":"free"},{"bike_id":"50addb93-59ca-464f-9bd3-af34b1190966","system_id":"levelo_inurba_marseille","lat":43.33732,"lon":5.37399,"is_reserved":false,"is_disabled":false,"rental_uris":{"android":"levelo://app?vid=50addb93-59ca-464f-9bd3-af34b1190966","ios":"levelo://app?vid=50addb93-59ca-464f-9bd3-af34b1190966"},"vehicle_type_id":"4","last_reported":1688069279,"current_range_meters":28800,"station_id":"","pricing_plan_id":"free"},{"bike_id":"1dceff81-53d3-4baa-979e-335988344bb4","system_id":"levelo_inurba_marseille","lat":43.309371,"lon":5.401449,"is_reserved":false,"is_disabled":false,"rental_uris":{"android":"levelo://app?vid=1dceff81-53d3-4baa-979e-335988344bb4","ios":"levelo://app?vid=1dceff81-53d3-4baa-979e-335988344bb4"},"vehicle_type_id":"4","last_reported":1688069279,"current_range_meters":800,"station_id":"ce4bgvp2rcd13ifvqct0","pricing_plan_id":"free"},{"bike_id":"b8bf73c4-9484-46f1-97b5-8575db35b481","system_id":"levelo_inurba_marseille","lat":43.33743,"lon":5.37473,"is_reserved":false,"is_disabled":false,"rental_uris":{"android":"levelo://app?vid=b8bf73c4-9484-46f1-97b5-8575db35b481","ios":"levelo://app?vid=b8bf73c4-9484-46f1-97b5-8575db35b481"},"vehicle_type_id":"4","last_reported":1688069279,"current_range_meters":29600,"station_id":"","pricing_plan_id":"free"},{"bike_id":"d1d48dbc-bef7-4f0a-ac87-eeefad6e13c7","system_id":"levelo_inurba_marseille","lat":43.33741,"lon":5.37489,"is_reserved":false,"is_disabled":false,"rental_uris":{"android":"levelo://app?vid=d1d48dbc-bef7-4f0a-ac87-eeefad6e13c7","ios":"levelo://app?vid=d1d48dbc-bef7-4f0a-ac87-eeefad6e13c7"},"vehicle_type_id":"4","last_reported":1688069279,"current_range_meters":12000,"station_id":"","pricing_plan_id":"free"},{"bike_id":"b152602a-aaa7-4eed-93ba-89050d9c58ba","system_id":"levelo_inurba_marseille","lat":43.3067,"lon":5.40078,"is_reserved":false,"is_disabled":false,"rental_uris":{"android":"levelo://app?vid=b152602a-aaa7-4eed-93ba-89050d9c58ba","ios":"levelo://app?vid=b152602a-aaa7-4eed-93ba-89050d9c58ba"},"vehicle_type_id":"4","last_reported":1688069279,"current_range_meters":18400,"station_id":"","pricing_plan_id":"free"},{"bike_id":"476cd57c-2e9c-4f0d-a086-f93a7e3396f6","system_id":"levelo_inurba_marseille","lat":43.337516,"lon":5.374747,"is_reserved":false,"is_disabled":false,"rental_uris":{"android":"levelo://app?vid=476cd57c-2e9c-4f0d-a086-f93a7e3396f6","ios":"levelo://app?vid=476cd57c-2e9c-4f0d-a086-f93a7e3396f6"},"vehicle_type_id":"4","last_reported":1688069279,"current_range_meters":23600,"station_id":"","pricing_plan_id":"free"},{"bike_id":"878de226-7887-48e2-80c4-2591c6e8b218","system_id":"levelo_inurba_marseille","lat":43.33763,"lon":5.37441,"is_reserved":false,"is_disabled":false,"rental_uris":{"android":"levelo://app?vid=878de226-7887-48e2-80c4-2591c6e8b218","ios":"levelo://app?vid=878de226-7887-48e2-80c4-2591c6e8b218"},"vehicle_type_id":"4","last_reported":1688069279,"current_range_meters":27600,"station_id":"","pricing_plan_id":"free"},{"bike_id":"58b088c5-bfe0-43d9-a80c-639a90663698","system_id":"levelo_inurba_marseille","lat":43.298681,"lon":5.397225,"is_reserved":false,"is_disabled":false,"rental_uris":{"android":"levelo://app?vid=58b088c5-bfe0-43d9-a80c-639a90663698","ios":"levelo://app?vid=58b088c5-bfe0-43d9-a80c-639a90663698"},"vehicle_type_id":"4","last_reported":1688069279,"current_range_meters":2400,"station_id":"ce4bh0h2rcd13ifvqd50","pricing_plan_id":"free"},{"bike_id":"73ce7ea3-277c-4ac9-a6f1-cab785a7acd6","system_id":"levelo_inurba_marseille","lat":43.28703,"lon":5.37388,"is_reserved":false,"is_disabled":false,"rental_uris":{"android":"levelo://app?vid=73ce7ea3-277c-4ac9-a6f1-cab785a7acd6","ios":"levelo://app?vid=73ce7ea3-277c-4ac9-a6f1-cab785a7acd6"},"vehicle_type_id":"4","last_reported":1688069279,"current_range_meters":14000,"station_id":"ce4bh3p2rcd13ifvqdq0","pricing_plan_id":"free"},{"bike_id":"38b7cea6-08ac-4840-b4b9-43ae8f053fe8","system_id":"levelo_inurba_marseille","lat":43.28702,"lon":5.37388,"is_reserved":false,"is_disabled":false,"rental_uris":{"android":"levelo://app?vid=38b7cea6-08ac-4840-b4b9-43ae8f053fe8","ios":"levelo://app?vid=38b7cea6-08ac-4840-b4b9-43ae8f053fe8"},"vehicle_type_id":"4","last_reported":1688069279,"current_range_meters":18400,"station_id":"ce4bh3p2rcd13ifvqdq0","pricing_plan_id":"free"},{"bike_id":"50b1c8c4-b5c1-4d0f-8bea-3433f574e02d","system_id":"levelo_inurba_marseille","lat":43.295196,"lon":5.39397,"is_reserved":false,"is_disabled":false,"rental_uris":{"android":"levelo://app?vid=50b1c8c4-b5c1-4d0f-8bea-3433f574e02d","ios":"levelo://app?vid=50b1c8c4-b5c1-4d0f-8bea-3433f574e02d"},"vehicle_type_id":"4","last_reported":1688069279,"current_range_meters":6400,"station_id":"ce4bh292rcd13ifvqdf0","pricing_plan_id":"free"},{"bike_id":"a45c1161-f0d7-4a82-841f-ac242997af46","system_id":"levelo_inurba_marseille","lat":43.295194,"lon":5.39397,"is_reserved":false,"is_disabled":false,"rental_uris":{"android":"levelo://app?vid=a45c1161-f0d7-4a82-841f-ac242997af46","ios":"levelo://app?vid=a45c1161-f0d7-4a82-841f-ac242997af46"},"vehicle_type_id":"4","last_reported":1688069279,"current_range_meters":0,"station_id":"ce4bh292rcd13ifvqdf0","pricing_plan_id":"free"},{"bike_id":"e7050712-be47-482d-9b5d-eba80e79fc00","system_id":"levelo_inurba_marseille","lat":43.290336,"lon":5.386425,"is_reserved":false,"is_disabled":false,"rental_uris":{"android":"levelo://app?vid=e7050712-be47-482d-9b5d-eba80e79fc00","ios":"levelo://app?vid=e7050712-be47-482d-9b5d-eba80e79fc00"},"vehicle_type_id":"4","last_reported":1688069279,"current_range_meters":2400,"station_id":"ce4bh4p2rcd13ifvqe0g","pricing_plan_id":"free"},{"bike_id":"4034e719-a00f-4972-91d7-b1da103398e1","system_id":"levelo_inurba_marseille","lat":43.290336,"lon":5.386425,"is_reserved":false,"is_disabled":false,"rental_uris":{"android":"levelo://app?vid=4034e719-a00f-4972-91d7-b1da103398e1","ios":"levelo://app?vid=4034e719-a00f-4972-91d7-b1da103398e1"},"vehicle_type_id":"4","last_reported":1688069279,"current_range_meters":4000,"station_id":"ce4bh4p2rcd13ifvqe0g","pricing_plan_id":"free"},{"bike_id":"a6237ef2-99d2-4670-84e7-e03666d856b1","system_id":"levelo_inurba_marseille","lat":43.290336,"lon":5.386425,"is_reserved":false,"is_disabled":false,"rental_uris":{"android":"levelo://app?vid=a6237ef2-99d2-4670-84e7-e03666d856b1","ios":"levelo://app?vid=a6237ef2-99d2-4670-84e7-e03666d856b1"},"vehicle_type_id":"4","last_reported":1688069279,"current_range_meters":6800,"station_id":"ce4bh4p2rcd13ifvqe0g","pricing_plan_id":"free"},{"bike_id":"2225cdaa-db59-439e-ad76-aa915af230ca","system_id":"levelo_inurba_marseille","lat":43.302759,"lon":5.400793,"is_reserved":false,"is_disabled":false,"rental_uris":{"android":"levelo://app?vid=2225cdaa-db59-439e-ad76-aa915af230ca","ios":"levelo://app?vid=2225cdaa-db59-439e-ad76-aa915af230ca"},"vehicle_type_id":"4","last_reported":1688069279,"current_range_meters":16400,"station_id":"ce4bgvh2rcd13ifvqcs0","pricing_plan_id":"free"},{"bike_id":"a8b1edc5-9a88-46ef-9be0-ec1985ca439a","system_id":"levelo_inurba_marseille","lat":43.28921,"lon":5.38413,"is_reserved":false,"is_disabled":false,"rental_uris":{"android":"levelo://app?vid=a8b1edc5-9a88-46ef-9be0-ec1985ca439a","ios":"levelo://app?vid=a8b1edc5-9a88-46ef-9be0-ec1985ca439a"},"vehicle_type_id":"4","last_reported":1688069279,"current_range_meters":13600,"station_id":"","pricing_plan_id":"free"},{"bike_id":"6515c3ff-7d07-46fc-8e5e-d9a8c4c3a412","system_id":"levelo_inurba_marseille","lat":43.30316,"lon":5.40112,"is_reserved":false,"is_disabled":false,"rental_uris":{"android":"levelo://app?vid=6515c3ff-7d07-46fc-8e5e-d9a8c4c3a412","ios":"levelo://app?vid=6515c3ff-7d07-46fc-8e5e-d9a8c4c3a412"},"vehicle_type_id":"4","last_reported":1688069279,"current_range_meters":25600,"station_id":"","pricing_plan_id":"free"},{"bike_id":"43e9e044-7fcc-4bd9-8f7c-d1625468471b","system_id":"levelo_inurba_marseille","lat":43.31648,"lon":5.40438,"is_reserved":false,"is_disabled":false,"rental_uris":{"android":"levelo://app?vid=43e9e044-7fcc-4bd9-8f7c-d1625468471b","ios":"levelo://app?vid=43e9e044-7fcc-4bd9-8f7c-d1625468471b"},"vehicle_type_id":"4","last_reported":1688069279,"current_range_meters":0,"station_id":"ce4bh012rcd13ifvqd00","pricing_plan_id":"free"},{"bike_id":"d69fed3a-efe9-46fb-b1dc-1240b8978d3e","system_id":"levelo_inurba_marseille","lat":43.316517,"lon":5.404375,"is_reserved":false,"is_disabled":false,"rental_uris":{"android":"levelo://app?vid=d69fed3a-efe9-46fb-b1dc-1240b8978d3e","ios":"levelo://app?vid=d69fed3a-efe9-46fb-b1dc-1240b8978d3e"},"vehicle_type_id":"4","last_reported":1688069279,"current_range_meters":20400,"station_id":"ce4bh012rcd13ifvqd00","pricing_plan_id":"free"},{"bike_id":"282d9948-0526-48c9-bc00-a514dda7505c","system_id":"levelo_inurba_marseille","lat":43.284534,"lon":5.358662,"is_reserved":false,"is_disabled":false,"rental_uris":{"android":"levelo://app?vid=282d9948-0526-48c9-bc00-a514dda7505c","ios":"levelo://app?vid=282d9948-0526-48c9-bc00-a514dda7505c"},"vehicle_type_id":"4","last_reported":1688069279,"current_range_meters":16000,"station_id":"ce4bhah2rcd13ifvqei0","pricing_plan_id":"free"},{"bike_id":"1e1e1b6a-4356-4e4b-9c17-dbf71e1a5363","system_id":"levelo_inurba_marseille","lat":43.283998,"lon":5.375062,"is_reserved":false,"is_disabled":false,"rental_uris":{"android":"levelo://app?vid=1e1e1b6a-4356-4e4b-9c17-dbf71e1a5363","ios":"levelo://app?vid=1e1e1b6a-4356-4e4b-9c17-dbf71e1a5363"},"vehicle_type_id":"4","last_reported":1688069279,"current_range_meters":0,"station_id":"ce4bh412rcd13ifvqds0","pricing_plan_id":"free"},{"bike_id":"91402364-4e0c-485a-974a-c5477bc1d5d2","system_id":"levelo_inurba_marseille","lat":43.283998,"lon":5.375062,"is_reserved":false,"is_disabled":false,"rental_uris":{"android":"levelo://app?vid=91402364-4e0c-485a-974a-c5477bc1d5d2","ios":"levelo://app?vid=91402364-4e0c-485a-974a-c5477bc1d5d2"},"vehicle_type_id":"4","last_reported":1688069279,"current_range_meters":26800,"station_id":"ce4bh412rcd13ifvqds0","pricing_plan_id":"free"},{"bike_id":"c6ba6d26-b332-4620-a889-eb60c6548c03","system_id":"levelo_inurba_marseille","lat":43.29574,"lon":5.39972,"is_reserved":false,"is_disabled":false,"rental_uris":{"android":"levelo://app?vid=c6ba6d26-b332-4620-a889-eb60c6548c03","ios":"levelo://app?vid=c6ba6d26-b332-4620-a889-eb60c6548c03"},"vehicle_type_id":"4","last_reported":1688069279,"current_range_meters":1600,"station_id":"ce4bh312rcd13ifvqdj0","pricing_plan_id":"free"},{"bike_id":"21d65810-346d-49d7-8636-e32b1b7d8152","system_id":"levelo_inurba_marseille","lat":43.295713,"lon":5.399639,"is_reserved":false,"is_disabled":false,"rental_uris":{"android":"levelo://app?vid=21d65810-346d-49d7-8636-e32b1b7d8152","ios":"levelo://app?vid=21d65810-346d-49d7-8636-e32b1b7d8152"},"vehicle_type_id":"4","last_reported":1688069279,"current_range_meters":14400,"station_id":"ce4bh312rcd13ifvqdj0","pricing_plan_id":"free"},{"bike_id":"5088ead8-4f85-4321-824c-9ea8ddb744dd","system_id":"levelo_inurba_marseille","lat":43.2957,"lon":5.39976,"is_reserved":false,"is_disabled":false,"rental_uris":{"android":"levelo://app?vid=5088ead8-4f85-4321-824c-9ea8ddb744dd","ios":"levelo://app?vid=5088ead8-4f85-4321-824c-9ea8ddb744dd"},"vehicle_type_id":"4","last_reported":1688069279,"current_range_meters":4000,"station_id":"ce4bh312rcd13ifvqdj0","pricing_plan_id":"free"},{"bike_id":"e4fcd1c8-1de2-483a-9c11-f068dffc9bdf","system_id":"levelo_inurba_marseille","lat":43.295713,"lon":5.399639,"is_reserved":false,"is_disabled":false,"rental_uris":{"android":"levelo://app?vid=e4fcd1c8-1de2-483a-9c11-f068dffc9bdf","ios":"levelo://app?vid=e4fcd1c8-1de2-483a-9c11-f068dffc9bdf"},"vehicle_type_id":"4","last_reported":1688069279,"current_range_meters":4800,"station_id":"ce4bh312rcd13ifvqdj0","pricing_plan_id":"free"},{"bike_id":"c43b8d5b-f8f0-47fb-8798-f13dad216ccf","system_id":"levelo_inurba_marseille","lat":43.295713,"lon":5.399639,"is_reserved":false,"is_disabled":false,"rental_uris":{"android":"levelo://app?vid=c43b8d5b-f8f0-47fb-8798-f13dad216ccf","ios":"levelo://app?vid=c43b8d5b-f8f0-47fb-8798-f13dad216ccf"},"vehicle_type_id":"4","last_reported":1688069279,"current_range_meters":19200,"station_id":"ce4bh312rcd13ifvqdj0","pricing_plan_id":"free"},{"bike_id":"4611e88c-ec3e-4b09-83b7-9cffd321f0aa","system_id":"levelo_inurba_marseille","lat":43.28396,"lon":5.37518,"is_reserved":false,"is_disabled":false,"rental_uris":{"android":"levelo://app?vid=4611e88c-ec3e-4b09-83b7-9cffd321f0aa","ios":"levelo://app?vid=4611e88c-ec3e-4b09-83b7-9cffd321f0aa"},"vehicle_type_id":"4","last_reported":1688069279,"current_range_meters":5200,"station_id":"ce4bh412rcd13ifvqds0","pricing_plan_id":"free"},{"bike_id":"a201198d-dbec-431d-a640-142096d571ef","system_id":"levelo_inurba_marseille","lat":43.295713,"lon":5.399639,"is_reserved":false,"is_disabled":false,"rental_uris":{"android":"levelo://app?vid=a201198d-dbec-431d-a640-142096d571ef","ios":"levelo://app?vid=a201198d-dbec-431d-a640-142096d571ef"},"vehicle_type_id":"4","last_reported":1688069279,"current_range_meters":2800,"station_id":"ce4bh312rcd13ifvqdj0","pricing_plan_id":"free"},{"bike_id":"b4c950db-352f-4a1a-8e3c-c05101a6dad0","system_id":"levelo_inurba_marseille","lat":43.28805,"lon":5.39154,"is_reserved":false,"is_disabled":false,"rental_uris":{"android":"levelo://app?vid=b4c950db-352f-4a1a-8e3c-c05101a6dad0","ios":"levelo://app?vid=b4c950db-352f-4a1a-8e3c-c05101a6dad0"},"vehicle_type_id":"4","last_reported":1688069279,"current_range_meters":29200,"station_id":"","pricing_plan_id":"free"},{"bike_id":"8525491f-3db0-400c-9669-dc39652966d2","system_id":"levelo_inurba_marseille","lat":43.3234,"lon":5.40623,"is_reserved":false,"is_disabled":false,"rental_uris":{"android":"levelo://app?vid=8525491f-3db0-400c-9669-dc39652966d2","ios":"levelo://app?vid=8525491f-3db0-400c-9669-dc39652966d2"},"vehicle_type_id":"4","last_reported":1688069279,"current_range_meters":29200,"station_id":"ce4bhq92rcd13ifvqhjg","pricing_plan_id":"free"},{"bike_id":"b13a222a-d0e9-4924-8022-bd6ef84987f7","system_id":"levelo_inurba_marseille","lat":43.28479,"lon":5.38417,"is_reserved":false,"is_disabled":false,"rental_uris":{"android":"levelo://app?vid=b13a222a-d0e9-4924-8022-bd6ef84987f7","ios":"levelo://app?vid=b13a222a-d0e9-4924-8022-bd6ef84987f7"},"vehicle_type_id":"4","last_reported":1688069279,"current_range_meters":0,"station_id":"ce4bh512rcd13ifvqe3g","pricing_plan_id":"free"},{"bike_id":"40265de3-3a11-49a7-8206-7e7d7ca77493","system_id":"levelo_inurba_marseille","lat":43.28861,"lon":5.39312,"is_reserved":false,"is_disabled":false,"rental_uris":{"android":"levelo://app?vid=40265de3-3a11-49a7-8206-7e7d7ca77493","ios":"levelo://app?vid=40265de3-3a11-49a7-8206-7e7d7ca77493"},"vehicle_type_id":"4","last_reported":1688069279,"current_range_meters":0,"station_id":"ce4bh2p2rcd13ifvqdi0","pricing_plan_id":"free"},{"bike_id":"aae440d6-d1f8-4462-a267-9c45c146eb72","system_id":"levelo_inurba_marseille","lat":43.283494,"lon":5.380945,"is_reserved":false,"is_disabled":false,"rental_uris":{"android":"levelo://app?vid=aae440d6-d1f8-4462-a267-9c45c146eb72","ios":"levelo://app?vid=aae440d6-d1f8-4462-a267-9c45c146eb72"},"vehicle_type_id":"4","last_reported":1688069279,"current_range_meters":15600,"station_id":"ce4bh412rcd13ifvqdr0","pricing_plan_id":"free"},{"bike_id":"a31a35a5-e61f-4317-9391-7f19d8fcfbcd","system_id":"levelo_inurba_marseille","lat":43.28426,"lon":5.34992,"is_reserved":false,"is_disabled":false,"rental_uris":{"android":"levelo://app?vid=a31a35a5-e61f-4317-9391-7f19d8fcfbcd","ios":"levelo://app?vid=a31a35a5-e61f-4317-9391-7f19d8fcfbcd"},"vehicle_type_id":"4","last_reported":1688069279,"current_range_meters":0,"station_id":"ce4bhbh2rcd13ifvqepg","pricing_plan_id":"free"},{"bike_id":"48e71c17-1186-4e0a-88ee-63bed1ad3741","system_id":"levelo_inurba_marseille","lat":43.289363,"lon":5.396322,"is_reserved":false,"is_disabled":false,"rental_uris":{"android":"levelo://app?vid=48e71c17-1186-4e0a-88ee-63bed1ad3741","ios":"levelo://app?vid=48e71c17-1186-4e0a-88ee-63bed1ad3741"},"vehicle_type_id":"4","last_reported":1688069279,"current_range_meters":1600,"station_id":"ce4bh3h2rcd13ifvqdn0","pricing_plan_id":"free"},{"bike_id":"3fff2d40-801d-4697-b3f6-bea146ad5073","system_id":"levelo_inurba_marseille","lat":43.292724,"lon":5.401131,"is_reserved":false,"is_disabled":false,"rental_uris":{"android":"levelo://app?vid=3fff2d40-801d-4697-b3f6-bea146ad5073","ios":"levelo://app?vid=3fff2d40-801d-4697-b3f6-bea146ad5073"},"vehicle_type_id":"4","last_reported":1688069279,"current_range_meters":23600,"station_id":"ce4bh312rcd13ifvqdk0","pricing_plan_id":"free"},{"bike_id":"cfb0978e-04d6-464b-a07b-c87454097baa","system_id":"levelo_inurba_marseille","lat":43.292724,"lon":5.401131,"is_reserved":false,"is_disabled":false,"rental_uris":{"android":"levelo://app?vid=cfb0978e-04d6-464b-a07b-c87454097baa","ios":"levelo://app?vid=cfb0978e-04d6-464b-a07b-c87454097baa"},"vehicle_type_id":"4","last_reported":1688069279,"current_range_meters":4400,"station_id":"ce4bh312rcd13ifvqdk0","pricing_plan_id":"free"},{"bike_id":"ed65ec24-7f68-4a5e-a916-ceccdd398938","system_id":"levelo_inurba_marseille","lat":43.280382,"lon":5.369291,"is_reserved":false,"is_disabled":false,"rental_uris":{"android":"levelo://app?vid=ed65ec24-7f68-4a5e-a916-ceccdd398938","ios":"levelo://app?vid=ed65ec24-7f68-4a5e-a916-ceccdd398938"},"vehicle_type_id":"4","last_reported":1688069279,"current_range_meters":25600,"station_id":"ce4bha12rcd13ifvqef0","pricing_plan_id":"free"},{"bike_id":"a9f24c53-837c-4535-a794-d7844d406247","system_id":"levelo_inurba_marseille","lat":43.283502,"lon":5.386471,"is_reserved":false,"is_disabled":false,"rental_uris":{"android":"levelo://app?vid=a9f24c53-837c-4535-a794-d7844d406247","ios":"levelo://app?vid=a9f24c53-837c-4535-a794-d7844d406247"},"vehicle_type_id":"4","last_reported":1688069279,"current_range_meters":21200,"station_id":"ce4bh492rcd13ifvqdvg","pricing_plan_id":"free"},{"bike_id":"195d1d6b-d216-4457-bb34-c680173b6167","system_id":"levelo_inurba_marseille","lat":43.28039,"lon":5.369297,"is_reserved":false,"is_disabled":false,"rental_uris":{"android":"levelo://app?vid=195d1d6b-d216-4457-bb34-c680173b6167","ios":"levelo://app?vid=195d1d6b-d216-4457-bb34-c680173b6167"},"vehicle_type_id":"4","last_reported":1688069279,"current_range_meters":31200,"station_id":"ce4bha12rcd13ifvqef0","pricing_plan_id":"free"},{"bike_id":"fcf946da-a137-40e2-ada8-0c57191ffaf3","system_id":"levelo_inurba_marseille","lat":43.290412,"lon":5.399633,"is_reserved":false,"is_disabled":false,"rental_uris":{"android":"levelo://app?vid=fcf946da-a137-40e2-ada8-0c57191ffaf3","ios":"levelo://app?vid=fcf946da-a137-40e2-ada8-0c57191ffaf3"},"vehicle_type_id":"4","last_reported":1688069279,"current_range_meters":0,"station_id":"ce4bh392rcd13ifvqdm0","pricing_plan_id":"free"},{"bike_id":"2e077eef-d27d-4e2a-85bf-f3d8a9df1422","system_id":"levelo_inurba_marseille","lat":43.281044,"lon":5.378308,"is_reserved":false,"is_disabled":false,"rental_uris":{"android":"levelo://app?vid=2e077eef-d27d-4e2a-85bf-f3d8a9df1422","ios":"levelo://app?vid=2e077eef-d27d-4e2a-85bf-f3d8a9df1422"},"vehicle_type_id":"4","last_reported":1688069279,"current_range_meters":12800,"station_id":"ce4bha12rcd13ifvqee0","pricing_plan_id":"free"},{"bike_id":"65f4ca5a-4b70-40cc-9b33-14a4b4ba530d","system_id":"levelo_inurba_marseille","lat":43.281044,"lon":5.378308,"is_reserved":false,"is_disabled":false,"rental_uris":{"android":"levelo://app?vid=65f4ca5a-4b70-40cc-9b33-14a4b4ba530d","ios":"levelo://app?vid=65f4ca5a-4b70-40cc-9b33-14a4b4ba530d"},"vehicle_type_id":"4","last_reported":1688069279,"current_range_meters":22000,"station_id":"ce4bha12rcd13ifvqee0","pricing_plan_id":"free"},{"bike_id":"3e814ff5-05de-468f-8622-4d72c0f726dd","system_id":"levelo_inurba_marseille","lat":43.281044,"lon":5.378308,"is_reserved":false,"is_disabled":false,"rental_uris":{"android":"levelo://app?vid=3e814ff5-05de-468f-8622-4d72c0f726dd","ios":"levelo://app?vid=3e814ff5-05de-468f-8622-4d72c0f726dd"},"vehicle_type_id":"4","last_reported":1688069279,"current_range_meters":0,"station_id":"ce4bha12rcd13ifvqee0","pricing_plan_id":"free"},{"bike_id":"3560168f-b9db-41ef-b4e3-d614ad2b246a","system_id":"levelo_inurba_marseille","lat":43.281044,"lon":5.378308,"is_reserved":false,"is_disabled":false,"rental_uris":{"android":"levelo://app?vid=3560168f-b9db-41ef-b4e3-d614ad2b246a","ios":"levelo://app?vid=3560168f-b9db-41ef-b4e3-d614ad2b246a"},"vehicle_type_id":"4","last_reported":1688069279,"current_range_meters":30400,"station_id":"ce4bha12rcd13ifvqee0","pricing_plan_id":"free"},{"bike_id":"5489f068-082c-40e7-bdca-26d91f9808c2","system_id":"levelo_inurba_marseille","lat":43.281044,"lon":5.378308,"is_reserved":false,"is_disabled":false,"rental_uris":{"android":"levelo://app?vid=5489f068-082c-40e7-bdca-26d91f9808c2","ios":"levelo://app?vid=5489f068-082c-40e7-bdca-26d91f9808c2"},"vehicle_type_id":"4","last_reported":1688069279,"current_range_meters":10000,"station_id":"ce4bha12rcd13ifvqee0","pricing_plan_id":"free"},{"bike_id":"e44fc683-7ea7-4b81-af8f-4ac47702255f","system_id":"levelo_inurba_marseille","lat":43.281044,"lon":5.378308,"is_reserved":false,"is_disabled":false,"rental_uris":{"android":"levelo://app?vid=e44fc683-7ea7-4b81-af8f-4ac47702255f","ios":"levelo://app?vid=e44fc683-7ea7-4b81-af8f-4ac47702255f"},"vehicle_type_id":"4","last_reported":1688069279,"current_range_meters":26400,"station_id":"ce4bha12rcd13ifvqee0","pricing_plan_id":"free"},{"bike_id":"e29b4fca-025c-4f9e-bde9-af199aa780c7","system_id":"levelo_inurba_marseille","lat":43.281044,"lon":5.378308,"is_reserved":false,"is_disabled":false,"rental_uris":{"android":"levelo://app?vid=e29b4fca-025c-4f9e-bde9-af199aa780c7","ios":"levelo://app?vid=e29b4fca-025c-4f9e-bde9-af199aa780c7"},"vehicle_type_id":"4","last_reported":1688069279,"current_range_meters":10800,"station_id":"ce4bha12rcd13ifvqee0","pricing_plan_id":"free"},{"bike_id":"bf02bee8-7a22-477e-a238-9f722a4ad3e4","system_id":"levelo_inurba_marseille","lat":43.281044,"lon":5.378308,"is_reserved":false,"is_disabled":false,"rental_uris":{"android":"levelo://app?vid=bf02bee8-7a22-477e-a238-9f722a4ad3e4","ios":"levelo://app?vid=bf02bee8-7a22-477e-a238-9f722a4ad3e4"},"vehicle_type_id":"4","last_reported":1688069279,"current_range_meters":20800,"station_id":"ce4bha12rcd13ifvqee0","pricing_plan_id":"free"},{"bike_id":"33066033-4b6b-4d57-8001-ba9e3be99e26","system_id":"levelo_inurba_marseille","lat":43.33079,"lon":5.40571,"is_reserved":false,"is_disabled":false,"rental_uris":{"android":"levelo://app?vid=33066033-4b6b-4d57-8001-ba9e3be99e26","ios":"levelo://app?vid=33066033-4b6b-4d57-8001-ba9e3be99e26"},"vehicle_type_id":"4","last_reported":1688069279,"current_range_meters":19200,"station_id":"","pricing_plan_id":"free"},{"bike_id":"c8e6ce45-f2b5-4772-a564-3c2039eea91a","system_id":"levelo_inurba_marseille","lat":43.33081,"lon":5.4057,"is_reserved":false,"is_disabled":false,"rental_uris":{"android":"levelo://app?vid=c8e6ce45-f2b5-4772-a564-3c2039eea91a","ios":"levelo://app?vid=c8e6ce45-f2b5-4772-a564-3c2039eea91a"},"vehicle_type_id":"4","last_reported":1688069279,"current_range_meters":1200,"station_id":"","pricing_plan_id":"free"},{"bike_id":"743fede5-e0b4-4287-b696-eb8002083cdc","system_id":"levelo_inurba_marseille","lat":43.28043,"lon":5.35337,"is_reserved":false,"is_disabled":false,"rental_uris":{"android":"levelo://app?vid=743fede5-e0b4-4287-b696-eb8002083cdc","ios":"levelo://app?vid=743fede5-e0b4-4287-b696-eb8002083cdc"},"vehicle_type_id":"4","last_reported":1688069279,"current_range_meters":28400,"station_id":"","pricing_plan_id":"free"},{"bike_id":"75e62f2c-3bde-47ca-a807-bb91af3cf853","system_id":"levelo_inurba_marseille","lat":43.28573,"lon":5.394992,"is_reserved":false,"is_disabled":false,"rental_uris":{"android":"levelo://app?vid=75e62f2c-3bde-47ca-a807-bb91af3cf853","ios":"levelo://app?vid=75e62f2c-3bde-47ca-a807-bb91af3cf853"},"vehicle_type_id":"4","last_reported":1688069279,"current_range_meters":3600,"station_id":"ce4bh292rcd13ifvqdg0","pricing_plan_id":"free"},{"bike_id":"0c9eee73-532e-4f1f-8b23-5a0693e22298","system_id":"levelo_inurba_marseille","lat":43.326605,"lon":5.409903,"is_reserved":false,"is_disabled":false,"rental_uris":{"android":"levelo://app?vid=0c9eee73-532e-4f1f-8b23-5a0693e22298","ios":"levelo://app?vid=0c9eee73-532e-4f1f-8b23-5a0693e22298"},"vehicle_type_id":"4","last_reported":1688069279,"current_range_meters":20800,"station_id":"ce4bhpp2rcd13ifvqhgg","pricing_plan_id":"free"},{"bike_id":"8b00412f-210e-46c3-b74e-da19348ae05d","system_id":"levelo_inurba_marseille","lat":43.304188,"lon":5.412904,"is_reserved":false,"is_disabled":false,"rental_uris":{"android":"levelo://app?vid=8b00412f-210e-46c3-b74e-da19348ae05d","ios":"levelo://app?vid=8b00412f-210e-46c3-b74e-da19348ae05d"},"vehicle_type_id":"4","last_reported":1688069279,"current_range_meters":25200,"station_id":"ce4bhop2rcd13ifvqh8g","pricing_plan_id":"free"},{"bike_id":"46590801-eac8-4f9b-9464-bf144ca65681","system_id":"levelo_inurba_marseille","lat":43.279087,"lon":5.380114,"is_reserved":false,"is_disabled":false,"rental_uris":{"android":"levelo://app?vid=46590801-eac8-4f9b-9464-bf144ca65681","ios":"levelo://app?vid=46590801-eac8-4f9b-9464-bf144ca65681"},"vehicle_type_id":"4","last_reported":1688069279,"current_range_meters":26800,"station_id":"ce4bhf92rcd13ifvqf50","pricing_plan_id":"free"},{"bike_id":"d3747123-f96b-4492-b43c-fcd23af85eb1","system_id":"levelo_inurba_marseille","lat":43.287154,"lon":5.399979,"is_reserved":false,"is_disabled":false,"rental_uris":{"android":"levelo://app?vid=d3747123-f96b-4492-b43c-fcd23af85eb1","ios":"levelo://app?vid=d3747123-f96b-4492-b43c-fcd23af85eb1"},"vehicle_type_id":"4","last_reported":1688069279,"current_range_meters":28400,"station_id":"ce4bho92rcd13ifvqh3g","pricing_plan_id":"free"},{"bike_id":"50fd953c-9754-45f4-aec7-ae52bb9eb6fe","system_id":"levelo_inurba_marseille","lat":43.287154,"lon":5.399979,"is_reserved":false,"is_disabled":false,"rental_uris":{"android":"levelo://app?vid=50fd953c-9754-45f4-aec7-ae52bb9eb6fe","ios":"levelo://app?vid=50fd953c-9754-45f4-aec7-ae52bb9eb6fe"},"vehicle_type_id":"4","last_reported":1688069279,"current_range_meters":31600,"station_id":"ce4bho92rcd13ifvqh3g","pricing_plan_id":"free"},{"bike_id":"b3c100f5-58e2-40e3-8980-bddc936a05ca","system_id":"levelo_inurba_marseille","lat":43.287154,"lon":5.399979,"is_reserved":false,"is_disabled":false,"rental_uris":{"android":"levelo://app?vid=b3c100f5-58e2-40e3-8980-bddc936a05ca","ios":"levelo://app?vid=b3c100f5-58e2-40e3-8980-bddc936a05ca"},"vehicle_type_id":"4","last_reported":1688069279,"current_range_meters":23600,"station_id":"ce4bho92rcd13ifvqh3g","pricing_plan_id":"free"},{"bike_id":"74832acd-a991-40e4-9fd7-8d1a94069571","system_id":"levelo_inurba_marseille","lat":43.287154,"lon":5.399979,"is_reserved":false,"is_disabled":false,"rental_uris":{"android":"levelo://app?vid=74832acd-a991-40e4-9fd7-8d1a94069571","ios":"levelo://app?vid=74832acd-a991-40e4-9fd7-8d1a94069571"},"vehicle_type_id":"4","last_reported":1688069279,"current_range_meters":0,"station_id":"ce4bho92rcd13ifvqh3g","pricing_plan_id":"free"},{"bike_id":"7578ef9b-e803-460d-b53f-64954ebff89a","system_id":"levelo_inurba_marseille","lat":43.287154,"lon":5.399979,"is_reserved":false,"is_disabled":false,"rental_uris":{"android":"levelo://app?vid=7578ef9b-e803-460d-b53f-64954ebff89a","ios":"levelo://app?vid=7578ef9b-e803-460d-b53f-64954ebff89a"},"vehicle_type_id":"4","last_reported":1688069279,"current_range_meters":17600,"station_id":"ce4bho92rcd13ifvqh3g","pricing_plan_id":"free"},{"bike_id":"7529a321-656c-4546-a881-5da4c8e02434","system_id":"levelo_inurba_marseille","lat":43.287154,"lon":5.399979,"is_reserved":false,"is_disabled":false,"rental_uris":{"android":"levelo://app?vid=7529a321-656c-4546-a881-5da4c8e02434","ios":"levelo://app?vid=7529a321-656c-4546-a881-5da4c8e02434"},"vehicle_type_id":"4","last_reported":1688069279,"current_range_meters":4800,"station_id":"ce4bho92rcd13ifvqh3g","pricing_plan_id":"free"},{"bike_id":"ca42e81d-556c-4b4f-9c47-052f67f884b4","system_id":"levelo_inurba_marseille","lat":43.299579,"lon":5.413255,"is_reserved":false,"is_disabled":false,"rental_uris":{"android":"levelo://app?vid=ca42e81d-556c-4b4f-9c47-052f67f884b4","ios":"levelo://app?vid=ca42e81d-556c-4b4f-9c47-052f67f884b4"},"vehicle_type_id":"4","last_reported":1688069279,"current_range_meters":18800,"station_id":"ce4bhp12rcd13ifvqh9g","pricing_plan_id":"free"},{"bike_id":"010303de-9f53-47c9-8014-4eeafc88e3fa","system_id":"levelo_inurba_marseille","lat":43.320045,"lon":5.415046,"is_reserved":false,"is_disabled":false,"rental_uris":{"android":"levelo://app?vid=010303de-9f53-47c9-8014-4eeafc88e3fa","ios":"levelo://app?vid=010303de-9f53-47c9-8014-4eeafc88e3fa"},"vehicle_type_id":"4","last_reported":1688069279,"current_range_meters":30400,"station_id":"ce4bhq92rcd13ifvqhkg","pricing_plan_id":"free"},{"bike_id":"6c7c3460-c894-4634-8028-64d78578c25d","system_id":"levelo_inurba_marseille","lat":43.292571,"lon":5.409107,"is_reserved":false,"is_disabled":false,"rental_uris":{"android":"levelo://app?vid=6c7c3460-c894-4634-8028-64d78578c25d","ios":"levelo://app?vid=6c7c3460-c894-4634-8028-64d78578c25d"},"vehicle_type_id":"4","last_reported":1688069279,"current_range_meters":5600,"station_id":"ce4bh192rcd13ifvqdc0","pricing_plan_id":"free"},{"bike_id":"e92afe2d-545b-46e5-bff6-dfa2053768cc","system_id":"levelo_inurba_marseille","lat":43.292571,"lon":5.409107,"is_reserved":false,"is_disabled":false,"rental_uris":{"android":"levelo://app?vid=e92afe2d-545b-46e5-bff6-dfa2053768cc","ios":"levelo://app?vid=e92afe2d-545b-46e5-bff6-dfa2053768cc"},"vehicle_type_id":"4","last_reported":1688069279,"current_range_meters":7200,"station_id":"ce4bh192rcd13ifvqdc0","pricing_plan_id":"free"},{"bike_id":"bd8d6062-045b-41a3-a36f-9dac4c665f97","system_id":"levelo_inurba_marseille","lat":43.292569,"lon":5.409107,"is_reserved":false,"is_disabled":false,"rental_uris":{"android":"levelo://app?vid=bd8d6062-045b-41a3-a36f-9dac4c665f97","ios":"levelo://app?vid=bd8d6062-045b-41a3-a36f-9dac4c665f97"},"vehicle_type_id":"4","last_reported":1688069279,"current_range_meters":21200,"station_id":"ce4bh192rcd13ifvqdc0","pricing_plan_id":"free"},{"bike_id":"1dd42380-423d-4e42-a394-0b25e1da3b44","system_id":"levelo_inurba_marseille","lat":43.292571,"lon":5.409107,"is_reserved":false,"is_disabled":false,"rental_uris":{"android":"levelo://app?vid=1dd42380-423d-4e42-a394-0b25e1da3b44","ios":"levelo://app?vid=1dd42380-423d-4e42-a394-0b25e1da3b44"},"vehicle_type_id":"4","last_reported":1688069279,"current_range_meters":28000,"station_id":"ce4bh192rcd13ifvqdc0","pricing_plan_id":"free"},{"bike_id":"908d0aa1-6a91-4f58-bf62-29741fe628ff","system_id":"levelo_inurba_marseille","lat":43.27613,"lon":5.36109,"is_reserved":false,"is_disabled":false,"rental_uris":{"android":"levelo://app?vid=908d0aa1-6a91-4f58-bf62-29741fe628ff","ios":"levelo://app?vid=908d0aa1-6a91-4f58-bf62-29741fe628ff"},"vehicle_type_id":"4","last_reported":1688069279,"current_range_meters":31200,"station_id":"ce4bgj92rcd13ifvqbe0","pricing_plan_id":"free"},{"bike_id":"ba1fc2d1-6388-4816-ac5e-c2c69b4bd884","system_id":"levelo_inurba_marseille","lat":43.280784,"lon":5.396622,"is_reserved":false,"is_disabled":false,"rental_uris":{"android":"levelo://app?vid=ba1fc2d1-6388-4816-ac5e-c2c69b4bd884","ios":"levelo://app?vid=ba1fc2d1-6388-4816-ac5e-c2c69b4bd884"},"vehicle_type_id":"4","last_reported":1688069279,"current_range_meters":28000,"station_id":"ce4bho12rcd13ifvqh2g","pricing_plan_id":"free"},{"bike_id":"280850ff-a9d2-4c07-baea-bec8f317b5e6","system_id":"levelo_inurba_marseille","lat":43.2808,"lon":5.39658,"is_reserved":false,"is_disabled":false,"rental_uris":{"android":"levelo://app?vid=280850ff-a9d2-4c07-baea-bec8f317b5e6","ios":"levelo://app?vid=280850ff-a9d2-4c07-baea-bec8f317b5e6"},"vehicle_type_id":"4","last_reported":1688069279,"current_range_meters":21600,"station_id":"ce4bho12rcd13ifvqh2g","pricing_plan_id":"free"},{"bike_id":"d59968dc-8d02-43d8-a147-72b7d95dc983","system_id":"levelo_inurba_marseille","lat":43.273613,"lon":5.362705,"is_reserved":false,"is_disabled":false,"rental_uris":{"android":"levelo://app?vid=d59968dc-8d02-43d8-a147-72b7d95dc983","ios":"levelo://app?vid=d59968dc-8d02-43d8-a147-72b7d95dc983"},"vehicle_type_id":"4","last_reported":1688069279,"current_range_meters":0,"station_id":"ce4bhbh2rcd13ifvqeo0","pricing_plan_id":"free"},{"bike_id":"fca2d579-be1e-4af4-8af9-49f7de5458ce","system_id":"levelo_inurba_marseille","lat":43.275625,"lon":5.384392,"is_reserved":false,"is_disabled":false,"rental_uris":{"android":"levelo://app?vid=fca2d579-be1e-4af4-8af9-49f7de5458ce","ios":"levelo://app?vid=fca2d579-be1e-4af4-8af9-49f7de5458ce"},"vehicle_type_id":"4","last_reported":1688069279,"current_range_meters":5200,"station_id":"ce4bhh92rcd13ifvqfi0","pricing_plan_id":"free"},{"bike_id":"8317ad4a-bce3-43fa-9221-10d31a696a9e","system_id":"levelo_inurba_marseille","lat":43.275625,"lon":5.384392,"is_reserved":false,"is_disabled":false,"rental_uris":{"android":"levelo://app?vid=8317ad4a-bce3-43fa-9221-10d31a696a9e","ios":"levelo://app?vid=8317ad4a-bce3-43fa-9221-10d31a696a9e"},"vehicle_type_id":"4","last_reported":1688069279,"current_range_meters":17200,"station_id":"ce4bhh92rcd13ifvqfi0","pricing_plan_id":"free"},{"bike_id":"e5ab7c56-1508-4cf4-b5d8-5021683352bb","system_id":"levelo_inurba_marseille","lat":43.286595,"lon":5.386795,"is_reserved":false,"is_disabled":false,"rental_uris":{"android":"levelo://app?vid=e5ab7c56-1508-4cf4-b5d8-5021683352bb","ios":"levelo://app?vid=e5ab7c56-1508-4cf4-b5d8-5021683352bb"},"vehicle_type_id":"4","last_reported":1688069279,"current_range_meters":5600,"station_id":"ce4bh492rcd13ifvqdug","pricing_plan_id":"free"},{"bike_id":"cafa282b-ff93-4971-85a5-002ed0b076a4","system_id":"levelo_inurba_marseille","lat":43.317121,"lon":5.423936,"is_reserved":false,"is_disabled":false,"rental_uris":{"android":"levelo://app?vid=cafa282b-ff93-4971-85a5-002ed0b076a4","ios":"levelo://app?vid=cafa282b-ff93-4971-85a5-002ed0b076a4"},"vehicle_type_id":"4","last_reported":1688069279,"current_range_meters":17600,"station_id":"ce4bhp92rcd13ifvqhbg","pricing_plan_id":"free"},{"bike_id":"4a3f89ca-9718-4521-a986-1b96908e534b","system_id":"levelo_inurba_marseille","lat":43.317121,"lon":5.423936,"is_reserved":false,"is_disabled":false,"rental_uris":{"android":"levelo://app?vid=4a3f89ca-9718-4521-a986-1b96908e534b","ios":"levelo://app?vid=4a3f89ca-9718-4521-a986-1b96908e534b"},"vehicle_type_id":"4","last_reported":1688069279,"current_range_meters":400,"station_id":"ce4bhp92rcd13ifvqhbg","pricing_plan_id":"free"},{"bike_id":"41a7902b-1a45-4abd-8acd-c5497d5542b4","system_id":"levelo_inurba_marseille","lat":43.317121,"lon":5.423936,"is_reserved":false,"is_disabled":false,"rental_uris":{"android":"levelo://app?vid=41a7902b-1a45-4abd-8acd-c5497d5542b4","ios":"levelo://app?vid=41a7902b-1a45-4abd-8acd-c5497d5542b4"},"vehicle_type_id":"4","last_reported":1688069279,"current_range_meters":5200,"station_id":"ce4bhp92rcd13ifvqhbg","pricing_plan_id":"free"},{"bike_id":"27fd8c08-1e95-459b-956f-dc8a8f55dd12","system_id":"levelo_inurba_marseille","lat":43.31727,"lon":5.42396,"is_reserved":false,"is_disabled":false,"rental_uris":{"android":"levelo://app?vid=27fd8c08-1e95-459b-956f-dc8a8f55dd12","ios":"levelo://app?vid=27fd8c08-1e95-459b-956f-dc8a8f55dd12"},"vehicle_type_id":"4","last_reported":1688069279,"current_range_meters":2000,"station_id":"ce4bhp92rcd13ifvqhbg","pricing_plan_id":"free"},{"bike_id":"5f0a19b3-0d2f-4f7f-96ce-016a0d4b5b83","system_id":"levelo_inurba_marseille","lat":43.317121,"lon":5.423936,"is_reserved":false,"is_disabled":false,"rental_uris":{"android":"levelo://app?vid=5f0a19b3-0d2f-4f7f-96ce-016a0d4b5b83","ios":"levelo://app?vid=5f0a19b3-0d2f-4f7f-96ce-016a0d4b5b83"},"vehicle_type_id":"4","last_reported":1688069279,"current_range_meters":13200,"station_id":"ce4bhp92rcd13ifvqhbg","pricing_plan_id":"free"},{"bike_id":"d3c59fe0-fd12-462f-9d60-c99ff1edc33c","system_id":"levelo_inurba_marseille","lat":43.31724,"lon":5.42401,"is_reserved":false,"is_disabled":false,"rental_uris":{"android":"levelo://app?vid=d3c59fe0-fd12-462f-9d60-c99ff1edc33c","ios":"levelo://app?vid=d3c59fe0-fd12-462f-9d60-c99ff1edc33c"},"vehicle_type_id":"4","last_reported":1688069279,"current_range_meters":29600,"station_id":"ce4bhp92rcd13ifvqhbg","pricing_plan_id":"free"},{"bike_id":"d25b8402-9aa3-4220-92c9-6a6a07946484","system_id":"levelo_inurba_marseille","lat":43.310785,"lon":5.424305,"is_reserved":false,"is_disabled":false,"rental_uris":{"android":"levelo://app?vid=d25b8402-9aa3-4220-92c9-6a6a07946484","ios":"levelo://app?vid=d25b8402-9aa3-4220-92c9-6a6a07946484"},"vehicle_type_id":"4","last_reported":1688069279,"current_range_meters":30800,"station_id":"ce4bhp92rcd13ifvqhag","pricing_plan_id":"free"},{"bike_id":"b52f4490-0582-43b6-b849-2346d410ac5d","system_id":"levelo_inurba_marseille","lat":43.31723,"lon":5.42403,"is_reserved":false,"is_disabled":false,"rental_uris":{"android":"levelo://app?vid=b52f4490-0582-43b6-b849-2346d410ac5d","ios":"levelo://app?vid=b52f4490-0582-43b6-b849-2346d410ac5d"},"vehicle_type_id":"4","last_reported":1688069279,"current_range_meters":9200,"station_id":"ce4bhp92rcd13ifvqhbg","pricing_plan_id":"free"},{"bike_id":"ccde7943-59bf-4c4a-bd50-0a322749c86a","system_id":"levelo_inurba_marseille","lat":43.310785,"lon":5.424305,"is_reserved":false,"is_disabled":false,"rental_uris":{"android":"levelo://app?vid=ccde7943-59bf-4c4a-bd50-0a322749c86a","ios":"levelo://app?vid=ccde7943-59bf-4c4a-bd50-0a322749c86a"},"vehicle_type_id":"4","last_reported":1688069279,"current_range_meters":22400,"station_id":"ce4bhp92rcd13ifvqhag","pricing_plan_id":"free"},{"bike_id":"26b8c5e4-689b-4170-9006-45c9b4cfd658","system_id":"levelo_inurba_marseille","lat":43.310785,"lon":5.424305,"is_reserved":false,"is_disabled":false,"rental_uris":{"android":"levelo://app?vid=26b8c5e4-689b-4170-9006-45c9b4cfd658","ios":"levelo://app?vid=26b8c5e4-689b-4170-9006-45c9b4cfd658"},"vehicle_type_id":"4","last_reported":1688069279,"current_range_meters":9600,"station_id":"ce4bhp92rcd13ifvqhag","pricing_plan_id":"free"},{"bike_id":"38a33f50-8eda-4295-8c9e-9c965bf6bc57","system_id":"levelo_inurba_marseille","lat":43.295523,"lon":5.422926,"is_reserved":false,"is_disabled":false,"rental_uris":{"android":"levelo://app?vid=38a33f50-8eda-4295-8c9e-9c965bf6bc57","ios":"levelo://app?vid=38a33f50-8eda-4295-8c9e-9c965bf6bc57"},"vehicle_type_id":"4","last_reported":1688069279,"current_range_meters":5200,"station_id":"ce4bhph2rcd13ifvqhdg","pricing_plan_id":"free"},{"bike_id":"3f58eaa7-d26d-40b4-8ea7-58457b144a6d","system_id":"levelo_inurba_marseille","lat":43.278128,"lon":5.407195,"is_reserved":false,"is_disabled":false,"rental_uris":{"android":"levelo://app?vid=3f58eaa7-d26d-40b4-8ea7-58457b144a6d","ios":"levelo://app?vid=3f58eaa7-d26d-40b4-8ea7-58457b144a6d"},"vehicle_type_id":"4","last_reported":1688069279,"current_range_meters":31200,"station_id":"ce4bhnh2rcd13ifvqgtg","pricing_plan_id":"free"},{"bike_id":"3c85d2d9-0fc3-43ba-ad58-0300f1ecb1d4","system_id":"levelo_inurba_marseille","lat":43.278128,"lon":5.407195,"is_reserved":false,"is_disabled":false,"rental_uris":{"android":"levelo://app?vid=3c85d2d9-0fc3-43ba-ad58-0300f1ecb1d4","ios":"levelo://app?vid=3c85d2d9-0fc3-43ba-ad58-0300f1ecb1d4"},"vehicle_type_id":"4","last_reported":1688069279,"current_range_meters":6800,"station_id":"ce4bhnh2rcd13ifvqgtg","pricing_plan_id":"free"},{"bike_id":"491706f6-73af-494d-af43-532f57fe3aa0","system_id":"levelo_inurba_marseille","lat":43.278128,"lon":5.407195,"is_reserved":false,"is_disabled":false,"rental_uris":{"android":"levelo://app?vid=491706f6-73af-494d-af43-532f57fe3aa0","ios":"levelo://app?vid=491706f6-73af-494d-af43-532f57fe3aa0"},"vehicle_type_id":"4","last_reported":1688069279,"current_range_meters":0,"station_id":"ce4bhnh2rcd13ifvqgtg","pricing_plan_id":"free"},{"bike_id":"c9837b38-0c9a-48af-89c5-88fa9e33495c","system_id":"levelo_inurba_marseille","lat":43.278128,"lon":5.407195,"is_reserved":false,"is_disabled":false,"rental_uris":{"android":"levelo://app?vid=c9837b38-0c9a-48af-89c5-88fa9e33495c","ios":"levelo://app?vid=c9837b38-0c9a-48af-89c5-88fa9e33495c"},"vehicle_type_id":"4","last_reported":1688069279,"current_range_meters":17200,"station_id":"ce4bhnh2rcd13ifvqgtg","pricing_plan_id":"free"},{"bike_id":"ff38511c-fba3-4133-9638-da7bf97aa41e","system_id":"levelo_inurba_marseille","lat":43.278128,"lon":5.407195,"is_reserved":false,"is_disabled":false,"rental_uris":{"android":"levelo://app?vid=ff38511c-fba3-4133-9638-da7bf97aa41e","ios":"levelo://app?vid=ff38511c-fba3-4133-9638-da7bf97aa41e"},"vehicle_type_id":"4","last_reported":1688069279,"current_range_meters":8800,"station_id":"ce4bhnh2rcd13ifvqgtg","pricing_plan_id":"free"},{"bike_id":"f346af77-d687-4a5c-a864-d8af06207b04","system_id":"levelo_inurba_marseille","lat":43.27815,"lon":5.4072,"is_reserved":false,"is_disabled":false,"rental_uris":{"android":"levelo://app?vid=f346af77-d687-4a5c-a864-d8af06207b04","ios":"levelo://app?vid=f346af77-d687-4a5c-a864-d8af06207b04"},