{"last_updated":1745283107,"ttl":60,"version":"2.2","data":{"bikes":[{"bike_id":"db63ef2b-f795-4461-841e-4a88a18bc5c9","system_id":"levelo_inurba_marseille","lat":43.29441,"lon":5.39762,"is_reserved":false,"is_disabled":true,"rental_uris":{"android":"levelo://app?vid=db63ef2b-f795-4461-841e-4a88a18bc5c9","ios":"levelo://app?vid=db63ef2b-f795-4461-841e-4a88a18bc5c9"},"vehicle_type_id":"4","last_reported":1745283107,"current_range_meters":2800,"station_id":"ce4bh3h2rcd13ifvqdo0","pricing_plan_id":"cebpf4jnsgd1na2vs0mg"},{"bike_id":"213fb158-06bd-4e42-8510-0aa3f7eaae67","system_id":"levelo_inurba_marseille","lat":43.23191,"lon":5.35554,"is_reserved":false,"is_disabled":true,"rental_uris":{"android":"levelo://app?vid=213fb158-06bd-4e42-8510-0aa3f7eaae67","ios":"levelo://app?vid=213fb158-06bd-4e42-8510-0aa3f7eaae67"},"vehicle_type_id":"4","last_reported":1745283107,"current_range_meters":2800,"station_id":"ce4bhu92rcd13ifvqi70","pricing_plan_id":"cebpf4jnsgd1na2vs0mg"},{"bike_id":"dcd2667b-04f1-43d5-8bad-2ebf8bc8e136","system_id":"levelo_inurba_marseille","lat":43.33361,"lon":5.37055,"is_reserved":false,"is_disabled":false,"rental_uris":{"android":"levelo://app?vid=dcd2667b-04f1-43d5-8bad-2ebf8bc8e136","ios":"levelo://app?vid=dcd2667b-04f1-43d5-8bad-2ebf8bc8e136"},"vehicle_type_id":"4","last_reported":1745283107,"current_range_meters":3200,"station_id":"","pricing_plan_id":"cebpf4jnsgd1na2vs0mg"},{"bike_id":"c1c8a22c-941a-4cd0-91ab-917b1055c823","system_id":"levelo_inurba_marseille","lat":43.30155,"lon":5.38072,"is_reserved":false,"is_disabled":true,"rental_uris":{"android":"levelo://app?vid=c1c8a22c-941a-4cd0-91ab-917b1055c823","ios":"levelo://app?vid=c1c8a22c-941a-4cd0-91ab-917b1055c823"},"vehicle_type_id":"4","last_reported":1745283107,"current_range_meters":3200,"station_id":"ce4bgjp2rcd13ifvqbh0","pricing_plan_id":"cebpf4jnsgd1na2vs0mg"},{"bike_id":"d09f3576-b2de-40f6-8e1f-bea4d205dbfc","system_id":"levelo_inurba_marseille","lat":43.23195,"lon":5.39968,"is_reserved":false,"is_disabled":false,"rental_uris":{"android":"levelo://app?vid=d09f3576-b2de-40f6-8e1f-bea4d205dbfc","ios":"levelo://app?vid=d09f3576-b2de-40f6-8e1f-bea4d205dbfc"},"vehicle_type_id":"4","last_reported":1745283107,"current_range_meters":3600,"station_id":"ce4bhn12rcd13ifvqgqg","pricing_plan_id":"cebpf4jnsgd1na2vs0mg"},{"bike_id":"e39d68e1-d581-42b4-beaf-9a00f5ac5bac","system_id":"levelo_inurba_marseille","lat":43.211901,"lon":5.350751,"is_reserved":false,"is_disabled":true,"rental_uris":{"android":"levelo://app?vid=e39d68e1-d581-42b4-beaf-9a00f5ac5bac","ios":"levelo://app?vid=e39d68e1-d581-42b4-beaf-9a00f5ac5bac"},"vehicle_type_id":"4","last_reported":1745283107,"current_range_meters":3600,"station_id":"st_cvj6sg6p6f1abm77japg","pricing_plan_id":"cebpf4jnsgd1na2vs0mg"},{"bike_id":"949a3b98-b3d0-4b58-9e5c-50967c540964","system_id":"levelo_inurba_marseille","lat":43.29717,"lon":5.40048,"is_reserved":false,"is_disabled":false,"rental_uris":{"android":"levelo://app?vid=949a3b98-b3d0-4b58-9e5c-50967c540964","ios":"levelo://app?vid=949a3b98-b3d0-4b58-9e5c-50967c540964"},"vehicle_type_id":"4","last_reported":1745283107,"current_range_meters":3600,"station_id":"","pricing_plan_id":"cebpf4jnsgd1na2vs0mg"},{"bike_id":"13dcc10c-4cac-4cf2-9318-07e242720dc9","system_id":"levelo_inurba_marseille","lat":43.312,"lon":5.37715,"is_reserved":false,"is_disabled":true,"rental_uris":{"android":"levelo://app?vid=13dcc10c-4cac-4cf2-9318-07e242720dc9","ios":"levelo://app?vid=13dcc10c-4cac-4cf2-9318-07e242720dc9"},"vehicle_type_id":"4","last_reported":1745283107,"current_range_meters":4000,"station_id":"","pricing_plan_id":"cebpf4jnsgd1na2vs0mg"},{"bike_id":"4f0b25c3-2f51-4c00-9f56-69333455e756","system_id":"levelo_inurba_marseille","lat":43.27862,"lon":5.39279,"is_reserved":false,"is_disabled":false,"rental_uris":{"android":"levelo://app?vid=4f0b25c3-2f51-4c00-9f56-69333455e756","ios":"levelo://app?vid=4f0b25c3-2f51-4c00-9f56-69333455e756"},"vehicle_type_id":"4","last_reported":1745283107,"current_range_meters":4000,"station_id":"","pricing_plan_id":"cebpf4jnsgd1na2vs0mg"},{"bike_id":"7b99593d-5f42-4564-8b72-6ce526c3cee7","system_id":"levelo_inurba_marseille","lat":43.26684,"lon":5.38276,"is_reserved":false,"is_disabled":false,"rental_uris":{"android":"levelo://app?vid=7b99593d-5f42-4564-8b72-6ce526c3cee7","ios":"levelo://app?vid=7b99593d-5f42-4564-8b72-6ce526c3cee7"},"vehicle_type_id":"4","last_reported":1745283107,"current_range_meters":4000,"station_id":"ce4bhg92rcd13ifvqf90","pricing_plan_id":"cebpf4jnsgd1na2vs0mg"},{"bike_id":"ba688fa3-020d-49aa-be99-774baa1304a2","system_id":"levelo_inurba_marseille","lat":43.33721,"lon":5.391842,"is_reserved":false,"is_disabled":false,"rental_uris":{"android":"levelo://app?vid=ba688fa3-020d-49aa-be99-774baa1304a2","ios":"levelo://app?vid=ba688fa3-020d-49aa-be99-774baa1304a2"},"vehicle_type_id":"4","last_reported":1745283107,"current_range_meters":4800,"station_id":"ce4bhr92rcd13ifvqhsg","pricing_plan_id":"cebpf4jnsgd1na2vs0mg"},{"bike_id":"13018b37-7712-4e10-b3d5-4cd7ac013443","system_id":"levelo_inurba_marseille","lat":43.28735,"lon":5.39984,"is_reserved":false,"is_disabled":false,"rental_uris":{"android":"levelo://app?vid=13018b37-7712-4e10-b3d5-4cd7ac013443","ios":"levelo://app?vid=13018b37-7712-4e10-b3d5-4cd7ac013443"},"vehicle_type_id":"4","last_reported":1745283107,"current_range_meters":4800,"station_id":"ce4bho92rcd13ifvqh3g","pricing_plan_id":"cebpf4jnsgd1na2vs0mg"},{"bike_id":"2bdde4a3-7509-460a-b2c7-d172c5297380","system_id":"levelo_inurba_marseille","lat":43.21194,"lon":5.35078,"is_reserved":false,"is_disabled":true,"rental_uris":{"android":"levelo://app?vid=2bdde4a3-7509-460a-b2c7-d172c5297380","ios":"levelo://app?vid=2bdde4a3-7509-460a-b2c7-d172c5297380"},"vehicle_type_id":"4","last_reported":1745283107,"current_range_meters":4800,"station_id":"st_cvj6sg6p6f1abm77japg","pricing_plan_id":"cebpf4jnsgd1na2vs0mg"},{"bike_id":"e9b40b8c-aa8b-493b-9704-ac204b4fdb74","system_id":"levelo_inurba_marseille","lat":43.22497,"lon":5.34781,"is_reserved":false,"is_disabled":true,"rental_uris":{"android":"levelo://app?vid=e9b40b8c-aa8b-493b-9704-ac204b4fdb74","ios":"levelo://app?vid=e9b40b8c-aa8b-493b-9704-ac204b4fdb74"},"vehicle_type_id":"4","last_reported":1745283107,"current_range_meters":4800,"station_id":"","pricing_plan_id":"cebpf4jnsgd1na2vs0mg"},{"bike_id":"49225d49-9260-47b2-a782-7d3d21b08c48","system_id":"levelo_inurba_marseille","lat":43.295342,"lon":5.378851,"is_reserved":false,"is_disabled":false,"rental_uris":{"android":"levelo://app?vid=49225d49-9260-47b2-a782-7d3d21b08c48","ios":"levelo://app?vid=49225d49-9260-47b2-a782-7d3d21b08c48"},"vehicle_type_id":"4","last_reported":1745283107,"current_range_meters":4800,"station_id":"","pricing_plan_id":"cebpf4jnsgd1na2vs0mg"},{"bike_id":"ddb90528-fd99-4947-9b60-d46c792df734","system_id":"levelo_inurba_marseille","lat":43.29774,"lon":5.39364,"is_reserved":false,"is_disabled":false,"rental_uris":{"android":"levelo://app?vid=ddb90528-fd99-4947-9b60-d46c792df734","ios":"levelo://app?vid=ddb90528-fd99-4947-9b60-d46c792df734"},"vehicle_type_id":"4","last_reported":1745283107,"current_range_meters":5600,"station_id":"chh1huq6cuj3fo74tm60","pricing_plan_id":"cebpf4jnsgd1na2vs0mg"},{"bike_id":"05ed6031-6dc3-4a10-b561-edbf27b714b8","system_id":"levelo_inurba_marseille","lat":43.26573,"lon":5.38993,"is_reserved":false,"is_disabled":false,"rental_uris":{"android":"levelo://app?vid=05ed6031-6dc3-4a10-b561-edbf27b714b8","ios":"levelo://app?vid=05ed6031-6dc3-4a10-b561-edbf27b714b8"},"vehicle_type_id":"4","last_reported":1745283107,"current_range_meters":5600,"station_id":"ce4bhe12rcd13ifvqf30","pricing_plan_id":"cebpf4jnsgd1na2vs0mg"},{"bike_id":"bfefb57c-154e-4cbc-90d7-24ac4b95745f","system_id":"levelo_inurba_marseille","lat":43.31027,"lon":5.37123,"is_reserved":false,"is_disabled":false,"rental_uris":{"android":"levelo://app?vid=bfefb57c-154e-4cbc-90d7-24ac4b95745f","ios":"levelo://app?vid=bfefb57c-154e-4cbc-90d7-24ac4b95745f"},"vehicle_type_id":"4","last_reported":1745283107,"current_range_meters":5600,"station_id":"","pricing_plan_id":"cebpf4jnsgd1na2vs0mg"},{"bike_id":"901518be-3c90-4e14-ada4-9071cd926d8b","system_id":"levelo_inurba_marseille","lat":43.27505,"lon":5.42435,"is_reserved":false,"is_disabled":true,"rental_uris":{"android":"levelo://app?vid=901518be-3c90-4e14-ada4-9071cd926d8b","ios":"levelo://app?vid=901518be-3c90-4e14-ada4-9071cd926d8b"},"vehicle_type_id":"4","last_reported":1745283107,"current_range_meters":5600,"station_id":"ce4bhn92rcd13ifvqgrg","pricing_plan_id":"cebpf4jnsgd1na2vs0mg"},{"bike_id":"6d0b1e09-0778-4875-a9ec-ebd4ab3c5c71","system_id":"levelo_inurba_marseille","lat":43.21191,"lon":5.35098,"is_reserved":false,"is_disabled":true,"rental_uris":{"android":"levelo://app?vid=6d0b1e09-0778-4875-a9ec-ebd4ab3c5c71","ios":"levelo://app?vid=6d0b1e09-0778-4875-a9ec-ebd4ab3c5c71"},"vehicle_type_id":"4","last_reported":1745283107,"current_range_meters":6000,"station_id":"st_cvj6sg6p6f1abm77japg","pricing_plan_id":"cebpf4jnsgd1na2vs0mg"},{"bike_id":"a373f1b2-c1f8-4d57-bca1-4c97514ea92c","system_id":"levelo_inurba_marseille","lat":43.3123,"lon":5.36889,"is_reserved":false,"is_disabled":true,"rental_uris":{"android":"levelo://app?vid=a373f1b2-c1f8-4d57-bca1-4c97514ea92c","ios":"levelo://app?vid=a373f1b2-c1f8-4d57-bca1-4c97514ea92c"},"vehicle_type_id":"4","last_reported":1745283107,"current_range_meters":6000,"station_id":"ce4bgl92rcd13ifvqbq0","pricing_plan_id":"cebpf4jnsgd1na2vs0mg"},{"bike_id":"d6f2ac41-a9aa-4170-9c07-69d2be6480b5","system_id":"levelo_inurba_marseille","lat":43.26945,"lon":5.40248,"is_reserved":false,"is_disabled":false,"rental_uris":{"android":"levelo://app?vid=d6f2ac41-a9aa-4170-9c07-69d2be6480b5","ios":"levelo://app?vid=d6f2ac41-a9aa-4170-9c07-69d2be6480b5"},"vehicle_type_id":"4","last_reported":1745283107,"current_range_meters":6400,"station_id":"cjm6bp8fraef2m0cb0m0","pricing_plan_id":"cebpf4jnsgd1na2vs0mg"},{"bike_id":"85e062de-b820-4c88-ad1d-0b5427e20621","system_id":"levelo_inurba_marseille","lat":43.30199,"lon":5.39477,"is_reserved":false,"is_disabled":false,"rental_uris":{"android":"levelo://app?vid=85e062de-b820-4c88-ad1d-0b5427e20621","ios":"levelo://app?vid=85e062de-b820-4c88-ad1d-0b5427e20621"},"vehicle_type_id":"4","last_reported":1745283107,"current_range_meters":6400,"station_id":"ce4bh0p2rcd13ifvqd70","pricing_plan_id":"cebpf4jnsgd1na2vs0mg"},{"bike_id":"f984d1c9-94d7-48d1-9f06-f702edb8335d","system_id":"levelo_inurba_marseille","lat":43.241727,"lon":5.363925,"is_reserved":false,"is_disabled":true,"rental_uris":{"android":"levelo://app?vid=f984d1c9-94d7-48d1-9f06-f702edb8335d","ios":"levelo://app?vid=f984d1c9-94d7-48d1-9f06-f702edb8335d"},"vehicle_type_id":"4","last_reported":1745283107,"current_range_meters":6400,"station_id":"cpo36qri1sfpv3e86is0","pricing_plan_id":"cebpf4jnsgd1na2vs0mg"},{"bike_id":"f7bdbfb7-0359-4d1d-8705-6870094c1c06","system_id":"levelo_inurba_marseille","lat":43.26492,"lon":5.3958,"is_reserved":false,"is_disabled":false,"rental_uris":{"android":"levelo://app?vid=f7bdbfb7-0359-4d1d-8705-6870094c1c06","ios":"levelo://app?vid=f7bdbfb7-0359-4d1d-8705-6870094c1c06"},"vehicle_type_id":"4","last_reported":1745283107,"current_range_meters":6800,"station_id":"ce4bhi12rcd13ifvqfq0","pricing_plan_id":"cebpf4jnsgd1na2vs0mg"},{"bike_id":"3abc6f89-03ac-4495-a4f3-98421156fd12","system_id":"levelo_inurba_marseille","lat":43.27906,"lon":5.41135,"is_reserved":false,"is_disabled":false,"rental_uris":{"android":"levelo://app?vid=3abc6f89-03ac-4495-a4f3-98421156fd12","ios":"levelo://app?vid=3abc6f89-03ac-4495-a4f3-98421156fd12"},"vehicle_type_id":"4","last_reported":1745283107,"current_range_meters":6800,"station_id":"","pricing_plan_id":"cebpf4jnsgd1na2vs0mg"},{"bike_id":"dacb9310-ef47-42d4-82c3-6f67b29ded17","system_id":"levelo_inurba_marseille","lat":43.319929,"lon":5.381454,"is_reserved":false,"is_disabled":true,"rental_uris":{"android":"levelo://app?vid=dacb9310-ef47-42d4-82c3-6f67b29ded17","ios":"levelo://app?vid=dacb9310-ef47-42d4-82c3-6f67b29ded17"},"vehicle_type_id":"4","last_reported":1745283107,"current_range_meters":7200,"station_id":"ce4bhr12rcd13ifvqhpg","pricing_plan_id":"cebpf4jnsgd1na2vs0mg"},{"bike_id":"0d5ea7b1-dddf-43fe-aea2-a6db5036338d","system_id":"levelo_inurba_marseille","lat":43.2903,"lon":5.38625,"is_reserved":false,"is_disabled":true,"rental_uris":{"android":"levelo://app?vid=0d5ea7b1-dddf-43fe-aea2-a6db5036338d","ios":"levelo://app?vid=0d5ea7b1-dddf-43fe-aea2-a6db5036338d"},"vehicle_type_id":"4","last_reported":1745283107,"current_range_meters":7200,"station_id":"ce4bh4p2rcd13ifvqe0g","pricing_plan_id":"cebpf4jnsgd1na2vs0mg"},{"bike_id":"83458351-f904-4977-ba29-6514c513febe","system_id":"levelo_inurba_marseille","lat":43.30315,"lon":5.4041,"is_reserved":false,"is_disabled":false,"rental_uris":{"android":"levelo://app?vid=83458351-f904-4977-ba29-6514c513febe","ios":"levelo://app?vid=83458351-f904-4977-ba29-6514c513febe"},"vehicle_type_id":"4","last_reported":1745283107,"current_range_meters":7200,"station_id":"ce4bh012rcd13ifvqd10","pricing_plan_id":"cebpf4jnsgd1na2vs0mg"},{"bike_id":"7fc13708-0a51-4d48-b10d-562b87dc6657","system_id":"levelo_inurba_marseille","lat":43.26065,"lon":5.39366,"is_reserved":false,"is_disabled":true,"rental_uris":{"android":"levelo://app?vid=7fc13708-0a51-4d48-b10d-562b87dc6657","ios":"levelo://app?vid=7fc13708-0a51-4d48-b10d-562b87dc6657"},"vehicle_type_id":"4","last_reported":1745283107,"current_range_meters":7200,"station_id":"ce4bhh92rcd13ifvqfj0","pricing_plan_id":"cebpf4jnsgd1na2vs0mg"},{"bike_id":"5c69bd01-aae4-4beb-ad9c-0ff491500290","system_id":"levelo_inurba_marseille","lat":43.28566,"lon":5.39501,"is_reserved":false,"is_disabled":false,"rental_uris":{"android":"levelo://app?vid=5c69bd01-aae4-4beb-ad9c-0ff491500290","ios":"levelo://app?vid=5c69bd01-aae4-4beb-ad9c-0ff491500290"},"vehicle_type_id":"4","last_reported":1745283107,"current_range_meters":7200,"station_id":"ce4bh292rcd13ifvqdg0","pricing_plan_id":"cebpf4jnsgd1na2vs0mg"},{"bike_id":"2eae6397-3f35-48cb-91a4-97f36e4dda21","system_id":"levelo_inurba_marseille","lat":43.217584,"lon":5.346018,"is_reserved":false,"is_disabled":true,"rental_uris":{"android":"levelo://app?vid=2eae6397-3f35-48cb-91a4-97f36e4dda21","ios":"levelo://app?vid=2eae6397-3f35-48cb-91a4-97f36e4dda21"},"vehicle_type_id":"4","last_reported":1745283107,"current_range_meters":8000,"station_id":"","pricing_plan_id":"cebpf4jnsgd1na2vs0mg"},{"bike_id":"08adba7b-eac3-4cfc-9923-2ccf0cc4ffef","system_id":"levelo_inurba_marseille","lat":43.24541,"lon":5.412991,"is_reserved":false,"is_disabled":false,"rental_uris":{"android":"levelo://app?vid=08adba7b-eac3-4cfc-9923-2ccf0cc4ffef","ios":"levelo://app?vid=08adba7b-eac3-4cfc-9923-2ccf0cc4ffef"},"vehicle_type_id":"4","last_reported":1745283107,"current_range_meters":8000,"station_id":"","pricing_plan_id":"cebpf4jnsgd1na2vs0mg"},{"bike_id":"1f84f51f-d2f4-4d4c-982d-d184ffe24a02","system_id":"levelo_inurba_marseille","lat":43.32362,"lon":5.38902,"is_reserved":false,"is_disabled":true,"rental_uris":{"android":"levelo://app?vid=1f84f51f-d2f4-4d4c-982d-d184ffe24a02","ios":"levelo://app?vid=1f84f51f-d2f4-4d4c-982d-d184ffe24a02"},"vehicle_type_id":"4","last_reported":1745283107,"current_range_meters":8000,"station_id":"ce4bhqp2rcd13ifvqhog","pricing_plan_id":"cebpf4jnsgd1na2vs0mg"},{"bike_id":"d2ee2ac3-0edb-437f-ab20-14dfef68fef0","system_id":"levelo_inurba_marseille","lat":43.2706,"lon":5.40268,"is_reserved":false,"is_disabled":false,"rental_uris":{"android":"levelo://app?vid=d2ee2ac3-0edb-437f-ab20-14dfef68fef0","ios":"levelo://app?vid=d2ee2ac3-0edb-437f-ab20-14dfef68fef0"},"vehicle_type_id":"4","last_reported":1745283107,"current_range_meters":8000,"station_id":"ce4bhk92rcd13ifvqgc0","pricing_plan_id":"cebpf4jnsgd1na2vs0mg"},{"bike_id":"8a7ec3da-38e6-4187-9266-c9d5e220963c","system_id":"levelo_inurba_marseille","lat":43.24633,"lon":5.38937,"is_reserved":false,"is_disabled":false,"rental_uris":{"android":"levelo://app?vid=8a7ec3da-38e6-4187-9266-c9d5e220963c","ios":"levelo://app?vid=8a7ec3da-38e6-4187-9266-c9d5e220963c"},"vehicle_type_id":"4","last_reported":1745283107,"current_range_meters":8000,"station_id":"ce4bhg12rcd13ifvqf60","pricing_plan_id":"cebpf4jnsgd1na2vs0mg"},{"bike_id":"b7520c6b-483a-4ed4-a089-23ff6a13974b","system_id":"levelo_inurba_marseille","lat":43.30605,"lon":5.39342,"is_reserved":false,"is_disabled":false,"rental_uris":{"android":"levelo://app?vid=b7520c6b-483a-4ed4-a089-23ff6a13974b","ios":"levelo://app?vid=b7520c6b-483a-4ed4-a089-23ff6a13974b"},"vehicle_type_id":"4","last_reported":1745283107,"current_range_meters":8400,"station_id":"ce4bh0p2rcd13ifvqd80","pricing_plan_id":"cebpf4jnsgd1na2vs0mg"},{"bike_id":"b3fbcf1e-704c-4a62-b16c-3d3e62dbba14","system_id":"levelo_inurba_marseille","lat":43.26926,"lon":5.40237,"is_reserved":false,"is_disabled":false,"rental_uris":{"android":"levelo://app?vid=b3fbcf1e-704c-4a62-b16c-3d3e62dbba14","ios":"levelo://app?vid=b3fbcf1e-704c-4a62-b16c-3d3e62dbba14"},"vehicle_type_id":"4","last_reported":1745283107,"current_range_meters":8400,"station_id":"cjm6bp8fraef2m0cb0m0","pricing_plan_id":"cebpf4jnsgd1na2vs0mg"},{"bike_id":"29c5e35e-31cc-4877-a9f7-24a7e5c474bd","system_id":"levelo_inurba_marseille","lat":43.28837,"lon":5.38092,"is_reserved":false,"is_disabled":false,"rental_uris":{"android":"levelo://app?vid=29c5e35e-31cc-4877-a9f7-24a7e5c474bd","ios":"levelo://app?vid=29c5e35e-31cc-4877-a9f7-24a7e5c474bd"},"vehicle_type_id":"4","last_reported":1745283107,"current_range_meters":8400,"station_id":"ce4bh9p2rcd13ifvqec0","pricing_plan_id":"cebpf4jnsgd1na2vs0mg"},{"bike_id":"6fd03af9-7c6e-4b0a-b29f-3c73b47dd294","system_id":"levelo_inurba_marseille","lat":43.2875,"lon":5.39987,"is_reserved":false,"is_disabled":false,"rental_uris":{"android":"levelo://app?vid=6fd03af9-7c6e-4b0a-b29f-3c73b47dd294","ios":"levelo://app?vid=6fd03af9-7c6e-4b0a-b29f-3c73b47dd294"},"vehicle_type_id":"4","last_reported":1745283107,"current_range_meters":8800,"station_id":"ce4bho92rcd13ifvqh3g","pricing_plan_id":"cebpf4jnsgd1na2vs0mg"},{"bike_id":"78a1a724-1424-40bb-82f8-c320da3c5899","system_id":"levelo_inurba_marseille","lat":43.27075,"lon":5.42272,"is_reserved":false,"is_disabled":false,"rental_uris":{"android":"levelo://app?vid=78a1a724-1424-40bb-82f8-c320da3c5899","ios":"levelo://app?vid=78a1a724-1424-40bb-82f8-c320da3c5899"},"vehicle_type_id":"4","last_reported":1745283107,"current_range_meters":8800,"station_id":"ce4bhk92rcd13ifvqgb0","pricing_plan_id":"cebpf4jnsgd1na2vs0mg"},{"bike_id":"8a22242a-73a7-412d-b9cd-62ce2fd89dc2","system_id":"levelo_inurba_marseille","lat":43.28459,"lon":5.35882,"is_reserved":false,"is_disabled":false,"rental_uris":{"android":"levelo://app?vid=8a22242a-73a7-412d-b9cd-62ce2fd89dc2","ios":"levelo://app?vid=8a22242a-73a7-412d-b9cd-62ce2fd89dc2"},"vehicle_type_id":"4","last_reported":1745283107,"current_range_meters":8800,"station_id":"ce4bhah2rcd13ifvqei0","pricing_plan_id":"cebpf4jnsgd1na2vs0mg"},{"bike_id":"34166cb2-24d1-48d4-88e5-65264e3a037d","system_id":"levelo_inurba_marseille","lat":43.31066,"lon":5.37101,"is_reserved":false,"is_disabled":false,"rental_uris":{"android":"levelo://app?vid=34166cb2-24d1-48d4-88e5-65264e3a037d","ios":"levelo://app?vid=34166cb2-24d1-48d4-88e5-65264e3a037d"},"vehicle_type_id":"4","last_reported":1745283107,"current_range_meters":8800,"station_id":"","pricing_plan_id":"cebpf4jnsgd1na2vs0mg"},{"bike_id":"5d71f84a-10ca-4e55-9806-002e8068abd8","system_id":"levelo_inurba_marseille","lat":43.27922,"lon":5.39581,"is_reserved":false,"is_disabled":false,"rental_uris":{"android":"levelo://app?vid=5d71f84a-10ca-4e55-9806-002e8068abd8","ios":"levelo://app?vid=5d71f84a-10ca-4e55-9806-002e8068abd8"},"vehicle_type_id":"4","last_reported":1745283107,"current_range_meters":8800,"station_id":"ce4bhf92rcd13ifvqf40","pricing_plan_id":"cebpf4jnsgd1na2vs0mg"},{"bike_id":"b09a0f3d-c48b-475b-8346-07998bdf0685","system_id":"levelo_inurba_marseille","lat":43.24072,"lon":5.37758,"is_reserved":false,"is_disabled":false,"rental_uris":{"android":"levelo://app?vid=b09a0f3d-c48b-475b-8346-07998bdf0685","ios":"levelo://app?vid=b09a0f3d-c48b-475b-8346-07998bdf0685"},"vehicle_type_id":"4","last_reported":1745283107,"current_range_meters":8800,"station_id":"ce4bhnp2rcd13ifvqgvg","pricing_plan_id":"cebpf4jnsgd1na2vs0mg"},{"bike_id":"0e3f01e5-c3de-4476-9321-0ae8ce1ce1f2","system_id":"levelo_inurba_marseille","lat":43.28365,"lon":5.3864,"is_reserved":false,"is_disabled":false,"rental_uris":{"android":"levelo://app?vid=0e3f01e5-c3de-4476-9321-0ae8ce1ce1f2","ios":"levelo://app?vid=0e3f01e5-c3de-4476-9321-0ae8ce1ce1f2"},"vehicle_type_id":"4","last_reported":1745283107,"current_range_meters":8800,"station_id":"ce4bh492rcd13ifvqdvg","pricing_plan_id":"cebpf4jnsgd1na2vs0mg"},{"bike_id":"89cfd28b-0c7c-4079-955f-194e937acbb9","system_id":"levelo_inurba_marseille","lat":43.299456,"lon":5.363404,"is_reserved":false,"is_disabled":false,"rental_uris":{"android":"levelo://app?vid=89cfd28b-0c7c-4079-955f-194e937acbb9","ios":"levelo://app?vid=89cfd28b-0c7c-4079-955f-194e937acbb9"},"vehicle_type_id":"4","last_reported":1745283107,"current_range_meters":8800,"station_id":"","pricing_plan_id":"cebpf4jnsgd1na2vs0mg"},{"bike_id":"35f2a906-9ed9-4281-a569-57111b51db28","system_id":"levelo_inurba_marseille","lat":43.24996,"lon":5.38965,"is_reserved":false,"is_disabled":false,"rental_uris":{"android":"levelo://app?vid=35f2a906-9ed9-4281-a569-57111b51db28","ios":"levelo://app?vid=35f2a906-9ed9-4281-a569-57111b51db28"},"vehicle_type_id":"4","last_reported":1745283107,"current_range_meters":9200,"station_id":"ce4bhgp2rcd13ifvqfd0","pricing_plan_id":"cebpf4jnsgd1na2vs0mg"},{"bike_id":"fdbf53dc-c001-4cbc-9204-4aaa3f39f340","system_id":"levelo_inurba_marseille","lat":43.29518,"lon":5.39052,"is_reserved":false,"is_disabled":false,"rental_uris":{"android":"levelo://app?vid=fdbf53dc-c001-4cbc-9204-4aaa3f39f340","ios":"levelo://app?vid=fdbf53dc-c001-4cbc-9204-4aaa3f39f340"},"vehicle_type_id":"4","last_reported":1745283107,"current_range_meters":9200,"station_id":"ce4bh3p2rcd13ifvqdp0","pricing_plan_id":"cebpf4jnsgd1na2vs0mg"},{"bike_id":"d7323cc1-013d-43e0-bb47-a978b4402b6a","system_id":"levelo_inurba_marseille","lat":43.308852,"lon":5.396409,"is_reserved":false,"is_disabled":false,"rental_uris":{"android":"levelo://app?vid=d7323cc1-013d-43e0-bb47-a978b4402b6a","ios":"levelo://app?vid=d7323cc1-013d-43e0-bb47-a978b4402b6a"},"vehicle_type_id":"4","last_reported":1745283107,"current_range_meters":9200,"station_id":"ce4bh012rcd13ifvqcv0","pricing_plan_id":"cebpf4jnsgd1na2vs0mg"},{"bike_id":"62801924-329e-46ea-aa72-be8e28d87636","system_id":"levelo_inurba_marseille","lat":43.26662,"lon":5.40008,"is_reserved":false,"is_disabled":false,"rental_uris":{"android":"levelo://app?vid=62801924-329e-46ea-aa72-be8e28d87636","ios":"levelo://app?vid=62801924-329e-46ea-aa72-be8e28d87636"},"vehicle_type_id":"4","last_reported":1745283107,"current_range_meters":9200,"station_id":"","pricing_plan_id":"cebpf4jnsgd1na2vs0mg"},{"bike_id":"1c755526-7610-4241-9257-348acde561d3","system_id":"levelo_inurba_marseille","lat":43.24853,"lon":5.38199,"is_reserved":false,"is_disabled":false,"rental_uris":{"android":"levelo://app?vid=1c755526-7610-4241-9257-348acde561d3","ios":"levelo://app?vid=1c755526-7610-4241-9257-348acde561d3"},"vehicle_type_id":"4","last_reported":1745283107,"current_range_meters":9600,"station_id":"","pricing_plan_id":"cebpf4jnsgd1na2vs0mg"},{"bike_id":"6efbea2d-5eb1-4a4a-8c84-47a375f78190","system_id":"levelo_inurba_marseille","lat":43.29879,"lon":5.38915,"is_reserved":false,"is_disabled":true,"rental_uris":{"android":"levelo://app?vid=6efbea2d-5eb1-4a4a-8c84-47a375f78190","ios":"levelo://app?vid=6efbea2d-5eb1-4a4a-8c84-47a375f78190"},"vehicle_type_id":"4","last_reported":1745283107,"current_range_meters":9600,"station_id":"ce4bh392rcd13ifvqdl0","pricing_plan_id":"cebpf4jnsgd1na2vs0mg"},{"bike_id":"43fc777f-db94-447a-a033-7e97f2f52314","system_id":"levelo_inurba_marseille","lat":43.30899,"lon":5.39626,"is_reserved":false,"is_disabled":false,"rental_uris":{"android":"levelo://app?vid=43fc777f-db94-447a-a033-7e97f2f52314","ios":"levelo://app?vid=43fc777f-db94-447a-a033-7e97f2f52314"},"vehicle_type_id":"4","last_reported":1745283107,"current_range_meters":9600,"station_id":"ce4bh012rcd13ifvqcv0","pricing_plan_id":"cebpf4jnsgd1na2vs0mg"},{"bike_id":"af062bcb-c0d8-4f82-b254-b3dfb315e067","system_id":"levelo_inurba_marseille","lat":43.3302,"lon":5.39028,"is_reserved":false,"is_disabled":false,"rental_uris":{"android":"levelo://app?vid=af062bcb-c0d8-4f82-b254-b3dfb315e067","ios":"levelo://app?vid=af062bcb-c0d8-4f82-b254-b3dfb315e067"},"vehicle_type_id":"4","last_reported":1745283107,"current_range_meters":9600,"station_id":"ce4bhr92rcd13ifvqhrg","pricing_plan_id":"cebpf4jnsgd1na2vs0mg"},{"bike_id":"fe8b594a-1525-4084-8e05-931f2d1c230a","system_id":"levelo_inurba_marseille","lat":43.28357,"lon":5.38627,"is_reserved":false,"is_disabled":false,"rental_uris":{"android":"levelo://app?vid=fe8b594a-1525-4084-8e05-931f2d1c230a","ios":"levelo://app?vid=fe8b594a-1525-4084-8e05-931f2d1c230a"},"vehicle_type_id":"4","last_reported":1745283107,"current_range_meters":9600,"station_id":"ce4bh492rcd13ifvqdvg","pricing_plan_id":"cebpf4jnsgd1na2vs0mg"},{"bike_id":"a64fa6e5-033a-4227-9458-dd312b1da4ba","system_id":"levelo_inurba_marseille","lat":43.3033,"lon":5.40414,"is_reserved":false,"is_disabled":false,"rental_uris":{"android":"levelo://app?vid=a64fa6e5-033a-4227-9458-dd312b1da4ba","ios":"levelo://app?vid=a64fa6e5-033a-4227-9458-dd312b1da4ba"},"vehicle_type_id":"4","last_reported":1745283107,"current_range_meters":9600,"station_id":"ce4bh012rcd13ifvqd10","pricing_plan_id":"cebpf4jnsgd1na2vs0mg"},{"bike_id":"38496ab1-dcd9-47e1-88de-12902fbdc1d3","system_id":"levelo_inurba_marseille","lat":43.290248,"lon":5.386436,"is_reserved":false,"is_disabled":false,"rental_uris":{"android":"levelo://app?vid=38496ab1-dcd9-47e1-88de-12902fbdc1d3","ios":"levelo://app?vid=38496ab1-dcd9-47e1-88de-12902fbdc1d3"},"vehicle_type_id":"4","last_reported":1745283107,"current_range_meters":9600,"station_id":"ce4bh4p2rcd13ifvqe0g","pricing_plan_id":"cebpf4jnsgd1na2vs0mg"},{"bike_id":"9bced37d-d2c2-489f-b5d4-ab1f6f0ebd81","system_id":"levelo_inurba_marseille","lat":43.31071,"lon":5.38356,"is_reserved":false,"is_disabled":false,"rental_uris":{"android":"levelo://app?vid=9bced37d-d2c2-489f-b5d4-ab1f6f0ebd81","ios":"levelo://app?vid=9bced37d-d2c2-489f-b5d4-ab1f6f0ebd81"},"vehicle_type_id":"4","last_reported":1745283107,"current_range_meters":9600,"station_id":"ce4bgv92rcd13ifvqcr0","pricing_plan_id":"cebpf4jnsgd1na2vs0mg"},{"bike_id":"b187e78d-1724-4b31-8cf0-6bdebd0684ee","system_id":"levelo_inurba_marseille","lat":43.28985,"lon":5.37845,"is_reserved":false,"is_disabled":true,"rental_uris":{"android":"levelo://app?vid=b187e78d-1724-4b31-8cf0-6bdebd0684ee","ios":"levelo://app?vid=b187e78d-1724-4b31-8cf0-6bdebd0684ee"},"vehicle_type_id":"4","last_reported":1745283107,"current_range_meters":10000,"station_id":"ce4bh9p2rcd13ifvqed0","pricing_plan_id":"cebpf4jnsgd1na2vs0mg"},{"bike_id":"4bc82e1a-bca4-44ab-8223-aee3605c8d43","system_id":"levelo_inurba_marseille","lat":43.30534,"lon":5.38428,"is_reserved":false,"is_disabled":false,"rental_uris":{"android":"levelo://app?vid=4bc82e1a-bca4-44ab-8223-aee3605c8d43","ios":"levelo://app?vid=4bc82e1a-bca4-44ab-8223-aee3605c8d43"},"vehicle_type_id":"4","last_reported":1745283107,"current_range_meters":10000,"station_id":"ce4bgg92rcd13ifvqb30","pricing_plan_id":"cebpf4jnsgd1na2vs0mg"},{"bike_id":"97b5301b-7f92-4673-aaeb-cee1feaf34d3","system_id":"levelo_inurba_marseille","lat":43.2795,"lon":5.41026,"is_reserved":false,"is_disabled":false,"rental_uris":{"android":"levelo://app?vid=97b5301b-7f92-4673-aaeb-cee1feaf34d3","ios":"levelo://app?vid=97b5301b-7f92-4673-aaeb-cee1feaf34d3"},"vehicle_type_id":"4","last_reported":1745283107,"current_range_meters":10000,"station_id":"ce4bhnp2rcd13ifvqh0g","pricing_plan_id":"cebpf4jnsgd1na2vs0mg"},{"bike_id":"5bc52f99-c488-4886-bf7e-6d74b0ab5e69","system_id":"levelo_inurba_marseille","lat":43.27946,"lon":5.41016,"is_reserved":false,"is_disabled":false,"rental_uris":{"android":"levelo://app?vid=5bc52f99-c488-4886-bf7e-6d74b0ab5e69","ios":"levelo://app?vid=5bc52f99-c488-4886-bf7e-6d74b0ab5e69"},"vehicle_type_id":"4","last_reported":1745283107,"current_range_meters":10000,"station_id":"ce4bhnp2rcd13ifvqh0g","pricing_plan_id":"cebpf4jnsgd1na2vs0mg"},{"bike_id":"64adcb2b-0958-4245-bddc-4122d932a81b","system_id":"levelo_inurba_marseille","lat":43.29804,"lon":5.403974,"is_reserved":false,"is_disabled":false,"rental_uris":{"android":"levelo://app?vid=64adcb2b-0958-4245-bddc-4122d932a81b","ios":"levelo://app?vid=64adcb2b-0958-4245-bddc-4122d932a81b"},"vehicle_type_id":"4","last_reported":1745283107,"current_range_meters":10000,"station_id":"ce4bh112rcd13ifvqd90","pricing_plan_id":"cebpf4jnsgd1na2vs0mg"},{"bike_id":"d5aaf7b9-7fe4-4e49-ab5f-5b64544b07d5","system_id":"levelo_inurba_marseille","lat":43.250048,"lon":5.389242,"is_reserved":false,"is_disabled":false,"rental_uris":{"android":"levelo://app?vid=d5aaf7b9-7fe4-4e49-ab5f-5b64544b07d5","ios":"levelo://app?vid=d5aaf7b9-7fe4-4e49-ab5f-5b64544b07d5"},"vehicle_type_id":"4","last_reported":1745283107,"current_range_meters":10800,"station_id":"ce4bhgp2rcd13ifvqfd0","pricing_plan_id":"cebpf4jnsgd1na2vs0mg"},{"bike_id":"5651431b-db7d-46f1-ba47-9c260ae40481","system_id":"levelo_inurba_marseille","lat":43.29868,"lon":5.397288,"is_reserved":false,"is_disabled":false,"rental_uris":{"android":"levelo://app?vid=5651431b-db7d-46f1-ba47-9c260ae40481","ios":"levelo://app?vid=5651431b-db7d-46f1-ba47-9c260ae40481"},"vehicle_type_id":"4","last_reported":1745283107,"current_range_meters":10800,"station_id":"ce4bh0h2rcd13ifvqd50","pricing_plan_id":"cebpf4jnsgd1na2vs0mg"},{"bike_id":"98bb5fbf-6f36-4f60-9412-0dcd0922c2df","system_id":"levelo_inurba_marseille","lat":43.295234,"lon":5.390249,"is_reserved":false,"is_disabled":false,"rental_uris":{"android":"levelo://app?vid=98bb5fbf-6f36-4f60-9412-0dcd0922c2df","ios":"levelo://app?vid=98bb5fbf-6f36-4f60-9412-0dcd0922c2df"},"vehicle_type_id":"4","last_reported":1745283107,"current_range_meters":10800,"station_id":"ce4bh3p2rcd13ifvqdp0","pricing_plan_id":"cebpf4jnsgd1na2vs0mg"},{"bike_id":"d7891f6f-dbf7-462a-8ba9-666022d45f1b","system_id":"levelo_inurba_marseille","lat":43.28711,"lon":5.39979,"is_reserved":false,"is_disabled":false,"rental_uris":{"android":"levelo://app?vid=d7891f6f-dbf7-462a-8ba9-666022d45f1b","ios":"levelo://app?vid=d7891f6f-dbf7-462a-8ba9-666022d45f1b"},"vehicle_type_id":"4","last_reported":1745283107,"current_range_meters":10800,"station_id":"ce4bho92rcd13ifvqh3g","pricing_plan_id":"cebpf4jnsgd1na2vs0mg"},{"bike_id":"79aa6860-e364-4149-b072-633a474e9932","system_id":"levelo_inurba_marseille","lat":43.27994,"lon":5.41665,"is_reserved":false,"is_disabled":false,"rental_uris":{"android":"levelo://app?vid=79aa6860-e364-4149-b072-633a474e9932","ios":"levelo://app?vid=79aa6860-e364-4149-b072-633a474e9932"},"vehicle_type_id":"4","last_reported":1745283107,"current_range_meters":10800,"station_id":"ce4bho12rcd13ifvqh1g","pricing_plan_id":"cebpf4jnsgd1na2vs0mg"},{"bike_id":"ea8dd40d-d1c9-495b-acb7-79fe81df74e2","system_id":"levelo_inurba_marseille","lat":43.28731,"lon":5.40021,"is_reserved":false,"is_disabled":false,"rental_uris":{"android":"levelo://app?vid=ea8dd40d-d1c9-495b-acb7-79fe81df74e2","ios":"levelo://app?vid=ea8dd40d-d1c9-495b-acb7-79fe81df74e2"},"vehicle_type_id":"4","last_reported":1745283107,"current_range_meters":11200,"station_id":"ce4bho92rcd13ifvqh3g","pricing_plan_id":"cebpf4jnsgd1na2vs0mg"},{"bike_id":"410e2ce2-1cab-49a6-96c3-30cb0e6044da","system_id":"levelo_inurba_marseille","lat":43.3022,"lon":5.39462,"is_reserved":false,"is_disabled":false,"rental_uris":{"android":"levelo://app?vid=410e2ce2-1cab-49a6-96c3-30cb0e6044da","ios":"levelo://app?vid=410e2ce2-1cab-49a6-96c3-30cb0e6044da"},"vehicle_type_id":"4","last_reported":1745283107,"current_range_meters":11200,"station_id":"ce4bh0p2rcd13ifvqd70","pricing_plan_id":"cebpf4jnsgd1na2vs0mg"},{"bike_id":"9032c1b2-7805-4907-a608-5610837f60f3","system_id":"levelo_inurba_marseille","lat":43.292795,"lon":5.401258,"is_reserved":false,"is_disabled":false,"rental_uris":{"android":"levelo://app?vid=9032c1b2-7805-4907-a608-5610837f60f3","ios":"levelo://app?vid=9032c1b2-7805-4907-a608-5610837f60f3"},"vehicle_type_id":"4","last_reported":1745283107,"current_range_meters":11200,"station_id":"ce4bh312rcd13ifvqdk0","pricing_plan_id":"cebpf4jnsgd1na2vs0mg"},{"bike_id":"50f6dc04-17ec-4940-9332-8f3db38b7ab2","system_id":"levelo_inurba_marseille","lat":43.2869,"lon":5.40014,"is_reserved":false,"is_disabled":false,"rental_uris":{"android":"levelo://app?vid=50f6dc04-17ec-4940-9332-8f3db38b7ab2","ios":"levelo://app?vid=50f6dc04-17ec-4940-9332-8f3db38b7ab2"},"vehicle_type_id":"4","last_reported":1745283107,"current_range_meters":12000,"station_id":"ce4bho92rcd13ifvqh3g","pricing_plan_id":"cebpf4jnsgd1na2vs0mg"},{"bike_id":"6a4af5e8-f5c0-41fb-afb5-22ff76967e42","system_id":"levelo_inurba_marseille","lat":43.28415,"lon":5.3753,"is_reserved":false,"is_disabled":false,"rental_uris":{"android":"levelo://app?vid=6a4af5e8-f5c0-41fb-afb5-22ff76967e42","ios":"levelo://app?vid=6a4af5e8-f5c0-41fb-afb5-22ff76967e42"},"vehicle_type_id":"4","last_reported":1745283107,"current_range_meters":11600,"station_id":"ce4bh412rcd13ifvqds0","pricing_plan_id":"cebpf4jnsgd1na2vs0mg"},{"bike_id":"f4b7a7f2-0d5e-41f4-8959-ca288a5714d9","system_id":"levelo_inurba_marseille","lat":43.28611,"lon":5.37071,"is_reserved":false,"is_disabled":false,"rental_uris":{"android":"levelo://app?vid=f4b7a7f2-0d5e-41f4-8959-ca288a5714d9","ios":"levelo://app?vid=f4b7a7f2-0d5e-41f4-8959-ca288a5714d9"},"vehicle_type_id":"4","last_reported":1745283107,"current_range_meters":11600,"station_id":"ce4bht12rcd13ifvqi60","pricing_plan_id":"cebpf4jnsgd1na2vs0mg"},{"bike_id":"66a9a378-d232-4166-a630-37e48fa18f9f","system_id":"levelo_inurba_marseille","lat":43.31996,"lon":5.381531,"is_reserved":false,"is_disabled":false,"rental_uris":{"android":"levelo://app?vid=66a9a378-d232-4166-a630-37e48fa18f9f","ios":"levelo://app?vid=66a9a378-d232-4166-a630-37e48fa18f9f"},"vehicle_type_id":"4","last_reported":1745283107,"current_range_meters":11600,"station_id":"ce4bhr12rcd13ifvqhpg","pricing_plan_id":"cebpf4jnsgd1na2vs0mg"},{"bike_id":"25926444-815c-4b3b-8853-dd04cd9088f7","system_id":"levelo_inurba_marseille","lat":43.31699,"lon":5.40451,"is_reserved":false,"is_disabled":false,"rental_uris":{"android":"levelo://app?vid=25926444-815c-4b3b-8853-dd04cd9088f7","ios":"levelo://app?vid=25926444-815c-4b3b-8853-dd04cd9088f7"},"vehicle_type_id":"4","last_reported":1745283107,"current_range_meters":11600,"station_id":"ce4bh012rcd13ifvqd00","pricing_plan_id":"cebpf4jnsgd1na2vs0mg"},{"bike_id":"f2ff2ce8-b00d-4b62-a381-f4671f62f1a9","system_id":"levelo_inurba_marseille","lat":43.311657,"lon":5.38717,"is_reserved":false,"is_disabled":false,"rental_uris":{"android":"levelo://app?vid=f2ff2ce8-b00d-4b62-a381-f4671f62f1a9","ios":"levelo://app?vid=f2ff2ce8-b00d-4b62-a381-f4671f62f1a9"},"vehicle_type_id":"4","last_reported":1745283107,"current_range_meters":11600,"station_id":"ce4bgv12rcd13ifvqcp0","pricing_plan_id":"cebpf4jnsgd1na2vs0mg"},{"bike_id":"a172f588-42ca-4666-a9cd-434e4d1874bf","system_id":"levelo_inurba_marseille","lat":43.28468,"lon":5.35879,"is_reserved":false,"is_disabled":false,"rental_uris":{"android":"levelo://app?vid=a172f588-42ca-4666-a9cd-434e4d1874bf","ios":"levelo://app?vid=a172f588-42ca-4666-a9cd-434e4d1874bf"},"vehicle_type_id":"4","last_reported":1745283107,"current_range_meters":12000,"station_id":"ce4bhah2rcd13ifvqei0","pricing_plan_id":"cebpf4jnsgd1na2vs0mg"},{"bike_id":"2dc4e79a-33a8-48b0-bf03-f6328f1dc1f6","system_id":"levelo_inurba_marseille","lat":43.32371,"lon":5.38887,"is_reserved":false,"is_disabled":true,"rental_uris":{"android":"levelo://app?vid=2dc4e79a-33a8-48b0-bf03-f6328f1dc1f6","ios":"levelo://app?vid=2dc4e79a-33a8-48b0-bf03-f6328f1dc1f6"},"vehicle_type_id":"4","last_reported":1745283107,"current_range_meters":12000,"station_id":"ce4bhqp2rcd13ifvqhog","pricing_plan_id":"cebpf4jnsgd1na2vs0mg"},{"bike_id":"fa6fb692-3c02-45e3-ae8b-7fd21c19ed5f","system_id":"levelo_inurba_marseille","lat":43.28637,"lon":5.3836,"is_reserved":false,"is_disabled":false,"rental_uris":{"android":"levelo://app?vid=fa6fb692-3c02-45e3-ae8b-7fd21c19ed5f","ios":"levelo://app?vid=fa6fb692-3c02-45e3-ae8b-7fd21c19ed5f"},"vehicle_type_id":"4","last_reported":1745283107,"current_range_meters":12000,"station_id":"","pricing_plan_id":"cebpf4jnsgd1na2vs0mg"},{"bike_id":"4eb3e58f-17bb-4007-b6f7-ead627ffb500","system_id":"levelo_inurba_marseille","lat":43.292518,"lon":5.384352,"is_reserved":false,"is_disabled":true,"rental_uris":{"android":"levelo://app?vid=4eb3e58f-17bb-4007-b6f7-ead627ffb500","ios":"levelo://app?vid=4eb3e58f-17bb-4007-b6f7-ead627ffb500"},"vehicle_type_id":"4","last_reported":1745283107,"current_range_meters":12000,"station_id":"ce4bh692rcd13ifvqea0","pricing_plan_id":"cebpf4jnsgd1na2vs0mg"},{"bike_id":"43ea2697-003d-4975-8a5e-6da0f8df830d","system_id":"levelo_inurba_marseille","lat":43.31993,"lon":5.38125,"is_reserved":false,"is_disabled":false,"rental_uris":{"android":"levelo://app?vid=43ea2697-003d-4975-8a5e-6da0f8df830d","ios":"levelo://app?vid=43ea2697-003d-4975-8a5e-6da0f8df830d"},"vehicle_type_id":"4","last_reported":1745283107,"current_range_meters":12400,"station_id":"ce4bhr12rcd13ifvqhpg","pricing_plan_id":"cebpf4jnsgd1na2vs0mg"},{"bike_id":"8fd43598-927a-4b0c-abdc-ee6ebcc379cd","system_id":"levelo_inurba_marseille","lat":43.30806,"lon":5.3816,"is_reserved":false,"is_disabled":false,"rental_uris":{"android":"levelo://app?vid=8fd43598-927a-4b0c-abdc-ee6ebcc379cd","ios":"levelo://app?vid=8fd43598-927a-4b0c-abdc-ee6ebcc379cd"},"vehicle_type_id":"4","last_reported":1745283107,"current_range_meters":12400,"station_id":"ce4bgt12rcd13ifvqce0","pricing_plan_id":"cebpf4jnsgd1na2vs0mg"},{"bike_id":"47218403-8595-4637-a42b-ee977a548d13","system_id":"levelo_inurba_marseille","lat":43.28364,"lon":5.38623,"is_reserved":false,"is_disabled":false,"rental_uris":{"android":"levelo://app?vid=47218403-8595-4637-a42b-ee977a548d13","ios":"levelo://app?vid=47218403-8595-4637-a42b-ee977a548d13"},"vehicle_type_id":"4","last_reported":1745283107,"current_range_meters":12400,"station_id":"ce4bh492rcd13ifvqdvg","pricing_plan_id":"cebpf4jnsgd1na2vs0mg"},{"bike_id":"4c6fa7bc-f11e-471d-9e17-f3995a014298","system_id":"levelo_inurba_marseille","lat":43.28727,"lon":5.40002,"is_reserved":false,"is_disabled":false,"rental_uris":{"android":"levelo://app?vid=4c6fa7bc-f11e-471d-9e17-f3995a014298","ios":"levelo://app?vid=4c6fa7bc-f11e-471d-9e17-f3995a014298"},"vehicle_type_id":"4","last_reported":1745283107,"current_range_meters":12400,"station_id":"ce4bho92rcd13ifvqh3g","pricing_plan_id":"cebpf4jnsgd1na2vs0mg"},{"bike_id":"e07c446c-794c-4c7e-8983-08bcf88741d7","system_id":"levelo_inurba_marseille","lat":43.30906,"lon":5.39611,"is_reserved":false,"is_disabled":false,"rental_uris":{"android":"levelo://app?vid=e07c446c-794c-4c7e-8983-08bcf88741d7","ios":"levelo://app?vid=e07c446c-794c-4c7e-8983-08bcf88741d7"},"vehicle_type_id":"4","last_reported":1745283107,"current_range_meters":12800,"station_id":"ce4bh012rcd13ifvqcv0","pricing_plan_id":"cebpf4jnsgd1na2vs0mg"},{"bike_id":"8845df7c-25f7-458d-9ae1-738a6dd391e2","system_id":"levelo_inurba_marseille","lat":43.34154,"lon":5.40892,"is_reserved":false,"is_disabled":false,"rental_uris":{"android":"levelo://app?vid=8845df7c-25f7-458d-9ae1-738a6dd391e2","ios":"levelo://app?vid=8845df7c-25f7-458d-9ae1-738a6dd391e2"},"vehicle_type_id":"4","last_reported":1745283107,"current_range_meters":12800,"station_id":"ce4bhqh2rcd13ifvqhlg","pricing_plan_id":"cebpf4jnsgd1na2vs0mg"},{"bike_id":"896376d6-ea17-4234-ae73-98d1ffb299ab","system_id":"levelo_inurba_marseille","lat":43.28613,"lon":5.37056,"is_reserved":false,"is_disabled":false,"rental_uris":{"android":"levelo://app?vid=896376d6-ea17-4234-ae73-98d1ffb299ab","ios":"levelo://app?vid=896376d6-ea17-4234-ae73-98d1ffb299ab"},"vehicle_type_id":"4","last_reported":1745283107,"current_range_meters":12800,"station_id":"ce4bht12rcd13ifvqi60","pricing_plan_id":"cebpf4jnsgd1na2vs0mg"},{"bike_id":"213da5e8-23e1-4c9c-89ed-8256ec571fc4","system_id":"levelo_inurba_marseille","lat":43.28372,"lon":5.38643,"is_reserved":false,"is_disabled":false,"rental_uris":{"android":"levelo://app?vid=213da5e8-23e1-4c9c-89ed-8256ec571fc4","ios":"levelo://app?vid=213da5e8-23e1-4c9c-89ed-8256ec571fc4"},"vehicle_type_id":"4","last_reported":1745283107,"current_range_meters":12800,"station_id":"ce4bh492rcd13ifvqdvg","pricing_plan_id":"cebpf4jnsgd1na2vs0mg"},{"bike_id":"0cc8691f-a082-4a9b-944f-91ae0092fb38","system_id":"levelo_inurba_marseille","lat":43.293306,"lon":5.401853,"is_reserved":false,"is_disabled":false,"rental_uris":{"android":"levelo://app?vid=0cc8691f-a082-4a9b-944f-91ae0092fb38","ios":"levelo://app?vid=0cc8691f-a082-4a9b-944f-91ae0092fb38"},"vehicle_type_id":"4","last_reported":1745283107,"current_range_meters":12800,"station_id":"","pricing_plan_id":"cebpf4jnsgd1na2vs0mg"},{"bike_id":"b9990b0b-23ad-461b-a2d8-df7e2af72eca","system_id":"levelo_inurba_marseille","lat":43.30716,"lon":5.38063,"is_reserved":false,"is_disabled":false,"rental_uris":{"android":"levelo://app?vid=b9990b0b-23ad-461b-a2d8-df7e2af72eca","ios":"levelo://app?vid=b9990b0b-23ad-461b-a2d8-df7e2af72eca"},"vehicle_type_id":"4","last_reported":1745283107,"current_range_meters":12800,"station_id":"","pricing_plan_id":"cebpf4jnsgd1na2vs0mg"},{"bike_id":"7aad4794-62b1-44fd-97ea-9553d6742a29","system_id":"levelo_inurba_marseille","lat":43.3021,"lon":5.39476,"is_reserved":false,"is_disabled":false,"rental_uris":{"android":"levelo://app?vid=7aad4794-62b1-44fd-97ea-9553d6742a29","ios":"levelo://app?vid=7aad4794-62b1-44fd-97ea-9553d6742a29"},"vehicle_type_id":"4","last_reported":1745283107,"current_range_meters":12800,"station_id":"ce4bh0p2rcd13ifvqd70","pricing_plan_id":"cebpf4jnsgd1na2vs0mg"},{"bike_id":"ae426aff-dab8-48da-aece-a07401c06655","system_id":"levelo_inurba_marseille","lat":43.28071,"lon":5.39659,"is_reserved":false,"is_disabled":false,"rental_uris":{"android":"levelo://app?vid=ae426aff-dab8-48da-aece-a07401c06655","ios":"levelo://app?vid=ae426aff-dab8-48da-aece-a07401c06655"},"vehicle_type_id":"4","last_reported":1745283107,"current_range_meters":13600,"station_id":"ce4bho12rcd13ifvqh2g","pricing_plan_id":"cebpf4jnsgd1na2vs0mg"},{"bike_id":"dd4176eb-c333-4ad0-a25f-f7a1ed923263","system_id":"levelo_inurba_marseille","lat":43.29436,"lon":5.39744,"is_reserved":false,"is_disabled":false,"rental_uris":{"android":"levelo://app?vid=dd4176eb-c333-4ad0-a25f-f7a1ed923263","ios":"levelo://app?vid=dd4176eb-c333-4ad0-a25f-f7a1ed923263"},"vehicle_type_id":"4","last_reported":1745283107,"current_range_meters":13600,"station_id":"ce4bh3h2rcd13ifvqdo0","pricing_plan_id":"cebpf4jnsgd1na2vs0mg"},{"bike_id":"ae53a1b2-a997-4258-ba05-04424f6f3516","system_id":"levelo_inurba_marseille","lat":43.279142,"lon":5.39582,"is_reserved":false,"is_disabled":false,"rental_uris":{"android":"levelo://app?vid=ae53a1b2-a997-4258-ba05-04424f6f3516","ios":"levelo://app?vid=ae53a1b2-a997-4258-ba05-04424f6f3516"},"vehicle_type_id":"4","last_reported":1745283107,"current_range_meters":13600,"station_id":"ce4bhf92rcd13ifvqf40","pricing_plan_id":"cebpf4jnsgd1na2vs0mg"},{"bike_id":"c715e6d5-141e-4f7d-89aa-48d9818c4993","system_id":"levelo_inurba_marseille","lat":43.30599,"lon":5.39366,"is_reserved":false,"is_disabled":false,"rental_uris":{"android":"levelo://app?vid=c715e6d5-141e-4f7d-89aa-48d9818c4993","ios":"levelo://app?vid=c715e6d5-141e-4f7d-89aa-48d9818c4993"},"vehicle_type_id":"4","last_reported":1745283107,"current_range_meters":13600,"station_id":"ce4bh0p2rcd13ifvqd80","pricing_plan_id":"cebpf4jnsgd1na2vs0mg"},{"bike_id":"68e09bbf-f72d-41c4-aeef-60185538bcb5","system_id":"levelo_inurba_marseille","lat":43.28714,"lon":5.37944,"is_reserved":false,"is_disabled":false,"rental_uris":{"android":"levelo://app?vid=68e09bbf-f72d-41c4-aeef-60185538bcb5","ios":"levelo://app?vid=68e09bbf-f72d-41c4-aeef-60185538bcb5"},"vehicle_type_id":"4","last_reported":1745283107,"current_range_meters":13600,"station_id":"ce4bh9p2rcd13ifvqec0","pricing_plan_id":"cebpf4jnsgd1na2vs0mg"},{"bike_id":"b373a9fc-b19f-49e6-9414-e3e614041e34","system_id":"levelo_inurba_marseille","lat":43.270669,"lon":5.422779,"is_reserved":false,"is_disabled":true,"rental_uris":{"android":"levelo://app?vid=b373a9fc-b19f-49e6-9414-e3e614041e34","ios":"levelo://app?vid=b373a9fc-b19f-49e6-9414-e3e614041e34"},"vehicle_type_id":"4","last_reported":1745283107,"current_range_meters":13600,"station_id":"ce4bhk92rcd13ifvqgb0","pricing_plan_id":"cebpf4jnsgd1na2vs0mg"},{"bike_id":"21917916-4faf-4a68-958e-ef1fcba4e701","system_id":"levelo_inurba_marseille","lat":43.31502,"lon":5.37291,"is_reserved":false,"is_disabled":false,"rental_uris":{"android":"levelo://app?vid=21917916-4faf-4a68-958e-ef1fcba4e701","ios":"levelo://app?vid=21917916-4faf-4a68-958e-ef1fcba4e701"},"vehicle_type_id":"4","last_reported":1745283107,"current_range_meters":13600,"station_id":"ce4bgt12rcd13ifvqcd0","pricing_plan_id":"cebpf4jnsgd1na2vs0mg"},{"bike_id":"31dad1ac-0f84-44f8-a969-f5f6007b9b50","system_id":"levelo_inurba_marseille","lat":43.25008,"lon":5.38937,"is_reserved":false,"is_disabled":true,"rental_uris":{"android":"levelo://app?vid=31dad1ac-0f84-44f8-a969-f5f6007b9b50","ios":"levelo://app?vid=31dad1ac-0f84-44f8-a969-f5f6007b9b50"},"vehicle_type_id":"4","last_reported":1745283107,"current_range_meters":14000,"station_id":"ce4bhgp2rcd13ifvqfd0","pricing_plan_id":"cebpf4jnsgd1na2vs0mg"},{"bike_id":"afca05cb-9dea-4e13-bae3-b0bd83251e29","system_id":"levelo_inurba_marseille","lat":43.3377,"lon":5.37432,"is_reserved":false,"is_disabled":false,"rental_uris":{"android":"levelo://app?vid=afca05cb-9dea-4e13-bae3-b0bd83251e29","ios":"levelo://app?vid=afca05cb-9dea-4e13-bae3-b0bd83251e29"},"vehicle_type_id":"4","last_reported":1745283107,"current_range_meters":14000,"station_id":"","pricing_plan_id":"cebpf4jnsgd1na2vs0mg"},{"bike_id":"85a4b1a0-8ac6-4193-a4bd-d5cdcf7c4a8f","system_id":"levelo_inurba_marseille","lat":43.28738,"lon":5.37937,"is_reserved":false,"is_disabled":false,"rental_uris":{"android":"levelo://app?vid=85a4b1a0-8ac6-4193-a4bd-d5cdcf7c4a8f","ios":"levelo://app?vid=85a4b1a0-8ac6-4193-a4bd-d5cdcf7c4a8f"},"vehicle_type_id":"4","last_reported":1745283107,"current_range_meters":14000,"station_id":"ce4bh9p2rcd13ifvqec0","pricing_plan_id":"cebpf4jnsgd1na2vs0mg"},{"bike_id":"a1621b7c-670f-445e-b3b4-0bdb1b429630","system_id":"levelo_inurba_marseille","lat":43.2904,"lon":5.39952,"is_reserved":false,"is_disabled":false,"rental_uris":{"android":"levelo://app?vid=a1621b7c-670f-445e-b3b4-0bdb1b429630","ios":"levelo://app?vid=a1621b7c-670f-445e-b3b4-0bdb1b429630"},"vehicle_type_id":"4","last_reported":1745283107,"current_range_meters":13600,"station_id":"ce4bh392rcd13ifvqdm0","pricing_plan_id":"cebpf4jnsgd1na2vs0mg"},{"bike_id":"a56ba011-d190-409d-b99e-3c214f1d2894","system_id":"levelo_inurba_marseille","lat":43.28936,"lon":5.39626,"is_reserved":false,"is_disabled":false,"rental_uris":{"android":"levelo://app?vid=a56ba011-d190-409d-b99e-3c214f1d2894","ios":"levelo://app?vid=a56ba011-d190-409d-b99e-3c214f1d2894"},"vehicle_type_id":"4","last_reported":1745283107,"current_range_meters":14000,"station_id":"ce4bh3h2rcd13ifvqdn0","pricing_plan_id":"cebpf4jnsgd1na2vs0mg"},{"bike_id":"a597aa79-a9e7-446e-9f8d-ad8e32781eda","system_id":"levelo_inurba_marseille","lat":43.25935,"lon":5.40906,"is_reserved":false,"is_disabled":false,"rental_uris":{"android":"levelo://app?vid=a597aa79-a9e7-446e-9f8d-ad8e32781eda","ios":"levelo://app?vid=a597aa79-a9e7-446e-9f8d-ad8e32781eda"},"vehicle_type_id":"4","last_reported":1745283107,"current_range_meters":14000,"station_id":"ce4bhm92rcd13ifvqglg","pricing_plan_id":"cebpf4jnsgd1na2vs0mg"},{"bike_id":"e7c416a1-d3d4-4a43-927c-145ae605d8a0","system_id":"levelo_inurba_marseille","lat":43.24076,"lon":5.37748,"is_reserved":false,"is_disabled":false,"rental_uris":{"android":"levelo://app?vid=e7c416a1-d3d4-4a43-927c-145ae605d8a0","ios":"levelo://app?vid=e7c416a1-d3d4-4a43-927c-145ae605d8a0"},"vehicle_type_id":"4","last_reported":1745283107,"current_range_meters":14000,"station_id":"ce4bhnp2rcd13ifvqgvg","pricing_plan_id":"cebpf4jnsgd1na2vs0mg"},{"bike_id":"e3f2ff94-19f7-4b16-a506-885772f72f4c","system_id":"levelo_inurba_marseille","lat":43.24167,"lon":5.36402,"is_reserved":false,"is_disabled":true,"rental_uris":{"android":"levelo://app?vid=e3f2ff94-19f7-4b16-a506-885772f72f4c","ios":"levelo://app?vid=e3f2ff94-19f7-4b16-a506-885772f72f4c"},"vehicle_type_id":"4","last_reported":1745283107,"current_range_meters":14000,"station_id":"cpo36qri1sfpv3e86is0","pricing_plan_id":"cebpf4jnsgd1na2vs0mg"},{"bike_id":"d9e79c39-e7f5-4230-a287-0d676fda5550","system_id":"levelo_inurba_marseille","lat":43.29276,"lon":5.4014,"is_reserved":false,"is_disabled":false,"rental_uris":{"android":"levelo://app?vid=d9e79c39-e7f5-4230-a287-0d676fda5550","ios":"levelo://app?vid=d9e79c39-e7f5-4230-a287-0d676fda5550"},"vehicle_type_id":"4","last_reported":1745283107,"current_range_meters":14400,"station_id":"ce4bh312rcd13ifvqdk0","pricing_plan_id":"cebpf4jnsgd1na2vs0mg"},{"bike_id":"75e88468-f4b5-4d6d-9918-ecc4d75638fe","system_id":"levelo_inurba_marseille","lat":43.301,"lon":5.39081,"is_reserved":false,"is_disabled":false,"rental_uris":{"android":"levelo://app?vid=75e88468-f4b5-4d6d-9918-ecc4d75638fe","ios":"levelo://app?vid=75e88468-f4b5-4d6d-9918-ecc4d75638fe"},"vehicle_type_id":"4","last_reported":1745283107,"current_range_meters":14400,"station_id":"ce4bh192rcd13ifvqdb0","pricing_plan_id":"cebpf4jnsgd1na2vs0mg"},{"bike_id":"a7aa4f0d-dbae-40db-a193-3ad158f70ff8","system_id":"levelo_inurba_marseille","lat":43.31044,"lon":5.37045,"is_reserved":false,"is_disabled":false,"rental_uris":{"android":"levelo://app?vid=a7aa4f0d-dbae-40db-a193-3ad158f70ff8","ios":"levelo://app?vid=a7aa4f0d-dbae-40db-a193-3ad158f70ff8"},"vehicle_type_id":"4","last_reported":1745283107,"current_range_meters":14800,"station_id":"","pricing_plan_id":"cebpf4jnsgd1na2vs0mg"},{"bike_id":"b101afbf-59d1-496d-8034-1c01b9f4a24e","system_id":"levelo_inurba_marseille","lat":43.29203,"lon":5.393229,"is_reserved":false,"is_disabled":false,"rental_uris":{"android":"levelo://app?vid=b101afbf-59d1-496d-8034-1c01b9f4a24e","ios":"levelo://app?vid=b101afbf-59d1-496d-8034-1c01b9f4a24e"},"vehicle_type_id":"4","last_reported":1745283107,"current_range_meters":14800,"station_id":"ce4bh192rcd13ifvqdd0","pricing_plan_id":"cebpf4jnsgd1na2vs0mg"},{"bike_id":"217bc09c-9054-444f-b0a6-1a91698bbf60","system_id":"levelo_inurba_marseille","lat":43.26197,"lon":5.374453,"is_reserved":false,"is_disabled":true,"rental_uris":{"android":"levelo://app?vid=217bc09c-9054-444f-b0a6-1a91698bbf60","ios":"levelo://app?vid=217bc09c-9054-444f-b0a6-1a91698bbf60"},"vehicle_type_id":"4","last_reported":1745283107,"current_range_meters":14800,"station_id":"ce4bhgp2rcd13ifvqfc0","pricing_plan_id":"cebpf4jnsgd1na2vs0mg"},{"bike_id":"2568281a-34e3-44a1-8733-80292791fc14","system_id":"levelo_inurba_marseille","lat":43.287126,"lon":5.399824,"is_reserved":false,"is_disabled":false,"rental_uris":{"android":"levelo://app?vid=2568281a-34e3-44a1-8733-80292791fc14","ios":"levelo://app?vid=2568281a-34e3-44a1-8733-80292791fc14"},"vehicle_type_id":"4","last_reported":1745283107,"current_range_meters":14800,"station_id":"ce4bho92rcd13ifvqh3g","pricing_plan_id":"cebpf4jnsgd1na2vs0mg"},{"bike_id":"49031319-d769-4007-8548-0273e2675310","system_id":"levelo_inurba_marseille","lat":43.30927,"lon":5.40136,"is_reserved":false,"is_disabled":false,"rental_uris":{"android":"levelo://app?vid=49031319-d769-4007-8548-0273e2675310","ios":"levelo://app?vid=49031319-d769-4007-8548-0273e2675310"},"vehicle_type_id":"4","last_reported":1745283107,"current_range_meters":14800,"station_id":"ce4bgvp2rcd13ifvqct0","pricing_plan_id":"cebpf4jnsgd1na2vs0mg"},{"bike_id":"0b220d75-68f8-45ed-a4ba-a58468c427bf","system_id":"levelo_inurba_marseille","lat":43.30594,"lon":5.39351,"is_reserved":false,"is_disabled":false,"rental_uris":{"android":"levelo://app?vid=0b220d75-68f8-45ed-a4ba-a58468c427bf","ios":"levelo://app?vid=0b220d75-68f8-45ed-a4ba-a58468c427bf"},"vehicle_type_id":"4","last_reported":1745283107,"current_range_meters":14800,"station_id":"ce4bh0p2rcd13ifvqd80","pricing_plan_id":"cebpf4jnsgd1na2vs0mg"},{"bike_id":"6b4282bc-9432-4c95-847b-7452cf13e716","system_id":"levelo_inurba_marseille","lat":43.29307,"lon":5.37134,"is_reserved":false,"is_disabled":true,"rental_uris":{"android":"levelo://app?vid=6b4282bc-9432-4c95-847b-7452cf13e716","ios":"levelo://app?vid=6b4282bc-9432-4c95-847b-7452cf13e716"},"vehicle_type_id":"4","last_reported":1745283107,"current_range_meters":15200,"station_id":"ce4bgh92rcd13ifvqb40","pricing_plan_id":"cebpf4jnsgd1na2vs0mg"},{"bike_id":"fa15de24-cca3-4579-a312-f78f5ae8f6e1","system_id":"levelo_inurba_marseille","lat":43.24081,"lon":5.37749,"is_reserved":false,"is_disabled":false,"rental_uris":{"android":"levelo://app?vid=fa15de24-cca3-4579-a312-f78f5ae8f6e1","ios":"levelo://app?vid=fa15de24-cca3-4579-a312-f78f5ae8f6e1"},"vehicle_type_id":"4","last_reported":1745283107,"current_range_meters":15200,"station_id":"ce4bhnp2rcd13ifvqgvg","pricing_plan_id":"cebpf4jnsgd1na2vs0mg"},{"bike_id":"d1bab3a3-d105-4848-95e6-766bc72e11df","system_id":"levelo_inurba_marseille","lat":43.30888,"lon":5.39659,"is_reserved":false,"is_disabled":false,"rental_uris":{"android":"levelo://app?vid=d1bab3a3-d105-4848-95e6-766bc72e11df","ios":"levelo://app?vid=d1bab3a3-d105-4848-95e6-766bc72e11df"},"vehicle_type_id":"4","last_reported":1745283107,"current_range_meters":15200,"station_id":"ce4bh012rcd13ifvqcv0","pricing_plan_id":"cebpf4jnsgd1na2vs0mg"},{"bike_id":"b21c73ab-4359-4f8e-bb95-e8439a292e7b","system_id":"levelo_inurba_marseille","lat":43.27171,"lon":5.41012,"is_reserved":false,"is_disabled":false,"rental_uris":{"android":"levelo://app?vid=b21c73ab-4359-4f8e-bb95-e8439a292e7b","ios":"levelo://app?vid=b21c73ab-4359-4f8e-bb95-e8439a292e7b"},"vehicle_type_id":"4","last_reported":1745283107,"current_range_meters":15200,"station_id":"ce4bhl12rcd13ifvqgf0","pricing_plan_id":"cebpf4jnsgd1na2vs0mg"},{"bike_id":"f8a4dedb-ece2-49f2-82c0-8ba3b30d7a70","system_id":"levelo_inurba_marseille","lat":43.31373,"lon":5.3851,"is_reserved":false,"is_disabled":false,"rental_uris":{"android":"levelo://app?vid=f8a4dedb-ece2-49f2-82c0-8ba3b30d7a70","ios":"levelo://app?vid=f8a4dedb-ece2-49f2-82c0-8ba3b30d7a70"},"vehicle_type_id":"4","last_reported":1745283107,"current_range_meters":16000,"station_id":"ce4bgt92rcd13ifvqcf0","pricing_plan_id":"cebpf4jnsgd1na2vs0mg"},{"bike_id":"a756bae3-49c1-4d6c-89e8-fcb7b0e7d2e2","system_id":"levelo_inurba_marseille","lat":43.29051,"lon":5.35906,"is_reserved":false,"is_disabled":true,"rental_uris":{"android":"levelo://app?vid=a756bae3-49c1-4d6c-89e8-fcb7b0e7d2e2","ios":"levelo://app?vid=a756bae3-49c1-4d6c-89e8-fcb7b0e7d2e2"},"vehicle_type_id":"4","last_reported":1745283107,"current_range_meters":16000,"station_id":"ce4bha92rcd13ifvqeg0","pricing_plan_id":"cebpf4jnsgd1na2vs0mg"},{"bike_id":"19bdf40e-ce17-4477-9c87-815068b2b0ca","system_id":"levelo_inurba_marseille","lat":43.2894,"lon":5.39625,"is_reserved":false,"is_disabled":false,"rental_uris":{"android":"levelo://app?vid=19bdf40e-ce17-4477-9c87-815068b2b0ca","ios":"levelo://app?vid=19bdf40e-ce17-4477-9c87-815068b2b0ca"},"vehicle_type_id":"4","last_reported":1745283107,"current_range_meters":16000,"station_id":"ce4bh3h2rcd13ifvqdn0","pricing_plan_id":"cebpf4jnsgd1na2vs0mg"},{"bike_id":"2a35ab10-f416-439f-a4fa-784873cd587f","system_id":"levelo_inurba_marseille","lat":43.26953,"lon":5.38638,"is_reserved":false,"is_disabled":true,"rental_uris":{"android":"levelo://app?vid=2a35ab10-f416-439f-a4fa-784873cd587f","ios":"levelo://app?vid=2a35ab10-f416-439f-a4fa-784873cd587f"},"vehicle_type_id":"4","last_reported":1745283107,"current_range_meters":16000,"station_id":"ce4bhh92rcd13ifvqfh0","pricing_plan_id":"cebpf4jnsgd1na2vs0mg"},{"bike_id":"12505a0a-b14f-4f59-9be1-55ce43130db1","system_id":"levelo_inurba_marseille","lat":43.29606,"lon":5.38086,"is_reserved":false,"is_disabled":true,"rental_uris":{"android":"levelo://app?vid=12505a0a-b14f-4f59-9be1-55ce43130db1","ios":"levelo://app?vid=12505a0a-b14f-4f59-9be1-55ce43130db1"},"vehicle_type_id":"4","last_reported":1745283107,"current_range_meters":16000,"station_id":"ce4bgl12rcd13ifvqbo0","pricing_plan_id":"cebpf4jnsgd1na2vs0mg"},{"bike_id":"0f64adcb-2459-42cc-b90e-1e660a23ec79","system_id":"levelo_inurba_marseille","lat":43.29278,"lon":5.40152,"is_reserved":false,"is_disabled":false,"rental_uris":{"android":"levelo://app?vid=0f64adcb-2459-42cc-b90e-1e660a23ec79","ios":"levelo://app?vid=0f64adcb-2459-42cc-b90e-1e660a23ec79"},"vehicle_type_id":"4","last_reported":1745283107,"current_range_meters":16000,"station_id":"ce4bh312rcd13ifvqdk0","pricing_plan_id":"cebpf4jnsgd1na2vs0mg"},{"bike_id":"45480439-b5c3-4e5a-9735-d67e2b5e8704","system_id":"levelo_inurba_marseille","lat":43.28699,"lon":5.37374,"is_reserved":false,"is_disabled":false,"rental_uris":{"android":"levelo://app?vid=45480439-b5c3-4e5a-9735-d67e2b5e8704","ios":"levelo://app?vid=45480439-b5c3-4e5a-9735-d67e2b5e8704"},"vehicle_type_id":"4","last_reported":1745283107,"current_range_meters":16000,"station_id":"ce4bh3p2rcd13ifvqdq0","pricing_plan_id":"cebpf4jnsgd1na2vs0mg"},{"bike_id":"f25d8672-7640-4033-8cc4-f80944c4dd44","system_id":"levelo_inurba_marseille","lat":43.2723,"lon":5.40098,"is_reserved":false,"is_disabled":false,"rental_uris":{"android":"levelo://app?vid=f25d8672-7640-4033-8cc4-f80944c4dd44","ios":"levelo://app?vid=f25d8672-7640-4033-8cc4-f80944c4dd44"},"vehicle_type_id":"4","last_reported":1745283107,"current_range_meters":16400,"station_id":"","pricing_plan_id":"cebpf4jnsgd1na2vs0mg"},{"bike_id":"550d508d-030e-4766-b8c3-c19b3655c09d","system_id":"levelo_inurba_marseille","lat":43.30936,"lon":5.40143,"is_reserved":false,"is_disabled":false,"rental_uris":{"android":"levelo://app?vid=550d508d-030e-4766-b8c3-c19b3655c09d","ios":"levelo://app?vid=550d508d-030e-4766-b8c3-c19b3655c09d"},"vehicle_type_id":"4","last_reported":1745283107,"current_range_meters":16400,"station_id":"ce4bgvp2rcd13ifvqct0","pricing_plan_id":"cebpf4jnsgd1na2vs0mg"},{"bike_id":"283d465d-89e2-4db1-9f77-5fdc7a1f0ffc","system_id":"levelo_inurba_marseille","lat":43.28711,"lon":5.39999,"is_reserved":false,"is_disabled":false,"rental_uris":{"android":"levelo://app?vid=283d465d-89e2-4db1-9f77-5fdc7a1f0ffc","ios":"levelo://app?vid=283d465d-89e2-4db1-9f77-5fdc7a1f0ffc"},"vehicle_type_id":"4","last_reported":1745283107,"current_range_meters":16400,"station_id":"ce4bho92rcd13ifvqh3g","pricing_plan_id":"cebpf4jnsgd1na2vs0mg"},{"bike_id":"013b0bba-3a8e-4176-aec5-9b030be1a006","system_id":"levelo_inurba_marseille","lat":43.31731,"lon":5.37776,"is_reserved":false,"is_disabled":false,"rental_uris":{"android":"levelo://app?vid=013b0bba-3a8e-4176-aec5-9b030be1a006","ios":"levelo://app?vid=013b0bba-3a8e-4176-aec5-9b030be1a006"},"vehicle_type_id":"4","last_reported":1745283107,"current_range_meters":16400,"station_id":"ce4bgth2rcd13ifvqch0","pricing_plan_id":"cebpf4jnsgd1na2vs0mg"},{"bike_id":"e67493be-90d1-453e-bdde-ef8f6fd8f9f8","system_id":"levelo_inurba_marseille","lat":43.29243,"lon":5.40906,"is_reserved":false,"is_disabled":false,"rental_uris":{"android":"levelo://app?vid=e67493be-90d1-453e-bdde-ef8f6fd8f9f8","ios":"levelo://app?vid=e67493be-90d1-453e-bdde-ef8f6fd8f9f8"},"vehicle_type_id":"4","last_reported":1745283107,"current_range_meters":16400,"station_id":"ce4bh192rcd13ifvqdc0","pricing_plan_id":"cebpf4jnsgd1na2vs0mg"},{"bike_id":"38459f6a-034c-4bc7-9ad6-a5f483ad2390","system_id":"levelo_inurba_marseille","lat":43.2439,"lon":5.37077,"is_reserved":false,"is_disabled":false,"rental_uris":{"android":"levelo://app?vid=38459f6a-034c-4bc7-9ad6-a5f483ad2390","ios":"levelo://app?vid=38459f6a-034c-4bc7-9ad6-a5f483ad2390"},"vehicle_type_id":"4","last_reported":1745283107,"current_range_meters":16400,"station_id":"ce4bhhh2rcd13ifvqfk0","pricing_plan_id":"cebpf4jnsgd1na2vs0mg"},{"bike_id":"3db07ae4-35bc-49f5-9fb8-a9b19427acdd","system_id":"levelo_inurba_marseille","lat":43.28402,"lon":5.34983,"is_reserved":false,"is_disabled":false,"rental_uris":{"android":"levelo://app?vid=3db07ae4-35bc-49f5-9fb8-a9b19427acdd","ios":"levelo://app?vid=3db07ae4-35bc-49f5-9fb8-a9b19427acdd"},"vehicle_type_id":"4","last_reported":1745283107,"current_range_meters":16400,"station_id":"ce4bhbh2rcd13ifvqepg","pricing_plan_id":"cebpf4jnsgd1na2vs0mg"},{"bike_id":"41cd4d50-3bdd-4fa7-b5d1-d715f5a540e6","system_id":"levelo_inurba_marseille","lat":43.323636,"lon":5.367613,"is_reserved":false,"is_disabled":false,"rental_uris":{"android":"levelo://app?vid=41cd4d50-3bdd-4fa7-b5d1-d715f5a540e6","ios":"levelo://app?vid=41cd4d50-3bdd-4fa7-b5d1-d715f5a540e6"},"vehicle_type_id":"4","last_reported":1745283107,"current_range_meters":16400,"station_id":"ce4bhsh2rcd13ifvqi2g","pricing_plan_id":"cebpf4jnsgd1na2vs0mg"},{"bike_id":"fe554ffa-b5ed-4d08-a812-c81614445734","system_id":"levelo_inurba_marseille","lat":43.28835,"lon":5.35871,"is_reserved":false,"is_disabled":false,"rental_uris":{"android":"levelo://app?vid=fe554ffa-b5ed-4d08-a812-c81614445734","ios":"levelo://app?vid=fe554ffa-b5ed-4d08-a812-c81614445734"},"vehicle_type_id":"4","last_reported":1745283107,"current_range_meters":16400,"station_id":"ce4bhb12rcd13ifvqem0","pricing_plan_id":"cebpf4jnsgd1na2vs0mg"},{"bike_id":"457b4425-2143-4d8d-ab07-86e97485e358","system_id":"levelo_inurba_marseille","lat":43.32002,"lon":5.38147,"is_reserved":false,"is_disabled":false,"rental_uris":{"android":"levelo://app?vid=457b4425-2143-4d8d-ab07-86e97485e358","ios":"levelo://app?vid=457b4425-2143-4d8d-ab07-86e97485e358"},"vehicle_type_id":"4","last_reported":1745283107,"current_range_meters":16800,"station_id":"ce4bhr12rcd13ifvqhpg","pricing_plan_id":"cebpf4jnsgd1na2vs0mg"},{"bike_id":"b94ce143-5dd7-45a3-b111-19f8d55c0056","system_id":"levelo_inurba_marseille","lat":43.30203,"lon":5.43767,"is_reserved":false,"is_disabled":false,"rental_uris":{"android":"levelo://app?vid=b94ce143-5dd7-45a3-b111-19f8d55c0056","ios":"levelo://app?vid=b94ce143-5dd7-45a3-b111-19f8d55c0056"},"vehicle_type_id":"4","last_reported":1745283107,"current_range_meters":16800,"station_id":"","pricing_plan_id":"cebpf4jnsgd1na2vs0mg"},{"bike_id":"d1a505ef-7473-49c5-bad8-0e2f929d6043","system_id":"levelo_inurba_marseille","lat":43.27988,"lon":5.41667,"is_reserved":false,"is_disabled":false,"rental_uris":{"android":"levelo://app?vid=d1a505ef-7473-49c5-bad8-0e2f929d6043","ios":"levelo://app?vid=d1a505ef-7473-49c5-bad8-0e2f929d6043"},"vehicle_type_id":"4","last_reported":1745283107,"current_range_meters":16800,"station_id":"ce4bho12rcd13ifvqh1g","pricing_plan_id":"cebpf4jnsgd1na2vs0mg"},{"bike_id":"322cb3bd-1b2c-4ec8-9cd5-563729b64d42","system_id":"levelo_inurba_marseille","lat":43.240891,"lon":5.377378,"is_reserved":false,"is_disabled":false,"rental_uris":{"android":"levelo://app?vid=322cb3bd-1b2c-4ec8-9cd5-563729b64d42","ios":"levelo://app?vid=322cb3bd-1b2c-4ec8-9cd5-563729b64d42"},"vehicle_type_id":"4","last_reported":1745283107,"current_range_meters":16800,"station_id":"ce4bhnp2rcd13ifvqgvg","pricing_plan_id":"cebpf4jnsgd1na2vs0mg"},{"bike_id":"0862c2a3-6791-42f2-9d93-d826d756298f","system_id":"levelo_inurba_marseille","lat":43.3089,"lon":5.39626,"is_reserved":false,"is_disabled":false,"rental_uris":{"android":"levelo://app?vid=0862c2a3-6791-42f2-9d93-d826d756298f","ios":"levelo://app?vid=0862c2a3-6791-42f2-9d93-d826d756298f"},"vehicle_type_id":"4","last_reported":1745283107,"current_range_meters":16800,"station_id":"ce4bh012rcd13ifvqcv0","pricing_plan_id":"cebpf4jnsgd1na2vs0mg"},{"bike_id":"7b2dc864-a4e9-468c-9cee-f3075a20977d","system_id":"levelo_inurba_marseille","lat":43.31434,"lon":5.37332,"is_reserved":false,"is_disabled":true,"rental_uris":{"android":"levelo://app?vid=7b2dc864-a4e9-468c-9cee-f3075a20977d","ios":"levelo://app?vid=7b2dc864-a4e9-468c-9cee-f3075a20977d"},"vehicle_type_id":"4","last_reported":1745283107,"current_range_meters":16800,"station_id":"","pricing_plan_id":"cebpf4jnsgd1na2vs0mg"},{"bike_id":"48dda090-77a6-4d79-a3ef-6b0aebd79809","system_id":"levelo_inurba_marseille","lat":43.29557,"lon":5.42281,"is_reserved":false,"is_disabled":false,"rental_uris":{"android":"levelo://app?vid=48dda090-77a6-4d79-a3ef-6b0aebd79809","ios":"levelo://app?vid=48dda090-77a6-4d79-a3ef-6b0aebd79809"},"vehicle_type_id":"4","last_reported":1745283107,"current_range_meters":16800,"station_id":"ce4bhph2rcd13ifvqhdg","pricing_plan_id":"cebpf4jnsgd1na2vs0mg"},{"bike_id":"1f1f9885-6e62-4243-a5b0-45be9ddf4073","system_id":"levelo_inurba_marseille","lat":43.23958,"lon":5.36635,"is_reserved":false,"is_disabled":true,"rental_uris":{"android":"levelo://app?vid=1f1f9885-6e62-4243-a5b0-45be9ddf4073","ios":"levelo://app?vid=1f1f9885-6e62-4243-a5b0-45be9ddf4073"},"vehicle_type_id":"4","last_reported":1745283107,"current_range_meters":16800,"station_id":"ce4bhi12rcd13ifvqfp0","pricing_plan_id":"cebpf4jnsgd1na2vs0mg"},{"bike_id":"67f63153-bd63-4c57-a2cb-95fa14067c52","system_id":"levelo_inurba_marseille","lat":43.29521,"lon":5.39398,"is_reserved":false,"is_disabled":false,"rental_uris":{"android":"levelo://app?vid=67f63153-bd63-4c57-a2cb-95fa14067c52","ios":"levelo://app?vid=67f63153-bd63-4c57-a2cb-95fa14067c52"},"vehicle_type_id":"4","last_reported":1745283107,"current_range_meters":17200,"station_id":"ce4bh292rcd13ifvqdf0","pricing_plan_id":"cebpf4jnsgd1na2vs0mg"},{"bike_id":"c68b5611-d95e-4f29-9773-84aa1d9ee827","system_id":"levelo_inurba_marseille","lat":43.284837,"lon":5.384219,"is_reserved":false,"is_disabled":false,"rental_uris":{"android":"levelo://app?vid=c68b5611-d95e-4f29-9773-84aa1d9ee827","ios":"levelo://app?vid=c68b5611-d95e-4f29-9773-84aa1d9ee827"},"vehicle_type_id":"4","last_reported":1745283107,"current_range_meters":17200,"station_id":"ce4bh512rcd13ifvqe3g","pricing_plan_id":"cebpf4jnsgd1na2vs0mg"},{"bike_id":"efa113e4-6fbe-480a-846c-830bcd7b6f11","system_id":"levelo_inurba_marseille","lat":43.29789,"lon":5.393387,"is_reserved":false,"is_disabled":false,"rental_uris":{"android":"levelo://app?vid=efa113e4-6fbe-480a-846c-830bcd7b6f11","ios":"levelo://app?vid=efa113e4-6fbe-480a-846c-830bcd7b6f11"},"vehicle_type_id":"4","last_reported":1745283107,"current_range_meters":17200,"station_id":"chh1huq6cuj3fo74tm60","pricing_plan_id":"cebpf4jnsgd1na2vs0mg"},{"bike_id":"85c5e05e-7712-409a-829b-75043230d454","system_id":"levelo_inurba_marseille","lat":43.3096,"lon":5.39058,"is_reserved":false,"is_disabled":false,"rental_uris":{"android":"levelo://app?vid=85c5e05e-7712-409a-829b-75043230d454","ios":"levelo://app?vid=85c5e05e-7712-409a-829b-75043230d454"},"vehicle_type_id":"4","last_reported":1745283107,"current_range_meters":17200,"station_id":"ce4bgup2rcd13ifvqco0","pricing_plan_id":"cebpf4jnsgd1na2vs0mg"},{"bike_id":"de9704f9-bc65-4f5a-9c6b-e4c83851fc93","system_id":"levelo_inurba_marseille","lat":43.2174,"lon":5.34605,"is_reserved":false,"is_disabled":true,"rental_uris":{"android":"levelo://app?vid=de9704f9-bc65-4f5a-9c6b-e4c83851fc93","ios":"levelo://app?vid=de9704f9-bc65-4f5a-9c6b-e4c83851fc93"},"vehicle_type_id":"4","last_reported":1745283107,"current_range_meters":17200,"station_id":"","pricing_plan_id":"cebpf4jnsgd1na2vs0mg"},{"bike_id":"eb35f0ad-c433-4dc1-8d7d-8dd574839854","system_id":"levelo_inurba_marseille","lat":43.24073,"lon":5.37771,"is_reserved":false,"is_disabled":false,"rental_uris":{"android":"levelo://app?vid=eb35f0ad-c433-4dc1-8d7d-8dd574839854","ios":"levelo://app?vid=eb35f0ad-c433-4dc1-8d7d-8dd574839854"},"vehicle_type_id":"4","last_reported":1745283107,"current_range_meters":17200,"station_id":"ce4bhnp2rcd13ifvqgvg","pricing_plan_id":"cebpf4jnsgd1na2vs0mg"},{"bike_id":"783e8ee7-8e02-4c36-92ae-ffc32956093e","system_id":"levelo_inurba_marseille","lat":43.30809,"lon":5.38172,"is_reserved":false,"is_disabled":false,"rental_uris":{"android":"levelo://app?vid=783e8ee7-8e02-4c36-92ae-ffc32956093e","ios":"levelo://app?vid=783e8ee7-8e02-4c36-92ae-ffc32956093e"},"vehicle_type_id":"4","last_reported":1745283107,"current_range_meters":17200,"station_id":"ce4bgt12rcd13ifvqce0","pricing_plan_id":"cebpf4jnsgd1na2vs0mg"},{"bike_id":"ac2082c6-18ff-4d80-a328-e29457c661d9","system_id":"levelo_inurba_marseille","lat":43.31065,"lon":5.3835,"is_reserved":false,"is_disabled":false,"rental_uris":{"android":"levelo://app?vid=ac2082c6-18ff-4d80-a328-e29457c661d9","ios":"levelo://app?vid=ac2082c6-18ff-4d80-a328-e29457c661d9"},"vehicle_type_id":"4","last_reported":1745283107,"current_range_meters":17600,"station_id":"ce4bgv92rcd13ifvqcr0","pricing_plan_id":"cebpf4jnsgd1na2vs0mg"},{"bike_id":"d5312e91-790a-4952-9d4c-970327cc40c0","system_id":"levelo_inurba_marseille","lat":43.31496,"lon":5.37302,"is_reserved":false,"is_disabled":false,"rental_uris":{"android":"levelo://app?vid=d5312e91-790a-4952-9d4c-970327cc40c0","ios":"levelo://app?vid=d5312e91-790a-4952-9d4c-970327cc40c0"},"vehicle_type_id":"4","last_reported":1745283107,"current_range_meters":17600,"station_id":"ce4bgt12rcd13ifvqcd0","pricing_plan_id":"cebpf4jnsgd1na2vs0mg"},{"bike_id":"1b06bef2-142e-4557-810a-fc865fa25a0b","system_id":"levelo_inurba_marseille","lat":43.2655,"lon":5.37304,"is_reserved":false,"is_disabled":true,"rental_uris":{"android":"levelo://app?vid=1b06bef2-142e-4557-810a-fc865fa25a0b","ios":"levelo://app?vid=1b06bef2-142e-4557-810a-fc865fa25a0b"},"vehicle_type_id":"4","last_reported":1745283107,"current_range_meters":18000,"station_id":"ce4bhg12rcd13ifvqf70","pricing_plan_id":"cebpf4jnsgd1na2vs0mg"},{"bike_id":"f4217dd9-55f7-498f-a5c0-8f8701b3bd47","system_id":"levelo_inurba_marseille","lat":43.2963,"lon":5.406,"is_reserved":false,"is_disabled":false,"rental_uris":{"android":"levelo://app?vid=f4217dd9-55f7-498f-a5c0-8f8701b3bd47","ios":"levelo://app?vid=f4217dd9-55f7-498f-a5c0-8f8701b3bd47"},"vehicle_type_id":"4","last_reported":1745283107,"current_range_meters":18000,"station_id":"ce4bh0h2rcd13ifvqd60","pricing_plan_id":"cebpf4jnsgd1na2vs0mg"},{"bike_id":"3ac21a61-1f65-46e2-9a5a-81d628d5aeb0","system_id":"levelo_inurba_marseille","lat":43.314874,"lon":5.373056,"is_reserved":false,"is_disabled":false,"rental_uris":{"android":"levelo://app?vid=3ac21a61-1f65-46e2-9a5a-81d628d5aeb0","ios":"levelo://app?vid=3ac21a61-1f65-46e2-9a5a-81d628d5aeb0"},"vehicle_type_id":"4","last_reported":1745283107,"current_range_meters":18000,"station_id":"ce4bgt12rcd13ifvqcd0","pricing_plan_id":"cebpf4jnsgd1na2vs0mg"},{"bike_id":"4f750d7b-66e9-4360-bedf-9116f4f068dc","system_id":"levelo_inurba_marseille","lat":43.29196,"lon":5.39334,"is_reserved":false,"is_disabled":false,"rental_uris":{"android":"levelo://app?vid=4f750d7b-66e9-4360-bedf-9116f4f068dc","ios":"levelo://app?vid=4f750d7b-66e9-4360-bedf-9116f4f068dc"},"vehicle_type_id":"4","last_reported":1745283107,"current_range_meters":18000,"station_id":"ce4bh192rcd13ifvqdd0","pricing_plan_id":"cebpf4jnsgd1na2vs0mg"},{"bike_id":"6c238e44-7be5-423e-a02e-d2afb2f0beec","system_id":"levelo_inurba_marseille","lat":43.311731,"lon":5.387128,"is_reserved":false,"is_disabled":false,"rental_uris":{"android":"levelo://app?vid=6c238e44-7be5-423e-a02e-d2afb2f0beec","ios":"levelo://app?vid=6c238e44-7be5-423e-a02e-d2afb2f0beec"},"vehicle_type_id":"4","last_reported":1745283107,"current_range_meters":18800,"station_id":"ce4bgv12rcd13ifvqcp0","pricing_plan_id":"cebpf4jnsgd1na2vs0mg"},{"bike_id":"aba5fb3e-be38-4cda-830a-07f38c54b831","system_id":"levelo_inurba_marseille","lat":43.2795,"lon":5.41039,"is_reserved":false,"is_disabled":false,"rental_uris":{"android":"levelo://app?vid=aba5fb3e-be38-4cda-830a-07f38c54b831","ios":"levelo://app?vid=aba5fb3e-be38-4cda-830a-07f38c54b831"},"vehicle_type_id":"4","last_reported":1745283107,"current_range_meters":18800,"station_id":"ce4bhnp2rcd13ifvqh0g","pricing_plan_id":"cebpf4jnsgd1na2vs0mg"},{"bike_id":"3ff95dfb-cc8b-40ac-8dc3-7a934f78150b","system_id":"levelo_inurba_marseille","lat":43.30256,"lon":5.4005,"is_reserved":false,"is_disabled":false,"rental_uris":{"android":"levelo://app?vid=3ff95dfb-cc8b-40ac-8dc3-7a934f78150b","ios":"levelo://app?vid=3ff95dfb-cc8b-40ac-8dc3-7a934f78150b"},"vehicle_type_id":"4","last_reported":1745283107,"current_range_meters":18800,"station_id":"ce4bgvh2rcd13ifvqcs0","pricing_plan_id":"cebpf4jnsgd1na2vs0mg"},{"bike_id":"f83383db-63dd-4a86-8250-0d4a69c21ee2","system_id":"levelo_inurba_marseille","lat":43.29432,"lon":5.39728,"is_reserved":false,"is_disabled":false,"rental_uris":{"android":"levelo://app?vid=f83383db-63dd-4a86-8250-0d4a69c21ee2","ios":"levelo://app?vid=f83383db-63dd-4a86-8250-0d4a69c21ee2"},"vehicle_type_id":"4","last_reported":1745283107,"current_range_meters":18800,"station_id":"ce4bh3h2rcd13ifvqdo0","pricing_plan_id":"cebpf4jnsgd1na2vs0mg"},{"bike_id":"5aee7c73-e3ed-4c26-aa0f-d214150e67e5","system_id":"levelo_inurba_marseille","lat":43.23958,"lon":5.36663,"is_reserved":false,"is_disabled":true,"rental_uris":{"android":"levelo://app?vid=5aee7c73-e3ed-4c26-aa0f-d214150e67e5","ios":"levelo://app?vid=5aee7c73-e3ed-4c26-aa0f-d214150e67e5"},"vehicle_type_id":"4","last_reported":1745283107,"current_range_meters":18800,"station_id":"ce4bhi12rcd13ifvqfp0","pricing_plan_id":"cebpf4jnsgd1na2vs0mg"},{"bike_id":"d5df48b0-2cc7-4df6-b9c9-e1a2b35169ea","system_id":"levelo_inurba_marseille","lat":43.281062,"lon":5.378403,"is_reserved":false,"is_disabled":false,"rental_uris":{"android":"levelo://app?vid=d5df48b0-2cc7-4df6-b9c9-e1a2b35169ea","ios":"levelo://app?vid=d5df48b0-2cc7-4df6-b9c9-e1a2b35169ea"},"vehicle_type_id":"4","last_reported":1745283107,"current_range_meters":19200,"station_id":"ce4bha12rcd13ifvqee0","pricing_plan_id":"cebpf4jnsgd1na2vs0mg"},{"bike_id":"5fa42bc2-b30c-4535-ad7e-76477c018241","system_id":"levelo_inurba_marseille","lat":43.26941,"lon":5.40245,"is_reserved":false,"is_disabled":false,"rental_uris":{"android":"levelo://app?vid=5fa42bc2-b30c-4535-ad7e-76477c018241","ios":"levelo://app?vid=5fa42bc2-b30c-4535-ad7e-76477c018241"},"vehicle_type_id":"4","last_reported":1745283107,"current_range_meters":19200,"station_id":"cjm6bp8fraef2m0cb0m0","pricing_plan_id":"cebpf4jnsgd1na2vs0mg"},{"bike_id":"98c1a7d8-e077-4271-82f8-42e14f36d05c","system_id":"levelo_inurba_marseille","lat":43.292856,"lon":5.401258,"is_reserved":false,"is_disabled":false,"rental_uris":{"android":"levelo://app?vid=98c1a7d8-e077-4271-82f8-42e14f36d05c","ios":"levelo://app?vid=98c1a7d8-e077-4271-82f8-42e14f36d05c"},"vehicle_type_id":"4","last_reported":1745283107,"current_range_meters":19200,"station_id":"ce4bh312rcd13ifvqdk0","pricing_plan_id":"cebpf4jnsgd1na2vs0mg"},{"bike_id":"d01df6a6-b745-430f-aed3-8244c27e3204","system_id":"levelo_inurba_marseille","lat":43.28368,"lon":5.38114,"is_reserved":false,"is_disabled":false,"rental_uris":{"android":"levelo://app?vid=d01df6a6-b745-430f-aed3-8244c27e3204","ios":"levelo://app?vid=d01df6a6-b745-430f-aed3-8244c27e3204"},"vehicle_type_id":"4","last_reported":1745283107,"current_range_meters":19200,"station_id":"ce4bh412rcd13ifvqdr0","pricing_plan_id":"cebpf4jnsgd1na2vs0mg"},{"bike_id":"79229100-948a-407c-9f3d-d24dc0dcb252","system_id":"levelo_inurba_marseille","lat":43.26554,"lon":5.3729,"is_reserved":false,"is_disabled":true,"rental_uris":{"android":"levelo://app?vid=79229100-948a-407c-9f3d-d24dc0dcb252","ios":"levelo://app?vid=79229100-948a-407c-9f3d-d24dc0dcb252"},"vehicle_type_id":"4","last_reported":1745283107,"current_range_meters":19200,"station_id":"ce4bhg12rcd13ifvqf70","pricing_plan_id":"cebpf4jnsgd1na2vs0mg"},{"bike_id":"1b84bfe3-cae7-4cb8-be32-9cbeef2186cf","system_id":"levelo_inurba_marseille","lat":43.30885,"lon":5.37204,"is_reserved":false,"is_disabled":false,"rental_uris":{"android":"levelo://app?vid=1b84bfe3-cae7-4cb8-be32-9cbeef2186cf","ios":"levelo://app?vid=1b84bfe3-cae7-4cb8-be32-9cbeef2186cf"},"vehicle_type_id":"4","last_reported":1745283107,"current_range_meters":19200,"station_id":"ce4bguh2rcd13ifvqckg","pricing_plan_id":"cebpf4jnsgd1na2vs0mg"},{"bike_id":"27166011-9659-43f9-9d49-c158ddc3e57c","system_id":"levelo_inurba_marseille","lat":43.241782,"lon":5.397181,"is_reserved":false,"is_disabled":false,"rental_uris":{"android":"levelo://app?vid=27166011-9659-43f9-9d49-c158ddc3e57c","ios":"levelo://app?vid=27166011-9659-43f9-9d49-c158ddc3e57c"},"vehicle_type_id":"4","last_reported":1745283107,"current_range_meters":19200,"station_id":"ce4bhn12rcd13ifvqgpg","pricing_plan_id":"cebpf4jnsgd1na2vs0mg"},{"bike_id":"838faa2f-9f00-491c-a052-0dc4b3539c8e","system_id":"levelo_inurba_marseille","lat":43.28857,"lon":5.39319,"is_reserved":false,"is_disabled":false,"rental_uris":{"android":"levelo://app?vid=838faa2f-9f00-491c-a052-0dc4b3539c8e","ios":"levelo://app?vid=838faa2f-9f00-491c-a052-0dc4b3539c8e"},"vehicle_type_id":"4","last_reported":1745283107,"current_range_meters":19200,"station_id":"ce4bh2p2rcd13ifvqdi0","pricing_plan_id":"cebpf4jnsgd1na2vs0mg"},{"bike_id":"178a8772-42ae-427d-97c6-cb956128d797","system_id":"levelo_inurba_marseille","lat":43.28049,"lon":5.36951,"is_reserved":false,"is_disabled":false,"rental_uris":{"android":"levelo://app?vid=178a8772-42ae-427d-97c6-cb956128d797","ios":"levelo://app?vid=178a8772-42ae-427d-97c6-cb956128d797"},"vehicle_type_id":"4","last_reported":1745283107,"current_range_meters":19200,"station_id":"ce4bha12rcd13ifvqef0","pricing_plan_id":"cebpf4jnsgd1na2vs0mg"},{"bike_id":"8489ce70-01ca-4d70-b34d-50233af9280f","system_id":"levelo_inurba_marseille","lat":43.29515,"lon":5.39398,"is_reserved":false,"is_disabled":false,"rental_uris":{"android":"levelo://app?vid=8489ce70-01ca-4d70-b34d-50233af9280f","ios":"levelo://app?vid=8489ce70-01ca-4d70-b34d-50233af9280f"},"vehicle_type_id":"4","last_reported":1745283107,"current_range_meters":19600,"station_id":"ce4bh292rcd13ifvqdf0","pricing_plan_id":"cebpf4jnsgd1na2vs0mg"},{"bike_id":"bfb6a197-fb29-40f0-a2e8-984f700e18b4","system_id":"levelo_inurba_marseille","lat":43.34157,"lon":5.40904,"is_reserved":false,"is_disabled":false,"rental_uris":{"android":"levelo://app?vid=bfb6a197-fb29-40f0-a2e8-984f700e18b4","ios":"levelo://app?vid=bfb6a197-fb29-40f0-a2e8-984f700e18b4"},"vehicle_type_id":"4","last_reported":1745283107,"current_range_meters":19600,"station_id":"ce4bhqh2rcd13ifvqhlg","pricing_plan_id":"cebpf4jnsgd1na2vs0mg"},{"bike_id":"3eeaa5ee-7282-4572-8d60-4d266c5d718f","system_id":"levelo_inurba_marseille","lat":43.21188,"lon":5.35062,"is_reserved":false,"is_disabled":true,"rental_uris":{"android":"levelo://app?vid=3eeaa5ee-7282-4572-8d60-4d266c5d718f","ios":"levelo://app?vid=3eeaa5ee-7282-4572-8d60-4d266c5d718f"},"vehicle_type_id":"4","last_reported":1745283107,"current_range_meters":19600,"station_id":"","pricing_plan_id":"cebpf4jnsgd1na2vs0mg"},{"bike_id":"1b903b38-38de-4714-9a2c-59836acfa168","system_id":"levelo_inurba_marseille","lat":43.31706,"lon":5.4371,"is_reserved":false,"is_disabled":true,"rental_uris":{"android":"levelo://app?vid=1b903b38-38de-4714-9a2c-59836acfa168","ios":"levelo://app?vid=1b903b38-38de-4714-9a2c-59836acfa168"},"vehicle_type_id":"4","last_reported":1745283107,"current_range_meters":19600,"station_id":"ce4bhp92rcd13ifvqhcg","pricing_plan_id":"cebpf4jnsgd1na2vs0mg"},{"bike_id":"e0ed866d-3aa8-4a3a-887d-34616074a025","system_id":"levelo_inurba_marseille","lat":43.28417,"lon":5.37506,"is_reserved":false,"is_disabled":false,"rental_uris":{"android":"levelo://app?vid=e0ed866d-3aa8-4a3a-887d-34616074a025","ios":"levelo://app?vid=e0ed866d-3aa8-4a3a-887d-34616074a025"},"vehicle_type_id":"4","last_reported":1745283107,"current_range_meters":19600,"station_id":"ce4bh412rcd13ifvqds0","pricing_plan_id":"cebpf4jnsgd1na2vs0mg"},{"bike_id":"10573ae0-98ac-45b1-9416-ca0795da809a","system_id":"levelo_inurba_marseille","lat":43.311187,"lon":5.377674,"is_reserved":false,"is_disabled":false,"rental_uris":{"android":"levelo://app?vid=10573ae0-98ac-45b1-9416-ca0795da809a","ios":"levelo://app?vid=10573ae0-98ac-45b1-9416-ca0795da809a"},"vehicle_type_id":"4","last_reported":1745283107,"current_range_meters":19600,"station_id":"ce4bgt92rcd13ifvqcg0","pricing_plan_id":"cebpf4jnsgd1na2vs0mg"},{"bike_id":"9364fd95-471d-4c2c-87b7-5f02fd1dfadd","system_id":"levelo_inurba_marseille","lat":43.28714,"lon":5.39998,"is_reserved":false,"is_disabled":false,"rental_uris":{"android":"levelo://app?vid=9364fd95-471d-4c2c-87b7-5f02fd1dfadd","ios":"levelo://app?vid=9364fd95-471d-4c2c-87b7-5f02fd1dfadd"},"vehicle_type_id":"4","last_reported":1745283107,"current_range_meters":20000,"station_id":"ce4bho92rcd13ifvqh3g","pricing_plan_id":"cebpf4jnsgd1na2vs0mg"},{"bike_id":"98bae8a6-0de7-453b-a31e-d119779cf78e","system_id":"levelo_inurba_marseille","lat":43.28847,"lon":5.35856,"is_reserved":false,"is_disabled":false,"rental_uris":{"android":"levelo://app?vid=98bae8a6-0de7-453b-a31e-d119779cf78e","ios":"levelo://app?vid=98bae8a6-0de7-453b-a31e-d119779cf78e"},"vehicle_type_id":"4","last_reported":1745283107,"current_range_meters":20000,"station_id":"ce4bhb12rcd13ifvqem0","pricing_plan_id":"cebpf4jnsgd1na2vs0mg"},{"bike_id":"99b87c40-0751-4c05-a832-0d5c755bc822","system_id":"levelo_inurba_marseille","lat":43.29255,"lon":5.40121,"is_reserved":false,"is_disabled":false,"rental_uris":{"android":"levelo://app?vid=99b87c40-0751-4c05-a832-0d5c755bc822","ios":"levelo://app?vid=99b87c40-0751-4c05-a832-0d5c755bc822"},"vehicle_type_id":"4","last_reported":1745283107,"current_range_meters":20000,"station_id":"ce4bh312rcd13ifvqdk0","pricing_plan_id":"cebpf4jnsgd1na2vs0mg"},{"bike_id":"3d1afb70-2282-4946-ba64-9d417eff0bda","system_id":"levelo_inurba_marseille","lat":43.303136,"lon":5.392103,"is_reserved":false,"is_disabled":false,"rental_uris":{"android":"levelo://app?vid=3d1afb70-2282-4946-ba64-9d417eff0bda","ios":"levelo://app?vid=3d1afb70-2282-4946-ba64-9d417eff0bda"},"vehicle_type_id":"4","last_reported":1745283107,"current_range_meters":20000,"station_id":"ce4bgkh2rcd13ifvqbk0","pricing_plan_id":"cebpf4jnsgd1na2vs0mg"},{"bike_id":"7aca1411-9915-4f5d-970a-e8f316d62219","system_id":"levelo_inurba_marseille","lat":43.29207,"lon":5.39319,"is_reserved":false,"is_disabled":false,"rental_uris":{"android":"levelo://app?vid=7aca1411-9915-4f5d-970a-e8f316d62219","ios":"levelo://app?vid=7aca1411-9915-4f5d-970a-e8f316d62219"},"vehicle_type_id":"4","last_reported":1745283107,"current_range_meters":20000,"station_id":"ce4bh192rcd13ifvqdd0","pricing_plan_id":"cebpf4jnsgd1na2vs0mg"},{"bike_id":"17d94bf2-3173-4d6a-b6b6-abb922d18dbe","system_id":"levelo_inurba_marseille","lat":43.31332,"lon":5.39723,"is_reserved":false,"is_disabled":false,"rental_uris":{"android":"levelo://app?vid=17d94bf2-3173-4d6a-b6b6-abb922d18dbe","ios":"levelo://app?vid=17d94bf2-3173-4d6a-b6b6-abb922d18dbe"},"vehicle_type_id":"4","last_reported":1745283107,"current_range_meters":20000,"station_id":"ce4bgvp2rcd13ifvqcu0","pricing_plan_id":"cebpf4jnsgd1na2vs0mg"},{"bike_id":"fdb04c98-b4d5-4359-b1ad-39107c9f1ade","system_id":"levelo_inurba_marseille","lat":43.27836,"lon":5.39213,"is_reserved":false,"is_disabled":false,"rental_uris":{"android":"levelo://app?vid=fdb04c98-b4d5-4359-b1ad-39107c9f1ade","ios":"levelo://app?vid=fdb04c98-b4d5-4359-b1ad-39107c9f1ade"},"vehicle_type_id":"4","last_reported":1745283107,"current_range_meters":20400,"station_id":"ce4bhjp2rcd13ifvqga0","pricing_plan_id":"cebpf4jnsgd1na2vs0mg"},{"bike_id":"aacbab09-12e8-48ab-ab2b-622a9e40fabb","system_id":"levelo_inurba_marseille","lat":43.26941,"lon":5.40256,"is_reserved":false,"is_disabled":false,"rental_uris":{"android":"levelo://app?vid=aacbab09-12e8-48ab-ab2b-622a9e40fabb","ios":"levelo://app?vid=aacbab09-12e8-48ab-ab2b-622a9e40fabb"},"vehicle_type_id":"4","last_reported":1745283107,"current_range_meters":20400,"station_id":"cjm6bp8fraef2m0cb0m0","pricing_plan_id":"cebpf4jnsgd1na2vs0mg"},{"bike_id":"080497d0-a075-4355-8487-fd3a3c1df99b","system_id":"levelo_inurba_marseille","lat":43.337263,"lon":5.391878,"is_reserved":false,"is_disabled":false,"rental_uris":{"android":"levelo://app?vid=080497d0-a075-4355-8487-fd3a3c1df99b","ios":"levelo://app?vid=080497d0-a075-4355-8487-fd3a3c1df99b"},"vehicle_type_id":"4","last_reported":1745283107,"current_range_meters":20400,"station_id":"ce4bhr92rcd13ifvqhsg","pricing_plan_id":"cebpf4jnsgd1na2vs0mg"},{"bike_id":"41e65529-754b-46df-92b5-b09a0bba5aac","system_id":"levelo_inurba_marseille","lat":43.29042,"lon":5.39945,"is_reserved":false,"is_disabled":false,"rental_uris":{"android":"levelo://app?vid=41e65529-754b-46df-92b5-b09a0bba5aac","ios":"levelo://app?vid=41e65529-754b-46df-92b5-b09a0bba5aac"},"vehicle_type_id":"4","last_reported":1745283107,"current_range_meters":20400,"station_id":"ce4bh392rcd13ifvqdm0","pricing_plan_id":"cebpf4jnsgd1na2vs0mg"},{"bike_id":"7cd8af3b-f271-4e7a-8696-3ba2d8c8c9ce","system_id":"levelo_inurba_marseille","lat":43.2849,"lon":5.38425,"is_reserved":false,"is_disabled":false,"rental_uris":{"android":"levelo://app?vid=7cd8af3b-f271-4e7a-8696-3ba2d8c8c9ce","ios":"levelo://app?vid=7cd8af3b-f271-4e7a-8696-3ba2d8c8c9ce"},"vehicle_type_id":"4","last_reported":1745283107,"current_range_meters":20400,"station_id":"ce4bh512rcd13ifvqe3g","pricing_plan_id":"cebpf4jnsgd1na2vs0mg"},{"bike_id":"d373b03a-6100-48c8-9be0-57715ffa475e","system_id":"levelo_inurba_marseille","lat":43.292512,"lon":5.409118,"is_reserved":false,"is_disabled":false,"rental_uris":{"android":"levelo://app?vid=d373b03a-6100-48c8-9be0-57715ffa475e","ios":"levelo://app?vid=d373b03a-6100-48c8-9be0-57715ffa475e"},"vehicle_type_id":"4","last_reported":1745283107,"current_range_meters":20400,"station_id":"ce4bh192rcd13ifvqdc0","pricing_plan_id":"cebpf4jnsgd1na2vs0mg"},{"bike_id":"84ed2209-c14c-412e-8cfb-2294751b7fff","system_id":"levelo_inurba_marseille","lat":43.30323,"lon":5.40437,"is_reserved":false,"is_disabled":false,"rental_uris":{"android":"levelo://app?vid=84ed2209-c14c-412e-8cfb-2294751b7fff","ios":"levelo://app?vid=84ed2209-c14c-412e-8cfb-2294751b7fff"},"vehicle_type_id":"4","last_reported":1745283107,"current_range_meters":20400,"station_id":"ce4bh012rcd13ifvqd10","pricing_plan_id":"cebpf4jnsgd1na2vs0mg"},{"bike_id":"28f798a3-56f2-4fbf-b12d-c540c66dbab9","system_id":"levelo_inurba_marseille","lat":43.33811,"lon":5.3749,"is_reserved":false,"is_disabled":false,"rental_uris":{"android":"levelo://app?vid=28f798a3-56f2-4fbf-b12d-c540c66dbab9","ios":"levelo://app?vid=28f798a3-56f2-4fbf-b12d-c540c66dbab9"},"vehicle_type_id":"4","last_reported":1745283107,"current_range_meters":20800,"station_id":"","pricing_plan_id":"cebpf4jnsgd1na2vs0mg"},{"bike_id":"41256598-945a-4074-82f8-1ae4e9bcdf44","system_id":"levelo_inurba_marseille","lat":43.28583,"lon":5.39497,"is_reserved":false,"is_disabled":false,"rental_uris":{"android":"levelo://app?vid=41256598-945a-4074-82f8-1ae4e9bcdf44","ios":"levelo://app?vid=41256598-945a-4074-82f8-1ae4e9bcdf44"},"vehicle_type_id":"4","last_reported":1745283107,"current_range_meters":20800,"station_id":"ce4bh292rcd13ifvqdg0","pricing_plan_id":"cebpf4jnsgd1na2vs0mg"},{"bike_id":"796f584e-d0e0-46a8-ac52-777edabbde1a","system_id":"levelo_inurba_marseille","lat":43.31114,"lon":5.37763,"is_reserved":false,"is_disabled":false,"rental_uris":{"android":"levelo://app?vid=796f584e-d0e0-46a8-ac52-777edabbde1a","ios":"levelo://app?vid=796f584e-d0e0-46a8-ac52-777edabbde1a"},"vehicle_type_id":"4","last_reported":1745283107,"current_range_meters":20800,"station_id":"ce4bgt92rcd13ifvqcg0","pricing_plan_id":"cebpf4jnsgd1na2vs0mg"},{"bike_id":"fc5fa76e-3be5-4df9-8c7d-269c9317919e","system_id":"levelo_inurba_marseille","lat":43.28709,"lon":5.40002,"is_reserved":false,"is_disabled":false,"rental_uris":{"android":"levelo://app?vid=fc5fa76e-3be5-4df9-8c7d-269c9317919e","ios":"levelo://app?vid=fc5fa76e-3be5-4df9-8c7d-269c9317919e"},"vehicle_type_id":"4","last_reported":1745283107,"current_range_meters":20800,"station_id":"ce4bho92rcd13ifvqh3g","pricing_plan_id":"cebpf4jnsgd1na2vs0mg"},{"bike_id":"78596189-9b2b-48ef-84e5-2f8f30158d3e","system_id":"levelo_inurba_marseille","lat":43.284641,"lon":5.35879,"is_reserved":false,"is_disabled":false,"rental_uris":{"android":"levelo://app?vid=78596189-9b2b-48ef-84e5-2f8f30158d3e","ios":"levelo://app?vid=78596189-9b2b-48ef-84e5-2f8f30158d3e"},"vehicle_type_id":"4","last_reported":1745283107,"current_range_meters":20800,"station_id":"ce4bhah2rcd13ifvqei0","pricing_plan_id":"cebpf4jnsgd1na2vs0mg"},{"bike_id":"22ad8cd8-448d-4f6e-b2fe-740f8d592dd7","system_id":"levelo_inurba_marseille","lat":43.30015,"lon":5.37197,"is_reserved":false,"is_disabled":false,"rental_uris":{"android":"levelo://app?vid=22ad8cd8-448d-4f6e-b2fe-740f8d592dd7","ios":"levelo://app?vid=22ad8cd8-448d-4f6e-b2fe-740f8d592dd7"},"vehicle_type_id":"4","last_reported":1745283107,"current_range_meters":21600,"station_id":"ce4bgr92rcd13ifvqc7g","pricing_plan_id":"cebpf4jnsgd1na2vs0mg"},{"bike_id":"1fb71ef3-a7f4-476e-b74f-9a9a8fc4664d","system_id":"levelo_inurba_marseille","lat":43.30888,"lon":5.39648,"is_reserved":false,"is_disabled":false,"rental_uris":{"android":"levelo://app?vid=1fb71ef3-a7f4-476e-b74f-9a9a8fc4664d","ios":"levelo://app?vid=1fb71ef3-a7f4-476e-b74f-9a9a8fc4664d"},"vehicle_type_id":"4","last_reported":1745283107,"current_range_meters":21600,"station_id":"ce4bh012rcd13ifvqcv0","pricing_plan_id":"cebpf4jnsgd1na2vs0mg"},{"bike_id":"aaff5ee1-da67-43d3-bce6-cb509d1e1ab9","system_id":"levelo_inurba_marseille","lat":43.248016,"lon":5.37442,"is_reserved":false,"is_disabled":false,"rental_uris":{"android":"levelo://app?vid=aaff5ee1-da67-43d3-bce6-cb509d1e1ab9","ios":"levelo://app?vid=aaff5ee1-da67-43d3-bce6-cb509d1e1ab9"},"vehicle_type_id":"4","last_reported":1745283107,"current_range_meters":22000,"station_id":"ce4bhgh2rcd13ifvqfb0","pricing_plan_id":"cebpf4jnsgd1na2vs0mg"},{"bike_id":"db7e17fe-6d0a-4d36-b838-2d92865e16d0","system_id":"levelo_inurba_marseille","lat":43.32281,"lon":5.38257,"is_reserved":false,"is_disabled":false,"rental_uris":{"android":"levelo://app?vid=db7e17fe-6d0a-4d36-b838-2d92865e16d0","ios":"levelo://app?vid=db7e17fe-6d0a-4d36-b838-2d92865e16d0"},"vehicle_type_id":"4","last_reported":1745283107,"current_range_meters":22000,"station_id":"ce4bhr12rcd13ifvqhqg","pricing_plan_id":"cebpf4jnsgd1na2vs0mg"},{"bike_id":"2c660b5d-01e5-4453-a19f-67ece0e25071","system_id":"levelo_inurba_marseille","lat":43.24076,"lon":5.37776,"is_reserved":false,"is_disabled":false,"rental_uris":{"android":"levelo://app?vid=2c660b5d-01e5-4453-a19f-67ece0e25071","ios":"levelo://app?vid=2c660b5d-01e5-4453-a19f-67ece0e25071"},"vehicle_type_id":"4","last_reported":1745283107,"current_range_meters":22000,"station_id":"ce4bhnp2rcd13ifvqgvg","pricing_plan_id":"cebpf4jnsgd1na2vs0mg"},{"bike_id":"0f14c987-efee-48fa-af1b-2096962b84e3","system_id":"levelo_inurba_marseille","lat":43.24048,"lon":5.38773,"is_reserved":false,"is_disabled":false,"rental_uris":{"android":"levelo://app?vid=0f14c987-efee-48fa-af1b-2096962b84e3","ios":"levelo://app?vid=0f14c987-efee-48fa-af1b-2096962b84e3"},"vehicle_type_id":"4","last_reported":1745283107,"current_range_meters":22000,"station_id":"","pricing_plan_id":"cebpf4jnsgd1na2vs0mg"},{"bike_id":"6013693d-c8c0-4b6b-94ab-31ea0c9d9a1f","system_id":"levelo_inurba_marseille","lat":43.27556,"lon":5.38427,"is_reserved":false,"is_disabled":false,"rental_uris":{"android":"levelo://app?vid=6013693d-c8c0-4b6b-94ab-31ea0c9d9a1f","ios":"levelo://app?vid=6013693d-c8c0-4b6b-94ab-31ea0c9d9a1f"},"vehicle_type_id":"4","last_reported":1745283107,"current_range_meters":22000,"station_id":"ce4bhh92rcd13ifvqfi0","pricing_plan_id":"cebpf4jnsgd1na2vs0mg"},{"bike_id":"584387b4-187d-4f80-b338-fcdc107989ef","system_id":"levelo_inurba_marseille","lat":43.24792,"lon":5.412023,"is_reserved":false,"is_disabled":false,"rental_uris":{"android":"levelo://app?vid=584387b4-187d-4f80-b338-fcdc107989ef","ios":"levelo://app?vid=584387b4-187d-4f80-b338-fcdc107989ef"},"vehicle_type_id":"4","last_reported":1745283107,"current_range_meters":22000,"station_id":"","pricing_plan_id":"cebpf4jnsgd1na2vs0mg"},{"bike_id":"20ede925-27e6-407f-8bf5-4c244f8341b4","system_id":"levelo_inurba_marseille","lat":43.2418,"lon":5.36401,"is_reserved":false,"is_disabled":false,"rental_uris":{"android":"levelo://app?vid=20ede925-27e6-407f-8bf5-4c244f8341b4","ios":"levelo://app?vid=20ede925-27e6-407f-8bf5-4c244f8341b4"},"vehicle_type_id":"4","last_reported":1745283107,"current_range_meters":22400,"station_id":"cpo36qri1sfpv3e86is0","pricing_plan_id":"cebpf4jnsgd1na2vs0mg"},{"bike_id":"95b8bc11-d0dd-4aad-a8cc-3bcf7c3eb2a4","system_id":"levelo_inurba_marseille","lat":43.29252,"lon":5.409167,"is_reserved":false,"is_disabled":false,"rental_uris":{"android":"levelo://app?vid=95b8bc11-d0dd-4aad-a8cc-3bcf7c3eb2a4","ios":"levelo://app?vid=95b8bc11-d0dd-4aad-a8cc-3bcf7c3eb2a4"},"vehicle_type_id":"4","last_reported":1745283107,"current_range_meters":22400,"station_id":"ce4bh192rcd13ifvqdc0","pricing_plan_id":"cebpf4jnsgd1na2vs0mg"},{"bike_id":"88bf37e5-1cb9-46e5-8acf-554dd4451f7d","system_id":"levelo_inurba_marseille","lat":43.2707,"lon":5.4226,"is_reserved":false,"is_disabled":false,"rental_uris":{"android":"levelo://app?vid=88bf37e5-1cb9-46e5-8acf-554dd4451f7d","ios":"levelo://app?vid=88bf37e5-1cb9-46e5-8acf-554dd4451f7d"},"vehicle_type_id":"4","last_reported":1745283107,"current_range_meters":22400,"station_id":"ce4bhk92rcd13ifvqgb0","pricing_plan_id":"cebpf4jnsgd1na2vs0mg"},{"bike_id":"6382d094-23f2-4d1e-9fc5-0b03894a7c4d","system_id":"levelo_inurba_marseille","lat":43.30424,"lon":5.39757,"is_reserved":false,"is_disabled":true,"rental_uris":{"android":"levelo://app?vid=6382d094-23f2-4d1e-9fc5-0b03894a7c4d","ios":"levelo://app?vid=6382d094-23f2-4d1e-9fc5-0b03894a7c4d"},"vehicle_type_id":"4","last_reported":1745283107,"current_range_meters":22400,"station_id":"ce4bh092rcd13ifvqd20","pricing_plan_id":"cebpf4jnsgd1na2vs0mg"},{"bike_id":"68a0a858-f03b-40e6-810c-6b9af8027519","system_id":"levelo_inurba_marseille","lat":43.31113,"lon":5.37785,"is_reserved":false,"is_disabled":false,"rental_uris":{"android":"levelo://app?vid=68a0a858-f03b-40e6-810c-6b9af8027519","ios":"levelo://app?vid=68a0a858-f03b-40e6-810c-6b9af8027519"},"vehicle_type_id":"4","last_reported":1745283107,"current_range_meters":22400,"station_id":"ce4bgt92rcd13ifvqcg0","pricing_plan_id":"cebpf4jnsgd1na2vs0mg"},{"bike_id":"46374c49-3adc-4c5a-8966-e00f056c0d57","system_id":"levelo_inurba_marseille","lat":43.27846,"lon":5.35442,"is_reserved":false,"is_disabled":false,"rental_uris":{"android":"levelo://app?vid=46374c49-3adc-4c5a-8966-e00f056c0d57","ios":"levelo://app?vid=46374c49-3adc-4c5a-8966-e00f056c0d57"},"vehicle_type_id":"4","last_reported":1745283107,"current_range_meters":22800,"station_id":"","pricing_plan_id":"cebpf4jnsgd1na2vs0mg"},{"bike_id":"06483354-4a03-4880-b252-4a448defb236","system_id":"levelo_inurba_marseille","lat":43.28466,"lon":5.35892,"is_reserved":false,"is_disabled":false,"rental_uris":{"android":"levelo://app?vid=06483354-4a03-4880-b252-4a448defb236","ios":"levelo://app?vid=06483354-4a03-4880-b252-4a448defb236"},"vehicle_type_id":"4","last_reported":1745283107,"current_range_meters":22800,"station_id":"ce4bhah2rcd13ifvqei0","pricing_plan_id":"cebpf4jnsgd1na2vs0mg"},{"bike_id":"7c88ec95-2985-4bb3-b853-01d88f4560b1","system_id":"levelo_inurba_marseille","lat":43.28035,"lon":5.36932,"is_reserved":false,"is_disabled":false,"rental_uris":{"android":"levelo://app?vid=7c88ec95-2985-4bb3-b853-01d88f4560b1","ios":"levelo://app?vid=7c88ec95-2985-4bb3-b853-01d88f4560b1"},"vehicle_type_id":"4","last_reported":1745283107,"current_range_meters":22800,"station_id":"ce4bha12rcd13ifvqef0","pricing_plan_id":"cebpf4jnsgd1na2vs0mg"},{"bike_id":"3444424c-f460-4b03-800f-a98e29c81f69","system_id":"levelo_inurba_marseille","lat":43.28707,"lon":5.399914,"is_reserved":false,"is_disabled":false,"rental_uris":{"android":"levelo://app?vid=3444424c-f460-4b03-800f-a98e29c81f69","ios":"levelo://app?vid=3444424c-f460-4b03-800f-a98e29c81f69"},"vehicle_type_id":"4","last_reported":1745283107,"current_range_meters":22800,"station_id":"ce4bho92rcd13ifvqh3g","pricing_plan_id":"cebpf4jnsgd1na2vs0mg"},{"bike_id":"19bd6481-e42b-4f2f-8596-4963547c74ad","system_id":"levelo_inurba_marseille","lat":43.31484,"lon":5.373053,"is_reserved":false,"is_disabled":false,"rental_uris":{"android":"levelo://app?vid=19bd6481-e42b-4f2f-8596-4963547c74ad","ios":"levelo://app?vid=19bd6481-e42b-4f2f-8596-4963547c74ad"},"vehicle_type_id":"4","last_reported":1745283107,"current_range_meters":22800,"station_id":"ce4bgt12rcd13ifvqcd0","pricing_plan_id":"cebpf4jnsgd1na2vs0mg"},{"bike_id":"303b83d6-b59d-4120-86b5-a0449d051209","system_id":"levelo_inurba_marseille","lat":43.287077,"lon":5.399896,"is_reserved":false,"is_disabled":false,"rental_uris":{"android":"levelo://app?vid=303b83d6-b59d-4120-86b5-a0449d051209","ios":"levelo://app?vid=303b83d6-b59d-4120-86b5-a0449d051209"},"vehicle_type_id":"4","last_reported":1745283107,"current_range_meters":22800,"station_id":"ce4bho92rcd13ifvqh3g","pricing_plan_id":"cebpf4jnsgd1na2vs0mg"},{"bike_id":"9914a6f5-f88a-4de1-9259-2681d0d4d432","system_id":"levelo_inurba_marseille","lat":43.28419,"lon":5.375,"is_reserved":false,"is_disabled":false,"rental_uris":{"android":"levelo://app?vid=9914a6f5-f88a-4de1-9259-2681d0d4d432","ios":"levelo://app?vid=9914a6f5-f88a-4de1-9259-2681d0d4d432"},"vehicle_type_id":"4","last_reported":1745283107,"current_range_meters":22800,"station_id":"ce4bh412rcd13ifvqds0","pricing_plan_id":"cebpf4jnsgd1na2vs0mg"},{"bike_id":"e7a535f8-ed78-40de-8cdc-f8a1d2d90b31","system_id":"levelo_inurba_marseille","lat":43.24811,"lon":5.37448,"is_reserved":false,"is_disabled":true,"rental_uris":{"android":"levelo://app?vid=e7a535f8-ed78-40de-8cdc-f8a1d2d90b31","ios":"levelo://app?vid=e7a535f8-ed78-40de-8cdc-f8a1d2d90b31"},"vehicle_type_id":"4","last_reported":1745283107,"current_range_meters":22800,"station_id":"ce4bhgh2rcd13ifvqfb0","pricing_plan_id":"cebpf4jnsgd1na2vs0mg"},{"bike_id":"5d6ce0cf-9f03-41a4-849f-504bf29dfe65","system_id":"levelo_inurba_marseille","lat":43.21742,"lon":5.34597,"is_reserved":false,"is_disabled":false,"rental_uris":{"android":"levelo://app?vid=5d6ce0cf-9f03-41a4-849f-504bf29dfe65","ios":"levelo://app?vid=5d6ce0cf-9f03-41a4-849f-504bf29dfe65"},"vehicle_type_id":"4","last_reported":1745283107,"current_range_meters":22800,"station_id":"st_cvj6r9ubvosntc0bgbag","pricing_plan_id":"cebpf4jnsgd1na2vs0mg"},{"bike_id":"43f69d8d-df5e-425e-b41d-bcc37ca62603","system_id":"levelo_inurba_marseille","lat":43.274973,"lon":5.424512,"is_reserved":false,"is_disabled":true,"rental_uris":{"android":"levelo://app?vid=43f69d8d-df5e-425e-b41d-bcc37ca62603","ios":"levelo://app?vid=43f69d8d-df5e-425e-b41d-bcc37ca62603"},"vehicle_type_id":"4","last_reported":1745283107,"current_range_meters":22800,"station_id":"ce4bhn92rcd13ifvqgrg","pricing_plan_id":"cebpf4jnsgd1na2vs0mg"},{"bike_id":"6dae202a-2029-4a50-938e-41697b9a35c6","system_id":"levelo_inurba_marseille","lat":43.287,"lon":5.40016,"is_reserved":false,"is_disabled":false,"rental_uris":{"android":"levelo://app?vid=6dae202a-2029-4a50-938e-41697b9a35c6","ios":"levelo://app?vid=6dae202a-2029-4a50-938e-41697b9a35c6"},"vehicle_type_id":"4","last_reported":1745283107,"current_range_meters":22800,"station_id":"ce4bho92rcd13ifvqh3g","pricing_plan_id":"cebpf4jnsgd1na2vs0mg"},{"bike_id":"b5d609bf-0c9b-49e3-9426-ce02cb8383b8","system_id":"levelo_inurba_marseille","lat":43.3415,"lon":5.40912,"is_reserved":false,"is_disabled":true,"rental_uris":{"android":"levelo://app?vid=b5d609bf-0c9b-49e3-9426-ce02cb8383b8","ios":"levelo://app?vid=b5d609bf-0c9b-49e3-9426-ce02cb8383b8"},"vehicle_type_id":"4","last_reported":1745283107,"current_range_meters":23200,"station_id":"ce4bhqh2rcd13ifvqhlg","pricing_plan_id":"cebpf4jnsgd1na2vs0mg"},