{"last_updated":1723741631,"ttl":30,"version":"2.2","data":{"bikes":[{"bike_id":"58440ee5-0617-4f21-90e2-7a59822c1ae2","system_id":"levelo_inurba_marseille","lat":43.313391,"lon":5.36706,"is_reserved":false,"is_disabled":false,"rental_uris":{"android":"levelo://app?vid=58440ee5-0617-4f21-90e2-7a59822c1ae2","ios":"levelo://app?vid=58440ee5-0617-4f21-90e2-7a59822c1ae2"},"vehicle_type_id":"4","last_reported":1723741631,"current_range_meters":23200,"station_id":"ce4bgr92rcd13ifvqc6g","pricing_plan_id":"cebpf4jnsgd1na2vs0mg"},{"bike_id":"329720f8-27ce-4ef3-8df7-efa894e814cd","system_id":"levelo_inurba_marseille","lat":43.312239,"lon":5.368562,"is_reserved":false,"is_disabled":false,"rental_uris":{"android":"levelo://app?vid=329720f8-27ce-4ef3-8df7-efa894e814cd","ios":"levelo://app?vid=329720f8-27ce-4ef3-8df7-efa894e814cd"},"vehicle_type_id":"4","last_reported":1723741631,"current_range_meters":2400,"station_id":"ce4bgl92rcd13ifvqbq0","pricing_plan_id":"cebpf4jnsgd1na2vs0mg"},{"bike_id":"d112b498-833e-4023-bf93-6ac7cddb2868","system_id":"levelo_inurba_marseille","lat":43.312239,"lon":5.368562,"is_reserved":false,"is_disabled":false,"rental_uris":{"android":"levelo://app?vid=d112b498-833e-4023-bf93-6ac7cddb2868","ios":"levelo://app?vid=d112b498-833e-4023-bf93-6ac7cddb2868"},"vehicle_type_id":"4","last_reported":1723741631,"current_range_meters":4400,"station_id":"ce4bgl92rcd13ifvqbq0","pricing_plan_id":"cebpf4jnsgd1na2vs0mg"},{"bike_id":"84630644-e930-46c8-8cd4-e646656b0341","system_id":"levelo_inurba_marseille","lat":43.312239,"lon":5.368562,"is_reserved":false,"is_disabled":false,"rental_uris":{"android":"levelo://app?vid=84630644-e930-46c8-8cd4-e646656b0341","ios":"levelo://app?vid=84630644-e930-46c8-8cd4-e646656b0341"},"vehicle_type_id":"4","last_reported":1723741631,"current_range_meters":15600,"station_id":"ce4bgl92rcd13ifvqbq0","pricing_plan_id":"cebpf4jnsgd1na2vs0mg"},{"bike_id":"ece8b705-0114-4cc9-a650-63023a603f02","system_id":"levelo_inurba_marseille","lat":43.312239,"lon":5.368562,"is_reserved":false,"is_disabled":false,"rental_uris":{"android":"levelo://app?vid=ece8b705-0114-4cc9-a650-63023a603f02","ios":"levelo://app?vid=ece8b705-0114-4cc9-a650-63023a603f02"},"vehicle_type_id":"4","last_reported":1723741631,"current_range_meters":13600,"station_id":"ce4bgl92rcd13ifvqbq0","pricing_plan_id":"cebpf4jnsgd1na2vs0mg"},{"bike_id":"b72f775e-f258-42b9-acf2-b1b4ba2d4f77","system_id":"levelo_inurba_marseille","lat":43.312239,"lon":5.368562,"is_reserved":false,"is_disabled":false,"rental_uris":{"android":"levelo://app?vid=b72f775e-f258-42b9-acf2-b1b4ba2d4f77","ios":"levelo://app?vid=b72f775e-f258-42b9-acf2-b1b4ba2d4f77"},"vehicle_type_id":"4","last_reported":1723741631,"current_range_meters":18000,"station_id":"ce4bgl92rcd13ifvqbq0","pricing_plan_id":"cebpf4jnsgd1na2vs0mg"},{"bike_id":"8ed46499-4ffa-4c0c-871a-3bc0bbf2e880","system_id":"levelo_inurba_marseille","lat":43.309076,"lon":5.368465,"is_reserved":false,"is_disabled":false,"rental_uris":{"android":"levelo://app?vid=8ed46499-4ffa-4c0c-871a-3bc0bbf2e880","ios":"levelo://app?vid=8ed46499-4ffa-4c0c-871a-3bc0bbf2e880"},"vehicle_type_id":"4","last_reported":1723741631,"current_range_meters":12400,"station_id":"ce4bgn92rcd13ifvqbvg","pricing_plan_id":"cebpf4jnsgd1na2vs0mg"},{"bike_id":"662edec3-0a96-46fb-9da4-b69f9b3cacf6","system_id":"levelo_inurba_marseille","lat":43.309076,"lon":5.368465,"is_reserved":false,"is_disabled":false,"rental_uris":{"android":"levelo://app?vid=662edec3-0a96-46fb-9da4-b69f9b3cacf6","ios":"levelo://app?vid=662edec3-0a96-46fb-9da4-b69f9b3cacf6"},"vehicle_type_id":"4","last_reported":1723741631,"current_range_meters":8000,"station_id":"ce4bgn92rcd13ifvqbvg","pricing_plan_id":"cebpf4jnsgd1na2vs0mg"},{"bike_id":"f44e05fd-bacb-4e89-876d-552a228d5d4f","system_id":"levelo_inurba_marseille","lat":43.314811,"lon":5.373103,"is_reserved":false,"is_disabled":false,"rental_uris":{"android":"levelo://app?vid=f44e05fd-bacb-4e89-876d-552a228d5d4f","ios":"levelo://app?vid=f44e05fd-bacb-4e89-876d-552a228d5d4f"},"vehicle_type_id":"4","last_reported":1723741631,"current_range_meters":27600,"station_id":"ce4bgt12rcd13ifvqcd0","pricing_plan_id":"cebpf4jnsgd1na2vs0mg"},{"bike_id":"4a17c4c3-6cb7-4af7-a9b4-bcaeecfc7249","system_id":"levelo_inurba_marseille","lat":43.314811,"lon":5.373103,"is_reserved":false,"is_disabled":false,"rental_uris":{"android":"levelo://app?vid=4a17c4c3-6cb7-4af7-a9b4-bcaeecfc7249","ios":"levelo://app?vid=4a17c4c3-6cb7-4af7-a9b4-bcaeecfc7249"},"vehicle_type_id":"4","last_reported":1723741631,"current_range_meters":2800,"station_id":"ce4bgt12rcd13ifvqcd0","pricing_plan_id":"cebpf4jnsgd1na2vs0mg"},{"bike_id":"ac34eb56-1338-43f2-8e01-a699c7f240b5","system_id":"levelo_inurba_marseille","lat":43.314811,"lon":5.373103,"is_reserved":false,"is_disabled":false,"rental_uris":{"android":"levelo://app?vid=ac34eb56-1338-43f2-8e01-a699c7f240b5","ios":"levelo://app?vid=ac34eb56-1338-43f2-8e01-a699c7f240b5"},"vehicle_type_id":"4","last_reported":1723741631,"current_range_meters":17200,"station_id":"ce4bgt12rcd13ifvqcd0","pricing_plan_id":"cebpf4jnsgd1na2vs0mg"},{"bike_id":"d7c1f5a4-7d2e-4c09-abb1-a50ac9114797","system_id":"levelo_inurba_marseille","lat":43.314811,"lon":5.373103,"is_reserved":false,"is_disabled":false,"rental_uris":{"android":"levelo://app?vid=d7c1f5a4-7d2e-4c09-abb1-a50ac9114797","ios":"levelo://app?vid=d7c1f5a4-7d2e-4c09-abb1-a50ac9114797"},"vehicle_type_id":"4","last_reported":1723741631,"current_range_meters":22400,"station_id":"ce4bgt12rcd13ifvqcd0","pricing_plan_id":"cebpf4jnsgd1na2vs0mg"},{"bike_id":"3d9568fd-9275-478e-bd24-a4f4eae4c2c4","system_id":"levelo_inurba_marseille","lat":43.314811,"lon":5.373104,"is_reserved":false,"is_disabled":false,"rental_uris":{"android":"levelo://app?vid=3d9568fd-9275-478e-bd24-a4f4eae4c2c4","ios":"levelo://app?vid=3d9568fd-9275-478e-bd24-a4f4eae4c2c4"},"vehicle_type_id":"4","last_reported":1723741631,"current_range_meters":12400,"station_id":"ce4bgt12rcd13ifvqcd0","pricing_plan_id":"cebpf4jnsgd1na2vs0mg"},{"bike_id":"5c3e7e5d-f7ea-4a48-88e2-4153987c3e38","system_id":"levelo_inurba_marseille","lat":43.309039,"lon":5.371797,"is_reserved":false,"is_disabled":false,"rental_uris":{"android":"levelo://app?vid=5c3e7e5d-f7ea-4a48-88e2-4153987c3e38","ios":"levelo://app?vid=5c3e7e5d-f7ea-4a48-88e2-4153987c3e38"},"vehicle_type_id":"4","last_reported":1723741631,"current_range_meters":31200,"station_id":"ce4bguh2rcd13ifvqckg","pricing_plan_id":"cebpf4jnsgd1na2vs0mg"},{"bike_id":"d806e892-f2b5-4e7f-a4b4-b6e3da10b534","system_id":"levelo_inurba_marseille","lat":43.309039,"lon":5.371797,"is_reserved":false,"is_disabled":false,"rental_uris":{"android":"levelo://app?vid=d806e892-f2b5-4e7f-a4b4-b6e3da10b534","ios":"levelo://app?vid=d806e892-f2b5-4e7f-a4b4-b6e3da10b534"},"vehicle_type_id":"4","last_reported":1723741631,"current_range_meters":18400,"station_id":"ce4bguh2rcd13ifvqckg","pricing_plan_id":"cebpf4jnsgd1na2vs0mg"},{"bike_id":"6b48e905-5696-4120-adf6-49be9c229904","system_id":"levelo_inurba_marseille","lat":43.305706,"lon":5.365654,"is_reserved":false,"is_disabled":false,"rental_uris":{"android":"levelo://app?vid=6b48e905-5696-4120-adf6-49be9c229904","ios":"levelo://app?vid=6b48e905-5696-4120-adf6-49be9c229904"},"vehicle_type_id":"4","last_reported":1723741631,"current_range_meters":4000,"station_id":"ce4bgs12rcd13ifvqcag","pricing_plan_id":"cebpf4jnsgd1na2vs0mg"},{"bike_id":"9ee15a69-6c21-48af-8942-89646c69d57c","system_id":"levelo_inurba_marseille","lat":43.305706,"lon":5.365654,"is_reserved":false,"is_disabled":false,"rental_uris":{"android":"levelo://app?vid=9ee15a69-6c21-48af-8942-89646c69d57c","ios":"levelo://app?vid=9ee15a69-6c21-48af-8942-89646c69d57c"},"vehicle_type_id":"4","last_reported":1723741631,"current_range_meters":28400,"station_id":"ce4bgs12rcd13ifvqcag","pricing_plan_id":"cebpf4jnsgd1na2vs0mg"},{"bike_id":"b70951da-db39-4df7-9f09-5f0e2c340e37","system_id":"levelo_inurba_marseille","lat":43.30527,"lon":5.36711,"is_reserved":false,"is_disabled":false,"rental_uris":{"android":"levelo://app?vid=b70951da-db39-4df7-9f09-5f0e2c340e37","ios":"levelo://app?vid=b70951da-db39-4df7-9f09-5f0e2c340e37"},"vehicle_type_id":"4","last_reported":1723741631,"current_range_meters":2400,"station_id":"ce4bgrp2rcd13ifvqc9g","pricing_plan_id":"cebpf4jnsgd1na2vs0mg"},{"bike_id":"0a2cd40f-5691-4368-86a3-d880528c209e","system_id":"levelo_inurba_marseille","lat":43.305368,"lon":5.367343,"is_reserved":false,"is_disabled":false,"rental_uris":{"android":"levelo://app?vid=0a2cd40f-5691-4368-86a3-d880528c209e","ios":"levelo://app?vid=0a2cd40f-5691-4368-86a3-d880528c209e"},"vehicle_type_id":"4","last_reported":1723741631,"current_range_meters":30400,"station_id":"ce4bgrp2rcd13ifvqc9g","pricing_plan_id":"cebpf4jnsgd1na2vs0mg"},{"bike_id":"e1efa3fd-c946-4228-a710-ec5debfa18d0","system_id":"levelo_inurba_marseille","lat":43.305706,"lon":5.365654,"is_reserved":false,"is_disabled":false,"rental_uris":{"android":"levelo://app?vid=e1efa3fd-c946-4228-a710-ec5debfa18d0","ios":"levelo://app?vid=e1efa3fd-c946-4228-a710-ec5debfa18d0"},"vehicle_type_id":"4","last_reported":1723741631,"current_range_meters":26800,"station_id":"ce4bgs12rcd13ifvqcag","pricing_plan_id":"cebpf4jnsgd1na2vs0mg"},{"bike_id":"149adcd3-afb7-4255-ab99-fdc549eecd30","system_id":"levelo_inurba_marseille","lat":43.305368,"lon":5.367343,"is_reserved":false,"is_disabled":false,"rental_uris":{"android":"levelo://app?vid=149adcd3-afb7-4255-ab99-fdc549eecd30","ios":"levelo://app?vid=149adcd3-afb7-4255-ab99-fdc549eecd30"},"vehicle_type_id":"4","last_reported":1723741631,"current_range_meters":14000,"station_id":"ce4bgrp2rcd13ifvqc9g","pricing_plan_id":"cebpf4jnsgd1na2vs0mg"},{"bike_id":"22863854-25f0-41d4-99cc-9a4c00fead21","system_id":"levelo_inurba_marseille","lat":43.305989,"lon":5.37225,"is_reserved":false,"is_disabled":false,"rental_uris":{"android":"levelo://app?vid=22863854-25f0-41d4-99cc-9a4c00fead21","ios":"levelo://app?vid=22863854-25f0-41d4-99cc-9a4c00fead21"},"vehicle_type_id":"4","last_reported":1723741631,"current_range_meters":12400,"station_id":"ce4bgqh2rcd13ifvqc4g","pricing_plan_id":"cebpf4jnsgd1na2vs0mg"},{"bike_id":"6fc50849-986e-4a90-a310-4c2ea5da0ea4","system_id":"levelo_inurba_marseille","lat":43.305989,"lon":5.37225,"is_reserved":false,"is_disabled":false,"rental_uris":{"android":"levelo://app?vid=6fc50849-986e-4a90-a310-4c2ea5da0ea4","ios":"levelo://app?vid=6fc50849-986e-4a90-a310-4c2ea5da0ea4"},"vehicle_type_id":"4","last_reported":1723741631,"current_range_meters":29200,"station_id":"ce4bgqh2rcd13ifvqc4g","pricing_plan_id":"cebpf4jnsgd1na2vs0mg"},{"bike_id":"ed5872e2-fe12-4b5e-b23a-b818f2a7ea40","system_id":"levelo_inurba_marseille","lat":43.305989,"lon":5.37225,"is_reserved":false,"is_disabled":false,"rental_uris":{"android":"levelo://app?vid=ed5872e2-fe12-4b5e-b23a-b818f2a7ea40","ios":"levelo://app?vid=ed5872e2-fe12-4b5e-b23a-b818f2a7ea40"},"vehicle_type_id":"4","last_reported":1723741631,"current_range_meters":16000,"station_id":"ce4bgqh2rcd13ifvqc4g","pricing_plan_id":"cebpf4jnsgd1na2vs0mg"},{"bike_id":"8ab4b8b3-1e19-450b-aeca-2d25e8b60b65","system_id":"levelo_inurba_marseille","lat":43.305989,"lon":5.37225,"is_reserved":false,"is_disabled":false,"rental_uris":{"android":"levelo://app?vid=8ab4b8b3-1e19-450b-aeca-2d25e8b60b65","ios":"levelo://app?vid=8ab4b8b3-1e19-450b-aeca-2d25e8b60b65"},"vehicle_type_id":"4","last_reported":1723741631,"current_range_meters":21600,"station_id":"ce4bgqh2rcd13ifvqc4g","pricing_plan_id":"cebpf4jnsgd1na2vs0mg"},{"bike_id":"7be836fa-f2e4-4475-885e-e28e2674ada4","system_id":"levelo_inurba_marseille","lat":43.311125,"lon":5.377624,"is_reserved":false,"is_disabled":false,"rental_uris":{"android":"levelo://app?vid=7be836fa-f2e4-4475-885e-e28e2674ada4","ios":"levelo://app?vid=7be836fa-f2e4-4475-885e-e28e2674ada4"},"vehicle_type_id":"4","last_reported":1723741631,"current_range_meters":15200,"station_id":"ce4bgt92rcd13ifvqcg0","pricing_plan_id":"cebpf4jnsgd1na2vs0mg"},{"bike_id":"57fab331-5ebd-414a-8358-85e1bf602fbb","system_id":"levelo_inurba_marseille","lat":43.305989,"lon":5.37225,"is_reserved":false,"is_disabled":false,"rental_uris":{"android":"levelo://app?vid=57fab331-5ebd-414a-8358-85e1bf602fbb","ios":"levelo://app?vid=57fab331-5ebd-414a-8358-85e1bf602fbb"},"vehicle_type_id":"4","last_reported":1723741631,"current_range_meters":21200,"station_id":"ce4bgqh2rcd13ifvqc4g","pricing_plan_id":"cebpf4jnsgd1na2vs0mg"},{"bike_id":"d1fa2367-0510-457b-accd-13512bc5c84d","system_id":"levelo_inurba_marseille","lat":43.311125,"lon":5.377624,"is_reserved":false,"is_disabled":false,"rental_uris":{"android":"levelo://app?vid=d1fa2367-0510-457b-accd-13512bc5c84d","ios":"levelo://app?vid=d1fa2367-0510-457b-accd-13512bc5c84d"},"vehicle_type_id":"4","last_reported":1723741631,"current_range_meters":22800,"station_id":"ce4bgt92rcd13ifvqcg0","pricing_plan_id":"cebpf4jnsgd1na2vs0mg"},{"bike_id":"47c0e401-d440-47d7-bb30-a1fb014af5bd","system_id":"levelo_inurba_marseille","lat":43.307945,"lon":5.376487,"is_reserved":false,"is_disabled":false,"rental_uris":{"android":"levelo://app?vid=47c0e401-d440-47d7-bb30-a1fb014af5bd","ios":"levelo://app?vid=47c0e401-d440-47d7-bb30-a1fb014af5bd"},"vehicle_type_id":"4","last_reported":1723741631,"current_range_meters":19600,"station_id":"ce4bgv92rcd13ifvqcq0","pricing_plan_id":"cebpf4jnsgd1na2vs0mg"},{"bike_id":"357ec5fa-15b8-4d8c-b7b2-4e3444661c0f","system_id":"levelo_inurba_marseille","lat":43.317075,"lon":5.377367,"is_reserved":false,"is_disabled":false,"rental_uris":{"android":"levelo://app?vid=357ec5fa-15b8-4d8c-b7b2-4e3444661c0f","ios":"levelo://app?vid=357ec5fa-15b8-4d8c-b7b2-4e3444661c0f"},"vehicle_type_id":"4","last_reported":1723741631,"current_range_meters":27200,"station_id":"ce4bgth2rcd13ifvqch0","pricing_plan_id":"cebpf4jnsgd1na2vs0mg"},{"bike_id":"7a2a531c-493c-4942-a18d-9398a908058a","system_id":"levelo_inurba_marseille","lat":43.292749,"lon":5.368398,"is_reserved":false,"is_disabled":false,"rental_uris":{"android":"levelo://app?vid=7a2a531c-493c-4942-a18d-9398a908058a","ios":"levelo://app?vid=7a2a531c-493c-4942-a18d-9398a908058a"},"vehicle_type_id":"4","last_reported":1723741631,"current_range_meters":14000,"station_id":"ce4bhbp2rcd13ifvqesg","pricing_plan_id":"cebpf4jnsgd1na2vs0mg"},{"bike_id":"05f57039-4b7a-4ad6-9cba-a6684235ef05","system_id":"levelo_inurba_marseille","lat":43.30304,"lon":5.368987,"is_reserved":false,"is_disabled":false,"rental_uris":{"android":"levelo://app?vid=05f57039-4b7a-4ad6-9cba-a6684235ef05","ios":"levelo://app?vid=05f57039-4b7a-4ad6-9cba-a6684235ef05"},"vehicle_type_id":"4","last_reported":1723741631,"current_range_meters":11200,"station_id":"ce4bgqh2rcd13ifvqc5g","pricing_plan_id":"cebpf4jnsgd1na2vs0mg"},{"bike_id":"09d51dbe-2da4-4ebc-ae4a-6d0a2562959f","system_id":"levelo_inurba_marseille","lat":43.30304,"lon":5.368987,"is_reserved":false,"is_disabled":false,"rental_uris":{"android":"levelo://app?vid=09d51dbe-2da4-4ebc-ae4a-6d0a2562959f","ios":"levelo://app?vid=09d51dbe-2da4-4ebc-ae4a-6d0a2562959f"},"vehicle_type_id":"4","last_reported":1723741631,"current_range_meters":4800,"station_id":"ce4bgqh2rcd13ifvqc5g","pricing_plan_id":"cebpf4jnsgd1na2vs0mg"},{"bike_id":"30cf6715-a4ff-4f73-91c3-4dea33dc52d8","system_id":"levelo_inurba_marseille","lat":43.301939,"lon":5.366286,"is_reserved":false,"is_disabled":false,"rental_uris":{"android":"levelo://app?vid=30cf6715-a4ff-4f73-91c3-4dea33dc52d8","ios":"levelo://app?vid=30cf6715-a4ff-4f73-91c3-4dea33dc52d8"},"vehicle_type_id":"4","last_reported":1723741631,"current_range_meters":19200,"station_id":"ce4bgrh2rcd13ifvqc8g","pricing_plan_id":"cebpf4jnsgd1na2vs0mg"},{"bike_id":"fb231d2e-484a-44b9-aed7-84fa5b465bf8","system_id":"levelo_inurba_marseille","lat":43.301939,"lon":5.366286,"is_reserved":false,"is_disabled":false,"rental_uris":{"android":"levelo://app?vid=fb231d2e-484a-44b9-aed7-84fa5b465bf8","ios":"levelo://app?vid=fb231d2e-484a-44b9-aed7-84fa5b465bf8"},"vehicle_type_id":"4","last_reported":1723741631,"current_range_meters":6000,"station_id":"ce4bgrh2rcd13ifvqc8g","pricing_plan_id":"cebpf4jnsgd1na2vs0mg"},{"bike_id":"4c6c1ac5-843f-4e5b-bf56-449ad387bec4","system_id":"levelo_inurba_marseille","lat":43.301939,"lon":5.366286,"is_reserved":false,"is_disabled":false,"rental_uris":{"android":"levelo://app?vid=4c6c1ac5-843f-4e5b-bf56-449ad387bec4","ios":"levelo://app?vid=4c6c1ac5-843f-4e5b-bf56-449ad387bec4"},"vehicle_type_id":"4","last_reported":1723741631,"current_range_meters":24400,"station_id":"ce4bgrh2rcd13ifvqc8g","pricing_plan_id":"cebpf4jnsgd1na2vs0mg"},{"bike_id":"9f7df3d7-cdef-432d-8348-f495e61367c6","system_id":"levelo_inurba_marseille","lat":43.301939,"lon":5.366286,"is_reserved":false,"is_disabled":false,"rental_uris":{"android":"levelo://app?vid=9f7df3d7-cdef-432d-8348-f495e61367c6","ios":"levelo://app?vid=9f7df3d7-cdef-432d-8348-f495e61367c6"},"vehicle_type_id":"4","last_reported":1723741631,"current_range_meters":23200,"station_id":"ce4bgrh2rcd13ifvqc8g","pricing_plan_id":"cebpf4jnsgd1na2vs0mg"},{"bike_id":"50c8c3dc-3a97-4188-8ebd-1a1ddbef9cf9","system_id":"levelo_inurba_marseille","lat":43.301297,"lon":5.36552,"is_reserved":false,"is_disabled":false,"rental_uris":{"android":"levelo://app?vid=50c8c3dc-3a97-4188-8ebd-1a1ddbef9cf9","ios":"levelo://app?vid=50c8c3dc-3a97-4188-8ebd-1a1ddbef9cf9"},"vehicle_type_id":"4","last_reported":1723741631,"current_range_meters":0,"station_id":"","pricing_plan_id":"cebpf4jnsgd1na2vs0mg"},{"bike_id":"b76dbbb1-2bda-4862-9e38-2e7f5a626f90","system_id":"levelo_inurba_marseille","lat":43.308012,"lon":5.381511,"is_reserved":false,"is_disabled":false,"rental_uris":{"android":"levelo://app?vid=b76dbbb1-2bda-4862-9e38-2e7f5a626f90","ios":"levelo://app?vid=b76dbbb1-2bda-4862-9e38-2e7f5a626f90"},"vehicle_type_id":"4","last_reported":1723741631,"current_range_meters":5600,"station_id":"ce4bgt12rcd13ifvqce0","pricing_plan_id":"cebpf4jnsgd1na2vs0mg"},{"bike_id":"b478172f-2b72-45e0-9e60-c1b561558f0e","system_id":"levelo_inurba_marseille","lat":43.304606,"lon":5.379026,"is_reserved":false,"is_disabled":false,"rental_uris":{"android":"levelo://app?vid=b478172f-2b72-45e0-9e60-c1b561558f0e","ios":"levelo://app?vid=b478172f-2b72-45e0-9e60-c1b561558f0e"},"vehicle_type_id":"4","last_reported":1723741631,"current_range_meters":28000,"station_id":"ce4bgup2rcd13ifvqcn0","pricing_plan_id":"cebpf4jnsgd1na2vs0mg"},{"bike_id":"5cdb105d-640a-449b-ab01-2461192a9564","system_id":"levelo_inurba_marseille","lat":43.304606,"lon":5.379026,"is_reserved":false,"is_disabled":false,"rental_uris":{"android":"levelo://app?vid=5cdb105d-640a-449b-ab01-2461192a9564","ios":"levelo://app?vid=5cdb105d-640a-449b-ab01-2461192a9564"},"vehicle_type_id":"4","last_reported":1723741631,"current_range_meters":21200,"station_id":"ce4bgup2rcd13ifvqcn0","pricing_plan_id":"cebpf4jnsgd1na2vs0mg"},{"bike_id":"0f07b1a1-3c13-49f4-92b1-cdc2167ebbbc","system_id":"levelo_inurba_marseille","lat":43.304606,"lon":5.379026,"is_reserved":false,"is_disabled":false,"rental_uris":{"android":"levelo://app?vid=0f07b1a1-3c13-49f4-92b1-cdc2167ebbbc","ios":"levelo://app?vid=0f07b1a1-3c13-49f4-92b1-cdc2167ebbbc"},"vehicle_type_id":"4","last_reported":1723741631,"current_range_meters":14000,"station_id":"ce4bgup2rcd13ifvqcn0","pricing_plan_id":"cebpf4jnsgd1na2vs0mg"},{"bike_id":"6b724daa-8129-4643-85d9-75244ff72034","system_id":"levelo_inurba_marseille","lat":43.3047,"lon":5.37903,"is_reserved":false,"is_disabled":false,"rental_uris":{"android":"levelo://app?vid=6b724daa-8129-4643-85d9-75244ff72034","ios":"levelo://app?vid=6b724daa-8129-4643-85d9-75244ff72034"},"vehicle_type_id":"4","last_reported":1723741631,"current_range_meters":25600,"station_id":"ce4bgup2rcd13ifvqcn0","pricing_plan_id":"cebpf4jnsgd1na2vs0mg"},{"bike_id":"b4973b27-5ecf-42d2-a624-2471da831224","system_id":"levelo_inurba_marseille","lat":43.304606,"lon":5.379026,"is_reserved":false,"is_disabled":false,"rental_uris":{"android":"levelo://app?vid=b4973b27-5ecf-42d2-a624-2471da831224","ios":"levelo://app?vid=b4973b27-5ecf-42d2-a624-2471da831224"},"vehicle_type_id":"4","last_reported":1723741631,"current_range_meters":19200,"station_id":"ce4bgup2rcd13ifvqcn0","pricing_plan_id":"cebpf4jnsgd1na2vs0mg"},{"bike_id":"dd5a188a-bc7a-4fda-86ed-5d2d92f7fc96","system_id":"levelo_inurba_marseille","lat":43.304606,"lon":5.379026,"is_reserved":false,"is_disabled":false,"rental_uris":{"android":"levelo://app?vid=dd5a188a-bc7a-4fda-86ed-5d2d92f7fc96","ios":"levelo://app?vid=dd5a188a-bc7a-4fda-86ed-5d2d92f7fc96"},"vehicle_type_id":"4","last_reported":1723741631,"current_range_meters":16400,"station_id":"ce4bgup2rcd13ifvqcn0","pricing_plan_id":"cebpf4jnsgd1na2vs0mg"},{"bike_id":"19ccdb1f-505d-494e-b154-4bd2f1dab73d","system_id":"levelo_inurba_marseille","lat":43.304606,"lon":5.379026,"is_reserved":false,"is_disabled":false,"rental_uris":{"android":"levelo://app?vid=19ccdb1f-505d-494e-b154-4bd2f1dab73d","ios":"levelo://app?vid=19ccdb1f-505d-494e-b154-4bd2f1dab73d"},"vehicle_type_id":"4","last_reported":1723741631,"current_range_meters":15600,"station_id":"ce4bgup2rcd13ifvqcn0","pricing_plan_id":"cebpf4jnsgd1na2vs0mg"},{"bike_id":"8fbde263-663a-4736-a10d-16053b60d086","system_id":"levelo_inurba_marseille","lat":43.304606,"lon":5.379026,"is_reserved":false,"is_disabled":false,"rental_uris":{"android":"levelo://app?vid=8fbde263-663a-4736-a10d-16053b60d086","ios":"levelo://app?vid=8fbde263-663a-4736-a10d-16053b60d086"},"vehicle_type_id":"4","last_reported":1723741631,"current_range_meters":18000,"station_id":"ce4bgup2rcd13ifvqcn0","pricing_plan_id":"cebpf4jnsgd1na2vs0mg"},{"bike_id":"13e655d3-c4a9-454b-bbc7-ca10820467fa","system_id":"levelo_inurba_marseille","lat":43.324771,"lon":5.36557,"is_reserved":false,"is_disabled":false,"rental_uris":{"android":"levelo://app?vid=13e655d3-c4a9-454b-bbc7-ca10820467fa","ios":"levelo://app?vid=13e655d3-c4a9-454b-bbc7-ca10820467fa"},"vehicle_type_id":"4","last_reported":1723741631,"current_range_meters":0,"station_id":"ce4bhs12rcd13ifvqhvg","pricing_plan_id":"cebpf4jnsgd1na2vs0mg"},{"bike_id":"44680a61-b1de-4b9c-b689-2ab765a147aa","system_id":"levelo_inurba_marseille","lat":43.324771,"lon":5.36557,"is_reserved":false,"is_disabled":false,"rental_uris":{"android":"levelo://app?vid=44680a61-b1de-4b9c-b689-2ab765a147aa","ios":"levelo://app?vid=44680a61-b1de-4b9c-b689-2ab765a147aa"},"vehicle_type_id":"4","last_reported":1723741631,"current_range_meters":30800,"station_id":"ce4bhs12rcd13ifvqhvg","pricing_plan_id":"cebpf4jnsgd1na2vs0mg"},{"bike_id":"3e0c1d3f-32f7-4817-be56-7cf8e0ffd6d2","system_id":"levelo_inurba_marseille","lat":43.324825,"lon":5.365663,"is_reserved":false,"is_disabled":false,"rental_uris":{"android":"levelo://app?vid=3e0c1d3f-32f7-4817-be56-7cf8e0ffd6d2","ios":"levelo://app?vid=3e0c1d3f-32f7-4817-be56-7cf8e0ffd6d2"},"vehicle_type_id":"4","last_reported":1723741631,"current_range_meters":15200,"station_id":"ce4bhs12rcd13ifvqhvg","pricing_plan_id":"cebpf4jnsgd1na2vs0mg"},{"bike_id":"72ce88b9-d422-4426-8bab-b75408f223f7","system_id":"levelo_inurba_marseille","lat":43.324771,"lon":5.36557,"is_reserved":false,"is_disabled":false,"rental_uris":{"android":"levelo://app?vid=72ce88b9-d422-4426-8bab-b75408f223f7","ios":"levelo://app?vid=72ce88b9-d422-4426-8bab-b75408f223f7"},"vehicle_type_id":"4","last_reported":1723741631,"current_range_meters":8400,"station_id":"ce4bhs12rcd13ifvqhvg","pricing_plan_id":"cebpf4jnsgd1na2vs0mg"},{"bike_id":"973b9adf-3194-4361-b780-79085fad72a0","system_id":"levelo_inurba_marseille","lat":43.324835,"lon":5.365677,"is_reserved":false,"is_disabled":false,"rental_uris":{"android":"levelo://app?vid=973b9adf-3194-4361-b780-79085fad72a0","ios":"levelo://app?vid=973b9adf-3194-4361-b780-79085fad72a0"},"vehicle_type_id":"4","last_reported":1723741631,"current_range_meters":27600,"station_id":"ce4bhs12rcd13ifvqhvg","pricing_plan_id":"cebpf4jnsgd1na2vs0mg"},{"bike_id":"25f704bb-de96-42b3-8fc8-7c0034e26c2e","system_id":"levelo_inurba_marseille","lat":43.32487,"lon":5.36558,"is_reserved":false,"is_disabled":false,"rental_uris":{"android":"levelo://app?vid=25f704bb-de96-42b3-8fc8-7c0034e26c2e","ios":"levelo://app?vid=25f704bb-de96-42b3-8fc8-7c0034e26c2e"},"vehicle_type_id":"4","last_reported":1723741631,"current_range_meters":17200,"station_id":"ce4bhs12rcd13ifvqhvg","pricing_plan_id":"cebpf4jnsgd1na2vs0mg"},{"bike_id":"962c7c91-37cb-48cb-854f-bcee019227cf","system_id":"levelo_inurba_marseille","lat":43.324771,"lon":5.36557,"is_reserved":false,"is_disabled":false,"rental_uris":{"android":"levelo://app?vid=962c7c91-37cb-48cb-854f-bcee019227cf","ios":"levelo://app?vid=962c7c91-37cb-48cb-854f-bcee019227cf"},"vehicle_type_id":"4","last_reported":1723741631,"current_range_meters":9600,"station_id":"ce4bhs12rcd13ifvqhvg","pricing_plan_id":"cebpf4jnsgd1na2vs0mg"},{"bike_id":"bdf61be6-6755-4df3-ae77-6b81cc7b98f5","system_id":"levelo_inurba_marseille","lat":43.324771,"lon":5.36557,"is_reserved":false,"is_disabled":false,"rental_uris":{"android":"levelo://app?vid=bdf61be6-6755-4df3-ae77-6b81cc7b98f5","ios":"levelo://app?vid=bdf61be6-6755-4df3-ae77-6b81cc7b98f5"},"vehicle_type_id":"4","last_reported":1723741631,"current_range_meters":31600,"station_id":"ce4bhs12rcd13ifvqhvg","pricing_plan_id":"cebpf4jnsgd1na2vs0mg"},{"bike_id":"4792ec4b-9d18-463e-89c1-7d6dae4e5bc4","system_id":"levelo_inurba_marseille","lat":43.32489,"lon":5.36563,"is_reserved":false,"is_disabled":false,"rental_uris":{"android":"levelo://app?vid=4792ec4b-9d18-463e-89c1-7d6dae4e5bc4","ios":"levelo://app?vid=4792ec4b-9d18-463e-89c1-7d6dae4e5bc4"},"vehicle_type_id":"4","last_reported":1723741631,"current_range_meters":17600,"station_id":"ce4bhs12rcd13ifvqhvg","pricing_plan_id":"cebpf4jnsgd1na2vs0mg"},{"bike_id":"2a0481dc-9b2b-4b3c-a770-3ed234f995a1","system_id":"levelo_inurba_marseille","lat":43.319935,"lon":5.381699,"is_reserved":false,"is_disabled":false,"rental_uris":{"android":"levelo://app?vid=2a0481dc-9b2b-4b3c-a770-3ed234f995a1","ios":"levelo://app?vid=2a0481dc-9b2b-4b3c-a770-3ed234f995a1"},"vehicle_type_id":"4","last_reported":1723741631,"current_range_meters":400,"station_id":"ce4bhr12rcd13ifvqhpg","pricing_plan_id":"cebpf4jnsgd1na2vs0mg"},{"bike_id":"b898bc7b-a6c2-40b5-9c99-2bc974705161","system_id":"levelo_inurba_marseille","lat":43.310804,"lon":5.38359,"is_reserved":false,"is_disabled":false,"rental_uris":{"android":"levelo://app?vid=b898bc7b-a6c2-40b5-9c99-2bc974705161","ios":"levelo://app?vid=b898bc7b-a6c2-40b5-9c99-2bc974705161"},"vehicle_type_id":"4","last_reported":1723741631,"current_range_meters":15200,"station_id":"ce4bgv92rcd13ifvqcr0","pricing_plan_id":"cebpf4jnsgd1na2vs0mg"},{"bike_id":"c44f8ddb-b0bf-452b-b98f-fd542b658046","system_id":"levelo_inurba_marseille","lat":43.310804,"lon":5.38359,"is_reserved":false,"is_disabled":false,"rental_uris":{"android":"levelo://app?vid=c44f8ddb-b0bf-452b-b98f-fd542b658046","ios":"levelo://app?vid=c44f8ddb-b0bf-452b-b98f-fd542b658046"},"vehicle_type_id":"4","last_reported":1723741631,"current_range_meters":24800,"station_id":"ce4bgv92rcd13ifvqcr0","pricing_plan_id":"cebpf4jnsgd1na2vs0mg"},{"bike_id":"55498002-0755-4637-8ec3-39d8b01b0e1d","system_id":"levelo_inurba_marseille","lat":43.308012,"lon":5.381511,"is_reserved":false,"is_disabled":false,"rental_uris":{"android":"levelo://app?vid=55498002-0755-4637-8ec3-39d8b01b0e1d","ios":"levelo://app?vid=55498002-0755-4637-8ec3-39d8b01b0e1d"},"vehicle_type_id":"4","last_reported":1723741631,"current_range_meters":26800,"station_id":"ce4bgt12rcd13ifvqce0","pricing_plan_id":"cebpf4jnsgd1na2vs0mg"},{"bike_id":"a52d3d15-b0f1-4d1d-8c4b-724d747f6fad","system_id":"levelo_inurba_marseille","lat":43.30143,"lon":5.37413,"is_reserved":false,"is_disabled":false,"rental_uris":{"android":"levelo://app?vid=a52d3d15-b0f1-4d1d-8c4b-724d747f6fad","ios":"levelo://app?vid=a52d3d15-b0f1-4d1d-8c4b-724d747f6fad"},"vehicle_type_id":"4","last_reported":1723741631,"current_range_meters":24400,"station_id":"ce4bgs92rcd13ifvqcc0","pricing_plan_id":"cebpf4jnsgd1na2vs0mg"},{"bike_id":"e9dce544-d789-454b-9d76-023053ef92f6","system_id":"levelo_inurba_marseille","lat":43.301429,"lon":5.37413,"is_reserved":false,"is_disabled":false,"rental_uris":{"android":"levelo://app?vid=e9dce544-d789-454b-9d76-023053ef92f6","ios":"levelo://app?vid=e9dce544-d789-454b-9d76-023053ef92f6"},"vehicle_type_id":"4","last_reported":1723741631,"current_range_meters":22400,"station_id":"ce4bgs92rcd13ifvqcc0","pricing_plan_id":"cebpf4jnsgd1na2vs0mg"},{"bike_id":"2c20bed0-c31e-4b7e-8320-aa4652e452c6","system_id":"levelo_inurba_marseille","lat":43.30143,"lon":5.37413,"is_reserved":false,"is_disabled":false,"rental_uris":{"android":"levelo://app?vid=2c20bed0-c31e-4b7e-8320-aa4652e452c6","ios":"levelo://app?vid=2c20bed0-c31e-4b7e-8320-aa4652e452c6"},"vehicle_type_id":"4","last_reported":1723741631,"current_range_meters":1600,"station_id":"ce4bgs92rcd13ifvqcc0","pricing_plan_id":"cebpf4jnsgd1na2vs0mg"},{"bike_id":"b46b1b62-4cf9-40c6-8920-ce4555f4ccf3","system_id":"levelo_inurba_marseille","lat":43.30591,"lon":5.38152,"is_reserved":false,"is_disabled":false,"rental_uris":{"android":"levelo://app?vid=b46b1b62-4cf9-40c6-8920-ce4555f4ccf3","ios":"levelo://app?vid=b46b1b62-4cf9-40c6-8920-ce4555f4ccf3"},"vehicle_type_id":"4","last_reported":1723741631,"current_range_meters":25200,"station_id":"","pricing_plan_id":"cebpf4jnsgd1na2vs0mg"},{"bike_id":"b60c3de7-795a-41ed-aa13-a41432f0f9c7","system_id":"levelo_inurba_marseille","lat":43.30304,"lon":5.368987,"is_reserved":false,"is_disabled":false,"rental_uris":{"android":"levelo://app?vid=b60c3de7-795a-41ed-aa13-a41432f0f9c7","ios":"levelo://app?vid=b60c3de7-795a-41ed-aa13-a41432f0f9c7"},"vehicle_type_id":"4","last_reported":1723741631,"current_range_meters":22400,"station_id":"ce4bgqh2rcd13ifvqc5g","pricing_plan_id":"cebpf4jnsgd1na2vs0mg"},{"bike_id":"d9914c9a-4acf-4bf7-95c4-c6f57fbb7a67","system_id":"levelo_inurba_marseille","lat":43.313571,"lon":5.384829,"is_reserved":false,"is_disabled":false,"rental_uris":{"android":"levelo://app?vid=d9914c9a-4acf-4bf7-95c4-c6f57fbb7a67","ios":"levelo://app?vid=d9914c9a-4acf-4bf7-95c4-c6f57fbb7a67"},"vehicle_type_id":"4","last_reported":1723741631,"current_range_meters":10000,"station_id":"ce4bgt92rcd13ifvqcf0","pricing_plan_id":"cebpf4jnsgd1na2vs0mg"},{"bike_id":"5adeabf0-2d56-429e-a531-e91ed9dae291","system_id":"levelo_inurba_marseille","lat":43.31359,"lon":5.3849,"is_reserved":false,"is_disabled":false,"rental_uris":{"android":"levelo://app?vid=5adeabf0-2d56-429e-a531-e91ed9dae291","ios":"levelo://app?vid=5adeabf0-2d56-429e-a531-e91ed9dae291"},"vehicle_type_id":"4","last_reported":1723741631,"current_range_meters":7200,"station_id":"ce4bgt92rcd13ifvqcf0","pricing_plan_id":"cebpf4jnsgd1na2vs0mg"},{"bike_id":"618b56af-4d55-4e8c-aa5a-e8d08d482b62","system_id":"levelo_inurba_marseille","lat":43.313571,"lon":5.384829,"is_reserved":false,"is_disabled":false,"rental_uris":{"android":"levelo://app?vid=618b56af-4d55-4e8c-aa5a-e8d08d482b62","ios":"levelo://app?vid=618b56af-4d55-4e8c-aa5a-e8d08d482b62"},"vehicle_type_id":"4","last_reported":1723741631,"current_range_meters":2800,"station_id":"ce4bgt92rcd13ifvqcf0","pricing_plan_id":"cebpf4jnsgd1na2vs0mg"},{"bike_id":"d3cdd09f-8c64-4e37-bc07-e5c3a1fbef5a","system_id":"levelo_inurba_marseille","lat":43.313571,"lon":5.384829,"is_reserved":false,"is_disabled":false,"rental_uris":{"android":"levelo://app?vid=d3cdd09f-8c64-4e37-bc07-e5c3a1fbef5a","ios":"levelo://app?vid=d3cdd09f-8c64-4e37-bc07-e5c3a1fbef5a"},"vehicle_type_id":"4","last_reported":1723741631,"current_range_meters":12000,"station_id":"ce4bgt92rcd13ifvqcf0","pricing_plan_id":"cebpf4jnsgd1na2vs0mg"},{"bike_id":"803fe397-df3f-4d13-8436-b161cb73fbdd","system_id":"levelo_inurba_marseille","lat":43.313571,"lon":5.384829,"is_reserved":false,"is_disabled":false,"rental_uris":{"android":"levelo://app?vid=803fe397-df3f-4d13-8436-b161cb73fbdd","ios":"levelo://app?vid=803fe397-df3f-4d13-8436-b161cb73fbdd"},"vehicle_type_id":"4","last_reported":1723741631,"current_range_meters":27600,"station_id":"ce4bgt92rcd13ifvqcf0","pricing_plan_id":"cebpf4jnsgd1na2vs0mg"},{"bike_id":"2f7b5e17-946a-4c19-9af8-df6cdade8c2c","system_id":"levelo_inurba_marseille","lat":43.313571,"lon":5.384829,"is_reserved":false,"is_disabled":false,"rental_uris":{"android":"levelo://app?vid=2f7b5e17-946a-4c19-9af8-df6cdade8c2c","ios":"levelo://app?vid=2f7b5e17-946a-4c19-9af8-df6cdade8c2c"},"vehicle_type_id":"4","last_reported":1723741631,"current_range_meters":2800,"station_id":"ce4bgt92rcd13ifvqcf0","pricing_plan_id":"cebpf4jnsgd1na2vs0mg"},{"bike_id":"959d06b5-4b2d-4104-a9fb-34a4a80bdd56","system_id":"levelo_inurba_marseille","lat":43.299222,"lon":5.365554,"is_reserved":false,"is_disabled":false,"rental_uris":{"android":"levelo://app?vid=959d06b5-4b2d-4104-a9fb-34a4a80bdd56","ios":"levelo://app?vid=959d06b5-4b2d-4104-a9fb-34a4a80bdd56"},"vehicle_type_id":"4","last_reported":1723741631,"current_range_meters":16000,"station_id":"ce4bgm92rcd13ifvqbr0","pricing_plan_id":"cebpf4jnsgd1na2vs0mg"},{"bike_id":"e5a3ed2e-a89a-4d03-a6e7-72a986f38d2a","system_id":"levelo_inurba_marseille","lat":43.302784,"lon":5.377158,"is_reserved":false,"is_disabled":false,"rental_uris":{"android":"levelo://app?vid=e5a3ed2e-a89a-4d03-a6e7-72a986f38d2a","ios":"levelo://app?vid=e5a3ed2e-a89a-4d03-a6e7-72a986f38d2a"},"vehicle_type_id":"4","last_reported":1723741631,"current_range_meters":6000,"station_id":"ce4bguh2rcd13ifvqcj0","pricing_plan_id":"cebpf4jnsgd1na2vs0mg"},{"bike_id":"0724cd3f-a66e-45a0-bfd8-624b798a168d","system_id":"levelo_inurba_marseille","lat":43.299724,"lon":5.371829,"is_reserved":false,"is_disabled":false,"rental_uris":{"android":"levelo://app?vid=0724cd3f-a66e-45a0-bfd8-624b798a168d","ios":"levelo://app?vid=0724cd3f-a66e-45a0-bfd8-624b798a168d"},"vehicle_type_id":"4","last_reported":1723741631,"current_range_meters":20400,"station_id":"ce4bgr92rcd13ifvqc7g","pricing_plan_id":"cebpf4jnsgd1na2vs0mg"},{"bike_id":"ad6acd11-dbe6-4187-a4ed-30ee3f5fac50","system_id":"levelo_inurba_marseille","lat":43.299724,"lon":5.371829,"is_reserved":false,"is_disabled":false,"rental_uris":{"android":"levelo://app?vid=ad6acd11-dbe6-4187-a4ed-30ee3f5fac50","ios":"levelo://app?vid=ad6acd11-dbe6-4187-a4ed-30ee3f5fac50"},"vehicle_type_id":"4","last_reported":1723741631,"current_range_meters":17600,"station_id":"ce4bgr92rcd13ifvqc7g","pricing_plan_id":"cebpf4jnsgd1na2vs0mg"},{"bike_id":"6622da98-77d6-4979-84bf-64bee6e89712","system_id":"levelo_inurba_marseille","lat":43.305364,"lon":5.384119,"is_reserved":false,"is_disabled":false,"rental_uris":{"android":"levelo://app?vid=6622da98-77d6-4979-84bf-64bee6e89712","ios":"levelo://app?vid=6622da98-77d6-4979-84bf-64bee6e89712"},"vehicle_type_id":"4","last_reported":1723741631,"current_range_meters":8400,"station_id":"ce4bgg92rcd13ifvqb30","pricing_plan_id":"cebpf4jnsgd1na2vs0mg"},{"bike_id":"5765990d-72cb-4ff4-9ed0-cf9befa396fe","system_id":"levelo_inurba_marseille","lat":43.29853,"lon":5.36281,"is_reserved":false,"is_disabled":false,"rental_uris":{"android":"levelo://app?vid=5765990d-72cb-4ff4-9ed0-cf9befa396fe","ios":"levelo://app?vid=5765990d-72cb-4ff4-9ed0-cf9befa396fe"},"vehicle_type_id":"4","last_reported":1723741631,"current_range_meters":10000,"station_id":"ce4bgpp2rcd13ifvqc3g","pricing_plan_id":"cebpf4jnsgd1na2vs0mg"},{"bike_id":"42546109-02cd-41f0-a7ed-f999817f1b26","system_id":"levelo_inurba_marseille","lat":43.29852,"lon":5.36286,"is_reserved":false,"is_disabled":false,"rental_uris":{"android":"levelo://app?vid=42546109-02cd-41f0-a7ed-f999817f1b26","ios":"levelo://app?vid=42546109-02cd-41f0-a7ed-f999817f1b26"},"vehicle_type_id":"4","last_reported":1723741631,"current_range_meters":9600,"station_id":"ce4bgpp2rcd13ifvqc3g","pricing_plan_id":"cebpf4jnsgd1na2vs0mg"},{"bike_id":"c12e2041-9fc4-456f-abde-0ce215811f90","system_id":"levelo_inurba_marseille","lat":43.29851,"lon":5.36285,"is_reserved":false,"is_disabled":false,"rental_uris":{"android":"levelo://app?vid=c12e2041-9fc4-456f-abde-0ce215811f90","ios":"levelo://app?vid=c12e2041-9fc4-456f-abde-0ce215811f90"},"vehicle_type_id":"4","last_reported":1723741631,"current_range_meters":6400,"station_id":"ce4bgpp2rcd13ifvqc3g","pricing_plan_id":"cebpf4jnsgd1na2vs0mg"},{"bike_id":"81be7cce-f0fe-405b-8cd8-2660327a20ae","system_id":"levelo_inurba_marseille","lat":43.305364,"lon":5.384119,"is_reserved":false,"is_disabled":false,"rental_uris":{"android":"levelo://app?vid=81be7cce-f0fe-405b-8cd8-2660327a20ae","ios":"levelo://app?vid=81be7cce-f0fe-405b-8cd8-2660327a20ae"},"vehicle_type_id":"4","last_reported":1723741631,"current_range_meters":400,"station_id":"ce4bgg92rcd13ifvqb30","pricing_plan_id":"cebpf4jnsgd1na2vs0mg"},{"bike_id":"c7f0eeac-1716-46dd-af09-8592bd1dc3eb","system_id":"levelo_inurba_marseille","lat":43.299243,"lon":5.374807,"is_reserved":false,"is_disabled":false,"rental_uris":{"android":"levelo://app?vid=c7f0eeac-1716-46dd-af09-8592bd1dc3eb","ios":"levelo://app?vid=c7f0eeac-1716-46dd-af09-8592bd1dc3eb"},"vehicle_type_id":"4","last_reported":1723741631,"current_range_meters":12400,"station_id":"ce4bgjh2rcd13ifvqbg0","pricing_plan_id":"cebpf4jnsgd1na2vs0mg"},{"bike_id":"15e7ac0b-534d-400e-ad04-6a8ddf14000c","system_id":"levelo_inurba_marseille","lat":43.29923,"lon":5.3748,"is_reserved":false,"is_disabled":false,"rental_uris":{"android":"levelo://app?vid=15e7ac0b-534d-400e-ad04-6a8ddf14000c","ios":"levelo://app?vid=15e7ac0b-534d-400e-ad04-6a8ddf14000c"},"vehicle_type_id":"4","last_reported":1723741631,"current_range_meters":12800,"station_id":"ce4bgjh2rcd13ifvqbg0","pricing_plan_id":"cebpf4jnsgd1na2vs0mg"},{"bike_id":"3782859f-627a-4378-941a-fd82badcb252","system_id":"levelo_inurba_marseille","lat":43.299243,"lon":5.37481,"is_reserved":false,"is_disabled":false,"rental_uris":{"android":"levelo://app?vid=3782859f-627a-4378-941a-fd82badcb252","ios":"levelo://app?vid=3782859f-627a-4378-941a-fd82badcb252"},"vehicle_type_id":"4","last_reported":1723741631,"current_range_meters":4400,"station_id":"ce4bgjh2rcd13ifvqbg0","pricing_plan_id":"cebpf4jnsgd1na2vs0mg"},{"bike_id":"a4df7db5-fba7-4725-9eb7-d81e939249bb","system_id":"levelo_inurba_marseille","lat":43.297794,"lon":5.370888,"is_reserved":false,"is_disabled":false,"rental_uris":{"android":"levelo://app?vid=a4df7db5-fba7-4725-9eb7-d81e939249bb","ios":"levelo://app?vid=a4df7db5-fba7-4725-9eb7-d81e939249bb"},"vehicle_type_id":"4","last_reported":1723741631,"current_range_meters":24800,"station_id":"ce4bgop2rcd13ifvqc1g","pricing_plan_id":"cebpf4jnsgd1na2vs0mg"},{"bike_id":"88c8a942-667b-463a-a91b-acbb0847926d","system_id":"levelo_inurba_marseille","lat":43.297859,"lon":5.370996,"is_reserved":false,"is_disabled":false,"rental_uris":{"android":"levelo://app?vid=88c8a942-667b-463a-a91b-acbb0847926d","ios":"levelo://app?vid=88c8a942-667b-463a-a91b-acbb0847926d"},"vehicle_type_id":"4","last_reported":1723741631,"current_range_meters":20000,"station_id":"","pricing_plan_id":"cebpf4jnsgd1na2vs0mg"},{"bike_id":"e010335f-0feb-4f69-bcc6-8844f6bf898a","system_id":"levelo_inurba_marseille","lat":43.297794,"lon":5.370888,"is_reserved":false,"is_disabled":false,"rental_uris":{"android":"levelo://app?vid=e010335f-0feb-4f69-bcc6-8844f6bf898a","ios":"levelo://app?vid=e010335f-0feb-4f69-bcc6-8844f6bf898a"},"vehicle_type_id":"4","last_reported":1723741631,"current_range_meters":14800,"station_id":"ce4bgop2rcd13ifvqc1g","pricing_plan_id":"cebpf4jnsgd1na2vs0mg"},{"bike_id":"93eada3b-a0ce-4689-aa08-a8093bf2a509","system_id":"levelo_inurba_marseille","lat":43.297794,"lon":5.370888,"is_reserved":false,"is_disabled":false,"rental_uris":{"android":"levelo://app?vid=93eada3b-a0ce-4689-aa08-a8093bf2a509","ios":"levelo://app?vid=93eada3b-a0ce-4689-aa08-a8093bf2a509"},"vehicle_type_id":"4","last_reported":1723741631,"current_range_meters":10400,"station_id":"ce4bgop2rcd13ifvqc1g","pricing_plan_id":"cebpf4jnsgd1na2vs0mg"},{"bike_id":"a0c64718-67a5-4858-a4ab-5378f2820d54","system_id":"levelo_inurba_marseille","lat":43.297794,"lon":5.370888,"is_reserved":false,"is_disabled":false,"rental_uris":{"android":"levelo://app?vid=a0c64718-67a5-4858-a4ab-5378f2820d54","ios":"levelo://app?vid=a0c64718-67a5-4858-a4ab-5378f2820d54"},"vehicle_type_id":"4","last_reported":1723741631,"current_range_meters":11200,"station_id":"ce4bgop2rcd13ifvqc1g","pricing_plan_id":"cebpf4jnsgd1na2vs0mg"},{"bike_id":"1899b9a9-2917-4623-ad8d-ac9c1179a318","system_id":"levelo_inurba_marseille","lat":43.32293,"lon":5.38252,"is_reserved":false,"is_disabled":false,"rental_uris":{"android":"levelo://app?vid=1899b9a9-2917-4623-ad8d-ac9c1179a318","ios":"levelo://app?vid=1899b9a9-2917-4623-ad8d-ac9c1179a318"},"vehicle_type_id":"4","last_reported":1723741631,"current_range_meters":28000,"station_id":"ce4bhr12rcd13ifvqhqg","pricing_plan_id":"cebpf4jnsgd1na2vs0mg"},{"bike_id":"f8ed67c4-0164-4250-afb7-cc4df0a09476","system_id":"levelo_inurba_marseille","lat":43.297794,"lon":5.370888,"is_reserved":false,"is_disabled":false,"rental_uris":{"android":"levelo://app?vid=f8ed67c4-0164-4250-afb7-cc4df0a09476","ios":"levelo://app?vid=f8ed67c4-0164-4250-afb7-cc4df0a09476"},"vehicle_type_id":"4","last_reported":1723741631,"current_range_meters":17200,"station_id":"ce4bgop2rcd13ifvqc1g","pricing_plan_id":"cebpf4jnsgd1na2vs0mg"},{"bike_id":"96e8e184-dca9-4791-822b-5ee5f3e47cf8","system_id":"levelo_inurba_marseille","lat":43.32291,"lon":5.38274,"is_reserved":false,"is_disabled":false,"rental_uris":{"android":"levelo://app?vid=96e8e184-dca9-4791-822b-5ee5f3e47cf8","ios":"levelo://app?vid=96e8e184-dca9-4791-822b-5ee5f3e47cf8"},"vehicle_type_id":"4","last_reported":1723741631,"current_range_meters":27600,"station_id":"ce4bhr12rcd13ifvqhqg","pricing_plan_id":"cebpf4jnsgd1na2vs0mg"},{"bike_id":"19bb504b-ca3e-473a-8611-439d16af6f5c","system_id":"levelo_inurba_marseille","lat":43.297774,"lon":5.370875,"is_reserved":false,"is_disabled":false,"rental_uris":{"android":"levelo://app?vid=19bb504b-ca3e-473a-8611-439d16af6f5c","ios":"levelo://app?vid=19bb504b-ca3e-473a-8611-439d16af6f5c"},"vehicle_type_id":"4","last_reported":1723741631,"current_range_meters":22000,"station_id":"ce4bgop2rcd13ifvqc1g","pricing_plan_id":"cebpf4jnsgd1na2vs0mg"},{"bike_id":"74c0cb5a-9951-4661-8039-5cf861ae0704","system_id":"levelo_inurba_marseille","lat":43.2973,"lon":5.368795,"is_reserved":false,"is_disabled":false,"rental_uris":{"android":"levelo://app?vid=74c0cb5a-9951-4661-8039-5cf861ae0704","ios":"levelo://app?vid=74c0cb5a-9951-4661-8039-5cf861ae0704"},"vehicle_type_id":"4","last_reported":1723741631,"current_range_meters":31200,"station_id":"","pricing_plan_id":"cebpf4jnsgd1na2vs0mg"},{"bike_id":"1a38fc51-146b-4938-bd06-4b04458eb369","system_id":"levelo_inurba_marseille","lat":43.297163,"lon":5.365866,"is_reserved":false,"is_disabled":false,"rental_uris":{"android":"levelo://app?vid=1a38fc51-146b-4938-bd06-4b04458eb369","ios":"levelo://app?vid=1a38fc51-146b-4938-bd06-4b04458eb369"},"vehicle_type_id":"4","last_reported":1723741631,"current_range_meters":14000,"station_id":"ce4bgn12rcd13ifvqbt0","pricing_plan_id":"cebpf4jnsgd1na2vs0mg"},{"bike_id":"ba534199-60e8-4041-844e-9fd4d30b3eb3","system_id":"levelo_inurba_marseille","lat":43.29718,"lon":5.36876,"is_reserved":false,"is_disabled":false,"rental_uris":{"android":"levelo://app?vid=ba534199-60e8-4041-844e-9fd4d30b3eb3","ios":"levelo://app?vid=ba534199-60e8-4041-844e-9fd4d30b3eb3"},"vehicle_type_id":"4","last_reported":1723741631,"current_range_meters":24000,"station_id":"","pricing_plan_id":"cebpf4jnsgd1na2vs0mg"},{"bike_id":"4c6c1693-8d54-4dfa-83b5-b03ca329aac6","system_id":"levelo_inurba_marseille","lat":43.297163,"lon":5.365866,"is_reserved":false,"is_disabled":false,"rental_uris":{"android":"levelo://app?vid=4c6c1693-8d54-4dfa-83b5-b03ca329aac6","ios":"levelo://app?vid=4c6c1693-8d54-4dfa-83b5-b03ca329aac6"},"vehicle_type_id":"4","last_reported":1723741631,"current_range_meters":27200,"station_id":"ce4bgn12rcd13ifvqbt0","pricing_plan_id":"cebpf4jnsgd1na2vs0mg"},{"bike_id":"f7cbf3a6-ce64-4b52-a92c-40e447094482","system_id":"levelo_inurba_marseille","lat":43.297163,"lon":5.365866,"is_reserved":false,"is_disabled":false,"rental_uris":{"android":"levelo://app?vid=f7cbf3a6-ce64-4b52-a92c-40e447094482","ios":"levelo://app?vid=f7cbf3a6-ce64-4b52-a92c-40e447094482"},"vehicle_type_id":"4","last_reported":1723741631,"current_range_meters":15200,"station_id":"ce4bgn12rcd13ifvqbt0","pricing_plan_id":"cebpf4jnsgd1na2vs0mg"},{"bike_id":"05fb1dc0-ef87-4c38-82f8-cb2cce595117","system_id":"levelo_inurba_marseille","lat":43.297163,"lon":5.365866,"is_reserved":false,"is_disabled":false,"rental_uris":{"android":"levelo://app?vid=05fb1dc0-ef87-4c38-82f8-cb2cce595117","ios":"levelo://app?vid=05fb1dc0-ef87-4c38-82f8-cb2cce595117"},"vehicle_type_id":"4","last_reported":1723741631,"current_range_meters":13200,"station_id":"ce4bgn12rcd13ifvqbt0","pricing_plan_id":"cebpf4jnsgd1na2vs0mg"},{"bike_id":"5cbb8156-2040-4893-b8da-fd1cb32a6fc2","system_id":"levelo_inurba_marseille","lat":43.297163,"lon":5.365866,"is_reserved":false,"is_disabled":false,"rental_uris":{"android":"levelo://app?vid=5cbb8156-2040-4893-b8da-fd1cb32a6fc2","ios":"levelo://app?vid=5cbb8156-2040-4893-b8da-fd1cb32a6fc2"},"vehicle_type_id":"4","last_reported":1723741631,"current_range_meters":8000,"station_id":"ce4bgn12rcd13ifvqbt0","pricing_plan_id":"cebpf4jnsgd1na2vs0mg"},{"bike_id":"dfbd50d9-9890-4e96-8ef1-a1568e60a918","system_id":"levelo_inurba_marseille","lat":43.2968,"lon":5.37291,"is_reserved":false,"is_disabled":false,"rental_uris":{"android":"levelo://app?vid=dfbd50d9-9890-4e96-8ef1-a1568e60a918","ios":"levelo://app?vid=dfbd50d9-9890-4e96-8ef1-a1568e60a918"},"vehicle_type_id":"4","last_reported":1723741631,"current_range_meters":18800,"station_id":"ce4bgk12rcd13ifvqbj0","pricing_plan_id":"cebpf4jnsgd1na2vs0mg"},{"bike_id":"5b4074fd-2b4c-4ac3-927d-abf92f660525","system_id":"levelo_inurba_marseille","lat":43.2968,"lon":5.37291,"is_reserved":false,"is_disabled":false,"rental_uris":{"android":"levelo://app?vid=5b4074fd-2b4c-4ac3-927d-abf92f660525","ios":"levelo://app?vid=5b4074fd-2b4c-4ac3-927d-abf92f660525"},"vehicle_type_id":"4","last_reported":1723741631,"current_range_meters":14800,"station_id":"ce4bgk12rcd13ifvqbj0","pricing_plan_id":"cebpf4jnsgd1na2vs0mg"},{"bike_id":"468d4b90-2058-48bb-a931-04827b3cb8f3","system_id":"levelo_inurba_marseille","lat":43.323493,"lon":5.384449,"is_reserved":false,"is_disabled":false,"rental_uris":{"android":"levelo://app?vid=468d4b90-2058-48bb-a931-04827b3cb8f3","ios":"levelo://app?vid=468d4b90-2058-48bb-a931-04827b3cb8f3"},"vehicle_type_id":"4","last_reported":1723741631,"current_range_meters":29200,"station_id":"","pricing_plan_id":"cebpf4jnsgd1na2vs0mg"},{"bike_id":"4861d65a-6b84-4f10-a1ae-a4e2c24323fb","system_id":"levelo_inurba_marseille","lat":43.32336,"lon":5.38473,"is_reserved":false,"is_disabled":false,"rental_uris":{"android":"levelo://app?vid=4861d65a-6b84-4f10-a1ae-a4e2c24323fb","ios":"levelo://app?vid=4861d65a-6b84-4f10-a1ae-a4e2c24323fb"},"vehicle_type_id":"4","last_reported":1723741631,"current_range_meters":24400,"station_id":"","pricing_plan_id":"cebpf4jnsgd1na2vs0mg"},{"bike_id":"b3c68762-f647-4ee7-bc10-f6682c1d0064","system_id":"levelo_inurba_marseille","lat":43.296131,"lon":5.370791,"is_reserved":false,"is_disabled":false,"rental_uris":{"android":"levelo://app?vid=b3c68762-f647-4ee7-bc10-f6682c1d0064","ios":"levelo://app?vid=b3c68762-f647-4ee7-bc10-f6682c1d0064"},"vehicle_type_id":"4","last_reported":1723741631,"current_range_meters":22800,"station_id":"ce4bgnh2rcd13ifvqc0g","pricing_plan_id":"cebpf4jnsgd1na2vs0mg"},{"bike_id":"7da5582e-37ac-4334-9e83-fb7cb14c1aff","system_id":"levelo_inurba_marseille","lat":43.29573,"lon":5.367355,"is_reserved":false,"is_disabled":false,"rental_uris":{"android":"levelo://app?vid=7da5582e-37ac-4334-9e83-fb7cb14c1aff","ios":"levelo://app?vid=7da5582e-37ac-4334-9e83-fb7cb14c1aff"},"vehicle_type_id":"4","last_reported":1723741631,"current_range_meters":2400,"station_id":"ce4bgph2rcd13ifvqc2g","pricing_plan_id":"cebpf4jnsgd1na2vs0mg"},{"bike_id":"56c9c0d5-bcc8-4fa7-a809-d94ba6f08e36","system_id":"levelo_inurba_marseille","lat":43.29737,"lon":5.37689,"is_reserved":false,"is_disabled":false,"rental_uris":{"android":"levelo://app?vid=56c9c0d5-bcc8-4fa7-a809-d94ba6f08e36","ios":"levelo://app?vid=56c9c0d5-bcc8-4fa7-a809-d94ba6f08e36"},"vehicle_type_id":"4","last_reported":1723741631,"current_range_meters":5200,"station_id":"ce4bgkh2rcd13ifvqbl0","pricing_plan_id":"cebpf4jnsgd1na2vs0mg"},{"bike_id":"209d82bf-a0a5-4fbc-ab01-bb3cf716a79a","system_id":"levelo_inurba_marseille","lat":43.32885,"lon":5.35906,"is_reserved":false,"is_disabled":false,"rental_uris":{"android":"levelo://app?vid=209d82bf-a0a5-4fbc-ab01-bb3cf716a79a","ios":"levelo://app?vid=209d82bf-a0a5-4fbc-ab01-bb3cf716a79a"},"vehicle_type_id":"4","last_reported":1723741631,"current_range_meters":19600,"station_id":"","pricing_plan_id":"cebpf4jnsgd1na2vs0mg"},{"bike_id":"836a5817-41dd-42cd-86aa-3fa85ef4da23","system_id":"levelo_inurba_marseille","lat":43.299028,"lon":5.381509,"is_reserved":false,"is_disabled":false,"rental_uris":{"android":"levelo://app?vid=836a5817-41dd-42cd-86aa-3fa85ef4da23","ios":"levelo://app?vid=836a5817-41dd-42cd-86aa-3fa85ef4da23"},"vehicle_type_id":"4","last_reported":1723741631,"current_range_meters":0,"station_id":"ce4bgj12rcd13ifvqbc0","pricing_plan_id":"cebpf4jnsgd1na2vs0mg"},{"bike_id":"ab8e3da5-b786-415f-902e-e7d8839a3576","system_id":"levelo_inurba_marseille","lat":43.29909,"lon":5.3813,"is_reserved":false,"is_disabled":false,"rental_uris":{"android":"levelo://app?vid=ab8e3da5-b786-415f-902e-e7d8839a3576","ios":"levelo://app?vid=ab8e3da5-b786-415f-902e-e7d8839a3576"},"vehicle_type_id":"4","last_reported":1723741631,"current_range_meters":22000,"station_id":"ce4bgj12rcd13ifvqbc0","pricing_plan_id":"cebpf4jnsgd1na2vs0mg"},{"bike_id":"40cb8e2e-9695-4c28-a11d-b93c8e899879","system_id":"levelo_inurba_marseille","lat":43.299028,"lon":5.381509,"is_reserved":false,"is_disabled":false,"rental_uris":{"android":"levelo://app?vid=40cb8e2e-9695-4c28-a11d-b93c8e899879","ios":"levelo://app?vid=40cb8e2e-9695-4c28-a11d-b93c8e899879"},"vehicle_type_id":"4","last_reported":1723741631,"current_range_meters":4000,"station_id":"ce4bgj12rcd13ifvqbc0","pricing_plan_id":"cebpf4jnsgd1na2vs0mg"},{"bike_id":"d6aeb76f-3a77-461c-86a8-d9c5b406df14","system_id":"levelo_inurba_marseille","lat":43.29907,"lon":5.38139,"is_reserved":false,"is_disabled":false,"rental_uris":{"android":"levelo://app?vid=d6aeb76f-3a77-461c-86a8-d9c5b406df14","ios":"levelo://app?vid=d6aeb76f-3a77-461c-86a8-d9c5b406df14"},"vehicle_type_id":"4","last_reported":1723741631,"current_range_meters":0,"station_id":"ce4bgj12rcd13ifvqbc0","pricing_plan_id":"cebpf4jnsgd1na2vs0mg"},{"bike_id":"299c3ed4-4f00-4b32-a02b-98c172e42c22","system_id":"levelo_inurba_marseille","lat":43.296723,"lon":5.375833,"is_reserved":false,"is_disabled":false,"rental_uris":{"android":"levelo://app?vid=299c3ed4-4f00-4b32-a02b-98c172e42c22","ios":"levelo://app?vid=299c3ed4-4f00-4b32-a02b-98c172e42c22"},"vehicle_type_id":"4","last_reported":1723741631,"current_range_meters":5600,"station_id":"ce4bhbp2rcd13ifvqerg","pricing_plan_id":"cebpf4jnsgd1na2vs0mg"},{"bike_id":"dd60d82e-39c0-45ca-8067-d0df336987b0","system_id":"levelo_inurba_marseille","lat":43.299028,"lon":5.381509,"is_reserved":false,"is_disabled":false,"rental_uris":{"android":"levelo://app?vid=dd60d82e-39c0-45ca-8067-d0df336987b0","ios":"levelo://app?vid=dd60d82e-39c0-45ca-8067-d0df336987b0"},"vehicle_type_id":"4","last_reported":1723741631,"current_range_meters":30000,"station_id":"ce4bgj12rcd13ifvqbc0","pricing_plan_id":"cebpf4jnsgd1na2vs0mg"},{"bike_id":"aba1e3ee-86cb-4510-9c19-4cdb71451dae","system_id":"levelo_inurba_marseille","lat":43.309589,"lon":5.390258,"is_reserved":false,"is_disabled":false,"rental_uris":{"android":"levelo://app?vid=aba1e3ee-86cb-4510-9c19-4cdb71451dae","ios":"levelo://app?vid=aba1e3ee-86cb-4510-9c19-4cdb71451dae"},"vehicle_type_id":"4","last_reported":1723741631,"current_range_meters":6000,"station_id":"ce4bgup2rcd13ifvqco0","pricing_plan_id":"cebpf4jnsgd1na2vs0mg"},{"bike_id":"995de3ef-57dd-4769-a71e-6121882c5ae5","system_id":"levelo_inurba_marseille","lat":43.309589,"lon":5.390258,"is_reserved":false,"is_disabled":false,"rental_uris":{"android":"levelo://app?vid=995de3ef-57dd-4769-a71e-6121882c5ae5","ios":"levelo://app?vid=995de3ef-57dd-4769-a71e-6121882c5ae5"},"vehicle_type_id":"4","last_reported":1723741631,"current_range_meters":18800,"station_id":"ce4bgup2rcd13ifvqco0","pricing_plan_id":"cebpf4jnsgd1na2vs0mg"},{"bike_id":"2835c701-749e-46d1-bf6a-848f574dbc77","system_id":"levelo_inurba_marseille","lat":43.309589,"lon":5.390258,"is_reserved":false,"is_disabled":false,"rental_uris":{"android":"levelo://app?vid=2835c701-749e-46d1-bf6a-848f574dbc77","ios":"levelo://app?vid=2835c701-749e-46d1-bf6a-848f574dbc77"},"vehicle_type_id":"4","last_reported":1723741631,"current_range_meters":12000,"station_id":"ce4bgup2rcd13ifvqco0","pricing_plan_id":"cebpf4jnsgd1na2vs0mg"},{"bike_id":"db054416-262c-4661-9c94-94cf0d983f9c","system_id":"levelo_inurba_marseille","lat":43.298099,"lon":5.38049,"is_reserved":false,"is_disabled":false,"rental_uris":{"android":"levelo://app?vid=db054416-262c-4661-9c94-94cf0d983f9c","ios":"levelo://app?vid=db054416-262c-4661-9c94-94cf0d983f9c"},"vehicle_type_id":"4","last_reported":1723741631,"current_range_meters":6000,"station_id":"","pricing_plan_id":"cebpf4jnsgd1na2vs0mg"},{"bike_id":"4761fb40-561f-4d63-a809-20289706b604","system_id":"levelo_inurba_marseille","lat":43.298037,"lon":5.381066,"is_reserved":false,"is_disabled":false,"rental_uris":{"android":"levelo://app?vid=4761fb40-561f-4d63-a809-20289706b604","ios":"levelo://app?vid=4761fb40-561f-4d63-a809-20289706b604"},"vehicle_type_id":"4","last_reported":1723741631,"current_range_meters":26400,"station_id":"ce4bgip2rcd13ifvqbb0","pricing_plan_id":"cebpf4jnsgd1na2vs0mg"},{"bike_id":"864dbf84-46a8-4a39-9e14-a484ee7bed9e","system_id":"levelo_inurba_marseille","lat":43.29738,"lon":5.37967,"is_reserved":false,"is_disabled":false,"rental_uris":{"android":"levelo://app?vid=864dbf84-46a8-4a39-9e14-a484ee7bed9e","ios":"levelo://app?vid=864dbf84-46a8-4a39-9e14-a484ee7bed9e"},"vehicle_type_id":"4","last_reported":1723741631,"current_range_meters":23600,"station_id":"","pricing_plan_id":"cebpf4jnsgd1na2vs0mg"},{"bike_id":"fc5cd108-1d10-4679-a8b8-cea122563678","system_id":"levelo_inurba_marseille","lat":43.29575,"lon":5.37498,"is_reserved":false,"is_disabled":false,"rental_uris":{"android":"levelo://app?vid=fc5cd108-1d10-4679-a8b8-cea122563678","ios":"levelo://app?vid=fc5cd108-1d10-4679-a8b8-cea122563678"},"vehicle_type_id":"4","last_reported":1723741631,"current_range_meters":6400,"station_id":"ce4bgh92rcd13ifvqb50","pricing_plan_id":"cebpf4jnsgd1na2vs0mg"},{"bike_id":"68d275ff-2b07-4f46-b57f-86673a4be515","system_id":"levelo_inurba_marseille","lat":43.309589,"lon":5.390258,"is_reserved":false,"is_disabled":false,"rental_uris":{"android":"levelo://app?vid=68d275ff-2b07-4f46-b57f-86673a4be515","ios":"levelo://app?vid=68d275ff-2b07-4f46-b57f-86673a4be515"},"vehicle_type_id":"4","last_reported":1723741631,"current_range_meters":3200,"station_id":"ce4bgup2rcd13ifvqco0","pricing_plan_id":"cebpf4jnsgd1na2vs0mg"},{"bike_id":"3c2eefc0-dba9-47ec-afc4-ac98f71f4a84","system_id":"levelo_inurba_marseille","lat":43.295748,"lon":5.37522,"is_reserved":false,"is_disabled":false,"rental_uris":{"android":"levelo://app?vid=3c2eefc0-dba9-47ec-afc4-ac98f71f4a84","ios":"levelo://app?vid=3c2eefc0-dba9-47ec-afc4-ac98f71f4a84"},"vehicle_type_id":"4","last_reported":1723741631,"current_range_meters":31600,"station_id":"ce4bgh92rcd13ifvqb50","pricing_plan_id":"cebpf4jnsgd1na2vs0mg"},{"bike_id":"c4c20f00-8630-45c6-8007-fe4317aa9bc7","system_id":"levelo_inurba_marseille","lat":43.296263,"lon":5.377094,"is_reserved":false,"is_disabled":false,"rental_uris":{"android":"levelo://app?vid=c4c20f00-8630-45c6-8007-fe4317aa9bc7","ios":"levelo://app?vid=c4c20f00-8630-45c6-8007-fe4317aa9bc7"},"vehicle_type_id":"4","last_reported":1723741631,"current_range_meters":17600,"station_id":"ce4bgi92rcd13ifvqb90","pricing_plan_id":"cebpf4jnsgd1na2vs0mg"},{"bike_id":"ba01a37f-86fb-4ad0-8b8a-750d04176f9a","system_id":"levelo_inurba_marseille","lat":43.304278,"lon":5.388868,"is_reserved":false,"is_disabled":false,"rental_uris":{"android":"levelo://app?vid=ba01a37f-86fb-4ad0-8b8a-750d04176f9a","ios":"levelo://app?vid=ba01a37f-86fb-4ad0-8b8a-750d04176f9a"},"vehicle_type_id":"4","last_reported":1723741631,"current_range_meters":19600,"station_id":"ce4bgk12rcd13ifvqbi0","pricing_plan_id":"cebpf4jnsgd1na2vs0mg"},{"bike_id":"ebf8ffd5-e06b-4724-85cb-17f7e797aeca","system_id":"levelo_inurba_marseille","lat":43.29571,"lon":5.37507,"is_reserved":false,"is_disabled":false,"rental_uris":{"android":"levelo://app?vid=ebf8ffd5-e06b-4724-85cb-17f7e797aeca","ios":"levelo://app?vid=ebf8ffd5-e06b-4724-85cb-17f7e797aeca"},"vehicle_type_id":"4","last_reported":1723741631,"current_range_meters":18800,"station_id":"ce4bgh92rcd13ifvqb50","pricing_plan_id":"cebpf4jnsgd1na2vs0mg"},{"bike_id":"e5071708-2fa1-4117-988d-b15a392e0c9f","system_id":"levelo_inurba_marseille","lat":43.295748,"lon":5.37522,"is_reserved":false,"is_disabled":false,"rental_uris":{"android":"levelo://app?vid=e5071708-2fa1-4117-988d-b15a392e0c9f","ios":"levelo://app?vid=e5071708-2fa1-4117-988d-b15a392e0c9f"},"vehicle_type_id":"4","last_reported":1723741631,"current_range_meters":29200,"station_id":"ce4bgh92rcd13ifvqb50","pricing_plan_id":"cebpf4jnsgd1na2vs0mg"},{"bike_id":"a5fd4f8b-ef98-4cf4-8719-8ea10658654e","system_id":"levelo_inurba_marseille","lat":43.298037,"lon":5.381066,"is_reserved":false,"is_disabled":false,"rental_uris":{"android":"levelo://app?vid=a5fd4f8b-ef98-4cf4-8719-8ea10658654e","ios":"levelo://app?vid=a5fd4f8b-ef98-4cf4-8719-8ea10658654e"},"vehicle_type_id":"4","last_reported":1723741631,"current_range_meters":8800,"station_id":"ce4bgip2rcd13ifvqbb0","pricing_plan_id":"cebpf4jnsgd1na2vs0mg"},{"bike_id":"6fcc6daf-5618-403e-a421-4c2585b8cb73","system_id":"levelo_inurba_marseille","lat":43.30436,"lon":5.38888,"is_reserved":false,"is_disabled":false,"rental_uris":{"android":"levelo://app?vid=6fcc6daf-5618-403e-a421-4c2585b8cb73","ios":"levelo://app?vid=6fcc6daf-5618-403e-a421-4c2585b8cb73"},"vehicle_type_id":"4","last_reported":1723741631,"current_range_meters":0,"station_id":"ce4bgk12rcd13ifvqbi0","pricing_plan_id":"cebpf4jnsgd1na2vs0mg"},{"bike_id":"a109235e-c0b5-4aa7-a1a0-7d4245201489","system_id":"levelo_inurba_marseille","lat":43.298037,"lon":5.381066,"is_reserved":false,"is_disabled":false,"rental_uris":{"android":"levelo://app?vid=a109235e-c0b5-4aa7-a1a0-7d4245201489","ios":"levelo://app?vid=a109235e-c0b5-4aa7-a1a0-7d4245201489"},"vehicle_type_id":"4","last_reported":1723741631,"current_range_meters":0,"station_id":"ce4bgip2rcd13ifvqbb0","pricing_plan_id":"cebpf4jnsgd1na2vs0mg"},{"bike_id":"a7672d19-58d7-46b8-b135-c49264182db7","system_id":"levelo_inurba_marseille","lat":43.295748,"lon":5.37522,"is_reserved":false,"is_disabled":false,"rental_uris":{"android":"levelo://app?vid=a7672d19-58d7-46b8-b135-c49264182db7","ios":"levelo://app?vid=a7672d19-58d7-46b8-b135-c49264182db7"},"vehicle_type_id":"4","last_reported":1723741631,"current_range_meters":8400,"station_id":"ce4bgh92rcd13ifvqb50","pricing_plan_id":"cebpf4jnsgd1na2vs0mg"},{"bike_id":"6fa2d72e-e690-409d-bc05-54f5d91f5f68","system_id":"levelo_inurba_marseille","lat":43.2957,"lon":5.37513,"is_reserved":false,"is_disabled":false,"rental_uris":{"android":"levelo://app?vid=6fa2d72e-e690-409d-bc05-54f5d91f5f68","ios":"levelo://app?vid=6fa2d72e-e690-409d-bc05-54f5d91f5f68"},"vehicle_type_id":"4","last_reported":1723741631,"current_range_meters":29200,"station_id":"ce4bgh92rcd13ifvqb50","pricing_plan_id":"cebpf4jnsgd1na2vs0mg"},{"bike_id":"718bf78b-8a80-4a33-a69d-4f1ab61d7216","system_id":"levelo_inurba_marseille","lat":43.2957,"lon":5.37515,"is_reserved":false,"is_disabled":false,"rental_uris":{"android":"levelo://app?vid=718bf78b-8a80-4a33-a69d-4f1ab61d7216","ios":"levelo://app?vid=718bf78b-8a80-4a33-a69d-4f1ab61d7216"},"vehicle_type_id":"4","last_reported":1723741631,"current_range_meters":27200,"station_id":"ce4bgh92rcd13ifvqb50","pricing_plan_id":"cebpf4jnsgd1na2vs0mg"},{"bike_id":"c0f6f4dc-ed06-4c88-b47f-867ec1930b83","system_id":"levelo_inurba_marseille","lat":43.29568,"lon":5.37508,"is_reserved":false,"is_disabled":false,"rental_uris":{"android":"levelo://app?vid=c0f6f4dc-ed06-4c88-b47f-867ec1930b83","ios":"levelo://app?vid=c0f6f4dc-ed06-4c88-b47f-867ec1930b83"},"vehicle_type_id":"4","last_reported":1723741631,"current_range_meters":15600,"station_id":"ce4bgh92rcd13ifvqb50","pricing_plan_id":"cebpf4jnsgd1na2vs0mg"},{"bike_id":"08828d12-374a-4e1b-9d4d-986575c7daff","system_id":"levelo_inurba_marseille","lat":43.304278,"lon":5.388868,"is_reserved":false,"is_disabled":false,"rental_uris":{"android":"levelo://app?vid=08828d12-374a-4e1b-9d4d-986575c7daff","ios":"levelo://app?vid=08828d12-374a-4e1b-9d4d-986575c7daff"},"vehicle_type_id":"4","last_reported":1723741631,"current_range_meters":2000,"station_id":"ce4bgk12rcd13ifvqbi0","pricing_plan_id":"cebpf4jnsgd1na2vs0mg"},{"bike_id":"5709b864-ed61-41a0-a4f2-40820cc37ac6","system_id":"levelo_inurba_marseille","lat":43.29571,"lon":5.37521,"is_reserved":false,"is_disabled":false,"rental_uris":{"android":"levelo://app?vid=5709b864-ed61-41a0-a4f2-40820cc37ac6","ios":"levelo://app?vid=5709b864-ed61-41a0-a4f2-40820cc37ac6"},"vehicle_type_id":"4","last_reported":1723741631,"current_range_meters":13600,"station_id":"ce4bgh92rcd13ifvqb50","pricing_plan_id":"cebpf4jnsgd1na2vs0mg"},{"bike_id":"abace55b-1d79-48c8-a16f-09536d20122e","system_id":"levelo_inurba_marseille","lat":43.298037,"lon":5.381066,"is_reserved":false,"is_disabled":false,"rental_uris":{"android":"levelo://app?vid=abace55b-1d79-48c8-a16f-09536d20122e","ios":"levelo://app?vid=abace55b-1d79-48c8-a16f-09536d20122e"},"vehicle_type_id":"4","last_reported":1723741631,"current_range_meters":18800,"station_id":"ce4bgip2rcd13ifvqbb0","pricing_plan_id":"cebpf4jnsgd1na2vs0mg"},{"bike_id":"610631a2-b584-4604-8f13-1a7d750cceca","system_id":"levelo_inurba_marseille","lat":43.29568,"lon":5.3751,"is_reserved":false,"is_disabled":false,"rental_uris":{"android":"levelo://app?vid=610631a2-b584-4604-8f13-1a7d750cceca","ios":"levelo://app?vid=610631a2-b584-4604-8f13-1a7d750cceca"},"vehicle_type_id":"4","last_reported":1723741631,"current_range_meters":3600,"station_id":"ce4bgh92rcd13ifvqb50","pricing_plan_id":"cebpf4jnsgd1na2vs0mg"},{"bike_id":"42643119-c83f-4cba-ba93-b6e0f17dc629","system_id":"levelo_inurba_marseille","lat":43.2957,"lon":5.37519,"is_reserved":false,"is_disabled":false,"rental_uris":{"android":"levelo://app?vid=42643119-c83f-4cba-ba93-b6e0f17dc629","ios":"levelo://app?vid=42643119-c83f-4cba-ba93-b6e0f17dc629"},"vehicle_type_id":"4","last_reported":1723741631,"current_range_meters":4400,"station_id":"ce4bgh92rcd13ifvqb50","pricing_plan_id":"cebpf4jnsgd1na2vs0mg"},{"bike_id":"b4adafb2-50e0-4b62-9428-ff7ff839ee0e","system_id":"levelo_inurba_marseille","lat":43.29571,"lon":5.37524,"is_reserved":false,"is_disabled":false,"rental_uris":{"android":"levelo://app?vid=b4adafb2-50e0-4b62-9428-ff7ff839ee0e","ios":"levelo://app?vid=b4adafb2-50e0-4b62-9428-ff7ff839ee0e"},"vehicle_type_id":"4","last_reported":1723741631,"current_range_meters":3600,"station_id":"ce4bgh92rcd13ifvqb50","pricing_plan_id":"cebpf4jnsgd1na2vs0mg"},{"bike_id":"57e70915-be19-4f8c-b71e-0de29080f52f","system_id":"levelo_inurba_marseille","lat":43.29567,"lon":5.3751,"is_reserved":false,"is_disabled":false,"rental_uris":{"android":"levelo://app?vid=57e70915-be19-4f8c-b71e-0de29080f52f","ios":"levelo://app?vid=57e70915-be19-4f8c-b71e-0de29080f52f"},"vehicle_type_id":"4","last_reported":1723741631,"current_range_meters":400,"station_id":"ce4bgh92rcd13ifvqb50","pricing_plan_id":"cebpf4jnsgd1na2vs0mg"},{"bike_id":"4da14a0c-0625-4eb4-a3cd-021b9372afb8","system_id":"levelo_inurba_marseille","lat":43.295678,"lon":5.37514,"is_reserved":false,"is_disabled":false,"rental_uris":{"android":"levelo://app?vid=4da14a0c-0625-4eb4-a3cd-021b9372afb8","ios":"levelo://app?vid=4da14a0c-0625-4eb4-a3cd-021b9372afb8"},"vehicle_type_id":"4","last_reported":1723741631,"current_range_meters":24400,"station_id":"ce4bgh92rcd13ifvqb50","pricing_plan_id":"cebpf4jnsgd1na2vs0mg"},{"bike_id":"483d6557-7ba4-47da-80a6-59292b7edb6b","system_id":"levelo_inurba_marseille","lat":43.296263,"lon":5.377094,"is_reserved":false,"is_disabled":false,"rental_uris":{"android":"levelo://app?vid=483d6557-7ba4-47da-80a6-59292b7edb6b","ios":"levelo://app?vid=483d6557-7ba4-47da-80a6-59292b7edb6b"},"vehicle_type_id":"4","last_reported":1723741631,"current_range_meters":15200,"station_id":"ce4bgi92rcd13ifvqb90","pricing_plan_id":"cebpf4jnsgd1na2vs0mg"},{"bike_id":"b8a24f88-120a-4cf5-a8d1-897e653f53d0","system_id":"levelo_inurba_marseille","lat":43.29567,"lon":5.37514,"is_reserved":false,"is_disabled":false,"rental_uris":{"android":"levelo://app?vid=b8a24f88-120a-4cf5-a8d1-897e653f53d0","ios":"levelo://app?vid=b8a24f88-120a-4cf5-a8d1-897e653f53d0"},"vehicle_type_id":"4","last_reported":1723741631,"current_range_meters":21200,"station_id":"ce4bgh92rcd13ifvqb50","pricing_plan_id":"cebpf4jnsgd1na2vs0mg"},{"bike_id":"ede07c5a-e359-4065-a0d2-83de40845320","system_id":"levelo_inurba_marseille","lat":43.29568,"lon":5.37518,"is_reserved":false,"is_disabled":false,"rental_uris":{"android":"levelo://app?vid=ede07c5a-e359-4065-a0d2-83de40845320","ios":"levelo://app?vid=ede07c5a-e359-4065-a0d2-83de40845320"},"vehicle_type_id":"4","last_reported":1723741631,"current_range_meters":18000,"station_id":"ce4bgh92rcd13ifvqb50","pricing_plan_id":"cebpf4jnsgd1na2vs0mg"},{"bike_id":"42cb58b2-698e-4ff1-a72f-a9f063b97f5e","system_id":"levelo_inurba_marseille","lat":43.298037,"lon":5.381066,"is_reserved":false,"is_disabled":false,"rental_uris":{"android":"levelo://app?vid=42cb58b2-698e-4ff1-a72f-a9f063b97f5e","ios":"levelo://app?vid=42cb58b2-698e-4ff1-a72f-a9f063b97f5e"},"vehicle_type_id":"4","last_reported":1723741631,"current_range_meters":9200,"station_id":"ce4bgip2rcd13ifvqbb0","pricing_plan_id":"cebpf4jnsgd1na2vs0mg"},{"bike_id":"412c99db-50fb-4d52-9e9a-3842eceaa36a","system_id":"levelo_inurba_marseille","lat":43.296263,"lon":5.377094,"is_reserved":false,"is_disabled":false,"rental_uris":{"android":"levelo://app?vid=412c99db-50fb-4d52-9e9a-3842eceaa36a","ios":"levelo://app?vid=412c99db-50fb-4d52-9e9a-3842eceaa36a"},"vehicle_type_id":"4","last_reported":1723741631,"current_range_meters":26400,"station_id":"ce4bgi92rcd13ifvqb90","pricing_plan_id":"cebpf4jnsgd1na2vs0mg"},{"bike_id":"a033c9e4-8ea5-4922-be67-7744b79761c0","system_id":"levelo_inurba_marseille","lat":43.29567,"lon":5.37517,"is_reserved":false,"is_disabled":false,"rental_uris":{"android":"levelo://app?vid=a033c9e4-8ea5-4922-be67-7744b79761c0","ios":"levelo://app?vid=a033c9e4-8ea5-4922-be67-7744b79761c0"},"vehicle_type_id":"4","last_reported":1723741631,"current_range_meters":3200,"station_id":"ce4bgh92rcd13ifvqb50","pricing_plan_id":"cebpf4jnsgd1na2vs0mg"},{"bike_id":"56761a52-e1ce-47db-88df-9bf051ad4a45","system_id":"levelo_inurba_marseille","lat":43.298037,"lon":5.381066,"is_reserved":false,"is_disabled":false,"rental_uris":{"android":"levelo://app?vid=56761a52-e1ce-47db-88df-9bf051ad4a45","ios":"levelo://app?vid=56761a52-e1ce-47db-88df-9bf051ad4a45"},"vehicle_type_id":"4","last_reported":1723741631,"current_range_meters":22800,"station_id":"ce4bgip2rcd13ifvqbb0","pricing_plan_id":"cebpf4jnsgd1na2vs0mg"},{"bike_id":"9b4e8b30-a37d-4543-8d31-8e53074828e8","system_id":"levelo_inurba_marseille","lat":43.29565,"lon":5.37511,"is_reserved":false,"is_disabled":false,"rental_uris":{"android":"levelo://app?vid=9b4e8b30-a37d-4543-8d31-8e53074828e8","ios":"levelo://app?vid=9b4e8b30-a37d-4543-8d31-8e53074828e8"},"vehicle_type_id":"4","last_reported":1723741631,"current_range_meters":12400,"station_id":"ce4bgh92rcd13ifvqb50","pricing_plan_id":"cebpf4jnsgd1na2vs0mg"},{"bike_id":"f6222cef-0c78-48a2-9f12-7c57e023fa1a","system_id":"levelo_inurba_marseille","lat":43.304294,"lon":5.38894,"is_reserved":false,"is_disabled":false,"rental_uris":{"android":"levelo://app?vid=f6222cef-0c78-48a2-9f12-7c57e023fa1a","ios":"levelo://app?vid=f6222cef-0c78-48a2-9f12-7c57e023fa1a"},"vehicle_type_id":"4","last_reported":1723741631,"current_range_meters":1200,"station_id":"ce4bgh92rcd13ifvqb50","pricing_plan_id":"cebpf4jnsgd1na2vs0mg"},{"bike_id":"ed966dda-5a34-48d5-910e-2d7f57397cd2","system_id":"levelo_inurba_marseille","lat":43.29745,"lon":5.38033,"is_reserved":false,"is_disabled":false,"rental_uris":{"android":"levelo://app?vid=ed966dda-5a34-48d5-910e-2d7f57397cd2","ios":"levelo://app?vid=ed966dda-5a34-48d5-910e-2d7f57397cd2"},"vehicle_type_id":"4","last_reported":1723741631,"current_range_meters":4800,"station_id":"ce4bgpp2rcd13ifvqc3g","pricing_plan_id":"cebpf4jnsgd1na2vs0mg"},{"bike_id":"45110328-1a9b-48fd-8c68-37c06d29aeda","system_id":"levelo_inurba_marseille","lat":43.295748,"lon":5.37522,"is_reserved":false,"is_disabled":false,"rental_uris":{"android":"levelo://app?vid=45110328-1a9b-48fd-8c68-37c06d29aeda","ios":"levelo://app?vid=45110328-1a9b-48fd-8c68-37c06d29aeda"},"vehicle_type_id":"4","last_reported":1723741631,"current_range_meters":8000,"station_id":"ce4bgh92rcd13ifvqb50","pricing_plan_id":"cebpf4jnsgd1na2vs0mg"},{"bike_id":"dc2a7f61-aa5b-4861-ac98-1ab11559b614","system_id":"levelo_inurba_marseille","lat":43.296378,"lon":5.377803,"is_reserved":false,"is_disabled":false,"rental_uris":{"android":"levelo://app?vid=dc2a7f61-aa5b-4861-ac98-1ab11559b614","ios":"levelo://app?vid=dc2a7f61-aa5b-4861-ac98-1ab11559b614"},"vehicle_type_id":"4","last_reported":1723741631,"current_range_meters":0,"station_id":"","pricing_plan_id":"cebpf4jnsgd1na2vs0mg"},{"bike_id":"3c22cb89-adc9-4df8-be0e-1d0a6107d062","system_id":"levelo_inurba_marseille","lat":43.296263,"lon":5.377094,"is_reserved":false,"is_disabled":false,"rental_uris":{"android":"levelo://app?vid=3c22cb89-adc9-4df8-be0e-1d0a6107d062","ios":"levelo://app?vid=3c22cb89-adc9-4df8-be0e-1d0a6107d062"},"vehicle_type_id":"4","last_reported":1723741631,"current_range_meters":10800,"station_id":"ce4bgi92rcd13ifvqb90","pricing_plan_id":"cebpf4jnsgd1na2vs0mg"},{"bike_id":"a61367fe-f16c-4e06-9333-ff400cdc7aad","system_id":"levelo_inurba_marseille","lat":43.29611,"lon":5.37719,"is_reserved":false,"is_disabled":false,"rental_uris":{"android":"levelo://app?vid=a61367fe-f16c-4e06-9333-ff400cdc7aad","ios":"levelo://app?vid=a61367fe-f16c-4e06-9333-ff400cdc7aad"},"vehicle_type_id":"4","last_reported":1723741631,"current_range_meters":18800,"station_id":"ce4bgi92rcd13ifvqb90","pricing_plan_id":"cebpf4jnsgd1na2vs0mg"},{"bike_id":"8875135f-ab58-4145-8858-6374db1d4e76","system_id":"levelo_inurba_marseille","lat":43.296263,"lon":5.377094,"is_reserved":false,"is_disabled":false,"rental_uris":{"android":"levelo://app?vid=8875135f-ab58-4145-8858-6374db1d4e76","ios":"levelo://app?vid=8875135f-ab58-4145-8858-6374db1d4e76"},"vehicle_type_id":"4","last_reported":1723741631,"current_range_meters":18000,"station_id":"ce4bgi92rcd13ifvqb90","pricing_plan_id":"cebpf4jnsgd1na2vs0mg"},{"bike_id":"038f2c50-46a6-43b0-b668-1faec322a8d1","system_id":"levelo_inurba_marseille","lat":43.299707,"lon":5.384859,"is_reserved":false,"is_disabled":false,"rental_uris":{"android":"levelo://app?vid=038f2c50-46a6-43b0-b668-1faec322a8d1","ios":"levelo://app?vid=038f2c50-46a6-43b0-b668-1faec322a8d1"},"vehicle_type_id":"4","last_reported":1723741631,"current_range_meters":10400,"station_id":"ce4bgj92rcd13ifvqbd0","pricing_plan_id":"cebpf4jnsgd1na2vs0mg"},{"bike_id":"6a560a8a-4f3e-416c-aec0-2a0677fff378","system_id":"levelo_inurba_marseille","lat":43.296277,"lon":5.377108,"is_reserved":false,"is_disabled":false,"rental_uris":{"android":"levelo://app?vid=6a560a8a-4f3e-416c-aec0-2a0677fff378","ios":"levelo://app?vid=6a560a8a-4f3e-416c-aec0-2a0677fff378"},"vehicle_type_id":"4","last_reported":1723741631,"current_range_meters":3200,"station_id":"ce4bgi92rcd13ifvqb90","pricing_plan_id":"cebpf4jnsgd1na2vs0mg"},{"bike_id":"e219e8ac-3483-47a2-b935-2d06663f8b45","system_id":"levelo_inurba_marseille","lat":43.309589,"lon":5.390258,"is_reserved":false,"is_disabled":false,"rental_uris":{"android":"levelo://app?vid=e219e8ac-3483-47a2-b935-2d06663f8b45","ios":"levelo://app?vid=e219e8ac-3483-47a2-b935-2d06663f8b45"},"vehicle_type_id":"4","last_reported":1723741631,"current_range_meters":800,"station_id":"ce4bgup2rcd13ifvqco0","pricing_plan_id":"cebpf4jnsgd1na2vs0mg"},{"bike_id":"7a9e1735-64c5-4489-bf73-d95bfd01180c","system_id":"levelo_inurba_marseille","lat":43.295279,"lon":5.375048,"is_reserved":false,"is_disabled":false,"rental_uris":{"android":"levelo://app?vid=7a9e1735-64c5-4489-bf73-d95bfd01180c","ios":"levelo://app?vid=7a9e1735-64c5-4489-bf73-d95bfd01180c"},"vehicle_type_id":"4","last_reported":1723741631,"current_range_meters":2800,"station_id":"ce4bgkp2rcd13ifvqbmg","pricing_plan_id":"cebpf4jnsgd1na2vs0mg"},{"bike_id":"e89e0fc9-06ab-42fa-b8f5-6e9a01b83475","system_id":"levelo_inurba_marseille","lat":43.299717,"lon":5.384845,"is_reserved":false,"is_disabled":false,"rental_uris":{"android":"levelo://app?vid=e89e0fc9-06ab-42fa-b8f5-6e9a01b83475","ios":"levelo://app?vid=e89e0fc9-06ab-42fa-b8f5-6e9a01b83475"},"vehicle_type_id":"4","last_reported":1723741631,"current_range_meters":31600,"station_id":"ce4bgj92rcd13ifvqbd0","pricing_plan_id":"cebpf4jnsgd1na2vs0mg"},{"bike_id":"2d583bf6-f12c-43d1-99e0-e933380ee72c","system_id":"levelo_inurba_marseille","lat":43.299707,"lon":5.384859,"is_reserved":false,"is_disabled":false,"rental_uris":{"android":"levelo://app?vid=2d583bf6-f12c-43d1-99e0-e933380ee72c","ios":"levelo://app?vid=2d583bf6-f12c-43d1-99e0-e933380ee72c"},"vehicle_type_id":"4","last_reported":1723741631,"current_range_meters":31600,"station_id":"ce4bgj92rcd13ifvqbd0","pricing_plan_id":"cebpf4jnsgd1na2vs0mg"},{"bike_id":"5d8a0386-412f-4fc4-9b46-3dafead10027","system_id":"levelo_inurba_marseille","lat":43.299707,"lon":5.384859,"is_reserved":false,"is_disabled":false,"rental_uris":{"android":"levelo://app?vid=5d8a0386-412f-4fc4-9b46-3dafead10027","ios":"levelo://app?vid=5d8a0386-412f-4fc4-9b46-3dafead10027"},"vehicle_type_id":"4","last_reported":1723741631,"current_range_meters":16000,"station_id":"ce4bgj92rcd13ifvqbd0","pricing_plan_id":"cebpf4jnsgd1na2vs0mg"},{"bike_id":"f13aff0c-7eeb-4c09-9267-bf72315253cc","system_id":"levelo_inurba_marseille","lat":43.299717,"lon":5.384845,"is_reserved":false,"is_disabled":false,"rental_uris":{"android":"levelo://app?vid=f13aff0c-7eeb-4c09-9267-bf72315253cc","ios":"levelo://app?vid=f13aff0c-7eeb-4c09-9267-bf72315253cc"},"vehicle_type_id":"4","last_reported":1723741631,"current_range_meters":0,"station_id":"ce4bgj92rcd13ifvqbd0","pricing_plan_id":"cebpf4jnsgd1na2vs0mg"},{"bike_id":"f7d2f921-13d5-481a-8f0a-e0af030c1e00","system_id":"levelo_inurba_marseille","lat":43.295279,"lon":5.375048,"is_reserved":false,"is_disabled":false,"rental_uris":{"android":"levelo://app?vid=f7d2f921-13d5-481a-8f0a-e0af030c1e00","ios":"levelo://app?vid=f7d2f921-13d5-481a-8f0a-e0af030c1e00"},"vehicle_type_id":"4","last_reported":1723741631,"current_range_meters":28000,"station_id":"ce4bgkp2rcd13ifvqbmg","pricing_plan_id":"cebpf4jnsgd1na2vs0mg"},{"bike_id":"23775696-d642-47ab-90c4-eb60021de809","system_id":"levelo_inurba_marseille","lat":43.299717,"lon":5.384845,"is_reserved":false,"is_disabled":false,"rental_uris":{"android":"levelo://app?vid=23775696-d642-47ab-90c4-eb60021de809","ios":"levelo://app?vid=23775696-d642-47ab-90c4-eb60021de809"},"vehicle_type_id":"4","last_reported":1723741631,"current_range_meters":31600,"station_id":"ce4bgj92rcd13ifvqbd0","pricing_plan_id":"cebpf4jnsgd1na2vs0mg"},{"bike_id":"1bda69ab-ff22-49e3-ba25-9597690f0627","system_id":"levelo_inurba_marseille","lat":43.295279,"lon":5.375048,"is_reserved":false,"is_disabled":false,"rental_uris":{"android":"levelo://app?vid=1bda69ab-ff22-49e3-ba25-9597690f0627","ios":"levelo://app?vid=1bda69ab-ff22-49e3-ba25-9597690f0627"},"vehicle_type_id":"4","last_reported":1723741631,"current_range_meters":26000,"station_id":"ce4bgkp2rcd13ifvqbmg","pricing_plan_id":"cebpf4jnsgd1na2vs0mg"},{"bike_id":"f440876f-6c77-4905-875f-3302c6cbe1c5","system_id":"levelo_inurba_marseille","lat":43.299717,"lon":5.384845,"is_reserved":false,"is_disabled":false,"rental_uris":{"android":"levelo://app?vid=f440876f-6c77-4905-875f-3302c6cbe1c5","ios":"levelo://app?vid=f440876f-6c77-4905-875f-3302c6cbe1c5"},"vehicle_type_id":"4","last_reported":1723741631,"current_range_meters":31600,"station_id":"ce4bgj92rcd13ifvqbd0","pricing_plan_id":"cebpf4jnsgd1na2vs0mg"},{"bike_id":"ff466b7d-4d7a-4955-90d0-f51b624290e9","system_id":"levelo_inurba_marseille","lat":43.299717,"lon":5.384845,"is_reserved":false,"is_disabled":false,"rental_uris":{"android":"levelo://app?vid=ff466b7d-4d7a-4955-90d0-f51b624290e9","ios":"levelo://app?vid=ff466b7d-4d7a-4955-90d0-f51b624290e9"},"vehicle_type_id":"4","last_reported":1723741631,"current_range_meters":13200,"station_id":"ce4bgj92rcd13ifvqbd0","pricing_plan_id":"cebpf4jnsgd1na2vs0mg"},{"bike_id":"43cbd206-f888-4af4-8d60-316bb76f52a5","system_id":"levelo_inurba_marseille","lat":43.299717,"lon":5.384845,"is_reserved":false,"is_disabled":false,"rental_uris":{"android":"levelo://app?vid=43cbd206-f888-4af4-8d60-316bb76f52a5","ios":"levelo://app?vid=43cbd206-f888-4af4-8d60-316bb76f52a5"},"vehicle_type_id":"4","last_reported":1723741631,"current_range_meters":18400,"station_id":"ce4bgj92rcd13ifvqbd0","pricing_plan_id":"cebpf4jnsgd1na2vs0mg"},{"bike_id":"59be2b0f-9b03-4e79-b232-7bac17527b3d","system_id":"levelo_inurba_marseille","lat":43.299707,"lon":5.384859,"is_reserved":false,"is_disabled":false,"rental_uris":{"android":"levelo://app?vid=59be2b0f-9b03-4e79-b232-7bac17527b3d","ios":"levelo://app?vid=59be2b0f-9b03-4e79-b232-7bac17527b3d"},"vehicle_type_id":"4","last_reported":1723741631,"current_range_meters":27200,"station_id":"ce4bgj92rcd13ifvqbd0","pricing_plan_id":"cebpf4jnsgd1na2vs0mg"},{"bike_id":"a5736d26-24a4-4dae-8f24-1ad03f29198f","system_id":"levelo_inurba_marseille","lat":43.29522,"lon":5.37492,"is_reserved":false,"is_disabled":false,"rental_uris":{"android":"levelo://app?vid=a5736d26-24a4-4dae-8f24-1ad03f29198f","ios":"levelo://app?vid=a5736d26-24a4-4dae-8f24-1ad03f29198f"},"vehicle_type_id":"4","last_reported":1723741631,"current_range_meters":4800,"station_id":"ce4bgkp2rcd13ifvqbmg","pricing_plan_id":"cebpf4jnsgd1na2vs0mg"},{"bike_id":"967685e3-30c1-41bc-b26f-dca4c7ad934d","system_id":"levelo_inurba_marseille","lat":43.299707,"lon":5.384859,"is_reserved":false,"is_disabled":false,"rental_uris":{"android":"levelo://app?vid=967685e3-30c1-41bc-b26f-dca4c7ad934d","ios":"levelo://app?vid=967685e3-30c1-41bc-b26f-dca4c7ad934d"},"vehicle_type_id":"4","last_reported":1723741631,"current_range_meters":17200,"station_id":"ce4bgj92rcd13ifvqbd0","pricing_plan_id":"cebpf4jnsgd1na2vs0mg"},{"bike_id":"36d4d0dd-a9dd-4d3a-905b-e4880b5d397e","system_id":"levelo_inurba_marseille","lat":43.299707,"lon":5.384859,"is_reserved":false,"is_disabled":false,"rental_uris":{"android":"levelo://app?vid=36d4d0dd-a9dd-4d3a-905b-e4880b5d397e","ios":"levelo://app?vid=36d4d0dd-a9dd-4d3a-905b-e4880b5d397e"},"vehicle_type_id":"4","last_reported":1723741631,"current_range_meters":800,"station_id":"ce4bgj92rcd13ifvqbd0","pricing_plan_id":"cebpf4jnsgd1na2vs0mg"},{"bike_id":"041eedcc-61e8-4a94-a965-8697a73c81a4","system_id":"levelo_inurba_marseille","lat":43.29973,"lon":5.38495,"is_reserved":false,"is_disabled":false,"rental_uris":{"android":"levelo://app?vid=041eedcc-61e8-4a94-a965-8697a73c81a4","ios":"levelo://app?vid=041eedcc-61e8-4a94-a965-8697a73c81a4"},"vehicle_type_id":"4","last_reported":1723741631,"current_range_meters":16400,"station_id":"ce4bgj92rcd13ifvqbd0","pricing_plan_id":"cebpf4jnsgd1na2vs0mg"},{"bike_id":"c9db1efa-8716-4571-ba11-944c1c68f0d2","system_id":"levelo_inurba_marseille","lat":43.2997,"lon":5.38495,"is_reserved":false,"is_disabled":false,"rental_uris":{"android":"levelo://app?vid=c9db1efa-8716-4571-ba11-944c1c68f0d2","ios":"levelo://app?vid=c9db1efa-8716-4571-ba11-944c1c68f0d2"},"vehicle_type_id":"4","last_reported":1723741631,"current_range_meters":26400,"station_id":"ce4bgj92rcd13ifvqbd0","pricing_plan_id":"cebpf4jnsgd1na2vs0mg"},{"bike_id":"84aaeb0f-3bcb-485b-9e86-eb60ea7f3075","system_id":"levelo_inurba_marseille","lat":43.295279,"lon":5.375048,"is_reserved":false,"is_disabled":false,"rental_uris":{"android":"levelo://app?vid=84aaeb0f-3bcb-485b-9e86-eb60ea7f3075","ios":"levelo://app?vid=84aaeb0f-3bcb-485b-9e86-eb60ea7f3075"},"vehicle_type_id":"4","last_reported":1723741631,"current_range_meters":16400,"station_id":"ce4bgkp2rcd13ifvqbmg","pricing_plan_id":"cebpf4jnsgd1na2vs0mg"},{"bike_id":"333a4b94-a231-4ec3-82fa-4911ddbfa7a2","system_id":"levelo_inurba_marseille","lat":43.299717,"lon":5.384845,"is_reserved":false,"is_disabled":false,"rental_uris":{"android":"levelo://app?vid=333a4b94-a231-4ec3-82fa-4911ddbfa7a2","ios":"levelo://app?vid=333a4b94-a231-4ec3-82fa-4911ddbfa7a2"},"vehicle_type_id":"4","last_reported":1723741631,"current_range_meters":10400,"station_id":"ce4bgj92rcd13ifvqbd0","pricing_plan_id":"cebpf4jnsgd1na2vs0mg"},{"bike_id":"4d5b2fc5-fc86-49eb-ab47-6e481fc52b28","system_id":"levelo_inurba_marseille","lat":43.29964,"lon":5.38492,"is_reserved":false,"is_disabled":false,"rental_uris":{"android":"levelo://app?vid=4d5b2fc5-fc86-49eb-ab47-6e481fc52b28","ios":"levelo://app?vid=4d5b2fc5-fc86-49eb-ab47-6e481fc52b28"},"vehicle_type_id":"4","last_reported":1723741631,"current_range_meters":15600,"station_id":"ce4bgj92rcd13ifvqbd0","pricing_plan_id":"cebpf4jnsgd1na2vs0mg"},{"bike_id":"9dcce813-2231-4d57-9685-dcbc351062e7","system_id":"levelo_inurba_marseille","lat":43.299717,"lon":5.384845,"is_reserved":false,"is_disabled":false,"rental_uris":{"android":"levelo://app?vid=9dcce813-2231-4d57-9685-dcbc351062e7","ios":"levelo://app?vid=9dcce813-2231-4d57-9685-dcbc351062e7"},"vehicle_type_id":"4","last_reported":1723741631,"current_range_meters":5200,"station_id":"ce4bgj92rcd13ifvqbd0","pricing_plan_id":"cebpf4jnsgd1na2vs0mg"},{"bike_id":"3fa349c4-8f33-4c58-9cee-7cca972fcd89","system_id":"levelo_inurba_marseille","lat":43.299717,"lon":5.384845,"is_reserved":false,"is_disabled":false,"rental_uris":{"android":"levelo://app?vid=3fa349c4-8f33-4c58-9cee-7cca972fcd89","ios":"levelo://app?vid=3fa349c4-8f33-4c58-9cee-7cca972fcd89"},"vehicle_type_id":"4","last_reported":1723741631,"current_range_meters":5600,"station_id":"ce4bgj92rcd13ifvqbd0","pricing_plan_id":"cebpf4jnsgd1na2vs0mg"},{"bike_id":"344e7d63-aa02-48a7-b55a-c080c33d7748","system_id":"levelo_inurba_marseille","lat":43.29965,"lon":5.38497,"is_reserved":false,"is_disabled":false,"rental_uris":{"android":"levelo://app?vid=344e7d63-aa02-48a7-b55a-c080c33d7748","ios":"levelo://app?vid=344e7d63-aa02-48a7-b55a-c080c33d7748"},"vehicle_type_id":"4","last_reported":1723741631,"current_range_meters":25200,"station_id":"ce4bgj92rcd13ifvqbd0","pricing_plan_id":"cebpf4jnsgd1na2vs0mg"},{"bike_id":"7b1720e6-cf15-4a37-a481-3ff7ddf6dba0","system_id":"levelo_inurba_marseille","lat":43.299647,"lon":5.384977,"is_reserved":false,"is_disabled":false,"rental_uris":{"android":"levelo://app?vid=7b1720e6-cf15-4a37-a481-3ff7ddf6dba0","ios":"levelo://app?vid=7b1720e6-cf15-4a37-a481-3ff7ddf6dba0"},"vehicle_type_id":"4","last_reported":1723741631,"current_range_meters":19200,"station_id":"ce4bgj92rcd13ifvqbd0","pricing_plan_id":"cebpf4jnsgd1na2vs0mg"},{"bike_id":"a4a54bb1-c8f9-497c-aa96-1c054b723adc","system_id":"levelo_inurba_marseille","lat":43.29963,"lon":5.38501,"is_reserved":false,"is_disabled":false,"rental_uris":{"android":"levelo://app?vid=a4a54bb1-c8f9-497c-aa96-1c054b723adc","ios":"levelo://app?vid=a4a54bb1-c8f9-497c-aa96-1c054b723adc"},"vehicle_type_id":"4","last_reported":1723741631,"current_range_meters":4400,"station_id":"ce4bgj92rcd13ifvqbd0","pricing_plan_id":"cebpf4jnsgd1na2vs0mg"},{"bike_id":"d2b20696-8514-4439-8a66-493fc549bc95","system_id":"levelo_inurba_marseille","lat":43.299717,"lon":5.384845,"is_reserved":false,"is_disabled":false,"rental_uris":{"android":"levelo://app?vid=d2b20696-8514-4439-8a66-493fc549bc95","ios":"levelo://app?vid=d2b20696-8514-4439-8a66-493fc549bc95"},"vehicle_type_id":"4","last_reported":1723741631,"current_range_meters":22800,"station_id":"ce4bgj92rcd13ifvqbd0","pricing_plan_id":"cebpf4jnsgd1na2vs0mg"},{"bike_id":"0cdc1146-63eb-4cd3-b577-999649b079bc","system_id":"levelo_inurba_marseille","lat":43.29958,"lon":5.38502,"is_reserved":false,"is_disabled":false,"rental_uris":{"android":"levelo://app?vid=0cdc1146-63eb-4cd3-b577-999649b079bc","ios":"levelo://app?vid=0cdc1146-63eb-4cd3-b577-999649b079bc"},"vehicle_type_id":"4","last_reported":1723741631,"current_range_meters":8800,"station_id":"ce4bgj92rcd13ifvqbd0","pricing_plan_id":"cebpf4jnsgd1na2vs0mg"},{"bike_id":"8072c4f3-4a3b-4689-bdff-998273569a38","system_id":"levelo_inurba_marseille","lat":43.299749,"lon":5.385282,"is_reserved":false,"is_disabled":false,"rental_uris":{"android":"levelo://app?vid=8072c4f3-4a3b-4689-bdff-998273569a38","ios":"levelo://app?vid=8072c4f3-4a3b-4689-bdff-998273569a38"},"vehicle_type_id":"4","last_reported":1723741631,"current_range_meters":22800,"station_id":"ce4bgj92rcd13ifvqbd0","pricing_plan_id":"cebpf4jnsgd1na2vs0mg"},{"bike_id":"b5c23f6a-3af0-4455-a573-df479d911814","system_id":"levelo_inurba_marseille","lat":43.301396,"lon":5.387812,"is_reserved":false,"is_disabled":false,"rental_uris":{"android":"levelo://app?vid=b5c23f6a-3af0-4455-a573-df479d911814","ios":"levelo://app?vid=b5c23f6a-3af0-4455-a573-df479d911814"},"vehicle_type_id":"4","last_reported":1723741631,"current_range_meters":6800,"station_id":"ce4bghh2rcd13ifvqb60","pricing_plan_id":"cebpf4jnsgd1na2vs0mg"},{"bike_id":"c9df5fd2-fd36-4431-9dc4-cd0b3e5e6f51","system_id":"levelo_inurba_marseille","lat":43.324139,"lon":5.388306,"is_reserved":false,"is_disabled":false,"rental_uris":{"android":"levelo://app?vid=c9df5fd2-fd36-4431-9dc4-cd0b3e5e6f51","ios":"levelo://app?vid=c9df5fd2-fd36-4431-9dc4-cd0b3e5e6f51"},"vehicle_type_id":"4","last_reported":1723741631,"current_range_meters":0,"station_id":"","pricing_plan_id":"cebpf4jnsgd1na2vs0mg"},{"bike_id":"9c781eb3-142e-4642-b06a-8dde1c26ac3d","system_id":"levelo_inurba_marseille","lat":43.3237,"lon":5.38877,"is_reserved":false,"is_disabled":false,"rental_uris":{"android":"levelo://app?vid=9c781eb3-142e-4642-b06a-8dde1c26ac3d","ios":"levelo://app?vid=9c781eb3-142e-4642-b06a-8dde1c26ac3d"},"vehicle_type_id":"4","last_reported":1723741631,"current_range_meters":5600,"station_id":"ce4bhqp2rcd13ifvqhog","pricing_plan_id":"cebpf4jnsgd1na2vs0mg"},{"bike_id":"0d595970-cc1d-441f-85df-eab93e02d00d","system_id":"levelo_inurba_marseille","lat":43.32367,"lon":5.388836,"is_reserved":false,"is_disabled":false,"rental_uris":{"android":"levelo://app?vid=0d595970-cc1d-441f-85df-eab93e02d00d","ios":"levelo://app?vid=0d595970-cc1d-441f-85df-eab93e02d00d"},"vehicle_type_id":"4","last_reported":1723741631,"current_range_meters":22800,"station_id":"ce4bhqp2rcd13ifvqhog","pricing_plan_id":"cebpf4jnsgd1na2vs0mg"},{"bike_id":"35636d50-0765-48cd-a977-06a3cf5b435d","system_id":"levelo_inurba_marseille","lat":43.29612,"lon":5.38086,"is_reserved":false,"is_disabled":false,"rental_uris":{"android":"levelo://app?vid=35636d50-0765-48cd-a977-06a3cf5b435d","ios":"levelo://app?vid=35636d50-0765-48cd-a977-06a3cf5b435d"},"vehicle_type_id":"4","last_reported":1723741631,"current_range_meters":6400,"station_id":"ce4bgl12rcd13ifvqbo0","pricing_plan_id":"cebpf4jnsgd1na2vs0mg"},{"bike_id":"c76b9892-2a25-4448-90a6-5478a663bdb9","system_id":"levelo_inurba_marseille","lat":43.2961,"lon":5.38092,"is_reserved":false,"is_disabled":false,"rental_uris":{"android":"levelo://app?vid=c76b9892-2a25-4448-90a6-5478a663bdb9","ios":"levelo://app?vid=c76b9892-2a25-4448-90a6-5478a663bdb9"},"vehicle_type_id":"4","last_reported":1723741631,"current_range_meters":20000,"station_id":"ce4bgl12rcd13ifvqbo0","pricing_plan_id":"cebpf4jnsgd1na2vs0mg"},{"bike_id":"f87e0f22-210f-4ce0-9e5c-ca2d935647ee","system_id":"levelo_inurba_marseille","lat":43.29602,"lon":5.381084,"is_reserved":false,"is_disabled":false,"rental_uris":{"android":"levelo://app?vid=f87e0f22-210f-4ce0-9e5c-ca2d935647ee","ios":"levelo://app?vid=f87e0f22-210f-4ce0-9e5c-ca2d935647ee"},"vehicle_type_id":"4","last_reported":1723741631,"current_range_meters":15200,"station_id":"ce4bgl12rcd13ifvqbo0","pricing_plan_id":"cebpf4jnsgd1na2vs0mg"},{"bike_id":"63655e6e-cf00-47cb-b407-18cd3301c76b","system_id":"levelo_inurba_marseille","lat":43.296052,"lon":5.380998,"is_reserved":false,"is_disabled":false,"rental_uris":{"android":"levelo://app?vid=63655e6e-cf00-47cb-b407-18cd3301c76b","ios":"levelo://app?vid=63655e6e-cf00-47cb-b407-18cd3301c76b"},"vehicle_type_id":"4","last_reported":1723741631,"current_range_meters":13200,"station_id":"ce4bgl12rcd13ifvqbo0","pricing_plan_id":"cebpf4jnsgd1na2vs0mg"},{"bike_id":"8dbcdc76-6f15-4a91-b866-aab0b2f46fc5","system_id":"levelo_inurba_marseille","lat":43.29602,"lon":5.381084,"is_reserved":false,"is_disabled":false,"rental_uris":{"android":"levelo://app?vid=8dbcdc76-6f15-4a91-b866-aab0b2f46fc5","ios":"levelo://app?vid=8dbcdc76-6f15-4a91-b866-aab0b2f46fc5"},"vehicle_type_id":"4","last_reported":1723741631,"current_range_meters":0,"station_id":"ce4bgl12rcd13ifvqbo0","pricing_plan_id":"cebpf4jnsgd1na2vs0mg"},{"bike_id":"ecc7aab3-ce7b-4aa7-840e-38b6f2b15985","system_id":"levelo_inurba_marseille","lat":43.296017,"lon":5.380933,"is_reserved":false,"is_disabled":false,"rental_uris":{"android":"levelo://app?vid=ecc7aab3-ce7b-4aa7-840e-38b6f2b15985","ios":"levelo://app?vid=ecc7aab3-ce7b-4aa7-840e-38b6f2b15985"},"vehicle_type_id":"4","last_reported":1723741631,"current_range_meters":16400,"station_id":"ce4bgl12rcd13ifvqbo0","pricing_plan_id":"cebpf4jnsgd1na2vs0mg"},{"bike_id":"6622f76d-2768-4def-b5c5-6a50378a3d60","system_id":"levelo_inurba_marseille","lat":43.296,"lon":5.38098,"is_reserved":false,"is_disabled":false,"rental_uris":{"android":"levelo://app?vid=6622f76d-2768-4def-b5c5-6a50378a3d60","ios":"levelo://app?vid=6622f76d-2768-4def-b5c5-6a50378a3d60"},"vehicle_type_id":"4","last_reported":1723741631,"current_range_meters":24800,"station_id":"ce4bgl12rcd13ifvqbo0","pricing_plan_id":"cebpf4jnsgd1na2vs0mg"},{"bike_id":"6ff99ece-276d-4a35-b027-43446149f2a0","system_id":"levelo_inurba_marseille","lat":43.296,"lon":5.38104,"is_reserved":false,"is_disabled":false,"rental_uris":{"android":"levelo://app?vid=6ff99ece-276d-4a35-b027-43446149f2a0","ios":"levelo://app?vid=6ff99ece-276d-4a35-b027-43446149f2a0"},"vehicle_type_id":"4","last_reported":1723741631,"current_range_meters":26400,"station_id":"ce4bgl12rcd13ifvqbo0","pricing_plan_id":"cebpf4jnsgd1na2vs0mg"},{"bike_id":"91194db9-be2b-414f-b355-ba8ed74f883a","system_id":"levelo_inurba_marseille","lat":43.293298,"lon":5.370964,"is_reserved":false,"is_disabled":false,"rental_uris":{"android":"levelo://app?vid=91194db9-be2b-414f-b355-ba8ed74f883a","ios":"levelo://app?vid=91194db9-be2b-414f-b355-ba8ed74f883a"},"vehicle_type_id":"4","last_reported":1723741631,"current_range_meters":6800,"station_id":"","pricing_plan_id":"cebpf4jnsgd1na2vs0mg"},{"bike_id":"1f06946e-5115-4899-b4c0-5815c6116cf4","system_id":"levelo_inurba_marseille","lat":43.292749,"lon":5.368402,"is_reserved":false,"is_disabled":false,"rental_uris":{"android":"levelo://app?vid=1f06946e-5115-4899-b4c0-5815c6116cf4","ios":"levelo://app?vid=1f06946e-5115-4899-b4c0-5815c6116cf4"},"vehicle_type_id":"4","last_reported":1723741631,"current_range_meters":27200,"station_id":"ce4bhbp2rcd13ifvqesg","pricing_plan_id":"cebpf4jnsgd1na2vs0mg"},{"bike_id":"bf39a63a-4b3b-4f6f-97e1-ba7248e065bf","system_id":"levelo_inurba_marseille","lat":43.29309,"lon":5.37176,"is_reserved":false,"is_disabled":false,"rental_uris":{"android":"levelo://app?vid=bf39a63a-4b3b-4f6f-97e1-ba7248e065bf","ios":"levelo://app?vid=bf39a63a-4b3b-4f6f-97e1-ba7248e065bf"},"vehicle_type_id":"4","last_reported":1723741631,"current_range_meters":19200,"station_id":"ce4bgh92rcd13ifvqb40","pricing_plan_id":"cebpf4jnsgd1na2vs0mg"},{"bike_id":"e31f87de-0680-4e61-af8d-3718c142fabb","system_id":"levelo_inurba_marseille","lat":43.293259,"lon":5.371586,"is_reserved":false,"is_disabled":false,"rental_uris":{"android":"levelo://app?vid=e31f87de-0680-4e61-af8d-3718c142fabb","ios":"levelo://app?vid=e31f87de-0680-4e61-af8d-3718c142fabb"},"vehicle_type_id":"4","last_reported":1723741631,"current_range_meters":9600,"station_id":"ce4bgh92rcd13ifvqb40","pricing_plan_id":"cebpf4jnsgd1na2vs0mg"},{"bike_id":"d0b236a0-94b0-47ed-8ed4-ee80e904b665","system_id":"levelo_inurba_marseille","lat":43.292749,"lon":5.368402,"is_reserved":false,"is_disabled":false,"rental_uris":{"android":"levelo://app?vid=d0b236a0-94b0-47ed-8ed4-ee80e904b665","ios":"levelo://app?vid=d0b236a0-94b0-47ed-8ed4-ee80e904b665"},"vehicle_type_id":"4","last_reported":1723741631,"current_range_meters":16000,"station_id":"ce4bhbp2rcd13ifvqesg","pricing_plan_id":"cebpf4jnsgd1na2vs0mg"},{"bike_id":"4140d889-aaf9-4b15-8a11-a581354b1510","system_id":"levelo_inurba_marseille","lat":43.293068,"lon":5.37179,"is_reserved":false,"is_disabled":false,"rental_uris":{"android":"levelo://app?vid=4140d889-aaf9-4b15-8a11-a581354b1510","ios":"levelo://app?vid=4140d889-aaf9-4b15-8a11-a581354b1510"},"vehicle_type_id":"4","last_reported":1723741631,"current_range_meters":5600,"station_id":"ce4bgh92rcd13ifvqb40","pricing_plan_id":"cebpf4jnsgd1na2vs0mg"},{"bike_id":"cf9cb12e-80f9-4c62-a2e8-4775c3412be3","system_id":"levelo_inurba_marseille","lat":43.292749,"lon":5.368402,"is_reserved":false,"is_disabled":false,"rental_uris":{"android":"levelo://app?vid=cf9cb12e-80f9-4c62-a2e8-4775c3412be3","ios":"levelo://app?vid=cf9cb12e-80f9-4c62-a2e8-4775c3412be3"},"vehicle_type_id":"4","last_reported":1723741631,"current_range_meters":6400,"station_id":"ce4bhbp2rcd13ifvqesg","pricing_plan_id":"cebpf4jnsgd1na2vs0mg"},{"bike_id":"da3421fe-2898-45ef-b83d-5a1c7d38f9e1","system_id":"levelo_inurba_marseille","lat":43.292749,"lon":5.368402,"is_reserved":false,"is_disabled":false,"rental_uris":{"android":"levelo://app?vid=da3421fe-2898-45ef-b83d-5a1c7d38f9e1","ios":"levelo://app?vid=da3421fe-2898-45ef-b83d-5a1c7d38f9e1"},"vehicle_type_id":"4","last_reported":1723741631,"current_range_meters":28800,"station_id":"ce4bhbp2rcd13ifvqesg","pricing_plan_id":"cebpf4jnsgd1na2vs0mg"},{"bike_id":"11119d7c-b0b3-4186-b288-179cfbb71a5d","system_id":"levelo_inurba_marseille","lat":43.292749,"lon":5.368398,"is_reserved":false,"is_disabled":false,"rental_uris":{"android":"levelo://app?vid=11119d7c-b0b3-4186-b288-179cfbb71a5d","ios":"levelo://app?vid=11119d7c-b0b3-4186-b288-179cfbb71a5d"},"vehicle_type_id":"4","last_reported":1723741631,"current_range_meters":22800,"station_id":"ce4bhbp2rcd13ifvqesg","pricing_plan_id":"cebpf4jnsgd1na2vs0mg"},{"bike_id":"7f7fdc81-4277-41e1-8251-acf72142fbc5","system_id":"levelo_inurba_marseille","lat":43.293017,"lon":5.37164,"is_reserved":false,"is_disabled":false,"rental_uris":{"android":"levelo://app?vid=7f7fdc81-4277-41e1-8251-acf72142fbc5","ios":"levelo://app?vid=7f7fdc81-4277-41e1-8251-acf72142fbc5"},"vehicle_type_id":"4","last_reported":1723741631,"current_range_meters":13600,"station_id":"ce4bgh92rcd13ifvqb40","pricing_plan_id":"cebpf4jnsgd1na2vs0mg"},{"bike_id":"f235984b-822a-4dc1-b14d-6523dc64d6e8","system_id":"levelo_inurba_marseille","lat":43.29303,"lon":5.37178,"is_reserved":false,"is_disabled":false,"rental_uris":{"android":"levelo://app?vid=f235984b-822a-4dc1-b14d-6523dc64d6e8","ios":"levelo://app?vid=f235984b-822a-4dc1-b14d-6523dc64d6e8"},"vehicle_type_id":"4","last_reported":1723741631,"current_range_meters":0,"station_id":"ce4bgh92rcd13ifvqb40","pricing_plan_id":"cebpf4jnsgd1na2vs0mg"},{"bike_id":"bc8b590f-fb9d-4aad-8eb4-ca96654d7c02","system_id":"levelo_inurba_marseille","lat":43.292749,"lon":5.368402,"is_reserved":false,"is_disabled":false,"rental_uris":{"android":"levelo://app?vid=bc8b590f-fb9d-4aad-8eb4-ca96654d7c02","ios":"levelo://app?vid=bc8b590f-fb9d-4aad-8eb4-ca96654d7c02"},"vehicle_type_id":"4","last_reported":1723741631,"current_range_meters":29200,"station_id":"ce4bhbp2rcd13ifvqesg","pricing_plan_id":"cebpf4jnsgd1na2vs0mg"},{"bike_id":"0511bfe9-f134-4ed0-866d-1ff55dce77ea","system_id":"levelo_inurba_marseille","lat":43.29302,"lon":5.37175,"is_reserved":false,"is_disabled":false,"rental_uris":{"android":"levelo://app?vid=0511bfe9-f134-4ed0-866d-1ff55dce77ea","ios":"levelo://app?vid=0511bfe9-f134-4ed0-866d-1ff55dce77ea"},"vehicle_type_id":"4","last_reported":1723741631,"current_range_meters":24800,"station_id":"ce4bgh92rcd13ifvqb40","pricing_plan_id":"cebpf4jnsgd1na2vs0mg"},{"bike_id":"4a69f6d4-4c0e-4832-9954-4b75d84e1b4a","system_id":"levelo_inurba_marseille","lat":43.292739,"lon":5.368447,"is_reserved":false,"is_disabled":false,"rental_uris":{"android":"levelo://app?vid=4a69f6d4-4c0e-4832-9954-4b75d84e1b4a","ios":"levelo://app?vid=4a69f6d4-4c0e-4832-9954-4b75d84e1b4a"},"vehicle_type_id":"4","last_reported":1723741631,"current_range_meters":23200,"station_id":"ce4bhb12rcd13ifvqel0","pricing_plan_id":"cebpf4jnsgd1na2vs0mg"},{"bike_id":"5a7ac43b-2a7b-4527-9da0-3bdeec71e915","system_id":"levelo_inurba_marseille","lat":43.293,"lon":5.37172,"is_reserved":false,"is_disabled":false,"rental_uris":{"android":"levelo://app?vid=5a7ac43b-2a7b-4527-9da0-3bdeec71e915","ios":"levelo://app?vid=5a7ac43b-2a7b-4527-9da0-3bdeec71e915"},"vehicle_type_id":"4","last_reported":1723741631,"current_range_meters":17200,"station_id":"ce4bgh92rcd13ifvqb40","pricing_plan_id":"cebpf4jnsgd1na2vs0mg"},{"bike_id":"96e6030f-a007-4162-bba4-0880aeb6fc7b","system_id":"levelo_inurba_marseille","lat":43.29299,"lon":5.37166,"is_reserved":false,"is_disabled":false,"rental_uris":{"android":"levelo://app?vid=96e6030f-a007-4162-bba4-0880aeb6fc7b","ios":"levelo://app?vid=96e6030f-a007-4162-bba4-0880aeb6fc7b"},"vehicle_type_id":"4","last_reported":1723741631,"current_range_meters":14400,"station_id":"ce4bgh92rcd13ifvqb40","pricing_plan_id":"cebpf4jnsgd1na2vs0mg"},{"bike_id":"f3344e4a-7828-473d-a8e0-b791c04bcba3","system_id":"levelo_inurba_marseille","lat":43.293259,"lon":5.371586,"is_reserved":false,"is_disabled":false,"rental_uris":{"android":"levelo://app?vid=f3344e4a-7828-473d-a8e0-b791c04bcba3","ios":"levelo://app?vid=f3344e4a-7828-473d-a8e0-b791c04bcba3"},"vehicle_type_id":"4","last_reported":1723741631,"current_range_meters":14400,"station_id":"ce4bgh92rcd13ifvqb40","pricing_plan_id":"cebpf4jnsgd1na2vs0mg"},{"bike_id":"27bdefe2-a1e3-480c-a940-bf5572259808","system_id":"levelo_inurba_marseille","lat":43.285848,"lon":5.350787,"is_reserved":false,"is_disabled":false,"rental_uris":{"android":"levelo://app?vid=27bdefe2-a1e3-480c-a940-bf5572259808","ios":"levelo://app?vid=27bdefe2-a1e3-480c-a940-bf5572259808"},"vehicle_type_id":"4","last_reported":1723741631,"current_range_meters":13200,"station_id":"ce4bhch2rcd13ifvqeug","pricing_plan_id":"cebpf4jnsgd1na2vs0mg"},{"bike_id":"2cf85e74-4c89-46f9-8553-ba34abde310f","system_id":"levelo_inurba_marseille","lat":43.29304,"lon":5.37455,"is_reserved":false,"is_disabled":false,"rental_uris":{"android":"levelo://app?vid=2cf85e74-4c89-46f9-8553-ba34abde310f","ios":"levelo://app?vid=2cf85e74-4c89-46f9-8553-ba34abde310f"},"vehicle_type_id":"4","last_reported":1723741631,"current_range_meters":13200,"station_id":"ce4bgi12rcd13ifvqb70","pricing_plan_id":"cebpf4jnsgd1na2vs0mg"},{"bike_id":"f05bdb5b-68ff-4365-99c1-d7d9d43bee95","system_id":"levelo_inurba_marseille","lat":43.305994,"lon":5.393687,"is_reserved":false,"is_disabled":false,"rental_uris":{"android":"levelo://app?vid=f05bdb5b-68ff-4365-99c1-d7d9d43bee95","ios":"levelo://app?vid=f05bdb5b-68ff-4365-99c1-d7d9d43bee95"},