{"last_updated":1784364037,"ttl":60,"version":"2.2","data":{"bikes":[{"bike_id":"ba0c28b1-8732-48e2-8079-f25b2b3fbc3c","system_id":"levelo_inurba_marseille","lat":43.337444,"lon":5.374475,"is_reserved":false,"is_disabled":false,"rental_uris":{"android":"levelo://app?vid=ba0c28b1-8732-48e2-8079-f25b2b3fbc3c","ios":"levelo://app?vid=ba0c28b1-8732-48e2-8079-f25b2b3fbc3c"},"vehicle_type_id":"4","last_reported":1784364038,"current_range_meters":0,"station_id":"","pricing_plan_id":"cebpf4jnsgd1na2vs0mg"},{"bike_id":"efef664a-3e3f-4e2f-8b55-eb16bec52017","system_id":"levelo_inurba_marseille","lat":43.30662,"lon":5.40099,"is_reserved":false,"is_disabled":false,"rental_uris":{"android":"levelo://app?vid=efef664a-3e3f-4e2f-8b55-eb16bec52017","ios":"levelo://app?vid=efef664a-3e3f-4e2f-8b55-eb16bec52017"},"vehicle_type_id":"4","last_reported":1784364038,"current_range_meters":17600,"station_id":"ce4bh112rcd13ifvqda0","pricing_plan_id":"cebpf4jnsgd1na2vs0mg"},{"bike_id":"63dc20ac-90f4-4eae-ac6c-d24ae13a7929","system_id":"levelo_inurba_marseille","lat":43.25342,"lon":5.42179,"is_reserved":false,"is_disabled":false,"rental_uris":{"android":"levelo://app?vid=63dc20ac-90f4-4eae-ac6c-d24ae13a7929","ios":"levelo://app?vid=63dc20ac-90f4-4eae-ac6c-d24ae13a7929"},"vehicle_type_id":"4","last_reported":1784364038,"current_range_meters":33200,"station_id":"st_d2m65c5bi1j21697t3ng","pricing_plan_id":"cebpf4jnsgd1na2vs0mg"},{"bike_id":"6e6f6dae-936f-41d5-baca-6df8291a6b4a","system_id":"levelo_inurba_marseille","lat":43.29275,"lon":5.40122,"is_reserved":false,"is_disabled":false,"rental_uris":{"android":"levelo://app?vid=6e6f6dae-936f-41d5-baca-6df8291a6b4a","ios":"levelo://app?vid=6e6f6dae-936f-41d5-baca-6df8291a6b4a"},"vehicle_type_id":"4","last_reported":1784364038,"current_range_meters":17600,"station_id":"ce4bh312rcd13ifvqdk0","pricing_plan_id":"cebpf4jnsgd1na2vs0mg"},{"bike_id":"33e6a9a9-dba5-4ff9-b2d6-5d0bc9c3b28f","system_id":"levelo_inurba_marseille","lat":43.30512,"lon":5.36557,"is_reserved":false,"is_disabled":false,"rental_uris":{"android":"levelo://app?vid=33e6a9a9-dba5-4ff9-b2d6-5d0bc9c3b28f","ios":"levelo://app?vid=33e6a9a9-dba5-4ff9-b2d6-5d0bc9c3b28f"},"vehicle_type_id":"4","last_reported":1784364038,"current_range_meters":22000,"station_id":"","pricing_plan_id":"cebpf4jnsgd1na2vs0mg"},{"bike_id":"5cee9c90-c94d-4ac0-8512-01d3bf4f14dd","system_id":"levelo_inurba_marseille","lat":43.29904,"lon":5.38146,"is_reserved":false,"is_disabled":false,"rental_uris":{"android":"levelo://app?vid=5cee9c90-c94d-4ac0-8512-01d3bf4f14dd","ios":"levelo://app?vid=5cee9c90-c94d-4ac0-8512-01d3bf4f14dd"},"vehicle_type_id":"4","last_reported":1784364038,"current_range_meters":40000,"station_id":"ce4bgj12rcd13ifvqbc0","pricing_plan_id":"cebpf4jnsgd1na2vs0mg"},{"bike_id":"d6b84fe8-a0ac-4c70-8762-47d8d1fd181f","system_id":"levelo_inurba_marseille","lat":43.27967,"lon":5.38754,"is_reserved":false,"is_disabled":false,"rental_uris":{"android":"levelo://app?vid=d6b84fe8-a0ac-4c70-8762-47d8d1fd181f","ios":"levelo://app?vid=d6b84fe8-a0ac-4c70-8762-47d8d1fd181f"},"vehicle_type_id":"4","last_reported":1784364038,"current_range_meters":38800,"station_id":"ce4bhg12rcd13ifvqf80","pricing_plan_id":"cebpf4jnsgd1na2vs0mg"},{"bike_id":"1e48994d-2816-469c-88fe-3c3d11bf3220","system_id":"levelo_inurba_marseille","lat":43.30148,"lon":5.38079,"is_reserved":false,"is_disabled":false,"rental_uris":{"android":"levelo://app?vid=1e48994d-2816-469c-88fe-3c3d11bf3220","ios":"levelo://app?vid=1e48994d-2816-469c-88fe-3c3d11bf3220"},"vehicle_type_id":"4","last_reported":1784364038,"current_range_meters":38000,"station_id":"ce4bgjp2rcd13ifvqbh0","pricing_plan_id":"cebpf4jnsgd1na2vs0mg"},{"bike_id":"70966810-cf69-4aec-842d-13ff88a398b0","system_id":"levelo_inurba_marseille","lat":43.28031,"lon":5.36945,"is_reserved":false,"is_disabled":false,"rental_uris":{"android":"levelo://app?vid=70966810-cf69-4aec-842d-13ff88a398b0","ios":"levelo://app?vid=70966810-cf69-4aec-842d-13ff88a398b0"},"vehicle_type_id":"4","last_reported":1784364038,"current_range_meters":33600,"station_id":"ce4bha12rcd13ifvqef0","pricing_plan_id":"cebpf4jnsgd1na2vs0mg"},{"bike_id":"4c9a921a-04dc-4c71-8333-2f08066860ea","system_id":"levelo_inurba_marseille","lat":43.29691,"lon":5.37306,"is_reserved":false,"is_disabled":false,"rental_uris":{"android":"levelo://app?vid=4c9a921a-04dc-4c71-8333-2f08066860ea","ios":"levelo://app?vid=4c9a921a-04dc-4c71-8333-2f08066860ea"},"vehicle_type_id":"4","last_reported":1784364038,"current_range_meters":28000,"station_id":"ce4bgk12rcd13ifvqbj0","pricing_plan_id":"cebpf4jnsgd1na2vs0mg"},{"bike_id":"db8bd5d3-bb99-4688-8de3-0b156a227ffe","system_id":"levelo_inurba_marseille","lat":43.29929,"lon":5.37478,"is_reserved":false,"is_disabled":true,"rental_uris":{"android":"levelo://app?vid=db8bd5d3-bb99-4688-8de3-0b156a227ffe","ios":"levelo://app?vid=db8bd5d3-bb99-4688-8de3-0b156a227ffe"},"vehicle_type_id":"4","last_reported":1784364038,"current_range_meters":9200,"station_id":"ce4bgjh2rcd13ifvqbg0","pricing_plan_id":"cebpf4jnsgd1na2vs0mg"},{"bike_id":"9da5cadf-cdd1-429b-9b5e-9173177dfcc4","system_id":"levelo_inurba_marseille","lat":43.24393,"lon":5.37066,"is_reserved":false,"is_disabled":false,"rental_uris":{"android":"levelo://app?vid=9da5cadf-cdd1-429b-9b5e-9173177dfcc4","ios":"levelo://app?vid=9da5cadf-cdd1-429b-9b5e-9173177dfcc4"},"vehicle_type_id":"4","last_reported":1784364038,"current_range_meters":11200,"station_id":"ce4bhhh2rcd13ifvqfk0","pricing_plan_id":"cebpf4jnsgd1na2vs0mg"},{"bike_id":"40eddaa4-614a-44c2-be0b-e195313e3eee","system_id":"levelo_inurba_marseille","lat":43.28875,"lon":5.35829,"is_reserved":false,"is_disabled":false,"rental_uris":{"android":"levelo://app?vid=40eddaa4-614a-44c2-be0b-e195313e3eee","ios":"levelo://app?vid=40eddaa4-614a-44c2-be0b-e195313e3eee"},"vehicle_type_id":"4","last_reported":1784364038,"current_range_meters":40000,"station_id":"ce4bhb12rcd13ifvqem0","pricing_plan_id":"cebpf4jnsgd1na2vs0mg"},{"bike_id":"e71494cd-d4a8-436a-a5c6-260a2924500e","system_id":"levelo_inurba_marseille","lat":43.26234,"lon":5.3877,"is_reserved":false,"is_disabled":true,"rental_uris":{"android":"levelo://app?vid=e71494cd-d4a8-436a-a5c6-260a2924500e","ios":"levelo://app?vid=e71494cd-d4a8-436a-a5c6-260a2924500e"},"vehicle_type_id":"4","last_reported":1784364038,"current_range_meters":28400,"station_id":"st_d8gjfg747rts73coq3b0","pricing_plan_id":"cebpf4jnsgd1na2vs0mg"},{"bike_id":"4dd83e35-73dd-44b8-9d3c-9c21e3418d4e","system_id":"levelo_inurba_marseille","lat":43.27463,"lon":5.42628,"is_reserved":false,"is_disabled":false,"rental_uris":{"android":"levelo://app?vid=4dd83e35-73dd-44b8-9d3c-9c21e3418d4e","ios":"levelo://app?vid=4dd83e35-73dd-44b8-9d3c-9c21e3418d4e"},"vehicle_type_id":"4","last_reported":1784364038,"current_range_meters":13600,"station_id":"","pricing_plan_id":"cebpf4jnsgd1na2vs0mg"},{"bike_id":"0bae1387-dbc4-4fe8-af80-0faa0716d47d","system_id":"levelo_inurba_marseille","lat":43.23959,"lon":5.36646,"is_reserved":false,"is_disabled":false,"rental_uris":{"android":"levelo://app?vid=0bae1387-dbc4-4fe8-af80-0faa0716d47d","ios":"levelo://app?vid=0bae1387-dbc4-4fe8-af80-0faa0716d47d"},"vehicle_type_id":"4","last_reported":1784364038,"current_range_meters":31200,"station_id":"ce4bhi12rcd13ifvqfp0","pricing_plan_id":"cebpf4jnsgd1na2vs0mg"},{"bike_id":"6666b766-2ccd-467a-ad53-5ec31fb4dec4","system_id":"levelo_inurba_marseille","lat":43.24812,"lon":5.37496,"is_reserved":false,"is_disabled":false,"rental_uris":{"android":"levelo://app?vid=6666b766-2ccd-467a-ad53-5ec31fb4dec4","ios":"levelo://app?vid=6666b766-2ccd-467a-ad53-5ec31fb4dec4"},"vehicle_type_id":"4","last_reported":1784364038,"current_range_meters":36400,"station_id":"ce4bhgh2rcd13ifvqfb0","pricing_plan_id":"cebpf4jnsgd1na2vs0mg"},{"bike_id":"46306a0d-9235-46a7-be48-833c7f44f8a2","system_id":"levelo_inurba_marseille","lat":43.29487,"lon":5.43298,"is_reserved":false,"is_disabled":false,"rental_uris":{"android":"levelo://app?vid=46306a0d-9235-46a7-be48-833c7f44f8a2","ios":"levelo://app?vid=46306a0d-9235-46a7-be48-833c7f44f8a2"},"vehicle_type_id":"4","last_reported":1784364038,"current_range_meters":32000,"station_id":"st_d3j5ugp08ojc73fj9d10","pricing_plan_id":"cebpf4jnsgd1na2vs0mg"},{"bike_id":"daf11da9-09e4-45d4-814b-e16971bc59a4","system_id":"levelo_inurba_marseille","lat":43.27944,"lon":5.3872,"is_reserved":false,"is_disabled":false,"rental_uris":{"android":"levelo://app?vid=daf11da9-09e4-45d4-814b-e16971bc59a4","ios":"levelo://app?vid=daf11da9-09e4-45d4-814b-e16971bc59a4"},"vehicle_type_id":"4","last_reported":1784364038,"current_range_meters":22000,"station_id":"ce4bhg12rcd13ifvqf80","pricing_plan_id":"cebpf4jnsgd1na2vs0mg"},{"bike_id":"d7da764c-850d-4748-a1c2-68e3cab24b17","system_id":"levelo_inurba_marseille","lat":43.26214,"lon":5.38749,"is_reserved":false,"is_disabled":false,"rental_uris":{"android":"levelo://app?vid=d7da764c-850d-4748-a1c2-68e3cab24b17","ios":"levelo://app?vid=d7da764c-850d-4748-a1c2-68e3cab24b17"},"vehicle_type_id":"4","last_reported":1784364038,"current_range_meters":39200,"station_id":"st_d8gjfg747rts73coq3b0","pricing_plan_id":"cebpf4jnsgd1na2vs0mg"},{"bike_id":"382fbec6-cee3-46a7-98f9-0574f743657e","system_id":"levelo_inurba_marseille","lat":43.29251,"lon":5.37625,"is_reserved":false,"is_disabled":false,"rental_uris":{"android":"levelo://app?vid=382fbec6-cee3-46a7-98f9-0574f743657e","ios":"levelo://app?vid=382fbec6-cee3-46a7-98f9-0574f743657e"},"vehicle_type_id":"4","last_reported":1784364038,"current_range_meters":38400,"station_id":"ce4bgi12rcd13ifvqb80","pricing_plan_id":"cebpf4jnsgd1na2vs0mg"},{"bike_id":"acc1f62a-bcba-48db-87e6-f9904a68c9cf","system_id":"levelo_inurba_marseille","lat":43.29738,"lon":5.37692,"is_reserved":false,"is_disabled":true,"rental_uris":{"android":"levelo://app?vid=acc1f62a-bcba-48db-87e6-f9904a68c9cf","ios":"levelo://app?vid=acc1f62a-bcba-48db-87e6-f9904a68c9cf"},"vehicle_type_id":"4","last_reported":1784364038,"current_range_meters":2800,"station_id":"ce4bgkh2rcd13ifvqbl0","pricing_plan_id":"cebpf4jnsgd1na2vs0mg"},{"bike_id":"c3763d08-2139-4ef6-9ac7-8be7d504c24b","system_id":"levelo_inurba_marseille","lat":43.22937,"lon":5.35373,"is_reserved":false,"is_disabled":false,"rental_uris":{"android":"levelo://app?vid=c3763d08-2139-4ef6-9ac7-8be7d504c24b","ios":"levelo://app?vid=c3763d08-2139-4ef6-9ac7-8be7d504c24b"},"vehicle_type_id":"4","last_reported":1784364038,"current_range_meters":22000,"station_id":"cpo3532slgdg3j2ikp40","pricing_plan_id":"cebpf4jnsgd1na2vs0mg"},{"bike_id":"1224aeaf-7d71-471b-a204-9d75fa6385d4","system_id":"levelo_inurba_marseille","lat":43.29065,"lon":5.37167,"is_reserved":false,"is_disabled":false,"rental_uris":{"android":"levelo://app?vid=1224aeaf-7d71-471b-a204-9d75fa6385d4","ios":"levelo://app?vid=1224aeaf-7d71-471b-a204-9d75fa6385d4"},"vehicle_type_id":"4","last_reported":1784364038,"current_range_meters":7200,"station_id":"ce4bh5p2rcd13ifvqe4g","pricing_plan_id":"cebpf4jnsgd1na2vs0mg"},{"bike_id":"2e713f5f-0d30-4049-b21c-bfce54a23bd5","system_id":"levelo_inurba_marseille","lat":43.23892,"lon":5.37456,"is_reserved":false,"is_disabled":false,"rental_uris":{"android":"levelo://app?vid=2e713f5f-0d30-4049-b21c-bfce54a23bd5","ios":"levelo://app?vid=2e713f5f-0d30-4049-b21c-bfce54a23bd5"},"vehicle_type_id":"4","last_reported":1784364038,"current_range_meters":31200,"station_id":"st_d6sm7csbq4hs73f8fpjg","pricing_plan_id":"cebpf4jnsgd1na2vs0mg"},{"bike_id":"c180bc57-12f5-435a-8219-0c0ef26aa8c0","system_id":"levelo_inurba_marseille","lat":43.22558,"lon":5.34853,"is_reserved":false,"is_disabled":false,"rental_uris":{"android":"levelo://app?vid=c180bc57-12f5-435a-8219-0c0ef26aa8c0","ios":"levelo://app?vid=c180bc57-12f5-435a-8219-0c0ef26aa8c0"},"vehicle_type_id":"4","last_reported":1784364038,"current_range_meters":36400,"station_id":"st_cvj5dfep6f1abm77gieg","pricing_plan_id":"cebpf4jnsgd1na2vs0mg"},{"bike_id":"32c95016-82d3-4943-8193-1a98c4bf18c7","system_id":"levelo_inurba_marseille","lat":43.28074,"lon":5.35667,"is_reserved":false,"is_disabled":false,"rental_uris":{"android":"levelo://app?vid=32c95016-82d3-4943-8193-1a98c4bf18c7","ios":"levelo://app?vid=32c95016-82d3-4943-8193-1a98c4bf18c7"},"vehicle_type_id":"4","last_reported":1784364038,"current_range_meters":9600,"station_id":"","pricing_plan_id":"cebpf4jnsgd1na2vs0mg"},{"bike_id":"1a305c6a-520f-4fbc-8ce8-a3f8e3bd6a3b","system_id":"levelo_inurba_marseille","lat":43.27972,"lon":5.38692,"is_reserved":false,"is_disabled":false,"rental_uris":{"android":"levelo://app?vid=1a305c6a-520f-4fbc-8ce8-a3f8e3bd6a3b","ios":"levelo://app?vid=1a305c6a-520f-4fbc-8ce8-a3f8e3bd6a3b"},"vehicle_type_id":"4","last_reported":1784364038,"current_range_meters":36800,"station_id":"ce4bhg12rcd13ifvqf80","pricing_plan_id":"cebpf4jnsgd1na2vs0mg"},{"bike_id":"a6a33a18-41c6-45de-a2d0-436ba5fa8320","system_id":"levelo_inurba_marseille","lat":43.27965,"lon":5.38725,"is_reserved":false,"is_disabled":false,"rental_uris":{"android":"levelo://app?vid=a6a33a18-41c6-45de-a2d0-436ba5fa8320","ios":"levelo://app?vid=a6a33a18-41c6-45de-a2d0-436ba5fa8320"},"vehicle_type_id":"4","last_reported":1784364038,"current_range_meters":38400,"station_id":"ce4bhg12rcd13ifvqf80","pricing_plan_id":"cebpf4jnsgd1na2vs0mg"},{"bike_id":"18296e7b-4594-423b-9c5d-60ce9747d9c5","system_id":"levelo_inurba_marseille","lat":43.30214,"lon":5.39474,"is_reserved":false,"is_disabled":false,"rental_uris":{"android":"levelo://app?vid=18296e7b-4594-423b-9c5d-60ce9747d9c5","ios":"levelo://app?vid=18296e7b-4594-423b-9c5d-60ce9747d9c5"},"vehicle_type_id":"4","last_reported":1784364038,"current_range_meters":28400,"station_id":"ce4bh0p2rcd13ifvqd70","pricing_plan_id":"cebpf4jnsgd1na2vs0mg"},{"bike_id":"37a4c0e7-a181-4544-ba6d-7e192c43b28f","system_id":"levelo_inurba_marseille","lat":43.29192,"lon":5.35806,"is_reserved":false,"is_disabled":false,"rental_uris":{"android":"levelo://app?vid=37a4c0e7-a181-4544-ba6d-7e192c43b28f","ios":"levelo://app?vid=37a4c0e7-a181-4544-ba6d-7e192c43b28f"},"vehicle_type_id":"4","last_reported":1784364038,"current_range_meters":32400,"station_id":"ce4bhb12rcd13ifvqel0","pricing_plan_id":"cebpf4jnsgd1na2vs0mg"},{"bike_id":"ef6880d0-6944-4f6a-8f40-6662368b8f75","system_id":"levelo_inurba_marseille","lat":43.31893,"lon":5.43936,"is_reserved":false,"is_disabled":false,"rental_uris":{"android":"levelo://app?vid=ef6880d0-6944-4f6a-8f40-6662368b8f75","ios":"levelo://app?vid=ef6880d0-6944-4f6a-8f40-6662368b8f75"},"vehicle_type_id":"4","last_reported":1784364038,"current_range_meters":11200,"station_id":"","pricing_plan_id":"cebpf4jnsgd1na2vs0mg"},{"bike_id":"ac73781c-7964-453a-82c7-5e417be13435","system_id":"levelo_inurba_marseille","lat":43.28613,"lon":5.37121,"is_reserved":false,"is_disabled":false,"rental_uris":{"android":"levelo://app?vid=ac73781c-7964-453a-82c7-5e417be13435","ios":"levelo://app?vid=ac73781c-7964-453a-82c7-5e417be13435"},"vehicle_type_id":"4","last_reported":1784364038,"current_range_meters":35200,"station_id":"ce4bht12rcd13ifvqi60","pricing_plan_id":"cebpf4jnsgd1na2vs0mg"},{"bike_id":"02ec5527-811f-4987-8a26-4a51ee0e92c6","system_id":"levelo_inurba_marseille","lat":43.30158,"lon":5.38104,"is_reserved":false,"is_disabled":false,"rental_uris":{"android":"levelo://app?vid=02ec5527-811f-4987-8a26-4a51ee0e92c6","ios":"levelo://app?vid=02ec5527-811f-4987-8a26-4a51ee0e92c6"},"vehicle_type_id":"4","last_reported":1784364038,"current_range_meters":14400,"station_id":"ce4bgjp2rcd13ifvqbh0","pricing_plan_id":"cebpf4jnsgd1na2vs0mg"},{"bike_id":"d183c213-4177-4bf2-b9e0-24872be8a9c8","system_id":"levelo_inurba_marseille","lat":43.28485,"lon":5.48387,"is_reserved":false,"is_disabled":false,"rental_uris":{"android":"levelo://app?vid=d183c213-4177-4bf2-b9e0-24872be8a9c8","ios":"levelo://app?vid=d183c213-4177-4bf2-b9e0-24872be8a9c8"},"vehicle_type_id":"4","last_reported":1784364038,"current_range_meters":17600,"station_id":"st_d3svhcjqgbts73a3dn0g","pricing_plan_id":"cebpf4jnsgd1na2vs0mg"},{"bike_id":"a687a6f3-2477-4e4a-a156-bd6355c403cd","system_id":"levelo_inurba_marseille","lat":43.24398,"lon":5.37045,"is_reserved":false,"is_disabled":false,"rental_uris":{"android":"levelo://app?vid=a687a6f3-2477-4e4a-a156-bd6355c403cd","ios":"levelo://app?vid=a687a6f3-2477-4e4a-a156-bd6355c403cd"},"vehicle_type_id":"4","last_reported":1784364038,"current_range_meters":29600,"station_id":"ce4bhhh2rcd13ifvqfk0","pricing_plan_id":"cebpf4jnsgd1na2vs0mg"},{"bike_id":"e975d81f-466f-4fbf-9278-3f973430f9dc","system_id":"levelo_inurba_marseille","lat":43.26188,"lon":5.37464,"is_reserved":false,"is_disabled":false,"rental_uris":{"android":"levelo://app?vid=e975d81f-466f-4fbf-9278-3f973430f9dc","ios":"levelo://app?vid=e975d81f-466f-4fbf-9278-3f973430f9dc"},"vehicle_type_id":"4","last_reported":1784364038,"current_range_meters":20000,"station_id":"ce4bhgp2rcd13ifvqfc0","pricing_plan_id":"cebpf4jnsgd1na2vs0mg"},{"bike_id":"930a26e6-38b4-4fff-a16a-2d1b93308d5b","system_id":"levelo_inurba_marseille","lat":43.28713,"lon":5.37391,"is_reserved":false,"is_disabled":true,"rental_uris":{"android":"levelo://app?vid=930a26e6-38b4-4fff-a16a-2d1b93308d5b","ios":"levelo://app?vid=930a26e6-38b4-4fff-a16a-2d1b93308d5b"},"vehicle_type_id":"4","last_reported":1784364038,"current_range_meters":3600,"station_id":"ce4bh3p2rcd13ifvqdq0","pricing_plan_id":"cebpf4jnsgd1na2vs0mg"},{"bike_id":"d41bcecd-a0ce-418b-a33d-ae8b04fd26eb","system_id":"levelo_inurba_marseille","lat":43.2925,"lon":5.37617,"is_reserved":false,"is_disabled":false,"rental_uris":{"android":"levelo://app?vid=d41bcecd-a0ce-418b-a33d-ae8b04fd26eb","ios":"levelo://app?vid=d41bcecd-a0ce-418b-a33d-ae8b04fd26eb"},"vehicle_type_id":"4","last_reported":1784364038,"current_range_meters":24000,"station_id":"ce4bgi12rcd13ifvqb80","pricing_plan_id":"cebpf4jnsgd1na2vs0mg"},{"bike_id":"3d90f248-e250-4d3d-b06c-3562eb592a58","system_id":"levelo_inurba_marseille","lat":43.30486,"lon":5.37914,"is_reserved":false,"is_disabled":false,"rental_uris":{"android":"levelo://app?vid=3d90f248-e250-4d3d-b06c-3562eb592a58","ios":"levelo://app?vid=3d90f248-e250-4d3d-b06c-3562eb592a58"},"vehicle_type_id":"4","last_reported":1784364038,"current_range_meters":30800,"station_id":"ce4bgup2rcd13ifvqcn0","pricing_plan_id":"cebpf4jnsgd1na2vs0mg"},{"bike_id":"b69d6922-af11-4a16-afa2-b8a5faa6f4ed","system_id":"levelo_inurba_marseille","lat":43.30272,"lon":5.37687,"is_reserved":false,"is_disabled":false,"rental_uris":{"android":"levelo://app?vid=b69d6922-af11-4a16-afa2-b8a5faa6f4ed","ios":"levelo://app?vid=b69d6922-af11-4a16-afa2-b8a5faa6f4ed"},"vehicle_type_id":"4","last_reported":1784364038,"current_range_meters":36800,"station_id":"ce4bguh2rcd13ifvqcj0","pricing_plan_id":"cebpf4jnsgd1na2vs0mg"},{"bike_id":"a13233b2-12f3-4b1a-aa9c-27aabe882961","system_id":"levelo_inurba_marseille","lat":43.28461,"lon":5.35934,"is_reserved":false,"is_disabled":false,"rental_uris":{"android":"levelo://app?vid=a13233b2-12f3-4b1a-aa9c-27aabe882961","ios":"levelo://app?vid=a13233b2-12f3-4b1a-aa9c-27aabe882961"},"vehicle_type_id":"4","last_reported":1784364038,"current_range_meters":38400,"station_id":"ce4bhah2rcd13ifvqei0","pricing_plan_id":"cebpf4jnsgd1na2vs0mg"},{"bike_id":"e0c7065e-7f74-4b06-ae7b-f933c635df87","system_id":"levelo_inurba_marseille","lat":43.29558,"lon":5.42278,"is_reserved":false,"is_disabled":false,"rental_uris":{"android":"levelo://app?vid=e0c7065e-7f74-4b06-ae7b-f933c635df87","ios":"levelo://app?vid=e0c7065e-7f74-4b06-ae7b-f933c635df87"},"vehicle_type_id":"4","last_reported":1784364038,"current_range_meters":39200,"station_id":"ce4bhph2rcd13ifvqhdg","pricing_plan_id":"cebpf4jnsgd1na2vs0mg"},{"bike_id":"3d9d15ce-5804-4209-b92a-723f598d0341","system_id":"levelo_inurba_marseille","lat":43.2119,"lon":5.35067,"is_reserved":false,"is_disabled":false,"rental_uris":{"android":"levelo://app?vid=3d9d15ce-5804-4209-b92a-723f598d0341","ios":"levelo://app?vid=3d9d15ce-5804-4209-b92a-723f598d0341"},"vehicle_type_id":"4","last_reported":1784364038,"current_range_meters":39200,"station_id":"st_cvj6sg6p6f1abm77japg","pricing_plan_id":"cebpf4jnsgd1na2vs0mg"},{"bike_id":"ff6c8340-fd25-4964-85ef-b09e1173c088","system_id":"levelo_inurba_marseille","lat":43.28489,"lon":5.38432,"is_reserved":false,"is_disabled":false,"rental_uris":{"android":"levelo://app?vid=ff6c8340-fd25-4964-85ef-b09e1173c088","ios":"levelo://app?vid=ff6c8340-fd25-4964-85ef-b09e1173c088"},"vehicle_type_id":"4","last_reported":1784364038,"current_range_meters":34800,"station_id":"ce4bh512rcd13ifvqe3g","pricing_plan_id":"cebpf4jnsgd1na2vs0mg"},{"bike_id":"700689bb-703b-455a-a751-9c1e7f35a526","system_id":"levelo_inurba_marseille","lat":43.31037,"lon":5.39389,"is_reserved":false,"is_disabled":false,"rental_uris":{"android":"levelo://app?vid=700689bb-703b-455a-a751-9c1e7f35a526","ios":"levelo://app?vid=700689bb-703b-455a-a751-9c1e7f35a526"},"vehicle_type_id":"4","last_reported":1784364038,"current_range_meters":11600,"station_id":"","pricing_plan_id":"cebpf4jnsgd1na2vs0mg"},{"bike_id":"67a62598-a998-4fa0-a845-5201fe92f8be","system_id":"levelo_inurba_marseille","lat":43.27366,"lon":5.36259,"is_reserved":false,"is_disabled":false,"rental_uris":{"android":"levelo://app?vid=67a62598-a998-4fa0-a845-5201fe92f8be","ios":"levelo://app?vid=67a62598-a998-4fa0-a845-5201fe92f8be"},"vehicle_type_id":"4","last_reported":1784364038,"current_range_meters":31200,"station_id":"ce4bhbh2rcd13ifvqeo0","pricing_plan_id":"cebpf4jnsgd1na2vs0mg"},{"bike_id":"27e70b07-9633-49c2-909e-08e81bf2eeae","system_id":"levelo_inurba_marseille","lat":43.29089,"lon":5.38145,"is_reserved":false,"is_disabled":false,"rental_uris":{"android":"levelo://app?vid=27e70b07-9633-49c2-909e-08e81bf2eeae","ios":"levelo://app?vid=27e70b07-9633-49c2-909e-08e81bf2eeae"},"vehicle_type_id":"4","last_reported":1784364038,"current_range_meters":37600,"station_id":"","pricing_plan_id":"cebpf4jnsgd1na2vs0mg"},{"bike_id":"e1bb6861-ee59-438c-aa2a-2a553b2d6f43","system_id":"levelo_inurba_marseille","lat":43.27186,"lon":5.41001,"is_reserved":false,"is_disabled":true,"rental_uris":{"android":"levelo://app?vid=e1bb6861-ee59-438c-aa2a-2a553b2d6f43","ios":"levelo://app?vid=e1bb6861-ee59-438c-aa2a-2a553b2d6f43"},"vehicle_type_id":"4","last_reported":1784364038,"current_range_meters":32000,"station_id":"ce4bhl12rcd13ifvqgf0","pricing_plan_id":"cebpf4jnsgd1na2vs0mg"},{"bike_id":"c2e7fe27-d2b0-440e-b62d-ead50feed951","system_id":"levelo_inurba_marseille","lat":43.29493,"lon":5.43301,"is_reserved":false,"is_disabled":false,"rental_uris":{"android":"levelo://app?vid=c2e7fe27-d2b0-440e-b62d-ead50feed951","ios":"levelo://app?vid=c2e7fe27-d2b0-440e-b62d-ead50feed951"},"vehicle_type_id":"4","last_reported":1784364038,"current_range_meters":8400,"station_id":"st_d3j5ugp08ojc73fj9d10","pricing_plan_id":"cebpf4jnsgd1na2vs0mg"},{"bike_id":"cd8636bf-4678-4336-a11c-b12b2f9a64d1","system_id":"levelo_inurba_marseille","lat":43.24448,"lon":5.42574,"is_reserved":false,"is_disabled":false,"rental_uris":{"android":"levelo://app?vid=cd8636bf-4678-4336-a11c-b12b2f9a64d1","ios":"levelo://app?vid=cd8636bf-4678-4336-a11c-b12b2f9a64d1"},"vehicle_type_id":"4","last_reported":1784364038,"current_range_meters":39200,"station_id":"st_d4a3vfp97mjs738cd8kg","pricing_plan_id":"cebpf4jnsgd1na2vs0mg"},{"bike_id":"99babde9-3915-452c-b14b-d4cd123ce9a3","system_id":"levelo_inurba_marseille","lat":43.26947,"lon":5.40259,"is_reserved":false,"is_disabled":false,"rental_uris":{"android":"levelo://app?vid=99babde9-3915-452c-b14b-d4cd123ce9a3","ios":"levelo://app?vid=99babde9-3915-452c-b14b-d4cd123ce9a3"},"vehicle_type_id":"4","last_reported":1784364038,"current_range_meters":9600,"station_id":"cjm6bp8fraef2m0cb0m0","pricing_plan_id":"cebpf4jnsgd1na2vs0mg"},{"bike_id":"84ead252-bc67-4774-af9c-e5bb90d7c166","system_id":"levelo_inurba_marseille","lat":43.2919,"lon":5.39335,"is_reserved":false,"is_disabled":true,"rental_uris":{"android":"levelo://app?vid=84ead252-bc67-4774-af9c-e5bb90d7c166","ios":"levelo://app?vid=84ead252-bc67-4774-af9c-e5bb90d7c166"},"vehicle_type_id":"4","last_reported":1784364038,"current_range_meters":0,"station_id":"ce4bh192rcd13ifvqdd0","pricing_plan_id":"cebpf4jnsgd1na2vs0mg"},{"bike_id":"2623e023-e953-40ac-8068-15d2169ca99d","system_id":"levelo_inurba_marseille","lat":43.28708,"lon":5.46693,"is_reserved":false,"is_disabled":false,"rental_uris":{"android":"levelo://app?vid=2623e023-e953-40ac-8068-15d2169ca99d","ios":"levelo://app?vid=2623e023-e953-40ac-8068-15d2169ca99d"},"vehicle_type_id":"4","last_reported":1784364038,"current_range_meters":39200,"station_id":"st_d6tc3vkotcvc738tfjhg","pricing_plan_id":"cebpf4jnsgd1na2vs0mg"},{"bike_id":"56fb38db-f462-43c2-a4b5-d85da9158486","system_id":"levelo_inurba_marseille","lat":43.26213,"lon":5.38789,"is_reserved":false,"is_disabled":false,"rental_uris":{"android":"levelo://app?vid=56fb38db-f462-43c2-a4b5-d85da9158486","ios":"levelo://app?vid=56fb38db-f462-43c2-a4b5-d85da9158486"},"vehicle_type_id":"4","last_reported":1784364038,"current_range_meters":39200,"station_id":"st_d8gjfg747rts73coq3b0","pricing_plan_id":"cebpf4jnsgd1na2vs0mg"},{"bike_id":"9d27f3aa-b353-4a7a-a0fa-132f296bb47c","system_id":"levelo_inurba_marseille","lat":43.21744,"lon":5.34607,"is_reserved":false,"is_disabled":false,"rental_uris":{"android":"levelo://app?vid=9d27f3aa-b353-4a7a-a0fa-132f296bb47c","ios":"levelo://app?vid=9d27f3aa-b353-4a7a-a0fa-132f296bb47c"},"vehicle_type_id":"4","last_reported":1784364038,"current_range_meters":4800,"station_id":"st_cvj6r9ubvosntc0bgbag","pricing_plan_id":"cebpf4jnsgd1na2vs0mg"},{"bike_id":"94725203-526f-4363-8a82-d5f8270101b2","system_id":"levelo_inurba_marseille","lat":43.32369,"lon":5.38887,"is_reserved":false,"is_disabled":false,"rental_uris":{"android":"levelo://app?vid=94725203-526f-4363-8a82-d5f8270101b2","ios":"levelo://app?vid=94725203-526f-4363-8a82-d5f8270101b2"},"vehicle_type_id":"4","last_reported":1784364038,"current_range_meters":36800,"station_id":"ce4bhqp2rcd13ifvqhog","pricing_plan_id":"cebpf4jnsgd1na2vs0mg"},{"bike_id":"a936b31a-a63c-40f2-ab57-c88b1e1badff","system_id":"levelo_inurba_marseille","lat":43.2837,"lon":5.38615,"is_reserved":false,"is_disabled":false,"rental_uris":{"android":"levelo://app?vid=a936b31a-a63c-40f2-ab57-c88b1e1badff","ios":"levelo://app?vid=a936b31a-a63c-40f2-ab57-c88b1e1badff"},"vehicle_type_id":"4","last_reported":1784364038,"current_range_meters":24000,"station_id":"ce4bh492rcd13ifvqdvg","pricing_plan_id":"cebpf4jnsgd1na2vs0mg"},{"bike_id":"2f7cbaa2-22fa-465d-9d49-121484368dc9","system_id":"levelo_inurba_marseille","lat":43.2767,"lon":5.38852,"is_reserved":false,"is_disabled":false,"rental_uris":{"android":"levelo://app?vid=2f7cbaa2-22fa-465d-9d49-121484368dc9","ios":"levelo://app?vid=2f7cbaa2-22fa-465d-9d49-121484368dc9"},"vehicle_type_id":"4","last_reported":1784364038,"current_range_meters":19600,"station_id":"ce4bhi12rcd13ifvqfo0","pricing_plan_id":"cebpf4jnsgd1na2vs0mg"},{"bike_id":"1186a198-3294-48ea-a0f4-7064e53e0e29","system_id":"levelo_inurba_marseille","lat":43.29884,"lon":5.39732,"is_reserved":false,"is_disabled":false,"rental_uris":{"android":"levelo://app?vid=1186a198-3294-48ea-a0f4-7064e53e0e29","ios":"levelo://app?vid=1186a198-3294-48ea-a0f4-7064e53e0e29"},"vehicle_type_id":"4","last_reported":1784364038,"current_range_meters":39200,"station_id":"ce4bh0h2rcd13ifvqd50","pricing_plan_id":"cebpf4jnsgd1na2vs0mg"},{"bike_id":"93851e2e-1860-453a-afe6-7973af62250a","system_id":"levelo_inurba_marseille","lat":43.31694,"lon":5.40455,"is_reserved":false,"is_disabled":false,"rental_uris":{"android":"levelo://app?vid=93851e2e-1860-453a-afe6-7973af62250a","ios":"levelo://app?vid=93851e2e-1860-453a-afe6-7973af62250a"},"vehicle_type_id":"4","last_reported":1784364038,"current_range_meters":23200,"station_id":"ce4bh012rcd13ifvqd00","pricing_plan_id":"cebpf4jnsgd1na2vs0mg"},{"bike_id":"863d0357-9100-4091-8be6-61d932e4e898","system_id":"levelo_inurba_marseille","lat":43.33756,"lon":5.37458,"is_reserved":false,"is_disabled":false,"rental_uris":{"android":"levelo://app?vid=863d0357-9100-4091-8be6-61d932e4e898","ios":"levelo://app?vid=863d0357-9100-4091-8be6-61d932e4e898"},"vehicle_type_id":"4","last_reported":1784364038,"current_range_meters":38000,"station_id":"","pricing_plan_id":"cebpf4jnsgd1na2vs0mg"},{"bike_id":"0d249168-c1b9-4fc1-a9ca-ee81dcabf286","system_id":"levelo_inurba_marseille","lat":43.30831,"lon":5.40428,"is_reserved":false,"is_disabled":false,"rental_uris":{"android":"levelo://app?vid=0d249168-c1b9-4fc1-a9ca-ee81dcabf286","ios":"levelo://app?vid=0d249168-c1b9-4fc1-a9ca-ee81dcabf286"},"vehicle_type_id":"4","last_reported":1784364038,"current_range_meters":12400,"station_id":"","pricing_plan_id":"cebpf4jnsgd1na2vs0mg"},{"bike_id":"bdf59b6f-0e01-4557-bfa9-85d2f59f3195","system_id":"levelo_inurba_marseille","lat":43.27826,"lon":5.39216,"is_reserved":false,"is_disabled":false,"rental_uris":{"android":"levelo://app?vid=bdf59b6f-0e01-4557-bfa9-85d2f59f3195","ios":"levelo://app?vid=bdf59b6f-0e01-4557-bfa9-85d2f59f3195"},"vehicle_type_id":"4","last_reported":1784364038,"current_range_meters":28800,"station_id":"ce4bhjp2rcd13ifvqga0","pricing_plan_id":"cebpf4jnsgd1na2vs0mg"},{"bike_id":"f203cb94-bfec-43a3-8c30-4b667f462c6c","system_id":"levelo_inurba_marseille","lat":43.29028,"lon":5.38643,"is_reserved":false,"is_disabled":false,"rental_uris":{"android":"levelo://app?vid=f203cb94-bfec-43a3-8c30-4b667f462c6c","ios":"levelo://app?vid=f203cb94-bfec-43a3-8c30-4b667f462c6c"},"vehicle_type_id":"4","last_reported":1784364038,"current_range_meters":39200,"station_id":"ce4bh4p2rcd13ifvqe0g","pricing_plan_id":"cebpf4jnsgd1na2vs0mg"},{"bike_id":"81618b52-d3f7-4a72-b5e9-08cf6daea0dd","system_id":"levelo_inurba_marseille","lat":43.28149,"lon":5.42644,"is_reserved":false,"is_disabled":false,"rental_uris":{"android":"levelo://app?vid=81618b52-d3f7-4a72-b5e9-08cf6daea0dd","ios":"levelo://app?vid=81618b52-d3f7-4a72-b5e9-08cf6daea0dd"},"vehicle_type_id":"4","last_reported":1784364038,"current_range_meters":28800,"station_id":"ce4bhnh2rcd13ifvqgug","pricing_plan_id":"cebpf4jnsgd1na2vs0mg"},{"bike_id":"2b835e9d-8b5f-4d01-bcda-0d0bd35b4da2","system_id":"levelo_inurba_marseille","lat":43.29267,"lon":5.4014,"is_reserved":false,"is_disabled":false,"rental_uris":{"android":"levelo://app?vid=2b835e9d-8b5f-4d01-bcda-0d0bd35b4da2","ios":"levelo://app?vid=2b835e9d-8b5f-4d01-bcda-0d0bd35b4da2"},"vehicle_type_id":"4","last_reported":1784364038,"current_range_meters":18000,"station_id":"ce4bh312rcd13ifvqdk0","pricing_plan_id":"cebpf4jnsgd1na2vs0mg"},{"bike_id":"8ba7f2d6-52d3-4c56-b19a-19a142e62779","system_id":"levelo_inurba_marseille","lat":43.24065,"lon":5.37742,"is_reserved":false,"is_disabled":false,"rental_uris":{"android":"levelo://app?vid=8ba7f2d6-52d3-4c56-b19a-19a142e62779","ios":"levelo://app?vid=8ba7f2d6-52d3-4c56-b19a-19a142e62779"},"vehicle_type_id":"4","last_reported":1784364038,"current_range_meters":13600,"station_id":"ce4bhnp2rcd13ifvqgvg","pricing_plan_id":"cebpf4jnsgd1na2vs0mg"},{"bike_id":"83430c1a-b44e-4fb6-9f9c-fdb69c2d228c","system_id":"levelo_inurba_marseille","lat":43.26059,"lon":5.3939,"is_reserved":false,"is_disabled":false,"rental_uris":{"android":"levelo://app?vid=83430c1a-b44e-4fb6-9f9c-fdb69c2d228c","ios":"levelo://app?vid=83430c1a-b44e-4fb6-9f9c-fdb69c2d228c"},"vehicle_type_id":"4","last_reported":1784364038,"current_range_meters":38400,"station_id":"ce4bhh92rcd13ifvqfj0","pricing_plan_id":"cebpf4jnsgd1na2vs0mg"},{"bike_id":"66afdf81-3bfc-4f74-a2b5-978630e17649","system_id":"levelo_inurba_marseille","lat":43.27909,"lon":5.37292,"is_reserved":false,"is_disabled":false,"rental_uris":{"android":"levelo://app?vid=66afdf81-3bfc-4f74-a2b5-978630e17649","ios":"levelo://app?vid=66afdf81-3bfc-4f74-a2b5-978630e17649"},"vehicle_type_id":"4","last_reported":1784364038,"current_range_meters":28800,"station_id":"","pricing_plan_id":"cebpf4jnsgd1na2vs0mg"},{"bike_id":"53928218-999a-48ca-b2d1-7324d934346c","system_id":"levelo_inurba_marseille","lat":43.33757,"lon":5.37438,"is_reserved":false,"is_disabled":false,"rental_uris":{"android":"levelo://app?vid=53928218-999a-48ca-b2d1-7324d934346c","ios":"levelo://app?vid=53928218-999a-48ca-b2d1-7324d934346c"},"vehicle_type_id":"4","last_reported":1784364038,"current_range_meters":37600,"station_id":"","pricing_plan_id":"cebpf4jnsgd1na2vs0mg"},{"bike_id":"76e3bce2-8f77-4d68-ac9e-17097d49b6b6","system_id":"levelo_inurba_marseille","lat":43.293,"lon":5.36811,"is_reserved":false,"is_disabled":false,"rental_uris":{"android":"levelo://app?vid=76e3bce2-8f77-4d68-ac9e-17097d49b6b6","ios":"levelo://app?vid=76e3bce2-8f77-4d68-ac9e-17097d49b6b6"},"vehicle_type_id":"4","last_reported":1784364038,"current_range_meters":18000,"station_id":"","pricing_plan_id":"cebpf4jnsgd1na2vs0mg"},{"bike_id":"5a44f8da-244e-4b4d-84d5-1cd07fac4647","system_id":"levelo_inurba_marseille","lat":43.30888,"lon":5.37225,"is_reserved":false,"is_disabled":false,"rental_uris":{"android":"levelo://app?vid=5a44f8da-244e-4b4d-84d5-1cd07fac4647","ios":"levelo://app?vid=5a44f8da-244e-4b4d-84d5-1cd07fac4647"},"vehicle_type_id":"4","last_reported":1784364038,"current_range_meters":39200,"station_id":"ce4bguh2rcd13ifvqckg","pricing_plan_id":"cebpf4jnsgd1na2vs0mg"},{"bike_id":"0745e1a5-4ec6-478c-82af-889c4913c84e","system_id":"levelo_inurba_marseille","lat":43.29315,"lon":5.37462,"is_reserved":false,"is_disabled":false,"rental_uris":{"android":"levelo://app?vid=0745e1a5-4ec6-478c-82af-889c4913c84e","ios":"levelo://app?vid=0745e1a5-4ec6-478c-82af-889c4913c84e"},"vehicle_type_id":"4","last_reported":1784364038,"current_range_meters":16800,"station_id":"","pricing_plan_id":"cebpf4jnsgd1na2vs0mg"},{"bike_id":"44d3a8d6-3284-432a-8031-eb6a62573e80","system_id":"levelo_inurba_marseille","lat":43.30533,"lon":5.4007,"is_reserved":false,"is_disabled":false,"rental_uris":{"android":"levelo://app?vid=44d3a8d6-3284-432a-8031-eb6a62573e80","ios":"levelo://app?vid=44d3a8d6-3284-432a-8031-eb6a62573e80"},"vehicle_type_id":"4","last_reported":1784364038,"current_range_meters":31200,"station_id":"","pricing_plan_id":"cebpf4jnsgd1na2vs0mg"},{"bike_id":"e9700518-bfab-4e19-9c8e-e3cb6414cf72","system_id":"levelo_inurba_marseille","lat":43.29197,"lon":5.35792,"is_reserved":false,"is_disabled":true,"rental_uris":{"android":"levelo://app?vid=e9700518-bfab-4e19-9c8e-e3cb6414cf72","ios":"levelo://app?vid=e9700518-bfab-4e19-9c8e-e3cb6414cf72"},"vehicle_type_id":"4","last_reported":1784364038,"current_range_meters":8800,"station_id":"ce4bhb12rcd13ifvqel0","pricing_plan_id":"cebpf4jnsgd1na2vs0mg"},{"bike_id":"6e2fa25e-c4e4-473c-b5d3-3e0f51dcc142","system_id":"levelo_inurba_marseille","lat":43.29789,"lon":5.38111,"is_reserved":false,"is_disabled":true,"rental_uris":{"android":"levelo://app?vid=6e2fa25e-c4e4-473c-b5d3-3e0f51dcc142","ios":"levelo://app?vid=6e2fa25e-c4e4-473c-b5d3-3e0f51dcc142"},"vehicle_type_id":"4","last_reported":1784364038,"current_range_meters":32800,"station_id":"ce4bgip2rcd13ifvqbb0","pricing_plan_id":"cebpf4jnsgd1na2vs0mg"},{"bike_id":"46c733fe-8354-4cba-9d79-a462103814c5","system_id":"levelo_inurba_marseille","lat":43.29889,"lon":5.3974,"is_reserved":false,"is_disabled":false,"rental_uris":{"android":"levelo://app?vid=46c733fe-8354-4cba-9d79-a462103814c5","ios":"levelo://app?vid=46c733fe-8354-4cba-9d79-a462103814c5"},"vehicle_type_id":"4","last_reported":1784364038,"current_range_meters":18000,"station_id":"ce4bh0h2rcd13ifvqd50","pricing_plan_id":"cebpf4jnsgd1na2vs0mg"},{"bike_id":"c552b414-4f18-4dab-a6be-0c646338c3d2","system_id":"levelo_inurba_marseille","lat":43.30112,"lon":5.38088,"is_reserved":false,"is_disabled":false,"rental_uris":{"android":"levelo://app?vid=c552b414-4f18-4dab-a6be-0c646338c3d2","ios":"levelo://app?vid=c552b414-4f18-4dab-a6be-0c646338c3d2"},"vehicle_type_id":"4","last_reported":1784364038,"current_range_meters":22800,"station_id":"ce4bgjp2rcd13ifvqbh0","pricing_plan_id":"cebpf4jnsgd1na2vs0mg"},{"bike_id":"a81292ae-78ed-490e-b729-e711a9e5dcc6","system_id":"levelo_inurba_marseille","lat":43.30212,"lon":5.39454,"is_reserved":false,"is_disabled":false,"rental_uris":{"android":"levelo://app?vid=a81292ae-78ed-490e-b729-e711a9e5dcc6","ios":"levelo://app?vid=a81292ae-78ed-490e-b729-e711a9e5dcc6"},"vehicle_type_id":"4","last_reported":1784364038,"current_range_meters":34800,"station_id":"ce4bh0p2rcd13ifvqd70","pricing_plan_id":"cebpf4jnsgd1na2vs0mg"},{"bike_id":"952c2dc6-e0b0-4307-9362-67e9489287e5","system_id":"levelo_inurba_marseille","lat":43.30648,"lon":5.40085,"is_reserved":false,"is_disabled":false,"rental_uris":{"android":"levelo://app?vid=952c2dc6-e0b0-4307-9362-67e9489287e5","ios":"levelo://app?vid=952c2dc6-e0b0-4307-9362-67e9489287e5"},"vehicle_type_id":"4","last_reported":1784364038,"current_range_meters":28000,"station_id":"ce4bh112rcd13ifvqda0","pricing_plan_id":"cebpf4jnsgd1na2vs0mg"},{"bike_id":"7e62a1e7-e43e-4c6d-97fe-eb42228edf6d","system_id":"levelo_inurba_marseille","lat":43.26506,"lon":5.3939,"is_reserved":false,"is_disabled":false,"rental_uris":{"android":"levelo://app?vid=7e62a1e7-e43e-4c6d-97fe-eb42228edf6d","ios":"levelo://app?vid=7e62a1e7-e43e-4c6d-97fe-eb42228edf6d"},"vehicle_type_id":"4","last_reported":1784364038,"current_range_meters":10000,"station_id":"","pricing_plan_id":"cebpf4jnsgd1na2vs0mg"},{"bike_id":"e49b4c02-985d-4408-adff-c2d8f7ee3ac1","system_id":"levelo_inurba_marseille","lat":43.28409,"lon":5.37511,"is_reserved":false,"is_disabled":false,"rental_uris":{"android":"levelo://app?vid=e49b4c02-985d-4408-adff-c2d8f7ee3ac1","ios":"levelo://app?vid=e49b4c02-985d-4408-adff-c2d8f7ee3ac1"},"vehicle_type_id":"4","last_reported":1784364038,"current_range_meters":37600,"station_id":"ce4bh412rcd13ifvqds0","pricing_plan_id":"cebpf4jnsgd1na2vs0mg"},{"bike_id":"4055bf55-0ca0-4226-9c1a-f628e7fa1640","system_id":"levelo_inurba_marseille","lat":43.2675,"lon":5.39415,"is_reserved":false,"is_disabled":false,"rental_uris":{"android":"levelo://app?vid=4055bf55-0ca0-4226-9c1a-f628e7fa1640","ios":"levelo://app?vid=4055bf55-0ca0-4226-9c1a-f628e7fa1640"},"vehicle_type_id":"4","last_reported":1784364038,"current_range_meters":38000,"station_id":"","pricing_plan_id":"cebpf4jnsgd1na2vs0mg"},{"bike_id":"527633c5-d392-43fd-b9b0-1c912033f447","system_id":"levelo_inurba_marseille","lat":43.30423,"lon":5.39745,"is_reserved":false,"is_disabled":false,"rental_uris":{"android":"levelo://app?vid=527633c5-d392-43fd-b9b0-1c912033f447","ios":"levelo://app?vid=527633c5-d392-43fd-b9b0-1c912033f447"},"vehicle_type_id":"4","last_reported":1784364038,"current_range_meters":36000,"station_id":"ce4bh092rcd13ifvqd20","pricing_plan_id":"cebpf4jnsgd1na2vs0mg"},{"bike_id":"e66afdcb-3787-4fbb-95bd-c9f6eb01dbd4","system_id":"levelo_inurba_marseille","lat":43.2919,"lon":5.38032,"is_reserved":false,"is_disabled":false,"rental_uris":{"android":"levelo://app?vid=e66afdcb-3787-4fbb-95bd-c9f6eb01dbd4","ios":"levelo://app?vid=e66afdcb-3787-4fbb-95bd-c9f6eb01dbd4"},"vehicle_type_id":"4","last_reported":1784364038,"current_range_meters":32000,"station_id":"","pricing_plan_id":"cebpf4jnsgd1na2vs0mg"},{"bike_id":"e6332d25-d971-4b9d-88be-ed2e77a0c3b4","system_id":"levelo_inurba_marseille","lat":43.2969,"lon":5.37705,"is_reserved":false,"is_disabled":false,"rental_uris":{"android":"levelo://app?vid=e6332d25-d971-4b9d-88be-ed2e77a0c3b4","ios":"levelo://app?vid=e6332d25-d971-4b9d-88be-ed2e77a0c3b4"},"vehicle_type_id":"4","last_reported":1784364038,"current_range_meters":28800,"station_id":"ce4bgkh2rcd13ifvqbl0","pricing_plan_id":"cebpf4jnsgd1na2vs0mg"},{"bike_id":"81587832-75ed-49cd-91c3-f57f9b8cec45","system_id":"levelo_inurba_marseille","lat":43.29029,"lon":5.35908,"is_reserved":false,"is_disabled":true,"rental_uris":{"android":"levelo://app?vid=81587832-75ed-49cd-91c3-f57f9b8cec45","ios":"levelo://app?vid=81587832-75ed-49cd-91c3-f57f9b8cec45"},"vehicle_type_id":"4","last_reported":1784364038,"current_range_meters":8400,"station_id":"ce4bha92rcd13ifvqeg0","pricing_plan_id":"cebpf4jnsgd1na2vs0mg"},{"bike_id":"55d6ed8f-d5b0-4e58-9b46-38f921e25f99","system_id":"levelo_inurba_marseille","lat":43.3112,"lon":5.37759,"is_reserved":false,"is_disabled":false,"rental_uris":{"android":"levelo://app?vid=55d6ed8f-d5b0-4e58-9b46-38f921e25f99","ios":"levelo://app?vid=55d6ed8f-d5b0-4e58-9b46-38f921e25f99"},"vehicle_type_id":"4","last_reported":1784364038,"current_range_meters":12000,"station_id":"ce4bgt92rcd13ifvqcg0","pricing_plan_id":"cebpf4jnsgd1na2vs0mg"},{"bike_id":"db92389d-aee6-4fb2-8a90-fe345912ce84","system_id":"levelo_inurba_marseille","lat":43.28691,"lon":5.39997,"is_reserved":false,"is_disabled":false,"rental_uris":{"android":"levelo://app?vid=db92389d-aee6-4fb2-8a90-fe345912ce84","ios":"levelo://app?vid=db92389d-aee6-4fb2-8a90-fe345912ce84"},"vehicle_type_id":"4","last_reported":1784364038,"current_range_meters":38000,"station_id":"ce4bho92rcd13ifvqh3g","pricing_plan_id":"cebpf4jnsgd1na2vs0mg"},{"bike_id":"9bf98e17-a381-41de-875c-61a7b7a9de43","system_id":"levelo_inurba_marseille","lat":43.23381,"lon":5.41243,"is_reserved":false,"is_disabled":false,"rental_uris":{"android":"levelo://app?vid=9bf98e17-a381-41de-875c-61a7b7a9de43","ios":"levelo://app?vid=9bf98e17-a381-41de-875c-61a7b7a9de43"},"vehicle_type_id":"4","last_reported":1784364038,"current_range_meters":39200,"station_id":"st_d75pvndhf9lc73cqq3eg","pricing_plan_id":"cebpf4jnsgd1na2vs0mg"},{"bike_id":"3012f589-fc1a-402d-9cd0-f1af0553fb4f","system_id":"levelo_inurba_marseille","lat":43.27203,"lon":5.39183,"is_reserved":false,"is_disabled":false,"rental_uris":{"android":"levelo://app?vid=3012f589-fc1a-402d-9cd0-f1af0553fb4f","ios":"levelo://app?vid=3012f589-fc1a-402d-9cd0-f1af0553fb4f"},"vehicle_type_id":"4","last_reported":1784364038,"current_range_meters":8400,"station_id":"ce4bhhp2rcd13ifvqfm0","pricing_plan_id":"cebpf4jnsgd1na2vs0mg"},{"bike_id":"bf15cf4e-e63d-4c65-b475-3ac76d3ea0a9","system_id":"levelo_inurba_marseille","lat":43.29367,"lon":5.37834,"is_reserved":false,"is_disabled":false,"rental_uris":{"android":"levelo://app?vid=bf15cf4e-e63d-4c65-b475-3ac76d3ea0a9","ios":"levelo://app?vid=bf15cf4e-e63d-4c65-b475-3ac76d3ea0a9"},"vehicle_type_id":"4","last_reported":1784364038,"current_range_meters":17200,"station_id":"ce4bgjh2rcd13ifvqbf0","pricing_plan_id":"cebpf4jnsgd1na2vs0mg"},{"bike_id":"e363b584-92a2-4c61-adfd-371a2577000d","system_id":"levelo_inurba_marseille","lat":43.29909,"lon":5.43644,"is_reserved":false,"is_disabled":false,"rental_uris":{"android":"levelo://app?vid=e363b584-92a2-4c61-adfd-371a2577000d","ios":"levelo://app?vid=e363b584-92a2-4c61-adfd-371a2577000d"},"vehicle_type_id":"4","last_reported":1784364038,"current_range_meters":39200,"station_id":"ce4bhpp2rcd13ifvqhfg","pricing_plan_id":"cebpf4jnsgd1na2vs0mg"},{"bike_id":"d528f918-768e-42e1-8260-5f600f64480c","system_id":"levelo_inurba_marseille","lat":43.26053,"lon":5.39402,"is_reserved":false,"is_disabled":false,"rental_uris":{"android":"levelo://app?vid=d528f918-768e-42e1-8260-5f600f64480c","ios":"levelo://app?vid=d528f918-768e-42e1-8260-5f600f64480c"},"vehicle_type_id":"4","last_reported":1784364038,"current_range_meters":26000,"station_id":"ce4bhh92rcd13ifvqfj0","pricing_plan_id":"cebpf4jnsgd1na2vs0mg"},{"bike_id":"1738dc9c-1133-48f6-bf1e-5749d0da4495","system_id":"levelo_inurba_marseille","lat":43.29217,"lon":5.36153,"is_reserved":false,"is_disabled":false,"rental_uris":{"android":"levelo://app?vid=1738dc9c-1133-48f6-bf1e-5749d0da4495","ios":"levelo://app?vid=1738dc9c-1133-48f6-bf1e-5749d0da4495"},"vehicle_type_id":"4","last_reported":1784364038,"current_range_meters":28400,"station_id":"","pricing_plan_id":"cebpf4jnsgd1na2vs0mg"},{"bike_id":"794b5a6c-758b-4682-b74a-ce7d0ca679c3","system_id":"levelo_inurba_marseille","lat":43.29962,"lon":5.41316,"is_reserved":false,"is_disabled":false,"rental_uris":{"android":"levelo://app?vid=794b5a6c-758b-4682-b74a-ce7d0ca679c3","ios":"levelo://app?vid=794b5a6c-758b-4682-b74a-ce7d0ca679c3"},"vehicle_type_id":"4","last_reported":1784364038,"current_range_meters":38400,"station_id":"ce4bhp12rcd13ifvqh9g","pricing_plan_id":"cebpf4jnsgd1na2vs0mg"},{"bike_id":"7ff8118f-6c81-4cdf-8a1d-4753d954065d","system_id":"levelo_inurba_marseille","lat":43.29603,"lon":5.37961,"is_reserved":false,"is_disabled":false,"rental_uris":{"android":"levelo://app?vid=7ff8118f-6c81-4cdf-8a1d-4753d954065d","ios":"levelo://app?vid=7ff8118f-6c81-4cdf-8a1d-4753d954065d"},"vehicle_type_id":"4","last_reported":1784364038,"current_range_meters":8000,"station_id":"","pricing_plan_id":"cebpf4jnsgd1na2vs0mg"},{"bike_id":"a501a1b7-3f91-4838-9e84-0bed51ba6393","system_id":"levelo_inurba_marseille","lat":43.31123,"lon":5.37762,"is_reserved":false,"is_disabled":false,"rental_uris":{"android":"levelo://app?vid=a501a1b7-3f91-4838-9e84-0bed51ba6393","ios":"levelo://app?vid=a501a1b7-3f91-4838-9e84-0bed51ba6393"},"vehicle_type_id":"4","last_reported":1784364038,"current_range_meters":8000,"station_id":"ce4bgt92rcd13ifvqcg0","pricing_plan_id":"cebpf4jnsgd1na2vs0mg"},{"bike_id":"0efa47ee-d0bf-416e-82f3-4055cb3fadd2","system_id":"levelo_inurba_marseille","lat":43.24803,"lon":5.37453,"is_reserved":false,"is_disabled":false,"rental_uris":{"android":"levelo://app?vid=0efa47ee-d0bf-416e-82f3-4055cb3fadd2","ios":"levelo://app?vid=0efa47ee-d0bf-416e-82f3-4055cb3fadd2"},"vehicle_type_id":"4","last_reported":1784364038,"current_range_meters":3200,"station_id":"ce4bhgh2rcd13ifvqfb0","pricing_plan_id":"cebpf4jnsgd1na2vs0mg"},{"bike_id":"25a94663-ca29-4aea-b736-903685dbeed5","system_id":"levelo_inurba_marseille","lat":43.23957,"lon":5.36634,"is_reserved":false,"is_disabled":false,"rental_uris":{"android":"levelo://app?vid=25a94663-ca29-4aea-b736-903685dbeed5","ios":"levelo://app?vid=25a94663-ca29-4aea-b736-903685dbeed5"},"vehicle_type_id":"4","last_reported":1784364038,"current_range_meters":39200,"station_id":"ce4bhi12rcd13ifvqfp0","pricing_plan_id":"cebpf4jnsgd1na2vs0mg"},{"bike_id":"c7c7135d-74a6-4d91-a6ec-ce1bff85e445","system_id":"levelo_inurba_marseille","lat":43.28507,"lon":5.38564,"is_reserved":false,"is_disabled":false,"rental_uris":{"android":"levelo://app?vid=c7c7135d-74a6-4d91-a6ec-ce1bff85e445","ios":"levelo://app?vid=c7c7135d-74a6-4d91-a6ec-ce1bff85e445"},"vehicle_type_id":"4","last_reported":1784364038,"current_range_meters":13600,"station_id":"ce4bh8p2rcd13ifvqeb0","pricing_plan_id":"cebpf4jnsgd1na2vs0mg"},{"bike_id":"03ba1534-a569-462d-8337-248860daa518","system_id":"levelo_inurba_marseille","lat":43.30156,"lon":5.38089,"is_reserved":false,"is_disabled":false,"rental_uris":{"android":"levelo://app?vid=03ba1534-a569-462d-8337-248860daa518","ios":"levelo://app?vid=03ba1534-a569-462d-8337-248860daa518"},"vehicle_type_id":"4","last_reported":1784364038,"current_range_meters":30000,"station_id":"ce4bgjp2rcd13ifvqbh0","pricing_plan_id":"cebpf4jnsgd1na2vs0mg"},{"bike_id":"1de5753c-f77d-4a34-b134-58bee8bc010c","system_id":"levelo_inurba_marseille","lat":43.26546,"lon":5.37309,"is_reserved":false,"is_disabled":true,"rental_uris":{"android":"levelo://app?vid=1de5753c-f77d-4a34-b134-58bee8bc010c","ios":"levelo://app?vid=1de5753c-f77d-4a34-b134-58bee8bc010c"},"vehicle_type_id":"4","last_reported":1784364038,"current_range_meters":22000,"station_id":"ce4bhg12rcd13ifvqf70","pricing_plan_id":"cebpf4jnsgd1na2vs0mg"},{"bike_id":"da067ce4-405c-4f9f-9f7d-ddafabe07226","system_id":"levelo_inurba_marseille","lat":43.31485,"lon":5.37287,"is_reserved":false,"is_disabled":false,"rental_uris":{"android":"levelo://app?vid=da067ce4-405c-4f9f-9f7d-ddafabe07226","ios":"levelo://app?vid=da067ce4-405c-4f9f-9f7d-ddafabe07226"},"vehicle_type_id":"4","last_reported":1784364038,"current_range_meters":39200,"station_id":"ce4bgt12rcd13ifvqcd0","pricing_plan_id":"cebpf4jnsgd1na2vs0mg"},{"bike_id":"d53fb603-8605-4878-bdd5-2b7354009258","system_id":"levelo_inurba_marseille","lat":43.29622,"lon":5.40587,"is_reserved":false,"is_disabled":false,"rental_uris":{"android":"levelo://app?vid=d53fb603-8605-4878-bdd5-2b7354009258","ios":"levelo://app?vid=d53fb603-8605-4878-bdd5-2b7354009258"},"vehicle_type_id":"4","last_reported":1784364038,"current_range_meters":40000,"station_id":"ce4bh0h2rcd13ifvqd60","pricing_plan_id":"cebpf4jnsgd1na2vs0mg"},{"bike_id":"abd565de-ba0b-4d35-aaea-cd97fd7a69a8","system_id":"levelo_inurba_marseille","lat":43.29694,"lon":5.37294,"is_reserved":false,"is_disabled":false,"rental_uris":{"android":"levelo://app?vid=abd565de-ba0b-4d35-aaea-cd97fd7a69a8","ios":"levelo://app?vid=abd565de-ba0b-4d35-aaea-cd97fd7a69a8"},"vehicle_type_id":"4","last_reported":1784364038,"current_range_meters":38000,"station_id":"ce4bgk12rcd13ifvqbj0","pricing_plan_id":"cebpf4jnsgd1na2vs0mg"},{"bike_id":"70b4266b-6f2a-4bb7-934f-a2a2bf37b44f","system_id":"levelo_inurba_marseille","lat":43.25129,"lon":5.40349,"is_reserved":false,"is_disabled":true,"rental_uris":{"android":"levelo://app?vid=70b4266b-6f2a-4bb7-934f-a2a2bf37b44f","ios":"levelo://app?vid=70b4266b-6f2a-4bb7-934f-a2a2bf37b44f"},"vehicle_type_id":"4","last_reported":1784364038,"current_range_meters":38000,"station_id":"ce4bhlh2rcd13ifvqgig","pricing_plan_id":"cebpf4jnsgd1na2vs0mg"},{"bike_id":"4edc4148-d9b7-4b9d-9714-ef6d71a21c97","system_id":"levelo_inurba_marseille","lat":43.32286,"lon":5.38265,"is_reserved":false,"is_disabled":false,"rental_uris":{"android":"levelo://app?vid=4edc4148-d9b7-4b9d-9714-ef6d71a21c97","ios":"levelo://app?vid=4edc4148-d9b7-4b9d-9714-ef6d71a21c97"},"vehicle_type_id":"4","last_reported":1784364038,"current_range_meters":38400,"station_id":"ce4bhr12rcd13ifvqhqg","pricing_plan_id":"cebpf4jnsgd1na2vs0mg"},{"bike_id":"ae5a0ed2-8aa5-425b-99f6-2aee209ee161","system_id":"levelo_inurba_marseille","lat":43.29192,"lon":5.35804,"is_reserved":false,"is_disabled":false,"rental_uris":{"android":"levelo://app?vid=ae5a0ed2-8aa5-425b-99f6-2aee209ee161","ios":"levelo://app?vid=ae5a0ed2-8aa5-425b-99f6-2aee209ee161"},"vehicle_type_id":"4","last_reported":1784364038,"current_range_meters":15200,"station_id":"ce4bhb12rcd13ifvqel0","pricing_plan_id":"cebpf4jnsgd1na2vs0mg"},{"bike_id":"d7282232-c975-4a88-8978-14c4ed2ea27c","system_id":"levelo_inurba_marseille","lat":43.26949,"lon":5.38639,"is_reserved":false,"is_disabled":false,"rental_uris":{"android":"levelo://app?vid=d7282232-c975-4a88-8978-14c4ed2ea27c","ios":"levelo://app?vid=d7282232-c975-4a88-8978-14c4ed2ea27c"},"vehicle_type_id":"4","last_reported":1784364038,"current_range_meters":39200,"station_id":"ce4bhh92rcd13ifvqfh0","pricing_plan_id":"cebpf4jnsgd1na2vs0mg"},{"bike_id":"0f6ff1da-c9e3-42e7-a8d3-8280d1c0addc","system_id":"levelo_inurba_marseille","lat":43.33746,"lon":5.3749,"is_reserved":false,"is_disabled":false,"rental_uris":{"android":"levelo://app?vid=0f6ff1da-c9e3-42e7-a8d3-8280d1c0addc","ios":"levelo://app?vid=0f6ff1da-c9e3-42e7-a8d3-8280d1c0addc"},"vehicle_type_id":"4","last_reported":1784364038,"current_range_meters":31200,"station_id":"","pricing_plan_id":"cebpf4jnsgd1na2vs0mg"},{"bike_id":"1e628dec-3141-48e0-b510-1c285ab03f4c","system_id":"levelo_inurba_marseille","lat":43.26383,"lon":5.41065,"is_reserved":false,"is_disabled":false,"rental_uris":{"android":"levelo://app?vid=1e628dec-3141-48e0-b510-1c285ab03f4c","ios":"levelo://app?vid=1e628dec-3141-48e0-b510-1c285ab03f4c"},"vehicle_type_id":"4","last_reported":1784364038,"current_range_meters":38800,"station_id":"st_d4e5ca6na9uc73bfl5fg","pricing_plan_id":"cebpf4jnsgd1na2vs0mg"},{"bike_id":"8337f5b4-2806-4bc0-9f71-af183adb5db8","system_id":"levelo_inurba_marseille","lat":43.23822,"lon":5.43512,"is_reserved":false,"is_disabled":false,"rental_uris":{"android":"levelo://app?vid=8337f5b4-2806-4bc0-9f71-af183adb5db8","ios":"levelo://app?vid=8337f5b4-2806-4bc0-9f71-af183adb5db8"},"vehicle_type_id":"4","last_reported":1784364038,"current_range_meters":9200,"station_id":"","pricing_plan_id":"cebpf4jnsgd1na2vs0mg"},{"bike_id":"1d97b98d-7b1a-4d20-9542-c79ab1eb85b4","system_id":"levelo_inurba_marseille","lat":43.31871,"lon":5.36834,"is_reserved":false,"is_disabled":false,"rental_uris":{"android":"levelo://app?vid=1d97b98d-7b1a-4d20-9542-c79ab1eb85b4","ios":"levelo://app?vid=1d97b98d-7b1a-4d20-9542-c79ab1eb85b4"},"vehicle_type_id":"4","last_reported":1784364038,"current_range_meters":13600,"station_id":"st_d6o2h0d0559c73evc1b0","pricing_plan_id":"cebpf4jnsgd1na2vs0mg"},{"bike_id":"8234e4ba-c0cc-45bb-8dac-83745f25b6f7","system_id":"levelo_inurba_marseille","lat":43.32486,"lon":5.36557,"is_reserved":false,"is_disabled":false,"rental_uris":{"android":"levelo://app?vid=8234e4ba-c0cc-45bb-8dac-83745f25b6f7","ios":"levelo://app?vid=8234e4ba-c0cc-45bb-8dac-83745f25b6f7"},"vehicle_type_id":"4","last_reported":1784364038,"current_range_meters":27600,"station_id":"ce4bhs12rcd13ifvqhvg","pricing_plan_id":"cebpf4jnsgd1na2vs0mg"},{"bike_id":"ad193227-d210-4e9a-af26-3f25b41f58db","system_id":"levelo_inurba_marseille","lat":43.23885,"lon":5.37465,"is_reserved":false,"is_disabled":false,"rental_uris":{"android":"levelo://app?vid=ad193227-d210-4e9a-af26-3f25b41f58db","ios":"levelo://app?vid=ad193227-d210-4e9a-af26-3f25b41f58db"},"vehicle_type_id":"4","last_reported":1784364038,"current_range_meters":36800,"station_id":"st_d6sm7csbq4hs73f8fpjg","pricing_plan_id":"cebpf4jnsgd1na2vs0mg"},{"bike_id":"ee06a958-7f2b-4eb7-a6b1-2d3112db17a0","system_id":"levelo_inurba_marseille","lat":43.30895,"lon":5.37215,"is_reserved":false,"is_disabled":false,"rental_uris":{"android":"levelo://app?vid=ee06a958-7f2b-4eb7-a6b1-2d3112db17a0","ios":"levelo://app?vid=ee06a958-7f2b-4eb7-a6b1-2d3112db17a0"},"vehicle_type_id":"4","last_reported":1784364038,"current_range_meters":36800,"station_id":"ce4bguh2rcd13ifvqckg","pricing_plan_id":"cebpf4jnsgd1na2vs0mg"},{"bike_id":"57861aa2-3770-4cb0-9ca6-87fa36583c4f","system_id":"levelo_inurba_marseille","lat":43.31372,"lon":5.38509,"is_reserved":false,"is_disabled":false,"rental_uris":{"android":"levelo://app?vid=57861aa2-3770-4cb0-9ca6-87fa36583c4f","ios":"levelo://app?vid=57861aa2-3770-4cb0-9ca6-87fa36583c4f"},"vehicle_type_id":"4","last_reported":1784364038,"current_range_meters":39200,"station_id":"ce4bgt92rcd13ifvqcf0","pricing_plan_id":"cebpf4jnsgd1na2vs0mg"},{"bike_id":"07ddb268-6316-48e4-8615-e0947204cfcc","system_id":"levelo_inurba_marseille","lat":43.284545,"lon":5.358609,"is_reserved":false,"is_disabled":false,"rental_uris":{"android":"levelo://app?vid=07ddb268-6316-48e4-8615-e0947204cfcc","ios":"levelo://app?vid=07ddb268-6316-48e4-8615-e0947204cfcc"},"vehicle_type_id":"4","last_reported":1784364038,"current_range_meters":35200,"station_id":"ce4bhah2rcd13ifvqei0","pricing_plan_id":"cebpf4jnsgd1na2vs0mg"},{"bike_id":"f4a1091b-da1f-4203-87c5-5e199d6cf2d8","system_id":"levelo_inurba_marseille","lat":43.30708,"lon":5.42474,"is_reserved":false,"is_disabled":false,"rental_uris":{"android":"levelo://app?vid=f4a1091b-da1f-4203-87c5-5e199d6cf2d8","ios":"levelo://app?vid=f4a1091b-da1f-4203-87c5-5e199d6cf2d8"},"vehicle_type_id":"4","last_reported":1784364038,"current_range_meters":36000,"station_id":"st_cvj6ca6bvosntc0bfgr0","pricing_plan_id":"cebpf4jnsgd1na2vs0mg"},{"bike_id":"cbf3e626-f283-4d04-981c-be7995433ea8","system_id":"levelo_inurba_marseille","lat":43.29301,"lon":5.37168,"is_reserved":false,"is_disabled":false,"rental_uris":{"android":"levelo://app?vid=cbf3e626-f283-4d04-981c-be7995433ea8","ios":"levelo://app?vid=cbf3e626-f283-4d04-981c-be7995433ea8"},"vehicle_type_id":"4","last_reported":1784364038,"current_range_meters":22000,"station_id":"ce4bgh92rcd13ifvqb40","pricing_plan_id":"cebpf4jnsgd1na2vs0mg"},{"bike_id":"942148f9-90f2-4171-8f05-98ba0ca85bcb","system_id":"levelo_inurba_marseille","lat":43.28483,"lon":5.48417,"is_reserved":false,"is_disabled":false,"rental_uris":{"android":"levelo://app?vid=942148f9-90f2-4171-8f05-98ba0ca85bcb","ios":"levelo://app?vid=942148f9-90f2-4171-8f05-98ba0ca85bcb"},"vehicle_type_id":"4","last_reported":1784364038,"current_range_meters":6000,"station_id":"st_d3svhcjqgbts73a3dn0g","pricing_plan_id":"cebpf4jnsgd1na2vs0mg"},{"bike_id":"6a31666b-84d8-4f00-bcbe-35507b0b11ba","system_id":"levelo_inurba_marseille","lat":43.28479,"lon":5.35892,"is_reserved":false,"is_disabled":false,"rental_uris":{"android":"levelo://app?vid=6a31666b-84d8-4f00-bcbe-35507b0b11ba","ios":"levelo://app?vid=6a31666b-84d8-4f00-bcbe-35507b0b11ba"},"vehicle_type_id":"4","last_reported":1784364038,"current_range_meters":39200,"station_id":"ce4bhah2rcd13ifvqei0","pricing_plan_id":"cebpf4jnsgd1na2vs0mg"},{"bike_id":"b2b194ed-86a5-4dc8-b828-5b80e1681197","system_id":"levelo_inurba_marseille","lat":43.28542,"lon":5.44129,"is_reserved":false,"is_disabled":false,"rental_uris":{"android":"levelo://app?vid=b2b194ed-86a5-4dc8-b828-5b80e1681197","ios":"levelo://app?vid=b2b194ed-86a5-4dc8-b828-5b80e1681197"},"vehicle_type_id":"4","last_reported":1784364038,"current_range_meters":39200,"station_id":"st_d3j3df2ikq2c7380ej80","pricing_plan_id":"cebpf4jnsgd1na2vs0mg"},{"bike_id":"2a93def1-9840-4751-b465-b53bb0ce6123","system_id":"levelo_inurba_marseille","lat":43.22552,"lon":5.41634,"is_reserved":false,"is_disabled":false,"rental_uris":{"android":"levelo://app?vid=2a93def1-9840-4751-b465-b53bb0ce6123","ios":"levelo://app?vid=2a93def1-9840-4751-b465-b53bb0ce6123"},"vehicle_type_id":"4","last_reported":1784364038,"current_range_meters":12400,"station_id":"st_d2o4gvlbi1j2169b742g","pricing_plan_id":"cebpf4jnsgd1na2vs0mg"},{"bike_id":"edf2de48-0e02-4593-b7d3-e5418dcef451","system_id":"levelo_inurba_marseille","lat":43.3046,"lon":5.37903,"is_reserved":false,"is_disabled":false,"rental_uris":{"android":"levelo://app?vid=edf2de48-0e02-4593-b7d3-e5418dcef451","ios":"levelo://app?vid=edf2de48-0e02-4593-b7d3-e5418dcef451"},"vehicle_type_id":"4","last_reported":1784364038,"current_range_meters":27200,"station_id":"ce4bgup2rcd13ifvqcn0","pricing_plan_id":"cebpf4jnsgd1na2vs0mg"},{"bike_id":"d2b08bfe-8d05-4397-91e9-fe938a2b845f","system_id":"levelo_inurba_marseille","lat":43.27506,"lon":5.4242,"is_reserved":false,"is_disabled":false,"rental_uris":{"android":"levelo://app?vid=d2b08bfe-8d05-4397-91e9-fe938a2b845f","ios":"levelo://app?vid=d2b08bfe-8d05-4397-91e9-fe938a2b845f"},"vehicle_type_id":"4","last_reported":1784364038,"current_range_meters":32400,"station_id":"ce4bhn92rcd13ifvqgrg","pricing_plan_id":"cebpf4jnsgd1na2vs0mg"},{"bike_id":"23b107ce-b6cc-45b7-bbb8-6fc6a6cbc260","system_id":"levelo_inurba_marseille","lat":43.31751,"lon":5.39021,"is_reserved":false,"is_disabled":false,"rental_uris":{"android":"levelo://app?vid=23b107ce-b6cc-45b7-bbb8-6fc6a6cbc260","ios":"levelo://app?vid=23b107ce-b6cc-45b7-bbb8-6fc6a6cbc260"},"vehicle_type_id":"4","last_reported":1784364038,"current_range_meters":17200,"station_id":"ce4bhqp2rcd13ifvqhng","pricing_plan_id":"cebpf4jnsgd1na2vs0mg"},{"bike_id":"1c42f203-e04d-4bd2-ba24-a170a2dbe8fc","system_id":"levelo_inurba_marseille","lat":43.29573,"lon":5.37527,"is_reserved":false,"is_disabled":false,"rental_uris":{"android":"levelo://app?vid=1c42f203-e04d-4bd2-ba24-a170a2dbe8fc","ios":"levelo://app?vid=1c42f203-e04d-4bd2-ba24-a170a2dbe8fc"},"vehicle_type_id":"4","last_reported":1784364038,"current_range_meters":34000,"station_id":"ce4bgh92rcd13ifvqb50","pricing_plan_id":"cebpf4jnsgd1na2vs0mg"},{"bike_id":"83741070-3a1f-46c3-b431-07eff2814aa4","system_id":"levelo_inurba_marseille","lat":43.27441,"lon":5.36103,"is_reserved":false,"is_disabled":true,"rental_uris":{"android":"levelo://app?vid=83741070-3a1f-46c3-b431-07eff2814aa4","ios":"levelo://app?vid=83741070-3a1f-46c3-b431-07eff2814aa4"},"vehicle_type_id":"4","last_reported":1784364038,"current_range_meters":0,"station_id":"","pricing_plan_id":"cebpf4jnsgd1na2vs0mg"},{"bike_id":"e97d923d-d560-461e-94e7-6b746b3d8d92","system_id":"levelo_inurba_marseille","lat":43.321,"lon":5.3678,"is_reserved":false,"is_disabled":false,"rental_uris":{"android":"levelo://app?vid=e97d923d-d560-461e-94e7-6b746b3d8d92","ios":"levelo://app?vid=e97d923d-d560-461e-94e7-6b746b3d8d92"},"vehicle_type_id":"4","last_reported":1784364038,"current_range_meters":26800,"station_id":"ce4bhrh2rcd13ifvqhug","pricing_plan_id":"cebpf4jnsgd1na2vs0mg"},{"bike_id":"57e66879-ae87-4e73-a222-7592970b5d9a","system_id":"levelo_inurba_marseille","lat":43.28721,"lon":5.37321,"is_reserved":false,"is_disabled":false,"rental_uris":{"android":"levelo://app?vid=57e66879-ae87-4e73-a222-7592970b5d9a","ios":"levelo://app?vid=57e66879-ae87-4e73-a222-7592970b5d9a"},"vehicle_type_id":"4","last_reported":1784364038,"current_range_meters":38800,"station_id":"","pricing_plan_id":"cebpf4jnsgd1na2vs0mg"},{"bike_id":"309b73de-b42f-49ac-87bf-ea427db2cace","system_id":"levelo_inurba_marseille","lat":43.26563,"lon":5.39028,"is_reserved":false,"is_disabled":false,"rental_uris":{"android":"levelo://app?vid=309b73de-b42f-49ac-87bf-ea427db2cace","ios":"levelo://app?vid=309b73de-b42f-49ac-87bf-ea427db2cace"},"vehicle_type_id":"4","last_reported":1784364038,"current_range_meters":36800,"station_id":"ce4bhe12rcd13ifvqf30","pricing_plan_id":"cebpf4jnsgd1na2vs0mg"},{"bike_id":"48837646-8c52-45de-9e76-9ec9cdd47775","system_id":"levelo_inurba_marseille","lat":43.28758,"lon":5.38559,"is_reserved":false,"is_disabled":false,"rental_uris":{"android":"levelo://app?vid=48837646-8c52-45de-9e76-9ec9cdd47775","ios":"levelo://app?vid=48837646-8c52-45de-9e76-9ec9cdd47775"},"vehicle_type_id":"4","last_reported":1784364038,"current_range_meters":11200,"station_id":"","pricing_plan_id":"cebpf4jnsgd1na2vs0mg"},{"bike_id":"7c0c2360-c27c-40b2-9d76-fd5e9bdea05a","system_id":"levelo_inurba_marseille","lat":43.32004,"lon":5.38154,"is_reserved":false,"is_disabled":false,"rental_uris":{"android":"levelo://app?vid=7c0c2360-c27c-40b2-9d76-fd5e9bdea05a","ios":"levelo://app?vid=7c0c2360-c27c-40b2-9d76-fd5e9bdea05a"},"vehicle_type_id":"4","last_reported":1784364038,"current_range_meters":28000,"station_id":"ce4bhr12rcd13ifvqhpg","pricing_plan_id":"cebpf4jnsgd1na2vs0mg"},{"bike_id":"9ded3aaf-3123-4885-b287-bf61b9d86866","system_id":"levelo_inurba_marseille","lat":43.21754,"lon":5.34602,"is_reserved":false,"is_disabled":false,"rental_uris":{"android":"levelo://app?vid=9ded3aaf-3123-4885-b287-bf61b9d86866","ios":"levelo://app?vid=9ded3aaf-3123-4885-b287-bf61b9d86866"},"vehicle_type_id":"4","last_reported":1784364038,"current_range_meters":8400,"station_id":"st_cvj6r9ubvosntc0bgbag","pricing_plan_id":"cebpf4jnsgd1na2vs0mg"},{"bike_id":"4d4f8116-b78d-45df-894b-0d08a3cd82b5","system_id":"levelo_inurba_marseille","lat":43.30725,"lon":5.38418,"is_reserved":false,"is_disabled":false,"rental_uris":{"android":"levelo://app?vid=4d4f8116-b78d-45df-894b-0d08a3cd82b5","ios":"levelo://app?vid=4d4f8116-b78d-45df-894b-0d08a3cd82b5"},"vehicle_type_id":"4","last_reported":1784364038,"current_range_meters":5600,"station_id":"","pricing_plan_id":"cebpf4jnsgd1na2vs0mg"},{"bike_id":"c4dbc9b6-78b5-4fd7-951c-6f5619e68399","system_id":"levelo_inurba_marseille","lat":43.33752,"lon":5.37455,"is_reserved":false,"is_disabled":false,"rental_uris":{"android":"levelo://app?vid=c4dbc9b6-78b5-4fd7-951c-6f5619e68399","ios":"levelo://app?vid=c4dbc9b6-78b5-4fd7-951c-6f5619e68399"},"vehicle_type_id":"4","last_reported":1784364038,"current_range_meters":37600,"station_id":"","pricing_plan_id":"cebpf4jnsgd1na2vs0mg"},{"bike_id":"f5d60082-14d9-4563-89ae-263807d37ce3","system_id":"levelo_inurba_marseille","lat":43.28536,"lon":5.44106,"is_reserved":false,"is_disabled":false,"rental_uris":{"android":"levelo://app?vid=f5d60082-14d9-4563-89ae-263807d37ce3","ios":"levelo://app?vid=f5d60082-14d9-4563-89ae-263807d37ce3"},"vehicle_type_id":"4","last_reported":1784364038,"current_range_meters":39200,"station_id":"st_d3j3df2ikq2c7380ej80","pricing_plan_id":"cebpf4jnsgd1na2vs0mg"},{"bike_id":"a0f7ba23-3a61-4689-a933-cfd194f396f0","system_id":"levelo_inurba_marseille","lat":43.30931,"lon":5.40137,"is_reserved":false,"is_disabled":false,"rental_uris":{"android":"levelo://app?vid=a0f7ba23-3a61-4689-a933-cfd194f396f0","ios":"levelo://app?vid=a0f7ba23-3a61-4689-a933-cfd194f396f0"},"vehicle_type_id":"4","last_reported":1784364038,"current_range_meters":33600,"station_id":"ce4bgvp2rcd13ifvqct0","pricing_plan_id":"cebpf4jnsgd1na2vs0mg"},{"bike_id":"b64426df-a3f7-424e-923a-a5218fc5bce4","system_id":"levelo_inurba_marseille","lat":43.27655,"lon":5.38915,"is_reserved":false,"is_disabled":false,"rental_uris":{"android":"levelo://app?vid=b64426df-a3f7-424e-923a-a5218fc5bce4","ios":"levelo://app?vid=b64426df-a3f7-424e-923a-a5218fc5bce4"},"vehicle_type_id":"4","last_reported":1784364038,"current_range_meters":28000,"station_id":"ce4bhi12rcd13ifvqfo0","pricing_plan_id":"cebpf4jnsgd1na2vs0mg"},{"bike_id":"2116d610-7fe3-46de-8648-da9bac1d13d6","system_id":"levelo_inurba_marseille","lat":43.287,"lon":5.37407,"is_reserved":false,"is_disabled":true,"rental_uris":{"android":"levelo://app?vid=2116d610-7fe3-46de-8648-da9bac1d13d6","ios":"levelo://app?vid=2116d610-7fe3-46de-8648-da9bac1d13d6"},"vehicle_type_id":"4","last_reported":1784364038,"current_range_meters":19200,"station_id":"ce4bh3p2rcd13ifvqdq0","pricing_plan_id":"cebpf4jnsgd1na2vs0mg"},{"bike_id":"3d4aa178-44db-467e-a1bd-4fcdf991f22c","system_id":"levelo_inurba_marseille","lat":43.31702,"lon":5.43721,"is_reserved":false,"is_disabled":false,"rental_uris":{"android":"levelo://app?vid=3d4aa178-44db-467e-a1bd-4fcdf991f22c","ios":"levelo://app?vid=3d4aa178-44db-467e-a1bd-4fcdf991f22c"},"vehicle_type_id":"4","last_reported":1784364038,"current_range_meters":40000,"station_id":"ce4bhp92rcd13ifvqhcg","pricing_plan_id":"cebpf4jnsgd1na2vs0mg"},{"bike_id":"78b472ae-7ca1-438d-a65f-f93d06645001","system_id":"levelo_inurba_marseille","lat":43.29219,"lon":5.36086,"is_reserved":false,"is_disabled":true,"rental_uris":{"android":"levelo://app?vid=78b472ae-7ca1-438d-a65f-f93d06645001","ios":"levelo://app?vid=78b472ae-7ca1-438d-a65f-f93d06645001"},"vehicle_type_id":"4","last_reported":1784364038,"current_range_meters":4000,"station_id":"","pricing_plan_id":"cebpf4jnsgd1na2vs0mg"},{"bike_id":"ca52e966-ac9e-40a0-82ac-f59d5f4eee7e","system_id":"levelo_inurba_marseille","lat":43.28411,"lon":5.37526,"is_reserved":false,"is_disabled":false,"rental_uris":{"android":"levelo://app?vid=ca52e966-ac9e-40a0-82ac-f59d5f4eee7e","ios":"levelo://app?vid=ca52e966-ac9e-40a0-82ac-f59d5f4eee7e"},"vehicle_type_id":"4","last_reported":1784364038,"current_range_meters":22400,"station_id":"ce4bh412rcd13ifvqds0","pricing_plan_id":"cebpf4jnsgd1na2vs0mg"},{"bike_id":"14fbf5fb-9c9f-4f1c-a666-586f058d42ef","system_id":"levelo_inurba_marseille","lat":43.26379,"lon":5.41071,"is_reserved":false,"is_disabled":false,"rental_uris":{"android":"levelo://app?vid=14fbf5fb-9c9f-4f1c-a666-586f058d42ef","ios":"levelo://app?vid=14fbf5fb-9c9f-4f1c-a666-586f058d42ef"},"vehicle_type_id":"4","last_reported":1784364038,"current_range_meters":36000,"station_id":"st_d4e5ca6na9uc73bfl5fg","pricing_plan_id":"cebpf4jnsgd1na2vs0mg"},{"bike_id":"8846f299-dfc8-41c5-b525-266c50c5ab8d","system_id":"levelo_inurba_marseille","lat":43.30315,"lon":5.40423,"is_reserved":false,"is_disabled":false,"rental_uris":{"android":"levelo://app?vid=8846f299-dfc8-41c5-b525-266c50c5ab8d","ios":"levelo://app?vid=8846f299-dfc8-41c5-b525-266c50c5ab8d"},"vehicle_type_id":"4","last_reported":1784364038,"current_range_meters":31200,"station_id":"ce4bh012rcd13ifvqd10","pricing_plan_id":"cebpf4jnsgd1na2vs0mg"},{"bike_id":"348caf77-82d6-4562-a72e-c7becae0b0ae","system_id":"levelo_inurba_marseille","lat":43.230549,"lon":5.354901,"is_reserved":false,"is_disabled":false,"rental_uris":{"android":"levelo://app?vid=348caf77-82d6-4562-a72e-c7becae0b0ae","ios":"levelo://app?vid=348caf77-82d6-4562-a72e-c7becae0b0ae"},"vehicle_type_id":"4","last_reported":1784364038,"current_range_meters":39200,"station_id":"cpo3342slgdg3j2ifvpg","pricing_plan_id":"cebpf4jnsgd1na2vs0mg"},{"bike_id":"88b3333d-68df-42df-8ef7-a9a4f08abce5","system_id":"levelo_inurba_marseille","lat":43.22918,"lon":5.41514,"is_reserved":false,"is_disabled":false,"rental_uris":{"android":"levelo://app?vid=88b3333d-68df-42df-8ef7-a9a4f08abce5","ios":"levelo://app?vid=88b3333d-68df-42df-8ef7-a9a4f08abce5"},"vehicle_type_id":"4","last_reported":1784364038,"current_range_meters":24000,"station_id":"","pricing_plan_id":"cebpf4jnsgd1na2vs0mg"},{"bike_id":"09ba8df8-40fd-4a4a-9e13-bc588fe60b64","system_id":"levelo_inurba_marseille","lat":43.28618,"lon":5.35111,"is_reserved":false,"is_disabled":false,"rental_uris":{"android":"levelo://app?vid=09ba8df8-40fd-4a4a-9e13-bc588fe60b64","ios":"levelo://app?vid=09ba8df8-40fd-4a4a-9e13-bc588fe60b64"},"vehicle_type_id":"4","last_reported":1784364038,"current_range_meters":22400,"station_id":"ce4bhch2rcd13ifvqeug","pricing_plan_id":"cebpf4jnsgd1na2vs0mg"},{"bike_id":"33f5e7b4-3399-4953-8a6f-888fd5cacb1c","system_id":"levelo_inurba_marseille","lat":43.28717,"lon":5.37928,"is_reserved":false,"is_disabled":false,"rental_uris":{"android":"levelo://app?vid=33f5e7b4-3399-4953-8a6f-888fd5cacb1c","ios":"levelo://app?vid=33f5e7b4-3399-4953-8a6f-888fd5cacb1c"},"vehicle_type_id":"4","last_reported":1784364038,"current_range_meters":37600,"station_id":"ce4bh9p2rcd13ifvqec0","pricing_plan_id":"cebpf4jnsgd1na2vs0mg"},{"bike_id":"cbf57bb6-373a-442c-9860-92cf9215a1bb","system_id":"levelo_inurba_marseille","lat":43.30561,"lon":5.3654,"is_reserved":false,"is_disabled":true,"rental_uris":{"android":"levelo://app?vid=cbf57bb6-373a-442c-9860-92cf9215a1bb","ios":"levelo://app?vid=cbf57bb6-373a-442c-9860-92cf9215a1bb"},"vehicle_type_id":"4","last_reported":1784364038,"current_range_meters":25600,"station_id":"ce4bgs12rcd13ifvqcag","pricing_plan_id":"cebpf4jnsgd1na2vs0mg"},{"bike_id":"69099ed8-e9ad-48b8-baf4-c83fb449e2c2","system_id":"levelo_inurba_marseille","lat":43.26206,"lon":5.37445,"is_reserved":false,"is_disabled":false,"rental_uris":{"android":"levelo://app?vid=69099ed8-e9ad-48b8-baf4-c83fb449e2c2","ios":"levelo://app?vid=69099ed8-e9ad-48b8-baf4-c83fb449e2c2"},"vehicle_type_id":"4","last_reported":1784364038,"current_range_meters":39200,"station_id":"ce4bhgp2rcd13ifvqfc0","pricing_plan_id":"cebpf4jnsgd1na2vs0mg"},{"bike_id":"d9632fc5-4f25-4268-8d79-87fd6d52e7c0","system_id":"levelo_inurba_marseille","lat":43.24813,"lon":5.37462,"is_reserved":false,"is_disabled":false,"rental_uris":{"android":"levelo://app?vid=d9632fc5-4f25-4268-8d79-87fd6d52e7c0","ios":"levelo://app?vid=d9632fc5-4f25-4268-8d79-87fd6d52e7c0"},"vehicle_type_id":"4","last_reported":1784364038,"current_range_meters":20800,"station_id":"ce4bhgh2rcd13ifvqfb0","pricing_plan_id":"cebpf4jnsgd1na2vs0mg"},{"bike_id":"e8b2132e-2e2f-4678-bd27-ce3f9f11f158","system_id":"levelo_inurba_marseille","lat":43.30455,"lon":5.379,"is_reserved":false,"is_disabled":true,"rental_uris":{"android":"levelo://app?vid=e8b2132e-2e2f-4678-bd27-ce3f9f11f158","ios":"levelo://app?vid=e8b2132e-2e2f-4678-bd27-ce3f9f11f158"},"vehicle_type_id":"4","last_reported":1784364038,"current_range_meters":16400,"station_id":"ce4bgup2rcd13ifvqcn0","pricing_plan_id":"cebpf4jnsgd1na2vs0mg"},{"bike_id":"17f00b12-f8d0-413a-b992-98dadbd11261","system_id":"levelo_inurba_marseille","lat":43.25013,"lon":5.38911,"is_reserved":false,"is_disabled":false,"rental_uris":{"android":"levelo://app?vid=17f00b12-f8d0-413a-b992-98dadbd11261","ios":"levelo://app?vid=17f00b12-f8d0-413a-b992-98dadbd11261"},"vehicle_type_id":"4","last_reported":1784364038,"current_range_meters":32400,"station_id":"ce4bhgp2rcd13ifvqfd0","pricing_plan_id":"cebpf4jnsgd1na2vs0mg"},{"bike_id":"d0689963-1360-4eec-9974-1c99b2ed8187","system_id":"levelo_inurba_marseille","lat":43.306,"lon":5.37237,"is_reserved":false,"is_disabled":true,"rental_uris":{"android":"levelo://app?vid=d0689963-1360-4eec-9974-1c99b2ed8187","ios":"levelo://app?vid=d0689963-1360-4eec-9974-1c99b2ed8187"},"vehicle_type_id":"4","last_reported":1784364038,"current_range_meters":37600,"station_id":"ce4bgqh2rcd13ifvqc4g","pricing_plan_id":"cebpf4jnsgd1na2vs0mg"},{"bike_id":"e2de98d6-6e9c-4a15-9e57-02ffe89e1098","system_id":"levelo_inurba_marseille","lat":43.29525,"lon":5.39059,"is_reserved":false,"is_disabled":false,"rental_uris":{"android":"levelo://app?vid=e2de98d6-6e9c-4a15-9e57-02ffe89e1098","ios":"levelo://app?vid=e2de98d6-6e9c-4a15-9e57-02ffe89e1098"},"vehicle_type_id":"4","last_reported":1784364038,"current_range_meters":33200,"station_id":"ce4bh3p2rcd13ifvqdp0","pricing_plan_id":"cebpf4jnsgd1na2vs0mg"},{"bike_id":"4f54c651-15d1-492f-8d09-70f1f809ad4f","system_id":"levelo_inurba_marseille","lat":43.27476,"lon":5.42552,"is_reserved":false,"is_disabled":false,"rental_uris":{"android":"levelo://app?vid=4f54c651-15d1-492f-8d09-70f1f809ad4f","ios":"levelo://app?vid=4f54c651-15d1-492f-8d09-70f1f809ad4f"},"vehicle_type_id":"4","last_reported":1784364038,"current_range_meters":23200,"station_id":"st_d8t4bh7nbrqs73arha60","pricing_plan_id":"cebpf4jnsgd1na2vs0mg"},{"bike_id":"d5a4ff25-31d4-4152-b052-19f3b36bea80","system_id":"levelo_inurba_marseille","lat":43.24673,"lon":5.38155,"is_reserved":false,"is_disabled":false,"rental_uris":{"android":"levelo://app?vid=d5a4ff25-31d4-4152-b052-19f3b36bea80","ios":"levelo://app?vid=d5a4ff25-31d4-4152-b052-19f3b36bea80"},"vehicle_type_id":"4","last_reported":1784364038,"current_range_meters":37600,"station_id":"ce4bhih2rcd13ifvqfr0","pricing_plan_id":"cebpf4jnsgd1na2vs0mg"},{"bike_id":"7471413d-860d-4cb4-b21c-48f167b975ff","system_id":"levelo_inurba_marseille","lat":43.26946,"lon":5.38961,"is_reserved":false,"is_disabled":false,"rental_uris":{"android":"levelo://app?vid=7471413d-860d-4cb4-b21c-48f167b975ff","ios":"levelo://app?vid=7471413d-860d-4cb4-b21c-48f167b975ff"},"vehicle_type_id":"4","last_reported":1784364038,"current_range_meters":39200,"station_id":"ce4bhhh2rcd13ifvqfl0","pricing_plan_id":"cebpf4jnsgd1na2vs0mg"},{"bike_id":"a21c1dba-9af9-497d-86de-500a284e4f1c","system_id":"levelo_inurba_marseille","lat":43.26188,"lon":5.37898,"is_reserved":false,"is_disabled":false,"rental_uris":{"android":"levelo://app?vid=a21c1dba-9af9-497d-86de-500a284e4f1c","ios":"levelo://app?vid=a21c1dba-9af9-497d-86de-500a284e4f1c"},"vehicle_type_id":"4","last_reported":1784364038,"current_range_meters":37600,"station_id":"ce4bhjp2rcd13ifvqg90","pricing_plan_id":"cebpf4jnsgd1na2vs0mg"},{"bike_id":"02f6963e-dcc2-4cb5-8f89-7f8ac684c99b","system_id":"levelo_inurba_marseille","lat":43.29543,"lon":5.37505,"is_reserved":false,"is_disabled":false,"rental_uris":{"android":"levelo://app?vid=02f6963e-dcc2-4cb5-8f89-7f8ac684c99b","ios":"levelo://app?vid=02f6963e-dcc2-4cb5-8f89-7f8ac684c99b"},"vehicle_type_id":"4","last_reported":1784364038,"current_range_meters":7200,"station_id":"ce4bgkp2rcd13ifvqbmg","pricing_plan_id":"cebpf4jnsgd1na2vs0mg"},{"bike_id":"8f802f89-20fc-4026-a935-70bba7dee582","system_id":"levelo_inurba_marseille","lat":43.27905,"lon":5.38005,"is_reserved":false,"is_disabled":false,"rental_uris":{"android":"levelo://app?vid=8f802f89-20fc-4026-a935-70bba7dee582","ios":"levelo://app?vid=8f802f89-20fc-4026-a935-70bba7dee582"},"vehicle_type_id":"4","last_reported":1784364038,"current_range_meters":36800,"station_id":"ce4bhf92rcd13ifvqf50","pricing_plan_id":"cebpf4jnsgd1na2vs0mg"},{"bike_id":"e35b3037-ccf2-48a7-b6f2-14a77143bba4","system_id":"levelo_inurba_marseille","lat":43.32355,"lon":5.36754,"is_reserved":false,"is_disabled":false,"rental_uris":{"android":"levelo://app?vid=e35b3037-ccf2-48a7-b6f2-14a77143bba4","ios":"levelo://app?vid=e35b3037-ccf2-48a7-b6f2-14a77143bba4"},"vehicle_type_id":"4","last_reported":1784364038,"current_range_meters":30800,"station_id":"ce4bhsh2rcd13ifvqi2g","pricing_plan_id":"cebpf4jnsgd1na2vs0mg"},{"bike_id":"0cc9064c-9e67-4dd7-b11e-84260d626c23","system_id":"levelo_inurba_marseille","lat":43.299,"lon":5.38133,"is_reserved":false,"is_disabled":true,"rental_uris":{"android":"levelo://app?vid=0cc9064c-9e67-4dd7-b11e-84260d626c23","ios":"levelo://app?vid=0cc9064c-9e67-4dd7-b11e-84260d626c23"},"vehicle_type_id":"4","last_reported":1784364038,"current_range_meters":27600,"station_id":"ce4bgj12rcd13ifvqbc0","pricing_plan_id":"cebpf4jnsgd1na2vs0mg"},{"bike_id":"0bb20e36-33c3-4c74-9ea8-83d48d9ee936","system_id":"levelo_inurba_marseille","lat":43.29097,"lon":5.3814,"is_reserved":false,"is_disabled":false,"rental_uris":{"android":"levelo://app?vid=0bb20e36-33c3-4c74-9ea8-83d48d9ee936","ios":"levelo://app?vid=0bb20e36-33c3-4c74-9ea8-83d48d9ee936"},"vehicle_type_id":"4","last_reported":1784364038,"current_range_meters":38800,"station_id":"ce4bh512rcd13ifvqe2g","pricing_plan_id":"cebpf4jnsgd1na2vs0mg"},{"bike_id":"27e47b1c-c6c8-4c7a-9057-a30a031a40ae","system_id":"levelo_inurba_marseille","lat":43.28436,"lon":5.35005,"is_reserved":false,"is_disabled":false,"rental_uris":{"android":"levelo://app?vid=27e47b1c-c6c8-4c7a-9057-a30a031a40ae","ios":"levelo://app?vid=27e47b1c-c6c8-4c7a-9057-a30a031a40ae"},"vehicle_type_id":"4","last_reported":1784364038,"current_range_meters":38400,"station_id":"ce4bhbh2rcd13ifvqepg","pricing_plan_id":"cebpf4jnsgd1na2vs0mg"},{"bike_id":"fd571faf-e8a2-45fc-afba-0e7ce0440d7a","system_id":"levelo_inurba_marseille","lat":43.25585,"lon":5.38249,"is_reserved":false,"is_disabled":false,"rental_uris":{"android":"levelo://app?vid=fd571faf-e8a2-45fc-afba-0e7ce0440d7a","ios":"levelo://app?vid=fd571faf-e8a2-45fc-afba-0e7ce0440d7a"},"vehicle_type_id":"4","last_reported":1784364038,"current_range_meters":27600,"station_id":"ce4bhih2rcd13ifvqfs0","pricing_plan_id":"cebpf4jnsgd1na2vs0mg"},{"bike_id":"898b7d32-2b0f-4848-9680-087de63f5602","system_id":"levelo_inurba_marseille","lat":43.29102,"lon":5.38149,"is_reserved":false,"is_disabled":false,"rental_uris":{"android":"levelo://app?vid=898b7d32-2b0f-4848-9680-087de63f5602","ios":"levelo://app?vid=898b7d32-2b0f-4848-9680-087de63f5602"},"vehicle_type_id":"4","last_reported":1784364038,"current_range_meters":38800,"station_id":"ce4bh512rcd13ifvqe2g","pricing_plan_id":"cebpf4jnsgd1na2vs0mg"},{"bike_id":"66dbf5da-844a-4b59-b35d-2f9fd62b6cf6","system_id":"levelo_inurba_marseille","lat":43.29023,"lon":5.4,"is_reserved":false,"is_disabled":false,"rental_uris":{"android":"levelo://app?vid=66dbf5da-844a-4b59-b35d-2f9fd62b6cf6","ios":"levelo://app?vid=66dbf5da-844a-4b59-b35d-2f9fd62b6cf6"},"vehicle_type_id":"4","last_reported":1784364038,"current_range_meters":8000,"station_id":"ce4bh392rcd13ifvqdm0","pricing_plan_id":"cebpf4jnsgd1na2vs0mg"},{"bike_id":"f23925bf-ec71-444f-9b1c-6a79e8650d38","system_id":"levelo_inurba_marseille","lat":43.2966,"lon":5.37949,"is_reserved":false,"is_disabled":true,"rental_uris":{"android":"levelo://app?vid=f23925bf-ec71-444f-9b1c-6a79e8650d38","ios":"levelo://app?vid=f23925bf-ec71-444f-9b1c-6a79e8650d38"},"vehicle_type_id":"4","last_reported":1784364038,"current_range_meters":0,"station_id":"","pricing_plan_id":"cebpf4jnsgd1na2vs0mg"},{"bike_id":"071c87d7-6c6d-4ab8-a33b-d231654d6a83","system_id":"levelo_inurba_marseille","lat":43.29547,"lon":5.39963,"is_reserved":false,"is_disabled":false,"rental_uris":{"android":"levelo://app?vid=071c87d7-6c6d-4ab8-a33b-d231654d6a83","ios":"levelo://app?vid=071c87d7-6c6d-4ab8-a33b-d231654d6a83"},"vehicle_type_id":"4","last_reported":1784364038,"current_range_meters":23200,"station_id":"ce4bh312rcd13ifvqdj0","pricing_plan_id":"cebpf4jnsgd1na2vs0mg"},{"bike_id":"72cb6740-3b83-45f1-a93a-cc4bb041c1d6","system_id":"levelo_inurba_marseille","lat":43.29285,"lon":5.36869,"is_reserved":false,"is_disabled":true,"rental_uris":{"android":"levelo://app?vid=72cb6740-3b83-45f1-a93a-cc4bb041c1d6","ios":"levelo://app?vid=72cb6740-3b83-45f1-a93a-cc4bb041c1d6"},"vehicle_type_id":"4","last_reported":1784364038,"current_range_meters":800,"station_id":"","pricing_plan_id":"cebpf4jnsgd1na2vs0mg"},{"bike_id":"badc06d8-2020-4d33-b2bc-0aa6c4470b26","system_id":"levelo_inurba_marseille","lat":43.29987,"lon":5.37175,"is_reserved":false,"is_disabled":false,"rental_uris":{"android":"levelo://app?vid=badc06d8-2020-4d33-b2bc-0aa6c4470b26","ios":"levelo://app?vid=badc06d8-2020-4d33-b2bc-0aa6c4470b26"},"vehicle_type_id":"4","last_reported":1784364038,"current_range_meters":39200,"station_id":"ce4bgr92rcd13ifvqc7g","pricing_plan_id":"cebpf4jnsgd1na2vs0mg"},{"bike_id":"a33c7fe6-9ca2-4a2a-a2e1-f398e33a13fb","system_id":"levelo_inurba_marseille","lat":43.29914,"lon":5.38147,"is_reserved":false,"is_disabled":false,"rental_uris":{"android":"levelo://app?vid=a33c7fe6-9ca2-4a2a-a2e1-f398e33a13fb","ios":"levelo://app?vid=a33c7fe6-9ca2-4a2a-a2e1-f398e33a13fb"},"vehicle_type_id":"4","last_reported":1784364038,"current_range_meters":27200,"station_id":"ce4bgj12rcd13ifvqbc0","pricing_plan_id":"cebpf4jnsgd1na2vs0mg"},{"bike_id":"202f9ad0-42a8-41b4-9ba7-c7ec0280e620","system_id":"levelo_inurba_marseille","lat":43.23193,"lon":5.35557,"is_reserved":false,"is_disabled":false,"rental_uris":{"android":"levelo://app?vid=202f9ad0-42a8-41b4-9ba7-c7ec0280e620","ios":"levelo://app?vid=202f9ad0-42a8-41b4-9ba7-c7ec0280e620"},"vehicle_type_id":"4","last_reported":1784364038,"current_range_meters":36400,"station_id":"ce4bhu92rcd13ifvqi70","pricing_plan_id":"cebpf4jnsgd1na2vs0mg"},{"bike_id":"94f28e20-a900-4560-96e3-aa893265d589","system_id":"levelo_inurba_marseille","lat":43.29038,"lon":5.39951,"is_reserved":false,"is_disabled":false,"rental_uris":{"android":"levelo://app?vid=94f28e20-a900-4560-96e3-aa893265d589","ios":"levelo://app?vid=94f28e20-a900-4560-96e3-aa893265d589"},"vehicle_type_id":"4","last_reported":1784364038,"current_range_meters":38000,"station_id":"ce4bh392rcd13ifvqdm0","pricing_plan_id":"cebpf4jnsgd1na2vs0mg"},{"bike_id":"f3955824-bc9b-40e3-bb4b-91c4e41aa833","system_id":"levelo_inurba_marseille","lat":43.30141,"lon":5.37417,"is_reserved":false,"is_disabled":true,"rental_uris":{"android":"levelo://app?vid=f3955824-bc9b-40e3-bb4b-91c4e41aa833","ios":"levelo://app?vid=f3955824-bc9b-40e3-bb4b-91c4e41aa833"},"vehicle_type_id":"4","last_reported":1784364038,"current_range_meters":12000,"station_id":"ce4bgs92rcd13ifvqcc0","pricing_plan_id":"cebpf4jnsgd1na2vs0mg"},{"bike_id":"08032647-4e4b-4d46-b2bb-1df2e3cbec8b","system_id":"levelo_inurba_marseille","lat":43.28331,"lon":5.43302,"is_reserved":false,"is_disabled":true,"rental_uris":{"android":"levelo://app?vid=08032647-4e4b-4d46-b2bb-1df2e3cbec8b","ios":"levelo://app?vid=08032647-4e4b-4d46-b2bb-1df2e3cbec8b"},"vehicle_type_id":"4","last_reported":1784364038,"current_range_meters":0,"station_id":"","pricing_plan_id":"cebpf4jnsgd1na2vs0mg"},{"bike_id":"97c8214b-b8f2-4818-ba44-2b5dd2bf94b4","system_id":"levelo_inurba_marseille","lat":43.255,"lon":5.37656,"is_reserved":false,"is_disabled":false,"rental_uris":{"android":"levelo://app?vid=97c8214b-b8f2-4818-ba44-2b5dd2bf94b4","ios":"levelo://app?vid=97c8214b-b8f2-4818-ba44-2b5dd2bf94b4"},"vehicle_type_id":"4","last_reported":1784364038,"current_range_meters":28000,"station_id":"ce4bhh12rcd13ifvqff0","pricing_plan_id":"cebpf4jnsgd1na2vs0mg"},{"bike_id":"825d7056-0f0a-4ca2-9020-3ab3a5045e06","system_id":"levelo_inurba_marseille","lat":43.27059,"lon":5.38309,"is_reserved":false,"is_disabled":false,"rental_uris":{"android":"levelo://app?vid=825d7056-0f0a-4ca2-9020-3ab3a5045e06","ios":"levelo://app?vid=825d7056-0f0a-4ca2-9020-3ab3a5045e06"},"vehicle_type_id":"4","last_reported":1784364038,"current_range_meters":29600,"station_id":"st_d3n2fo6cfp8s73cte1j0","pricing_plan_id":"cebpf4jnsgd1na2vs0mg"},{"bike_id":"2fd3fd2a-5afd-41dc-a0e5-4abd957555d4","system_id":"levelo_inurba_marseille","lat":43.26688,"lon":5.38246,"is_reserved":false,"is_disabled":false,"rental_uris":{"android":"levelo://app?vid=2fd3fd2a-5afd-41dc-a0e5-4abd957555d4","ios":"levelo://app?vid=2fd3fd2a-5afd-41dc-a0e5-4abd957555d4"},"vehicle_type_id":"4","last_reported":1784364038,"current_range_meters":17200,"station_id":"ce4bhg92rcd13ifvqf90","pricing_plan_id":"cebpf4jnsgd1na2vs0mg"},{"bike_id":"8b6331b3-2914-4282-8a4c-45cca24291f2","system_id":"levelo_inurba_marseille","lat":43.30921,"lon":5.40152,"is_reserved":false,"is_disabled":false,"rental_uris":{"android":"levelo://app?vid=8b6331b3-2914-4282-8a4c-45cca24291f2","ios":"levelo://app?vid=8b6331b3-2914-4282-8a4c-45cca24291f2"},"vehicle_type_id":"4","last_reported":1784364038,"current_range_meters":26000,"station_id":"","pricing_plan_id":"cebpf4jnsgd1na2vs0mg"},{"bike_id":"e342b9f1-a6f4-474a-88a4-70e56cc058cc","system_id":"levelo_inurba_marseille","lat":43.31901,"lon":5.36855,"is_reserved":false,"is_disabled":false,"rental_uris":{"android":"levelo://app?vid=e342b9f1-a6f4-474a-88a4-70e56cc058cc","ios":"levelo://app?vid=e342b9f1-a6f4-474a-88a4-70e56cc058cc"},"vehicle_type_id":"4","last_reported":1784364038,"current_range_meters":38800,"station_id":"st_d6o2h0d0559c73evc1b0","pricing_plan_id":"cebpf4jnsgd1na2vs0mg"},{"bike_id":"a287babe-2875-4e47-a1fc-a71e0666296b","system_id":"levelo_inurba_marseille","lat":43.260263,"lon":5.375491,"is_reserved":false,"is_disabled":false,"rental_uris":{"android":"levelo://app?vid=a287babe-2875-4e47-a1fc-a71e0666296b","ios":"levelo://app?vid=a287babe-2875-4e47-a1fc-a71e0666296b"},"vehicle_type_id":"4","last_reported":1784364038,"current_range_meters":26000,"station_id":"ce4bh392rcd13ifvqdm0","pricing_plan_id":"cebpf4jnsgd1na2vs0mg"},{"bike_id":"617c4c83-0e69-4bbc-81ae-440d1263eae2","system_id":"levelo_inurba_marseille","lat":43.28414,"lon":5.34973,"is_reserved":false,"is_disabled":false,"rental_uris":{"android":"levelo://app?vid=617c4c83-0e69-4bbc-81ae-440d1263eae2","ios":"levelo://app?vid=617c4c83-0e69-4bbc-81ae-440d1263eae2"},"vehicle_type_id":"4","last_reported":1784364038,"current_range_meters":17600,"station_id":"ce4bhbh2rcd13ifvqepg","pricing_plan_id":"cebpf4jnsgd1na2vs0mg"},{"bike_id":"0d3e100f-48fe-47e1-bef7-0a1dcfcc4955","system_id":"levelo_inurba_marseille","lat":43.33713,"lon":5.39195,"is_reserved":false,"is_disabled":false,"rental_uris":{"android":"levelo://app?vid=0d3e100f-48fe-47e1-bef7-0a1dcfcc4955","ios":"levelo://app?vid=0d3e100f-48fe-47e1-bef7-0a1dcfcc4955"},"vehicle_type_id":"4","last_reported":1784364038,"current_range_meters":40000,"station_id":"ce4bhr92rcd13ifvqhsg","pricing_plan_id":"cebpf4jnsgd1na2vs0mg"},{"bike_id":"f994dddc-9194-4b4c-a02e-45b8c9c31ce1","system_id":"levelo_inurba_marseille","lat":43.29605,"lon":5.37093,"is_reserved":false,"is_disabled":false,"rental_uris":{"android":"levelo://app?vid=f994dddc-9194-4b4c-a02e-45b8c9c31ce1","ios":"levelo://app?vid=f994dddc-9194-4b4c-a02e-45b8c9c31ce1"},"vehicle_type_id":"4","last_reported":1784364038,"current_range_meters":25600,"station_id":"","pricing_plan_id":"cebpf4jnsgd1na2vs0mg"},{"bike_id":"ddbfbc6e-9ea5-4164-b0a2-7cc31ec7c025","system_id":"levelo_inurba_marseille","lat":43.32079,"lon":5.36812,"is_reserved":false,"is_disabled":false,"rental_uris":{"android":"levelo://app?vid=ddbfbc6e-9ea5-4164-b0a2-7cc31ec7c025","ios":"levelo://app?vid=ddbfbc6e-9ea5-4164-b0a2-7cc31ec7c025"},"vehicle_type_id":"4","last_reported":1784364038,"current_range_meters":16400,"station_id":"ce4bhrh2rcd13ifvqhug","pricing_plan_id":"cebpf4jnsgd1na2vs0mg"},{"bike_id":"8ed2e4fb-a45b-441a-9b5c-0fc1bfce1ef6","system_id":"levelo_inurba_marseille","lat":43.30924,"lon":5.40157,"is_reserved":false,"is_disabled":false,"rental_uris":{"android":"levelo://app?vid=8ed2e4fb-a45b-441a-9b5c-0fc1bfce1ef6","ios":"levelo://app?vid=8ed2e4fb-a45b-441a-9b5c-0fc1bfce1ef6"},"vehicle_type_id":"4","last_reported":1784364038,"current_range_meters":10000,"station_id":"ce4bgvp2rcd13ifvqct0","pricing_plan_id":"cebpf4jnsgd1na2vs0mg"},{"bike_id":"82023b68-46df-41b5-9d8b-ec4c67021220","system_id":"levelo_inurba_marseille","lat":43.30233,"lon":5.40043,"is_reserved":false,"is_disabled":true,"rental_uris":{"android":"levelo://app?vid=82023b68-46df-41b5-9d8b-ec4c67021220","ios":"levelo://app?vid=82023b68-46df-41b5-9d8b-ec4c67021220"},"vehicle_type_id":"4","last_reported":1784364038,"current_range_meters":32400,"station_id":"ce4bgvh2rcd13ifvqcs0","pricing_plan_id":"cebpf4jnsgd1na2vs0mg"},{"bike_id":"caaef652-84e9-4627-9bfd-64449cc0059e","system_id":"levelo_inurba_marseille","lat":43.28415,"lon":5.37509,"is_reserved":false,"is_disabled":false,"rental_uris":{"android":"levelo://app?vid=caaef652-84e9-4627-9bfd-64449cc0059e","ios":"levelo://app?vid=caaef652-84e9-4627-9bfd-64449cc0059e"},"vehicle_type_id":"4","last_reported":1784364038,"current_range_meters":28000,"station_id":"ce4bh412rcd13ifvqds0","pricing_plan_id":"cebpf4jnsgd1na2vs0mg"},{"bike_id":"9add7d9b-214a-40dc-a324-5a0e81d35b67","system_id":"levelo_inurba_marseille","lat":43.26563,"lon":5.40326,"is_reserved":false,"is_disabled":true,"rental_uris":{"android":"levelo://app?vid=9add7d9b-214a-40dc-a324-5a0e81d35b67","ios":"levelo://app?vid=9add7d9b-214a-40dc-a324-5a0e81d35b67"},"vehicle_type_id":"4","last_reported":1784364038,"current_range_meters":14400,"station_id":"ce4bhmp2rcd13ifvqgng","pricing_plan_id":"cebpf4jnsgd1na2vs0mg"},{"bike_id":"9a4c1917-12d5-4fd0-beb9-9df30b58299b","system_id":"levelo_inurba_marseille","lat":43.23197,"lon":5.35552,"is_reserved":false,"is_disabled":false,"rental_uris":{"android":"levelo://app?vid=9a4c1917-12d5-4fd0-beb9-9df30b58299b","ios":"levelo://app?vid=9a4c1917-12d5-4fd0-beb9-9df30b58299b"},"vehicle_type_id":"4","last_reported":1784364038,"current_range_meters":39200,"station_id":"ce4bhu92rcd13ifvqi70","pricing_plan_id":"cebpf4jnsgd1na2vs0mg"},{"bike_id":"91f0e4ce-79d8-4655-828a-63e54a2d5488","system_id":"levelo_inurba_marseille","lat":43.2481,"lon":5.37477,"is_reserved":false,"is_disabled":false,"rental_uris":{"android":"levelo://app?vid=91f0e4ce-79d8-4655-828a-63e54a2d5488","ios":"levelo://app?vid=91f0e4ce-79d8-4655-828a-63e54a2d5488"},"vehicle_type_id":"4","last_reported":1784364038,"current_range_meters":6000,"station_id":"ce4bhgh2rcd13ifvqfb0","pricing_plan_id":"cebpf4jnsgd1na2vs0mg"},{"bike_id":"d52d4ca9-399a-4c76-82af-411129fb0585","system_id":"levelo_inurba_marseille","lat":43.29204,"lon":5.35756,"is_reserved":false,"is_disabled":false,"rental_uris":{"android":"levelo://app?vid=d52d4ca9-399a-4c76-82af-411129fb0585","ios":"levelo://app?vid=d52d4ca9-399a-4c76-82af-411129fb0585"},"vehicle_type_id":"4","last_reported":1784364038,"current_range_meters":25200,"station_id":"ce4bhb12rcd13ifvqel0","pricing_plan_id":"cebpf4jnsgd1na2vs0mg"},{"bike_id":"08e37548-b939-4c95-ad3e-38d80489c90b","system_id":"levelo_inurba_marseille","lat":43.21646,"lon":5.34369,"is_reserved":false,"is_disabled":false,"rental_uris":{"android":"levelo://app?vid=08e37548-b939-4c95-ad3e-38d80489c90b","ios":"levelo://app?vid=08e37548-b939-4c95-ad3e-38d80489c90b"},"vehicle_type_id":"4","last_reported":1784364038,"current_range_meters":4400,"station_id":"","pricing_plan_id":"cebpf4jnsgd1na2vs0mg"},{"bike_id":"621af7f6-5d65-46d5-a30a-07f2c46a9214","system_id":"levelo_inurba_marseille","lat":43.29607,"lon":5.37725,"is_reserved":false,"is_disabled":false,"rental_uris":{"android":"levelo://app?vid=621af7f6-5d65-46d5-a30a-07f2c46a9214","ios":"levelo://app?vid=621af7f6-5d65-46d5-a30a-07f2c46a9214"},"vehicle_type_id":"4","last_reported":1784364038,"current_range_meters":38400,"station_id":"ce4bgi92rcd13ifvqb90","pricing_plan_id":"cebpf4jnsgd1na2vs0mg"},{"bike_id":"98bce0f5-25e4-4db3-b698-d3dcf6d7b213","system_id":"levelo_inurba_marseille","lat":43.24811,"lon":5.37468,"is_reserved":false,"is_disabled":false,"rental_uris":{"android":"levelo://app?vid=98bce0f5-25e4-4db3-b698-d3dcf6d7b213","ios":"levelo://app?vid=98bce0f5-25e4-4db3-b698-d3dcf6d7b213"},"vehicle_type_id":"4","last_reported":1784364038,"current_range_meters":27200,"station_id":"ce4bhgh2rcd13ifvqfb0","pricing_plan_id":"cebpf4jnsgd1na2vs0mg"},{"bike_id":"55df9da5-b8dd-4dc8-b3a1-119b3bc492ed","system_id":"levelo_inurba_marseille","lat":43.269287,"lon":5.389251,"is_reserved":false,"is_disabled":true,"rental_uris":{"android":"levelo://app?vid=55df9da5-b8dd-4dc8-b3a1-119b3bc492ed","ios":"levelo://app?vid=55df9da5-b8dd-4dc8-b3a1-119b3bc492ed"},"vehicle_type_id":"4","last_reported":1784364038,"current_range_meters":25600,"station_id":"ce4bhhh2rcd13ifvqfl0","pricing_plan_id":"cebpf4jnsgd1na2vs0mg"},{"bike_id":"1be67406-72be-41cb-a04c-edf496df1c3b","system_id":"levelo_inurba_marseille","lat":43.29101,"lon":5.38144,"is_reserved":false,"is_disabled":false,"rental_uris":{"android":"levelo://app?vid=1be67406-72be-41cb-a04c-edf496df1c3b","ios":"levelo://app?vid=1be67406-72be-41cb-a04c-edf496df1c3b"},"vehicle_type_id":"4","last_reported":1784364038,"current_range_meters":38400,"station_id":"","pricing_plan_id":"cebpf4jnsgd1na2vs0mg"},{"bike_id":"90335cbd-f11d-439b-be58-fd912e0ff2d9","system_id":"levelo_inurba_marseille","lat":43.29029,"lon":5.3813,"is_reserved":false,"is_disabled":false,"rental_uris":{"android":"levelo://app?vid=90335cbd-f11d-439b-be58-fd912e0ff2d9","ios":"levelo://app?vid=90335cbd-f11d-439b-be58-fd912e0ff2d9"},"vehicle_type_id":"4","last_reported":1784364038,"current_range_meters":38800,"station_id":"ce4bh4p2rcd13ifvqe1g","pricing_plan_id":"cebpf4jnsgd1na2vs0mg"},{"bike_id":"5f6b1ae6-492b-48bf-96a7-6bd84d108e0b","system_id":"levelo_inurba_marseille","lat":43.231944,"lon":5.355495,"is_reserved":false,"is_disabled":false,"rental_uris":{"android":"levelo://app?vid=5f6b1ae6-492b-48bf-96a7-6bd84d108e0b","ios":"levelo://app?vid=5f6b1ae6-492b-48bf-96a7-6bd84d108e0b"},"vehicle_type_id":"4","last_reported":1784364038,"current_range_meters":30400,"station_id":"ce4bhu92rcd13ifvqi70","pricing_plan_id":"cebpf4jnsgd1na2vs0mg"},{"bike_id":"403ed113-d703-4988-a502-34b4d9280a58","system_id":"levelo_inurba_marseille","lat":43.29096,"lon":5.38149,"is_reserved":false,"is_disabled":false,"rental_uris":{"android":"levelo://app?vid=403ed113-d703-4988-a502-34b4d9280a58","ios":"levelo://app?vid=403ed113-d703-4988-a502-34b4d9280a58"},"vehicle_type_id":"4","last_reported":1784364038,"current_range_meters":7200,"station_id":"","pricing_plan_id":"cebpf4jnsgd1na2vs0mg"},{"bike_id":"15dbfdf7-4794-4a1a-b7ef-638e500255e4","system_id":"levelo_inurba_marseille","lat":43.337444,"lon":5.374475,"is_reserved":false,"is_disabled":false,"rental_uris":{"android":"levelo://app?vid=15dbfdf7-4794-4a1a-b7ef-638e500255e4","ios":"levelo://app?vid=15dbfdf7-4794-4a1a-b7ef-638e500255e4"},"vehicle_type_id":"4","last_reported":1784364038,"current_range_meters":38800,"station_id":"","pricing_plan_id":"cebpf4jnsgd1na2vs0mg"},{"bike_id":"3c5ffc7e-5f22-44bb-9587-c15e8e458634","system_id":"levelo_inurba_marseille","lat":43.3034,"lon":5.40438,"is_reserved":false,"is_disabled":false,"rental_uris":{"android":"levelo://app?vid=3c5ffc7e-5f22-44bb-9587-c15e8e458634","ios":"levelo://app?vid=3c5ffc7e-5f22-44bb-9587-c15e8e458634"},"vehicle_type_id":"4","last_reported":1784364038,"current_range_meters":38400,"station_id":"ce4bh012rcd13ifvqd10","pricing_plan_id":"cebpf4jnsgd1na2vs0mg"},{"bike_id":"aa899d6f-0408-4a23-8d3b-ffb1059b430c","system_id":"levelo_inurba_marseille","lat":43.2396,"lon":5.36637,"is_reserved":false,"is_disabled":false,"rental_uris":{"android":"levelo://app?vid=aa899d6f-0408-4a23-8d3b-ffb1059b430c","ios":"levelo://app?vid=aa899d6f-0408-4a23-8d3b-ffb1059b430c"},"vehicle_type_id":"4","last_reported":1784364038,"current_range_meters":10800,"station_id":"ce4bhi12rcd13ifvqfp0","pricing_plan_id":"cebpf4jnsgd1na2vs0mg"},{"bike_id":"9dcfdf96-578b-46e7-b429-1767b2ea8f00","system_id":"levelo_inurba_marseille","lat":43.24667,"lon":5.38158,"is_reserved":false,"is_disabled":false,"rental_uris":{"android":"levelo://app?vid=9dcfdf96-578b-46e7-b429-1767b2ea8f00","ios":"levelo://app?vid=9dcfdf96-578b-46e7-b429-1767b2ea8f00"},"vehicle_type_id":"4","last_reported":1784364038,"current_range_meters":38000,"station_id":"ce4bhih2rcd13ifvqfr0","pricing_plan_id":"cebpf4jnsgd1na2vs0mg"},{"bike_id":"9fc8cbab-c7f1-4b0c-8deb-d790633e930c","system_id":"levelo_inurba_marseille","lat":43.30934,"lon":5.40168,"is_reserved":false,"is_disabled":false,"rental_uris":{"android":"levelo://app?vid=9fc8cbab-c7f1-4b0c-8deb-d790633e930c","ios":"levelo://app?vid=9fc8cbab-c7f1-4b0c-8deb-d790633e930c"},"vehicle_type_id":"4","last_reported":1784364038,"current_range_meters":4400,"station_id":"ce4bgvp2rcd13ifvqct0","pricing_plan_id":"cebpf4jnsgd1na2vs0mg"},{"bike_id":"bef8e76d-326f-46b4-ba98-4a4fabf8ce7e","system_id":"levelo_inurba_marseille","lat":43.24988,"lon":5.38928,"is_reserved":false,"is_disabled":false,"rental_uris":{"android":"levelo://app?vid=bef8e76d-326f-46b4-ba98-4a4fabf8ce7e","ios":"levelo://app?vid=bef8e76d-326f-46b4-ba98-4a4fabf8ce7e"},"vehicle_type_id":"4","last_reported":1784364038,"current_range_meters":37600,"station_id":"ce4bhgp2rcd13ifvqfd0","pricing_plan_id":"cebpf4jnsgd1na2vs0mg"},{"bike_id":"7604574c-06cb-407e-9e16-b7858411e1bc","system_id":"levelo_inurba_marseille","lat":43.27814,"lon":5.40707,"is_reserved":false,"is_disabled":true,"rental_uris":{"android":"levelo://app?vid=7604574c-06cb-407e-9e16-b7858411e1bc","ios":"levelo://app?vid=7604574c-06cb-407e-9e16-b7858411e1bc"},"vehicle_type_id":"4","last_reported":1784364038,"current_range_meters":19200,"station_id":"ce4bhnh2rcd13ifvqgtg","pricing_plan_id":"cebpf4jnsgd1na2vs0mg"},{"bike_id":"600d3649-4b6d-473c-a715-d27921e00684","system_id":"levelo_inurba_marseille","lat":43.23191,"lon":5.35553,"is_reserved":false,"is_disabled":false,"rental_uris":{"android":"levelo://app?vid=600d3649-4b6d-473c-a715-d27921e00684","ios":"levelo://app?vid=600d3649-4b6d-473c-a715-d27921e00684"},"vehicle_type_id":"4","last_reported":1784364038,"current_range_meters":23200,"station_id":"ce4bhu92rcd13ifvqi70","pricing_plan_id":"cebpf4jnsgd1na2vs0mg"},{"bike_id":"d27d734a-e368-4394-8aca-078702ef8cde","system_id":"levelo_inurba_marseille","lat":43.27971,"lon":5.38752,"is_reserved":false,"is_disabled":false,"rental_uris":{"android":"levelo://app?vid=d27d734a-e368-4394-8aca-078702ef8cde","ios":"levelo://app?vid=d27d734a-e368-4394-8aca-078702ef8cde"},"vehicle_type_id":"4","last_reported":1784364038,"current_range_meters":39200,"station_id":"ce4bhg12rcd13ifvqf80","pricing_plan_id":"cebpf4jnsgd1na2vs0mg"},{"bike_id":"8601b829-59f8-4eab-bab2-2f8e891d8617","system_id":"levelo_inurba_marseille","lat":43.254993,"lon":5.376487,"is_reserved":false,"is_disabled":false,"rental_uris":{"android":"levelo://app?vid=8601b829-59f8-4eab-bab2-2f8e891d8617","ios":"levelo://app?vid=8601b829-59f8-4eab-bab2-2f8e891d8617"},"vehicle_type_id":"4","last_reported":1784364038,"current_range_meters":26000,"station_id":"ce4bhh12rcd13ifvqff0","pricing_plan_id":"cebpf4jnsgd1na2vs0mg"},{"bike_id":"ba379027-e543-479a-87b0-c944e42746e1","system_id":"levelo_inurba_marseille","lat":43.30271,"lon":5.37703,"is_reserved":false,"is_disabled":false,"rental_uris":{"android":"levelo://app?vid=ba379027-e543-479a-87b0-c944e42746e1","ios":"levelo://app?vid=ba379027-e543-479a-87b0-c944e42746e1"},"vehicle_type_id":"4","last_reported":1784364038,"current_range_meters":38400,"station_id":"ce4bguh2rcd13ifvqcj0","pricing_plan_id":"cebpf4jnsgd1na2vs0mg"},{"bike_id":"37967e0f-8dc1-4447-a933-7ddca7a9f7c5","system_id":"levelo_inurba_marseille","lat":43.29026,"lon":5.39965,"is_reserved":false,"is_disabled":false,"rental_uris":{"android":"levelo://app?vid=37967e0f-8dc1-4447-a933-7ddca7a9f7c5","ios":"levelo://app?vid=37967e0f-8dc1-4447-a933-7ddca7a9f7c5"},"vehicle_type_id":"4","last_reported":1784364038,"current_range_meters":12000,"station_id":"ce4bh392rcd13ifvqdm0","pricing_plan_id":"cebpf4jnsgd1na2vs0mg"},{"bike_id":"81959744-4786-4515-8028-caa8a3c86e5c","system_id":"levelo_inurba_marseille","lat":43.23899,"lon":5.37471,"is_reserved":false,"is_disabled":false,"rental_uris":{"android":"levelo://app?vid=81959744-4786-4515-8028-caa8a3c86e5c","ios":"levelo://app?vid=81959744-4786-4515-8028-caa8a3c86e5c"},"vehicle_type_id":"4","last_reported":1784364038,"current_range_meters":38400,"station_id":"st_d6sm7csbq4hs73f8fpjg","pricing_plan_id":"cebpf4jnsgd1na2vs0mg"},{"bike_id":"d1210815-3b6f-46d9-8562-5a9f90c2f696","system_id":"levelo_inurba_marseille","lat":43.29202,"lon":5.35785,"is_reserved":false,"is_disabled":true,"rental_uris":{"android":"levelo://app?vid=d1210815-3b6f-46d9-8562-5a9f90c2f696","ios":"levelo://app?vid=d1210815-3b6f-46d9-8562-5a9f90c2f696"},"vehicle_type_id":"4","last_reported":1784364038,"current_range_meters":8000,"station_id":"ce4bhb12rcd13ifvqel0","pricing_plan_id":"cebpf4jnsgd1na2vs0mg"},