{"last_updated":1778865654,"ttl":60,"version":"2.2","data":{"bikes":[{"bike_id":"31dde980-6bbf-4f52-9d3a-c9fabc720dea","system_id":"levelo_inurba_marseille","lat":43.29,"lon":5.35607,"is_reserved":false,"is_disabled":true,"rental_uris":{"android":"levelo://app?vid=31dde980-6bbf-4f52-9d3a-c9fabc720dea","ios":"levelo://app?vid=31dde980-6bbf-4f52-9d3a-c9fabc720dea"},"vehicle_type_id":"4","last_reported":1778865655,"current_range_meters":2800,"station_id":"ce4bhb92rcd13ifvqen0","pricing_plan_id":"cebpf4jnsgd1na2vs0mg"},{"bike_id":"cbd319b4-1a76-42c8-a8cd-b21cc8eba74e","system_id":"levelo_inurba_marseille","lat":43.33218,"lon":5.43052,"is_reserved":false,"is_disabled":false,"rental_uris":{"android":"levelo://app?vid=cbd319b4-1a76-42c8-a8cd-b21cc8eba74e","ios":"levelo://app?vid=cbd319b4-1a76-42c8-a8cd-b21cc8eba74e"},"vehicle_type_id":"4","last_reported":1778865655,"current_range_meters":2800,"station_id":"","pricing_plan_id":"cebpf4jnsgd1na2vs0mg"},{"bike_id":"cd0064d0-4abe-494b-a682-ac0dd5816768","system_id":"levelo_inurba_marseille","lat":43.25509,"lon":5.37653,"is_reserved":false,"is_disabled":false,"rental_uris":{"android":"levelo://app?vid=cd0064d0-4abe-494b-a682-ac0dd5816768","ios":"levelo://app?vid=cd0064d0-4abe-494b-a682-ac0dd5816768"},"vehicle_type_id":"4","last_reported":1778865655,"current_range_meters":2800,"station_id":"ce4bhh12rcd13ifvqff0","pricing_plan_id":"cebpf4jnsgd1na2vs0mg"},{"bike_id":"b2bafe0a-874d-4c9f-9005-1e7a113b2e65","system_id":"levelo_inurba_marseille","lat":43.23053,"lon":5.35493,"is_reserved":false,"is_disabled":true,"rental_uris":{"android":"levelo://app?vid=b2bafe0a-874d-4c9f-9005-1e7a113b2e65","ios":"levelo://app?vid=b2bafe0a-874d-4c9f-9005-1e7a113b2e65"},"vehicle_type_id":"4","last_reported":1778865655,"current_range_meters":2800,"station_id":"cpo3342slgdg3j2ifvpg","pricing_plan_id":"cebpf4jnsgd1na2vs0mg"},{"bike_id":"b39bdacd-15e5-4470-9098-75a3880894c9","system_id":"levelo_inurba_marseille","lat":43.246552,"lon":5.381626,"is_reserved":false,"is_disabled":false,"rental_uris":{"android":"levelo://app?vid=b39bdacd-15e5-4470-9098-75a3880894c9","ios":"levelo://app?vid=b39bdacd-15e5-4470-9098-75a3880894c9"},"vehicle_type_id":"4","last_reported":1778865655,"current_range_meters":2800,"station_id":"ce4bhih2rcd13ifvqfr0","pricing_plan_id":"cebpf4jnsgd1na2vs0mg"},{"bike_id":"728ede5e-8396-42a0-9807-0882eca13298","system_id":"levelo_inurba_marseille","lat":43.25511,"lon":5.3763,"is_reserved":false,"is_disabled":true,"rental_uris":{"android":"levelo://app?vid=728ede5e-8396-42a0-9807-0882eca13298","ios":"levelo://app?vid=728ede5e-8396-42a0-9807-0882eca13298"},"vehicle_type_id":"4","last_reported":1778865655,"current_range_meters":2800,"station_id":"ce4bhh12rcd13ifvqff0","pricing_plan_id":"cebpf4jnsgd1na2vs0mg"},{"bike_id":"beaff2d7-3b92-4800-aae1-3aec0cb5007d","system_id":"levelo_inurba_marseille","lat":43.29223,"lon":5.39962,"is_reserved":false,"is_disabled":false,"rental_uris":{"android":"levelo://app?vid=beaff2d7-3b92-4800-aae1-3aec0cb5007d","ios":"levelo://app?vid=beaff2d7-3b92-4800-aae1-3aec0cb5007d"},"vehicle_type_id":"4","last_reported":1778865655,"current_range_meters":2800,"station_id":"","pricing_plan_id":"cebpf4jnsgd1na2vs0mg"},{"bike_id":"c61786e1-9f5e-499a-8c07-617d1b26dcfc","system_id":"levelo_inurba_marseille","lat":43.231925,"lon":5.355491,"is_reserved":false,"is_disabled":false,"rental_uris":{"android":"levelo://app?vid=c61786e1-9f5e-499a-8c07-617d1b26dcfc","ios":"levelo://app?vid=c61786e1-9f5e-499a-8c07-617d1b26dcfc"},"vehicle_type_id":"4","last_reported":1778865655,"current_range_meters":2800,"station_id":"ce4bhu92rcd13ifvqi70","pricing_plan_id":"cebpf4jnsgd1na2vs0mg"},{"bike_id":"c9a1b626-1a87-4275-833e-d62fa874aef8","system_id":"levelo_inurba_marseille","lat":43.26221,"lon":5.37426,"is_reserved":false,"is_disabled":false,"rental_uris":{"android":"levelo://app?vid=c9a1b626-1a87-4275-833e-d62fa874aef8","ios":"levelo://app?vid=c9a1b626-1a87-4275-833e-d62fa874aef8"},"vehicle_type_id":"4","last_reported":1778865655,"current_range_meters":2800,"station_id":"","pricing_plan_id":"cebpf4jnsgd1na2vs0mg"},{"bike_id":"b53ed71f-1e3a-4b14-a6f4-cb5c05a2b39f","system_id":"levelo_inurba_marseille","lat":43.30644,"lon":5.40113,"is_reserved":false,"is_disabled":false,"rental_uris":{"android":"levelo://app?vid=b53ed71f-1e3a-4b14-a6f4-cb5c05a2b39f","ios":"levelo://app?vid=b53ed71f-1e3a-4b14-a6f4-cb5c05a2b39f"},"vehicle_type_id":"4","last_reported":1778865655,"current_range_meters":2800,"station_id":"ce4bh112rcd13ifvqda0","pricing_plan_id":"cebpf4jnsgd1na2vs0mg"},{"bike_id":"f501c594-1da3-46dd-9294-e8ccc5849446","system_id":"levelo_inurba_marseille","lat":43.33604,"lon":5.41034,"is_reserved":false,"is_disabled":false,"rental_uris":{"android":"levelo://app?vid=f501c594-1da3-46dd-9294-e8ccc5849446","ios":"levelo://app?vid=f501c594-1da3-46dd-9294-e8ccc5849446"},"vehicle_type_id":"4","last_reported":1778865655,"current_range_meters":2800,"station_id":"ce4bhqh2rcd13ifvqhmg","pricing_plan_id":"cebpf4jnsgd1na2vs0mg"},{"bike_id":"62b8a460-e223-403d-9262-0ed00e77d0fe","system_id":"levelo_inurba_marseille","lat":43.25831,"lon":5.39435,"is_reserved":false,"is_disabled":false,"rental_uris":{"android":"levelo://app?vid=62b8a460-e223-403d-9262-0ed00e77d0fe","ios":"levelo://app?vid=62b8a460-e223-403d-9262-0ed00e77d0fe"},"vehicle_type_id":"4","last_reported":1778865655,"current_range_meters":2800,"station_id":"ce4bhip2rcd13ifvqft0","pricing_plan_id":"cebpf4jnsgd1na2vs0mg"},{"bike_id":"833604dc-71a1-4a23-8e0e-91f7337f4621","system_id":"levelo_inurba_marseille","lat":43.22929,"lon":5.35377,"is_reserved":false,"is_disabled":false,"rental_uris":{"android":"levelo://app?vid=833604dc-71a1-4a23-8e0e-91f7337f4621","ios":"levelo://app?vid=833604dc-71a1-4a23-8e0e-91f7337f4621"},"vehicle_type_id":"4","last_reported":1778865655,"current_range_meters":2800,"station_id":"cpo3532slgdg3j2ikp40","pricing_plan_id":"cebpf4jnsgd1na2vs0mg"},{"bike_id":"f91187cb-b959-4794-ad59-e5e1b9c89085","system_id":"levelo_inurba_marseille","lat":43.26567,"lon":5.39032,"is_reserved":false,"is_disabled":false,"rental_uris":{"android":"levelo://app?vid=f91187cb-b959-4794-ad59-e5e1b9c89085","ios":"levelo://app?vid=f91187cb-b959-4794-ad59-e5e1b9c89085"},"vehicle_type_id":"4","last_reported":1778865655,"current_range_meters":2800,"station_id":"ce4bhe12rcd13ifvqf30","pricing_plan_id":"cebpf4jnsgd1na2vs0mg"},{"bike_id":"7b822beb-2db7-42d1-8aba-6aa6ecd20b99","system_id":"levelo_inurba_marseille","lat":43.30302,"lon":5.392102,"is_reserved":false,"is_disabled":false,"rental_uris":{"android":"levelo://app?vid=7b822beb-2db7-42d1-8aba-6aa6ecd20b99","ios":"levelo://app?vid=7b822beb-2db7-42d1-8aba-6aa6ecd20b99"},"vehicle_type_id":"4","last_reported":1778865655,"current_range_meters":3200,"station_id":"ce4bgkh2rcd13ifvqbk0","pricing_plan_id":"cebpf4jnsgd1na2vs0mg"},{"bike_id":"4386a1a8-bd22-4967-a962-135850809da0","system_id":"levelo_inurba_marseille","lat":43.25846,"lon":5.39898,"is_reserved":false,"is_disabled":false,"rental_uris":{"android":"levelo://app?vid=4386a1a8-bd22-4967-a962-135850809da0","ios":"levelo://app?vid=4386a1a8-bd22-4967-a962-135850809da0"},"vehicle_type_id":"4","last_reported":1778865655,"current_range_meters":3200,"station_id":"ce4bhl92rcd13ifvqghg","pricing_plan_id":"cebpf4jnsgd1na2vs0mg"},{"bike_id":"0e13e83f-fed3-4512-97a9-d8ee6bcb36af","system_id":"levelo_inurba_marseille","lat":43.26978,"lon":5.38875,"is_reserved":false,"is_disabled":false,"rental_uris":{"android":"levelo://app?vid=0e13e83f-fed3-4512-97a9-d8ee6bcb36af","ios":"levelo://app?vid=0e13e83f-fed3-4512-97a9-d8ee6bcb36af"},"vehicle_type_id":"4","last_reported":1778865655,"current_range_meters":3200,"station_id":"","pricing_plan_id":"cebpf4jnsgd1na2vs0mg"},{"bike_id":"0caa6e24-40af-444f-bb60-106d12241bd4","system_id":"levelo_inurba_marseille","lat":43.32105,"lon":5.36771,"is_reserved":false,"is_disabled":false,"rental_uris":{"android":"levelo://app?vid=0caa6e24-40af-444f-bb60-106d12241bd4","ios":"levelo://app?vid=0caa6e24-40af-444f-bb60-106d12241bd4"},"vehicle_type_id":"4","last_reported":1778865655,"current_range_meters":3200,"station_id":"ce4bhrh2rcd13ifvqhug","pricing_plan_id":"cebpf4jnsgd1na2vs0mg"},{"bike_id":"9f1477d1-0a6f-49e0-aa9b-cbaf4a58360c","system_id":"levelo_inurba_marseille","lat":43.29709,"lon":5.37709,"is_reserved":false,"is_disabled":false,"rental_uris":{"android":"levelo://app?vid=9f1477d1-0a6f-49e0-aa9b-cbaf4a58360c","ios":"levelo://app?vid=9f1477d1-0a6f-49e0-aa9b-cbaf4a58360c"},"vehicle_type_id":"4","last_reported":1778865655,"current_range_meters":3200,"station_id":"ce4bgkh2rcd13ifvqbl0","pricing_plan_id":"cebpf4jnsgd1na2vs0mg"},{"bike_id":"d2d34ecd-2327-4e3b-801c-4f86c48483f9","system_id":"levelo_inurba_marseille","lat":43.29915,"lon":5.4366,"is_reserved":false,"is_disabled":false,"rental_uris":{"android":"levelo://app?vid=d2d34ecd-2327-4e3b-801c-4f86c48483f9","ios":"levelo://app?vid=d2d34ecd-2327-4e3b-801c-4f86c48483f9"},"vehicle_type_id":"4","last_reported":1778865655,"current_range_meters":3200,"station_id":"ce4bhpp2rcd13ifvqhfg","pricing_plan_id":"cebpf4jnsgd1na2vs0mg"},{"bike_id":"73723c69-fb82-470e-ba43-d67554376f38","system_id":"levelo_inurba_marseille","lat":43.25089,"lon":5.40581,"is_reserved":false,"is_disabled":false,"rental_uris":{"android":"levelo://app?vid=73723c69-fb82-470e-ba43-d67554376f38","ios":"levelo://app?vid=73723c69-fb82-470e-ba43-d67554376f38"},"vehicle_type_id":"4","last_reported":1778865655,"current_range_meters":3200,"station_id":"","pricing_plan_id":"cebpf4jnsgd1na2vs0mg"},{"bike_id":"41bd9b1b-41a2-4ad0-aae6-c6549945ffd5","system_id":"levelo_inurba_marseille","lat":43.29255,"lon":5.38433,"is_reserved":false,"is_disabled":false,"rental_uris":{"android":"levelo://app?vid=41bd9b1b-41a2-4ad0-aae6-c6549945ffd5","ios":"levelo://app?vid=41bd9b1b-41a2-4ad0-aae6-c6549945ffd5"},"vehicle_type_id":"4","last_reported":1778865655,"current_range_meters":3200,"station_id":"ce4bh692rcd13ifvqea0","pricing_plan_id":"cebpf4jnsgd1na2vs0mg"},{"bike_id":"e4795ebb-fa01-470e-b7a8-9dee1cfc0a71","system_id":"levelo_inurba_marseille","lat":43.24456,"lon":5.42542,"is_reserved":false,"is_disabled":false,"rental_uris":{"android":"levelo://app?vid=e4795ebb-fa01-470e-b7a8-9dee1cfc0a71","ios":"levelo://app?vid=e4795ebb-fa01-470e-b7a8-9dee1cfc0a71"},"vehicle_type_id":"4","last_reported":1778865655,"current_range_meters":3600,"station_id":"st_d4a3vfp97mjs738cd8kg","pricing_plan_id":"cebpf4jnsgd1na2vs0mg"},{"bike_id":"16423d0e-4485-4064-862f-fa260cb5c91d","system_id":"levelo_inurba_marseille","lat":43.28845,"lon":5.35864,"is_reserved":false,"is_disabled":false,"rental_uris":{"android":"levelo://app?vid=16423d0e-4485-4064-862f-fa260cb5c91d","ios":"levelo://app?vid=16423d0e-4485-4064-862f-fa260cb5c91d"},"vehicle_type_id":"4","last_reported":1778865655,"current_range_meters":3600,"station_id":"ce4bhb12rcd13ifvqem0","pricing_plan_id":"cebpf4jnsgd1na2vs0mg"},{"bike_id":"2a2f7af4-3c67-4e6f-93f7-daddb241d69b","system_id":"levelo_inurba_marseille","lat":43.29493,"lon":5.4331,"is_reserved":false,"is_disabled":false,"rental_uris":{"android":"levelo://app?vid=2a2f7af4-3c67-4e6f-93f7-daddb241d69b","ios":"levelo://app?vid=2a2f7af4-3c67-4e6f-93f7-daddb241d69b"},"vehicle_type_id":"4","last_reported":1778865655,"current_range_meters":3600,"station_id":"st_d3j5ugp08ojc73fj9d10","pricing_plan_id":"cebpf4jnsgd1na2vs0mg"},{"bike_id":"d1e77208-f010-4d42-97b2-81a7c51c0243","system_id":"levelo_inurba_marseille","lat":43.3081,"lon":5.38142,"is_reserved":false,"is_disabled":true,"rental_uris":{"android":"levelo://app?vid=d1e77208-f010-4d42-97b2-81a7c51c0243","ios":"levelo://app?vid=d1e77208-f010-4d42-97b2-81a7c51c0243"},"vehicle_type_id":"4","last_reported":1778865655,"current_range_meters":3600,"station_id":"ce4bgt12rcd13ifvqce0","pricing_plan_id":"cebpf4jnsgd1na2vs0mg"},{"bike_id":"5ce02f4a-3210-4acf-992d-4e4316cbea4f","system_id":"levelo_inurba_marseille","lat":43.28528,"lon":5.44104,"is_reserved":false,"is_disabled":false,"rental_uris":{"android":"levelo://app?vid=5ce02f4a-3210-4acf-992d-4e4316cbea4f","ios":"levelo://app?vid=5ce02f4a-3210-4acf-992d-4e4316cbea4f"},"vehicle_type_id":"4","last_reported":1778865655,"current_range_meters":3600,"station_id":"st_d3j3df2ikq2c7380ej80","pricing_plan_id":"cebpf4jnsgd1na2vs0mg"},{"bike_id":"fdae2706-b15f-4eee-87f5-aa6ecfea758a","system_id":"levelo_inurba_marseille","lat":43.30226,"lon":5.40059,"is_reserved":false,"is_disabled":false,"rental_uris":{"android":"levelo://app?vid=fdae2706-b15f-4eee-87f5-aa6ecfea758a","ios":"levelo://app?vid=fdae2706-b15f-4eee-87f5-aa6ecfea758a"},"vehicle_type_id":"4","last_reported":1778865655,"current_range_meters":3600,"station_id":"ce4bgvh2rcd13ifvqcs0","pricing_plan_id":"cebpf4jnsgd1na2vs0mg"},{"bike_id":"eb3d4ad3-e107-406a-b64d-35e58ed665f9","system_id":"levelo_inurba_marseille","lat":43.30393,"lon":5.4249,"is_reserved":false,"is_disabled":false,"rental_uris":{"android":"levelo://app?vid=eb3d4ad3-e107-406a-b64d-35e58ed665f9","ios":"levelo://app?vid=eb3d4ad3-e107-406a-b64d-35e58ed665f9"},"vehicle_type_id":"4","last_reported":1778865655,"current_range_meters":3600,"station_id":"ce4bhoh2rcd13ifvqh6g","pricing_plan_id":"cebpf4jnsgd1na2vs0mg"},{"bike_id":"d502f2fd-27d7-4149-8e85-3e15ac92fc40","system_id":"levelo_inurba_marseille","lat":43.29564,"lon":5.39967,"is_reserved":false,"is_disabled":true,"rental_uris":{"android":"levelo://app?vid=d502f2fd-27d7-4149-8e85-3e15ac92fc40","ios":"levelo://app?vid=d502f2fd-27d7-4149-8e85-3e15ac92fc40"},"vehicle_type_id":"4","last_reported":1778865655,"current_range_meters":3600,"station_id":"ce4bh312rcd13ifvqdj0","pricing_plan_id":"cebpf4jnsgd1na2vs0mg"},{"bike_id":"6d3045cd-b89d-4cc7-86be-f42b3f51960f","system_id":"levelo_inurba_marseille","lat":43.28469,"lon":5.38435,"is_reserved":false,"is_disabled":false,"rental_uris":{"android":"levelo://app?vid=6d3045cd-b89d-4cc7-86be-f42b3f51960f","ios":"levelo://app?vid=6d3045cd-b89d-4cc7-86be-f42b3f51960f"},"vehicle_type_id":"4","last_reported":1778865655,"current_range_meters":3600,"station_id":"ce4bh512rcd13ifvqe3g","pricing_plan_id":"cebpf4jnsgd1na2vs0mg"},{"bike_id":"30a0c688-7c3f-4e84-8ab4-df0d032c3e34","system_id":"levelo_inurba_marseille","lat":43.23891,"lon":5.37466,"is_reserved":false,"is_disabled":true,"rental_uris":{"android":"levelo://app?vid=30a0c688-7c3f-4e84-8ab4-df0d032c3e34","ios":"levelo://app?vid=30a0c688-7c3f-4e84-8ab4-df0d032c3e34"},"vehicle_type_id":"4","last_reported":1778865655,"current_range_meters":3600,"station_id":"st_d6sm7csbq4hs73f8fpjg","pricing_plan_id":"cebpf4jnsgd1na2vs0mg"},{"bike_id":"34cc4d3a-e7bf-4318-861e-844fc97a8b48","system_id":"levelo_inurba_marseille","lat":43.33161,"lon":5.4065,"is_reserved":false,"is_disabled":false,"rental_uris":{"android":"levelo://app?vid=34cc4d3a-e7bf-4318-861e-844fc97a8b48","ios":"levelo://app?vid=34cc4d3a-e7bf-4318-861e-844fc97a8b48"},"vehicle_type_id":"4","last_reported":1778865655,"current_range_meters":3600,"station_id":"","pricing_plan_id":"cebpf4jnsgd1na2vs0mg"},{"bike_id":"e36532c2-ddb9-4563-abd9-fae398cf334d","system_id":"levelo_inurba_marseille","lat":43.29186,"lon":5.35799,"is_reserved":false,"is_disabled":false,"rental_uris":{"android":"levelo://app?vid=e36532c2-ddb9-4563-abd9-fae398cf334d","ios":"levelo://app?vid=e36532c2-ddb9-4563-abd9-fae398cf334d"},"vehicle_type_id":"4","last_reported":1778865655,"current_range_meters":3600,"station_id":"ce4bhb12rcd13ifvqel0","pricing_plan_id":"cebpf4jnsgd1na2vs0mg"},{"bike_id":"8fbd0612-dece-4262-a661-aee2766f8651","system_id":"levelo_inurba_marseille","lat":43.225359,"lon":5.348402,"is_reserved":false,"is_disabled":true,"rental_uris":{"android":"levelo://app?vid=8fbd0612-dece-4262-a661-aee2766f8651","ios":"levelo://app?vid=8fbd0612-dece-4262-a661-aee2766f8651"},"vehicle_type_id":"4","last_reported":1778865655,"current_range_meters":3600,"station_id":"st_cvj5dfep6f1abm77gieg","pricing_plan_id":"cebpf4jnsgd1na2vs0mg"},{"bike_id":"f61bd6b5-2fc0-4815-842c-74552042b784","system_id":"levelo_inurba_marseille","lat":43.2871,"lon":5.46676,"is_reserved":false,"is_disabled":false,"rental_uris":{"android":"levelo://app?vid=f61bd6b5-2fc0-4815-842c-74552042b784","ios":"levelo://app?vid=f61bd6b5-2fc0-4815-842c-74552042b784"},"vehicle_type_id":"4","last_reported":1778865655,"current_range_meters":4000,"station_id":"st_d6tc3vkotcvc738tfjhg","pricing_plan_id":"cebpf4jnsgd1na2vs0mg"},{"bike_id":"27dc2f24-6b21-4e46-8d66-d63b924e89b8","system_id":"levelo_inurba_marseille","lat":43.29271,"lon":5.36847,"is_reserved":false,"is_disabled":false,"rental_uris":{"android":"levelo://app?vid=27dc2f24-6b21-4e46-8d66-d63b924e89b8","ios":"levelo://app?vid=27dc2f24-6b21-4e46-8d66-d63b924e89b8"},"vehicle_type_id":"4","last_reported":1778865655,"current_range_meters":4000,"station_id":"ce4bhbp2rcd13ifvqesg","pricing_plan_id":"cebpf4jnsgd1na2vs0mg"},{"bike_id":"65da6c4e-839f-4523-be08-b9782362b693","system_id":"levelo_inurba_marseille","lat":43.23196,"lon":5.39983,"is_reserved":false,"is_disabled":false,"rental_uris":{"android":"levelo://app?vid=65da6c4e-839f-4523-be08-b9782362b693","ios":"levelo://app?vid=65da6c4e-839f-4523-be08-b9782362b693"},"vehicle_type_id":"4","last_reported":1778865655,"current_range_meters":4000,"station_id":"ce4bhn12rcd13ifvqgqg","pricing_plan_id":"cebpf4jnsgd1na2vs0mg"},{"bike_id":"297f3395-182a-47af-a2af-1e691b3cc545","system_id":"levelo_inurba_marseille","lat":43.29025,"lon":5.38649,"is_reserved":false,"is_disabled":false,"rental_uris":{"android":"levelo://app?vid=297f3395-182a-47af-a2af-1e691b3cc545","ios":"levelo://app?vid=297f3395-182a-47af-a2af-1e691b3cc545"},"vehicle_type_id":"4","last_reported":1778865655,"current_range_meters":4000,"station_id":"ce4bh4p2rcd13ifvqe0g","pricing_plan_id":"cebpf4jnsgd1na2vs0mg"},{"bike_id":"0f812f8c-5af1-4384-a0eb-7fa402a166e9","system_id":"levelo_inurba_marseille","lat":43.284763,"lon":5.38413,"is_reserved":false,"is_disabled":false,"rental_uris":{"android":"levelo://app?vid=0f812f8c-5af1-4384-a0eb-7fa402a166e9","ios":"levelo://app?vid=0f812f8c-5af1-4384-a0eb-7fa402a166e9"},"vehicle_type_id":"4","last_reported":1778865655,"current_range_meters":4000,"station_id":"ce4bh512rcd13ifvqe3g","pricing_plan_id":"cebpf4jnsgd1na2vs0mg"},{"bike_id":"e68395aa-2161-4934-b97f-9ce401107932","system_id":"levelo_inurba_marseille","lat":43.28845,"lon":5.39648,"is_reserved":false,"is_disabled":false,"rental_uris":{"android":"levelo://app?vid=e68395aa-2161-4934-b97f-9ce401107932","ios":"levelo://app?vid=e68395aa-2161-4934-b97f-9ce401107932"},"vehicle_type_id":"4","last_reported":1778865655,"current_range_meters":4000,"station_id":"","pricing_plan_id":"cebpf4jnsgd1na2vs0mg"},{"bike_id":"ab69722a-c454-4df3-bbec-360cf384b4a4","system_id":"levelo_inurba_marseille","lat":43.269348,"lon":5.386475,"is_reserved":false,"is_disabled":false,"rental_uris":{"android":"levelo://app?vid=ab69722a-c454-4df3-bbec-360cf384b4a4","ios":"levelo://app?vid=ab69722a-c454-4df3-bbec-360cf384b4a4"},"vehicle_type_id":"4","last_reported":1778865655,"current_range_meters":4000,"station_id":"ce4bhhp2rcd13ifvqfm0","pricing_plan_id":"cebpf4jnsgd1na2vs0mg"},{"bike_id":"5d09f941-0b02-41c7-82a2-efc726f6823a","system_id":"levelo_inurba_marseille","lat":43.28355,"lon":5.3866,"is_reserved":false,"is_disabled":false,"rental_uris":{"android":"levelo://app?vid=5d09f941-0b02-41c7-82a2-efc726f6823a","ios":"levelo://app?vid=5d09f941-0b02-41c7-82a2-efc726f6823a"},"vehicle_type_id":"4","last_reported":1778865655,"current_range_meters":4000,"station_id":"ce4bh492rcd13ifvqdvg","pricing_plan_id":"cebpf4jnsgd1na2vs0mg"},{"bike_id":"ec245854-e5d8-47c1-b389-4483328dcfb6","system_id":"levelo_inurba_marseille","lat":43.264743,"lon":5.395637,"is_reserved":false,"is_disabled":false,"rental_uris":{"android":"levelo://app?vid=ec245854-e5d8-47c1-b389-4483328dcfb6","ios":"levelo://app?vid=ec245854-e5d8-47c1-b389-4483328dcfb6"},"vehicle_type_id":"4","last_reported":1778865655,"current_range_meters":4000,"station_id":"ce4bhi12rcd13ifvqfq0","pricing_plan_id":"cebpf4jnsgd1na2vs0mg"},{"bike_id":"fe7d93d6-045d-4262-9216-5e84078f29ac","system_id":"levelo_inurba_marseille","lat":43.24069,"lon":5.37746,"is_reserved":false,"is_disabled":true,"rental_uris":{"android":"levelo://app?vid=fe7d93d6-045d-4262-9216-5e84078f29ac","ios":"levelo://app?vid=fe7d93d6-045d-4262-9216-5e84078f29ac"},"vehicle_type_id":"4","last_reported":1778865655,"current_range_meters":4000,"station_id":"ce4bhnp2rcd13ifvqgvg","pricing_plan_id":"cebpf4jnsgd1na2vs0mg"},{"bike_id":"344cfa8c-9257-41d7-9ee1-926c1b3f7189","system_id":"levelo_inurba_marseille","lat":43.30613,"lon":5.37232,"is_reserved":false,"is_disabled":false,"rental_uris":{"android":"levelo://app?vid=344cfa8c-9257-41d7-9ee1-926c1b3f7189","ios":"levelo://app?vid=344cfa8c-9257-41d7-9ee1-926c1b3f7189"},"vehicle_type_id":"4","last_reported":1778865655,"current_range_meters":4000,"station_id":"ce4bgqh2rcd13ifvqc4g","pricing_plan_id":"cebpf4jnsgd1na2vs0mg"},{"bike_id":"85bafb92-2e7b-4653-8fb1-4a1910ea3529","system_id":"levelo_inurba_marseille","lat":43.325,"lon":5.38312,"is_reserved":false,"is_disabled":false,"rental_uris":{"android":"levelo://app?vid=85bafb92-2e7b-4653-8fb1-4a1910ea3529","ios":"levelo://app?vid=85bafb92-2e7b-4653-8fb1-4a1910ea3529"},"vehicle_type_id":"4","last_reported":1778865655,"current_range_meters":4000,"station_id":"st_d4asgbiv49dc73anf9m0","pricing_plan_id":"cebpf4jnsgd1na2vs0mg"},{"bike_id":"f8454cd9-42ac-4323-8ea0-a84049784ff1","system_id":"levelo_inurba_marseille","lat":43.27055,"lon":5.40261,"is_reserved":false,"is_disabled":false,"rental_uris":{"android":"levelo://app?vid=f8454cd9-42ac-4323-8ea0-a84049784ff1","ios":"levelo://app?vid=f8454cd9-42ac-4323-8ea0-a84049784ff1"},"vehicle_type_id":"4","last_reported":1778865655,"current_range_meters":4000,"station_id":"ce4bhk92rcd13ifvqgc0","pricing_plan_id":"cebpf4jnsgd1na2vs0mg"},{"bike_id":"ffd9974e-9569-40d9-982a-13599a925bd2","system_id":"levelo_inurba_marseille","lat":43.22933,"lon":5.35369,"is_reserved":false,"is_disabled":false,"rental_uris":{"android":"levelo://app?vid=ffd9974e-9569-40d9-982a-13599a925bd2","ios":"levelo://app?vid=ffd9974e-9569-40d9-982a-13599a925bd2"},"vehicle_type_id":"4","last_reported":1778865655,"current_range_meters":4000,"station_id":"cpo3532slgdg3j2ikp40","pricing_plan_id":"cebpf4jnsgd1na2vs0mg"},{"bike_id":"ce0b16e1-1746-4b5a-930d-d2d687569c17","system_id":"levelo_inurba_marseille","lat":43.27919,"lon":5.39578,"is_reserved":false,"is_disabled":false,"rental_uris":{"android":"levelo://app?vid=ce0b16e1-1746-4b5a-930d-d2d687569c17","ios":"levelo://app?vid=ce0b16e1-1746-4b5a-930d-d2d687569c17"},"vehicle_type_id":"4","last_reported":1778865655,"current_range_meters":4000,"station_id":"ce4bhf92rcd13ifvqf40","pricing_plan_id":"cebpf4jnsgd1na2vs0mg"},{"bike_id":"59a1f748-833a-40a6-90ea-9e8f5bdc0142","system_id":"levelo_inurba_marseille","lat":43.25818,"lon":5.39441,"is_reserved":false,"is_disabled":false,"rental_uris":{"android":"levelo://app?vid=59a1f748-833a-40a6-90ea-9e8f5bdc0142","ios":"levelo://app?vid=59a1f748-833a-40a6-90ea-9e8f5bdc0142"},"vehicle_type_id":"4","last_reported":1778865655,"current_range_meters":4000,"station_id":"ce4bhip2rcd13ifvqft0","pricing_plan_id":"cebpf4jnsgd1na2vs0mg"},{"bike_id":"61770160-f510-4a3f-b18f-1c815d9f8c6a","system_id":"levelo_inurba_marseille","lat":43.273792,"lon":5.362621,"is_reserved":false,"is_disabled":true,"rental_uris":{"android":"levelo://app?vid=61770160-f510-4a3f-b18f-1c815d9f8c6a","ios":"levelo://app?vid=61770160-f510-4a3f-b18f-1c815d9f8c6a"},"vehicle_type_id":"4","last_reported":1778865655,"current_range_meters":4000,"station_id":"ce4bhbh2rcd13ifvqeo0","pricing_plan_id":"cebpf4jnsgd1na2vs0mg"},{"bike_id":"5041e263-a003-4237-ae3b-a9f02805cfda","system_id":"levelo_inurba_marseille","lat":43.2868,"lon":5.42677,"is_reserved":false,"is_disabled":false,"rental_uris":{"android":"levelo://app?vid=5041e263-a003-4237-ae3b-a9f02805cfda","ios":"levelo://app?vid=5041e263-a003-4237-ae3b-a9f02805cfda"},"vehicle_type_id":"4","last_reported":1778865655,"current_range_meters":4000,"station_id":"","pricing_plan_id":"cebpf4jnsgd1na2vs0mg"},{"bike_id":"29febd0a-fcf8-4b16-8cac-3a32678ceed2","system_id":"levelo_inurba_marseille","lat":43.28617,"lon":5.35106,"is_reserved":false,"is_disabled":false,"rental_uris":{"android":"levelo://app?vid=29febd0a-fcf8-4b16-8cac-3a32678ceed2","ios":"levelo://app?vid=29febd0a-fcf8-4b16-8cac-3a32678ceed2"},"vehicle_type_id":"4","last_reported":1778865655,"current_range_meters":4400,"station_id":"ce4bhch2rcd13ifvqeug","pricing_plan_id":"cebpf4jnsgd1na2vs0mg"},{"bike_id":"6c5be2ea-3150-4b02-8bd1-00d147b0affd","system_id":"levelo_inurba_marseille","lat":43.254922,"lon":5.376484,"is_reserved":false,"is_disabled":false,"rental_uris":{"android":"levelo://app?vid=6c5be2ea-3150-4b02-8bd1-00d147b0affd","ios":"levelo://app?vid=6c5be2ea-3150-4b02-8bd1-00d147b0affd"},"vehicle_type_id":"4","last_reported":1778865655,"current_range_meters":4400,"station_id":"ce4bhh12rcd13ifvqff0","pricing_plan_id":"cebpf4jnsgd1na2vs0mg"},{"bike_id":"f3eea6d4-1b6b-45ad-bddd-3b24c1d0acd4","system_id":"levelo_inurba_marseille","lat":43.28538,"lon":5.44101,"is_reserved":false,"is_disabled":false,"rental_uris":{"android":"levelo://app?vid=f3eea6d4-1b6b-45ad-bddd-3b24c1d0acd4","ios":"levelo://app?vid=f3eea6d4-1b6b-45ad-bddd-3b24c1d0acd4"},"vehicle_type_id":"4","last_reported":1778865655,"current_range_meters":4400,"station_id":"st_d3j3df2ikq2c7380ej80","pricing_plan_id":"cebpf4jnsgd1na2vs0mg"},{"bike_id":"be3ce044-c892-4f85-b9d0-29c8030fb7ad","system_id":"levelo_inurba_marseille","lat":43.27916,"lon":5.39587,"is_reserved":false,"is_disabled":false,"rental_uris":{"android":"levelo://app?vid=be3ce044-c892-4f85-b9d0-29c8030fb7ad","ios":"levelo://app?vid=be3ce044-c892-4f85-b9d0-29c8030fb7ad"},"vehicle_type_id":"4","last_reported":1778865655,"current_range_meters":4400,"station_id":"ce4bhf92rcd13ifvqf40","pricing_plan_id":"cebpf4jnsgd1na2vs0mg"},{"bike_id":"0dda21a1-b660-439a-82dc-8a69aec8d9e7","system_id":"levelo_inurba_marseille","lat":43.27613,"lon":5.3611,"is_reserved":false,"is_disabled":false,"rental_uris":{"android":"levelo://app?vid=0dda21a1-b660-439a-82dc-8a69aec8d9e7","ios":"levelo://app?vid=0dda21a1-b660-439a-82dc-8a69aec8d9e7"},"vehicle_type_id":"4","last_reported":1778865655,"current_range_meters":4400,"station_id":"ce4bgj92rcd13ifvqbe0","pricing_plan_id":"cebpf4jnsgd1na2vs0mg"},{"bike_id":"d7eaa97e-160f-455d-afee-5e76d4ef2e4f","system_id":"levelo_inurba_marseille","lat":43.26205,"lon":5.37445,"is_reserved":false,"is_disabled":false,"rental_uris":{"android":"levelo://app?vid=d7eaa97e-160f-455d-afee-5e76d4ef2e4f","ios":"levelo://app?vid=d7eaa97e-160f-455d-afee-5e76d4ef2e4f"},"vehicle_type_id":"4","last_reported":1778865655,"current_range_meters":4400,"station_id":"ce4bhgp2rcd13ifvqfc0","pricing_plan_id":"cebpf4jnsgd1na2vs0mg"},{"bike_id":"52fd198c-d8c2-4f82-9b3f-37a2251fae45","system_id":"levelo_inurba_marseille","lat":43.22933,"lon":5.35377,"is_reserved":false,"is_disabled":false,"rental_uris":{"android":"levelo://app?vid=52fd198c-d8c2-4f82-9b3f-37a2251fae45","ios":"levelo://app?vid=52fd198c-d8c2-4f82-9b3f-37a2251fae45"},"vehicle_type_id":"4","last_reported":1778865655,"current_range_meters":4400,"station_id":"cpo3532slgdg3j2ikp40","pricing_plan_id":"cebpf4jnsgd1na2vs0mg"},{"bike_id":"1dd8d478-3612-43a1-a551-06afa1486c8b","system_id":"levelo_inurba_marseille","lat":43.27634,"lon":5.36097,"is_reserved":false,"is_disabled":false,"rental_uris":{"android":"levelo://app?vid=1dd8d478-3612-43a1-a551-06afa1486c8b","ios":"levelo://app?vid=1dd8d478-3612-43a1-a551-06afa1486c8b"},"vehicle_type_id":"4","last_reported":1778865655,"current_range_meters":4400,"station_id":"ce4bgj92rcd13ifvqbe0","pricing_plan_id":"cebpf4jnsgd1na2vs0mg"},{"bike_id":"2844e8c2-ca90-46d9-a517-76a41cd23922","system_id":"levelo_inurba_marseille","lat":43.28077,"lon":5.39668,"is_reserved":false,"is_disabled":false,"rental_uris":{"android":"levelo://app?vid=2844e8c2-ca90-46d9-a517-76a41cd23922","ios":"levelo://app?vid=2844e8c2-ca90-46d9-a517-76a41cd23922"},"vehicle_type_id":"4","last_reported":1778865655,"current_range_meters":4400,"station_id":"ce4bho12rcd13ifvqh2g","pricing_plan_id":"cebpf4jnsgd1na2vs0mg"},{"bike_id":"c251754c-2568-4694-a713-885b0b56ec29","system_id":"levelo_inurba_marseille","lat":43.289175,"lon":5.384105,"is_reserved":false,"is_disabled":false,"rental_uris":{"android":"levelo://app?vid=c251754c-2568-4694-a713-885b0b56ec29","ios":"levelo://app?vid=c251754c-2568-4694-a713-885b0b56ec29"},"vehicle_type_id":"4","last_reported":1778865655,"current_range_meters":4400,"station_id":"ce4bh612rcd13ifvqe6g","pricing_plan_id":"cebpf4jnsgd1na2vs0mg"},{"bike_id":"12b40916-1947-4987-bdbe-adfc983ab10a","system_id":"levelo_inurba_marseille","lat":43.30374,"lon":5.42491,"is_reserved":false,"is_disabled":false,"rental_uris":{"android":"levelo://app?vid=12b40916-1947-4987-bdbe-adfc983ab10a","ios":"levelo://app?vid=12b40916-1947-4987-bdbe-adfc983ab10a"},"vehicle_type_id":"4","last_reported":1778865655,"current_range_meters":4400,"station_id":"ce4bhoh2rcd13ifvqh6g","pricing_plan_id":"cebpf4jnsgd1na2vs0mg"},{"bike_id":"e274e17c-c989-45d5-b305-b109876905c5","system_id":"levelo_inurba_marseille","lat":43.28527,"lon":5.44104,"is_reserved":false,"is_disabled":false,"rental_uris":{"android":"levelo://app?vid=e274e17c-c989-45d5-b305-b109876905c5","ios":"levelo://app?vid=e274e17c-c989-45d5-b305-b109876905c5"},"vehicle_type_id":"4","last_reported":1778865655,"current_range_meters":4400,"station_id":"st_d3j3df2ikq2c7380ej80","pricing_plan_id":"cebpf4jnsgd1na2vs0mg"},{"bike_id":"c9625bcd-cbd9-4211-99f9-3a56eb81f2bb","system_id":"levelo_inurba_marseille","lat":43.28468,"lon":5.35882,"is_reserved":false,"is_disabled":false,"rental_uris":{"android":"levelo://app?vid=c9625bcd-cbd9-4211-99f9-3a56eb81f2bb","ios":"levelo://app?vid=c9625bcd-cbd9-4211-99f9-3a56eb81f2bb"},"vehicle_type_id":"4","last_reported":1778865655,"current_range_meters":4400,"station_id":"ce4bhah2rcd13ifvqei0","pricing_plan_id":"cebpf4jnsgd1na2vs0mg"},{"bike_id":"36ad7192-f086-406b-afe4-132cb8703657","system_id":"levelo_inurba_marseille","lat":43.28736,"lon":5.38627,"is_reserved":false,"is_disabled":false,"rental_uris":{"android":"levelo://app?vid=36ad7192-f086-406b-afe4-132cb8703657","ios":"levelo://app?vid=36ad7192-f086-406b-afe4-132cb8703657"},"vehicle_type_id":"4","last_reported":1778865655,"current_range_meters":4800,"station_id":"","pricing_plan_id":"cebpf4jnsgd1na2vs0mg"},{"bike_id":"83dcb175-12c5-418e-b1e3-52492229a3f4","system_id":"levelo_inurba_marseille","lat":43.22532,"lon":5.34853,"is_reserved":false,"is_disabled":true,"rental_uris":{"android":"levelo://app?vid=83dcb175-12c5-418e-b1e3-52492229a3f4","ios":"levelo://app?vid=83dcb175-12c5-418e-b1e3-52492229a3f4"},"vehicle_type_id":"4","last_reported":1778865655,"current_range_meters":4800,"station_id":"st_cvj5dfep6f1abm77gieg","pricing_plan_id":"cebpf4jnsgd1na2vs0mg"},{"bike_id":"925c37c1-84bd-425b-9acd-c1910b6d8c90","system_id":"levelo_inurba_marseille","lat":43.28937,"lon":5.36404,"is_reserved":false,"is_disabled":false,"rental_uris":{"android":"levelo://app?vid=925c37c1-84bd-425b-9acd-c1910b6d8c90","ios":"levelo://app?vid=925c37c1-84bd-425b-9acd-c1910b6d8c90"},"vehicle_type_id":"4","last_reported":1778865655,"current_range_meters":4800,"station_id":"ce4bhc92rcd13ifvqetg","pricing_plan_id":"cebpf4jnsgd1na2vs0mg"},{"bike_id":"438ec4a4-64f0-42e7-b59f-7d4be1d07822","system_id":"levelo_inurba_marseille","lat":43.26951,"lon":5.3892,"is_reserved":false,"is_disabled":false,"rental_uris":{"android":"levelo://app?vid=438ec4a4-64f0-42e7-b59f-7d4be1d07822","ios":"levelo://app?vid=438ec4a4-64f0-42e7-b59f-7d4be1d07822"},"vehicle_type_id":"4","last_reported":1778865655,"current_range_meters":4800,"station_id":"ce4bhhh2rcd13ifvqfl0","pricing_plan_id":"cebpf4jnsgd1na2vs0mg"},{"bike_id":"95cc4cc8-3880-4bc2-b650-123840016246","system_id":"levelo_inurba_marseille","lat":43.33546,"lon":5.37474,"is_reserved":false,"is_disabled":false,"rental_uris":{"android":"levelo://app?vid=95cc4cc8-3880-4bc2-b650-123840016246","ios":"levelo://app?vid=95cc4cc8-3880-4bc2-b650-123840016246"},"vehicle_type_id":"4","last_reported":1778865655,"current_range_meters":4800,"station_id":"st_d46tts09ee8s73dlu43g","pricing_plan_id":"cebpf4jnsgd1na2vs0mg"},{"bike_id":"28d98e8d-c35a-4cd1-920b-e92519dec7ca","system_id":"levelo_inurba_marseille","lat":43.303,"lon":5.3688,"is_reserved":false,"is_disabled":false,"rental_uris":{"android":"levelo://app?vid=28d98e8d-c35a-4cd1-920b-e92519dec7ca","ios":"levelo://app?vid=28d98e8d-c35a-4cd1-920b-e92519dec7ca"},"vehicle_type_id":"4","last_reported":1778865655,"current_range_meters":4800,"station_id":"ce4bgqh2rcd13ifvqc5g","pricing_plan_id":"cebpf4jnsgd1na2vs0mg"},{"bike_id":"4ed7626c-4035-4109-b2a7-eb408a50f1c8","system_id":"levelo_inurba_marseille","lat":43.28165,"lon":5.42645,"is_reserved":false,"is_disabled":false,"rental_uris":{"android":"levelo://app?vid=4ed7626c-4035-4109-b2a7-eb408a50f1c8","ios":"levelo://app?vid=4ed7626c-4035-4109-b2a7-eb408a50f1c8"},"vehicle_type_id":"4","last_reported":1778865655,"current_range_meters":4800,"station_id":"ce4bhnh2rcd13ifvqgug","pricing_plan_id":"cebpf4jnsgd1na2vs0mg"},{"bike_id":"b9e54d9d-9f43-41e6-9a63-f77d86693007","system_id":"levelo_inurba_marseille","lat":43.29679,"lon":5.37288,"is_reserved":false,"is_disabled":false,"rental_uris":{"android":"levelo://app?vid=b9e54d9d-9f43-41e6-9a63-f77d86693007","ios":"levelo://app?vid=b9e54d9d-9f43-41e6-9a63-f77d86693007"},"vehicle_type_id":"4","last_reported":1778865655,"current_range_meters":4800,"station_id":"ce4bgk12rcd13ifvqbj0","pricing_plan_id":"cebpf4jnsgd1na2vs0mg"},{"bike_id":"a6d30950-9426-4056-a129-ffab5dbdb61e","system_id":"levelo_inurba_marseille","lat":43.33539,"lon":5.37464,"is_reserved":false,"is_disabled":false,"rental_uris":{"android":"levelo://app?vid=a6d30950-9426-4056-a129-ffab5dbdb61e","ios":"levelo://app?vid=a6d30950-9426-4056-a129-ffab5dbdb61e"},"vehicle_type_id":"4","last_reported":1778865655,"current_range_meters":4800,"station_id":"st_d46tts09ee8s73dlu43g","pricing_plan_id":"cebpf4jnsgd1na2vs0mg"},{"bike_id":"f01051ea-d1e1-45e9-9a65-0143b6384278","system_id":"levelo_inurba_marseille","lat":43.28215,"lon":5.40566,"is_reserved":false,"is_disabled":false,"rental_uris":{"android":"levelo://app?vid=f01051ea-d1e1-45e9-9a65-0143b6384278","ios":"levelo://app?vid=f01051ea-d1e1-45e9-9a65-0143b6384278"},"vehicle_type_id":"4","last_reported":1778865655,"current_range_meters":4800,"station_id":"","pricing_plan_id":"cebpf4jnsgd1na2vs0mg"},{"bike_id":"7c3f4e42-820f-4641-bc86-926aa5c1275d","system_id":"levelo_inurba_marseille","lat":43.29185,"lon":5.38603,"is_reserved":false,"is_disabled":false,"rental_uris":{"android":"levelo://app?vid=7c3f4e42-820f-4641-bc86-926aa5c1275d","ios":"levelo://app?vid=7c3f4e42-820f-4641-bc86-926aa5c1275d"},"vehicle_type_id":"4","last_reported":1778865655,"current_range_meters":4800,"station_id":"","pricing_plan_id":"cebpf4jnsgd1na2vs0mg"},{"bike_id":"0814cb57-df6e-484f-aa67-d40877bd1284","system_id":"levelo_inurba_marseille","lat":43.28696,"lon":5.37954,"is_reserved":false,"is_disabled":false,"rental_uris":{"android":"levelo://app?vid=0814cb57-df6e-484f-aa67-d40877bd1284","ios":"levelo://app?vid=0814cb57-df6e-484f-aa67-d40877bd1284"},"vehicle_type_id":"4","last_reported":1778865655,"current_range_meters":4800,"station_id":"ce4bh9p2rcd13ifvqec0","pricing_plan_id":"cebpf4jnsgd1na2vs0mg"},{"bike_id":"b6891aac-0884-4126-8ee5-c964eca3a759","system_id":"levelo_inurba_marseille","lat":43.29633,"lon":5.38015,"is_reserved":false,"is_disabled":false,"rental_uris":{"android":"levelo://app?vid=b6891aac-0884-4126-8ee5-c964eca3a759","ios":"levelo://app?vid=b6891aac-0884-4126-8ee5-c964eca3a759"},"vehicle_type_id":"4","last_reported":1778865655,"current_range_meters":4800,"station_id":"","pricing_plan_id":"cebpf4jnsgd1na2vs0mg"},{"bike_id":"f571ae70-9ddf-4f25-a58d-8343cc45c47a","system_id":"levelo_inurba_marseille","lat":43.28038,"lon":5.36946,"is_reserved":false,"is_disabled":false,"rental_uris":{"android":"levelo://app?vid=f571ae70-9ddf-4f25-a58d-8343cc45c47a","ios":"levelo://app?vid=f571ae70-9ddf-4f25-a58d-8343cc45c47a"},"vehicle_type_id":"4","last_reported":1778865655,"current_range_meters":4800,"station_id":"ce4bha12rcd13ifvqef0","pricing_plan_id":"cebpf4jnsgd1na2vs0mg"},{"bike_id":"fecdc03c-311e-4f26-9c5e-b0b8e2a62505","system_id":"levelo_inurba_marseille","lat":43.30639,"lon":5.40101,"is_reserved":false,"is_disabled":false,"rental_uris":{"android":"levelo://app?vid=fecdc03c-311e-4f26-9c5e-b0b8e2a62505","ios":"levelo://app?vid=fecdc03c-311e-4f26-9c5e-b0b8e2a62505"},"vehicle_type_id":"4","last_reported":1778865655,"current_range_meters":4800,"station_id":"ce4bh112rcd13ifvqda0","pricing_plan_id":"cebpf4jnsgd1na2vs0mg"},{"bike_id":"e0ee00a5-1d2d-4bdf-a878-0ae1a7af0f68","system_id":"levelo_inurba_marseille","lat":43.30793,"lon":5.38177,"is_reserved":false,"is_disabled":false,"rental_uris":{"android":"levelo://app?vid=e0ee00a5-1d2d-4bdf-a878-0ae1a7af0f68","ios":"levelo://app?vid=e0ee00a5-1d2d-4bdf-a878-0ae1a7af0f68"},"vehicle_type_id":"4","last_reported":1778865655,"current_range_meters":4800,"station_id":"ce4bgt12rcd13ifvqce0","pricing_plan_id":"cebpf4jnsgd1na2vs0mg"},{"bike_id":"738ea697-1664-4c8b-ad41-d7f386ee7032","system_id":"levelo_inurba_marseille","lat":43.248039,"lon":5.37454,"is_reserved":false,"is_disabled":false,"rental_uris":{"android":"levelo://app?vid=738ea697-1664-4c8b-ad41-d7f386ee7032","ios":"levelo://app?vid=738ea697-1664-4c8b-ad41-d7f386ee7032"},"vehicle_type_id":"4","last_reported":1778865655,"current_range_meters":4800,"station_id":"ce4bhgh2rcd13ifvqfb0","pricing_plan_id":"cebpf4jnsgd1na2vs0mg"},{"bike_id":"97af58f6-19ea-4841-9c89-508d7721ffc5","system_id":"levelo_inurba_marseille","lat":43.30643,"lon":5.40109,"is_reserved":false,"is_disabled":false,"rental_uris":{"android":"levelo://app?vid=97af58f6-19ea-4841-9c89-508d7721ffc5","ios":"levelo://app?vid=97af58f6-19ea-4841-9c89-508d7721ffc5"},"vehicle_type_id":"4","last_reported":1778865655,"current_range_meters":4800,"station_id":"ce4bh112rcd13ifvqda0","pricing_plan_id":"cebpf4jnsgd1na2vs0mg"},{"bike_id":"8787245e-192a-4a58-8f6d-171a097bad29","system_id":"levelo_inurba_marseille","lat":43.24811,"lon":5.37441,"is_reserved":false,"is_disabled":false,"rental_uris":{"android":"levelo://app?vid=8787245e-192a-4a58-8f6d-171a097bad29","ios":"levelo://app?vid=8787245e-192a-4a58-8f6d-171a097bad29"},"vehicle_type_id":"4","last_reported":1778865655,"current_range_meters":5600,"station_id":"ce4bhgh2rcd13ifvqfb0","pricing_plan_id":"cebpf4jnsgd1na2vs0mg"},{"bike_id":"2df43119-0312-4e2b-a014-08257e78706f","system_id":"levelo_inurba_marseille","lat":43.22549,"lon":5.34814,"is_reserved":false,"is_disabled":true,"rental_uris":{"android":"levelo://app?vid=2df43119-0312-4e2b-a014-08257e78706f","ios":"levelo://app?vid=2df43119-0312-4e2b-a014-08257e78706f"},"vehicle_type_id":"4","last_reported":1778865655,"current_range_meters":5600,"station_id":"st_cvj5dfep6f1abm77gieg","pricing_plan_id":"cebpf4jnsgd1na2vs0mg"},{"bike_id":"b214a4f4-04f6-438c-944a-5a5d2f5b20e3","system_id":"levelo_inurba_marseille","lat":43.30525,"lon":5.36525,"is_reserved":false,"is_disabled":false,"rental_uris":{"android":"levelo://app?vid=b214a4f4-04f6-438c-944a-5a5d2f5b20e3","ios":"levelo://app?vid=b214a4f4-04f6-438c-944a-5a5d2f5b20e3"},"vehicle_type_id":"4","last_reported":1778865655,"current_range_meters":5600,"station_id":"","pricing_plan_id":"cebpf4jnsgd1na2vs0mg"},{"bike_id":"9824cae9-b0e9-476c-9253-330e69e1e476","system_id":"levelo_inurba_marseille","lat":43.27919,"lon":5.39223,"is_reserved":false,"is_disabled":false,"rental_uris":{"android":"levelo://app?vid=9824cae9-b0e9-476c-9253-330e69e1e476","ios":"levelo://app?vid=9824cae9-b0e9-476c-9253-330e69e1e476"},"vehicle_type_id":"4","last_reported":1778865655,"current_range_meters":5600,"station_id":"","pricing_plan_id":"cebpf4jnsgd1na2vs0mg"},{"bike_id":"caa1e77b-e366-4856-92bf-877daee812e3","system_id":"levelo_inurba_marseille","lat":43.27622,"lon":5.36086,"is_reserved":false,"is_disabled":false,"rental_uris":{"android":"levelo://app?vid=caa1e77b-e366-4856-92bf-877daee812e3","ios":"levelo://app?vid=caa1e77b-e366-4856-92bf-877daee812e3"},"vehicle_type_id":"4","last_reported":1778865655,"current_range_meters":5600,"station_id":"ce4bgj92rcd13ifvqbe0","pricing_plan_id":"cebpf4jnsgd1na2vs0mg"},{"bike_id":"38b7b14a-beb3-4b24-9112-567c53be6e0b","system_id":"levelo_inurba_marseille","lat":43.31751,"lon":5.39012,"is_reserved":false,"is_disabled":false,"rental_uris":{"android":"levelo://app?vid=38b7b14a-beb3-4b24-9112-567c53be6e0b","ios":"levelo://app?vid=38b7b14a-beb3-4b24-9112-567c53be6e0b"},"vehicle_type_id":"4","last_reported":1778865655,"current_range_meters":5600,"station_id":"ce4bhqp2rcd13ifvqhng","pricing_plan_id":"cebpf4jnsgd1na2vs0mg"},{"bike_id":"cb2ddf9e-d7c3-4f64-966a-de4b0fdbdc07","system_id":"levelo_inurba_marseille","lat":43.27356,"lon":5.3625,"is_reserved":false,"is_disabled":false,"rental_uris":{"android":"levelo://app?vid=cb2ddf9e-d7c3-4f64-966a-de4b0fdbdc07","ios":"levelo://app?vid=cb2ddf9e-d7c3-4f64-966a-de4b0fdbdc07"},"vehicle_type_id":"4","last_reported":1778865655,"current_range_meters":5600,"station_id":"ce4bhbh2rcd13ifvqeo0","pricing_plan_id":"cebpf4jnsgd1na2vs0mg"},{"bike_id":"31d047d6-97c2-45ed-89cd-96eee304d6da","system_id":"levelo_inurba_marseille","lat":43.24805,"lon":5.37459,"is_reserved":false,"is_disabled":false,"rental_uris":{"android":"levelo://app?vid=31d047d6-97c2-45ed-89cd-96eee304d6da","ios":"levelo://app?vid=31d047d6-97c2-45ed-89cd-96eee304d6da"},"vehicle_type_id":"4","last_reported":1778865655,"current_range_meters":5600,"station_id":"ce4bhgh2rcd13ifvqfb0","pricing_plan_id":"cebpf4jnsgd1na2vs0mg"},{"bike_id":"ace67cc2-c71d-469c-b0a2-a0788095104a","system_id":"levelo_inurba_marseille","lat":43.284337,"lon":5.349695,"is_reserved":false,"is_disabled":false,"rental_uris":{"android":"levelo://app?vid=ace67cc2-c71d-469c-b0a2-a0788095104a","ios":"levelo://app?vid=ace67cc2-c71d-469c-b0a2-a0788095104a"},"vehicle_type_id":"4","last_reported":1778865655,"current_range_meters":5600,"station_id":"ce4bhbh2rcd13ifvqepg","pricing_plan_id":"cebpf4jnsgd1na2vs0mg"},{"bike_id":"37dbd673-47f3-43ae-9cdc-ff90230182e1","system_id":"levelo_inurba_marseille","lat":43.26203,"lon":5.37453,"is_reserved":false,"is_disabled":true,"rental_uris":{"android":"levelo://app?vid=37dbd673-47f3-43ae-9cdc-ff90230182e1","ios":"levelo://app?vid=37dbd673-47f3-43ae-9cdc-ff90230182e1"},"vehicle_type_id":"4","last_reported":1778865655,"current_range_meters":5600,"station_id":"ce4bhgp2rcd13ifvqfc0","pricing_plan_id":"cebpf4jnsgd1na2vs0mg"},{"bike_id":"b8ede090-1d49-43bf-b657-19fc68d7f376","system_id":"levelo_inurba_marseille","lat":43.30142,"lon":5.38112,"is_reserved":false,"is_disabled":true,"rental_uris":{"android":"levelo://app?vid=b8ede090-1d49-43bf-b657-19fc68d7f376","ios":"levelo://app?vid=b8ede090-1d49-43bf-b657-19fc68d7f376"},"vehicle_type_id":"4","last_reported":1778865655,"current_range_meters":5600,"station_id":"ce4bgjp2rcd13ifvqbh0","pricing_plan_id":"cebpf4jnsgd1na2vs0mg"},{"bike_id":"049156cb-e7eb-4309-880a-3612e594e653","system_id":"levelo_inurba_marseille","lat":43.31709,"lon":5.43695,"is_reserved":false,"is_disabled":false,"rental_uris":{"android":"levelo://app?vid=049156cb-e7eb-4309-880a-3612e594e653","ios":"levelo://app?vid=049156cb-e7eb-4309-880a-3612e594e653"},"vehicle_type_id":"4","last_reported":1778865655,"current_range_meters":5600,"station_id":"ce4bhp92rcd13ifvqhcg","pricing_plan_id":"cebpf4jnsgd1na2vs0mg"},{"bike_id":"a85484b5-842c-4858-a15f-598c4f4664f7","system_id":"levelo_inurba_marseille","lat":43.229304,"lon":5.353776,"is_reserved":false,"is_disabled":false,"rental_uris":{"android":"levelo://app?vid=a85484b5-842c-4858-a15f-598c4f4664f7","ios":"levelo://app?vid=a85484b5-842c-4858-a15f-598c4f4664f7"},"vehicle_type_id":"4","last_reported":1778865655,"current_range_meters":5600,"station_id":"cpo3532slgdg3j2ikp40","pricing_plan_id":"cebpf4jnsgd1na2vs0mg"},{"bike_id":"a6c71af1-54df-4fbd-87eb-bc26d238aee4","system_id":"levelo_inurba_marseille","lat":43.30464,"lon":5.37911,"is_reserved":false,"is_disabled":false,"rental_uris":{"android":"levelo://app?vid=a6c71af1-54df-4fbd-87eb-bc26d238aee4","ios":"levelo://app?vid=a6c71af1-54df-4fbd-87eb-bc26d238aee4"},"vehicle_type_id":"4","last_reported":1778865655,"current_range_meters":5600,"station_id":"ce4bgup2rcd13ifvqcn0","pricing_plan_id":"cebpf4jnsgd1na2vs0mg"},{"bike_id":"6dcd8d99-502a-4f0e-a5c8-f2c7cfec4cb0","system_id":"levelo_inurba_marseille","lat":43.26369,"lon":5.40254,"is_reserved":false,"is_disabled":false,"rental_uris":{"android":"levelo://app?vid=6dcd8d99-502a-4f0e-a5c8-f2c7cfec4cb0","ios":"levelo://app?vid=6dcd8d99-502a-4f0e-a5c8-f2c7cfec4cb0"},"vehicle_type_id":"4","last_reported":1778865655,"current_range_meters":5600,"station_id":"","pricing_plan_id":"cebpf4jnsgd1na2vs0mg"},{"bike_id":"53d69ee7-389f-4409-9e1a-cef41dd94119","system_id":"levelo_inurba_marseille","lat":43.28711,"lon":5.37394,"is_reserved":false,"is_disabled":false,"rental_uris":{"android":"levelo://app?vid=53d69ee7-389f-4409-9e1a-cef41dd94119","ios":"levelo://app?vid=53d69ee7-389f-4409-9e1a-cef41dd94119"},"vehicle_type_id":"4","last_reported":1778865655,"current_range_meters":5600,"station_id":"ce4bh3p2rcd13ifvqdq0","pricing_plan_id":"cebpf4jnsgd1na2vs0mg"},{"bike_id":"ee394100-949d-495d-9eca-29bf387d2966","system_id":"levelo_inurba_marseille","lat":43.26928,"lon":5.3892,"is_reserved":false,"is_disabled":false,"rental_uris":{"android":"levelo://app?vid=ee394100-949d-495d-9eca-29bf387d2966","ios":"levelo://app?vid=ee394100-949d-495d-9eca-29bf387d2966"},"vehicle_type_id":"4","last_reported":1778865655,"current_range_meters":5600,"station_id":"ce4bhhh2rcd13ifvqfl0","pricing_plan_id":"cebpf4jnsgd1na2vs0mg"},{"bike_id":"5f7f5f13-e6a9-4548-863a-623358685cb9","system_id":"levelo_inurba_marseille","lat":43.294329,"lon":5.397501,"is_reserved":false,"is_disabled":false,"rental_uris":{"android":"levelo://app?vid=5f7f5f13-e6a9-4548-863a-623358685cb9","ios":"levelo://app?vid=5f7f5f13-e6a9-4548-863a-623358685cb9"},"vehicle_type_id":"4","last_reported":1778865655,"current_range_meters":5600,"station_id":"ce4bh3h2rcd13ifvqdo0","pricing_plan_id":"cebpf4jnsgd1na2vs0mg"},{"bike_id":"80fc9781-3a82-4256-933f-7d3ac28318f2","system_id":"levelo_inurba_marseille","lat":43.21742,"lon":5.34602,"is_reserved":false,"is_disabled":false,"rental_uris":{"android":"levelo://app?vid=80fc9781-3a82-4256-933f-7d3ac28318f2","ios":"levelo://app?vid=80fc9781-3a82-4256-933f-7d3ac28318f2"},"vehicle_type_id":"4","last_reported":1778865655,"current_range_meters":5600,"station_id":"st_cvj6r9ubvosntc0bgbag","pricing_plan_id":"cebpf4jnsgd1na2vs0mg"},{"bike_id":"398c274f-cb2c-452c-a097-6f22b3d5458f","system_id":"levelo_inurba_marseille","lat":43.24057,"lon":5.3768,"is_reserved":false,"is_disabled":false,"rental_uris":{"android":"levelo://app?vid=398c274f-cb2c-452c-a097-6f22b3d5458f","ios":"levelo://app?vid=398c274f-cb2c-452c-a097-6f22b3d5458f"},"vehicle_type_id":"4","last_reported":1778865655,"current_range_meters":6000,"station_id":"","pricing_plan_id":"cebpf4jnsgd1na2vs0mg"},{"bike_id":"1c31eb9b-695a-43f3-93a0-3d286e13ad8a","system_id":"levelo_inurba_marseille","lat":43.2827,"lon":5.3508,"is_reserved":false,"is_disabled":true,"rental_uris":{"android":"levelo://app?vid=1c31eb9b-695a-43f3-93a0-3d286e13ad8a","ios":"levelo://app?vid=1c31eb9b-695a-43f3-93a0-3d286e13ad8a"},"vehicle_type_id":"4","last_reported":1778865655,"current_range_meters":6000,"station_id":"ce4bhbp2rcd13ifvqerg","pricing_plan_id":"cebpf4jnsgd1na2vs0mg"},{"bike_id":"8877f4cc-2712-44a8-85e8-1a9b6814ec5e","system_id":"levelo_inurba_marseille","lat":43.28207,"lon":5.39059,"is_reserved":false,"is_disabled":true,"rental_uris":{"android":"levelo://app?vid=8877f4cc-2712-44a8-85e8-1a9b6814ec5e","ios":"levelo://app?vid=8877f4cc-2712-44a8-85e8-1a9b6814ec5e"},"vehicle_type_id":"4","last_reported":1778865655,"current_range_meters":6000,"station_id":"ce4bhn92rcd13ifvqgsg","pricing_plan_id":"cebpf4jnsgd1na2vs0mg"},{"bike_id":"933e7935-c546-4618-a8f3-7f94c7f40153","system_id":"levelo_inurba_marseille","lat":43.28825,"lon":5.35897,"is_reserved":false,"is_disabled":false,"rental_uris":{"android":"levelo://app?vid=933e7935-c546-4618-a8f3-7f94c7f40153","ios":"levelo://app?vid=933e7935-c546-4618-a8f3-7f94c7f40153"},"vehicle_type_id":"4","last_reported":1778865655,"current_range_meters":6000,"station_id":"ce4bhb12rcd13ifvqem0","pricing_plan_id":"cebpf4jnsgd1na2vs0mg"},{"bike_id":"f2897e22-76b4-450b-83ed-3173cb31b8c9","system_id":"levelo_inurba_marseille","lat":43.3054,"lon":5.36561,"is_reserved":false,"is_disabled":false,"rental_uris":{"android":"levelo://app?vid=f2897e22-76b4-450b-83ed-3173cb31b8c9","ios":"levelo://app?vid=f2897e22-76b4-450b-83ed-3173cb31b8c9"},"vehicle_type_id":"4","last_reported":1778865655,"current_range_meters":6000,"station_id":"ce4bgs12rcd13ifvqcag","pricing_plan_id":"cebpf4jnsgd1na2vs0mg"},{"bike_id":"e6cb1df4-9ad4-44a6-9271-cfe63cc286b7","system_id":"levelo_inurba_marseille","lat":43.28904,"lon":5.36239,"is_reserved":false,"is_disabled":false,"rental_uris":{"android":"levelo://app?vid=e6cb1df4-9ad4-44a6-9271-cfe63cc286b7","ios":"levelo://app?vid=e6cb1df4-9ad4-44a6-9271-cfe63cc286b7"},"vehicle_type_id":"4","last_reported":1778865655,"current_range_meters":6000,"station_id":"","pricing_plan_id":"cebpf4jnsgd1na2vs0mg"},{"bike_id":"4f627e7f-f78d-4bb8-a130-70b26880a8fe","system_id":"levelo_inurba_marseille","lat":43.24679,"lon":5.38148,"is_reserved":false,"is_disabled":true,"rental_uris":{"android":"levelo://app?vid=4f627e7f-f78d-4bb8-a130-70b26880a8fe","ios":"levelo://app?vid=4f627e7f-f78d-4bb8-a130-70b26880a8fe"},"vehicle_type_id":"4","last_reported":1778865655,"current_range_meters":6000,"station_id":"ce4bhih2rcd13ifvqfr0","pricing_plan_id":"cebpf4jnsgd1na2vs0mg"},{"bike_id":"c3cbd7d3-d30f-4ddf-bc57-1f6204a78169","system_id":"levelo_inurba_marseille","lat":43.23977,"lon":5.3663,"is_reserved":false,"is_disabled":false,"rental_uris":{"android":"levelo://app?vid=c3cbd7d3-d30f-4ddf-bc57-1f6204a78169","ios":"levelo://app?vid=c3cbd7d3-d30f-4ddf-bc57-1f6204a78169"},"vehicle_type_id":"4","last_reported":1778865655,"current_range_meters":6000,"station_id":"ce4bhi12rcd13ifvqfp0","pricing_plan_id":"cebpf4jnsgd1na2vs0mg"},{"bike_id":"ae26d1a7-3c75-4529-94ff-afc1a0629f52","system_id":"levelo_inurba_marseille","lat":43.26202,"lon":5.3869,"is_reserved":false,"is_disabled":false,"rental_uris":{"android":"levelo://app?vid=ae26d1a7-3c75-4529-94ff-afc1a0629f52","ios":"levelo://app?vid=ae26d1a7-3c75-4529-94ff-afc1a0629f52"},"vehicle_type_id":"4","last_reported":1778865655,"current_range_meters":6000,"station_id":"","pricing_plan_id":"cebpf4jnsgd1na2vs0mg"},{"bike_id":"e5c0491e-68d5-4cb2-87cf-0ff1befcedbe","system_id":"levelo_inurba_marseille","lat":43.30456,"lon":5.37898,"is_reserved":false,"is_disabled":false,"rental_uris":{"android":"levelo://app?vid=e5c0491e-68d5-4cb2-87cf-0ff1befcedbe","ios":"levelo://app?vid=e5c0491e-68d5-4cb2-87cf-0ff1befcedbe"},"vehicle_type_id":"4","last_reported":1778865655,"current_range_meters":6000,"station_id":"ce4bgup2rcd13ifvqcn0","pricing_plan_id":"cebpf4jnsgd1na2vs0mg"},{"bike_id":"dab0da80-ed77-4706-b4e6-cce61a57da5e","system_id":"levelo_inurba_marseille","lat":43.32527,"lon":5.41451,"is_reserved":false,"is_disabled":false,"rental_uris":{"android":"levelo://app?vid=dab0da80-ed77-4706-b4e6-cce61a57da5e","ios":"levelo://app?vid=dab0da80-ed77-4706-b4e6-cce61a57da5e"},"vehicle_type_id":"4","last_reported":1778865655,"current_range_meters":6000,"station_id":"ce4bhq12rcd13ifvqhhg","pricing_plan_id":"cebpf4jnsgd1na2vs0mg"},{"bike_id":"b8723e14-5653-43d2-81b2-e8b1a92b89dd","system_id":"levelo_inurba_marseille","lat":43.303065,"lon":5.36889,"is_reserved":false,"is_disabled":false,"rental_uris":{"android":"levelo://app?vid=b8723e14-5653-43d2-81b2-e8b1a92b89dd","ios":"levelo://app?vid=b8723e14-5653-43d2-81b2-e8b1a92b89dd"},"vehicle_type_id":"4","last_reported":1778865655,"current_range_meters":6000,"station_id":"ce4bgqh2rcd13ifvqc5g","pricing_plan_id":"cebpf4jnsgd1na2vs0mg"},{"bike_id":"512a758a-b40c-4ac4-8635-377a9ac20f7d","system_id":"levelo_inurba_marseille","lat":43.29509,"lon":5.39039,"is_reserved":false,"is_disabled":false,"rental_uris":{"android":"levelo://app?vid=512a758a-b40c-4ac4-8635-377a9ac20f7d","ios":"levelo://app?vid=512a758a-b40c-4ac4-8635-377a9ac20f7d"},"vehicle_type_id":"4","last_reported":1778865655,"current_range_meters":6000,"station_id":"ce4bh3p2rcd13ifvqdp0","pricing_plan_id":"cebpf4jnsgd1na2vs0mg"},{"bike_id":"e97cd923-226c-4499-a459-9fb29cfa2b7f","system_id":"levelo_inurba_marseille","lat":43.26027,"lon":5.37549,"is_reserved":false,"is_disabled":false,"rental_uris":{"android":"levelo://app?vid=e97cd923-226c-4499-a459-9fb29cfa2b7f","ios":"levelo://app?vid=e97cd923-226c-4499-a459-9fb29cfa2b7f"},"vehicle_type_id":"4","last_reported":1778865655,"current_range_meters":6000,"station_id":"ce4bhgh2rcd13ifvqfa0","pricing_plan_id":"cebpf4jnsgd1na2vs0mg"},{"bike_id":"590c0daa-e7f5-422b-8b72-7004bfb815d2","system_id":"levelo_inurba_marseille","lat":43.29526,"lon":5.37515,"is_reserved":false,"is_disabled":false,"rental_uris":{"android":"levelo://app?vid=590c0daa-e7f5-422b-8b72-7004bfb815d2","ios":"levelo://app?vid=590c0daa-e7f5-422b-8b72-7004bfb815d2"},"vehicle_type_id":"4","last_reported":1778865655,"current_range_meters":6000,"station_id":"ce4bgkp2rcd13ifvqbmg","pricing_plan_id":"cebpf4jnsgd1na2vs0mg"},{"bike_id":"42e71ca5-2054-4a5b-8a07-dcf4e71610df","system_id":"levelo_inurba_marseille","lat":43.24449,"lon":5.42542,"is_reserved":false,"is_disabled":false,"rental_uris":{"android":"levelo://app?vid=42e71ca5-2054-4a5b-8a07-dcf4e71610df","ios":"levelo://app?vid=42e71ca5-2054-4a5b-8a07-dcf4e71610df"},"vehicle_type_id":"4","last_reported":1778865655,"current_range_meters":6000,"station_id":"st_d4a3vfp97mjs738cd8kg","pricing_plan_id":"cebpf4jnsgd1na2vs0mg"},{"bike_id":"0942f3a5-8ddd-43eb-8c0b-e78bd4c11b58","system_id":"levelo_inurba_marseille","lat":43.27064,"lon":5.42275,"is_reserved":false,"is_disabled":false,"rental_uris":{"android":"levelo://app?vid=0942f3a5-8ddd-43eb-8c0b-e78bd4c11b58","ios":"levelo://app?vid=0942f3a5-8ddd-43eb-8c0b-e78bd4c11b58"},"vehicle_type_id":"4","last_reported":1778865655,"current_range_meters":6000,"station_id":"ce4bhk92rcd13ifvqgb0","pricing_plan_id":"cebpf4jnsgd1na2vs0mg"},{"bike_id":"53848244-3291-45f4-b673-41599acceeb7","system_id":"levelo_inurba_marseille","lat":43.2886,"lon":5.42517,"is_reserved":false,"is_disabled":false,"rental_uris":{"android":"levelo://app?vid=53848244-3291-45f4-b673-41599acceeb7","ios":"levelo://app?vid=53848244-3291-45f4-b673-41599acceeb7"},"vehicle_type_id":"4","last_reported":1778865655,"current_range_meters":6000,"station_id":"st_d3b462108ojc7389ooeg","pricing_plan_id":"cebpf4jnsgd1na2vs0mg"},{"bike_id":"8490b855-e3e6-4030-aec1-7a2ec37f6f43","system_id":"levelo_inurba_marseille","lat":43.29579,"lon":5.40562,"is_reserved":false,"is_disabled":false,"rental_uris":{"android":"levelo://app?vid=8490b855-e3e6-4030-aec1-7a2ec37f6f43","ios":"levelo://app?vid=8490b855-e3e6-4030-aec1-7a2ec37f6f43"},"vehicle_type_id":"4","last_reported":1778865655,"current_range_meters":6400,"station_id":"","pricing_plan_id":"cebpf4jnsgd1na2vs0mg"},{"bike_id":"eeddb46a-660c-4c2a-88f3-ace119d3b7da","system_id":"levelo_inurba_marseille","lat":43.337444,"lon":5.374475,"is_reserved":false,"is_disabled":true,"rental_uris":{"android":"levelo://app?vid=eeddb46a-660c-4c2a-88f3-ace119d3b7da","ios":"levelo://app?vid=eeddb46a-660c-4c2a-88f3-ace119d3b7da"},"vehicle_type_id":"4","last_reported":1778865655,"current_range_meters":6400,"station_id":"","pricing_plan_id":"cebpf4jnsgd1na2vs0mg"},{"bike_id":"0178064c-0d65-4ac2-a36c-2461cd9005e6","system_id":"levelo_inurba_marseille","lat":43.30523,"lon":5.36539,"is_reserved":false,"is_disabled":false,"rental_uris":{"android":"levelo://app?vid=0178064c-0d65-4ac2-a36c-2461cd9005e6","ios":"levelo://app?vid=0178064c-0d65-4ac2-a36c-2461cd9005e6"},"vehicle_type_id":"4","last_reported":1778865655,"current_range_meters":6400,"station_id":"ce4bgs12rcd13ifvqcag","pricing_plan_id":"cebpf4jnsgd1na2vs0mg"},{"bike_id":"1f26f6a4-faf7-43fb-b2a3-bde45f57fad2","system_id":"levelo_inurba_marseille","lat":43.292279,"lon":5.360478,"is_reserved":false,"is_disabled":false,"rental_uris":{"android":"levelo://app?vid=1f26f6a4-faf7-43fb-b2a3-bde45f57fad2","ios":"levelo://app?vid=1f26f6a4-faf7-43fb-b2a3-bde45f57fad2"},"vehicle_type_id":"4","last_reported":1778865655,"current_range_meters":6400,"station_id":"","pricing_plan_id":"cebpf4jnsgd1na2vs0mg"},{"bike_id":"d759e6d5-68e6-41b5-9afb-8af20fe9d3fe","system_id":"levelo_inurba_marseille","lat":43.24793,"lon":5.37469,"is_reserved":false,"is_disabled":false,"rental_uris":{"android":"levelo://app?vid=d759e6d5-68e6-41b5-9afb-8af20fe9d3fe","ios":"levelo://app?vid=d759e6d5-68e6-41b5-9afb-8af20fe9d3fe"},"vehicle_type_id":"4","last_reported":1778865655,"current_range_meters":6400,"station_id":"ce4bhgh2rcd13ifvqfb0","pricing_plan_id":"cebpf4jnsgd1na2vs0mg"},{"bike_id":"a9e5b955-d7de-4d7f-9e03-b41f11fec4cc","system_id":"levelo_inurba_marseille","lat":43.28497,"lon":5.38557,"is_reserved":false,"is_disabled":false,"rental_uris":{"android":"levelo://app?vid=a9e5b955-d7de-4d7f-9e03-b41f11fec4cc","ios":"levelo://app?vid=a9e5b955-d7de-4d7f-9e03-b41f11fec4cc"},"vehicle_type_id":"4","last_reported":1778865655,"current_range_meters":6400,"station_id":"ce4bh8p2rcd13ifvqeb0","pricing_plan_id":"cebpf4jnsgd1na2vs0mg"},{"bike_id":"647428e4-d974-476f-ad92-f917d82c7fc9","system_id":"levelo_inurba_marseille","lat":43.24667,"lon":5.38139,"is_reserved":false,"is_disabled":false,"rental_uris":{"android":"levelo://app?vid=647428e4-d974-476f-ad92-f917d82c7fc9","ios":"levelo://app?vid=647428e4-d974-476f-ad92-f917d82c7fc9"},"vehicle_type_id":"4","last_reported":1778865655,"current_range_meters":6400,"station_id":"ce4bhih2rcd13ifvqfr0","pricing_plan_id":"cebpf4jnsgd1na2vs0mg"},{"bike_id":"a54ac1cc-adda-42c7-8310-238feeb4a900","system_id":"levelo_inurba_marseille","lat":43.23952,"lon":5.3666,"is_reserved":false,"is_disabled":false,"rental_uris":{"android":"levelo://app?vid=a54ac1cc-adda-42c7-8310-238feeb4a900","ios":"levelo://app?vid=a54ac1cc-adda-42c7-8310-238feeb4a900"},"vehicle_type_id":"4","last_reported":1778865655,"current_range_meters":6400,"station_id":"ce4bhi12rcd13ifvqfp0","pricing_plan_id":"cebpf4jnsgd1na2vs0mg"},{"bike_id":"53c8a2cb-e916-43f6-941e-8990c0e09d28","system_id":"levelo_inurba_marseille","lat":43.22546,"lon":5.34897,"is_reserved":false,"is_disabled":false,"rental_uris":{"android":"levelo://app?vid=53c8a2cb-e916-43f6-941e-8990c0e09d28","ios":"levelo://app?vid=53c8a2cb-e916-43f6-941e-8990c0e09d28"},"vehicle_type_id":"4","last_reported":1778865655,"current_range_meters":6400,"station_id":"st_cvj5dfep6f1abm77gieg","pricing_plan_id":"cebpf4jnsgd1na2vs0mg"},{"bike_id":"5110ebea-8fab-481d-81a8-708988768841","system_id":"levelo_inurba_marseille","lat":43.258693,"lon":5.398974,"is_reserved":false,"is_disabled":false,"rental_uris":{"android":"levelo://app?vid=5110ebea-8fab-481d-81a8-708988768841","ios":"levelo://app?vid=5110ebea-8fab-481d-81a8-708988768841"},"vehicle_type_id":"4","last_reported":1778865655,"current_range_meters":6400,"station_id":"ce4bhl92rcd13ifvqghg","pricing_plan_id":"cebpf4jnsgd1na2vs0mg"},{"bike_id":"817b16df-8be8-4a60-9163-5f26022bf019","system_id":"levelo_inurba_marseille","lat":43.21186,"lon":5.35074,"is_reserved":false,"is_disabled":false,"rental_uris":{"android":"levelo://app?vid=817b16df-8be8-4a60-9163-5f26022bf019","ios":"levelo://app?vid=817b16df-8be8-4a60-9163-5f26022bf019"},"vehicle_type_id":"4","last_reported":1778865655,"current_range_meters":6400,"station_id":"st_cvj6sg6p6f1abm77japg","pricing_plan_id":"cebpf4jnsgd1na2vs0mg"},{"bike_id":"1d7f687a-7982-48ce-a22b-984ad435b1b0","system_id":"levelo_inurba_marseille","lat":43.31558,"lon":5.3716,"is_reserved":false,"is_disabled":false,"rental_uris":{"android":"levelo://app?vid=1d7f687a-7982-48ce-a22b-984ad435b1b0","ios":"levelo://app?vid=1d7f687a-7982-48ce-a22b-984ad435b1b0"},"vehicle_type_id":"4","last_reported":1778865655,"current_range_meters":6400,"station_id":"ce4bgt12rcd13ifvqcd0","pricing_plan_id":"cebpf4jnsgd1na2vs0mg"},{"bike_id":"70448a90-d188-4b69-a6b3-462e0f6e57a9","system_id":"levelo_inurba_marseille","lat":43.29569,"lon":5.37472,"is_reserved":false,"is_disabled":false,"rental_uris":{"android":"levelo://app?vid=70448a90-d188-4b69-a6b3-462e0f6e57a9","ios":"levelo://app?vid=70448a90-d188-4b69-a6b3-462e0f6e57a9"},"vehicle_type_id":"4","last_reported":1778865655,"current_range_meters":6400,"station_id":"ce4bgh92rcd13ifvqb50","pricing_plan_id":"cebpf4jnsgd1na2vs0mg"},{"bike_id":"b4ce9e51-a4ee-46b9-a738-8eb375d020e5","system_id":"levelo_inurba_marseille","lat":43.2846,"lon":5.35885,"is_reserved":false,"is_disabled":false,"rental_uris":{"android":"levelo://app?vid=b4ce9e51-a4ee-46b9-a738-8eb375d020e5","ios":"levelo://app?vid=b4ce9e51-a4ee-46b9-a738-8eb375d020e5"},"vehicle_type_id":"4","last_reported":1778865655,"current_range_meters":6400,"station_id":"ce4bhah2rcd13ifvqei0","pricing_plan_id":"cebpf4jnsgd1na2vs0mg"},{"bike_id":"b2701add-fc9a-4169-84e0-7f1abc7029d1","system_id":"levelo_inurba_marseille","lat":43.29001,"lon":5.35609,"is_reserved":false,"is_disabled":false,"rental_uris":{"android":"levelo://app?vid=b2701add-fc9a-4169-84e0-7f1abc7029d1","ios":"levelo://app?vid=b2701add-fc9a-4169-84e0-7f1abc7029d1"},"vehicle_type_id":"4","last_reported":1778865655,"current_range_meters":6400,"station_id":"ce4bhb92rcd13ifvqen0","pricing_plan_id":"cebpf4jnsgd1na2vs0mg"},{"bike_id":"345fd2b2-8506-4f31-8163-3a594bcabf0d","system_id":"levelo_inurba_marseille","lat":43.29924,"lon":5.38656,"is_reserved":false,"is_disabled":false,"rental_uris":{"android":"levelo://app?vid=345fd2b2-8506-4f31-8163-3a594bcabf0d","ios":"levelo://app?vid=345fd2b2-8506-4f31-8163-3a594bcabf0d"},"vehicle_type_id":"4","last_reported":1778865655,"current_range_meters":6400,"station_id":"","pricing_plan_id":"cebpf4jnsgd1na2vs0mg"},{"bike_id":"f2956f3b-433b-41af-853c-fb5499be3fce","system_id":"levelo_inurba_marseille","lat":43.24074,"lon":5.37747,"is_reserved":false,"is_disabled":false,"rental_uris":{"android":"levelo://app?vid=f2956f3b-433b-41af-853c-fb5499be3fce","ios":"levelo://app?vid=f2956f3b-433b-41af-853c-fb5499be3fce"},"vehicle_type_id":"4","last_reported":1778865655,"current_range_meters":6400,"station_id":"ce4bhnp2rcd13ifvqgvg","pricing_plan_id":"cebpf4jnsgd1na2vs0mg"},{"bike_id":"5e727f8f-3a7a-47b8-9f6a-2b5c6d82a020","system_id":"levelo_inurba_marseille","lat":43.27339,"lon":5.36187,"is_reserved":false,"is_disabled":false,"rental_uris":{"android":"levelo://app?vid=5e727f8f-3a7a-47b8-9f6a-2b5c6d82a020","ios":"levelo://app?vid=5e727f8f-3a7a-47b8-9f6a-2b5c6d82a020"},"vehicle_type_id":"4","last_reported":1778865655,"current_range_meters":6400,"station_id":"","pricing_plan_id":"cebpf4jnsgd1na2vs0mg"},{"bike_id":"5563a6b9-7238-4df4-908d-01ec70bd30b0","system_id":"levelo_inurba_marseille","lat":43.287,"lon":5.46693,"is_reserved":false,"is_disabled":false,"rental_uris":{"android":"levelo://app?vid=5563a6b9-7238-4df4-908d-01ec70bd30b0","ios":"levelo://app?vid=5563a6b9-7238-4df4-908d-01ec70bd30b0"},"vehicle_type_id":"4","last_reported":1778865655,"current_range_meters":6400,"station_id":"st_d6tc3vkotcvc738tfjhg","pricing_plan_id":"cebpf4jnsgd1na2vs0mg"},{"bike_id":"959564f4-5928-4f2e-a896-80cf79f0f190","system_id":"levelo_inurba_marseille","lat":43.2952,"lon":5.39036,"is_reserved":false,"is_disabled":false,"rental_uris":{"android":"levelo://app?vid=959564f4-5928-4f2e-a896-80cf79f0f190","ios":"levelo://app?vid=959564f4-5928-4f2e-a896-80cf79f0f190"},"vehicle_type_id":"4","last_reported":1778865655,"current_range_meters":6800,"station_id":"ce4bh3p2rcd13ifvqdp0","pricing_plan_id":"cebpf4jnsgd1na2vs0mg"},{"bike_id":"badddb26-98a1-4b3f-8837-c80c7ed20a71","system_id":"levelo_inurba_marseille","lat":43.24802,"lon":5.37444,"is_reserved":false,"is_disabled":false,"rental_uris":{"android":"levelo://app?vid=badddb26-98a1-4b3f-8837-c80c7ed20a71","ios":"levelo://app?vid=badddb26-98a1-4b3f-8837-c80c7ed20a71"},"vehicle_type_id":"4","last_reported":1778865655,"current_range_meters":6800,"station_id":"ce4bhgh2rcd13ifvqfb0","pricing_plan_id":"cebpf4jnsgd1na2vs0mg"},{"bike_id":"38bb99e7-dc42-438a-9d45-f7b6fde0d5a8","system_id":"levelo_inurba_marseille","lat":43.30377,"lon":5.42482,"is_reserved":false,"is_disabled":false,"rental_uris":{"android":"levelo://app?vid=38bb99e7-dc42-438a-9d45-f7b6fde0d5a8","ios":"levelo://app?vid=38bb99e7-dc42-438a-9d45-f7b6fde0d5a8"},"vehicle_type_id":"4","last_reported":1778865655,"current_range_meters":6800,"station_id":"ce4bhoh2rcd13ifvqh6g","pricing_plan_id":"cebpf4jnsgd1na2vs0mg"},{"bike_id":"09b6dfa0-9b5e-47cc-b2a4-1ceb40140b7e","system_id":"levelo_inurba_marseille","lat":43.2993,"lon":5.38139,"is_reserved":false,"is_disabled":false,"rental_uris":{"android":"levelo://app?vid=09b6dfa0-9b5e-47cc-b2a4-1ceb40140b7e","ios":"levelo://app?vid=09b6dfa0-9b5e-47cc-b2a4-1ceb40140b7e"},"vehicle_type_id":"4","last_reported":1778865655,"current_range_meters":6800,"station_id":"ce4bgj12rcd13ifvqbc0","pricing_plan_id":"cebpf4jnsgd1na2vs0mg"},{"bike_id":"ec258081-d90d-41f4-8a31-732e78a2c80c","system_id":"levelo_inurba_marseille","lat":43.3053,"lon":5.36542,"is_reserved":false,"is_disabled":false,"rental_uris":{"android":"levelo://app?vid=ec258081-d90d-41f4-8a31-732e78a2c80c","ios":"levelo://app?vid=ec258081-d90d-41f4-8a31-732e78a2c80c"},"vehicle_type_id":"4","last_reported":1778865655,"current_range_meters":6800,"station_id":"ce4bgs12rcd13ifvqcag","pricing_plan_id":"cebpf4jnsgd1na2vs0mg"},{"bike_id":"310b2279-098d-4df0-bf45-73805bc8f8eb","system_id":"levelo_inurba_marseille","lat":43.29266,"lon":5.38435,"is_reserved":false,"is_disabled":false,"rental_uris":{"android":"levelo://app?vid=310b2279-098d-4df0-bf45-73805bc8f8eb","ios":"levelo://app?vid=310b2279-098d-4df0-bf45-73805bc8f8eb"},"vehicle_type_id":"4","last_reported":1778865655,"current_range_meters":6800,"station_id":"ce4bh692rcd13ifvqea0","pricing_plan_id":"cebpf4jnsgd1na2vs0mg"},{"bike_id":"eb14218f-e619-4b8a-8802-afe503dda8c6","system_id":"levelo_inurba_marseille","lat":43.27014,"lon":5.38723,"is_reserved":false,"is_disabled":false,"rental_uris":{"android":"levelo://app?vid=eb14218f-e619-4b8a-8802-afe503dda8c6","ios":"levelo://app?vid=eb14218f-e619-4b8a-8802-afe503dda8c6"},"vehicle_type_id":"4","last_reported":1778865655,"current_range_meters":6800,"station_id":"","pricing_plan_id":"cebpf4jnsgd1na2vs0mg"},{"bike_id":"7649cb7a-e82c-41c1-87ef-44d1ccccfb10","system_id":"levelo_inurba_marseille","lat":43.29892,"lon":5.43668,"is_reserved":false,"is_disabled":false,"rental_uris":{"android":"levelo://app?vid=7649cb7a-e82c-41c1-87ef-44d1ccccfb10","ios":"levelo://app?vid=7649cb7a-e82c-41c1-87ef-44d1ccccfb10"},"vehicle_type_id":"4","last_reported":1778865655,"current_range_meters":6800,"station_id":"ce4bhpp2rcd13ifvqhfg","pricing_plan_id":"cebpf4jnsgd1na2vs0mg"},{"bike_id":"16683531-3f90-4adf-aecd-c8897f528923","system_id":"levelo_inurba_marseille","lat":43.28483,"lon":5.35818,"is_reserved":false,"is_disabled":false,"rental_uris":{"android":"levelo://app?vid=16683531-3f90-4adf-aecd-c8897f528923","ios":"levelo://app?vid=16683531-3f90-4adf-aecd-c8897f528923"},"vehicle_type_id":"4","last_reported":1778865655,"current_range_meters":6800,"station_id":"","pricing_plan_id":"cebpf4jnsgd1na2vs0mg"},{"bike_id":"c8a51622-f14a-4b20-9f0e-877bdb62250f","system_id":"levelo_inurba_marseille","lat":43.27355,"lon":5.36254,"is_reserved":false,"is_disabled":false,"rental_uris":{"android":"levelo://app?vid=c8a51622-f14a-4b20-9f0e-877bdb62250f","ios":"levelo://app?vid=c8a51622-f14a-4b20-9f0e-877bdb62250f"},"vehicle_type_id":"4","last_reported":1778865655,"current_range_meters":6800,"station_id":"ce4bhbh2rcd13ifvqeo0","pricing_plan_id":"cebpf4jnsgd1na2vs0mg"},{"bike_id":"7c460991-8307-45e1-914b-a4c4bb11be21","system_id":"levelo_inurba_marseille","lat":43.29194,"lon":5.35793,"is_reserved":false,"is_disabled":false,"rental_uris":{"android":"levelo://app?vid=7c460991-8307-45e1-914b-a4c4bb11be21","ios":"levelo://app?vid=7c460991-8307-45e1-914b-a4c4bb11be21"},"vehicle_type_id":"4","last_reported":1778865655,"current_range_meters":6800,"station_id":"ce4bhb12rcd13ifvqel0","pricing_plan_id":"cebpf4jnsgd1na2vs0mg"},{"bike_id":"676a7c3c-cafb-46dc-b3ef-f6e4ac4f4548","system_id":"levelo_inurba_marseille","lat":43.28996,"lon":5.35622,"is_reserved":false,"is_disabled":false,"rental_uris":{"android":"levelo://app?vid=676a7c3c-cafb-46dc-b3ef-f6e4ac4f4548","ios":"levelo://app?vid=676a7c3c-cafb-46dc-b3ef-f6e4ac4f4548"},"vehicle_type_id":"4","last_reported":1778865655,"current_range_meters":6800,"station_id":"ce4bhb92rcd13ifvqen0","pricing_plan_id":"cebpf4jnsgd1na2vs0mg"},{"bike_id":"a0c19f56-3c4d-4a74-a3eb-6d1c6eb516b0","system_id":"levelo_inurba_marseille","lat":43.28695,"lon":5.4668,"is_reserved":false,"is_disabled":false,"rental_uris":{"android":"levelo://app?vid=a0c19f56-3c4d-4a74-a3eb-6d1c6eb516b0","ios":"levelo://app?vid=a0c19f56-3c4d-4a74-a3eb-6d1c6eb516b0"},"vehicle_type_id":"4","last_reported":1778865655,"current_range_meters":6800,"station_id":"st_d6tc3vkotcvc738tfjhg","pricing_plan_id":"cebpf4jnsgd1na2vs0mg"},{"bike_id":"49a262cf-9142-4787-9084-94a4462d1063","system_id":"levelo_inurba_marseille","lat":43.22558,"lon":5.41623,"is_reserved":false,"is_disabled":false,"rental_uris":{"android":"levelo://app?vid=49a262cf-9142-4787-9084-94a4462d1063","ios":"levelo://app?vid=49a262cf-9142-4787-9084-94a4462d1063"},"vehicle_type_id":"4","last_reported":1778865655,"current_range_meters":6800,"station_id":"st_d2o4gvlbi1j2169b742g","pricing_plan_id":"cebpf4jnsgd1na2vs0mg"},{"bike_id":"8f706cc0-7454-4514-9d7f-11840d09ba71","system_id":"levelo_inurba_marseille","lat":43.27613,"lon":5.36114,"is_reserved":false,"is_disabled":false,"rental_uris":{"android":"levelo://app?vid=8f706cc0-7454-4514-9d7f-11840d09ba71","ios":"levelo://app?vid=8f706cc0-7454-4514-9d7f-11840d09ba71"},"vehicle_type_id":"4","last_reported":1778865655,"current_range_meters":6800,"station_id":"ce4bgj92rcd13ifvqbe0","pricing_plan_id":"cebpf4jnsgd1na2vs0mg"},{"bike_id":"61d7a359-c997-418c-92f0-a9c2ce3d2a1d","system_id":"levelo_inurba_marseille","lat":43.31114,"lon":5.37762,"is_reserved":false,"is_disabled":false,"rental_uris":{"android":"levelo://app?vid=61d7a359-c997-418c-92f0-a9c2ce3d2a1d","ios":"levelo://app?vid=61d7a359-c997-418c-92f0-a9c2ce3d2a1d"},"vehicle_type_id":"4","last_reported":1778865655,"current_range_meters":6800,"station_id":"ce4bgt92rcd13ifvqcg0","pricing_plan_id":"cebpf4jnsgd1na2vs0mg"},{"bike_id":"67f4f1c3-be3a-4539-8611-e7610a693976","system_id":"levelo_inurba_marseille","lat":43.25554,"lon":5.38233,"is_reserved":false,"is_disabled":false,"rental_uris":{"android":"levelo://app?vid=67f4f1c3-be3a-4539-8611-e7610a693976","ios":"levelo://app?vid=67f4f1c3-be3a-4539-8611-e7610a693976"},"vehicle_type_id":"4","last_reported":1778865655,"current_range_meters":6800,"station_id":"ce4bhih2rcd13ifvqfs0","pricing_plan_id":"cebpf4jnsgd1na2vs0mg"},{"bike_id":"726a6e92-7b85-4a95-b7c5-88ac2037a285","system_id":"levelo_inurba_marseille","lat":43.30467,"lon":5.37889,"is_reserved":false,"is_disabled":true,"rental_uris":{"android":"levelo://app?vid=726a6e92-7b85-4a95-b7c5-88ac2037a285","ios":"levelo://app?vid=726a6e92-7b85-4a95-b7c5-88ac2037a285"},"vehicle_type_id":"4","last_reported":1778865655,"current_range_meters":7200,"station_id":"ce4bgup2rcd13ifvqcn0","pricing_plan_id":"cebpf4jnsgd1na2vs0mg"},{"bike_id":"a637f75b-01be-4714-bb60-666338f88b4d","system_id":"levelo_inurba_marseille","lat":43.2917,"lon":5.37131,"is_reserved":false,"is_disabled":false,"rental_uris":{"android":"levelo://app?vid=a637f75b-01be-4714-bb60-666338f88b4d","ios":"levelo://app?vid=a637f75b-01be-4714-bb60-666338f88b4d"},"vehicle_type_id":"4","last_reported":1778865655,"current_range_meters":7200,"station_id":"ce4bha92rcd13ifvqeh0","pricing_plan_id":"cebpf4jnsgd1na2vs0mg"},{"bike_id":"07a1a37b-6390-48a6-ba7c-d9247289cb61","system_id":"levelo_inurba_marseille","lat":43.2926,"lon":5.38442,"is_reserved":false,"is_disabled":false,"rental_uris":{"android":"levelo://app?vid=07a1a37b-6390-48a6-ba7c-d9247289cb61","ios":"levelo://app?vid=07a1a37b-6390-48a6-ba7c-d9247289cb61"},"vehicle_type_id":"4","last_reported":1778865655,"current_range_meters":7200,"station_id":"ce4bh692rcd13ifvqea0","pricing_plan_id":"cebpf4jnsgd1na2vs0mg"},{"bike_id":"551f5401-1538-4295-922c-6369b3f66c3a","system_id":"levelo_inurba_marseille","lat":43.23054,"lon":5.35492,"is_reserved":false,"is_disabled":false,"rental_uris":{"android":"levelo://app?vid=551f5401-1538-4295-922c-6369b3f66c3a","ios":"levelo://app?vid=551f5401-1538-4295-922c-6369b3f66c3a"},"vehicle_type_id":"4","last_reported":1778865655,"current_range_meters":7200,"station_id":"cpo3342slgdg3j2ifvpg","pricing_plan_id":"cebpf4jnsgd1na2vs0mg"},{"bike_id":"b2adc4ff-8ece-4d2f-a004-41df0e64da8b","system_id":"levelo_inurba_marseille","lat":43.29778,"lon":5.38095,"is_reserved":false,"is_disabled":false,"rental_uris":{"android":"levelo://app?vid=b2adc4ff-8ece-4d2f-a004-41df0e64da8b","ios":"levelo://app?vid=b2adc4ff-8ece-4d2f-a004-41df0e64da8b"},"vehicle_type_id":"4","last_reported":1778865655,"current_range_meters":7200,"station_id":"ce4bgip2rcd13ifvqbb0","pricing_plan_id":"cebpf4jnsgd1na2vs0mg"},{"bike_id":"b5665182-121b-46eb-afed-c9899cb3d26b","system_id":"levelo_inurba_marseille","lat":43.31362,"lon":5.38503,"is_reserved":false,"is_disabled":false,"rental_uris":{"android":"levelo://app?vid=b5665182-121b-46eb-afed-c9899cb3d26b","ios":"levelo://app?vid=b5665182-121b-46eb-afed-c9899cb3d26b"},"vehicle_type_id":"4","last_reported":1778865655,"current_range_meters":7200,"station_id":"ce4bgt92rcd13ifvqcf0","pricing_plan_id":"cebpf4jnsgd1na2vs0mg"},{"bike_id":"8b94244b-dfae-41de-ad1d-291679e2b4cc","system_id":"levelo_inurba_marseille","lat":43.29968,"lon":5.38497,"is_reserved":false,"is_disabled":false,"rental_uris":{"android":"levelo://app?vid=8b94244b-dfae-41de-ad1d-291679e2b4cc","ios":"levelo://app?vid=8b94244b-dfae-41de-ad1d-291679e2b4cc"},"vehicle_type_id":"4","last_reported":1778865655,"current_range_meters":7200,"station_id":"ce4bgj92rcd13ifvqbd0","pricing_plan_id":"cebpf4jnsgd1na2vs0mg"},{"bike_id":"b91e9388-76f4-4629-bbe9-5722b0f37773","system_id":"levelo_inurba_marseille","lat":43.29808,"lon":5.38654,"is_reserved":false,"is_disabled":false,"rental_uris":{"android":"levelo://app?vid=b91e9388-76f4-4629-bbe9-5722b0f37773","ios":"levelo://app?vid=b91e9388-76f4-4629-bbe9-5722b0f37773"},"vehicle_type_id":"4","last_reported":1778865655,"current_range_meters":7200,"station_id":"","pricing_plan_id":"cebpf4jnsgd1na2vs0mg"},{"bike_id":"984f46dd-c348-4e82-be9f-e1ee573bad70","system_id":"levelo_inurba_marseille","lat":43.28606,"lon":5.3707,"is_reserved":false,"is_disabled":true,"rental_uris":{"android":"levelo://app?vid=984f46dd-c348-4e82-be9f-e1ee573bad70","ios":"levelo://app?vid=984f46dd-c348-4e82-be9f-e1ee573bad70"},"vehicle_type_id":"4","last_reported":1778865655,"current_range_meters":7200,"station_id":"ce4bht12rcd13ifvqi60","pricing_plan_id":"cebpf4jnsgd1na2vs0mg"},{"bike_id":"c8ce9582-c76a-432d-b1b3-b6956093ca65","system_id":"levelo_inurba_marseille","lat":43.2694,"lon":5.40249,"is_reserved":false,"is_disabled":false,"rental_uris":{"android":"levelo://app?vid=c8ce9582-c76a-432d-b1b3-b6956093ca65","ios":"levelo://app?vid=c8ce9582-c76a-432d-b1b3-b6956093ca65"},"vehicle_type_id":"4","last_reported":1778865655,"current_range_meters":7200,"station_id":"cjm6bp8fraef2m0cb0m0","pricing_plan_id":"cebpf4jnsgd1na2vs0mg"},{"bike_id":"ce56d14b-ad59-450a-be58-58ca7149fb4b","system_id":"levelo_inurba_marseille","lat":43.26642,"lon":5.37245,"is_reserved":false,"is_disabled":false,"rental_uris":{"android":"levelo://app?vid=ce56d14b-ad59-450a-be58-58ca7149fb4b","ios":"levelo://app?vid=ce56d14b-ad59-450a-be58-58ca7149fb4b"},"vehicle_type_id":"4","last_reported":1778865655,"current_range_meters":7200,"station_id":"","pricing_plan_id":"cebpf4jnsgd1na2vs0mg"},{"bike_id":"5fb4c1a0-828e-4210-8039-2c3b382e5163","system_id":"levelo_inurba_marseille","lat":43.30522,"lon":5.3654,"is_reserved":false,"is_disabled":false,"rental_uris":{"android":"levelo://app?vid=5fb4c1a0-828e-4210-8039-2c3b382e5163","ios":"levelo://app?vid=5fb4c1a0-828e-4210-8039-2c3b382e5163"},"vehicle_type_id":"4","last_reported":1778865655,"current_range_meters":7200,"station_id":"ce4bgs12rcd13ifvqcag","pricing_plan_id":"cebpf4jnsgd1na2vs0mg"},{"bike_id":"e1ef4cbd-5e40-44fd-81b4-60fc132f0016","system_id":"levelo_inurba_marseille","lat":43.22933,"lon":5.35367,"is_reserved":false,"is_disabled":false,"rental_uris":{"android":"levelo://app?vid=e1ef4cbd-5e40-44fd-81b4-60fc132f0016","ios":"levelo://app?vid=e1ef4cbd-5e40-44fd-81b4-60fc132f0016"},"vehicle_type_id":"4","last_reported":1778865655,"current_range_meters":7200,"station_id":"cpo3532slgdg3j2ikp40","pricing_plan_id":"cebpf4jnsgd1na2vs0mg"},{"bike_id":"d797ad95-4f9d-4ac2-8b82-a6094fc95349","system_id":"levelo_inurba_marseille","lat":43.25082,"lon":5.39559,"is_reserved":false,"is_disabled":false,"rental_uris":{"android":"levelo://app?vid=d797ad95-4f9d-4ac2-8b82-a6094fc95349","ios":"levelo://app?vid=d797ad95-4f9d-4ac2-8b82-a6094fc95349"},"vehicle_type_id":"4","last_reported":1778865655,"current_range_meters":7200,"station_id":"ce4bhm12rcd13ifvqgkg","pricing_plan_id":"cebpf4jnsgd1na2vs0mg"},{"bike_id":"33078219-2080-4bf6-af06-d08f7b890c0b","system_id":"levelo_inurba_marseille","lat":43.24401,"lon":5.37052,"is_reserved":false,"is_disabled":false,"rental_uris":{"android":"levelo://app?vid=33078219-2080-4bf6-af06-d08f7b890c0b","ios":"levelo://app?vid=33078219-2080-4bf6-af06-d08f7b890c0b"},"vehicle_type_id":"4","last_reported":1778865655,"current_range_meters":7200,"station_id":"ce4bhhh2rcd13ifvqfk0","pricing_plan_id":"cebpf4jnsgd1na2vs0mg"},{"bike_id":"e2eee655-6946-45b4-a875-38201f0d71ee","system_id":"levelo_inurba_marseille","lat":43.2959,"lon":5.38101,"is_reserved":false,"is_disabled":true,"rental_uris":{"android":"levelo://app?vid=e2eee655-6946-45b4-a875-38201f0d71ee","ios":"levelo://app?vid=e2eee655-6946-45b4-a875-38201f0d71ee"},"vehicle_type_id":"4","last_reported":1778865655,"current_range_meters":7200,"station_id":"ce4bgl12rcd13ifvqbo0","pricing_plan_id":"cebpf4jnsgd1na2vs0mg"},{"bike_id":"3190b095-6eb0-4636-af5b-d5fe53241e5b","system_id":"levelo_inurba_marseille","lat":43.2732,"lon":5.3913,"is_reserved":false,"is_disabled":false,"rental_uris":{"android":"levelo://app?vid=3190b095-6eb0-4636-af5b-d5fe53241e5b","ios":"levelo://app?vid=3190b095-6eb0-4636-af5b-d5fe53241e5b"},"vehicle_type_id":"4","last_reported":1778865655,"current_range_meters":7200,"station_id":"ce4bhgp2rcd13ifvqfe0","pricing_plan_id":"cebpf4jnsgd1na2vs0mg"},{"bike_id":"c38265ac-9e99-478d-8325-7bdb5b734b4d","system_id":"levelo_inurba_marseille","lat":43.27404,"lon":5.43559,"is_reserved":false,"is_disabled":false,"rental_uris":{"android":"levelo://app?vid=c38265ac-9e99-478d-8325-7bdb5b734b4d","ios":"levelo://app?vid=c38265ac-9e99-478d-8325-7bdb5b734b4d"},"vehicle_type_id":"4","last_reported":1778865655,"current_range_meters":7200,"station_id":"","pricing_plan_id":"cebpf4jnsgd1na2vs0mg"},{"bike_id":"d7938777-2e3b-445e-9c04-8a77f8fe0fec","system_id":"levelo_inurba_marseille","lat":43.250836,"lon":5.395278,"is_reserved":false,"is_disabled":false,"rental_uris":{"android":"levelo://app?vid=d7938777-2e3b-445e-9c04-8a77f8fe0fec","ios":"levelo://app?vid=d7938777-2e3b-445e-9c04-8a77f8fe0fec"},"vehicle_type_id":"4","last_reported":1778865655,"current_range_meters":7200,"station_id":"ce4bhm12rcd13ifvqgkg","pricing_plan_id":"cebpf4jnsgd1na2vs0mg"},{"bike_id":"7592e554-fccc-48e6-9727-e072814b3ba8","system_id":"levelo_inurba_marseille","lat":43.30507,"lon":5.36523,"is_reserved":false,"is_disabled":true,"rental_uris":{"android":"levelo://app?vid=7592e554-fccc-48e6-9727-e072814b3ba8","ios":"levelo://app?vid=7592e554-fccc-48e6-9727-e072814b3ba8"},"vehicle_type_id":"4","last_reported":1778865655,"current_range_meters":7200,"station_id":"","pricing_plan_id":"cebpf4jnsgd1na2vs0mg"},{"bike_id":"28044e71-bf98-436d-9a76-c99bfda87659","system_id":"levelo_inurba_marseille","lat":43.28841,"lon":5.35838,"is_reserved":false,"is_disabled":false,"rental_uris":{"android":"levelo://app?vid=28044e71-bf98-436d-9a76-c99bfda87659","ios":"levelo://app?vid=28044e71-bf98-436d-9a76-c99bfda87659"},"vehicle_type_id":"4","last_reported":1778865655,"current_range_meters":7200,"station_id":"ce4bhb12rcd13ifvqem0","pricing_plan_id":"cebpf4jnsgd1na2vs0mg"},{"bike_id":"65366c88-2453-4b24-865f-120308ecf935","system_id":"levelo_inurba_marseille","lat":43.26637,"lon":5.3725,"is_reserved":false,"is_disabled":false,"rental_uris":{"android":"levelo://app?vid=65366c88-2453-4b24-865f-120308ecf935","ios":"levelo://app?vid=65366c88-2453-4b24-865f-120308ecf935"},"vehicle_type_id":"4","last_reported":1778865655,"current_range_meters":7200,"station_id":"ce4bhg12rcd13ifvqf70","pricing_plan_id":"cebpf4jnsgd1na2vs0mg"},{"bike_id":"83ca7a02-2e7a-4411-acce-b59fd7509ff5","system_id":"levelo_inurba_marseille","lat":43.26235,"lon":5.40459,"is_reserved":false,"is_disabled":false,"rental_uris":{"android":"levelo://app?vid=83ca7a02-2e7a-4411-acce-b59fd7509ff5","ios":"levelo://app?vid=83ca7a02-2e7a-4411-acce-b59fd7509ff5"},"vehicle_type_id":"4","last_reported":1778865655,"current_range_meters":7200,"station_id":"ce4bhmh2rcd13ifvqgmg","pricing_plan_id":"cebpf4jnsgd1na2vs0mg"},{"bike_id":"2bcf2227-9557-4ea9-9290-fdc00f209b04","system_id":"levelo_inurba_marseille","lat":43.30899,"lon":5.36853,"is_reserved":false,"is_disabled":false,"rental_uris":{"android":"levelo://app?vid=2bcf2227-9557-4ea9-9290-fdc00f209b04","ios":"levelo://app?vid=2bcf2227-9557-4ea9-9290-fdc00f209b04"},"vehicle_type_id":"4","last_reported":1778865655,"current_range_meters":7200,"station_id":"ce4bgn92rcd13ifvqbvg","pricing_plan_id":"cebpf4jnsgd1na2vs0mg"},{"bike_id":"460835d2-c2d1-4285-9a56-6ee5b6a9e681","system_id":"levelo_inurba_marseille","lat":43.24782,"lon":5.3926,"is_reserved":false,"is_disabled":false,"rental_uris":{"android":"levelo://app?vid=460835d2-c2d1-4285-9a56-6ee5b6a9e681","ios":"levelo://app?vid=460835d2-c2d1-4285-9a56-6ee5b6a9e681"},"vehicle_type_id":"4","last_reported":1778865655,"current_range_meters":7200,"station_id":"","pricing_plan_id":"cebpf4jnsgd1na2vs0mg"},{"bike_id":"21bd953f-c632-4650-8d25-704a9343d0b1","system_id":"levelo_inurba_marseille","lat":43.303238,"lon":5.404337,"is_reserved":false,"is_disabled":false,"rental_uris":{"android":"levelo://app?vid=21bd953f-c632-4650-8d25-704a9343d0b1","ios":"levelo://app?vid=21bd953f-c632-4650-8d25-704a9343d0b1"},"vehicle_type_id":"4","last_reported":1778865655,"current_range_meters":7200,"station_id":"ce4bh012rcd13ifvqd10","pricing_plan_id":"cebpf4jnsgd1na2vs0mg"},{"bike_id":"e44b4989-da45-4e59-9715-bd08e3c9e528","system_id":"levelo_inurba_marseille","lat":43.292572,"lon":5.376283,"is_reserved":false,"is_disabled":false,"rental_uris":{"android":"levelo://app?vid=e44b4989-da45-4e59-9715-bd08e3c9e528","ios":"levelo://app?vid=e44b4989-da45-4e59-9715-bd08e3c9e528"},"vehicle_type_id":"4","last_reported":1778865655,"current_range_meters":7200,"station_id":"ce4bgi12rcd13ifvqb80","pricing_plan_id":"cebpf4jnsgd1na2vs0mg"},{"bike_id":"e4b04f72-bec1-4cdf-a147-70a1ad1ad1e7","system_id":"levelo_inurba_marseille","lat":43.26045,"lon":5.37542,"is_reserved":false,"is_disabled":false,"rental_uris":{"android":"levelo://app?vid=e4b04f72-bec1-4cdf-a147-70a1ad1ad1e7","ios":"levelo://app?vid=e4b04f72-bec1-4cdf-a147-70a1ad1ad1e7"},"vehicle_type_id":"4","last_reported":1778865655,"current_range_meters":7200,"station_id":"ce4bhgh2rcd13ifvqfa0","pricing_plan_id":"cebpf4jnsgd1na2vs0mg"},{"bike_id":"ea71ba4f-eae9-4d78-881d-41971f6aba4e","system_id":"levelo_inurba_marseille","lat":43.30081,"lon":5.39071,"is_reserved":false,"is_disabled":false,"rental_uris":{"android":"levelo://app?vid=ea71ba4f-eae9-4d78-881d-41971f6aba4e","ios":"levelo://app?vid=ea71ba4f-eae9-4d78-881d-41971f6aba4e"},"vehicle_type_id":"4","last_reported":1778865655,"current_range_meters":8000,"station_id":"ce4bh192rcd13ifvqdb0","pricing_plan_id":"cebpf4jnsgd1na2vs0mg"},{"bike_id":"983c57ab-0be0-4536-b4e6-7ff14284bfec","system_id":"levelo_inurba_marseille","lat":43.25501,"lon":5.37643,"is_reserved":false,"is_disabled":false,"rental_uris":{"android":"levelo://app?vid=983c57ab-0be0-4536-b4e6-7ff14284bfec","ios":"levelo://app?vid=983c57ab-0be0-4536-b4e6-7ff14284bfec"},"vehicle_type_id":"4","last_reported":1778865655,"current_range_meters":8000,"station_id":"ce4bhh12rcd13ifvqff0","pricing_plan_id":"cebpf4jnsgd1na2vs0mg"},{"bike_id":"04369008-81c3-473c-9987-640cb98f6fc2","system_id":"levelo_inurba_marseille","lat":43.2789,"lon":5.39427,"is_reserved":false,"is_disabled":true,"rental_uris":{"android":"levelo://app?vid=04369008-81c3-473c-9987-640cb98f6fc2","ios":"levelo://app?vid=04369008-81c3-473c-9987-640cb98f6fc2"},"vehicle_type_id":"4","last_reported":1778865655,"current_range_meters":8000,"station_id":"","pricing_plan_id":"cebpf4jnsgd1na2vs0mg"},{"bike_id":"f71b30dd-fe4e-4b98-a590-682c6b4f15bc","system_id":"levelo_inurba_marseille","lat":43.288561,"lon":5.358474,"is_reserved":false,"is_disabled":false,"rental_uris":{"android":"levelo://app?vid=f71b30dd-fe4e-4b98-a590-682c6b4f15bc","ios":"levelo://app?vid=f71b30dd-fe4e-4b98-a590-682c6b4f15bc"},"vehicle_type_id":"4","last_reported":1778865655,"current_range_meters":8000,"station_id":"ce4bhb12rcd13ifvqem0","pricing_plan_id":"cebpf4jnsgd1na2vs0mg"},{"bike_id":"3cd94c22-8fff-44e3-bdef-86735758bed1","system_id":"levelo_inurba_marseille","lat":43.284849,"lon":5.392046,"is_reserved":false,"is_disabled":false,"rental_uris":{"android":"levelo://app?vid=3cd94c22-8fff-44e3-bdef-86735758bed1","ios":"levelo://app?vid=3cd94c22-8fff-44e3-bdef-86735758bed1"},"vehicle_type_id":"4","last_reported":1778865655,"current_range_meters":8000,"station_id":"ce4bhoh2rcd13ifvqh5g","pricing_plan_id":"cebpf4jnsgd1na2vs0mg"},{"bike_id":"f7374a26-d67c-417b-a8dc-c0cf50e048ba","system_id":"levelo_inurba_marseille","lat":43.30319,"lon":5.40447,"is_reserved":false,"is_disabled":false,"rental_uris":{"android":"levelo://app?vid=f7374a26-d67c-417b-a8dc-c0cf50e048ba","ios":"levelo://app?vid=f7374a26-d67c-417b-a8dc-c0cf50e048ba"},"vehicle_type_id":"4","last_reported":1778865655,"current_range_meters":8000,"station_id":"ce4bh012rcd13ifvqd10","pricing_plan_id":"cebpf4jnsgd1na2vs0mg"},{"bike_id":"b53dd3c2-8604-4c6c-b67b-be359e6ffeee","system_id":"levelo_inurba_marseille","lat":43.27988,"lon":5.41654,"is_reserved":false,"is_disabled":true,"rental_uris":{"android":"levelo://app?vid=b53dd3c2-8604-4c6c-b67b-be359e6ffeee","ios":"levelo://app?vid=b53dd3c2-8604-4c6c-b67b-be359e6ffeee"},"vehicle_type_id":"4","last_reported":1778865655,"current_range_meters":8000,"station_id":"ce4bho12rcd13ifvqh1g","pricing_plan_id":"cebpf4jnsgd1na2vs0mg"},{"bike_id":"4ec13f02-ebd9-40b7-b6b2-bc0ad2f270a3","system_id":"levelo_inurba_marseille","lat":43.29527,"lon":5.37516,"is_reserved":false,"is_disabled":false,"rental_uris":{"android":"levelo://app?vid=4ec13f02-ebd9-40b7-b6b2-bc0ad2f270a3","ios":"levelo://app?vid=4ec13f02-ebd9-40b7-b6b2-bc0ad2f270a3"},"vehicle_type_id":"4","last_reported":1778865655,"current_range_meters":8000,"station_id":"ce4bgkp2rcd13ifvqbmg","pricing_plan_id":"cebpf4jnsgd1na2vs0mg"},{"bike_id":"173bae74-df1f-468f-81ef-cbe2a3d0fdbe","system_id":"levelo_inurba_marseille","lat":43.27218,"lon":5.39192,"is_reserved":false,"is_disabled":false,"rental_uris":{"android":"levelo://app?vid=173bae74-df1f-468f-81ef-cbe2a3d0fdbe","ios":"levelo://app?vid=173bae74-df1f-468f-81ef-cbe2a3d0fdbe"},"vehicle_type_id":"4","last_reported":1778865655,"current_range_meters":8000,"station_id":"ce4bhhp2rcd13ifvqfm0","pricing_plan_id":"cebpf4jnsgd1na2vs0mg"},{"bike_id":"a69896dc-cdcc-4573-82bf-8aa9c7a0a073","system_id":"levelo_inurba_marseille","lat":43.28073,"lon":5.39665,"is_reserved":false,"is_disabled":false,"rental_uris":{"android":"levelo://app?vid=a69896dc-cdcc-4573-82bf-8aa9c7a0a073","ios":"levelo://app?vid=a69896dc-cdcc-4573-82bf-8aa9c7a0a073"},"vehicle_type_id":"4","last_reported":1778865655,"current_range_meters":8000,"station_id":"ce4bho12rcd13ifvqh2g","pricing_plan_id":"cebpf4jnsgd1na2vs0mg"},{"bike_id":"17689864-9fe3-496f-a09b-8854d1832ba5","system_id":"levelo_inurba_marseille","lat":43.30003,"lon":5.43069,"is_reserved":false,"is_disabled":false,"rental_uris":{"android":"levelo://app?vid=17689864-9fe3-496f-a09b-8854d1832ba5","ios":"levelo://app?vid=17689864-9fe3-496f-a09b-8854d1832ba5"},"vehicle_type_id":"4","last_reported":1778865655,"current_range_meters":8000,"station_id":"","pricing_plan_id":"cebpf4jnsgd1na2vs0mg"},{"bike_id":"468d411a-be62-4df0-b102-b00dd4bae91a","system_id":"levelo_inurba_marseille","lat":43.31042,"lon":5.37182,"is_reserved":false,"is_disabled":false,"rental_uris":{"android":"levelo://app?vid=468d411a-be62-4df0-b102-b00dd4bae91a","ios":"levelo://app?vid=468d411a-be62-4df0-b102-b00dd4bae91a"},"vehicle_type_id":"4","last_reported":1778865655,"current_range_meters":8000,"station_id":"st_d4kl2rp97mjs73e7tdfg","pricing_plan_id":"cebpf4jnsgd1na2vs0mg"},{"bike_id":"33fa37d9-418e-4d0f-9b94-afd1fcc7f04a","system_id":"levelo_inurba_marseille","lat":43.23364,"lon":5.41246,"is_reserved":false,"is_disabled":false,"rental_uris":{"android":"levelo://app?vid=33fa37d9-418e-4d0f-9b94-afd1fcc7f04a","ios":"levelo://app?vid=33fa37d9-418e-4d0f-9b94-afd1fcc7f04a"},"vehicle_type_id":"4","last_reported":1778865655,"current_range_meters":8000,"station_id":"st_d75pvndhf9lc73cqq3eg","pricing_plan_id":"cebpf4jnsgd1na2vs0mg"},{"bike_id":"45ff51f8-e3b4-4175-ad51-86e828006788","system_id":"levelo_inurba_marseille","lat":43.26541,"lon":5.37317,"is_reserved":false,"is_disabled":false,"rental_uris":{"android":"levelo://app?vid=45ff51f8-e3b4-4175-ad51-86e828006788","ios":"levelo://app?vid=45ff51f8-e3b4-4175-ad51-86e828006788"},"vehicle_type_id":"4","last_reported":1778865655,"current_range_meters":8000,"station_id":"ce4bhg12rcd13ifvqf70","pricing_plan_id":"cebpf4jnsgd1na2vs0mg"},{"bike_id":"615bf618-424b-4b6c-8190-71a262419c01","system_id":"levelo_inurba_marseille","lat":43.29519,"lon":5.39407,"is_reserved":false,"is_disabled":false,"rental_uris":{"android":"levelo://app?vid=615bf618-424b-4b6c-8190-71a262419c01","ios":"levelo://app?vid=615bf618-424b-4b6c-8190-71a262419c01"},"vehicle_type_id":"4","last_reported":1778865655,"current_range_meters":8000,"station_id":"ce4bh292rcd13ifvqdf0","pricing_plan_id":"cebpf4jnsgd1na2vs0mg"},{"bike_id":"23316475-cadb-49ef-a304-c6979ffff3ae","system_id":"levelo_inurba_marseille","lat":43.29882,"lon":5.42091,"is_reserved":false,"is_disabled":false,"rental_uris":{"android":"levelo://app?vid=23316475-cadb-49ef-a304-c6979ffff3ae","ios":"levelo://app?vid=23316475-cadb-49ef-a304-c6979ffff3ae"},"vehicle_type_id":"4","last_reported":1778865655,"current_range_meters":8000,"station_id":"st_d6tc004otcvc738tfe70","pricing_plan_id":"cebpf4jnsgd1na2vs0mg"},{"bike_id":"975afb08-ed3b-4ff7-8fa8-537348ff5f6f","system_id":"levelo_inurba_marseille","lat":43.27967,"lon":5.4167,"is_reserved":false,"is_disabled":false,"rental_uris":{"android":"levelo://app?vid=975afb08-ed3b-4ff7-8fa8-537348ff5f6f","ios":"levelo://app?vid=975afb08-ed3b-4ff7-8fa8-537348ff5f6f"},"vehicle_type_id":"4","last_reported":1778865655,"current_range_meters":8000,"station_id":"ce4bho12rcd13ifvqh1g","pricing_plan_id":"cebpf4jnsgd1na2vs0mg"},{"bike_id":"798a6216-8053-4cf7-b25d-4b0a4ea244bd","system_id":"levelo_inurba_marseille","lat":43.29217,"lon":5.3608,"is_reserved":false,"is_disabled":false,"rental_uris":{"android":"levelo://app?vid=798a6216-8053-4cf7-b25d-4b0a4ea244bd","ios":"levelo://app?vid=798a6216-8053-4cf7-b25d-4b0a4ea244bd"},"vehicle_type_id":"4","last_reported":1778865655,"current_range_meters":8000,"station_id":"ce4bhbh2rcd13ifvqeqg","pricing_plan_id":"cebpf4jnsgd1na2vs0mg"},{"bike_id":"6cbff85b-828f-4cbe-935a-5281bd690105","system_id":"levelo_inurba_marseille","lat":43.28003,"lon":5.39715,"is_reserved":false,"is_disabled":false,"rental_uris":{"android":"levelo://app?vid=6cbff85b-828f-4cbe-935a-5281bd690105","ios":"levelo://app?vid=6cbff85b-828f-4cbe-935a-5281bd690105"},"vehicle_type_id":"4","last_reported":1778865655,"current_range_meters":8000,"station_id":"","pricing_plan_id":"cebpf4jnsgd1na2vs0mg"},{"bike_id":"60c85a53-22c1-42b1-8964-1dd1726c4157","system_id":"levelo_inurba_marseille","lat":43.292,"lon":5.3608,"is_reserved":false,"is_disabled":false,"rental_uris":{"android":"levelo://app?vid=60c85a53-22c1-42b1-8964-1dd1726c4157","ios":"levelo://app?vid=60c85a53-22c1-42b1-8964-1dd1726c4157"},"vehicle_type_id":"4","last_reported":1778865655,"current_range_meters":8000,"station_id":"ce4bhbh2rcd13ifvqeqg","pricing_plan_id":"cebpf4jnsgd1na2vs0mg"},{"bike_id":"4b10a68d-7168-452c-99e1-9366d45cff3b","system_id":"levelo_inurba_marseille","lat":43.292425,"lon":5.36044,"is_reserved":false,"is_disabled":false,"rental_uris":{"android":"levelo://app?vid=4b10a68d-7168-452c-99e1-9366d45cff3b","ios":"levelo://app?vid=4b10a68d-7168-452c-99e1-9366d45cff3b"},"vehicle_type_id":"4","last_reported":1778865655,"current_range_meters":8000,"station_id":"ce4bhbh2rcd13ifvqeqg","pricing_plan_id":"cebpf4jnsgd1na2vs0mg"},{"bike_id":"bc8f2680-d585-4a94-be6f-421269a7c001","system_id":"levelo_inurba_marseille","lat":43.30536,"lon":5.365522,"is_reserved":false,"is_disabled":false,"rental_uris":{"android":"levelo://app?vid=bc8f2680-d585-4a94-be6f-421269a7c001","ios":"levelo://app?vid=bc8f2680-d585-4a94-be6f-421269a7c001"},"vehicle_type_id":"4","last_reported":1778865655,"current_range_meters":8000,"station_id":"","pricing_plan_id":"cebpf4jnsgd1na2vs0mg"},{"bike_id":"0205dc74-dcfc-4081-a024-5b970a8fe75f","system_id":"levelo_inurba_marseille","lat":43.27056,"lon":5.38312,"is_reserved":false,"is_disabled":false,"rental_uris":{"android":"levelo://app?vid=0205dc74-dcfc-4081-a024-5b970a8fe75f","ios":"levelo://app?vid=0205dc74-dcfc-4081-a024-5b970a8fe75f"},"vehicle_type_id":"4","last_reported":1778865655,"current_range_meters":8000,"station_id":"st_d3n2fo6cfp8s73cte1j0","pricing_plan_id":"cebpf4jnsgd1na2vs0mg"},{"bike_id":"5ecf42fd-8bce-49a5-80bb-135c370a0982","system_id":"levelo_inurba_marseille","lat":43.30948,"lon":5.39035,"is_reserved":false,"is_disabled":false,"rental_uris":{"android":"levelo://app?vid=5ecf42fd-8bce-49a5-80bb-135c370a0982","ios":"levelo://app?vid=5ecf42fd-8bce-49a5-80bb-135c370a0982"},"vehicle_type_id":"4","last_reported":1778865655,"current_range_meters":8000,"station_id":"ce4bgup2rcd13ifvqco0","pricing_plan_id":"cebpf4jnsgd1na2vs0mg"},{"bike_id":"8de32dc5-b38b-4f47-bdb0-39e63f14a75b","system_id":"levelo_inurba_marseille","lat":43.21744,"lon":5.34622,"is_reserved":false,"is_disabled":false,"rental_uris":{"android":"levelo://app?vid=8de32dc5-b38b-4f47-bdb0-39e63f14a75b","ios":"levelo://app?vid=8de32dc5-b38b-4f47-bdb0-39e63f14a75b"},"vehicle_type_id":"4","last_reported":1778865655,"current_range_meters":8000,"station_id":"st_cvj6r9ubvosntc0bgbag","pricing_plan_id":"cebpf4jnsgd1na2vs0mg"},{"bike_id":"512cd850-3e86-4c41-9d13-55bb94935ffc","system_id":"levelo_inurba_marseille","lat":43.27595,"lon":5.36145,"is_reserved":false,"is_disabled":false,"rental_uris":{"android":"levelo://app?vid=512cd850-3e86-4c41-9d13-55bb94935ffc","ios":"levelo://app?vid=512cd850-3e86-4c41-9d13-55bb94935ffc"},"vehicle_type_id":"4","last_reported":1778865655,"current_range_meters":8400,"station_id":"ce4bgj92rcd13ifvqbe0","pricing_plan_id":"cebpf4jnsgd1na2vs0mg"},{"bike_id":"60ef812e-8919-44fa-bbe4-3562576827fd","system_id":"levelo_inurba_marseille","lat":43.2925,"lon":5.3842,"is_reserved":false,"is_disabled":false,"rental_uris":{"android":"levelo://app?vid=60ef812e-8919-44fa-bbe4-3562576827fd","ios":"levelo://app?vid=60ef812e-8919-44fa-bbe4-3562576827fd"},"vehicle_type_id":"4","last_reported":1778865655,"current_range_meters":8400,"station_id":"ce4bh692rcd13ifvqea0","pricing_plan_id":"cebpf4jnsgd1na2vs0mg"},{"bike_id":"c4e94fb4-cdf3-4b6f-9d10-526987919b74","system_id":"levelo_inurba_marseille","lat":43.29013,"lon":5.38139,"is_reserved":false,"is_disabled":false,"rental_uris":{"android":"levelo://app?vid=c4e94fb4-cdf3-4b6f-9d10-526987919b74","ios":"levelo://app?vid=c4e94fb4-cdf3-4b6f-9d10-526987919b74"},"vehicle_type_id":"4","last_reported":1778865655,"current_range_meters":8400,"station_id":"ce4bh4p2rcd13ifvqe1g","pricing_plan_id":"cebpf4jnsgd1na2vs0mg"},{"bike_id":"2e09fbec-0877-4858-9786-2d0a8a1f69cc","system_id":"levelo_inurba_marseille","lat":43.29791,"lon":5.37091,"is_reserved":false,"is_disabled":true,"rental_uris":{"android":"levelo://app?vid=2e09fbec-0877-4858-9786-2d0a8a1f69cc","ios":"levelo://app?vid=2e09fbec-0877-4858-9786-2d0a8a1f69cc"},"vehicle_type_id":"4","last_reported":1778865655,"current_range_meters":8400,"station_id":"ce4bgop2rcd13ifvqc1g","pricing_plan_id":"cebpf4jnsgd1na2vs0mg"},{"bike_id":"e4817bca-b3e5-4f92-b4f0-406ec04011eb","system_id":"levelo_inurba_marseille","lat":43.28994,"lon":5.35615,"is_reserved":false,"is_disabled":false,"rental_uris":{"android":"levelo://app?vid=e4817bca-b3e5-4f92-b4f0-406ec04011eb","ios":"levelo://app?vid=e4817bca-b3e5-4f92-b4f0-406ec04011eb"},"vehicle_type_id":"4","last_reported":1778865655,"current_range_meters":8400,"station_id":"ce4bhb92rcd13ifvqen0","pricing_plan_id":"cebpf4jnsgd1na2vs0mg"},{"bike_id":"0f5b00f6-6614-40eb-871a-6b35b9c424ac","system_id":"levelo_inurba_marseille","lat":43.33754,"lon":5.37506,"is_reserved":false,"is_disabled":false,"rental_uris":{"android":"levelo://app?vid=0f5b00f6-6614-40eb-871a-6b35b9c424ac","ios":"levelo://app?vid=0f5b00f6-6614-40eb-871a-6b35b9c424ac"},"vehicle_type_id":"4","last_reported":1778865655,"current_range_meters":8400,"station_id":"","pricing_plan_id":"cebpf4jnsgd1na2vs0mg"},{"bike_id":"b9bc74fa-c34c-4652-b384-35fef20ce965","system_id":"levelo_inurba_marseille","lat":43.26551,"lon":5.3906,"is_reserved":false,"is_disabled":false,"rental_uris":{"android":"levelo://app?vid=b9bc74fa-c34c-4652-b384-35fef20ce965","ios":"levelo://app?vid=b9bc74fa-c34c-4652-b384-35fef20ce965"},"vehicle_type_id":"4","last_reported":1778865655,"current_range_meters":8400,"station_id":"ce4bhe12rcd13ifvqf30","pricing_plan_id":"cebpf4jnsgd1na2vs0mg"},{"bike_id":"63b0726f-2512-4a36-9702-6961ff4730f4","system_id":"levelo_inurba_marseille","lat":43.28616,"lon":5.35105,"is_reserved":false,"is_disabled":false,"rental_uris":{"android":"levelo://app?vid=63b0726f-2512-4a36-9702-6961ff4730f4","ios":"levelo://app?vid=63b0726f-2512-4a36-9702-6961ff4730f4"},"vehicle_type_id":"4","last_reported":1778865655,"current_range_meters":8400,"station_id":"ce4bhch2rcd13ifvqeug","pricing_plan_id":"cebpf4jnsgd1na2vs0mg"},{"bike_id":"3903a2c5-3400-4657-ab26-c842fc03e027","system_id":"levelo_inurba_marseille","lat":43.27371,"lon":5.36248,"is_reserved":false,"is_disabled":true,"rental_uris":{"android":"levelo://app?vid=3903a2c5-3400-4657-ab26-c842fc03e027","ios":"levelo://app?vid=3903a2c5-3400-4657-ab26-c842fc03e027"},"vehicle_type_id":"4","last_reported":1778865655,"current_range_meters":8400,"station_id":"ce4bhbh2rcd13ifvqeo0","pricing_plan_id":"cebpf4jnsgd1na2vs0mg"},{"bike_id":"50fb2984-0d47-49e4-b096-8d220a44d77a","system_id":"levelo_inurba_marseille","lat":43.29551,"lon":5.42287,"is_reserved":false,"is_disabled":false,"rental_uris":{"android":"levelo://app?vid=50fb2984-0d47-49e4-b096-8d220a44d77a","ios":"levelo://app?vid=50fb2984-0d47-49e4-b096-8d220a44d77a"},"vehicle_type_id":"4","last_reported":1778865655,"current_range_meters":8400,"station_id":"ce4bhph2rcd13ifvqhdg","pricing_plan_id":"cebpf4jnsgd1na2vs0mg"},