{"last_updated":1774804827,"ttl":60,"version":"2.2","data":{"bikes":[{"bike_id":"42ac2f6b-68e9-415e-abf4-d533376356a8","system_id":"levelo_inurba_marseille","lat":43.29534,"lon":5.38654,"is_reserved":false,"is_disabled":false,"rental_uris":{"android":"levelo://app?vid=42ac2f6b-68e9-415e-abf4-d533376356a8","ios":"levelo://app?vid=42ac2f6b-68e9-415e-abf4-d533376356a8"},"vehicle_type_id":"4","last_reported":1774804827,"current_range_meters":2800,"station_id":"","pricing_plan_id":"cebpf4jnsgd1na2vs0mg"},{"bike_id":"1a7fb594-fd28-4248-9991-4acd93df2a8c","system_id":"levelo_inurba_marseille","lat":43.29968,"lon":5.38481,"is_reserved":false,"is_disabled":true,"rental_uris":{"android":"levelo://app?vid=1a7fb594-fd28-4248-9991-4acd93df2a8c","ios":"levelo://app?vid=1a7fb594-fd28-4248-9991-4acd93df2a8c"},"vehicle_type_id":"4","last_reported":1774804827,"current_range_meters":2800,"station_id":"ce4bgj92rcd13ifvqbd0","pricing_plan_id":"cebpf4jnsgd1na2vs0mg"},{"bike_id":"2cb2fac0-f8b0-456d-aa3c-89b44b007830","system_id":"levelo_inurba_marseille","lat":43.24656,"lon":5.38156,"is_reserved":false,"is_disabled":false,"rental_uris":{"android":"levelo://app?vid=2cb2fac0-f8b0-456d-aa3c-89b44b007830","ios":"levelo://app?vid=2cb2fac0-f8b0-456d-aa3c-89b44b007830"},"vehicle_type_id":"4","last_reported":1774804827,"current_range_meters":2800,"station_id":"ce4bhih2rcd13ifvqfr0","pricing_plan_id":"cebpf4jnsgd1na2vs0mg"},{"bike_id":"cd54dc5b-eef2-49ee-a6fa-402f58aeed05","system_id":"levelo_inurba_marseille","lat":43.33056,"lon":5.39021,"is_reserved":false,"is_disabled":false,"rental_uris":{"android":"levelo://app?vid=cd54dc5b-eef2-49ee-a6fa-402f58aeed05","ios":"levelo://app?vid=cd54dc5b-eef2-49ee-a6fa-402f58aeed05"},"vehicle_type_id":"4","last_reported":1774804827,"current_range_meters":2800,"station_id":"ce4bhr92rcd13ifvqhrg","pricing_plan_id":"cebpf4jnsgd1na2vs0mg"},{"bike_id":"6074b891-f4e6-410d-b323-df2aebf2c06e","system_id":"levelo_inurba_marseille","lat":43.29698,"lon":5.37288,"is_reserved":false,"is_disabled":false,"rental_uris":{"android":"levelo://app?vid=6074b891-f4e6-410d-b323-df2aebf2c06e","ios":"levelo://app?vid=6074b891-f4e6-410d-b323-df2aebf2c06e"},"vehicle_type_id":"4","last_reported":1774804827,"current_range_meters":2800,"station_id":"ce4bgk12rcd13ifvqbj0","pricing_plan_id":"cebpf4jnsgd1na2vs0mg"},{"bike_id":"4f129c1b-6e45-46c4-910f-c0b5dcfec85b","system_id":"levelo_inurba_marseille","lat":43.29952,"lon":5.36549,"is_reserved":false,"is_disabled":true,"rental_uris":{"android":"levelo://app?vid=4f129c1b-6e45-46c4-910f-c0b5dcfec85b","ios":"levelo://app?vid=4f129c1b-6e45-46c4-910f-c0b5dcfec85b"},"vehicle_type_id":"4","last_reported":1774804827,"current_range_meters":2800,"station_id":"ce4bgm92rcd13ifvqbr0","pricing_plan_id":"cebpf4jnsgd1na2vs0mg"},{"bike_id":"c26ece64-6cbd-4eef-8650-174002bd185b","system_id":"levelo_inurba_marseille","lat":43.22572,"lon":5.41624,"is_reserved":false,"is_disabled":false,"rental_uris":{"android":"levelo://app?vid=c26ece64-6cbd-4eef-8650-174002bd185b","ios":"levelo://app?vid=c26ece64-6cbd-4eef-8650-174002bd185b"},"vehicle_type_id":"4","last_reported":1774804827,"current_range_meters":2800,"station_id":"st_d2o4gvlbi1j2169b742g","pricing_plan_id":"cebpf4jnsgd1na2vs0mg"},{"bike_id":"4e3c3b7e-2a8d-478e-87f8-dfcfcc08ea50","system_id":"levelo_inurba_marseille","lat":43.29299,"lon":5.37473,"is_reserved":false,"is_disabled":false,"rental_uris":{"android":"levelo://app?vid=4e3c3b7e-2a8d-478e-87f8-dfcfcc08ea50","ios":"levelo://app?vid=4e3c3b7e-2a8d-478e-87f8-dfcfcc08ea50"},"vehicle_type_id":"4","last_reported":1774804827,"current_range_meters":2800,"station_id":"ce4bgi12rcd13ifvqb70","pricing_plan_id":"cebpf4jnsgd1na2vs0mg"},{"bike_id":"a39caa11-6338-4064-b9ef-fa9a223938da","system_id":"levelo_inurba_marseille","lat":43.28612,"lon":5.37071,"is_reserved":false,"is_disabled":false,"rental_uris":{"android":"levelo://app?vid=a39caa11-6338-4064-b9ef-fa9a223938da","ios":"levelo://app?vid=a39caa11-6338-4064-b9ef-fa9a223938da"},"vehicle_type_id":"4","last_reported":1774804827,"current_range_meters":2800,"station_id":"ce4bht12rcd13ifvqi60","pricing_plan_id":"cebpf4jnsgd1na2vs0mg"},{"bike_id":"5946571f-95fd-4b78-8745-e1bd19be497c","system_id":"levelo_inurba_marseille","lat":43.29883,"lon":5.39826,"is_reserved":false,"is_disabled":false,"rental_uris":{"android":"levelo://app?vid=5946571f-95fd-4b78-8745-e1bd19be497c","ios":"levelo://app?vid=5946571f-95fd-4b78-8745-e1bd19be497c"},"vehicle_type_id":"4","last_reported":1774804827,"current_range_meters":3200,"station_id":"","pricing_plan_id":"cebpf4jnsgd1na2vs0mg"},{"bike_id":"49888a67-1f70-4912-95d0-5787fae70dbf","system_id":"levelo_inurba_marseille","lat":43.24977,"lon":5.40483,"is_reserved":false,"is_disabled":false,"rental_uris":{"android":"levelo://app?vid=49888a67-1f70-4912-95d0-5787fae70dbf","ios":"levelo://app?vid=49888a67-1f70-4912-95d0-5787fae70dbf"},"vehicle_type_id":"4","last_reported":1774804827,"current_range_meters":3200,"station_id":"st_d2ngiaodas8pm72gd1h0","pricing_plan_id":"cebpf4jnsgd1na2vs0mg"},{"bike_id":"b4dd031a-0c99-48c7-9e72-ab3f93c1cf2e","system_id":"levelo_inurba_marseille","lat":43.273766,"lon":5.362594,"is_reserved":false,"is_disabled":false,"rental_uris":{"android":"levelo://app?vid=b4dd031a-0c99-48c7-9e72-ab3f93c1cf2e","ios":"levelo://app?vid=b4dd031a-0c99-48c7-9e72-ab3f93c1cf2e"},"vehicle_type_id":"4","last_reported":1774804827,"current_range_meters":3200,"station_id":"ce4bhbh2rcd13ifvqeo0","pricing_plan_id":"cebpf4jnsgd1na2vs0mg"},{"bike_id":"47b7b901-4676-4661-9e62-e7c0e993c9d9","system_id":"levelo_inurba_marseille","lat":43.29434,"lon":5.38605,"is_reserved":false,"is_disabled":false,"rental_uris":{"android":"levelo://app?vid=47b7b901-4676-4661-9e62-e7c0e993c9d9","ios":"levelo://app?vid=47b7b901-4676-4661-9e62-e7c0e993c9d9"},"vehicle_type_id":"4","last_reported":1774804827,"current_range_meters":3200,"station_id":"","pricing_plan_id":"cebpf4jnsgd1na2vs0mg"},{"bike_id":"f057f137-0cac-4b50-91e6-948f8581886d","system_id":"levelo_inurba_marseille","lat":43.24762,"lon":5.37872,"is_reserved":false,"is_disabled":false,"rental_uris":{"android":"levelo://app?vid=f057f137-0cac-4b50-91e6-948f8581886d","ios":"levelo://app?vid=f057f137-0cac-4b50-91e6-948f8581886d"},"vehicle_type_id":"4","last_reported":1774804827,"current_range_meters":3200,"station_id":"","pricing_plan_id":"cebpf4jnsgd1na2vs0mg"},{"bike_id":"07f80e43-fb47-44d0-a0d9-ef8abee5c944","system_id":"levelo_inurba_marseille","lat":43.22581,"lon":5.41646,"is_reserved":false,"is_disabled":false,"rental_uris":{"android":"levelo://app?vid=07f80e43-fb47-44d0-a0d9-ef8abee5c944","ios":"levelo://app?vid=07f80e43-fb47-44d0-a0d9-ef8abee5c944"},"vehicle_type_id":"4","last_reported":1774804827,"current_range_meters":3200,"station_id":"st_d2o4gvlbi1j2169b742g","pricing_plan_id":"cebpf4jnsgd1na2vs0mg"},{"bike_id":"9dd280d1-9a8a-456e-90d9-a6e88fee84ff","system_id":"levelo_inurba_marseille","lat":43.29397,"lon":5.3785,"is_reserved":false,"is_disabled":false,"rental_uris":{"android":"levelo://app?vid=9dd280d1-9a8a-456e-90d9-a6e88fee84ff","ios":"levelo://app?vid=9dd280d1-9a8a-456e-90d9-a6e88fee84ff"},"vehicle_type_id":"4","last_reported":1774804827,"current_range_meters":3200,"station_id":"ce4bgjh2rcd13ifvqbf0","pricing_plan_id":"cebpf4jnsgd1na2vs0mg"},{"bike_id":"3d15c151-497b-4037-88e7-a915d4e0120c","system_id":"levelo_inurba_marseille","lat":43.30152,"lon":5.37427,"is_reserved":false,"is_disabled":false,"rental_uris":{"android":"levelo://app?vid=3d15c151-497b-4037-88e7-a915d4e0120c","ios":"levelo://app?vid=3d15c151-497b-4037-88e7-a915d4e0120c"},"vehicle_type_id":"4","last_reported":1774804827,"current_range_meters":3200,"station_id":"ce4bgs92rcd13ifvqcc0","pricing_plan_id":"cebpf4jnsgd1na2vs0mg"},{"bike_id":"290afd09-0584-4963-a797-1ed96debbdfe","system_id":"levelo_inurba_marseille","lat":43.21211,"lon":5.35094,"is_reserved":false,"is_disabled":false,"rental_uris":{"android":"levelo://app?vid=290afd09-0584-4963-a797-1ed96debbdfe","ios":"levelo://app?vid=290afd09-0584-4963-a797-1ed96debbdfe"},"vehicle_type_id":"4","last_reported":1774804827,"current_range_meters":3600,"station_id":"st_cvj6sg6p6f1abm77japg","pricing_plan_id":"cebpf4jnsgd1na2vs0mg"},{"bike_id":"c8e3f134-bd1d-4bd8-925f-75061382b49c","system_id":"levelo_inurba_marseille","lat":43.2954,"lon":5.38652,"is_reserved":false,"is_disabled":false,"rental_uris":{"android":"levelo://app?vid=c8e3f134-bd1d-4bd8-925f-75061382b49c","ios":"levelo://app?vid=c8e3f134-bd1d-4bd8-925f-75061382b49c"},"vehicle_type_id":"4","last_reported":1774804827,"current_range_meters":3600,"station_id":"","pricing_plan_id":"cebpf4jnsgd1na2vs0mg"},{"bike_id":"446c0570-a148-40d5-b8d2-cd5cee05d6f3","system_id":"levelo_inurba_marseille","lat":43.21759,"lon":5.34579,"is_reserved":false,"is_disabled":false,"rental_uris":{"android":"levelo://app?vid=446c0570-a148-40d5-b8d2-cd5cee05d6f3","ios":"levelo://app?vid=446c0570-a148-40d5-b8d2-cd5cee05d6f3"},"vehicle_type_id":"4","last_reported":1774804827,"current_range_meters":3600,"station_id":"st_cvj6r9ubvosntc0bgbag","pricing_plan_id":"cebpf4jnsgd1na2vs0mg"},{"bike_id":"899c9f36-9b83-4ce9-bd7d-0f95dd541b6a","system_id":"levelo_inurba_marseille","lat":43.32351,"lon":5.36734,"is_reserved":false,"is_disabled":false,"rental_uris":{"android":"levelo://app?vid=899c9f36-9b83-4ce9-bd7d-0f95dd541b6a","ios":"levelo://app?vid=899c9f36-9b83-4ce9-bd7d-0f95dd541b6a"},"vehicle_type_id":"4","last_reported":1774804827,"current_range_meters":3600,"station_id":"ce4bhsh2rcd13ifvqi2g","pricing_plan_id":"cebpf4jnsgd1na2vs0mg"},{"bike_id":"fc720064-bc6d-4fc1-84f6-df512a8b675a","system_id":"levelo_inurba_marseille","lat":43.26558,"lon":5.37283,"is_reserved":false,"is_disabled":false,"rental_uris":{"android":"levelo://app?vid=fc720064-bc6d-4fc1-84f6-df512a8b675a","ios":"levelo://app?vid=fc720064-bc6d-4fc1-84f6-df512a8b675a"},"vehicle_type_id":"4","last_reported":1774804827,"current_range_meters":3600,"station_id":"ce4bhg12rcd13ifvqf70","pricing_plan_id":"cebpf4jnsgd1na2vs0mg"},{"bike_id":"44e6ef2e-f582-4dae-8b58-95600b73b872","system_id":"levelo_inurba_marseille","lat":43.33573,"lon":5.37497,"is_reserved":false,"is_disabled":false,"rental_uris":{"android":"levelo://app?vid=44e6ef2e-f582-4dae-8b58-95600b73b872","ios":"levelo://app?vid=44e6ef2e-f582-4dae-8b58-95600b73b872"},"vehicle_type_id":"4","last_reported":1774804827,"current_range_meters":3600,"station_id":"st_d46tts09ee8s73dlu43g","pricing_plan_id":"cebpf4jnsgd1na2vs0mg"},{"bike_id":"f8d401ea-d032-4e17-b855-b6e19a8fece9","system_id":"levelo_inurba_marseille","lat":43.21769,"lon":5.34604,"is_reserved":false,"is_disabled":false,"rental_uris":{"android":"levelo://app?vid=f8d401ea-d032-4e17-b855-b6e19a8fece9","ios":"levelo://app?vid=f8d401ea-d032-4e17-b855-b6e19a8fece9"},"vehicle_type_id":"4","last_reported":1774804827,"current_range_meters":3600,"station_id":"st_cvj6r9ubvosntc0bgbag","pricing_plan_id":"cebpf4jnsgd1na2vs0mg"},{"bike_id":"d3072164-5c43-4020-ab56-450bf7287703","system_id":"levelo_inurba_marseille","lat":43.24167,"lon":5.36409,"is_reserved":false,"is_disabled":false,"rental_uris":{"android":"levelo://app?vid=d3072164-5c43-4020-ab56-450bf7287703","ios":"levelo://app?vid=d3072164-5c43-4020-ab56-450bf7287703"},"vehicle_type_id":"4","last_reported":1774804827,"current_range_meters":3600,"station_id":"cpo36qri1sfpv3e86is0","pricing_plan_id":"cebpf4jnsgd1na2vs0mg"},{"bike_id":"11ae85da-2c12-43e9-8878-505b9cbe0533","system_id":"levelo_inurba_marseille","lat":43.29914,"lon":5.38138,"is_reserved":false,"is_disabled":false,"rental_uris":{"android":"levelo://app?vid=11ae85da-2c12-43e9-8878-505b9cbe0533","ios":"levelo://app?vid=11ae85da-2c12-43e9-8878-505b9cbe0533"},"vehicle_type_id":"4","last_reported":1774804827,"current_range_meters":3600,"station_id":"ce4bgj12rcd13ifvqbc0","pricing_plan_id":"cebpf4jnsgd1na2vs0mg"},{"bike_id":"34c6ce22-869d-4547-b7bc-9ba18b8261b8","system_id":"levelo_inurba_marseille","lat":43.23779,"lon":5.36599,"is_reserved":false,"is_disabled":false,"rental_uris":{"android":"levelo://app?vid=34c6ce22-869d-4547-b7bc-9ba18b8261b8","ios":"levelo://app?vid=34c6ce22-869d-4547-b7bc-9ba18b8261b8"},"vehicle_type_id":"4","last_reported":1774804827,"current_range_meters":3600,"station_id":"st_d3nk18o9ro0c73en2l3g","pricing_plan_id":"cebpf4jnsgd1na2vs0mg"},{"bike_id":"c90c48f5-5bf3-474f-a87b-2141f699f543","system_id":"levelo_inurba_marseille","lat":43.27983,"lon":5.38741,"is_reserved":false,"is_disabled":false,"rental_uris":{"android":"levelo://app?vid=c90c48f5-5bf3-474f-a87b-2141f699f543","ios":"levelo://app?vid=c90c48f5-5bf3-474f-a87b-2141f699f543"},"vehicle_type_id":"4","last_reported":1774804827,"current_range_meters":3600,"station_id":"ce4bhg12rcd13ifvqf80","pricing_plan_id":"cebpf4jnsgd1na2vs0mg"},{"bike_id":"3ff24676-23bf-45ec-b0f9-26c82beab495","system_id":"levelo_inurba_marseille","lat":43.24669,"lon":5.38157,"is_reserved":false,"is_disabled":false,"rental_uris":{"android":"levelo://app?vid=3ff24676-23bf-45ec-b0f9-26c82beab495","ios":"levelo://app?vid=3ff24676-23bf-45ec-b0f9-26c82beab495"},"vehicle_type_id":"4","last_reported":1774804827,"current_range_meters":3600,"station_id":"ce4bhih2rcd13ifvqfr0","pricing_plan_id":"cebpf4jnsgd1na2vs0mg"},{"bike_id":"09cbeb56-d000-4a5d-bbfc-69ddd1afc00d","system_id":"levelo_inurba_marseille","lat":43.29302,"lon":5.37457,"is_reserved":false,"is_disabled":false,"rental_uris":{"android":"levelo://app?vid=09cbeb56-d000-4a5d-bbfc-69ddd1afc00d","ios":"levelo://app?vid=09cbeb56-d000-4a5d-bbfc-69ddd1afc00d"},"vehicle_type_id":"4","last_reported":1774804827,"current_range_meters":3600,"station_id":"ce4bgi12rcd13ifvqb70","pricing_plan_id":"cebpf4jnsgd1na2vs0mg"},{"bike_id":"80ad1176-7e15-4e9c-ae83-2fc76b9d1a73","system_id":"levelo_inurba_marseille","lat":43.24385,"lon":5.3706,"is_reserved":false,"is_disabled":true,"rental_uris":{"android":"levelo://app?vid=80ad1176-7e15-4e9c-ae83-2fc76b9d1a73","ios":"levelo://app?vid=80ad1176-7e15-4e9c-ae83-2fc76b9d1a73"},"vehicle_type_id":"4","last_reported":1774804827,"current_range_meters":3600,"station_id":"ce4bhhh2rcd13ifvqfk0","pricing_plan_id":"cebpf4jnsgd1na2vs0mg"},{"bike_id":"f544d681-c3a4-4e16-a5e0-d98844c9ea51","system_id":"levelo_inurba_marseille","lat":43.28405,"lon":5.37526,"is_reserved":false,"is_disabled":false,"rental_uris":{"android":"levelo://app?vid=f544d681-c3a4-4e16-a5e0-d98844c9ea51","ios":"levelo://app?vid=f544d681-c3a4-4e16-a5e0-d98844c9ea51"},"vehicle_type_id":"4","last_reported":1774804827,"current_range_meters":3600,"station_id":"ce4bh412rcd13ifvqds0","pricing_plan_id":"cebpf4jnsgd1na2vs0mg"},{"bike_id":"907ad386-d8e2-473d-95d6-81a93b71b191","system_id":"levelo_inurba_marseille","lat":43.25575,"lon":5.38232,"is_reserved":false,"is_disabled":false,"rental_uris":{"android":"levelo://app?vid=907ad386-d8e2-473d-95d6-81a93b71b191","ios":"levelo://app?vid=907ad386-d8e2-473d-95d6-81a93b71b191"},"vehicle_type_id":"4","last_reported":1774804827,"current_range_meters":4000,"station_id":"ce4bhih2rcd13ifvqfs0","pricing_plan_id":"cebpf4jnsgd1na2vs0mg"},{"bike_id":"f5885509-58fd-4d4c-978e-0471d9854836","system_id":"levelo_inurba_marseille","lat":43.240748,"lon":5.377634,"is_reserved":false,"is_disabled":false,"rental_uris":{"android":"levelo://app?vid=f5885509-58fd-4d4c-978e-0471d9854836","ios":"levelo://app?vid=f5885509-58fd-4d4c-978e-0471d9854836"},"vehicle_type_id":"4","last_reported":1774804827,"current_range_meters":4000,"station_id":"ce4bhnp2rcd13ifvqgvg","pricing_plan_id":"cebpf4jnsgd1na2vs0mg"},{"bike_id":"1bebdd87-eb20-43f1-8d96-9fdb37cf655b","system_id":"levelo_inurba_marseille","lat":43.2953,"lon":5.38667,"is_reserved":false,"is_disabled":false,"rental_uris":{"android":"levelo://app?vid=1bebdd87-eb20-43f1-8d96-9fdb37cf655b","ios":"levelo://app?vid=1bebdd87-eb20-43f1-8d96-9fdb37cf655b"},"vehicle_type_id":"4","last_reported":1774804827,"current_range_meters":4000,"station_id":"","pricing_plan_id":"cebpf4jnsgd1na2vs0mg"},{"bike_id":"a040c986-ffc6-40f4-9533-0be91cd5510a","system_id":"levelo_inurba_marseille","lat":43.2604,"lon":5.37556,"is_reserved":false,"is_disabled":false,"rental_uris":{"android":"levelo://app?vid=a040c986-ffc6-40f4-9533-0be91cd5510a","ios":"levelo://app?vid=a040c986-ffc6-40f4-9533-0be91cd5510a"},"vehicle_type_id":"4","last_reported":1774804827,"current_range_meters":4000,"station_id":"ce4bhgh2rcd13ifvqfa0","pricing_plan_id":"cebpf4jnsgd1na2vs0mg"},{"bike_id":"1d3ba459-37d6-42b9-baeb-5049f0e0af69","system_id":"levelo_inurba_marseille","lat":43.29034,"lon":5.38625,"is_reserved":false,"is_disabled":false,"rental_uris":{"android":"levelo://app?vid=1d3ba459-37d6-42b9-baeb-5049f0e0af69","ios":"levelo://app?vid=1d3ba459-37d6-42b9-baeb-5049f0e0af69"},"vehicle_type_id":"4","last_reported":1774804827,"current_range_meters":4000,"station_id":"ce4bh4p2rcd13ifvqe0g","pricing_plan_id":"cebpf4jnsgd1na2vs0mg"},{"bike_id":"2194c3e1-98f8-47bc-a8ab-c697b71e9c69","system_id":"levelo_inurba_marseille","lat":43.24561,"lon":5.39504,"is_reserved":false,"is_disabled":false,"rental_uris":{"android":"levelo://app?vid=2194c3e1-98f8-47bc-a8ab-c697b71e9c69","ios":"levelo://app?vid=2194c3e1-98f8-47bc-a8ab-c697b71e9c69"},"vehicle_type_id":"4","last_reported":1774804827,"current_range_meters":4000,"station_id":"ce4bhlp2rcd13ifvqgjg","pricing_plan_id":"cebpf4jnsgd1na2vs0mg"},{"bike_id":"9bc0b937-b0d9-43c5-9555-6ff47bb13b73","system_id":"levelo_inurba_marseille","lat":43.33168,"lon":5.37704,"is_reserved":false,"is_disabled":false,"rental_uris":{"android":"levelo://app?vid=9bc0b937-b0d9-43c5-9555-6ff47bb13b73","ios":"levelo://app?vid=9bc0b937-b0d9-43c5-9555-6ff47bb13b73"},"vehicle_type_id":"4","last_reported":1774804827,"current_range_meters":4000,"station_id":"st_d46cu089ee8s73dldbu0","pricing_plan_id":"cebpf4jnsgd1na2vs0mg"},{"bike_id":"9c90e154-1ad6-4039-8066-16f77ee3b88c","system_id":"levelo_inurba_marseille","lat":43.29535,"lon":5.38654,"is_reserved":false,"is_disabled":false,"rental_uris":{"android":"levelo://app?vid=9c90e154-1ad6-4039-8066-16f77ee3b88c","ios":"levelo://app?vid=9c90e154-1ad6-4039-8066-16f77ee3b88c"},"vehicle_type_id":"4","last_reported":1774804827,"current_range_meters":4000,"station_id":"","pricing_plan_id":"cebpf4jnsgd1na2vs0mg"},{"bike_id":"9857ce4a-85f4-4046-923b-1187a37b5fd2","system_id":"levelo_inurba_marseille","lat":43.26369,"lon":5.41084,"is_reserved":false,"is_disabled":false,"rental_uris":{"android":"levelo://app?vid=9857ce4a-85f4-4046-923b-1187a37b5fd2","ios":"levelo://app?vid=9857ce4a-85f4-4046-923b-1187a37b5fd2"},"vehicle_type_id":"4","last_reported":1774804827,"current_range_meters":4000,"station_id":"st_d4e5ca6na9uc73bfl5fg","pricing_plan_id":"cebpf4jnsgd1na2vs0mg"},{"bike_id":"edd1250b-5d64-4a0e-9b3f-cf5f0ae29242","system_id":"levelo_inurba_marseille","lat":43.26965,"lon":5.38635,"is_reserved":false,"is_disabled":false,"rental_uris":{"android":"levelo://app?vid=edd1250b-5d64-4a0e-9b3f-cf5f0ae29242","ios":"levelo://app?vid=edd1250b-5d64-4a0e-9b3f-cf5f0ae29242"},"vehicle_type_id":"4","last_reported":1774804827,"current_range_meters":4000,"station_id":"ce4bhh92rcd13ifvqfh0","pricing_plan_id":"cebpf4jnsgd1na2vs0mg"},{"bike_id":"9c6a7ea5-c493-4ed8-8e89-7fba77270bb3","system_id":"levelo_inurba_marseille","lat":43.29801,"lon":5.40407,"is_reserved":false,"is_disabled":false,"rental_uris":{"android":"levelo://app?vid=9c6a7ea5-c493-4ed8-8e89-7fba77270bb3","ios":"levelo://app?vid=9c6a7ea5-c493-4ed8-8e89-7fba77270bb3"},"vehicle_type_id":"4","last_reported":1774804827,"current_range_meters":4000,"station_id":"ce4bh112rcd13ifvqd90","pricing_plan_id":"cebpf4jnsgd1na2vs0mg"},{"bike_id":"b1e731c5-a019-40fb-b94c-b458e0eddb64","system_id":"levelo_inurba_marseille","lat":43.23768,"lon":5.38496,"is_reserved":false,"is_disabled":false,"rental_uris":{"android":"levelo://app?vid=b1e731c5-a019-40fb-b94c-b458e0eddb64","ios":"levelo://app?vid=b1e731c5-a019-40fb-b94c-b458e0eddb64"},"vehicle_type_id":"4","last_reported":1774804827,"current_range_meters":4400,"station_id":"","pricing_plan_id":"cebpf4jnsgd1na2vs0mg"},{"bike_id":"5d490b95-0f21-4f16-b6a0-c5beac32f58f","system_id":"levelo_inurba_marseille","lat":43.30959,"lon":5.3903,"is_reserved":false,"is_disabled":true,"rental_uris":{"android":"levelo://app?vid=5d490b95-0f21-4f16-b6a0-c5beac32f58f","ios":"levelo://app?vid=5d490b95-0f21-4f16-b6a0-c5beac32f58f"},"vehicle_type_id":"4","last_reported":1774804827,"current_range_meters":4400,"station_id":"ce4bgup2rcd13ifvqco0","pricing_plan_id":"cebpf4jnsgd1na2vs0mg"},{"bike_id":"c72328fb-6650-4ee3-9677-c8c59256751a","system_id":"levelo_inurba_marseille","lat":43.30306,"lon":5.39214,"is_reserved":false,"is_disabled":false,"rental_uris":{"android":"levelo://app?vid=c72328fb-6650-4ee3-9677-c8c59256751a","ios":"levelo://app?vid=c72328fb-6650-4ee3-9677-c8c59256751a"},"vehicle_type_id":"4","last_reported":1774804827,"current_range_meters":4400,"station_id":"ce4bgkh2rcd13ifvqbk0","pricing_plan_id":"cebpf4jnsgd1na2vs0mg"},{"bike_id":"67c1c6e6-4211-4250-be02-a52880e1c23a","system_id":"levelo_inurba_marseille","lat":43.26516,"lon":5.40739,"is_reserved":false,"is_disabled":false,"rental_uris":{"android":"levelo://app?vid=67c1c6e6-4211-4250-be02-a52880e1c23a","ios":"levelo://app?vid=67c1c6e6-4211-4250-be02-a52880e1c23a"},"vehicle_type_id":"4","last_reported":1774804827,"current_range_meters":4400,"station_id":"","pricing_plan_id":"cebpf4jnsgd1na2vs0mg"},{"bike_id":"49c8d86f-f60c-404f-92c3-829ac70a64b7","system_id":"levelo_inurba_marseille","lat":43.29023,"lon":5.38138,"is_reserved":false,"is_disabled":false,"rental_uris":{"android":"levelo://app?vid=49c8d86f-f60c-404f-92c3-829ac70a64b7","ios":"levelo://app?vid=49c8d86f-f60c-404f-92c3-829ac70a64b7"},"vehicle_type_id":"4","last_reported":1774804827,"current_range_meters":4400,"station_id":"ce4bh4p2rcd13ifvqe1g","pricing_plan_id":"cebpf4jnsgd1na2vs0mg"},{"bike_id":"13849d37-af4c-433a-aec5-b4a52781bd5b","system_id":"levelo_inurba_marseille","lat":43.30658,"lon":5.40078,"is_reserved":false,"is_disabled":false,"rental_uris":{"android":"levelo://app?vid=13849d37-af4c-433a-aec5-b4a52781bd5b","ios":"levelo://app?vid=13849d37-af4c-433a-aec5-b4a52781bd5b"},"vehicle_type_id":"4","last_reported":1774804827,"current_range_meters":4800,"station_id":"ce4bh112rcd13ifvqda0","pricing_plan_id":"cebpf4jnsgd1na2vs0mg"},{"bike_id":"44b061ea-ac90-4ccb-8d43-7cab8ff1f0e0","system_id":"levelo_inurba_marseille","lat":43.26061,"lon":5.39388,"is_reserved":false,"is_disabled":false,"rental_uris":{"android":"levelo://app?vid=44b061ea-ac90-4ccb-8d43-7cab8ff1f0e0","ios":"levelo://app?vid=44b061ea-ac90-4ccb-8d43-7cab8ff1f0e0"},"vehicle_type_id":"4","last_reported":1774804827,"current_range_meters":4800,"station_id":"ce4bhh92rcd13ifvqfj0","pricing_plan_id":"cebpf4jnsgd1na2vs0mg"},{"bike_id":"5228593b-f41f-4b93-8705-559ca7d2f063","system_id":"levelo_inurba_marseille","lat":43.31269,"lon":5.37814,"is_reserved":false,"is_disabled":false,"rental_uris":{"android":"levelo://app?vid=5228593b-f41f-4b93-8705-559ca7d2f063","ios":"levelo://app?vid=5228593b-f41f-4b93-8705-559ca7d2f063"},"vehicle_type_id":"4","last_reported":1774804827,"current_range_meters":4800,"station_id":"","pricing_plan_id":"cebpf4jnsgd1na2vs0mg"},{"bike_id":"f26aacb0-1418-491e-9f16-8d3992d1c885","system_id":"levelo_inurba_marseille","lat":43.26489,"lon":5.39547,"is_reserved":false,"is_disabled":false,"rental_uris":{"android":"levelo://app?vid=f26aacb0-1418-491e-9f16-8d3992d1c885","ios":"levelo://app?vid=f26aacb0-1418-491e-9f16-8d3992d1c885"},"vehicle_type_id":"4","last_reported":1774804827,"current_range_meters":4800,"station_id":"ce4bhi12rcd13ifvqfq0","pricing_plan_id":"cebpf4jnsgd1na2vs0mg"},{"bike_id":"7c88f0c1-78b1-4ff8-ad2f-f9357b093faf","system_id":"levelo_inurba_marseille","lat":43.24956,"lon":5.40495,"is_reserved":false,"is_disabled":false,"rental_uris":{"android":"levelo://app?vid=7c88f0c1-78b1-4ff8-ad2f-f9357b093faf","ios":"levelo://app?vid=7c88f0c1-78b1-4ff8-ad2f-f9357b093faf"},"vehicle_type_id":"4","last_reported":1774804827,"current_range_meters":4800,"station_id":"st_d2ngiaodas8pm72gd1h0","pricing_plan_id":"cebpf4jnsgd1na2vs0mg"},{"bike_id":"b5e09414-2f49-49ad-b8e3-5581e42cacd5","system_id":"levelo_inurba_marseille","lat":43.2849,"lon":5.38558,"is_reserved":false,"is_disabled":false,"rental_uris":{"android":"levelo://app?vid=b5e09414-2f49-49ad-b8e3-5581e42cacd5","ios":"levelo://app?vid=b5e09414-2f49-49ad-b8e3-5581e42cacd5"},"vehicle_type_id":"4","last_reported":1774804827,"current_range_meters":4800,"station_id":"ce4bh8p2rcd13ifvqeb0","pricing_plan_id":"cebpf4jnsgd1na2vs0mg"},{"bike_id":"3a3df3be-0366-4e9a-84b2-c37dd7061a81","system_id":"levelo_inurba_marseille","lat":43.29366,"lon":5.37825,"is_reserved":false,"is_disabled":false,"rental_uris":{"android":"levelo://app?vid=3a3df3be-0366-4e9a-84b2-c37dd7061a81","ios":"levelo://app?vid=3a3df3be-0366-4e9a-84b2-c37dd7061a81"},"vehicle_type_id":"4","last_reported":1774804827,"current_range_meters":4800,"station_id":"ce4bgjh2rcd13ifvqbf0","pricing_plan_id":"cebpf4jnsgd1na2vs0mg"},{"bike_id":"49440f96-ba95-4c66-9233-2b71a0d8f44e","system_id":"levelo_inurba_marseille","lat":43.2122,"lon":5.35086,"is_reserved":false,"is_disabled":true,"rental_uris":{"android":"levelo://app?vid=49440f96-ba95-4c66-9233-2b71a0d8f44e","ios":"levelo://app?vid=49440f96-ba95-4c66-9233-2b71a0d8f44e"},"vehicle_type_id":"4","last_reported":1774804827,"current_range_meters":4800,"station_id":"st_cvj6sg6p6f1abm77japg","pricing_plan_id":"cebpf4jnsgd1na2vs0mg"},{"bike_id":"2c76498e-1409-4d1d-aa11-912dd68ff926","system_id":"levelo_inurba_marseille","lat":43.28529,"lon":5.44111,"is_reserved":false,"is_disabled":false,"rental_uris":{"android":"levelo://app?vid=2c76498e-1409-4d1d-aa11-912dd68ff926","ios":"levelo://app?vid=2c76498e-1409-4d1d-aa11-912dd68ff926"},"vehicle_type_id":"4","last_reported":1774804827,"current_range_meters":5600,"station_id":"st_d3j3df2ikq2c7380ej80","pricing_plan_id":"cebpf4jnsgd1na2vs0mg"},{"bike_id":"e5500731-03a6-461b-b015-a26cd8ae2134","system_id":"levelo_inurba_marseille","lat":43.28357,"lon":5.38097,"is_reserved":false,"is_disabled":false,"rental_uris":{"android":"levelo://app?vid=e5500731-03a6-461b-b015-a26cd8ae2134","ios":"levelo://app?vid=e5500731-03a6-461b-b015-a26cd8ae2134"},"vehicle_type_id":"4","last_reported":1774804827,"current_range_meters":5600,"station_id":"ce4bh412rcd13ifvqdr0","pricing_plan_id":"cebpf4jnsgd1na2vs0mg"},{"bike_id":"92cb4986-12bc-44d4-ad49-496427bf2b45","system_id":"levelo_inurba_marseille","lat":43.28552,"lon":5.44116,"is_reserved":false,"is_disabled":false,"rental_uris":{"android":"levelo://app?vid=92cb4986-12bc-44d4-ad49-496427bf2b45","ios":"levelo://app?vid=92cb4986-12bc-44d4-ad49-496427bf2b45"},"vehicle_type_id":"4","last_reported":1774804827,"current_range_meters":5600,"station_id":"st_d3j3df2ikq2c7380ej80","pricing_plan_id":"cebpf4jnsgd1na2vs0mg"},{"bike_id":"5f99b7e3-d8c3-4c53-96ba-688de3a18650","system_id":"levelo_inurba_marseille","lat":43.30259,"lon":5.40045,"is_reserved":false,"is_disabled":false,"rental_uris":{"android":"levelo://app?vid=5f99b7e3-d8c3-4c53-96ba-688de3a18650","ios":"levelo://app?vid=5f99b7e3-d8c3-4c53-96ba-688de3a18650"},"vehicle_type_id":"4","last_reported":1774804827,"current_range_meters":5600,"station_id":"ce4bgvh2rcd13ifvqcs0","pricing_plan_id":"cebpf4jnsgd1na2vs0mg"},{"bike_id":"02f24484-d422-40d6-996e-505884b43ff9","system_id":"levelo_inurba_marseille","lat":43.24996,"lon":5.38154,"is_reserved":false,"is_disabled":false,"rental_uris":{"android":"levelo://app?vid=02f24484-d422-40d6-996e-505884b43ff9","ios":"levelo://app?vid=02f24484-d422-40d6-996e-505884b43ff9"},"vehicle_type_id":"4","last_reported":1774804827,"current_range_meters":5600,"station_id":"","pricing_plan_id":"cebpf4jnsgd1na2vs0mg"},{"bike_id":"76201515-ae70-408c-82ba-b2d7c39b0327","system_id":"levelo_inurba_marseille","lat":43.25103,"lon":5.40346,"is_reserved":false,"is_disabled":false,"rental_uris":{"android":"levelo://app?vid=76201515-ae70-408c-82ba-b2d7c39b0327","ios":"levelo://app?vid=76201515-ae70-408c-82ba-b2d7c39b0327"},"vehicle_type_id":"4","last_reported":1774804827,"current_range_meters":5600,"station_id":"ce4bhlh2rcd13ifvqgig","pricing_plan_id":"cebpf4jnsgd1na2vs0mg"},{"bike_id":"ce4bb8b5-8a16-4588-8ca5-c266a05621c6","system_id":"levelo_inurba_marseille","lat":43.23901,"lon":5.3744,"is_reserved":false,"is_disabled":false,"rental_uris":{"android":"levelo://app?vid=ce4bb8b5-8a16-4588-8ca5-c266a05621c6","ios":"levelo://app?vid=ce4bb8b5-8a16-4588-8ca5-c266a05621c6"},"vehicle_type_id":"4","last_reported":1774804827,"current_range_meters":5600,"station_id":"st_d6sm7csbq4hs73f8fpjg","pricing_plan_id":"cebpf4jnsgd1na2vs0mg"},{"bike_id":"65d5af6b-cacc-40ed-bb61-074708425bfc","system_id":"levelo_inurba_marseille","lat":43.27567,"lon":5.3842,"is_reserved":false,"is_disabled":false,"rental_uris":{"android":"levelo://app?vid=65d5af6b-cacc-40ed-bb61-074708425bfc","ios":"levelo://app?vid=65d5af6b-cacc-40ed-bb61-074708425bfc"},"vehicle_type_id":"4","last_reported":1774804827,"current_range_meters":5600,"station_id":"ce4bhh92rcd13ifvqfi0","pricing_plan_id":"cebpf4jnsgd1na2vs0mg"},{"bike_id":"34f2b3cb-cec2-4758-8c77-2c8f00ab938c","system_id":"levelo_inurba_marseille","lat":43.28677,"lon":5.36366,"is_reserved":false,"is_disabled":false,"rental_uris":{"android":"levelo://app?vid=34f2b3cb-cec2-4758-8c77-2c8f00ab938c","ios":"levelo://app?vid=34f2b3cb-cec2-4758-8c77-2c8f00ab938c"},"vehicle_type_id":"4","last_reported":1774804827,"current_range_meters":5600,"station_id":"ce4bhah2rcd13ifvqej0","pricing_plan_id":"cebpf4jnsgd1na2vs0mg"},{"bike_id":"81d912e1-a3ee-404a-b7bb-8db55db13de4","system_id":"levelo_inurba_marseille","lat":43.28499,"lon":5.38564,"is_reserved":false,"is_disabled":false,"rental_uris":{"android":"levelo://app?vid=81d912e1-a3ee-404a-b7bb-8db55db13de4","ios":"levelo://app?vid=81d912e1-a3ee-404a-b7bb-8db55db13de4"},"vehicle_type_id":"4","last_reported":1774804827,"current_range_meters":5600,"station_id":"ce4bh8p2rcd13ifvqeb0","pricing_plan_id":"cebpf4jnsgd1na2vs0mg"},{"bike_id":"dd53e447-889e-4b25-b7f7-eee2bc059db2","system_id":"levelo_inurba_marseille","lat":43.2256,"lon":5.41635,"is_reserved":false,"is_disabled":false,"rental_uris":{"android":"levelo://app?vid=dd53e447-889e-4b25-b7f7-eee2bc059db2","ios":"levelo://app?vid=dd53e447-889e-4b25-b7f7-eee2bc059db2"},"vehicle_type_id":"4","last_reported":1774804827,"current_range_meters":5600,"station_id":"st_d2o4gvlbi1j2169b742g","pricing_plan_id":"cebpf4jnsgd1na2vs0mg"},{"bike_id":"a2a111fa-3f65-42d2-81c2-6312f3ccc157","system_id":"levelo_inurba_marseille","lat":43.31294,"lon":5.40176,"is_reserved":false,"is_disabled":false,"rental_uris":{"android":"levelo://app?vid=a2a111fa-3f65-42d2-81c2-6312f3ccc157","ios":"levelo://app?vid=a2a111fa-3f65-42d2-81c2-6312f3ccc157"},"vehicle_type_id":"4","last_reported":1774804827,"current_range_meters":6000,"station_id":"ce4bh092rcd13ifvqd30","pricing_plan_id":"cebpf4jnsgd1na2vs0mg"},{"bike_id":"0f430097-8d5e-4a5a-9147-4fc5e40a362e","system_id":"levelo_inurba_marseille","lat":43.33564,"lon":5.37436,"is_reserved":false,"is_disabled":false,"rental_uris":{"android":"levelo://app?vid=0f430097-8d5e-4a5a-9147-4fc5e40a362e","ios":"levelo://app?vid=0f430097-8d5e-4a5a-9147-4fc5e40a362e"},"vehicle_type_id":"4","last_reported":1774804827,"current_range_meters":6000,"station_id":"st_d46tts09ee8s73dlu43g","pricing_plan_id":"cebpf4jnsgd1na2vs0mg"},{"bike_id":"1b52061f-2407-41b6-9fde-eceac5ab1e54","system_id":"levelo_inurba_marseille","lat":43.21195,"lon":5.35089,"is_reserved":false,"is_disabled":false,"rental_uris":{"android":"levelo://app?vid=1b52061f-2407-41b6-9fde-eceac5ab1e54","ios":"levelo://app?vid=1b52061f-2407-41b6-9fde-eceac5ab1e54"},"vehicle_type_id":"4","last_reported":1774804827,"current_range_meters":6000,"station_id":"st_cvj6sg6p6f1abm77japg","pricing_plan_id":"cebpf4jnsgd1na2vs0mg"},{"bike_id":"baf7c004-e890-47af-ba3f-3dcb4a5e4db3","system_id":"levelo_inurba_marseille","lat":43.24639,"lon":5.38914,"is_reserved":false,"is_disabled":false,"rental_uris":{"android":"levelo://app?vid=baf7c004-e890-47af-ba3f-3dcb4a5e4db3","ios":"levelo://app?vid=baf7c004-e890-47af-ba3f-3dcb4a5e4db3"},"vehicle_type_id":"4","last_reported":1774804827,"current_range_meters":6000,"station_id":"ce4bhg12rcd13ifvqf60","pricing_plan_id":"cebpf4jnsgd1na2vs0mg"},{"bike_id":"e9697157-df6b-450c-8cca-29631c385438","system_id":"levelo_inurba_marseille","lat":43.293096,"lon":5.371751,"is_reserved":false,"is_disabled":false,"rental_uris":{"android":"levelo://app?vid=e9697157-df6b-450c-8cca-29631c385438","ios":"levelo://app?vid=e9697157-df6b-450c-8cca-29631c385438"},"vehicle_type_id":"4","last_reported":1774804827,"current_range_meters":6000,"station_id":"ce4bgh92rcd13ifvqb40","pricing_plan_id":"cebpf4jnsgd1na2vs0mg"},{"bike_id":"f31d687b-f39f-4799-a123-ec0aec4b625b","system_id":"levelo_inurba_marseille","lat":43.30616,"lon":5.37136,"is_reserved":false,"is_disabled":true,"rental_uris":{"android":"levelo://app?vid=f31d687b-f39f-4799-a123-ec0aec4b625b","ios":"levelo://app?vid=f31d687b-f39f-4799-a123-ec0aec4b625b"},"vehicle_type_id":"4","last_reported":1774804827,"current_range_meters":6000,"station_id":"","pricing_plan_id":"cebpf4jnsgd1na2vs0mg"},{"bike_id":"a05f14a1-4e5f-4602-8854-acc12ec16d5d","system_id":"levelo_inurba_marseille","lat":43.26774,"lon":5.39421,"is_reserved":false,"is_disabled":false,"rental_uris":{"android":"levelo://app?vid=a05f14a1-4e5f-4602-8854-acc12ec16d5d","ios":"levelo://app?vid=a05f14a1-4e5f-4602-8854-acc12ec16d5d"},"vehicle_type_id":"4","last_reported":1774804827,"current_range_meters":6000,"station_id":"ce4bhh12rcd13ifvqfg0","pricing_plan_id":"cebpf4jnsgd1na2vs0mg"},{"bike_id":"659ccfdf-569f-4f01-84dd-6c9bbfa33ac4","system_id":"levelo_inurba_marseille","lat":43.2378,"lon":5.36551,"is_reserved":false,"is_disabled":false,"rental_uris":{"android":"levelo://app?vid=659ccfdf-569f-4f01-84dd-6c9bbfa33ac4","ios":"levelo://app?vid=659ccfdf-569f-4f01-84dd-6c9bbfa33ac4"},"vehicle_type_id":"4","last_reported":1774804827,"current_range_meters":6000,"station_id":"","pricing_plan_id":"cebpf4jnsgd1na2vs0mg"},{"bike_id":"2f2b1d2c-1be4-402e-a839-6d84d3bfb79f","system_id":"levelo_inurba_marseille","lat":43.28438,"lon":5.3498,"is_reserved":false,"is_disabled":false,"rental_uris":{"android":"levelo://app?vid=2f2b1d2c-1be4-402e-a839-6d84d3bfb79f","ios":"levelo://app?vid=2f2b1d2c-1be4-402e-a839-6d84d3bfb79f"},"vehicle_type_id":"4","last_reported":1774804827,"current_range_meters":6000,"station_id":"ce4bhbh2rcd13ifvqepg","pricing_plan_id":"cebpf4jnsgd1na2vs0mg"},{"bike_id":"fc0fb3f0-60cf-475d-a4a4-eefe70f41e02","system_id":"levelo_inurba_marseille","lat":43.27814,"lon":5.40719,"is_reserved":false,"is_disabled":false,"rental_uris":{"android":"levelo://app?vid=fc0fb3f0-60cf-475d-a4a4-eefe70f41e02","ios":"levelo://app?vid=fc0fb3f0-60cf-475d-a4a4-eefe70f41e02"},"vehicle_type_id":"4","last_reported":1774804827,"current_range_meters":6000,"station_id":"ce4bhnh2rcd13ifvqgtg","pricing_plan_id":"cebpf4jnsgd1na2vs0mg"},{"bike_id":"b8394b2d-a1de-4bd2-9f24-92a64dcc9e4c","system_id":"levelo_inurba_marseille","lat":43.29533,"lon":5.38548,"is_reserved":false,"is_disabled":false,"rental_uris":{"android":"levelo://app?vid=b8394b2d-a1de-4bd2-9f24-92a64dcc9e4c","ios":"levelo://app?vid=b8394b2d-a1de-4bd2-9f24-92a64dcc9e4c"},"vehicle_type_id":"4","last_reported":1774804827,"current_range_meters":6000,"station_id":"","pricing_plan_id":"cebpf4jnsgd1na2vs0mg"},{"bike_id":"22f19f3e-ab21-460a-b2f5-d0c6d4cfe337","system_id":"levelo_inurba_marseille","lat":43.26246,"lon":5.40438,"is_reserved":false,"is_disabled":false,"rental_uris":{"android":"levelo://app?vid=22f19f3e-ab21-460a-b2f5-d0c6d4cfe337","ios":"levelo://app?vid=22f19f3e-ab21-460a-b2f5-d0c6d4cfe337"},"vehicle_type_id":"4","last_reported":1774804827,"current_range_meters":6400,"station_id":"ce4bhmh2rcd13ifvqgmg","pricing_plan_id":"cebpf4jnsgd1na2vs0mg"},{"bike_id":"d0eed567-65f1-4e79-a8a4-01256c3b54d9","system_id":"levelo_inurba_marseille","lat":43.28625,"lon":5.39529,"is_reserved":false,"is_disabled":false,"rental_uris":{"android":"levelo://app?vid=d0eed567-65f1-4e79-a8a4-01256c3b54d9","ios":"levelo://app?vid=d0eed567-65f1-4e79-a8a4-01256c3b54d9"},"vehicle_type_id":"4","last_reported":1774804827,"current_range_meters":6400,"station_id":"","pricing_plan_id":"cebpf4jnsgd1na2vs0mg"},{"bike_id":"ea5ce946-5a6e-454b-9088-7f3e7f1faace","system_id":"levelo_inurba_marseille","lat":43.28716,"lon":5.37919,"is_reserved":false,"is_disabled":false,"rental_uris":{"android":"levelo://app?vid=ea5ce946-5a6e-454b-9088-7f3e7f1faace","ios":"levelo://app?vid=ea5ce946-5a6e-454b-9088-7f3e7f1faace"},"vehicle_type_id":"4","last_reported":1774804827,"current_range_meters":6400,"station_id":"ce4bh9p2rcd13ifvqec0","pricing_plan_id":"cebpf4jnsgd1na2vs0mg"},{"bike_id":"b7ab0452-5ce4-413a-beb0-4e909253350f","system_id":"levelo_inurba_marseille","lat":43.31172,"lon":5.38699,"is_reserved":false,"is_disabled":false,"rental_uris":{"android":"levelo://app?vid=b7ab0452-5ce4-413a-beb0-4e909253350f","ios":"levelo://app?vid=b7ab0452-5ce4-413a-beb0-4e909253350f"},"vehicle_type_id":"4","last_reported":1774804827,"current_range_meters":6400,"station_id":"ce4bgv12rcd13ifvqcp0","pricing_plan_id":"cebpf4jnsgd1na2vs0mg"},{"bike_id":"57c044c3-2bba-47b6-a986-87ef9a10cb6b","system_id":"levelo_inurba_marseille","lat":43.299636,"lon":5.384975,"is_reserved":false,"is_disabled":false,"rental_uris":{"android":"levelo://app?vid=57c044c3-2bba-47b6-a986-87ef9a10cb6b","ios":"levelo://app?vid=57c044c3-2bba-47b6-a986-87ef9a10cb6b"},"vehicle_type_id":"4","last_reported":1774804827,"current_range_meters":6400,"station_id":"ce4bhq12rcd13ifvqhig","pricing_plan_id":"cebpf4jnsgd1na2vs0mg"},{"bike_id":"56603236-0b6d-44e6-924a-3489e7c8fead","system_id":"levelo_inurba_marseille","lat":43.25742,"lon":5.38715,"is_reserved":false,"is_disabled":false,"rental_uris":{"android":"levelo://app?vid=56603236-0b6d-44e6-924a-3489e7c8fead","ios":"levelo://app?vid=56603236-0b6d-44e6-924a-3489e7c8fead"},"vehicle_type_id":"4","last_reported":1774804827,"current_range_meters":6400,"station_id":"","pricing_plan_id":"cebpf4jnsgd1na2vs0mg"},{"bike_id":"9003f206-df6c-4bb7-a89f-61f5d0943a25","system_id":"levelo_inurba_marseille","lat":43.29981,"lon":5.38495,"is_reserved":false,"is_disabled":false,"rental_uris":{"android":"levelo://app?vid=9003f206-df6c-4bb7-a89f-61f5d0943a25","ios":"levelo://app?vid=9003f206-df6c-4bb7-a89f-61f5d0943a25"},"vehicle_type_id":"4","last_reported":1774804827,"current_range_meters":6400,"station_id":"ce4bgj92rcd13ifvqbd0","pricing_plan_id":"cebpf4jnsgd1na2vs0mg"},{"bike_id":"1fbfdff5-7c73-4e8e-bc54-eafe26c2a706","system_id":"levelo_inurba_marseille","lat":43.30264,"lon":5.40066,"is_reserved":false,"is_disabled":false,"rental_uris":{"android":"levelo://app?vid=1fbfdff5-7c73-4e8e-bc54-eafe26c2a706","ios":"levelo://app?vid=1fbfdff5-7c73-4e8e-bc54-eafe26c2a706"},"vehicle_type_id":"4","last_reported":1774804827,"current_range_meters":6400,"station_id":"ce4bgvh2rcd13ifvqcs0","pricing_plan_id":"cebpf4jnsgd1na2vs0mg"},{"bike_id":"3a26e9dc-aa67-4ee0-b027-1891b4d5a5ad","system_id":"levelo_inurba_marseille","lat":43.26782,"lon":5.39414,"is_reserved":false,"is_disabled":false,"rental_uris":{"android":"levelo://app?vid=3a26e9dc-aa67-4ee0-b027-1891b4d5a5ad","ios":"levelo://app?vid=3a26e9dc-aa67-4ee0-b027-1891b4d5a5ad"},"vehicle_type_id":"4","last_reported":1774804827,"current_range_meters":6400,"station_id":"ce4bhh12rcd13ifvqfg0","pricing_plan_id":"cebpf4jnsgd1na2vs0mg"},{"bike_id":"86158243-0de7-41f0-b955-e75f48e85b06","system_id":"levelo_inurba_marseille","lat":43.302592,"lon":5.400803,"is_reserved":false,"is_disabled":false,"rental_uris":{"android":"levelo://app?vid=86158243-0de7-41f0-b955-e75f48e85b06","ios":"levelo://app?vid=86158243-0de7-41f0-b955-e75f48e85b06"},"vehicle_type_id":"4","last_reported":1774804827,"current_range_meters":6400,"station_id":"ce4bgt92rcd13ifvqcg0","pricing_plan_id":"cebpf4jnsgd1na2vs0mg"},{"bike_id":"71a44c2a-b5fa-4989-91b9-9bead61d4c3e","system_id":"levelo_inurba_marseille","lat":43.23908,"lon":5.37436,"is_reserved":false,"is_disabled":false,"rental_uris":{"android":"levelo://app?vid=71a44c2a-b5fa-4989-91b9-9bead61d4c3e","ios":"levelo://app?vid=71a44c2a-b5fa-4989-91b9-9bead61d4c3e"},"vehicle_type_id":"4","last_reported":1774804827,"current_range_meters":6800,"station_id":"st_d6sm7csbq4hs73f8fpjg","pricing_plan_id":"cebpf4jnsgd1na2vs0mg"},{"bike_id":"26b029b3-50a6-456c-98e3-c7cffdca6884","system_id":"levelo_inurba_marseille","lat":43.27613,"lon":5.36109,"is_reserved":false,"is_disabled":false,"rental_uris":{"android":"levelo://app?vid=26b029b3-50a6-456c-98e3-c7cffdca6884","ios":"levelo://app?vid=26b029b3-50a6-456c-98e3-c7cffdca6884"},"vehicle_type_id":"4","last_reported":1774804827,"current_range_meters":6800,"station_id":"ce4bgj92rcd13ifvqbe0","pricing_plan_id":"cebpf4jnsgd1na2vs0mg"},{"bike_id":"cbdae8f2-2059-4bf5-8897-d44458cee5f3","system_id":"levelo_inurba_marseille","lat":43.32365,"lon":5.38899,"is_reserved":false,"is_disabled":false,"rental_uris":{"android":"levelo://app?vid=cbdae8f2-2059-4bf5-8897-d44458cee5f3","ios":"levelo://app?vid=cbdae8f2-2059-4bf5-8897-d44458cee5f3"},"vehicle_type_id":"4","last_reported":1774804827,"current_range_meters":6800,"station_id":"ce4bhqp2rcd13ifvqhog","pricing_plan_id":"cebpf4jnsgd1na2vs0mg"},{"bike_id":"c3ad9aae-2095-478f-b355-43899e698b74","system_id":"levelo_inurba_marseille","lat":43.29531,"lon":5.38666,"is_reserved":false,"is_disabled":false,"rental_uris":{"android":"levelo://app?vid=c3ad9aae-2095-478f-b355-43899e698b74","ios":"levelo://app?vid=c3ad9aae-2095-478f-b355-43899e698b74"},"vehicle_type_id":"4","last_reported":1774804827,"current_range_meters":6800,"station_id":"","pricing_plan_id":"cebpf4jnsgd1na2vs0mg"},{"bike_id":"09f2281d-f1d0-43be-9569-e4a88fb5b27b","system_id":"levelo_inurba_marseille","lat":43.24946,"lon":5.40516,"is_reserved":false,"is_disabled":false,"rental_uris":{"android":"levelo://app?vid=09f2281d-f1d0-43be-9569-e4a88fb5b27b","ios":"levelo://app?vid=09f2281d-f1d0-43be-9569-e4a88fb5b27b"},"vehicle_type_id":"4","last_reported":1774804827,"current_range_meters":6800,"station_id":"st_d2ngiaodas8pm72gd1h0","pricing_plan_id":"cebpf4jnsgd1na2vs0mg"},{"bike_id":"345872dc-6cdd-47db-a22e-41d392ca5071","system_id":"levelo_inurba_marseille","lat":43.29569,"lon":5.4231,"is_reserved":false,"is_disabled":false,"rental_uris":{"android":"levelo://app?vid=345872dc-6cdd-47db-a22e-41d392ca5071","ios":"levelo://app?vid=345872dc-6cdd-47db-a22e-41d392ca5071"},"vehicle_type_id":"4","last_reported":1774804827,"current_range_meters":6800,"station_id":"ce4bhph2rcd13ifvqhdg","pricing_plan_id":"cebpf4jnsgd1na2vs0mg"},{"bike_id":"2d0fdc3d-338a-4727-826c-caea44a0cbfa","system_id":"levelo_inurba_marseille","lat":43.29828,"lon":5.44071,"is_reserved":false,"is_disabled":false,"rental_uris":{"android":"levelo://app?vid=2d0fdc3d-338a-4727-826c-caea44a0cbfa","ios":"levelo://app?vid=2d0fdc3d-338a-4727-826c-caea44a0cbfa"},"vehicle_type_id":"4","last_reported":1774804827,"current_range_meters":6800,"station_id":"st_d3jp68qikq2c7381ktn0","pricing_plan_id":"cebpf4jnsgd1na2vs0mg"},{"bike_id":"907ae532-aa61-4b3c-af67-14218d0cabb0","system_id":"levelo_inurba_marseille","lat":43.24815,"lon":5.37467,"is_reserved":false,"is_disabled":false,"rental_uris":{"android":"levelo://app?vid=907ae532-aa61-4b3c-af67-14218d0cabb0","ios":"levelo://app?vid=907ae532-aa61-4b3c-af67-14218d0cabb0"},"vehicle_type_id":"4","last_reported":1774804827,"current_range_meters":6800,"station_id":"ce4bhgh2rcd13ifvqfb0","pricing_plan_id":"cebpf4jnsgd1na2vs0mg"},{"bike_id":"791cfeb9-4831-456b-aeba-16146a1f13ce","system_id":"levelo_inurba_marseille","lat":43.29034,"lon":5.38654,"is_reserved":false,"is_disabled":false,"rental_uris":{"android":"levelo://app?vid=791cfeb9-4831-456b-aeba-16146a1f13ce","ios":"levelo://app?vid=791cfeb9-4831-456b-aeba-16146a1f13ce"},"vehicle_type_id":"4","last_reported":1774804827,"current_range_meters":6800,"station_id":"ce4bh4p2rcd13ifvqe0g","pricing_plan_id":"cebpf4jnsgd1na2vs0mg"},{"bike_id":"c609aa61-79d9-47bd-b7b7-62d640d7b9ef","system_id":"levelo_inurba_marseille","lat":43.2654,"lon":5.37314,"is_reserved":false,"is_disabled":true,"rental_uris":{"android":"levelo://app?vid=c609aa61-79d9-47bd-b7b7-62d640d7b9ef","ios":"levelo://app?vid=c609aa61-79d9-47bd-b7b7-62d640d7b9ef"},"vehicle_type_id":"4","last_reported":1774804827,"current_range_meters":6800,"station_id":"ce4bhg12rcd13ifvqf70","pricing_plan_id":"cebpf4jnsgd1na2vs0mg"},{"bike_id":"5dc7a0c1-467a-4151-97ef-a8a655c4f7a5","system_id":"levelo_inurba_marseille","lat":43.28482,"lon":5.48384,"is_reserved":false,"is_disabled":false,"rental_uris":{"android":"levelo://app?vid=5dc7a0c1-467a-4151-97ef-a8a655c4f7a5","ios":"levelo://app?vid=5dc7a0c1-467a-4151-97ef-a8a655c4f7a5"},"vehicle_type_id":"4","last_reported":1774804827,"current_range_meters":6800,"station_id":"","pricing_plan_id":"cebpf4jnsgd1na2vs0mg"},{"bike_id":"5be8eb6a-3581-47c0-9356-d06e8abab056","system_id":"levelo_inurba_marseille","lat":43.2996,"lon":5.38535,"is_reserved":false,"is_disabled":false,"rental_uris":{"android":"levelo://app?vid=5be8eb6a-3581-47c0-9356-d06e8abab056","ios":"levelo://app?vid=5be8eb6a-3581-47c0-9356-d06e8abab056"},"vehicle_type_id":"4","last_reported":1774804827,"current_range_meters":6800,"station_id":"ce4bgj92rcd13ifvqbd0","pricing_plan_id":"cebpf4jnsgd1na2vs0mg"},{"bike_id":"c7455337-418f-4584-b005-28037aae8e12","system_id":"levelo_inurba_marseille","lat":43.2854,"lon":5.44097,"is_reserved":false,"is_disabled":false,"rental_uris":{"android":"levelo://app?vid=c7455337-418f-4584-b005-28037aae8e12","ios":"levelo://app?vid=c7455337-418f-4584-b005-28037aae8e12"},"vehicle_type_id":"4","last_reported":1774804827,"current_range_meters":6800,"station_id":"st_d3j3df2ikq2c7380ej80","pricing_plan_id":"cebpf4jnsgd1na2vs0mg"},{"bike_id":"56ed71d3-4f24-4bcb-9e63-f10b7aa4866e","system_id":"levelo_inurba_marseille","lat":43.2843,"lon":5.3499,"is_reserved":false,"is_disabled":false,"rental_uris":{"android":"levelo://app?vid=56ed71d3-4f24-4bcb-9e63-f10b7aa4866e","ios":"levelo://app?vid=56ed71d3-4f24-4bcb-9e63-f10b7aa4866e"},"vehicle_type_id":"4","last_reported":1774804827,"current_range_meters":6800,"station_id":"ce4bhbh2rcd13ifvqepg","pricing_plan_id":"cebpf4jnsgd1na2vs0mg"},{"bike_id":"037269e8-c96c-4fe6-9f04-9068bec1b6b7","system_id":"levelo_inurba_marseille","lat":43.29011,"lon":5.38133,"is_reserved":false,"is_disabled":false,"rental_uris":{"android":"levelo://app?vid=037269e8-c96c-4fe6-9f04-9068bec1b6b7","ios":"levelo://app?vid=037269e8-c96c-4fe6-9f04-9068bec1b6b7"},"vehicle_type_id":"4","last_reported":1774804827,"current_range_meters":6800,"station_id":"ce4bh4p2rcd13ifvqe1g","pricing_plan_id":"cebpf4jnsgd1na2vs0mg"},{"bike_id":"fe46a177-f80a-4d69-b2ae-915d23543f7e","system_id":"levelo_inurba_marseille","lat":43.30361,"lon":5.41872,"is_reserved":false,"is_disabled":false,"rental_uris":{"android":"levelo://app?vid=fe46a177-f80a-4d69-b2ae-915d23543f7e","ios":"levelo://app?vid=fe46a177-f80a-4d69-b2ae-915d23543f7e"},"vehicle_type_id":"4","last_reported":1774804827,"current_range_meters":6800,"station_id":"ce4bhop2rcd13ifvqh7g","pricing_plan_id":"cebpf4jnsgd1na2vs0mg"},{"bike_id":"b41a87b1-597a-4152-9739-c4817c08f6ab","system_id":"levelo_inurba_marseille","lat":43.32662,"lon":5.4099,"is_reserved":false,"is_disabled":false,"rental_uris":{"android":"levelo://app?vid=b41a87b1-597a-4152-9739-c4817c08f6ab","ios":"levelo://app?vid=b41a87b1-597a-4152-9739-c4817c08f6ab"},"vehicle_type_id":"4","last_reported":1774804827,"current_range_meters":6800,"station_id":"ce4bhpp2rcd13ifvqhgg","pricing_plan_id":"cebpf4jnsgd1na2vs0mg"},{"bike_id":"8291faaf-9299-4c17-bd32-1a91a7c30ee5","system_id":"levelo_inurba_marseille","lat":43.23966,"lon":5.36641,"is_reserved":false,"is_disabled":false,"rental_uris":{"android":"levelo://app?vid=8291faaf-9299-4c17-bd32-1a91a7c30ee5","ios":"levelo://app?vid=8291faaf-9299-4c17-bd32-1a91a7c30ee5"},"vehicle_type_id":"4","last_reported":1774804827,"current_range_meters":6800,"station_id":"ce4bhi12rcd13ifvqfp0","pricing_plan_id":"cebpf4jnsgd1na2vs0mg"},{"bike_id":"990a1a75-d66f-4c5f-a156-69cf04cb241d","system_id":"levelo_inurba_marseille","lat":43.29033,"lon":5.38661,"is_reserved":false,"is_disabled":false,"rental_uris":{"android":"levelo://app?vid=990a1a75-d66f-4c5f-a156-69cf04cb241d","ios":"levelo://app?vid=990a1a75-d66f-4c5f-a156-69cf04cb241d"},"vehicle_type_id":"4","last_reported":1774804827,"current_range_meters":6800,"station_id":"ce4bh4p2rcd13ifvqe0g","pricing_plan_id":"cebpf4jnsgd1na2vs0mg"},{"bike_id":"ad8ed4c8-17f3-42fc-a282-8d09f7195506","system_id":"levelo_inurba_marseille","lat":43.32444,"lon":5.40865,"is_reserved":false,"is_disabled":false,"rental_uris":{"android":"levelo://app?vid=ad8ed4c8-17f3-42fc-a282-8d09f7195506","ios":"levelo://app?vid=ad8ed4c8-17f3-42fc-a282-8d09f7195506"},"vehicle_type_id":"4","last_reported":1774804827,"current_range_meters":6800,"station_id":"","pricing_plan_id":"cebpf4jnsgd1na2vs0mg"},{"bike_id":"3e982733-c0d4-466e-9bf8-884e01e81731","system_id":"levelo_inurba_marseille","lat":43.301361,"lon":5.387723,"is_reserved":false,"is_disabled":false,"rental_uris":{"android":"levelo://app?vid=3e982733-c0d4-466e-9bf8-884e01e81731","ios":"levelo://app?vid=3e982733-c0d4-466e-9bf8-884e01e81731"},"vehicle_type_id":"4","last_reported":1774804827,"current_range_meters":6800,"station_id":"ce4bghh2rcd13ifvqb60","pricing_plan_id":"cebpf4jnsgd1na2vs0mg"},{"bike_id":"dc815f27-42c2-49c9-9aa7-01b56ffa580a","system_id":"levelo_inurba_marseille","lat":43.27624,"lon":5.36089,"is_reserved":false,"is_disabled":false,"rental_uris":{"android":"levelo://app?vid=dc815f27-42c2-49c9-9aa7-01b56ffa580a","ios":"levelo://app?vid=dc815f27-42c2-49c9-9aa7-01b56ffa580a"},"vehicle_type_id":"4","last_reported":1774804827,"current_range_meters":6800,"station_id":"ce4bgj92rcd13ifvqbe0","pricing_plan_id":"cebpf4jnsgd1na2vs0mg"},{"bike_id":"22de67e1-b112-41ea-8ecd-3ce01238a932","system_id":"levelo_inurba_marseille","lat":43.23066,"lon":5.35503,"is_reserved":false,"is_disabled":false,"rental_uris":{"android":"levelo://app?vid=22de67e1-b112-41ea-8ecd-3ce01238a932","ios":"levelo://app?vid=22de67e1-b112-41ea-8ecd-3ce01238a932"},"vehicle_type_id":"4","last_reported":1774804827,"current_range_meters":6800,"station_id":"cpo3342slgdg3j2ifvpg","pricing_plan_id":"cebpf4jnsgd1na2vs0mg"},{"bike_id":"ab1291b4-d3cd-4716-85ac-dee7716419f7","system_id":"levelo_inurba_marseille","lat":43.29761,"lon":5.4278,"is_reserved":false,"is_disabled":false,"rental_uris":{"android":"levelo://app?vid=ab1291b4-d3cd-4716-85ac-dee7716419f7","ios":"levelo://app?vid=ab1291b4-d3cd-4716-85ac-dee7716419f7"},"vehicle_type_id":"4","last_reported":1774804827,"current_range_meters":7200,"station_id":"st_d3md5207bmas73dh9klg","pricing_plan_id":"cebpf4jnsgd1na2vs0mg"},{"bike_id":"2de38fd0-4d56-4129-8633-4ee1741a5e1b","system_id":"levelo_inurba_marseille","lat":43.21194,"lon":5.3507,"is_reserved":false,"is_disabled":false,"rental_uris":{"android":"levelo://app?vid=2de38fd0-4d56-4129-8633-4ee1741a5e1b","ios":"levelo://app?vid=2de38fd0-4d56-4129-8633-4ee1741a5e1b"},"vehicle_type_id":"4","last_reported":1774804827,"current_range_meters":7200,"station_id":"st_cvj6sg6p6f1abm77japg","pricing_plan_id":"cebpf4jnsgd1na2vs0mg"},{"bike_id":"2457fc1b-679d-4a71-90e9-ad408ab6ed9d","system_id":"levelo_inurba_marseille","lat":43.33269,"lon":5.37919,"is_reserved":false,"is_disabled":false,"rental_uris":{"android":"levelo://app?vid=2457fc1b-679d-4a71-90e9-ad408ab6ed9d","ios":"levelo://app?vid=2457fc1b-679d-4a71-90e9-ad408ab6ed9d"},"vehicle_type_id":"4","last_reported":1774804827,"current_range_meters":7200,"station_id":"","pricing_plan_id":"cebpf4jnsgd1na2vs0mg"},{"bike_id":"3f200426-1eba-4d5e-acb1-a1a43666133b","system_id":"levelo_inurba_marseille","lat":43.21209,"lon":5.35087,"is_reserved":false,"is_disabled":false,"rental_uris":{"android":"levelo://app?vid=3f200426-1eba-4d5e-acb1-a1a43666133b","ios":"levelo://app?vid=3f200426-1eba-4d5e-acb1-a1a43666133b"},"vehicle_type_id":"4","last_reported":1774804827,"current_range_meters":7200,"station_id":"st_cvj6sg6p6f1abm77japg","pricing_plan_id":"cebpf4jnsgd1na2vs0mg"},{"bike_id":"9c1023ff-3415-415c-9ff4-f5f88a882055","system_id":"levelo_inurba_marseille","lat":43.26955,"lon":5.38621,"is_reserved":false,"is_disabled":false,"rental_uris":{"android":"levelo://app?vid=9c1023ff-3415-415c-9ff4-f5f88a882055","ios":"levelo://app?vid=9c1023ff-3415-415c-9ff4-f5f88a882055"},"vehicle_type_id":"4","last_reported":1774804827,"current_range_meters":7200,"station_id":"ce4bhh92rcd13ifvqfh0","pricing_plan_id":"cebpf4jnsgd1na2vs0mg"},{"bike_id":"7ec7f14e-98ef-4a67-ba04-41486ba16493","system_id":"levelo_inurba_marseille","lat":43.29038,"lon":5.38664,"is_reserved":false,"is_disabled":false,"rental_uris":{"android":"levelo://app?vid=7ec7f14e-98ef-4a67-ba04-41486ba16493","ios":"levelo://app?vid=7ec7f14e-98ef-4a67-ba04-41486ba16493"},"vehicle_type_id":"4","last_reported":1774804827,"current_range_meters":7200,"station_id":"ce4bh4p2rcd13ifvqe0g","pricing_plan_id":"cebpf4jnsgd1na2vs0mg"},{"bike_id":"ba3c0a2f-18f5-4533-b5d3-91339532d038","system_id":"levelo_inurba_marseille","lat":43.24164,"lon":5.36399,"is_reserved":false,"is_disabled":false,"rental_uris":{"android":"levelo://app?vid=ba3c0a2f-18f5-4533-b5d3-91339532d038","ios":"levelo://app?vid=ba3c0a2f-18f5-4533-b5d3-91339532d038"},"vehicle_type_id":"4","last_reported":1774804827,"current_range_meters":7200,"station_id":"cpo36qri1sfpv3e86is0","pricing_plan_id":"cebpf4jnsgd1na2vs0mg"},{"bike_id":"90aaae4f-4bea-44a9-9991-726dd88eccf2","system_id":"levelo_inurba_marseille","lat":43.23374,"lon":5.41237,"is_reserved":false,"is_disabled":true,"rental_uris":{"android":"levelo://app?vid=90aaae4f-4bea-44a9-9991-726dd88eccf2","ios":"levelo://app?vid=90aaae4f-4bea-44a9-9991-726dd88eccf2"},"vehicle_type_id":"4","last_reported":1774804827,"current_range_meters":7200,"station_id":"","pricing_plan_id":"cebpf4jnsgd1na2vs0mg"},{"bike_id":"756e130e-bb1f-4f19-83b3-d652f42a177b","system_id":"levelo_inurba_marseille","lat":43.28372,"lon":5.38611,"is_reserved":false,"is_disabled":false,"rental_uris":{"android":"levelo://app?vid=756e130e-bb1f-4f19-83b3-d652f42a177b","ios":"levelo://app?vid=756e130e-bb1f-4f19-83b3-d652f42a177b"},"vehicle_type_id":"4","last_reported":1774804827,"current_range_meters":7200,"station_id":"ce4bh492rcd13ifvqdvg","pricing_plan_id":"cebpf4jnsgd1na2vs0mg"},{"bike_id":"8ebdddeb-65fa-4a6a-a7a1-243a6f4f1f0d","system_id":"levelo_inurba_marseille","lat":43.30426,"lon":5.39756,"is_reserved":false,"is_disabled":true,"rental_uris":{"android":"levelo://app?vid=8ebdddeb-65fa-4a6a-a7a1-243a6f4f1f0d","ios":"levelo://app?vid=8ebdddeb-65fa-4a6a-a7a1-243a6f4f1f0d"},"vehicle_type_id":"4","last_reported":1774804827,"current_range_meters":7200,"station_id":"ce4bh092rcd13ifvqd20","pricing_plan_id":"cebpf4jnsgd1na2vs0mg"},{"bike_id":"bfddc201-8f4a-483c-9f8e-b5162374e5bb","system_id":"levelo_inurba_marseille","lat":43.29077,"lon":5.43088,"is_reserved":false,"is_disabled":false,"rental_uris":{"android":"levelo://app?vid=bfddc201-8f4a-483c-9f8e-b5162374e5bb","ios":"levelo://app?vid=bfddc201-8f4a-483c-9f8e-b5162374e5bb"},"vehicle_type_id":"4","last_reported":1774804827,"current_range_meters":7200,"station_id":"","pricing_plan_id":"cebpf4jnsgd1na2vs0mg"},{"bike_id":"b8bf157e-659b-4230-b7a5-7abce9abcca2","system_id":"levelo_inurba_marseille","lat":43.24682,"lon":5.38166,"is_reserved":false,"is_disabled":false,"rental_uris":{"android":"levelo://app?vid=b8bf157e-659b-4230-b7a5-7abce9abcca2","ios":"levelo://app?vid=b8bf157e-659b-4230-b7a5-7abce9abcca2"},"vehicle_type_id":"4","last_reported":1774804827,"current_range_meters":7200,"station_id":"ce4bhih2rcd13ifvqfr0","pricing_plan_id":"cebpf4jnsgd1na2vs0mg"},{"bike_id":"db8ef000-0e95-46db-a22e-6c21eb8c132d","system_id":"levelo_inurba_marseille","lat":43.23383,"lon":5.4124,"is_reserved":false,"is_disabled":false,"rental_uris":{"android":"levelo://app?vid=db8ef000-0e95-46db-a22e-6c21eb8c132d","ios":"levelo://app?vid=db8ef000-0e95-46db-a22e-6c21eb8c132d"},"vehicle_type_id":"4","last_reported":1774804827,"current_range_meters":7200,"station_id":"","pricing_plan_id":"cebpf4jnsgd1na2vs0mg"},{"bike_id":"78046ff8-4f78-4855-97c6-a3f29b5b8014","system_id":"levelo_inurba_marseille","lat":43.302216,"lon":5.394711,"is_reserved":false,"is_disabled":false,"rental_uris":{"android":"levelo://app?vid=78046ff8-4f78-4855-97c6-a3f29b5b8014","ios":"levelo://app?vid=78046ff8-4f78-4855-97c6-a3f29b5b8014"},"vehicle_type_id":"4","last_reported":1774804827,"current_range_meters":7200,"station_id":"ce4bh0p2rcd13ifvqd70","pricing_plan_id":"cebpf4jnsgd1na2vs0mg"},{"bike_id":"6dd85ea7-57fd-40b5-9acc-09101e2a8697","system_id":"levelo_inurba_marseille","lat":43.225548,"lon":5.416262,"is_reserved":false,"is_disabled":false,"rental_uris":{"android":"levelo://app?vid=6dd85ea7-57fd-40b5-9acc-09101e2a8697","ios":"levelo://app?vid=6dd85ea7-57fd-40b5-9acc-09101e2a8697"},"vehicle_type_id":"4","last_reported":1774804827,"current_range_meters":7200,"station_id":"st_d2o4gvlbi1j2169b742g","pricing_plan_id":"cebpf4jnsgd1na2vs0mg"},{"bike_id":"4b6fbaeb-e69d-4aa1-96cc-8776d692cbc6","system_id":"levelo_inurba_marseille","lat":43.300903,"lon":5.390817,"is_reserved":false,"is_disabled":false,"rental_uris":{"android":"levelo://app?vid=4b6fbaeb-e69d-4aa1-96cc-8776d692cbc6","ios":"levelo://app?vid=4b6fbaeb-e69d-4aa1-96cc-8776d692cbc6"},"vehicle_type_id":"4","last_reported":1774804827,"current_range_meters":8000,"station_id":"ce4bh192rcd13ifvqdb0","pricing_plan_id":"cebpf4jnsgd1na2vs0mg"},{"bike_id":"860407bc-513f-4910-b3a0-87ea13c637b1","system_id":"levelo_inurba_marseille","lat":43.2854,"lon":5.44103,"is_reserved":false,"is_disabled":false,"rental_uris":{"android":"levelo://app?vid=860407bc-513f-4910-b3a0-87ea13c637b1","ios":"levelo://app?vid=860407bc-513f-4910-b3a0-87ea13c637b1"},"vehicle_type_id":"4","last_reported":1774804827,"current_range_meters":8000,"station_id":"st_d3j3df2ikq2c7380ej80","pricing_plan_id":"cebpf4jnsgd1na2vs0mg"},{"bike_id":"2afbec2b-a06e-4e33-9eed-368850ffcbbc","system_id":"levelo_inurba_marseille","lat":43.28411,"lon":5.3752,"is_reserved":false,"is_disabled":false,"rental_uris":{"android":"levelo://app?vid=2afbec2b-a06e-4e33-9eed-368850ffcbbc","ios":"levelo://app?vid=2afbec2b-a06e-4e33-9eed-368850ffcbbc"},"vehicle_type_id":"4","last_reported":1774804827,"current_range_meters":8000,"station_id":"ce4bh412rcd13ifvqds0","pricing_plan_id":"cebpf4jnsgd1na2vs0mg"},{"bike_id":"1e277aa3-56f0-4d5c-afb5-54d03e53ef89","system_id":"levelo_inurba_marseille","lat":43.29287,"lon":5.38467,"is_reserved":false,"is_disabled":false,"rental_uris":{"android":"levelo://app?vid=1e277aa3-56f0-4d5c-afb5-54d03e53ef89","ios":"levelo://app?vid=1e277aa3-56f0-4d5c-afb5-54d03e53ef89"},"vehicle_type_id":"4","last_reported":1774804827,"current_range_meters":8000,"station_id":"","pricing_plan_id":"cebpf4jnsgd1na2vs0mg"},{"bike_id":"b4b140d1-6769-44b1-9635-58b854cf989a","system_id":"levelo_inurba_marseille","lat":43.29893,"lon":5.39757,"is_reserved":false,"is_disabled":false,"rental_uris":{"android":"levelo://app?vid=b4b140d1-6769-44b1-9635-58b854cf989a","ios":"levelo://app?vid=b4b140d1-6769-44b1-9635-58b854cf989a"},"vehicle_type_id":"4","last_reported":1774804827,"current_range_meters":8000,"station_id":"ce4bh0h2rcd13ifvqd50","pricing_plan_id":"cebpf4jnsgd1na2vs0mg"},{"bike_id":"e78df1bf-ea66-40c9-b8dd-be73a39597aa","system_id":"levelo_inurba_marseille","lat":43.29533,"lon":5.3902,"is_reserved":false,"is_disabled":true,"rental_uris":{"android":"levelo://app?vid=e78df1bf-ea66-40c9-b8dd-be73a39597aa","ios":"levelo://app?vid=e78df1bf-ea66-40c9-b8dd-be73a39597aa"},"vehicle_type_id":"4","last_reported":1774804827,"current_range_meters":8000,"station_id":"ce4bh3p2rcd13ifvqdp0","pricing_plan_id":"cebpf4jnsgd1na2vs0mg"},{"bike_id":"6d3c4a10-b39e-4bfc-89f4-1fb49c096ec2","system_id":"levelo_inurba_marseille","lat":43.295695,"lon":5.39978,"is_reserved":false,"is_disabled":false,"rental_uris":{"android":"levelo://app?vid=6d3c4a10-b39e-4bfc-89f4-1fb49c096ec2","ios":"levelo://app?vid=6d3c4a10-b39e-4bfc-89f4-1fb49c096ec2"},"vehicle_type_id":"4","last_reported":1774804827,"current_range_meters":8000,"station_id":"ce4bh312rcd13ifvqdj0","pricing_plan_id":"cebpf4jnsgd1na2vs0mg"},{"bike_id":"de980607-b19f-45dc-b268-94c50469cc8f","system_id":"levelo_inurba_marseille","lat":43.29532,"lon":5.39037,"is_reserved":false,"is_disabled":false,"rental_uris":{"android":"levelo://app?vid=de980607-b19f-45dc-b268-94c50469cc8f","ios":"levelo://app?vid=de980607-b19f-45dc-b268-94c50469cc8f"},"vehicle_type_id":"4","last_reported":1774804827,"current_range_meters":8000,"station_id":"ce4bh3p2rcd13ifvqdp0","pricing_plan_id":"cebpf4jnsgd1na2vs0mg"},{"bike_id":"8b21ac48-466c-4ed6-92ae-f569a5a73ca9","system_id":"levelo_inurba_marseille","lat":43.28475,"lon":5.48394,"is_reserved":false,"is_disabled":false,"rental_uris":{"android":"levelo://app?vid=8b21ac48-466c-4ed6-92ae-f569a5a73ca9","ios":"levelo://app?vid=8b21ac48-466c-4ed6-92ae-f569a5a73ca9"},"vehicle_type_id":"4","last_reported":1774804827,"current_range_meters":8000,"station_id":"","pricing_plan_id":"cebpf4jnsgd1na2vs0mg"},{"bike_id":"855896c7-1d47-46c5-847f-925777f9ad5c","system_id":"levelo_inurba_marseille","lat":43.30005,"lon":5.38456,"is_reserved":false,"is_disabled":true,"rental_uris":{"android":"levelo://app?vid=855896c7-1d47-46c5-847f-925777f9ad5c","ios":"levelo://app?vid=855896c7-1d47-46c5-847f-925777f9ad5c"},"vehicle_type_id":"4","last_reported":1774804827,"current_range_meters":8000,"station_id":"ce4bgj92rcd13ifvqbd0","pricing_plan_id":"cebpf4jnsgd1na2vs0mg"},{"bike_id":"83c421a9-58a3-4017-9a24-08613107f879","system_id":"levelo_inurba_marseille","lat":43.30146,"lon":5.39851,"is_reserved":false,"is_disabled":true,"rental_uris":{"android":"levelo://app?vid=83c421a9-58a3-4017-9a24-08613107f879","ios":"levelo://app?vid=83c421a9-58a3-4017-9a24-08613107f879"},"vehicle_type_id":"4","last_reported":1774804827,"current_range_meters":8000,"station_id":"ce4bh0h2rcd13ifvqd40","pricing_plan_id":"cebpf4jnsgd1na2vs0mg"},{"bike_id":"aa70dcec-a2da-482d-8e77-9f59c50cefb7","system_id":"levelo_inurba_marseille","lat":43.29605,"lon":5.38102,"is_reserved":false,"is_disabled":false,"rental_uris":{"android":"levelo://app?vid=aa70dcec-a2da-482d-8e77-9f59c50cefb7","ios":"levelo://app?vid=aa70dcec-a2da-482d-8e77-9f59c50cefb7"},"vehicle_type_id":"4","last_reported":1774804827,"current_range_meters":8000,"station_id":"ce4bgl12rcd13ifvqbo0","pricing_plan_id":"cebpf4jnsgd1na2vs0mg"},{"bike_id":"32a7a92c-b34f-4be3-bc6d-bf21d2e60027","system_id":"levelo_inurba_marseille","lat":43.32764,"lon":5.36653,"is_reserved":false,"is_disabled":true,"rental_uris":{"android":"levelo://app?vid=32a7a92c-b34f-4be3-bc6d-bf21d2e60027","ios":"levelo://app?vid=32a7a92c-b34f-4be3-bc6d-bf21d2e60027"},"vehicle_type_id":"4","last_reported":1774804827,"current_range_meters":8000,"station_id":"","pricing_plan_id":"cebpf4jnsgd1na2vs0mg"},{"bike_id":"542c49f1-3bbf-4f88-9438-cdbff1f39c5b","system_id":"levelo_inurba_marseille","lat":43.2797,"lon":5.38775,"is_reserved":false,"is_disabled":false,"rental_uris":{"android":"levelo://app?vid=542c49f1-3bbf-4f88-9438-cdbff1f39c5b","ios":"levelo://app?vid=542c49f1-3bbf-4f88-9438-cdbff1f39c5b"},"vehicle_type_id":"4","last_reported":1774804827,"current_range_meters":8000,"station_id":"ce4bhg12rcd13ifvqf80","pricing_plan_id":"cebpf4jnsgd1na2vs0mg"},{"bike_id":"f9606047-6649-413b-af42-16d9b44d4046","system_id":"levelo_inurba_marseille","lat":43.25838,"lon":5.39423,"is_reserved":false,"is_disabled":false,"rental_uris":{"android":"levelo://app?vid=f9606047-6649-413b-af42-16d9b44d4046","ios":"levelo://app?vid=f9606047-6649-413b-af42-16d9b44d4046"},"vehicle_type_id":"4","last_reported":1774804827,"current_range_meters":8000,"station_id":"ce4bhip2rcd13ifvqft0","pricing_plan_id":"cebpf4jnsgd1na2vs0mg"},{"bike_id":"25a215c0-6185-4988-a946-459e463e94c2","system_id":"levelo_inurba_marseille","lat":43.28623,"lon":5.35091,"is_reserved":false,"is_disabled":false,"rental_uris":{"android":"levelo://app?vid=25a215c0-6185-4988-a946-459e463e94c2","ios":"levelo://app?vid=25a215c0-6185-4988-a946-459e463e94c2"},"vehicle_type_id":"4","last_reported":1774804827,"current_range_meters":8000,"station_id":"ce4bhch2rcd13ifvqeug","pricing_plan_id":"cebpf4jnsgd1na2vs0mg"},{"bike_id":"851eaa3e-6728-4d60-b29b-644ab4baeabc","system_id":"levelo_inurba_marseille","lat":43.28193,"lon":5.39043,"is_reserved":false,"is_disabled":false,"rental_uris":{"android":"levelo://app?vid=851eaa3e-6728-4d60-b29b-644ab4baeabc","ios":"levelo://app?vid=851eaa3e-6728-4d60-b29b-644ab4baeabc"},"vehicle_type_id":"4","last_reported":1774804827,"current_range_meters":8000,"station_id":"ce4bhn92rcd13ifvqgsg","pricing_plan_id":"cebpf4jnsgd1na2vs0mg"},{"bike_id":"a64d95de-8cdd-4e07-956a-ae66f0205dba","system_id":"levelo_inurba_marseille","lat":43.28397,"lon":5.34986,"is_reserved":false,"is_disabled":false,"rental_uris":{"android":"levelo://app?vid=a64d95de-8cdd-4e07-956a-ae66f0205dba","ios":"levelo://app?vid=a64d95de-8cdd-4e07-956a-ae66f0205dba"},"vehicle_type_id":"4","last_reported":1774804827,"current_range_meters":8000,"station_id":"ce4bhbh2rcd13ifvqepg","pricing_plan_id":"cebpf4jnsgd1na2vs0mg"},{"bike_id":"02513584-1bf8-4698-ae02-6d5f5cd0e24f","system_id":"levelo_inurba_marseille","lat":43.30561,"lon":5.36535,"is_reserved":false,"is_disabled":false,"rental_uris":{"android":"levelo://app?vid=02513584-1bf8-4698-ae02-6d5f5cd0e24f","ios":"levelo://app?vid=02513584-1bf8-4698-ae02-6d5f5cd0e24f"},"vehicle_type_id":"4","last_reported":1774804827,"current_range_meters":8000,"station_id":"ce4bgs12rcd13ifvqcag","pricing_plan_id":"cebpf4jnsgd1na2vs0mg"},{"bike_id":"80a0f464-1750-4b2e-a0bb-c9e4e417f60d","system_id":"levelo_inurba_marseille","lat":43.28001,"lon":5.41661,"is_reserved":false,"is_disabled":false,"rental_uris":{"android":"levelo://app?vid=80a0f464-1750-4b2e-a0bb-c9e4e417f60d","ios":"levelo://app?vid=80a0f464-1750-4b2e-a0bb-c9e4e417f60d"},"vehicle_type_id":"4","last_reported":1774804827,"current_range_meters":8000,"station_id":"ce4bho12rcd13ifvqh1g","pricing_plan_id":"cebpf4jnsgd1na2vs0mg"},{"bike_id":"e4d78393-e51d-44bd-8dcd-5e8e331a36b3","system_id":"levelo_inurba_marseille","lat":43.2941,"lon":5.3974,"is_reserved":false,"is_disabled":false,"rental_uris":{"android":"levelo://app?vid=e4d78393-e51d-44bd-8dcd-5e8e331a36b3","ios":"levelo://app?vid=e4d78393-e51d-44bd-8dcd-5e8e331a36b3"},"vehicle_type_id":"4","last_reported":1774804827,"current_range_meters":8000,"station_id":"ce4bh3h2rcd13ifvqdo0","pricing_plan_id":"cebpf4jnsgd1na2vs0mg"},{"bike_id":"7448b7b3-912b-4a27-b213-db0177a710eb","system_id":"levelo_inurba_marseille","lat":43.23899,"lon":5.37469,"is_reserved":false,"is_disabled":false,"rental_uris":{"android":"levelo://app?vid=7448b7b3-912b-4a27-b213-db0177a710eb","ios":"levelo://app?vid=7448b7b3-912b-4a27-b213-db0177a710eb"},"vehicle_type_id":"4","last_reported":1774804827,"current_range_meters":8000,"station_id":"st_d6sm7csbq4hs73f8fpjg","pricing_plan_id":"cebpf4jnsgd1na2vs0mg"},{"bike_id":"fee6536c-6c89-4ab2-a4dc-f8491ca403ba","system_id":"levelo_inurba_marseille","lat":43.25,"lon":5.38917,"is_reserved":false,"is_disabled":false,"rental_uris":{"android":"levelo://app?vid=fee6536c-6c89-4ab2-a4dc-f8491ca403ba","ios":"levelo://app?vid=fee6536c-6c89-4ab2-a4dc-f8491ca403ba"},"vehicle_type_id":"4","last_reported":1774804827,"current_range_meters":8400,"station_id":"ce4bhgp2rcd13ifvqfd0","pricing_plan_id":"cebpf4jnsgd1na2vs0mg"},{"bike_id":"f66113de-f3fb-4667-a759-f56810ed7f83","system_id":"levelo_inurba_marseille","lat":43.23893,"lon":5.37669,"is_reserved":false,"is_disabled":false,"rental_uris":{"android":"levelo://app?vid=f66113de-f3fb-4667-a759-f56810ed7f83","ios":"levelo://app?vid=f66113de-f3fb-4667-a759-f56810ed7f83"},"vehicle_type_id":"4","last_reported":1774804827,"current_range_meters":8400,"station_id":"","pricing_plan_id":"cebpf4jnsgd1na2vs0mg"},{"bike_id":"aeca9453-ce08-40c1-8c68-c50a96f12fa4","system_id":"levelo_inurba_marseille","lat":43.28627,"lon":5.35094,"is_reserved":false,"is_disabled":false,"rental_uris":{"android":"levelo://app?vid=aeca9453-ce08-40c1-8c68-c50a96f12fa4","ios":"levelo://app?vid=aeca9453-ce08-40c1-8c68-c50a96f12fa4"},"vehicle_type_id":"4","last_reported":1774804827,"current_range_meters":8400,"station_id":"ce4bhch2rcd13ifvqeug","pricing_plan_id":"cebpf4jnsgd1na2vs0mg"},{"bike_id":"bdbec6cd-266b-49bc-8de8-a9b669c22c56","system_id":"levelo_inurba_marseille","lat":43.28573,"lon":5.39506,"is_reserved":false,"is_disabled":false,"rental_uris":{"android":"levelo://app?vid=bdbec6cd-266b-49bc-8de8-a9b669c22c56","ios":"levelo://app?vid=bdbec6cd-266b-49bc-8de8-a9b669c22c56"},"vehicle_type_id":"4","last_reported":1774804827,"current_range_meters":8400,"station_id":"ce4bh292rcd13ifvqdg0","pricing_plan_id":"cebpf4jnsgd1na2vs0mg"},{"bike_id":"a26521b6-ae36-49b3-8c17-71b965eb6e3c","system_id":"levelo_inurba_marseille","lat":43.26015,"lon":5.37592,"is_reserved":false,"is_disabled":false,"rental_uris":{"android":"levelo://app?vid=a26521b6-ae36-49b3-8c17-71b965eb6e3c","ios":"levelo://app?vid=a26521b6-ae36-49b3-8c17-71b965eb6e3c"},"vehicle_type_id":"4","last_reported":1774804827,"current_range_meters":8400,"station_id":"ce4bhgh2rcd13ifvqfa0","pricing_plan_id":"cebpf4jnsgd1na2vs0mg"},{"bike_id":"b4dd00eb-e494-45a6-9b0b-914f0da4cc47","system_id":"levelo_inurba_marseille","lat":43.31203,"lon":5.36839,"is_reserved":false,"is_disabled":false,"rental_uris":{"android":"levelo://app?vid=b4dd00eb-e494-45a6-9b0b-914f0da4cc47","ios":"levelo://app?vid=b4dd00eb-e494-45a6-9b0b-914f0da4cc47"},"vehicle_type_id":"4","last_reported":1774804827,"current_range_meters":8400,"station_id":"ce4bgl92rcd13ifvqbq0","pricing_plan_id":"cebpf4jnsgd1na2vs0mg"},{"bike_id":"4263df33-1587-4e6f-90b2-85dabcc21251","system_id":"levelo_inurba_marseille","lat":43.31448,"lon":5.39248,"is_reserved":false,"is_disabled":false,"rental_uris":{"android":"levelo://app?vid=4263df33-1587-4e6f-90b2-85dabcc21251","ios":"levelo://app?vid=4263df33-1587-4e6f-90b2-85dabcc21251"},"vehicle_type_id":"4","last_reported":1774804827,"current_range_meters":8400,"station_id":"","pricing_plan_id":"cebpf4jnsgd1na2vs0mg"},{"bike_id":"7cc2fbfe-a618-4e70-8c20-ef09af412a2a","system_id":"levelo_inurba_marseille","lat":43.29261,"lon":5.40915,"is_reserved":false,"is_disabled":false,"rental_uris":{"android":"levelo://app?vid=7cc2fbfe-a618-4e70-8c20-ef09af412a2a","ios":"levelo://app?vid=7cc2fbfe-a618-4e70-8c20-ef09af412a2a"},"vehicle_type_id":"4","last_reported":1774804827,"current_range_meters":8400,"station_id":"ce4bh192rcd13ifvqdc0","pricing_plan_id":"cebpf4jnsgd1na2vs0mg"},{"bike_id":"b236f643-53ba-43fa-b29d-c90773116eb2","system_id":"levelo_inurba_marseille","lat":43.24489,"lon":5.4254,"is_reserved":false,"is_disabled":false,"rental_uris":{"android":"levelo://app?vid=b236f643-53ba-43fa-b29d-c90773116eb2","ios":"levelo://app?vid=b236f643-53ba-43fa-b29d-c90773116eb2"},"vehicle_type_id":"4","last_reported":1774804827,"current_range_meters":8400,"station_id":"st_d4a3vfp97mjs738cd8kg","pricing_plan_id":"cebpf4jnsgd1na2vs0mg"},{"bike_id":"48c12b74-6f3a-40a8-94b3-e62be28f6fcf","system_id":"levelo_inurba_marseille","lat":43.3236,"lon":5.36805,"is_reserved":false,"is_disabled":false,"rental_uris":{"android":"levelo://app?vid=48c12b74-6f3a-40a8-94b3-e62be28f6fcf","ios":"levelo://app?vid=48c12b74-6f3a-40a8-94b3-e62be28f6fcf"},"vehicle_type_id":"4","last_reported":1774804827,"current_range_meters":8400,"station_id":"ce4bhsh2rcd13ifvqi2g","pricing_plan_id":"cebpf4jnsgd1na2vs0mg"},{"bike_id":"ba481b47-1e62-47f3-9d06-b30ab0e65b34","system_id":"levelo_inurba_marseille","lat":43.24473,"lon":5.42536,"is_reserved":false,"is_disabled":false,"rental_uris":{"android":"levelo://app?vid=ba481b47-1e62-47f3-9d06-b30ab0e65b34","ios":"levelo://app?vid=ba481b47-1e62-47f3-9d06-b30ab0e65b34"},"vehicle_type_id":"4","last_reported":1774804827,"current_range_meters":8400,"station_id":"st_d4a3vfp97mjs738cd8kg","pricing_plan_id":"cebpf4jnsgd1na2vs0mg"},{"bike_id":"f65f9ba1-6303-4d94-8334-3ce721a50aca","system_id":"levelo_inurba_marseille","lat":43.25844,"lon":5.39417,"is_reserved":false,"is_disabled":false,"rental_uris":{"android":"levelo://app?vid=f65f9ba1-6303-4d94-8334-3ce721a50aca","ios":"levelo://app?vid=f65f9ba1-6303-4d94-8334-3ce721a50aca"},"vehicle_type_id":"4","last_reported":1774804827,"current_range_meters":8400,"station_id":"ce4bhip2rcd13ifvqft0","pricing_plan_id":"cebpf4jnsgd1na2vs0mg"},{"bike_id":"27737428-ee03-4c57-b012-5aa8334e8d22","system_id":"levelo_inurba_marseille","lat":43.28935,"lon":5.36638,"is_reserved":false,"is_disabled":false,"rental_uris":{"android":"levelo://app?vid=27737428-ee03-4c57-b012-5aa8334e8d22","ios":"levelo://app?vid=27737428-ee03-4c57-b012-5aa8334e8d22"},"vehicle_type_id":"4","last_reported":1774804827,"current_range_meters":8400,"station_id":"ce4bhap2rcd13ifvqek0","pricing_plan_id":"cebpf4jnsgd1na2vs0mg"},{"bike_id":"ff948ce4-27ae-4a3f-95da-bc173f039c91","system_id":"levelo_inurba_marseille","lat":43.29961,"lon":5.38526,"is_reserved":false,"is_disabled":false,"rental_uris":{"android":"levelo://app?vid=ff948ce4-27ae-4a3f-95da-bc173f039c91","ios":"levelo://app?vid=ff948ce4-27ae-4a3f-95da-bc173f039c91"},"vehicle_type_id":"4","last_reported":1774804827,"current_range_meters":8400,"station_id":"ce4bgj92rcd13ifvqbd0","pricing_plan_id":"cebpf4jnsgd1na2vs0mg"},{"bike_id":"f57ca4d6-6597-4273-b43e-49fed963dc8b","system_id":"levelo_inurba_marseille","lat":43.26573,"lon":5.39004,"is_reserved":false,"is_disabled":false,"rental_uris":{"android":"levelo://app?vid=f57ca4d6-6597-4273-b43e-49fed963dc8b","ios":"levelo://app?vid=f57ca4d6-6597-4273-b43e-49fed963dc8b"},"vehicle_type_id":"4","last_reported":1774804827,"current_range_meters":8800,"station_id":"ce4bhe12rcd13ifvqf30","pricing_plan_id":"cebpf4jnsgd1na2vs0mg"},{"bike_id":"d0cda7c1-30bd-4222-8053-6b58a2f3a08b","system_id":"levelo_inurba_marseille","lat":43.29039,"lon":5.38631,"is_reserved":false,"is_disabled":false,"rental_uris":{"android":"levelo://app?vid=d0cda7c1-30bd-4222-8053-6b58a2f3a08b","ios":"levelo://app?vid=d0cda7c1-30bd-4222-8053-6b58a2f3a08b"},"vehicle_type_id":"4","last_reported":1774804827,"current_range_meters":8800,"station_id":"ce4bh4p2rcd13ifvqe0g","pricing_plan_id":"cebpf4jnsgd1na2vs0mg"},{"bike_id":"e7748134-61a0-40ea-8c74-d4dd3b6d234d","system_id":"levelo_inurba_marseille","lat":43.23824,"lon":5.36626,"is_reserved":false,"is_disabled":false,"rental_uris":{"android":"levelo://app?vid=e7748134-61a0-40ea-8c74-d4dd3b6d234d","ios":"levelo://app?vid=e7748134-61a0-40ea-8c74-d4dd3b6d234d"},"vehicle_type_id":"4","last_reported":1774804827,"current_range_meters":8800,"station_id":"st_d3nk18o9ro0c73en2l3g","pricing_plan_id":"cebpf4jnsgd1na2vs0mg"},{"bike_id":"b1cbf460-56cf-47f4-9cfc-cba147627bd7","system_id":"levelo_inurba_marseille","lat":43.21214,"lon":5.35076,"is_reserved":false,"is_disabled":false,"rental_uris":{"android":"levelo://app?vid=b1cbf460-56cf-47f4-9cfc-cba147627bd7","ios":"levelo://app?vid=b1cbf460-56cf-47f4-9cfc-cba147627bd7"},"vehicle_type_id":"4","last_reported":1774804827,"current_range_meters":8800,"station_id":"st_cvj6sg6p6f1abm77japg","pricing_plan_id":"cebpf4jnsgd1na2vs0mg"},{"bike_id":"6221d696-eabc-48d0-9847-3a9825ddd566","system_id":"levelo_inurba_marseille","lat":43.337444,"lon":5.374475,"is_reserved":false,"is_disabled":false,"rental_uris":{"android":"levelo://app?vid=6221d696-eabc-48d0-9847-3a9825ddd566","ios":"levelo://app?vid=6221d696-eabc-48d0-9847-3a9825ddd566"},"vehicle_type_id":"4","last_reported":1774804827,"current_range_meters":8800,"station_id":"","pricing_plan_id":"cebpf4jnsgd1na2vs0mg"},{"bike_id":"64d9e8a0-5f54-4a9d-8571-fd5ae069f637","system_id":"levelo_inurba_marseille","lat":43.23961,"lon":5.36639,"is_reserved":false,"is_disabled":false,"rental_uris":{"android":"levelo://app?vid=64d9e8a0-5f54-4a9d-8571-fd5ae069f637","ios":"levelo://app?vid=64d9e8a0-5f54-4a9d-8571-fd5ae069f637"},"vehicle_type_id":"4","last_reported":1774804827,"current_range_meters":8800,"station_id":"ce4bhi12rcd13ifvqfp0","pricing_plan_id":"cebpf4jnsgd1na2vs0mg"},{"bike_id":"ffe03ff3-adc2-40d1-8efe-4ce795ab3944","system_id":"levelo_inurba_marseille","lat":43.28613,"lon":5.35114,"is_reserved":false,"is_disabled":false,"rental_uris":{"android":"levelo://app?vid=ffe03ff3-adc2-40d1-8efe-4ce795ab3944","ios":"levelo://app?vid=ffe03ff3-adc2-40d1-8efe-4ce795ab3944"},"vehicle_type_id":"4","last_reported":1774804827,"current_range_meters":8800,"station_id":"ce4bhch2rcd13ifvqeug","pricing_plan_id":"cebpf4jnsgd1na2vs0mg"},{"bike_id":"1b42944a-8e9d-43e4-8c02-34640e302b7a","system_id":"levelo_inurba_marseille","lat":43.29879,"lon":5.38915,"is_reserved":false,"is_disabled":true,"rental_uris":{"android":"levelo://app?vid=1b42944a-8e9d-43e4-8c02-34640e302b7a","ios":"levelo://app?vid=1b42944a-8e9d-43e4-8c02-34640e302b7a"},"vehicle_type_id":"4","last_reported":1774804827,"current_range_meters":8800,"station_id":"ce4bh392rcd13ifvqdl0","pricing_plan_id":"cebpf4jnsgd1na2vs0mg"},{"bike_id":"397278e0-440c-401a-b00e-94a337b5111d","system_id":"levelo_inurba_marseille","lat":43.28558,"lon":5.44099,"is_reserved":false,"is_disabled":false,"rental_uris":{"android":"levelo://app?vid=397278e0-440c-401a-b00e-94a337b5111d","ios":"levelo://app?vid=397278e0-440c-401a-b00e-94a337b5111d"},"vehicle_type_id":"4","last_reported":1774804827,"current_range_meters":8800,"station_id":"st_d3j3df2ikq2c7380ej80","pricing_plan_id":"cebpf4jnsgd1na2vs0mg"},{"bike_id":"360cc1bb-ea03-4ff2-ae19-1fc21079e50c","system_id":"levelo_inurba_marseille","lat":43.21182,"lon":5.351,"is_reserved":false,"is_disabled":false,"rental_uris":{"android":"levelo://app?vid=360cc1bb-ea03-4ff2-ae19-1fc21079e50c","ios":"levelo://app?vid=360cc1bb-ea03-4ff2-ae19-1fc21079e50c"},"vehicle_type_id":"4","last_reported":1774804827,"current_range_meters":8800,"station_id":"st_cvj6sg6p6f1abm77japg","pricing_plan_id":"cebpf4jnsgd1na2vs0mg"},{"bike_id":"436a14e6-8c4f-48b5-acc8-deed1975664e","system_id":"levelo_inurba_marseille","lat":43.28373,"lon":5.35008,"is_reserved":false,"is_disabled":false,"rental_uris":{"android":"levelo://app?vid=436a14e6-8c4f-48b5-acc8-deed1975664e","ios":"levelo://app?vid=436a14e6-8c4f-48b5-acc8-deed1975664e"},"vehicle_type_id":"4","last_reported":1774804827,"current_range_meters":8800,"station_id":"","pricing_plan_id":"cebpf4jnsgd1na2vs0mg"},{"bike_id":"61133212-901f-4ce6-a3d8-df8ce69de3df","system_id":"levelo_inurba_marseille","lat":43.29177,"lon":5.37152,"is_reserved":false,"is_disabled":false,"rental_uris":{"android":"levelo://app?vid=61133212-901f-4ce6-a3d8-df8ce69de3df","ios":"levelo://app?vid=61133212-901f-4ce6-a3d8-df8ce69de3df"},"vehicle_type_id":"4","last_reported":1774804827,"current_range_meters":8800,"station_id":"ce4bha92rcd13ifvqeh0","pricing_plan_id":"cebpf4jnsgd1na2vs0mg"},{"bike_id":"05e96286-4a60-45c8-8dcd-804503d99a7b","system_id":"levelo_inurba_marseille","lat":43.26579,"lon":5.3899,"is_reserved":false,"is_disabled":false,"rental_uris":{"android":"levelo://app?vid=05e96286-4a60-45c8-8dcd-804503d99a7b","ios":"levelo://app?vid=05e96286-4a60-45c8-8dcd-804503d99a7b"},"vehicle_type_id":"4","last_reported":1774804827,"current_range_meters":8800,"station_id":"ce4bhe12rcd13ifvqf30","pricing_plan_id":"cebpf4jnsgd1na2vs0mg"},{"bike_id":"4096f1c8-965c-46e3-8095-e2b3f08129e2","system_id":"levelo_inurba_marseille","lat":43.31282,"lon":5.36825,"is_reserved":false,"is_disabled":false,"rental_uris":{"android":"levelo://app?vid=4096f1c8-965c-46e3-8095-e2b3f08129e2","ios":"levelo://app?vid=4096f1c8-965c-46e3-8095-e2b3f08129e2"},"vehicle_type_id":"4","last_reported":1774804827,"current_range_meters":8800,"station_id":"","pricing_plan_id":"cebpf4jnsgd1na2vs0mg"},{"bike_id":"eb1230f0-c5e4-4dc8-b0e6-2e79cb351ed4","system_id":"levelo_inurba_marseille","lat":43.23065,"lon":5.35486,"is_reserved":false,"is_disabled":false,"rental_uris":{"android":"levelo://app?vid=eb1230f0-c5e4-4dc8-b0e6-2e79cb351ed4","ios":"levelo://app?vid=eb1230f0-c5e4-4dc8-b0e6-2e79cb351ed4"},"vehicle_type_id":"4","last_reported":1774804827,"current_range_meters":8800,"station_id":"cpo3342slgdg3j2ifvpg","pricing_plan_id":"cebpf4jnsgd1na2vs0mg"},{"bike_id":"8efaf94a-553c-4be0-aacc-a876b10b3ac1","system_id":"levelo_inurba_marseille","lat":43.32367,"lon":5.3677,"is_reserved":false,"is_disabled":false,"rental_uris":{"android":"levelo://app?vid=8efaf94a-553c-4be0-aacc-a876b10b3ac1","ios":"levelo://app?vid=8efaf94a-553c-4be0-aacc-a876b10b3ac1"},"vehicle_type_id":"4","last_reported":1774804827,"current_range_meters":8800,"station_id":"ce4bhsh2rcd13ifvqi2g","pricing_plan_id":"cebpf4jnsgd1na2vs0mg"},{"bike_id":"06fa9c00-d59d-438e-9dbe-bb0f09cb7ca2","system_id":"levelo_inurba_marseille","lat":43.23209,"lon":5.35528,"is_reserved":false,"is_disabled":false,"rental_uris":{"android":"levelo://app?vid=06fa9c00-d59d-438e-9dbe-bb0f09cb7ca2","ios":"levelo://app?vid=06fa9c00-d59d-438e-9dbe-bb0f09cb7ca2"},"vehicle_type_id":"4","last_reported":1774804827,"current_range_meters":8800,"station_id":"ce4bhu92rcd13ifvqi70","pricing_plan_id":"cebpf4jnsgd1na2vs0mg"},{"bike_id":"f3d3fc9e-6a83-4a56-9750-35e34b431e75","system_id":"levelo_inurba_marseille","lat":43.30663,"lon":5.40096,"is_reserved":false,"is_disabled":false,"rental_uris":{"android":"levelo://app?vid=f3d3fc9e-6a83-4a56-9750-35e34b431e75","ios":"levelo://app?vid=f3d3fc9e-6a83-4a56-9750-35e34b431e75"},"vehicle_type_id":"4","last_reported":1774804827,"current_range_meters":8800,"station_id":"ce4bh112rcd13ifvqda0","pricing_plan_id":"cebpf4jnsgd1na2vs0mg"},{"bike_id":"a6bd8144-22e8-44c6-af06-24d7273d74a5","system_id":"levelo_inurba_marseille","lat":43.29581,"lon":5.39976,"is_reserved":false,"is_disabled":false,"rental_uris":{"android":"levelo://app?vid=a6bd8144-22e8-44c6-af06-24d7273d74a5","ios":"levelo://app?vid=a6bd8144-22e8-44c6-af06-24d7273d74a5"},"vehicle_type_id":"4","last_reported":1774804827,"current_range_meters":8800,"station_id":"ce4bh312rcd13ifvqdj0","pricing_plan_id":"cebpf4jnsgd1na2vs0mg"},{"bike_id":"7bf3708c-4a54-4a8d-9202-31ef3c054b86","system_id":"levelo_inurba_marseille","lat":43.3139,"lon":5.38488,"is_reserved":false,"is_disabled":false,"rental_uris":{"android":"levelo://app?vid=7bf3708c-4a54-4a8d-9202-31ef3c054b86","ios":"levelo://app?vid=7bf3708c-4a54-4a8d-9202-31ef3c054b86"},"vehicle_type_id":"4","last_reported":1774804827,"current_range_meters":8800,"station_id":"ce4bgt92rcd13ifvqcf0","pricing_plan_id":"cebpf4jnsgd1na2vs0mg"},{"bike_id":"aea41b74-0875-4007-a8fe-66599b4e59e6","system_id":"levelo_inurba_marseille","lat":43.289,"lon":5.45678,"is_reserved":false,"is_disabled":false,"rental_uris":{"android":"levelo://app?vid=aea41b74-0875-4007-a8fe-66599b4e59e6","ios":"levelo://app?vid=aea41b74-0875-4007-a8fe-66599b4e59e6"},"vehicle_type_id":"4","last_reported":1774804827,"current_range_meters":8800,"station_id":"","pricing_plan_id":"cebpf4jnsgd1na2vs0mg"},{"bike_id":"61f4c268-b85f-4822-8269-b56eeefb0830","system_id":"levelo_inurba_marseille","lat":43.28939,"lon":5.38371,"is_reserved":false,"is_disabled":false,"rental_uris":{"android":"levelo://app?vid=61f4c268-b85f-4822-8269-b56eeefb0830","ios":"levelo://app?vid=61f4c268-b85f-4822-8269-b56eeefb0830"},"vehicle_type_id":"4","last_reported":1774804827,"current_range_meters":8800,"station_id":"ce4bh612rcd13ifvqe6g","pricing_plan_id":"cebpf4jnsgd1na2vs0mg"},{"bike_id":"446a3c3c-3e0a-4bf9-8ce3-2ab4c663eafd","system_id":"levelo_inurba_marseille","lat":43.2417,"lon":5.36391,"is_reserved":false,"is_disabled":false,"rental_uris":{"android":"levelo://app?vid=446a3c3c-3e0a-4bf9-8ce3-2ab4c663eafd","ios":"levelo://app?vid=446a3c3c-3e0a-4bf9-8ce3-2ab4c663eafd"},"vehicle_type_id":"4","last_reported":1774804827,"current_range_meters":8800,"station_id":"cpo36qri1sfpv3e86is0","pricing_plan_id":"cebpf4jnsgd1na2vs0mg"},{"bike_id":"53110675-e2e8-439f-b733-501832057a6e","system_id":"levelo_inurba_marseille","lat":43.28413,"lon":5.34988,"is_reserved":false,"is_disabled":false,"rental_uris":{"android":"levelo://app?vid=53110675-e2e8-439f-b733-501832057a6e","ios":"levelo://app?vid=53110675-e2e8-439f-b733-501832057a6e"},"vehicle_type_id":"4","last_reported":1774804827,"current_range_meters":9200,"station_id":"ce4bhbh2rcd13ifvqepg","pricing_plan_id":"cebpf4jnsgd1na2vs0mg"},{"bike_id":"64a21dcd-1e62-4612-bed0-93784f2cfc15","system_id":"levelo_inurba_marseille","lat":43.29788,"lon":5.38097,"is_reserved":false,"is_disabled":false,"rental_uris":{"android":"levelo://app?vid=64a21dcd-1e62-4612-bed0-93784f2cfc15","ios":"levelo://app?vid=64a21dcd-1e62-4612-bed0-93784f2cfc15"},"vehicle_type_id":"4","last_reported":1774804827,"current_range_meters":9200,"station_id":"ce4bgip2rcd13ifvqbb0","pricing_plan_id":"cebpf4jnsgd1na2vs0mg"},{"bike_id":"05f9bb45-8809-4205-b9e3-1f1e967f85de","system_id":"levelo_inurba_marseille","lat":43.28627,"lon":5.3507,"is_reserved":false,"is_disabled":false,"rental_uris":{"android":"levelo://app?vid=05f9bb45-8809-4205-b9e3-1f1e967f85de","ios":"levelo://app?vid=05f9bb45-8809-4205-b9e3-1f1e967f85de"},"vehicle_type_id":"4","last_reported":1774804827,"current_range_meters":9200,"station_id":"ce4bhch2rcd13ifvqeug","pricing_plan_id":"cebpf4jnsgd1na2vs0mg"},{"bike_id":"afd4c58e-3962-4e5b-859f-bb5f0f00867e","system_id":"levelo_inurba_marseille","lat":43.29443,"lon":5.39754,"is_reserved":false,"is_disabled":false,"rental_uris":{"android":"levelo://app?vid=afd4c58e-3962-4e5b-859f-bb5f0f00867e","ios":"levelo://app?vid=afd4c58e-3962-4e5b-859f-bb5f0f00867e"},"vehicle_type_id":"4","last_reported":1774804827,"current_range_meters":9200,"station_id":"ce4bh3h2rcd13ifvqdo0","pricing_plan_id":"cebpf4jnsgd1na2vs0mg"},{"bike_id":"8b26d475-adfb-43a5-b19c-caf4f104de28","system_id":"levelo_inurba_marseille","lat":43.23072,"lon":5.35431,"is_reserved":false,"is_disabled":false,"rental_uris":{"android":"levelo://app?vid=8b26d475-adfb-43a5-b19c-caf4f104de28","ios":"levelo://app?vid=8b26d475-adfb-43a5-b19c-caf4f104de28"},"vehicle_type_id":"4","last_reported":1774804827,"current_range_meters":9200,"station_id":"","pricing_plan_id":"cebpf4jnsgd1na2vs0mg"},{"bike_id":"e559e66e-296f-4357-96f0-e4ca20d1e35d","system_id":"levelo_inurba_marseille","lat":43.28619,"lon":5.35102,"is_reserved":false,"is_disabled":false,"rental_uris":{"android":"levelo://app?vid=e559e66e-296f-4357-96f0-e4ca20d1e35d","ios":"levelo://app?vid=e559e66e-296f-4357-96f0-e4ca20d1e35d"},"vehicle_type_id":"4","last_reported":1774804827,"current_range_meters":9200,"station_id":"ce4bhch2rcd13ifvqeug","pricing_plan_id":"cebpf4jnsgd1na2vs0mg"},{"bike_id":"8eb433e2-99ff-4186-9b79-fd6535098fae","system_id":"levelo_inurba_marseille","lat":43.22565,"lon":5.34853,"is_reserved":false,"is_disabled":false,"rental_uris":{"android":"levelo://app?vid=8eb433e2-99ff-4186-9b79-fd6535098fae","ios":"levelo://app?vid=8eb433e2-99ff-4186-9b79-fd6535098fae"},"vehicle_type_id":"4","last_reported":1774804827,"current_range_meters":9200,"station_id":"","pricing_plan_id":"cebpf4jnsgd1na2vs0mg"},{"bike_id":"01095b3d-90a6-498c-9936-5c0313abdcd7","system_id":"levelo_inurba_marseille","lat":43.21199,"lon":5.35078,"is_reserved":false,"is_disabled":false,"rental_uris":{"android":"levelo://app?vid=01095b3d-90a6-498c-9936-5c0313abdcd7","ios":"levelo://app?vid=01095b3d-90a6-498c-9936-5c0313abdcd7"},"vehicle_type_id":"4","last_reported":1774804827,"current_range_meters":9200,"station_id":"st_cvj6sg6p6f1abm77japg","pricing_plan_id":"cebpf4jnsgd1na2vs0mg"},{"bike_id":"eed4a90e-5283-40a6-a676-6658c025631d","system_id":"levelo_inurba_marseille","lat":43.29803,"lon":5.38091,"is_reserved":false,"is_disabled":false,"rental_uris":{"android":"levelo://app?vid=eed4a90e-5283-40a6-a676-6658c025631d","ios":"levelo://app?vid=eed4a90e-5283-40a6-a676-6658c025631d"},"vehicle_type_id":"4","last_reported":1774804827,"current_range_meters":9200,"station_id":"ce4bgip2rcd13ifvqbb0","pricing_plan_id":"cebpf4jnsgd1na2vs0mg"},{"bike_id":"6d189367-b1da-46a7-b7d8-cc2f6c5c510a","system_id":"levelo_inurba_marseille","lat":43.2409,"lon":5.37752,"is_reserved":false,"is_disabled":false,"rental_uris":{"android":"levelo://app?vid=6d189367-b1da-46a7-b7d8-cc2f6c5c510a","ios":"levelo://app?vid=6d189367-b1da-46a7-b7d8-cc2f6c5c510a"},"vehicle_type_id":"4","last_reported":1774804827,"current_range_meters":9200,"station_id":"ce4bhnp2rcd13ifvqgvg","pricing_plan_id":"cebpf4jnsgd1na2vs0mg"},{"bike_id":"5089aad7-e1eb-4262-8e8d-81d462b07484","system_id":"levelo_inurba_marseille","lat":43.32175,"lon":5.41344,"is_reserved":false,"is_disabled":false,"rental_uris":{"android":"levelo://app?vid=5089aad7-e1eb-4262-8e8d-81d462b07484","ios":"levelo://app?vid=5089aad7-e1eb-4262-8e8d-81d462b07484"},"vehicle_type_id":"4","last_reported":1774804827,"current_range_meters":9200,"station_id":"","pricing_plan_id":"cebpf4jnsgd1na2vs0mg"},{"bike_id":"87301472-3784-4d80-af70-cae805bdc15c","system_id":"levelo_inurba_marseille","lat":43.26824,"lon":5.3949,"is_reserved":false,"is_disabled":false,"rental_uris":{"android":"levelo://app?vid=87301472-3784-4d80-af70-cae805bdc15c","ios":"levelo://app?vid=87301472-3784-4d80-af70-cae805bdc15c"},"vehicle_type_id":"4","last_reported":1774804827,"current_range_meters":9200,"station_id":"ce4bhh12rcd13ifvqfg0","pricing_plan_id":"cebpf4jnsgd1na2vs0mg"},{"bike_id":"356dbe8f-e6c3-4ec4-971b-62394c826748","system_id":"levelo_inurba_marseille","lat":43.29273,"lon":5.40903,"is_reserved":false,"is_disabled":false,"rental_uris":{"android":"levelo://app?vid=356dbe8f-e6c3-4ec4-971b-62394c826748","ios":"levelo://app?vid=356dbe8f-e6c3-4ec4-971b-62394c826748"},"vehicle_type_id":"4","last_reported":1774804827,"current_range_meters":9200,"station_id":"ce4bh192rcd13ifvqdc0","pricing_plan_id":"cebpf4jnsgd1na2vs0mg"},{"bike_id":"3e14eafa-0254-4f03-9b87-b8a8c3b3ca65","system_id":"levelo_inurba_marseille","lat":43.28482,"lon":5.48391,"is_reserved":false,"is_disabled":false,"rental_uris":{"android":"levelo://app?vid=3e14eafa-0254-4f03-9b87-b8a8c3b3ca65","ios":"levelo://app?vid=3e14eafa-0254-4f03-9b87-b8a8c3b3ca65"},"vehicle_type_id":"4","last_reported":1774804827,"current_range_meters":9200,"station_id":"","pricing_plan_id":"cebpf4jnsgd1na2vs0mg"},{"bike_id":"aa096f04-9bc4-4c84-b180-63b983513b22","system_id":"levelo_inurba_marseille","lat":43.32494,"lon":5.38308,"is_reserved":false,"is_disabled":false,"rental_uris":{"android":"levelo://app?vid=aa096f04-9bc4-4c84-b180-63b983513b22","ios":"levelo://app?vid=aa096f04-9bc4-4c84-b180-63b983513b22"},"vehicle_type_id":"4","last_reported":1774804827,"current_range_meters":9200,"station_id":"st_d4asgbiv49dc73anf9m0","pricing_plan_id":"cebpf4jnsgd1na2vs0mg"},{"bike_id":"0494ab6b-fd15-4c32-b24d-6d69a8df40f0","system_id":"levelo_inurba_marseille","lat":43.29996,"lon":5.38465,"is_reserved":false,"is_disabled":false,"rental_uris":{"android":"levelo://app?vid=0494ab6b-fd15-4c32-b24d-6d69a8df40f0","ios":"levelo://app?vid=0494ab6b-fd15-4c32-b24d-6d69a8df40f0"},"vehicle_type_id":"4","last_reported":1774804827,"current_range_meters":9200,"station_id":"ce4bgj92rcd13ifvqbd0","pricing_plan_id":"cebpf4jnsgd1na2vs0mg"},{"bike_id":"f80b49c2-904e-47b6-8d38-d811b0e62949","system_id":"levelo_inurba_marseille","lat":43.2643,"lon":5.39904,"is_reserved":false,"is_disabled":false,"rental_uris":{"android":"levelo://app?vid=f80b49c2-904e-47b6-8d38-d811b0e62949","ios":"levelo://app?vid=f80b49c2-904e-47b6-8d38-d811b0e62949"},"vehicle_type_id":"4","last_reported":1774804827,"current_range_meters":9200,"station_id":"","pricing_plan_id":"cebpf4jnsgd1na2vs0mg"},{"bike_id":"d4cb0fd3-cf82-4920-8821-5ce3fb43cc53","system_id":"levelo_inurba_marseille","lat":43.24177,"lon":5.36395,"is_reserved":false,"is_disabled":false,"rental_uris":{"android":"levelo://app?vid=d4cb0fd3-cf82-4920-8821-5ce3fb43cc53","ios":"levelo://app?vid=d4cb0fd3-cf82-4920-8821-5ce3fb43cc53"},"vehicle_type_id":"4","last_reported":1774804827,"current_range_meters":9200,"station_id":"cpo36qri1sfpv3e86is0","pricing_plan_id":"cebpf4jnsgd1na2vs0mg"},{"bike_id":"532c5324-fb16-4a5e-b25b-a57e56be9441","system_id":"levelo_inurba_marseille","lat":43.28412,"lon":5.34996,"is_reserved":false,"is_disabled":false,"rental_uris":{"android":"levelo://app?vid=532c5324-fb16-4a5e-b25b-a57e56be9441","ios":"levelo://app?vid=532c5324-fb16-4a5e-b25b-a57e56be9441"},"vehicle_type_id":"4","last_reported":1774804827,"current_range_meters":9200,"station_id":"ce4bhbh2rcd13ifvqepg","pricing_plan_id":"cebpf4jnsgd1na2vs0mg"},{"bike_id":"adc9cb07-cdfb-4b96-a72b-56ebf0bc4983","system_id":"levelo_inurba_marseille","lat":43.25509,"lon":5.3765,"is_reserved":false,"is_disabled":false,"rental_uris":{"android":"levelo://app?vid=adc9cb07-cdfb-4b96-a72b-56ebf0bc4983","ios":"levelo://app?vid=adc9cb07-cdfb-4b96-a72b-56ebf0bc4983"},"vehicle_type_id":"4","last_reported":1774804827,"current_range_meters":9200,"station_id":"ce4bhh12rcd13ifvqff0","pricing_plan_id":"cebpf4jnsgd1na2vs0mg"},{"bike_id":"af38a091-7cff-4b3d-8ad2-ba90d83222ff","system_id":"levelo_inurba_marseille","lat":43.26793,"lon":5.39414,"is_reserved":false,"is_disabled":false,"rental_uris":{"android":"levelo://app?vid=af38a091-7cff-4b3d-8ad2-ba90d83222ff","ios":"levelo://app?vid=af38a091-7cff-4b3d-8ad2-ba90d83222ff"},"vehicle_type_id":"4","last_reported":1774804827,"current_range_meters":9200,"station_id":"ce4bhh12rcd13ifvqfg0","pricing_plan_id":"cebpf4jnsgd1na2vs0mg"},{"bike_id":"2f7390d6-a1e4-4e1c-9e9c-b3b65177fdb5","system_id":"levelo_inurba_marseille","lat":43.29578,"lon":5.3752,"is_reserved":false,"is_disabled":false,"rental_uris":{"android":"levelo://app?vid=2f7390d6-a1e4-4e1c-9e9c-b3b65177fdb5","ios":"levelo://app?vid=2f7390d6-a1e4-4e1c-9e9c-b3b65177fdb5"},"vehicle_type_id":"4","last_reported":1774804827,"current_range_meters":9200,"station_id":"ce4bgh92rcd13ifvqb50","pricing_plan_id":"cebpf4jnsgd1na2vs0mg"},{"bike_id":"081396a9-4582-40d9-8629-4006a7a9aaee","system_id":"levelo_inurba_marseille","lat":43.28491,"lon":5.48377,"is_reserved":false,"is_disabled":false,"rental_uris":{"android":"levelo://app?vid=081396a9-4582-40d9-8629-4006a7a9aaee","ios":"levelo://app?vid=081396a9-4582-40d9-8629-4006a7a9aaee"},"vehicle_type_id":"4","last_reported":1774804827,"current_range_meters":9600,"station_id":"","pricing_plan_id":"cebpf4jnsgd1na2vs0mg"},{"bike_id":"cd1393ea-e931-4166-a63f-14e3bcaa8904","system_id":"levelo_inurba_marseille","lat":43.29976,"lon":5.38526,"is_reserved":false,"is_disabled":false,"rental_uris":{"android":"levelo://app?vid=cd1393ea-e931-4166-a63f-14e3bcaa8904","ios":"levelo://app?vid=cd1393ea-e931-4166-a63f-14e3bcaa8904"},"vehicle_type_id":"4","last_reported":1774804827,"current_range_meters":9600,"station_id":"ce4bgj92rcd13ifvqbd0","pricing_plan_id":"cebpf4jnsgd1na2vs0mg"},{"bike_id":"09bec8ea-b59a-4b49-84ef-af28e09ce8a6","system_id":"levelo_inurba_marseille","lat":43.26067,"lon":5.39357,"is_reserved":false,"is_disabled":false,"rental_uris":{"android":"levelo://app?vid=09bec8ea-b59a-4b49-84ef-af28e09ce8a6","ios":"levelo://app?vid=09bec8ea-b59a-4b49-84ef-af28e09ce8a6"},"vehicle_type_id":"4","last_reported":1774804827,"current_range_meters":9600,"station_id":"ce4bhh92rcd13ifvqfj0","pricing_plan_id":"cebpf4jnsgd1na2vs0mg"},{"bike_id":"3e822faa-a448-49d6-85cd-48f9afbee739","system_id":"levelo_inurba_marseille","lat":43.31723,"lon":5.43709,"is_reserved":false,"is_disabled":false,"rental_uris":{"android":"levelo://app?vid=3e822faa-a448-49d6-85cd-48f9afbee739","ios":"levelo://app?vid=3e822faa-a448-49d6-85cd-48f9afbee739"},"vehicle_type_id":"4","last_reported":1774804827,"current_range_meters":9600,"station_id":"ce4bhp92rcd13ifvqhcg","pricing_plan_id":"cebpf4jnsgd1na2vs0mg"},{"bike_id":"402991cd-2dd0-4c63-af1b-3954529029a5","system_id":"levelo_inurba_marseille","lat":43.23162,"lon":5.43699,"is_reserved":false,"is_disabled":false,"rental_uris":{"android":"levelo://app?vid=402991cd-2dd0-4c63-af1b-3954529029a5","ios":"levelo://app?vid=402991cd-2dd0-4c63-af1b-3954529029a5"},"vehicle_type_id":"4","last_reported":1774804827,"current_range_meters":9600,"station_id":"ce4bhmp2rcd13ifvqgog","pricing_plan_id":"cebpf4jnsgd1na2vs0mg"},{"bike_id":"a64fd386-4515-4017-ae22-492361783c91","system_id":"levelo_inurba_marseille","lat":43.29029,"lon":5.38648,"is_reserved":false,"is_disabled":false,"rental_uris":{"android":"levelo://app?vid=a64fd386-4515-4017-ae22-492361783c91","ios":"levelo://app?vid=a64fd386-4515-4017-ae22-492361783c91"},"vehicle_type_id":"4","last_reported":1774804827,"current_range_meters":9600,"station_id":"ce4bh4p2rcd13ifvqe0g","pricing_plan_id":"cebpf4jnsgd1na2vs0mg"},{"bike_id":"10f001e3-1b5e-4722-bd6e-1cdc4b551001","system_id":"levelo_inurba_marseille","lat":43.2841,"lon":5.35004,"is_reserved":false,"is_disabled":false,"rental_uris":{"android":"levelo://app?vid=10f001e3-1b5e-4722-bd6e-1cdc4b551001","ios":"levelo://app?vid=10f001e3-1b5e-4722-bd6e-1cdc4b551001"},"vehicle_type_id":"4","last_reported":1774804827,"current_range_meters":9600,"station_id":"ce4bhbh2rcd13ifvqepg","pricing_plan_id":"cebpf4jnsgd1na2vs0mg"},{"bike_id":"5c4058ac-b231-433f-9345-a2389dd03893","system_id":"levelo_inurba_marseille","lat":43.27386,"lon":5.36261,"is_reserved":false,"is_disabled":false,"rental_uris":{"android":"levelo://app?vid=5c4058ac-b231-433f-9345-a2389dd03893","ios":"levelo://app?vid=5c4058ac-b231-433f-9345-a2389dd03893"},"vehicle_type_id":"4","last_reported":1774804827,"current_range_meters":9600,"station_id":"ce4bhbh2rcd13ifvqeo0","pricing_plan_id":"cebpf4jnsgd1na2vs0mg"},{"bike_id":"91f978be-68d5-4930-964b-a16992e37353","system_id":"levelo_inurba_marseille","lat":43.30203,"lon":5.36654,"is_reserved":false,"is_disabled":false,"rental_uris":{"android":"levelo://app?vid=91f978be-68d5-4930-964b-a16992e37353","ios":"levelo://app?vid=91f978be-68d5-4930-964b-a16992e37353"},"vehicle_type_id":"4","last_reported":1774804827,"current_range_meters":9600,"station_id":"ce4bgrh2rcd13ifvqc8g","pricing_plan_id":"cebpf4jnsgd1na2vs0mg"},{"bike_id":"b159cfdc-4e3d-42c0-b5ef-43f4122d544b","system_id":"levelo_inurba_marseille","lat":43.31339,"lon":5.3678,"is_reserved":false,"is_disabled":false,"rental_uris":{"android":"levelo://app?vid=b159cfdc-4e3d-42c0-b5ef-43f4122d544b","ios":"levelo://app?vid=b159cfdc-4e3d-42c0-b5ef-43f4122d544b"},"vehicle_type_id":"4","last_reported":1774804827,"current_range_meters":9600,"station_id":"","pricing_plan_id":"cebpf4jnsgd1na2vs0mg"},{"bike_id":"0ff59502-5826-4c8c-9a1c-aee26c6db4e6","system_id":"levelo_inurba_marseille","lat":43.27508,"lon":5.41568,"is_reserved":false,"is_disabled":false,"rental_uris":{"android":"levelo://app?vid=0ff59502-5826-4c8c-9a1c-aee26c6db4e6","ios":"levelo://app?vid=0ff59502-5826-4c8c-9a1c-aee26c6db4e6"},"vehicle_type_id":"4","last_reported":1774804827,"current_range_meters":9600,"station_id":"st_d6im8g6chgec73a5pndg","pricing_plan_id":"cebpf4jnsgd1na2vs0mg"},{"bike_id":"478e8fea-cc8f-45cf-bafa-237520a640a8","system_id":"levelo_inurba_marseille","lat":43.24472,"lon":5.42532,"is_reserved":false,"is_disabled":false,"rental_uris":{"android":"levelo://app?vid=478e8fea-cc8f-45cf-bafa-237520a640a8","ios":"levelo://app?vid=478e8fea-cc8f-45cf-bafa-237520a640a8"},"vehicle_type_id":"4","last_reported":1774804827,"current_range_meters":9600,"station_id":"st_d4a3vfp97mjs738cd8kg","pricing_plan_id":"cebpf4jnsgd1na2vs0mg"},{"bike_id":"a9c71e26-ee36-4aed-bfc1-c01bc20ab0da","system_id":"levelo_inurba_marseille","lat":43.28948,"lon":5.38407,"is_reserved":false,"is_disabled":false,"rental_uris":{"android":"levelo://app?vid=a9c71e26-ee36-4aed-bfc1-c01bc20ab0da","ios":"levelo://app?vid=a9c71e26-ee36-4aed-bfc1-c01bc20ab0da"},"vehicle_type_id":"4","last_reported":1774804827,"current_range_meters":9600,"station_id":"ce4bh612rcd13ifvqe6g","pricing_plan_id":"cebpf4jnsgd1na2vs0mg"},{"bike_id":"0aaeb449-948c-496a-b713-c028b991b7ea","system_id":"levelo_inurba_marseille","lat":43.28474,"lon":5.48398,"is_reserved":false,"is_disabled":false,"rental_uris":{"android":"levelo://app?vid=0aaeb449-948c-496a-b713-c028b991b7ea","ios":"levelo://app?vid=0aaeb449-948c-496a-b713-c028b991b7ea"},