{"last_updated":1684130970,"ttl":30,"version":"2.2","data":{"bikes":[{"bike_id":"c5587543-677e-4441-b84f-890b907ac93f","system_id":"levelo_inurba_marseille","lat":43.312239,"lon":5.368562,"is_reserved":false,"is_disabled":false,"rental_uris":{"android":"levelo://app?vid=c5587543-677e-4441-b84f-890b907ac93f","ios":"levelo://app?vid=c5587543-677e-4441-b84f-890b907ac93f"},"vehicle_type_id":"4","last_reported":1684130971,"current_range_meters":18400,"station_id":"ce4bgl92rcd13ifvqbq0","pricing_plan_id":"free"},{"bike_id":"82f59c2f-3a65-4cad-a257-4dae6ea2bc4c","system_id":"levelo_inurba_marseille","lat":43.312239,"lon":5.368562,"is_reserved":false,"is_disabled":false,"rental_uris":{"android":"levelo://app?vid=82f59c2f-3a65-4cad-a257-4dae6ea2bc4c","ios":"levelo://app?vid=82f59c2f-3a65-4cad-a257-4dae6ea2bc4c"},"vehicle_type_id":"4","last_reported":1684130971,"current_range_meters":23200,"station_id":"ce4bgl92rcd13ifvqbq0","pricing_plan_id":"free"},{"bike_id":"a235c6bb-f626-47af-a695-1f3b704f85a7","system_id":"levelo_inurba_marseille","lat":43.312239,"lon":5.368562,"is_reserved":false,"is_disabled":false,"rental_uris":{"android":"levelo://app?vid=a235c6bb-f626-47af-a695-1f3b704f85a7","ios":"levelo://app?vid=a235c6bb-f626-47af-a695-1f3b704f85a7"},"vehicle_type_id":"4","last_reported":1684130971,"current_range_meters":23200,"station_id":"ce4bgl92rcd13ifvqbq0","pricing_plan_id":"free"},{"bike_id":"c98fd8bc-a8ea-4356-a1ff-ee4a8fd5c4f2","system_id":"levelo_inurba_marseille","lat":43.309076,"lon":5.368465,"is_reserved":false,"is_disabled":false,"rental_uris":{"android":"levelo://app?vid=c98fd8bc-a8ea-4356-a1ff-ee4a8fd5c4f2","ios":"levelo://app?vid=c98fd8bc-a8ea-4356-a1ff-ee4a8fd5c4f2"},"vehicle_type_id":"4","last_reported":1684130971,"current_range_meters":24000,"station_id":"ce4bgn92rcd13ifvqbvg","pricing_plan_id":"free"},{"bike_id":"c11d841f-280d-4942-ba29-bc530c7cb73b","system_id":"levelo_inurba_marseille","lat":43.309076,"lon":5.368465,"is_reserved":false,"is_disabled":false,"rental_uris":{"android":"levelo://app?vid=c11d841f-280d-4942-ba29-bc530c7cb73b","ios":"levelo://app?vid=c11d841f-280d-4942-ba29-bc530c7cb73b"},"vehicle_type_id":"4","last_reported":1684130971,"current_range_meters":27600,"station_id":"ce4bgn92rcd13ifvqbvg","pricing_plan_id":"free"},{"bike_id":"4a87d382-110e-48c3-98b7-96b9bf654a7d","system_id":"levelo_inurba_marseille","lat":43.309076,"lon":5.368465,"is_reserved":false,"is_disabled":false,"rental_uris":{"android":"levelo://app?vid=4a87d382-110e-48c3-98b7-96b9bf654a7d","ios":"levelo://app?vid=4a87d382-110e-48c3-98b7-96b9bf654a7d"},"vehicle_type_id":"4","last_reported":1684130971,"current_range_meters":12000,"station_id":"ce4bgn92rcd13ifvqbvg","pricing_plan_id":"free"},{"bike_id":"7444f141-ea52-4621-9998-9ec3106e3de4","system_id":"levelo_inurba_marseille","lat":43.309076,"lon":5.368465,"is_reserved":false,"is_disabled":false,"rental_uris":{"android":"levelo://app?vid=7444f141-ea52-4621-9998-9ec3106e3de4","ios":"levelo://app?vid=7444f141-ea52-4621-9998-9ec3106e3de4"},"vehicle_type_id":"4","last_reported":1684130971,"current_range_meters":4800,"station_id":"ce4bgn92rcd13ifvqbvg","pricing_plan_id":"free"},{"bike_id":"76767468-eb7a-4956-8a69-7410aa4bec57","system_id":"levelo_inurba_marseille","lat":43.314811,"lon":5.373103,"is_reserved":false,"is_disabled":false,"rental_uris":{"android":"levelo://app?vid=76767468-eb7a-4956-8a69-7410aa4bec57","ios":"levelo://app?vid=76767468-eb7a-4956-8a69-7410aa4bec57"},"vehicle_type_id":"4","last_reported":1684130971,"current_range_meters":4400,"station_id":"ce4bgt12rcd13ifvqcd0","pricing_plan_id":"free"},{"bike_id":"ab94104d-4776-454f-a4e4-c9a8f494fd20","system_id":"levelo_inurba_marseille","lat":43.314811,"lon":5.373103,"is_reserved":false,"is_disabled":false,"rental_uris":{"android":"levelo://app?vid=ab94104d-4776-454f-a4e4-c9a8f494fd20","ios":"levelo://app?vid=ab94104d-4776-454f-a4e4-c9a8f494fd20"},"vehicle_type_id":"4","last_reported":1684130971,"current_range_meters":26400,"station_id":"ce4bgt12rcd13ifvqcd0","pricing_plan_id":"free"},{"bike_id":"3b81ea26-0d96-4645-928c-ab5c0b3d08bb","system_id":"levelo_inurba_marseille","lat":43.314811,"lon":5.373103,"is_reserved":false,"is_disabled":false,"rental_uris":{"android":"levelo://app?vid=3b81ea26-0d96-4645-928c-ab5c0b3d08bb","ios":"levelo://app?vid=3b81ea26-0d96-4645-928c-ab5c0b3d08bb"},"vehicle_type_id":"4","last_reported":1684130971,"current_range_meters":31200,"station_id":"ce4bgt12rcd13ifvqcd0","pricing_plan_id":"free"},{"bike_id":"b816e7ec-35d4-4676-a418-89ceb23abf6a","system_id":"levelo_inurba_marseille","lat":43.314811,"lon":5.373103,"is_reserved":false,"is_disabled":false,"rental_uris":{"android":"levelo://app?vid=b816e7ec-35d4-4676-a418-89ceb23abf6a","ios":"levelo://app?vid=b816e7ec-35d4-4676-a418-89ceb23abf6a"},"vehicle_type_id":"4","last_reported":1684130971,"current_range_meters":2800,"station_id":"ce4bgt12rcd13ifvqcd0","pricing_plan_id":"free"},{"bike_id":"a2a78d27-429f-4973-8ef8-370251300c11","system_id":"levelo_inurba_marseille","lat":43.314811,"lon":5.373104,"is_reserved":false,"is_disabled":false,"rental_uris":{"android":"levelo://app?vid=a2a78d27-429f-4973-8ef8-370251300c11","ios":"levelo://app?vid=a2a78d27-429f-4973-8ef8-370251300c11"},"vehicle_type_id":"4","last_reported":1684130971,"current_range_meters":6400,"station_id":"ce4bgt12rcd13ifvqcd0","pricing_plan_id":"free"},{"bike_id":"9a9ad707-1550-4031-9de5-19e500f9c954","system_id":"levelo_inurba_marseille","lat":43.314811,"lon":5.373104,"is_reserved":false,"is_disabled":false,"rental_uris":{"android":"levelo://app?vid=9a9ad707-1550-4031-9de5-19e500f9c954","ios":"levelo://app?vid=9a9ad707-1550-4031-9de5-19e500f9c954"},"vehicle_type_id":"4","last_reported":1684130971,"current_range_meters":0,"station_id":"ce4bgt12rcd13ifvqcd0","pricing_plan_id":"free"},{"bike_id":"511b69c6-3e91-4ea9-9d53-8ff6d6d151b2","system_id":"levelo_inurba_marseille","lat":43.30892,"lon":5.3719,"is_reserved":false,"is_disabled":false,"rental_uris":{"android":"levelo://app?vid=511b69c6-3e91-4ea9-9d53-8ff6d6d151b2","ios":"levelo://app?vid=511b69c6-3e91-4ea9-9d53-8ff6d6d151b2"},"vehicle_type_id":"4","last_reported":1684130971,"current_range_meters":28000,"station_id":"ce4bguh2rcd13ifvqckg","pricing_plan_id":"free"},{"bike_id":"32de1eea-6e9e-4a75-8ce6-201355f5e9f0","system_id":"levelo_inurba_marseille","lat":43.30891,"lon":5.37197,"is_reserved":false,"is_disabled":false,"rental_uris":{"android":"levelo://app?vid=32de1eea-6e9e-4a75-8ce6-201355f5e9f0","ios":"levelo://app?vid=32de1eea-6e9e-4a75-8ce6-201355f5e9f0"},"vehicle_type_id":"4","last_reported":1684130971,"current_range_meters":23600,"station_id":"ce4bguh2rcd13ifvqckg","pricing_plan_id":"free"},{"bike_id":"f9ab1f04-7612-40c2-b62c-6a3f63228f4e","system_id":"levelo_inurba_marseille","lat":43.30882,"lon":5.37185,"is_reserved":false,"is_disabled":false,"rental_uris":{"android":"levelo://app?vid=f9ab1f04-7612-40c2-b62c-6a3f63228f4e","ios":"levelo://app?vid=f9ab1f04-7612-40c2-b62c-6a3f63228f4e"},"vehicle_type_id":"4","last_reported":1684130971,"current_range_meters":0,"station_id":"ce4bguh2rcd13ifvqckg","pricing_plan_id":"free"},{"bike_id":"9cbe7c92-360a-44b5-ae49-4e73acb09f7c","system_id":"levelo_inurba_marseille","lat":43.30888,"lon":5.37203,"is_reserved":false,"is_disabled":false,"rental_uris":{"android":"levelo://app?vid=9cbe7c92-360a-44b5-ae49-4e73acb09f7c","ios":"levelo://app?vid=9cbe7c92-360a-44b5-ae49-4e73acb09f7c"},"vehicle_type_id":"4","last_reported":1684130971,"current_range_meters":5600,"station_id":"ce4bguh2rcd13ifvqckg","pricing_plan_id":"free"},{"bike_id":"ef42665b-7a58-430a-a09b-24ad7325a98d","system_id":"levelo_inurba_marseille","lat":43.30588,"lon":5.36563,"is_reserved":false,"is_disabled":false,"rental_uris":{"android":"levelo://app?vid=ef42665b-7a58-430a-a09b-24ad7325a98d","ios":"levelo://app?vid=ef42665b-7a58-430a-a09b-24ad7325a98d"},"vehicle_type_id":"4","last_reported":1684130971,"current_range_meters":8800,"station_id":"","pricing_plan_id":"free"},{"bike_id":"5cb90591-2a1d-4ac6-88d7-412b6ebb308c","system_id":"levelo_inurba_marseille","lat":43.305706,"lon":5.365654,"is_reserved":false,"is_disabled":false,"rental_uris":{"android":"levelo://app?vid=5cb90591-2a1d-4ac6-88d7-412b6ebb308c","ios":"levelo://app?vid=5cb90591-2a1d-4ac6-88d7-412b6ebb308c"},"vehicle_type_id":"4","last_reported":1684130971,"current_range_meters":800,"station_id":"ce4bgs12rcd13ifvqcag","pricing_plan_id":"free"},{"bike_id":"983c4d76-6332-47d0-be8b-715a473bfd33","system_id":"levelo_inurba_marseille","lat":43.305706,"lon":5.365654,"is_reserved":false,"is_disabled":false,"rental_uris":{"android":"levelo://app?vid=983c4d76-6332-47d0-be8b-715a473bfd33","ios":"levelo://app?vid=983c4d76-6332-47d0-be8b-715a473bfd33"},"vehicle_type_id":"4","last_reported":1684130971,"current_range_meters":19600,"station_id":"ce4bgs12rcd13ifvqcag","pricing_plan_id":"free"},{"bike_id":"d8cf11da-385a-4470-bd34-37223a425e65","system_id":"levelo_inurba_marseille","lat":43.305706,"lon":5.365654,"is_reserved":false,"is_disabled":false,"rental_uris":{"android":"levelo://app?vid=d8cf11da-385a-4470-bd34-37223a425e65","ios":"levelo://app?vid=d8cf11da-385a-4470-bd34-37223a425e65"},"vehicle_type_id":"4","last_reported":1684130971,"current_range_meters":21200,"station_id":"ce4bgs12rcd13ifvqcag","pricing_plan_id":"free"},{"bike_id":"788ddc5a-9997-468a-841a-e19fe5fccee0","system_id":"levelo_inurba_marseille","lat":43.305989,"lon":5.37225,"is_reserved":false,"is_disabled":false,"rental_uris":{"android":"levelo://app?vid=788ddc5a-9997-468a-841a-e19fe5fccee0","ios":"levelo://app?vid=788ddc5a-9997-468a-841a-e19fe5fccee0"},"vehicle_type_id":"4","last_reported":1684130971,"current_range_meters":26800,"station_id":"ce4bgqh2rcd13ifvqc4g","pricing_plan_id":"free"},{"bike_id":"151d50bc-3aee-48d5-9527-783274464e00","system_id":"levelo_inurba_marseille","lat":43.31207,"lon":5.37793,"is_reserved":false,"is_disabled":false,"rental_uris":{"android":"levelo://app?vid=151d50bc-3aee-48d5-9527-783274464e00","ios":"levelo://app?vid=151d50bc-3aee-48d5-9527-783274464e00"},"vehicle_type_id":"4","last_reported":1684130971,"current_range_meters":6000,"station_id":"","pricing_plan_id":"free"},{"bike_id":"fadbfd7f-0d51-429d-9f4b-6f64d8731f4d","system_id":"levelo_inurba_marseille","lat":43.317075,"lon":5.377367,"is_reserved":false,"is_disabled":false,"rental_uris":{"android":"levelo://app?vid=fadbfd7f-0d51-429d-9f4b-6f64d8731f4d","ios":"levelo://app?vid=fadbfd7f-0d51-429d-9f4b-6f64d8731f4d"},"vehicle_type_id":"4","last_reported":1684130971,"current_range_meters":24000,"station_id":"ce4bgth2rcd13ifvqch0","pricing_plan_id":"free"},{"bike_id":"9a6e5c1b-e2f4-4823-95c7-c96764ce94b3","system_id":"levelo_inurba_marseille","lat":43.317075,"lon":5.377367,"is_reserved":false,"is_disabled":false,"rental_uris":{"android":"levelo://app?vid=9a6e5c1b-e2f4-4823-95c7-c96764ce94b3","ios":"levelo://app?vid=9a6e5c1b-e2f4-4823-95c7-c96764ce94b3"},"vehicle_type_id":"4","last_reported":1684130971,"current_range_meters":24400,"station_id":"ce4bgth2rcd13ifvqch0","pricing_plan_id":"free"},{"bike_id":"64b682f5-9cb8-4716-833e-d2f9b938c8f4","system_id":"levelo_inurba_marseille","lat":43.30304,"lon":5.368987,"is_reserved":false,"is_disabled":false,"rental_uris":{"android":"levelo://app?vid=64b682f5-9cb8-4716-833e-d2f9b938c8f4","ios":"levelo://app?vid=64b682f5-9cb8-4716-833e-d2f9b938c8f4"},"vehicle_type_id":"4","last_reported":1684130971,"current_range_meters":30800,"station_id":"ce4bgqh2rcd13ifvqc5g","pricing_plan_id":"free"},{"bike_id":"5d6b2b53-1d62-49c2-92de-53776623e5f3","system_id":"levelo_inurba_marseille","lat":43.303046,"lon":5.368981,"is_reserved":false,"is_disabled":false,"rental_uris":{"android":"levelo://app?vid=5d6b2b53-1d62-49c2-92de-53776623e5f3","ios":"levelo://app?vid=5d6b2b53-1d62-49c2-92de-53776623e5f3"},"vehicle_type_id":"4","last_reported":1684130971,"current_range_meters":31200,"station_id":"ce4bgqh2rcd13ifvqc5g","pricing_plan_id":"free"},{"bike_id":"134f50e8-80ce-423f-bcc2-8f1d007929d2","system_id":"levelo_inurba_marseille","lat":43.303046,"lon":5.368981,"is_reserved":false,"is_disabled":false,"rental_uris":{"android":"levelo://app?vid=134f50e8-80ce-423f-bcc2-8f1d007929d2","ios":"levelo://app?vid=134f50e8-80ce-423f-bcc2-8f1d007929d2"},"vehicle_type_id":"4","last_reported":1684130971,"current_range_meters":31200,"station_id":"ce4bgqh2rcd13ifvqc5g","pricing_plan_id":"free"},{"bike_id":"1a8fc1dc-429f-490a-b644-9f1092dc1c0e","system_id":"levelo_inurba_marseille","lat":43.303046,"lon":5.368981,"is_reserved":false,"is_disabled":false,"rental_uris":{"android":"levelo://app?vid=1a8fc1dc-429f-490a-b644-9f1092dc1c0e","ios":"levelo://app?vid=1a8fc1dc-429f-490a-b644-9f1092dc1c0e"},"vehicle_type_id":"4","last_reported":1684130971,"current_range_meters":31200,"station_id":"ce4bgqh2rcd13ifvqc5g","pricing_plan_id":"free"},{"bike_id":"a5587dda-33f4-494a-9481-a1c5040e20cc","system_id":"levelo_inurba_marseille","lat":43.303046,"lon":5.368981,"is_reserved":false,"is_disabled":false,"rental_uris":{"android":"levelo://app?vid=a5587dda-33f4-494a-9481-a1c5040e20cc","ios":"levelo://app?vid=a5587dda-33f4-494a-9481-a1c5040e20cc"},"vehicle_type_id":"4","last_reported":1684130971,"current_range_meters":31200,"station_id":"ce4bgqh2rcd13ifvqc5g","pricing_plan_id":"free"},{"bike_id":"b0457de3-2925-4f23-b648-a1920b9d815b","system_id":"levelo_inurba_marseille","lat":43.30304,"lon":5.368987,"is_reserved":false,"is_disabled":false,"rental_uris":{"android":"levelo://app?vid=b0457de3-2925-4f23-b648-a1920b9d815b","ios":"levelo://app?vid=b0457de3-2925-4f23-b648-a1920b9d815b"},"vehicle_type_id":"4","last_reported":1684130971,"current_range_meters":30400,"station_id":"ce4bgqh2rcd13ifvqc5g","pricing_plan_id":"free"},{"bike_id":"3fcba7a3-c0db-4208-bafe-e7e226d2a8c2","system_id":"levelo_inurba_marseille","lat":43.30304,"lon":5.368987,"is_reserved":false,"is_disabled":false,"rental_uris":{"android":"levelo://app?vid=3fcba7a3-c0db-4208-bafe-e7e226d2a8c2","ios":"levelo://app?vid=3fcba7a3-c0db-4208-bafe-e7e226d2a8c2"},"vehicle_type_id":"4","last_reported":1684130971,"current_range_meters":28000,"station_id":"ce4bgqh2rcd13ifvqc5g","pricing_plan_id":"free"},{"bike_id":"cc79eb4a-c0b6-4f93-bd10-1fc2c9f739f6","system_id":"levelo_inurba_marseille","lat":43.30304,"lon":5.368987,"is_reserved":false,"is_disabled":false,"rental_uris":{"android":"levelo://app?vid=cc79eb4a-c0b6-4f93-bd10-1fc2c9f739f6","ios":"levelo://app?vid=cc79eb4a-c0b6-4f93-bd10-1fc2c9f739f6"},"vehicle_type_id":"4","last_reported":1684130971,"current_range_meters":31200,"station_id":"ce4bgqh2rcd13ifvqc5g","pricing_plan_id":"free"},{"bike_id":"70888337-5265-4ca7-90d4-befd207e4ab3","system_id":"levelo_inurba_marseille","lat":43.303046,"lon":5.368981,"is_reserved":false,"is_disabled":false,"rental_uris":{"android":"levelo://app?vid=70888337-5265-4ca7-90d4-befd207e4ab3","ios":"levelo://app?vid=70888337-5265-4ca7-90d4-befd207e4ab3"},"vehicle_type_id":"4","last_reported":1684130971,"current_range_meters":18400,"station_id":"ce4bgqh2rcd13ifvqc5g","pricing_plan_id":"free"},{"bike_id":"f87ad001-9e6d-4873-ace9-32743ce6f1f9","system_id":"levelo_inurba_marseille","lat":43.303046,"lon":5.368981,"is_reserved":false,"is_disabled":false,"rental_uris":{"android":"levelo://app?vid=f87ad001-9e6d-4873-ace9-32743ce6f1f9","ios":"levelo://app?vid=f87ad001-9e6d-4873-ace9-32743ce6f1f9"},"vehicle_type_id":"4","last_reported":1684130971,"current_range_meters":27200,"station_id":"ce4bgqh2rcd13ifvqc5g","pricing_plan_id":"free"},{"bike_id":"f02a0624-5cec-46fb-9726-7f2b821e5cce","system_id":"levelo_inurba_marseille","lat":43.30304,"lon":5.368987,"is_reserved":false,"is_disabled":false,"rental_uris":{"android":"levelo://app?vid=f02a0624-5cec-46fb-9726-7f2b821e5cce","ios":"levelo://app?vid=f02a0624-5cec-46fb-9726-7f2b821e5cce"},"vehicle_type_id":"4","last_reported":1684130971,"current_range_meters":28000,"station_id":"ce4bgqh2rcd13ifvqc5g","pricing_plan_id":"free"},{"bike_id":"f83d3bf0-d857-4e10-94b7-cd9b1e24f661","system_id":"levelo_inurba_marseille","lat":43.30304,"lon":5.368987,"is_reserved":false,"is_disabled":false,"rental_uris":{"android":"levelo://app?vid=f83d3bf0-d857-4e10-94b7-cd9b1e24f661","ios":"levelo://app?vid=f83d3bf0-d857-4e10-94b7-cd9b1e24f661"},"vehicle_type_id":"4","last_reported":1684130971,"current_range_meters":26400,"station_id":"ce4bgqh2rcd13ifvqc5g","pricing_plan_id":"free"},{"bike_id":"1630899b-eae6-42fa-969e-a3367358f409","system_id":"levelo_inurba_marseille","lat":43.30304,"lon":5.368987,"is_reserved":false,"is_disabled":false,"rental_uris":{"android":"levelo://app?vid=1630899b-eae6-42fa-969e-a3367358f409","ios":"levelo://app?vid=1630899b-eae6-42fa-969e-a3367358f409"},"vehicle_type_id":"4","last_reported":1684130971,"current_range_meters":28000,"station_id":"ce4bgqh2rcd13ifvqc5g","pricing_plan_id":"free"},{"bike_id":"154b2cc7-02fd-4309-9f23-e8c320a99767","system_id":"levelo_inurba_marseille","lat":43.30799,"lon":5.38147,"is_reserved":false,"is_disabled":false,"rental_uris":{"android":"levelo://app?vid=154b2cc7-02fd-4309-9f23-e8c320a99767","ios":"levelo://app?vid=154b2cc7-02fd-4309-9f23-e8c320a99767"},"vehicle_type_id":"4","last_reported":1684130971,"current_range_meters":25600,"station_id":"ce4bgt12rcd13ifvqce0","pricing_plan_id":"free"},{"bike_id":"1d50519d-a41c-4aee-9774-5eb90e1dbe39","system_id":"levelo_inurba_marseille","lat":43.30441,"lon":5.378415,"is_reserved":false,"is_disabled":false,"rental_uris":{"android":"levelo://app?vid=1d50519d-a41c-4aee-9774-5eb90e1dbe39","ios":"levelo://app?vid=1d50519d-a41c-4aee-9774-5eb90e1dbe39"},"vehicle_type_id":"4","last_reported":1684130971,"current_range_meters":9200,"station_id":"ce4bhap2rcd13ifvqek0","pricing_plan_id":"free"},{"bike_id":"9784f2e0-d335-449b-ab80-9bf9730c4fea","system_id":"levelo_inurba_marseille","lat":43.304606,"lon":5.379026,"is_reserved":false,"is_disabled":false,"rental_uris":{"android":"levelo://app?vid=9784f2e0-d335-449b-ab80-9bf9730c4fea","ios":"levelo://app?vid=9784f2e0-d335-449b-ab80-9bf9730c4fea"},"vehicle_type_id":"4","last_reported":1684130971,"current_range_meters":30400,"station_id":"ce4bgup2rcd13ifvqcn0","pricing_plan_id":"free"},{"bike_id":"5964612f-346f-43a3-ae8b-86f7d42d9a5b","system_id":"levelo_inurba_marseille","lat":43.304606,"lon":5.379026,"is_reserved":false,"is_disabled":false,"rental_uris":{"android":"levelo://app?vid=5964612f-346f-43a3-ae8b-86f7d42d9a5b","ios":"levelo://app?vid=5964612f-346f-43a3-ae8b-86f7d42d9a5b"},"vehicle_type_id":"4","last_reported":1684130971,"current_range_meters":5200,"station_id":"ce4bgup2rcd13ifvqcn0","pricing_plan_id":"free"},{"bike_id":"e70ec8c7-cdb0-4c45-a84c-44eb0a1b106d","system_id":"levelo_inurba_marseille","lat":43.304606,"lon":5.379026,"is_reserved":false,"is_disabled":false,"rental_uris":{"android":"levelo://app?vid=e70ec8c7-cdb0-4c45-a84c-44eb0a1b106d","ios":"levelo://app?vid=e70ec8c7-cdb0-4c45-a84c-44eb0a1b106d"},"vehicle_type_id":"4","last_reported":1684130971,"current_range_meters":23200,"station_id":"ce4bgup2rcd13ifvqcn0","pricing_plan_id":"free"},{"bike_id":"011d67a4-7ab0-4772-9fd3-f6b7147d7e92","system_id":"levelo_inurba_marseille","lat":43.30465,"lon":5.37898,"is_reserved":false,"is_disabled":false,"rental_uris":{"android":"levelo://app?vid=011d67a4-7ab0-4772-9fd3-f6b7147d7e92","ios":"levelo://app?vid=011d67a4-7ab0-4772-9fd3-f6b7147d7e92"},"vehicle_type_id":"4","last_reported":1684130971,"current_range_meters":3600,"station_id":"ce4bgup2rcd13ifvqcn0","pricing_plan_id":"free"},{"bike_id":"d465fb3d-68f9-4022-a809-5e1a491f5694","system_id":"levelo_inurba_marseille","lat":43.304606,"lon":5.379026,"is_reserved":false,"is_disabled":false,"rental_uris":{"android":"levelo://app?vid=d465fb3d-68f9-4022-a809-5e1a491f5694","ios":"levelo://app?vid=d465fb3d-68f9-4022-a809-5e1a491f5694"},"vehicle_type_id":"4","last_reported":1684130971,"current_range_meters":26000,"station_id":"ce4bgup2rcd13ifvqcn0","pricing_plan_id":"free"},{"bike_id":"1276c490-72e6-4f7b-b449-101ebb0e4a94","system_id":"levelo_inurba_marseille","lat":43.304606,"lon":5.379026,"is_reserved":false,"is_disabled":false,"rental_uris":{"android":"levelo://app?vid=1276c490-72e6-4f7b-b449-101ebb0e4a94","ios":"levelo://app?vid=1276c490-72e6-4f7b-b449-101ebb0e4a94"},"vehicle_type_id":"4","last_reported":1684130971,"current_range_meters":31200,"station_id":"ce4bgup2rcd13ifvqcn0","pricing_plan_id":"free"},{"bike_id":"2f4f0e4f-43f4-4e4b-8fb8-e24e136d43f1","system_id":"levelo_inurba_marseille","lat":43.304606,"lon":5.379026,"is_reserved":false,"is_disabled":false,"rental_uris":{"android":"levelo://app?vid=2f4f0e4f-43f4-4e4b-8fb8-e24e136d43f1","ios":"levelo://app?vid=2f4f0e4f-43f4-4e4b-8fb8-e24e136d43f1"},"vehicle_type_id":"4","last_reported":1684130971,"current_range_meters":28000,"station_id":"ce4bgup2rcd13ifvqcn0","pricing_plan_id":"free"},{"bike_id":"0bb832db-0494-455c-a0f8-0dbf9f5d554a","system_id":"levelo_inurba_marseille","lat":43.304606,"lon":5.379026,"is_reserved":false,"is_disabled":false,"rental_uris":{"android":"levelo://app?vid=0bb832db-0494-455c-a0f8-0dbf9f5d554a","ios":"levelo://app?vid=0bb832db-0494-455c-a0f8-0dbf9f5d554a"},"vehicle_type_id":"4","last_reported":1684130971,"current_range_meters":19600,"station_id":"ce4bgup2rcd13ifvqcn0","pricing_plan_id":"free"},{"bike_id":"5e06fb65-90e2-448c-a831-306537f42159","system_id":"levelo_inurba_marseille","lat":43.304606,"lon":5.379026,"is_reserved":false,"is_disabled":false,"rental_uris":{"android":"levelo://app?vid=5e06fb65-90e2-448c-a831-306537f42159","ios":"levelo://app?vid=5e06fb65-90e2-448c-a831-306537f42159"},"vehicle_type_id":"4","last_reported":1684130971,"current_range_meters":31200,"station_id":"ce4bgup2rcd13ifvqcn0","pricing_plan_id":"free"},{"bike_id":"a3f33aed-6b16-4243-b012-98ee769061fe","system_id":"levelo_inurba_marseille","lat":43.304606,"lon":5.379026,"is_reserved":false,"is_disabled":false,"rental_uris":{"android":"levelo://app?vid=a3f33aed-6b16-4243-b012-98ee769061fe","ios":"levelo://app?vid=a3f33aed-6b16-4243-b012-98ee769061fe"},"vehicle_type_id":"4","last_reported":1684130971,"current_range_meters":30000,"station_id":"ce4bgup2rcd13ifvqcn0","pricing_plan_id":"free"},{"bike_id":"3eb1347f-5141-4ebb-b639-a4952f46c9c5","system_id":"levelo_inurba_marseille","lat":43.304606,"lon":5.379026,"is_reserved":false,"is_disabled":false,"rental_uris":{"android":"levelo://app?vid=3eb1347f-5141-4ebb-b639-a4952f46c9c5","ios":"levelo://app?vid=3eb1347f-5141-4ebb-b639-a4952f46c9c5"},"vehicle_type_id":"4","last_reported":1684130971,"current_range_meters":25200,"station_id":"ce4bgup2rcd13ifvqcn0","pricing_plan_id":"free"},{"bike_id":"a8f36b63-a689-422b-bbc9-0d047dae734a","system_id":"levelo_inurba_marseille","lat":43.304606,"lon":5.379026,"is_reserved":false,"is_disabled":false,"rental_uris":{"android":"levelo://app?vid=a8f36b63-a689-422b-bbc9-0d047dae734a","ios":"levelo://app?vid=a8f36b63-a689-422b-bbc9-0d047dae734a"},"vehicle_type_id":"4","last_reported":1684130971,"current_range_meters":13200,"station_id":"ce4bgup2rcd13ifvqcn0","pricing_plan_id":"free"},{"bike_id":"5bc8ed7e-43aa-4481-a5a1-cd4a3e032752","system_id":"levelo_inurba_marseille","lat":43.304606,"lon":5.379026,"is_reserved":false,"is_disabled":false,"rental_uris":{"android":"levelo://app?vid=5bc8ed7e-43aa-4481-a5a1-cd4a3e032752","ios":"levelo://app?vid=5bc8ed7e-43aa-4481-a5a1-cd4a3e032752"},"vehicle_type_id":"4","last_reported":1684130971,"current_range_meters":25600,"station_id":"ce4bgup2rcd13ifvqcn0","pricing_plan_id":"free"},{"bike_id":"5db9ca51-2961-430e-bc90-736d65b4ef69","system_id":"levelo_inurba_marseille","lat":43.304606,"lon":5.379026,"is_reserved":false,"is_disabled":false,"rental_uris":{"android":"levelo://app?vid=5db9ca51-2961-430e-bc90-736d65b4ef69","ios":"levelo://app?vid=5db9ca51-2961-430e-bc90-736d65b4ef69"},"vehicle_type_id":"4","last_reported":1684130971,"current_range_meters":31200,"station_id":"ce4bgup2rcd13ifvqcn0","pricing_plan_id":"free"},{"bike_id":"67a1dc06-6e27-4f63-84ac-70ed8635464c","system_id":"levelo_inurba_marseille","lat":43.304606,"lon":5.379026,"is_reserved":false,"is_disabled":false,"rental_uris":{"android":"levelo://app?vid=67a1dc06-6e27-4f63-84ac-70ed8635464c","ios":"levelo://app?vid=67a1dc06-6e27-4f63-84ac-70ed8635464c"},"vehicle_type_id":"4","last_reported":1684130971,"current_range_meters":8800,"station_id":"ce4bgup2rcd13ifvqcn0","pricing_plan_id":"free"},{"bike_id":"ace869d2-1d80-4b11-b241-6c3df0cd929d","system_id":"levelo_inurba_marseille","lat":43.304606,"lon":5.379026,"is_reserved":false,"is_disabled":false,"rental_uris":{"android":"levelo://app?vid=ace869d2-1d80-4b11-b241-6c3df0cd929d","ios":"levelo://app?vid=ace869d2-1d80-4b11-b241-6c3df0cd929d"},"vehicle_type_id":"4","last_reported":1684130971,"current_range_meters":28800,"station_id":"ce4bgup2rcd13ifvqcn0","pricing_plan_id":"free"},{"bike_id":"bae160db-d43a-435c-876d-266ef30b0b93","system_id":"levelo_inurba_marseille","lat":43.304606,"lon":5.379026,"is_reserved":false,"is_disabled":false,"rental_uris":{"android":"levelo://app?vid=bae160db-d43a-435c-876d-266ef30b0b93","ios":"levelo://app?vid=bae160db-d43a-435c-876d-266ef30b0b93"},"vehicle_type_id":"4","last_reported":1684130971,"current_range_meters":28400,"station_id":"ce4bgup2rcd13ifvqcn0","pricing_plan_id":"free"},{"bike_id":"e0d594d0-d29b-4149-a1b6-7cb57649eaae","system_id":"levelo_inurba_marseille","lat":43.304606,"lon":5.379026,"is_reserved":false,"is_disabled":false,"rental_uris":{"android":"levelo://app?vid=e0d594d0-d29b-4149-a1b6-7cb57649eaae","ios":"levelo://app?vid=e0d594d0-d29b-4149-a1b6-7cb57649eaae"},"vehicle_type_id":"4","last_reported":1684130971,"current_range_meters":27600,"station_id":"ce4bgup2rcd13ifvqcn0","pricing_plan_id":"free"},{"bike_id":"c774bf25-078e-4773-8c1f-f2de588e6228","system_id":"levelo_inurba_marseille","lat":43.304606,"lon":5.379026,"is_reserved":false,"is_disabled":false,"rental_uris":{"android":"levelo://app?vid=c774bf25-078e-4773-8c1f-f2de588e6228","ios":"levelo://app?vid=c774bf25-078e-4773-8c1f-f2de588e6228"},"vehicle_type_id":"4","last_reported":1684130971,"current_range_meters":28800,"station_id":"ce4bgup2rcd13ifvqcn0","pricing_plan_id":"free"},{"bike_id":"d0f5ced2-9210-4173-ae4d-93cf26a6479a","system_id":"levelo_inurba_marseille","lat":43.30144,"lon":5.37418,"is_reserved":false,"is_disabled":false,"rental_uris":{"android":"levelo://app?vid=d0f5ced2-9210-4173-ae4d-93cf26a6479a","ios":"levelo://app?vid=d0f5ced2-9210-4173-ae4d-93cf26a6479a"},"vehicle_type_id":"4","last_reported":1684130971,"current_range_meters":11600,"station_id":"ce4bgs92rcd13ifvqcc0","pricing_plan_id":"free"},{"bike_id":"70b30f3c-6401-447d-ab0d-82139f6cf9b8","system_id":"levelo_inurba_marseille","lat":43.32,"lon":5.38165,"is_reserved":false,"is_disabled":false,"rental_uris":{"android":"levelo://app?vid=70b30f3c-6401-447d-ab0d-82139f6cf9b8","ios":"levelo://app?vid=70b30f3c-6401-447d-ab0d-82139f6cf9b8"},"vehicle_type_id":"4","last_reported":1684130971,"current_range_meters":0,"station_id":"ce4bhr12rcd13ifvqhpg","pricing_plan_id":"free"},{"bike_id":"7c38e552-db43-4737-9558-7babdca9abbc","system_id":"levelo_inurba_marseille","lat":43.313571,"lon":5.384829,"is_reserved":false,"is_disabled":false,"rental_uris":{"android":"levelo://app?vid=7c38e552-db43-4737-9558-7babdca9abbc","ios":"levelo://app?vid=7c38e552-db43-4737-9558-7babdca9abbc"},"vehicle_type_id":"4","last_reported":1684130971,"current_range_meters":28800,"station_id":"ce4bgt92rcd13ifvqcf0","pricing_plan_id":"free"},{"bike_id":"16c7480b-4a55-450d-be1a-ec87366994e9","system_id":"levelo_inurba_marseille","lat":43.313571,"lon":5.384829,"is_reserved":false,"is_disabled":false,"rental_uris":{"android":"levelo://app?vid=16c7480b-4a55-450d-be1a-ec87366994e9","ios":"levelo://app?vid=16c7480b-4a55-450d-be1a-ec87366994e9"},"vehicle_type_id":"4","last_reported":1684130971,"current_range_meters":16400,"station_id":"ce4bgt92rcd13ifvqcf0","pricing_plan_id":"free"},{"bike_id":"9455e1f3-b130-4d75-824d-af82bd96785a","system_id":"levelo_inurba_marseille","lat":43.299222,"lon":5.365554,"is_reserved":false,"is_disabled":false,"rental_uris":{"android":"levelo://app?vid=9455e1f3-b130-4d75-824d-af82bd96785a","ios":"levelo://app?vid=9455e1f3-b130-4d75-824d-af82bd96785a"},"vehicle_type_id":"4","last_reported":1684130971,"current_range_meters":13600,"station_id":"ce4bgm92rcd13ifvqbr0","pricing_plan_id":"free"},{"bike_id":"6233ea0b-f7a2-4eac-8be0-1e07ab6bd766","system_id":"levelo_inurba_marseille","lat":43.299222,"lon":5.365554,"is_reserved":false,"is_disabled":false,"rental_uris":{"android":"levelo://app?vid=6233ea0b-f7a2-4eac-8be0-1e07ab6bd766","ios":"levelo://app?vid=6233ea0b-f7a2-4eac-8be0-1e07ab6bd766"},"vehicle_type_id":"4","last_reported":1684130971,"current_range_meters":4800,"station_id":"ce4bgm92rcd13ifvqbr0","pricing_plan_id":"free"},{"bike_id":"2c0c9ce1-5f30-402d-88c2-133a37c74974","system_id":"levelo_inurba_marseille","lat":43.305364,"lon":5.384119,"is_reserved":false,"is_disabled":false,"rental_uris":{"android":"levelo://app?vid=2c0c9ce1-5f30-402d-88c2-133a37c74974","ios":"levelo://app?vid=2c0c9ce1-5f30-402d-88c2-133a37c74974"},"vehicle_type_id":"4","last_reported":1684130971,"current_range_meters":26400,"station_id":"ce4bgg92rcd13ifvqb30","pricing_plan_id":"free"},{"bike_id":"6a189226-a063-4950-b3ee-0c40718a3f3b","system_id":"levelo_inurba_marseille","lat":43.298433,"lon":5.362774,"is_reserved":false,"is_disabled":false,"rental_uris":{"android":"levelo://app?vid=6a189226-a063-4950-b3ee-0c40718a3f3b","ios":"levelo://app?vid=6a189226-a063-4950-b3ee-0c40718a3f3b"},"vehicle_type_id":"4","last_reported":1684130971,"current_range_meters":29600,"station_id":"ce4bgpp2rcd13ifvqc3g","pricing_plan_id":"free"},{"bike_id":"f473e951-ac01-4b43-b7da-1bbf29c3fac0","system_id":"levelo_inurba_marseille","lat":43.298433,"lon":5.362774,"is_reserved":false,"is_disabled":false,"rental_uris":{"android":"levelo://app?vid=f473e951-ac01-4b43-b7da-1bbf29c3fac0","ios":"levelo://app?vid=f473e951-ac01-4b43-b7da-1bbf29c3fac0"},"vehicle_type_id":"4","last_reported":1684130971,"current_range_meters":29200,"station_id":"ce4bgpp2rcd13ifvqc3g","pricing_plan_id":"free"},{"bike_id":"82e79927-c0b2-4968-8bb4-d7b2b8ad7110","system_id":"levelo_inurba_marseille","lat":43.298433,"lon":5.362774,"is_reserved":false,"is_disabled":false,"rental_uris":{"android":"levelo://app?vid=82e79927-c0b2-4968-8bb4-d7b2b8ad7110","ios":"levelo://app?vid=82e79927-c0b2-4968-8bb4-d7b2b8ad7110"},"vehicle_type_id":"4","last_reported":1684130971,"current_range_meters":30000,"station_id":"ce4bgpp2rcd13ifvqc3g","pricing_plan_id":"free"},{"bike_id":"20939ce2-4196-494f-88a1-a9789c32405c","system_id":"levelo_inurba_marseille","lat":43.298433,"lon":5.362774,"is_reserved":false,"is_disabled":false,"rental_uris":{"android":"levelo://app?vid=20939ce2-4196-494f-88a1-a9789c32405c","ios":"levelo://app?vid=20939ce2-4196-494f-88a1-a9789c32405c"},"vehicle_type_id":"4","last_reported":1684130971,"current_range_meters":28000,"station_id":"ce4bgpp2rcd13ifvqc3g","pricing_plan_id":"free"},{"bike_id":"e41d030a-c6f4-4d3d-9806-6545c3274dae","system_id":"levelo_inurba_marseille","lat":43.298433,"lon":5.362774,"is_reserved":false,"is_disabled":false,"rental_uris":{"android":"levelo://app?vid=e41d030a-c6f4-4d3d-9806-6545c3274dae","ios":"levelo://app?vid=e41d030a-c6f4-4d3d-9806-6545c3274dae"},"vehicle_type_id":"4","last_reported":1684130971,"current_range_meters":11600,"station_id":"ce4bgpp2rcd13ifvqc3g","pricing_plan_id":"free"},{"bike_id":"55be3a0d-27e8-44ad-a2cd-30218d44be86","system_id":"levelo_inurba_marseille","lat":43.305364,"lon":5.384119,"is_reserved":false,"is_disabled":false,"rental_uris":{"android":"levelo://app?vid=55be3a0d-27e8-44ad-a2cd-30218d44be86","ios":"levelo://app?vid=55be3a0d-27e8-44ad-a2cd-30218d44be86"},"vehicle_type_id":"4","last_reported":1684130971,"current_range_meters":24000,"station_id":"ce4bgg92rcd13ifvqb30","pricing_plan_id":"free"},{"bike_id":"e39cd5d6-6159-4906-a689-39e34e032463","system_id":"levelo_inurba_marseille","lat":43.298433,"lon":5.362774,"is_reserved":false,"is_disabled":false,"rental_uris":{"android":"levelo://app?vid=e39cd5d6-6159-4906-a689-39e34e032463","ios":"levelo://app?vid=e39cd5d6-6159-4906-a689-39e34e032463"},"vehicle_type_id":"4","last_reported":1684130971,"current_range_meters":27600,"station_id":"ce4bgpp2rcd13ifvqc3g","pricing_plan_id":"free"},{"bike_id":"50d26511-2476-44a9-91e2-3288a344d3a5","system_id":"levelo_inurba_marseille","lat":43.298433,"lon":5.362774,"is_reserved":false,"is_disabled":false,"rental_uris":{"android":"levelo://app?vid=50d26511-2476-44a9-91e2-3288a344d3a5","ios":"levelo://app?vid=50d26511-2476-44a9-91e2-3288a344d3a5"},"vehicle_type_id":"4","last_reported":1684130971,"current_range_meters":28400,"station_id":"ce4bgpp2rcd13ifvqc3g","pricing_plan_id":"free"},{"bike_id":"5c1c9a2c-ad28-4907-be99-f09d0e22f1c0","system_id":"levelo_inurba_marseille","lat":43.31181,"lon":5.38719,"is_reserved":false,"is_disabled":false,"rental_uris":{"android":"levelo://app?vid=5c1c9a2c-ad28-4907-be99-f09d0e22f1c0","ios":"levelo://app?vid=5c1c9a2c-ad28-4907-be99-f09d0e22f1c0"},"vehicle_type_id":"4","last_reported":1684130971,"current_range_meters":0,"station_id":"ce4bgv12rcd13ifvqcp0","pricing_plan_id":"free"},{"bike_id":"2f96f4b7-d3f1-4b87-b98f-caf50ba6d13d","system_id":"levelo_inurba_marseille","lat":43.3277,"lon":5.36697,"is_reserved":false,"is_disabled":false,"rental_uris":{"android":"levelo://app?vid=2f96f4b7-d3f1-4b87-b98f-caf50ba6d13d","ios":"levelo://app?vid=2f96f4b7-d3f1-4b87-b98f-caf50ba6d13d"},"vehicle_type_id":"4","last_reported":1684130971,"current_range_meters":4800,"station_id":"","pricing_plan_id":"free"},{"bike_id":"e888ba52-688b-4a73-8b99-e09c27686c1c","system_id":"levelo_inurba_marseille","lat":43.328371,"lon":5.366909,"is_reserved":false,"is_disabled":false,"rental_uris":{"android":"levelo://app?vid=e888ba52-688b-4a73-8b99-e09c27686c1c","ios":"levelo://app?vid=e888ba52-688b-4a73-8b99-e09c27686c1c"},"vehicle_type_id":"4","last_reported":1684130971,"current_range_meters":14800,"station_id":"ce4bhs92rcd13ifvqi0g","pricing_plan_id":"free"},{"bike_id":"aaca5fdf-1dee-4b81-aa4f-2d7102ec2d0c","system_id":"levelo_inurba_marseille","lat":43.32821,"lon":5.36681,"is_reserved":false,"is_disabled":false,"rental_uris":{"android":"levelo://app?vid=aaca5fdf-1dee-4b81-aa4f-2d7102ec2d0c","ios":"levelo://app?vid=aaca5fdf-1dee-4b81-aa4f-2d7102ec2d0c"},"vehicle_type_id":"4","last_reported":1684130971,"current_range_meters":16800,"station_id":"ce4bhs92rcd13ifvqi0g","pricing_plan_id":"free"},{"bike_id":"96e15ffa-c3cf-44ea-80e9-5b5a2cbd10d1","system_id":"levelo_inurba_marseille","lat":43.32826,"lon":5.36694,"is_reserved":false,"is_disabled":false,"rental_uris":{"android":"levelo://app?vid=96e15ffa-c3cf-44ea-80e9-5b5a2cbd10d1","ios":"levelo://app?vid=96e15ffa-c3cf-44ea-80e9-5b5a2cbd10d1"},"vehicle_type_id":"4","last_reported":1684130971,"current_range_meters":24000,"station_id":"ce4bhs92rcd13ifvqi0g","pricing_plan_id":"free"},{"bike_id":"b449a4e4-2b40-420f-9a30-3bbbb718557f","system_id":"levelo_inurba_marseille","lat":43.32828,"lon":5.36681,"is_reserved":false,"is_disabled":false,"rental_uris":{"android":"levelo://app?vid=b449a4e4-2b40-420f-9a30-3bbbb718557f","ios":"levelo://app?vid=b449a4e4-2b40-420f-9a30-3bbbb718557f"},"vehicle_type_id":"4","last_reported":1684130971,"current_range_meters":13200,"station_id":"ce4bhs92rcd13ifvqi0g","pricing_plan_id":"free"},{"bike_id":"0b6427df-3608-417c-8846-6545ddce1520","system_id":"levelo_inurba_marseille","lat":43.328371,"lon":5.366909,"is_reserved":false,"is_disabled":false,"rental_uris":{"android":"levelo://app?vid=0b6427df-3608-417c-8846-6545ddce1520","ios":"levelo://app?vid=0b6427df-3608-417c-8846-6545ddce1520"},"vehicle_type_id":"4","last_reported":1684130971,"current_range_meters":22800,"station_id":"ce4bhs92rcd13ifvqi0g","pricing_plan_id":"free"},{"bike_id":"4a0a9103-82cf-424c-9693-d03373ec644a","system_id":"levelo_inurba_marseille","lat":43.328371,"lon":5.366909,"is_reserved":false,"is_disabled":false,"rental_uris":{"android":"levelo://app?vid=4a0a9103-82cf-424c-9693-d03373ec644a","ios":"levelo://app?vid=4a0a9103-82cf-424c-9693-d03373ec644a"},"vehicle_type_id":"4","last_reported":1684130971,"current_range_meters":22000,"station_id":"ce4bhs92rcd13ifvqi0g","pricing_plan_id":"free"},{"bike_id":"57db9bef-a53b-4c3a-a980-27dd062faa04","system_id":"levelo_inurba_marseille","lat":43.328371,"lon":5.366909,"is_reserved":false,"is_disabled":false,"rental_uris":{"android":"levelo://app?vid=57db9bef-a53b-4c3a-a980-27dd062faa04","ios":"levelo://app?vid=57db9bef-a53b-4c3a-a980-27dd062faa04"},"vehicle_type_id":"4","last_reported":1684130971,"current_range_meters":24000,"station_id":"ce4bhs92rcd13ifvqi0g","pricing_plan_id":"free"},{"bike_id":"acb3285f-1a59-4939-bacf-1321efdfa740","system_id":"levelo_inurba_marseille","lat":43.3283,"lon":5.36688,"is_reserved":false,"is_disabled":false,"rental_uris":{"android":"levelo://app?vid=acb3285f-1a59-4939-bacf-1321efdfa740","ios":"levelo://app?vid=acb3285f-1a59-4939-bacf-1321efdfa740"},"vehicle_type_id":"4","last_reported":1684130971,"current_range_meters":21600,"station_id":"ce4bhs92rcd13ifvqi0g","pricing_plan_id":"free"},{"bike_id":"5bc79a87-8c51-4256-972d-10ecdbdb6305","system_id":"levelo_inurba_marseille","lat":43.328371,"lon":5.366912,"is_reserved":false,"is_disabled":false,"rental_uris":{"android":"levelo://app?vid=5bc79a87-8c51-4256-972d-10ecdbdb6305","ios":"levelo://app?vid=5bc79a87-8c51-4256-972d-10ecdbdb6305"},"vehicle_type_id":"4","last_reported":1684130971,"current_range_meters":12000,"station_id":"ce4bhs92rcd13ifvqi0g","pricing_plan_id":"free"},{"bike_id":"dff8f60e-2589-4771-b1f4-fa1893563f27","system_id":"levelo_inurba_marseille","lat":43.32831,"lon":5.36691,"is_reserved":false,"is_disabled":false,"rental_uris":{"android":"levelo://app?vid=dff8f60e-2589-4771-b1f4-fa1893563f27","ios":"levelo://app?vid=dff8f60e-2589-4771-b1f4-fa1893563f27"},"vehicle_type_id":"4","last_reported":1684130971,"current_range_meters":2400,"station_id":"ce4bhs92rcd13ifvqi0g","pricing_plan_id":"free"},{"bike_id":"a27babdb-3d57-459b-aed1-c234cf63a9ed","system_id":"levelo_inurba_marseille","lat":43.328371,"lon":5.366912,"is_reserved":false,"is_disabled":false,"rental_uris":{"android":"levelo://app?vid=a27babdb-3d57-459b-aed1-c234cf63a9ed","ios":"levelo://app?vid=a27babdb-3d57-459b-aed1-c234cf63a9ed"},"vehicle_type_id":"4","last_reported":1684130971,"current_range_meters":6800,"station_id":"ce4bhs92rcd13ifvqi0g","pricing_plan_id":"free"},{"bike_id":"3f1ee445-79dc-4a77-99ec-f861244bce43","system_id":"levelo_inurba_marseille","lat":43.32832,"lon":5.36697,"is_reserved":false,"is_disabled":false,"rental_uris":{"android":"levelo://app?vid=3f1ee445-79dc-4a77-99ec-f861244bce43","ios":"levelo://app?vid=3f1ee445-79dc-4a77-99ec-f861244bce43"},"vehicle_type_id":"4","last_reported":1684130971,"current_range_meters":18400,"station_id":"ce4bhs92rcd13ifvqi0g","pricing_plan_id":"free"},{"bike_id":"03aabb40-6213-4726-8efd-c29eca272db0","system_id":"levelo_inurba_marseille","lat":43.328371,"lon":5.366909,"is_reserved":false,"is_disabled":false,"rental_uris":{"android":"levelo://app?vid=03aabb40-6213-4726-8efd-c29eca272db0","ios":"levelo://app?vid=03aabb40-6213-4726-8efd-c29eca272db0"},"vehicle_type_id":"4","last_reported":1684130971,"current_range_meters":6800,"station_id":"ce4bhs92rcd13ifvqi0g","pricing_plan_id":"free"},{"bike_id":"4b3b8c7e-c60b-4f83-8e71-e80094005b2c","system_id":"levelo_inurba_marseille","lat":43.328371,"lon":5.366909,"is_reserved":false,"is_disabled":false,"rental_uris":{"android":"levelo://app?vid=4b3b8c7e-c60b-4f83-8e71-e80094005b2c","ios":"levelo://app?vid=4b3b8c7e-c60b-4f83-8e71-e80094005b2c"},"vehicle_type_id":"4","last_reported":1684130971,"current_range_meters":8400,"station_id":"ce4bhs92rcd13ifvqi0g","pricing_plan_id":"free"},{"bike_id":"f7e16b9b-dda5-4bba-9d80-00bc064f0f46","system_id":"levelo_inurba_marseille","lat":43.32835,"lon":5.36685,"is_reserved":false,"is_disabled":false,"rental_uris":{"android":"levelo://app?vid=f7e16b9b-dda5-4bba-9d80-00bc064f0f46","ios":"levelo://app?vid=f7e16b9b-dda5-4bba-9d80-00bc064f0f46"},"vehicle_type_id":"4","last_reported":1684130971,"current_range_meters":10800,"station_id":"ce4bhs92rcd13ifvqi0g","pricing_plan_id":"free"},{"bike_id":"216acc05-cd3c-4a35-b67b-82ab6e8e46bc","system_id":"levelo_inurba_marseille","lat":43.32836,"lon":5.36694,"is_reserved":false,"is_disabled":false,"rental_uris":{"android":"levelo://app?vid=216acc05-cd3c-4a35-b67b-82ab6e8e46bc","ios":"levelo://app?vid=216acc05-cd3c-4a35-b67b-82ab6e8e46bc"},"vehicle_type_id":"4","last_reported":1684130971,"current_range_meters":12400,"station_id":"ce4bhs92rcd13ifvqi0g","pricing_plan_id":"free"},{"bike_id":"ef619222-d86f-4984-a46f-cda033f9cc5b","system_id":"levelo_inurba_marseille","lat":43.32837,"lon":5.36686,"is_reserved":false,"is_disabled":false,"rental_uris":{"android":"levelo://app?vid=ef619222-d86f-4984-a46f-cda033f9cc5b","ios":"levelo://app?vid=ef619222-d86f-4984-a46f-cda033f9cc5b"},"vehicle_type_id":"4","last_reported":1684130971,"current_range_meters":26800,"station_id":"ce4bhs92rcd13ifvqi0g","pricing_plan_id":"free"},{"bike_id":"ba910e9c-281a-4b12-aa30-4a8c5eb84206","system_id":"levelo_inurba_marseille","lat":43.317557,"lon":5.390173,"is_reserved":false,"is_disabled":false,"rental_uris":{"android":"levelo://app?vid=ba910e9c-281a-4b12-aa30-4a8c5eb84206","ios":"levelo://app?vid=ba910e9c-281a-4b12-aa30-4a8c5eb84206"},"vehicle_type_id":"4","last_reported":1684130971,"current_range_meters":18000,"station_id":"ce4bhqp2rcd13ifvqhng","pricing_plan_id":"free"},{"bike_id":"60e033dd-1b5e-482d-98a5-fc9496df87e2","system_id":"levelo_inurba_marseille","lat":43.29573,"lon":5.367355,"is_reserved":false,"is_disabled":false,"rental_uris":{"android":"levelo://app?vid=60e033dd-1b5e-482d-98a5-fc9496df87e2","ios":"levelo://app?vid=60e033dd-1b5e-482d-98a5-fc9496df87e2"},"vehicle_type_id":"4","last_reported":1684130971,"current_range_meters":0,"station_id":"ce4bgph2rcd13ifvqc2g","pricing_plan_id":"free"},{"bike_id":"89ad9694-5a3c-4e7f-9699-a6290f5fccda","system_id":"levelo_inurba_marseille","lat":43.296921,"lon":5.376579,"is_reserved":false,"is_disabled":false,"rental_uris":{"android":"levelo://app?vid=89ad9694-5a3c-4e7f-9699-a6290f5fccda","ios":"levelo://app?vid=89ad9694-5a3c-4e7f-9699-a6290f5fccda"},"vehicle_type_id":"4","last_reported":1684130971,"current_range_meters":0,"station_id":"ce4bgkh2rcd13ifvqbl0","pricing_plan_id":"free"},{"bike_id":"b37806a5-398a-4f4c-b513-9d127e54c4a3","system_id":"levelo_inurba_marseille","lat":43.309589,"lon":5.390258,"is_reserved":false,"is_disabled":false,"rental_uris":{"android":"levelo://app?vid=b37806a5-398a-4f4c-b513-9d127e54c4a3","ios":"levelo://app?vid=b37806a5-398a-4f4c-b513-9d127e54c4a3"},"vehicle_type_id":"4","last_reported":1684130971,"current_range_meters":30000,"station_id":"ce4bgup2rcd13ifvqco0","pricing_plan_id":"free"},{"bike_id":"7efd7420-5589-4039-9e84-038cab6460f9","system_id":"levelo_inurba_marseille","lat":43.309589,"lon":5.390258,"is_reserved":false,"is_disabled":false,"rental_uris":{"android":"levelo://app?vid=7efd7420-5589-4039-9e84-038cab6460f9","ios":"levelo://app?vid=7efd7420-5589-4039-9e84-038cab6460f9"},"vehicle_type_id":"4","last_reported":1684130971,"current_range_meters":1200,"station_id":"ce4bgup2rcd13ifvqco0","pricing_plan_id":"free"},{"bike_id":"d2e671ad-6fdb-45b5-b73f-26180fbf7991","system_id":"levelo_inurba_marseille","lat":43.296935,"lon":5.376544,"is_reserved":false,"is_disabled":false,"rental_uris":{"android":"levelo://app?vid=d2e671ad-6fdb-45b5-b73f-26180fbf7991","ios":"levelo://app?vid=d2e671ad-6fdb-45b5-b73f-26180fbf7991"},"vehicle_type_id":"4","last_reported":1684130971,"current_range_meters":30400,"station_id":"ce4bgkh2rcd13ifvqbl0","pricing_plan_id":"free"},{"bike_id":"d41c8c87-ba63-4762-bead-82348b5715d0","system_id":"levelo_inurba_marseille","lat":43.309589,"lon":5.390258,"is_reserved":false,"is_disabled":false,"rental_uris":{"android":"levelo://app?vid=d41c8c87-ba63-4762-bead-82348b5715d0","ios":"levelo://app?vid=d41c8c87-ba63-4762-bead-82348b5715d0"},"vehicle_type_id":"4","last_reported":1684130971,"current_range_meters":25600,"station_id":"ce4bgup2rcd13ifvqco0","pricing_plan_id":"free"},{"bike_id":"5261910e-3b1c-4085-93ea-1d77eb9bbeef","system_id":"levelo_inurba_marseille","lat":43.317557,"lon":5.390173,"is_reserved":false,"is_disabled":false,"rental_uris":{"android":"levelo://app?vid=5261910e-3b1c-4085-93ea-1d77eb9bbeef","ios":"levelo://app?vid=5261910e-3b1c-4085-93ea-1d77eb9bbeef"},"vehicle_type_id":"4","last_reported":1684130971,"current_range_meters":15200,"station_id":"ce4bhqp2rcd13ifvqhng","pricing_plan_id":"free"},{"bike_id":"6f6b02ce-a50b-443a-a31d-aed834771e7b","system_id":"levelo_inurba_marseille","lat":43.31447,"lon":5.3928,"is_reserved":false,"is_disabled":false,"rental_uris":{"android":"levelo://app?vid=6f6b02ce-a50b-443a-a31d-aed834771e7b","ios":"levelo://app?vid=6f6b02ce-a50b-443a-a31d-aed834771e7b"},"vehicle_type_id":"4","last_reported":1684130971,"current_range_meters":0,"station_id":"","pricing_plan_id":"free"},{"bike_id":"2ff023d1-4f17-4d13-897c-0016bd78796c","system_id":"levelo_inurba_marseille","lat":43.3237,"lon":5.38886,"is_reserved":false,"is_disabled":false,"rental_uris":{"android":"levelo://app?vid=2ff023d1-4f17-4d13-897c-0016bd78796c","ios":"levelo://app?vid=2ff023d1-4f17-4d13-897c-0016bd78796c"},"vehicle_type_id":"4","last_reported":1684130971,"current_range_meters":800,"station_id":"ce4bhqp2rcd13ifvqhog","pricing_plan_id":"free"},{"bike_id":"2bb2710d-8e42-4479-a1d5-476efd3b1f89","system_id":"levelo_inurba_marseille","lat":43.293249,"lon":5.371578,"is_reserved":false,"is_disabled":false,"rental_uris":{"android":"levelo://app?vid=2bb2710d-8e42-4479-a1d5-476efd3b1f89","ios":"levelo://app?vid=2bb2710d-8e42-4479-a1d5-476efd3b1f89"},"vehicle_type_id":"4","last_reported":1684130971,"current_range_meters":2800,"station_id":"ce4bgh92rcd13ifvqb40","pricing_plan_id":"free"},{"bike_id":"99d14452-86a0-47ad-906c-080f81938e29","system_id":"levelo_inurba_marseille","lat":43.293249,"lon":5.371578,"is_reserved":false,"is_disabled":false,"rental_uris":{"android":"levelo://app?vid=99d14452-86a0-47ad-906c-080f81938e29","ios":"levelo://app?vid=99d14452-86a0-47ad-906c-080f81938e29"},"vehicle_type_id":"4","last_reported":1684130971,"current_range_meters":23600,"station_id":"ce4bgh92rcd13ifvqb40","pricing_plan_id":"free"},{"bike_id":"f1866966-0f4e-4c23-8f57-6ab6b1ba5efe","system_id":"levelo_inurba_marseille","lat":43.292749,"lon":5.368402,"is_reserved":false,"is_disabled":false,"rental_uris":{"android":"levelo://app?vid=f1866966-0f4e-4c23-8f57-6ab6b1ba5efe","ios":"levelo://app?vid=f1866966-0f4e-4c23-8f57-6ab6b1ba5efe"},"vehicle_type_id":"4","last_reported":1684130971,"current_range_meters":11200,"station_id":"ce4bhbp2rcd13ifvqesg","pricing_plan_id":"free"},{"bike_id":"a71ef9d4-78f5-44d5-82ba-5fd374a8ee6b","system_id":"levelo_inurba_marseille","lat":43.305994,"lon":5.393687,"is_reserved":false,"is_disabled":false,"rental_uris":{"android":"levelo://app?vid=a71ef9d4-78f5-44d5-82ba-5fd374a8ee6b","ios":"levelo://app?vid=a71ef9d4-78f5-44d5-82ba-5fd374a8ee6b"},"vehicle_type_id":"4","last_reported":1684130971,"current_range_meters":31200,"station_id":"ce4bh0p2rcd13ifvqd80","pricing_plan_id":"free"},{"bike_id":"ebaec562-b8e3-4bbb-8289-f207f6588081","system_id":"levelo_inurba_marseille","lat":43.30608,"lon":5.39366,"is_reserved":false,"is_disabled":false,"rental_uris":{"android":"levelo://app?vid=ebaec562-b8e3-4bbb-8289-f207f6588081","ios":"levelo://app?vid=ebaec562-b8e3-4bbb-8289-f207f6588081"},"vehicle_type_id":"4","last_reported":1684130971,"current_range_meters":26400,"station_id":"ce4bh0p2rcd13ifvqd80","pricing_plan_id":"free"},{"bike_id":"8cdc5848-a3e9-4714-94ac-d88d1fab7fcd","system_id":"levelo_inurba_marseille","lat":43.30591,"lon":5.39358,"is_reserved":false,"is_disabled":false,"rental_uris":{"android":"levelo://app?vid=8cdc5848-a3e9-4714-94ac-d88d1fab7fcd","ios":"levelo://app?vid=8cdc5848-a3e9-4714-94ac-d88d1fab7fcd"},"vehicle_type_id":"4","last_reported":1684130971,"current_range_meters":24000,"station_id":"ce4bh0p2rcd13ifvqd80","pricing_plan_id":"free"},{"bike_id":"3b82e003-5d9b-434d-8722-6b43ff254a7b","system_id":"levelo_inurba_marseille","lat":43.303,"lon":5.39193,"is_reserved":false,"is_disabled":false,"rental_uris":{"android":"levelo://app?vid=3b82e003-5d9b-434d-8722-6b43ff254a7b","ios":"levelo://app?vid=3b82e003-5d9b-434d-8722-6b43ff254a7b"},"vehicle_type_id":"4","last_reported":1684130971,"current_range_meters":0,"station_id":"ce4bgkh2rcd13ifvqbk0","pricing_plan_id":"free"},{"bike_id":"fc626534-b244-48bf-8e6a-1c7bc1ebf55c","system_id":"levelo_inurba_marseille","lat":43.2936,"lon":5.37835,"is_reserved":false,"is_disabled":false,"rental_uris":{"android":"levelo://app?vid=fc626534-b244-48bf-8e6a-1c7bc1ebf55c","ios":"levelo://app?vid=fc626534-b244-48bf-8e6a-1c7bc1ebf55c"},"vehicle_type_id":"4","last_reported":1684130971,"current_range_meters":21600,"station_id":"ce4bgjh2rcd13ifvqbf0","pricing_plan_id":"free"},{"bike_id":"ea3ea279-6c6b-4a64-9059-ba771e7d6f42","system_id":"levelo_inurba_marseille","lat":43.2923,"lon":5.36046,"is_reserved":false,"is_disabled":false,"rental_uris":{"android":"levelo://app?vid=ea3ea279-6c6b-4a64-9059-ba771e7d6f42","ios":"levelo://app?vid=ea3ea279-6c6b-4a64-9059-ba771e7d6f42"},"vehicle_type_id":"4","last_reported":1684130971,"current_range_meters":31200,"station_id":"ce4bhbh2rcd13ifvqeqg","pricing_plan_id":"free"},{"bike_id":"8d33d5b4-176f-4e4f-86af-426bfbb687bf","system_id":"levelo_inurba_marseille","lat":43.30088,"lon":5.39073,"is_reserved":false,"is_disabled":false,"rental_uris":{"android":"levelo://app?vid=8d33d5b4-176f-4e4f-86af-426bfbb687bf","ios":"levelo://app?vid=8d33d5b4-176f-4e4f-86af-426bfbb687bf"},"vehicle_type_id":"4","last_reported":1684130971,"current_range_meters":31200,"station_id":"","pricing_plan_id":"free"},{"bike_id":"2daf2be6-2b19-4c95-84aa-9e3ac13a6890","system_id":"levelo_inurba_marseille","lat":43.292663,"lon":5.376389,"is_reserved":false,"is_disabled":false,"rental_uris":{"android":"levelo://app?vid=2daf2be6-2b19-4c95-84aa-9e3ac13a6890","ios":"levelo://app?vid=2daf2be6-2b19-4c95-84aa-9e3ac13a6890"},"vehicle_type_id":"4","last_reported":1684130971,"current_range_meters":4400,"station_id":"ce4bgi12rcd13ifvqb80","pricing_plan_id":"free"},{"bike_id":"faac9647-32da-4b0c-8070-a8b24b06374b","system_id":"levelo_inurba_marseille","lat":43.29207,"lon":5.35797,"is_reserved":false,"is_disabled":false,"rental_uris":{"android":"levelo://app?vid=faac9647-32da-4b0c-8070-a8b24b06374b","ios":"levelo://app?vid=faac9647-32da-4b0c-8070-a8b24b06374b"},"vehicle_type_id":"4","last_reported":1684130971,"current_range_meters":7200,"station_id":"ce4bhb12rcd13ifvqel0","pricing_plan_id":"free"},{"bike_id":"caa694b2-2ac7-4228-89f0-8564a9f21e17","system_id":"levelo_inurba_marseille","lat":43.31563,"lon":5.39655,"is_reserved":false,"is_disabled":false,"rental_uris":{"android":"levelo://app?vid=caa694b2-2ac7-4228-89f0-8564a9f21e17","ios":"levelo://app?vid=caa694b2-2ac7-4228-89f0-8564a9f21e17"},"vehicle_type_id":"4","last_reported":1684130971,"current_range_meters":0,"station_id":"","pricing_plan_id":"free"},{"bike_id":"7f161dcb-07c5-4103-88be-9d99841ae915","system_id":"levelo_inurba_marseille","lat":43.29185,"lon":5.35798,"is_reserved":false,"is_disabled":false,"rental_uris":{"android":"levelo://app?vid=7f161dcb-07c5-4103-88be-9d99841ae915","ios":"levelo://app?vid=7f161dcb-07c5-4103-88be-9d99841ae915"},"vehicle_type_id":"4","last_reported":1684130971,"current_range_meters":0,"station_id":"","pricing_plan_id":"free"},{"bike_id":"04ad210a-9fc4-4a03-800a-98d65b74a8f8","system_id":"levelo_inurba_marseille","lat":43.309038,"lon":5.396546,"is_reserved":false,"is_disabled":false,"rental_uris":{"android":"levelo://app?vid=04ad210a-9fc4-4a03-800a-98d65b74a8f8","ios":"levelo://app?vid=04ad210a-9fc4-4a03-800a-98d65b74a8f8"},"vehicle_type_id":"4","last_reported":1684130971,"current_range_meters":25600,"station_id":"ce4bh012rcd13ifvqcv0","pricing_plan_id":"free"},{"bike_id":"993bcb33-9986-41d7-a1de-2a9e1daf2a5e","system_id":"levelo_inurba_marseille","lat":43.29529,"lon":5.385581,"is_reserved":false,"is_disabled":false,"rental_uris":{"android":"levelo://app?vid=993bcb33-9986-41d7-a1de-2a9e1daf2a5e","ios":"levelo://app?vid=993bcb33-9986-41d7-a1de-2a9e1daf2a5e"},"vehicle_type_id":"4","last_reported":1684130971,"current_range_meters":5600,"station_id":"ce4bgih2rcd13ifvqba0","pricing_plan_id":"free"},{"bike_id":"e8e6f793-ea39-4306-b8d1-8614c5b361cd","system_id":"levelo_inurba_marseille","lat":43.29529,"lon":5.385581,"is_reserved":false,"is_disabled":false,"rental_uris":{"android":"levelo://app?vid=e8e6f793-ea39-4306-b8d1-8614c5b361cd","ios":"levelo://app?vid=e8e6f793-ea39-4306-b8d1-8614c5b361cd"},"vehicle_type_id":"4","last_reported":1684130971,"current_range_meters":8000,"station_id":"ce4bgih2rcd13ifvqba0","pricing_plan_id":"free"},{"bike_id":"2f4fd986-d960-470c-92d5-39722e6137e2","system_id":"levelo_inurba_marseille","lat":43.302008,"lon":5.394694,"is_reserved":false,"is_disabled":false,"rental_uris":{"android":"levelo://app?vid=2f4fd986-d960-470c-92d5-39722e6137e2","ios":"levelo://app?vid=2f4fd986-d960-470c-92d5-39722e6137e2"},"vehicle_type_id":"4","last_reported":1684130971,"current_range_meters":30000,"station_id":"ce4bh0p2rcd13ifvqd70","pricing_plan_id":"free"},{"bike_id":"55cc52b7-16e3-4a85-8825-9aefb1b9013d","system_id":"levelo_inurba_marseille","lat":43.302008,"lon":5.394694,"is_reserved":false,"is_disabled":false,"rental_uris":{"android":"levelo://app?vid=55cc52b7-16e3-4a85-8825-9aefb1b9013d","ios":"levelo://app?vid=55cc52b7-16e3-4a85-8825-9aefb1b9013d"},"vehicle_type_id":"4","last_reported":1684130971,"current_range_meters":26000,"station_id":"ce4bh0p2rcd13ifvqd70","pricing_plan_id":"free"},{"bike_id":"6431b39f-509c-482d-87dc-a3e25a8dc895","system_id":"levelo_inurba_marseille","lat":43.302008,"lon":5.394694,"is_reserved":false,"is_disabled":false,"rental_uris":{"android":"levelo://app?vid=6431b39f-509c-482d-87dc-a3e25a8dc895","ios":"levelo://app?vid=6431b39f-509c-482d-87dc-a3e25a8dc895"},"vehicle_type_id":"4","last_reported":1684130971,"current_range_meters":28000,"station_id":"ce4bh0p2rcd13ifvqd70","pricing_plan_id":"free"},{"bike_id":"fbaa0494-094f-4fdc-ac3a-491c254c33ce","system_id":"levelo_inurba_marseille","lat":43.294153,"lon":5.386305,"is_reserved":false,"is_disabled":false,"rental_uris":{"android":"levelo://app?vid=fbaa0494-094f-4fdc-ac3a-491c254c33ce","ios":"levelo://app?vid=fbaa0494-094f-4fdc-ac3a-491c254c33ce"},"vehicle_type_id":"4","last_reported":1684130971,"current_range_meters":400,"station_id":"ce4bh2h2rcd13ifvqdh0","pricing_plan_id":"free"},{"bike_id":"f716e09a-adfc-46d9-8d3c-bd74b7c0426a","system_id":"levelo_inurba_marseille","lat":43.29423,"lon":5.3863,"is_reserved":false,"is_disabled":false,"rental_uris":{"android":"levelo://app?vid=f716e09a-adfc-46d9-8d3c-bd74b7c0426a","ios":"levelo://app?vid=f716e09a-adfc-46d9-8d3c-bd74b7c0426a"},"vehicle_type_id":"4","last_reported":1684130971,"current_range_meters":0,"station_id":"ce4bh2h2rcd13ifvqdh0","pricing_plan_id":"free"},{"bike_id":"9f129774-36e1-42f1-8229-a7c2be11d89e","system_id":"levelo_inurba_marseille","lat":43.30487,"lon":5.39706,"is_reserved":false,"is_disabled":false,"rental_uris":{"android":"levelo://app?vid=9f129774-36e1-42f1-8229-a7c2be11d89e","ios":"levelo://app?vid=9f129774-36e1-42f1-8229-a7c2be11d89e"},"vehicle_type_id":"4","last_reported":1684130971,"current_range_meters":12400,"station_id":"","pricing_plan_id":"free"},{"bike_id":"78b3539f-40e9-44d0-b931-39f07aff1083","system_id":"levelo_inurba_marseille","lat":43.289184,"lon":5.366408,"is_reserved":false,"is_disabled":false,"rental_uris":{"android":"levelo://app?vid=78b3539f-40e9-44d0-b931-39f07aff1083","ios":"levelo://app?vid=78b3539f-40e9-44d0-b931-39f07aff1083"},"vehicle_type_id":"4","last_reported":1684130971,"current_range_meters":24400,"station_id":"ce4bhap2rcd13ifvqek0","pricing_plan_id":"free"},{"bike_id":"f55d3748-f36a-423c-b099-f419a6e7d5c0","system_id":"levelo_inurba_marseille","lat":43.289468,"lon":5.363719,"is_reserved":false,"is_disabled":false,"rental_uris":{"android":"levelo://app?vid=f55d3748-f36a-423c-b099-f419a6e7d5c0","ios":"levelo://app?vid=f55d3748-f36a-423c-b099-f419a6e7d5c0"},"vehicle_type_id":"4","last_reported":1684130971,"current_range_meters":26000,"station_id":"ce4bhc92rcd13ifvqetg","pricing_plan_id":"free"},{"bike_id":"318e77a2-a67b-4b71-bb4f-500082d24a51","system_id":"levelo_inurba_marseille","lat":43.289468,"lon":5.363719,"is_reserved":false,"is_disabled":false,"rental_uris":{"android":"levelo://app?vid=318e77a2-a67b-4b71-bb4f-500082d24a51","ios":"levelo://app?vid=318e77a2-a67b-4b71-bb4f-500082d24a51"},"vehicle_type_id":"4","last_reported":1684130971,"current_range_meters":18800,"station_id":"ce4bhc92rcd13ifvqetg","pricing_plan_id":"free"},{"bike_id":"8e9c00e6-f898-49da-b087-f4600ef7ebb8","system_id":"levelo_inurba_marseille","lat":43.289468,"lon":5.363719,"is_reserved":false,"is_disabled":false,"rental_uris":{"android":"levelo://app?vid=8e9c00e6-f898-49da-b087-f4600ef7ebb8","ios":"levelo://app?vid=8e9c00e6-f898-49da-b087-f4600ef7ebb8"},"vehicle_type_id":"4","last_reported":1684130971,"current_range_meters":24800,"station_id":"ce4bhc92rcd13ifvqetg","pricing_plan_id":"free"},{"bike_id":"8c51270e-1f83-4ecf-a1d7-3341ddf6b0a9","system_id":"levelo_inurba_marseille","lat":43.33073,"lon":5.38861,"is_reserved":false,"is_disabled":false,"rental_uris":{"android":"levelo://app?vid=8c51270e-1f83-4ecf-a1d7-3341ddf6b0a9","ios":"levelo://app?vid=8c51270e-1f83-4ecf-a1d7-3341ddf6b0a9"},"vehicle_type_id":"4","last_reported":1684130971,"current_range_meters":2000,"station_id":"","pricing_plan_id":"free"},{"bike_id":"b8d0a2d7-4443-405c-9e1e-71d351b2ac12","system_id":"levelo_inurba_marseille","lat":43.330355,"lon":5.389195,"is_reserved":false,"is_disabled":false,"rental_uris":{"android":"levelo://app?vid=b8d0a2d7-4443-405c-9e1e-71d351b2ac12","ios":"levelo://app?vid=b8d0a2d7-4443-405c-9e1e-71d351b2ac12"},"vehicle_type_id":"4","last_reported":1684130971,"current_range_meters":14800,"station_id":"ce4bhr92rcd13ifvqhrg","pricing_plan_id":"free"},{"bike_id":"a86c90ec-2371-44c7-8c0e-c025f45419b0","system_id":"levelo_inurba_marseille","lat":43.330417,"lon":5.389108,"is_reserved":false,"is_disabled":false,"rental_uris":{"android":"levelo://app?vid=a86c90ec-2371-44c7-8c0e-c025f45419b0","ios":"levelo://app?vid=a86c90ec-2371-44c7-8c0e-c025f45419b0"},"vehicle_type_id":"4","last_reported":1684130971,"current_range_meters":2400,"station_id":"ce4bhr92rcd13ifvqhrg","pricing_plan_id":"free"},{"bike_id":"b64189d2-39ef-4499-957a-187b3afa4b37","system_id":"levelo_inurba_marseille","lat":43.33044,"lon":5.38914,"is_reserved":false,"is_disabled":false,"rental_uris":{"android":"levelo://app?vid=b64189d2-39ef-4499-957a-187b3afa4b37","ios":"levelo://app?vid=b64189d2-39ef-4499-957a-187b3afa4b37"},"vehicle_type_id":"4","last_reported":1684130971,"current_range_meters":2400,"station_id":"ce4bhr92rcd13ifvqhrg","pricing_plan_id":"free"},{"bike_id":"a98ff5bd-e355-4be9-973d-4bb68d559ab4","system_id":"levelo_inurba_marseille","lat":43.33043,"lon":5.38917,"is_reserved":false,"is_disabled":false,"rental_uris":{"android":"levelo://app?vid=a98ff5bd-e355-4be9-973d-4bb68d559ab4","ios":"levelo://app?vid=a98ff5bd-e355-4be9-973d-4bb68d559ab4"},"vehicle_type_id":"4","last_reported":1684130971,"current_range_meters":6000,"station_id":"ce4bhr92rcd13ifvqhrg","pricing_plan_id":"free"},{"bike_id":"2cf7050e-d743-4605-bb38-2a9326f0bc43","system_id":"levelo_inurba_marseille","lat":43.33044,"lon":5.38917,"is_reserved":false,"is_disabled":false,"rental_uris":{"android":"levelo://app?vid=2cf7050e-d743-4605-bb38-2a9326f0bc43","ios":"levelo://app?vid=2cf7050e-d743-4605-bb38-2a9326f0bc43"},"vehicle_type_id":"4","last_reported":1684130971,"current_range_meters":4400,"station_id":"ce4bhr92rcd13ifvqhrg","pricing_plan_id":"free"},{"bike_id":"8e2a91ce-def7-49c1-a3e9-4079dfd22775","system_id":"levelo_inurba_marseille","lat":43.33046,"lon":5.38918,"is_reserved":false,"is_disabled":false,"rental_uris":{"android":"levelo://app?vid=8e2a91ce-def7-49c1-a3e9-4079dfd22775","ios":"levelo://app?vid=8e2a91ce-def7-49c1-a3e9-4079dfd22775"},"vehicle_type_id":"4","last_reported":1684130971,"current_range_meters":8400,"station_id":"ce4bhr92rcd13ifvqhrg","pricing_plan_id":"free"},{"bike_id":"217ed4c5-837e-4900-bb9d-ce2818fe9761","system_id":"levelo_inurba_marseille","lat":43.290995,"lon":5.381361,"is_reserved":false,"is_disabled":false,"rental_uris":{"android":"levelo://app?vid=217ed4c5-837e-4900-bb9d-ce2818fe9761","ios":"levelo://app?vid=217ed4c5-837e-4900-bb9d-ce2818fe9761"},"vehicle_type_id":"4","last_reported":1684130971,"current_range_meters":26800,"station_id":"ce4bh512rcd13ifvqe2g","pricing_plan_id":"free"},{"bike_id":"f9cc0899-cd9c-4b7c-84e6-a089992685e2","system_id":"levelo_inurba_marseille","lat":43.290995,"lon":5.381361,"is_reserved":false,"is_disabled":false,"rental_uris":{"android":"levelo://app?vid=f9cc0899-cd9c-4b7c-84e6-a089992685e2","ios":"levelo://app?vid=f9cc0899-cd9c-4b7c-84e6-a089992685e2"},"vehicle_type_id":"4","last_reported":1684130971,"current_range_meters":29200,"station_id":"ce4bh512rcd13ifvqe2g","pricing_plan_id":"free"},{"bike_id":"d8134022-ec02-4d1b-8525-07f793416588","system_id":"levelo_inurba_marseille","lat":43.290995,"lon":5.381361,"is_reserved":false,"is_disabled":false,"rental_uris":{"android":"levelo://app?vid=d8134022-ec02-4d1b-8525-07f793416588","ios":"levelo://app?vid=d8134022-ec02-4d1b-8525-07f793416588"},"vehicle_type_id":"4","last_reported":1684130971,"current_range_meters":10800,"station_id":"ce4bh512rcd13ifvqe2g","pricing_plan_id":"free"},{"bike_id":"a5fa46ff-71e5-45e9-a06b-eb923e3e7289","system_id":"levelo_inurba_marseille","lat":43.29786,"lon":5.39344,"is_reserved":false,"is_disabled":false,"rental_uris":{"android":"levelo://app?vid=a5fa46ff-71e5-45e9-a06b-eb923e3e7289","ios":"levelo://app?vid=a5fa46ff-71e5-45e9-a06b-eb923e3e7289"},"vehicle_type_id":"4","last_reported":1684130971,"current_range_meters":2800,"station_id":"ce4bh212rcd13ifvqde0","pricing_plan_id":"free"},{"bike_id":"235bfca5-3523-4573-9b75-a1fadb68ed6a","system_id":"levelo_inurba_marseille","lat":43.337328,"lon":5.374538,"is_reserved":false,"is_disabled":false,"rental_uris":{"android":"levelo://app?vid=235bfca5-3523-4573-9b75-a1fadb68ed6a","ios":"levelo://app?vid=235bfca5-3523-4573-9b75-a1fadb68ed6a"},"vehicle_type_id":"4","last_reported":1684130971,"current_range_meters":24800,"station_id":"ce4bhah2rcd13ifvqei0","pricing_plan_id":"free"},{"bike_id":"5b3ce0e7-ddde-4f08-9689-05c27b8dd4cc","system_id":"levelo_inurba_marseille","lat":43.337436,"lon":5.374627,"is_reserved":false,"is_disabled":false,"rental_uris":{"android":"levelo://app?vid=5b3ce0e7-ddde-4f08-9689-05c27b8dd4cc","ios":"levelo://app?vid=5b3ce0e7-ddde-4f08-9689-05c27b8dd4cc"},"vehicle_type_id":"4","last_reported":1684130971,"current_range_meters":25200,"station_id":"ce4bhnp2rcd13ifvqgvg","pricing_plan_id":"free"},{"bike_id":"5d2cf25b-ecfe-4e47-9056-c00fea5d1195","system_id":"levelo_inurba_marseille","lat":43.3375,"lon":5.37474,"is_reserved":false,"is_disabled":false,"rental_uris":{"android":"levelo://app?vid=5d2cf25b-ecfe-4e47-9056-c00fea5d1195","ios":"levelo://app?vid=5d2cf25b-ecfe-4e47-9056-c00fea5d1195"},"vehicle_type_id":"4","last_reported":1684130971,"current_range_meters":12400,"station_id":"","pricing_plan_id":"free"},{"bike_id":"1862a5f7-93bd-419e-9790-d2ffc2fabf7e","system_id":"levelo_inurba_marseille","lat":43.30642,"lon":5.401031,"is_reserved":false,"is_disabled":false,"rental_uris":{"android":"levelo://app?vid=1862a5f7-93bd-419e-9790-d2ffc2fabf7e","ios":"levelo://app?vid=1862a5f7-93bd-419e-9790-d2ffc2fabf7e"},"vehicle_type_id":"4","last_reported":1684130971,"current_range_meters":30400,"station_id":"ce4bh112rcd13ifvqda0","pricing_plan_id":"free"},{"bike_id":"77c72c4b-edb2-4b4e-93e7-f45cd751292e","system_id":"levelo_inurba_marseille","lat":43.33771,"lon":5.37429,"is_reserved":false,"is_disabled":false,"rental_uris":{"android":"levelo://app?vid=77c72c4b-edb2-4b4e-93e7-f45cd751292e","ios":"levelo://app?vid=77c72c4b-edb2-4b4e-93e7-f45cd751292e"},"vehicle_type_id":"4","last_reported":1684130971,"current_range_meters":23200,"station_id":"","pricing_plan_id":"free"},{"bike_id":"dc99e7ef-6c0d-4e9d-8932-2998f5ffbb2b","system_id":"levelo_inurba_marseille","lat":43.33773,"lon":5.37423,"is_reserved":false,"is_disabled":false,"rental_uris":{"android":"levelo://app?vid=dc99e7ef-6c0d-4e9d-8932-2998f5ffbb2b","ios":"levelo://app?vid=dc99e7ef-6c0d-4e9d-8932-2998f5ffbb2b"},"vehicle_type_id":"4","last_reported":1684130971,"current_range_meters":28800,"station_id":"","pricing_plan_id":"free"},{"bike_id":"c6125fc0-4491-405a-ac5c-057ff415c226","system_id":"levelo_inurba_marseille","lat":43.33775,"lon":5.37427,"is_reserved":false,"is_disabled":false,"rental_uris":{"android":"levelo://app?vid=c6125fc0-4491-405a-ac5c-057ff415c226","ios":"levelo://app?vid=c6125fc0-4491-405a-ac5c-057ff415c226"},"vehicle_type_id":"4","last_reported":1684130971,"current_range_meters":27600,"station_id":"","pricing_plan_id":"free"},{"bike_id":"18c836d2-4943-423f-90e1-f9104bcd02f4","system_id":"levelo_inurba_marseille","lat":43.33777,"lon":5.37423,"is_reserved":false,"is_disabled":false,"rental_uris":{"android":"levelo://app?vid=18c836d2-4943-423f-90e1-f9104bcd02f4","ios":"levelo://app?vid=18c836d2-4943-423f-90e1-f9104bcd02f4"},"vehicle_type_id":"4","last_reported":1684130971,"current_range_meters":25600,"station_id":"","pricing_plan_id":"free"},{"bike_id":"6233c889-9ecf-48db-b2ad-759b1ea41bf4","system_id":"levelo_inurba_marseille","lat":43.33777,"lon":5.37427,"is_reserved":false,"is_disabled":false,"rental_uris":{"android":"levelo://app?vid=6233c889-9ecf-48db-b2ad-759b1ea41bf4","ios":"levelo://app?vid=6233c889-9ecf-48db-b2ad-759b1ea41bf4"},"vehicle_type_id":"4","last_reported":1684130971,"current_range_meters":26000,"station_id":"","pricing_plan_id":"free"},{"bike_id":"539e05f9-84a9-40fd-a386-84753311f7e3","system_id":"levelo_inurba_marseille","lat":43.3378,"lon":5.37416,"is_reserved":false,"is_disabled":false,"rental_uris":{"android":"levelo://app?vid=539e05f9-84a9-40fd-a386-84753311f7e3","ios":"levelo://app?vid=539e05f9-84a9-40fd-a386-84753311f7e3"},"vehicle_type_id":"4","last_reported":1684130971,"current_range_meters":20800,"station_id":"","pricing_plan_id":"free"},{"bike_id":"636c157a-f9d4-436e-873b-91fde75215d7","system_id":"levelo_inurba_marseille","lat":43.33779,"lon":5.37427,"is_reserved":false,"is_disabled":false,"rental_uris":{"android":"levelo://app?vid=636c157a-f9d4-436e-873b-91fde75215d7","ios":"levelo://app?vid=636c157a-f9d4-436e-873b-91fde75215d7"},"vehicle_type_id":"4","last_reported":1684130971,"current_range_meters":20000,"station_id":"","pricing_plan_id":"free"},{"bike_id":"0f4f66a8-5e63-44f9-be54-1024e5fd134b","system_id":"levelo_inurba_marseille","lat":43.3378,"lon":5.3743,"is_reserved":false,"is_disabled":false,"rental_uris":{"android":"levelo://app?vid=0f4f66a8-5e63-44f9-be54-1024e5fd134b","ios":"levelo://app?vid=0f4f66a8-5e63-44f9-be54-1024e5fd134b"},"vehicle_type_id":"4","last_reported":1684130971,"current_range_meters":28800,"station_id":"","pricing_plan_id":"free"},{"bike_id":"fde2413e-f4b7-433e-94f8-604a45e43ddb","system_id":"levelo_inurba_marseille","lat":43.33782,"lon":5.37426,"is_reserved":false,"is_disabled":false,"rental_uris":{"android":"levelo://app?vid=fde2413e-f4b7-433e-94f8-604a45e43ddb","ios":"levelo://app?vid=fde2413e-f4b7-433e-94f8-604a45e43ddb"},"vehicle_type_id":"4","last_reported":1684130971,"current_range_meters":12800,"station_id":"","pricing_plan_id":"free"},{"bike_id":"b7bad9b2-e07f-44e0-8f8e-40403ccf3ce1","system_id":"levelo_inurba_marseille","lat":43.295061,"lon":5.394007,"is_reserved":false,"is_disabled":false,"rental_uris":{"android":"levelo://app?vid=b7bad9b2-e07f-44e0-8f8e-40403ccf3ce1","ios":"levelo://app?vid=b7bad9b2-e07f-44e0-8f8e-40403ccf3ce1"},"vehicle_type_id":"4","last_reported":1684130971,"current_range_meters":27600,"station_id":"","pricing_plan_id":"free"},{"bike_id":"03e84583-47a1-4690-b309-c9e509ce051b","system_id":"levelo_inurba_marseille","lat":43.295194,"lon":5.39397,"is_reserved":false,"is_disabled":false,"rental_uris":{"android":"levelo://app?vid=03e84583-47a1-4690-b309-c9e509ce051b","ios":"levelo://app?vid=03e84583-47a1-4690-b309-c9e509ce051b"},"vehicle_type_id":"4","last_reported":1684130971,"current_range_meters":29200,"station_id":"ce4bh292rcd13ifvqdf0","pricing_plan_id":"free"},{"bike_id":"0c262360-5527-42e1-8e52-97f20f47f71e","system_id":"levelo_inurba_marseille","lat":43.30255,"lon":5.40066,"is_reserved":false,"is_disabled":false,"rental_uris":{"android":"levelo://app?vid=0c262360-5527-42e1-8e52-97f20f47f71e","ios":"levelo://app?vid=0c262360-5527-42e1-8e52-97f20f47f71e"},"vehicle_type_id":"4","last_reported":1684130971,"current_range_meters":0,"station_id":"ce4bgvh2rcd13ifvqcs0","pricing_plan_id":"free"},{"bike_id":"7010f5f2-f8e2-4e42-8bc8-2a4f852b12c9","system_id":"levelo_inurba_marseille","lat":43.290336,"lon":5.386425,"is_reserved":false,"is_disabled":false,"rental_uris":{"android":"levelo://app?vid=7010f5f2-f8e2-4e42-8bc8-2a4f852b12c9","ios":"levelo://app?vid=7010f5f2-f8e2-4e42-8bc8-2a4f852b12c9"},"vehicle_type_id":"4","last_reported":1684130971,"current_range_meters":1600,"station_id":"ce4bh4p2rcd13ifvqe0g","pricing_plan_id":"free"},{"bike_id":"3953b3be-76c0-46c0-b663-74d8b4343f08","system_id":"levelo_inurba_marseille","lat":43.290336,"lon":5.386425,"is_reserved":false,"is_disabled":false,"rental_uris":{"android":"levelo://app?vid=3953b3be-76c0-46c0-b663-74d8b4343f08","ios":"levelo://app?vid=3953b3be-76c0-46c0-b663-74d8b4343f08"},"vehicle_type_id":"4","last_reported":1684130971,"current_range_meters":0,"station_id":"ce4bh4p2rcd13ifvqe0g","pricing_plan_id":"free"},{"bike_id":"55ba42f0-9b68-47c4-968d-6e193998d713","system_id":"levelo_inurba_marseille","lat":43.290336,"lon":5.386425,"is_reserved":false,"is_disabled":false,"rental_uris":{"android":"levelo://app?vid=55ba42f0-9b68-47c4-968d-6e193998d713","ios":"levelo://app?vid=55ba42f0-9b68-47c4-968d-6e193998d713"},"vehicle_type_id":"4","last_reported":1684130971,"current_range_meters":30800,"station_id":"ce4bh4p2rcd13ifvqe0g","pricing_plan_id":"free"},{"bike_id":"e7592e27-4273-4eb5-8f87-146711bdc578","system_id":"levelo_inurba_marseille","lat":43.302759,"lon":5.400793,"is_reserved":false,"is_disabled":false,"rental_uris":{"android":"levelo://app?vid=e7592e27-4273-4eb5-8f87-146711bdc578","ios":"levelo://app?vid=e7592e27-4273-4eb5-8f87-146711bdc578"},"vehicle_type_id":"4","last_reported":1684130971,"current_range_meters":21600,"station_id":"ce4bgvh2rcd13ifvqcs0","pricing_plan_id":"free"},{"bike_id":"2c3f1c8b-220f-440e-8d00-d127aad5b6de","system_id":"levelo_inurba_marseille","lat":43.290345,"lon":5.38646,"is_reserved":false,"is_disabled":false,"rental_uris":{"android":"levelo://app?vid=2c3f1c8b-220f-440e-8d00-d127aad5b6de","ios":"levelo://app?vid=2c3f1c8b-220f-440e-8d00-d127aad5b6de"},"vehicle_type_id":"4","last_reported":1684130971,"current_range_meters":29200,"station_id":"ce4bh4p2rcd13ifvqe0g","pricing_plan_id":"free"},{"bike_id":"69afa080-fb0e-410b-9263-c27405688998","system_id":"levelo_inurba_marseille","lat":43.290336,"lon":5.386425,"is_reserved":false,"is_disabled":false,"rental_uris":{"android":"levelo://app?vid=69afa080-fb0e-410b-9263-c27405688998","ios":"levelo://app?vid=69afa080-fb0e-410b-9263-c27405688998"},"vehicle_type_id":"4","last_reported":1684130971,"current_range_meters":800,"station_id":"ce4bh4p2rcd13ifvqe0g","pricing_plan_id":"free"},{"bike_id":"73b84941-1cef-4d1a-816a-c6a2785b17a9","system_id":"levelo_inurba_marseille","lat":43.302759,"lon":5.400793,"is_reserved":false,"is_disabled":false,"rental_uris":{"android":"levelo://app?vid=73b84941-1cef-4d1a-816a-c6a2785b17a9","ios":"levelo://app?vid=73b84941-1cef-4d1a-816a-c6a2785b17a9"},"vehicle_type_id":"4","last_reported":1684130971,"current_range_meters":27600,"station_id":"ce4bgvh2rcd13ifvqcs0","pricing_plan_id":"free"},{"bike_id":"2cb7f0b1-edc2-4641-aae9-f1b6cc51b225","system_id":"levelo_inurba_marseille","lat":43.302759,"lon":5.400793,"is_reserved":false,"is_disabled":false,"rental_uris":{"android":"levelo://app?vid=2cb7f0b1-edc2-4641-aae9-f1b6cc51b225","ios":"levelo://app?vid=2cb7f0b1-edc2-4641-aae9-f1b6cc51b225"},"vehicle_type_id":"4","last_reported":1684130971,"current_range_meters":6800,"station_id":"ce4bgvh2rcd13ifvqcs0","pricing_plan_id":"free"},{"bike_id":"dbf6b9ff-2e45-4a6c-84c2-fd598d5d5ca2","system_id":"levelo_inurba_marseille","lat":43.290336,"lon":5.386425,"is_reserved":false,"is_disabled":false,"rental_uris":{"android":"levelo://app?vid=dbf6b9ff-2e45-4a6c-84c2-fd598d5d5ca2","ios":"levelo://app?vid=dbf6b9ff-2e45-4a6c-84c2-fd598d5d5ca2"},"vehicle_type_id":"4","last_reported":1684130971,"current_range_meters":26800,"station_id":"ce4bh4p2rcd13ifvqe0g","pricing_plan_id":"free"},{"bike_id":"19fe7fbc-b597-4611-9b6b-3707648ca5a1","system_id":"levelo_inurba_marseille","lat":43.302759,"lon":5.400793,"is_reserved":false,"is_disabled":false,"rental_uris":{"android":"levelo://app?vid=19fe7fbc-b597-4611-9b6b-3707648ca5a1","ios":"levelo://app?vid=19fe7fbc-b597-4611-9b6b-3707648ca5a1"},"vehicle_type_id":"4","last_reported":1684130971,"current_range_meters":17200,"station_id":"ce4bgvh2rcd13ifvqcs0","pricing_plan_id":"free"},{"bike_id":"0ef4ecbe-30d3-43e6-98a4-357ccddc2c80","system_id":"levelo_inurba_marseille","lat":43.287185,"lon":5.379373,"is_reserved":false,"is_disabled":false,"rental_uris":{"android":"levelo://app?vid=0ef4ecbe-30d3-43e6-98a4-357ccddc2c80","ios":"levelo://app?vid=0ef4ecbe-30d3-43e6-98a4-357ccddc2c80"},"vehicle_type_id":"4","last_reported":1684130971,"current_range_meters":26400,"station_id":"ce4bh9p2rcd13ifvqec0","pricing_plan_id":"free"},{"bike_id":"4a0ad54b-b51d-4f88-b365-e3c8a99f0236","system_id":"levelo_inurba_marseille","lat":43.28714,"lon":5.37943,"is_reserved":false,"is_disabled":false,"rental_uris":{"android":"levelo://app?vid=4a0ad54b-b51d-4f88-b365-e3c8a99f0236","ios":"levelo://app?vid=4a0ad54b-b51d-4f88-b365-e3c8a99f0236"},"vehicle_type_id":"4","last_reported":1684130971,"current_range_meters":0,"station_id":"ce4bh9p2rcd13ifvqec0","pricing_plan_id":"free"},{"bike_id":"16b7d747-e636-47c0-b511-812daf1fd622","system_id":"levelo_inurba_marseille","lat":43.316517,"lon":5.404375,"is_reserved":false,"is_disabled":false,"rental_uris":{"android":"levelo://app?vid=16b7d747-e636-47c0-b511-812daf1fd622","ios":"levelo://app?vid=16b7d747-e636-47c0-b511-812daf1fd622"},"vehicle_type_id":"4","last_reported":1684130971,"current_range_meters":0,"station_id":"ce4bh012rcd13ifvqd00","pricing_plan_id":"free"},{"bike_id":"183d92a1-ff25-49ac-908f-76144a8ff090","system_id":"levelo_inurba_marseille","lat":43.28617,"lon":5.35101,"is_reserved":false,"is_disabled":false,"rental_uris":{"android":"levelo://app?vid=183d92a1-ff25-49ac-908f-76144a8ff090","ios":"levelo://app?vid=183d92a1-ff25-49ac-908f-76144a8ff090"},"vehicle_type_id":"4","last_reported":1684130971,"current_range_meters":0,"station_id":"","pricing_plan_id":"free"},{"bike_id":"e97eb2fd-780b-4345-b917-22c6c53d66da","system_id":"levelo_inurba_marseille","lat":43.285848,"lon":5.350787,"is_reserved":false,"is_disabled":false,"rental_uris":{"android":"levelo://app?vid=e97eb2fd-780b-4345-b917-22c6c53d66da","ios":"levelo://app?vid=e97eb2fd-780b-4345-b917-22c6c53d66da"},"vehicle_type_id":"4","last_reported":1684130971,"current_range_meters":19200,"station_id":"ce4bhch2rcd13ifvqeug","pricing_plan_id":"free"},{"bike_id":"fa2d50bc-8dc8-430d-be76-c77a5114f634","system_id":"levelo_inurba_marseille","lat":43.28673,"lon":5.38662,"is_reserved":false,"is_disabled":false,"rental_uris":{"android":"levelo://app?vid=fa2d50bc-8dc8-430d-be76-c77a5114f634","ios":"levelo://app?vid=fa2d50bc-8dc8-430d-be76-c77a5114f634"},"vehicle_type_id":"4","last_reported":1684130971,"current_range_meters":0,"station_id":"","pricing_plan_id":"free"},{"bike_id":"ae0e26c5-7876-4c5a-9097-30be897ca83b","system_id":"levelo_inurba_marseille","lat":43.28675,"lon":5.38672,"is_reserved":false,"is_disabled":false,"rental_uris":{"android":"levelo://app?vid=ae0e26c5-7876-4c5a-9097-30be897ca83b","ios":"levelo://app?vid=ae0e26c5-7876-4c5a-9097-30be897ca83b"},"vehicle_type_id":"4","last_reported":1684130971,"current_range_meters":26400,"station_id":"ce4bh492rcd13ifvqdug","pricing_plan_id":"free"},{"bike_id":"f81685e9-5d5e-449c-8b7e-dd9900eafaa4","system_id":"levelo_inurba_marseille","lat":43.323464,"lon":5.406297,"is_reserved":false,"is_disabled":false,"rental_uris":{"android":"levelo://app?vid=f81685e9-5d5e-449c-8b7e-dd9900eafaa4","ios":"levelo://app?vid=f81685e9-5d5e-449c-8b7e-dd9900eafaa4"},"vehicle_type_id":"4","last_reported":1684130971,"current_range_meters":30000,"station_id":"ce4bhq92rcd13ifvqhjg","pricing_plan_id":"free"},{"bike_id":"5b9d4f8b-b4ba-4e50-89d5-e066586b87f8","system_id":"levelo_inurba_marseille","lat":43.284793,"lon":5.384113,"is_reserved":false,"is_disabled":false,"rental_uris":{"android":"levelo://app?vid=5b9d4f8b-b4ba-4e50-89d5-e066586b87f8","ios":"levelo://app?vid=5b9d4f8b-b4ba-4e50-89d5-e066586b87f8"},"vehicle_type_id":"4","last_reported":1684130971,"current_range_meters":31200,"station_id":"ce4bh512rcd13ifvqe3g","pricing_plan_id":"free"},{"bike_id":"9b140f61-f95c-4b7e-9f6d-dc6791cf2be7","system_id":"levelo_inurba_marseille","lat":43.284793,"lon":5.384113,"is_reserved":false,"is_disabled":false,"rental_uris":{"android":"levelo://app?vid=9b140f61-f95c-4b7e-9f6d-dc6791cf2be7","ios":"levelo://app?vid=9b140f61-f95c-4b7e-9f6d-dc6791cf2be7"},"vehicle_type_id":"4","last_reported":1684130971,"current_range_meters":25600,"station_id":"ce4bh512rcd13ifvqe3g","pricing_plan_id":"free"},{"bike_id":"52165b19-4501-40a9-9df0-eb50c34d8aaf","system_id":"levelo_inurba_marseille","lat":43.323464,"lon":5.406297,"is_reserved":false,"is_disabled":false,"rental_uris":{"android":"levelo://app?vid=52165b19-4501-40a9-9df0-eb50c34d8aaf","ios":"levelo://app?vid=52165b19-4501-40a9-9df0-eb50c34d8aaf"},"vehicle_type_id":"4","last_reported":1684130971,"current_range_meters":30400,"station_id":"ce4bhq92rcd13ifvqhjg","pricing_plan_id":"free"},{"bike_id":"950b45fd-4e48-4103-bc04-66ad4e261f3b","system_id":"levelo_inurba_marseille","lat":43.323464,"lon":5.406297,"is_reserved":false,"is_disabled":false,"rental_uris":{"android":"levelo://app?vid=950b45fd-4e48-4103-bc04-66ad4e261f3b","ios":"levelo://app?vid=950b45fd-4e48-4103-bc04-66ad4e261f3b"},"vehicle_type_id":"4","last_reported":1684130971,"current_range_meters":0,"station_id":"ce4bhq92rcd13ifvqhjg","pricing_plan_id":"free"},{"bike_id":"961cbdee-709b-418f-84fd-cd739c4726e1","system_id":"levelo_inurba_marseille","lat":43.33731,"lon":5.3919,"is_reserved":false,"is_disabled":false,"rental_uris":{"android":"levelo://app?vid=961cbdee-709b-418f-84fd-cd739c4726e1","ios":"levelo://app?vid=961cbdee-709b-418f-84fd-cd739c4726e1"},"vehicle_type_id":"4","last_reported":1684130971,"current_range_meters":31600,"station_id":"ce4bhr92rcd13ifvqhsg","pricing_plan_id":"free"},{"bike_id":"c043c317-cb33-4b3b-8920-c700ddd6c75a","system_id":"levelo_inurba_marseille","lat":43.284793,"lon":5.384113,"is_reserved":false,"is_disabled":false,"rental_uris":{"android":"levelo://app?vid=c043c317-cb33-4b3b-8920-c700ddd6c75a","ios":"levelo://app?vid=c043c317-cb33-4b3b-8920-c700ddd6c75a"},"vehicle_type_id":"4","last_reported":1684130971,"current_range_meters":30800,"station_id":"ce4bh512rcd13ifvqe3g","pricing_plan_id":"free"},{"bike_id":"9afcf7f0-e1d1-4b0a-915f-21145b0e68d9","system_id":"levelo_inurba_marseille","lat":43.283494,"lon":5.380945,"is_reserved":false,"is_disabled":false,"rental_uris":{"android":"levelo://app?vid=9afcf7f0-e1d1-4b0a-915f-21145b0e68d9","ios":"levelo://app?vid=9afcf7f0-e1d1-4b0a-915f-21145b0e68d9"},"vehicle_type_id":"4","last_reported":1684130971,"current_range_meters":7200,"station_id":"ce4bh412rcd13ifvqdr0","pricing_plan_id":"free"},{"bike_id":"e8514fea-e785-4103-b4f5-241c0be32bf7","system_id":"levelo_inurba_marseille","lat":43.283494,"lon":5.380945,"is_reserved":false,"is_disabled":false,"rental_uris":{"android":"levelo://app?vid=e8514fea-e785-4103-b4f5-241c0be32bf7","ios":"levelo://app?vid=e8514fea-e785-4103-b4f5-241c0be32bf7"},"vehicle_type_id":"4","last_reported":1684130971,"current_range_meters":31200,"station_id":"ce4bh412rcd13ifvqdr0","pricing_plan_id":"free"},{"bike_id":"342ed277-f348-4058-a3d8-6dccd8da6e7b","system_id":"levelo_inurba_marseille","lat":43.283494,"lon":5.380945,"is_reserved":false,"is_disabled":false,"rental_uris":{"android":"levelo://app?vid=342ed277-f348-4058-a3d8-6dccd8da6e7b","ios":"levelo://app?vid=342ed277-f348-4058-a3d8-6dccd8da6e7b"},"vehicle_type_id":"4","last_reported":1684130971,"current_range_meters":31600,"station_id":"ce4bh412rcd13ifvqdr0","pricing_plan_id":"free"},{"bike_id":"64cebd1c-8f80-4f16-8fe2-d9caaa0158e7","system_id":"levelo_inurba_marseille","lat":43.283494,"lon":5.380945,"is_reserved":false,"is_disabled":false,"rental_uris":{"android":"levelo://app?vid=64cebd1c-8f80-4f16-8fe2-d9caaa0158e7","ios":"levelo://app?vid=64cebd1c-8f80-4f16-8fe2-d9caaa0158e7"},"vehicle_type_id":"4","last_reported":1684130971,"current_range_meters":14800,"station_id":"ce4bh412rcd13ifvqdr0","pricing_plan_id":"free"},{"bike_id":"8a95433f-43e3-475d-92e0-3f2813eadda7","system_id":"levelo_inurba_marseille","lat":43.284219,"lon":5.3497,"is_reserved":false,"is_disabled":false,"rental_uris":{"android":"levelo://app?vid=8a95433f-43e3-475d-92e0-3f2813eadda7","ios":"levelo://app?vid=8a95433f-43e3-475d-92e0-3f2813eadda7"},"vehicle_type_id":"4","last_reported":1684130971,"current_range_meters":29200,"station_id":"ce4bhbh2rcd13ifvqepg","pricing_plan_id":"free"},{"bike_id":"25dc09d4-8363-4d6a-9837-8fbe7b9939b3","system_id":"levelo_inurba_marseille","lat":43.292724,"lon":5.401131,"is_reserved":false,"is_disabled":false,"rental_uris":{"android":"levelo://app?vid=25dc09d4-8363-4d6a-9837-8fbe7b9939b3","ios":"levelo://app?vid=25dc09d4-8363-4d6a-9837-8fbe7b9939b3"},"vehicle_type_id":"4","last_reported":1684130971,"current_range_meters":0,"station_id":"ce4bh312rcd13ifvqdk0","pricing_plan_id":"free"},{"bike_id":"5661954d-ef88-4abf-ae21-95a2a35d1c5c","system_id":"levelo_inurba_marseille","lat":43.292724,"lon":5.401131,"is_reserved":false,"is_disabled":false,"rental_uris":{"android":"levelo://app?vid=5661954d-ef88-4abf-ae21-95a2a35d1c5c","ios":"levelo://app?vid=5661954d-ef88-4abf-ae21-95a2a35d1c5c"},"vehicle_type_id":"4","last_reported":1684130971,"current_range_meters":30400,"station_id":"ce4bh312rcd13ifvqdk0","pricing_plan_id":"free"},{"bike_id":"7b271553-16c5-41e6-8683-3c838b104a56","system_id":"levelo_inurba_marseille","lat":43.292724,"lon":5.401131,"is_reserved":false,"is_disabled":false,"rental_uris":{"android":"levelo://app?vid=7b271553-16c5-41e6-8683-3c838b104a56","ios":"levelo://app?vid=7b271553-16c5-41e6-8683-3c838b104a56"},"vehicle_type_id":"4","last_reported":1684130971,"current_range_meters":31200,"station_id":"ce4bh312rcd13ifvqdk0","pricing_plan_id":"free"},{"bike_id":"7a82cbcc-1a82-4601-a9bb-df77467ca18a","system_id":"levelo_inurba_marseille","lat":43.292724,"lon":5.401131,"is_reserved":false,"is_disabled":false,"rental_uris":{"android":"levelo://app?vid=7a82cbcc-1a82-4601-a9bb-df77467ca18a","ios":"levelo://app?vid=7a82cbcc-1a82-4601-a9bb-df77467ca18a"},"vehicle_type_id":"4","last_reported":1684130971,"current_range_meters":31200,"station_id":"ce4bh312rcd13ifvqdk0","pricing_plan_id":"free"},{"bike_id":"6641f961-dc94-4c83-92d4-b3273c0234fc","system_id":"levelo_inurba_marseille","lat":43.292724,"lon":5.401131,"is_reserved":false,"is_disabled":false,"rental_uris":{"android":"levelo://app?vid=6641f961-dc94-4c83-92d4-b3273c0234fc","ios":"levelo://app?vid=6641f961-dc94-4c83-92d4-b3273c0234fc"},"vehicle_type_id":"4","last_reported":1684130971,"current_range_meters":31200,"station_id":"ce4bh312rcd13ifvqdk0","pricing_plan_id":"free"},{"bike_id":"5b1b2d35-93ac-47a8-91c6-6d44b940fe11","system_id":"levelo_inurba_marseille","lat":43.292724,"lon":5.401131,"is_reserved":false,"is_disabled":false,"rental_uris":{"android":"levelo://app?vid=5b1b2d35-93ac-47a8-91c6-6d44b940fe11","ios":"levelo://app?vid=5b1b2d35-93ac-47a8-91c6-6d44b940fe11"},"vehicle_type_id":"4","last_reported":1684130971,"current_range_meters":29600,"station_id":"ce4bh312rcd13ifvqdk0","pricing_plan_id":"free"},{"bike_id":"2bf1c16f-f3a5-4e7d-81ea-1e25e39f868e","system_id":"levelo_inurba_marseille","lat":43.292724,"lon":5.401131,"is_reserved":false,"is_disabled":false,"rental_uris":{"android":"levelo://app?vid=2bf1c16f-f3a5-4e7d-81ea-1e25e39f868e","ios":"levelo://app?vid=2bf1c16f-f3a5-4e7d-81ea-1e25e39f868e"},"vehicle_type_id":"4","last_reported":1684130971,"current_range_meters":28000,"station_id":"ce4bh312rcd13ifvqdk0","pricing_plan_id":"free"},{"bike_id":"c872060d-8ecc-4b3a-872b-3d86c9e13c72","system_id":"levelo_inurba_marseille","lat":43.292724,"lon":5.401131,"is_reserved":false,"is_disabled":false,"rental_uris":{"android":"levelo://app?vid=c872060d-8ecc-4b3a-872b-3d86c9e13c72","ios":"levelo://app?vid=c872060d-8ecc-4b3a-872b-3d86c9e13c72"},"vehicle_type_id":"4","last_reported":1684130971,"current_range_meters":31600,"station_id":"ce4bh312rcd13ifvqdk0","pricing_plan_id":"free"},{"bike_id":"7ac11161-e629-44ff-a05b-e0157e5c51d1","system_id":"levelo_inurba_marseille","lat":43.292724,"lon":5.401131,"is_reserved":false,"is_disabled":false,"rental_uris":{"android":"levelo://app?vid=7ac11161-e629-44ff-a05b-e0157e5c51d1","ios":"levelo://app?vid=7ac11161-e629-44ff-a05b-e0157e5c51d1"},"vehicle_type_id":"4","last_reported":1684130971,"current_range_meters":31200,"station_id":"ce4bh312rcd13ifvqdk0","pricing_plan_id":"free"},{"bike_id":"828b7e20-ba8a-4498-868c-cc5dd6793473","system_id":"levelo_inurba_marseille","lat":43.28269,"lon":5.35073,"is_reserved":false,"is_disabled":false,"rental_uris":{"android":"levelo://app?vid=828b7e20-ba8a-4498-868c-cc5dd6793473","ios":"levelo://app?vid=828b7e20-ba8a-4498-868c-cc5dd6793473"},"vehicle_type_id":"4","last_reported":1684130971,"current_range_meters":0,"station_id":"ce4bhbp2rcd13ifvqerg","pricing_plan_id":"free"},{"bike_id":"8dec2896-3278-49d6-9ab4-49deb2c2e15b","system_id":"levelo_inurba_marseille","lat":43.282744,"lon":5.350533,"is_reserved":false,"is_disabled":false,"rental_uris":{"android":"levelo://app?vid=8dec2896-3278-49d6-9ab4-49deb2c2e15b","ios":"levelo://app?vid=8dec2896-3278-49d6-9ab4-49deb2c2e15b"},"vehicle_type_id":"4","last_reported":1684130971,"current_range_meters":25600,"station_id":"ce4bhbp2rcd13ifvqerg","pricing_plan_id":"free"},{"bike_id":"1ee69233-bbf4-4414-adbf-b6f4dbede2b0","system_id":"levelo_inurba_marseille","lat":43.283666,"lon":5.386324,"is_reserved":false,"is_disabled":false,"rental_uris":{"android":"levelo://app?vid=1ee69233-bbf4-4414-adbf-b6f4dbede2b0","ios":"levelo://app?vid=1ee69233-bbf4-4414-adbf-b6f4dbede2b0"},"vehicle_type_id":"4","last_reported":1684130971,"current_range_meters":10800,"station_id":"ce4bh492rcd13ifvqdvg","pricing_plan_id":"free"},{"bike_id":"bcb500f7-1c46-400f-8f53-2d753f6b1d83","system_id":"levelo_inurba_marseille","lat":43.283502,"lon":5.386471,"is_reserved":false,"is_disabled":false,"rental_uris":{"android":"levelo://app?vid=bcb500f7-1c46-400f-8f53-2d753f6b1d83","ios":"levelo://app?vid=bcb500f7-1c46-400f-8f53-2d753f6b1d83"},"vehicle_type_id":"4","last_reported":1684130971,"current_range_meters":30800,"station_id":"ce4bh492rcd13ifvqdvg","pricing_plan_id":"free"},{"bike_id":"c9a376d3-0c71-43f4-ae19-9f20da75faad","system_id":"levelo_inurba_marseille","lat":43.283502,"lon":5.386471,"is_reserved":false,"is_disabled":false,"rental_uris":{"android":"levelo://app?vid=c9a376d3-0c71-43f4-ae19-9f20da75faad","ios":"levelo://app?vid=c9a376d3-0c71-43f4-ae19-9f20da75faad"},"vehicle_type_id":"4","last_reported":1684130971,"current_range_meters":8400,"station_id":"ce4bh492rcd13ifvqdvg","pricing_plan_id":"free"},{"bike_id":"3ed795d8-c7cf-4a17-8851-0ec1219488b7","system_id":"levelo_inurba_marseille","lat":43.280382,"lon":5.369291,"is_reserved":false,"is_disabled":false,"rental_uris":{"android":"levelo://app?vid=3ed795d8-c7cf-4a17-8851-0ec1219488b7","ios":"levelo://app?vid=3ed795d8-c7cf-4a17-8851-0ec1219488b7"},"vehicle_type_id":"4","last_reported":1684130971,"current_range_meters":24400,"station_id":"ce4bha12rcd13ifvqef0","pricing_plan_id":"free"},{"bike_id":"ac1c6ea3-4e05-4439-9b6c-e64c769d932e","system_id":"levelo_inurba_marseille","lat":43.283502,"lon":5.386471,"is_reserved":false,"is_disabled":false,"rental_uris":{"android":"levelo://app?vid=ac1c6ea3-4e05-4439-9b6c-e64c769d932e","ios":"levelo://app?vid=ac1c6ea3-4e05-4439-9b6c-e64c769d932e"},"vehicle_type_id":"4","last_reported":1684130971,"current_range_meters":28800,"station_id":"ce4bh492rcd13ifvqdvg","pricing_plan_id":"free"},{"bike_id":"9798129e-29e9-4490-9c66-3da43ee44a5c","system_id":"levelo_inurba_marseille","lat":43.28039,"lon":5.369297,"is_reserved":false,"is_disabled":false,"rental_uris":{"android":"levelo://app?vid=9798129e-29e9-4490-9c66-3da43ee44a5c","ios":"levelo://app?vid=9798129e-29e9-4490-9c66-3da43ee44a5c"},"vehicle_type_id":"4","last_reported":1684130971,"current_range_meters":18800,"station_id":"ce4bha12rcd13ifvqef0","pricing_plan_id":"free"},{"bike_id":"c323ef8e-82a6-4a38-92fb-8f58973ea53a","system_id":"levelo_inurba_marseille","lat":43.29041,"lon":5.399634,"is_reserved":false,"is_disabled":false,"rental_uris":{"android":"levelo://app?vid=c323ef8e-82a6-4a38-92fb-8f58973ea53a","ios":"levelo://app?vid=c323ef8e-82a6-4a38-92fb-8f58973ea53a"},"vehicle_type_id":"4","last_reported":1684130971,"current_range_meters":20800,"station_id":"ce4bh392rcd13ifvqdm0","pricing_plan_id":"free"},{"bike_id":"652d30a3-e727-48d1-9bf1-3d1d40be2ea7","system_id":"levelo_inurba_marseille","lat":43.281044,"lon":5.378308,"is_reserved":false,"is_disabled":false,"rental_uris":{"android":"levelo://app?vid=652d30a3-e727-48d1-9bf1-3d1d40be2ea7","ios":"levelo://app?vid=652d30a3-e727-48d1-9bf1-3d1d40be2ea7"},"vehicle_type_id":"4","last_reported":1684130971,"current_range_meters":3200,"station_id":"ce4bha12rcd13ifvqee0","pricing_plan_id":"free"},{"bike_id":"6f787a73-1bfe-4414-8353-4388e012ba36","system_id":"levelo_inurba_marseille","lat":43.28109,"lon":5.37834,"is_reserved":false,"is_disabled":false,"rental_uris":{"android":"levelo://app?vid=6f787a73-1bfe-4414-8353-4388e012ba36","ios":"levelo://app?vid=6f787a73-1bfe-4414-8353-4388e012ba36"},"vehicle_type_id":"4","last_reported":1684130971,"current_range_meters":31200,"station_id":"ce4bha12rcd13ifvqee0","pricing_plan_id":"free"},{"bike_id":"9e9da1eb-dd32-4baa-b620-5dfb67f25b59","system_id":"levelo_inurba_marseille","lat":43.28108,"lon":5.37836,"is_reserved":false,"is_disabled":false,"rental_uris":{"android":"levelo://app?vid=9e9da1eb-dd32-4baa-b620-5dfb67f25b59","ios":"levelo://app?vid=9e9da1eb-dd32-4baa-b620-5dfb67f25b59"},"vehicle_type_id":"4","last_reported":1684130971,"current_range_meters":31200,"station_id":"ce4bha12rcd13ifvqee0","pricing_plan_id":"free"},{"bike_id":"c19c76d9-b84c-4934-9c3c-5f7acf33e73b","system_id":"levelo_inurba_marseille","lat":43.29041,"lon":5.399634,"is_reserved":false,"is_disabled":false,"rental_uris":{"android":"levelo://app?vid=c19c76d9-b84c-4934-9c3c-5f7acf33e73b","ios":"levelo://app?vid=c19c76d9-b84c-4934-9c3c-5f7acf33e73b"},"vehicle_type_id":"4","last_reported":1684130971,"current_range_meters":6400,"station_id":"ce4bh392rcd13ifvqdm0","pricing_plan_id":"free"},{"bike_id":"e341f5b1-6748-4a53-a2be-f6f394d25532","system_id":"levelo_inurba_marseille","lat":43.28573,"lon":5.394992,"is_reserved":false,"is_disabled":false,"rental_uris":{"android":"levelo://app?vid=e341f5b1-6748-4a53-a2be-f6f394d25532","ios":"levelo://app?vid=e341f5b1-6748-4a53-a2be-f6f394d25532"},"vehicle_type_id":"4","last_reported":1684130971,"current_range_meters":20800,"station_id":"ce4bh292rcd13ifvqdg0","pricing_plan_id":"free"},{"bike_id":"8588cc81-a79c-42c4-978b-fbc371da9764","system_id":"levelo_inurba_marseille","lat":43.28565,"lon":5.3951,"is_reserved":false,"is_disabled":false,"rental_uris":{"android":"levelo://app?vid=8588cc81-a79c-42c4-978b-fbc371da9764","ios":"levelo://app?vid=8588cc81-a79c-42c4-978b-fbc371da9764"},"vehicle_type_id":"4","last_reported":1684130971,"current_range_meters":0,"station_id":"ce4bh292rcd13ifvqdg0","pricing_plan_id":"free"},{"bike_id":"55ae320c-ee62-416b-b594-a050f1cf1551","system_id":"levelo_inurba_marseille","lat":43.320045,"lon":5.415048,"is_reserved":false,"is_disabled":false,"rental_uris":{"android":"levelo://app?vid=55ae320c-ee62-416b-b594-a050f1cf1551","ios":"levelo://app?vid=55ae320c-ee62-416b-b594-a050f1cf1551"},"vehicle_type_id":"4","last_reported":1684130971,"current_range_meters":31200,"station_id":"ce4bhq92rcd13ifvqhkg","pricing_plan_id":"free"},{"bike_id":"e946975f-6217-48f8-8d0b-38eef29ba309","system_id":"levelo_inurba_marseille","lat":43.299579,"lon":5.413255,"is_reserved":false,"is_disabled":false,"rental_uris":{"android":"levelo://app?vid=e946975f-6217-48f8-8d0b-38eef29ba309","ios":"levelo://app?vid=e946975f-6217-48f8-8d0b-38eef29ba309"},"vehicle_type_id":"4","last_reported":1684130971,"current_range_meters":2000,"station_id":"ce4bhp12rcd13ifvqh9g","pricing_plan_id":"free"},{"bike_id":"a72cff25-43db-4dfb-9bc6-401fbf97ad05","system_id":"levelo_inurba_marseille","lat":43.299579,"lon":5.413255,"is_reserved":false,"is_disabled":false,"rental_uris":{"android":"levelo://app?vid=a72cff25-43db-4dfb-9bc6-401fbf97ad05","ios":"levelo://app?vid=a72cff25-43db-4dfb-9bc6-401fbf97ad05"},"vehicle_type_id":"4","last_reported":1684130971,"current_range_meters":12800,"station_id":"ce4bhp12rcd13ifvqh9g","pricing_plan_id":"free"},{"bike_id":"d9754081-bb72-4f2d-84af-83ebbf6061f0","system_id":"levelo_inurba_marseille","lat":43.279742,"lon":5.38744,"is_reserved":false,"is_disabled":false,"rental_uris":{"android":"levelo://app?vid=d9754081-bb72-4f2d-84af-83ebbf6061f0","ios":"levelo://app?vid=d9754081-bb72-4f2d-84af-83ebbf6061f0"},"vehicle_type_id":"4","last_reported":1684130971,"current_range_meters":27200,"station_id":"ce4bhg12rcd13ifvqf80","pricing_plan_id":"free"},{"bike_id":"17af0b71-d59c-4bd3-96c0-d68801548339","system_id":"levelo_inurba_marseille","lat":43.325233,"lon":5.414318,"is_reserved":false,"is_disabled":false,"rental_uris":{"android":"levelo://app?vid=17af0b71-d59c-4bd3-96c0-d68801548339","ios":"levelo://app?vid=17af0b71-d59c-4bd3-96c0-d68801548339"},"vehicle_type_id":"4","last_reported":1684130971,"current_range_meters":26800,"station_id":"ce4bhq12rcd13ifvqhhg","pricing_plan_id":"free"},{"bike_id":"853998bc-a24f-46ef-9dd2-f048e64785d2","system_id":"levelo_inurba_marseille","lat":43.325233,"lon":5.414318,"is_reserved":false,"is_disabled":false,"rental_uris":{"android":"levelo://app?vid=853998bc-a24f-46ef-9dd2-f048e64785d2","ios":"levelo://app?vid=853998bc-a24f-46ef-9dd2-f048e64785d2"},"vehicle_type_id":"4","last_reported":1684130971,"current_range_meters":12400,"station_id":"ce4bhq12rcd13ifvqhhg","pricing_plan_id":"free"},{"bike_id":"ef42593a-33cd-483e-bb2c-52104a39304c","system_id":"levelo_inurba_marseille","lat":43.325233,"lon":5.414318,"is_reserved":false,"is_disabled":false,"rental_uris":{"android":"levelo://app?vid=ef42593a-33cd-483e-bb2c-52104a39304c","ios":"levelo://app?vid=ef42593a-33cd-483e-bb2c-52104a39304c"},"vehicle_type_id":"4","last_reported":1684130971,"current_range_meters":18400,"station_id":"ce4bhq12rcd13ifvqhhg","pricing_plan_id":"free"},{"bike_id":"4699d793-8561-465f-ae20-ed1f4c33a34b","system_id":"levelo_inurba_marseille","lat":43.325233,"lon":5.414318,"is_reserved":false,"is_disabled":false,"rental_uris":{"android":"levelo://app?vid=4699d793-8561-465f-ae20-ed1f4c33a34b","ios":"levelo://app?vid=4699d793-8561-465f-ae20-ed1f4c33a34b"},"vehicle_type_id":"4","last_reported":1684130971,"current_range_meters":18400,"station_id":"ce4bhq12rcd13ifvqhhg","pricing_plan_id":"free"},{"bike_id":"46bf9edd-3aec-4e09-8567-e30ddd414fd8","system_id":"levelo_inurba_marseille","lat":43.325233,"lon":5.414318,"is_reserved":false,"is_disabled":false,"rental_uris":{"android":"levelo://app?vid=46bf9edd-3aec-4e09-8567-e30ddd414fd8","ios":"levelo://app?vid=46bf9edd-3aec-4e09-8567-e30ddd414fd8"},"vehicle_type_id":"4","last_reported":1684130971,"current_range_meters":14800,"station_id":"ce4bhq12rcd13ifvqhhg","pricing_plan_id":"free"},{"bike_id":"50b03646-e459-47e2-b76f-064e656ff559","system_id":"levelo_inurba_marseille","lat":43.325233,"lon":5.414318,"is_reserved":false,"is_disabled":false,"rental_uris":{"android":"levelo://app?vid=50b03646-e459-47e2-b76f-064e656ff559","ios":"levelo://app?vid=50b03646-e459-47e2-b76f-064e656ff559"},"vehicle_type_id":"4","last_reported":1684130971,"current_range_meters":1600,"station_id":"ce4bhq12rcd13ifvqhhg","pricing_plan_id":"free"},{"bike_id":"4e17cd59-d039-4b2a-b620-0e00499af63f","system_id":"levelo_inurba_marseille","lat":43.325233,"lon":5.414318,"is_reserved":false,"is_disabled":false,"rental_uris":{"android":"levelo://app?vid=4e17cd59-d039-4b2a-b620-0e00499af63f","ios":"levelo://app?vid=4e17cd59-d039-4b2a-b620-0e00499af63f"},"vehicle_type_id":"4","last_reported":1684130971,"current_range_meters":18400,"station_id":"ce4bhq12rcd13ifvqhhg","pricing_plan_id":"free"},{"bike_id":"29928357-fcee-4843-83e7-3c8513ca3725","system_id":"levelo_inurba_marseille","lat":43.325233,"lon":5.414318,"is_reserved":false,"is_disabled":false,"rental_uris":{"android":"levelo://app?vid=29928357-fcee-4843-83e7-3c8513ca3725","ios":"levelo://app?vid=29928357-fcee-4843-83e7-3c8513ca3725"},"vehicle_type_id":"4","last_reported":1684130971,"current_range_meters":18400,"station_id":"ce4bhq12rcd13ifvqhhg","pricing_plan_id":"free"},{"bike_id":"db4c06c4-7ebe-4673-b2cb-90f55c7c7db4","system_id":"levelo_inurba_marseille","lat":43.325233,"lon":5.414318,"is_reserved":false,"is_disabled":false,"rental_uris":{"android":"levelo://app?vid=db4c06c4-7ebe-4673-b2cb-90f55c7c7db4","ios":"levelo://app?vid=db4c06c4-7ebe-4673-b2cb-90f55c7c7db4"},"vehicle_type_id":"4","last_reported":1684130971,"current_range_meters":24000,"station_id":"ce4bhq12rcd13ifvqhhg","pricing_plan_id":"free"},{"bike_id":"be8f29dc-e14c-4d8a-82d8-25863b1af925","system_id":"levelo_inurba_marseille","lat":43.325233,"lon":5.414318,"is_reserved":false,"is_disabled":false,"rental_uris":{"android":"levelo://app?vid=be8f29dc-e14c-4d8a-82d8-25863b1af925","ios":"levelo://app?vid=be8f29dc-e14c-4d8a-82d8-25863b1af925"},"vehicle_type_id":"4","last_reported":1684130971,"current_range_meters":6400,"station_id":"ce4bhq12rcd13ifvqhhg","pricing_plan_id":"free"},{"bike_id":"27fc7b1c-39cd-4363-b6fb-e6cbeaaa1487","system_id":"levelo_inurba_marseille","lat":43.325233,"lon":5.414318,"is_reserved":false,"is_disabled":false,"rental_uris":{"android":"levelo://app?vid=27fc7b1c-39cd-4363-b6fb-e6cbeaaa1487","ios":"levelo://app?vid=27fc7b1c-39cd-4363-b6fb-e6cbeaaa1487"},"vehicle_type_id":"4","last_reported":1684130971,"current_range_meters":27600,"station_id":"ce4bhq12rcd13ifvqhhg","pricing_plan_id":"free"},{"bike_id":"bf1d0a6f-7116-4535-aa6b-2c60e12e7d98","system_id":"levelo_inurba_marseille","lat":43.325233,"lon":5.414318,"is_reserved":false,"is_disabled":false,"rental_uris":{"android":"levelo://app?vid=bf1d0a6f-7116-4535-aa6b-2c60e12e7d98","ios":"levelo://app?vid=bf1d0a6f-7116-4535-aa6b-2c60e12e7d98"},"vehicle_type_id":"4","last_reported":1684130971,"current_range_meters":31200,"station_id":"ce4bhq12rcd13ifvqhhg","pricing_plan_id":"free"},{"bike_id":"e4f20168-808a-47b4-b5fa-8f8a4908b48a","system_id":"levelo_inurba_marseille","lat":43.27619,"lon":5.36115,"is_reserved":false,"is_disabled":false,"rental_uris":{"android":"levelo://app?vid=e4f20168-808a-47b4-b5fa-8f8a4908b48a","ios":"levelo://app?vid=e4f20168-808a-47b4-b5fa-8f8a4908b48a"},"vehicle_type_id":"4","last_reported":1684130971,"current_range_meters":0,"station_id":"ce4bgj92rcd13ifvqbe0","pricing_plan_id":"free"},