{"last_updated":1726841354,"ttl":30,"version":"2.2","data":{"bikes":[{"bike_id":"998a7484-cc8d-44b0-8248-ca24acac99ae","system_id":"levelo_inurba_marseille","lat":43.29261,"lon":5.40906,"is_reserved":false,"is_disabled":false,"rental_uris":{"android":"levelo://app?vid=998a7484-cc8d-44b0-8248-ca24acac99ae","ios":"levelo://app?vid=998a7484-cc8d-44b0-8248-ca24acac99ae"},"vehicle_type_id":"4","last_reported":1726841354,"current_range_meters":12400,"station_id":"ce4bh192rcd13ifvqdc0","pricing_plan_id":"cebpf4jnsgd1na2vs0mg"},{"bike_id":"f207cfa9-5026-4c78-a367-70a27a50fa8c","system_id":"levelo_inurba_marseille","lat":43.25867,"lon":5.39896,"is_reserved":false,"is_disabled":false,"rental_uris":{"android":"levelo://app?vid=f207cfa9-5026-4c78-a367-70a27a50fa8c","ios":"levelo://app?vid=f207cfa9-5026-4c78-a367-70a27a50fa8c"},"vehicle_type_id":"4","last_reported":1726841354,"current_range_meters":3200,"station_id":"ce4bhl92rcd13ifvqghg","pricing_plan_id":"cebpf4jnsgd1na2vs0mg"},{"bike_id":"d8a06c8c-21bf-4d11-81f8-2a6f92c82449","system_id":"levelo_inurba_marseille","lat":43.30252,"lon":5.40062,"is_reserved":false,"is_disabled":false,"rental_uris":{"android":"levelo://app?vid=d8a06c8c-21bf-4d11-81f8-2a6f92c82449","ios":"levelo://app?vid=d8a06c8c-21bf-4d11-81f8-2a6f92c82449"},"vehicle_type_id":"4","last_reported":1726841354,"current_range_meters":11600,"station_id":"ce4bgvh2rcd13ifvqcs0","pricing_plan_id":"cebpf4jnsgd1na2vs0mg"},{"bike_id":"b70b1a99-d17d-4191-8be1-196dcdfd13e3","system_id":"levelo_inurba_marseille","lat":43.26941,"lon":5.38929,"is_reserved":false,"is_disabled":false,"rental_uris":{"android":"levelo://app?vid=b70b1a99-d17d-4191-8be1-196dcdfd13e3","ios":"levelo://app?vid=b70b1a99-d17d-4191-8be1-196dcdfd13e3"},"vehicle_type_id":"4","last_reported":1726841354,"current_range_meters":8000,"station_id":"ce4bhhh2rcd13ifvqfl0","pricing_plan_id":"cebpf4jnsgd1na2vs0mg"},{"bike_id":"ab3c97a3-16a3-4cde-ae79-33dfeab073d5","system_id":"levelo_inurba_marseille","lat":43.29938,"lon":5.36534,"is_reserved":false,"is_disabled":false,"rental_uris":{"android":"levelo://app?vid=ab3c97a3-16a3-4cde-ae79-33dfeab073d5","ios":"levelo://app?vid=ab3c97a3-16a3-4cde-ae79-33dfeab073d5"},"vehicle_type_id":"4","last_reported":1726841354,"current_range_meters":27200,"station_id":"ce4bgm92rcd13ifvqbr0","pricing_plan_id":"cebpf4jnsgd1na2vs0mg"},{"bike_id":"caacc5f9-63ca-414d-9124-88e29a835149","system_id":"levelo_inurba_marseille","lat":43.29851,"lon":5.36286,"is_reserved":false,"is_disabled":false,"rental_uris":{"android":"levelo://app?vid=caacc5f9-63ca-414d-9124-88e29a835149","ios":"levelo://app?vid=caacc5f9-63ca-414d-9124-88e29a835149"},"vehicle_type_id":"4","last_reported":1726841354,"current_range_meters":38800,"station_id":"ce4bgpp2rcd13ifvqc3g","pricing_plan_id":"cebpf4jnsgd1na2vs0mg"},{"bike_id":"085679db-54cf-4131-a562-cf8aa2802334","system_id":"levelo_inurba_marseille","lat":43.31684,"lon":5.40471,"is_reserved":false,"is_disabled":false,"rental_uris":{"android":"levelo://app?vid=085679db-54cf-4131-a562-cf8aa2802334","ios":"levelo://app?vid=085679db-54cf-4131-a562-cf8aa2802334"},"vehicle_type_id":"4","last_reported":1726841354,"current_range_meters":12800,"station_id":"ce4bh012rcd13ifvqd00","pricing_plan_id":"cebpf4jnsgd1na2vs0mg"},{"bike_id":"5eb090ec-2b95-4c94-8161-eff4c8f0e709","system_id":"levelo_inurba_marseille","lat":43.32489,"lon":5.36571,"is_reserved":false,"is_disabled":false,"rental_uris":{"android":"levelo://app?vid=5eb090ec-2b95-4c94-8161-eff4c8f0e709","ios":"levelo://app?vid=5eb090ec-2b95-4c94-8161-eff4c8f0e709"},"vehicle_type_id":"4","last_reported":1726841354,"current_range_meters":12400,"station_id":"ce4bhs12rcd13ifvqhvg","pricing_plan_id":"cebpf4jnsgd1na2vs0mg"},{"bike_id":"284a913a-c67a-4aeb-bf72-6950517ee3c7","system_id":"levelo_inurba_marseille","lat":43.291,"lon":5.38164,"is_reserved":false,"is_disabled":false,"rental_uris":{"android":"levelo://app?vid=284a913a-c67a-4aeb-bf72-6950517ee3c7","ios":"levelo://app?vid=284a913a-c67a-4aeb-bf72-6950517ee3c7"},"vehicle_type_id":"4","last_reported":1726841354,"current_range_meters":14400,"station_id":"ce4bh512rcd13ifvqe2g","pricing_plan_id":"cebpf4jnsgd1na2vs0mg"},{"bike_id":"bd1f9e2c-9a76-437d-b6aa-4337739549c9","system_id":"levelo_inurba_marseille","lat":43.32476,"lon":5.36594,"is_reserved":false,"is_disabled":false,"rental_uris":{"android":"levelo://app?vid=bd1f9e2c-9a76-437d-b6aa-4337739549c9","ios":"levelo://app?vid=bd1f9e2c-9a76-437d-b6aa-4337739549c9"},"vehicle_type_id":"4","last_reported":1726841354,"current_range_meters":19200,"station_id":"ce4bhs12rcd13ifvqhvg","pricing_plan_id":"cebpf4jnsgd1na2vs0mg"},{"bike_id":"fdc69bcf-7945-4097-982d-215e43619115","system_id":"levelo_inurba_marseille","lat":43.29845,"lon":5.36272,"is_reserved":false,"is_disabled":false,"rental_uris":{"android":"levelo://app?vid=fdc69bcf-7945-4097-982d-215e43619115","ios":"levelo://app?vid=fdc69bcf-7945-4097-982d-215e43619115"},"vehicle_type_id":"4","last_reported":1726841354,"current_range_meters":38800,"station_id":"ce4bgpp2rcd13ifvqc3g","pricing_plan_id":"cebpf4jnsgd1na2vs0mg"},{"bike_id":"abebac80-81e1-47ff-86e5-ec6af2620389","system_id":"levelo_inurba_marseille","lat":43.31327,"lon":5.39694,"is_reserved":false,"is_disabled":false,"rental_uris":{"android":"levelo://app?vid=abebac80-81e1-47ff-86e5-ec6af2620389","ios":"levelo://app?vid=abebac80-81e1-47ff-86e5-ec6af2620389"},"vehicle_type_id":"4","last_reported":1726841354,"current_range_meters":18000,"station_id":"ce4bgvp2rcd13ifvqcu0","pricing_plan_id":"cebpf4jnsgd1na2vs0mg"},{"bike_id":"4157a7a5-a7db-4a90-9504-66e91e2d691f","system_id":"levelo_inurba_marseille","lat":43.2717,"lon":5.40994,"is_reserved":false,"is_disabled":false,"rental_uris":{"android":"levelo://app?vid=4157a7a5-a7db-4a90-9504-66e91e2d691f","ios":"levelo://app?vid=4157a7a5-a7db-4a90-9504-66e91e2d691f"},"vehicle_type_id":"4","last_reported":1726841354,"current_range_meters":19600,"station_id":"ce4bhl12rcd13ifvqgf0","pricing_plan_id":"cebpf4jnsgd1na2vs0mg"},{"bike_id":"07aa0907-d512-448d-9812-2c607f2bfeb1","system_id":"levelo_inurba_marseille","lat":43.26928,"lon":5.38922,"is_reserved":false,"is_disabled":false,"rental_uris":{"android":"levelo://app?vid=07aa0907-d512-448d-9812-2c607f2bfeb1","ios":"levelo://app?vid=07aa0907-d512-448d-9812-2c607f2bfeb1"},"vehicle_type_id":"4","last_reported":1726841354,"current_range_meters":28400,"station_id":"ce4bhhh2rcd13ifvqfl0","pricing_plan_id":"cebpf4jnsgd1na2vs0mg"},{"bike_id":"6d12f229-6eef-4f4c-91f6-1c1a2cda938d","system_id":"levelo_inurba_marseille","lat":43.29717,"lon":5.377,"is_reserved":false,"is_disabled":false,"rental_uris":{"android":"levelo://app?vid=6d12f229-6eef-4f4c-91f6-1c1a2cda938d","ios":"levelo://app?vid=6d12f229-6eef-4f4c-91f6-1c1a2cda938d"},"vehicle_type_id":"4","last_reported":1726841354,"current_range_meters":38400,"station_id":"ce4bgkh2rcd13ifvqbl0","pricing_plan_id":"cebpf4jnsgd1na2vs0mg"},{"bike_id":"838e99a9-3d23-4997-ab0d-600a12008281","system_id":"levelo_inurba_marseille","lat":43.27497,"lon":5.42453,"is_reserved":false,"is_disabled":false,"rental_uris":{"android":"levelo://app?vid=838e99a9-3d23-4997-ab0d-600a12008281","ios":"levelo://app?vid=838e99a9-3d23-4997-ab0d-600a12008281"},"vehicle_type_id":"4","last_reported":1726841354,"current_range_meters":19600,"station_id":"ce4bhn92rcd13ifvqgrg","pricing_plan_id":"cebpf4jnsgd1na2vs0mg"},{"bike_id":"85c2dc7a-89e4-4761-a9ab-a953ed802d70","system_id":"levelo_inurba_marseille","lat":43.27068,"lon":5.42278,"is_reserved":false,"is_disabled":false,"rental_uris":{"android":"levelo://app?vid=85c2dc7a-89e4-4761-a9ab-a953ed802d70","ios":"levelo://app?vid=85c2dc7a-89e4-4761-a9ab-a953ed802d70"},"vehicle_type_id":"4","last_reported":1726841354,"current_range_meters":8800,"station_id":"ce4bhk92rcd13ifvqgb0","pricing_plan_id":"cebpf4jnsgd1na2vs0mg"},{"bike_id":"49f16248-18e8-4962-9435-dad9616472e7","system_id":"levelo_inurba_marseille","lat":43.27371,"lon":5.36247,"is_reserved":false,"is_disabled":false,"rental_uris":{"android":"levelo://app?vid=49f16248-18e8-4962-9435-dad9616472e7","ios":"levelo://app?vid=49f16248-18e8-4962-9435-dad9616472e7"},"vehicle_type_id":"4","last_reported":1726841354,"current_range_meters":39200,"station_id":"ce4bhbh2rcd13ifvqeo0","pricing_plan_id":"cebpf4jnsgd1na2vs0mg"},{"bike_id":"ff35890d-b554-4d05-bdf1-94a62004aa36","system_id":"levelo_inurba_marseille","lat":43.29937,"lon":5.36548,"is_reserved":false,"is_disabled":false,"rental_uris":{"android":"levelo://app?vid=ff35890d-b554-4d05-bdf1-94a62004aa36","ios":"levelo://app?vid=ff35890d-b554-4d05-bdf1-94a62004aa36"},"vehicle_type_id":"4","last_reported":1726841354,"current_range_meters":17200,"station_id":"ce4bgm92rcd13ifvqbr0","pricing_plan_id":"cebpf4jnsgd1na2vs0mg"},{"bike_id":"7eda2195-2c36-40de-8ec6-4570774b5bd2","system_id":"levelo_inurba_marseille","lat":43.28938,"lon":5.36635,"is_reserved":false,"is_disabled":false,"rental_uris":{"android":"levelo://app?vid=7eda2195-2c36-40de-8ec6-4570774b5bd2","ios":"levelo://app?vid=7eda2195-2c36-40de-8ec6-4570774b5bd2"},"vehicle_type_id":"4","last_reported":1726841354,"current_range_meters":37600,"station_id":"ce4bhap2rcd13ifvqek0","pricing_plan_id":"cebpf4jnsgd1na2vs0mg"},{"bike_id":"0c727f18-7eb4-479b-a38c-2746903fc6ab","system_id":"levelo_inurba_marseille","lat":43.27366,"lon":5.36243,"is_reserved":false,"is_disabled":false,"rental_uris":{"android":"levelo://app?vid=0c727f18-7eb4-479b-a38c-2746903fc6ab","ios":"levelo://app?vid=0c727f18-7eb4-479b-a38c-2746903fc6ab"},"vehicle_type_id":"4","last_reported":1726841354,"current_range_meters":10000,"station_id":"ce4bhbh2rcd13ifvqeo0","pricing_plan_id":"cebpf4jnsgd1na2vs0mg"},{"bike_id":"670f2991-c103-42b0-a843-4ef102e2f553","system_id":"levelo_inurba_marseille","lat":43.29977,"lon":5.38469,"is_reserved":false,"is_disabled":false,"rental_uris":{"android":"levelo://app?vid=670f2991-c103-42b0-a843-4ef102e2f553","ios":"levelo://app?vid=670f2991-c103-42b0-a843-4ef102e2f553"},"vehicle_type_id":"4","last_reported":1726841354,"current_range_meters":38800,"station_id":"ce4bgj92rcd13ifvqbd0","pricing_plan_id":"cebpf4jnsgd1na2vs0mg"},{"bike_id":"d26e0674-4f12-40af-950b-817215364b2a","system_id":"levelo_inurba_marseille","lat":43.30407,"lon":5.36884,"is_reserved":false,"is_disabled":false,"rental_uris":{"android":"levelo://app?vid=d26e0674-4f12-40af-950b-817215364b2a","ios":"levelo://app?vid=d26e0674-4f12-40af-950b-817215364b2a"},"vehicle_type_id":"4","last_reported":1726841354,"current_range_meters":24800,"station_id":"","pricing_plan_id":"cebpf4jnsgd1na2vs0mg"},{"bike_id":"8971dc5c-c971-4030-9150-4fd6dc95ffc2","system_id":"levelo_inurba_marseille","lat":43.30249,"lon":5.40066,"is_reserved":false,"is_disabled":false,"rental_uris":{"android":"levelo://app?vid=8971dc5c-c971-4030-9150-4fd6dc95ffc2","ios":"levelo://app?vid=8971dc5c-c971-4030-9150-4fd6dc95ffc2"},"vehicle_type_id":"4","last_reported":1726841354,"current_range_meters":4000,"station_id":"ce4bgvh2rcd13ifvqcs0","pricing_plan_id":"cebpf4jnsgd1na2vs0mg"},{"bike_id":"b7739bb2-70ce-455b-a2c7-e2764064942b","system_id":"levelo_inurba_marseille","lat":43.29076,"lon":5.37182,"is_reserved":false,"is_disabled":false,"rental_uris":{"android":"levelo://app?vid=b7739bb2-70ce-455b-a2c7-e2764064942b","ios":"levelo://app?vid=b7739bb2-70ce-455b-a2c7-e2764064942b"},"vehicle_type_id":"4","last_reported":1726841354,"current_range_meters":28400,"station_id":"ce4bh5p2rcd13ifvqe4g","pricing_plan_id":"cebpf4jnsgd1na2vs0mg"},{"bike_id":"525d65ad-c68a-4bc7-81da-ac1570ffba9c","system_id":"levelo_inurba_marseille","lat":43.32365,"lon":5.38885,"is_reserved":false,"is_disabled":false,"rental_uris":{"android":"levelo://app?vid=525d65ad-c68a-4bc7-81da-ac1570ffba9c","ios":"levelo://app?vid=525d65ad-c68a-4bc7-81da-ac1570ffba9c"},"vehicle_type_id":"4","last_reported":1726841354,"current_range_meters":6400,"station_id":"ce4bhqp2rcd13ifvqhog","pricing_plan_id":"cebpf4jnsgd1na2vs0mg"},{"bike_id":"72280985-b6e5-4e2f-9424-ddb5ef194fe4","system_id":"levelo_inurba_marseille","lat":43.282654,"lon":5.350562,"is_reserved":false,"is_disabled":false,"rental_uris":{"android":"levelo://app?vid=72280985-b6e5-4e2f-9424-ddb5ef194fe4","ios":"levelo://app?vid=72280985-b6e5-4e2f-9424-ddb5ef194fe4"},"vehicle_type_id":"4","last_reported":1726841354,"current_range_meters":22400,"station_id":"ce4bhbp2rcd13ifvqerg","pricing_plan_id":"cebpf4jnsgd1na2vs0mg"},{"bike_id":"036ab25f-0c34-4c45-8e88-1fc9200da6fd","system_id":"levelo_inurba_marseille","lat":43.27174,"lon":5.42681,"is_reserved":false,"is_disabled":false,"rental_uris":{"android":"levelo://app?vid=036ab25f-0c34-4c45-8e88-1fc9200da6fd","ios":"levelo://app?vid=036ab25f-0c34-4c45-8e88-1fc9200da6fd"},"vehicle_type_id":"4","last_reported":1726841354,"current_range_meters":25600,"station_id":"","pricing_plan_id":"cebpf4jnsgd1na2vs0mg"},{"bike_id":"68925a1a-2f5c-431f-9b33-d8dddae89e1e","system_id":"levelo_inurba_marseille","lat":43.29256,"lon":5.40919,"is_reserved":false,"is_disabled":false,"rental_uris":{"android":"levelo://app?vid=68925a1a-2f5c-431f-9b33-d8dddae89e1e","ios":"levelo://app?vid=68925a1a-2f5c-431f-9b33-d8dddae89e1e"},"vehicle_type_id":"4","last_reported":1726841354,"current_range_meters":28400,"station_id":"ce4bh192rcd13ifvqdc0","pricing_plan_id":"cebpf4jnsgd1na2vs0mg"},{"bike_id":"7a95bc03-d05d-4cfa-a33c-710d24b3fd54","system_id":"levelo_inurba_marseille","lat":43.3015,"lon":5.38084,"is_reserved":false,"is_disabled":false,"rental_uris":{"android":"levelo://app?vid=7a95bc03-d05d-4cfa-a33c-710d24b3fd54","ios":"levelo://app?vid=7a95bc03-d05d-4cfa-a33c-710d24b3fd54"},"vehicle_type_id":"4","last_reported":1726841354,"current_range_meters":26800,"station_id":"ce4bgjp2rcd13ifvqbh0","pricing_plan_id":"cebpf4jnsgd1na2vs0mg"},{"bike_id":"6d4e2dc3-7d2c-43bd-96b9-92881bcd370d","system_id":"levelo_inurba_marseille","lat":43.30776,"lon":5.3765,"is_reserved":false,"is_disabled":false,"rental_uris":{"android":"levelo://app?vid=6d4e2dc3-7d2c-43bd-96b9-92881bcd370d","ios":"levelo://app?vid=6d4e2dc3-7d2c-43bd-96b9-92881bcd370d"},"vehicle_type_id":"4","last_reported":1726841354,"current_range_meters":34800,"station_id":"ce4bgv92rcd13ifvqcq0","pricing_plan_id":"cebpf4jnsgd1na2vs0mg"},{"bike_id":"e3157b7d-f63e-4215-9b0b-bec081b31a83","system_id":"levelo_inurba_marseille","lat":43.32484,"lon":5.36581,"is_reserved":false,"is_disabled":false,"rental_uris":{"android":"levelo://app?vid=e3157b7d-f63e-4215-9b0b-bec081b31a83","ios":"levelo://app?vid=e3157b7d-f63e-4215-9b0b-bec081b31a83"},"vehicle_type_id":"4","last_reported":1726841354,"current_range_meters":4800,"station_id":"ce4bhs12rcd13ifvqhvg","pricing_plan_id":"cebpf4jnsgd1na2vs0mg"},{"bike_id":"c396f73c-1f26-499c-9cfa-a25a26a45c47","system_id":"levelo_inurba_marseille","lat":43.31076,"lon":5.38359,"is_reserved":false,"is_disabled":false,"rental_uris":{"android":"levelo://app?vid=c396f73c-1f26-499c-9cfa-a25a26a45c47","ios":"levelo://app?vid=c396f73c-1f26-499c-9cfa-a25a26a45c47"},"vehicle_type_id":"4","last_reported":1726841354,"current_range_meters":25200,"station_id":"ce4bgv92rcd13ifvqcr0","pricing_plan_id":"cebpf4jnsgd1na2vs0mg"},{"bike_id":"751f90c9-696d-43a3-abf5-68be55a262c9","system_id":"levelo_inurba_marseille","lat":43.33613,"lon":5.41012,"is_reserved":false,"is_disabled":false,"rental_uris":{"android":"levelo://app?vid=751f90c9-696d-43a3-abf5-68be55a262c9","ios":"levelo://app?vid=751f90c9-696d-43a3-abf5-68be55a262c9"},"vehicle_type_id":"4","last_reported":1726841354,"current_range_meters":36400,"station_id":"ce4bhqh2rcd13ifvqhmg","pricing_plan_id":"cebpf4jnsgd1na2vs0mg"},{"bike_id":"41c671e7-0e66-43cb-9530-7ee82056ea98","system_id":"levelo_inurba_marseille","lat":43.3078,"lon":5.37648,"is_reserved":false,"is_disabled":false,"rental_uris":{"android":"levelo://app?vid=41c671e7-0e66-43cb-9530-7ee82056ea98","ios":"levelo://app?vid=41c671e7-0e66-43cb-9530-7ee82056ea98"},"vehicle_type_id":"4","last_reported":1726841354,"current_range_meters":29600,"station_id":"ce4bgv92rcd13ifvqcq0","pricing_plan_id":"cebpf4jnsgd1na2vs0mg"},{"bike_id":"edfb1ff5-b81b-4225-8da9-100a9115b1e3","system_id":"levelo_inurba_marseille","lat":43.29735,"lon":5.36561,"is_reserved":false,"is_disabled":false,"rental_uris":{"android":"levelo://app?vid=edfb1ff5-b81b-4225-8da9-100a9115b1e3","ios":"levelo://app?vid=edfb1ff5-b81b-4225-8da9-100a9115b1e3"},"vehicle_type_id":"4","last_reported":1726841354,"current_range_meters":12400,"station_id":"","pricing_plan_id":"cebpf4jnsgd1na2vs0mg"},{"bike_id":"86e241ad-3bf4-4c95-be07-5bd0061c287b","system_id":"levelo_inurba_marseille","lat":43.31713,"lon":5.43707,"is_reserved":false,"is_disabled":false,"rental_uris":{"android":"levelo://app?vid=86e241ad-3bf4-4c95-be07-5bd0061c287b","ios":"levelo://app?vid=86e241ad-3bf4-4c95-be07-5bd0061c287b"},"vehicle_type_id":"4","last_reported":1726841354,"current_range_meters":4400,"station_id":"ce4bhp92rcd13ifvqhcg","pricing_plan_id":"cebpf4jnsgd1na2vs0mg"},{"bike_id":"15e3060d-1cfb-481c-9f48-257a94bd2c2a","system_id":"levelo_inurba_marseille","lat":43.32477,"lon":5.40757,"is_reserved":false,"is_disabled":false,"rental_uris":{"android":"levelo://app?vid=15e3060d-1cfb-481c-9f48-257a94bd2c2a","ios":"levelo://app?vid=15e3060d-1cfb-481c-9f48-257a94bd2c2a"},"vehicle_type_id":"4","last_reported":1726841354,"current_range_meters":36800,"station_id":"","pricing_plan_id":"cebpf4jnsgd1na2vs0mg"},{"bike_id":"c8558a3e-0779-4454-9c3b-d1ee2706fdca","system_id":"levelo_inurba_marseille","lat":43.3171,"lon":5.43706,"is_reserved":false,"is_disabled":false,"rental_uris":{"android":"levelo://app?vid=c8558a3e-0779-4454-9c3b-d1ee2706fdca","ios":"levelo://app?vid=c8558a3e-0779-4454-9c3b-d1ee2706fdca"},"vehicle_type_id":"4","last_reported":1726841354,"current_range_meters":24000,"station_id":"ce4bhp92rcd13ifvqhcg","pricing_plan_id":"cebpf4jnsgd1na2vs0mg"},{"bike_id":"bda225d7-2c51-4bc3-9f1b-4be4947ab671","system_id":"levelo_inurba_marseille","lat":43.29881,"lon":5.38912,"is_reserved":false,"is_disabled":false,"rental_uris":{"android":"levelo://app?vid=bda225d7-2c51-4bc3-9f1b-4be4947ab671","ios":"levelo://app?vid=bda225d7-2c51-4bc3-9f1b-4be4947ab671"},"vehicle_type_id":"4","last_reported":1726841354,"current_range_meters":22000,"station_id":"ce4bh392rcd13ifvqdl0","pricing_plan_id":"cebpf4jnsgd1na2vs0mg"},{"bike_id":"1b6a6443-bf2b-400a-9b14-ef5bf1831f50","system_id":"levelo_inurba_marseille","lat":43.295914,"lon":5.376254,"is_reserved":false,"is_disabled":false,"rental_uris":{"android":"levelo://app?vid=1b6a6443-bf2b-400a-9b14-ef5bf1831f50","ios":"levelo://app?vid=1b6a6443-bf2b-400a-9b14-ef5bf1831f50"},"vehicle_type_id":"4","last_reported":1726841354,"current_range_meters":29600,"station_id":"","pricing_plan_id":"cebpf4jnsgd1na2vs0mg"},{"bike_id":"2dbb1663-551c-4fd6-9505-2a6c2c009f8a","system_id":"levelo_inurba_marseille","lat":43.28701,"lon":5.39987,"is_reserved":false,"is_disabled":false,"rental_uris":{"android":"levelo://app?vid=2dbb1663-551c-4fd6-9505-2a6c2c009f8a","ios":"levelo://app?vid=2dbb1663-551c-4fd6-9505-2a6c2c009f8a"},"vehicle_type_id":"4","last_reported":1726841354,"current_range_meters":38800,"station_id":"ce4bho92rcd13ifvqh3g","pricing_plan_id":"cebpf4jnsgd1na2vs0mg"},{"bike_id":"750d22d5-ef05-425e-b6ae-d9a0de528b7b","system_id":"levelo_inurba_marseille","lat":43.298445,"lon":5.362773,"is_reserved":false,"is_disabled":false,"rental_uris":{"android":"levelo://app?vid=750d22d5-ef05-425e-b6ae-d9a0de528b7b","ios":"levelo://app?vid=750d22d5-ef05-425e-b6ae-d9a0de528b7b"},"vehicle_type_id":"4","last_reported":1726841354,"current_range_meters":36000,"station_id":"ce4bgpp2rcd13ifvqc3g","pricing_plan_id":"cebpf4jnsgd1na2vs0mg"},{"bike_id":"1de8b0b0-9b73-4676-8f57-40158558fb80","system_id":"levelo_inurba_marseille","lat":43.30356,"lon":5.4188,"is_reserved":false,"is_disabled":false,"rental_uris":{"android":"levelo://app?vid=1de8b0b0-9b73-4676-8f57-40158558fb80","ios":"levelo://app?vid=1de8b0b0-9b73-4676-8f57-40158558fb80"},"vehicle_type_id":"4","last_reported":1726841354,"current_range_meters":34800,"station_id":"ce4bhop2rcd13ifvqh7g","pricing_plan_id":"cebpf4jnsgd1na2vs0mg"},{"bike_id":"8579d788-2e92-45c8-bb60-bebdcadadd00","system_id":"levelo_inurba_marseille","lat":43.31712,"lon":5.37771,"is_reserved":false,"is_disabled":false,"rental_uris":{"android":"levelo://app?vid=8579d788-2e92-45c8-bb60-bebdcadadd00","ios":"levelo://app?vid=8579d788-2e92-45c8-bb60-bebdcadadd00"},"vehicle_type_id":"4","last_reported":1726841354,"current_range_meters":28000,"station_id":"ce4bgth2rcd13ifvqch0","pricing_plan_id":"cebpf4jnsgd1na2vs0mg"},{"bike_id":"e6805398-14bf-4c72-b165-1bedb5484a2a","system_id":"levelo_inurba_marseille","lat":43.29844,"lon":5.36269,"is_reserved":false,"is_disabled":false,"rental_uris":{"android":"levelo://app?vid=e6805398-14bf-4c72-b165-1bedb5484a2a","ios":"levelo://app?vid=e6805398-14bf-4c72-b165-1bedb5484a2a"},"vehicle_type_id":"4","last_reported":1726841354,"current_range_meters":38800,"station_id":"ce4bgpp2rcd13ifvqc3g","pricing_plan_id":"cebpf4jnsgd1na2vs0mg"},{"bike_id":"02f99fc3-49c6-4c5e-857d-ff397dbae8b0","system_id":"levelo_inurba_marseille","lat":43.29918,"lon":5.3653,"is_reserved":false,"is_disabled":false,"rental_uris":{"android":"levelo://app?vid=02f99fc3-49c6-4c5e-857d-ff397dbae8b0","ios":"levelo://app?vid=02f99fc3-49c6-4c5e-857d-ff397dbae8b0"},"vehicle_type_id":"4","last_reported":1726841354,"current_range_meters":38800,"station_id":"ce4bgm92rcd13ifvqbr0","pricing_plan_id":"cebpf4jnsgd1na2vs0mg"},{"bike_id":"63c125da-ee6e-4cf2-a549-d9513e430075","system_id":"levelo_inurba_marseille","lat":43.299347,"lon":5.365498,"is_reserved":false,"is_disabled":false,"rental_uris":{"android":"levelo://app?vid=63c125da-ee6e-4cf2-a549-d9513e430075","ios":"levelo://app?vid=63c125da-ee6e-4cf2-a549-d9513e430075"},"vehicle_type_id":"4","last_reported":1726841354,"current_range_meters":38800,"station_id":"ce4bgm92rcd13ifvqbr0","pricing_plan_id":"cebpf4jnsgd1na2vs0mg"},{"bike_id":"e93662b1-08ac-4abd-82f8-d99e5f5f14d3","system_id":"levelo_inurba_marseille","lat":43.30606,"lon":5.37241,"is_reserved":false,"is_disabled":false,"rental_uris":{"android":"levelo://app?vid=e93662b1-08ac-4abd-82f8-d99e5f5f14d3","ios":"levelo://app?vid=e93662b1-08ac-4abd-82f8-d99e5f5f14d3"},"vehicle_type_id":"4","last_reported":1726841354,"current_range_meters":38800,"station_id":"ce4bgqh2rcd13ifvqc4g","pricing_plan_id":"cebpf4jnsgd1na2vs0mg"},{"bike_id":"8de75133-4506-4437-9f76-240f8612a523","system_id":"levelo_inurba_marseille","lat":43.29203,"lon":5.35801,"is_reserved":false,"is_disabled":false,"rental_uris":{"android":"levelo://app?vid=8de75133-4506-4437-9f76-240f8612a523","ios":"levelo://app?vid=8de75133-4506-4437-9f76-240f8612a523"},"vehicle_type_id":"4","last_reported":1726841354,"current_range_meters":15200,"station_id":"ce4bhb12rcd13ifvqel0","pricing_plan_id":"cebpf4jnsgd1na2vs0mg"},{"bike_id":"52f3ee45-5c3a-4b8d-aa96-10bd44749376","system_id":"levelo_inurba_marseille","lat":43.28263,"lon":5.35064,"is_reserved":false,"is_disabled":false,"rental_uris":{"android":"levelo://app?vid=52f3ee45-5c3a-4b8d-aa96-10bd44749376","ios":"levelo://app?vid=52f3ee45-5c3a-4b8d-aa96-10bd44749376"},"vehicle_type_id":"4","last_reported":1726841354,"current_range_meters":33600,"station_id":"ce4bhbp2rcd13ifvqerg","pricing_plan_id":"cebpf4jnsgd1na2vs0mg"},{"bike_id":"60fdeac2-b9dc-4151-a89f-a5b50a09a047","system_id":"levelo_inurba_marseille","lat":43.30192,"lon":5.36616,"is_reserved":false,"is_disabled":false,"rental_uris":{"android":"levelo://app?vid=60fdeac2-b9dc-4151-a89f-a5b50a09a047","ios":"levelo://app?vid=60fdeac2-b9dc-4151-a89f-a5b50a09a047"},"vehicle_type_id":"4","last_reported":1726841354,"current_range_meters":32400,"station_id":"ce4bgrh2rcd13ifvqc8g","pricing_plan_id":"cebpf4jnsgd1na2vs0mg"},{"bike_id":"54481278-d68c-4d66-91b4-e6497ba2e575","system_id":"levelo_inurba_marseille","lat":43.30356,"lon":5.41888,"is_reserved":false,"is_disabled":false,"rental_uris":{"android":"levelo://app?vid=54481278-d68c-4d66-91b4-e6497ba2e575","ios":"levelo://app?vid=54481278-d68c-4d66-91b4-e6497ba2e575"},"vehicle_type_id":"4","last_reported":1726841354,"current_range_meters":2800,"station_id":"ce4bhop2rcd13ifvqh7g","pricing_plan_id":"cebpf4jnsgd1na2vs0mg"},{"bike_id":"f9b2adf8-75ee-4ba7-a703-94f6aeaac232","system_id":"levelo_inurba_marseille","lat":43.29957,"lon":5.41321,"is_reserved":false,"is_disabled":false,"rental_uris":{"android":"levelo://app?vid=f9b2adf8-75ee-4ba7-a703-94f6aeaac232","ios":"levelo://app?vid=f9b2adf8-75ee-4ba7-a703-94f6aeaac232"},"vehicle_type_id":"4","last_reported":1726841354,"current_range_meters":14800,"station_id":"ce4bhp12rcd13ifvqh9g","pricing_plan_id":"cebpf4jnsgd1na2vs0mg"},{"bike_id":"40874b36-2da3-42e7-8f09-f1b3aa78ecc6","system_id":"levelo_inurba_marseille","lat":43.30139,"lon":5.38783,"is_reserved":false,"is_disabled":false,"rental_uris":{"android":"levelo://app?vid=40874b36-2da3-42e7-8f09-f1b3aa78ecc6","ios":"levelo://app?vid=40874b36-2da3-42e7-8f09-f1b3aa78ecc6"},"vehicle_type_id":"4","last_reported":1726841354,"current_range_meters":24800,"station_id":"ce4bghh2rcd13ifvqb60","pricing_plan_id":"cebpf4jnsgd1na2vs0mg"},{"bike_id":"5419b1bf-d37c-4076-a34c-52ede101758e","system_id":"levelo_inurba_marseille","lat":43.337444,"lon":5.374475,"is_reserved":false,"is_disabled":false,"rental_uris":{"android":"levelo://app?vid=5419b1bf-d37c-4076-a34c-52ede101758e","ios":"levelo://app?vid=5419b1bf-d37c-4076-a34c-52ede101758e"},"vehicle_type_id":"4","last_reported":1726841354,"current_range_meters":36800,"station_id":"","pricing_plan_id":"cebpf4jnsgd1na2vs0mg"},{"bike_id":"930df229-a4fc-46c0-980c-29c1519b09ed","system_id":"levelo_inurba_marseille","lat":43.32367,"lon":5.38884,"is_reserved":false,"is_disabled":false,"rental_uris":{"android":"levelo://app?vid=930df229-a4fc-46c0-980c-29c1519b09ed","ios":"levelo://app?vid=930df229-a4fc-46c0-980c-29c1519b09ed"},"vehicle_type_id":"4","last_reported":1726841354,"current_range_meters":20800,"station_id":"ce4bhqp2rcd13ifvqhog","pricing_plan_id":"cebpf4jnsgd1na2vs0mg"},{"bike_id":"d100d433-68bf-4855-90e8-b7aa028c66a6","system_id":"levelo_inurba_marseille","lat":43.25871,"lon":5.39892,"is_reserved":false,"is_disabled":false,"rental_uris":{"android":"levelo://app?vid=d100d433-68bf-4855-90e8-b7aa028c66a6","ios":"levelo://app?vid=d100d433-68bf-4855-90e8-b7aa028c66a6"},"vehicle_type_id":"4","last_reported":1726841354,"current_range_meters":16400,"station_id":"ce4bhl92rcd13ifvqghg","pricing_plan_id":"cebpf4jnsgd1na2vs0mg"},{"bike_id":"9733eb26-9e68-456c-b0c3-d7415e89c90e","system_id":"levelo_inurba_marseille","lat":43.30544,"lon":5.36695,"is_reserved":false,"is_disabled":false,"rental_uris":{"android":"levelo://app?vid=9733eb26-9e68-456c-b0c3-d7415e89c90e","ios":"levelo://app?vid=9733eb26-9e68-456c-b0c3-d7415e89c90e"},"vehicle_type_id":"4","last_reported":1726841354,"current_range_meters":28000,"station_id":"ce4bgrp2rcd13ifvqc9g","pricing_plan_id":"cebpf4jnsgd1na2vs0mg"},{"bike_id":"6716c3d1-091d-47b2-aef1-1262452066fc","system_id":"levelo_inurba_marseille","lat":43.29902,"lon":5.43659,"is_reserved":false,"is_disabled":false,"rental_uris":{"android":"levelo://app?vid=6716c3d1-091d-47b2-aef1-1262452066fc","ios":"levelo://app?vid=6716c3d1-091d-47b2-aef1-1262452066fc"},"vehicle_type_id":"4","last_reported":1726841354,"current_range_meters":2800,"station_id":"ce4bhpp2rcd13ifvqhfg","pricing_plan_id":"cebpf4jnsgd1na2vs0mg"},{"bike_id":"c1ffc301-eb47-4568-a88a-6c2d695b27b8","system_id":"levelo_inurba_marseille","lat":43.29956,"lon":5.37116,"is_reserved":false,"is_disabled":false,"rental_uris":{"android":"levelo://app?vid=c1ffc301-eb47-4568-a88a-6c2d695b27b8","ios":"levelo://app?vid=c1ffc301-eb47-4568-a88a-6c2d695b27b8"},"vehicle_type_id":"4","last_reported":1726841354,"current_range_meters":31200,"station_id":"","pricing_plan_id":"cebpf4jnsgd1na2vs0mg"},{"bike_id":"4d2bd7fd-dfdf-4515-be1e-c257ecc849e2","system_id":"levelo_inurba_marseille","lat":43.307962,"lon":5.376635,"is_reserved":false,"is_disabled":false,"rental_uris":{"android":"levelo://app?vid=4d2bd7fd-dfdf-4515-be1e-c257ecc849e2","ios":"levelo://app?vid=4d2bd7fd-dfdf-4515-be1e-c257ecc849e2"},"vehicle_type_id":"4","last_reported":1726841354,"current_range_meters":38800,"station_id":"ce4bgv92rcd13ifvqcq0","pricing_plan_id":"cebpf4jnsgd1na2vs0mg"},{"bike_id":"8ee6d5db-cb8b-4219-a1d2-5a1a8206952f","system_id":"levelo_inurba_marseille","lat":43.29554,"lon":5.42297,"is_reserved":false,"is_disabled":false,"rental_uris":{"android":"levelo://app?vid=8ee6d5db-cb8b-4219-a1d2-5a1a8206952f","ios":"levelo://app?vid=8ee6d5db-cb8b-4219-a1d2-5a1a8206952f"},"vehicle_type_id":"4","last_reported":1726841354,"current_range_meters":36800,"station_id":"ce4bhph2rcd13ifvqhdg","pricing_plan_id":"cebpf4jnsgd1na2vs0mg"},{"bike_id":"62b72fa3-65a2-4195-8fb6-0775e799cf90","system_id":"levelo_inurba_marseille","lat":43.30316,"lon":5.36895,"is_reserved":false,"is_disabled":false,"rental_uris":{"android":"levelo://app?vid=62b72fa3-65a2-4195-8fb6-0775e799cf90","ios":"levelo://app?vid=62b72fa3-65a2-4195-8fb6-0775e799cf90"},"vehicle_type_id":"4","last_reported":1726841354,"current_range_meters":38800,"station_id":"ce4bgqh2rcd13ifvqc5g","pricing_plan_id":"cebpf4jnsgd1na2vs0mg"},{"bike_id":"af42f746-66d2-45b8-9e58-3721ab0e338d","system_id":"levelo_inurba_marseille","lat":43.23189,"lon":5.35553,"is_reserved":false,"is_disabled":false,"rental_uris":{"android":"levelo://app?vid=af42f746-66d2-45b8-9e58-3721ab0e338d","ios":"levelo://app?vid=af42f746-66d2-45b8-9e58-3721ab0e338d"},"vehicle_type_id":"4","last_reported":1726841354,"current_range_meters":8000,"station_id":"ce4bhu92rcd13ifvqi70","pricing_plan_id":"cebpf4jnsgd1na2vs0mg"},{"bike_id":"b4d90691-b2ae-447e-84f7-f1a017bf250a","system_id":"levelo_inurba_marseille","lat":43.26555,"lon":5.37286,"is_reserved":false,"is_disabled":false,"rental_uris":{"android":"levelo://app?vid=b4d90691-b2ae-447e-84f7-f1a017bf250a","ios":"levelo://app?vid=b4d90691-b2ae-447e-84f7-f1a017bf250a"},"vehicle_type_id":"4","last_reported":1726841354,"current_range_meters":11200,"station_id":"ce4bhg12rcd13ifvqf70","pricing_plan_id":"cebpf4jnsgd1na2vs0mg"},{"bike_id":"0a8e3b15-a9b5-45e4-89e4-9e5efd9a94d5","system_id":"levelo_inurba_marseille","lat":43.30781,"lon":5.37658,"is_reserved":false,"is_disabled":false,"rental_uris":{"android":"levelo://app?vid=0a8e3b15-a9b5-45e4-89e4-9e5efd9a94d5","ios":"levelo://app?vid=0a8e3b15-a9b5-45e4-89e4-9e5efd9a94d5"},"vehicle_type_id":"4","last_reported":1726841354,"current_range_meters":23200,"station_id":"ce4bgv92rcd13ifvqcq0","pricing_plan_id":"cebpf4jnsgd1na2vs0mg"},{"bike_id":"66bdbe49-6c87-4f80-b9c2-4a52c0ab5db0","system_id":"levelo_inurba_marseille","lat":43.30535,"lon":5.36697,"is_reserved":false,"is_disabled":false,"rental_uris":{"android":"levelo://app?vid=66bdbe49-6c87-4f80-b9c2-4a52c0ab5db0","ios":"levelo://app?vid=66bdbe49-6c87-4f80-b9c2-4a52c0ab5db0"},"vehicle_type_id":"4","last_reported":1726841354,"current_range_meters":38800,"station_id":"ce4bgrp2rcd13ifvqc9g","pricing_plan_id":"cebpf4jnsgd1na2vs0mg"},{"bike_id":"7ec207bf-1fda-4a57-9dd8-b3f72a2b6051","system_id":"levelo_inurba_marseille","lat":43.294769,"lon":5.422161,"is_reserved":false,"is_disabled":false,"rental_uris":{"android":"levelo://app?vid=7ec207bf-1fda-4a57-9dd8-b3f72a2b6051","ios":"levelo://app?vid=7ec207bf-1fda-4a57-9dd8-b3f72a2b6051"},"vehicle_type_id":"4","last_reported":1726841354,"current_range_meters":4800,"station_id":"ce4bhph2rcd13ifvqhdg","pricing_plan_id":"cebpf4jnsgd1na2vs0mg"},{"bike_id":"8fe778eb-51bb-4a26-bc82-076b4d67de80","system_id":"levelo_inurba_marseille","lat":43.2987,"lon":5.38901,"is_reserved":false,"is_disabled":false,"rental_uris":{"android":"levelo://app?vid=8fe778eb-51bb-4a26-bc82-076b4d67de80","ios":"levelo://app?vid=8fe778eb-51bb-4a26-bc82-076b4d67de80"},"vehicle_type_id":"4","last_reported":1726841354,"current_range_meters":7200,"station_id":"ce4bh392rcd13ifvqdl0","pricing_plan_id":"cebpf4jnsgd1na2vs0mg"},{"bike_id":"d8042ac2-fb88-41e0-b4b4-1e9410b4225c","system_id":"levelo_inurba_marseille","lat":43.26503,"lon":5.39538,"is_reserved":false,"is_disabled":false,"rental_uris":{"android":"levelo://app?vid=d8042ac2-fb88-41e0-b4b4-1e9410b4225c","ios":"levelo://app?vid=d8042ac2-fb88-41e0-b4b4-1e9410b4225c"},"vehicle_type_id":"4","last_reported":1726841354,"current_range_meters":34000,"station_id":"ce4bhi12rcd13ifvqfq0","pricing_plan_id":"cebpf4jnsgd1na2vs0mg"},{"bike_id":"f67395d5-f1b9-4b9f-83ae-bb98d3798aab","system_id":"levelo_inurba_marseille","lat":43.27947,"lon":5.41055,"is_reserved":false,"is_disabled":false,"rental_uris":{"android":"levelo://app?vid=f67395d5-f1b9-4b9f-83ae-bb98d3798aab","ios":"levelo://app?vid=f67395d5-f1b9-4b9f-83ae-bb98d3798aab"},"vehicle_type_id":"4","last_reported":1726841354,"current_range_meters":18800,"station_id":"ce4bhnp2rcd13ifvqh0g","pricing_plan_id":"cebpf4jnsgd1na2vs0mg"},{"bike_id":"bd248bc7-a1a6-4c83-92d3-231a636890e1","system_id":"levelo_inurba_marseille","lat":43.308,"lon":5.43523,"is_reserved":false,"is_disabled":false,"rental_uris":{"android":"levelo://app?vid=bd248bc7-a1a6-4c83-92d3-231a636890e1","ios":"levelo://app?vid=bd248bc7-a1a6-4c83-92d3-231a636890e1"},"vehicle_type_id":"4","last_reported":1726841354,"current_range_meters":36000,"station_id":"ce4bhph2rcd13ifvqheg","pricing_plan_id":"cebpf4jnsgd1na2vs0mg"},{"bike_id":"39835e0c-d2bd-45ad-83d1-528c8268c33e","system_id":"levelo_inurba_marseille","lat":43.3005,"lon":5.38652,"is_reserved":false,"is_disabled":false,"rental_uris":{"android":"levelo://app?vid=39835e0c-d2bd-45ad-83d1-528c8268c33e","ios":"levelo://app?vid=39835e0c-d2bd-45ad-83d1-528c8268c33e"},"vehicle_type_id":"4","last_reported":1726841354,"current_range_meters":25600,"station_id":"ce4bgkp2rcd13ifvqbmg","pricing_plan_id":"cebpf4jnsgd1na2vs0mg"},{"bike_id":"848fcbaf-762a-4998-9605-3617d84f3ddd","system_id":"levelo_inurba_marseille","lat":43.288055,"lon":5.372625,"is_reserved":false,"is_disabled":false,"rental_uris":{"android":"levelo://app?vid=848fcbaf-762a-4998-9605-3617d84f3ddd","ios":"levelo://app?vid=848fcbaf-762a-4998-9605-3617d84f3ddd"},"vehicle_type_id":"4","last_reported":1726841354,"current_range_meters":9600,"station_id":"ce4bh3p2rcd13ifvqdq0","pricing_plan_id":"cebpf4jnsgd1na2vs0mg"},{"bike_id":"2a5f4809-b32c-471c-8b39-f40c684ecdac","system_id":"levelo_inurba_marseille","lat":43.246601,"lon":5.381581,"is_reserved":false,"is_disabled":false,"rental_uris":{"android":"levelo://app?vid=2a5f4809-b32c-471c-8b39-f40c684ecdac","ios":"levelo://app?vid=2a5f4809-b32c-471c-8b39-f40c684ecdac"},"vehicle_type_id":"4","last_reported":1726841354,"current_range_meters":15200,"station_id":"ce4bhih2rcd13ifvqfr0","pricing_plan_id":"cebpf4jnsgd1na2vs0mg"},{"bike_id":"604c9531-be4f-4974-bfe2-bd7828d7386f","system_id":"levelo_inurba_marseille","lat":43.29896,"lon":5.43673,"is_reserved":false,"is_disabled":false,"rental_uris":{"android":"levelo://app?vid=604c9531-be4f-4974-bfe2-bd7828d7386f","ios":"levelo://app?vid=604c9531-be4f-4974-bfe2-bd7828d7386f"},"vehicle_type_id":"4","last_reported":1726841354,"current_range_meters":28000,"station_id":"ce4bhpp2rcd13ifvqhfg","pricing_plan_id":"cebpf4jnsgd1na2vs0mg"},{"bike_id":"44da3e59-dcf2-4354-910f-f3fece0ed467","system_id":"levelo_inurba_marseille","lat":43.27064,"lon":5.42275,"is_reserved":false,"is_disabled":false,"rental_uris":{"android":"levelo://app?vid=44da3e59-dcf2-4354-910f-f3fece0ed467","ios":"levelo://app?vid=44da3e59-dcf2-4354-910f-f3fece0ed467"},"vehicle_type_id":"4","last_reported":1726841354,"current_range_meters":36800,"station_id":"ce4bhk92rcd13ifvqgb0","pricing_plan_id":"cebpf4jnsgd1na2vs0mg"},{"bike_id":"3fca3dc8-2ad6-4426-ac2c-4336fe7ea757","system_id":"levelo_inurba_marseille","lat":43.30775,"lon":5.37656,"is_reserved":false,"is_disabled":false,"rental_uris":{"android":"levelo://app?vid=3fca3dc8-2ad6-4426-ac2c-4336fe7ea757","ios":"levelo://app?vid=3fca3dc8-2ad6-4426-ac2c-4336fe7ea757"},"vehicle_type_id":"4","last_reported":1726841354,"current_range_meters":30400,"station_id":"ce4bgv92rcd13ifvqcq0","pricing_plan_id":"cebpf4jnsgd1na2vs0mg"},{"bike_id":"f60417c5-fffa-48de-88e5-a5c6a3d699a1","system_id":"levelo_inurba_marseille","lat":43.30146,"lon":5.38071,"is_reserved":false,"is_disabled":false,"rental_uris":{"android":"levelo://app?vid=f60417c5-fffa-48de-88e5-a5c6a3d699a1","ios":"levelo://app?vid=f60417c5-fffa-48de-88e5-a5c6a3d699a1"},"vehicle_type_id":"4","last_reported":1726841354,"current_range_meters":28800,"station_id":"ce4bgjp2rcd13ifvqbh0","pricing_plan_id":"cebpf4jnsgd1na2vs0mg"},{"bike_id":"b3709e79-c4a4-4e2b-95a5-ac09030928a9","system_id":"levelo_inurba_marseille","lat":43.30602,"lon":5.37221,"is_reserved":false,"is_disabled":false,"rental_uris":{"android":"levelo://app?vid=b3709e79-c4a4-4e2b-95a5-ac09030928a9","ios":"levelo://app?vid=b3709e79-c4a4-4e2b-95a5-ac09030928a9"},"vehicle_type_id":"4","last_reported":1726841354,"current_range_meters":38800,"station_id":"ce4bgqh2rcd13ifvqc4g","pricing_plan_id":"cebpf4jnsgd1na2vs0mg"},{"bike_id":"d989debf-39fa-4648-a146-53cfa2fe0e3b","system_id":"levelo_inurba_marseille","lat":43.27171,"lon":5.40986,"is_reserved":false,"is_disabled":false,"rental_uris":{"android":"levelo://app?vid=d989debf-39fa-4648-a146-53cfa2fe0e3b","ios":"levelo://app?vid=d989debf-39fa-4648-a146-53cfa2fe0e3b"},"vehicle_type_id":"4","last_reported":1726841354,"current_range_meters":25200,"station_id":"ce4bhl12rcd13ifvqgf0","pricing_plan_id":"cebpf4jnsgd1na2vs0mg"},{"bike_id":"9a2bc321-25af-42db-96d9-3dbb75bb9889","system_id":"levelo_inurba_marseille","lat":43.27616,"lon":5.36111,"is_reserved":false,"is_disabled":false,"rental_uris":{"android":"levelo://app?vid=9a2bc321-25af-42db-96d9-3dbb75bb9889","ios":"levelo://app?vid=9a2bc321-25af-42db-96d9-3dbb75bb9889"},"vehicle_type_id":"4","last_reported":1726841354,"current_range_meters":32800,"station_id":"ce4bgj92rcd13ifvqbe0","pricing_plan_id":"cebpf4jnsgd1na2vs0mg"},{"bike_id":"c7fdb6e7-0be7-4cec-809d-2dd794ade93e","system_id":"levelo_inurba_marseille","lat":43.30771,"lon":5.37658,"is_reserved":false,"is_disabled":false,"rental_uris":{"android":"levelo://app?vid=c7fdb6e7-0be7-4cec-809d-2dd794ade93e","ios":"levelo://app?vid=c7fdb6e7-0be7-4cec-809d-2dd794ade93e"},"vehicle_type_id":"4","last_reported":1726841354,"current_range_meters":22800,"station_id":"ce4bgv92rcd13ifvqcq0","pricing_plan_id":"cebpf4jnsgd1na2vs0mg"},{"bike_id":"863e3475-58a1-4581-99e8-bff4eb5d4204","system_id":"levelo_inurba_marseille","lat":43.25119,"lon":5.40323,"is_reserved":false,"is_disabled":false,"rental_uris":{"android":"levelo://app?vid=863e3475-58a1-4581-99e8-bff4eb5d4204","ios":"levelo://app?vid=863e3475-58a1-4581-99e8-bff4eb5d4204"},"vehicle_type_id":"4","last_reported":1726841354,"current_range_meters":38800,"station_id":"ce4bhlh2rcd13ifvqgig","pricing_plan_id":"cebpf4jnsgd1na2vs0mg"},{"bike_id":"f52d1c94-c030-445a-9a07-7b2bc903c0df","system_id":"levelo_inurba_marseille","lat":43.29848,"lon":5.36282,"is_reserved":false,"is_disabled":false,"rental_uris":{"android":"levelo://app?vid=f52d1c94-c030-445a-9a07-7b2bc903c0df","ios":"levelo://app?vid=f52d1c94-c030-445a-9a07-7b2bc903c0df"},"vehicle_type_id":"4","last_reported":1726841354,"current_range_meters":32800,"station_id":"ce4bgpp2rcd13ifvqc3g","pricing_plan_id":"cebpf4jnsgd1na2vs0mg"},{"bike_id":"0f067ade-d132-444d-b414-cef3ccbcbc0a","system_id":"levelo_inurba_marseille","lat":43.28474,"lon":5.38421,"is_reserved":false,"is_disabled":false,"rental_uris":{"android":"levelo://app?vid=0f067ade-d132-444d-b414-cef3ccbcbc0a","ios":"levelo://app?vid=0f067ade-d132-444d-b414-cef3ccbcbc0a"},"vehicle_type_id":"4","last_reported":1726841354,"current_range_meters":8800,"station_id":"ce4bh512rcd13ifvqe3g","pricing_plan_id":"cebpf4jnsgd1na2vs0mg"},{"bike_id":"7b50d6d5-7fa5-437f-9bd0-20b7660c4900","system_id":"levelo_inurba_marseille","lat":43.23061,"lon":5.35492,"is_reserved":false,"is_disabled":false,"rental_uris":{"android":"levelo://app?vid=7b50d6d5-7fa5-437f-9bd0-20b7660c4900","ios":"levelo://app?vid=7b50d6d5-7fa5-437f-9bd0-20b7660c4900"},"vehicle_type_id":"4","last_reported":1726841354,"current_range_meters":8400,"station_id":"cpo3342slgdg3j2ifvpg","pricing_plan_id":"cebpf4jnsgd1na2vs0mg"},{"bike_id":"b91b3806-beb4-4a8e-af21-29139f4a48f9","system_id":"levelo_inurba_marseille","lat":43.3361,"lon":5.41027,"is_reserved":false,"is_disabled":false,"rental_uris":{"android":"levelo://app?vid=b91b3806-beb4-4a8e-af21-29139f4a48f9","ios":"levelo://app?vid=b91b3806-beb4-4a8e-af21-29139f4a48f9"},"vehicle_type_id":"4","last_reported":1726841354,"current_range_meters":38800,"station_id":"ce4bhqh2rcd13ifvqhmg","pricing_plan_id":"cebpf4jnsgd1na2vs0mg"},{"bike_id":"3f3bc638-36e0-4ba8-b20b-5b4a08ca7dbe","system_id":"levelo_inurba_marseille","lat":43.273163,"lon":5.362697,"is_reserved":false,"is_disabled":false,"rental_uris":{"android":"levelo://app?vid=3f3bc638-36e0-4ba8-b20b-5b4a08ca7dbe","ios":"levelo://app?vid=3f3bc638-36e0-4ba8-b20b-5b4a08ca7dbe"},"vehicle_type_id":"4","last_reported":1726841354,"current_range_meters":8800,"station_id":"ce4bhbh2rcd13ifvqeo0","pricing_plan_id":"cebpf4jnsgd1na2vs0mg"},{"bike_id":"b6b92c35-f16a-4478-9f19-cf92cf98d7db","system_id":"levelo_inurba_marseille","lat":43.30775,"lon":5.3765,"is_reserved":false,"is_disabled":false,"rental_uris":{"android":"levelo://app?vid=b6b92c35-f16a-4478-9f19-cf92cf98d7db","ios":"levelo://app?vid=b6b92c35-f16a-4478-9f19-cf92cf98d7db"},"vehicle_type_id":"4","last_reported":1726841354,"current_range_meters":39200,"station_id":"ce4bgv92rcd13ifvqcq0","pricing_plan_id":"cebpf4jnsgd1na2vs0mg"},{"bike_id":"4fa0ca0d-342c-4cd6-990b-f5e4ae40db2b","system_id":"levelo_inurba_marseille","lat":43.29963,"lon":5.41325,"is_reserved":false,"is_disabled":false,"rental_uris":{"android":"levelo://app?vid=4fa0ca0d-342c-4cd6-990b-f5e4ae40db2b","ios":"levelo://app?vid=4fa0ca0d-342c-4cd6-990b-f5e4ae40db2b"},"vehicle_type_id":"4","last_reported":1726841354,"current_range_meters":36000,"station_id":"ce4bhp12rcd13ifvqh9g","pricing_plan_id":"cebpf4jnsgd1na2vs0mg"},{"bike_id":"cd3eaafd-9606-46ca-8944-d5f34e2d95c6","system_id":"levelo_inurba_marseille","lat":43.24653,"lon":5.38895,"is_reserved":false,"is_disabled":false,"rental_uris":{"android":"levelo://app?vid=cd3eaafd-9606-46ca-8944-d5f34e2d95c6","ios":"levelo://app?vid=cd3eaafd-9606-46ca-8944-d5f34e2d95c6"},"vehicle_type_id":"4","last_reported":1726841354,"current_range_meters":40000,"station_id":"ce4bhg12rcd13ifvqf60","pricing_plan_id":"cebpf4jnsgd1na2vs0mg"},{"bike_id":"f8571aad-5f92-4ec9-b9ed-faec8639629b","system_id":"levelo_inurba_marseille","lat":43.33615,"lon":5.41025,"is_reserved":false,"is_disabled":false,"rental_uris":{"android":"levelo://app?vid=f8571aad-5f92-4ec9-b9ed-faec8639629b","ios":"levelo://app?vid=f8571aad-5f92-4ec9-b9ed-faec8639629b"},"vehicle_type_id":"4","last_reported":1726841354,"current_range_meters":16400,"station_id":"ce4bhqh2rcd13ifvqhmg","pricing_plan_id":"cebpf4jnsgd1na2vs0mg"},{"bike_id":"e5c44823-0e45-46f4-a3a4-a7179e8ab809","system_id":"levelo_inurba_marseille","lat":43.262,"lon":5.3793,"is_reserved":false,"is_disabled":false,"rental_uris":{"android":"levelo://app?vid=e5c44823-0e45-46f4-a3a4-a7179e8ab809","ios":"levelo://app?vid=e5c44823-0e45-46f4-a3a4-a7179e8ab809"},"vehicle_type_id":"4","last_reported":1726841354,"current_range_meters":19600,"station_id":"ce4bhjp2rcd13ifvqg90","pricing_plan_id":"cebpf4jnsgd1na2vs0mg"},{"bike_id":"00dfdf5b-b438-437d-8f0c-ba2223be61cf","system_id":"levelo_inurba_marseille","lat":43.30532,"lon":5.36534,"is_reserved":false,"is_disabled":false,"rental_uris":{"android":"levelo://app?vid=00dfdf5b-b438-437d-8f0c-ba2223be61cf","ios":"levelo://app?vid=00dfdf5b-b438-437d-8f0c-ba2223be61cf"},"vehicle_type_id":"4","last_reported":1726841354,"current_range_meters":28400,"station_id":"ce4bgs12rcd13ifvqcag","pricing_plan_id":"cebpf4jnsgd1na2vs0mg"},{"bike_id":"90c8a0f0-2d27-4cb4-8eff-0d0a66cc6eac","system_id":"levelo_inurba_marseille","lat":43.30546,"lon":5.36707,"is_reserved":false,"is_disabled":false,"rental_uris":{"android":"levelo://app?vid=90c8a0f0-2d27-4cb4-8eff-0d0a66cc6eac","ios":"levelo://app?vid=90c8a0f0-2d27-4cb4-8eff-0d0a66cc6eac"},"vehicle_type_id":"4","last_reported":1726841354,"current_range_meters":9200,"station_id":"ce4bgrp2rcd13ifvqc9g","pricing_plan_id":"cebpf4jnsgd1na2vs0mg"},{"bike_id":"686e01d7-4203-4cc2-ab34-b63dc5a76e35","system_id":"levelo_inurba_marseille","lat":43.26552,"lon":5.37284,"is_reserved":false,"is_disabled":false,"rental_uris":{"android":"levelo://app?vid=686e01d7-4203-4cc2-ab34-b63dc5a76e35","ios":"levelo://app?vid=686e01d7-4203-4cc2-ab34-b63dc5a76e35"},"vehicle_type_id":"4","last_reported":1726841354,"current_range_meters":30800,"station_id":"ce4bhg12rcd13ifvqf70","pricing_plan_id":"cebpf4jnsgd1na2vs0mg"},{"bike_id":"5705acbc-d503-4f36-a9f5-13b5f18aa34d","system_id":"levelo_inurba_marseille","lat":43.23962,"lon":5.36626,"is_reserved":false,"is_disabled":false,"rental_uris":{"android":"levelo://app?vid=5705acbc-d503-4f36-a9f5-13b5f18aa34d","ios":"levelo://app?vid=5705acbc-d503-4f36-a9f5-13b5f18aa34d"},"vehicle_type_id":"4","last_reported":1726841354,"current_range_meters":35600,"station_id":"ce4bhi12rcd13ifvqfp0","pricing_plan_id":"cebpf4jnsgd1na2vs0mg"},{"bike_id":"c5e5cdf8-496f-45d0-bc35-30c246565f35","system_id":"levelo_inurba_marseille","lat":43.29044,"lon":5.36382,"is_reserved":false,"is_disabled":false,"rental_uris":{"android":"levelo://app?vid=c5e5cdf8-496f-45d0-bc35-30c246565f35","ios":"levelo://app?vid=c5e5cdf8-496f-45d0-bc35-30c246565f35"},"vehicle_type_id":"4","last_reported":1726841354,"current_range_meters":33600,"station_id":"ce4bhc92rcd13ifvqetg","pricing_plan_id":"cebpf4jnsgd1na2vs0mg"},{"bike_id":"8056aa53-c928-4d29-a223-1b6c6fd35978","system_id":"levelo_inurba_marseille","lat":43.31714,"lon":5.43707,"is_reserved":false,"is_disabled":false,"rental_uris":{"android":"levelo://app?vid=8056aa53-c928-4d29-a223-1b6c6fd35978","ios":"levelo://app?vid=8056aa53-c928-4d29-a223-1b6c6fd35978"},"vehicle_type_id":"4","last_reported":1726841354,"current_range_meters":12800,"station_id":"ce4bhp92rcd13ifvqhcg","pricing_plan_id":"cebpf4jnsgd1na2vs0mg"},{"bike_id":"255abd2b-2370-4139-89d4-ef60426da99f","system_id":"levelo_inurba_marseille","lat":43.32041,"lon":5.41567,"is_reserved":false,"is_disabled":false,"rental_uris":{"android":"levelo://app?vid=255abd2b-2370-4139-89d4-ef60426da99f","ios":"levelo://app?vid=255abd2b-2370-4139-89d4-ef60426da99f"},"vehicle_type_id":"4","last_reported":1726841354,"current_range_meters":10000,"station_id":"ce4bhq92rcd13ifvqhkg","pricing_plan_id":"cebpf4jnsgd1na2vs0mg"},{"bike_id":"7b9dd459-340b-4978-bfb0-6c163a5263e8","system_id":"levelo_inurba_marseille","lat":43.2319,"lon":5.35547,"is_reserved":false,"is_disabled":false,"rental_uris":{"android":"levelo://app?vid=7b9dd459-340b-4978-bfb0-6c163a5263e8","ios":"levelo://app?vid=7b9dd459-340b-4978-bfb0-6c163a5263e8"},"vehicle_type_id":"4","last_reported":1726841354,"current_range_meters":38400,"station_id":"ce4bhu92rcd13ifvqi70","pricing_plan_id":"cebpf4jnsgd1na2vs0mg"},{"bike_id":"0678ba18-be4e-469f-aaad-b24a635b0d88","system_id":"levelo_inurba_marseille","lat":43.26678,"lon":5.38265,"is_reserved":false,"is_disabled":false,"rental_uris":{"android":"levelo://app?vid=0678ba18-be4e-469f-aaad-b24a635b0d88","ios":"levelo://app?vid=0678ba18-be4e-469f-aaad-b24a635b0d88"},"vehicle_type_id":"4","last_reported":1726841354,"current_range_meters":16400,"station_id":"ce4bhg92rcd13ifvqf90","pricing_plan_id":"cebpf4jnsgd1na2vs0mg"},{"bike_id":"b864f462-6a9d-49b6-a65b-99bebd932b20","system_id":"levelo_inurba_marseille","lat":43.295013,"lon":5.383779,"is_reserved":false,"is_disabled":false,"rental_uris":{"android":"levelo://app?vid=b864f462-6a9d-49b6-a65b-99bebd932b20","ios":"levelo://app?vid=b864f462-6a9d-49b6-a65b-99bebd932b20"},"vehicle_type_id":"4","last_reported":1726841354,"current_range_meters":16000,"station_id":"ce4bh2h2rcd13ifvqdh0","pricing_plan_id":"cebpf4jnsgd1na2vs0mg"},{"bike_id":"bb2ba6dc-496c-4fcb-81e6-47b5ee972deb","system_id":"levelo_inurba_marseille","lat":43.24091,"lon":5.37725,"is_reserved":false,"is_disabled":false,"rental_uris":{"android":"levelo://app?vid=bb2ba6dc-496c-4fcb-81e6-47b5ee972deb","ios":"levelo://app?vid=bb2ba6dc-496c-4fcb-81e6-47b5ee972deb"},"vehicle_type_id":"4","last_reported":1726841354,"current_range_meters":26800,"station_id":"ce4bhnp2rcd13ifvqgvg","pricing_plan_id":"cebpf4jnsgd1na2vs0mg"},{"bike_id":"30d03598-4584-4809-9303-434479df300e","system_id":"levelo_inurba_marseille","lat":43.32488,"lon":5.36575,"is_reserved":false,"is_disabled":false,"rental_uris":{"android":"levelo://app?vid=30d03598-4584-4809-9303-434479df300e","ios":"levelo://app?vid=30d03598-4584-4809-9303-434479df300e"},"vehicle_type_id":"4","last_reported":1726841354,"current_range_meters":30000,"station_id":"ce4bhs12rcd13ifvqhvg","pricing_plan_id":"cebpf4jnsgd1na2vs0mg"},{"bike_id":"8f0dc663-8fee-4a88-99f3-77aa90b49946","system_id":"levelo_inurba_marseille","lat":43.316986,"lon":5.377537,"is_reserved":false,"is_disabled":false,"rental_uris":{"android":"levelo://app?vid=8f0dc663-8fee-4a88-99f3-77aa90b49946","ios":"levelo://app?vid=8f0dc663-8fee-4a88-99f3-77aa90b49946"},"vehicle_type_id":"4","last_reported":1726841354,"current_range_meters":17600,"station_id":"ce4bgth2rcd13ifvqch0","pricing_plan_id":"cebpf4jnsgd1na2vs0mg"},{"bike_id":"ce74e6e8-4159-4944-a2e1-ac3a81deebd5","system_id":"levelo_inurba_marseille","lat":43.337444,"lon":5.374475,"is_reserved":false,"is_disabled":false,"rental_uris":{"android":"levelo://app?vid=ce74e6e8-4159-4944-a2e1-ac3a81deebd5","ios":"levelo://app?vid=ce74e6e8-4159-4944-a2e1-ac3a81deebd5"},"vehicle_type_id":"4","last_reported":1726841354,"current_range_meters":28400,"station_id":"","pricing_plan_id":"cebpf4jnsgd1na2vs0mg"},{"bike_id":"05198ef8-2a0c-4605-8ec1-881d28c5d6b1","system_id":"levelo_inurba_marseille","lat":43.3036,"lon":5.41888,"is_reserved":false,"is_disabled":false,"rental_uris":{"android":"levelo://app?vid=05198ef8-2a0c-4605-8ec1-881d28c5d6b1","ios":"levelo://app?vid=05198ef8-2a0c-4605-8ec1-881d28c5d6b1"},"vehicle_type_id":"4","last_reported":1726841354,"current_range_meters":38800,"station_id":"ce4bhop2rcd13ifvqh7g","pricing_plan_id":"cebpf4jnsgd1na2vs0mg"},{"bike_id":"f455baf0-9fad-4dd9-b108-1cfb41778f72","system_id":"levelo_inurba_marseille","lat":43.30422,"lon":5.39761,"is_reserved":false,"is_disabled":false,"rental_uris":{"android":"levelo://app?vid=f455baf0-9fad-4dd9-b108-1cfb41778f72","ios":"levelo://app?vid=f455baf0-9fad-4dd9-b108-1cfb41778f72"},"vehicle_type_id":"4","last_reported":1726841354,"current_range_meters":12000,"station_id":"ce4bh092rcd13ifvqd20","pricing_plan_id":"cebpf4jnsgd1na2vs0mg"},{"bike_id":"4fda4cab-1e87-4171-842e-d7eac6d843e4","system_id":"levelo_inurba_marseille","lat":43.28426,"lon":5.34978,"is_reserved":false,"is_disabled":false,"rental_uris":{"android":"levelo://app?vid=4fda4cab-1e87-4171-842e-d7eac6d843e4","ios":"levelo://app?vid=4fda4cab-1e87-4171-842e-d7eac6d843e4"},"vehicle_type_id":"4","last_reported":1726841354,"current_range_meters":38800,"station_id":"ce4bhbh2rcd13ifvqepg","pricing_plan_id":"cebpf4jnsgd1na2vs0mg"},{"bike_id":"d1aa10ef-e606-4c62-893c-fe3006772a50","system_id":"levelo_inurba_marseille","lat":43.27366,"lon":5.36247,"is_reserved":false,"is_disabled":false,"rental_uris":{"android":"levelo://app?vid=d1aa10ef-e606-4c62-893c-fe3006772a50","ios":"levelo://app?vid=d1aa10ef-e606-4c62-893c-fe3006772a50"},"vehicle_type_id":"4","last_reported":1726841354,"current_range_meters":35600,"station_id":"ce4bhbh2rcd13ifvqeo0","pricing_plan_id":"cebpf4jnsgd1na2vs0mg"},{"bike_id":"22fbcfb2-4278-4b02-9a5d-531cf3c3e509","system_id":"levelo_inurba_marseille","lat":43.25116,"lon":5.403187,"is_reserved":false,"is_disabled":false,"rental_uris":{"android":"levelo://app?vid=22fbcfb2-4278-4b02-9a5d-531cf3c3e509","ios":"levelo://app?vid=22fbcfb2-4278-4b02-9a5d-531cf3c3e509"},"vehicle_type_id":"4","last_reported":1726841354,"current_range_meters":26000,"station_id":"ce4bhlh2rcd13ifvqgig","pricing_plan_id":"cebpf4jnsgd1na2vs0mg"},{"bike_id":"625efc9f-ff46-4ca3-aaac-13f8f46af8bc","system_id":"levelo_inurba_marseille","lat":43.30947,"lon":5.39026,"is_reserved":false,"is_disabled":false,"rental_uris":{"android":"levelo://app?vid=625efc9f-ff46-4ca3-aaac-13f8f46af8bc","ios":"levelo://app?vid=625efc9f-ff46-4ca3-aaac-13f8f46af8bc"},"vehicle_type_id":"4","last_reported":1726841354,"current_range_meters":30800,"station_id":"ce4bgup2rcd13ifvqco0","pricing_plan_id":"cebpf4jnsgd1na2vs0mg"},{"bike_id":"c5ad8bf5-f009-4ee1-a218-a697c88957e4","system_id":"levelo_inurba_marseille","lat":43.28934,"lon":5.36404,"is_reserved":false,"is_disabled":false,"rental_uris":{"android":"levelo://app?vid=c5ad8bf5-f009-4ee1-a218-a697c88957e4","ios":"levelo://app?vid=c5ad8bf5-f009-4ee1-a218-a697c88957e4"},"vehicle_type_id":"4","last_reported":1726841354,"current_range_meters":12800,"station_id":"ce4bhc92rcd13ifvqetg","pricing_plan_id":"cebpf4jnsgd1na2vs0mg"},{"bike_id":"df3d6f3a-9b7f-4ade-8b78-d6ad449d2244","system_id":"levelo_inurba_marseille","lat":43.248086,"lon":5.374578,"is_reserved":false,"is_disabled":false,"rental_uris":{"android":"levelo://app?vid=df3d6f3a-9b7f-4ade-8b78-d6ad449d2244","ios":"levelo://app?vid=df3d6f3a-9b7f-4ade-8b78-d6ad449d2244"},"vehicle_type_id":"4","last_reported":1726841354,"current_range_meters":36800,"station_id":"ce4bhgh2rcd13ifvqfb0","pricing_plan_id":"cebpf4jnsgd1na2vs0mg"},{"bike_id":"22b6eabb-8ecb-4936-b75d-a3261ae0dc84","system_id":"levelo_inurba_marseille","lat":43.29873,"lon":5.38903,"is_reserved":false,"is_disabled":false,"rental_uris":{"android":"levelo://app?vid=22b6eabb-8ecb-4936-b75d-a3261ae0dc84","ios":"levelo://app?vid=22b6eabb-8ecb-4936-b75d-a3261ae0dc84"},"vehicle_type_id":"4","last_reported":1726841354,"current_range_meters":38400,"station_id":"ce4bh392rcd13ifvqdl0","pricing_plan_id":"cebpf4jnsgd1na2vs0mg"},{"bike_id":"8776bef3-7445-4093-b154-393432cafbce","system_id":"levelo_inurba_marseille","lat":43.29364,"lon":5.378378,"is_reserved":false,"is_disabled":false,"rental_uris":{"android":"levelo://app?vid=8776bef3-7445-4093-b154-393432cafbce","ios":"levelo://app?vid=8776bef3-7445-4093-b154-393432cafbce"},"vehicle_type_id":"4","last_reported":1726841354,"current_range_meters":8400,"station_id":"ce4bgjh2rcd13ifvqbf0","pricing_plan_id":"cebpf4jnsgd1na2vs0mg"},{"bike_id":"3f92bbb0-67da-49b7-a380-d3e998be8116","system_id":"levelo_inurba_marseille","lat":43.30532,"lon":5.36696,"is_reserved":false,"is_disabled":false,"rental_uris":{"android":"levelo://app?vid=3f92bbb0-67da-49b7-a380-d3e998be8116","ios":"levelo://app?vid=3f92bbb0-67da-49b7-a380-d3e998be8116"},"vehicle_type_id":"4","last_reported":1726841354,"current_range_meters":38800,"station_id":"ce4bgrp2rcd13ifvqc9g","pricing_plan_id":"cebpf4jnsgd1na2vs0mg"},{"bike_id":"0acdc0ed-eaea-49b2-ac45-06a4039d3926","system_id":"levelo_inurba_marseille","lat":43.292694,"lon":5.38431,"is_reserved":false,"is_disabled":false,"rental_uris":{"android":"levelo://app?vid=0acdc0ed-eaea-49b2-ac45-06a4039d3926","ios":"levelo://app?vid=0acdc0ed-eaea-49b2-ac45-06a4039d3926"},"vehicle_type_id":"4","last_reported":1726841354,"current_range_meters":32000,"station_id":"ce4bh692rcd13ifvqea0","pricing_plan_id":"cebpf4jnsgd1na2vs0mg"},{"bike_id":"d20e660f-8fb6-4eb9-a03a-7bbf70481f51","system_id":"levelo_inurba_marseille","lat":43.298812,"lon":5.389001,"is_reserved":false,"is_disabled":false,"rental_uris":{"android":"levelo://app?vid=d20e660f-8fb6-4eb9-a03a-7bbf70481f51","ios":"levelo://app?vid=d20e660f-8fb6-4eb9-a03a-7bbf70481f51"},"vehicle_type_id":"4","last_reported":1726841354,"current_range_meters":32000,"station_id":"ce4bh392rcd13ifvqdl0","pricing_plan_id":"cebpf4jnsgd1na2vs0mg"},{"bike_id":"4cbb3326-6b53-47f5-a30a-4777541db09e","system_id":"levelo_inurba_marseille","lat":43.26937,"lon":5.40247,"is_reserved":false,"is_disabled":false,"rental_uris":{"android":"levelo://app?vid=4cbb3326-6b53-47f5-a30a-4777541db09e","ios":"levelo://app?vid=4cbb3326-6b53-47f5-a30a-4777541db09e"},"vehicle_type_id":"4","last_reported":1726841354,"current_range_meters":10800,"station_id":"cjm6bp8fraef2m0cb0m0","pricing_plan_id":"cebpf4jnsgd1na2vs0mg"},{"bike_id":"f95b5516-c04f-4ad9-bd8a-ea07707412fb","system_id":"levelo_inurba_marseille","lat":43.27813,"lon":5.40715,"is_reserved":false,"is_disabled":false,"rental_uris":{"android":"levelo://app?vid=f95b5516-c04f-4ad9-bd8a-ea07707412fb","ios":"levelo://app?vid=f95b5516-c04f-4ad9-bd8a-ea07707412fb"},"vehicle_type_id":"4","last_reported":1726841354,"current_range_meters":11200,"station_id":"ce4bhnh2rcd13ifvqgtg","pricing_plan_id":"cebpf4jnsgd1na2vs0mg"},{"bike_id":"78dbd6d1-bff4-4db4-8946-fa83a75c1e7b","system_id":"levelo_inurba_marseille","lat":43.27009,"lon":5.40106,"is_reserved":false,"is_disabled":false,"rental_uris":{"android":"levelo://app?vid=78dbd6d1-bff4-4db4-8946-fa83a75c1e7b","ios":"levelo://app?vid=78dbd6d1-bff4-4db4-8946-fa83a75c1e7b"},"vehicle_type_id":"4","last_reported":1726841354,"current_range_meters":8800,"station_id":"ce4bho12rcd13ifvqh2g","pricing_plan_id":"cebpf4jnsgd1na2vs0mg"},{"bike_id":"db5bed51-afb9-4548-98e9-7b7ae226c501","system_id":"levelo_inurba_marseille","lat":43.33756,"lon":5.37453,"is_reserved":false,"is_disabled":false,"rental_uris":{"android":"levelo://app?vid=db5bed51-afb9-4548-98e9-7b7ae226c501","ios":"levelo://app?vid=db5bed51-afb9-4548-98e9-7b7ae226c501"},"vehicle_type_id":"4","last_reported":1726841354,"current_range_meters":14800,"station_id":"","pricing_plan_id":"cebpf4jnsgd1na2vs0mg"},{"bike_id":"32692715-53dd-4a36-afcd-7e32287d7a18","system_id":"levelo_inurba_marseille","lat":43.29063,"lon":5.37162,"is_reserved":false,"is_disabled":false,"rental_uris":{"android":"levelo://app?vid=32692715-53dd-4a36-afcd-7e32287d7a18","ios":"levelo://app?vid=32692715-53dd-4a36-afcd-7e32287d7a18"},"vehicle_type_id":"4","last_reported":1726841354,"current_range_meters":28800,"station_id":"ce4bh5p2rcd13ifvqe4g","pricing_plan_id":"cebpf4jnsgd1na2vs0mg"},{"bike_id":"0b6591fe-80fa-4155-9eea-612db0866f03","system_id":"levelo_inurba_marseille","lat":43.29883,"lon":5.39751,"is_reserved":false,"is_disabled":false,"rental_uris":{"android":"levelo://app?vid=0b6591fe-80fa-4155-9eea-612db0866f03","ios":"levelo://app?vid=0b6591fe-80fa-4155-9eea-612db0866f03"},"vehicle_type_id":"4","last_reported":1726841354,"current_range_meters":22000,"station_id":"ce4bh0h2rcd13ifvqd50","pricing_plan_id":"cebpf4jnsgd1na2vs0mg"},{"bike_id":"4f6cd953-65f5-4d4f-a052-70118d864e1d","system_id":"levelo_inurba_marseille","lat":43.29894,"lon":5.43657,"is_reserved":false,"is_disabled":false,"rental_uris":{"android":"levelo://app?vid=4f6cd953-65f5-4d4f-a052-70118d864e1d","ios":"levelo://app?vid=4f6cd953-65f5-4d4f-a052-70118d864e1d"},"vehicle_type_id":"4","last_reported":1726841354,"current_range_meters":13600,"station_id":"ce4bhpp2rcd13ifvqhfg","pricing_plan_id":"cebpf4jnsgd1na2vs0mg"},{"bike_id":"bf34637a-8f06-43b2-b9ab-4f94372b943f","system_id":"levelo_inurba_marseille","lat":43.25727,"lon":5.41108,"is_reserved":false,"is_disabled":false,"rental_uris":{"android":"levelo://app?vid=bf34637a-8f06-43b2-b9ab-4f94372b943f","ios":"levelo://app?vid=bf34637a-8f06-43b2-b9ab-4f94372b943f"},"vehicle_type_id":"4","last_reported":1726841354,"current_range_meters":38800,"station_id":"ce4bhkp2rcd13ifvqgd0","pricing_plan_id":"cebpf4jnsgd1na2vs0mg"},{"bike_id":"9b6f890d-12d7-49a1-91b9-25d312f6fbd2","system_id":"levelo_inurba_marseille","lat":43.26945,"lon":5.40247,"is_reserved":false,"is_disabled":false,"rental_uris":{"android":"levelo://app?vid=9b6f890d-12d7-49a1-91b9-25d312f6fbd2","ios":"levelo://app?vid=9b6f890d-12d7-49a1-91b9-25d312f6fbd2"},"vehicle_type_id":"4","last_reported":1726841354,"current_range_meters":31200,"station_id":"cjm6bp8fraef2m0cb0m0","pricing_plan_id":"cebpf4jnsgd1na2vs0mg"},{"bike_id":"83799cb6-f408-4849-8d38-cc6de3313ff1","system_id":"levelo_inurba_marseille","lat":43.30137,"lon":5.39874,"is_reserved":false,"is_disabled":false,"rental_uris":{"android":"levelo://app?vid=83799cb6-f408-4849-8d38-cc6de3313ff1","ios":"levelo://app?vid=83799cb6-f408-4849-8d38-cc6de3313ff1"},"vehicle_type_id":"4","last_reported":1726841354,"current_range_meters":4800,"station_id":"ce4bh0h2rcd13ifvqd40","pricing_plan_id":"cebpf4jnsgd1na2vs0mg"},{"bike_id":"2b9acd0c-a444-44bf-bba3-1b49dd24a84e","system_id":"levelo_inurba_marseille","lat":43.254987,"lon":5.376473,"is_reserved":false,"is_disabled":false,"rental_uris":{"android":"levelo://app?vid=2b9acd0c-a444-44bf-bba3-1b49dd24a84e","ios":"levelo://app?vid=2b9acd0c-a444-44bf-bba3-1b49dd24a84e"},"vehicle_type_id":"4","last_reported":1726841354,"current_range_meters":26000,"station_id":"ce4bhh12rcd13ifvqff0","pricing_plan_id":"cebpf4jnsgd1na2vs0mg"},{"bike_id":"6143258a-6b85-4d71-bf03-85c66cedfb64","system_id":"levelo_inurba_marseille","lat":43.27058,"lon":5.40261,"is_reserved":false,"is_disabled":false,"rental_uris":{"android":"levelo://app?vid=6143258a-6b85-4d71-bf03-85c66cedfb64","ios":"levelo://app?vid=6143258a-6b85-4d71-bf03-85c66cedfb64"},"vehicle_type_id":"4","last_reported":1726841354,"current_range_meters":24000,"station_id":"ce4bhk92rcd13ifvqgc0","pricing_plan_id":"cebpf4jnsgd1na2vs0mg"},{"bike_id":"b87c8417-c59f-418d-bd60-25eb8e63567c","system_id":"levelo_inurba_marseille","lat":43.30535,"lon":5.36697,"is_reserved":false,"is_disabled":false,"rental_uris":{"android":"levelo://app?vid=b87c8417-c59f-418d-bd60-25eb8e63567c","ios":"levelo://app?vid=b87c8417-c59f-418d-bd60-25eb8e63567c"},"vehicle_type_id":"4","last_reported":1726841354,"current_range_meters":25200,"station_id":"ce4bgrp2rcd13ifvqc9g","pricing_plan_id":"cebpf4jnsgd1na2vs0mg"},{"bike_id":"158e9b42-ee6d-4725-bab9-aa5a488d5808","system_id":"levelo_inurba_marseille","lat":43.31222,"lon":5.36854,"is_reserved":false,"is_disabled":false,"rental_uris":{"android":"levelo://app?vid=158e9b42-ee6d-4725-bab9-aa5a488d5808","ios":"levelo://app?vid=158e9b42-ee6d-4725-bab9-aa5a488d5808"},"vehicle_type_id":"4","last_reported":1726841354,"current_range_meters":3200,"station_id":"ce4bgl92rcd13ifvqbq0","pricing_plan_id":"cebpf4jnsgd1na2vs0mg"},{"bike_id":"dfa25865-d491-4319-ac0d-4a43b0719215","system_id":"levelo_inurba_marseille","lat":43.32481,"lon":5.36578,"is_reserved":false,"is_disabled":false,"rental_uris":{"android":"levelo://app?vid=dfa25865-d491-4319-ac0d-4a43b0719215","ios":"levelo://app?vid=dfa25865-d491-4319-ac0d-4a43b0719215"},"vehicle_type_id":"4","last_reported":1726841354,"current_range_meters":6400,"station_id":"ce4bhs12rcd13ifvqhvg","pricing_plan_id":"cebpf4jnsgd1na2vs0mg"},{"bike_id":"58014cc6-4f39-4119-a8a0-cdc0e2507820","system_id":"levelo_inurba_marseille","lat":43.32288,"lon":5.38274,"is_reserved":false,"is_disabled":false,"rental_uris":{"android":"levelo://app?vid=58014cc6-4f39-4119-a8a0-cdc0e2507820","ios":"levelo://app?vid=58014cc6-4f39-4119-a8a0-cdc0e2507820"},"vehicle_type_id":"4","last_reported":1726841354,"current_range_meters":38800,"station_id":"ce4bhr12rcd13ifvqhqg","pricing_plan_id":"cebpf4jnsgd1na2vs0mg"},{"bike_id":"ef624d56-a7a7-464b-a94e-cfeccf75702c","system_id":"levelo_inurba_marseille","lat":43.2742,"lon":5.3941,"is_reserved":false,"is_disabled":false,"rental_uris":{"android":"levelo://app?vid=ef624d56-a7a7-464b-a94e-cfeccf75702c","ios":"levelo://app?vid=ef624d56-a7a7-464b-a94e-cfeccf75702c"},"vehicle_type_id":"4","last_reported":1726841354,"current_range_meters":38800,"station_id":"ce4bhdp2rcd13ifvqf20","pricing_plan_id":"cebpf4jnsgd1na2vs0mg"},{"bike_id":"1ff7612a-4101-4418-a9c5-ac8eb793ec5d","system_id":"levelo_inurba_marseille","lat":43.29978,"lon":5.38484,"is_reserved":false,"is_disabled":false,"rental_uris":{"android":"levelo://app?vid=1ff7612a-4101-4418-a9c5-ac8eb793ec5d","ios":"levelo://app?vid=1ff7612a-4101-4418-a9c5-ac8eb793ec5d"},"vehicle_type_id":"4","last_reported":1726841354,"current_range_meters":4000,"station_id":"ce4bgj92rcd13ifvqbd0","pricing_plan_id":"cebpf4jnsgd1na2vs0mg"},{"bike_id":"bce83964-771d-421d-a795-c2b376c5b9dc","system_id":"levelo_inurba_marseille","lat":43.23188,"lon":5.35545,"is_reserved":false,"is_disabled":false,"rental_uris":{"android":"levelo://app?vid=bce83964-771d-421d-a795-c2b376c5b9dc","ios":"levelo://app?vid=bce83964-771d-421d-a795-c2b376c5b9dc"},"vehicle_type_id":"4","last_reported":1726841354,"current_range_meters":18800,"station_id":"ce4bhu92rcd13ifvqi70","pricing_plan_id":"cebpf4jnsgd1na2vs0mg"},{"bike_id":"2dc76788-8eef-4864-884f-207dd12d3166","system_id":"levelo_inurba_marseille","lat":43.33026,"lon":5.39045,"is_reserved":false,"is_disabled":false,"rental_uris":{"android":"levelo://app?vid=2dc76788-8eef-4864-884f-207dd12d3166","ios":"levelo://app?vid=2dc76788-8eef-4864-884f-207dd12d3166"},"vehicle_type_id":"4","last_reported":1726841354,"current_range_meters":19600,"station_id":"ce4bhr92rcd13ifvqhrg","pricing_plan_id":"cebpf4jnsgd1na2vs0mg"},{"bike_id":"925a1021-730c-4446-833f-829b8ea86c68","system_id":"levelo_inurba_marseille","lat":43.29635,"lon":5.4059,"is_reserved":false,"is_disabled":false,"rental_uris":{"android":"levelo://app?vid=925a1021-730c-4446-833f-829b8ea86c68","ios":"levelo://app?vid=925a1021-730c-4446-833f-829b8ea86c68"},"vehicle_type_id":"4","last_reported":1726841354,"current_range_meters":19200,"station_id":"ce4bh0h2rcd13ifvqd60","pricing_plan_id":"cebpf4jnsgd1na2vs0mg"},{"bike_id":"f6b3c6bf-2fb0-430e-9645-b4a81ea53db3","system_id":"levelo_inurba_marseille","lat":43.28477,"lon":5.38417,"is_reserved":false,"is_disabled":false,"rental_uris":{"android":"levelo://app?vid=f6b3c6bf-2fb0-430e-9645-b4a81ea53db3","ios":"levelo://app?vid=f6b3c6bf-2fb0-430e-9645-b4a81ea53db3"},"vehicle_type_id":"4","last_reported":1726841354,"current_range_meters":36400,"station_id":"ce4bh512rcd13ifvqe3g","pricing_plan_id":"cebpf4jnsgd1na2vs0mg"},{"bike_id":"34e5113d-35fa-42d1-82fe-ab77a843163f","system_id":"levelo_inurba_marseille","lat":43.29876,"lon":5.38909,"is_reserved":false,"is_disabled":false,"rental_uris":{"android":"levelo://app?vid=34e5113d-35fa-42d1-82fe-ab77a843163f","ios":"levelo://app?vid=34e5113d-35fa-42d1-82fe-ab77a843163f"},"vehicle_type_id":"4","last_reported":1726841354,"current_range_meters":16800,"station_id":"ce4bh392rcd13ifvqdl0","pricing_plan_id":"cebpf4jnsgd1na2vs0mg"},{"bike_id":"e186148d-5a6d-4e86-9210-67558c73fc77","system_id":"levelo_inurba_marseille","lat":43.3237,"lon":5.38879,"is_reserved":false,"is_disabled":false,"rental_uris":{"android":"levelo://app?vid=e186148d-5a6d-4e86-9210-67558c73fc77","ios":"levelo://app?vid=e186148d-5a6d-4e86-9210-67558c73fc77"},"vehicle_type_id":"4","last_reported":1726841354,"current_range_meters":4800,"station_id":"ce4bhqp2rcd13ifvqhog","pricing_plan_id":"cebpf4jnsgd1na2vs0mg"},{"bike_id":"86e6d6d4-6e65-464a-91a0-2ec5c54b3e90","system_id":"levelo_inurba_marseille","lat":43.31069,"lon":5.38365,"is_reserved":false,"is_disabled":false,"rental_uris":{"android":"levelo://app?vid=86e6d6d4-6e65-464a-91a0-2ec5c54b3e90","ios":"levelo://app?vid=86e6d6d4-6e65-464a-91a0-2ec5c54b3e90"},"vehicle_type_id":"4","last_reported":1726841354,"current_range_meters":16400,"station_id":"ce4bgv92rcd13ifvqcr0","pricing_plan_id":"cebpf4jnsgd1na2vs0mg"},{"bike_id":"cc7319a7-e3a5-4272-a760-924a2dc535ef","system_id":"levelo_inurba_marseille","lat":43.30785,"lon":5.37655,"is_reserved":false,"is_disabled":false,"rental_uris":{"android":"levelo://app?vid=cc7319a7-e3a5-4272-a760-924a2dc535ef","ios":"levelo://app?vid=cc7319a7-e3a5-4272-a760-924a2dc535ef"},"vehicle_type_id":"4","last_reported":1726841354,"current_range_meters":39200,"station_id":"ce4bgv92rcd13ifvqcq0","pricing_plan_id":"cebpf4jnsgd1na2vs0mg"},{"bike_id":"09dfc17d-fb02-448d-8ad0-1e719fe3c242","system_id":"levelo_inurba_marseille","lat":43.28608,"lon":5.37067,"is_reserved":false,"is_disabled":false,"rental_uris":{"android":"levelo://app?vid=09dfc17d-fb02-448d-8ad0-1e719fe3c242","ios":"levelo://app?vid=09dfc17d-fb02-448d-8ad0-1e719fe3c242"},"vehicle_type_id":"4","last_reported":1726841354,"current_range_meters":24800,"station_id":"ce4bht12rcd13ifvqi60","pricing_plan_id":"cebpf4jnsgd1na2vs0mg"},{"bike_id":"962eaf4f-cafc-4235-ae2b-a9fd5f65e0a0","system_id":"levelo_inurba_marseille","lat":43.29217,"lon":5.36049,"is_reserved":false,"is_disabled":false,"rental_uris":{"android":"levelo://app?vid=962eaf4f-cafc-4235-ae2b-a9fd5f65e0a0","ios":"levelo://app?vid=962eaf4f-cafc-4235-ae2b-a9fd5f65e0a0"},"vehicle_type_id":"4","last_reported":1726841354,"current_range_meters":30400,"station_id":"ce4bhbh2rcd13ifvqeqg","pricing_plan_id":"cebpf4jnsgd1na2vs0mg"},{"bike_id":"3b6dd7bb-4aa3-4faa-978b-8a3751fc695b","system_id":"levelo_inurba_marseille","lat":43.27325,"lon":5.39093,"is_reserved":false,"is_disabled":false,"rental_uris":{"android":"levelo://app?vid=3b6dd7bb-4aa3-4faa-978b-8a3751fc695b","ios":"levelo://app?vid=3b6dd7bb-4aa3-4faa-978b-8a3751fc695b"},"vehicle_type_id":"4","last_reported":1726841354,"current_range_meters":32000,"station_id":"ce4bhgp2rcd13ifvqfe0","pricing_plan_id":"cebpf4jnsgd1na2vs0mg"},{"bike_id":"4e0985c7-90e8-4a50-8bde-1b1536b994c4","system_id":"levelo_inurba_marseille","lat":43.31759,"lon":5.39016,"is_reserved":false,"is_disabled":false,"rental_uris":{"android":"levelo://app?vid=4e0985c7-90e8-4a50-8bde-1b1536b994c4","ios":"levelo://app?vid=4e0985c7-90e8-4a50-8bde-1b1536b994c4"},"vehicle_type_id":"4","last_reported":1726841354,"current_range_meters":37600,"station_id":"ce4bhqp2rcd13ifvqhng","pricing_plan_id":"cebpf4jnsgd1na2vs0mg"},{"bike_id":"fa2e946d-01fe-4bb4-a2b0-55af60a0bcec","system_id":"levelo_inurba_marseille","lat":43.33724,"lon":5.39179,"is_reserved":false,"is_disabled":false,"rental_uris":{"android":"levelo://app?vid=fa2e946d-01fe-4bb4-a2b0-55af60a0bcec","ios":"levelo://app?vid=fa2e946d-01fe-4bb4-a2b0-55af60a0bcec"},"vehicle_type_id":"4","last_reported":1726841354,"current_range_meters":36400,"station_id":"ce4bhr92rcd13ifvqhsg","pricing_plan_id":"cebpf4jnsgd1na2vs0mg"},{"bike_id":"c33add25-123c-4b36-8cf5-b7923beb3261","system_id":"levelo_inurba_marseille","lat":43.32486,"lon":5.36572,"is_reserved":false,"is_disabled":false,"rental_uris":{"android":"levelo://app?vid=c33add25-123c-4b36-8cf5-b7923beb3261","ios":"levelo://app?vid=c33add25-123c-4b36-8cf5-b7923beb3261"},"vehicle_type_id":"4","last_reported":1726841354,"current_range_meters":20000,"station_id":"ce4bhs12rcd13ifvqhvg","pricing_plan_id":"cebpf4jnsgd1na2vs0mg"},{"bike_id":"2eb49f73-b3a0-4ea0-9f85-131088d037f3","system_id":"levelo_inurba_marseille","lat":43.29211,"lon":5.36046,"is_reserved":false,"is_disabled":false,"rental_uris":{"android":"levelo://app?vid=2eb49f73-b3a0-4ea0-9f85-131088d037f3","ios":"levelo://app?vid=2eb49f73-b3a0-4ea0-9f85-131088d037f3"},"vehicle_type_id":"4","last_reported":1726841354,"current_range_meters":20000,"station_id":"ce4bhbh2rcd13ifvqeqg","pricing_plan_id":"cebpf4jnsgd1na2vs0mg"},{"bike_id":"47ba5d81-4f1e-4672-8fae-e808f171faaa","system_id":"levelo_inurba_marseille","lat":43.33023,"lon":5.39038,"is_reserved":false,"is_disabled":false,"rental_uris":{"android":"levelo://app?vid=47ba5d81-4f1e-4672-8fae-e808f171faaa","ios":"levelo://app?vid=47ba5d81-4f1e-4672-8fae-e808f171faaa"},"vehicle_type_id":"4","last_reported":1726841354,"current_range_meters":4800,"station_id":"ce4bhr92rcd13ifvqhrg","pricing_plan_id":"cebpf4jnsgd1na2vs0mg"},{"bike_id":"a658a4f6-1846-4cf0-85e1-c9a4fd90a733","system_id":"levelo_inurba_marseille","lat":43.32002,"lon":5.38154,"is_reserved":false,"is_disabled":false,"rental_uris":{"android":"levelo://app?vid=a658a4f6-1846-4cf0-85e1-c9a4fd90a733","ios":"levelo://app?vid=a658a4f6-1846-4cf0-85e1-c9a4fd90a733"},"vehicle_type_id":"4","last_reported":1726841354,"current_range_meters":31200,"station_id":"ce4bhr12rcd13ifvqhpg","pricing_plan_id":"cebpf4jnsgd1na2vs0mg"},{"bike_id":"e8ab0c6c-5b31-41c4-aea5-8949b327c83b","system_id":"levelo_inurba_marseille","lat":43.299003,"lon":5.385366,"is_reserved":false,"is_disabled":false,"rental_uris":{"android":"levelo://app?vid=e8ab0c6c-5b31-41c4-aea5-8949b327c83b","ios":"levelo://app?vid=e8ab0c6c-5b31-41c4-aea5-8949b327c83b"},"vehicle_type_id":"4","last_reported":1726841354,"current_range_meters":16800,"station_id":"ce4bh3p2rcd13ifvqdp0","pricing_plan_id":"cebpf4jnsgd1na2vs0mg"},{"bike_id":"5af1c497-e76c-49aa-9b01-faf2488930fa","system_id":"levelo_inurba_marseille","lat":43.309552,"lon":5.390353,"is_reserved":false,"is_disabled":false,"rental_uris":{"android":"levelo://app?vid=5af1c497-e76c-49aa-9b01-faf2488930fa","ios":"levelo://app?vid=5af1c497-e76c-49aa-9b01-faf2488930fa"},"vehicle_type_id":"4","last_reported":1726841354,"current_range_meters":34800,"station_id":"ce4bgup2rcd13ifvqco0","pricing_plan_id":"cebpf4jnsgd1na2vs0mg"},{"bike_id":"8a86b40e-7112-48a7-aef0-1e7e096f55d7","system_id":"levelo_inurba_marseille","lat":43.32558,"lon":5.4143,"is_reserved":false,"is_disabled":false,"rental_uris":{"android":"levelo://app?vid=8a86b40e-7112-48a7-aef0-1e7e096f55d7","ios":"levelo://app?vid=8a86b40e-7112-48a7-aef0-1e7e096f55d7"},"vehicle_type_id":"4","last_reported":1726841354,"current_range_meters":8400,"station_id":"ce4bhq12rcd13ifvqhhg","pricing_plan_id":"cebpf4jnsgd1na2vs0mg"},{"bike_id":"6b115e8d-26ac-47ee-a056-2a4cbb4e5da9","system_id":"levelo_inurba_marseille","lat":43.287,"lon":5.3998,"is_reserved":false,"is_disabled":false,"rental_uris":{"android":"levelo://app?vid=6b115e8d-26ac-47ee-a056-2a4cbb4e5da9","ios":"levelo://app?vid=6b115e8d-26ac-47ee-a056-2a4cbb4e5da9"},"vehicle_type_id":"4","last_reported":1726841354,"current_range_meters":30000,"station_id":"ce4bho92rcd13ifvqh3g","pricing_plan_id":"cebpf4jnsgd1na2vs0mg"},{"bike_id":"6eaf8cf1-efe8-490a-b272-079c14b7fbda","system_id":"levelo_inurba_marseille","lat":43.296051,"lon":5.377336,"is_reserved":false,"is_disabled":false,"rental_uris":{"android":"levelo://app?vid=6eaf8cf1-efe8-490a-b272-079c14b7fbda","ios":"levelo://app?vid=6eaf8cf1-efe8-490a-b272-079c14b7fbda"},"vehicle_type_id":"4","last_reported":1726841354,"current_range_meters":11200,"station_id":"ce4bhbh2rcd13ifvqepg","pricing_plan_id":"cebpf4jnsgd1na2vs0mg"},{"bike_id":"8c9b599e-07c0-4803-bac6-aa180391d235","system_id":"levelo_inurba_marseille","lat":43.26559,"lon":5.37283,"is_reserved":false,"is_disabled":false,"rental_uris":{"android":"levelo://app?vid=8c9b599e-07c0-4803-bac6-aa180391d235","ios":"levelo://app?vid=8c9b599e-07c0-4803-bac6-aa180391d235"},"vehicle_type_id":"4","last_reported":1726841354,"current_range_meters":28800,"station_id":"ce4bhg12rcd13ifvqf70","pricing_plan_id":"cebpf4jnsgd1na2vs0mg"},{"bike_id":"aa29200f-5d7f-4d1e-a8b2-98561eb30973","system_id":"levelo_inurba_marseille","lat":43.31712,"lon":5.43706,"is_reserved":false,"is_disabled":false,"rental_uris":{"android":"levelo://app?vid=aa29200f-5d7f-4d1e-a8b2-98561eb30973","ios":"levelo://app?vid=aa29200f-5d7f-4d1e-a8b2-98561eb30973"},"vehicle_type_id":"4","last_reported":1726841354,"current_range_meters":30400,"station_id":"ce4bhp92rcd13ifvqhcg","pricing_plan_id":"cebpf4jnsgd1na2vs0mg"},{"bike_id":"e37ad71d-11ca-43be-a836-cc67a09fa5ab","system_id":"levelo_inurba_marseille","lat":43.22934,"lon":5.3538,"is_reserved":false,"is_disabled":false,"rental_uris":{"android":"levelo://app?vid=e37ad71d-11ca-43be-a836-cc67a09fa5ab","ios":"levelo://app?vid=e37ad71d-11ca-43be-a836-cc67a09fa5ab"},"vehicle_type_id":"4","last_reported":1726841354,"current_range_meters":35600,"station_id":"cpo3532slgdg3j2ikp40","pricing_plan_id":"cebpf4jnsgd1na2vs0mg"},{"bike_id":"ff56d79d-3b2a-488f-a36e-d247d0264b25","system_id":"levelo_inurba_marseille","lat":43.29634,"lon":5.40598,"is_reserved":false,"is_disabled":false,"rental_uris":{"android":"levelo://app?vid=ff56d79d-3b2a-488f-a36e-d247d0264b25","ios":"levelo://app?vid=ff56d79d-3b2a-488f-a36e-d247d0264b25"},"vehicle_type_id":"4","last_reported":1726841354,"current_range_meters":24800,"station_id":"ce4bh0h2rcd13ifvqd60","pricing_plan_id":"cebpf4jnsgd1na2vs0mg"},{"bike_id":"fa690805-233a-4a70-a9f3-33f1b67cdb1f","system_id":"levelo_inurba_marseille","lat":43.32292,"lon":5.38266,"is_reserved":false,"is_disabled":false,"rental_uris":{"android":"levelo://app?vid=fa690805-233a-4a70-a9f3-33f1b67cdb1f","ios":"levelo://app?vid=fa690805-233a-4a70-a9f3-33f1b67cdb1f"},"vehicle_type_id":"4","last_reported":1726841354,"current_range_meters":17600,"station_id":"ce4bhr12rcd13ifvqhqg","pricing_plan_id":"cebpf4jnsgd1na2vs0mg"},{"bike_id":"728a6da4-dd0c-42ed-bc4c-72c30d202825","system_id":"levelo_inurba_marseille","lat":43.32483,"lon":5.36569,"is_reserved":false,"is_disabled":false,"rental_uris":{"android":"levelo://app?vid=728a6da4-dd0c-42ed-bc4c-72c30d202825","ios":"levelo://app?vid=728a6da4-dd0c-42ed-bc4c-72c30d202825"},"vehicle_type_id":"4","last_reported":1726841354,"current_range_meters":26800,"station_id":"ce4bhs12rcd13ifvqhvg","pricing_plan_id":"cebpf4jnsgd1na2vs0mg"},{"bike_id":"74c4797f-d4f5-40cb-b93b-7c39426cd71e","system_id":"levelo_inurba_marseille","lat":43.29853,"lon":5.36286,"is_reserved":false,"is_disabled":false,"rental_uris":{"android":"levelo://app?vid=74c4797f-d4f5-40cb-b93b-7c39426cd71e","ios":"levelo://app?vid=74c4797f-d4f5-40cb-b93b-7c39426cd71e"},"vehicle_type_id":"4","last_reported":1726841354,"current_range_meters":34000,"station_id":"ce4bgpp2rcd13ifvqc3g","pricing_plan_id":"cebpf4jnsgd1na2vs0mg"},{"bike_id":"b2763354-ec6c-4733-8de6-6c4493759ae9","system_id":"levelo_inurba_marseille","lat":43.29091,"lon":5.4017,"is_reserved":false,"is_disabled":false,"rental_uris":{"android":"levelo://app?vid=b2763354-ec6c-4733-8de6-6c4493759ae9","ios":"levelo://app?vid=b2763354-ec6c-4733-8de6-6c4493759ae9"},"vehicle_type_id":"4","last_reported":1726841354,"current_range_meters":20000,"station_id":"","pricing_plan_id":"cebpf4jnsgd1na2vs0mg"},{"bike_id":"6948a8a0-2f58-4f91-8d83-f8d044feee7e","system_id":"levelo_inurba_marseille","lat":43.30891,"lon":5.37194,"is_reserved":false,"is_disabled":false,"rental_uris":{"android":"levelo://app?vid=6948a8a0-2f58-4f91-8d83-f8d044feee7e","ios":"levelo://app?vid=6948a8a0-2f58-4f91-8d83-f8d044feee7e"},"vehicle_type_id":"4","last_reported":1726841354,"current_range_meters":38800,"station_id":"ce4bguh2rcd13ifvqckg","pricing_plan_id":"cebpf4jnsgd1na2vs0mg"},{"bike_id":"c8e2122a-c875-4298-bb84-85ef5213108d","system_id":"levelo_inurba_marseille","lat":43.286692,"lon":5.386703,"is_reserved":false,"is_disabled":false,"rental_uris":{"android":"levelo://app?vid=c8e2122a-c875-4298-bb84-85ef5213108d","ios":"levelo://app?vid=c8e2122a-c875-4298-bb84-85ef5213108d"},"vehicle_type_id":"4","last_reported":1726841354,"current_range_meters":7200,"station_id":"ce4bh492rcd13ifvqdug","pricing_plan_id":"cebpf4jnsgd1na2vs0mg"},{"bike_id":"16f3348d-77d1-43da-be43-c830c0d8ccd9","system_id":"levelo_inurba_marseille","lat":43.26935,"lon":5.38911,"is_reserved":false,"is_disabled":false,"rental_uris":{"android":"levelo://app?vid=16f3348d-77d1-43da-be43-c830c0d8ccd9","ios":"levelo://app?vid=16f3348d-77d1-43da-be43-c830c0d8ccd9"},"vehicle_type_id":"4","last_reported":1726841354,"current_range_meters":10800,"station_id":"ce4bhhh2rcd13ifvqfl0","pricing_plan_id":"cebpf4jnsgd1na2vs0mg"},{"bike_id":"fe780c9c-7e13-4b38-81ce-ea43f071d76c","system_id":"levelo_inurba_marseille","lat":43.23066,"lon":5.35484,"is_reserved":false,"is_disabled":false,"rental_uris":{"android":"levelo://app?vid=fe780c9c-7e13-4b38-81ce-ea43f071d76c","ios":"levelo://app?vid=fe780c9c-7e13-4b38-81ce-ea43f071d76c"},"vehicle_type_id":"4","last_reported":1726841354,"current_range_meters":30000,"station_id":"cpo3342slgdg3j2ifvpg","pricing_plan_id":"cebpf4jnsgd1na2vs0mg"},{"bike_id":"df26bd81-cd3d-4de2-8ca3-706d698f32af","system_id":"levelo_inurba_marseille","lat":43.32483,"lon":5.36573,"is_reserved":false,"is_disabled":false,"rental_uris":{"android":"levelo://app?vid=df26bd81-cd3d-4de2-8ca3-706d698f32af","ios":"levelo://app?vid=df26bd81-cd3d-4de2-8ca3-706d698f32af"},"vehicle_type_id":"4","last_reported":1726841354,"current_range_meters":8800,"station_id":"ce4bhs12rcd13ifvqhvg","pricing_plan_id":"cebpf4jnsgd1na2vs0mg"},{"bike_id":"cc88646a-71d2-4219-8a80-e547b8fb958f","system_id":"levelo_inurba_marseille","lat":43.30612,"lon":5.37232,"is_reserved":false,"is_disabled":false,"rental_uris":{"android":"levelo://app?vid=cc88646a-71d2-4219-8a80-e547b8fb958f","ios":"levelo://app?vid=cc88646a-71d2-4219-8a80-e547b8fb958f"},"vehicle_type_id":"4","last_reported":1726841354,"current_range_meters":24000,"station_id":"ce4bgqh2rcd13ifvqc4g","pricing_plan_id":"cebpf4jnsgd1na2vs0mg"},{"bike_id":"8d800646-9abe-42b6-8b3a-3d5eee2f8a33","system_id":"levelo_inurba_marseille","lat":43.33772,"lon":5.37444,"is_reserved":false,"is_disabled":false,"rental_uris":{"android":"levelo://app?vid=8d800646-9abe-42b6-8b3a-3d5eee2f8a33","ios":"levelo://app?vid=8d800646-9abe-42b6-8b3a-3d5eee2f8a33"},"vehicle_type_id":"4","last_reported":1726841354,"current_range_meters":38800,"station_id":"","pricing_plan_id":"cebpf4jnsgd1na2vs0mg"},{"bike_id":"cc3c5d92-9d7d-401f-9574-853e67ff49cc","system_id":"levelo_inurba_marseille","lat":43.33604,"lon":5.41026,"is_reserved":false,"is_disabled":false,"rental_uris":{"android":"levelo://app?vid=cc3c5d92-9d7d-401f-9574-853e67ff49cc","ios":"levelo://app?vid=cc3c5d92-9d7d-401f-9574-853e67ff49cc"},"vehicle_type_id":"4","last_reported":1726841354,"current_range_meters":38800,"station_id":"ce4bhqh2rcd13ifvqhmg","pricing_plan_id":"cebpf4jnsgd1na2vs0mg"},{"bike_id":"0653cb10-c12e-4c27-af75-8f3495a98f89","system_id":"levelo_inurba_marseille","lat":43.32299,"lon":5.38268,"is_reserved":false,"is_disabled":false,"rental_uris":{"android":"levelo://app?vid=0653cb10-c12e-4c27-af75-8f3495a98f89","ios":"levelo://app?vid=0653cb10-c12e-4c27-af75-8f3495a98f89"},"vehicle_type_id":"4","last_reported":1726841354,"current_range_meters":6400,"station_id":"ce4bhr12rcd13ifvqhqg","pricing_plan_id":"cebpf4jnsgd1na2vs0mg"},{"bike_id":"26192ca8-304e-4a27-8e8b-1eda741ff676","system_id":"levelo_inurba_marseille","lat":43.3054,"lon":5.36692,"is_reserved":false,"is_disabled":false,"rental_uris":{"android":"levelo://app?vid=26192ca8-304e-4a27-8e8b-1eda741ff676","ios":"levelo://app?vid=26192ca8-304e-4a27-8e8b-1eda741ff676"},"vehicle_type_id":"4","last_reported":1726841354,"current_range_meters":38800,"station_id":"ce4bgrp2rcd13ifvqc9g","pricing_plan_id":"cebpf4jnsgd1na2vs0mg"},{"bike_id":"f70da415-1fb2-4ed4-98cb-0261a21f6989","system_id":"levelo_inurba_marseille","lat":43.23155,"lon":5.43721,"is_reserved":false,"is_disabled":false,"rental_uris":{"android":"levelo://app?vid=f70da415-1fb2-4ed4-98cb-0261a21f6989","ios":"levelo://app?vid=f70da415-1fb2-4ed4-98cb-0261a21f6989"},"vehicle_type_id":"4","last_reported":1726841354,"current_range_meters":10000,"station_id":"ce4bhmp2rcd13ifvqgog","pricing_plan_id":"cebpf4jnsgd1na2vs0mg"},{"bike_id":"789c1ae7-7ebd-497c-99b6-79a3de227ae1","system_id":"levelo_inurba_marseille","lat":43.3059,"lon":5.39346,"is_reserved":false,"is_disabled":false,"rental_uris":{"android":"levelo://app?vid=789c1ae7-7ebd-497c-99b6-79a3de227ae1","ios":"levelo://app?vid=789c1ae7-7ebd-497c-99b6-79a3de227ae1"},"vehicle_type_id":"4","last_reported":1726841354,"current_range_meters":30400,"station_id":"ce4bh0p2rcd13ifvqd80","pricing_plan_id":"cebpf4jnsgd1na2vs0mg"},{"bike_id":"542f3989-a9c1-426a-acb3-13a89074c889","system_id":"levelo_inurba_marseille","lat":43.323384,"lon":5.406272,"is_reserved":false,"is_disabled":false,"rental_uris":{"android":"levelo://app?vid=542f3989-a9c1-426a-acb3-13a89074c889","ios":"levelo://app?vid=542f3989-a9c1-426a-acb3-13a89074c889"},"vehicle_type_id":"4","last_reported":1726841354,"current_range_meters":36000,"station_id":"ce4bhq92rcd13ifvqhjg","pricing_plan_id":"cebpf4jnsgd1na2vs0mg"},{"bike_id":"667dcb1e-82c9-4808-af86-f738f1852fe5","system_id":"levelo_inurba_marseille","lat":43.32479,"lon":5.3658,"is_reserved":false,"is_disabled":false,"rental_uris":{"android":"levelo://app?vid=667dcb1e-82c9-4808-af86-f738f1852fe5","ios":"levelo://app?vid=667dcb1e-82c9-4808-af86-f738f1852fe5"},"vehicle_type_id":"4","last_reported":1726841354,"current_range_meters":32000,"station_id":"ce4bhs12rcd13ifvqhvg","pricing_plan_id":"cebpf4jnsgd1na2vs0mg"},{"bike_id":"c2c9a555-6ec8-4b92-b33e-073571605c93","system_id":"levelo_inurba_marseille","lat":43.23191,"lon":5.35551,"is_reserved":false,"is_disabled":false,"rental_uris":{"android":"levelo://app?vid=c2c9a555-6ec8-4b92-b33e-073571605c93","ios":"levelo://app?vid=c2c9a555-6ec8-4b92-b33e-073571605c93"},"vehicle_type_id":"4","last_reported":1726841354,"current_range_meters":26800,"station_id":"ce4bhu92rcd13ifvqi70","pricing_plan_id":"cebpf4jnsgd1na2vs0mg"},{"bike_id":"b0f789e4-690b-49c7-9d93-cf95413a2e66","system_id":"levelo_inurba_marseille","lat":43.32654,"lon":5.4099,"is_reserved":false,"is_disabled":false,"rental_uris":{"android":"levelo://app?vid=b0f789e4-690b-49c7-9d93-cf95413a2e66","ios":"levelo://app?vid=b0f789e4-690b-49c7-9d93-cf95413a2e66"},"vehicle_type_id":"4","last_reported":1726841354,"current_range_meters":27600,"station_id":"ce4bhpp2rcd13ifvqhgg","pricing_plan_id":"cebpf4jnsgd1na2vs0mg"},{"bike_id":"2268f26f-4f63-4c06-a743-91512a01f624","system_id":"levelo_inurba_marseille","lat":43.29881,"lon":5.38909,"is_reserved":false,"is_disabled":false,"rental_uris":{"android":"levelo://app?vid=2268f26f-4f63-4c06-a743-91512a01f624","ios":"levelo://app?vid=2268f26f-4f63-4c06-a743-91512a01f624"},"vehicle_type_id":"4","last_reported":1726841354,"current_range_meters":22800,"station_id":"ce4bh392rcd13ifvqdl0","pricing_plan_id":"cebpf4jnsgd1na2vs0mg"},{"bike_id":"62997862-0566-49dc-92c6-a8477c05ade8","system_id":"levelo_inurba_marseille","lat":43.27073,"lon":5.42277,"is_reserved":false,"is_disabled":false,"rental_uris":{"android":"levelo://app?vid=62997862-0566-49dc-92c6-a8477c05ade8","ios":"levelo://app?vid=62997862-0566-49dc-92c6-a8477c05ade8"},"vehicle_type_id":"4","last_reported":1726841354,"current_range_meters":38800,"station_id":"ce4bhk92rcd13ifvqgb0","pricing_plan_id":"cebpf4jnsgd1na2vs0mg"},{"bike_id":"6bb79fa3-ee0a-4c93-b03f-99cea7e7b637","system_id":"levelo_inurba_marseille","lat":43.25119,"lon":5.4033,"is_reserved":false,"is_disabled":false,"rental_uris":{"android":"levelo://app?vid=6bb79fa3-ee0a-4c93-b03f-99cea7e7b637","ios":"levelo://app?vid=6bb79fa3-ee0a-4c93-b03f-99cea7e7b637"},"vehicle_type_id":"4","last_reported":1726841354,"current_range_meters":38800,"station_id":"ce4bhlh2rcd13ifvqgig","pricing_plan_id":"cebpf4jnsgd1na2vs0mg"},{"bike_id":"3ea8f54f-9145-4e7d-b8dd-375864b1fadc","system_id":"levelo_inurba_marseille","lat":43.31995,"lon":5.37209,"is_reserved":false,"is_disabled":false,"rental_uris":{"android":"levelo://app?vid=3ea8f54f-9145-4e7d-b8dd-375864b1fadc","ios":"levelo://app?vid=3ea8f54f-9145-4e7d-b8dd-375864b1fadc"},"vehicle_type_id":"4","last_reported":1726841354,"current_range_meters":13600,"station_id":"","pricing_plan_id":"cebpf4jnsgd1na2vs0mg"},{"bike_id":"19cc3c46-d133-46cd-9b50-ed1363b03a65","system_id":"levelo_inurba_marseille","lat":43.33612,"lon":5.41023,"is_reserved":false,"is_disabled":false,"rental_uris":{"android":"levelo://app?vid=19cc3c46-d133-46cd-9b50-ed1363b03a65","ios":"levelo://app?vid=19cc3c46-d133-46cd-9b50-ed1363b03a65"},"vehicle_type_id":"4","last_reported":1726841354,"current_range_meters":38800,"station_id":"ce4bhqh2rcd13ifvqhmg","pricing_plan_id":"cebpf4jnsgd1na2vs0mg"},{"bike_id":"6645b4e2-95ec-411b-8d86-cdec0169b4e0","system_id":"levelo_inurba_marseille","lat":43.2986,"lon":5.36279,"is_reserved":false,"is_disabled":false,"rental_uris":{"android":"levelo://app?vid=6645b4e2-95ec-411b-8d86-cdec0169b4e0","ios":"levelo://app?vid=6645b4e2-95ec-411b-8d86-cdec0169b4e0"},"vehicle_type_id":"4","last_reported":1726841354,"current_range_meters":35600,"station_id":"ce4bgpp2rcd13ifvqc3g","pricing_plan_id":"cebpf4jnsgd1na2vs0mg"},{"bike_id":"8d040f59-fcc9-40c0-80dc-2159afd0a381","system_id":"levelo_inurba_marseille","lat":43.27376,"lon":5.42715,"is_reserved":false,"is_disabled":false,"rental_uris":{"android":"levelo://app?vid=8d040f59-fcc9-40c0-80dc-2159afd0a381","ios":"levelo://app?vid=8d040f59-fcc9-40c0-80dc-2159afd0a381"},"vehicle_type_id":"4","last_reported":1726841354,"current_range_meters":16800,"station_id":"","pricing_plan_id":"cebpf4jnsgd1na2vs0mg"},{"bike_id":"868878fe-5bc6-43aa-ad49-5cca9ccaee6e","system_id":"levelo_inurba_marseille","lat":43.28417,"lon":5.34993,"is_reserved":false,"is_disabled":false,"rental_uris":{"android":"levelo://app?vid=868878fe-5bc6-43aa-ad49-5cca9ccaee6e","ios":"levelo://app?vid=868878fe-5bc6-43aa-ad49-5cca9ccaee6e"},"vehicle_type_id":"4","last_reported":1726841354,"current_range_meters":5600,"station_id":"ce4bhbh2rcd13ifvqepg","pricing_plan_id":"cebpf4jnsgd1na2vs0mg"},{"bike_id":"ac213151-032c-466c-8579-50ba5f77c8ad","system_id":"levelo_inurba_marseille","lat":43.30335,"lon":5.4044,"is_reserved":false,"is_disabled":false,"rental_uris":{"android":"levelo://app?vid=ac213151-032c-466c-8579-50ba5f77c8ad","ios":"levelo://app?vid=ac213151-032c-466c-8579-50ba5f77c8ad"},"vehicle_type_id":"4","last_reported":1726841354,"current_range_meters":32400,"station_id":"ce4bh012rcd13ifvqd10","pricing_plan_id":"cebpf4jnsgd1na2vs0mg"},{"bike_id":"9dd68092-2b3f-4dc1-8303-28dd3cc22a51","system_id":"levelo_inurba_marseille","lat":43.28481,"lon":5.3841,"is_reserved":false,"is_disabled":false,"rental_uris":{"android":"levelo://app?vid=9dd68092-2b3f-4dc1-8303-28dd3cc22a51","ios":"levelo://app?vid=9dd68092-2b3f-4dc1-8303-28dd3cc22a51"},"vehicle_type_id":"4","last_reported":1726841354,"current_range_meters":22800,"station_id":"ce4bh512rcd13ifvqe3g","pricing_plan_id":"cebpf4jnsgd1na2vs0mg"},{"bike_id":"68159eba-e301-4077-943e-46befe1273f0","system_id":"levelo_inurba_marseille","lat":43.23195,"lon":5.35554,"is_reserved":false,"is_disabled":false,"rental_uris":{"android":"levelo://app?vid=68159eba-e301-4077-943e-46befe1273f0","ios":"levelo://app?vid=68159eba-e301-4077-943e-46befe1273f0"},"vehicle_type_id":"4","last_reported":1726841354,"current_range_meters":33200,"station_id":"ce4bhu92rcd13ifvqi70","pricing_plan_id":"cebpf4jnsgd1na2vs0mg"},{"bike_id":"7d66f339-e9a1-4deb-8e88-576eebb910a0","system_id":"levelo_inurba_marseille","lat":43.31763,"lon":5.39019,"is_reserved":false,"is_disabled":false,"rental_uris":{"android":"levelo://app?vid=7d66f339-e9a1-4deb-8e88-576eebb910a0","ios":"levelo://app?vid=7d66f339-e9a1-4deb-8e88-576eebb910a0"},"vehicle_type_id":"4","last_reported":1726841354,"current_range_meters":6400,"station_id":"ce4bhqp2rcd13ifvqhng","pricing_plan_id":"cebpf4jnsgd1na2vs0mg"},{"bike_id":"945bc6e0-d53d-46e6-ad34-66481e541a28","system_id":"levelo_inurba_marseille","lat":43.24656,"lon":5.38898,"is_reserved":false,"is_disabled":false,"rental_uris":{"android":"levelo://app?vid=945bc6e0-d53d-46e6-ad34-66481e541a28","ios":"levelo://app?vid=945bc6e0-d53d-46e6-ad34-66481e541a28"},"vehicle_type_id":"4","last_reported":1726841354,"current_range_meters":2800,"station_id":"ce4bhg12rcd13ifvqf60","pricing_plan_id":"cebpf4jnsgd1na2vs0mg"},{"bike_id":"df01aa01-bea3-4415-b5a9-1e4f4165e1e1","system_id":"levelo_inurba_marseille","lat":43.29301,"lon":5.37464,"is_reserved":false,"is_disabled":false,"rental_uris":{"android":"levelo://app?vid=df01aa01-bea3-4415-b5a9-1e4f4165e1e1","ios":"levelo://app?vid=df01aa01-bea3-4415-b5a9-1e4f4165e1e1"},"vehicle_type_id":"4","last_reported":1726841354,"current_range_meters":18000,"station_id":"ce4bgi12rcd13ifvqb70","pricing_plan_id":"cebpf4jnsgd1na2vs0mg"},{"bike_id":"a29344e5-4aa4-47f2-b35a-f74d059a7d86","system_id":"levelo_inurba_marseille","lat":43.24171,"lon":5.36402,"is_reserved":false,"is_disabled":false,"rental_uris":{"android":"levelo://app?vid=a29344e5-4aa4-47f2-b35a-f74d059a7d86","ios":"levelo://app?vid=a29344e5-4aa4-47f2-b35a-f74d059a7d86"},"vehicle_type_id":"4","last_reported":1726841354,"current_range_meters":10000,"station_id":"cpo36qri1sfpv3e86is0","pricing_plan_id":"cebpf4jnsgd1na2vs0mg"},{"bike_id":"2d586f1d-9e95-4ff4-8a8e-b0b702decb64","system_id":"levelo_inurba_marseille","lat":43.29261,"lon":5.40901,"is_reserved":false,"is_disabled":false,"rental_uris":{"android":"levelo://app?vid=2d586f1d-9e95-4ff4-8a8e-b0b702decb64","ios":"levelo://app?vid=2d586f1d-9e95-4ff4-8a8e-b0b702decb64"},"vehicle_type_id":"4","last_reported":1726841354,"current_range_meters":34000,"station_id":"ce4bh192rcd13ifvqdc0","pricing_plan_id":"cebpf4jnsgd1na2vs0mg"},{"bike_id":"e692e5bc-bd12-4d53-9862-9d646dc6564a","system_id":"levelo_inurba_marseille","lat":43.2985,"lon":5.36285,"is_reserved":false,"is_disabled":false,"rental_uris":{"android":"levelo://app?vid=e692e5bc-bd12-4d53-9862-9d646dc6564a","ios":"levelo://app?vid=e692e5bc-bd12-4d53-9862-9d646dc6564a"},"vehicle_type_id":"4","last_reported":1726841354,"current_range_meters":38800,"station_id":"ce4bgpp2rcd13ifvqc3g","pricing_plan_id":"cebpf4jnsgd1na2vs0mg"},{"bike_id":"105b7d49-ac79-4cb1-9a1c-aba841630723","system_id":"levelo_inurba_marseille","lat":43.29934,"lon":5.36532,"is_reserved":false,"is_disabled":false,"rental_uris":{"android":"levelo://app?vid=105b7d49-ac79-4cb1-9a1c-aba841630723","ios":"levelo://app?vid=105b7d49-ac79-4cb1-9a1c-aba841630723"},"vehicle_type_id":"4","last_reported":1726841354,"current_range_meters":37600,"station_id":"ce4bgm92rcd13ifvqbr0","pricing_plan_id":"cebpf4jnsgd1na2vs0mg"},{"bike_id":"0f9e353b-34be-4131-bc94-f528c8afe4b7","system_id":"levelo_inurba_marseille","lat":43.32488,"lon":5.36574,"is_reserved":false,"is_disabled":false,"rental_uris":{"android":"levelo://app?vid=0f9e353b-34be-4131-bc94-f528c8afe4b7","ios":"levelo://app?vid=0f9e353b-34be-4131-bc94-f528c8afe4b7"},"vehicle_type_id":"4","last_reported":1726841354,"current_range_meters":16000,"station_id":"ce4bhs12rcd13ifvqhvg","pricing_plan_id":"cebpf4jnsgd1na2vs0mg"},{"bike_id":"b0ea9129-a863-4fb2-b248-a032c962d202","system_id":"levelo_inurba_marseille","lat":43.3361,"lon":5.41031,"is_reserved":false,"is_disabled":false,"rental_uris":{"android":"levelo://app?vid=b0ea9129-a863-4fb2-b248-a032c962d202","ios":"levelo://app?vid=b0ea9129-a863-4fb2-b248-a032c962d202"},"vehicle_type_id":"4","last_reported":1726841354,"current_range_meters":28800,"station_id":"ce4bhqh2rcd13ifvqhmg","pricing_plan_id":"cebpf4jnsgd1na2vs0mg"},{"bike_id":"0a04d9de-bdde-4f94-9082-975109433179","system_id":"levelo_inurba_marseille","lat":43.30882,"lon":5.39626,"is_reserved":false,"is_disabled":false,"rental_uris":{"android":"levelo://app?vid=0a04d9de-bdde-4f94-9082-975109433179","ios":"levelo://app?vid=0a04d9de-bdde-4f94-9082-975109433179"},"vehicle_type_id":"4","last_reported":1726841354,"current_range_meters":19600,"station_id":"ce4bh012rcd13ifvqcv0","pricing_plan_id":"cebpf4jnsgd1na2vs0mg"},{"bike_id":"72679e70-f431-4c63-88b9-8f3eb6bf2c63","system_id":"levelo_inurba_marseille","lat":43.24654,"lon":5.38893,"is_reserved":false,"is_disabled":false,"rental_uris":{"android":"levelo://app?vid=72679e70-f431-4c63-88b9-8f3eb6bf2c63","ios":"levelo://app?vid=72679e70-f431-4c63-88b9-8f3eb6bf2c63"},"vehicle_type_id":"4","last_reported":1726841354,"current_range_meters":34000,"station_id":"ce4bhg12rcd13ifvqf60","pricing_plan_id":"cebpf4jnsgd1na2vs0mg"},{"bike_id":"2720f93e-f1c4-4e05-bacc-e5a538495f21","system_id":"levelo_inurba_marseille","lat":43.3116,"lon":5.38713,"is_reserved":false,"is_disabled":false,"rental_uris":{"android":"levelo://app?vid=2720f93e-f1c4-4e05-bacc-e5a538495f21","ios":"levelo://app?vid=2720f93e-f1c4-4e05-bacc-e5a538495f21"},"vehicle_type_id":"4","last_reported":1726841354,"current_range_meters":24000,"station_id":"ce4bgv12rcd13ifvqcp0","pricing_plan_id":"cebpf4jnsgd1na2vs0mg"},{"bike_id":"5d44b9d2-4615-4139-b9a1-93d6b00cd866","system_id":"levelo_inurba_marseille","lat":43.29558,"lon":5.42292,"is_reserved":false,"is_disabled":false,"rental_uris":{"android":"levelo://app?vid=5d44b9d2-4615-4139-b9a1-93d6b00cd866","ios":"levelo://app?vid=5d44b9d2-4615-4139-b9a1-93d6b00cd866"},"vehicle_type_id":"4","last_reported":1726841354,"current_range_meters":36800,"station_id":"ce4bhph2rcd13ifvqhdg","pricing_plan_id":"cebpf4jnsgd1na2vs0mg"},{"bike_id":"ca7d7c1d-e2aa-4b85-b80f-70b13211b285","system_id":"levelo_inurba_marseille","lat":43.3132,"lon":5.39692,"is_reserved":false,"is_disabled":false,"rental_uris":{"android":"levelo://app?vid=ca7d7c1d-e2aa-4b85-b80f-70b13211b285","ios":"levelo://app?vid=ca7d7c1d-e2aa-4b85-b80f-70b13211b285"},"vehicle_type_id":"4","last_reported":1726841354,"current_range_meters":6800,"station_id":"ce4bgvp2rcd13ifvqcu0","pricing_plan_id":"cebpf4jnsgd1na2vs0mg"},{"bike_id":"f321fa64-c0ff-4511-a3a1-c5fa42d71f90","system_id":"levelo_inurba_marseille","lat":43.292297,"lon":5.360707,"is_reserved":false,"is_disabled":false,"rental_uris":{"android":"levelo://app?vid=f321fa64-c0ff-4511-a3a1-c5fa42d71f90","ios":"levelo://app?vid=f321fa64-c0ff-4511-a3a1-c5fa42d71f90"},"vehicle_type_id":"4","last_reported":1726841354,"current_range_meters":14000,"station_id":"ce4bhbh2rcd13ifvqeqg","pricing_plan_id":"cebpf4jnsgd1na2vs0mg"},{"bike_id":"eedf1cf1-b1d1-40bb-999a-7d91b385be6f","system_id":"levelo_inurba_marseille","lat":43.337444,"lon":5.374475,"is_reserved":false,"is_disabled":false,"rental_uris":{"android":"levelo://app?vid=eedf1cf1-b1d1-40bb-999a-7d91b385be6f","ios":"levelo://app?vid=eedf1cf1-b1d1-40bb-999a-7d91b385be6f"},"vehicle_type_id":"4","last_reported":1726841354,"current_range_meters":20400,"station_id":"","pricing_plan_id":"cebpf4jnsgd1na2vs0mg"},{"bike_id":"09bccdcc-0a8e-46c1-88a4-ddb857f16e33","system_id":"levelo_inurba_marseille","lat":43.27368,"lon":5.36251,"is_reserved":false,"is_disabled":false,"rental_uris":{"android":"levelo://app?vid=09bccdcc-0a8e-46c1-88a4-ddb857f16e33","ios":"levelo://app?vid=09bccdcc-0a8e-46c1-88a4-ddb857f16e33"},"vehicle_type_id":"4","last_reported":1726841354,"current_range_meters":30000,"station_id":"ce4bhbh2rcd13ifvqeo0","pricing_plan_id":"cebpf4jnsgd1na2vs0mg"},{"bike_id":"acf44b62-d8c8-47a7-a8d1-9161d6244362","system_id":"levelo_inurba_marseille","lat":43.23192,"lon":5.35557,"is_reserved":false,"is_disabled":false,"rental_uris":{"android":"levelo://app?vid=acf44b62-d8c8-47a7-a8d1-9161d6244362","ios":"levelo://app?vid=acf44b62-d8c8-47a7-a8d1-9161d6244362"},"vehicle_type_id":"4","last_reported":1726841354,"current_range_meters":8400,"station_id":"ce4bhu92rcd13ifvqi70","pricing_plan_id":"cebpf4jnsgd1na2vs0mg"},{"bike_id":"f465c66a-12f0-4d52-9e95-f4243e360283","system_id":"levelo_inurba_marseille","lat":43.284882,"lon":5.384114,"is_reserved":false,"is_disabled":false,"rental_uris":{"android":"levelo://app?vid=f465c66a-12f0-4d52-9e95-f4243e360283","ios":"levelo://app?vid=f465c66a-12f0-4d52-9e95-f4243e360283"},"vehicle_type_id":"4","last_reported":1726841354,"current_range_meters":4800,"station_id":"ce4bh512rcd13ifvqe3g","pricing_plan_id":"cebpf4jnsgd1na2vs0mg"},{"bike_id":"941b28f5-40c5-449a-9a1f-ae4453cf004d","system_id":"levelo_inurba_marseille","lat":43.28442,"lon":5.392,"is_reserved":false,"is_disabled":false,"rental_uris":{"android":"levelo://app?vid=941b28f5-40c5-449a-9a1f-ae4453cf004d","ios":"levelo://app?vid=941b28f5-40c5-449a-9a1f-ae4453cf004d"},"vehicle_type_id":"4","last_reported":1726841354,"current_range_meters":14800,"station_id":"ce4bhoh2rcd13ifvqh5g","pricing_plan_id":"cebpf4jnsgd1na2vs0mg"},{"bike_id":"f014bc3d-5978-43ba-ad0c-ed296806031c","system_id":"levelo_inurba_marseille","lat":43.29036,"lon":5.39962,"is_reserved":false,"is_disabled":false,"rental_uris":{"android":"levelo://app?vid=f014bc3d-5978-43ba-ad0c-ed296806031c","ios":"levelo://app?vid=f014bc3d-5978-43ba-ad0c-ed296806031c"},"vehicle_type_id":"4","last_reported":1726841354,"current_range_meters":17200,"station_id":"ce4bh392rcd13ifvqdm0","pricing_plan_id":"cebpf4jnsgd1na2vs0mg"},{"bike_id":"e3e24a85-5ef1-48bf-9b63-35ac5c4ea44d","system_id":"levelo_inurba_marseille","lat":43.26571,"lon":5.39003,"is_reserved":false,"is_disabled":false,"rental_uris":{"android":"levelo://app?vid=e3e24a85-5ef1-48bf-9b63-35ac5c4ea44d","ios":"levelo://app?vid=e3e24a85-5ef1-48bf-9b63-35ac5c4ea44d"},"vehicle_type_id":"4","last_reported":1726841354,"current_range_meters":38800,"station_id":"ce4bhe12rcd13ifvqf30","pricing_plan_id":"cebpf4jnsgd1na2vs0mg"},