{"last_updated":1685300689,"ttl":30,"version":"2.2","data":{"bikes":[{"bike_id":"2f31285e-3b85-44f2-a6fb-203911143841","system_id":"levelo_inurba_marseille","lat":43.31219,"lon":5.36848,"is_reserved":false,"is_disabled":false,"rental_uris":{"android":"levelo://app?vid=2f31285e-3b85-44f2-a6fb-203911143841","ios":"levelo://app?vid=2f31285e-3b85-44f2-a6fb-203911143841"},"vehicle_type_id":"4","last_reported":1685300690,"current_range_meters":14000,"station_id":"ce4bgl92rcd13ifvqbq0","pricing_plan_id":"free"},{"bike_id":"b3ca7655-8161-470e-a491-735abe8e8f26","system_id":"levelo_inurba_marseille","lat":43.309076,"lon":5.368465,"is_reserved":false,"is_disabled":false,"rental_uris":{"android":"levelo://app?vid=b3ca7655-8161-470e-a491-735abe8e8f26","ios":"levelo://app?vid=b3ca7655-8161-470e-a491-735abe8e8f26"},"vehicle_type_id":"4","last_reported":1685300690,"current_range_meters":17200,"station_id":"ce4bgn92rcd13ifvqbvg","pricing_plan_id":"free"},{"bike_id":"e694a2c9-97cc-425f-944d-2dac475f074f","system_id":"levelo_inurba_marseille","lat":43.30989,"lon":5.37363,"is_reserved":false,"is_disabled":false,"rental_uris":{"android":"levelo://app?vid=e694a2c9-97cc-425f-944d-2dac475f074f","ios":"levelo://app?vid=e694a2c9-97cc-425f-944d-2dac475f074f"},"vehicle_type_id":"4","last_reported":1685300690,"current_range_meters":10000,"station_id":"","pricing_plan_id":"free"},{"bike_id":"764abe49-44ee-434c-bc83-6664f0702020","system_id":"levelo_inurba_marseille","lat":43.305706,"lon":5.365654,"is_reserved":false,"is_disabled":false,"rental_uris":{"android":"levelo://app?vid=764abe49-44ee-434c-bc83-6664f0702020","ios":"levelo://app?vid=764abe49-44ee-434c-bc83-6664f0702020"},"vehicle_type_id":"4","last_reported":1685300690,"current_range_meters":6800,"station_id":"ce4bgs12rcd13ifvqcag","pricing_plan_id":"free"},{"bike_id":"dacac0b7-c0be-4556-b009-12a72ba9ffe3","system_id":"levelo_inurba_marseille","lat":43.305706,"lon":5.365654,"is_reserved":false,"is_disabled":false,"rental_uris":{"android":"levelo://app?vid=dacac0b7-c0be-4556-b009-12a72ba9ffe3","ios":"levelo://app?vid=dacac0b7-c0be-4556-b009-12a72ba9ffe3"},"vehicle_type_id":"4","last_reported":1685300690,"current_range_meters":4000,"station_id":"ce4bgs12rcd13ifvqcag","pricing_plan_id":"free"},{"bike_id":"bf196848-3046-47e5-a090-e27cc1ca1f77","system_id":"levelo_inurba_marseille","lat":43.311125,"lon":5.377624,"is_reserved":false,"is_disabled":false,"rental_uris":{"android":"levelo://app?vid=bf196848-3046-47e5-a090-e27cc1ca1f77","ios":"levelo://app?vid=bf196848-3046-47e5-a090-e27cc1ca1f77"},"vehicle_type_id":"4","last_reported":1685300690,"current_range_meters":9200,"station_id":"ce4bgt92rcd13ifvqcg0","pricing_plan_id":"free"},{"bike_id":"7639dd48-c1a2-4420-a039-979ef7ddb59d","system_id":"levelo_inurba_marseille","lat":43.317075,"lon":5.377367,"is_reserved":false,"is_disabled":false,"rental_uris":{"android":"levelo://app?vid=7639dd48-c1a2-4420-a039-979ef7ddb59d","ios":"levelo://app?vid=7639dd48-c1a2-4420-a039-979ef7ddb59d"},"vehicle_type_id":"4","last_reported":1685300690,"current_range_meters":21600,"station_id":"ce4bgth2rcd13ifvqch0","pricing_plan_id":"free"},{"bike_id":"3c51afbe-6ccc-439e-ba50-0acb9a18d59b","system_id":"levelo_inurba_marseille","lat":43.317075,"lon":5.377367,"is_reserved":false,"is_disabled":false,"rental_uris":{"android":"levelo://app?vid=3c51afbe-6ccc-439e-ba50-0acb9a18d59b","ios":"levelo://app?vid=3c51afbe-6ccc-439e-ba50-0acb9a18d59b"},"vehicle_type_id":"4","last_reported":1685300690,"current_range_meters":4400,"station_id":"ce4bgth2rcd13ifvqch0","pricing_plan_id":"free"},{"bike_id":"3324ef1b-bc24-4d73-83af-2b8ac063f249","system_id":"levelo_inurba_marseille","lat":43.303046,"lon":5.368981,"is_reserved":false,"is_disabled":false,"rental_uris":{"android":"levelo://app?vid=3324ef1b-bc24-4d73-83af-2b8ac063f249","ios":"levelo://app?vid=3324ef1b-bc24-4d73-83af-2b8ac063f249"},"vehicle_type_id":"4","last_reported":1685300690,"current_range_meters":400,"station_id":"ce4bgqh2rcd13ifvqc5g","pricing_plan_id":"free"},{"bike_id":"b7262d0b-fd82-40e7-aa93-b2a55bd12a2c","system_id":"levelo_inurba_marseille","lat":43.31542,"lon":5.38018,"is_reserved":false,"is_disabled":false,"rental_uris":{"android":"levelo://app?vid=b7262d0b-fd82-40e7-aa93-b2a55bd12a2c","ios":"levelo://app?vid=b7262d0b-fd82-40e7-aa93-b2a55bd12a2c"},"vehicle_type_id":"4","last_reported":1685300690,"current_range_meters":2800,"station_id":"ce4bhsp2rcd13ifvqi50","pricing_plan_id":"free"},{"bike_id":"3ba3a9bc-d63b-4ef7-b042-15898c9201c4","system_id":"levelo_inurba_marseille","lat":43.298433,"lon":5.362774,"is_reserved":false,"is_disabled":false,"rental_uris":{"android":"levelo://app?vid=3ba3a9bc-d63b-4ef7-b042-15898c9201c4","ios":"levelo://app?vid=3ba3a9bc-d63b-4ef7-b042-15898c9201c4"},"vehicle_type_id":"4","last_reported":1685300690,"current_range_meters":800,"station_id":"ce4bgpp2rcd13ifvqc3g","pricing_plan_id":"free"},{"bike_id":"71105cf3-b013-4070-9f77-1a022fbe51f6","system_id":"levelo_inurba_marseille","lat":43.29841,"lon":5.36267,"is_reserved":false,"is_disabled":false,"rental_uris":{"android":"levelo://app?vid=71105cf3-b013-4070-9f77-1a022fbe51f6","ios":"levelo://app?vid=71105cf3-b013-4070-9f77-1a022fbe51f6"},"vehicle_type_id":"4","last_reported":1685300690,"current_range_meters":0,"station_id":"ce4bgpp2rcd13ifvqc3g","pricing_plan_id":"free"},{"bike_id":"1b064916-ce14-4dd7-8822-0096c3687352","system_id":"levelo_inurba_marseille","lat":43.31175,"lon":5.38713,"is_reserved":false,"is_disabled":false,"rental_uris":{"android":"levelo://app?vid=1b064916-ce14-4dd7-8822-0096c3687352","ios":"levelo://app?vid=1b064916-ce14-4dd7-8822-0096c3687352"},"vehicle_type_id":"4","last_reported":1685300690,"current_range_meters":3200,"station_id":"ce4bgv12rcd13ifvqcp0","pricing_plan_id":"free"},{"bike_id":"80df3859-1b6b-4cb3-abc3-3e157f38a4da","system_id":"levelo_inurba_marseille","lat":43.311722,"lon":5.387247,"is_reserved":false,"is_disabled":false,"rental_uris":{"android":"levelo://app?vid=80df3859-1b6b-4cb3-abc3-3e157f38a4da","ios":"levelo://app?vid=80df3859-1b6b-4cb3-abc3-3e157f38a4da"},"vehicle_type_id":"4","last_reported":1685300690,"current_range_meters":2400,"station_id":"ce4bgv12rcd13ifvqcp0","pricing_plan_id":"free"},{"bike_id":"190f7b9a-108b-4fef-a29e-30274796ae2f","system_id":"levelo_inurba_marseille","lat":43.311722,"lon":5.387247,"is_reserved":false,"is_disabled":false,"rental_uris":{"android":"levelo://app?vid=190f7b9a-108b-4fef-a29e-30274796ae2f","ios":"levelo://app?vid=190f7b9a-108b-4fef-a29e-30274796ae2f"},"vehicle_type_id":"4","last_reported":1685300690,"current_range_meters":6000,"station_id":"ce4bgv12rcd13ifvqcp0","pricing_plan_id":"free"},{"bike_id":"43d041a6-cdcf-4897-8665-6ed61b2c409c","system_id":"levelo_inurba_marseille","lat":43.32828,"lon":5.3667,"is_reserved":false,"is_disabled":false,"rental_uris":{"android":"levelo://app?vid=43d041a6-cdcf-4897-8665-6ed61b2c409c","ios":"levelo://app?vid=43d041a6-cdcf-4897-8665-6ed61b2c409c"},"vehicle_type_id":"4","last_reported":1685300690,"current_range_meters":28800,"station_id":"ce4bhs92rcd13ifvqi0g","pricing_plan_id":"free"},{"bike_id":"6aadd20f-ee22-42f7-9c69-f3066c5dfcf1","system_id":"levelo_inurba_marseille","lat":43.328371,"lon":5.366912,"is_reserved":false,"is_disabled":false,"rental_uris":{"android":"levelo://app?vid=6aadd20f-ee22-42f7-9c69-f3066c5dfcf1","ios":"levelo://app?vid=6aadd20f-ee22-42f7-9c69-f3066c5dfcf1"},"vehicle_type_id":"4","last_reported":1685300690,"current_range_meters":10000,"station_id":"ce4bhs92rcd13ifvqi0g","pricing_plan_id":"free"},{"bike_id":"bb1e0ad9-df4b-41de-bdd5-bce01dd60691","system_id":"levelo_inurba_marseille","lat":43.328371,"lon":5.366909,"is_reserved":false,"is_disabled":false,"rental_uris":{"android":"levelo://app?vid=bb1e0ad9-df4b-41de-bdd5-bce01dd60691","ios":"levelo://app?vid=bb1e0ad9-df4b-41de-bdd5-bce01dd60691"},"vehicle_type_id":"4","last_reported":1685300690,"current_range_meters":28400,"station_id":"ce4bhs92rcd13ifvqi0g","pricing_plan_id":"free"},{"bike_id":"285c145e-777a-4b00-b299-e3b44b9cb422","system_id":"levelo_inurba_marseille","lat":43.32832,"lon":5.36672,"is_reserved":false,"is_disabled":false,"rental_uris":{"android":"levelo://app?vid=285c145e-777a-4b00-b299-e3b44b9cb422","ios":"levelo://app?vid=285c145e-777a-4b00-b299-e3b44b9cb422"},"vehicle_type_id":"4","last_reported":1685300690,"current_range_meters":6800,"station_id":"ce4bhs92rcd13ifvqi0g","pricing_plan_id":"free"},{"bike_id":"383aa7a2-3538-4d7d-9ca2-1fbba8b52814","system_id":"levelo_inurba_marseille","lat":43.29685,"lon":5.36028,"is_reserved":false,"is_disabled":false,"rental_uris":{"android":"levelo://app?vid=383aa7a2-3538-4d7d-9ca2-1fbba8b52814","ios":"levelo://app?vid=383aa7a2-3538-4d7d-9ca2-1fbba8b52814"},"vehicle_type_id":"4","last_reported":1685300690,"current_range_meters":26000,"station_id":"","pricing_plan_id":"free"},{"bike_id":"880ea084-1b25-46fd-b01c-34d268cd9577","system_id":"levelo_inurba_marseille","lat":43.2968,"lon":5.37291,"is_reserved":false,"is_disabled":false,"rental_uris":{"android":"levelo://app?vid=880ea084-1b25-46fd-b01c-34d268cd9577","ios":"levelo://app?vid=880ea084-1b25-46fd-b01c-34d268cd9577"},"vehicle_type_id":"4","last_reported":1685300690,"current_range_meters":800,"station_id":"ce4bgk12rcd13ifvqbj0","pricing_plan_id":"free"},{"bike_id":"06a87b66-ebd1-4954-b074-4b080627e14f","system_id":"levelo_inurba_marseille","lat":43.29628,"lon":5.37154,"is_reserved":false,"is_disabled":false,"rental_uris":{"android":"levelo://app?vid=06a87b66-ebd1-4954-b074-4b080627e14f","ios":"levelo://app?vid=06a87b66-ebd1-4954-b074-4b080627e14f"},"vehicle_type_id":"4","last_reported":1685300690,"current_range_meters":2800,"station_id":"","pricing_plan_id":"free"},{"bike_id":"d656483c-bc63-4620-bd69-072beef23150","system_id":"levelo_inurba_marseille","lat":43.296129,"lon":5.370777,"is_reserved":false,"is_disabled":false,"rental_uris":{"android":"levelo://app?vid=d656483c-bc63-4620-bd69-072beef23150","ios":"levelo://app?vid=d656483c-bc63-4620-bd69-072beef23150"},"vehicle_type_id":"4","last_reported":1685300690,"current_range_meters":2800,"station_id":"ce4bgnh2rcd13ifvqc0g","pricing_plan_id":"free"},{"bike_id":"6834b016-0f7e-4f7e-a299-1ce9534c9854","system_id":"levelo_inurba_marseille","lat":43.29573,"lon":5.367355,"is_reserved":false,"is_disabled":false,"rental_uris":{"android":"levelo://app?vid=6834b016-0f7e-4f7e-a299-1ce9534c9854","ios":"levelo://app?vid=6834b016-0f7e-4f7e-a299-1ce9534c9854"},"vehicle_type_id":"4","last_reported":1685300690,"current_range_meters":3600,"station_id":"ce4bgph2rcd13ifvqc2g","pricing_plan_id":"free"},{"bike_id":"e7dab0b4-60cf-41c3-8b4e-fe16f7aa5bab","system_id":"levelo_inurba_marseille","lat":43.299028,"lon":5.381509,"is_reserved":false,"is_disabled":false,"rental_uris":{"android":"levelo://app?vid=e7dab0b4-60cf-41c3-8b4e-fe16f7aa5bab","ios":"levelo://app?vid=e7dab0b4-60cf-41c3-8b4e-fe16f7aa5bab"},"vehicle_type_id":"4","last_reported":1685300690,"current_range_meters":400,"station_id":"ce4bgj12rcd13ifvqbc0","pricing_plan_id":"free"},{"bike_id":"41a798b0-36a6-47ad-b6fe-430f937be1d5","system_id":"levelo_inurba_marseille","lat":43.309589,"lon":5.390258,"is_reserved":false,"is_disabled":false,"rental_uris":{"android":"levelo://app?vid=41a798b0-36a6-47ad-b6fe-430f937be1d5","ios":"levelo://app?vid=41a798b0-36a6-47ad-b6fe-430f937be1d5"},"vehicle_type_id":"4","last_reported":1685300690,"current_range_meters":0,"station_id":"ce4bgup2rcd13ifvqco0","pricing_plan_id":"free"},{"bike_id":"caa867ce-8b87-4cc8-a83e-b5c43244c633","system_id":"levelo_inurba_marseille","lat":43.309589,"lon":5.390258,"is_reserved":false,"is_disabled":false,"rental_uris":{"android":"levelo://app?vid=caa867ce-8b87-4cc8-a83e-b5c43244c633","ios":"levelo://app?vid=caa867ce-8b87-4cc8-a83e-b5c43244c633"},"vehicle_type_id":"4","last_reported":1685300690,"current_range_meters":13200,"station_id":"ce4bgup2rcd13ifvqco0","pricing_plan_id":"free"},{"bike_id":"ffc2ecaf-eaa6-457e-aab8-cc2733ed9ab7","system_id":"levelo_inurba_marseille","lat":43.309589,"lon":5.390258,"is_reserved":false,"is_disabled":false,"rental_uris":{"android":"levelo://app?vid=ffc2ecaf-eaa6-457e-aab8-cc2733ed9ab7","ios":"levelo://app?vid=ffc2ecaf-eaa6-457e-aab8-cc2733ed9ab7"},"vehicle_type_id":"4","last_reported":1685300690,"current_range_meters":13600,"station_id":"ce4bgup2rcd13ifvqco0","pricing_plan_id":"free"},{"bike_id":"5f830133-7554-4b3b-91fe-ef2d1ae00c12","system_id":"levelo_inurba_marseille","lat":43.298037,"lon":5.381066,"is_reserved":false,"is_disabled":false,"rental_uris":{"android":"levelo://app?vid=5f830133-7554-4b3b-91fe-ef2d1ae00c12","ios":"levelo://app?vid=5f830133-7554-4b3b-91fe-ef2d1ae00c12"},"vehicle_type_id":"4","last_reported":1685300690,"current_range_meters":2000,"station_id":"ce4bgip2rcd13ifvqbb0","pricing_plan_id":"free"},{"bike_id":"1f420f0c-c003-483f-9aa6-e0d9c2c0ff55","system_id":"levelo_inurba_marseille","lat":43.298037,"lon":5.381066,"is_reserved":false,"is_disabled":false,"rental_uris":{"android":"levelo://app?vid=1f420f0c-c003-483f-9aa6-e0d9c2c0ff55","ios":"levelo://app?vid=1f420f0c-c003-483f-9aa6-e0d9c2c0ff55"},"vehicle_type_id":"4","last_reported":1685300690,"current_range_meters":0,"station_id":"ce4bgip2rcd13ifvqbb0","pricing_plan_id":"free"},{"bike_id":"e84d56b8-97dc-4440-a818-5c0e0ee2988f","system_id":"levelo_inurba_marseille","lat":43.295279,"lon":5.375048,"is_reserved":false,"is_disabled":false,"rental_uris":{"android":"levelo://app?vid=e84d56b8-97dc-4440-a818-5c0e0ee2988f","ios":"levelo://app?vid=e84d56b8-97dc-4440-a818-5c0e0ee2988f"},"vehicle_type_id":"4","last_reported":1685300690,"current_range_meters":22400,"station_id":"ce4bgkp2rcd13ifvqbmg","pricing_plan_id":"free"},{"bike_id":"ccdcc31a-026f-452d-9b24-712d1675aafd","system_id":"levelo_inurba_marseille","lat":43.295279,"lon":5.375048,"is_reserved":false,"is_disabled":false,"rental_uris":{"android":"levelo://app?vid=ccdcc31a-026f-452d-9b24-712d1675aafd","ios":"levelo://app?vid=ccdcc31a-026f-452d-9b24-712d1675aafd"},"vehicle_type_id":"4","last_reported":1685300690,"current_range_meters":8400,"station_id":"ce4bgkp2rcd13ifvqbmg","pricing_plan_id":"free"},{"bike_id":"ea705345-7db9-4c55-83c3-f0459a08de90","system_id":"levelo_inurba_marseille","lat":43.299657,"lon":5.384913,"is_reserved":false,"is_disabled":false,"rental_uris":{"android":"levelo://app?vid=ea705345-7db9-4c55-83c3-f0459a08de90","ios":"levelo://app?vid=ea705345-7db9-4c55-83c3-f0459a08de90"},"vehicle_type_id":"4","last_reported":1685300690,"current_range_meters":800,"station_id":"","pricing_plan_id":"free"},{"bike_id":"f33739d8-c8dd-43e3-824b-7ddaddc8f1f8","system_id":"levelo_inurba_marseille","lat":43.32382,"lon":5.38746,"is_reserved":false,"is_disabled":false,"rental_uris":{"android":"levelo://app?vid=f33739d8-c8dd-43e3-824b-7ddaddc8f1f8","ios":"levelo://app?vid=f33739d8-c8dd-43e3-824b-7ddaddc8f1f8"},"vehicle_type_id":"4","last_reported":1685300690,"current_range_meters":0,"station_id":"ce4bhqp2rcd13ifvqhog","pricing_plan_id":"free"},{"bike_id":"4c1c269c-c229-4d23-9a35-c1d245bed7c6","system_id":"levelo_inurba_marseille","lat":43.29314,"lon":5.37161,"is_reserved":false,"is_disabled":false,"rental_uris":{"android":"levelo://app?vid=4c1c269c-c229-4d23-9a35-c1d245bed7c6","ios":"levelo://app?vid=4c1c269c-c229-4d23-9a35-c1d245bed7c6"},"vehicle_type_id":"4","last_reported":1685300690,"current_range_meters":0,"station_id":"ce4bgh92rcd13ifvqb40","pricing_plan_id":"free"},{"bike_id":"c8be47b2-b647-4489-ae2c-9ad91b0c4c63","system_id":"levelo_inurba_marseille","lat":43.293249,"lon":5.371578,"is_reserved":false,"is_disabled":false,"rental_uris":{"android":"levelo://app?vid=c8be47b2-b647-4489-ae2c-9ad91b0c4c63","ios":"levelo://app?vid=c8be47b2-b647-4489-ae2c-9ad91b0c4c63"},"vehicle_type_id":"4","last_reported":1685300690,"current_range_meters":4400,"station_id":"ce4bgh92rcd13ifvqb40","pricing_plan_id":"free"},{"bike_id":"374cdc98-eb30-4885-9961-0945d1c9b8dd","system_id":"levelo_inurba_marseille","lat":43.29305,"lon":5.37177,"is_reserved":false,"is_disabled":false,"rental_uris":{"android":"levelo://app?vid=374cdc98-eb30-4885-9961-0945d1c9b8dd","ios":"levelo://app?vid=374cdc98-eb30-4885-9961-0945d1c9b8dd"},"vehicle_type_id":"4","last_reported":1685300690,"current_range_meters":3600,"station_id":"ce4bgh92rcd13ifvqb40","pricing_plan_id":"free"},{"bike_id":"f76e05c1-bdaf-4f0a-b4cc-bc6f20990967","system_id":"levelo_inurba_marseille","lat":43.29303,"lon":5.37172,"is_reserved":false,"is_disabled":false,"rental_uris":{"android":"levelo://app?vid=f76e05c1-bdaf-4f0a-b4cc-bc6f20990967","ios":"levelo://app?vid=f76e05c1-bdaf-4f0a-b4cc-bc6f20990967"},"vehicle_type_id":"4","last_reported":1685300690,"current_range_meters":7200,"station_id":"","pricing_plan_id":"free"},{"bike_id":"1ddcc1e3-064a-45fe-8548-c3fa9200518e","system_id":"levelo_inurba_marseille","lat":43.29389,"lon":5.37716,"is_reserved":false,"is_disabled":false,"rental_uris":{"android":"levelo://app?vid=1ddcc1e3-064a-45fe-8548-c3fa9200518e","ios":"levelo://app?vid=1ddcc1e3-064a-45fe-8548-c3fa9200518e"},"vehicle_type_id":"4","last_reported":1685300690,"current_range_meters":0,"station_id":"","pricing_plan_id":"free"},{"bike_id":"4e213d1c-399d-44a2-ac8a-90232f06e63e","system_id":"levelo_inurba_marseille","lat":43.29285,"lon":5.37439,"is_reserved":false,"is_disabled":false,"rental_uris":{"android":"levelo://app?vid=4e213d1c-399d-44a2-ac8a-90232f06e63e","ios":"levelo://app?vid=4e213d1c-399d-44a2-ac8a-90232f06e63e"},"vehicle_type_id":"4","last_reported":1685300690,"current_range_meters":0,"station_id":"ce4bgi12rcd13ifvqb70","pricing_plan_id":"free"},{"bike_id":"d145525d-9db9-461d-9cd5-ed76a5b84677","system_id":"levelo_inurba_marseille","lat":43.2936,"lon":5.37835,"is_reserved":false,"is_disabled":false,"rental_uris":{"android":"levelo://app?vid=d145525d-9db9-461d-9cd5-ed76a5b84677","ios":"levelo://app?vid=d145525d-9db9-461d-9cd5-ed76a5b84677"},"vehicle_type_id":"4","last_reported":1685300690,"current_range_meters":1600,"station_id":"ce4bgjh2rcd13ifvqbf0","pricing_plan_id":"free"},{"bike_id":"dd3e3bd7-f38b-473a-909c-0b3d6dfe3bde","system_id":"levelo_inurba_marseille","lat":43.298764,"lon":5.388973,"is_reserved":false,"is_disabled":false,"rental_uris":{"android":"levelo://app?vid=dd3e3bd7-f38b-473a-909c-0b3d6dfe3bde","ios":"levelo://app?vid=dd3e3bd7-f38b-473a-909c-0b3d6dfe3bde"},"vehicle_type_id":"4","last_reported":1685300690,"current_range_meters":0,"station_id":"ce4bh392rcd13ifvqdl0","pricing_plan_id":"free"},{"bike_id":"4c75eb55-ff69-4aed-acd7-24a8976396d0","system_id":"levelo_inurba_marseille","lat":43.298764,"lon":5.388973,"is_reserved":false,"is_disabled":false,"rental_uris":{"android":"levelo://app?vid=4c75eb55-ff69-4aed-acd7-24a8976396d0","ios":"levelo://app?vid=4c75eb55-ff69-4aed-acd7-24a8976396d0"},"vehicle_type_id":"4","last_reported":1685300690,"current_range_meters":9200,"station_id":"ce4bh392rcd13ifvqdl0","pricing_plan_id":"free"},{"bike_id":"dc87520b-70b7-4465-a9ca-6a60d001bb9c","system_id":"levelo_inurba_marseille","lat":43.31323,"lon":5.396871,"is_reserved":false,"is_disabled":false,"rental_uris":{"android":"levelo://app?vid=dc87520b-70b7-4465-a9ca-6a60d001bb9c","ios":"levelo://app?vid=dc87520b-70b7-4465-a9ca-6a60d001bb9c"},"vehicle_type_id":"4","last_reported":1685300690,"current_range_meters":3600,"station_id":"","pricing_plan_id":"free"},{"bike_id":"ef268ea1-b980-4f42-b1b5-bfaaa8e569c8","system_id":"levelo_inurba_marseille","lat":43.29529,"lon":5.385581,"is_reserved":false,"is_disabled":false,"rental_uris":{"android":"levelo://app?vid=ef268ea1-b980-4f42-b1b5-bfaaa8e569c8","ios":"levelo://app?vid=ef268ea1-b980-4f42-b1b5-bfaaa8e569c8"},"vehicle_type_id":"4","last_reported":1685300690,"current_range_meters":800,"station_id":"ce4bgih2rcd13ifvqba0","pricing_plan_id":"free"},{"bike_id":"e7454e3e-2fc5-4c45-9147-946c6e4522d1","system_id":"levelo_inurba_marseille","lat":43.29529,"lon":5.385581,"is_reserved":false,"is_disabled":false,"rental_uris":{"android":"levelo://app?vid=e7454e3e-2fc5-4c45-9147-946c6e4522d1","ios":"levelo://app?vid=e7454e3e-2fc5-4c45-9147-946c6e4522d1"},"vehicle_type_id":"4","last_reported":1685300690,"current_range_meters":3600,"station_id":"ce4bgih2rcd13ifvqba0","pricing_plan_id":"free"},{"bike_id":"4f6bcf4d-8e3f-44b6-92db-3dcae9c57fa0","system_id":"levelo_inurba_marseille","lat":43.29529,"lon":5.385581,"is_reserved":false,"is_disabled":false,"rental_uris":{"android":"levelo://app?vid=4f6bcf4d-8e3f-44b6-92db-3dcae9c57fa0","ios":"levelo://app?vid=4f6bcf4d-8e3f-44b6-92db-3dcae9c57fa0"},"vehicle_type_id":"4","last_reported":1685300690,"current_range_meters":18400,"station_id":"ce4bgih2rcd13ifvqba0","pricing_plan_id":"free"},{"bike_id":"0811482f-7a83-4815-8721-5b0d26f8b766","system_id":"levelo_inurba_marseille","lat":43.289468,"lon":5.363719,"is_reserved":false,"is_disabled":false,"rental_uris":{"android":"levelo://app?vid=0811482f-7a83-4815-8721-5b0d26f8b766","ios":"levelo://app?vid=0811482f-7a83-4815-8721-5b0d26f8b766"},"vehicle_type_id":"4","last_reported":1685300690,"current_range_meters":0,"station_id":"ce4bhc92rcd13ifvqetg","pricing_plan_id":"free"},{"bike_id":"d9d465df-d6ad-486d-a875-5abafe15c34a","system_id":"levelo_inurba_marseille","lat":43.28944,"lon":5.36631,"is_reserved":false,"is_disabled":false,"rental_uris":{"android":"levelo://app?vid=d9d465df-d6ad-486d-a875-5abafe15c34a","ios":"levelo://app?vid=d9d465df-d6ad-486d-a875-5abafe15c34a"},"vehicle_type_id":"4","last_reported":1685300690,"current_range_meters":2400,"station_id":"","pricing_plan_id":"free"},{"bike_id":"abf2f8e8-bb81-466d-bfae-206369286491","system_id":"levelo_inurba_marseille","lat":43.290327,"lon":5.375711,"is_reserved":false,"is_disabled":false,"rental_uris":{"android":"levelo://app?vid=abf2f8e8-bb81-466d-bfae-206369286491","ios":"levelo://app?vid=abf2f8e8-bb81-466d-bfae-206369286491"},"vehicle_type_id":"4","last_reported":1685300690,"current_range_meters":0,"station_id":"ce4bh692rcd13ifvqe90","pricing_plan_id":"free"},{"bike_id":"6928738e-bc02-4159-bd85-0aa0c8a9bf35","system_id":"levelo_inurba_marseille","lat":43.292642,"lon":5.384254,"is_reserved":false,"is_disabled":false,"rental_uris":{"android":"levelo://app?vid=6928738e-bc02-4159-bd85-0aa0c8a9bf35","ios":"levelo://app?vid=6928738e-bc02-4159-bd85-0aa0c8a9bf35"},"vehicle_type_id":"4","last_reported":1685300690,"current_range_meters":0,"station_id":"ce4bh692rcd13ifvqea0","pricing_plan_id":"free"},{"bike_id":"141c14ea-594b-43ee-894e-8c44af1dcd73","system_id":"levelo_inurba_marseille","lat":43.33731,"lon":5.3744,"is_reserved":false,"is_disabled":false,"rental_uris":{"android":"levelo://app?vid=141c14ea-594b-43ee-894e-8c44af1dcd73","ios":"levelo://app?vid=141c14ea-594b-43ee-894e-8c44af1dcd73"},"vehicle_type_id":"4","last_reported":1685300690,"current_range_meters":31200,"station_id":"","pricing_plan_id":"free"},{"bike_id":"915a1d5d-0a9c-4982-bd00-ae384a29cdde","system_id":"levelo_inurba_marseille","lat":43.33743,"lon":5.37448,"is_reserved":false,"is_disabled":false,"rental_uris":{"android":"levelo://app?vid=915a1d5d-0a9c-4982-bd00-ae384a29cdde","ios":"levelo://app?vid=915a1d5d-0a9c-4982-bd00-ae384a29cdde"},"vehicle_type_id":"4","last_reported":1685300690,"current_range_meters":29600,"station_id":"","pricing_plan_id":"free"},{"bike_id":"4d395139-b839-4ab0-8519-abb908308d08","system_id":"levelo_inurba_marseille","lat":43.33746,"lon":5.37435,"is_reserved":false,"is_disabled":false,"rental_uris":{"android":"levelo://app?vid=4d395139-b839-4ab0-8519-abb908308d08","ios":"levelo://app?vid=4d395139-b839-4ab0-8519-abb908308d08"},"vehicle_type_id":"4","last_reported":1685300690,"current_range_meters":28800,"station_id":"","pricing_plan_id":"free"},{"bike_id":"c67b547c-3fcb-4384-8614-e15f558fec55","system_id":"levelo_inurba_marseille","lat":43.33744,"lon":5.37451,"is_reserved":false,"is_disabled":false,"rental_uris":{"android":"levelo://app?vid=c67b547c-3fcb-4384-8614-e15f558fec55","ios":"levelo://app?vid=c67b547c-3fcb-4384-8614-e15f558fec55"},"vehicle_type_id":"4","last_reported":1685300690,"current_range_meters":26400,"station_id":"","pricing_plan_id":"free"},{"bike_id":"493860ce-e063-4684-ab33-c360eaf64153","system_id":"levelo_inurba_marseille","lat":43.33744,"lon":5.37451,"is_reserved":false,"is_disabled":false,"rental_uris":{"android":"levelo://app?vid=493860ce-e063-4684-ab33-c360eaf64153","ios":"levelo://app?vid=493860ce-e063-4684-ab33-c360eaf64153"},"vehicle_type_id":"4","last_reported":1685300690,"current_range_meters":17200,"station_id":"","pricing_plan_id":"free"},{"bike_id":"5aaf445f-f097-4041-99e9-0b2edc8a39b1","system_id":"levelo_inurba_marseille","lat":43.33749,"lon":5.37448,"is_reserved":false,"is_disabled":false,"rental_uris":{"android":"levelo://app?vid=5aaf445f-f097-4041-99e9-0b2edc8a39b1","ios":"levelo://app?vid=5aaf445f-f097-4041-99e9-0b2edc8a39b1"},"vehicle_type_id":"4","last_reported":1685300690,"current_range_meters":28000,"station_id":"","pricing_plan_id":"free"},{"bike_id":"556c6db1-2600-4c2b-9521-aae8453517c1","system_id":"levelo_inurba_marseille","lat":43.33751,"lon":5.37438,"is_reserved":false,"is_disabled":false,"rental_uris":{"android":"levelo://app?vid=556c6db1-2600-4c2b-9521-aae8453517c1","ios":"levelo://app?vid=556c6db1-2600-4c2b-9521-aae8453517c1"},"vehicle_type_id":"4","last_reported":1685300690,"current_range_meters":13200,"station_id":"","pricing_plan_id":"free"},{"bike_id":"13f017f1-17c6-442d-a858-afd0d6dd936d","system_id":"levelo_inurba_marseille","lat":43.30642,"lon":5.401031,"is_reserved":false,"is_disabled":false,"rental_uris":{"android":"levelo://app?vid=13f017f1-17c6-442d-a858-afd0d6dd936d","ios":"levelo://app?vid=13f017f1-17c6-442d-a858-afd0d6dd936d"},"vehicle_type_id":"4","last_reported":1685300690,"current_range_meters":6400,"station_id":"ce4bh112rcd13ifvqda0","pricing_plan_id":"free"},{"bike_id":"8d4b6760-86ef-4ffe-892c-b7d1b9e92d74","system_id":"levelo_inurba_marseille","lat":43.30642,"lon":5.401031,"is_reserved":false,"is_disabled":false,"rental_uris":{"android":"levelo://app?vid=8d4b6760-86ef-4ffe-892c-b7d1b9e92d74","ios":"levelo://app?vid=8d4b6760-86ef-4ffe-892c-b7d1b9e92d74"},"vehicle_type_id":"4","last_reported":1685300690,"current_range_meters":0,"station_id":"ce4bh112rcd13ifvqda0","pricing_plan_id":"free"},{"bike_id":"0a3e1ca5-d3c9-4616-9f15-41f9c7537283","system_id":"levelo_inurba_marseille","lat":43.30437,"lon":5.40103,"is_reserved":false,"is_disabled":false,"rental_uris":{"android":"levelo://app?vid=0a3e1ca5-d3c9-4616-9f15-41f9c7537283","ios":"levelo://app?vid=0a3e1ca5-d3c9-4616-9f15-41f9c7537283"},"vehicle_type_id":"4","last_reported":1685300690,"current_range_meters":6000,"station_id":"","pricing_plan_id":"free"},{"bike_id":"a01fb1ec-7f81-44f8-aaaa-51d0ced5e7d8","system_id":"levelo_inurba_marseille","lat":43.290345,"lon":5.38646,"is_reserved":false,"is_disabled":false,"rental_uris":{"android":"levelo://app?vid=a01fb1ec-7f81-44f8-aaaa-51d0ced5e7d8","ios":"levelo://app?vid=a01fb1ec-7f81-44f8-aaaa-51d0ced5e7d8"},"vehicle_type_id":"4","last_reported":1685300690,"current_range_meters":800,"station_id":"ce4bh4p2rcd13ifvqe0g","pricing_plan_id":"free"},{"bike_id":"857d19d3-1ad1-4abd-a723-e560f557aaef","system_id":"levelo_inurba_marseille","lat":43.317557,"lon":5.390173,"is_reserved":false,"is_disabled":false,"rental_uris":{"android":"levelo://app?vid=857d19d3-1ad1-4abd-a723-e560f557aaef","ios":"levelo://app?vid=857d19d3-1ad1-4abd-a723-e560f557aaef"},"vehicle_type_id":"4","last_reported":1685300690,"current_range_meters":7200,"station_id":"ce4bhqp2rcd13ifvqhng","pricing_plan_id":"free"},{"bike_id":"15fc2dd3-4827-4648-8812-715e618f351e","system_id":"levelo_inurba_marseille","lat":43.291994,"lon":5.392907,"is_reserved":false,"is_disabled":false,"rental_uris":{"android":"levelo://app?vid=15fc2dd3-4827-4648-8812-715e618f351e","ios":"levelo://app?vid=15fc2dd3-4827-4648-8812-715e618f351e"},"vehicle_type_id":"4","last_reported":1685300690,"current_range_meters":800,"station_id":"ce4bh192rcd13ifvqdd0","pricing_plan_id":"free"},{"bike_id":"0a0fdec1-e895-47ad-b1ff-6770b40449f3","system_id":"levelo_inurba_marseille","lat":43.284534,"lon":5.358662,"is_reserved":false,"is_disabled":false,"rental_uris":{"android":"levelo://app?vid=0a0fdec1-e895-47ad-b1ff-6770b40449f3","ios":"levelo://app?vid=0a0fdec1-e895-47ad-b1ff-6770b40449f3"},"vehicle_type_id":"4","last_reported":1685300690,"current_range_meters":3600,"station_id":"ce4bhah2rcd13ifvqei0","pricing_plan_id":"free"},{"bike_id":"00015cab-a4b9-4fb1-a8fc-9c5ab73a144b","system_id":"levelo_inurba_marseille","lat":43.323464,"lon":5.406297,"is_reserved":false,"is_disabled":false,"rental_uris":{"android":"levelo://app?vid=00015cab-a4b9-4fb1-a8fc-9c5ab73a144b","ios":"levelo://app?vid=00015cab-a4b9-4fb1-a8fc-9c5ab73a144b"},"vehicle_type_id":"4","last_reported":1685300690,"current_range_meters":2000,"station_id":"ce4bhq92rcd13ifvqhjg","pricing_plan_id":"free"},{"bike_id":"dc5ccf6d-a613-49b0-b240-52b924e39d1d","system_id":"levelo_inurba_marseille","lat":43.284793,"lon":5.384113,"is_reserved":false,"is_disabled":false,"rental_uris":{"android":"levelo://app?vid=dc5ccf6d-a613-49b0-b240-52b924e39d1d","ios":"levelo://app?vid=dc5ccf6d-a613-49b0-b240-52b924e39d1d"},"vehicle_type_id":"4","last_reported":1685300690,"current_range_meters":0,"station_id":"ce4bh512rcd13ifvqe3g","pricing_plan_id":"free"},{"bike_id":"5faf6627-6ff5-43f7-a56f-a987aa89d37c","system_id":"levelo_inurba_marseille","lat":43.284793,"lon":5.384113,"is_reserved":false,"is_disabled":false,"rental_uris":{"android":"levelo://app?vid=5faf6627-6ff5-43f7-a56f-a987aa89d37c","ios":"levelo://app?vid=5faf6627-6ff5-43f7-a56f-a987aa89d37c"},"vehicle_type_id":"4","last_reported":1685300690,"current_range_meters":0,"station_id":"ce4bh512rcd13ifvqe3g","pricing_plan_id":"free"},{"bike_id":"0017746c-93d4-4b03-ba32-d9a835aee797","system_id":"levelo_inurba_marseille","lat":43.288501,"lon":5.393087,"is_reserved":false,"is_disabled":false,"rental_uris":{"android":"levelo://app?vid=0017746c-93d4-4b03-ba32-d9a835aee797","ios":"levelo://app?vid=0017746c-93d4-4b03-ba32-d9a835aee797"},"vehicle_type_id":"4","last_reported":1685300690,"current_range_meters":4400,"station_id":"ce4bh2p2rcd13ifvqdi0","pricing_plan_id":"free"},{"bike_id":"8aea5570-3b68-474b-8b51-70d50a391756","system_id":"levelo_inurba_marseille","lat":43.28834,"lon":5.39314,"is_reserved":false,"is_disabled":false,"rental_uris":{"android":"levelo://app?vid=8aea5570-3b68-474b-8b51-70d50a391756","ios":"levelo://app?vid=8aea5570-3b68-474b-8b51-70d50a391756"},"vehicle_type_id":"4","last_reported":1685300690,"current_range_meters":0,"station_id":"ce4bh2p2rcd13ifvqdi0","pricing_plan_id":"free"},{"bike_id":"f67524dd-cf80-4757-b698-8d28adf1dadd","system_id":"levelo_inurba_marseille","lat":43.292879,"lon":5.401148,"is_reserved":false,"is_disabled":false,"rental_uris":{"android":"levelo://app?vid=f67524dd-cf80-4757-b698-8d28adf1dadd","ios":"levelo://app?vid=f67524dd-cf80-4757-b698-8d28adf1dadd"},"vehicle_type_id":"4","last_reported":1685300690,"current_range_meters":0,"station_id":"ce4bh312rcd13ifvqdk0","pricing_plan_id":"free"},{"bike_id":"4d2ddf16-48e5-426b-9f49-7a83729058bc","system_id":"levelo_inurba_marseille","lat":43.283096,"lon":5.350401,"is_reserved":false,"is_disabled":false,"rental_uris":{"android":"levelo://app?vid=4d2ddf16-48e5-426b-9f49-7a83729058bc","ios":"levelo://app?vid=4d2ddf16-48e5-426b-9f49-7a83729058bc"},"vehicle_type_id":"4","last_reported":1685300690,"current_range_meters":3200,"station_id":"ce4bhgp2rcd13ifvqfc0","pricing_plan_id":"free"},{"bike_id":"20034d85-afa5-4cd0-8fb1-cf2c93081353","system_id":"levelo_inurba_marseille","lat":43.292724,"lon":5.401131,"is_reserved":false,"is_disabled":false,"rental_uris":{"android":"levelo://app?vid=20034d85-afa5-4cd0-8fb1-cf2c93081353","ios":"levelo://app?vid=20034d85-afa5-4cd0-8fb1-cf2c93081353"},"vehicle_type_id":"4","last_reported":1685300690,"current_range_meters":0,"station_id":"ce4bh312rcd13ifvqdk0","pricing_plan_id":"free"},{"bike_id":"0e04b87d-23a5-40f6-8163-591c57ecdfc6","system_id":"levelo_inurba_marseille","lat":43.283502,"lon":5.386471,"is_reserved":false,"is_disabled":false,"rental_uris":{"android":"levelo://app?vid=0e04b87d-23a5-40f6-8163-591c57ecdfc6","ios":"levelo://app?vid=0e04b87d-23a5-40f6-8163-591c57ecdfc6"},"vehicle_type_id":"4","last_reported":1685300690,"current_range_meters":13600,"station_id":"ce4bh492rcd13ifvqdvg","pricing_plan_id":"free"},{"bike_id":"f1a39db4-07e2-453a-b57b-0e5023838188","system_id":"levelo_inurba_marseille","lat":43.281044,"lon":5.378308,"is_reserved":false,"is_disabled":false,"rental_uris":{"android":"levelo://app?vid=f1a39db4-07e2-453a-b57b-0e5023838188","ios":"levelo://app?vid=f1a39db4-07e2-453a-b57b-0e5023838188"},"vehicle_type_id":"4","last_reported":1685300690,"current_range_meters":3200,"station_id":"ce4bha12rcd13ifvqee0","pricing_plan_id":"free"},{"bike_id":"f648715a-3357-4093-a9ce-cd5f01420a32","system_id":"levelo_inurba_marseille","lat":43.281044,"lon":5.378308,"is_reserved":false,"is_disabled":false,"rental_uris":{"android":"levelo://app?vid=f648715a-3357-4093-a9ce-cd5f01420a32","ios":"levelo://app?vid=f648715a-3357-4093-a9ce-cd5f01420a32"},"vehicle_type_id":"4","last_reported":1685300690,"current_range_meters":9600,"station_id":"ce4bha12rcd13ifvqee0","pricing_plan_id":"free"},{"bike_id":"17e61452-80ba-46a0-9877-274607278af4","system_id":"levelo_inurba_marseille","lat":43.29634,"lon":5.40598,"is_reserved":false,"is_disabled":false,"rental_uris":{"android":"levelo://app?vid=17e61452-80ba-46a0-9877-274607278af4","ios":"levelo://app?vid=17e61452-80ba-46a0-9877-274607278af4"},"vehicle_type_id":"4","last_reported":1685300690,"current_range_meters":0,"station_id":"ce4bh0h2rcd13ifvqd60","pricing_plan_id":"free"},{"bike_id":"fc50b41e-5f2a-409a-8097-113c4e930a29","system_id":"levelo_inurba_marseille","lat":43.287154,"lon":5.399979,"is_reserved":false,"is_disabled":false,"rental_uris":{"android":"levelo://app?vid=fc50b41e-5f2a-409a-8097-113c4e930a29","ios":"levelo://app?vid=fc50b41e-5f2a-409a-8097-113c4e930a29"},"vehicle_type_id":"4","last_reported":1685300690,"current_range_meters":0,"station_id":"ce4bho92rcd13ifvqh3g","pricing_plan_id":"free"},{"bike_id":"5c80fd8d-9e11-4697-a599-7d81cf892c46","system_id":"levelo_inurba_marseille","lat":43.281044,"lon":5.378308,"is_reserved":false,"is_disabled":false,"rental_uris":{"android":"levelo://app?vid=5c80fd8d-9e11-4697-a599-7d81cf892c46","ios":"levelo://app?vid=5c80fd8d-9e11-4697-a599-7d81cf892c46"},"vehicle_type_id":"4","last_reported":1685300690,"current_range_meters":23600,"station_id":"ce4bha12rcd13ifvqee0","pricing_plan_id":"free"},{"bike_id":"db1489de-a7c4-4c0f-8abf-73d0898bb77a","system_id":"levelo_inurba_marseille","lat":43.28168,"lon":5.39169,"is_reserved":false,"is_disabled":false,"rental_uris":{"android":"levelo://app?vid=db1489de-a7c4-4c0f-8abf-73d0898bb77a","ios":"levelo://app?vid=db1489de-a7c4-4c0f-8abf-73d0898bb77a"},"vehicle_type_id":"4","last_reported":1685300690,"current_range_meters":17600,"station_id":"","pricing_plan_id":"free"},{"bike_id":"8e70d321-82a0-4c20-a16a-989cd237e230","system_id":"levelo_inurba_marseille","lat":43.279742,"lon":5.38744,"is_reserved":false,"is_disabled":false,"rental_uris":{"android":"levelo://app?vid=8e70d321-82a0-4c20-a16a-989cd237e230","ios":"levelo://app?vid=8e70d321-82a0-4c20-a16a-989cd237e230"},"vehicle_type_id":"4","last_reported":1685300690,"current_range_meters":3600,"station_id":"ce4bhg12rcd13ifvqf80","pricing_plan_id":"free"},{"bike_id":"3af1fdbd-dae3-4848-9135-c4fd7b20d976","system_id":"levelo_inurba_marseille","lat":43.325233,"lon":5.414318,"is_reserved":false,"is_disabled":false,"rental_uris":{"android":"levelo://app?vid=3af1fdbd-dae3-4848-9135-c4fd7b20d976","ios":"levelo://app?vid=3af1fdbd-dae3-4848-9135-c4fd7b20d976"},"vehicle_type_id":"4","last_reported":1685300690,"current_range_meters":2400,"station_id":"ce4bhq12rcd13ifvqhhg","pricing_plan_id":"free"},{"bike_id":"286258f5-ac0b-4a30-a6cc-cd45e1cdecf2","system_id":"levelo_inurba_marseille","lat":43.32537,"lon":5.41449,"is_reserved":false,"is_disabled":false,"rental_uris":{"android":"levelo://app?vid=286258f5-ac0b-4a30-a6cc-cd45e1cdecf2","ios":"levelo://app?vid=286258f5-ac0b-4a30-a6cc-cd45e1cdecf2"},"vehicle_type_id":"4","last_reported":1685300690,"current_range_meters":31200,"station_id":"ce4bhq12rcd13ifvqhhg","pricing_plan_id":"free"},{"bike_id":"b825cc48-1e3d-4178-93f6-8fb4d03247ce","system_id":"levelo_inurba_marseille","lat":43.30351,"lon":5.41886,"is_reserved":false,"is_disabled":false,"rental_uris":{"android":"levelo://app?vid=b825cc48-1e3d-4178-93f6-8fb4d03247ce","ios":"levelo://app?vid=b825cc48-1e3d-4178-93f6-8fb4d03247ce"},"vehicle_type_id":"4","last_reported":1685300690,"current_range_meters":0,"station_id":"ce4bhop2rcd13ifvqh7g","pricing_plan_id":"free"},{"bike_id":"a1983e4e-f19c-474a-b4b4-6828db3acba0","system_id":"levelo_inurba_marseille","lat":43.273609,"lon":5.362708,"is_reserved":false,"is_disabled":false,"rental_uris":{"android":"levelo://app?vid=a1983e4e-f19c-474a-b4b4-6828db3acba0","ios":"levelo://app?vid=a1983e4e-f19c-474a-b4b4-6828db3acba0"},"vehicle_type_id":"4","last_reported":1685300690,"current_range_meters":0,"station_id":"ce4bhbh2rcd13ifvqeo0","pricing_plan_id":"free"},{"bike_id":"26821465-d672-43c7-9f1a-b9cf44200a4d","system_id":"levelo_inurba_marseille","lat":43.273609,"lon":5.362708,"is_reserved":false,"is_disabled":false,"rental_uris":{"android":"levelo://app?vid=26821465-d672-43c7-9f1a-b9cf44200a4d","ios":"levelo://app?vid=26821465-d672-43c7-9f1a-b9cf44200a4d"},"vehicle_type_id":"4","last_reported":1685300690,"current_range_meters":0,"station_id":"ce4bhbh2rcd13ifvqeo0","pricing_plan_id":"free"},{"bike_id":"55385dd7-67a8-4640-8983-17ae7cc9b2c5","system_id":"levelo_inurba_marseille","lat":43.273609,"lon":5.362708,"is_reserved":false,"is_disabled":false,"rental_uris":{"android":"levelo://app?vid=55385dd7-67a8-4640-8983-17ae7cc9b2c5","ios":"levelo://app?vid=55385dd7-67a8-4640-8983-17ae7cc9b2c5"},"vehicle_type_id":"4","last_reported":1685300690,"current_range_meters":1600,"station_id":"ce4bhbh2rcd13ifvqeo0","pricing_plan_id":"free"},{"bike_id":"fc489b55-fabb-4edd-8521-4e89c46869ca","system_id":"levelo_inurba_marseille","lat":43.33612,"lon":5.410321,"is_reserved":false,"is_disabled":false,"rental_uris":{"android":"levelo://app?vid=fc489b55-fabb-4edd-8521-4e89c46869ca","ios":"levelo://app?vid=fc489b55-fabb-4edd-8521-4e89c46869ca"},"vehicle_type_id":"4","last_reported":1685300690,"current_range_meters":22400,"station_id":"ce4bhqh2rcd13ifvqhmg","pricing_plan_id":"free"},{"bike_id":"91b49189-18df-431a-bbbf-f0b2350181de","system_id":"levelo_inurba_marseille","lat":43.28423,"lon":5.408,"is_reserved":false,"is_disabled":false,"rental_uris":{"android":"levelo://app?vid=91b49189-18df-431a-bbbf-f0b2350181de","ios":"levelo://app?vid=91b49189-18df-431a-bbbf-f0b2350181de"},"vehicle_type_id":"4","last_reported":1685300690,"current_range_meters":6400,"station_id":"","pricing_plan_id":"free"},{"bike_id":"7b9b44cf-ff9a-404c-9b03-065fc3a7de8a","system_id":"levelo_inurba_marseille","lat":43.273129,"lon":5.390725,"is_reserved":false,"is_disabled":false,"rental_uris":{"android":"levelo://app?vid=7b9b44cf-ff9a-404c-9b03-065fc3a7de8a","ios":"levelo://app?vid=7b9b44cf-ff9a-404c-9b03-065fc3a7de8a"},"vehicle_type_id":"4","last_reported":1685300690,"current_range_meters":0,"station_id":"ce4bhgp2rcd13ifvqfe0","pricing_plan_id":"free"},{"bike_id":"61975327-2901-4c46-99c0-45dcaddab9b1","system_id":"levelo_inurba_marseille","lat":43.27302,"lon":5.39091,"is_reserved":false,"is_disabled":false,"rental_uris":{"android":"levelo://app?vid=61975327-2901-4c46-99c0-45dcaddab9b1","ios":"levelo://app?vid=61975327-2901-4c46-99c0-45dcaddab9b1"},"vehicle_type_id":"4","last_reported":1685300690,"current_range_meters":0,"station_id":"ce4bhgp2rcd13ifvqfe0","pricing_plan_id":"free"},{"bike_id":"ba276931-2995-4f81-bd86-7628bc67d43a","system_id":"levelo_inurba_marseille","lat":43.295523,"lon":5.422926,"is_reserved":false,"is_disabled":false,"rental_uris":{"android":"levelo://app?vid=ba276931-2995-4f81-bd86-7628bc67d43a","ios":"levelo://app?vid=ba276931-2995-4f81-bd86-7628bc67d43a"},"vehicle_type_id":"4","last_reported":1685300690,"current_range_meters":10400,"station_id":"ce4bhph2rcd13ifvqhdg","pricing_plan_id":"free"},{"bike_id":"a429b482-454d-4125-b3ab-2aedb91094d1","system_id":"levelo_inurba_marseille","lat":43.29551,"lon":5.42293,"is_reserved":false,"is_disabled":false,"rental_uris":{"android":"levelo://app?vid=a429b482-454d-4125-b3ab-2aedb91094d1","ios":"levelo://app?vid=a429b482-454d-4125-b3ab-2aedb91094d1"},"vehicle_type_id":"4","last_reported":1685300690,"current_range_meters":2400,"station_id":"ce4bhph2rcd13ifvqhdg","pricing_plan_id":"free"},{"bike_id":"4eafeceb-6be6-43d4-80ef-f608229c27fc","system_id":"levelo_inurba_marseille","lat":43.272124,"lon":5.391768,"is_reserved":false,"is_disabled":false,"rental_uris":{"android":"levelo://app?vid=4eafeceb-6be6-43d4-80ef-f608229c27fc","ios":"levelo://app?vid=4eafeceb-6be6-43d4-80ef-f608229c27fc"},"vehicle_type_id":"4","last_reported":1685300690,"current_range_meters":1200,"station_id":"ce4bhhp2rcd13ifvqfm0","pricing_plan_id":"free"},{"bike_id":"04d4b880-6ef7-4d72-afe0-1fafe63c563c","system_id":"levelo_inurba_marseille","lat":43.278128,"lon":5.407195,"is_reserved":false,"is_disabled":false,"rental_uris":{"android":"levelo://app?vid=04d4b880-6ef7-4d72-afe0-1fafe63c563c","ios":"levelo://app?vid=04d4b880-6ef7-4d72-afe0-1fafe63c563c"},"vehicle_type_id":"4","last_reported":1685300690,"current_range_meters":17600,"station_id":"ce4bhnh2rcd13ifvqgtg","pricing_plan_id":"free"},{"bike_id":"d1a7981b-7fa3-4c2e-8100-1a7adb06866b","system_id":"levelo_inurba_marseille","lat":43.27804,"lon":5.40702,"is_reserved":false,"is_disabled":false,"rental_uris":{"android":"levelo://app?vid=d1a7981b-7fa3-4c2e-8100-1a7adb06866b","ios":"levelo://app?vid=d1a7981b-7fa3-4c2e-8100-1a7adb06866b"},"vehicle_type_id":"4","last_reported":1685300690,"current_range_meters":10400,"station_id":"ce4bhnh2rcd13ifvqgtg","pricing_plan_id":"free"},{"bike_id":"a21fc9c8-2f05-4d79-962c-6fa1bd940e48","system_id":"levelo_inurba_marseille","lat":43.278128,"lon":5.407195,"is_reserved":false,"is_disabled":false,"rental_uris":{"android":"levelo://app?vid=a21fc9c8-2f05-4d79-962c-6fa1bd940e48","ios":"levelo://app?vid=a21fc9c8-2f05-4d79-962c-6fa1bd940e48"},"vehicle_type_id":"4","last_reported":1685300690,"current_range_meters":1600,"station_id":"ce4bhnh2rcd13ifvqgtg","pricing_plan_id":"free"},{"bike_id":"15636f54-96b7-4cbd-b6eb-ef8945fad8f3","system_id":"levelo_inurba_marseille","lat":43.26687,"lon":5.38271,"is_reserved":false,"is_disabled":false,"rental_uris":{"android":"levelo://app?vid=15636f54-96b7-4cbd-b6eb-ef8945fad8f3","ios":"levelo://app?vid=15636f54-96b7-4cbd-b6eb-ef8945fad8f3"},"vehicle_type_id":"4","last_reported":1685300690,"current_range_meters":5600,"station_id":"ce4bhg92rcd13ifvqf90","pricing_plan_id":"free"},{"bike_id":"97f92444-dc7f-4ac8-885e-43ac50454dc0","system_id":"levelo_inurba_marseille","lat":43.31672,"lon":5.43328,"is_reserved":false,"is_disabled":false,"rental_uris":{"android":"levelo://app?vid=97f92444-dc7f-4ac8-885e-43ac50454dc0","ios":"levelo://app?vid=97f92444-dc7f-4ac8-885e-43ac50454dc0"},"vehicle_type_id":"4","last_reported":1685300690,"current_range_meters":0,"station_id":"","pricing_plan_id":"free"},{"bike_id":"e065ceaf-3d4c-4df5-ab28-155e7ac2b139","system_id":"levelo_inurba_marseille","lat":43.27995,"lon":5.41647,"is_reserved":false,"is_disabled":false,"rental_uris":{"android":"levelo://app?vid=e065ceaf-3d4c-4df5-ab28-155e7ac2b139","ios":"levelo://app?vid=e065ceaf-3d4c-4df5-ab28-155e7ac2b139"},"vehicle_type_id":"4","last_reported":1685300690,"current_range_meters":0,"station_id":"ce4bho12rcd13ifvqh1g","pricing_plan_id":"free"},{"bike_id":"f4607cb9-cf33-4955-8e12-d2ab5d135241","system_id":"levelo_inurba_marseille","lat":43.27996,"lon":5.416624,"is_reserved":false,"is_disabled":false,"rental_uris":{"android":"levelo://app?vid=f4607cb9-cf33-4955-8e12-d2ab5d135241","ios":"levelo://app?vid=f4607cb9-cf33-4955-8e12-d2ab5d135241"},"vehicle_type_id":"4","last_reported":1685300690,"current_range_meters":2400,"station_id":"ce4bho12rcd13ifvqh1g","pricing_plan_id":"free"},{"bike_id":"8c02bad2-966b-4a85-9c5a-2cd89a56bac5","system_id":"levelo_inurba_marseille","lat":43.27996,"lon":5.416624,"is_reserved":false,"is_disabled":false,"rental_uris":{"android":"levelo://app?vid=8c02bad2-966b-4a85-9c5a-2cd89a56bac5","ios":"levelo://app?vid=8c02bad2-966b-4a85-9c5a-2cd89a56bac5"},"vehicle_type_id":"4","last_reported":1685300690,"current_range_meters":5600,"station_id":"ce4bho12rcd13ifvqh1g","pricing_plan_id":"free"},{"bike_id":"f9036f4f-6014-4cd7-8a39-ffecf78dbe65","system_id":"levelo_inurba_marseille","lat":43.2638,"lon":5.37448,"is_reserved":false,"is_disabled":false,"rental_uris":{"android":"levelo://app?vid=f9036f4f-6014-4cd7-8a39-ffecf78dbe65","ios":"levelo://app?vid=f9036f4f-6014-4cd7-8a39-ffecf78dbe65"},"vehicle_type_id":"4","last_reported":1685300690,"current_range_meters":30800,"station_id":"","pricing_plan_id":"free"},{"bike_id":"b8e07922-f074-4378-9c0d-0a256de36fe0","system_id":"levelo_inurba_marseille","lat":43.30803,"lon":5.43522,"is_reserved":false,"is_disabled":false,"rental_uris":{"android":"levelo://app?vid=b8e07922-f074-4378-9c0d-0a256de36fe0","ios":"levelo://app?vid=b8e07922-f074-4378-9c0d-0a256de36fe0"},"vehicle_type_id":"4","last_reported":1685300690,"current_range_meters":12800,"station_id":"","pricing_plan_id":"free"},{"bike_id":"2c45440e-1828-4603-b51e-78bb9b02645f","system_id":"levelo_inurba_marseille","lat":43.30428,"lon":5.43476,"is_reserved":false,"is_disabled":false,"rental_uris":{"android":"levelo://app?vid=2c45440e-1828-4603-b51e-78bb9b02645f","ios":"levelo://app?vid=2c45440e-1828-4603-b51e-78bb9b02645f"},"vehicle_type_id":"4","last_reported":1685300690,"current_range_meters":2000,"station_id":"","pricing_plan_id":"free"},{"bike_id":"fcb4c211-2756-4bb5-a63d-effcc4daf3bd","system_id":"levelo_inurba_marseille","lat":43.265569,"lon":5.390047,"is_reserved":false,"is_disabled":false,"rental_uris":{"android":"levelo://app?vid=fcb4c211-2756-4bb5-a63d-effcc4daf3bd","ios":"levelo://app?vid=fcb4c211-2756-4bb5-a63d-effcc4daf3bd"},"vehicle_type_id":"4","last_reported":1685300690,"current_range_meters":1600,"station_id":"ce4bhe12rcd13ifvqf30","pricing_plan_id":"free"},{"bike_id":"24f73af5-4833-41fb-a304-7a01e84e9deb","system_id":"levelo_inurba_marseille","lat":43.261782,"lon":5.374515,"is_reserved":false,"is_disabled":false,"rental_uris":{"android":"levelo://app?vid=24f73af5-4833-41fb-a304-7a01e84e9deb","ios":"levelo://app?vid=24f73af5-4833-41fb-a304-7a01e84e9deb"},"vehicle_type_id":"4","last_reported":1685300690,"current_range_meters":0,"station_id":"ce4bhgp2rcd13ifvqfc0","pricing_plan_id":"free"},{"bike_id":"933f42be-453b-4f51-8fc5-139da5459b29","system_id":"levelo_inurba_marseille","lat":43.28096,"lon":5.4221,"is_reserved":false,"is_disabled":false,"rental_uris":{"android":"levelo://app?vid=933f42be-453b-4f51-8fc5-139da5459b29","ios":"levelo://app?vid=933f42be-453b-4f51-8fc5-139da5459b29"},"vehicle_type_id":"4","last_reported":1685300690,"current_range_meters":4400,"station_id":"","pricing_plan_id":"free"},{"bike_id":"760bfc38-e96f-40b9-8091-70e7d4460480","system_id":"levelo_inurba_marseille","lat":43.26195,"lon":5.37927,"is_reserved":false,"is_disabled":false,"rental_uris":{"android":"levelo://app?vid=760bfc38-e96f-40b9-8091-70e7d4460480","ios":"levelo://app?vid=760bfc38-e96f-40b9-8091-70e7d4460480"},"vehicle_type_id":"4","last_reported":1685300690,"current_range_meters":0,"station_id":"ce4bhjp2rcd13ifvqg90","pricing_plan_id":"free"},{"bike_id":"710c1c40-cc5b-424f-a1a2-8d6cfd3473f4","system_id":"levelo_inurba_marseille","lat":43.271368,"lon":5.40928,"is_reserved":false,"is_disabled":false,"rental_uris":{"android":"levelo://app?vid=710c1c40-cc5b-424f-a1a2-8d6cfd3473f4","ios":"levelo://app?vid=710c1c40-cc5b-424f-a1a2-8d6cfd3473f4"},"vehicle_type_id":"4","last_reported":1685300690,"current_range_meters":800,"station_id":"ce4bhl12rcd13ifvqgf0","pricing_plan_id":"free"},{"bike_id":"d6c8c401-6699-40cd-b8c1-9a45a5c5a568","system_id":"levelo_inurba_marseille","lat":43.298768,"lon":5.43643,"is_reserved":false,"is_disabled":false,"rental_uris":{"android":"levelo://app?vid=d6c8c401-6699-40cd-b8c1-9a45a5c5a568","ios":"levelo://app?vid=d6c8c401-6699-40cd-b8c1-9a45a5c5a568"},"vehicle_type_id":"4","last_reported":1685300690,"current_range_meters":22400,"station_id":"ce4bhpp2rcd13ifvqhfg","pricing_plan_id":"free"},{"bike_id":"6b404443-757b-4b8d-9a78-a03ca59013fb","system_id":"levelo_inurba_marseille","lat":43.2592,"lon":5.37283,"is_reserved":false,"is_disabled":false,"rental_uris":{"android":"levelo://app?vid=6b404443-757b-4b8d-9a78-a03ca59013fb","ios":"levelo://app?vid=6b404443-757b-4b8d-9a78-a03ca59013fb"},"vehicle_type_id":"4","last_reported":1685300690,"current_range_meters":9600,"station_id":"","pricing_plan_id":"free"},{"bike_id":"14e4ee57-d3a7-4a07-b559-64b1787d3c2f","system_id":"levelo_inurba_marseille","lat":43.26064,"lon":5.39385,"is_reserved":false,"is_disabled":false,"rental_uris":{"android":"levelo://app?vid=14e4ee57-d3a7-4a07-b559-64b1787d3c2f","ios":"levelo://app?vid=14e4ee57-d3a7-4a07-b559-64b1787d3c2f"},"vehicle_type_id":"4","last_reported":1685300690,"current_range_meters":6800,"station_id":"ce4bhh92rcd13ifvqfj0","pricing_plan_id":"free"},{"bike_id":"adcfbe83-f01e-4591-aa52-d7e72886b3e6","system_id":"levelo_inurba_marseille","lat":43.25578,"lon":5.3823,"is_reserved":false,"is_disabled":false,"rental_uris":{"android":"levelo://app?vid=adcfbe83-f01e-4591-aa52-d7e72886b3e6","ios":"levelo://app?vid=adcfbe83-f01e-4591-aa52-d7e72886b3e6"},"vehicle_type_id":"4","last_reported":1685300690,"current_range_meters":4000,"station_id":"ce4bhih2rcd13ifvqfs0","pricing_plan_id":"free"},{"bike_id":"d8574f0a-3ad0-4eb3-98fd-dae053a48826","system_id":"levelo_inurba_marseille","lat":43.255756,"lon":5.382303,"is_reserved":false,"is_disabled":false,"rental_uris":{"android":"levelo://app?vid=d8574f0a-3ad0-4eb3-98fd-dae053a48826","ios":"levelo://app?vid=d8574f0a-3ad0-4eb3-98fd-dae053a48826"},"vehicle_type_id":"4","last_reported":1685300690,"current_range_meters":11600,"station_id":"ce4bhih2rcd13ifvqfs0","pricing_plan_id":"free"},{"bike_id":"21a94e83-2bcf-4902-8a6a-85407ac0d3c9","system_id":"levelo_inurba_marseille","lat":43.254952,"lon":5.376471,"is_reserved":false,"is_disabled":false,"rental_uris":{"android":"levelo://app?vid=21a94e83-2bcf-4902-8a6a-85407ac0d3c9","ios":"levelo://app?vid=21a94e83-2bcf-4902-8a6a-85407ac0d3c9"},"vehicle_type_id":"4","last_reported":1685300690,"current_range_meters":0,"station_id":"","pricing_plan_id":"free"},{"bike_id":"d8e98011-2455-40c0-aa05-c24e05f3b134","system_id":"levelo_inurba_marseille","lat":43.25909,"lon":5.39913,"is_reserved":false,"is_disabled":false,"rental_uris":{"android":"levelo://app?vid=d8e98011-2455-40c0-aa05-c24e05f3b134","ios":"levelo://app?vid=d8e98011-2455-40c0-aa05-c24e05f3b134"},"vehicle_type_id":"4","last_reported":1685300690,"current_range_meters":27600,"station_id":"","pricing_plan_id":"free"},{"bike_id":"5694635a-17f5-4202-a3dd-185477a66e65","system_id":"levelo_inurba_marseille","lat":43.259009,"lon":5.40929,"is_reserved":false,"is_disabled":false,"rental_uris":{"android":"levelo://app?vid=5694635a-17f5-4202-a3dd-185477a66e65","ios":"levelo://app?vid=5694635a-17f5-4202-a3dd-185477a66e65"},"vehicle_type_id":"4","last_reported":1685300690,"current_range_meters":1600,"station_id":"ce4bhm92rcd13ifvqglg","pricing_plan_id":"free"},{"bike_id":"1103cb1f-28c2-46c3-9c9a-8627eecef9c9","system_id":"levelo_inurba_marseille","lat":43.250009,"lon":5.389195,"is_reserved":false,"is_disabled":false,"rental_uris":{"android":"levelo://app?vid=1103cb1f-28c2-46c3-9c9a-8627eecef9c9","ios":"levelo://app?vid=1103cb1f-28c2-46c3-9c9a-8627eecef9c9"},"vehicle_type_id":"4","last_reported":1685300690,"current_range_meters":4000,"station_id":"ce4bhgp2rcd13ifvqfd0","pricing_plan_id":"free"},{"bike_id":"4293f786-dc11-4fa8-991d-9cde1c8821d8","system_id":"levelo_inurba_marseille","lat":43.250009,"lon":5.389195,"is_reserved":false,"is_disabled":false,"rental_uris":{"android":"levelo://app?vid=4293f786-dc11-4fa8-991d-9cde1c8821d8","ios":"levelo://app?vid=4293f786-dc11-4fa8-991d-9cde1c8821d8"},"vehicle_type_id":"4","last_reported":1685300690,"current_range_meters":8400,"station_id":"ce4bhgp2rcd13ifvqfd0","pricing_plan_id":"free"},{"bike_id":"e0e54f55-594f-444f-b132-18de0fe7e656","system_id":"levelo_inurba_marseille","lat":43.2479,"lon":5.374457,"is_reserved":false,"is_disabled":false,"rental_uris":{"android":"levelo://app?vid=e0e54f55-594f-444f-b132-18de0fe7e656","ios":"levelo://app?vid=e0e54f55-594f-444f-b132-18de0fe7e656"},"vehicle_type_id":"4","last_reported":1685300690,"current_range_meters":800,"station_id":"ce4bhgh2rcd13ifvqfb0","pricing_plan_id":"free"},{"bike_id":"d73c2525-f5a8-4f3d-b694-a932265cfd06","system_id":"levelo_inurba_marseille","lat":43.250966,"lon":5.395186,"is_reserved":false,"is_disabled":false,"rental_uris":{"android":"levelo://app?vid=d73c2525-f5a8-4f3d-b694-a932265cfd06","ios":"levelo://app?vid=d73c2525-f5a8-4f3d-b694-a932265cfd06"},"vehicle_type_id":"4","last_reported":1685300690,"current_range_meters":2000,"station_id":"ce4bhm12rcd13ifvqgkg","pricing_plan_id":"free"},{"bike_id":"6f5b4142-7324-480e-be8f-a1f74146c898","system_id":"levelo_inurba_marseille","lat":43.250966,"lon":5.395186,"is_reserved":false,"is_disabled":false,"rental_uris":{"android":"levelo://app?vid=6f5b4142-7324-480e-be8f-a1f74146c898","ios":"levelo://app?vid=6f5b4142-7324-480e-be8f-a1f74146c898"},"vehicle_type_id":"4","last_reported":1685300690,"current_range_meters":15200,"station_id":"ce4bhm12rcd13ifvqgkg","pricing_plan_id":"free"},{"bike_id":"204751fe-d7ba-4581-a9e5-1b0f04666574","system_id":"levelo_inurba_marseille","lat":43.24693,"lon":5.382096,"is_reserved":false,"is_disabled":false,"rental_uris":{"android":"levelo://app?vid=204751fe-d7ba-4581-a9e5-1b0f04666574","ios":"levelo://app?vid=204751fe-d7ba-4581-a9e5-1b0f04666574"},"vehicle_type_id":"4","last_reported":1685300690,"current_range_meters":6000,"station_id":"ce4bhih2rcd13ifvqfr0","pricing_plan_id":"free"},{"bike_id":"c72559f0-3c60-4b9c-9ce3-24158e720fdb","system_id":"levelo_inurba_marseille","lat":43.24654,"lon":5.38161,"is_reserved":false,"is_disabled":false,"rental_uris":{"android":"levelo://app?vid=c72559f0-3c60-4b9c-9ce3-24158e720fdb","ios":"levelo://app?vid=c72559f0-3c60-4b9c-9ce3-24158e720fdb"},"vehicle_type_id":"4","last_reported":1685300690,"current_range_meters":12400,"station_id":"","pricing_plan_id":"free"},{"bike_id":"0ce14f3a-9ca8-46b0-b361-be71b2a1d16c","system_id":"levelo_inurba_marseille","lat":43.243884,"lon":5.370737,"is_reserved":false,"is_disabled":false,"rental_uris":{"android":"levelo://app?vid=0ce14f3a-9ca8-46b0-b361-be71b2a1d16c","ios":"levelo://app?vid=0ce14f3a-9ca8-46b0-b361-be71b2a1d16c"},"vehicle_type_id":"4","last_reported":1685300690,"current_range_meters":0,"station_id":"ce4bhhh2rcd13ifvqfk0","pricing_plan_id":"free"},{"bike_id":"24fb4b69-2e63-47ee-bf98-1a9a16683dcc","system_id":"levelo_inurba_marseille","lat":43.24085,"lon":5.37752,"is_reserved":false,"is_disabled":false,"rental_uris":{"android":"levelo://app?vid=24fb4b69-2e63-47ee-bf98-1a9a16683dcc","ios":"levelo://app?vid=24fb4b69-2e63-47ee-bf98-1a9a16683dcc"},"vehicle_type_id":"4","last_reported":1685300690,"current_range_meters":27200,"station_id":"","pricing_plan_id":"free"},{"bike_id":"3c0fb543-7d5f-4ba2-a741-510a465558d5","system_id":"levelo_inurba_marseille","lat":43.24084,"lon":5.37751,"is_reserved":false,"is_disabled":false,"rental_uris":{"android":"levelo://app?vid=3c0fb543-7d5f-4ba2-a741-510a465558d5","ios":"levelo://app?vid=3c0fb543-7d5f-4ba2-a741-510a465558d5"},"vehicle_type_id":"4","last_reported":1685300690,"current_range_meters":29200,"station_id":"","pricing_plan_id":"free"},{"bike_id":"3f0a9dc9-0509-4c14-9cde-4da06b6fe1a3","system_id":"levelo_inurba_marseille","lat":43.24082,"lon":5.37747,"is_reserved":false,"is_disabled":false,"rental_uris":{"android":"levelo://app?vid=3f0a9dc9-0509-4c14-9cde-4da06b6fe1a3","ios":"levelo://app?vid=3f0a9dc9-0509-4c14-9cde-4da06b6fe1a3"},"vehicle_type_id":"4","last_reported":1685300690,"current_range_meters":11200,"station_id":"","pricing_plan_id":"free"},{"bike_id":"cbbd08c5-0253-46f1-872a-15def88c8d47","system_id":"levelo_inurba_marseille","lat":43.24082,"lon":5.37756,"is_reserved":false,"is_disabled":false,"rental_uris":{"android":"levelo://app?vid=cbbd08c5-0253-46f1-872a-15def88c8d47","ios":"levelo://app?vid=cbbd08c5-0253-46f1-872a-15def88c8d47"},"vehicle_type_id":"4","last_reported":1685300690,"current_range_meters":20400,"station_id":"","pricing_plan_id":"free"},{"bike_id":"a7496784-6a6e-438b-982b-361a84d337d6","system_id":"levelo_inurba_marseille","lat":43.24081,"lon":5.37745,"is_reserved":false,"is_disabled":false,"rental_uris":{"android":"levelo://app?vid=a7496784-6a6e-438b-982b-361a84d337d6","ios":"levelo://app?vid=a7496784-6a6e-438b-982b-361a84d337d6"},"vehicle_type_id":"4","last_reported":1685300690,"current_range_meters":28400,"station_id":"","pricing_plan_id":"free"},{"bike_id":"ceca2ac0-fad6-49a0-803a-c9d0b85268fd","system_id":"levelo_inurba_marseille","lat":43.24078,"lon":5.37755,"is_reserved":false,"is_disabled":false,"rental_uris":{"android":"levelo://app?vid=ceca2ac0-fad6-49a0-803a-c9d0b85268fd","ios":"levelo://app?vid=ceca2ac0-fad6-49a0-803a-c9d0b85268fd"},"vehicle_type_id":"4","last_reported":1685300690,"current_range_meters":29600,"station_id":"","pricing_plan_id":"free"},{"bike_id":"e0f8d820-f6b0-4427-91e6-b251bd50dfb6","system_id":"levelo_inurba_marseille","lat":43.24077,"lon":5.37744,"is_reserved":false,"is_disabled":false,"rental_uris":{"android":"levelo://app?vid=e0f8d820-f6b0-4427-91e6-b251bd50dfb6","ios":"levelo://app?vid=e0f8d820-f6b0-4427-91e6-b251bd50dfb6"},"vehicle_type_id":"4","last_reported":1685300690,"current_range_meters":18000,"station_id":"","pricing_plan_id":"free"},{"bike_id":"375bea00-7535-40cf-9db3-726053b2716a","system_id":"levelo_inurba_marseille","lat":43.24077,"lon":5.37748,"is_reserved":false,"is_disabled":false,"rental_uris":{"android":"levelo://app?vid=375bea00-7535-40cf-9db3-726053b2716a","ios":"levelo://app?vid=375bea00-7535-40cf-9db3-726053b2716a"},"vehicle_type_id":"4","last_reported":1685300690,"current_range_meters":27600,"station_id":"","pricing_plan_id":"free"},{"bike_id":"9e2be43e-190b-4cc5-8721-cc57121f2777","system_id":"levelo_inurba_marseille","lat":43.24077,"lon":5.37752,"is_reserved":false,"is_disabled":false,"rental_uris":{"android":"levelo://app?vid=9e2be43e-190b-4cc5-8721-cc57121f2777","ios":"levelo://app?vid=9e2be43e-190b-4cc5-8721-cc57121f2777"},"vehicle_type_id":"4","last_reported":1685300690,"current_range_meters":28400,"station_id":"","pricing_plan_id":"free"},{"bike_id":"390dd92b-1f46-4e43-bd1b-3682ea0b00ca","system_id":"levelo_inurba_marseille","lat":43.24076,"lon":5.37748,"is_reserved":false,"is_disabled":false,"rental_uris":{"android":"levelo://app?vid=390dd92b-1f46-4e43-bd1b-3682ea0b00ca","ios":"levelo://app?vid=390dd92b-1f46-4e43-bd1b-3682ea0b00ca"},"vehicle_type_id":"4","last_reported":1685300690,"current_range_meters":9600,"station_id":"","pricing_plan_id":"free"},{"bike_id":"f74e004a-452d-418e-b33e-2e373691b1f7","system_id":"levelo_inurba_marseille","lat":43.24075,"lon":5.37755,"is_reserved":false,"is_disabled":false,"rental_uris":{"android":"levelo://app?vid=f74e004a-452d-418e-b33e-2e373691b1f7","ios":"levelo://app?vid=f74e004a-452d-418e-b33e-2e373691b1f7"},"vehicle_type_id":"4","last_reported":1685300690,"current_range_meters":400,"station_id":"","pricing_plan_id":"free"},{"bike_id":"781bbd6d-69b8-4c01-8b47-26f094642a9f","system_id":"levelo_inurba_marseille","lat":43.24073,"lon":5.3774,"is_reserved":false,"is_disabled":false,"rental_uris":{"android":"levelo://app?vid=781bbd6d-69b8-4c01-8b47-26f094642a9f","ios":"levelo://app?vid=781bbd6d-69b8-4c01-8b47-26f094642a9f"},"vehicle_type_id":"4","last_reported":1685300690,"current_range_meters":10400,"station_id":"","pricing_plan_id":"free"},{"bike_id":"936357a5-48fc-44ea-a059-3fbf2761c020","system_id":"levelo_inurba_marseille","lat":43.24073,"lon":5.37746,"is_reserved":false,"is_disabled":false,"rental_uris":{"android":"levelo://app?vid=936357a5-48fc-44ea-a059-3fbf2761c020","ios":"levelo://app?vid=936357a5-48fc-44ea-a059-3fbf2761c020"},"vehicle_type_id":"4","last_reported":1685300690,"current_range_meters":28400,"station_id":"","pricing_plan_id":"free"},{"bike_id":"06763ade-427f-48cd-a7fe-a4cfb0adad69","system_id":"levelo_inurba_marseille","lat":43.241782,"lon":5.397261,"is_reserved":false,"is_disabled":false,"rental_uris":{"android":"levelo://app?vid=06763ade-427f-48cd-a7fe-a4cfb0adad69","ios":"levelo://app?vid=06763ade-427f-48cd-a7fe-a4cfb0adad69"},"vehicle_type_id":"4","last_reported":1685300690,"current_range_meters":0,"station_id":"ce4bhn12rcd13ifvqgpg","pricing_plan_id":"free"},{"bike_id":"5bed3870-337e-4b2d-9c4b-77d2e0ef04d3","system_id":"levelo_inurba_marseille","lat":43.23846,"lon":5.36495,"is_reserved":false,"is_disabled":false,"rental_uris":{"android":"levelo://app?vid=5bed3870-337e-4b2d-9c4b-77d2e0ef04d3","ios":"levelo://app?vid=5bed3870-337e-4b2d-9c4b-77d2e0ef04d3"},"vehicle_type_id":"4","last_reported":1685300690,"current_range_meters":12800,"station_id":"","pricing_plan_id":"free"},{"bike_id":"5a6ad831-7e21-4769-aa74-86357a481a4a","system_id":"levelo_inurba_marseille","lat":43.241782,"lon":5.397261,"is_reserved":false,"is_disabled":false,"rental_uris":{"android":"levelo://app?vid=5a6ad831-7e21-4769-aa74-86357a481a4a","ios":"levelo://app?vid=5a6ad831-7e21-4769-aa74-86357a481a4a"},"vehicle_type_id":"4","last_reported":1685300690,"current_range_meters":4800,"station_id":"ce4bhn12rcd13ifvqgpg","pricing_plan_id":"free"},{"bike_id":"ad0adb4a-2606-433b-9170-e94efd3110c1","system_id":"levelo_inurba_marseille","lat":43.241782,"lon":5.397261,"is_reserved":false,"is_disabled":false,"rental_uris":{"android":"levelo://app?vid=ad0adb4a-2606-433b-9170-e94efd3110c1","ios":"levelo://app?vid=ad0adb4a-2606-433b-9170-e94efd3110c1"},"vehicle_type_id":"4","last_reported":1685300690,"current_range_meters":400,"station_id":"ce4bhn12rcd13ifvqgpg","pricing_plan_id":"free"},{"bike_id":"621982c5-7b25-400f-aa65-4fe7485cff67","system_id":"levelo_inurba_marseille","lat":43.30375,"lon":5.47458,"is_reserved":false,"is_disabled":false,"rental_uris":{"android":"levelo://app?vid=621982c5-7b25-400f-aa65-4fe7485cff67","ios":"levelo://app?vid=621982c5-7b25-400f-aa65-4fe7485cff67"},"vehicle_type_id":"4","last_reported":1685300690,"current_range_meters":29200,"station_id":"","pricing_plan_id":"free"},{"bike_id":"56230511-dc5b-4d08-9a00-988f627fae27","system_id":"levelo_inurba_marseille","lat":43.231793,"lon":5.400044,"is_reserved":false,"is_disabled":false,"rental_uris":{"android":"levelo://app?vid=56230511-dc5b-4d08-9a00-988f627fae27","ios":"levelo://app?vid=56230511-dc5b-4d08-9a00-988f627fae27"},"vehicle_type_id":"4","last_reported":1685300690,"current_range_meters":32000,"station_id":"ce4bhn12rcd13ifvqgqg","pricing_plan_id":"free"},{"bike_id":"46f10739-9f76-433c-8bb0-3129a524ce7d","system_id":"levelo_inurba_marseille","lat":43.23189,"lon":5.39976,"is_reserved":false,"is_disabled":false,"rental_uris":{"android":"levelo://app?vid=46f10739-9f76-433c-8bb0-3129a524ce7d","ios":"levelo://app?vid=46f10739-9f76-433c-8bb0-3129a524ce7d"},"vehicle_type_id":"4","last_reported":1685300690,"current_range_meters":0,"station_id":"ce4bhn12rcd13ifvqgqg","pricing_plan_id":"free"},{"bike_id":"67b77559-a903-49c5-9f37-4b2143617b52","system_id":"levelo_inurba_marseille","lat":43.23189,"lon":5.39978,"is_reserved":false,"is_disabled":false,"rental_uris":{"android":"levelo://app?vid=67b77559-a903-49c5-9f37-4b2143617b52","ios":"levelo://app?vid=67b77559-a903-49c5-9f37-4b2143617b52"},"vehicle_type_id":"4","last_reported":1685300690,"current_range_meters":31200,"station_id":"ce4bhn12rcd13ifvqgqg","pricing_plan_id":"free"},{"bike_id":"ddeb217c-c36f-4d9f-a6b7-591bb633c619","system_id":"levelo_inurba_marseille","lat":43.23187,"lon":5.39969,"is_reserved":false,"is_disabled":false,"rental_uris":{"android":"levelo://app?vid=ddeb217c-c36f-4d9f-a6b7-591bb633c619","ios":"levelo://app?vid=ddeb217c-c36f-4d9f-a6b7-591bb633c619"},"vehicle_type_id":"4","last_reported":1685300690,"current_range_meters":31600,"station_id":"","pricing_plan_id":"free"},{"bike_id":"ae1dde4d-2bf3-4075-a27d-5c93c15f8c70","system_id":"levelo_inurba_marseille","lat":43.231793,"lon":5.400044,"is_reserved":false,"is_disabled":false,"rental_uris":{"android":"levelo://app?vid=ae1dde4d-2bf3-4075-a27d-5c93c15f8c70","ios":"levelo://app?vid=ae1dde4d-2bf3-4075-a27d-5c93c15f8c70"},"vehicle_type_id":"4","last_reported":1685300690,"current_range_meters":26000,"station_id":"ce4bhn12rcd13ifvqgqg","pricing_plan_id":"free"},{"bike_id":"9b868617-b176-4e5b-bbf3-d168630e1c9d","system_id":"levelo_inurba_marseille","lat":43.231793,"lon":5.400044,"is_reserved":false,"is_disabled":false,"rental_uris":{"android":"levelo://app?vid=9b868617-b176-4e5b-bbf3-d168630e1c9d","ios":"levelo://app?vid=9b868617-b176-4e5b-bbf3-d168630e1c9d"},"vehicle_type_id":"4","last_reported":1685300690,"current_range_meters":32000,"station_id":"ce4bhn12rcd13ifvqgqg","pricing_plan_id":"free"},{"bike_id":"19780742-7429-46d5-8a21-489604e7e458","system_id":"levelo_inurba_marseille","lat":43.231793,"lon":5.400044,"is_reserved":false,"is_disabled":false,"rental_uris":{"android":"levelo://app?vid=19780742-7429-46d5-8a21-489604e7e458","ios":"levelo://app?vid=19780742-7429-46d5-8a21-489604e7e458"},"vehicle_type_id":"4","last_reported":1685300690,"current_range_meters":31200,"station_id":"ce4bhn12rcd13ifvqgqg","pricing_plan_id":"free"},{"bike_id":"31dd697e-cbbe-4915-a925-b463fdb47aab","system_id":"levelo_inurba_marseille","lat":43.231793,"lon":5.400044,"is_reserved":false,"is_disabled":false,"rental_uris":{"android":"levelo://app?vid=31dd697e-cbbe-4915-a925-b463fdb47aab","ios":"levelo://app?vid=31dd697e-cbbe-4915-a925-b463fdb47aab"},"vehicle_type_id":"4","last_reported":1685300690,"current_range_meters":32000,"station_id":"ce4bhn12rcd13ifvqgqg","pricing_plan_id":"free"},{"bike_id":"b35c0da7-330d-4e9e-bd1e-9d0408c664b3","system_id":"levelo_inurba_marseille","lat":43.231793,"lon":5.400044,"is_reserved":false,"is_disabled":false,"rental_uris":{"android":"levelo://app?vid=b35c0da7-330d-4e9e-bd1e-9d0408c664b3","ios":"levelo://app?vid=b35c0da7-330d-4e9e-bd1e-9d0408c664b3"},"vehicle_type_id":"4","last_reported":1685300690,"current_range_meters":31600,"station_id":"ce4bhn12rcd13ifvqgqg","pricing_plan_id":"free"},{"bike_id":"523054a1-6a41-4d05-9039-d135dd68ad8d","system_id":"levelo_inurba_marseille","lat":43.23182,"lon":5.39983,"is_reserved":false,"is_disabled":false,"rental_uris":{"android":"levelo://app?vid=523054a1-6a41-4d05-9039-d135dd68ad8d","ios":"levelo://app?vid=523054a1-6a41-4d05-9039-d135dd68ad8d"},"vehicle_type_id":"4","last_reported":1685300690,"current_range_meters":31200,"station_id":"ce4bhn12rcd13ifvqgqg","pricing_plan_id":"free"},{"bike_id":"d0b52e7f-623a-4470-b0bc-03da6c1e273a","system_id":"levelo_inurba_marseille","lat":43.23182,"lon":5.39984,"is_reserved":false,"is_disabled":false,"rental_uris":{"android":"levelo://app?vid=d0b52e7f-623a-4470-b0bc-03da6c1e273a","ios":"levelo://app?vid=d0b52e7f-623a-4470-b0bc-03da6c1e273a"},"vehicle_type_id":"4","last_reported":1685300690,"current_range_meters":14800,"station_id":"ce4bhn12rcd13ifvqgqg","pricing_plan_id":"free"},{"bike_id":"95832486-4dae-4689-9c6a-056a60f31c53","system_id":"levelo_inurba_marseille","lat":43.231793,"lon":5.400044,"is_reserved":false,"is_disabled":false,"rental_uris":{"android":"levelo://app?vid=95832486-4dae-4689-9c6a-056a60f31c53","ios":"levelo://app?vid=95832486-4dae-4689-9c6a-056a60f31c53"},"vehicle_type_id":"4","last_reported":1685300690,"current_range_meters":32000,"station_id":"ce4bhn12rcd13ifvqgqg","pricing_plan_id":"free"},{"bike_id":"a7fbfb05-3a72-4dea-b5c9-12ad7997a8ad","system_id":"levelo_inurba_marseille","lat":43.23178,"lon":5.3998,"is_reserved":false,"is_disabled":false,"rental_uris":{"android":"levelo://app?vid=a7fbfb05-3a72-4dea-b5c9-12ad7997a8ad","ios":"levelo://app?vid=a7fbfb05-3a72-4dea-b5c9-12ad7997a8ad"},"vehicle_type_id":"4","last_reported":1685300690,"current_range_meters":29200,"station_id":"ce4bhn12rcd13ifvqgqg","pricing_plan_id":"free"}]}}