{"last_updated":1760180835,"ttl":60,"version":"2.2","data":{"bikes":[{"bike_id":"5516e87b-8441-4871-bd1c-dcd0126e113d","system_id":"levelo_inurba_marseille","lat":43.337444,"lon":5.374475,"is_reserved":false,"is_disabled":true,"rental_uris":{"android":"levelo://app?vid=5516e87b-8441-4871-bd1c-dcd0126e113d","ios":"levelo://app?vid=5516e87b-8441-4871-bd1c-dcd0126e113d"},"vehicle_type_id":"4","last_reported":1760180835,"current_range_meters":0,"station_id":"","pricing_plan_id":"cebpf4jnsgd1na2vs0mg"},{"bike_id":"f9ef6a8c-cc82-49e4-96c2-f46e0950a0fc","system_id":"levelo_inurba_marseille","lat":43.33771,"lon":5.37424,"is_reserved":false,"is_disabled":true,"rental_uris":{"android":"levelo://app?vid=f9ef6a8c-cc82-49e4-96c2-f46e0950a0fc","ios":"levelo://app?vid=f9ef6a8c-cc82-49e4-96c2-f46e0950a0fc"},"vehicle_type_id":"4","last_reported":1760180835,"current_range_meters":0,"station_id":"","pricing_plan_id":"cebpf4jnsgd1na2vs0mg"},{"bike_id":"f92995dc-d2e7-4f2e-bcaf-27995c98a1de","system_id":"levelo_inurba_marseille","lat":43.33751,"lon":5.37456,"is_reserved":false,"is_disabled":true,"rental_uris":{"android":"levelo://app?vid=f92995dc-d2e7-4f2e-bcaf-27995c98a1de","ios":"levelo://app?vid=f92995dc-d2e7-4f2e-bcaf-27995c98a1de"},"vehicle_type_id":"4","last_reported":1760180835,"current_range_meters":0,"station_id":"","pricing_plan_id":"cebpf4jnsgd1na2vs0mg"},{"bike_id":"092183e8-1e36-4ece-a29a-68743a5820f6","system_id":"levelo_inurba_marseille","lat":43.33747,"lon":5.37463,"is_reserved":false,"is_disabled":true,"rental_uris":{"android":"levelo://app?vid=092183e8-1e36-4ece-a29a-68743a5820f6","ios":"levelo://app?vid=092183e8-1e36-4ece-a29a-68743a5820f6"},"vehicle_type_id":"1","last_reported":1760180835,"current_range_meters":0,"station_id":"","pricing_plan_id":"cebpf4jnsgd1na2vs0mg"},{"bike_id":"268f0f13-c790-4518-9f6a-1fe45b445342","system_id":"levelo_inurba_marseille","lat":43.33737,"lon":5.37465,"is_reserved":false,"is_disabled":true,"rental_uris":{"android":"levelo://app?vid=268f0f13-c790-4518-9f6a-1fe45b445342","ios":"levelo://app?vid=268f0f13-c790-4518-9f6a-1fe45b445342"},"vehicle_type_id":"4","last_reported":1760180835,"current_range_meters":0,"station_id":"","pricing_plan_id":"cebpf4jnsgd1na2vs0mg"},{"bike_id":"844de8fa-b1ed-4b48-bbb0-8ea30f04e6fa","system_id":"levelo_inurba_marseille","lat":43.33755,"lon":5.37468,"is_reserved":false,"is_disabled":false,"rental_uris":{"android":"levelo://app?vid=844de8fa-b1ed-4b48-bbb0-8ea30f04e6fa","ios":"levelo://app?vid=844de8fa-b1ed-4b48-bbb0-8ea30f04e6fa"},"vehicle_type_id":"4","last_reported":1760180835,"current_range_meters":5600,"station_id":"","pricing_plan_id":"cebpf4jnsgd1na2vs0mg"},{"bike_id":"affea08d-2e61-49ad-9018-2db734fe38fb","system_id":"levelo_inurba_marseille","lat":43.337444,"lon":5.374475,"is_reserved":false,"is_disabled":true,"rental_uris":{"android":"levelo://app?vid=affea08d-2e61-49ad-9018-2db734fe38fb","ios":"levelo://app?vid=affea08d-2e61-49ad-9018-2db734fe38fb"},"vehicle_type_id":"4","last_reported":1760180835,"current_range_meters":0,"station_id":"","pricing_plan_id":"cebpf4jnsgd1na2vs0mg"},{"bike_id":"c80be3e3-26c1-4fd2-ab94-730bb8638bdc","system_id":"levelo_inurba_marseille","lat":43.337444,"lon":5.374475,"is_reserved":false,"is_disabled":true,"rental_uris":{"android":"levelo://app?vid=c80be3e3-26c1-4fd2-ab94-730bb8638bdc","ios":"levelo://app?vid=c80be3e3-26c1-4fd2-ab94-730bb8638bdc"},"vehicle_type_id":"4","last_reported":1760180835,"current_range_meters":0,"station_id":"","pricing_plan_id":"cebpf4jnsgd1na2vs0mg"},{"bike_id":"1c560a38-7ef3-4e44-b456-36993b5ca4af","system_id":"levelo_inurba_marseille","lat":43.337444,"lon":5.374475,"is_reserved":false,"is_disabled":true,"rental_uris":{"android":"levelo://app?vid=1c560a38-7ef3-4e44-b456-36993b5ca4af","ios":"levelo://app?vid=1c560a38-7ef3-4e44-b456-36993b5ca4af"},"vehicle_type_id":"4","last_reported":1760180835,"current_range_meters":0,"station_id":"","pricing_plan_id":"cebpf4jnsgd1na2vs0mg"},{"bike_id":"f8726700-64d6-4ff8-acc0-9adfce94dbe9","system_id":"levelo_inurba_marseille","lat":43.27849,"lon":5.38314,"is_reserved":false,"is_disabled":true,"rental_uris":{"android":"levelo://app?vid=f8726700-64d6-4ff8-acc0-9adfce94dbe9","ios":"levelo://app?vid=f8726700-64d6-4ff8-acc0-9adfce94dbe9"},"vehicle_type_id":"4","last_reported":1760180835,"current_range_meters":0,"station_id":"","pricing_plan_id":"cebpf4jnsgd1na2vs0mg"},{"bike_id":"b4e7ef10-af79-4cf8-a207-60ed0a922607","system_id":"levelo_inurba_marseille","lat":43.337444,"lon":5.374475,"is_reserved":false,"is_disabled":true,"rental_uris":{"android":"levelo://app?vid=b4e7ef10-af79-4cf8-a207-60ed0a922607","ios":"levelo://app?vid=b4e7ef10-af79-4cf8-a207-60ed0a922607"},"vehicle_type_id":"4","last_reported":1760180835,"current_range_meters":0,"station_id":"","pricing_plan_id":"cebpf4jnsgd1na2vs0mg"},{"bike_id":"4efb65b2-59d2-49c2-bfb7-a38d468bb2dd","system_id":"levelo_inurba_marseille","lat":43.22351,"lon":5.34649,"is_reserved":false,"is_disabled":true,"rental_uris":{"android":"levelo://app?vid=4efb65b2-59d2-49c2-bfb7-a38d468bb2dd","ios":"levelo://app?vid=4efb65b2-59d2-49c2-bfb7-a38d468bb2dd"},"vehicle_type_id":"4","last_reported":1760180835,"current_range_meters":0,"station_id":"","pricing_plan_id":"cebpf4jnsgd1na2vs0mg"},{"bike_id":"4ccf7a59-029f-457f-b839-dc6f11286326","system_id":"levelo_inurba_marseille","lat":43.317661,"lon":5.422129,"is_reserved":false,"is_disabled":true,"rental_uris":{"android":"levelo://app?vid=4ccf7a59-029f-457f-b839-dc6f11286326","ios":"levelo://app?vid=4ccf7a59-029f-457f-b839-dc6f11286326"},"vehicle_type_id":"4","last_reported":1760180835,"current_range_meters":0,"station_id":"","pricing_plan_id":"cebpf4jnsgd1na2vs0mg"},{"bike_id":"bf0cd1f5-4a2b-4aae-9f11-cde060414574","system_id":"levelo_inurba_marseille","lat":43.2254,"lon":5.34825,"is_reserved":false,"is_disabled":true,"rental_uris":{"android":"levelo://app?vid=bf0cd1f5-4a2b-4aae-9f11-cde060414574","ios":"levelo://app?vid=bf0cd1f5-4a2b-4aae-9f11-cde060414574"},"vehicle_type_id":"4","last_reported":1760180835,"current_range_meters":0,"station_id":"","pricing_plan_id":"cebpf4jnsgd1na2vs0mg"},{"bike_id":"faf21e59-73fe-43ba-965b-23c7230d33c8","system_id":"levelo_inurba_marseille","lat":43.270557,"lon":5.392632,"is_reserved":false,"is_disabled":true,"rental_uris":{"android":"levelo://app?vid=faf21e59-73fe-43ba-965b-23c7230d33c8","ios":"levelo://app?vid=faf21e59-73fe-43ba-965b-23c7230d33c8"},"vehicle_type_id":"4","last_reported":1760180835,"current_range_meters":0,"station_id":"","pricing_plan_id":"cebpf4jnsgd1na2vs0mg"},{"bike_id":"ec39affe-5e48-4259-a225-7a0d248d923e","system_id":"levelo_inurba_marseille","lat":43.296814,"lon":5.3803,"is_reserved":false,"is_disabled":true,"rental_uris":{"android":"levelo://app?vid=ec39affe-5e48-4259-a225-7a0d248d923e","ios":"levelo://app?vid=ec39affe-5e48-4259-a225-7a0d248d923e"},"vehicle_type_id":"4","last_reported":1760180835,"current_range_meters":0,"station_id":"","pricing_plan_id":"cebpf4jnsgd1na2vs0mg"},{"bike_id":"fc87f29b-9c8d-4328-a892-37bcf1edda9b","system_id":"levelo_inurba_marseille","lat":43.21754,"lon":5.34613,"is_reserved":false,"is_disabled":true,"rental_uris":{"android":"levelo://app?vid=fc87f29b-9c8d-4328-a892-37bcf1edda9b","ios":"levelo://app?vid=fc87f29b-9c8d-4328-a892-37bcf1edda9b"},"vehicle_type_id":"4","last_reported":1760180835,"current_range_meters":0,"station_id":"","pricing_plan_id":"cebpf4jnsgd1na2vs0mg"},{"bike_id":"71adf011-375e-40dc-9f02-5f5866d7a20c","system_id":"levelo_inurba_marseille","lat":43.21667,"lon":5.34646,"is_reserved":false,"is_disabled":true,"rental_uris":{"android":"levelo://app?vid=71adf011-375e-40dc-9f02-5f5866d7a20c","ios":"levelo://app?vid=71adf011-375e-40dc-9f02-5f5866d7a20c"},"vehicle_type_id":"4","last_reported":1760180835,"current_range_meters":0,"station_id":"","pricing_plan_id":"cebpf4jnsgd1na2vs0mg"},{"bike_id":"7dda0a36-9ac4-4c85-88bd-d79f4d4dc056","system_id":"levelo_inurba_marseille","lat":43.29266,"lon":5.37631,"is_reserved":false,"is_disabled":true,"rental_uris":{"android":"levelo://app?vid=7dda0a36-9ac4-4c85-88bd-d79f4d4dc056","ios":"levelo://app?vid=7dda0a36-9ac4-4c85-88bd-d79f4d4dc056"},"vehicle_type_id":"4","last_reported":1760180835,"current_range_meters":0,"station_id":"ce4bgi12rcd13ifvqb80","pricing_plan_id":"cebpf4jnsgd1na2vs0mg"},{"bike_id":"75625ee0-a818-4b05-8190-12342fd39af5","system_id":"levelo_inurba_marseille","lat":43.2959,"lon":5.38098,"is_reserved":false,"is_disabled":true,"rental_uris":{"android":"levelo://app?vid=75625ee0-a818-4b05-8190-12342fd39af5","ios":"levelo://app?vid=75625ee0-a818-4b05-8190-12342fd39af5"},"vehicle_type_id":"4","last_reported":1760180835,"current_range_meters":0,"station_id":"ce4bgl12rcd13ifvqbo0","pricing_plan_id":"cebpf4jnsgd1na2vs0mg"},{"bike_id":"90bee144-32cd-4cdf-922d-2257ff3b894f","system_id":"levelo_inurba_marseille","lat":43.313288,"lon":5.396931,"is_reserved":false,"is_disabled":true,"rental_uris":{"android":"levelo://app?vid=90bee144-32cd-4cdf-922d-2257ff3b894f","ios":"levelo://app?vid=90bee144-32cd-4cdf-922d-2257ff3b894f"},"vehicle_type_id":"4","last_reported":1760180835,"current_range_meters":0,"station_id":"ce4bgvp2rcd13ifvqcu0","pricing_plan_id":"cebpf4jnsgd1na2vs0mg"},{"bike_id":"c899cea1-1887-4962-a32a-d9f481b940cb","system_id":"levelo_inurba_marseille","lat":43.2921,"lon":5.39329,"is_reserved":false,"is_disabled":true,"rental_uris":{"android":"levelo://app?vid=c899cea1-1887-4962-a32a-d9f481b940cb","ios":"levelo://app?vid=c899cea1-1887-4962-a32a-d9f481b940cb"},"vehicle_type_id":"4","last_reported":1760180835,"current_range_meters":0,"station_id":"ce4bh192rcd13ifvqdd0","pricing_plan_id":"cebpf4jnsgd1na2vs0mg"},{"bike_id":"1e217379-81fc-498c-ab5f-050b06faee8c","system_id":"levelo_inurba_marseille","lat":43.28036,"lon":5.36928,"is_reserved":false,"is_disabled":true,"rental_uris":{"android":"levelo://app?vid=1e217379-81fc-498c-ab5f-050b06faee8c","ios":"levelo://app?vid=1e217379-81fc-498c-ab5f-050b06faee8c"},"vehicle_type_id":"4","last_reported":1760180835,"current_range_meters":0,"station_id":"ce4bha12rcd13ifvqef0","pricing_plan_id":"cebpf4jnsgd1na2vs0mg"},{"bike_id":"b8f3bcbc-1d6b-4189-8094-53faf1264cb7","system_id":"levelo_inurba_marseille","lat":43.27376,"lon":5.36252,"is_reserved":false,"is_disabled":true,"rental_uris":{"android":"levelo://app?vid=b8f3bcbc-1d6b-4189-8094-53faf1264cb7","ios":"levelo://app?vid=b8f3bcbc-1d6b-4189-8094-53faf1264cb7"},"vehicle_type_id":"4","last_reported":1760180835,"current_range_meters":0,"station_id":"ce4bhbh2rcd13ifvqeo0","pricing_plan_id":"cebpf4jnsgd1na2vs0mg"},{"bike_id":"c9149361-22cd-4cc2-92b9-d8b1bdc954c6","system_id":"levelo_inurba_marseille","lat":43.28726,"lon":5.39993,"is_reserved":false,"is_disabled":true,"rental_uris":{"android":"levelo://app?vid=c9149361-22cd-4cc2-92b9-d8b1bdc954c6","ios":"levelo://app?vid=c9149361-22cd-4cc2-92b9-d8b1bdc954c6"},"vehicle_type_id":"4","last_reported":1760180835,"current_range_meters":0,"station_id":"ce4bho92rcd13ifvqh3g","pricing_plan_id":"cebpf4jnsgd1na2vs0mg"},{"bike_id":"133d7506-6317-4410-9fd4-a13902f83db9","system_id":"levelo_inurba_marseille","lat":43.215169,"lon":5.343005,"is_reserved":false,"is_disabled":true,"rental_uris":{"android":"levelo://app?vid=133d7506-6317-4410-9fd4-a13902f83db9","ios":"levelo://app?vid=133d7506-6317-4410-9fd4-a13902f83db9"},"vehicle_type_id":"4","last_reported":1760180835,"current_range_meters":0,"station_id":"st_cvj6r9ubvosntc0bgbag","pricing_plan_id":"cebpf4jnsgd1na2vs0mg"},{"bike_id":"86eca012-edfb-4c20-9aef-d37ce3cadbda","system_id":"levelo_inurba_marseille","lat":43.211889,"lon":5.350725,"is_reserved":false,"is_disabled":true,"rental_uris":{"android":"levelo://app?vid=86eca012-edfb-4c20-9aef-d37ce3cadbda","ios":"levelo://app?vid=86eca012-edfb-4c20-9aef-d37ce3cadbda"},"vehicle_type_id":"4","last_reported":1760180835,"current_range_meters":0,"station_id":"st_cvj6sg6p6f1abm77japg","pricing_plan_id":"cebpf4jnsgd1na2vs0mg"},{"bike_id":"5206f34d-5c08-42bd-b24d-21b13734d2e6","system_id":"levelo_inurba_marseille","lat":43.21177,"lon":5.35074,"is_reserved":false,"is_disabled":true,"rental_uris":{"android":"levelo://app?vid=5206f34d-5c08-42bd-b24d-21b13734d2e6","ios":"levelo://app?vid=5206f34d-5c08-42bd-b24d-21b13734d2e6"},"vehicle_type_id":"4","last_reported":1760180835,"current_range_meters":0,"station_id":"st_cvj6sg6p6f1abm77japg","pricing_plan_id":"cebpf4jnsgd1na2vs0mg"},{"bike_id":"5a1f50b1-f1f9-4f02-a3c5-363250f2c45b","system_id":"levelo_inurba_marseille","lat":43.21195,"lon":5.350684,"is_reserved":false,"is_disabled":true,"rental_uris":{"android":"levelo://app?vid=5a1f50b1-f1f9-4f02-a3c5-363250f2c45b","ios":"levelo://app?vid=5a1f50b1-f1f9-4f02-a3c5-363250f2c45b"},"vehicle_type_id":"4","last_reported":1760180835,"current_range_meters":0,"station_id":"st_cvj6sg6p6f1abm77japg","pricing_plan_id":"cebpf4jnsgd1na2vs0mg"},{"bike_id":"f4de3eec-ea80-427d-8a21-0c17ac7bfd86","system_id":"levelo_inurba_marseille","lat":43.25478,"lon":5.37635,"is_reserved":false,"is_disabled":true,"rental_uris":{"android":"levelo://app?vid=f4de3eec-ea80-427d-8a21-0c17ac7bfd86","ios":"levelo://app?vid=f4de3eec-ea80-427d-8a21-0c17ac7bfd86"},"vehicle_type_id":"4","last_reported":1760180835,"current_range_meters":400,"station_id":"ce4bhh12rcd13ifvqff0","pricing_plan_id":"cebpf4jnsgd1na2vs0mg"},{"bike_id":"9a4429d1-232c-4519-8ed9-312533b588c9","system_id":"levelo_inurba_marseille","lat":43.26225,"lon":5.40444,"is_reserved":false,"is_disabled":true,"rental_uris":{"android":"levelo://app?vid=9a4429d1-232c-4519-8ed9-312533b588c9","ios":"levelo://app?vid=9a4429d1-232c-4519-8ed9-312533b588c9"},"vehicle_type_id":"4","last_reported":1760180835,"current_range_meters":400,"station_id":"ce4bhmh2rcd13ifvqgmg","pricing_plan_id":"cebpf4jnsgd1na2vs0mg"},{"bike_id":"4603d2b3-0387-40ff-adec-6330c74af0d1","system_id":"levelo_inurba_marseille","lat":43.28343,"lon":5.381,"is_reserved":false,"is_disabled":true,"rental_uris":{"android":"levelo://app?vid=4603d2b3-0387-40ff-adec-6330c74af0d1","ios":"levelo://app?vid=4603d2b3-0387-40ff-adec-6330c74af0d1"},"vehicle_type_id":"4","last_reported":1760180835,"current_range_meters":800,"station_id":"ce4bh412rcd13ifvqdr0","pricing_plan_id":"cebpf4jnsgd1na2vs0mg"},{"bike_id":"b2e2b38d-36f4-4e15-986e-723132819a60","system_id":"levelo_inurba_marseille","lat":43.30838,"lon":5.43511,"is_reserved":false,"is_disabled":true,"rental_uris":{"android":"levelo://app?vid=b2e2b38d-36f4-4e15-986e-723132819a60","ios":"levelo://app?vid=b2e2b38d-36f4-4e15-986e-723132819a60"},"vehicle_type_id":"4","last_reported":1760180835,"current_range_meters":800,"station_id":"ce4bhph2rcd13ifvqheg","pricing_plan_id":"cebpf4jnsgd1na2vs0mg"},{"bike_id":"90e4afee-1068-4220-8f99-8e71f771cdcd","system_id":"levelo_inurba_marseille","lat":43.27377,"lon":5.36255,"is_reserved":false,"is_disabled":true,"rental_uris":{"android":"levelo://app?vid=90e4afee-1068-4220-8f99-8e71f771cdcd","ios":"levelo://app?vid=90e4afee-1068-4220-8f99-8e71f771cdcd"},"vehicle_type_id":"4","last_reported":1760180835,"current_range_meters":1200,"station_id":"ce4bhbh2rcd13ifvqeo0","pricing_plan_id":"cebpf4jnsgd1na2vs0mg"},{"bike_id":"bc3f26e6-e751-4b6b-963c-dde1fcea9387","system_id":"levelo_inurba_marseille","lat":43.29827,"lon":5.36254,"is_reserved":false,"is_disabled":true,"rental_uris":{"android":"levelo://app?vid=bc3f26e6-e751-4b6b-963c-dde1fcea9387","ios":"levelo://app?vid=bc3f26e6-e751-4b6b-963c-dde1fcea9387"},"vehicle_type_id":"4","last_reported":1760180835,"current_range_meters":1600,"station_id":"ce4bgpp2rcd13ifvqc3g","pricing_plan_id":"cebpf4jnsgd1na2vs0mg"},{"bike_id":"3bb414ec-afea-4b8b-88cb-84ab38521cd4","system_id":"levelo_inurba_marseille","lat":43.295722,"lon":5.39979,"is_reserved":false,"is_disabled":true,"rental_uris":{"android":"levelo://app?vid=3bb414ec-afea-4b8b-88cb-84ab38521cd4","ios":"levelo://app?vid=3bb414ec-afea-4b8b-88cb-84ab38521cd4"},"vehicle_type_id":"4","last_reported":1760180835,"current_range_meters":1600,"station_id":"ce4bh312rcd13ifvqdj0","pricing_plan_id":"cebpf4jnsgd1na2vs0mg"},{"bike_id":"7e46689b-7b97-43a1-a79b-171954dcf348","system_id":"levelo_inurba_marseille","lat":43.26678,"lon":5.38263,"is_reserved":false,"is_disabled":true,"rental_uris":{"android":"levelo://app?vid=7e46689b-7b97-43a1-a79b-171954dcf348","ios":"levelo://app?vid=7e46689b-7b97-43a1-a79b-171954dcf348"},"vehicle_type_id":"4","last_reported":1760180835,"current_range_meters":1600,"station_id":"ce4bhg92rcd13ifvqf90","pricing_plan_id":"cebpf4jnsgd1na2vs0mg"},{"bike_id":"5c68b6ac-1d4e-4142-8bfc-dcacc09ea511","system_id":"levelo_inurba_marseille","lat":43.27214,"lon":5.39191,"is_reserved":false,"is_disabled":true,"rental_uris":{"android":"levelo://app?vid=5c68b6ac-1d4e-4142-8bfc-dcacc09ea511","ios":"levelo://app?vid=5c68b6ac-1d4e-4142-8bfc-dcacc09ea511"},"vehicle_type_id":"4","last_reported":1760180835,"current_range_meters":1600,"station_id":"ce4bhhp2rcd13ifvqfm0","pricing_plan_id":"cebpf4jnsgd1na2vs0mg"},{"bike_id":"d8a18ab9-58bc-4f62-9ba1-ac2d023bf937","system_id":"levelo_inurba_marseille","lat":43.28711,"lon":5.37387,"is_reserved":false,"is_disabled":true,"rental_uris":{"android":"levelo://app?vid=d8a18ab9-58bc-4f62-9ba1-ac2d023bf937","ios":"levelo://app?vid=d8a18ab9-58bc-4f62-9ba1-ac2d023bf937"},"vehicle_type_id":"4","last_reported":1760180835,"current_range_meters":2000,"station_id":"ce4bh3p2rcd13ifvqdq0","pricing_plan_id":"cebpf4jnsgd1na2vs0mg"},{"bike_id":"77d85ed4-057e-4cfc-adcf-3251ed39d11d","system_id":"levelo_inurba_marseille","lat":43.29602,"lon":5.38101,"is_reserved":false,"is_disabled":false,"rental_uris":{"android":"levelo://app?vid=77d85ed4-057e-4cfc-adcf-3251ed39d11d","ios":"levelo://app?vid=77d85ed4-057e-4cfc-adcf-3251ed39d11d"},"vehicle_type_id":"4","last_reported":1760180835,"current_range_meters":3200,"station_id":"ce4bgl12rcd13ifvqbo0","pricing_plan_id":"cebpf4jnsgd1na2vs0mg"},{"bike_id":"8cd2798e-dc0c-4d74-83fa-0cac08b90487","system_id":"levelo_inurba_marseille","lat":43.26584,"lon":5.39008,"is_reserved":false,"is_disabled":false,"rental_uris":{"android":"levelo://app?vid=8cd2798e-dc0c-4d74-83fa-0cac08b90487","ios":"levelo://app?vid=8cd2798e-dc0c-4d74-83fa-0cac08b90487"},"vehicle_type_id":"4","last_reported":1760180835,"current_range_meters":4000,"station_id":"ce4bhe12rcd13ifvqf30","pricing_plan_id":"cebpf4jnsgd1na2vs0mg"},{"bike_id":"2524b8bf-06d4-42c5-8057-739ffde19453","system_id":"levelo_inurba_marseille","lat":43.30376,"lon":5.42494,"is_reserved":false,"is_disabled":false,"rental_uris":{"android":"levelo://app?vid=2524b8bf-06d4-42c5-8057-739ffde19453","ios":"levelo://app?vid=2524b8bf-06d4-42c5-8057-739ffde19453"},"vehicle_type_id":"4","last_reported":1760180835,"current_range_meters":4000,"station_id":"ce4bhoh2rcd13ifvqh6g","pricing_plan_id":"cebpf4jnsgd1na2vs0mg"},{"bike_id":"1508e37c-ddee-4fca-a836-8777a02263a4","system_id":"levelo_inurba_marseille","lat":43.297229,"lon":5.380115,"is_reserved":false,"is_disabled":false,"rental_uris":{"android":"levelo://app?vid=1508e37c-ddee-4fca-a836-8777a02263a4","ios":"levelo://app?vid=1508e37c-ddee-4fca-a836-8777a02263a4"},"vehicle_type_id":"4","last_reported":1760180835,"current_range_meters":4400,"station_id":"","pricing_plan_id":"cebpf4jnsgd1na2vs0mg"},{"bike_id":"e3ac0afe-461e-44d6-95dc-7194ea521b11","system_id":"levelo_inurba_marseille","lat":43.22929,"lon":5.35374,"is_reserved":false,"is_disabled":false,"rental_uris":{"android":"levelo://app?vid=e3ac0afe-461e-44d6-95dc-7194ea521b11","ios":"levelo://app?vid=e3ac0afe-461e-44d6-95dc-7194ea521b11"},"vehicle_type_id":"4","last_reported":1760180835,"current_range_meters":4800,"station_id":"cpo3532slgdg3j2ikp40","pricing_plan_id":"cebpf4jnsgd1na2vs0mg"},{"bike_id":"c19915a3-9d36-4556-bafe-c7863ff90ad4","system_id":"levelo_inurba_marseille","lat":43.21761,"lon":5.34591,"is_reserved":false,"is_disabled":false,"rental_uris":{"android":"levelo://app?vid=c19915a3-9d36-4556-bafe-c7863ff90ad4","ios":"levelo://app?vid=c19915a3-9d36-4556-bafe-c7863ff90ad4"},"vehicle_type_id":"4","last_reported":1760180835,"current_range_meters":4800,"station_id":"st_cvj6r9ubvosntc0bgbag","pricing_plan_id":"cebpf4jnsgd1na2vs0mg"},{"bike_id":"7a3dbc10-c5dd-4c4d-a031-83f4d66ccc0d","system_id":"levelo_inurba_marseille","lat":43.27942,"lon":5.41043,"is_reserved":false,"is_disabled":false,"rental_uris":{"android":"levelo://app?vid=7a3dbc10-c5dd-4c4d-a031-83f4d66ccc0d","ios":"levelo://app?vid=7a3dbc10-c5dd-4c4d-a031-83f4d66ccc0d"},"vehicle_type_id":"4","last_reported":1760180835,"current_range_meters":5600,"station_id":"ce4bhnp2rcd13ifvqh0g","pricing_plan_id":"cebpf4jnsgd1na2vs0mg"},{"bike_id":"1314e79e-5591-4e42-8b3f-2d71c61290a9","system_id":"levelo_inurba_marseille","lat":43.27627,"lon":5.3611,"is_reserved":false,"is_disabled":false,"rental_uris":{"android":"levelo://app?vid=1314e79e-5591-4e42-8b3f-2d71c61290a9","ios":"levelo://app?vid=1314e79e-5591-4e42-8b3f-2d71c61290a9"},"vehicle_type_id":"4","last_reported":1760180835,"current_range_meters":6000,"station_id":"ce4bgj92rcd13ifvqbe0","pricing_plan_id":"cebpf4jnsgd1na2vs0mg"},{"bike_id":"8ffb10f5-fd70-48df-bdc8-3c646a11a5e7","system_id":"levelo_inurba_marseille","lat":43.28274,"lon":5.3507,"is_reserved":false,"is_disabled":false,"rental_uris":{"android":"levelo://app?vid=8ffb10f5-fd70-48df-bdc8-3c646a11a5e7","ios":"levelo://app?vid=8ffb10f5-fd70-48df-bdc8-3c646a11a5e7"},"vehicle_type_id":"4","last_reported":1760180835,"current_range_meters":6400,"station_id":"ce4bhbp2rcd13ifvqerg","pricing_plan_id":"cebpf4jnsgd1na2vs0mg"},{"bike_id":"d23ed4de-07de-4bb0-8861-b8ee51bbc2ef","system_id":"levelo_inurba_marseille","lat":43.25498,"lon":5.37649,"is_reserved":false,"is_disabled":false,"rental_uris":{"android":"levelo://app?vid=d23ed4de-07de-4bb0-8861-b8ee51bbc2ef","ios":"levelo://app?vid=d23ed4de-07de-4bb0-8861-b8ee51bbc2ef"},"vehicle_type_id":"4","last_reported":1760180835,"current_range_meters":6400,"station_id":"ce4bhh12rcd13ifvqff0","pricing_plan_id":"cebpf4jnsgd1na2vs0mg"},{"bike_id":"c2660da4-436f-4eb8-b5d8-7584b6aee595","system_id":"levelo_inurba_marseille","lat":43.301422,"lon":5.380801,"is_reserved":false,"is_disabled":false,"rental_uris":{"android":"levelo://app?vid=c2660da4-436f-4eb8-b5d8-7584b6aee595","ios":"levelo://app?vid=c2660da4-436f-4eb8-b5d8-7584b6aee595"},"vehicle_type_id":"4","last_reported":1760180835,"current_range_meters":6800,"station_id":"ce4bgjp2rcd13ifvqbh0","pricing_plan_id":"cebpf4jnsgd1na2vs0mg"},{"bike_id":"1b386022-7196-4a52-bb48-e01674f8d2c7","system_id":"levelo_inurba_marseille","lat":43.297019,"lon":5.376936,"is_reserved":false,"is_disabled":false,"rental_uris":{"android":"levelo://app?vid=1b386022-7196-4a52-bb48-e01674f8d2c7","ios":"levelo://app?vid=1b386022-7196-4a52-bb48-e01674f8d2c7"},"vehicle_type_id":"4","last_reported":1760180835,"current_range_meters":6800,"station_id":"ce4bgkh2rcd13ifvqbl0","pricing_plan_id":"cebpf4jnsgd1na2vs0mg"},{"bike_id":"86614fca-5043-4b5f-b930-9b129eba83d8","system_id":"levelo_inurba_marseille","lat":43.24174,"lon":5.36389,"is_reserved":false,"is_disabled":false,"rental_uris":{"android":"levelo://app?vid=86614fca-5043-4b5f-b930-9b129eba83d8","ios":"levelo://app?vid=86614fca-5043-4b5f-b930-9b129eba83d8"},"vehicle_type_id":"4","last_reported":1760180835,"current_range_meters":6800,"station_id":"cpo36qri1sfpv3e86is0","pricing_plan_id":"cebpf4jnsgd1na2vs0mg"},{"bike_id":"2bc038b1-519b-42b1-9bd4-7d2b97044996","system_id":"levelo_inurba_marseille","lat":43.29266,"lon":5.41035,"is_reserved":false,"is_disabled":false,"rental_uris":{"android":"levelo://app?vid=2bc038b1-519b-42b1-9bd4-7d2b97044996","ios":"levelo://app?vid=2bc038b1-519b-42b1-9bd4-7d2b97044996"},"vehicle_type_id":"4","last_reported":1760180835,"current_range_meters":7200,"station_id":"","pricing_plan_id":"cebpf4jnsgd1na2vs0mg"},{"bike_id":"c9ba7695-29e2-45b5-82db-e6accf97657b","system_id":"levelo_inurba_marseille","lat":43.29034,"lon":5.39976,"is_reserved":false,"is_disabled":false,"rental_uris":{"android":"levelo://app?vid=c9ba7695-29e2-45b5-82db-e6accf97657b","ios":"levelo://app?vid=c9ba7695-29e2-45b5-82db-e6accf97657b"},"vehicle_type_id":"4","last_reported":1760180835,"current_range_meters":7200,"station_id":"ce4bh392rcd13ifvqdm0","pricing_plan_id":"cebpf4jnsgd1na2vs0mg"},{"bike_id":"d82d1d6f-b17f-4d3f-9922-8aec8953e8e0","system_id":"levelo_inurba_marseille","lat":43.24182,"lon":5.39724,"is_reserved":false,"is_disabled":false,"rental_uris":{"android":"levelo://app?vid=d82d1d6f-b17f-4d3f-9922-8aec8953e8e0","ios":"levelo://app?vid=d82d1d6f-b17f-4d3f-9922-8aec8953e8e0"},"vehicle_type_id":"4","last_reported":1760180835,"current_range_meters":7200,"station_id":"ce4bhn12rcd13ifvqgpg","pricing_plan_id":"cebpf4jnsgd1na2vs0mg"},{"bike_id":"abcb70b1-f59f-490c-915a-c7bff048201f","system_id":"levelo_inurba_marseille","lat":43.28535,"lon":5.44095,"is_reserved":false,"is_disabled":false,"rental_uris":{"android":"levelo://app?vid=abcb70b1-f59f-490c-915a-c7bff048201f","ios":"levelo://app?vid=abcb70b1-f59f-490c-915a-c7bff048201f"},"vehicle_type_id":"4","last_reported":1760180835,"current_range_meters":7200,"station_id":"st_d3j3df2ikq2c7380ej80","pricing_plan_id":"cebpf4jnsgd1na2vs0mg"},{"bike_id":"e9e42d2d-7e53-4efc-b575-031b106766c7","system_id":"levelo_inurba_marseille","lat":43.297386,"lon":5.36875,"is_reserved":false,"is_disabled":false,"rental_uris":{"android":"levelo://app?vid=e9e42d2d-7e53-4efc-b575-031b106766c7","ios":"levelo://app?vid=e9e42d2d-7e53-4efc-b575-031b106766c7"},"vehicle_type_id":"4","last_reported":1760180835,"current_range_meters":8000,"station_id":"","pricing_plan_id":"cebpf4jnsgd1na2vs0mg"},{"bike_id":"f6830330-9e2c-4c37-925e-9744d378a523","system_id":"levelo_inurba_marseille","lat":43.26682,"lon":5.38268,"is_reserved":false,"is_disabled":false,"rental_uris":{"android":"levelo://app?vid=f6830330-9e2c-4c37-925e-9744d378a523","ios":"levelo://app?vid=f6830330-9e2c-4c37-925e-9744d378a523"},"vehicle_type_id":"4","last_reported":1760180835,"current_range_meters":8000,"station_id":"ce4bhg92rcd13ifvqf90","pricing_plan_id":"cebpf4jnsgd1na2vs0mg"},{"bike_id":"f78d123d-7d4b-4bc4-9e80-072d59154f57","system_id":"levelo_inurba_marseille","lat":43.26211,"lon":5.37441,"is_reserved":false,"is_disabled":false,"rental_uris":{"android":"levelo://app?vid=f78d123d-7d4b-4bc4-9e80-072d59154f57","ios":"levelo://app?vid=f78d123d-7d4b-4bc4-9e80-072d59154f57"},"vehicle_type_id":"4","last_reported":1760180835,"current_range_meters":8000,"station_id":"ce4bhgp2rcd13ifvqfc0","pricing_plan_id":"cebpf4jnsgd1na2vs0mg"},{"bike_id":"3b053d84-22eb-44ce-a0d4-092dde8b110a","system_id":"levelo_inurba_marseille","lat":43.24177,"lon":5.36425,"is_reserved":false,"is_disabled":false,"rental_uris":{"android":"levelo://app?vid=3b053d84-22eb-44ce-a0d4-092dde8b110a","ios":"levelo://app?vid=3b053d84-22eb-44ce-a0d4-092dde8b110a"},"vehicle_type_id":"4","last_reported":1760180835,"current_range_meters":8000,"station_id":"cpo36qri1sfpv3e86is0","pricing_plan_id":"cebpf4jnsgd1na2vs0mg"},{"bike_id":"49121f91-457d-41d3-9848-bb91ea3946bd","system_id":"levelo_inurba_marseille","lat":43.21743,"lon":5.34592,"is_reserved":false,"is_disabled":false,"rental_uris":{"android":"levelo://app?vid=49121f91-457d-41d3-9848-bb91ea3946bd","ios":"levelo://app?vid=49121f91-457d-41d3-9848-bb91ea3946bd"},"vehicle_type_id":"4","last_reported":1760180835,"current_range_meters":8000,"station_id":"st_cvj6r9ubvosntc0bgbag","pricing_plan_id":"cebpf4jnsgd1na2vs0mg"},{"bike_id":"60d8e48f-9066-435d-abdf-7b84984ae3bc","system_id":"levelo_inurba_marseille","lat":43.29536,"lon":5.37495,"is_reserved":false,"is_disabled":false,"rental_uris":{"android":"levelo://app?vid=60d8e48f-9066-435d-abdf-7b84984ae3bc","ios":"levelo://app?vid=60d8e48f-9066-435d-abdf-7b84984ae3bc"},"vehicle_type_id":"4","last_reported":1760180835,"current_range_meters":8400,"station_id":"ce4bgkp2rcd13ifvqbmg","pricing_plan_id":"cebpf4jnsgd1na2vs0mg"},{"bike_id":"e5338adc-5c23-47cf-85c6-33510ed0bb68","system_id":"levelo_inurba_marseille","lat":43.30463,"lon":5.37904,"is_reserved":false,"is_disabled":false,"rental_uris":{"android":"levelo://app?vid=e5338adc-5c23-47cf-85c6-33510ed0bb68","ios":"levelo://app?vid=e5338adc-5c23-47cf-85c6-33510ed0bb68"},"vehicle_type_id":"4","last_reported":1760180835,"current_range_meters":8400,"station_id":"ce4bgup2rcd13ifvqcn0","pricing_plan_id":"cebpf4jnsgd1na2vs0mg"},{"bike_id":"d2cf7850-51be-400f-b69c-d770013cea93","system_id":"levelo_inurba_marseille","lat":43.28674,"lon":5.38658,"is_reserved":false,"is_disabled":false,"rental_uris":{"android":"levelo://app?vid=d2cf7850-51be-400f-b69c-d770013cea93","ios":"levelo://app?vid=d2cf7850-51be-400f-b69c-d770013cea93"},"vehicle_type_id":"4","last_reported":1760180835,"current_range_meters":8400,"station_id":"ce4bh492rcd13ifvqdug","pricing_plan_id":"cebpf4jnsgd1na2vs0mg"},{"bike_id":"344822f5-1afc-443c-8c06-ee2573041a6f","system_id":"levelo_inurba_marseille","lat":43.21753,"lon":5.34615,"is_reserved":false,"is_disabled":false,"rental_uris":{"android":"levelo://app?vid=344822f5-1afc-443c-8c06-ee2573041a6f","ios":"levelo://app?vid=344822f5-1afc-443c-8c06-ee2573041a6f"},"vehicle_type_id":"4","last_reported":1760180835,"current_range_meters":8400,"station_id":"st_cvj6r9ubvosntc0bgbag","pricing_plan_id":"cebpf4jnsgd1na2vs0mg"},{"bike_id":"ab39e7be-c709-417b-8585-a40c41c27372","system_id":"levelo_inurba_marseille","lat":43.22574,"lon":5.41639,"is_reserved":false,"is_disabled":false,"rental_uris":{"android":"levelo://app?vid=ab39e7be-c709-417b-8585-a40c41c27372","ios":"levelo://app?vid=ab39e7be-c709-417b-8585-a40c41c27372"},"vehicle_type_id":"4","last_reported":1760180835,"current_range_meters":8400,"station_id":"st_d2o4gvlbi1j2169b742g","pricing_plan_id":"cebpf4jnsgd1na2vs0mg"},{"bike_id":"e69857b2-722c-4d3e-ba60-818b5ac8a550","system_id":"levelo_inurba_marseille","lat":43.22538,"lon":5.34831,"is_reserved":false,"is_disabled":false,"rental_uris":{"android":"levelo://app?vid=e69857b2-722c-4d3e-ba60-818b5ac8a550","ios":"levelo://app?vid=e69857b2-722c-4d3e-ba60-818b5ac8a550"},"vehicle_type_id":"4","last_reported":1760180835,"current_range_meters":8800,"station_id":"","pricing_plan_id":"cebpf4jnsgd1na2vs0mg"},{"bike_id":"53e64b86-ff11-4cf4-9d58-0b5145342394","system_id":"levelo_inurba_marseille","lat":43.27058,"lon":5.40266,"is_reserved":false,"is_disabled":false,"rental_uris":{"android":"levelo://app?vid=53e64b86-ff11-4cf4-9d58-0b5145342394","ios":"levelo://app?vid=53e64b86-ff11-4cf4-9d58-0b5145342394"},"vehicle_type_id":"4","last_reported":1760180835,"current_range_meters":8800,"station_id":"ce4bhk92rcd13ifvqgc0","pricing_plan_id":"cebpf4jnsgd1na2vs0mg"},{"bike_id":"4da595f2-d02f-4d59-96ce-e206bac7d5dc","system_id":"levelo_inurba_marseille","lat":43.24166,"lon":5.36394,"is_reserved":false,"is_disabled":false,"rental_uris":{"android":"levelo://app?vid=4da595f2-d02f-4d59-96ce-e206bac7d5dc","ios":"levelo://app?vid=4da595f2-d02f-4d59-96ce-e206bac7d5dc"},"vehicle_type_id":"4","last_reported":1760180835,"current_range_meters":8800,"station_id":"cpo36qri1sfpv3e86is0","pricing_plan_id":"cebpf4jnsgd1na2vs0mg"},{"bike_id":"0441e376-2474-4e63-8e92-4ac8940765be","system_id":"levelo_inurba_marseille","lat":43.21752,"lon":5.34599,"is_reserved":false,"is_disabled":false,"rental_uris":{"android":"levelo://app?vid=0441e376-2474-4e63-8e92-4ac8940765be","ios":"levelo://app?vid=0441e376-2474-4e63-8e92-4ac8940765be"},"vehicle_type_id":"4","last_reported":1760180835,"current_range_meters":8800,"station_id":"st_cvj6r9ubvosntc0bgbag","pricing_plan_id":"cebpf4jnsgd1na2vs0mg"},{"bike_id":"7ecce9b3-6d8a-4b46-9e3e-06d9c28c905f","system_id":"levelo_inurba_marseille","lat":43.289116,"lon":5.390761,"is_reserved":false,"is_disabled":false,"rental_uris":{"android":"levelo://app?vid=7ecce9b3-6d8a-4b46-9e3e-06d9c28c905f","ios":"levelo://app?vid=7ecce9b3-6d8a-4b46-9e3e-06d9c28c905f"},"vehicle_type_id":"4","last_reported":1760180835,"current_range_meters":9200,"station_id":"","pricing_plan_id":"cebpf4jnsgd1na2vs0mg"},{"bike_id":"840f5367-4a8b-4bf8-aed3-ddf295d75be0","system_id":"levelo_inurba_marseille","lat":43.30428,"lon":5.371896,"is_reserved":false,"is_disabled":false,"rental_uris":{"android":"levelo://app?vid=840f5367-4a8b-4bf8-aed3-ddf295d75be0","ios":"levelo://app?vid=840f5367-4a8b-4bf8-aed3-ddf295d75be0"},"vehicle_type_id":"4","last_reported":1760180835,"current_range_meters":9200,"station_id":"","pricing_plan_id":"cebpf4jnsgd1na2vs0mg"},{"bike_id":"097a9ed4-d2c5-47ad-b799-5169399b3de8","system_id":"levelo_inurba_marseille","lat":43.26564,"lon":5.39015,"is_reserved":false,"is_disabled":false,"rental_uris":{"android":"levelo://app?vid=097a9ed4-d2c5-47ad-b799-5169399b3de8","ios":"levelo://app?vid=097a9ed4-d2c5-47ad-b799-5169399b3de8"},"vehicle_type_id":"4","last_reported":1760180835,"current_range_meters":9200,"station_id":"ce4bhe12rcd13ifvqf30","pricing_plan_id":"cebpf4jnsgd1na2vs0mg"},{"bike_id":"5e484363-88b7-4ed8-a2bc-57c9de887653","system_id":"levelo_inurba_marseille","lat":43.24652,"lon":5.38886,"is_reserved":false,"is_disabled":false,"rental_uris":{"android":"levelo://app?vid=5e484363-88b7-4ed8-a2bc-57c9de887653","ios":"levelo://app?vid=5e484363-88b7-4ed8-a2bc-57c9de887653"},"vehicle_type_id":"4","last_reported":1760180835,"current_range_meters":9200,"station_id":"ce4bhg12rcd13ifvqf60","pricing_plan_id":"cebpf4jnsgd1na2vs0mg"},{"bike_id":"65de34ce-6450-4e56-a6fe-251627e07b88","system_id":"levelo_inurba_marseille","lat":43.21754,"lon":5.34599,"is_reserved":false,"is_disabled":false,"rental_uris":{"android":"levelo://app?vid=65de34ce-6450-4e56-a6fe-251627e07b88","ios":"levelo://app?vid=65de34ce-6450-4e56-a6fe-251627e07b88"},"vehicle_type_id":"4","last_reported":1760180835,"current_range_meters":9200,"station_id":"st_cvj6r9ubvosntc0bgbag","pricing_plan_id":"cebpf4jnsgd1na2vs0mg"},{"bike_id":"0458f03b-1910-440f-9167-c00670fba699","system_id":"levelo_inurba_marseille","lat":43.337444,"lon":5.374475,"is_reserved":false,"is_disabled":false,"rental_uris":{"android":"levelo://app?vid=0458f03b-1910-440f-9167-c00670fba699","ios":"levelo://app?vid=0458f03b-1910-440f-9167-c00670fba699"},"vehicle_type_id":"4","last_reported":1760180835,"current_range_meters":9600,"station_id":"","pricing_plan_id":"cebpf4jnsgd1na2vs0mg"},{"bike_id":"d1bf98ef-f1b6-4472-b394-1a08568f7bb2","system_id":"levelo_inurba_marseille","lat":43.295417,"lon":5.374652,"is_reserved":false,"is_disabled":false,"rental_uris":{"android":"levelo://app?vid=d1bf98ef-f1b6-4472-b394-1a08568f7bb2","ios":"levelo://app?vid=d1bf98ef-f1b6-4472-b394-1a08568f7bb2"},"vehicle_type_id":"4","last_reported":1760180835,"current_range_meters":9600,"station_id":"","pricing_plan_id":"cebpf4jnsgd1na2vs0mg"},{"bike_id":"a6f05600-ff9c-4265-bf2f-09585cdba347","system_id":"levelo_inurba_marseille","lat":43.254913,"lon":5.376495,"is_reserved":false,"is_disabled":false,"rental_uris":{"android":"levelo://app?vid=a6f05600-ff9c-4265-bf2f-09585cdba347","ios":"levelo://app?vid=a6f05600-ff9c-4265-bf2f-09585cdba347"},"vehicle_type_id":"4","last_reported":1760180835,"current_range_meters":9600,"station_id":"ce4bhh12rcd13ifvqff0","pricing_plan_id":"cebpf4jnsgd1na2vs0mg"},{"bike_id":"226f9861-d66c-4c69-b23f-48aa5532ae82","system_id":"levelo_inurba_marseille","lat":43.28163,"lon":5.4264,"is_reserved":false,"is_disabled":false,"rental_uris":{"android":"levelo://app?vid=226f9861-d66c-4c69-b23f-48aa5532ae82","ios":"levelo://app?vid=226f9861-d66c-4c69-b23f-48aa5532ae82"},"vehicle_type_id":"4","last_reported":1760180835,"current_range_meters":9600,"station_id":"ce4bhnh2rcd13ifvqgug","pricing_plan_id":"cebpf4jnsgd1na2vs0mg"},{"bike_id":"e78c2604-e21f-422f-b80a-2add4d62e5bd","system_id":"levelo_inurba_marseille","lat":43.32832,"lon":5.3808,"is_reserved":false,"is_disabled":false,"rental_uris":{"android":"levelo://app?vid=e78c2604-e21f-422f-b80a-2add4d62e5bd","ios":"levelo://app?vid=e78c2604-e21f-422f-b80a-2add4d62e5bd"},"vehicle_type_id":"4","last_reported":1760180835,"current_range_meters":10000,"station_id":"","pricing_plan_id":"cebpf4jnsgd1na2vs0mg"},{"bike_id":"c21179b4-d493-4383-ad7f-df0a0cdb9fb1","system_id":"levelo_inurba_marseille","lat":43.286774,"lon":5.373796,"is_reserved":false,"is_disabled":false,"rental_uris":{"android":"levelo://app?vid=c21179b4-d493-4383-ad7f-df0a0cdb9fb1","ios":"levelo://app?vid=c21179b4-d493-4383-ad7f-df0a0cdb9fb1"},"vehicle_type_id":"4","last_reported":1760180835,"current_range_meters":10000,"station_id":"ce4bh3p2rcd13ifvqdq0","pricing_plan_id":"cebpf4jnsgd1na2vs0mg"},{"bike_id":"2a6d155b-7a31-49a1-8333-5e3e8610e54e","system_id":"levelo_inurba_marseille","lat":43.25498,"lon":5.37651,"is_reserved":false,"is_disabled":false,"rental_uris":{"android":"levelo://app?vid=2a6d155b-7a31-49a1-8333-5e3e8610e54e","ios":"levelo://app?vid=2a6d155b-7a31-49a1-8333-5e3e8610e54e"},"vehicle_type_id":"4","last_reported":1760180835,"current_range_meters":10000,"station_id":"ce4bhh12rcd13ifvqff0","pricing_plan_id":"cebpf4jnsgd1na2vs0mg"},{"bike_id":"a670822b-9b0b-4a8f-a111-b9aaa4e6dc17","system_id":"levelo_inurba_marseille","lat":43.24545,"lon":5.39525,"is_reserved":false,"is_disabled":false,"rental_uris":{"android":"levelo://app?vid=a670822b-9b0b-4a8f-a111-b9aaa4e6dc17","ios":"levelo://app?vid=a670822b-9b0b-4a8f-a111-b9aaa4e6dc17"},"vehicle_type_id":"4","last_reported":1760180835,"current_range_meters":10000,"station_id":"ce4bhlp2rcd13ifvqgjg","pricing_plan_id":"cebpf4jnsgd1na2vs0mg"},{"bike_id":"9f9edaa2-34b7-4837-8925-898705819e49","system_id":"levelo_inurba_marseille","lat":43.323604,"lon":5.367607,"is_reserved":false,"is_disabled":false,"rental_uris":{"android":"levelo://app?vid=9f9edaa2-34b7-4837-8925-898705819e49","ios":"levelo://app?vid=9f9edaa2-34b7-4837-8925-898705819e49"},"vehicle_type_id":"4","last_reported":1760180835,"current_range_meters":10000,"station_id":"ce4bhsh2rcd13ifvqi2g","pricing_plan_id":"cebpf4jnsgd1na2vs0mg"},{"bike_id":"a0751e22-b05e-4f86-8571-0bd1d0cb6aca","system_id":"levelo_inurba_marseille","lat":43.22578,"lon":5.41623,"is_reserved":false,"is_disabled":false,"rental_uris":{"android":"levelo://app?vid=a0751e22-b05e-4f86-8571-0bd1d0cb6aca","ios":"levelo://app?vid=a0751e22-b05e-4f86-8571-0bd1d0cb6aca"},"vehicle_type_id":"4","last_reported":1760180835,"current_range_meters":10000,"station_id":"st_d2o4gvlbi1j2169b742g","pricing_plan_id":"cebpf4jnsgd1na2vs0mg"},{"bike_id":"f058d08f-6668-4239-ac87-ad43c9779c67","system_id":"levelo_inurba_marseille","lat":43.30048,"lon":5.37806,"is_reserved":false,"is_disabled":false,"rental_uris":{"android":"levelo://app?vid=f058d08f-6668-4239-ac87-ad43c9779c67","ios":"levelo://app?vid=f058d08f-6668-4239-ac87-ad43c9779c67"},"vehicle_type_id":"4","last_reported":1760180835,"current_range_meters":10800,"station_id":"","pricing_plan_id":"cebpf4jnsgd1na2vs0mg"},{"bike_id":"f84db39b-1588-467c-a7d6-3417c55d68b1","system_id":"levelo_inurba_marseille","lat":43.29389,"lon":5.3759,"is_reserved":false,"is_disabled":false,"rental_uris":{"android":"levelo://app?vid=f84db39b-1588-467c-a7d6-3417c55d68b1","ios":"levelo://app?vid=f84db39b-1588-467c-a7d6-3417c55d68b1"},"vehicle_type_id":"4","last_reported":1760180835,"current_range_meters":10800,"station_id":"","pricing_plan_id":"cebpf4jnsgd1na2vs0mg"},{"bike_id":"7346af06-666b-4b84-be15-69c7404f7ba0","system_id":"levelo_inurba_marseille","lat":43.22937,"lon":5.35375,"is_reserved":false,"is_disabled":false,"rental_uris":{"android":"levelo://app?vid=7346af06-666b-4b84-be15-69c7404f7ba0","ios":"levelo://app?vid=7346af06-666b-4b84-be15-69c7404f7ba0"},"vehicle_type_id":"4","last_reported":1760180835,"current_range_meters":10800,"station_id":"","pricing_plan_id":"cebpf4jnsgd1na2vs0mg"},{"bike_id":"431c2e70-433d-4af0-acf4-957ec8670f40","system_id":"levelo_inurba_marseille","lat":43.2954,"lon":5.383068,"is_reserved":false,"is_disabled":false,"rental_uris":{"android":"levelo://app?vid=431c2e70-433d-4af0-acf4-957ec8670f40","ios":"levelo://app?vid=431c2e70-433d-4af0-acf4-957ec8670f40"},"vehicle_type_id":"4","last_reported":1760180835,"current_range_meters":10800,"station_id":"","pricing_plan_id":"cebpf4jnsgd1na2vs0mg"},{"bike_id":"2830d18f-faf1-45f8-86ba-3a7656dbb5b2","system_id":"levelo_inurba_marseille","lat":43.23962,"lon":5.36626,"is_reserved":false,"is_disabled":false,"rental_uris":{"android":"levelo://app?vid=2830d18f-faf1-45f8-86ba-3a7656dbb5b2","ios":"levelo://app?vid=2830d18f-faf1-45f8-86ba-3a7656dbb5b2"},"vehicle_type_id":"4","last_reported":1760180835,"current_range_meters":10800,"station_id":"ce4bhi12rcd13ifvqfp0","pricing_plan_id":"cebpf4jnsgd1na2vs0mg"},{"bike_id":"3b652a21-de5e-4660-9a1a-ba8c3c4363d7","system_id":"levelo_inurba_marseille","lat":43.27959,"lon":5.4103,"is_reserved":false,"is_disabled":false,"rental_uris":{"android":"levelo://app?vid=3b652a21-de5e-4660-9a1a-ba8c3c4363d7","ios":"levelo://app?vid=3b652a21-de5e-4660-9a1a-ba8c3c4363d7"},"vehicle_type_id":"4","last_reported":1760180835,"current_range_meters":10800,"station_id":"ce4bhnp2rcd13ifvqh0g","pricing_plan_id":"cebpf4jnsgd1na2vs0mg"},{"bike_id":"8b9acb90-b8ee-4339-9af4-5f0e7042e0f8","system_id":"levelo_inurba_marseille","lat":43.241644,"lon":5.36389,"is_reserved":false,"is_disabled":false,"rental_uris":{"android":"levelo://app?vid=8b9acb90-b8ee-4339-9af4-5f0e7042e0f8","ios":"levelo://app?vid=8b9acb90-b8ee-4339-9af4-5f0e7042e0f8"},"vehicle_type_id":"4","last_reported":1760180835,"current_range_meters":10800,"station_id":"cpo36qri1sfpv3e86is0","pricing_plan_id":"cebpf4jnsgd1na2vs0mg"},{"bike_id":"f19cf118-c296-4314-98d6-fa453397e7c6","system_id":"levelo_inurba_marseille","lat":43.28875,"lon":5.36611,"is_reserved":false,"is_disabled":false,"rental_uris":{"android":"levelo://app?vid=f19cf118-c296-4314-98d6-fa453397e7c6","ios":"levelo://app?vid=f19cf118-c296-4314-98d6-fa453397e7c6"},"vehicle_type_id":"4","last_reported":1760180835,"current_range_meters":11200,"station_id":"","pricing_plan_id":"cebpf4jnsgd1na2vs0mg"},{"bike_id":"a1fcc861-efa3-4037-a65c-cfb919fecd28","system_id":"levelo_inurba_marseille","lat":43.29097,"lon":5.38131,"is_reserved":false,"is_disabled":false,"rental_uris":{"android":"levelo://app?vid=a1fcc861-efa3-4037-a65c-cfb919fecd28","ios":"levelo://app?vid=a1fcc861-efa3-4037-a65c-cfb919fecd28"},"vehicle_type_id":"4","last_reported":1760180835,"current_range_meters":11200,"station_id":"ce4bh512rcd13ifvqe2g","pricing_plan_id":"cebpf4jnsgd1na2vs0mg"},{"bike_id":"d0541185-1ae0-4b7a-85f0-f156ffc178f8","system_id":"levelo_inurba_marseille","lat":43.32056,"lon":5.41586,"is_reserved":false,"is_disabled":false,"rental_uris":{"android":"levelo://app?vid=d0541185-1ae0-4b7a-85f0-f156ffc178f8","ios":"levelo://app?vid=d0541185-1ae0-4b7a-85f0-f156ffc178f8"},"vehicle_type_id":"4","last_reported":1760180835,"current_range_meters":11200,"station_id":"ce4bhq92rcd13ifvqhkg","pricing_plan_id":"cebpf4jnsgd1na2vs0mg"},{"bike_id":"5037a400-551c-4fae-8c96-c7d74d5add26","system_id":"levelo_inurba_marseille","lat":43.31229,"lon":5.36865,"is_reserved":false,"is_disabled":false,"rental_uris":{"android":"levelo://app?vid=5037a400-551c-4fae-8c96-c7d74d5add26","ios":"levelo://app?vid=5037a400-551c-4fae-8c96-c7d74d5add26"},"vehicle_type_id":"4","last_reported":1760180835,"current_range_meters":11600,"station_id":"ce4bgl92rcd13ifvqbq0","pricing_plan_id":"cebpf4jnsgd1na2vs0mg"},{"bike_id":"4ab80ce4-ce99-4883-ae58-e3c3928741b4","system_id":"levelo_inurba_marseille","lat":43.28282,"lon":5.35076,"is_reserved":false,"is_disabled":false,"rental_uris":{"android":"levelo://app?vid=4ab80ce4-ce99-4883-ae58-e3c3928741b4","ios":"levelo://app?vid=4ab80ce4-ce99-4883-ae58-e3c3928741b4"},"vehicle_type_id":"4","last_reported":1760180835,"current_range_meters":11600,"station_id":"ce4bhbp2rcd13ifvqerg","pricing_plan_id":"cebpf4jnsgd1na2vs0mg"},{"bike_id":"f92716c4-7d61-4a44-a003-4f53ce5444b2","system_id":"levelo_inurba_marseille","lat":43.24805,"lon":5.37452,"is_reserved":false,"is_disabled":false,"rental_uris":{"android":"levelo://app?vid=f92716c4-7d61-4a44-a003-4f53ce5444b2","ios":"levelo://app?vid=f92716c4-7d61-4a44-a003-4f53ce5444b2"},"vehicle_type_id":"4","last_reported":1760180835,"current_range_meters":11600,"station_id":"ce4bhgh2rcd13ifvqfb0","pricing_plan_id":"cebpf4jnsgd1na2vs0mg"},{"bike_id":"1b145eeb-7934-4a47-8c50-b866cbfdb171","system_id":"levelo_inurba_marseille","lat":43.23979,"lon":5.36597,"is_reserved":false,"is_disabled":false,"rental_uris":{"android":"levelo://app?vid=1b145eeb-7934-4a47-8c50-b866cbfdb171","ios":"levelo://app?vid=1b145eeb-7934-4a47-8c50-b866cbfdb171"},"vehicle_type_id":"4","last_reported":1760180835,"current_range_meters":11600,"station_id":"ce4bhi12rcd13ifvqfp0","pricing_plan_id":"cebpf4jnsgd1na2vs0mg"},{"bike_id":"3fd0fc82-fa22-4e9a-a543-73042e20acd8","system_id":"levelo_inurba_marseille","lat":43.25331,"lon":5.42168,"is_reserved":false,"is_disabled":false,"rental_uris":{"android":"levelo://app?vid=3fd0fc82-fa22-4e9a-a543-73042e20acd8","ios":"levelo://app?vid=3fd0fc82-fa22-4e9a-a543-73042e20acd8"},"vehicle_type_id":"4","last_reported":1760180835,"current_range_meters":11600,"station_id":"st_d2m65c5bi1j21697t3ng","pricing_plan_id":"cebpf4jnsgd1na2vs0mg"},{"bike_id":"68c0b6a3-a9d2-47a1-bccd-2b46e24f2696","system_id":"levelo_inurba_marseille","lat":43.22567,"lon":5.41626,"is_reserved":false,"is_disabled":false,"rental_uris":{"android":"levelo://app?vid=68c0b6a3-a9d2-47a1-bccd-2b46e24f2696","ios":"levelo://app?vid=68c0b6a3-a9d2-47a1-bccd-2b46e24f2696"},"vehicle_type_id":"4","last_reported":1760180835,"current_range_meters":11600,"station_id":"st_d2o4gvlbi1j2169b742g","pricing_plan_id":"cebpf4jnsgd1na2vs0mg"},{"bike_id":"80b5fdd6-8044-4280-9733-7a4992e6b8f6","system_id":"levelo_inurba_marseille","lat":43.292676,"lon":5.376168,"is_reserved":false,"is_disabled":false,"rental_uris":{"android":"levelo://app?vid=80b5fdd6-8044-4280-9733-7a4992e6b8f6","ios":"levelo://app?vid=80b5fdd6-8044-4280-9733-7a4992e6b8f6"},"vehicle_type_id":"4","last_reported":1760180835,"current_range_meters":12000,"station_id":"","pricing_plan_id":"cebpf4jnsgd1na2vs0mg"},{"bike_id":"46a46397-c0ce-4124-8d5f-18fd19aaba9d","system_id":"levelo_inurba_marseille","lat":43.30158,"lon":5.38077,"is_reserved":false,"is_disabled":false,"rental_uris":{"android":"levelo://app?vid=46a46397-c0ce-4124-8d5f-18fd19aaba9d","ios":"levelo://app?vid=46a46397-c0ce-4124-8d5f-18fd19aaba9d"},"vehicle_type_id":"4","last_reported":1760180835,"current_range_meters":12000,"station_id":"ce4bgjp2rcd13ifvqbh0","pricing_plan_id":"cebpf4jnsgd1na2vs0mg"},{"bike_id":"2c2199c2-31c7-4a66-925a-78879ff5abd3","system_id":"levelo_inurba_marseille","lat":43.26948,"lon":5.40259,"is_reserved":false,"is_disabled":false,"rental_uris":{"android":"levelo://app?vid=2c2199c2-31c7-4a66-925a-78879ff5abd3","ios":"levelo://app?vid=2c2199c2-31c7-4a66-925a-78879ff5abd3"},"vehicle_type_id":"4","last_reported":1760180835,"current_range_meters":12000,"station_id":"cjm6bp8fraef2m0cb0m0","pricing_plan_id":"cebpf4jnsgd1na2vs0mg"},{"bike_id":"d1a54783-e0e1-4cc9-b0e2-5a7720c6a813","system_id":"levelo_inurba_marseille","lat":43.217391,"lon":5.346066,"is_reserved":false,"is_disabled":false,"rental_uris":{"android":"levelo://app?vid=d1a54783-e0e1-4cc9-b0e2-5a7720c6a813","ios":"levelo://app?vid=d1a54783-e0e1-4cc9-b0e2-5a7720c6a813"},"vehicle_type_id":"4","last_reported":1760180835,"current_range_meters":12000,"station_id":"st_cvj6r9ubvosntc0bgbag","pricing_plan_id":"cebpf4jnsgd1na2vs0mg"},{"bike_id":"e3aa9db7-5177-43d7-8ef6-f790149f0ca0","system_id":"levelo_inurba_marseille","lat":43.30373,"lon":5.42473,"is_reserved":false,"is_disabled":false,"rental_uris":{"android":"levelo://app?vid=e3aa9db7-5177-43d7-8ef6-f790149f0ca0","ios":"levelo://app?vid=e3aa9db7-5177-43d7-8ef6-f790149f0ca0"},"vehicle_type_id":"4","last_reported":1760180835,"current_range_meters":12400,"station_id":"ce4bhoh2rcd13ifvqh6g","pricing_plan_id":"cebpf4jnsgd1na2vs0mg"},{"bike_id":"1e3adb23-ca90-4fd2-a039-d5c01fd02274","system_id":"levelo_inurba_marseille","lat":43.21746,"lon":5.34602,"is_reserved":false,"is_disabled":false,"rental_uris":{"android":"levelo://app?vid=1e3adb23-ca90-4fd2-a039-d5c01fd02274","ios":"levelo://app?vid=1e3adb23-ca90-4fd2-a039-d5c01fd02274"},"vehicle_type_id":"4","last_reported":1760180835,"current_range_meters":12400,"station_id":"st_cvj6r9ubvosntc0bgbag","pricing_plan_id":"cebpf4jnsgd1na2vs0mg"},{"bike_id":"ea868bbe-d842-4598-a21a-c803746ce7ee","system_id":"levelo_inurba_marseille","lat":43.21181,"lon":5.35079,"is_reserved":false,"is_disabled":false,"rental_uris":{"android":"levelo://app?vid=ea868bbe-d842-4598-a21a-c803746ce7ee","ios":"levelo://app?vid=ea868bbe-d842-4598-a21a-c803746ce7ee"},"vehicle_type_id":"4","last_reported":1760180835,"current_range_meters":12400,"station_id":"st_cvj6sg6p6f1abm77japg","pricing_plan_id":"cebpf4jnsgd1na2vs0mg"},{"bike_id":"c61c0287-d7fa-4f42-b707-e7b889dbee3d","system_id":"levelo_inurba_marseille","lat":43.331634,"lon":5.374699,"is_reserved":false,"is_disabled":false,"rental_uris":{"android":"levelo://app?vid=c61c0287-d7fa-4f42-b707-e7b889dbee3d","ios":"levelo://app?vid=c61c0287-d7fa-4f42-b707-e7b889dbee3d"},"vehicle_type_id":"4","last_reported":1760180835,"current_range_meters":12800,"station_id":"","pricing_plan_id":"cebpf4jnsgd1na2vs0mg"},{"bike_id":"6372e2ff-ffd2-49b7-9da5-411c99d74804","system_id":"levelo_inurba_marseille","lat":43.296795,"lon":5.368565,"is_reserved":false,"is_disabled":false,"rental_uris":{"android":"levelo://app?vid=6372e2ff-ffd2-49b7-9da5-411c99d74804","ios":"levelo://app?vid=6372e2ff-ffd2-49b7-9da5-411c99d74804"},"vehicle_type_id":"4","last_reported":1760180835,"current_range_meters":12800,"station_id":"ce4bgph2rcd13ifvqc2g","pricing_plan_id":"cebpf4jnsgd1na2vs0mg"},{"bike_id":"2d964ba3-c456-420e-ac7a-598a834ea568","system_id":"levelo_inurba_marseille","lat":43.2792,"lon":5.39587,"is_reserved":false,"is_disabled":false,"rental_uris":{"android":"levelo://app?vid=2d964ba3-c456-420e-ac7a-598a834ea568","ios":"levelo://app?vid=2d964ba3-c456-420e-ac7a-598a834ea568"},"vehicle_type_id":"4","last_reported":1760180835,"current_range_meters":12800,"station_id":"ce4bhf92rcd13ifvqf40","pricing_plan_id":"cebpf4jnsgd1na2vs0mg"},{"bike_id":"3aee201c-eced-4867-b84a-9c76c962f6e2","system_id":"levelo_inurba_marseille","lat":43.24167,"lon":5.36397,"is_reserved":false,"is_disabled":false,"rental_uris":{"android":"levelo://app?vid=3aee201c-eced-4867-b84a-9c76c962f6e2","ios":"levelo://app?vid=3aee201c-eced-4867-b84a-9c76c962f6e2"},"vehicle_type_id":"4","last_reported":1760180835,"current_range_meters":12800,"station_id":"cpo36qri1sfpv3e86is0","pricing_plan_id":"cebpf4jnsgd1na2vs0mg"},{"bike_id":"54aab29b-b822-4f38-bda8-7ca583f39fd5","system_id":"levelo_inurba_marseille","lat":43.21749,"lon":5.34601,"is_reserved":false,"is_disabled":false,"rental_uris":{"android":"levelo://app?vid=54aab29b-b822-4f38-bda8-7ca583f39fd5","ios":"levelo://app?vid=54aab29b-b822-4f38-bda8-7ca583f39fd5"},"vehicle_type_id":"4","last_reported":1760180835,"current_range_meters":12800,"station_id":"st_cvj6r9ubvosntc0bgbag","pricing_plan_id":"cebpf4jnsgd1na2vs0mg"},{"bike_id":"9b6181b1-8e92-4084-8dd8-45e59da8f0f6","system_id":"levelo_inurba_marseille","lat":43.29005,"lon":5.35615,"is_reserved":false,"is_disabled":false,"rental_uris":{"android":"levelo://app?vid=9b6181b1-8e92-4084-8dd8-45e59da8f0f6","ios":"levelo://app?vid=9b6181b1-8e92-4084-8dd8-45e59da8f0f6"},"vehicle_type_id":"4","last_reported":1760180835,"current_range_meters":13600,"station_id":"ce4bhb92rcd13ifvqen0","pricing_plan_id":"cebpf4jnsgd1na2vs0mg"},{"bike_id":"13423167-36b7-4ab5-bf1b-c47f033b734a","system_id":"levelo_inurba_marseille","lat":43.24385,"lon":5.37053,"is_reserved":false,"is_disabled":false,"rental_uris":{"android":"levelo://app?vid=13423167-36b7-4ab5-bf1b-c47f033b734a","ios":"levelo://app?vid=13423167-36b7-4ab5-bf1b-c47f033b734a"},"vehicle_type_id":"4","last_reported":1760180835,"current_range_meters":13600,"station_id":"ce4bhhh2rcd13ifvqfk0","pricing_plan_id":"cebpf4jnsgd1na2vs0mg"},{"bike_id":"e0b0ccfa-e0df-4ce6-89d1-1b54bba15f3c","system_id":"levelo_inurba_marseille","lat":43.2509,"lon":5.3951,"is_reserved":false,"is_disabled":false,"rental_uris":{"android":"levelo://app?vid=e0b0ccfa-e0df-4ce6-89d1-1b54bba15f3c","ios":"levelo://app?vid=e0b0ccfa-e0df-4ce6-89d1-1b54bba15f3c"},"vehicle_type_id":"4","last_reported":1760180835,"current_range_meters":13600,"station_id":"ce4bhm12rcd13ifvqgkg","pricing_plan_id":"cebpf4jnsgd1na2vs0mg"},{"bike_id":"8482c7fc-cae1-421d-909c-59f847f96804","system_id":"levelo_inurba_marseille","lat":43.22928,"lon":5.35374,"is_reserved":false,"is_disabled":false,"rental_uris":{"android":"levelo://app?vid=8482c7fc-cae1-421d-909c-59f847f96804","ios":"levelo://app?vid=8482c7fc-cae1-421d-909c-59f847f96804"},"vehicle_type_id":"4","last_reported":1760180835,"current_range_meters":13600,"station_id":"cpo3532slgdg3j2ikp40","pricing_plan_id":"cebpf4jnsgd1na2vs0mg"},{"bike_id":"4711f9e5-4326-4eef-ade6-fdf0b441c720","system_id":"levelo_inurba_marseille","lat":43.24171,"lon":5.36389,"is_reserved":false,"is_disabled":false,"rental_uris":{"android":"levelo://app?vid=4711f9e5-4326-4eef-ade6-fdf0b441c720","ios":"levelo://app?vid=4711f9e5-4326-4eef-ade6-fdf0b441c720"},"vehicle_type_id":"4","last_reported":1760180835,"current_range_meters":13600,"station_id":"cpo36qri1sfpv3e86is0","pricing_plan_id":"cebpf4jnsgd1na2vs0mg"},{"bike_id":"a9eb3e56-bf34-456e-9be8-ae9ae8c9a997","system_id":"levelo_inurba_marseille","lat":43.21745,"lon":5.34601,"is_reserved":false,"is_disabled":false,"rental_uris":{"android":"levelo://app?vid=a9eb3e56-bf34-456e-9be8-ae9ae8c9a997","ios":"levelo://app?vid=a9eb3e56-bf34-456e-9be8-ae9ae8c9a997"},"vehicle_type_id":"4","last_reported":1760180835,"current_range_meters":13600,"station_id":"st_cvj6r9ubvosntc0bgbag","pricing_plan_id":"cebpf4jnsgd1na2vs0mg"},{"bike_id":"bba518c9-6b41-4f52-bbd2-7ca9cdbd7c63","system_id":"levelo_inurba_marseille","lat":43.28282,"lon":5.3508,"is_reserved":false,"is_disabled":false,"rental_uris":{"android":"levelo://app?vid=bba518c9-6b41-4f52-bbd2-7ca9cdbd7c63","ios":"levelo://app?vid=bba518c9-6b41-4f52-bbd2-7ca9cdbd7c63"},"vehicle_type_id":"4","last_reported":1760180835,"current_range_meters":14000,"station_id":"ce4bhbp2rcd13ifvqerg","pricing_plan_id":"cebpf4jnsgd1na2vs0mg"},{"bike_id":"f9a629ee-1411-4e19-85f7-39322f4e3cbb","system_id":"levelo_inurba_marseille","lat":43.28232,"lon":5.39066,"is_reserved":false,"is_disabled":false,"rental_uris":{"android":"levelo://app?vid=f9a629ee-1411-4e19-85f7-39322f4e3cbb","ios":"levelo://app?vid=f9a629ee-1411-4e19-85f7-39322f4e3cbb"},"vehicle_type_id":"4","last_reported":1760180835,"current_range_meters":14000,"station_id":"ce4bhn92rcd13ifvqgsg","pricing_plan_id":"cebpf4jnsgd1na2vs0mg"},{"bike_id":"96189567-9f56-4467-99e1-85c33efa20b5","system_id":"levelo_inurba_marseille","lat":43.22572,"lon":5.41636,"is_reserved":false,"is_disabled":false,"rental_uris":{"android":"levelo://app?vid=96189567-9f56-4467-99e1-85c33efa20b5","ios":"levelo://app?vid=96189567-9f56-4467-99e1-85c33efa20b5"},"vehicle_type_id":"4","last_reported":1760180835,"current_range_meters":14000,"station_id":"st_d2o4gvlbi1j2169b742g","pricing_plan_id":"cebpf4jnsgd1na2vs0mg"},{"bike_id":"08fcdb32-2bb9-48aa-82a9-a8f703dd0269","system_id":"levelo_inurba_marseille","lat":43.25403,"lon":5.41881,"is_reserved":false,"is_disabled":false,"rental_uris":{"android":"levelo://app?vid=08fcdb32-2bb9-48aa-82a9-a8f703dd0269","ios":"levelo://app?vid=08fcdb32-2bb9-48aa-82a9-a8f703dd0269"},"vehicle_type_id":"4","last_reported":1760180835,"current_range_meters":14400,"station_id":"","pricing_plan_id":"cebpf4jnsgd1na2vs0mg"},{"bike_id":"c86bfd82-4ed3-47c5-b889-5d1291743ca2","system_id":"levelo_inurba_marseille","lat":43.25114,"lon":5.4032,"is_reserved":false,"is_disabled":false,"rental_uris":{"android":"levelo://app?vid=c86bfd82-4ed3-47c5-b889-5d1291743ca2","ios":"levelo://app?vid=c86bfd82-4ed3-47c5-b889-5d1291743ca2"},"vehicle_type_id":"4","last_reported":1760180835,"current_range_meters":14400,"station_id":"ce4bhlh2rcd13ifvqgig","pricing_plan_id":"cebpf4jnsgd1na2vs0mg"},{"bike_id":"2c4b2638-6ca0-492d-ba12-8da2147de5c2","system_id":"levelo_inurba_marseille","lat":43.21748,"lon":5.34604,"is_reserved":false,"is_disabled":false,"rental_uris":{"android":"levelo://app?vid=2c4b2638-6ca0-492d-ba12-8da2147de5c2","ios":"levelo://app?vid=2c4b2638-6ca0-492d-ba12-8da2147de5c2"},"vehicle_type_id":"4","last_reported":1760180835,"current_range_meters":14400,"station_id":"st_cvj6r9ubvosntc0bgbag","pricing_plan_id":"cebpf4jnsgd1na2vs0mg"},{"bike_id":"e70544fd-802f-4013-b155-5c48cb90337d","system_id":"levelo_inurba_marseille","lat":43.29528,"lon":5.37505,"is_reserved":false,"is_disabled":false,"rental_uris":{"android":"levelo://app?vid=e70544fd-802f-4013-b155-5c48cb90337d","ios":"levelo://app?vid=e70544fd-802f-4013-b155-5c48cb90337d"},"vehicle_type_id":"4","last_reported":1760180835,"current_range_meters":14800,"station_id":"ce4bgkp2rcd13ifvqbmg","pricing_plan_id":"cebpf4jnsgd1na2vs0mg"},{"bike_id":"58033876-46a8-4668-9d09-84d7d732b060","system_id":"levelo_inurba_marseille","lat":43.2722,"lon":5.39173,"is_reserved":false,"is_disabled":false,"rental_uris":{"android":"levelo://app?vid=58033876-46a8-4668-9d09-84d7d732b060","ios":"levelo://app?vid=58033876-46a8-4668-9d09-84d7d732b060"},"vehicle_type_id":"4","last_reported":1760180835,"current_range_meters":14800,"station_id":"ce4bhhp2rcd13ifvqfm0","pricing_plan_id":"cebpf4jnsgd1na2vs0mg"},{"bike_id":"5cae1a2f-2fa7-46c3-9db6-99a689505d4a","system_id":"levelo_inurba_marseille","lat":43.25718,"lon":5.41111,"is_reserved":false,"is_disabled":false,"rental_uris":{"android":"levelo://app?vid=5cae1a2f-2fa7-46c3-9db6-99a689505d4a","ios":"levelo://app?vid=5cae1a2f-2fa7-46c3-9db6-99a689505d4a"},"vehicle_type_id":"4","last_reported":1760180835,"current_range_meters":14800,"station_id":"ce4bhkp2rcd13ifvqgd0","pricing_plan_id":"cebpf4jnsgd1na2vs0mg"},{"bike_id":"9a3f78ca-b0c6-4f72-8a79-592b18fbedf7","system_id":"levelo_inurba_marseille","lat":43.2407,"lon":5.37755,"is_reserved":false,"is_disabled":false,"rental_uris":{"android":"levelo://app?vid=9a3f78ca-b0c6-4f72-8a79-592b18fbedf7","ios":"levelo://app?vid=9a3f78ca-b0c6-4f72-8a79-592b18fbedf7"},"vehicle_type_id":"4","last_reported":1760180835,"current_range_meters":14800,"station_id":"ce4bhnp2rcd13ifvqgvg","pricing_plan_id":"cebpf4jnsgd1na2vs0mg"},{"bike_id":"562bbd76-53e8-4952-b5e4-fca8e70242cb","system_id":"levelo_inurba_marseille","lat":43.3079,"lon":5.43509,"is_reserved":false,"is_disabled":false,"rental_uris":{"android":"levelo://app?vid=562bbd76-53e8-4952-b5e4-fca8e70242cb","ios":"levelo://app?vid=562bbd76-53e8-4952-b5e4-fca8e70242cb"},"vehicle_type_id":"4","last_reported":1760180835,"current_range_meters":14800,"station_id":"ce4bhph2rcd13ifvqheg","pricing_plan_id":"cebpf4jnsgd1na2vs0mg"},{"bike_id":"8dc0c13a-1042-4c67-b7b2-fb8ee98dc388","system_id":"levelo_inurba_marseille","lat":43.21766,"lon":5.34588,"is_reserved":false,"is_disabled":false,"rental_uris":{"android":"levelo://app?vid=8dc0c13a-1042-4c67-b7b2-fb8ee98dc388","ios":"levelo://app?vid=8dc0c13a-1042-4c67-b7b2-fb8ee98dc388"},"vehicle_type_id":"4","last_reported":1760180835,"current_range_meters":14800,"station_id":"st_cvj6r9ubvosntc0bgbag","pricing_plan_id":"cebpf4jnsgd1na2vs0mg"},{"bike_id":"eb6eacbd-f0fc-4b7f-8ffb-8a556b5b91dc","system_id":"levelo_inurba_marseille","lat":43.2496,"lon":5.40497,"is_reserved":false,"is_disabled":false,"rental_uris":{"android":"levelo://app?vid=eb6eacbd-f0fc-4b7f-8ffb-8a556b5b91dc","ios":"levelo://app?vid=eb6eacbd-f0fc-4b7f-8ffb-8a556b5b91dc"},"vehicle_type_id":"4","last_reported":1760180835,"current_range_meters":14800,"station_id":"st_d2ngiaodas8pm72gd1h0","pricing_plan_id":"cebpf4jnsgd1na2vs0mg"},{"bike_id":"a5f2def1-e22a-4d3b-8f41-bfcd04df5af1","system_id":"levelo_inurba_marseille","lat":43.30633,"lon":5.40065,"is_reserved":false,"is_disabled":false,"rental_uris":{"android":"levelo://app?vid=a5f2def1-e22a-4d3b-8f41-bfcd04df5af1","ios":"levelo://app?vid=a5f2def1-e22a-4d3b-8f41-bfcd04df5af1"},"vehicle_type_id":"4","last_reported":1760180835,"current_range_meters":15200,"station_id":"ce4bh112rcd13ifvqda0","pricing_plan_id":"cebpf4jnsgd1na2vs0mg"},{"bike_id":"30bd0872-4a7a-4238-b145-b5b9792dc539","system_id":"levelo_inurba_marseille","lat":43.26201,"lon":5.37439,"is_reserved":false,"is_disabled":false,"rental_uris":{"android":"levelo://app?vid=30bd0872-4a7a-4238-b145-b5b9792dc539","ios":"levelo://app?vid=30bd0872-4a7a-4238-b145-b5b9792dc539"},"vehicle_type_id":"4","last_reported":1760180835,"current_range_meters":15200,"station_id":"ce4bhgp2rcd13ifvqfc0","pricing_plan_id":"cebpf4jnsgd1na2vs0mg"},{"bike_id":"1274341e-f484-48bd-95e5-e905ccbea7d0","system_id":"levelo_inurba_marseille","lat":43.28016,"lon":5.41656,"is_reserved":false,"is_disabled":false,"rental_uris":{"android":"levelo://app?vid=1274341e-f484-48bd-95e5-e905ccbea7d0","ios":"levelo://app?vid=1274341e-f484-48bd-95e5-e905ccbea7d0"},"vehicle_type_id":"4","last_reported":1760180835,"current_range_meters":15200,"station_id":"ce4bho12rcd13ifvqh1g","pricing_plan_id":"cebpf4jnsgd1na2vs0mg"},{"bike_id":"cf9a7045-2e0e-4595-a2a6-88f0ae55078e","system_id":"levelo_inurba_marseille","lat":43.33025,"lon":5.39042,"is_reserved":false,"is_disabled":false,"rental_uris":{"android":"levelo://app?vid=cf9a7045-2e0e-4595-a2a6-88f0ae55078e","ios":"levelo://app?vid=cf9a7045-2e0e-4595-a2a6-88f0ae55078e"},"vehicle_type_id":"4","last_reported":1760180835,"current_range_meters":15200,"station_id":"ce4bhr92rcd13ifvqhrg","pricing_plan_id":"cebpf4jnsgd1na2vs0mg"},{"bike_id":"78515990-e130-442f-89ff-0a6fd150a9e5","system_id":"levelo_inurba_marseille","lat":43.307312,"lon":5.424353,"is_reserved":false,"is_disabled":false,"rental_uris":{"android":"levelo://app?vid=78515990-e130-442f-89ff-0a6fd150a9e5","ios":"levelo://app?vid=78515990-e130-442f-89ff-0a6fd150a9e5"},"vehicle_type_id":"4","last_reported":1760180835,"current_range_meters":15200,"station_id":"st_cvj6ca6bvosntc0bfgr0","pricing_plan_id":"cebpf4jnsgd1na2vs0mg"},{"bike_id":"17c12004-9ed4-4b1f-b1bf-3cb4f120663b","system_id":"levelo_inurba_marseille","lat":43.22561,"lon":5.41623,"is_reserved":false,"is_disabled":false,"rental_uris":{"android":"levelo://app?vid=17c12004-9ed4-4b1f-b1bf-3cb4f120663b","ios":"levelo://app?vid=17c12004-9ed4-4b1f-b1bf-3cb4f120663b"},"vehicle_type_id":"4","last_reported":1760180835,"current_range_meters":15200,"station_id":"st_d2o4gvlbi1j2169b742g","pricing_plan_id":"cebpf4jnsgd1na2vs0mg"},{"bike_id":"bcda893d-2685-4b2a-903a-e735eca47a80","system_id":"levelo_inurba_marseille","lat":43.331331,"lon":5.354955,"is_reserved":false,"is_disabled":false,"rental_uris":{"android":"levelo://app?vid=bcda893d-2685-4b2a-903a-e735eca47a80","ios":"levelo://app?vid=bcda893d-2685-4b2a-903a-e735eca47a80"},"vehicle_type_id":"4","last_reported":1760180835,"current_range_meters":16000,"station_id":"","pricing_plan_id":"cebpf4jnsgd1na2vs0mg"},{"bike_id":"187cf0d8-0607-43fc-8eaa-6af12fda0dee","system_id":"levelo_inurba_marseille","lat":43.22428,"lon":5.34657,"is_reserved":false,"is_disabled":false,"rental_uris":{"android":"levelo://app?vid=187cf0d8-0607-43fc-8eaa-6af12fda0dee","ios":"levelo://app?vid=187cf0d8-0607-43fc-8eaa-6af12fda0dee"},"vehicle_type_id":"4","last_reported":1760180835,"current_range_meters":16000,"station_id":"","pricing_plan_id":"cebpf4jnsgd1na2vs0mg"},{"bike_id":"f643732a-737c-4023-9ce1-91073dd626a3","system_id":"levelo_inurba_marseille","lat":43.31598,"lon":5.38135,"is_reserved":false,"is_disabled":false,"rental_uris":{"android":"levelo://app?vid=f643732a-737c-4023-9ce1-91073dd626a3","ios":"levelo://app?vid=f643732a-737c-4023-9ce1-91073dd626a3"},"vehicle_type_id":"4","last_reported":1760180835,"current_range_meters":16000,"station_id":"","pricing_plan_id":"cebpf4jnsgd1na2vs0mg"},{"bike_id":"ac126244-2e00-4589-a00e-b9ffa772eb22","system_id":"levelo_inurba_marseille","lat":43.3114,"lon":5.39749,"is_reserved":false,"is_disabled":false,"rental_uris":{"android":"levelo://app?vid=ac126244-2e00-4589-a00e-b9ffa772eb22","ios":"levelo://app?vid=ac126244-2e00-4589-a00e-b9ffa772eb22"},"vehicle_type_id":"4","last_reported":1760180835,"current_range_meters":16000,"station_id":"","pricing_plan_id":"cebpf4jnsgd1na2vs0mg"},{"bike_id":"36852a13-f383-442f-9a01-f153febeeef2","system_id":"levelo_inurba_marseille","lat":43.30206,"lon":5.36873,"is_reserved":false,"is_disabled":false,"rental_uris":{"android":"levelo://app?vid=36852a13-f383-442f-9a01-f153febeeef2","ios":"levelo://app?vid=36852a13-f383-442f-9a01-f153febeeef2"},"vehicle_type_id":"4","last_reported":1760180835,"current_range_meters":16000,"station_id":"","pricing_plan_id":"cebpf4jnsgd1na2vs0mg"},{"bike_id":"a8a43107-1773-4185-9201-361e64054e27","system_id":"levelo_inurba_marseille","lat":43.29776,"lon":5.37112,"is_reserved":false,"is_disabled":false,"rental_uris":{"android":"levelo://app?vid=a8a43107-1773-4185-9201-361e64054e27","ios":"levelo://app?vid=a8a43107-1773-4185-9201-361e64054e27"},"vehicle_type_id":"4","last_reported":1760180835,"current_range_meters":16000,"station_id":"ce4bgop2rcd13ifvqc1g","pricing_plan_id":"cebpf4jnsgd1na2vs0mg"},{"bike_id":"4676db51-eee4-40c1-82f1-ec95bb6974d7","system_id":"levelo_inurba_marseille","lat":43.30312,"lon":5.36908,"is_reserved":false,"is_disabled":false,"rental_uris":{"android":"levelo://app?vid=4676db51-eee4-40c1-82f1-ec95bb6974d7","ios":"levelo://app?vid=4676db51-eee4-40c1-82f1-ec95bb6974d7"},"vehicle_type_id":"4","last_reported":1760180835,"current_range_meters":16000,"station_id":"ce4bgqh2rcd13ifvqc5g","pricing_plan_id":"cebpf4jnsgd1na2vs0mg"},{"bike_id":"143dbe51-ec92-4c6e-9547-40cf504e13bc","system_id":"levelo_inurba_marseille","lat":43.269562,"lon":5.386363,"is_reserved":false,"is_disabled":false,"rental_uris":{"android":"levelo://app?vid=143dbe51-ec92-4c6e-9547-40cf504e13bc","ios":"levelo://app?vid=143dbe51-ec92-4c6e-9547-40cf504e13bc"},"vehicle_type_id":"4","last_reported":1760180835,"current_range_meters":16000,"station_id":"ce4bhh92rcd13ifvqfh0","pricing_plan_id":"cebpf4jnsgd1na2vs0mg"},{"bike_id":"17ac1910-8f4c-4f41-9652-106c3fd0e95b","system_id":"levelo_inurba_marseille","lat":43.25084,"lon":5.39506,"is_reserved":false,"is_disabled":false,"rental_uris":{"android":"levelo://app?vid=17ac1910-8f4c-4f41-9652-106c3fd0e95b","ios":"levelo://app?vid=17ac1910-8f4c-4f41-9652-106c3fd0e95b"},"vehicle_type_id":"4","last_reported":1760180835,"current_range_meters":16000,"station_id":"ce4bhm12rcd13ifvqgkg","pricing_plan_id":"cebpf4jnsgd1na2vs0mg"},{"bike_id":"60cafd66-2df6-4806-9a58-f6839f09019a","system_id":"levelo_inurba_marseille","lat":43.27824,"lon":5.40716,"is_reserved":false,"is_disabled":false,"rental_uris":{"android":"levelo://app?vid=60cafd66-2df6-4806-9a58-f6839f09019a","ios":"levelo://app?vid=60cafd66-2df6-4806-9a58-f6839f09019a"},"vehicle_type_id":"4","last_reported":1760180835,"current_range_meters":16000,"station_id":"ce4bhnh2rcd13ifvqgtg","pricing_plan_id":"cebpf4jnsgd1na2vs0mg"},{"bike_id":"b6bb6b7a-5b62-4eea-bdcd-350fb33f76e6","system_id":"levelo_inurba_marseille","lat":43.231954,"lon":5.355559,"is_reserved":false,"is_disabled":false,"rental_uris":{"android":"levelo://app?vid=b6bb6b7a-5b62-4eea-bdcd-350fb33f76e6","ios":"levelo://app?vid=b6bb6b7a-5b62-4eea-bdcd-350fb33f76e6"},"vehicle_type_id":"4","last_reported":1760180835,"current_range_meters":16000,"station_id":"ce4bhu92rcd13ifvqi70","pricing_plan_id":"cebpf4jnsgd1na2vs0mg"},{"bike_id":"338d22d1-d917-41b0-bd23-0264004b2593","system_id":"levelo_inurba_marseille","lat":43.22575,"lon":5.41627,"is_reserved":false,"is_disabled":false,"rental_uris":{"android":"levelo://app?vid=338d22d1-d917-41b0-bd23-0264004b2593","ios":"levelo://app?vid=338d22d1-d917-41b0-bd23-0264004b2593"},"vehicle_type_id":"4","last_reported":1760180835,"current_range_meters":16000,"station_id":"st_d2o4gvlbi1j2169b742g","pricing_plan_id":"cebpf4jnsgd1na2vs0mg"},{"bike_id":"daca0046-00af-4c3d-97a3-9a04d8ad7588","system_id":"levelo_inurba_marseille","lat":43.22556,"lon":5.41645,"is_reserved":false,"is_disabled":false,"rental_uris":{"android":"levelo://app?vid=daca0046-00af-4c3d-97a3-9a04d8ad7588","ios":"levelo://app?vid=daca0046-00af-4c3d-97a3-9a04d8ad7588"},"vehicle_type_id":"4","last_reported":1760180835,"current_range_meters":16000,"station_id":"st_d2o4gvlbi1j2169b742g","pricing_plan_id":"cebpf4jnsgd1na2vs0mg"},{"bike_id":"2d47de9e-e33d-477c-8917-7d91ac05947a","system_id":"levelo_inurba_marseille","lat":43.29711,"lon":5.39824,"is_reserved":false,"is_disabled":false,"rental_uris":{"android":"levelo://app?vid=2d47de9e-e33d-477c-8917-7d91ac05947a","ios":"levelo://app?vid=2d47de9e-e33d-477c-8917-7d91ac05947a"},"vehicle_type_id":"4","last_reported":1760180835,"current_range_meters":16400,"station_id":"","pricing_plan_id":"cebpf4jnsgd1na2vs0mg"},{"bike_id":"b78fc6de-8c66-40b1-bc7e-1794eacc6804","system_id":"levelo_inurba_marseille","lat":43.2814,"lon":5.35029,"is_reserved":false,"is_disabled":false,"rental_uris":{"android":"levelo://app?vid=b78fc6de-8c66-40b1-bc7e-1794eacc6804","ios":"levelo://app?vid=b78fc6de-8c66-40b1-bc7e-1794eacc6804"},"vehicle_type_id":"4","last_reported":1760180835,"current_range_meters":16400,"station_id":"","pricing_plan_id":"cebpf4jnsgd1na2vs0mg"},{"bike_id":"945f997d-95f5-4d2a-a32c-e6f1ed41af6d","system_id":"levelo_inurba_marseille","lat":43.29309,"lon":5.37172,"is_reserved":false,"is_disabled":false,"rental_uris":{"android":"levelo://app?vid=945f997d-95f5-4d2a-a32c-e6f1ed41af6d","ios":"levelo://app?vid=945f997d-95f5-4d2a-a32c-e6f1ed41af6d"},"vehicle_type_id":"4","last_reported":1760180835,"current_range_meters":16400,"station_id":"ce4bgh92rcd13ifvqb40","pricing_plan_id":"cebpf4jnsgd1na2vs0mg"},{"bike_id":"0f8699bd-9713-41f8-8bc8-56e35248fba0","system_id":"levelo_inurba_marseille","lat":43.29977,"lon":5.37178,"is_reserved":false,"is_disabled":false,"rental_uris":{"android":"levelo://app?vid=0f8699bd-9713-41f8-8bc8-56e35248fba0","ios":"levelo://app?vid=0f8699bd-9713-41f8-8bc8-56e35248fba0"},"vehicle_type_id":"4","last_reported":1760180835,"current_range_meters":16400,"station_id":"ce4bgr92rcd13ifvqc7g","pricing_plan_id":"cebpf4jnsgd1na2vs0mg"},{"bike_id":"5e4756f6-aa2e-4e9c-8d81-bf49120a4145","system_id":"levelo_inurba_marseille","lat":43.28411,"lon":5.34976,"is_reserved":false,"is_disabled":false,"rental_uris":{"android":"levelo://app?vid=5e4756f6-aa2e-4e9c-8d81-bf49120a4145","ios":"levelo://app?vid=5e4756f6-aa2e-4e9c-8d81-bf49120a4145"},"vehicle_type_id":"4","last_reported":1760180835,"current_range_meters":16400,"station_id":"ce4bhbh2rcd13ifvqepg","pricing_plan_id":"cebpf4jnsgd1na2vs0mg"},{"bike_id":"e8e54944-0093-4280-bc0c-640f1032a20a","system_id":"levelo_inurba_marseille","lat":43.2842,"lon":5.34974,"is_reserved":false,"is_disabled":false,"rental_uris":{"android":"levelo://app?vid=e8e54944-0093-4280-bc0c-640f1032a20a","ios":"levelo://app?vid=e8e54944-0093-4280-bc0c-640f1032a20a"},"vehicle_type_id":"4","last_reported":1760180835,"current_range_meters":16400,"station_id":"ce4bhbh2rcd13ifvqepg","pricing_plan_id":"cebpf4jnsgd1na2vs0mg"},{"bike_id":"973dd606-5312-49e8-94f8-582c33c97a41","system_id":"levelo_inurba_marseille","lat":43.2416,"lon":5.36397,"is_reserved":false,"is_disabled":false,"rental_uris":{"android":"levelo://app?vid=973dd606-5312-49e8-94f8-582c33c97a41","ios":"levelo://app?vid=973dd606-5312-49e8-94f8-582c33c97a41"},"vehicle_type_id":"4","last_reported":1760180835,"current_range_meters":16400,"station_id":"cpo36qri1sfpv3e86is0","pricing_plan_id":"cebpf4jnsgd1na2vs0mg"},{"bike_id":"bf3e6031-a4b5-4d11-9089-ea468e967475","system_id":"levelo_inurba_marseille","lat":43.24176,"lon":5.36393,"is_reserved":false,"is_disabled":false,"rental_uris":{"android":"levelo://app?vid=bf3e6031-a4b5-4d11-9089-ea468e967475","ios":"levelo://app?vid=bf3e6031-a4b5-4d11-9089-ea468e967475"},"vehicle_type_id":"4","last_reported":1760180835,"current_range_meters":16400,"station_id":"cpo36qri1sfpv3e86is0","pricing_plan_id":"cebpf4jnsgd1na2vs0mg"},{"bike_id":"0d125caf-5238-4006-bbc8-77c21e114e38","system_id":"levelo_inurba_marseille","lat":43.24167,"lon":5.36392,"is_reserved":false,"is_disabled":false,"rental_uris":{"android":"levelo://app?vid=0d125caf-5238-4006-bbc8-77c21e114e38","ios":"levelo://app?vid=0d125caf-5238-4006-bbc8-77c21e114e38"},"vehicle_type_id":"4","last_reported":1760180835,"current_range_meters":16400,"station_id":"cpo36qri1sfpv3e86is0","pricing_plan_id":"cebpf4jnsgd1na2vs0mg"},{"bike_id":"4834a710-f242-4b0f-9ef7-9d6d9f7a4b7b","system_id":"levelo_inurba_marseille","lat":43.22566,"lon":5.41635,"is_reserved":false,"is_disabled":false,"rental_uris":{"android":"levelo://app?vid=4834a710-f242-4b0f-9ef7-9d6d9f7a4b7b","ios":"levelo://app?vid=4834a710-f242-4b0f-9ef7-9d6d9f7a4b7b"},"vehicle_type_id":"4","last_reported":1760180835,"current_range_meters":16400,"station_id":"st_d2o4gvlbi1j2169b742g","pricing_plan_id":"cebpf4jnsgd1na2vs0mg"},{"bike_id":"83aa4d7c-ae46-403a-83c1-02f8b0f67b45","system_id":"levelo_inurba_marseille","lat":43.28427,"lon":5.37511,"is_reserved":false,"is_disabled":false,"rental_uris":{"android":"levelo://app?vid=83aa4d7c-ae46-403a-83c1-02f8b0f67b45","ios":"levelo://app?vid=83aa4d7c-ae46-403a-83c1-02f8b0f67b45"},"vehicle_type_id":"4","last_reported":1760180835,"current_range_meters":16800,"station_id":"ce4bh412rcd13ifvqds0","pricing_plan_id":"cebpf4jnsgd1na2vs0mg"},{"bike_id":"0dc1a523-a7ce-4244-a767-f166379951ea","system_id":"levelo_inurba_marseille","lat":43.28716,"lon":5.37937,"is_reserved":false,"is_disabled":false,"rental_uris":{"android":"levelo://app?vid=0dc1a523-a7ce-4244-a767-f166379951ea","ios":"levelo://app?vid=0dc1a523-a7ce-4244-a767-f166379951ea"},"vehicle_type_id":"4","last_reported":1760180835,"current_range_meters":16800,"station_id":"ce4bh9p2rcd13ifvqec0","pricing_plan_id":"cebpf4jnsgd1na2vs0mg"},{"bike_id":"b9412d5e-4596-49df-a7b8-ad00a32fdc02","system_id":"levelo_inurba_marseille","lat":43.262124,"lon":5.374438,"is_reserved":false,"is_disabled":false,"rental_uris":{"android":"levelo://app?vid=b9412d5e-4596-49df-a7b8-ad00a32fdc02","ios":"levelo://app?vid=b9412d5e-4596-49df-a7b8-ad00a32fdc02"},"vehicle_type_id":"4","last_reported":1760180835,"current_range_meters":16800,"station_id":"ce4bhgp2rcd13ifvqfc0","pricing_plan_id":"cebpf4jnsgd1na2vs0mg"},{"bike_id":"50cd598d-628a-42c2-9d23-726286698347","system_id":"levelo_inurba_marseille","lat":43.265,"lon":5.39536,"is_reserved":false,"is_disabled":false,"rental_uris":{"android":"levelo://app?vid=50cd598d-628a-42c2-9d23-726286698347","ios":"levelo://app?vid=50cd598d-628a-42c2-9d23-726286698347"},"vehicle_type_id":"4","last_reported":1760180835,"current_range_meters":16800,"station_id":"ce4bhi12rcd13ifvqfq0","pricing_plan_id":"cebpf4jnsgd1na2vs0mg"},{"bike_id":"33f89483-ce28-4491-a3c7-f0cdbc13e3ff","system_id":"levelo_inurba_marseille","lat":43.26491,"lon":5.39532,"is_reserved":false,"is_disabled":false,"rental_uris":{"android":"levelo://app?vid=33f89483-ce28-4491-a3c7-f0cdbc13e3ff","ios":"levelo://app?vid=33f89483-ce28-4491-a3c7-f0cdbc13e3ff"},"vehicle_type_id":"4","last_reported":1760180835,"current_range_meters":16800,"station_id":"ce4bhi12rcd13ifvqfq0","pricing_plan_id":"cebpf4jnsgd1na2vs0mg"},{"bike_id":"393e5e65-1fab-41b4-ae23-b11a40d0e76c","system_id":"levelo_inurba_marseille","lat":43.26202,"lon":5.37927,"is_reserved":false,"is_disabled":false,"rental_uris":{"android":"levelo://app?vid=393e5e65-1fab-41b4-ae23-b11a40d0e76c","ios":"levelo://app?vid=393e5e65-1fab-41b4-ae23-b11a40d0e76c"},"vehicle_type_id":"4","last_reported":1760180835,"current_range_meters":16800,"station_id":"ce4bhjp2rcd13ifvqg90","pricing_plan_id":"cebpf4jnsgd1na2vs0mg"},{"bike_id":"83e214c2-0ada-4351-8a27-d8d9e569d46f","system_id":"levelo_inurba_marseille","lat":43.24168,"lon":5.36381,"is_reserved":false,"is_disabled":false,"rental_uris":{"android":"levelo://app?vid=83e214c2-0ada-4351-8a27-d8d9e569d46f","ios":"levelo://app?vid=83e214c2-0ada-4351-8a27-d8d9e569d46f"},"vehicle_type_id":"4","last_reported":1760180835,"current_range_meters":16800,"station_id":"cpo36qri1sfpv3e86is0","pricing_plan_id":"cebpf4jnsgd1na2vs0mg"},{"bike_id":"6656c734-8332-4f94-98f0-47ce6a54afab","system_id":"levelo_inurba_marseille","lat":43.21748,"lon":5.34602,"is_reserved":false,"is_disabled":false,"rental_uris":{"android":"levelo://app?vid=6656c734-8332-4f94-98f0-47ce6a54afab","ios":"levelo://app?vid=6656c734-8332-4f94-98f0-47ce6a54afab"},"vehicle_type_id":"4","last_reported":1760180835,"current_range_meters":16800,"station_id":"st_cvj6r9ubvosntc0bgbag","pricing_plan_id":"cebpf4jnsgd1na2vs0mg"},{"bike_id":"db1be243-5c81-433e-ba75-7fd64fb3f572","system_id":"levelo_inurba_marseille","lat":43.29552,"lon":5.37531,"is_reserved":false,"is_disabled":false,"rental_uris":{"android":"levelo://app?vid=db1be243-5c81-433e-ba75-7fd64fb3f572","ios":"levelo://app?vid=db1be243-5c81-433e-ba75-7fd64fb3f572"},"vehicle_type_id":"4","last_reported":1760180835,"current_range_meters":17200,"station_id":"ce4bgh92rcd13ifvqb50","pricing_plan_id":"cebpf4jnsgd1na2vs0mg"},{"bike_id":"63438911-9e20-4de0-8959-5d119ced76c6","system_id":"levelo_inurba_marseille","lat":43.280798,"lon":5.396602,"is_reserved":false,"is_disabled":false,"rental_uris":{"android":"levelo://app?vid=63438911-9e20-4de0-8959-5d119ced76c6","ios":"levelo://app?vid=63438911-9e20-4de0-8959-5d119ced76c6"},"vehicle_type_id":"4","last_reported":1760180835,"current_range_meters":17200,"station_id":"ce4bho12rcd13ifvqh2g","pricing_plan_id":"cebpf4jnsgd1na2vs0mg"},{"bike_id":"a6ca21c5-ccde-4547-856c-b2770da367df","system_id":"levelo_inurba_marseille","lat":43.21757,"lon":5.34601,"is_reserved":false,"is_disabled":false,"rental_uris":{"android":"levelo://app?vid=a6ca21c5-ccde-4547-856c-b2770da367df","ios":"levelo://app?vid=a6ca21c5-ccde-4547-856c-b2770da367df"},"vehicle_type_id":"4","last_reported":1760180835,"current_range_meters":17200,"station_id":"st_cvj6r9ubvosntc0bgbag","pricing_plan_id":"cebpf4jnsgd1na2vs0mg"},{"bike_id":"db3185ee-7676-4a75-a3ad-fa94ee02a092","system_id":"levelo_inurba_marseille","lat":43.21192,"lon":5.35078,"is_reserved":false,"is_disabled":false,"rental_uris":{"android":"levelo://app?vid=db3185ee-7676-4a75-a3ad-fa94ee02a092","ios":"levelo://app?vid=db3185ee-7676-4a75-a3ad-fa94ee02a092"},"vehicle_type_id":"4","last_reported":1760180835,"current_range_meters":17200,"station_id":"st_cvj6sg6p6f1abm77japg","pricing_plan_id":"cebpf4jnsgd1na2vs0mg"},{"bike_id":"90a7399f-67eb-4ed6-8265-2126a88abadc","system_id":"levelo_inurba_marseille","lat":43.22566,"lon":5.41615,"is_reserved":false,"is_disabled":false,"rental_uris":{"android":"levelo://app?vid=90a7399f-67eb-4ed6-8265-2126a88abadc","ios":"levelo://app?vid=90a7399f-67eb-4ed6-8265-2126a88abadc"},"vehicle_type_id":"4","last_reported":1760180835,"current_range_meters":17200,"station_id":"st_d2o4gvlbi1j2169b742g","pricing_plan_id":"cebpf4jnsgd1na2vs0mg"},{"bike_id":"a10dabe4-e9de-4ff3-9dc9-8a21e2d7ddb0","system_id":"levelo_inurba_marseille","lat":43.21192,"lon":5.350707,"is_reserved":false,"is_disabled":false,"rental_uris":{"android":"levelo://app?vid=a10dabe4-e9de-4ff3-9dc9-8a21e2d7ddb0","ios":"levelo://app?vid=a10dabe4-e9de-4ff3-9dc9-8a21e2d7ddb0"},"vehicle_type_id":"4","last_reported":1760180835,"current_range_meters":17600,"station_id":"","pricing_plan_id":"cebpf4jnsgd1na2vs0mg"},{"bike_id":"8ad06483-fb48-4920-8462-9a7c64cc1e7d","system_id":"levelo_inurba_marseille","lat":43.29266,"lon":5.38451,"is_reserved":false,"is_disabled":false,"rental_uris":{"android":"levelo://app?vid=8ad06483-fb48-4920-8462-9a7c64cc1e7d","ios":"levelo://app?vid=8ad06483-fb48-4920-8462-9a7c64cc1e7d"},"vehicle_type_id":"4","last_reported":1760180835,"current_range_meters":17600,"station_id":"ce4bh692rcd13ifvqea0","pricing_plan_id":"cebpf4jnsgd1na2vs0mg"},{"bike_id":"4dd08bc7-3257-460c-bb89-edc9b57dc12a","system_id":"levelo_inurba_marseille","lat":43.232,"lon":5.39964,"is_reserved":false,"is_disabled":false,"rental_uris":{"android":"levelo://app?vid=4dd08bc7-3257-460c-bb89-edc9b57dc12a","ios":"levelo://app?vid=4dd08bc7-3257-460c-bb89-edc9b57dc12a"},"vehicle_type_id":"4","last_reported":1760180835,"current_range_meters":17600,"station_id":"ce4bhn12rcd13ifvqgqg","pricing_plan_id":"cebpf4jnsgd1na2vs0mg"},{"bike_id":"fecedf8e-e76a-462a-89b1-b16abd90f988","system_id":"levelo_inurba_marseille","lat":43.23058,"lon":5.35499,"is_reserved":false,"is_disabled":false,"rental_uris":{"android":"levelo://app?vid=fecedf8e-e76a-462a-89b1-b16abd90f988","ios":"levelo://app?vid=fecedf8e-e76a-462a-89b1-b16abd90f988"},"vehicle_type_id":"4","last_reported":1760180835,"current_range_meters":17600,"station_id":"cpo3342slgdg3j2ifvpg","pricing_plan_id":"cebpf4jnsgd1na2vs0mg"},{"bike_id":"3dcccb75-57e8-423b-80ec-05e025c20142","system_id":"levelo_inurba_marseille","lat":43.290643,"lon":5.371661,"is_reserved":false,"is_disabled":false,"rental_uris":{"android":"levelo://app?vid=3dcccb75-57e8-423b-80ec-05e025c20142","ios":"levelo://app?vid=3dcccb75-57e8-423b-80ec-05e025c20142"},"vehicle_type_id":"4","last_reported":1760180835,"current_range_meters":18000,"station_id":"ce4bh5p2rcd13ifvqe4g","pricing_plan_id":"cebpf4jnsgd1na2vs0mg"},{"bike_id":"9dbaa273-2399-4cad-b2b7-7d4ccebadd72","system_id":"levelo_inurba_marseille","lat":43.28129,"lon":5.37854,"is_reserved":false,"is_disabled":false,"rental_uris":{"android":"levelo://app?vid=9dbaa273-2399-4cad-b2b7-7d4ccebadd72","ios":"levelo://app?vid=9dbaa273-2399-4cad-b2b7-7d4ccebadd72"},"vehicle_type_id":"4","last_reported":1760180835,"current_range_meters":18000,"station_id":"ce4bha12rcd13ifvqee0","pricing_plan_id":"cebpf4jnsgd1na2vs0mg"},{"bike_id":"87a2afbe-65eb-4f71-b21e-40efbb59899e","system_id":"levelo_inurba_marseille","lat":43.27921,"lon":5.39579,"is_reserved":false,"is_disabled":false,"rental_uris":{"android":"levelo://app?vid=87a2afbe-65eb-4f71-b21e-40efbb59899e","ios":"levelo://app?vid=87a2afbe-65eb-4f71-b21e-40efbb59899e"},"vehicle_type_id":"4","last_reported":1760180835,"current_range_meters":18000,"station_id":"ce4bhf92rcd13ifvqf40","pricing_plan_id":"cebpf4jnsgd1na2vs0mg"},{"bike_id":"04668c52-726a-4efe-9098-8286aa053717","system_id":"levelo_inurba_marseille","lat":43.245905,"lon":5.388564,"is_reserved":false,"is_disabled":false,"rental_uris":{"android":"levelo://app?vid=04668c52-726a-4efe-9098-8286aa053717","ios":"levelo://app?vid=04668c52-726a-4efe-9098-8286aa053717"},"vehicle_type_id":"4","last_reported":1760180835,"current_range_meters":18000,"station_id":"ce4bhg12rcd13ifvqf60","pricing_plan_id":"cebpf4jnsgd1na2vs0mg"},{"bike_id":"76ffcb17-b041-4d98-97a1-496509574e4f","system_id":"levelo_inurba_marseille","lat":43.27842,"lon":5.39212,"is_reserved":false,"is_disabled":false,"rental_uris":{"android":"levelo://app?vid=76ffcb17-b041-4d98-97a1-496509574e4f","ios":"levelo://app?vid=76ffcb17-b041-4d98-97a1-496509574e4f"},"vehicle_type_id":"4","last_reported":1760180835,"current_range_meters":18000,"station_id":"ce4bhjp2rcd13ifvqga0","pricing_plan_id":"cebpf4jnsgd1na2vs0mg"},{"bike_id":"0ffd122f-923e-40e7-8fd0-2821cbadf821","system_id":"levelo_inurba_marseille","lat":43.23056,"lon":5.35491,"is_reserved":false,"is_disabled":false,"rental_uris":{"android":"levelo://app?vid=0ffd122f-923e-40e7-8fd0-2821cbadf821","ios":"levelo://app?vid=0ffd122f-923e-40e7-8fd0-2821cbadf821"},"vehicle_type_id":"4","last_reported":1760180835,"current_range_meters":18000,"station_id":"cpo3342slgdg3j2ifvpg","pricing_plan_id":"cebpf4jnsgd1na2vs0mg"},{"bike_id":"7fe79bea-5e42-4119-bb05-688b3bf3270d","system_id":"levelo_inurba_marseille","lat":43.22525,"lon":5.41564,"is_reserved":false,"is_disabled":false,"rental_uris":{"android":"levelo://app?vid=7fe79bea-5e42-4119-bb05-688b3bf3270d","ios":"levelo://app?vid=7fe79bea-5e42-4119-bb05-688b3bf3270d"},"vehicle_type_id":"4","last_reported":1760180835,"current_range_meters":18800,"station_id":"","pricing_plan_id":"cebpf4jnsgd1na2vs0mg"},{"bike_id":"b10d96bd-cfc0-4f48-ab6e-c4c72ef0cbc3","system_id":"levelo_inurba_marseille","lat":43.29731,"lon":5.3709,"is_reserved":false,"is_disabled":false,"rental_uris":{"android":"levelo://app?vid=b10d96bd-cfc0-4f48-ab6e-c4c72ef0cbc3","ios":"levelo://app?vid=b10d96bd-cfc0-4f48-ab6e-c4c72ef0cbc3"},"vehicle_type_id":"4","last_reported":1760180835,"current_range_meters":18800,"station_id":"","pricing_plan_id":"cebpf4jnsgd1na2vs0mg"},{"bike_id":"0720f871-5266-450b-85ff-6ca0722de6d0","system_id":"levelo_inurba_marseille","lat":43.27619,"lon":5.36124,"is_reserved":false,"is_disabled":false,"rental_uris":{"android":"levelo://app?vid=0720f871-5266-450b-85ff-6ca0722de6d0","ios":"levelo://app?vid=0720f871-5266-450b-85ff-6ca0722de6d0"},"vehicle_type_id":"4","last_reported":1760180835,"current_range_meters":18800,"station_id":"ce4bgj92rcd13ifvqbe0","pricing_plan_id":"cebpf4jnsgd1na2vs0mg"},{"bike_id":"889ff6cd-1f4a-444c-8cdd-e5c07000866a","system_id":"levelo_inurba_marseille","lat":43.23931,"lon":5.36636,"is_reserved":false,"is_disabled":false,"rental_uris":{"android":"levelo://app?vid=889ff6cd-1f4a-444c-8cdd-e5c07000866a","ios":"levelo://app?vid=889ff6cd-1f4a-444c-8cdd-e5c07000866a"},"vehicle_type_id":"4","last_reported":1760180835,"current_range_meters":18800,"station_id":"ce4bhi12rcd13ifvqfp0","pricing_plan_id":"cebpf4jnsgd1na2vs0mg"},{"bike_id":"8ce263e4-194a-4012-96d5-d6eec0f65350","system_id":"levelo_inurba_marseille","lat":43.24184,"lon":5.39721,"is_reserved":false,"is_disabled":false,"rental_uris":{"android":"levelo://app?vid=8ce263e4-194a-4012-96d5-d6eec0f65350","ios":"levelo://app?vid=8ce263e4-194a-4012-96d5-d6eec0f65350"},"vehicle_type_id":"4","last_reported":1760180835,"current_range_meters":18800,"station_id":"ce4bhn12rcd13ifvqgpg","pricing_plan_id":"cebpf4jnsgd1na2vs0mg"},{"bike_id":"1bc064ab-06d7-4109-bc07-a0da0d4defc1","system_id":"levelo_inurba_marseille","lat":43.2319,"lon":5.35562,"is_reserved":false,"is_disabled":false,"rental_uris":{"android":"levelo://app?vid=1bc064ab-06d7-4109-bc07-a0da0d4defc1","ios":"levelo://app?vid=1bc064ab-06d7-4109-bc07-a0da0d4defc1"},"vehicle_type_id":"4","last_reported":1760180835,"current_range_meters":18800,"station_id":"ce4bhu92rcd13ifvqi70","pricing_plan_id":"cebpf4jnsgd1na2vs0mg"},{"bike_id":"fdfd3e92-648a-4e18-90a3-57873823c41b","system_id":"levelo_inurba_marseille","lat":43.337444,"lon":5.374475,"is_reserved":false,"is_disabled":false,"rental_uris":{"android":"levelo://app?vid=fdfd3e92-648a-4e18-90a3-57873823c41b","ios":"levelo://app?vid=fdfd3e92-648a-4e18-90a3-57873823c41b"},"vehicle_type_id":"4","last_reported":1760180835,"current_range_meters":19200,"station_id":"","pricing_plan_id":"cebpf4jnsgd1na2vs0mg"},{"bike_id":"51805f5a-5bc5-45b3-8832-dd48f6a3c039","system_id":"levelo_inurba_marseille","lat":43.304709,"lon":5.424565,"is_reserved":false,"is_disabled":false,"rental_uris":{"android":"levelo://app?vid=51805f5a-5bc5-45b3-8832-dd48f6a3c039","ios":"levelo://app?vid=51805f5a-5bc5-45b3-8832-dd48f6a3c039"},"vehicle_type_id":"4","last_reported":1760180835,"current_range_meters":19200,"station_id":"ce4bghh2rcd13ifvqb60","pricing_plan_id":"cebpf4jnsgd1na2vs0mg"},{"bike_id":"768c3db8-1752-48fc-9a1b-3398762b6b8b","system_id":"levelo_inurba_marseille","lat":43.26676,"lon":5.38261,"is_reserved":false,"is_disabled":false,"rental_uris":{"android":"levelo://app?vid=768c3db8-1752-48fc-9a1b-3398762b6b8b","ios":"levelo://app?vid=768c3db8-1752-48fc-9a1b-3398762b6b8b"},"vehicle_type_id":"4","last_reported":1760180835,"current_range_meters":19200,"station_id":"ce4bhg92rcd13ifvqf90","pricing_plan_id":"cebpf4jnsgd1na2vs0mg"},{"bike_id":"6c5a429e-2fb0-4498-85e6-dafb87c6aab7","system_id":"levelo_inurba_marseille","lat":43.27838,"lon":5.40726,"is_reserved":false,"is_disabled":false,"rental_uris":{"android":"levelo://app?vid=6c5a429e-2fb0-4498-85e6-dafb87c6aab7","ios":"levelo://app?vid=6c5a429e-2fb0-4498-85e6-dafb87c6aab7"},"vehicle_type_id":"4","last_reported":1760180835,"current_range_meters":19200,"station_id":"ce4bhnh2rcd13ifvqgtg","pricing_plan_id":"cebpf4jnsgd1na2vs0mg"},{"bike_id":"ebd107eb-d4fa-4d54-9edb-261ffd572ca7","system_id":"levelo_inurba_marseille","lat":43.31725,"lon":5.43692,"is_reserved":false,"is_disabled":false,"rental_uris":{"android":"levelo://app?vid=ebd107eb-d4fa-4d54-9edb-261ffd572ca7","ios":"levelo://app?vid=ebd107eb-d4fa-4d54-9edb-261ffd572ca7"},"vehicle_type_id":"4","last_reported":1760180835,"current_range_meters":19200,"station_id":"ce4bhp92rcd13ifvqhcg","pricing_plan_id":"cebpf4jnsgd1na2vs0mg"},{"bike_id":"f634972c-54b9-440c-b32d-64886def538a","system_id":"levelo_inurba_marseille","lat":43.28613,"lon":5.37065,"is_reserved":false,"is_disabled":false,"rental_uris":{"android":"levelo://app?vid=f634972c-54b9-440c-b32d-64886def538a","ios":"levelo://app?vid=f634972c-54b9-440c-b32d-64886def538a"},"vehicle_type_id":"4","last_reported":1760180835,"current_range_meters":19200,"station_id":"ce4bht12rcd13ifvqi60","pricing_plan_id":"cebpf4jnsgd1na2vs0mg"},{"bike_id":"c6307a71-646f-4c5a-9084-fa2f86ef2fb1","system_id":"levelo_inurba_marseille","lat":43.231939,"lon":5.355457,"is_reserved":false,"is_disabled":false,"rental_uris":{"android":"levelo://app?vid=c6307a71-646f-4c5a-9084-fa2f86ef2fb1","ios":"levelo://app?vid=c6307a71-646f-4c5a-9084-fa2f86ef2fb1"},"vehicle_type_id":"4","last_reported":1760180835,"current_range_meters":19200,"station_id":"ce4bhu92rcd13ifvqi70","pricing_plan_id":"cebpf4jnsgd1na2vs0mg"},{"bike_id":"56289274-c23d-4408-a122-c1134feb5480","system_id":"levelo_inurba_marseille","lat":43.23065,"lon":5.35487,"is_reserved":false,"is_disabled":false,"rental_uris":{"android":"levelo://app?vid=56289274-c23d-4408-a122-c1134feb5480","ios":"levelo://app?vid=56289274-c23d-4408-a122-c1134feb5480"},"vehicle_type_id":"4","last_reported":1760180835,"current_range_meters":19200,"station_id":"cpo3342slgdg3j2ifvpg","pricing_plan_id":"cebpf4jnsgd1na2vs0mg"},{"bike_id":"9c69fd14-334e-4a2e-ba75-aae7dcf065a3","system_id":"levelo_inurba_marseille","lat":43.217445,"lon":5.346016,"is_reserved":false,"is_disabled":false,"rental_uris":{"android":"levelo://app?vid=9c69fd14-334e-4a2e-ba75-aae7dcf065a3","ios":"levelo://app?vid=9c69fd14-334e-4a2e-ba75-aae7dcf065a3"},"vehicle_type_id":"4","last_reported":1760180835,"current_range_meters":19200,"station_id":"st_cvj6r9ubvosntc0bgbag","pricing_plan_id":"cebpf4jnsgd1na2vs0mg"},{"bike_id":"d92171e9-1c49-4e2c-a013-b2eab3f1250b","system_id":"levelo_inurba_marseille","lat":43.30143,"lon":5.38097,"is_reserved":false,"is_disabled":false,"rental_uris":{"android":"levelo://app?vid=d92171e9-1c49-4e2c-a013-b2eab3f1250b","ios":"levelo://app?vid=d92171e9-1c49-4e2c-a013-b2eab3f1250b"},"vehicle_type_id":"4","last_reported":1760180835,"current_range_meters":19600,"station_id":"ce4bgjp2rcd13ifvqbh0","pricing_plan_id":"cebpf4jnsgd1na2vs0mg"},{"bike_id":"84cbc5ae-2181-4929-a7d9-f8d9a2cb0b38","system_id":"levelo_inurba_marseille","lat":43.21751,"lon":5.34617,"is_reserved":false,"is_disabled":false,"rental_uris":{"android":"levelo://app?vid=84cbc5ae-2181-4929-a7d9-f8d9a2cb0b38","ios":"levelo://app?vid=84cbc5ae-2181-4929-a7d9-f8d9a2cb0b38"},"vehicle_type_id":"4","last_reported":1760180835,"current_range_meters":19600,"station_id":"st_cvj6r9ubvosntc0bgbag","pricing_plan_id":"cebpf4jnsgd1na2vs0mg"},{"bike_id":"801f1623-a60a-4c10-b1c1-9671df6e3bf7","system_id":"levelo_inurba_marseille","lat":43.30427,"lon":5.36848,"is_reserved":false,"is_disabled":false,"rental_uris":{"android":"levelo://app?vid=801f1623-a60a-4c10-b1c1-9671df6e3bf7","ios":"levelo://app?vid=801f1623-a60a-4c10-b1c1-9671df6e3bf7"},"vehicle_type_id":"4","last_reported":1760180835,"current_range_meters":20000,"station_id":"","pricing_plan_id":"cebpf4jnsgd1na2vs0mg"},{"bike_id":"e2a12d35-af1f-4000-92a8-ad3c0c88a32b","system_id":"levelo_inurba_marseille","lat":43.23199,"lon":5.35554,"is_reserved":false,"is_disabled":false,"rental_uris":{"android":"levelo://app?vid=e2a12d35-af1f-4000-92a8-ad3c0c88a32b","ios":"levelo://app?vid=e2a12d35-af1f-4000-92a8-ad3c0c88a32b"},"vehicle_type_id":"4","last_reported":1760180835,"current_range_meters":20000,"station_id":"ce4bhu92rcd13ifvqi70","pricing_plan_id":"cebpf4jnsgd1na2vs0mg"},{"bike_id":"cf0c65d1-be92-470e-aadb-83fc3474b512","system_id":"levelo_inurba_marseille","lat":43.229282,"lon":5.353771,"is_reserved":false,"is_disabled":false,"rental_uris":{"android":"levelo://app?vid=cf0c65d1-be92-470e-aadb-83fc3474b512","ios":"levelo://app?vid=cf0c65d1-be92-470e-aadb-83fc3474b512"},"vehicle_type_id":"4","last_reported":1760180835,"current_range_meters":20000,"station_id":"cpo3532slgdg3j2ikp40","pricing_plan_id":"cebpf4jnsgd1na2vs0mg"},{"bike_id":"13f9490e-bc33-45ed-a154-6ffc59321597","system_id":"levelo_inurba_marseille","lat":43.24167,"lon":5.36399,"is_reserved":false,"is_disabled":false,"rental_uris":{"android":"levelo://app?vid=13f9490e-bc33-45ed-a154-6ffc59321597","ios":"levelo://app?vid=13f9490e-bc33-45ed-a154-6ffc59321597"},"vehicle_type_id":"4","last_reported":1760180835,"current_range_meters":20000,"station_id":"cpo36qri1sfpv3e86is0","pricing_plan_id":"cebpf4jnsgd1na2vs0mg"},{"bike_id":"7623a8e4-1214-4d44-ab03-05342b2232b2","system_id":"levelo_inurba_marseille","lat":43.28256,"lon":5.35041,"is_reserved":false,"is_disabled":false,"rental_uris":{"android":"levelo://app?vid=7623a8e4-1214-4d44-ab03-05342b2232b2","ios":"levelo://app?vid=7623a8e4-1214-4d44-ab03-05342b2232b2"},"vehicle_type_id":"4","last_reported":1760180835,"current_range_meters":20400,"station_id":"ce4bhbp2rcd13ifvqerg","pricing_plan_id":"cebpf4jnsgd1na2vs0mg"},{"bike_id":"b8208e14-2d0a-4fc6-bc6c-b5ffa7529122","system_id":"levelo_inurba_marseille","lat":43.25501,"lon":5.3765,"is_reserved":false,"is_disabled":false,"rental_uris":{"android":"levelo://app?vid=b8208e14-2d0a-4fc6-bc6c-b5ffa7529122","ios":"levelo://app?vid=b8208e14-2d0a-4fc6-bc6c-b5ffa7529122"},"vehicle_type_id":"4","last_reported":1760180835,"current_range_meters":20400,"station_id":"ce4bhh12rcd13ifvqff0","pricing_plan_id":"cebpf4jnsgd1na2vs0mg"},{"bike_id":"d378113e-7210-466b-9c18-09f26d57c6ce","system_id":"levelo_inurba_marseille","lat":43.24386,"lon":5.37054,"is_reserved":false,"is_disabled":false,"rental_uris":{"android":"levelo://app?vid=d378113e-7210-466b-9c18-09f26d57c6ce","ios":"levelo://app?vid=d378113e-7210-466b-9c18-09f26d57c6ce"},"vehicle_type_id":"4","last_reported":1760180835,"current_range_meters":20400,"station_id":"ce4bhhh2rcd13ifvqfk0","pricing_plan_id":"cebpf4jnsgd1na2vs0mg"},{"bike_id":"133c9cd6-f120-43c0-a3a2-955a00bd1271","system_id":"levelo_inurba_marseille","lat":43.2394,"lon":5.36645,"is_reserved":false,"is_disabled":false,"rental_uris":{"android":"levelo://app?vid=133c9cd6-f120-43c0-a3a2-955a00bd1271","ios":"levelo://app?vid=133c9cd6-f120-43c0-a3a2-955a00bd1271"},"vehicle_type_id":"4","last_reported":1760180835,"current_range_meters":20400,"station_id":"ce4bhi12rcd13ifvqfp0","pricing_plan_id":"cebpf4jnsgd1na2vs0mg"},{"bike_id":"2eea6181-cc3b-488f-9b46-a56f813c4bae","system_id":"levelo_inurba_marseille","lat":43.25112,"lon":5.40326,"is_reserved":false,"is_disabled":false,"rental_uris":{"android":"levelo://app?vid=2eea6181-cc3b-488f-9b46-a56f813c4bae","ios":"levelo://app?vid=2eea6181-cc3b-488f-9b46-a56f813c4bae"},"vehicle_type_id":"4","last_reported":1760180835,"current_range_meters":20400,"station_id":"ce4bhlh2rcd13ifvqgig","pricing_plan_id":"cebpf4jnsgd1na2vs0mg"},{"bike_id":"bd716387-d314-4c47-800f-f85c5956b1b6","system_id":"levelo_inurba_marseille","lat":43.23195,"lon":5.3998,"is_reserved":false,"is_disabled":false,"rental_uris":{"android":"levelo://app?vid=bd716387-d314-4c47-800f-f85c5956b1b6","ios":"levelo://app?vid=bd716387-d314-4c47-800f-f85c5956b1b6"},"vehicle_type_id":"4","last_reported":1760180835,"current_range_meters":20400,"station_id":"ce4bhn12rcd13ifvqgqg","pricing_plan_id":"cebpf4jnsgd1na2vs0mg"},{"bike_id":"2609af2e-85de-4b67-9271-9ad758b9f2c3","system_id":"levelo_inurba_marseille","lat":43.2798,"lon":5.39992,"is_reserved":false,"is_disabled":false,"rental_uris":{"android":"levelo://app?vid=2609af2e-85de-4b67-9271-9ad758b9f2c3","ios":"levelo://app?vid=2609af2e-85de-4b67-9271-9ad758b9f2c3"},"vehicle_type_id":"4","last_reported":1760180835,"current_range_meters":20400,"station_id":"ce4bho92rcd13ifvqh4g","pricing_plan_id":"cebpf4jnsgd1na2vs0mg"},{"bike_id":"65228453-356d-4890-bcec-680e46d21a2b","system_id":"levelo_inurba_marseille","lat":43.21751,"lon":5.34599,"is_reserved":false,"is_disabled":false,"rental_uris":{"android":"levelo://app?vid=65228453-356d-4890-bcec-680e46d21a2b","ios":"levelo://app?vid=65228453-356d-4890-bcec-680e46d21a2b"},"vehicle_type_id":"4","last_reported":1760180835,"current_range_meters":20400,"station_id":"st_cvj6r9ubvosntc0bgbag","pricing_plan_id":"cebpf4jnsgd1na2vs0mg"},{"bike_id":"d5bff6a4-38d1-4646-b1b4-02d3c1e37445","system_id":"levelo_inurba_marseille","lat":43.21754,"lon":5.34593,"is_reserved":false,"is_disabled":false,"rental_uris":{"android":"levelo://app?vid=d5bff6a4-38d1-4646-b1b4-02d3c1e37445","ios":"levelo://app?vid=d5bff6a4-38d1-4646-b1b4-02d3c1e37445"},"vehicle_type_id":"4","last_reported":1760180835,"current_range_meters":20400,"station_id":"st_cvj6r9ubvosntc0bgbag","pricing_plan_id":"cebpf4jnsgd1na2vs0mg"},{"bike_id":"3e5abbcc-d1e2-4e4f-8a72-aa1081f6108f","system_id":"levelo_inurba_marseille","lat":43.22938,"lon":5.3537,"is_reserved":false,"is_disabled":false,"rental_uris":{"android":"levelo://app?vid=3e5abbcc-d1e2-4e4f-8a72-aa1081f6108f","ios":"levelo://app?vid=3e5abbcc-d1e2-4e4f-8a72-aa1081f6108f"},"vehicle_type_id":"4","last_reported":1760180835,"current_range_meters":20800,"station_id":"","pricing_plan_id":"cebpf4jnsgd1na2vs0mg"},{"bike_id":"a58f6e8e-c49b-4870-8b0a-e04370c8bf6e","system_id":"levelo_inurba_marseille","lat":43.28611,"lon":5.351,"is_reserved":false,"is_disabled":false,"rental_uris":{"android":"levelo://app?vid=a58f6e8e-c49b-4870-8b0a-e04370c8bf6e","ios":"levelo://app?vid=a58f6e8e-c49b-4870-8b0a-e04370c8bf6e"},"vehicle_type_id":"4","last_reported":1760180835,"current_range_meters":20800,"station_id":"ce4bhch2rcd13ifvqeug","pricing_plan_id":"cebpf4jnsgd1na2vs0mg"},{"bike_id":"56d041b9-8d1c-49cf-9009-0dc0de16db65","system_id":"levelo_inurba_marseille","lat":43.23197,"lon":5.35548,"is_reserved":false,"is_disabled":false,"rental_uris":{"android":"levelo://app?vid=56d041b9-8d1c-49cf-9009-0dc0de16db65","ios":"levelo://app?vid=56d041b9-8d1c-49cf-9009-0dc0de16db65"},"vehicle_type_id":"4","last_reported":1760180835,"current_range_meters":20800,"station_id":"ce4bhu92rcd13ifvqi70","pricing_plan_id":"cebpf4jnsgd1na2vs0mg"},{"bike_id":"3aa70402-6e50-44b0-bf06-150c8047140d","system_id":"levelo_inurba_marseille","lat":43.22554,"lon":5.41639,"is_reserved":false,"is_disabled":false,"rental_uris":{"android":"levelo://app?vid=3aa70402-6e50-44b0-bf06-150c8047140d","ios":"levelo://app?vid=3aa70402-6e50-44b0-bf06-150c8047140d"},"vehicle_type_id":"4","last_reported":1760180835,"current_range_meters":20800,"station_id":"st_d2o4gvlbi1j2169b742g","pricing_plan_id":"cebpf4jnsgd1na2vs0mg"},{"bike_id":"5d23c3a3-da66-42d5-9865-acb86bb18d84","system_id":"levelo_inurba_marseille","lat":43.301,"lon":5.37125,"is_reserved":false,"is_disabled":false,"rental_uris":{"android":"levelo://app?vid=5d23c3a3-da66-42d5-9865-acb86bb18d84","ios":"levelo://app?vid=5d23c3a3-da66-42d5-9865-acb86bb18d84"},"vehicle_type_id":"4","last_reported":1760180835,"current_range_meters":21600,"station_id":"","pricing_plan_id":"cebpf4jnsgd1na2vs0mg"},{"bike_id":"4eaf707d-ba7b-449e-b4f4-d6aac99cb981","system_id":"levelo_inurba_marseille","lat":43.30759,"lon":5.376087,"is_reserved":false,"is_disabled":false,"rental_uris":{"android":"levelo://app?vid=4eaf707d-ba7b-449e-b4f4-d6aac99cb981","ios":"levelo://app?vid=4eaf707d-ba7b-449e-b4f4-d6aac99cb981"},"vehicle_type_id":"4","last_reported":1760180835,"current_range_meters":21600,"station_id":"ce4bgv92rcd13ifvqcq0","pricing_plan_id":"cebpf4jnsgd1na2vs0mg"},{"bike_id":"7691cc15-ba19-4e55-bc76-a0b9307c3608","system_id":"levelo_inurba_marseille","lat":43.28418,"lon":5.349916,"is_reserved":false,"is_disabled":false,"rental_uris":{"android":"levelo://app?vid=7691cc15-ba19-4e55-bc76-a0b9307c3608","ios":"levelo://app?vid=7691cc15-ba19-4e55-bc76-a0b9307c3608"},