{"last_updated":1733705585,"ttl":60,"version":"2.2","data":{"bikes":[{"bike_id":"8581944c-4ba6-422f-be32-403922acf5ac","system_id":"levelo_inurba_marseille","lat":43.3032,"lon":5.40441,"is_reserved":false,"is_disabled":false,"rental_uris":{"android":"levelo://app?vid=8581944c-4ba6-422f-be32-403922acf5ac","ios":"levelo://app?vid=8581944c-4ba6-422f-be32-403922acf5ac"},"vehicle_type_id":"4","last_reported":1733705585,"current_range_meters":38800,"station_id":"ce4bh012rcd13ifvqd10","pricing_plan_id":"cebpf4jnsgd1na2vs0mg"},{"bike_id":"55d7a831-40f8-4501-9bc4-264da11c1dd0","system_id":"levelo_inurba_marseille","lat":43.2927,"lon":5.40119,"is_reserved":false,"is_disabled":true,"rental_uris":{"android":"levelo://app?vid=55d7a831-40f8-4501-9bc4-264da11c1dd0","ios":"levelo://app?vid=55d7a831-40f8-4501-9bc4-264da11c1dd0"},"vehicle_type_id":"4","last_reported":1733705585,"current_range_meters":18800,"station_id":"ce4bh312rcd13ifvqdk0","pricing_plan_id":"cebpf4jnsgd1na2vs0mg"},{"bike_id":"8e029eaf-e104-4c5d-858d-6cd39de73d09","system_id":"levelo_inurba_marseille","lat":43.24153,"lon":5.36411,"is_reserved":false,"is_disabled":false,"rental_uris":{"android":"levelo://app?vid=8e029eaf-e104-4c5d-858d-6cd39de73d09","ios":"levelo://app?vid=8e029eaf-e104-4c5d-858d-6cd39de73d09"},"vehicle_type_id":"4","last_reported":1733705585,"current_range_meters":25200,"station_id":"cpo36qri1sfpv3e86is0","pricing_plan_id":"cebpf4jnsgd1na2vs0mg"},{"bike_id":"3ea14a1d-8b2f-4645-a2de-fee306f21fb2","system_id":"levelo_inurba_marseille","lat":43.29583,"lon":5.37509,"is_reserved":false,"is_disabled":true,"rental_uris":{"android":"levelo://app?vid=3ea14a1d-8b2f-4645-a2de-fee306f21fb2","ios":"levelo://app?vid=3ea14a1d-8b2f-4645-a2de-fee306f21fb2"},"vehicle_type_id":"4","last_reported":1733705585,"current_range_meters":0,"station_id":"ce4bgh92rcd13ifvqb50","pricing_plan_id":"cebpf4jnsgd1na2vs0mg"},{"bike_id":"f4ba3831-dbba-40b2-b381-48b6c4bda8a9","system_id":"levelo_inurba_marseille","lat":43.28266,"lon":5.35078,"is_reserved":false,"is_disabled":false,"rental_uris":{"android":"levelo://app?vid=f4ba3831-dbba-40b2-b381-48b6c4bda8a9","ios":"levelo://app?vid=f4ba3831-dbba-40b2-b381-48b6c4bda8a9"},"vehicle_type_id":"4","last_reported":1733705585,"current_range_meters":30000,"station_id":"ce4bhbp2rcd13ifvqerg","pricing_plan_id":"cebpf4jnsgd1na2vs0mg"},{"bike_id":"e232d7ae-0864-4a70-8b5e-627ae37536a1","system_id":"levelo_inurba_marseille","lat":43.28107,"lon":5.3784,"is_reserved":false,"is_disabled":false,"rental_uris":{"android":"levelo://app?vid=e232d7ae-0864-4a70-8b5e-627ae37536a1","ios":"levelo://app?vid=e232d7ae-0864-4a70-8b5e-627ae37536a1"},"vehicle_type_id":"4","last_reported":1733705585,"current_range_meters":39200,"station_id":"ce4bha12rcd13ifvqee0","pricing_plan_id":"cebpf4jnsgd1na2vs0mg"},{"bike_id":"e37f0f48-ff13-4242-bca9-0687552cbad4","system_id":"levelo_inurba_marseille","lat":43.33027,"lon":5.39044,"is_reserved":false,"is_disabled":true,"rental_uris":{"android":"levelo://app?vid=e37f0f48-ff13-4242-bca9-0687552cbad4","ios":"levelo://app?vid=e37f0f48-ff13-4242-bca9-0687552cbad4"},"vehicle_type_id":"4","last_reported":1733705585,"current_range_meters":0,"station_id":"ce4bhr92rcd13ifvqhrg","pricing_plan_id":"cebpf4jnsgd1na2vs0mg"},{"bike_id":"8e7ed17d-4bf5-4016-b5fa-bc50de0fad38","system_id":"levelo_inurba_marseille","lat":43.28415,"lon":5.37507,"is_reserved":false,"is_disabled":false,"rental_uris":{"android":"levelo://app?vid=8e7ed17d-4bf5-4016-b5fa-bc50de0fad38","ios":"levelo://app?vid=8e7ed17d-4bf5-4016-b5fa-bc50de0fad38"},"vehicle_type_id":"4","last_reported":1733705585,"current_range_meters":26000,"station_id":"ce4bh412rcd13ifvqds0","pricing_plan_id":"cebpf4jnsgd1na2vs0mg"},{"bike_id":"ba5e9603-9efa-46a1-a491-af58be8cd5cb","system_id":"levelo_inurba_marseille","lat":43.32371,"lon":5.36765,"is_reserved":false,"is_disabled":false,"rental_uris":{"android":"levelo://app?vid=ba5e9603-9efa-46a1-a491-af58be8cd5cb","ios":"levelo://app?vid=ba5e9603-9efa-46a1-a491-af58be8cd5cb"},"vehicle_type_id":"4","last_reported":1733705585,"current_range_meters":37600,"station_id":"ce4bhsh2rcd13ifvqi2g","pricing_plan_id":"cebpf4jnsgd1na2vs0mg"},{"bike_id":"5fd8fda4-5ceb-4e39-b9f4-ea27acda2ce7","system_id":"levelo_inurba_marseille","lat":43.27181,"lon":5.40994,"is_reserved":false,"is_disabled":true,"rental_uris":{"android":"levelo://app?vid=5fd8fda4-5ceb-4e39-b9f4-ea27acda2ce7","ios":"levelo://app?vid=5fd8fda4-5ceb-4e39-b9f4-ea27acda2ce7"},"vehicle_type_id":"4","last_reported":1733705585,"current_range_meters":13600,"station_id":"ce4bhl12rcd13ifvqgf0","pricing_plan_id":"cebpf4jnsgd1na2vs0mg"},{"bike_id":"57724a73-6f83-43e9-aa1f-096bf245f35b","system_id":"levelo_inurba_marseille","lat":43.26193,"lon":5.37449,"is_reserved":false,"is_disabled":false,"rental_uris":{"android":"levelo://app?vid=57724a73-6f83-43e9-aa1f-096bf245f35b","ios":"levelo://app?vid=57724a73-6f83-43e9-aa1f-096bf245f35b"},"vehicle_type_id":"4","last_reported":1733705585,"current_range_meters":37600,"station_id":"ce4bhgp2rcd13ifvqfc0","pricing_plan_id":"cebpf4jnsgd1na2vs0mg"},{"bike_id":"4e2d9042-9518-4c7c-bb50-55c44aba3b21","system_id":"levelo_inurba_marseille","lat":43.2925,"lon":5.408996,"is_reserved":false,"is_disabled":false,"rental_uris":{"android":"levelo://app?vid=4e2d9042-9518-4c7c-bb50-55c44aba3b21","ios":"levelo://app?vid=4e2d9042-9518-4c7c-bb50-55c44aba3b21"},"vehicle_type_id":"4","last_reported":1733705585,"current_range_meters":26800,"station_id":"ce4bh192rcd13ifvqdc0","pricing_plan_id":"cebpf4jnsgd1na2vs0mg"},{"bike_id":"8bd642b2-0279-44c7-9ee2-fc3b57332c83","system_id":"levelo_inurba_marseille","lat":43.27455,"lon":5.40073,"is_reserved":false,"is_disabled":true,"rental_uris":{"android":"levelo://app?vid=8bd642b2-0279-44c7-9ee2-fc3b57332c83","ios":"levelo://app?vid=8bd642b2-0279-44c7-9ee2-fc3b57332c83"},"vehicle_type_id":"4","last_reported":1733705585,"current_range_meters":0,"station_id":"","pricing_plan_id":"cebpf4jnsgd1na2vs0mg"},{"bike_id":"25dbe063-ae87-4825-9559-a350b6ec94d0","system_id":"levelo_inurba_marseille","lat":43.2465,"lon":5.38171,"is_reserved":false,"is_disabled":false,"rental_uris":{"android":"levelo://app?vid=25dbe063-ae87-4825-9559-a350b6ec94d0","ios":"levelo://app?vid=25dbe063-ae87-4825-9559-a350b6ec94d0"},"vehicle_type_id":"4","last_reported":1733705585,"current_range_meters":14400,"station_id":"ce4bhih2rcd13ifvqfr0","pricing_plan_id":"cebpf4jnsgd1na2vs0mg"},{"bike_id":"e0498b29-2e4c-4b28-a66c-2d119e087c01","system_id":"levelo_inurba_marseille","lat":43.32286,"lon":5.38257,"is_reserved":false,"is_disabled":false,"rental_uris":{"android":"levelo://app?vid=e0498b29-2e4c-4b28-a66c-2d119e087c01","ios":"levelo://app?vid=e0498b29-2e4c-4b28-a66c-2d119e087c01"},"vehicle_type_id":"4","last_reported":1733705585,"current_range_meters":38800,"station_id":"ce4bhr12rcd13ifvqhqg","pricing_plan_id":"cebpf4jnsgd1na2vs0mg"},{"bike_id":"f99bd7ec-f1d7-4793-bd52-f05aecb62bf1","system_id":"levelo_inurba_marseille","lat":43.30653,"lon":5.40065,"is_reserved":false,"is_disabled":false,"rental_uris":{"android":"levelo://app?vid=f99bd7ec-f1d7-4793-bd52-f05aecb62bf1","ios":"levelo://app?vid=f99bd7ec-f1d7-4793-bd52-f05aecb62bf1"},"vehicle_type_id":"4","last_reported":1733705585,"current_range_meters":38800,"station_id":"ce4bh112rcd13ifvqda0","pricing_plan_id":"cebpf4jnsgd1na2vs0mg"},{"bike_id":"289b0f22-f419-46bf-8455-2e7fe4f76fcb","system_id":"levelo_inurba_marseille","lat":43.28715,"lon":5.3794,"is_reserved":false,"is_disabled":false,"rental_uris":{"android":"levelo://app?vid=289b0f22-f419-46bf-8455-2e7fe4f76fcb","ios":"levelo://app?vid=289b0f22-f419-46bf-8455-2e7fe4f76fcb"},"vehicle_type_id":"4","last_reported":1733705585,"current_range_meters":27200,"station_id":"ce4bh9p2rcd13ifvqec0","pricing_plan_id":"cebpf4jnsgd1na2vs0mg"},{"bike_id":"f09914a1-032a-4233-965f-c73f49a269ba","system_id":"levelo_inurba_marseille","lat":43.337444,"lon":5.374475,"is_reserved":false,"is_disabled":true,"rental_uris":{"android":"levelo://app?vid=f09914a1-032a-4233-965f-c73f49a269ba","ios":"levelo://app?vid=f09914a1-032a-4233-965f-c73f49a269ba"},"vehicle_type_id":"4","last_reported":1733705585,"current_range_meters":0,"station_id":"","pricing_plan_id":"cebpf4jnsgd1na2vs0mg"},{"bike_id":"49b6bf54-e031-485e-ae30-e8fa50017ffc","system_id":"levelo_inurba_marseille","lat":43.26678,"lon":5.38268,"is_reserved":false,"is_disabled":false,"rental_uris":{"android":"levelo://app?vid=49b6bf54-e031-485e-ae30-e8fa50017ffc","ios":"levelo://app?vid=49b6bf54-e031-485e-ae30-e8fa50017ffc"},"vehicle_type_id":"4","last_reported":1733705585,"current_range_meters":37600,"station_id":"ce4bhg92rcd13ifvqf90","pricing_plan_id":"cebpf4jnsgd1na2vs0mg"},{"bike_id":"b708375f-db23-4292-ab31-ae7370977fbd","system_id":"levelo_inurba_marseille","lat":43.28338,"lon":5.38116,"is_reserved":false,"is_disabled":true,"rental_uris":{"android":"levelo://app?vid=b708375f-db23-4292-ab31-ae7370977fbd","ios":"levelo://app?vid=b708375f-db23-4292-ab31-ae7370977fbd"},"vehicle_type_id":"4","last_reported":1733705585,"current_range_meters":21600,"station_id":"ce4bh412rcd13ifvqdr0","pricing_plan_id":"cebpf4jnsgd1na2vs0mg"},{"bike_id":"cb442d5a-cce0-41d7-9c51-b4c2e4d876d4","system_id":"levelo_inurba_marseille","lat":43.3264,"lon":5.36472,"is_reserved":false,"is_disabled":false,"rental_uris":{"android":"levelo://app?vid=cb442d5a-cce0-41d7-9c51-b4c2e4d876d4","ios":"levelo://app?vid=cb442d5a-cce0-41d7-9c51-b4c2e4d876d4"},"vehicle_type_id":"4","last_reported":1733705585,"current_range_meters":30000,"station_id":"","pricing_plan_id":"cebpf4jnsgd1na2vs0mg"},{"bike_id":"650aedbd-7fe9-41b2-ab79-4b8450652642","system_id":"levelo_inurba_marseille","lat":43.29186,"lon":5.35792,"is_reserved":false,"is_disabled":true,"rental_uris":{"android":"levelo://app?vid=650aedbd-7fe9-41b2-ab79-4b8450652642","ios":"levelo://app?vid=650aedbd-7fe9-41b2-ab79-4b8450652642"},"vehicle_type_id":"4","last_reported":1733705585,"current_range_meters":35200,"station_id":"ce4bhb12rcd13ifvqel0","pricing_plan_id":"cebpf4jnsgd1na2vs0mg"},{"bike_id":"2332ce5e-cec0-43b5-a3d7-a25a1c3b0b9d","system_id":"levelo_inurba_marseille","lat":43.24804,"lon":5.381577,"is_reserved":false,"is_disabled":false,"rental_uris":{"android":"levelo://app?vid=2332ce5e-cec0-43b5-a3d7-a25a1c3b0b9d","ios":"levelo://app?vid=2332ce5e-cec0-43b5-a3d7-a25a1c3b0b9d"},"vehicle_type_id":"4","last_reported":1733705585,"current_range_meters":38400,"station_id":"ce4bhih2rcd13ifvqfr0","pricing_plan_id":"cebpf4jnsgd1na2vs0mg"},{"bike_id":"1055c99e-6a30-4bd9-b979-6d399b57fff2","system_id":"levelo_inurba_marseille","lat":43.29895,"lon":5.43668,"is_reserved":false,"is_disabled":false,"rental_uris":{"android":"levelo://app?vid=1055c99e-6a30-4bd9-b979-6d399b57fff2","ios":"levelo://app?vid=1055c99e-6a30-4bd9-b979-6d399b57fff2"},"vehicle_type_id":"4","last_reported":1733705585,"current_range_meters":34800,"station_id":"ce4bhpp2rcd13ifvqhfg","pricing_plan_id":"cebpf4jnsgd1na2vs0mg"},{"bike_id":"e14ff483-f290-4a96-beab-fc577b54c818","system_id":"levelo_inurba_marseille","lat":43.28486,"lon":5.36817,"is_reserved":false,"is_disabled":false,"rental_uris":{"android":"levelo://app?vid=e14ff483-f290-4a96-beab-fc577b54c818","ios":"levelo://app?vid=e14ff483-f290-4a96-beab-fc577b54c818"},"vehicle_type_id":"4","last_reported":1733705585,"current_range_meters":9200,"station_id":"","pricing_plan_id":"cebpf4jnsgd1na2vs0mg"},{"bike_id":"5ed68eb7-74a2-45fc-9637-e721e5028db3","system_id":"levelo_inurba_marseille","lat":43.2587,"lon":5.39895,"is_reserved":false,"is_disabled":false,"rental_uris":{"android":"levelo://app?vid=5ed68eb7-74a2-45fc-9637-e721e5028db3","ios":"levelo://app?vid=5ed68eb7-74a2-45fc-9637-e721e5028db3"},"vehicle_type_id":"4","last_reported":1733705585,"current_range_meters":27600,"station_id":"ce4bhl92rcd13ifvqghg","pricing_plan_id":"cebpf4jnsgd1na2vs0mg"},{"bike_id":"95cfddd6-1f3c-4fd2-9652-931f20cf06bd","system_id":"levelo_inurba_marseille","lat":43.25577,"lon":5.3823,"is_reserved":false,"is_disabled":false,"rental_uris":{"android":"levelo://app?vid=95cfddd6-1f3c-4fd2-9652-931f20cf06bd","ios":"levelo://app?vid=95cfddd6-1f3c-4fd2-9652-931f20cf06bd"},"vehicle_type_id":"4","last_reported":1733705585,"current_range_meters":23200,"station_id":"ce4bhih2rcd13ifvqfs0","pricing_plan_id":"cebpf4jnsgd1na2vs0mg"},{"bike_id":"1801dfbd-096c-41cb-a799-7e771584a9f2","system_id":"levelo_inurba_marseille","lat":43.29166,"lon":5.37153,"is_reserved":false,"is_disabled":false,"rental_uris":{"android":"levelo://app?vid=1801dfbd-096c-41cb-a799-7e771584a9f2","ios":"levelo://app?vid=1801dfbd-096c-41cb-a799-7e771584a9f2"},"vehicle_type_id":"4","last_reported":1733705585,"current_range_meters":38000,"station_id":"ce4bha92rcd13ifvqeh0","pricing_plan_id":"cebpf4jnsgd1na2vs0mg"},{"bike_id":"7c4e7e6c-8477-404f-a8db-f3ae8acec6ea","system_id":"levelo_inurba_marseille","lat":43.257288,"lon":5.411086,"is_reserved":false,"is_disabled":false,"rental_uris":{"android":"levelo://app?vid=7c4e7e6c-8477-404f-a8db-f3ae8acec6ea","ios":"levelo://app?vid=7c4e7e6c-8477-404f-a8db-f3ae8acec6ea"},"vehicle_type_id":"4","last_reported":1733705585,"current_range_meters":38000,"station_id":"ce4bhkp2rcd13ifvqgd0","pricing_plan_id":"cebpf4jnsgd1na2vs0mg"},{"bike_id":"004b42fd-f2b5-4c02-8283-9ad1986583be","system_id":"levelo_inurba_marseille","lat":43.29532,"lon":5.38545,"is_reserved":false,"is_disabled":true,"rental_uris":{"android":"levelo://app?vid=004b42fd-f2b5-4c02-8283-9ad1986583be","ios":"levelo://app?vid=004b42fd-f2b5-4c02-8283-9ad1986583be"},"vehicle_type_id":"4","last_reported":1733705585,"current_range_meters":36000,"station_id":"ce4bgih2rcd13ifvqba0","pricing_plan_id":"cebpf4jnsgd1na2vs0mg"},{"bike_id":"89ceac00-2c22-4cb1-b85d-583fccdb788b","system_id":"levelo_inurba_marseille","lat":43.32102,"lon":5.3678,"is_reserved":false,"is_disabled":false,"rental_uris":{"android":"levelo://app?vid=89ceac00-2c22-4cb1-b85d-583fccdb788b","ios":"levelo://app?vid=89ceac00-2c22-4cb1-b85d-583fccdb788b"},"vehicle_type_id":"4","last_reported":1733705585,"current_range_meters":10000,"station_id":"ce4bhrh2rcd13ifvqhug","pricing_plan_id":"cebpf4jnsgd1na2vs0mg"},{"bike_id":"2dc1b940-080f-44b8-a82d-684e11dd9bfd","system_id":"levelo_inurba_marseille","lat":43.30638,"lon":5.40094,"is_reserved":false,"is_disabled":false,"rental_uris":{"android":"levelo://app?vid=2dc1b940-080f-44b8-a82d-684e11dd9bfd","ios":"levelo://app?vid=2dc1b940-080f-44b8-a82d-684e11dd9bfd"},"vehicle_type_id":"4","last_reported":1733705585,"current_range_meters":27200,"station_id":"ce4bh112rcd13ifvqda0","pricing_plan_id":"cebpf4jnsgd1na2vs0mg"},{"bike_id":"66c699c4-104d-407e-aacf-70c3ce160144","system_id":"levelo_inurba_marseille","lat":43.31356,"lon":5.38503,"is_reserved":false,"is_disabled":false,"rental_uris":{"android":"levelo://app?vid=66c699c4-104d-407e-aacf-70c3ce160144","ios":"levelo://app?vid=66c699c4-104d-407e-aacf-70c3ce160144"},"vehicle_type_id":"4","last_reported":1733705585,"current_range_meters":37600,"station_id":"ce4bgt92rcd13ifvqcf0","pricing_plan_id":"cebpf4jnsgd1na2vs0mg"},{"bike_id":"9fe6b7cd-2407-4646-bd70-b263eb65c9e1","system_id":"levelo_inurba_marseille","lat":43.33724,"lon":5.39178,"is_reserved":false,"is_disabled":false,"rental_uris":{"android":"levelo://app?vid=9fe6b7cd-2407-4646-bd70-b263eb65c9e1","ios":"levelo://app?vid=9fe6b7cd-2407-4646-bd70-b263eb65c9e1"},"vehicle_type_id":"4","last_reported":1733705585,"current_range_meters":28400,"station_id":"ce4bhr92rcd13ifvqhsg","pricing_plan_id":"cebpf4jnsgd1na2vs0mg"},{"bike_id":"7ce7cf12-335b-4aea-bf7b-f495438b5ff6","system_id":"levelo_inurba_marseille","lat":43.24162,"lon":5.36394,"is_reserved":false,"is_disabled":false,"rental_uris":{"android":"levelo://app?vid=7ce7cf12-335b-4aea-bf7b-f495438b5ff6","ios":"levelo://app?vid=7ce7cf12-335b-4aea-bf7b-f495438b5ff6"},"vehicle_type_id":"4","last_reported":1733705585,"current_range_meters":16400,"station_id":"cpo36qri1sfpv3e86is0","pricing_plan_id":"cebpf4jnsgd1na2vs0mg"},{"bike_id":"af9e058d-95ec-46e4-9eef-2ecefa97a96d","system_id":"levelo_inurba_marseille","lat":43.24805,"lon":5.37457,"is_reserved":false,"is_disabled":true,"rental_uris":{"android":"levelo://app?vid=af9e058d-95ec-46e4-9eef-2ecefa97a96d","ios":"levelo://app?vid=af9e058d-95ec-46e4-9eef-2ecefa97a96d"},"vehicle_type_id":"4","last_reported":1733705585,"current_range_meters":37600,"station_id":"ce4bhgh2rcd13ifvqfb0","pricing_plan_id":"cebpf4jnsgd1na2vs0mg"},{"bike_id":"938640b4-f78c-4def-9b16-e6205edb88bc","system_id":"levelo_inurba_marseille","lat":43.28152,"lon":5.42639,"is_reserved":false,"is_disabled":true,"rental_uris":{"android":"levelo://app?vid=938640b4-f78c-4def-9b16-e6205edb88bc","ios":"levelo://app?vid=938640b4-f78c-4def-9b16-e6205edb88bc"},"vehicle_type_id":"4","last_reported":1733705585,"current_range_meters":37600,"station_id":"ce4bhnh2rcd13ifvqgug","pricing_plan_id":"cebpf4jnsgd1na2vs0mg"},{"bike_id":"42eb64eb-3052-4570-befd-ad9efdb8e166","system_id":"levelo_inurba_marseille","lat":43.30411,"lon":5.41287,"is_reserved":false,"is_disabled":false,"rental_uris":{"android":"levelo://app?vid=42eb64eb-3052-4570-befd-ad9efdb8e166","ios":"levelo://app?vid=42eb64eb-3052-4570-befd-ad9efdb8e166"},"vehicle_type_id":"4","last_reported":1733705585,"current_range_meters":25600,"station_id":"ce4bhop2rcd13ifvqh8g","pricing_plan_id":"cebpf4jnsgd1na2vs0mg"},{"bike_id":"725432bc-a348-4184-a0f9-50f4a281c801","system_id":"levelo_inurba_marseille","lat":43.29444,"lon":5.39744,"is_reserved":false,"is_disabled":false,"rental_uris":{"android":"levelo://app?vid=725432bc-a348-4184-a0f9-50f4a281c801","ios":"levelo://app?vid=725432bc-a348-4184-a0f9-50f4a281c801"},"vehicle_type_id":"4","last_reported":1733705585,"current_range_meters":39200,"station_id":"ce4bh3h2rcd13ifvqdo0","pricing_plan_id":"cebpf4jnsgd1na2vs0mg"},{"bike_id":"cf55b169-9388-4819-bfa4-c55a8fa03873","system_id":"levelo_inurba_marseille","lat":43.27612,"lon":5.36111,"is_reserved":false,"is_disabled":false,"rental_uris":{"android":"levelo://app?vid=cf55b169-9388-4819-bfa4-c55a8fa03873","ios":"levelo://app?vid=cf55b169-9388-4819-bfa4-c55a8fa03873"},"vehicle_type_id":"4","last_reported":1733705585,"current_range_meters":32400,"station_id":"ce4bgj92rcd13ifvqbe0","pricing_plan_id":"cebpf4jnsgd1na2vs0mg"},{"bike_id":"32d80771-6afa-481c-905b-bbdfdc2c61dd","system_id":"levelo_inurba_marseille","lat":43.32482,"lon":5.36571,"is_reserved":false,"is_disabled":true,"rental_uris":{"android":"levelo://app?vid=32d80771-6afa-481c-905b-bbdfdc2c61dd","ios":"levelo://app?vid=32d80771-6afa-481c-905b-bbdfdc2c61dd"},"vehicle_type_id":"4","last_reported":1733705585,"current_range_meters":7200,"station_id":"ce4bhs12rcd13ifvqhvg","pricing_plan_id":"cebpf4jnsgd1na2vs0mg"},{"bike_id":"2f3968e7-9336-4ee4-ba78-8e92c0a818cc","system_id":"levelo_inurba_marseille","lat":43.31322,"lon":5.36647,"is_reserved":false,"is_disabled":true,"rental_uris":{"android":"levelo://app?vid=2f3968e7-9336-4ee4-ba78-8e92c0a818cc","ios":"levelo://app?vid=2f3968e7-9336-4ee4-ba78-8e92c0a818cc"},"vehicle_type_id":"4","last_reported":1733705585,"current_range_meters":0,"station_id":"","pricing_plan_id":"cebpf4jnsgd1na2vs0mg"},{"bike_id":"db33d947-4670-42d7-8b89-a725a48ee67c","system_id":"levelo_inurba_marseille","lat":43.27902,"lon":5.37995,"is_reserved":false,"is_disabled":false,"rental_uris":{"android":"levelo://app?vid=db33d947-4670-42d7-8b89-a725a48ee67c","ios":"levelo://app?vid=db33d947-4670-42d7-8b89-a725a48ee67c"},"vehicle_type_id":"4","last_reported":1733705585,"current_range_meters":37600,"station_id":"ce4bhf92rcd13ifvqf50","pricing_plan_id":"cebpf4jnsgd1na2vs0mg"},{"bike_id":"fda28eb0-fdab-453e-aedb-60468c34f66a","system_id":"levelo_inurba_marseille","lat":43.29957,"lon":5.41318,"is_reserved":false,"is_disabled":false,"rental_uris":{"android":"levelo://app?vid=fda28eb0-fdab-453e-aedb-60468c34f66a","ios":"levelo://app?vid=fda28eb0-fdab-453e-aedb-60468c34f66a"},"vehicle_type_id":"4","last_reported":1733705585,"current_range_meters":38800,"station_id":"ce4bhp12rcd13ifvqh9g","pricing_plan_id":"cebpf4jnsgd1na2vs0mg"},{"bike_id":"e80c9cd4-01c1-43d4-805c-a0f3a1cd573d","system_id":"levelo_inurba_marseille","lat":43.27815,"lon":5.40715,"is_reserved":false,"is_disabled":false,"rental_uris":{"android":"levelo://app?vid=e80c9cd4-01c1-43d4-805c-a0f3a1cd573d","ios":"levelo://app?vid=e80c9cd4-01c1-43d4-805c-a0f3a1cd573d"},"vehicle_type_id":"4","last_reported":1733705585,"current_range_meters":38800,"station_id":"ce4bhnh2rcd13ifvqgtg","pricing_plan_id":"cebpf4jnsgd1na2vs0mg"},{"bike_id":"d956adf7-b6c8-49dc-b70b-093e6fa77f45","system_id":"levelo_inurba_marseille","lat":43.27561,"lon":5.38436,"is_reserved":false,"is_disabled":false,"rental_uris":{"android":"levelo://app?vid=d956adf7-b6c8-49dc-b70b-093e6fa77f45","ios":"levelo://app?vid=d956adf7-b6c8-49dc-b70b-093e6fa77f45"},"vehicle_type_id":"4","last_reported":1733705585,"current_range_meters":26000,"station_id":"ce4bhh92rcd13ifvqfi0","pricing_plan_id":"cebpf4jnsgd1na2vs0mg"},{"bike_id":"400f0ea8-6588-4f76-b369-fca13002ea1f","system_id":"levelo_inurba_marseille","lat":43.27618,"lon":5.36102,"is_reserved":false,"is_disabled":false,"rental_uris":{"android":"levelo://app?vid=400f0ea8-6588-4f76-b369-fca13002ea1f","ios":"levelo://app?vid=400f0ea8-6588-4f76-b369-fca13002ea1f"},"vehicle_type_id":"4","last_reported":1733705585,"current_range_meters":27600,"station_id":"ce4bgj92rcd13ifvqbe0","pricing_plan_id":"cebpf4jnsgd1na2vs0mg"},{"bike_id":"7736d0dc-1989-4505-a61b-7fdb0a6489c6","system_id":"levelo_inurba_marseille","lat":43.32368,"lon":5.3889,"is_reserved":false,"is_disabled":true,"rental_uris":{"android":"levelo://app?vid=7736d0dc-1989-4505-a61b-7fdb0a6489c6","ios":"levelo://app?vid=7736d0dc-1989-4505-a61b-7fdb0a6489c6"},"vehicle_type_id":"4","last_reported":1733705585,"current_range_meters":0,"station_id":"ce4bhqp2rcd13ifvqhog","pricing_plan_id":"cebpf4jnsgd1na2vs0mg"},{"bike_id":"7f0b121b-7748-43bd-b861-318cbdf6fb69","system_id":"levelo_inurba_marseille","lat":43.28455,"lon":5.35885,"is_reserved":false,"is_disabled":true,"rental_uris":{"android":"levelo://app?vid=7f0b121b-7748-43bd-b861-318cbdf6fb69","ios":"levelo://app?vid=7f0b121b-7748-43bd-b861-318cbdf6fb69"},"vehicle_type_id":"4","last_reported":1733705585,"current_range_meters":8000,"station_id":"ce4bhah2rcd13ifvqei0","pricing_plan_id":"cebpf4jnsgd1na2vs0mg"},{"bike_id":"6583aefc-6815-4bd5-8f5c-a9c5d794f47e","system_id":"levelo_inurba_marseille","lat":43.36437,"lon":5.34244,"is_reserved":false,"is_disabled":false,"rental_uris":{"android":"levelo://app?vid=6583aefc-6815-4bd5-8f5c-a9c5d794f47e","ios":"levelo://app?vid=6583aefc-6815-4bd5-8f5c-a9c5d794f47e"},"vehicle_type_id":"4","last_reported":1733705585,"current_range_meters":17600,"station_id":"","pricing_plan_id":"cebpf4jnsgd1na2vs0mg"},{"bike_id":"03f6c47e-9739-4e71-9496-73bda9e185b4","system_id":"levelo_inurba_marseille","lat":43.26064,"lon":5.39393,"is_reserved":false,"is_disabled":false,"rental_uris":{"android":"levelo://app?vid=03f6c47e-9739-4e71-9496-73bda9e185b4","ios":"levelo://app?vid=03f6c47e-9739-4e71-9496-73bda9e185b4"},"vehicle_type_id":"4","last_reported":1733705585,"current_range_meters":36400,"station_id":"ce4bhh92rcd13ifvqfj0","pricing_plan_id":"cebpf4jnsgd1na2vs0mg"},{"bike_id":"18c465ad-16a0-4d72-a337-11a15929aab8","system_id":"levelo_inurba_marseille","lat":43.23955,"lon":5.36618,"is_reserved":false,"is_disabled":true,"rental_uris":{"android":"levelo://app?vid=18c465ad-16a0-4d72-a337-11a15929aab8","ios":"levelo://app?vid=18c465ad-16a0-4d72-a337-11a15929aab8"},"vehicle_type_id":"4","last_reported":1733705585,"current_range_meters":34800,"station_id":"ce4bhi12rcd13ifvqfp0","pricing_plan_id":"cebpf4jnsgd1na2vs0mg"},{"bike_id":"e8e3f682-86b4-463a-bf18-ba7eb94eb5ef","system_id":"levelo_inurba_marseille","lat":43.27957,"lon":5.38699,"is_reserved":false,"is_disabled":false,"rental_uris":{"android":"levelo://app?vid=e8e3f682-86b4-463a-bf18-ba7eb94eb5ef","ios":"levelo://app?vid=e8e3f682-86b4-463a-bf18-ba7eb94eb5ef"},"vehicle_type_id":"4","last_reported":1733705585,"current_range_meters":21600,"station_id":"ce4bhg12rcd13ifvqf80","pricing_plan_id":"cebpf4jnsgd1na2vs0mg"},{"bike_id":"8c7a6400-9f79-403c-b59a-e8e456bb0ff8","system_id":"levelo_inurba_marseille","lat":43.2707,"lon":5.42279,"is_reserved":false,"is_disabled":false,"rental_uris":{"android":"levelo://app?vid=8c7a6400-9f79-403c-b59a-e8e456bb0ff8","ios":"levelo://app?vid=8c7a6400-9f79-403c-b59a-e8e456bb0ff8"},"vehicle_type_id":"4","last_reported":1733705585,"current_range_meters":38800,"station_id":"ce4bhk92rcd13ifvqgb0","pricing_plan_id":"cebpf4jnsgd1na2vs0mg"},{"bike_id":"871efb38-1ec8-4f0e-88ee-08ba0a231658","system_id":"levelo_inurba_marseille","lat":43.27956,"lon":5.41052,"is_reserved":false,"is_disabled":false,"rental_uris":{"android":"levelo://app?vid=871efb38-1ec8-4f0e-88ee-08ba0a231658","ios":"levelo://app?vid=871efb38-1ec8-4f0e-88ee-08ba0a231658"},"vehicle_type_id":"4","last_reported":1733705585,"current_range_meters":16000,"station_id":"ce4bhnp2rcd13ifvqh0g","pricing_plan_id":"cebpf4jnsgd1na2vs0mg"},{"bike_id":"468d023e-e483-49f2-92d7-7b95c7b3c650","system_id":"levelo_inurba_marseille","lat":43.299,"lon":5.43662,"is_reserved":false,"is_disabled":false,"rental_uris":{"android":"levelo://app?vid=468d023e-e483-49f2-92d7-7b95c7b3c650","ios":"levelo://app?vid=468d023e-e483-49f2-92d7-7b95c7b3c650"},"vehicle_type_id":"4","last_reported":1733705585,"current_range_meters":6800,"station_id":"ce4bhpp2rcd13ifvqhfg","pricing_plan_id":"cebpf4jnsgd1na2vs0mg"},{"bike_id":"359765da-3e05-417b-bd73-a96988a94b0d","system_id":"levelo_inurba_marseille","lat":43.28424,"lon":5.37473,"is_reserved":false,"is_disabled":false,"rental_uris":{"android":"levelo://app?vid=359765da-3e05-417b-bd73-a96988a94b0d","ios":"levelo://app?vid=359765da-3e05-417b-bd73-a96988a94b0d"},"vehicle_type_id":"4","last_reported":1733705585,"current_range_meters":38400,"station_id":"ce4bh412rcd13ifvqds0","pricing_plan_id":"cebpf4jnsgd1na2vs0mg"},{"bike_id":"1c27174c-f196-485f-a04a-9a3251f6b4d2","system_id":"levelo_inurba_marseille","lat":43.25921,"lon":5.40897,"is_reserved":false,"is_disabled":false,"rental_uris":{"android":"levelo://app?vid=1c27174c-f196-485f-a04a-9a3251f6b4d2","ios":"levelo://app?vid=1c27174c-f196-485f-a04a-9a3251f6b4d2"},"vehicle_type_id":"4","last_reported":1733705585,"current_range_meters":21600,"station_id":"ce4bhm92rcd13ifvqglg","pricing_plan_id":"cebpf4jnsgd1na2vs0mg"},{"bike_id":"2d70b28a-bd42-481a-9237-408875be74b8","system_id":"levelo_inurba_marseille","lat":43.25573,"lon":5.38247,"is_reserved":false,"is_disabled":false,"rental_uris":{"android":"levelo://app?vid=2d70b28a-bd42-481a-9237-408875be74b8","ios":"levelo://app?vid=2d70b28a-bd42-481a-9237-408875be74b8"},"vehicle_type_id":"4","last_reported":1733705585,"current_range_meters":36800,"station_id":"ce4bhih2rcd13ifvqfs0","pricing_plan_id":"cebpf4jnsgd1na2vs0mg"},{"bike_id":"8a988cbb-7102-4e60-a284-3ea0c81c63f0","system_id":"levelo_inurba_marseille","lat":43.29033,"lon":5.35921,"is_reserved":false,"is_disabled":false,"rental_uris":{"android":"levelo://app?vid=8a988cbb-7102-4e60-a284-3ea0c81c63f0","ios":"levelo://app?vid=8a988cbb-7102-4e60-a284-3ea0c81c63f0"},"vehicle_type_id":"4","last_reported":1733705585,"current_range_meters":37600,"station_id":"ce4bha92rcd13ifvqeg0","pricing_plan_id":"cebpf4jnsgd1na2vs0mg"},{"bike_id":"efa6a230-a471-43e9-ad82-2eb46966d5aa","system_id":"levelo_inurba_marseille","lat":43.28084,"lon":5.39652,"is_reserved":false,"is_disabled":false,"rental_uris":{"android":"levelo://app?vid=efa6a230-a471-43e9-ad82-2eb46966d5aa","ios":"levelo://app?vid=efa6a230-a471-43e9-ad82-2eb46966d5aa"},"vehicle_type_id":"4","last_reported":1733705585,"current_range_meters":12400,"station_id":"ce4bho12rcd13ifvqh2g","pricing_plan_id":"cebpf4jnsgd1na2vs0mg"},{"bike_id":"f10c5e90-601b-4bd4-87e7-4cbb6a13a4fb","system_id":"levelo_inurba_marseille","lat":43.26123,"lon":5.39268,"is_reserved":false,"is_disabled":true,"rental_uris":{"android":"levelo://app?vid=f10c5e90-601b-4bd4-87e7-4cbb6a13a4fb","ios":"levelo://app?vid=f10c5e90-601b-4bd4-87e7-4cbb6a13a4fb"},"vehicle_type_id":"4","last_reported":1733705585,"current_range_meters":0,"station_id":"","pricing_plan_id":"cebpf4jnsgd1na2vs0mg"},{"bike_id":"a01eb9e0-5566-4d39-b1a3-d47e7808d193","system_id":"levelo_inurba_marseille","lat":43.29421,"lon":5.38609,"is_reserved":false,"is_disabled":true,"rental_uris":{"android":"levelo://app?vid=a01eb9e0-5566-4d39-b1a3-d47e7808d193","ios":"levelo://app?vid=a01eb9e0-5566-4d39-b1a3-d47e7808d193"},"vehicle_type_id":"4","last_reported":1733705585,"current_range_meters":0,"station_id":"ce4bh2h2rcd13ifvqdh0","pricing_plan_id":"cebpf4jnsgd1na2vs0mg"},{"bike_id":"97f9d55d-64c9-49a9-b7b8-df6038f3c3ff","system_id":"levelo_inurba_marseille","lat":43.3302,"lon":5.39045,"is_reserved":false,"is_disabled":false,"rental_uris":{"android":"levelo://app?vid=97f9d55d-64c9-49a9-b7b8-df6038f3c3ff","ios":"levelo://app?vid=97f9d55d-64c9-49a9-b7b8-df6038f3c3ff"},"vehicle_type_id":"4","last_reported":1733705585,"current_range_meters":38800,"station_id":"ce4bhr92rcd13ifvqhrg","pricing_plan_id":"cebpf4jnsgd1na2vs0mg"},{"bike_id":"65be5a53-8676-4f22-84d3-7138999900ac","system_id":"levelo_inurba_marseille","lat":43.27503,"lon":5.42453,"is_reserved":false,"is_disabled":false,"rental_uris":{"android":"levelo://app?vid=65be5a53-8676-4f22-84d3-7138999900ac","ios":"levelo://app?vid=65be5a53-8676-4f22-84d3-7138999900ac"},"vehicle_type_id":"4","last_reported":1733705585,"current_range_meters":38000,"station_id":"ce4bhn92rcd13ifvqgrg","pricing_plan_id":"cebpf4jnsgd1na2vs0mg"},{"bike_id":"f438c13e-c54c-4a0c-bae9-421272ad3cff","system_id":"levelo_inurba_marseille","lat":43.29192,"lon":5.39319,"is_reserved":false,"is_disabled":false,"rental_uris":{"android":"levelo://app?vid=f438c13e-c54c-4a0c-bae9-421272ad3cff","ios":"levelo://app?vid=f438c13e-c54c-4a0c-bae9-421272ad3cff"},"vehicle_type_id":"4","last_reported":1733705585,"current_range_meters":29600,"station_id":"ce4bh192rcd13ifvqdd0","pricing_plan_id":"cebpf4jnsgd1na2vs0mg"},{"bike_id":"0002da13-ce7f-42cb-b79e-ff8f16eb315e","system_id":"levelo_inurba_marseille","lat":43.30799,"lon":5.38134,"is_reserved":false,"is_disabled":false,"rental_uris":{"android":"levelo://app?vid=0002da13-ce7f-42cb-b79e-ff8f16eb315e","ios":"levelo://app?vid=0002da13-ce7f-42cb-b79e-ff8f16eb315e"},"vehicle_type_id":"4","last_reported":1733705585,"current_range_meters":11600,"station_id":"ce4bgt12rcd13ifvqce0","pricing_plan_id":"cebpf4jnsgd1na2vs0mg"},{"bike_id":"7c349544-e70d-4216-a79c-dc51f1281c43","system_id":"levelo_inurba_marseille","lat":43.28039,"lon":5.36951,"is_reserved":false,"is_disabled":false,"rental_uris":{"android":"levelo://app?vid=7c349544-e70d-4216-a79c-dc51f1281c43","ios":"levelo://app?vid=7c349544-e70d-4216-a79c-dc51f1281c43"},"vehicle_type_id":"4","last_reported":1733705585,"current_range_meters":38000,"station_id":"ce4bha12rcd13ifvqef0","pricing_plan_id":"cebpf4jnsgd1na2vs0mg"},{"bike_id":"d614118c-e543-4083-a287-18eb685288e3","system_id":"levelo_inurba_marseille","lat":43.27172,"lon":5.4099,"is_reserved":false,"is_disabled":false,"rental_uris":{"android":"levelo://app?vid=d614118c-e543-4083-a287-18eb685288e3","ios":"levelo://app?vid=d614118c-e543-4083-a287-18eb685288e3"},"vehicle_type_id":"4","last_reported":1733705585,"current_range_meters":15200,"station_id":"ce4bhl12rcd13ifvqgf0","pricing_plan_id":"cebpf4jnsgd1na2vs0mg"},{"bike_id":"e23cee80-994b-465d-a199-77212dcb20aa","system_id":"levelo_inurba_marseille","lat":43.25004,"lon":5.38924,"is_reserved":false,"is_disabled":false,"rental_uris":{"android":"levelo://app?vid=e23cee80-994b-465d-a199-77212dcb20aa","ios":"levelo://app?vid=e23cee80-994b-465d-a199-77212dcb20aa"},"vehicle_type_id":"4","last_reported":1733705585,"current_range_meters":18000,"station_id":"ce4bhgp2rcd13ifvqfd0","pricing_plan_id":"cebpf4jnsgd1na2vs0mg"},{"bike_id":"cba5ea6a-8f0d-4476-a363-a26142f67d5f","system_id":"levelo_inurba_marseille","lat":43.27833,"lon":5.39206,"is_reserved":false,"is_disabled":false,"rental_uris":{"android":"levelo://app?vid=cba5ea6a-8f0d-4476-a363-a26142f67d5f","ios":"levelo://app?vid=cba5ea6a-8f0d-4476-a363-a26142f67d5f"},"vehicle_type_id":"4","last_reported":1733705585,"current_range_meters":38800,"station_id":"ce4bhjp2rcd13ifvqga0","pricing_plan_id":"cebpf4jnsgd1na2vs0mg"},{"bike_id":"a813017d-3f52-45cc-9b3f-dac1d2cd8a34","system_id":"levelo_inurba_marseille","lat":43.2867,"lon":5.38663,"is_reserved":false,"is_disabled":false,"rental_uris":{"android":"levelo://app?vid=a813017d-3f52-45cc-9b3f-dac1d2cd8a34","ios":"levelo://app?vid=a813017d-3f52-45cc-9b3f-dac1d2cd8a34"},"vehicle_type_id":"4","last_reported":1733705585,"current_range_meters":38000,"station_id":"ce4bh492rcd13ifvqdug","pricing_plan_id":"cebpf4jnsgd1na2vs0mg"},{"bike_id":"6044ac42-cb2d-4c7f-acfe-e1bb97d6b5db","system_id":"levelo_inurba_marseille","lat":43.32339,"lon":5.40625,"is_reserved":false,"is_disabled":false,"rental_uris":{"android":"levelo://app?vid=6044ac42-cb2d-4c7f-acfe-e1bb97d6b5db","ios":"levelo://app?vid=6044ac42-cb2d-4c7f-acfe-e1bb97d6b5db"},"vehicle_type_id":"4","last_reported":1733705585,"current_range_meters":26800,"station_id":"ce4bhq92rcd13ifvqhjg","pricing_plan_id":"cebpf4jnsgd1na2vs0mg"},{"bike_id":"847d968a-7861-49ab-a45b-8c40152e3692","system_id":"levelo_inurba_marseille","lat":43.32,"lon":5.38158,"is_reserved":false,"is_disabled":false,"rental_uris":{"android":"levelo://app?vid=847d968a-7861-49ab-a45b-8c40152e3692","ios":"levelo://app?vid=847d968a-7861-49ab-a45b-8c40152e3692"},"vehicle_type_id":"4","last_reported":1733705585,"current_range_meters":7200,"station_id":"ce4bhr12rcd13ifvqhpg","pricing_plan_id":"cebpf4jnsgd1na2vs0mg"},{"bike_id":"dc39327a-eb24-4359-8324-71c9d8482f31","system_id":"levelo_inurba_marseille","lat":43.23187,"lon":5.39983,"is_reserved":false,"is_disabled":false,"rental_uris":{"android":"levelo://app?vid=dc39327a-eb24-4359-8324-71c9d8482f31","ios":"levelo://app?vid=dc39327a-eb24-4359-8324-71c9d8482f31"},"vehicle_type_id":"4","last_reported":1733705585,"current_range_meters":37600,"station_id":"ce4bhn12rcd13ifvqgqg","pricing_plan_id":"cebpf4jnsgd1na2vs0mg"},{"bike_id":"1a572d35-d484-45c0-8bc4-913107598312","system_id":"levelo_inurba_marseille","lat":43.27374,"lon":5.36247,"is_reserved":false,"is_disabled":false,"rental_uris":{"android":"levelo://app?vid=1a572d35-d484-45c0-8bc4-913107598312","ios":"levelo://app?vid=1a572d35-d484-45c0-8bc4-913107598312"},"vehicle_type_id":"4","last_reported":1733705585,"current_range_meters":31200,"station_id":"ce4bhbh2rcd13ifvqeo0","pricing_plan_id":"cebpf4jnsgd1na2vs0mg"},{"bike_id":"9aa3780a-6013-45f7-8f19-55cea3085c1f","system_id":"levelo_inurba_marseille","lat":43.27502,"lon":5.42453,"is_reserved":false,"is_disabled":false,"rental_uris":{"android":"levelo://app?vid=9aa3780a-6013-45f7-8f19-55cea3085c1f","ios":"levelo://app?vid=9aa3780a-6013-45f7-8f19-55cea3085c1f"},"vehicle_type_id":"4","last_reported":1733705585,"current_range_meters":28000,"station_id":"ce4bhn92rcd13ifvqgrg","pricing_plan_id":"cebpf4jnsgd1na2vs0mg"},{"bike_id":"9701f6d6-e1bf-40be-aa6d-db3f664a7ef7","system_id":"levelo_inurba_marseille","lat":43.251099,"lon":5.403244,"is_reserved":false,"is_disabled":false,"rental_uris":{"android":"levelo://app?vid=9701f6d6-e1bf-40be-aa6d-db3f664a7ef7","ios":"levelo://app?vid=9701f6d6-e1bf-40be-aa6d-db3f664a7ef7"},"vehicle_type_id":"4","last_reported":1733705585,"current_range_meters":38800,"station_id":"ce4bhlh2rcd13ifvqgig","pricing_plan_id":"cebpf4jnsgd1na2vs0mg"},{"bike_id":"67378829-8746-46f4-aa10-ed9b35d85ab5","system_id":"levelo_inurba_marseille","lat":43.28935,"lon":5.36622,"is_reserved":false,"is_disabled":true,"rental_uris":{"android":"levelo://app?vid=67378829-8746-46f4-aa10-ed9b35d85ab5","ios":"levelo://app?vid=67378829-8746-46f4-aa10-ed9b35d85ab5"},"vehicle_type_id":"4","last_reported":1733705585,"current_range_meters":38400,"station_id":"ce4bhap2rcd13ifvqek0","pricing_plan_id":"cebpf4jnsgd1na2vs0mg"},{"bike_id":"74ddbdc3-b082-4f44-a075-38dfc2e6b2cd","system_id":"levelo_inurba_marseille","lat":43.24164,"lon":5.36396,"is_reserved":false,"is_disabled":false,"rental_uris":{"android":"levelo://app?vid=74ddbdc3-b082-4f44-a075-38dfc2e6b2cd","ios":"levelo://app?vid=74ddbdc3-b082-4f44-a075-38dfc2e6b2cd"},"vehicle_type_id":"4","last_reported":1733705585,"current_range_meters":28800,"station_id":"cpo36qri1sfpv3e86is0","pricing_plan_id":"cebpf4jnsgd1na2vs0mg"},{"bike_id":"03d96cf3-c9ae-4060-a810-8d1365f77b7c","system_id":"levelo_inurba_marseille","lat":43.28268,"lon":5.35073,"is_reserved":false,"is_disabled":false,"rental_uris":{"android":"levelo://app?vid=03d96cf3-c9ae-4060-a810-8d1365f77b7c","ios":"levelo://app?vid=03d96cf3-c9ae-4060-a810-8d1365f77b7c"},"vehicle_type_id":"4","last_reported":1733705585,"current_range_meters":26000,"station_id":"ce4bhbp2rcd13ifvqerg","pricing_plan_id":"cebpf4jnsgd1na2vs0mg"},{"bike_id":"8171ac9a-b6ac-4295-aad4-cdf4428d56ee","system_id":"levelo_inurba_marseille","lat":43.23195,"lon":5.35548,"is_reserved":false,"is_disabled":false,"rental_uris":{"android":"levelo://app?vid=8171ac9a-b6ac-4295-aad4-cdf4428d56ee","ios":"levelo://app?vid=8171ac9a-b6ac-4295-aad4-cdf4428d56ee"},"vehicle_type_id":"4","last_reported":1733705585,"current_range_meters":10000,"station_id":"ce4bhu92rcd13ifvqi70","pricing_plan_id":"cebpf4jnsgd1na2vs0mg"},{"bike_id":"578859b3-1935-469b-a935-c202cb7282d7","system_id":"levelo_inurba_marseille","lat":43.29883,"lon":5.39756,"is_reserved":false,"is_disabled":false,"rental_uris":{"android":"levelo://app?vid=578859b3-1935-469b-a935-c202cb7282d7","ios":"levelo://app?vid=578859b3-1935-469b-a935-c202cb7282d7"},"vehicle_type_id":"4","last_reported":1733705585,"current_range_meters":38800,"station_id":"ce4bh0h2rcd13ifvqd50","pricing_plan_id":"cebpf4jnsgd1na2vs0mg"},{"bike_id":"f942e722-5039-4601-9971-0207b150598d","system_id":"levelo_inurba_marseille","lat":43.29855,"lon":5.36289,"is_reserved":false,"is_disabled":false,"rental_uris":{"android":"levelo://app?vid=f942e722-5039-4601-9971-0207b150598d","ios":"levelo://app?vid=f942e722-5039-4601-9971-0207b150598d"},"vehicle_type_id":"4","last_reported":1733705585,"current_range_meters":25600,"station_id":"ce4bgpp2rcd13ifvqc3g","pricing_plan_id":"cebpf4jnsgd1na2vs0mg"},{"bike_id":"9cd79aab-6f4c-4919-b570-803a9e8b35c5","system_id":"levelo_inurba_marseille","lat":43.304632,"lon":5.367066,"is_reserved":false,"is_disabled":true,"rental_uris":{"android":"levelo://app?vid=9cd79aab-6f4c-4919-b570-803a9e8b35c5","ios":"levelo://app?vid=9cd79aab-6f4c-4919-b570-803a9e8b35c5"},"vehicle_type_id":"4","last_reported":1733705585,"current_range_meters":30000,"station_id":"","pricing_plan_id":"cebpf4jnsgd1na2vs0mg"},{"bike_id":"8f1a4bb4-2767-4711-83b9-7c324f466baf","system_id":"levelo_inurba_marseille","lat":43.25087,"lon":5.39524,"is_reserved":false,"is_disabled":false,"rental_uris":{"android":"levelo://app?vid=8f1a4bb4-2767-4711-83b9-7c324f466baf","ios":"levelo://app?vid=8f1a4bb4-2767-4711-83b9-7c324f466baf"},"vehicle_type_id":"4","last_reported":1733705585,"current_range_meters":38800,"station_id":"ce4bhm12rcd13ifvqgkg","pricing_plan_id":"cebpf4jnsgd1na2vs0mg"},{"bike_id":"1c3ab332-2980-43f4-99ba-df9a7ec918f9","system_id":"levelo_inurba_marseille","lat":43.30164,"lon":5.38081,"is_reserved":false,"is_disabled":false,"rental_uris":{"android":"levelo://app?vid=1c3ab332-2980-43f4-99ba-df9a7ec918f9","ios":"levelo://app?vid=1c3ab332-2980-43f4-99ba-df9a7ec918f9"},"vehicle_type_id":"4","last_reported":1733705585,"current_range_meters":20800,"station_id":"ce4bhm12rcd13ifvqgkg","pricing_plan_id":"cebpf4jnsgd1na2vs0mg"},{"bike_id":"d316433b-de77-48bf-9cbb-3830eee5ce74","system_id":"levelo_inurba_marseille","lat":43.27992,"lon":5.41658,"is_reserved":false,"is_disabled":true,"rental_uris":{"android":"levelo://app?vid=d316433b-de77-48bf-9cbb-3830eee5ce74","ios":"levelo://app?vid=d316433b-de77-48bf-9cbb-3830eee5ce74"},"vehicle_type_id":"4","last_reported":1733705585,"current_range_meters":800,"station_id":"ce4bho12rcd13ifvqh1g","pricing_plan_id":"cebpf4jnsgd1na2vs0mg"},{"bike_id":"165d3311-a977-4745-b689-5e6993d37f26","system_id":"levelo_inurba_marseille","lat":43.32488,"lon":5.36555,"is_reserved":false,"is_disabled":true,"rental_uris":{"android":"levelo://app?vid=165d3311-a977-4745-b689-5e6993d37f26","ios":"levelo://app?vid=165d3311-a977-4745-b689-5e6993d37f26"},"vehicle_type_id":"4","last_reported":1733705585,"current_range_meters":38800,"station_id":"ce4bhs12rcd13ifvqhvg","pricing_plan_id":"cebpf4jnsgd1na2vs0mg"},{"bike_id":"40622ace-3ed1-4624-a35b-781f9e66527e","system_id":"levelo_inurba_marseille","lat":43.28432,"lon":5.39189,"is_reserved":false,"is_disabled":false,"rental_uris":{"android":"levelo://app?vid=40622ace-3ed1-4624-a35b-781f9e66527e","ios":"levelo://app?vid=40622ace-3ed1-4624-a35b-781f9e66527e"},"vehicle_type_id":"4","last_reported":1733705585,"current_range_meters":38400,"station_id":"ce4bhoh2rcd13ifvqh5g","pricing_plan_id":"cebpf4jnsgd1na2vs0mg"},{"bike_id":"38605755-f935-485b-9da2-acf6c1162c64","system_id":"levelo_inurba_marseille","lat":43.31328,"lon":5.39692,"is_reserved":false,"is_disabled":false,"rental_uris":{"android":"levelo://app?vid=38605755-f935-485b-9da2-acf6c1162c64","ios":"levelo://app?vid=38605755-f935-485b-9da2-acf6c1162c64"},"vehicle_type_id":"4","last_reported":1733705585,"current_range_meters":37600,"station_id":"ce4bgvp2rcd13ifvqcu0","pricing_plan_id":"cebpf4jnsgd1na2vs0mg"},{"bike_id":"11e86528-eb6b-4391-86a5-9b1822d069a4","system_id":"levelo_inurba_marseille","lat":43.278805,"lon":5.388003,"is_reserved":false,"is_disabled":true,"rental_uris":{"android":"levelo://app?vid=11e86528-eb6b-4391-86a5-9b1822d069a4","ios":"levelo://app?vid=11e86528-eb6b-4391-86a5-9b1822d069a4"},"vehicle_type_id":"4","last_reported":1733705585,"current_range_meters":0,"station_id":"","pricing_plan_id":"cebpf4jnsgd1na2vs0mg"},{"bike_id":"6cc6805f-c0ca-4585-bdf1-b5a0339762b0","system_id":"levelo_inurba_marseille","lat":43.29027,"lon":5.42744,"is_reserved":false,"is_disabled":true,"rental_uris":{"android":"levelo://app?vid=6cc6805f-c0ca-4585-bdf1-b5a0339762b0","ios":"levelo://app?vid=6cc6805f-c0ca-4585-bdf1-b5a0339762b0"},"vehicle_type_id":"4","last_reported":1733705585,"current_range_meters":0,"station_id":"","pricing_plan_id":"cebpf4jnsgd1na2vs0mg"},{"bike_id":"8e64f03f-9a37-4c3f-ba6f-dee8bcce9219","system_id":"levelo_inurba_marseille","lat":43.26681,"lon":5.38261,"is_reserved":false,"is_disabled":false,"rental_uris":{"android":"levelo://app?vid=8e64f03f-9a37-4c3f-ba6f-dee8bcce9219","ios":"levelo://app?vid=8e64f03f-9a37-4c3f-ba6f-dee8bcce9219"},"vehicle_type_id":"4","last_reported":1733705585,"current_range_meters":38800,"station_id":"ce4bhg92rcd13ifvqf90","pricing_plan_id":"cebpf4jnsgd1na2vs0mg"},{"bike_id":"a478bcff-2af8-4db5-8351-cdbe6b849a6d","system_id":"levelo_inurba_marseille","lat":43.334256,"lon":5.362025,"is_reserved":false,"is_disabled":true,"rental_uris":{"android":"levelo://app?vid=a478bcff-2af8-4db5-8351-cdbe6b849a6d","ios":"levelo://app?vid=a478bcff-2af8-4db5-8351-cdbe6b849a6d"},"vehicle_type_id":"4","last_reported":1733705585,"current_range_meters":0,"station_id":"","pricing_plan_id":"cebpf4jnsgd1na2vs0mg"},{"bike_id":"7ac264ef-6ce4-4df1-b426-6a7c545d3ef4","system_id":"levelo_inurba_marseille","lat":43.30541,"lon":5.36538,"is_reserved":false,"is_disabled":true,"rental_uris":{"android":"levelo://app?vid=7ac264ef-6ce4-4df1-b426-6a7c545d3ef4","ios":"levelo://app?vid=7ac264ef-6ce4-4df1-b426-6a7c545d3ef4"},"vehicle_type_id":"4","last_reported":1733705585,"current_range_meters":0,"station_id":"ce4bgs12rcd13ifvqcag","pricing_plan_id":"cebpf4jnsgd1na2vs0mg"},{"bike_id":"36df189f-0c76-4c2b-aa75-9eaa83d5affb","system_id":"levelo_inurba_marseille","lat":43.28569,"lon":5.39507,"is_reserved":false,"is_disabled":false,"rental_uris":{"android":"levelo://app?vid=36df189f-0c76-4c2b-aa75-9eaa83d5affb","ios":"levelo://app?vid=36df189f-0c76-4c2b-aa75-9eaa83d5affb"},"vehicle_type_id":"4","last_reported":1733705585,"current_range_meters":37600,"station_id":"ce4bh292rcd13ifvqdg0","pricing_plan_id":"cebpf4jnsgd1na2vs0mg"},{"bike_id":"d85ee049-b240-4e55-9341-61bcbe9aa4d6","system_id":"levelo_inurba_marseille","lat":43.27061,"lon":5.40255,"is_reserved":false,"is_disabled":false,"rental_uris":{"android":"levelo://app?vid=d85ee049-b240-4e55-9341-61bcbe9aa4d6","ios":"levelo://app?vid=d85ee049-b240-4e55-9341-61bcbe9aa4d6"},"vehicle_type_id":"4","last_reported":1733705585,"current_range_meters":38800,"station_id":"ce4bhk92rcd13ifvqgc0","pricing_plan_id":"cebpf4jnsgd1na2vs0mg"},{"bike_id":"ec3ad787-703a-4679-8b0f-27c7a87c79d4","system_id":"levelo_inurba_marseille","lat":43.28619,"lon":5.351,"is_reserved":false,"is_disabled":false,"rental_uris":{"android":"levelo://app?vid=ec3ad787-703a-4679-8b0f-27c7a87c79d4","ios":"levelo://app?vid=ec3ad787-703a-4679-8b0f-27c7a87c79d4"},"vehicle_type_id":"4","last_reported":1733705585,"current_range_meters":26800,"station_id":"ce4bhch2rcd13ifvqeug","pricing_plan_id":"cebpf4jnsgd1na2vs0mg"},{"bike_id":"ea9504d9-aff2-4542-b984-f952cc4ceb4b","system_id":"levelo_inurba_marseille","lat":43.25008,"lon":5.3891,"is_reserved":false,"is_disabled":false,"rental_uris":{"android":"levelo://app?vid=ea9504d9-aff2-4542-b984-f952cc4ceb4b","ios":"levelo://app?vid=ea9504d9-aff2-4542-b984-f952cc4ceb4b"},"vehicle_type_id":"4","last_reported":1733705585,"current_range_meters":8800,"station_id":"ce4bhgp2rcd13ifvqfd0","pricing_plan_id":"cebpf4jnsgd1na2vs0mg"},{"bike_id":"d3a329a4-bfef-45bb-ac1f-469dda049939","system_id":"levelo_inurba_marseille","lat":43.25117,"lon":5.4032,"is_reserved":false,"is_disabled":false,"rental_uris":{"android":"levelo://app?vid=d3a329a4-bfef-45bb-ac1f-469dda049939","ios":"levelo://app?vid=d3a329a4-bfef-45bb-ac1f-469dda049939"},"vehicle_type_id":"4","last_reported":1733705585,"current_range_meters":24000,"station_id":"ce4bhlh2rcd13ifvqgig","pricing_plan_id":"cebpf4jnsgd1na2vs0mg"},{"bike_id":"cf995f0f-a2d6-4303-85db-6d52c33aec36","system_id":"levelo_inurba_marseille","lat":43.33024,"lon":5.39039,"is_reserved":false,"is_disabled":false,"rental_uris":{"android":"levelo://app?vid=cf995f0f-a2d6-4303-85db-6d52c33aec36","ios":"levelo://app?vid=cf995f0f-a2d6-4303-85db-6d52c33aec36"},"vehicle_type_id":"4","last_reported":1733705585,"current_range_meters":38800,"station_id":"ce4bhr92rcd13ifvqhrg","pricing_plan_id":"cebpf4jnsgd1na2vs0mg"},{"bike_id":"25ceb993-03b3-4e40-9bc1-0775c278f266","system_id":"levelo_inurba_marseille","lat":43.33025,"lon":5.39037,"is_reserved":false,"is_disabled":false,"rental_uris":{"android":"levelo://app?vid=25ceb993-03b3-4e40-9bc1-0775c278f266","ios":"levelo://app?vid=25ceb993-03b3-4e40-9bc1-0775c278f266"},"vehicle_type_id":"4","last_reported":1733705585,"current_range_meters":27200,"station_id":"ce4bhr92rcd13ifvqhrg","pricing_plan_id":"cebpf4jnsgd1na2vs0mg"},{"bike_id":"e301fb9b-fdcc-43a0-ab66-d6957eaeb5ee","system_id":"levelo_inurba_marseille","lat":43.23148,"lon":5.43724,"is_reserved":false,"is_disabled":false,"rental_uris":{"android":"levelo://app?vid=e301fb9b-fdcc-43a0-ab66-d6957eaeb5ee","ios":"levelo://app?vid=e301fb9b-fdcc-43a0-ab66-d6957eaeb5ee"},"vehicle_type_id":"4","last_reported":1733705585,"current_range_meters":38800,"station_id":"ce4bhmp2rcd13ifvqgog","pricing_plan_id":"cebpf4jnsgd1na2vs0mg"},{"bike_id":"3a1cabfd-7ea0-40e5-ba2a-bc16f7acb1fa","system_id":"levelo_inurba_marseille","lat":43.34342,"lon":5.35807,"is_reserved":false,"is_disabled":true,"rental_uris":{"android":"levelo://app?vid=3a1cabfd-7ea0-40e5-ba2a-bc16f7acb1fa","ios":"levelo://app?vid=3a1cabfd-7ea0-40e5-ba2a-bc16f7acb1fa"},"vehicle_type_id":"4","last_reported":1733705585,"current_range_meters":0,"station_id":"","pricing_plan_id":"cebpf4jnsgd1na2vs0mg"},{"bike_id":"243c0fa9-fb27-4111-81f0-175e30eaaaed","system_id":"levelo_inurba_marseille","lat":43.29036,"lon":5.35919,"is_reserved":false,"is_disabled":true,"rental_uris":{"android":"levelo://app?vid=243c0fa9-fb27-4111-81f0-175e30eaaaed","ios":"levelo://app?vid=243c0fa9-fb27-4111-81f0-175e30eaaaed"},"vehicle_type_id":"4","last_reported":1733705585,"current_range_meters":25600,"station_id":"ce4bha92rcd13ifvqeg0","pricing_plan_id":"cebpf4jnsgd1na2vs0mg"},{"bike_id":"14726b6f-5ec7-4a0f-85ef-530d09932e2f","system_id":"levelo_inurba_marseille","lat":43.25721,"lon":5.41114,"is_reserved":false,"is_disabled":false,"rental_uris":{"android":"levelo://app?vid=14726b6f-5ec7-4a0f-85ef-530d09932e2f","ios":"levelo://app?vid=14726b6f-5ec7-4a0f-85ef-530d09932e2f"},"vehicle_type_id":"4","last_reported":1733705585,"current_range_meters":9200,"station_id":"ce4bhkp2rcd13ifvqgd0","pricing_plan_id":"cebpf4jnsgd1na2vs0mg"},{"bike_id":"3ce06bcb-2eb3-4773-953e-9fa5fbc3e76f","system_id":"levelo_inurba_marseille","lat":43.29567,"lon":5.39976,"is_reserved":false,"is_disabled":false,"rental_uris":{"android":"levelo://app?vid=3ce06bcb-2eb3-4773-953e-9fa5fbc3e76f","ios":"levelo://app?vid=3ce06bcb-2eb3-4773-953e-9fa5fbc3e76f"},"vehicle_type_id":"4","last_reported":1733705585,"current_range_meters":38000,"station_id":"ce4bh312rcd13ifvqdj0","pricing_plan_id":"cebpf4jnsgd1na2vs0mg"},{"bike_id":"58ce5a96-1e49-4052-bc0a-d55aab25941f","system_id":"levelo_inurba_marseille","lat":43.31365,"lon":5.38497,"is_reserved":false,"is_disabled":false,"rental_uris":{"android":"levelo://app?vid=58ce5a96-1e49-4052-bc0a-d55aab25941f","ios":"levelo://app?vid=58ce5a96-1e49-4052-bc0a-d55aab25941f"},"vehicle_type_id":"4","last_reported":1733705585,"current_range_meters":36000,"station_id":"ce4bgt92rcd13ifvqcf0","pricing_plan_id":"cebpf4jnsgd1na2vs0mg"},{"bike_id":"95b68163-8c31-4ce4-989b-0d594a1f53e9","system_id":"levelo_inurba_marseille","lat":43.29687,"lon":5.37249,"is_reserved":false,"is_disabled":false,"rental_uris":{"android":"levelo://app?vid=95b68163-8c31-4ce4-989b-0d594a1f53e9","ios":"levelo://app?vid=95b68163-8c31-4ce4-989b-0d594a1f53e9"},"vehicle_type_id":"4","last_reported":1733705585,"current_range_meters":29600,"station_id":"ce4bgk12rcd13ifvqbj0","pricing_plan_id":"cebpf4jnsgd1na2vs0mg"},{"bike_id":"5e16f6e2-b594-4639-a2fe-19475cc24c6f","system_id":"levelo_inurba_marseille","lat":43.28968,"lon":5.37837,"is_reserved":false,"is_disabled":false,"rental_uris":{"android":"levelo://app?vid=5e16f6e2-b594-4639-a2fe-19475cc24c6f","ios":"levelo://app?vid=5e16f6e2-b594-4639-a2fe-19475cc24c6f"},"vehicle_type_id":"4","last_reported":1733705585,"current_range_meters":32000,"station_id":"ce4bh9p2rcd13ifvqed0","pricing_plan_id":"cebpf4jnsgd1na2vs0mg"},{"bike_id":"fbcf886d-6d6c-4e87-9335-231f3937d367","system_id":"levelo_inurba_marseille","lat":43.31526,"lon":5.38034,"is_reserved":false,"is_disabled":false,"rental_uris":{"android":"levelo://app?vid=fbcf886d-6d6c-4e87-9335-231f3937d367","ios":"levelo://app?vid=fbcf886d-6d6c-4e87-9335-231f3937d367"},"vehicle_type_id":"4","last_reported":1733705585,"current_range_meters":39200,"station_id":"ce4bhsp2rcd13ifvqi50","pricing_plan_id":"cebpf4jnsgd1na2vs0mg"},{"bike_id":"efc69698-72f6-496b-99c8-9d3ff2f4c8db","system_id":"levelo_inurba_marseille","lat":43.30322,"lon":5.40434,"is_reserved":false,"is_disabled":false,"rental_uris":{"android":"levelo://app?vid=efc69698-72f6-496b-99c8-9d3ff2f4c8db","ios":"levelo://app?vid=efc69698-72f6-496b-99c8-9d3ff2f4c8db"},"vehicle_type_id":"4","last_reported":1733705585,"current_range_meters":38000,"station_id":"ce4bh012rcd13ifvqd10","pricing_plan_id":"cebpf4jnsgd1na2vs0mg"},{"bike_id":"6cfee7c4-7a5d-46bf-8acd-0d5478e592ea","system_id":"levelo_inurba_marseille","lat":43.33022,"lon":5.390326,"is_reserved":false,"is_disabled":false,"rental_uris":{"android":"levelo://app?vid=6cfee7c4-7a5d-46bf-8acd-0d5478e592ea","ios":"levelo://app?vid=6cfee7c4-7a5d-46bf-8acd-0d5478e592ea"},"vehicle_type_id":"4","last_reported":1733705585,"current_range_meters":39200,"station_id":"ce4bhr92rcd13ifvqhrg","pricing_plan_id":"cebpf4jnsgd1na2vs0mg"},{"bike_id":"cf48f6be-c2ce-4056-9b7a-3a650e6afe43","system_id":"levelo_inurba_marseille","lat":43.29554,"lon":5.4228,"is_reserved":false,"is_disabled":false,"rental_uris":{"android":"levelo://app?vid=cf48f6be-c2ce-4056-9b7a-3a650e6afe43","ios":"levelo://app?vid=cf48f6be-c2ce-4056-9b7a-3a650e6afe43"},"vehicle_type_id":"4","last_reported":1733705585,"current_range_meters":38800,"station_id":"ce4bhph2rcd13ifvqhdg","pricing_plan_id":"cebpf4jnsgd1na2vs0mg"},{"bike_id":"2be97ccb-b953-4305-9487-268ca9b01140","system_id":"levelo_inurba_marseille","lat":43.28426,"lon":5.34974,"is_reserved":false,"is_disabled":false,"rental_uris":{"android":"levelo://app?vid=2be97ccb-b953-4305-9487-268ca9b01140","ios":"levelo://app?vid=2be97ccb-b953-4305-9487-268ca9b01140"},"vehicle_type_id":"4","last_reported":1733705585,"current_range_meters":38800,"station_id":"ce4bhbh2rcd13ifvqepg","pricing_plan_id":"cebpf4jnsgd1na2vs0mg"},{"bike_id":"f4d6b6fa-2f0c-4770-bd83-f731dcc37d05","system_id":"levelo_inurba_marseille","lat":43.23187,"lon":5.39984,"is_reserved":false,"is_disabled":false,"rental_uris":{"android":"levelo://app?vid=f4d6b6fa-2f0c-4770-bd83-f731dcc37d05","ios":"levelo://app?vid=f4d6b6fa-2f0c-4770-bd83-f731dcc37d05"},"vehicle_type_id":"4","last_reported":1733705585,"current_range_meters":16000,"station_id":"ce4bhn12rcd13ifvqgqg","pricing_plan_id":"cebpf4jnsgd1na2vs0mg"},{"bike_id":"293adeb4-9245-425e-9f3a-ce3bf4283b35","system_id":"levelo_inurba_marseille","lat":43.28725,"lon":5.36077,"is_reserved":false,"is_disabled":false,"rental_uris":{"android":"levelo://app?vid=293adeb4-9245-425e-9f3a-ce3bf4283b35","ios":"levelo://app?vid=293adeb4-9245-425e-9f3a-ce3bf4283b35"},"vehicle_type_id":"4","last_reported":1733705585,"current_range_meters":38800,"station_id":"cki0cbj6b192h4jlfktg","pricing_plan_id":"cebpf4jnsgd1na2vs0mg"},{"bike_id":"067d4f8e-eded-4040-9b89-eb14aebc4852","system_id":"levelo_inurba_marseille","lat":43.29896,"lon":5.4367,"is_reserved":false,"is_disabled":false,"rental_uris":{"android":"levelo://app?vid=067d4f8e-eded-4040-9b89-eb14aebc4852","ios":"levelo://app?vid=067d4f8e-eded-4040-9b89-eb14aebc4852"},"vehicle_type_id":"4","last_reported":1733705585,"current_range_meters":38800,"station_id":"ce4bhpp2rcd13ifvqhfg","pricing_plan_id":"cebpf4jnsgd1na2vs0mg"},{"bike_id":"6a26f56c-bd53-417f-9d39-72b6fbbc0c09","system_id":"levelo_inurba_marseille","lat":43.28079,"lon":5.39655,"is_reserved":false,"is_disabled":false,"rental_uris":{"android":"levelo://app?vid=6a26f56c-bd53-417f-9d39-72b6fbbc0c09","ios":"levelo://app?vid=6a26f56c-bd53-417f-9d39-72b6fbbc0c09"},"vehicle_type_id":"4","last_reported":1733705585,"current_range_meters":38800,"station_id":"ce4bho12rcd13ifvqh2g","pricing_plan_id":"cebpf4jnsgd1na2vs0mg"},{"bike_id":"5f2938b4-a857-4d33-8881-41fd3c708c57","system_id":"levelo_inurba_marseille","lat":43.23183,"lon":5.39989,"is_reserved":false,"is_disabled":false,"rental_uris":{"android":"levelo://app?vid=5f2938b4-a857-4d33-8881-41fd3c708c57","ios":"levelo://app?vid=5f2938b4-a857-4d33-8881-41fd3c708c57"},"vehicle_type_id":"4","last_reported":1733705585,"current_range_meters":12800,"station_id":"ce4bhn12rcd13ifvqgqg","pricing_plan_id":"cebpf4jnsgd1na2vs0mg"},{"bike_id":"83985555-c848-4b28-808f-8a7e7cf8519e","system_id":"levelo_inurba_marseille","lat":43.28115,"lon":5.43955,"is_reserved":false,"is_disabled":true,"rental_uris":{"android":"levelo://app?vid=83985555-c848-4b28-808f-8a7e7cf8519e","ios":"levelo://app?vid=83985555-c848-4b28-808f-8a7e7cf8519e"},"vehicle_type_id":"4","last_reported":1733705585,"current_range_meters":0,"station_id":"","pricing_plan_id":"cebpf4jnsgd1na2vs0mg"},{"bike_id":"9f3769a7-f392-475e-913a-8ad10d3e2daf","system_id":"levelo_inurba_marseille","lat":43.24164,"lon":5.36401,"is_reserved":false,"is_disabled":false,"rental_uris":{"android":"levelo://app?vid=9f3769a7-f392-475e-913a-8ad10d3e2daf","ios":"levelo://app?vid=9f3769a7-f392-475e-913a-8ad10d3e2daf"},"vehicle_type_id":"4","last_reported":1733705585,"current_range_meters":24800,"station_id":"cpo36qri1sfpv3e86is0","pricing_plan_id":"cebpf4jnsgd1na2vs0mg"},{"bike_id":"f78ffcf1-0cd4-4d26-92b8-c67547415c10","system_id":"levelo_inurba_marseille","lat":43.28675,"lon":5.38663,"is_reserved":false,"is_disabled":false,"rental_uris":{"android":"levelo://app?vid=f78ffcf1-0cd4-4d26-92b8-c67547415c10","ios":"levelo://app?vid=f78ffcf1-0cd4-4d26-92b8-c67547415c10"},"vehicle_type_id":"4","last_reported":1733705585,"current_range_meters":38800,"station_id":"ce4bh492rcd13ifvqdug","pricing_plan_id":"cebpf4jnsgd1na2vs0mg"},{"bike_id":"0bc6be99-ecc4-477e-ba87-e38ba2c0e9d0","system_id":"levelo_inurba_marseille","lat":43.32659,"lon":5.40973,"is_reserved":false,"is_disabled":false,"rental_uris":{"android":"levelo://app?vid=0bc6be99-ecc4-477e-ba87-e38ba2c0e9d0","ios":"levelo://app?vid=0bc6be99-ecc4-477e-ba87-e38ba2c0e9d0"},"vehicle_type_id":"4","last_reported":1733705585,"current_range_meters":16800,"station_id":"ce4bhpp2rcd13ifvqhgg","pricing_plan_id":"cebpf4jnsgd1na2vs0mg"},{"bike_id":"df6e090e-aa2a-4277-9430-ed00555db6a4","system_id":"levelo_inurba_marseille","lat":43.25856,"lon":5.39904,"is_reserved":false,"is_disabled":false,"rental_uris":{"android":"levelo://app?vid=df6e090e-aa2a-4277-9430-ed00555db6a4","ios":"levelo://app?vid=df6e090e-aa2a-4277-9430-ed00555db6a4"},"vehicle_type_id":"4","last_reported":1733705585,"current_range_meters":38000,"station_id":"ce4bhl92rcd13ifvqghg","pricing_plan_id":"cebpf4jnsgd1na2vs0mg"},{"bike_id":"2c975146-f900-4c24-a396-cc170b581593","system_id":"levelo_inurba_marseille","lat":43.32652,"lon":5.40987,"is_reserved":false,"is_disabled":false,"rental_uris":{"android":"levelo://app?vid=2c975146-f900-4c24-a396-cc170b581593","ios":"levelo://app?vid=2c975146-f900-4c24-a396-cc170b581593"},"vehicle_type_id":"4","last_reported":1733705585,"current_range_meters":17600,"station_id":"ce4bhpp2rcd13ifvqhgg","pricing_plan_id":"cebpf4jnsgd1na2vs0mg"},{"bike_id":"5042fcbc-ec73-481f-ba30-c4ac42d70d60","system_id":"levelo_inurba_marseille","lat":43.3123,"lon":5.36857,"is_reserved":false,"is_disabled":false,"rental_uris":{"android":"levelo://app?vid=5042fcbc-ec73-481f-ba30-c4ac42d70d60","ios":"levelo://app?vid=5042fcbc-ec73-481f-ba30-c4ac42d70d60"},"vehicle_type_id":"4","last_reported":1733705585,"current_range_meters":22000,"station_id":"ce4bgl92rcd13ifvqbq0","pricing_plan_id":"cebpf4jnsgd1na2vs0mg"},{"bike_id":"604f272d-4468-44e6-8473-b67d6c16cf8a","system_id":"levelo_inurba_marseille","lat":43.3029,"lon":5.39203,"is_reserved":false,"is_disabled":false,"rental_uris":{"android":"levelo://app?vid=604f272d-4468-44e6-8473-b67d6c16cf8a","ios":"levelo://app?vid=604f272d-4468-44e6-8473-b67d6c16cf8a"},"vehicle_type_id":"4","last_reported":1733705585,"current_range_meters":38800,"station_id":"ce4bgkh2rcd13ifvqbk0","pricing_plan_id":"cebpf4jnsgd1na2vs0mg"},{"bike_id":"4f24dfdd-d799-4325-ae50-35af627ad4ab","system_id":"levelo_inurba_marseille","lat":43.23196,"lon":5.35548,"is_reserved":false,"is_disabled":false,"rental_uris":{"android":"levelo://app?vid=4f24dfdd-d799-4325-ae50-35af627ad4ab","ios":"levelo://app?vid=4f24dfdd-d799-4325-ae50-35af627ad4ab"},"vehicle_type_id":"4","last_reported":1733705585,"current_range_meters":12000,"station_id":"ce4bhu92rcd13ifvqi70","pricing_plan_id":"cebpf4jnsgd1na2vs0mg"},{"bike_id":"9eaed330-d346-4322-87d7-4fe15ccf7ddf","system_id":"levelo_inurba_marseille","lat":43.32656,"lon":5.40972,"is_reserved":false,"is_disabled":true,"rental_uris":{"android":"levelo://app?vid=9eaed330-d346-4322-87d7-4fe15ccf7ddf","ios":"levelo://app?vid=9eaed330-d346-4322-87d7-4fe15ccf7ddf"},"vehicle_type_id":"4","last_reported":1733705585,"current_range_meters":32000,"station_id":"ce4bhpp2rcd13ifvqhgg","pricing_plan_id":"cebpf4jnsgd1na2vs0mg"},{"bike_id":"4e2ff6f4-65d0-4b75-8a95-9ffd42c4d397","system_id":"levelo_inurba_marseille","lat":43.28295,"lon":5.35076,"is_reserved":false,"is_disabled":false,"rental_uris":{"android":"levelo://app?vid=4e2ff6f4-65d0-4b75-8a95-9ffd42c4d397","ios":"levelo://app?vid=4e2ff6f4-65d0-4b75-8a95-9ffd42c4d397"},"vehicle_type_id":"4","last_reported":1733705585,"current_range_meters":30000,"station_id":"ce4bhbp2rcd13ifvqerg","pricing_plan_id":"cebpf4jnsgd1na2vs0mg"},{"bike_id":"5edf82fa-e9d0-4d1f-98f1-37c98092771a","system_id":"levelo_inurba_marseille","lat":43.23193,"lon":5.35546,"is_reserved":false,"is_disabled":false,"rental_uris":{"android":"levelo://app?vid=5edf82fa-e9d0-4d1f-98f1-37c98092771a","ios":"levelo://app?vid=5edf82fa-e9d0-4d1f-98f1-37c98092771a"},"vehicle_type_id":"4","last_reported":1733705585,"current_range_meters":38800,"station_id":"ce4bhu92rcd13ifvqi70","pricing_plan_id":"cebpf4jnsgd1na2vs0mg"},{"bike_id":"2ab19dec-8484-4bd4-a7cc-2566611683b2","system_id":"levelo_inurba_marseille","lat":43.27618,"lon":5.36119,"is_reserved":false,"is_disabled":false,"rental_uris":{"android":"levelo://app?vid=2ab19dec-8484-4bd4-a7cc-2566611683b2","ios":"levelo://app?vid=2ab19dec-8484-4bd4-a7cc-2566611683b2"},"vehicle_type_id":"4","last_reported":1733705585,"current_range_meters":10800,"station_id":"ce4bgj92rcd13ifvqbe0","pricing_plan_id":"cebpf4jnsgd1na2vs0mg"},{"bike_id":"3afcb54a-b8a5-40bb-8ae8-ddf1f47b8268","system_id":"levelo_inurba_marseille","lat":43.30549,"lon":5.38435,"is_reserved":false,"is_disabled":true,"rental_uris":{"android":"levelo://app?vid=3afcb54a-b8a5-40bb-8ae8-ddf1f47b8268","ios":"levelo://app?vid=3afcb54a-b8a5-40bb-8ae8-ddf1f47b8268"},"vehicle_type_id":"4","last_reported":1733705585,"current_range_meters":28400,"station_id":"ce4bgg92rcd13ifvqb30","pricing_plan_id":"cebpf4jnsgd1na2vs0mg"},{"bike_id":"7f2804b1-b3e9-412d-a43b-1d98532e713a","system_id":"levelo_inurba_marseille","lat":43.32,"lon":5.38155,"is_reserved":false,"is_disabled":false,"rental_uris":{"android":"levelo://app?vid=7f2804b1-b3e9-412d-a43b-1d98532e713a","ios":"levelo://app?vid=7f2804b1-b3e9-412d-a43b-1d98532e713a"},"vehicle_type_id":"4","last_reported":1733705585,"current_range_meters":37600,"station_id":"ce4bhr12rcd13ifvqhpg","pricing_plan_id":"cebpf4jnsgd1na2vs0mg"},{"bike_id":"a76f0499-0af6-402b-8f9f-ddd78320a7b4","system_id":"levelo_inurba_marseille","lat":43.30458,"lon":5.37901,"is_reserved":false,"is_disabled":true,"rental_uris":{"android":"levelo://app?vid=a76f0499-0af6-402b-8f9f-ddd78320a7b4","ios":"levelo://app?vid=a76f0499-0af6-402b-8f9f-ddd78320a7b4"},"vehicle_type_id":"4","last_reported":1733705585,"current_range_meters":0,"station_id":"ce4bgup2rcd13ifvqcn0","pricing_plan_id":"cebpf4jnsgd1na2vs0mg"},{"bike_id":"83319820-ad4f-4208-bf65-c9fc431b1a4c","system_id":"levelo_inurba_marseille","lat":43.25831,"lon":5.39431,"is_reserved":false,"is_disabled":false,"rental_uris":{"android":"levelo://app?vid=83319820-ad4f-4208-bf65-c9fc431b1a4c","ios":"levelo://app?vid=83319820-ad4f-4208-bf65-c9fc431b1a4c"},"vehicle_type_id":"4","last_reported":1733705585,"current_range_meters":25600,"station_id":"ce4bhip2rcd13ifvqft0","pricing_plan_id":"cebpf4jnsgd1na2vs0mg"},{"bike_id":"93a18ec6-8a93-41ae-8838-c9ced51de8e9","system_id":"levelo_inurba_marseille","lat":43.2668,"lon":5.3827,"is_reserved":false,"is_disabled":true,"rental_uris":{"android":"levelo://app?vid=93a18ec6-8a93-41ae-8838-c9ced51de8e9","ios":"levelo://app?vid=93a18ec6-8a93-41ae-8838-c9ced51de8e9"},"vehicle_type_id":"4","last_reported":1733705585,"current_range_meters":39200,"station_id":"ce4bhg92rcd13ifvqf90","pricing_plan_id":"cebpf4jnsgd1na2vs0mg"},{"bike_id":"9c2d089d-e580-464c-a254-a84d0c5baff8","system_id":"levelo_inurba_marseille","lat":43.25865,"lon":5.39899,"is_reserved":false,"is_disabled":false,"rental_uris":{"android":"levelo://app?vid=9c2d089d-e580-464c-a254-a84d0c5baff8","ios":"levelo://app?vid=9c2d089d-e580-464c-a254-a84d0c5baff8"},"vehicle_type_id":"4","last_reported":1733705585,"current_range_meters":37600,"station_id":"ce4bhl92rcd13ifvqghg","pricing_plan_id":"cebpf4jnsgd1na2vs0mg"},{"bike_id":"1296b478-372b-429d-b33d-510010f5814a","system_id":"levelo_inurba_marseille","lat":43.31713,"lon":5.43714,"is_reserved":false,"is_disabled":false,"rental_uris":{"android":"levelo://app?vid=1296b478-372b-429d-b33d-510010f5814a","ios":"levelo://app?vid=1296b478-372b-429d-b33d-510010f5814a"},"vehicle_type_id":"4","last_reported":1733705585,"current_range_meters":39200,"station_id":"ce4bhp92rcd13ifvqhcg","pricing_plan_id":"cebpf4jnsgd1na2vs0mg"},{"bike_id":"b497ad4d-1643-419c-aba6-8e8a5474d77a","system_id":"levelo_inurba_marseille","lat":43.29898,"lon":5.43661,"is_reserved":false,"is_disabled":false,"rental_uris":{"android":"levelo://app?vid=b497ad4d-1643-419c-aba6-8e8a5474d77a","ios":"levelo://app?vid=b497ad4d-1643-419c-aba6-8e8a5474d77a"},"vehicle_type_id":"4","last_reported":1733705585,"current_range_meters":9200,"station_id":"ce4bhpp2rcd13ifvqhfg","pricing_plan_id":"cebpf4jnsgd1na2vs0mg"},{"bike_id":"f3fad746-07ff-4910-bc4d-4607e24b419a","system_id":"levelo_inurba_marseille","lat":43.28344,"lon":5.38108,"is_reserved":false,"is_disabled":false,"rental_uris":{"android":"levelo://app?vid=f3fad746-07ff-4910-bc4d-4607e24b419a","ios":"levelo://app?vid=f3fad746-07ff-4910-bc4d-4607e24b419a"},"vehicle_type_id":"4","last_reported":1733705585,"current_range_meters":28000,"station_id":"ce4bh412rcd13ifvqdr0","pricing_plan_id":"cebpf4jnsgd1na2vs0mg"},{"bike_id":"198eaf8c-d149-43eb-8825-17963de82262","system_id":"levelo_inurba_marseille","lat":43.29464,"lon":5.43837,"is_reserved":false,"is_disabled":false,"rental_uris":{"android":"levelo://app?vid=198eaf8c-d149-43eb-8825-17963de82262","ios":"levelo://app?vid=198eaf8c-d149-43eb-8825-17963de82262"},"vehicle_type_id":"4","last_reported":1733705585,"current_range_meters":12000,"station_id":"","pricing_plan_id":"cebpf4jnsgd1na2vs0mg"},{"bike_id":"872baac7-a790-472e-a4d5-8894eb9605e5","system_id":"levelo_inurba_marseille","lat":43.28774,"lon":5.36252,"is_reserved":false,"is_disabled":false,"rental_uris":{"android":"levelo://app?vid=872baac7-a790-472e-a4d5-8894eb9605e5","ios":"levelo://app?vid=872baac7-a790-472e-a4d5-8894eb9605e5"},"vehicle_type_id":"4","last_reported":1733705585,"current_range_meters":11200,"station_id":"","pricing_plan_id":"cebpf4jnsgd1na2vs0mg"},{"bike_id":"37ae9a6a-6058-4663-a3d2-a0ad71ecd17d","system_id":"levelo_inurba_marseille","lat":43.29038,"lon":5.39952,"is_reserved":false,"is_disabled":true,"rental_uris":{"android":"levelo://app?vid=37ae9a6a-6058-4663-a3d2-a0ad71ecd17d","ios":"levelo://app?vid=37ae9a6a-6058-4663-a3d2-a0ad71ecd17d"},"vehicle_type_id":"4","last_reported":1733705585,"current_range_meters":24400,"station_id":"ce4bh392rcd13ifvqdm0","pricing_plan_id":"cebpf4jnsgd1na2vs0mg"},{"bike_id":"0deb7b46-3bee-4382-87b1-3984fb62457f","system_id":"levelo_inurba_marseille","lat":43.28741,"lon":5.38918,"is_reserved":false,"is_disabled":true,"rental_uris":{"android":"levelo://app?vid=0deb7b46-3bee-4382-87b1-3984fb62457f","ios":"levelo://app?vid=0deb7b46-3bee-4382-87b1-3984fb62457f"},"vehicle_type_id":"4","last_reported":1733705585,"current_range_meters":19200,"station_id":"","pricing_plan_id":"cebpf4jnsgd1na2vs0mg"},{"bike_id":"8c8c27b9-4530-4887-8018-1620c232225e","system_id":"levelo_inurba_marseille","lat":43.25085,"lon":5.39515,"is_reserved":false,"is_disabled":false,"rental_uris":{"android":"levelo://app?vid=8c8c27b9-4530-4887-8018-1620c232225e","ios":"levelo://app?vid=8c8c27b9-4530-4887-8018-1620c232225e"},"vehicle_type_id":"4","last_reported":1733705585,"current_range_meters":38800,"station_id":"ce4bhm12rcd13ifvqgkg","pricing_plan_id":"cebpf4jnsgd1na2vs0mg"},{"bike_id":"ef08715b-e01a-40aa-9568-ef92d5a4b20b","system_id":"levelo_inurba_marseille","lat":43.27614,"lon":5.3611,"is_reserved":false,"is_disabled":false,"rental_uris":{"android":"levelo://app?vid=ef08715b-e01a-40aa-9568-ef92d5a4b20b","ios":"levelo://app?vid=ef08715b-e01a-40aa-9568-ef92d5a4b20b"},"vehicle_type_id":"4","last_reported":1733705585,"current_range_meters":38800,"station_id":"ce4bgj92rcd13ifvqbe0","pricing_plan_id":"cebpf4jnsgd1na2vs0mg"},{"bike_id":"24dbd49e-3440-42b8-92c9-2f596e893c9c","system_id":"levelo_inurba_marseille","lat":43.24392,"lon":5.37057,"is_reserved":false,"is_disabled":false,"rental_uris":{"android":"levelo://app?vid=24dbd49e-3440-42b8-92c9-2f596e893c9c","ios":"levelo://app?vid=24dbd49e-3440-42b8-92c9-2f596e893c9c"},"vehicle_type_id":"4","last_reported":1733705585,"current_range_meters":38800,"station_id":"ce4bhhh2rcd13ifvqfk0","pricing_plan_id":"cebpf4jnsgd1na2vs0mg"},{"bike_id":"b4fe0928-0c6f-414a-8725-90be0267f3dd","system_id":"levelo_inurba_marseille","lat":43.30246,"lon":5.40068,"is_reserved":false,"is_disabled":false,"rental_uris":{"android":"levelo://app?vid=b4fe0928-0c6f-414a-8725-90be0267f3dd","ios":"levelo://app?vid=b4fe0928-0c6f-414a-8725-90be0267f3dd"},"vehicle_type_id":"4","last_reported":1733705585,"current_range_meters":37600,"station_id":"ce4bgvh2rcd13ifvqcs0","pricing_plan_id":"cebpf4jnsgd1na2vs0mg"},{"bike_id":"ad1bcb69-fc0a-4543-9b9d-3ff3f65f405f","system_id":"levelo_inurba_marseille","lat":43.31704,"lon":5.37765,"is_reserved":false,"is_disabled":false,"rental_uris":{"android":"levelo://app?vid=ad1bcb69-fc0a-4543-9b9d-3ff3f65f405f","ios":"levelo://app?vid=ad1bcb69-fc0a-4543-9b9d-3ff3f65f405f"},"vehicle_type_id":"4","last_reported":1733705585,"current_range_meters":22400,"station_id":"ce4bgth2rcd13ifvqch0","pricing_plan_id":"cebpf4jnsgd1na2vs0mg"},{"bike_id":"195b5ff7-b63f-4199-9cbb-0cef87994e28","system_id":"levelo_inurba_marseille","lat":43.33023,"lon":5.39036,"is_reserved":false,"is_disabled":false,"rental_uris":{"android":"levelo://app?vid=195b5ff7-b63f-4199-9cbb-0cef87994e28","ios":"levelo://app?vid=195b5ff7-b63f-4199-9cbb-0cef87994e28"},"vehicle_type_id":"4","last_reported":1733705585,"current_range_meters":26800,"station_id":"ce4bhr92rcd13ifvqhrg","pricing_plan_id":"cebpf4jnsgd1na2vs0mg"},{"bike_id":"74a3e5bb-1989-4b2d-bd68-c9613f10eef5","system_id":"levelo_inurba_marseille","lat":43.30353,"lon":5.41876,"is_reserved":false,"is_disabled":false,"rental_uris":{"android":"levelo://app?vid=74a3e5bb-1989-4b2d-bd68-c9613f10eef5","ios":"levelo://app?vid=74a3e5bb-1989-4b2d-bd68-c9613f10eef5"},"vehicle_type_id":"4","last_reported":1733705585,"current_range_meters":37600,"station_id":"ce4bhop2rcd13ifvqh7g","pricing_plan_id":"cebpf4jnsgd1na2vs0mg"},{"bike_id":"8b282446-798f-4de1-99f9-657f86110a34","system_id":"levelo_inurba_marseille","lat":43.30805,"lon":5.38146,"is_reserved":false,"is_disabled":false,"rental_uris":{"android":"levelo://app?vid=8b282446-798f-4de1-99f9-657f86110a34","ios":"levelo://app?vid=8b282446-798f-4de1-99f9-657f86110a34"},"vehicle_type_id":"4","last_reported":1733705585,"current_range_meters":38800,"station_id":"ce4bgt12rcd13ifvqce0","pricing_plan_id":"cebpf4jnsgd1na2vs0mg"},{"bike_id":"e652bd0e-f25c-4f49-88d2-3023d62cd5aa","system_id":"levelo_inurba_marseille","lat":43.295892,"lon":5.37506,"is_reserved":false,"is_disabled":true,"rental_uris":{"android":"levelo://app?vid=e652bd0e-f25c-4f49-88d2-3023d62cd5aa","ios":"levelo://app?vid=e652bd0e-f25c-4f49-88d2-3023d62cd5aa"},"vehicle_type_id":"4","last_reported":1733705585,"current_range_meters":0,"station_id":"","pricing_plan_id":"cebpf4jnsgd1na2vs0mg"},{"bike_id":"9f53acdf-b2be-4b69-b01b-87cbf7343be4","system_id":"levelo_inurba_marseille","lat":43.26492,"lon":5.39545,"is_reserved":false,"is_disabled":true,"rental_uris":{"android":"levelo://app?vid=9f53acdf-b2be-4b69-b01b-87cbf7343be4","ios":"levelo://app?vid=9f53acdf-b2be-4b69-b01b-87cbf7343be4"},"vehicle_type_id":"4","last_reported":1733705585,"current_range_meters":28000,"station_id":"ce4bhi12rcd13ifvqfq0","pricing_plan_id":"cebpf4jnsgd1na2vs0mg"},{"bike_id":"50f52497-54ca-47ea-a19e-1fc86f8c6045","system_id":"levelo_inurba_marseille","lat":43.28237,"lon":5.42397,"is_reserved":false,"is_disabled":true,"rental_uris":{"android":"levelo://app?vid=50f52497-54ca-47ea-a19e-1fc86f8c6045","ios":"levelo://app?vid=50f52497-54ca-47ea-a19e-1fc86f8c6045"},"vehicle_type_id":"4","last_reported":1733705585,"current_range_meters":10000,"station_id":"","pricing_plan_id":"cebpf4jnsgd1na2vs0mg"},{"bike_id":"752f0fcf-d3c3-41e2-a1e9-51894dcb343a","system_id":"levelo_inurba_marseille","lat":43.23197,"lon":5.35553,"is_reserved":false,"is_disabled":false,"rental_uris":{"android":"levelo://app?vid=752f0fcf-d3c3-41e2-a1e9-51894dcb343a","ios":"levelo://app?vid=752f0fcf-d3c3-41e2-a1e9-51894dcb343a"},"vehicle_type_id":"4","last_reported":1733705585,"current_range_meters":23200,"station_id":"ce4bhu92rcd13ifvqi70","pricing_plan_id":"cebpf4jnsgd1na2vs0mg"},{"bike_id":"8b0b2019-428d-4bab-835c-b720afaf33b5","system_id":"levelo_inurba_marseille","lat":43.27176,"lon":5.40995,"is_reserved":false,"is_disabled":false,"rental_uris":{"android":"levelo://app?vid=8b0b2019-428d-4bab-835c-b720afaf33b5","ios":"levelo://app?vid=8b0b2019-428d-4bab-835c-b720afaf33b5"},"vehicle_type_id":"4","last_reported":1733705585,"current_range_meters":7200,"station_id":"ce4bhl12rcd13ifvqgf0","pricing_plan_id":"cebpf4jnsgd1na2vs0mg"},{"bike_id":"33f1a526-a5a3-4261-b1e0-d90c46ff918d","system_id":"levelo_inurba_marseille","lat":43.28152,"lon":5.42645,"is_reserved":false,"is_disabled":true,"rental_uris":{"android":"levelo://app?vid=33f1a526-a5a3-4261-b1e0-d90c46ff918d","ios":"levelo://app?vid=33f1a526-a5a3-4261-b1e0-d90c46ff918d"},"vehicle_type_id":"4","last_reported":1733705585,"current_range_meters":24400,"station_id":"ce4bhnh2rcd13ifvqgug","pricing_plan_id":"cebpf4jnsgd1na2vs0mg"},{"bike_id":"bddfae3d-2ea3-40cd-8225-10cfaa62db1e","system_id":"levelo_inurba_marseille","lat":43.25821,"lon":5.39443,"is_reserved":false,"is_disabled":false,"rental_uris":{"android":"levelo://app?vid=bddfae3d-2ea3-40cd-8225-10cfaa62db1e","ios":"levelo://app?vid=bddfae3d-2ea3-40cd-8225-10cfaa62db1e"},"vehicle_type_id":"4","last_reported":1733705585,"current_range_meters":28800,"station_id":"ce4bhip2rcd13ifvqft0","pricing_plan_id":"cebpf4jnsgd1na2vs0mg"},{"bike_id":"7d60acff-cb6c-4a92-aca6-d0de3845edf6","system_id":"levelo_inurba_marseille","lat":43.2954,"lon":5.38546,"is_reserved":false,"is_disabled":true,"rental_uris":{"android":"levelo://app?vid=7d60acff-cb6c-4a92-aca6-d0de3845edf6","ios":"levelo://app?vid=7d60acff-cb6c-4a92-aca6-d0de3845edf6"},"vehicle_type_id":"4","last_reported":1733705585,"current_range_meters":18000,"station_id":"ce4bgih2rcd13ifvqba0","pricing_plan_id":"cebpf4jnsgd1na2vs0mg"},{"bike_id":"3245677e-636c-47c4-9f9e-1cc60ce1644d","system_id":"levelo_inurba_marseille","lat":43.27995,"lon":5.40014,"is_reserved":false,"is_disabled":false,"rental_uris":{"android":"levelo://app?vid=3245677e-636c-47c4-9f9e-1cc60ce1644d","ios":"levelo://app?vid=3245677e-636c-47c4-9f9e-1cc60ce1644d"},"vehicle_type_id":"4","last_reported":1733705585,"current_range_meters":38000,"station_id":"ce4bho92rcd13ifvqh4g","pricing_plan_id":"cebpf4jnsgd1na2vs0mg"},{"bike_id":"3776fec4-f32d-473b-b147-d1bf2b567508","system_id":"levelo_inurba_marseille","lat":43.28447,"lon":5.35902,"is_reserved":false,"is_disabled":false,"rental_uris":{"android":"levelo://app?vid=3776fec4-f32d-473b-b147-d1bf2b567508","ios":"levelo://app?vid=3776fec4-f32d-473b-b147-d1bf2b567508"},"vehicle_type_id":"4","last_reported":1733705585,"current_range_meters":37600,"station_id":"ce4bhah2rcd13ifvqei0","pricing_plan_id":"cebpf4jnsgd1na2vs0mg"},{"bike_id":"27bb93f8-2e5f-42fb-9782-40fda642790f","system_id":"levelo_inurba_marseille","lat":43.29968,"lon":5.38488,"is_reserved":false,"is_disabled":true,"rental_uris":{"android":"levelo://app?vid=27bb93f8-2e5f-42fb-9782-40fda642790f","ios":"levelo://app?vid=27bb93f8-2e5f-42fb-9782-40fda642790f"},"vehicle_type_id":"4","last_reported":1733705585,"current_range_meters":0,"station_id":"ce4bgj92rcd13ifvqbd0","pricing_plan_id":"cebpf4jnsgd1na2vs0mg"},{"bike_id":"91f37a83-d60d-465e-a3d4-8cc012fd4e4f","system_id":"levelo_inurba_marseille","lat":43.31988,"lon":5.38132,"is_reserved":false,"is_disabled":false,"rental_uris":{"android":"levelo://app?vid=91f37a83-d60d-465e-a3d4-8cc012fd4e4f","ios":"levelo://app?vid=91f37a83-d60d-465e-a3d4-8cc012fd4e4f"},"vehicle_type_id":"4","last_reported":1733705585,"current_range_meters":37600,"station_id":"ce4bhr12rcd13ifvqhpg","pricing_plan_id":"cebpf4jnsgd1na2vs0mg"},{"bike_id":"be2bf5d5-0827-4ad5-9f75-a43ca765fc98","system_id":"levelo_inurba_marseille","lat":43.28975,"lon":5.37841,"is_reserved":false,"is_disabled":true,"rental_uris":{"android":"levelo://app?vid=be2bf5d5-0827-4ad5-9f75-a43ca765fc98","ios":"levelo://app?vid=be2bf5d5-0827-4ad5-9f75-a43ca765fc98"},"vehicle_type_id":"4","last_reported":1733705585,"current_range_meters":28400,"station_id":"ce4bh9p2rcd13ifvqed0","pricing_plan_id":"cebpf4jnsgd1na2vs0mg"},{"bike_id":"b1a0b05f-6848-4795-a494-e2d42d040b49","system_id":"levelo_inurba_marseille","lat":43.28262,"lon":5.35071,"is_reserved":false,"is_disabled":false,"rental_uris":{"android":"levelo://app?vid=b1a0b05f-6848-4795-a494-e2d42d040b49","ios":"levelo://app?vid=b1a0b05f-6848-4795-a494-e2d42d040b49"},"vehicle_type_id":"4","last_reported":1733705585,"current_range_meters":27200,"station_id":"ce4bhbp2rcd13ifvqerg","pricing_plan_id":"cebpf4jnsgd1na2vs0mg"},{"bike_id":"5ad346e5-cc1c-4567-ad44-d0344de77a93","system_id":"levelo_inurba_marseille","lat":43.27076,"lon":5.42281,"is_reserved":false,"is_disabled":false,"rental_uris":{"android":"levelo://app?vid=5ad346e5-cc1c-4567-ad44-d0344de77a93","ios":"levelo://app?vid=5ad346e5-cc1c-4567-ad44-d0344de77a93"},"vehicle_type_id":"4","last_reported":1733705585,"current_range_meters":24400,"station_id":"ce4bhk92rcd13ifvqgb0","pricing_plan_id":"cebpf4jnsgd1na2vs0mg"},{"bike_id":"787d1c31-e4c3-4052-94f6-2d800d63300c","system_id":"levelo_inurba_marseille","lat":43.28689,"lon":5.39981,"is_reserved":false,"is_disabled":false,"rental_uris":{"android":"levelo://app?vid=787d1c31-e4c3-4052-94f6-2d800d63300c","ios":"levelo://app?vid=787d1c31-e4c3-4052-94f6-2d800d63300c"},"vehicle_type_id":"4","last_reported":1733705585,"current_range_meters":19600,"station_id":"ce4bho92rcd13ifvqh3g","pricing_plan_id":"cebpf4jnsgd1na2vs0mg"},{"bike_id":"ed679bdf-fd59-49c2-8596-efbeea335657","system_id":"levelo_inurba_marseille","lat":43.28693,"lon":5.39977,"is_reserved":false,"is_disabled":false,"rental_uris":{"android":"levelo://app?vid=ed679bdf-fd59-49c2-8596-efbeea335657","ios":"levelo://app?vid=ed679bdf-fd59-49c2-8596-efbeea335657"},"vehicle_type_id":"4","last_reported":1733705585,"current_range_meters":22800,"station_id":"ce4bho92rcd13ifvqh3g","pricing_plan_id":"cebpf4jnsgd1na2vs0mg"},{"bike_id":"a6b355a4-c9c8-4f60-9457-c39a2be15587","system_id":"levelo_inurba_marseille","lat":43.25931,"lon":5.40903,"is_reserved":false,"is_disabled":false,"rental_uris":{"android":"levelo://app?vid=a6b355a4-c9c8-4f60-9457-c39a2be15587","ios":"levelo://app?vid=a6b355a4-c9c8-4f60-9457-c39a2be15587"},"vehicle_type_id":"4","last_reported":1733705585,"current_range_meters":38800,"station_id":"ce4bhm92rcd13ifvqglg","pricing_plan_id":"cebpf4jnsgd1na2vs0mg"},{"bike_id":"eb543e29-8f94-4751-801d-af8a8af65010","system_id":"levelo_inurba_marseille","lat":43.29513,"lon":5.39403,"is_reserved":false,"is_disabled":false,"rental_uris":{"android":"levelo://app?vid=eb543e29-8f94-4751-801d-af8a8af65010","ios":"levelo://app?vid=eb543e29-8f94-4751-801d-af8a8af65010"},"vehicle_type_id":"4","last_reported":1733705585,"current_range_meters":38800,"station_id":"ce4bh292rcd13ifvqdf0","pricing_plan_id":"cebpf4jnsgd1na2vs0mg"},{"bike_id":"a3dd1984-4193-477f-b9a6-7f14c8f93b26","system_id":"levelo_inurba_marseille","lat":43.30099,"lon":5.39087,"is_reserved":false,"is_disabled":true,"rental_uris":{"android":"levelo://app?vid=a3dd1984-4193-477f-b9a6-7f14c8f93b26","ios":"levelo://app?vid=a3dd1984-4193-477f-b9a6-7f14c8f93b26"},"vehicle_type_id":"4","last_reported":1733705585,"current_range_meters":30400,"station_id":"ce4bh192rcd13ifvqdb0","pricing_plan_id":"cebpf4jnsgd1na2vs0mg"},{"bike_id":"707081eb-9533-4ce7-95ae-2265097f9ef3","system_id":"levelo_inurba_marseille","lat":43.31752,"lon":5.39017,"is_reserved":false,"is_disabled":false,"rental_uris":{"android":"levelo://app?vid=707081eb-9533-4ce7-95ae-2265097f9ef3","ios":"levelo://app?vid=707081eb-9533-4ce7-95ae-2265097f9ef3"},"vehicle_type_id":"4","last_reported":1733705585,"current_range_meters":38400,"station_id":"ce4bhqp2rcd13ifvqhng","pricing_plan_id":"cebpf4jnsgd1na2vs0mg"},{"bike_id":"4c729a4a-b6dc-4fd1-a3b4-fe3921c7572c","system_id":"levelo_inurba_marseille","lat":43.29845,"lon":5.36278,"is_reserved":false,"is_disabled":false,"rental_uris":{"android":"levelo://app?vid=4c729a4a-b6dc-4fd1-a3b4-fe3921c7572c","ios":"levelo://app?vid=4c729a4a-b6dc-4fd1-a3b4-fe3921c7572c"},"vehicle_type_id":"4","last_reported":1733705585,"current_range_meters":17200,"station_id":"ce4bgpp2rcd13ifvqc3g","pricing_plan_id":"cebpf4jnsgd1na2vs0mg"},{"bike_id":"30635fd6-1dd8-4e5f-96d8-561a62d4fe6b","system_id":"levelo_inurba_marseille","lat":43.29798,"lon":5.3808,"is_reserved":false,"is_disabled":true,"rental_uris":{"android":"levelo://app?vid=30635fd6-1dd8-4e5f-96d8-561a62d4fe6b","ios":"levelo://app?vid=30635fd6-1dd8-4e5f-96d8-561a62d4fe6b"},"vehicle_type_id":"4","last_reported":1733705585,"current_range_meters":8800,"station_id":"ce4bgip2rcd13ifvqbb0","pricing_plan_id":"cebpf4jnsgd1na2vs0mg"},{"bike_id":"a9c5b0ab-7a10-4d68-bd25-702e226cd721","system_id":"levelo_inurba_marseille","lat":43.29793,"lon":5.40412,"is_reserved":false,"is_disabled":false,"rental_uris":{"android":"levelo://app?vid=a9c5b0ab-7a10-4d68-bd25-702e226cd721","ios":"levelo://app?vid=a9c5b0ab-7a10-4d68-bd25-702e226cd721"},"vehicle_type_id":"4","last_reported":1733705585,"current_range_meters":38800,"station_id":"ce4bh112rcd13ifvqd90","pricing_plan_id":"cebpf4jnsgd1na2vs0mg"},{"bike_id":"8adb385c-4540-45bd-bf84-7345f9c5670e","system_id":"levelo_inurba_marseille","lat":43.23194,"lon":5.35556,"is_reserved":false,"is_disabled":false,"rental_uris":{"android":"levelo://app?vid=8adb385c-4540-45bd-bf84-7345f9c5670e","ios":"levelo://app?vid=8adb385c-4540-45bd-bf84-7345f9c5670e"},"vehicle_type_id":"4","last_reported":1733705585,"current_range_meters":36800,"station_id":"ce4bhu92rcd13ifvqi70","pricing_plan_id":"cebpf4jnsgd1na2vs0mg"},{"bike_id":"06cbc9bc-31e7-4dc4-a15a-916676e349b8","system_id":"levelo_inurba_marseille","lat":43.27378,"lon":5.36252,"is_reserved":false,"is_disabled":true,"rental_uris":{"android":"levelo://app?vid=06cbc9bc-31e7-4dc4-a15a-916676e349b8","ios":"levelo://app?vid=06cbc9bc-31e7-4dc4-a15a-916676e349b8"},"vehicle_type_id":"4","last_reported":1733705585,"current_range_meters":38800,"station_id":"ce4bhbh2rcd13ifvqeo0","pricing_plan_id":"cebpf4jnsgd1na2vs0mg"},{"bike_id":"8e20f910-a953-4216-b61b-d1a52f48690d","system_id":"levelo_inurba_marseille","lat":43.31483,"lon":5.37297,"is_reserved":false,"is_disabled":false,"rental_uris":{"android":"levelo://app?vid=8e20f910-a953-4216-b61b-d1a52f48690d","ios":"levelo://app?vid=8e20f910-a953-4216-b61b-d1a52f48690d"},"vehicle_type_id":"4","last_reported":1733705585,"current_range_meters":33200,"station_id":"ce4bgt12rcd13ifvqcd0","pricing_plan_id":"cebpf4jnsgd1na2vs0mg"},{"bike_id":"5260ced4-7564-448d-9818-7245cb224691","system_id":"levelo_inurba_marseille","lat":43.27608,"lon":5.36104,"is_reserved":false,"is_disabled":false,"rental_uris":{"android":"levelo://app?vid=5260ced4-7564-448d-9818-7245cb224691","ios":"levelo://app?vid=5260ced4-7564-448d-9818-7245cb224691"},"vehicle_type_id":"4","last_reported":1733705585,"current_range_meters":38800,"station_id":"ce4bgj92rcd13ifvqbe0","pricing_plan_id":"cebpf4jnsgd1na2vs0mg"},{"bike_id":"47eabf25-c81f-42bd-acba-8d44e89fa85d","system_id":"levelo_inurba_marseille","lat":43.24543,"lon":5.3952,"is_reserved":false,"is_disabled":true,"rental_uris":{"android":"levelo://app?vid=47eabf25-c81f-42bd-acba-8d44e89fa85d","ios":"levelo://app?vid=47eabf25-c81f-42bd-acba-8d44e89fa85d"},"vehicle_type_id":"4","last_reported":1733705585,"current_range_meters":25600,"station_id":"ce4bhlp2rcd13ifvqgjg","pricing_plan_id":"cebpf4jnsgd1na2vs0mg"},{"bike_id":"5099f5ee-2384-43a7-bbb9-9f492223b551","system_id":"levelo_inurba_marseille","lat":43.30417,"lon":5.39745,"is_reserved":false,"is_disabled":false,"rental_uris":{"android":"levelo://app?vid=5099f5ee-2384-43a7-bbb9-9f492223b551","ios":"levelo://app?vid=5099f5ee-2384-43a7-bbb9-9f492223b551"},"vehicle_type_id":"4","last_reported":1733705585,"current_range_meters":38000,"station_id":"ce4bh092rcd13ifvqd20","pricing_plan_id":"cebpf4jnsgd1na2vs0mg"},{"bike_id":"4527669e-b7bf-4bfd-ace2-19b92402cb9c","system_id":"levelo_inurba_marseille","lat":43.28103,"lon":5.37835,"is_reserved":false,"is_disabled":false,"rental_uris":{"android":"levelo://app?vid=4527669e-b7bf-4bfd-ace2-19b92402cb9c","ios":"levelo://app?vid=4527669e-b7bf-4bfd-ace2-19b92402cb9c"},"vehicle_type_id":"4","last_reported":1733705585,"current_range_meters":38800,"station_id":"ce4bha12rcd13ifvqee0","pricing_plan_id":"cebpf4jnsgd1na2vs0mg"},{"bike_id":"2448d306-ffa5-42ab-bfbf-45dbd788edba","system_id":"levelo_inurba_marseille","lat":43.31331,"lon":5.39702,"is_reserved":false,"is_disabled":false,"rental_uris":{"android":"levelo://app?vid=2448d306-ffa5-42ab-bfbf-45dbd788edba","ios":"levelo://app?vid=2448d306-ffa5-42ab-bfbf-45dbd788edba"},"vehicle_type_id":"4","last_reported":1733705585,"current_range_meters":7200,"station_id":"ce4bgvp2rcd13ifvqcu0","pricing_plan_id":"cebpf4jnsgd1na2vs0mg"},{"bike_id":"eb4e32cd-a02d-4e92-a013-1fdc0dd71ccb","system_id":"levelo_inurba_marseille","lat":43.324799,"lon":5.365716,"is_reserved":false,"is_disabled":true,"rental_uris":{"android":"levelo://app?vid=eb4e32cd-a02d-4e92-a013-1fdc0dd71ccb","ios":"levelo://app?vid=eb4e32cd-a02d-4e92-a013-1fdc0dd71ccb"},"vehicle_type_id":"4","last_reported":1733705585,"current_range_meters":0,"station_id":"","pricing_plan_id":"cebpf4jnsgd1na2vs0mg"},{"bike_id":"d747e713-5b73-42a0-b79a-b5064bd28209","system_id":"levelo_inurba_marseille","lat":43.27177,"lon":5.40987,"is_reserved":false,"is_disabled":true,"rental_uris":{"android":"levelo://app?vid=d747e713-5b73-42a0-b79a-b5064bd28209","ios":"levelo://app?vid=d747e713-5b73-42a0-b79a-b5064bd28209"},"vehicle_type_id":"4","last_reported":1733705585,"current_range_meters":0,"station_id":"ce4bhl12rcd13ifvqgf0","pricing_plan_id":"cebpf4jnsgd1na2vs0mg"},{"bike_id":"10e372fe-5b14-4999-836f-f0581be5248c","system_id":"levelo_inurba_marseille","lat":43.26205,"lon":5.37924,"is_reserved":false,"is_disabled":false,"rental_uris":{"android":"levelo://app?vid=10e372fe-5b14-4999-836f-f0581be5248c","ios":"levelo://app?vid=10e372fe-5b14-4999-836f-f0581be5248c"},"vehicle_type_id":"4","last_reported":1733705585,"current_range_meters":38800,"station_id":"ce4bhjp2rcd13ifvqg90","pricing_plan_id":"cebpf4jnsgd1na2vs0mg"},{"bike_id":"705e6a07-d938-4eee-91fb-3c73a1ee3465","system_id":"levelo_inurba_marseille","lat":43.28436,"lon":5.39185,"is_reserved":false,"is_disabled":false,"rental_uris":{"android":"levelo://app?vid=705e6a07-d938-4eee-91fb-3c73a1ee3465","ios":"levelo://app?vid=705e6a07-d938-4eee-91fb-3c73a1ee3465"},"vehicle_type_id":"4","last_reported":1733705585,"current_range_meters":20000,"station_id":"ce4bhoh2rcd13ifvqh5g","pricing_plan_id":"cebpf4jnsgd1na2vs0mg"},{"bike_id":"70b74d15-6e45-4f12-9a99-d67e83a01f1c","system_id":"levelo_inurba_marseille","lat":43.25868,"lon":5.39894,"is_reserved":false,"is_disabled":false,"rental_uris":{"android":"levelo://app?vid=70b74d15-6e45-4f12-9a99-d67e83a01f1c","ios":"levelo://app?vid=70b74d15-6e45-4f12-9a99-d67e83a01f1c"},"vehicle_type_id":"4","last_reported":1733705585,"current_range_meters":30800,"station_id":"ce4bhl92rcd13ifvqghg","pricing_plan_id":"cebpf4jnsgd1na2vs0mg"},{"bike_id":"4dbd51c3-943c-4774-b574-e8801d6c5abf","system_id":"levelo_inurba_marseille","lat":43.30429,"lon":5.38894,"is_reserved":false,"is_disabled":false,"rental_uris":{"android":"levelo://app?vid=4dbd51c3-943c-4774-b574-e8801d6c5abf","ios":"levelo://app?vid=4dbd51c3-943c-4774-b574-e8801d6c5abf"},"vehicle_type_id":"4","last_reported":1733705585,"current_range_meters":32400,"station_id":"ce4bgk12rcd13ifvqbi0","pricing_plan_id":"cebpf4jnsgd1na2vs0mg"},{"bike_id":"06f294bd-d283-4b87-866b-9173a9d88558","system_id":"levelo_inurba_marseille","lat":43.25865,"lon":5.39895,"is_reserved":false,"is_disabled":false,"rental_uris":{"android":"levelo://app?vid=06f294bd-d283-4b87-866b-9173a9d88558","ios":"levelo://app?vid=06f294bd-d283-4b87-866b-9173a9d88558"},"vehicle_type_id":"4","last_reported":1733705585,"current_range_meters":35600,"station_id":"ce4bhl92rcd13ifvqghg","pricing_plan_id":"cebpf4jnsgd1na2vs0mg"},{"bike_id":"58436838-579f-4511-bcb4-cdaf18d7069d","system_id":"levelo_inurba_marseille","lat":43.278172,"lon":5.407178,"is_reserved":false,"is_disabled":false,"rental_uris":{"android":"levelo://app?vid=58436838-579f-4511-bcb4-cdaf18d7069d","ios":"levelo://app?vid=58436838-579f-4511-bcb4-cdaf18d7069d"},"vehicle_type_id":"4","last_reported":1733705585,"current_range_meters":38400,"station_id":"ce4bhnh2rcd13ifvqgtg","pricing_plan_id":"cebpf4jnsgd1na2vs0mg"},{"bike_id":"1ebfd357-9d7c-4547-8360-f0e457eb7b33","system_id":"levelo_inurba_marseille","lat":43.31173,"lon":5.38711,"is_reserved":false,"is_disabled":false,"rental_uris":{"android":"levelo://app?vid=1ebfd357-9d7c-4547-8360-f0e457eb7b33","ios":"levelo://app?vid=1ebfd357-9d7c-4547-8360-f0e457eb7b33"},"vehicle_type_id":"4","last_reported":1733705585,"current_range_meters":38400,"station_id":"ce4bgv12rcd13ifvqcp0","pricing_plan_id":"cebpf4jnsgd1na2vs0mg"},{"bike_id":"f360271e-662d-4ead-8c2a-718605af80f7","system_id":"levelo_inurba_marseille","lat":43.33608,"lon":5.41032,"is_reserved":false,"is_disabled":false,"rental_uris":{"android":"levelo://app?vid=f360271e-662d-4ead-8c2a-718605af80f7","ios":"levelo://app?vid=f360271e-662d-4ead-8c2a-718605af80f7"},"vehicle_type_id":"4","last_reported":1733705585,"current_range_meters":38000,"station_id":"ce4bhqh2rcd13ifvqhmg","pricing_plan_id":"cebpf4jnsgd1na2vs0mg"},{"bike_id":"c5836a44-0c47-4d04-a065-2f270fd6b770","system_id":"levelo_inurba_marseille","lat":43.32362,"lon":5.38891,"is_reserved":false,"is_disabled":false,"rental_uris":{"android":"levelo://app?vid=c5836a44-0c47-4d04-a065-2f270fd6b770","ios":"levelo://app?vid=c5836a44-0c47-4d04-a065-2f270fd6b770"},"vehicle_type_id":"4","last_reported":1733705585,"current_range_meters":19200,"station_id":"ce4bhqp2rcd13ifvqhog","pricing_plan_id":"cebpf4jnsgd1na2vs0mg"},{"bike_id":"74bbe4bf-89fb-4c00-b6df-50d6b84f983a","system_id":"levelo_inurba_marseille","lat":43.32657,"lon":5.40996,"is_reserved":false,"is_disabled":false,"rental_uris":{"android":"levelo://app?vid=74bbe4bf-89fb-4c00-b6df-50d6b84f983a","ios":"levelo://app?vid=74bbe4bf-89fb-4c00-b6df-50d6b84f983a"},"vehicle_type_id":"4","last_reported":1733705585,"current_range_meters":39200,"station_id":"ce4bhpp2rcd13ifvqhgg","pricing_plan_id":"cebpf4jnsgd1na2vs0mg"},{"bike_id":"d03b48fa-b3db-4b0e-8f48-4c9718f9cc63","system_id":"levelo_inurba_marseille","lat":43.31474,"lon":5.37251,"is_reserved":false,"is_disabled":false,"rental_uris":{"android":"levelo://app?vid=d03b48fa-b3db-4b0e-8f48-4c9718f9cc63","ios":"levelo://app?vid=d03b48fa-b3db-4b0e-8f48-4c9718f9cc63"},"vehicle_type_id":"4","last_reported":1733705585,"current_range_meters":38800,"station_id":"ce4bgt12rcd13ifvqcd0","pricing_plan_id":"cebpf4jnsgd1na2vs0mg"},{"bike_id":"4da42609-6b65-44ba-90fe-b4faaa974fd8","system_id":"levelo_inurba_marseille","lat":43.28945,"lon":5.36391,"is_reserved":false,"is_disabled":false,"rental_uris":{"android":"levelo://app?vid=4da42609-6b65-44ba-90fe-b4faaa974fd8","ios":"levelo://app?vid=4da42609-6b65-44ba-90fe-b4faaa974fd8"},"vehicle_type_id":"4","last_reported":1733705585,"current_range_meters":27600,"station_id":"ce4bhc92rcd13ifvqetg","pricing_plan_id":"cebpf4jnsgd1na2vs0mg"},{"bike_id":"ca0e46a7-4a0a-4a7e-bd50-88e08787ed4e","system_id":"levelo_inurba_marseille","lat":43.29044,"lon":5.39998,"is_reserved":false,"is_disabled":true,"rental_uris":{"android":"levelo://app?vid=ca0e46a7-4a0a-4a7e-bd50-88e08787ed4e","ios":"levelo://app?vid=ca0e46a7-4a0a-4a7e-bd50-88e08787ed4e"},"vehicle_type_id":"4","last_reported":1733705585,"current_range_meters":35600,"station_id":"ce4bh392rcd13ifvqdm0","pricing_plan_id":"cebpf4jnsgd1na2vs0mg"},{"bike_id":"5c6886c6-d5ff-4a8a-ae0c-798b3d19d717","system_id":"levelo_inurba_marseille","lat":43.28362,"lon":5.38123,"is_reserved":false,"is_disabled":false,"rental_uris":{"android":"levelo://app?vid=5c6886c6-d5ff-4a8a-ae0c-798b3d19d717","ios":"levelo://app?vid=5c6886c6-d5ff-4a8a-ae0c-798b3d19d717"},"vehicle_type_id":"4","last_reported":1733705585,"current_range_meters":31200,"station_id":"ce4bh412rcd13ifvqdr0","pricing_plan_id":"cebpf4jnsgd1na2vs0mg"},{"bike_id":"51317dd0-56be-46d9-be12-e4fb04a9e8f3","system_id":"levelo_inurba_marseille","lat":43.28453,"lon":5.35888,"is_reserved":false,"is_disabled":false,"rental_uris":{"android":"levelo://app?vid=51317dd0-56be-46d9-be12-e4fb04a9e8f3","ios":"levelo://app?vid=51317dd0-56be-46d9-be12-e4fb04a9e8f3"},"vehicle_type_id":"4","last_reported":1733705585,"current_range_meters":24000,"station_id":"ce4bhah2rcd13ifvqei0","pricing_plan_id":"cebpf4jnsgd1na2vs0mg"},{"bike_id":"23402777-d640-44e5-a5e4-d380218b4c9d","system_id":"levelo_inurba_marseille","lat":43.30529,"lon":5.38416,"is_reserved":false,"is_disabled":true,"rental_uris":{"android":"levelo://app?vid=23402777-d640-44e5-a5e4-d380218b4c9d","ios":"levelo://app?vid=23402777-d640-44e5-a5e4-d380218b4c9d"},"vehicle_type_id":"4","last_reported":1733705585,"current_range_meters":38000,"station_id":"ce4bgg92rcd13ifvqb30","pricing_plan_id":"cebpf4jnsgd1na2vs0mg"},{"bike_id":"09281e7f-b15d-40c3-92c2-6ba7a2702b6b","system_id":"levelo_inurba_marseille","lat":43.27615,"lon":5.36113,"is_reserved":false,"is_disabled":false,"rental_uris":{"android":"levelo://app?vid=09281e7f-b15d-40c3-92c2-6ba7a2702b6b","ios":"levelo://app?vid=09281e7f-b15d-40c3-92c2-6ba7a2702b6b"},"vehicle_type_id":"4","last_reported":1733705585,"current_range_meters":14800,"station_id":"ce4bgj92rcd13ifvqbe0","pricing_plan_id":"cebpf4jnsgd1na2vs0mg"},{"bike_id":"45097852-3100-465c-b688-64f842552d9f","system_id":"levelo_inurba_marseille","lat":43.27952,"lon":5.41042,"is_reserved":false,"is_disabled":false,"rental_uris":{"android":"levelo://app?vid=45097852-3100-465c-b688-64f842552d9f","ios":"levelo://app?vid=45097852-3100-465c-b688-64f842552d9f"},"vehicle_type_id":"4","last_reported":1733705585,"current_range_meters":16800,"station_id":"ce4bhnp2rcd13ifvqh0g","pricing_plan_id":"cebpf4jnsgd1na2vs0mg"},{"bike_id":"a1fb4f57-ffa8-4d00-bb62-ace7c0ed7095","system_id":"levelo_inurba_marseille","lat":43.32364,"lon":5.38882,"is_reserved":false,"is_disabled":false,"rental_uris":{"android":"levelo://app?vid=a1fb4f57-ffa8-4d00-bb62-ace7c0ed7095","ios":"levelo://app?vid=a1fb4f57-ffa8-4d00-bb62-ace7c0ed7095"},"vehicle_type_id":"4","last_reported":1733705585,"current_range_meters":22800,"station_id":"ce4bhqp2rcd13ifvqhog","pricing_plan_id":"cebpf4jnsgd1na2vs0mg"},{"bike_id":"95d8628d-10b1-47e7-9a42-9b126ec315c6","system_id":"levelo_inurba_marseille","lat":43.23197,"lon":5.35557,"is_reserved":false,"is_disabled":false,"rental_uris":{"android":"levelo://app?vid=95d8628d-10b1-47e7-9a42-9b126ec315c6","ios":"levelo://app?vid=95d8628d-10b1-47e7-9a42-9b126ec315c6"},"vehicle_type_id":"4","last_reported":1733705585,"current_range_meters":31200,"station_id":"ce4bhu92rcd13ifvqi70","pricing_plan_id":"cebpf4jnsgd1na2vs0mg"},{"bike_id":"84160b40-ce7b-44a2-a7ca-4591eb995185","system_id":"levelo_inurba_marseille","lat":43.32076,"lon":5.38818,"is_reserved":false,"is_disabled":false,"rental_uris":{"android":"levelo://app?vid=84160b40-ce7b-44a2-a7ca-4591eb995185","ios":"levelo://app?vid=84160b40-ce7b-44a2-a7ca-4591eb995185"},"vehicle_type_id":"4","last_reported":1733705585,"current_range_meters":13600,"station_id":"","pricing_plan_id":"cebpf4jnsgd1na2vs0mg"},{"bike_id":"f5561434-0740-4a3c-abc2-013f37687b8d","system_id":"levelo_inurba_marseille","lat":43.2482,"lon":5.37456,"is_reserved":false,"is_disabled":true,"rental_uris":{"android":"levelo://app?vid=f5561434-0740-4a3c-abc2-013f37687b8d","ios":"levelo://app?vid=f5561434-0740-4a3c-abc2-013f37687b8d"},"vehicle_type_id":"4","last_reported":1733705585,"current_range_meters":30400,"station_id":"ce4bhgh2rcd13ifvqfb0","pricing_plan_id":"cebpf4jnsgd1na2vs0mg"},{"bike_id":"77a3e4c0-b240-4c58-b4ab-79c7c13b5f52","system_id":"levelo_inurba_marseille","lat":43.29896,"lon":5.43662,"is_reserved":false,"is_disabled":false,"rental_uris":{"android":"levelo://app?vid=77a3e4c0-b240-4c58-b4ab-79c7c13b5f52","ios":"levelo://app?vid=77a3e4c0-b240-4c58-b4ab-79c7c13b5f52"},"vehicle_type_id":"4","last_reported":1733705585,"current_range_meters":10000,"station_id":"ce4bhpp2rcd13ifvqhfg","pricing_plan_id":"cebpf4jnsgd1na2vs0mg"},{"bike_id":"a7570984-53ea-4766-9bea-028f9b35c6cd","system_id":"levelo_inurba_marseille","lat":43.29421,"lon":5.38609,"is_reserved":false,"is_disabled":true,"rental_uris":{"android":"levelo://app?vid=a7570984-53ea-4766-9bea-028f9b35c6cd","ios":"levelo://app?vid=a7570984-53ea-4766-9bea-028f9b35c6cd"},"vehicle_type_id":"4","last_reported":1733705585,"current_range_meters":4800,"station_id":"ce4bh2h2rcd13ifvqdh0","pricing_plan_id":"cebpf4jnsgd1na2vs0mg"},{"bike_id":"8b060d59-ad09-4174-8543-4af92c9fcbdc","system_id":"levelo_inurba_marseille","lat":43.28345,"lon":5.381,"is_reserved":false,"is_disabled":false,"rental_uris":{"android":"levelo://app?vid=8b060d59-ad09-4174-8543-4af92c9fcbdc","ios":"levelo://app?vid=8b060d59-ad09-4174-8543-4af92c9fcbdc"},"vehicle_type_id":"4","last_reported":1733705585,"current_range_meters":22800,"station_id":"ce4bh412rcd13ifvqdr0","pricing_plan_id":"cebpf4jnsgd1na2vs0mg"},{"bike_id":"76bd6b8b-3bd2-4b02-bd6e-379029e15bf1","system_id":"levelo_inurba_marseille","lat":43.30884,"lon":5.37251,"is_reserved":false,"is_disabled":true,"rental_uris":{"android":"levelo://app?vid=76bd6b8b-3bd2-4b02-bd6e-379029e15bf1","ios":"levelo://app?vid=76bd6b8b-3bd2-4b02-bd6e-379029e15bf1"},"vehicle_type_id":"4","last_reported":1733705585,"current_range_meters":30000,"station_id":"ce4bguh2rcd13ifvqckg","pricing_plan_id":"cebpf4jnsgd1na2vs0mg"},{"bike_id":"aedbf628-20ee-4eda-8b33-1cf044cd7fd0","system_id":"levelo_inurba_marseille","lat":43.24643,"lon":5.38885,"is_reserved":false,"is_disabled":false,"rental_uris":{"android":"levelo://app?vid=aedbf628-20ee-4eda-8b33-1cf044cd7fd0","ios":"levelo://app?vid=aedbf628-20ee-4eda-8b33-1cf044cd7fd0"},"vehicle_type_id":"4","last_reported":1733705585,"current_range_meters":18000,"station_id":"ce4bhg12rcd13ifvqf60","pricing_plan_id":"cebpf4jnsgd1na2vs0mg"},{"bike_id":"e1d617a2-101d-4629-9ebc-4821778659e6","system_id":"levelo_inurba_marseille","lat":43.27378,"lon":5.36258,"is_reserved":false,"is_disabled":false,"rental_uris":{"android":"levelo://app?vid=e1d617a2-101d-4629-9ebc-4821778659e6","ios":"levelo://app?vid=e1d617a2-101d-4629-9ebc-4821778659e6"},"vehicle_type_id":"4","last_reported":1733705585,"current_range_meters":38800,"station_id":"ce4bhbh2rcd13ifvqeo0","pricing_plan_id":"cebpf4jnsgd1na2vs0mg"},{"bike_id":"6c660714-bd36-4e1d-858f-095636bba76e","system_id":"levelo_inurba_marseille","lat":43.2594,"lon":5.40902,"is_reserved":false,"is_disabled":false,"rental_uris":{"android":"levelo://app?vid=6c660714-bd36-4e1d-858f-095636bba76e","ios":"levelo://app?vid=6c660714-bd36-4e1d-858f-095636bba76e"},"vehicle_type_id":"4","last_reported":1733705585,"current_range_meters":9600,"station_id":"ce4bhm92rcd13ifvqglg","pricing_plan_id":"cebpf4jnsgd1na2vs0mg"},{"bike_id":"66d09863-c6e5-42e8-9866-6a51ab3f2bba","system_id":"levelo_inurba_marseille","lat":43.31281,"lon":5.40173,"is_reserved":false,"is_disabled":false,"rental_uris":{"android":"levelo://app?vid=66d09863-c6e5-42e8-9866-6a51ab3f2bba","ios":"levelo://app?vid=66d09863-c6e5-42e8-9866-6a51ab3f2bba"},"vehicle_type_id":"4","last_reported":1733705585,"current_range_meters":35600,"station_id":"ce4bh092rcd13ifvqd30","pricing_plan_id":"cebpf4jnsgd1na2vs0mg"},{"bike_id":"c960a6a5-4cd6-4d5b-8ddb-399168bc819c","system_id":"levelo_inurba_marseille","lat":43.30952,"lon":5.39016,"is_reserved":false,"is_disabled":true,"rental_uris":{"android":"levelo://app?vid=c960a6a5-4cd6-4d5b-8ddb-399168bc819c","ios":"levelo://app?vid=c960a6a5-4cd6-4d5b-8ddb-399168bc819c"},