{"last_updated":1770160714,"ttl":60,"version":"2.2","data":{"bikes":[{"bike_id":"b3dcd506-0846-4445-88c7-7f7bf3b428ab","system_id":"levelo_inurba_marseille","lat":43.26224,"lon":5.4046,"is_reserved":false,"is_disabled":false,"rental_uris":{"android":"levelo://app?vid=b3dcd506-0846-4445-88c7-7f7bf3b428ab","ios":"levelo://app?vid=b3dcd506-0846-4445-88c7-7f7bf3b428ab"},"vehicle_type_id":"4","last_reported":1770160714,"current_range_meters":2800,"station_id":"ce4bhmh2rcd13ifvqgmg","pricing_plan_id":"cebpf4jnsgd1na2vs0mg"},{"bike_id":"9507fa88-b2b3-4ab7-a45c-4c86ed644dfa","system_id":"levelo_inurba_marseille","lat":43.229291,"lon":5.353825,"is_reserved":false,"is_disabled":false,"rental_uris":{"android":"levelo://app?vid=9507fa88-b2b3-4ab7-a45c-4c86ed644dfa","ios":"levelo://app?vid=9507fa88-b2b3-4ab7-a45c-4c86ed644dfa"},"vehicle_type_id":"4","last_reported":1770160714,"current_range_meters":2800,"station_id":"cpo3532slgdg3j2ikp40","pricing_plan_id":"cebpf4jnsgd1na2vs0mg"},{"bike_id":"eda11006-539d-4ac5-b351-07bd6d27fd10","system_id":"levelo_inurba_marseille","lat":43.27918,"lon":5.3957,"is_reserved":false,"is_disabled":false,"rental_uris":{"android":"levelo://app?vid=eda11006-539d-4ac5-b351-07bd6d27fd10","ios":"levelo://app?vid=eda11006-539d-4ac5-b351-07bd6d27fd10"},"vehicle_type_id":"4","last_reported":1770160714,"current_range_meters":2800,"station_id":"ce4bhf92rcd13ifvqf40","pricing_plan_id":"cebpf4jnsgd1na2vs0mg"},{"bike_id":"b2a069de-9f0a-4088-8229-e92966604fb4","system_id":"levelo_inurba_marseille","lat":43.24401,"lon":5.3706,"is_reserved":false,"is_disabled":false,"rental_uris":{"android":"levelo://app?vid=b2a069de-9f0a-4088-8229-e92966604fb4","ios":"levelo://app?vid=b2a069de-9f0a-4088-8229-e92966604fb4"},"vehicle_type_id":"4","last_reported":1770160714,"current_range_meters":2800,"station_id":"ce4bhhh2rcd13ifvqfk0","pricing_plan_id":"cebpf4jnsgd1na2vs0mg"},{"bike_id":"9205b891-ee66-4882-bfec-3785668d7c2d","system_id":"levelo_inurba_marseille","lat":43.26033,"lon":5.37554,"is_reserved":false,"is_disabled":false,"rental_uris":{"android":"levelo://app?vid=9205b891-ee66-4882-bfec-3785668d7c2d","ios":"levelo://app?vid=9205b891-ee66-4882-bfec-3785668d7c2d"},"vehicle_type_id":"4","last_reported":1770160714,"current_range_meters":2800,"station_id":"ce4bhgh2rcd13ifvqfa0","pricing_plan_id":"cebpf4jnsgd1na2vs0mg"},{"bike_id":"75d6e842-cbda-4b63-9ab8-49199bf74e6e","system_id":"levelo_inurba_marseille","lat":43.24688,"lon":5.38149,"is_reserved":false,"is_disabled":false,"rental_uris":{"android":"levelo://app?vid=75d6e842-cbda-4b63-9ab8-49199bf74e6e","ios":"levelo://app?vid=75d6e842-cbda-4b63-9ab8-49199bf74e6e"},"vehicle_type_id":"4","last_reported":1770160714,"current_range_meters":2800,"station_id":"ce4bhih2rcd13ifvqfr0","pricing_plan_id":"cebpf4jnsgd1na2vs0mg"},{"bike_id":"4dd6841e-e470-4207-bb73-65a47c0e81c5","system_id":"levelo_inurba_marseille","lat":43.31167,"lon":5.38013,"is_reserved":false,"is_disabled":false,"rental_uris":{"android":"levelo://app?vid=4dd6841e-e470-4207-bb73-65a47c0e81c5","ios":"levelo://app?vid=4dd6841e-e470-4207-bb73-65a47c0e81c5"},"vehicle_type_id":"4","last_reported":1770160714,"current_range_meters":2800,"station_id":"","pricing_plan_id":"cebpf4jnsgd1na2vs0mg"},{"bike_id":"5dae8e7a-771c-417a-921b-2f019b85b891","system_id":"levelo_inurba_marseille","lat":43.29887,"lon":5.43664,"is_reserved":false,"is_disabled":false,"rental_uris":{"android":"levelo://app?vid=5dae8e7a-771c-417a-921b-2f019b85b891","ios":"levelo://app?vid=5dae8e7a-771c-417a-921b-2f019b85b891"},"vehicle_type_id":"4","last_reported":1770160714,"current_range_meters":2800,"station_id":"ce4bhpp2rcd13ifvqhfg","pricing_plan_id":"cebpf4jnsgd1na2vs0mg"},{"bike_id":"180b7fce-0dd3-4292-95b6-e2078299b016","system_id":"levelo_inurba_marseille","lat":43.2511,"lon":5.40322,"is_reserved":false,"is_disabled":false,"rental_uris":{"android":"levelo://app?vid=180b7fce-0dd3-4292-95b6-e2078299b016","ios":"levelo://app?vid=180b7fce-0dd3-4292-95b6-e2078299b016"},"vehicle_type_id":"4","last_reported":1770160714,"current_range_meters":3200,"station_id":"ce4bhlh2rcd13ifvqgig","pricing_plan_id":"cebpf4jnsgd1na2vs0mg"},{"bike_id":"1572ab15-e737-43b7-8cfe-40ce15540b0d","system_id":"levelo_inurba_marseille","lat":43.335413,"lon":5.374673,"is_reserved":false,"is_disabled":false,"rental_uris":{"android":"levelo://app?vid=1572ab15-e737-43b7-8cfe-40ce15540b0d","ios":"levelo://app?vid=1572ab15-e737-43b7-8cfe-40ce15540b0d"},"vehicle_type_id":"4","last_reported":1770160714,"current_range_meters":3200,"station_id":"st_d46tts09ee8s73dlu43g","pricing_plan_id":"cebpf4jnsgd1na2vs0mg"},{"bike_id":"ce24aee7-35fa-4a11-bc8f-4e8ab67f92b4","system_id":"levelo_inurba_marseille","lat":43.31475,"lon":5.37305,"is_reserved":false,"is_disabled":false,"rental_uris":{"android":"levelo://app?vid=ce24aee7-35fa-4a11-bc8f-4e8ab67f92b4","ios":"levelo://app?vid=ce24aee7-35fa-4a11-bc8f-4e8ab67f92b4"},"vehicle_type_id":"4","last_reported":1770160714,"current_range_meters":3200,"station_id":"ce4bgt12rcd13ifvqcd0","pricing_plan_id":"cebpf4jnsgd1na2vs0mg"},{"bike_id":"2d514056-ce15-41f8-9bd5-1a31494e49a6","system_id":"levelo_inurba_marseille","lat":43.25104,"lon":5.40323,"is_reserved":false,"is_disabled":false,"rental_uris":{"android":"levelo://app?vid=2d514056-ce15-41f8-9bd5-1a31494e49a6","ios":"levelo://app?vid=2d514056-ce15-41f8-9bd5-1a31494e49a6"},"vehicle_type_id":"4","last_reported":1770160714,"current_range_meters":3200,"station_id":"ce4bhlh2rcd13ifvqgig","pricing_plan_id":"cebpf4jnsgd1na2vs0mg"},{"bike_id":"f6c004b1-84db-4310-860e-b44c3c231cf8","system_id":"levelo_inurba_marseille","lat":43.28858,"lon":5.39311,"is_reserved":false,"is_disabled":false,"rental_uris":{"android":"levelo://app?vid=f6c004b1-84db-4310-860e-b44c3c231cf8","ios":"levelo://app?vid=f6c004b1-84db-4310-860e-b44c3c231cf8"},"vehicle_type_id":"4","last_reported":1770160714,"current_range_meters":3200,"station_id":"ce4bh2p2rcd13ifvqdi0","pricing_plan_id":"cebpf4jnsgd1na2vs0mg"},{"bike_id":"84792cf2-bdb6-4e7e-ac29-812e27781f7c","system_id":"levelo_inurba_marseille","lat":43.30605,"lon":5.37224,"is_reserved":false,"is_disabled":false,"rental_uris":{"android":"levelo://app?vid=84792cf2-bdb6-4e7e-ac29-812e27781f7c","ios":"levelo://app?vid=84792cf2-bdb6-4e7e-ac29-812e27781f7c"},"vehicle_type_id":"4","last_reported":1770160714,"current_range_meters":3200,"station_id":"ce4bgqh2rcd13ifvqc4g","pricing_plan_id":"cebpf4jnsgd1na2vs0mg"},{"bike_id":"059a8f6f-cd2e-4c4e-8a45-b21888dad7c7","system_id":"levelo_inurba_marseille","lat":43.24392,"lon":5.37045,"is_reserved":false,"is_disabled":false,"rental_uris":{"android":"levelo://app?vid=059a8f6f-cd2e-4c4e-8a45-b21888dad7c7","ios":"levelo://app?vid=059a8f6f-cd2e-4c4e-8a45-b21888dad7c7"},"vehicle_type_id":"4","last_reported":1770160714,"current_range_meters":3200,"station_id":"ce4bhhh2rcd13ifvqfk0","pricing_plan_id":"cebpf4jnsgd1na2vs0mg"},{"bike_id":"c04d02e9-4522-4664-80d1-72f19e30f66b","system_id":"levelo_inurba_marseille","lat":43.25311,"lon":5.38574,"is_reserved":false,"is_disabled":false,"rental_uris":{"android":"levelo://app?vid=c04d02e9-4522-4664-80d1-72f19e30f66b","ios":"levelo://app?vid=c04d02e9-4522-4664-80d1-72f19e30f66b"},"vehicle_type_id":"4","last_reported":1770160714,"current_range_meters":3200,"station_id":"","pricing_plan_id":"cebpf4jnsgd1na2vs0mg"},{"bike_id":"46a6cc9f-7cc4-4c36-98fa-d2337377bf24","system_id":"levelo_inurba_marseille","lat":43.31164,"lon":5.386784,"is_reserved":false,"is_disabled":false,"rental_uris":{"android":"levelo://app?vid=46a6cc9f-7cc4-4c36-98fa-d2337377bf24","ios":"levelo://app?vid=46a6cc9f-7cc4-4c36-98fa-d2337377bf24"},"vehicle_type_id":"4","last_reported":1770160714,"current_range_meters":3600,"station_id":"ce4bgv12rcd13ifvqcp0","pricing_plan_id":"cebpf4jnsgd1na2vs0mg"},{"bike_id":"100ecf29-e198-4a4c-bc32-e3ae9cffa1c4","system_id":"levelo_inurba_marseille","lat":43.24177,"lon":5.39729,"is_reserved":false,"is_disabled":false,"rental_uris":{"android":"levelo://app?vid=100ecf29-e198-4a4c-bc32-e3ae9cffa1c4","ios":"levelo://app?vid=100ecf29-e198-4a4c-bc32-e3ae9cffa1c4"},"vehicle_type_id":"4","last_reported":1770160714,"current_range_meters":3600,"station_id":"ce4bhn12rcd13ifvqgpg","pricing_plan_id":"cebpf4jnsgd1na2vs0mg"},{"bike_id":"c4f24219-37a1-4048-8173-ceebbb7b3645","system_id":"levelo_inurba_marseille","lat":43.23148,"lon":5.43708,"is_reserved":false,"is_disabled":false,"rental_uris":{"android":"levelo://app?vid=c4f24219-37a1-4048-8173-ceebbb7b3645","ios":"levelo://app?vid=c4f24219-37a1-4048-8173-ceebbb7b3645"},"vehicle_type_id":"4","last_reported":1770160714,"current_range_meters":3600,"station_id":"ce4bhmp2rcd13ifvqgog","pricing_plan_id":"cebpf4jnsgd1na2vs0mg"},{"bike_id":"5399b600-d0c1-4fce-8f84-a4180f3288a4","system_id":"levelo_inurba_marseille","lat":43.30663,"lon":5.40057,"is_reserved":false,"is_disabled":false,"rental_uris":{"android":"levelo://app?vid=5399b600-d0c1-4fce-8f84-a4180f3288a4","ios":"levelo://app?vid=5399b600-d0c1-4fce-8f84-a4180f3288a4"},"vehicle_type_id":"4","last_reported":1770160714,"current_range_meters":3600,"station_id":"ce4bh112rcd13ifvqda0","pricing_plan_id":"cebpf4jnsgd1na2vs0mg"},{"bike_id":"33155caa-8021-4913-a666-e828c4426fe1","system_id":"levelo_inurba_marseille","lat":43.23206,"lon":5.35535,"is_reserved":false,"is_disabled":false,"rental_uris":{"android":"levelo://app?vid=33155caa-8021-4913-a666-e828c4426fe1","ios":"levelo://app?vid=33155caa-8021-4913-a666-e828c4426fe1"},"vehicle_type_id":"4","last_reported":1770160714,"current_range_meters":3600,"station_id":"ce4bhu92rcd13ifvqi70","pricing_plan_id":"cebpf4jnsgd1na2vs0mg"},{"bike_id":"3188355f-6083-4464-859b-9ed5b4f3cf11","system_id":"levelo_inurba_marseille","lat":43.25391,"lon":5.383709,"is_reserved":false,"is_disabled":false,"rental_uris":{"android":"levelo://app?vid=3188355f-6083-4464-859b-9ed5b4f3cf11","ios":"levelo://app?vid=3188355f-6083-4464-859b-9ed5b4f3cf11"},"vehicle_type_id":"4","last_reported":1770160714,"current_range_meters":3600,"station_id":"","pricing_plan_id":"cebpf4jnsgd1na2vs0mg"},{"bike_id":"9a3b8e40-230b-4af8-bb6c-46b914bd1153","system_id":"levelo_inurba_marseille","lat":43.24395,"lon":5.37055,"is_reserved":false,"is_disabled":false,"rental_uris":{"android":"levelo://app?vid=9a3b8e40-230b-4af8-bb6c-46b914bd1153","ios":"levelo://app?vid=9a3b8e40-230b-4af8-bb6c-46b914bd1153"},"vehicle_type_id":"4","last_reported":1770160714,"current_range_meters":3600,"station_id":"ce4bhhh2rcd13ifvqfk0","pricing_plan_id":"cebpf4jnsgd1na2vs0mg"},{"bike_id":"37efd0a4-f92f-48f6-8c63-84553350d9a1","system_id":"levelo_inurba_marseille","lat":43.33555,"lon":5.37459,"is_reserved":false,"is_disabled":false,"rental_uris":{"android":"levelo://app?vid=37efd0a4-f92f-48f6-8c63-84553350d9a1","ios":"levelo://app?vid=37efd0a4-f92f-48f6-8c63-84553350d9a1"},"vehicle_type_id":"4","last_reported":1770160714,"current_range_meters":3600,"station_id":"st_d46tts09ee8s73dlu43g","pricing_plan_id":"cebpf4jnsgd1na2vs0mg"},{"bike_id":"a0b65a93-6465-4400-8b38-bcb6f41a734c","system_id":"levelo_inurba_marseille","lat":43.27939,"lon":5.39592,"is_reserved":false,"is_disabled":true,"rental_uris":{"android":"levelo://app?vid=a0b65a93-6465-4400-8b38-bcb6f41a734c","ios":"levelo://app?vid=a0b65a93-6465-4400-8b38-bcb6f41a734c"},"vehicle_type_id":"4","last_reported":1770160714,"current_range_meters":3600,"station_id":"ce4bhf92rcd13ifvqf40","pricing_plan_id":"cebpf4jnsgd1na2vs0mg"},{"bike_id":"825d0377-73f4-4c37-b256-e3c2000d226a","system_id":"levelo_inurba_marseille","lat":43.310577,"lon":5.371739,"is_reserved":false,"is_disabled":false,"rental_uris":{"android":"levelo://app?vid=825d0377-73f4-4c37-b256-e3c2000d226a","ios":"levelo://app?vid=825d0377-73f4-4c37-b256-e3c2000d226a"},"vehicle_type_id":"4","last_reported":1770160714,"current_range_meters":4000,"station_id":"st_d4kl2rp97mjs73e7tdfg","pricing_plan_id":"cebpf4jnsgd1na2vs0mg"},{"bike_id":"02b06200-6f0c-4fbe-a288-f34e85c983a1","system_id":"levelo_inurba_marseille","lat":43.23783,"lon":5.36652,"is_reserved":false,"is_disabled":false,"rental_uris":{"android":"levelo://app?vid=02b06200-6f0c-4fbe-a288-f34e85c983a1","ios":"levelo://app?vid=02b06200-6f0c-4fbe-a288-f34e85c983a1"},"vehicle_type_id":"4","last_reported":1770160714,"current_range_meters":4000,"station_id":"st_d3nk18o9ro0c73en2l3g","pricing_plan_id":"cebpf4jnsgd1na2vs0mg"},{"bike_id":"59af2a1f-529f-4907-9f3a-a914cae26c64","system_id":"levelo_inurba_marseille","lat":43.3093,"lon":5.40148,"is_reserved":false,"is_disabled":false,"rental_uris":{"android":"levelo://app?vid=59af2a1f-529f-4907-9f3a-a914cae26c64","ios":"levelo://app?vid=59af2a1f-529f-4907-9f3a-a914cae26c64"},"vehicle_type_id":"4","last_reported":1770160714,"current_range_meters":4000,"station_id":"ce4bgvp2rcd13ifvqct0","pricing_plan_id":"cebpf4jnsgd1na2vs0mg"},{"bike_id":"7830c5a0-6716-49ce-9fb9-030a83055837","system_id":"levelo_inurba_marseille","lat":43.3031,"lon":5.36902,"is_reserved":false,"is_disabled":true,"rental_uris":{"android":"levelo://app?vid=7830c5a0-6716-49ce-9fb9-030a83055837","ios":"levelo://app?vid=7830c5a0-6716-49ce-9fb9-030a83055837"},"vehicle_type_id":"4","last_reported":1770160714,"current_range_meters":4000,"station_id":"ce4bgqh2rcd13ifvqc5g","pricing_plan_id":"cebpf4jnsgd1na2vs0mg"},{"bike_id":"f2b5a338-20c1-418a-ae0a-e38804805aac","system_id":"levelo_inurba_marseille","lat":43.30888,"lon":5.39657,"is_reserved":false,"is_disabled":false,"rental_uris":{"android":"levelo://app?vid=f2b5a338-20c1-418a-ae0a-e38804805aac","ios":"levelo://app?vid=f2b5a338-20c1-418a-ae0a-e38804805aac"},"vehicle_type_id":"4","last_reported":1770160714,"current_range_meters":4000,"station_id":"ce4bh012rcd13ifvqcv0","pricing_plan_id":"cebpf4jnsgd1na2vs0mg"},{"bike_id":"3ad37aec-ce6a-40cc-8ced-df11df727632","system_id":"levelo_inurba_marseille","lat":43.31803,"lon":5.38695,"is_reserved":false,"is_disabled":false,"rental_uris":{"android":"levelo://app?vid=3ad37aec-ce6a-40cc-8ced-df11df727632","ios":"levelo://app?vid=3ad37aec-ce6a-40cc-8ced-df11df727632"},"vehicle_type_id":"4","last_reported":1770160714,"current_range_meters":4000,"station_id":"","pricing_plan_id":"cebpf4jnsgd1na2vs0mg"},{"bike_id":"6ddf7e79-fc33-436a-9f2e-0297899e5607","system_id":"levelo_inurba_marseille","lat":43.28474,"lon":5.48404,"is_reserved":false,"is_disabled":false,"rental_uris":{"android":"levelo://app?vid=6ddf7e79-fc33-436a-9f2e-0297899e5607","ios":"levelo://app?vid=6ddf7e79-fc33-436a-9f2e-0297899e5607"},"vehicle_type_id":"4","last_reported":1770160714,"current_range_meters":4000,"station_id":"","pricing_plan_id":"cebpf4jnsgd1na2vs0mg"},{"bike_id":"7c1c511e-a8dd-4fbc-b586-cad3c86a90c4","system_id":"levelo_inurba_marseille","lat":43.29252,"lon":5.38461,"is_reserved":false,"is_disabled":false,"rental_uris":{"android":"levelo://app?vid=7c1c511e-a8dd-4fbc-b586-cad3c86a90c4","ios":"levelo://app?vid=7c1c511e-a8dd-4fbc-b586-cad3c86a90c4"},"vehicle_type_id":"4","last_reported":1770160714,"current_range_meters":4000,"station_id":"ce4bh692rcd13ifvqea0","pricing_plan_id":"cebpf4jnsgd1na2vs0mg"},{"bike_id":"56e0dd43-db59-4a14-ac0c-d950e7030a9a","system_id":"levelo_inurba_marseille","lat":43.3334,"lon":5.41091,"is_reserved":false,"is_disabled":false,"rental_uris":{"android":"levelo://app?vid=56e0dd43-db59-4a14-ac0c-d950e7030a9a","ios":"levelo://app?vid=56e0dd43-db59-4a14-ac0c-d950e7030a9a"},"vehicle_type_id":"4","last_reported":1770160714,"current_range_meters":4000,"station_id":"","pricing_plan_id":"cebpf4jnsgd1na2vs0mg"},{"bike_id":"e946741c-d595-418e-9109-5e232da3e437","system_id":"levelo_inurba_marseille","lat":43.26374,"lon":5.41088,"is_reserved":false,"is_disabled":false,"rental_uris":{"android":"levelo://app?vid=e946741c-d595-418e-9109-5e232da3e437","ios":"levelo://app?vid=e946741c-d595-418e-9109-5e232da3e437"},"vehicle_type_id":"4","last_reported":1770160714,"current_range_meters":4000,"station_id":"st_d4e5ca6na9uc73bfl5fg","pricing_plan_id":"cebpf4jnsgd1na2vs0mg"},{"bike_id":"c5cba592-c8ea-4299-867c-e35aceae73bc","system_id":"levelo_inurba_marseille","lat":43.31767,"lon":5.39056,"is_reserved":false,"is_disabled":false,"rental_uris":{"android":"levelo://app?vid=c5cba592-c8ea-4299-867c-e35aceae73bc","ios":"levelo://app?vid=c5cba592-c8ea-4299-867c-e35aceae73bc"},"vehicle_type_id":"4","last_reported":1770160714,"current_range_meters":4000,"station_id":"ce4bhqp2rcd13ifvqhng","pricing_plan_id":"cebpf4jnsgd1na2vs0mg"},{"bike_id":"bcec4f6c-e07c-44d5-955d-2402cc53b633","system_id":"levelo_inurba_marseille","lat":43.2954,"lon":5.39048,"is_reserved":false,"is_disabled":false,"rental_uris":{"android":"levelo://app?vid=bcec4f6c-e07c-44d5-955d-2402cc53b633","ios":"levelo://app?vid=bcec4f6c-e07c-44d5-955d-2402cc53b633"},"vehicle_type_id":"4","last_reported":1770160714,"current_range_meters":4400,"station_id":"ce4bh3p2rcd13ifvqdp0","pricing_plan_id":"cebpf4jnsgd1na2vs0mg"},{"bike_id":"5d2a7df9-4ddf-4885-8075-b7755ef05fb8","system_id":"levelo_inurba_marseille","lat":43.23046,"lon":5.40276,"is_reserved":false,"is_disabled":false,"rental_uris":{"android":"levelo://app?vid=5d2a7df9-4ddf-4885-8075-b7755ef05fb8","ios":"levelo://app?vid=5d2a7df9-4ddf-4885-8075-b7755ef05fb8"},"vehicle_type_id":"4","last_reported":1770160714,"current_range_meters":4400,"station_id":"","pricing_plan_id":"cebpf4jnsgd1na2vs0mg"},{"bike_id":"088b1b0f-daac-437a-8ad0-736437c0b93b","system_id":"levelo_inurba_marseille","lat":43.30387,"lon":5.40572,"is_reserved":false,"is_disabled":false,"rental_uris":{"android":"levelo://app?vid=088b1b0f-daac-437a-8ad0-736437c0b93b","ios":"levelo://app?vid=088b1b0f-daac-437a-8ad0-736437c0b93b"},"vehicle_type_id":"4","last_reported":1770160714,"current_range_meters":4400,"station_id":"","pricing_plan_id":"cebpf4jnsgd1na2vs0mg"},{"bike_id":"03cfe8ff-bad7-4324-a169-164f68b4c260","system_id":"levelo_inurba_marseille","lat":43.337444,"lon":5.374475,"is_reserved":false,"is_disabled":false,"rental_uris":{"android":"levelo://app?vid=03cfe8ff-bad7-4324-a169-164f68b4c260","ios":"levelo://app?vid=03cfe8ff-bad7-4324-a169-164f68b4c260"},"vehicle_type_id":"4","last_reported":1770160714,"current_range_meters":4400,"station_id":"","pricing_plan_id":"cebpf4jnsgd1na2vs0mg"},{"bike_id":"9e057795-08d0-428c-a4d6-14e223435515","system_id":"levelo_inurba_marseille","lat":43.24598,"lon":5.37372,"is_reserved":false,"is_disabled":false,"rental_uris":{"android":"levelo://app?vid=9e057795-08d0-428c-a4d6-14e223435515","ios":"levelo://app?vid=9e057795-08d0-428c-a4d6-14e223435515"},"vehicle_type_id":"4","last_reported":1770160714,"current_range_meters":4400,"station_id":"","pricing_plan_id":"cebpf4jnsgd1na2vs0mg"},{"bike_id":"141bd124-c814-48f9-b2f7-d0b84fea7cf1","system_id":"levelo_inurba_marseille","lat":43.24829,"lon":5.3745,"is_reserved":false,"is_disabled":false,"rental_uris":{"android":"levelo://app?vid=141bd124-c814-48f9-b2f7-d0b84fea7cf1","ios":"levelo://app?vid=141bd124-c814-48f9-b2f7-d0b84fea7cf1"},"vehicle_type_id":"4","last_reported":1770160714,"current_range_meters":4400,"station_id":"ce4bhgh2rcd13ifvqfb0","pricing_plan_id":"cebpf4jnsgd1na2vs0mg"},{"bike_id":"77ee2386-41ea-476e-b76b-f435873f6247","system_id":"levelo_inurba_marseille","lat":43.243876,"lon":5.370565,"is_reserved":false,"is_disabled":false,"rental_uris":{"android":"levelo://app?vid=77ee2386-41ea-476e-b76b-f435873f6247","ios":"levelo://app?vid=77ee2386-41ea-476e-b76b-f435873f6247"},"vehicle_type_id":"4","last_reported":1770160714,"current_range_meters":4400,"station_id":"ce4bhhh2rcd13ifvqfk0","pricing_plan_id":"cebpf4jnsgd1na2vs0mg"},{"bike_id":"a3d3a949-e6a8-49ab-9f8a-4cfb992af1b3","system_id":"levelo_inurba_marseille","lat":43.21188,"lon":5.35093,"is_reserved":false,"is_disabled":false,"rental_uris":{"android":"levelo://app?vid=a3d3a949-e6a8-49ab-9f8a-4cfb992af1b3","ios":"levelo://app?vid=a3d3a949-e6a8-49ab-9f8a-4cfb992af1b3"},"vehicle_type_id":"4","last_reported":1770160714,"current_range_meters":4400,"station_id":"","pricing_plan_id":"cebpf4jnsgd1na2vs0mg"},{"bike_id":"c712ed3d-c215-4797-b966-a49348f4b7af","system_id":"levelo_inurba_marseille","lat":43.303,"lon":5.39212,"is_reserved":false,"is_disabled":false,"rental_uris":{"android":"levelo://app?vid=c712ed3d-c215-4797-b966-a49348f4b7af","ios":"levelo://app?vid=c712ed3d-c215-4797-b966-a49348f4b7af"},"vehicle_type_id":"4","last_reported":1770160714,"current_range_meters":4400,"station_id":"ce4bgkh2rcd13ifvqbk0","pricing_plan_id":"cebpf4jnsgd1na2vs0mg"},{"bike_id":"b9e3fc66-fb1e-4c7e-9acb-b26163b020c4","system_id":"levelo_inurba_marseille","lat":43.30661,"lon":5.40065,"is_reserved":false,"is_disabled":false,"rental_uris":{"android":"levelo://app?vid=b9e3fc66-fb1e-4c7e-9acb-b26163b020c4","ios":"levelo://app?vid=b9e3fc66-fb1e-4c7e-9acb-b26163b020c4"},"vehicle_type_id":"4","last_reported":1770160714,"current_range_meters":4400,"station_id":"ce4bh112rcd13ifvqda0","pricing_plan_id":"cebpf4jnsgd1na2vs0mg"},{"bike_id":"62393bef-3a20-4c4b-9a55-6ad7e3b93507","system_id":"levelo_inurba_marseille","lat":43.240721,"lon":5.377579,"is_reserved":false,"is_disabled":false,"rental_uris":{"android":"levelo://app?vid=62393bef-3a20-4c4b-9a55-6ad7e3b93507","ios":"levelo://app?vid=62393bef-3a20-4c4b-9a55-6ad7e3b93507"},"vehicle_type_id":"4","last_reported":1770160714,"current_range_meters":4400,"station_id":"ce4bhnp2rcd13ifvqgvg","pricing_plan_id":"cebpf4jnsgd1na2vs0mg"},{"bike_id":"811dab78-1623-4fb0-b2a5-b9e02c438a16","system_id":"levelo_inurba_marseille","lat":43.2903,"lon":5.3755,"is_reserved":false,"is_disabled":false,"rental_uris":{"android":"levelo://app?vid=811dab78-1623-4fb0-b2a5-b9e02c438a16","ios":"levelo://app?vid=811dab78-1623-4fb0-b2a5-b9e02c438a16"},"vehicle_type_id":"4","last_reported":1770160714,"current_range_meters":4400,"station_id":"ce4bh692rcd13ifvqe90","pricing_plan_id":"cebpf4jnsgd1na2vs0mg"},{"bike_id":"ed16150d-e242-4c3b-8666-03414f56dd12","system_id":"levelo_inurba_marseille","lat":43.24817,"lon":5.37457,"is_reserved":false,"is_disabled":false,"rental_uris":{"android":"levelo://app?vid=ed16150d-e242-4c3b-8666-03414f56dd12","ios":"levelo://app?vid=ed16150d-e242-4c3b-8666-03414f56dd12"},"vehicle_type_id":"4","last_reported":1770160714,"current_range_meters":4400,"station_id":"ce4bhgh2rcd13ifvqfb0","pricing_plan_id":"cebpf4jnsgd1na2vs0mg"},{"bike_id":"ab5b4f9f-ad6f-4b21-896b-3d7e4bb28591","system_id":"levelo_inurba_marseille","lat":43.261892,"lon":5.374467,"is_reserved":false,"is_disabled":false,"rental_uris":{"android":"levelo://app?vid=ab5b4f9f-ad6f-4b21-896b-3d7e4bb28591","ios":"levelo://app?vid=ab5b4f9f-ad6f-4b21-896b-3d7e4bb28591"},"vehicle_type_id":"4","last_reported":1770160714,"current_range_meters":4800,"station_id":"ce4bhgp2rcd13ifvqfc0","pricing_plan_id":"cebpf4jnsgd1na2vs0mg"},{"bike_id":"702fa35f-ea9c-4728-a822-3c2a01d1cb71","system_id":"levelo_inurba_marseille","lat":43.289276,"lon":5.384046,"is_reserved":false,"is_disabled":false,"rental_uris":{"android":"levelo://app?vid=702fa35f-ea9c-4728-a822-3c2a01d1cb71","ios":"levelo://app?vid=702fa35f-ea9c-4728-a822-3c2a01d1cb71"},"vehicle_type_id":"4","last_reported":1770160714,"current_range_meters":4800,"station_id":"ce4bh612rcd13ifvqe6g","pricing_plan_id":"cebpf4jnsgd1na2vs0mg"},{"bike_id":"eb1b2124-84d2-467d-b1f5-56516dcfd958","system_id":"levelo_inurba_marseille","lat":43.21191,"lon":5.35077,"is_reserved":false,"is_disabled":false,"rental_uris":{"android":"levelo://app?vid=eb1b2124-84d2-467d-b1f5-56516dcfd958","ios":"levelo://app?vid=eb1b2124-84d2-467d-b1f5-56516dcfd958"},"vehicle_type_id":"4","last_reported":1770160714,"current_range_meters":4800,"station_id":"","pricing_plan_id":"cebpf4jnsgd1na2vs0mg"},{"bike_id":"365c6bee-57a4-4138-b3c4-2eb637f2990f","system_id":"levelo_inurba_marseille","lat":43.29609,"lon":5.3772,"is_reserved":false,"is_disabled":false,"rental_uris":{"android":"levelo://app?vid=365c6bee-57a4-4138-b3c4-2eb637f2990f","ios":"levelo://app?vid=365c6bee-57a4-4138-b3c4-2eb637f2990f"},"vehicle_type_id":"4","last_reported":1770160714,"current_range_meters":4800,"station_id":"ce4bgi92rcd13ifvqb90","pricing_plan_id":"cebpf4jnsgd1na2vs0mg"},{"bike_id":"c15cd4e0-6228-4ec0-8abb-497f27aecdb2","system_id":"levelo_inurba_marseille","lat":43.312727,"lon":5.377599,"is_reserved":false,"is_disabled":false,"rental_uris":{"android":"levelo://app?vid=c15cd4e0-6228-4ec0-8abb-497f27aecdb2","ios":"levelo://app?vid=c15cd4e0-6228-4ec0-8abb-497f27aecdb2"},"vehicle_type_id":"4","last_reported":1770160714,"current_range_meters":4800,"station_id":"","pricing_plan_id":"cebpf4jnsgd1na2vs0mg"},{"bike_id":"0e834074-a264-4771-9012-2dbbbdaa43fb","system_id":"levelo_inurba_marseille","lat":43.28099,"lon":5.37823,"is_reserved":false,"is_disabled":false,"rental_uris":{"android":"levelo://app?vid=0e834074-a264-4771-9012-2dbbbdaa43fb","ios":"levelo://app?vid=0e834074-a264-4771-9012-2dbbbdaa43fb"},"vehicle_type_id":"4","last_reported":1770160714,"current_range_meters":4800,"station_id":"ce4bha12rcd13ifvqee0","pricing_plan_id":"cebpf4jnsgd1na2vs0mg"},{"bike_id":"413ca1e5-515a-4601-b78b-8729f8f0fbfd","system_id":"levelo_inurba_marseille","lat":43.30117,"lon":5.4313,"is_reserved":false,"is_disabled":false,"rental_uris":{"android":"levelo://app?vid=413ca1e5-515a-4601-b78b-8729f8f0fbfd","ios":"levelo://app?vid=413ca1e5-515a-4601-b78b-8729f8f0fbfd"},"vehicle_type_id":"4","last_reported":1770160714,"current_range_meters":4800,"station_id":"st_d3js3co5814s73ftftug","pricing_plan_id":"cebpf4jnsgd1na2vs0mg"},{"bike_id":"a9162fc7-d36d-479b-ba04-63d5511f4da0","system_id":"levelo_inurba_marseille","lat":43.29284,"lon":5.40122,"is_reserved":false,"is_disabled":false,"rental_uris":{"android":"levelo://app?vid=a9162fc7-d36d-479b-ba04-63d5511f4da0","ios":"levelo://app?vid=a9162fc7-d36d-479b-ba04-63d5511f4da0"},"vehicle_type_id":"4","last_reported":1770160714,"current_range_meters":4800,"station_id":"ce4bh312rcd13ifvqdk0","pricing_plan_id":"cebpf4jnsgd1na2vs0mg"},{"bike_id":"2360117f-e14f-4f9c-b273-a3b0a85bbecc","system_id":"levelo_inurba_marseille","lat":43.31192,"lon":5.38711,"is_reserved":false,"is_disabled":false,"rental_uris":{"android":"levelo://app?vid=2360117f-e14f-4f9c-b273-a3b0a85bbecc","ios":"levelo://app?vid=2360117f-e14f-4f9c-b273-a3b0a85bbecc"},"vehicle_type_id":"4","last_reported":1770160714,"current_range_meters":4800,"station_id":"ce4bgv12rcd13ifvqcp0","pricing_plan_id":"cebpf4jnsgd1na2vs0mg"},{"bike_id":"e38f544f-f996-477c-b7d2-6313026ffb89","system_id":"levelo_inurba_marseille","lat":43.24812,"lon":5.37456,"is_reserved":false,"is_disabled":false,"rental_uris":{"android":"levelo://app?vid=e38f544f-f996-477c-b7d2-6313026ffb89","ios":"levelo://app?vid=e38f544f-f996-477c-b7d2-6313026ffb89"},"vehicle_type_id":"4","last_reported":1770160714,"current_range_meters":4800,"station_id":"ce4bhgh2rcd13ifvqfb0","pricing_plan_id":"cebpf4jnsgd1na2vs0mg"},{"bike_id":"19d13749-20b4-4a18-8dd6-e6e36b1637da","system_id":"levelo_inurba_marseille","lat":43.29808,"lon":5.38103,"is_reserved":false,"is_disabled":false,"rental_uris":{"android":"levelo://app?vid=19d13749-20b4-4a18-8dd6-e6e36b1637da","ios":"levelo://app?vid=19d13749-20b4-4a18-8dd6-e6e36b1637da"},"vehicle_type_id":"4","last_reported":1770160714,"current_range_meters":4800,"station_id":"ce4bgip2rcd13ifvqbb0","pricing_plan_id":"cebpf4jnsgd1na2vs0mg"},{"bike_id":"34e4497e-004e-4d33-b563-df43c3f1dff0","system_id":"levelo_inurba_marseille","lat":43.29165,"lon":5.38777,"is_reserved":false,"is_disabled":false,"rental_uris":{"android":"levelo://app?vid=34e4497e-004e-4d33-b563-df43c3f1dff0","ios":"levelo://app?vid=34e4497e-004e-4d33-b563-df43c3f1dff0"},"vehicle_type_id":"4","last_reported":1770160714,"current_range_meters":4800,"station_id":"ce4bh4p2rcd13ifvqe0g","pricing_plan_id":"cebpf4jnsgd1na2vs0mg"},{"bike_id":"1f4ee6eb-1499-44ab-ac9c-3f73090bd737","system_id":"levelo_inurba_marseille","lat":43.29041,"lon":5.38641,"is_reserved":false,"is_disabled":false,"rental_uris":{"android":"levelo://app?vid=1f4ee6eb-1499-44ab-ac9c-3f73090bd737","ios":"levelo://app?vid=1f4ee6eb-1499-44ab-ac9c-3f73090bd737"},"vehicle_type_id":"4","last_reported":1770160714,"current_range_meters":4800,"station_id":"ce4bh4p2rcd13ifvqe0g","pricing_plan_id":"cebpf4jnsgd1na2vs0mg"},{"bike_id":"dc968cad-2a16-4b99-b4f5-ee3b7c01a705","system_id":"levelo_inurba_marseille","lat":43.2998,"lon":5.38497,"is_reserved":false,"is_disabled":false,"rental_uris":{"android":"levelo://app?vid=dc968cad-2a16-4b99-b4f5-ee3b7c01a705","ios":"levelo://app?vid=dc968cad-2a16-4b99-b4f5-ee3b7c01a705"},"vehicle_type_id":"4","last_reported":1770160714,"current_range_meters":4800,"station_id":"ce4bgj92rcd13ifvqbd0","pricing_plan_id":"cebpf4jnsgd1na2vs0mg"},{"bike_id":"fdb878e6-ff79-4674-9a93-540ade0a2317","system_id":"levelo_inurba_marseille","lat":43.31085,"lon":5.383455,"is_reserved":false,"is_disabled":false,"rental_uris":{"android":"levelo://app?vid=fdb878e6-ff79-4674-9a93-540ade0a2317","ios":"levelo://app?vid=fdb878e6-ff79-4674-9a93-540ade0a2317"},"vehicle_type_id":"4","last_reported":1770160714,"current_range_meters":4800,"station_id":"ce4bgv92rcd13ifvqcr0","pricing_plan_id":"cebpf4jnsgd1na2vs0mg"},{"bike_id":"fd4003f9-ae57-43d9-af54-09e855d38b22","system_id":"levelo_inurba_marseille","lat":43.2852,"lon":5.44097,"is_reserved":false,"is_disabled":false,"rental_uris":{"android":"levelo://app?vid=fd4003f9-ae57-43d9-af54-09e855d38b22","ios":"levelo://app?vid=fd4003f9-ae57-43d9-af54-09e855d38b22"},"vehicle_type_id":"4","last_reported":1770160714,"current_range_meters":5600,"station_id":"st_d3j3df2ikq2c7380ej80","pricing_plan_id":"cebpf4jnsgd1na2vs0mg"},{"bike_id":"7de714e1-e1e3-4cef-a665-bf94e4caea8c","system_id":"levelo_inurba_marseille","lat":43.22591,"lon":5.41624,"is_reserved":false,"is_disabled":false,"rental_uris":{"android":"levelo://app?vid=7de714e1-e1e3-4cef-a665-bf94e4caea8c","ios":"levelo://app?vid=7de714e1-e1e3-4cef-a665-bf94e4caea8c"},"vehicle_type_id":"4","last_reported":1770160714,"current_range_meters":5600,"station_id":"st_d2o4gvlbi1j2169b742g","pricing_plan_id":"cebpf4jnsgd1na2vs0mg"},{"bike_id":"d46ff533-0eee-4665-b81c-0e20854ee49c","system_id":"levelo_inurba_marseille","lat":43.29941,"lon":5.36548,"is_reserved":false,"is_disabled":false,"rental_uris":{"android":"levelo://app?vid=d46ff533-0eee-4665-b81c-0e20854ee49c","ios":"levelo://app?vid=d46ff533-0eee-4665-b81c-0e20854ee49c"},"vehicle_type_id":"4","last_reported":1770160714,"current_range_meters":5600,"station_id":"ce4bgm92rcd13ifvqbr0","pricing_plan_id":"cebpf4jnsgd1na2vs0mg"},{"bike_id":"d96b5276-ddb9-4dda-bf61-4ae90512437d","system_id":"levelo_inurba_marseille","lat":43.24173,"lon":5.36416,"is_reserved":false,"is_disabled":false,"rental_uris":{"android":"levelo://app?vid=d96b5276-ddb9-4dda-bf61-4ae90512437d","ios":"levelo://app?vid=d96b5276-ddb9-4dda-bf61-4ae90512437d"},"vehicle_type_id":"4","last_reported":1770160714,"current_range_meters":5600,"station_id":"cpo36qri1sfpv3e86is0","pricing_plan_id":"cebpf4jnsgd1na2vs0mg"},{"bike_id":"8b87fb16-7472-4dc3-8e1e-a5b808d3c90b","system_id":"levelo_inurba_marseille","lat":43.30781,"lon":5.38161,"is_reserved":false,"is_disabled":false,"rental_uris":{"android":"levelo://app?vid=8b87fb16-7472-4dc3-8e1e-a5b808d3c90b","ios":"levelo://app?vid=8b87fb16-7472-4dc3-8e1e-a5b808d3c90b"},"vehicle_type_id":"4","last_reported":1770160714,"current_range_meters":5600,"station_id":"ce4bgt12rcd13ifvqce0","pricing_plan_id":"cebpf4jnsgd1na2vs0mg"},{"bike_id":"549d637b-91c5-48ec-83fa-865a463b6a4b","system_id":"levelo_inurba_marseille","lat":43.23186,"lon":5.35549,"is_reserved":false,"is_disabled":false,"rental_uris":{"android":"levelo://app?vid=549d637b-91c5-48ec-83fa-865a463b6a4b","ios":"levelo://app?vid=549d637b-91c5-48ec-83fa-865a463b6a4b"},"vehicle_type_id":"4","last_reported":1770160714,"current_range_meters":5600,"station_id":"ce4bhu92rcd13ifvqi70","pricing_plan_id":"cebpf4jnsgd1na2vs0mg"},{"bike_id":"fe335e0e-dff4-4de5-a4d7-3003ebcaccb1","system_id":"levelo_inurba_marseille","lat":43.31283,"lon":5.40162,"is_reserved":false,"is_disabled":false,"rental_uris":{"android":"levelo://app?vid=fe335e0e-dff4-4de5-a4d7-3003ebcaccb1","ios":"levelo://app?vid=fe335e0e-dff4-4de5-a4d7-3003ebcaccb1"},"vehicle_type_id":"4","last_reported":1770160714,"current_range_meters":5600,"station_id":"ce4bh092rcd13ifvqd30","pricing_plan_id":"cebpf4jnsgd1na2vs0mg"},{"bike_id":"34d60330-3f7e-4aeb-acc6-eff17043fba2","system_id":"levelo_inurba_marseille","lat":43.29649,"lon":5.38736,"is_reserved":false,"is_disabled":false,"rental_uris":{"android":"levelo://app?vid=34d60330-3f7e-4aeb-acc6-eff17043fba2","ios":"levelo://app?vid=34d60330-3f7e-4aeb-acc6-eff17043fba2"},"vehicle_type_id":"4","last_reported":1770160714,"current_range_meters":5600,"station_id":"","pricing_plan_id":"cebpf4jnsgd1na2vs0mg"},{"bike_id":"046cbdeb-0034-4bf7-a8f7-6f44c90a617b","system_id":"levelo_inurba_marseille","lat":43.293494,"lon":5.383352,"is_reserved":false,"is_disabled":false,"rental_uris":{"android":"levelo://app?vid=046cbdeb-0034-4bf7-a8f7-6f44c90a617b","ios":"levelo://app?vid=046cbdeb-0034-4bf7-a8f7-6f44c90a617b"},"vehicle_type_id":"4","last_reported":1770160714,"current_range_meters":5600,"station_id":"","pricing_plan_id":"cebpf4jnsgd1na2vs0mg"},{"bike_id":"f8e7e4d9-f87a-42a2-9144-b6886b943f25","system_id":"levelo_inurba_marseille","lat":43.24993,"lon":5.38928,"is_reserved":false,"is_disabled":false,"rental_uris":{"android":"levelo://app?vid=f8e7e4d9-f87a-42a2-9144-b6886b943f25","ios":"levelo://app?vid=f8e7e4d9-f87a-42a2-9144-b6886b943f25"},"vehicle_type_id":"4","last_reported":1770160714,"current_range_meters":6000,"station_id":"ce4bhgp2rcd13ifvqfd0","pricing_plan_id":"cebpf4jnsgd1na2vs0mg"},{"bike_id":"151047fe-b117-41cf-9416-4f91d0d3c1a9","system_id":"levelo_inurba_marseille","lat":43.31856,"lon":5.36908,"is_reserved":false,"is_disabled":false,"rental_uris":{"android":"levelo://app?vid=151047fe-b117-41cf-9416-4f91d0d3c1a9","ios":"levelo://app?vid=151047fe-b117-41cf-9416-4f91d0d3c1a9"},"vehicle_type_id":"4","last_reported":1770160714,"current_range_meters":6000,"station_id":"","pricing_plan_id":"cebpf4jnsgd1na2vs0mg"},{"bike_id":"5550127f-fca2-4915-8f11-c06397032820","system_id":"levelo_inurba_marseille","lat":43.23969,"lon":5.36631,"is_reserved":false,"is_disabled":false,"rental_uris":{"android":"levelo://app?vid=5550127f-fca2-4915-8f11-c06397032820","ios":"levelo://app?vid=5550127f-fca2-4915-8f11-c06397032820"},"vehicle_type_id":"4","last_reported":1770160714,"current_range_meters":6000,"station_id":"ce4bhi12rcd13ifvqfp0","pricing_plan_id":"cebpf4jnsgd1na2vs0mg"},{"bike_id":"c5bcd69a-7525-40fe-aaa4-4ac7645ff3f0","system_id":"levelo_inurba_marseille","lat":43.28007,"lon":5.41658,"is_reserved":false,"is_disabled":false,"rental_uris":{"android":"levelo://app?vid=c5bcd69a-7525-40fe-aaa4-4ac7645ff3f0","ios":"levelo://app?vid=c5bcd69a-7525-40fe-aaa4-4ac7645ff3f0"},"vehicle_type_id":"4","last_reported":1770160714,"current_range_meters":6000,"station_id":"ce4bho12rcd13ifvqh1g","pricing_plan_id":"cebpf4jnsgd1na2vs0mg"},{"bike_id":"67949cb0-ad73-42aa-8494-c2a7d6735f87","system_id":"levelo_inurba_marseille","lat":43.31226,"lon":5.36869,"is_reserved":false,"is_disabled":false,"rental_uris":{"android":"levelo://app?vid=67949cb0-ad73-42aa-8494-c2a7d6735f87","ios":"levelo://app?vid=67949cb0-ad73-42aa-8494-c2a7d6735f87"},"vehicle_type_id":"4","last_reported":1770160714,"current_range_meters":6000,"station_id":"ce4bgl92rcd13ifvqbq0","pricing_plan_id":"cebpf4jnsgd1na2vs0mg"},{"bike_id":"56a1b9ba-7d3b-4d4d-816d-8ff70d14355a","system_id":"levelo_inurba_marseille","lat":43.24661,"lon":5.38163,"is_reserved":false,"is_disabled":false,"rental_uris":{"android":"levelo://app?vid=56a1b9ba-7d3b-4d4d-816d-8ff70d14355a","ios":"levelo://app?vid=56a1b9ba-7d3b-4d4d-816d-8ff70d14355a"},"vehicle_type_id":"4","last_reported":1770160714,"current_range_meters":6000,"station_id":"ce4bhih2rcd13ifvqfr0","pricing_plan_id":"cebpf4jnsgd1na2vs0mg"},{"bike_id":"466d497a-efa3-4d42-9b3b-be6a4ee7d659","system_id":"levelo_inurba_marseille","lat":43.24395,"lon":5.37063,"is_reserved":false,"is_disabled":false,"rental_uris":{"android":"levelo://app?vid=466d497a-efa3-4d42-9b3b-be6a4ee7d659","ios":"levelo://app?vid=466d497a-efa3-4d42-9b3b-be6a4ee7d659"},"vehicle_type_id":"4","last_reported":1770160714,"current_range_meters":6000,"station_id":"ce4bhhh2rcd13ifvqfk0","pricing_plan_id":"cebpf4jnsgd1na2vs0mg"},{"bike_id":"c3ba0fed-3d29-4191-b8a3-c899b1e9e5ad","system_id":"levelo_inurba_marseille","lat":43.25563,"lon":5.3825,"is_reserved":false,"is_disabled":false,"rental_uris":{"android":"levelo://app?vid=c3ba0fed-3d29-4191-b8a3-c899b1e9e5ad","ios":"levelo://app?vid=c3ba0fed-3d29-4191-b8a3-c899b1e9e5ad"},"vehicle_type_id":"4","last_reported":1770160714,"current_range_meters":6000,"station_id":"ce4bhih2rcd13ifvqfs0","pricing_plan_id":"cebpf4jnsgd1na2vs0mg"},{"bike_id":"2bf19671-0061-46e9-83e3-55d71bb70148","system_id":"levelo_inurba_marseille","lat":43.22961,"lon":5.35361,"is_reserved":false,"is_disabled":false,"rental_uris":{"android":"levelo://app?vid=2bf19671-0061-46e9-83e3-55d71bb70148","ios":"levelo://app?vid=2bf19671-0061-46e9-83e3-55d71bb70148"},"vehicle_type_id":"4","last_reported":1770160714,"current_range_meters":6000,"station_id":"cpo3532slgdg3j2ikp40","pricing_plan_id":"cebpf4jnsgd1na2vs0mg"},{"bike_id":"aaf22886-8931-43f5-890d-fc99243945fc","system_id":"levelo_inurba_marseille","lat":43.24177,"lon":5.39696,"is_reserved":false,"is_disabled":false,"rental_uris":{"android":"levelo://app?vid=aaf22886-8931-43f5-890d-fc99243945fc","ios":"levelo://app?vid=aaf22886-8931-43f5-890d-fc99243945fc"},"vehicle_type_id":"4","last_reported":1770160714,"current_range_meters":6000,"station_id":"ce4bhn12rcd13ifvqgpg","pricing_plan_id":"cebpf4jnsgd1na2vs0mg"},{"bike_id":"30018880-defb-4e1d-b4b9-524f673acfb8","system_id":"levelo_inurba_marseille","lat":43.29745,"lon":5.42795,"is_reserved":false,"is_disabled":false,"rental_uris":{"android":"levelo://app?vid=30018880-defb-4e1d-b4b9-524f673acfb8","ios":"levelo://app?vid=30018880-defb-4e1d-b4b9-524f673acfb8"},"vehicle_type_id":"4","last_reported":1770160714,"current_range_meters":6000,"station_id":"st_d3md5207bmas73dh9klg","pricing_plan_id":"cebpf4jnsgd1na2vs0mg"},{"bike_id":"e0dbfbca-ec96-436a-aa53-81521e31b965","system_id":"levelo_inurba_marseille","lat":43.28694,"lon":5.37401,"is_reserved":false,"is_disabled":false,"rental_uris":{"android":"levelo://app?vid=e0dbfbca-ec96-436a-aa53-81521e31b965","ios":"levelo://app?vid=e0dbfbca-ec96-436a-aa53-81521e31b965"},"vehicle_type_id":"4","last_reported":1770160714,"current_range_meters":6000,"station_id":"ce4bh3p2rcd13ifvqdq0","pricing_plan_id":"cebpf4jnsgd1na2vs0mg"},{"bike_id":"0132a3cf-69fe-4c36-a3f5-853ddb5ead41","system_id":"levelo_inurba_marseille","lat":43.24805,"lon":5.3745,"is_reserved":false,"is_disabled":false,"rental_uris":{"android":"levelo://app?vid=0132a3cf-69fe-4c36-a3f5-853ddb5ead41","ios":"levelo://app?vid=0132a3cf-69fe-4c36-a3f5-853ddb5ead41"},"vehicle_type_id":"4","last_reported":1770160714,"current_range_meters":6000,"station_id":"ce4bhgh2rcd13ifvqfb0","pricing_plan_id":"cebpf4jnsgd1na2vs0mg"},{"bike_id":"530b3fec-7af4-45eb-bf12-cc02b58eae44","system_id":"levelo_inurba_marseille","lat":43.24695,"lon":5.38143,"is_reserved":false,"is_disabled":false,"rental_uris":{"android":"levelo://app?vid=530b3fec-7af4-45eb-bf12-cc02b58eae44","ios":"levelo://app?vid=530b3fec-7af4-45eb-bf12-cc02b58eae44"},"vehicle_type_id":"4","last_reported":1770160714,"current_range_meters":6000,"station_id":"ce4bhih2rcd13ifvqfr0","pricing_plan_id":"cebpf4jnsgd1na2vs0mg"},{"bike_id":"edcb87a3-89fd-4c81-b16f-a9efdb1bc6b7","system_id":"levelo_inurba_marseille","lat":43.27253,"lon":5.38311,"is_reserved":false,"is_disabled":true,"rental_uris":{"android":"levelo://app?vid=edcb87a3-89fd-4c81-b16f-a9efdb1bc6b7","ios":"levelo://app?vid=edcb87a3-89fd-4c81-b16f-a9efdb1bc6b7"},"vehicle_type_id":"4","last_reported":1770160714,"current_range_meters":6000,"station_id":"","pricing_plan_id":"cebpf4jnsgd1na2vs0mg"},{"bike_id":"deb9e4eb-a481-4dbd-9838-7e21c4114a77","system_id":"levelo_inurba_marseille","lat":43.24651,"lon":5.38889,"is_reserved":false,"is_disabled":false,"rental_uris":{"android":"levelo://app?vid=deb9e4eb-a481-4dbd-9838-7e21c4114a77","ios":"levelo://app?vid=deb9e4eb-a481-4dbd-9838-7e21c4114a77"},"vehicle_type_id":"4","last_reported":1770160714,"current_range_meters":6000,"station_id":"ce4bhg12rcd13ifvqf60","pricing_plan_id":"cebpf4jnsgd1na2vs0mg"},{"bike_id":"3f65ac82-07e9-43d7-ad5b-47792d8a4550","system_id":"levelo_inurba_marseille","lat":43.28154,"lon":5.42643,"is_reserved":false,"is_disabled":false,"rental_uris":{"android":"levelo://app?vid=3f65ac82-07e9-43d7-ad5b-47792d8a4550","ios":"levelo://app?vid=3f65ac82-07e9-43d7-ad5b-47792d8a4550"},"vehicle_type_id":"4","last_reported":1770160714,"current_range_meters":6000,"station_id":"ce4bhnh2rcd13ifvqgug","pricing_plan_id":"cebpf4jnsgd1na2vs0mg"},{"bike_id":"661b2a68-7bdf-40fe-8e8d-0c7ff7d340a4","system_id":"levelo_inurba_marseille","lat":43.31114,"lon":5.37774,"is_reserved":false,"is_disabled":false,"rental_uris":{"android":"levelo://app?vid=661b2a68-7bdf-40fe-8e8d-0c7ff7d340a4","ios":"levelo://app?vid=661b2a68-7bdf-40fe-8e8d-0c7ff7d340a4"},"vehicle_type_id":"4","last_reported":1770160714,"current_range_meters":6000,"station_id":"ce4bgt92rcd13ifvqcg0","pricing_plan_id":"cebpf4jnsgd1na2vs0mg"},{"bike_id":"5396fda1-c3a0-4d51-8ba0-cfe497a166d7","system_id":"levelo_inurba_marseille","lat":43.26557,"lon":5.38986,"is_reserved":false,"is_disabled":false,"rental_uris":{"android":"levelo://app?vid=5396fda1-c3a0-4d51-8ba0-cfe497a166d7","ios":"levelo://app?vid=5396fda1-c3a0-4d51-8ba0-cfe497a166d7"},"vehicle_type_id":"4","last_reported":1770160714,"current_range_meters":6000,"station_id":"ce4bhe12rcd13ifvqf30","pricing_plan_id":"cebpf4jnsgd1na2vs0mg"},{"bike_id":"dcaa4a8f-eeeb-4a65-b90b-db85565e00da","system_id":"levelo_inurba_marseille","lat":43.2415,"lon":5.36412,"is_reserved":false,"is_disabled":false,"rental_uris":{"android":"levelo://app?vid=dcaa4a8f-eeeb-4a65-b90b-db85565e00da","ios":"levelo://app?vid=dcaa4a8f-eeeb-4a65-b90b-db85565e00da"},"vehicle_type_id":"4","last_reported":1770160714,"current_range_meters":6400,"station_id":"cpo36qri1sfpv3e86is0","pricing_plan_id":"cebpf4jnsgd1na2vs0mg"},{"bike_id":"5ae76a3b-874b-4b31-b859-bbf19cfc30a2","system_id":"levelo_inurba_marseille","lat":43.295288,"lon":5.390517,"is_reserved":false,"is_disabled":false,"rental_uris":{"android":"levelo://app?vid=5ae76a3b-874b-4b31-b859-bbf19cfc30a2","ios":"levelo://app?vid=5ae76a3b-874b-4b31-b859-bbf19cfc30a2"},"vehicle_type_id":"4","last_reported":1770160714,"current_range_meters":6400,"station_id":"ce4bh3p2rcd13ifvqdp0","pricing_plan_id":"cebpf4jnsgd1na2vs0mg"},{"bike_id":"31d6b64e-48b2-4cc2-af49-c56a6b394847","system_id":"levelo_inurba_marseille","lat":43.27901,"lon":5.37999,"is_reserved":false,"is_disabled":true,"rental_uris":{"android":"levelo://app?vid=31d6b64e-48b2-4cc2-af49-c56a6b394847","ios":"levelo://app?vid=31d6b64e-48b2-4cc2-af49-c56a6b394847"},"vehicle_type_id":"4","last_reported":1770160714,"current_range_meters":6400,"station_id":"ce4bhf92rcd13ifvqf50","pricing_plan_id":"cebpf4jnsgd1na2vs0mg"},{"bike_id":"20d488c4-6148-49c0-81a7-6c158d9b8df9","system_id":"levelo_inurba_marseille","lat":43.287072,"lon":5.373722,"is_reserved":false,"is_disabled":false,"rental_uris":{"android":"levelo://app?vid=20d488c4-6148-49c0-81a7-6c158d9b8df9","ios":"levelo://app?vid=20d488c4-6148-49c0-81a7-6c158d9b8df9"},"vehicle_type_id":"4","last_reported":1770160714,"current_range_meters":6400,"station_id":"ce4bh3p2rcd13ifvqdq0","pricing_plan_id":"cebpf4jnsgd1na2vs0mg"},{"bike_id":"e1b3cad6-dccc-4f80-892b-59b83fe43b75","system_id":"levelo_inurba_marseille","lat":43.29572,"lon":5.36721,"is_reserved":false,"is_disabled":false,"rental_uris":{"android":"levelo://app?vid=e1b3cad6-dccc-4f80-892b-59b83fe43b75","ios":"levelo://app?vid=e1b3cad6-dccc-4f80-892b-59b83fe43b75"},"vehicle_type_id":"4","last_reported":1770160714,"current_range_meters":6400,"station_id":"ce4bgph2rcd13ifvqc2g","pricing_plan_id":"cebpf4jnsgd1na2vs0mg"},{"bike_id":"33b4983b-12f9-44d8-b800-0a8b8c975eef","system_id":"levelo_inurba_marseille","lat":43.28162,"lon":5.42667,"is_reserved":false,"is_disabled":false,"rental_uris":{"android":"levelo://app?vid=33b4983b-12f9-44d8-b800-0a8b8c975eef","ios":"levelo://app?vid=33b4983b-12f9-44d8-b800-0a8b8c975eef"},"vehicle_type_id":"4","last_reported":1770160714,"current_range_meters":6400,"station_id":"ce4bhnh2rcd13ifvqgug","pricing_plan_id":"cebpf4jnsgd1na2vs0mg"},{"bike_id":"bcbaa8a6-886f-4091-ae26-8ec7b68ef274","system_id":"levelo_inurba_marseille","lat":43.23801,"lon":5.3661,"is_reserved":false,"is_disabled":false,"rental_uris":{"android":"levelo://app?vid=bcbaa8a6-886f-4091-ae26-8ec7b68ef274","ios":"levelo://app?vid=bcbaa8a6-886f-4091-ae26-8ec7b68ef274"},"vehicle_type_id":"4","last_reported":1770160714,"current_range_meters":6400,"station_id":"st_d3nk18o9ro0c73en2l3g","pricing_plan_id":"cebpf4jnsgd1na2vs0mg"},{"bike_id":"b420895b-0efa-4e27-b05b-8564aace2dfd","system_id":"levelo_inurba_marseille","lat":43.286174,"lon":5.351138,"is_reserved":false,"is_disabled":false,"rental_uris":{"android":"levelo://app?vid=b420895b-0efa-4e27-b05b-8564aace2dfd","ios":"levelo://app?vid=b420895b-0efa-4e27-b05b-8564aace2dfd"},"vehicle_type_id":"4","last_reported":1770160714,"current_range_meters":6400,"station_id":"","pricing_plan_id":"cebpf4jnsgd1na2vs0mg"},{"bike_id":"40954e61-dd73-4b29-8cc4-cc138532c8aa","system_id":"levelo_inurba_marseille","lat":43.29228,"lon":5.42519,"is_reserved":false,"is_disabled":false,"rental_uris":{"android":"levelo://app?vid=40954e61-dd73-4b29-8cc4-cc138532c8aa","ios":"levelo://app?vid=40954e61-dd73-4b29-8cc4-cc138532c8aa"},"vehicle_type_id":"4","last_reported":1770160714,"current_range_meters":6400,"station_id":"","pricing_plan_id":"cebpf4jnsgd1na2vs0mg"},{"bike_id":"d6fcfbb6-741a-47e6-b08d-f5036f90a3ce","system_id":"levelo_inurba_marseille","lat":43.24468,"lon":5.425326,"is_reserved":false,"is_disabled":false,"rental_uris":{"android":"levelo://app?vid=d6fcfbb6-741a-47e6-b08d-f5036f90a3ce","ios":"levelo://app?vid=d6fcfbb6-741a-47e6-b08d-f5036f90a3ce"},"vehicle_type_id":"4","last_reported":1770160714,"current_range_meters":6400,"station_id":"st_d4a3vfp97mjs738cd8kg","pricing_plan_id":"cebpf4jnsgd1na2vs0mg"},{"bike_id":"bfec0d79-485a-4bd0-9d67-db1ad8521994","system_id":"levelo_inurba_marseille","lat":43.24816,"lon":5.37459,"is_reserved":false,"is_disabled":false,"rental_uris":{"android":"levelo://app?vid=bfec0d79-485a-4bd0-9d67-db1ad8521994","ios":"levelo://app?vid=bfec0d79-485a-4bd0-9d67-db1ad8521994"},"vehicle_type_id":"4","last_reported":1770160714,"current_range_meters":6400,"station_id":"ce4bhgh2rcd13ifvqfb0","pricing_plan_id":"cebpf4jnsgd1na2vs0mg"},{"bike_id":"4651bd72-2cc4-46af-9f28-98a50310723a","system_id":"levelo_inurba_marseille","lat":43.31621,"lon":5.39441,"is_reserved":false,"is_disabled":false,"rental_uris":{"android":"levelo://app?vid=4651bd72-2cc4-46af-9f28-98a50310723a","ios":"levelo://app?vid=4651bd72-2cc4-46af-9f28-98a50310723a"},"vehicle_type_id":"4","last_reported":1770160714,"current_range_meters":6400,"station_id":"","pricing_plan_id":"cebpf4jnsgd1na2vs0mg"},{"bike_id":"1564de53-27c0-4f8d-afd8-5839a0935eea","system_id":"levelo_inurba_marseille","lat":43.29791,"lon":5.37082,"is_reserved":false,"is_disabled":false,"rental_uris":{"android":"levelo://app?vid=1564de53-27c0-4f8d-afd8-5839a0935eea","ios":"levelo://app?vid=1564de53-27c0-4f8d-afd8-5839a0935eea"},"vehicle_type_id":"4","last_reported":1770160714,"current_range_meters":6400,"station_id":"ce4bgop2rcd13ifvqc1g","pricing_plan_id":"cebpf4jnsgd1na2vs0mg"},{"bike_id":"a3187843-b85c-41a1-aa14-9274fed66704","system_id":"levelo_inurba_marseille","lat":43.29044,"lon":5.37539,"is_reserved":false,"is_disabled":true,"rental_uris":{"android":"levelo://app?vid=a3187843-b85c-41a1-aa14-9274fed66704","ios":"levelo://app?vid=a3187843-b85c-41a1-aa14-9274fed66704"},"vehicle_type_id":"4","last_reported":1770160714,"current_range_meters":6400,"station_id":"ce4bh692rcd13ifvqe90","pricing_plan_id":"cebpf4jnsgd1na2vs0mg"},{"bike_id":"de14d46e-f5b1-470f-9398-73f70931d4fe","system_id":"levelo_inurba_marseille","lat":43.28271,"lon":5.35064,"is_reserved":false,"is_disabled":false,"rental_uris":{"android":"levelo://app?vid=de14d46e-f5b1-470f-9398-73f70931d4fe","ios":"levelo://app?vid=de14d46e-f5b1-470f-9398-73f70931d4fe"},"vehicle_type_id":"4","last_reported":1770160714,"current_range_meters":6800,"station_id":"ce4bhbp2rcd13ifvqerg","pricing_plan_id":"cebpf4jnsgd1na2vs0mg"},{"bike_id":"b07b1c14-dbd6-4460-ab7b-dd1baab5033c","system_id":"levelo_inurba_marseille","lat":43.28938,"lon":5.39631,"is_reserved":false,"is_disabled":false,"rental_uris":{"android":"levelo://app?vid=b07b1c14-dbd6-4460-ab7b-dd1baab5033c","ios":"levelo://app?vid=b07b1c14-dbd6-4460-ab7b-dd1baab5033c"},"vehicle_type_id":"4","last_reported":1770160714,"current_range_meters":6800,"station_id":"ce4bh3h2rcd13ifvqdn0","pricing_plan_id":"cebpf4jnsgd1na2vs0mg"},{"bike_id":"0c8206d1-2ad7-40ea-8d9c-69711689446d","system_id":"levelo_inurba_marseille","lat":43.30934,"lon":5.40132,"is_reserved":false,"is_disabled":false,"rental_uris":{"android":"levelo://app?vid=0c8206d1-2ad7-40ea-8d9c-69711689446d","ios":"levelo://app?vid=0c8206d1-2ad7-40ea-8d9c-69711689446d"},"vehicle_type_id":"4","last_reported":1770160714,"current_range_meters":6800,"station_id":"ce4bgvp2rcd13ifvqct0","pricing_plan_id":"cebpf4jnsgd1na2vs0mg"},{"bike_id":"3496e3d5-ade9-4ef3-89c7-6224a9796381","system_id":"levelo_inurba_marseille","lat":43.23195,"lon":5.35548,"is_reserved":false,"is_disabled":false,"rental_uris":{"android":"levelo://app?vid=3496e3d5-ade9-4ef3-89c7-6224a9796381","ios":"levelo://app?vid=3496e3d5-ade9-4ef3-89c7-6224a9796381"},"vehicle_type_id":"4","last_reported":1770160714,"current_range_meters":6800,"station_id":"ce4bhu92rcd13ifvqi70","pricing_plan_id":"cebpf4jnsgd1na2vs0mg"},{"bike_id":"ec12566a-9d48-438d-80ed-97edb63a2c03","system_id":"levelo_inurba_marseille","lat":43.24501,"lon":5.4251,"is_reserved":false,"is_disabled":false,"rental_uris":{"android":"levelo://app?vid=ec12566a-9d48-438d-80ed-97edb63a2c03","ios":"levelo://app?vid=ec12566a-9d48-438d-80ed-97edb63a2c03"},"vehicle_type_id":"4","last_reported":1770160714,"current_range_meters":6800,"station_id":"st_d4a3vfp97mjs738cd8kg","pricing_plan_id":"cebpf4jnsgd1na2vs0mg"},{"bike_id":"7f77f6a6-911c-44cf-97f5-71224b3633e0","system_id":"levelo_inurba_marseille","lat":43.25235,"lon":5.38025,"is_reserved":false,"is_disabled":false,"rental_uris":{"android":"levelo://app?vid=7f77f6a6-911c-44cf-97f5-71224b3633e0","ios":"levelo://app?vid=7f77f6a6-911c-44cf-97f5-71224b3633e0"},"vehicle_type_id":"4","last_reported":1770160714,"current_range_meters":6800,"station_id":"","pricing_plan_id":"cebpf4jnsgd1na2vs0mg"},{"bike_id":"27d27976-bb7f-43e1-8bbb-853b6188da57","system_id":"levelo_inurba_marseille","lat":43.30473,"lon":5.37898,"is_reserved":false,"is_disabled":false,"rental_uris":{"android":"levelo://app?vid=27d27976-bb7f-43e1-8bbb-853b6188da57","ios":"levelo://app?vid=27d27976-bb7f-43e1-8bbb-853b6188da57"},"vehicle_type_id":"4","last_reported":1770160714,"current_range_meters":6800,"station_id":"ce4bgup2rcd13ifvqcn0","pricing_plan_id":"cebpf4jnsgd1na2vs0mg"},{"bike_id":"c50f1404-cc61-4067-8054-691bec1a9ba1","system_id":"levelo_inurba_marseille","lat":43.29776,"lon":5.371,"is_reserved":false,"is_disabled":false,"rental_uris":{"android":"levelo://app?vid=c50f1404-cc61-4067-8054-691bec1a9ba1","ios":"levelo://app?vid=c50f1404-cc61-4067-8054-691bec1a9ba1"},"vehicle_type_id":"4","last_reported":1770160714,"current_range_meters":6800,"station_id":"ce4bgop2rcd13ifvqc1g","pricing_plan_id":"cebpf4jnsgd1na2vs0mg"},{"bike_id":"c3d3473b-1395-4d7f-8e03-78f93a7e24c6","system_id":"levelo_inurba_marseille","lat":43.28351,"lon":5.3811,"is_reserved":false,"is_disabled":false,"rental_uris":{"android":"levelo://app?vid=c3d3473b-1395-4d7f-8e03-78f93a7e24c6","ios":"levelo://app?vid=c3d3473b-1395-4d7f-8e03-78f93a7e24c6"},"vehicle_type_id":"4","last_reported":1770160714,"current_range_meters":6800,"station_id":"ce4bh412rcd13ifvqdr0","pricing_plan_id":"cebpf4jnsgd1na2vs0mg"},{"bike_id":"4f17a483-36fe-499f-8941-095013509c22","system_id":"levelo_inurba_marseille","lat":43.24662,"lon":5.38163,"is_reserved":false,"is_disabled":false,"rental_uris":{"android":"levelo://app?vid=4f17a483-36fe-499f-8941-095013509c22","ios":"levelo://app?vid=4f17a483-36fe-499f-8941-095013509c22"},"vehicle_type_id":"4","last_reported":1770160714,"current_range_meters":6800,"station_id":"ce4bhih2rcd13ifvqfr0","pricing_plan_id":"cebpf4jnsgd1na2vs0mg"},{"bike_id":"3492d7e4-2dea-4cd5-b457-298b87f5c159","system_id":"levelo_inurba_marseille","lat":43.24479,"lon":5.4253,"is_reserved":false,"is_disabled":false,"rental_uris":{"android":"levelo://app?vid=3492d7e4-2dea-4cd5-b457-298b87f5c159","ios":"levelo://app?vid=3492d7e4-2dea-4cd5-b457-298b87f5c159"},"vehicle_type_id":"4","last_reported":1770160714,"current_range_meters":6800,"station_id":"st_d4a3vfp97mjs738cd8kg","pricing_plan_id":"cebpf4jnsgd1na2vs0mg"},{"bike_id":"852a0598-2717-496d-a13e-313bd41e7f62","system_id":"levelo_inurba_marseille","lat":43.28155,"lon":5.42638,"is_reserved":false,"is_disabled":false,"rental_uris":{"android":"levelo://app?vid=852a0598-2717-496d-a13e-313bd41e7f62","ios":"levelo://app?vid=852a0598-2717-496d-a13e-313bd41e7f62"},"vehicle_type_id":"4","last_reported":1770160714,"current_range_meters":6800,"station_id":"ce4bhnh2rcd13ifvqgug","pricing_plan_id":"cebpf4jnsgd1na2vs0mg"},{"bike_id":"5b3811ef-5681-4c18-aac4-a62920f9a85c","system_id":"levelo_inurba_marseille","lat":43.28488,"lon":5.5148,"is_reserved":false,"is_disabled":false,"rental_uris":{"android":"levelo://app?vid=5b3811ef-5681-4c18-aac4-a62920f9a85c","ios":"levelo://app?vid=5b3811ef-5681-4c18-aac4-a62920f9a85c"},"vehicle_type_id":"4","last_reported":1770160714,"current_range_meters":6800,"station_id":"","pricing_plan_id":"cebpf4jnsgd1na2vs0mg"},{"bike_id":"0311d9b7-b04a-4a40-82b0-0ccc400ecadf","system_id":"levelo_inurba_marseille","lat":43.31186,"lon":5.38712,"is_reserved":false,"is_disabled":false,"rental_uris":{"android":"levelo://app?vid=0311d9b7-b04a-4a40-82b0-0ccc400ecadf","ios":"levelo://app?vid=0311d9b7-b04a-4a40-82b0-0ccc400ecadf"},"vehicle_type_id":"4","last_reported":1770160714,"current_range_meters":6800,"station_id":"ce4bgv12rcd13ifvqcp0","pricing_plan_id":"cebpf4jnsgd1na2vs0mg"},{"bike_id":"c269eff6-7414-4fb8-b35a-8132e5c63b79","system_id":"levelo_inurba_marseille","lat":43.25016,"lon":5.38925,"is_reserved":false,"is_disabled":false,"rental_uris":{"android":"levelo://app?vid=c269eff6-7414-4fb8-b35a-8132e5c63b79","ios":"levelo://app?vid=c269eff6-7414-4fb8-b35a-8132e5c63b79"},"vehicle_type_id":"4","last_reported":1770160714,"current_range_meters":6800,"station_id":"ce4bhgp2rcd13ifvqfd0","pricing_plan_id":"cebpf4jnsgd1na2vs0mg"},{"bike_id":"c056efdd-bfd4-4d90-a2c4-30f136ba140c","system_id":"levelo_inurba_marseille","lat":43.33511,"lon":5.37479,"is_reserved":false,"is_disabled":false,"rental_uris":{"android":"levelo://app?vid=c056efdd-bfd4-4d90-a2c4-30f136ba140c","ios":"levelo://app?vid=c056efdd-bfd4-4d90-a2c4-30f136ba140c"},"vehicle_type_id":"4","last_reported":1770160714,"current_range_meters":7200,"station_id":"","pricing_plan_id":"cebpf4jnsgd1na2vs0mg"},{"bike_id":"a94d9717-9684-448a-a4f3-6cd6c0871bfe","system_id":"levelo_inurba_marseille","lat":43.31323,"lon":5.39697,"is_reserved":false,"is_disabled":false,"rental_uris":{"android":"levelo://app?vid=a94d9717-9684-448a-a4f3-6cd6c0871bfe","ios":"levelo://app?vid=a94d9717-9684-448a-a4f3-6cd6c0871bfe"},"vehicle_type_id":"4","last_reported":1770160714,"current_range_meters":7200,"station_id":"ce4bgvp2rcd13ifvqcu0","pricing_plan_id":"cebpf4jnsgd1na2vs0mg"},{"bike_id":"06efda88-b77e-46c3-96a2-10877feaaf19","system_id":"levelo_inurba_marseille","lat":43.306358,"lon":5.400903,"is_reserved":false,"is_disabled":false,"rental_uris":{"android":"levelo://app?vid=06efda88-b77e-46c3-96a2-10877feaaf19","ios":"levelo://app?vid=06efda88-b77e-46c3-96a2-10877feaaf19"},"vehicle_type_id":"4","last_reported":1770160714,"current_range_meters":7200,"station_id":"ce4bh112rcd13ifvqda0","pricing_plan_id":"cebpf4jnsgd1na2vs0mg"},{"bike_id":"e377bed0-17a6-4270-bf47-8694eaa24d9c","system_id":"levelo_inurba_marseille","lat":43.28714,"lon":5.37944,"is_reserved":false,"is_disabled":false,"rental_uris":{"android":"levelo://app?vid=e377bed0-17a6-4270-bf47-8694eaa24d9c","ios":"levelo://app?vid=e377bed0-17a6-4270-bf47-8694eaa24d9c"},"vehicle_type_id":"4","last_reported":1770160714,"current_range_meters":7200,"station_id":"ce4bh9p2rcd13ifvqec0","pricing_plan_id":"cebpf4jnsgd1na2vs0mg"},{"bike_id":"162bb3aa-b91c-4589-8f52-3c2f679bbffa","system_id":"levelo_inurba_marseille","lat":43.28154,"lon":5.42644,"is_reserved":false,"is_disabled":false,"rental_uris":{"android":"levelo://app?vid=162bb3aa-b91c-4589-8f52-3c2f679bbffa","ios":"levelo://app?vid=162bb3aa-b91c-4589-8f52-3c2f679bbffa"},"vehicle_type_id":"4","last_reported":1770160714,"current_range_meters":7200,"station_id":"ce4bhnh2rcd13ifvqgug","pricing_plan_id":"cebpf4jnsgd1na2vs0mg"},{"bike_id":"73d7fb99-d853-42ce-a7a8-f1ef6eca6976","system_id":"levelo_inurba_marseille","lat":43.30878,"lon":5.39639,"is_reserved":false,"is_disabled":false,"rental_uris":{"android":"levelo://app?vid=73d7fb99-d853-42ce-a7a8-f1ef6eca6976","ios":"levelo://app?vid=73d7fb99-d853-42ce-a7a8-f1ef6eca6976"},"vehicle_type_id":"4","last_reported":1770160714,"current_range_meters":7200,"station_id":"ce4bh012rcd13ifvqcv0","pricing_plan_id":"cebpf4jnsgd1na2vs0mg"},{"bike_id":"659b2fe8-8a06-4a27-93de-c9d7bd01e359","system_id":"levelo_inurba_marseille","lat":43.2978,"lon":5.37603,"is_reserved":false,"is_disabled":false,"rental_uris":{"android":"levelo://app?vid=659b2fe8-8a06-4a27-93de-c9d7bd01e359","ios":"levelo://app?vid=659b2fe8-8a06-4a27-93de-c9d7bd01e359"},"vehicle_type_id":"4","last_reported":1770160714,"current_range_meters":7200,"station_id":"","pricing_plan_id":"cebpf4jnsgd1na2vs0mg"},{"bike_id":"5268a57b-c5c9-446a-87ff-ede823dc6bfa","system_id":"levelo_inurba_marseille","lat":43.28565,"lon":5.39492,"is_reserved":false,"is_disabled":false,"rental_uris":{"android":"levelo://app?vid=5268a57b-c5c9-446a-87ff-ede823dc6bfa","ios":"levelo://app?vid=5268a57b-c5c9-446a-87ff-ede823dc6bfa"},"vehicle_type_id":"4","last_reported":1770160714,"current_range_meters":7200,"station_id":"ce4bh292rcd13ifvqdg0","pricing_plan_id":"cebpf4jnsgd1na2vs0mg"},{"bike_id":"b8a50ea7-d715-4e3d-a781-e5a31b47fd95","system_id":"levelo_inurba_marseille","lat":43.31058,"lon":5.37182,"is_reserved":false,"is_disabled":false,"rental_uris":{"android":"levelo://app?vid=b8a50ea7-d715-4e3d-a781-e5a31b47fd95","ios":"levelo://app?vid=b8a50ea7-d715-4e3d-a781-e5a31b47fd95"},"vehicle_type_id":"4","last_reported":1770160714,"current_range_meters":7200,"station_id":"st_d4kl2rp97mjs73e7tdfg","pricing_plan_id":"cebpf4jnsgd1na2vs0mg"},{"bike_id":"191a99ed-49ff-4737-8f82-7264bf56cc6c","system_id":"levelo_inurba_marseille","lat":43.25005,"lon":5.38927,"is_reserved":false,"is_disabled":false,"rental_uris":{"android":"levelo://app?vid=191a99ed-49ff-4737-8f82-7264bf56cc6c","ios":"levelo://app?vid=191a99ed-49ff-4737-8f82-7264bf56cc6c"},"vehicle_type_id":"4","last_reported":1770160714,"current_range_meters":7200,"station_id":"ce4bhgp2rcd13ifvqfd0","pricing_plan_id":"cebpf4jnsgd1na2vs0mg"},{"bike_id":"5de5e604-6504-4a1a-966a-dc6c49a789b3","system_id":"levelo_inurba_marseille","lat":43.29592,"lon":5.36746,"is_reserved":false,"is_disabled":false,"rental_uris":{"android":"levelo://app?vid=5de5e604-6504-4a1a-966a-dc6c49a789b3","ios":"levelo://app?vid=5de5e604-6504-4a1a-966a-dc6c49a789b3"},"vehicle_type_id":"4","last_reported":1770160714,"current_range_meters":7200,"station_id":"ce4bgph2rcd13ifvqc2g","pricing_plan_id":"cebpf4jnsgd1na2vs0mg"},{"bike_id":"30b0a66c-3c65-486d-80e4-7dd9acfc4ef3","system_id":"levelo_inurba_marseille","lat":43.26551,"lon":5.37293,"is_reserved":false,"is_disabled":false,"rental_uris":{"android":"levelo://app?vid=30b0a66c-3c65-486d-80e4-7dd9acfc4ef3","ios":"levelo://app?vid=30b0a66c-3c65-486d-80e4-7dd9acfc4ef3"},"vehicle_type_id":"4","last_reported":1770160714,"current_range_meters":7200,"station_id":"ce4bhg12rcd13ifvqf70","pricing_plan_id":"cebpf4jnsgd1na2vs0mg"},{"bike_id":"832a79cd-ac79-42d2-a737-7f3d912f2097","system_id":"levelo_inurba_marseille","lat":43.297224,"lon":5.368475,"is_reserved":false,"is_disabled":false,"rental_uris":{"android":"levelo://app?vid=832a79cd-ac79-42d2-a737-7f3d912f2097","ios":"levelo://app?vid=832a79cd-ac79-42d2-a737-7f3d912f2097"},"vehicle_type_id":"4","last_reported":1770160714,"current_range_meters":7200,"station_id":"ce4bgn12rcd13ifvqbt0","pricing_plan_id":"cebpf4jnsgd1na2vs0mg"},{"bike_id":"6a477e8f-6e48-4c73-8f9d-5703baa48dd3","system_id":"levelo_inurba_marseille","lat":43.29994,"lon":5.38473,"is_reserved":false,"is_disabled":false,"rental_uris":{"android":"levelo://app?vid=6a477e8f-6e48-4c73-8f9d-5703baa48dd3","ios":"levelo://app?vid=6a477e8f-6e48-4c73-8f9d-5703baa48dd3"},"vehicle_type_id":"4","last_reported":1770160714,"current_range_meters":7200,"station_id":"ce4bgj92rcd13ifvqbd0","pricing_plan_id":"cebpf4jnsgd1na2vs0mg"},{"bike_id":"ec676f1c-fdd8-4c3f-babd-085a218152d4","system_id":"levelo_inurba_marseille","lat":43.29963,"lon":5.37178,"is_reserved":false,"is_disabled":false,"rental_uris":{"android":"levelo://app?vid=ec676f1c-fdd8-4c3f-babd-085a218152d4","ios":"levelo://app?vid=ec676f1c-fdd8-4c3f-babd-085a218152d4"},"vehicle_type_id":"4","last_reported":1770160714,"current_range_meters":7200,"station_id":"ce4bgr92rcd13ifvqc7g","pricing_plan_id":"cebpf4jnsgd1na2vs0mg"},{"bike_id":"fba83296-cf08-4ba9-8267-d1dc13133a44","system_id":"levelo_inurba_marseille","lat":43.26218,"lon":5.40353,"is_reserved":false,"is_disabled":false,"rental_uris":{"android":"levelo://app?vid=fba83296-cf08-4ba9-8267-d1dc13133a44","ios":"levelo://app?vid=fba83296-cf08-4ba9-8267-d1dc13133a44"},"vehicle_type_id":"4","last_reported":1770160714,"current_range_meters":7200,"station_id":"","pricing_plan_id":"cebpf4jnsgd1na2vs0mg"},{"bike_id":"4db1d12f-5792-4368-a47d-ff062863d759","system_id":"levelo_inurba_marseille","lat":43.29199,"lon":5.3861,"is_reserved":false,"is_disabled":false,"rental_uris":{"android":"levelo://app?vid=4db1d12f-5792-4368-a47d-ff062863d759","ios":"levelo://app?vid=4db1d12f-5792-4368-a47d-ff062863d759"},"vehicle_type_id":"4","last_reported":1770160714,"current_range_meters":7200,"station_id":"","pricing_plan_id":"cebpf4jnsgd1na2vs0mg"},{"bike_id":"1b5a9ce0-a712-4e6e-83a1-5b3d08083ec7","system_id":"levelo_inurba_marseille","lat":43.23201,"lon":5.35548,"is_reserved":false,"is_disabled":false,"rental_uris":{"android":"levelo://app?vid=1b5a9ce0-a712-4e6e-83a1-5b3d08083ec7","ios":"levelo://app?vid=1b5a9ce0-a712-4e6e-83a1-5b3d08083ec7"},"vehicle_type_id":"4","last_reported":1770160714,"current_range_meters":7200,"station_id":"ce4bhu92rcd13ifvqi70","pricing_plan_id":"cebpf4jnsgd1na2vs0mg"},{"bike_id":"ccad5bb8-727e-4e27-b0cc-7b2f496ea109","system_id":"levelo_inurba_marseille","lat":43.29553,"lon":5.42285,"is_reserved":false,"is_disabled":false,"rental_uris":{"android":"levelo://app?vid=ccad5bb8-727e-4e27-b0cc-7b2f496ea109","ios":"levelo://app?vid=ccad5bb8-727e-4e27-b0cc-7b2f496ea109"},"vehicle_type_id":"4","last_reported":1770160714,"current_range_meters":7200,"station_id":"ce4bhph2rcd13ifvqhdg","pricing_plan_id":"cebpf4jnsgd1na2vs0mg"},{"bike_id":"003a19d5-9083-46f1-954b-8756c99a38b5","system_id":"levelo_inurba_marseille","lat":43.31982,"lon":5.38143,"is_reserved":false,"is_disabled":false,"rental_uris":{"android":"levelo://app?vid=003a19d5-9083-46f1-954b-8756c99a38b5","ios":"levelo://app?vid=003a19d5-9083-46f1-954b-8756c99a38b5"},"vehicle_type_id":"4","last_reported":1770160714,"current_range_meters":7200,"station_id":"ce4bhr12rcd13ifvqhpg","pricing_plan_id":"cebpf4jnsgd1na2vs0mg"},{"bike_id":"b76b0812-c1ce-4144-9b78-716e1fd3e796","system_id":"levelo_inurba_marseille","lat":43.28617,"lon":5.35101,"is_reserved":false,"is_disabled":false,"rental_uris":{"android":"levelo://app?vid=b76b0812-c1ce-4144-9b78-716e1fd3e796","ios":"levelo://app?vid=b76b0812-c1ce-4144-9b78-716e1fd3e796"},"vehicle_type_id":"4","last_reported":1770160714,"current_range_meters":7200,"station_id":"ce4bhch2rcd13ifvqeug","pricing_plan_id":"cebpf4jnsgd1na2vs0mg"},{"bike_id":"f1510834-4f72-4738-aa6c-02f6ddaa6ac3","system_id":"levelo_inurba_marseille","lat":43.24826,"lon":5.37472,"is_reserved":false,"is_disabled":false,"rental_uris":{"android":"levelo://app?vid=f1510834-4f72-4738-aa6c-02f6ddaa6ac3","ios":"levelo://app?vid=f1510834-4f72-4738-aa6c-02f6ddaa6ac3"},"vehicle_type_id":"4","last_reported":1770160714,"current_range_meters":7200,"station_id":"ce4bhgh2rcd13ifvqfb0","pricing_plan_id":"cebpf4jnsgd1na2vs0mg"},{"bike_id":"d25c30ce-208a-4865-aa8f-61a37bd60365","system_id":"levelo_inurba_marseille","lat":43.29565,"lon":5.38148,"is_reserved":false,"is_disabled":false,"rental_uris":{"android":"levelo://app?vid=d25c30ce-208a-4865-aa8f-61a37bd60365","ios":"levelo://app?vid=d25c30ce-208a-4865-aa8f-61a37bd60365"},"vehicle_type_id":"4","last_reported":1770160714,"current_range_meters":7200,"station_id":"ce4bgl12rcd13ifvqbo0","pricing_plan_id":"cebpf4jnsgd1na2vs0mg"},{"bike_id":"03b9bf6a-0f76-4194-8ca3-e97967a681ed","system_id":"levelo_inurba_marseille","lat":43.29263,"lon":5.40885,"is_reserved":false,"is_disabled":false,"rental_uris":{"android":"levelo://app?vid=03b9bf6a-0f76-4194-8ca3-e97967a681ed","ios":"levelo://app?vid=03b9bf6a-0f76-4194-8ca3-e97967a681ed"},"vehicle_type_id":"4","last_reported":1770160714,"current_range_meters":7200,"station_id":"ce4bh192rcd13ifvqdc0","pricing_plan_id":"cebpf4jnsgd1na2vs0mg"},{"bike_id":"10f7a738-c950-4147-bce6-61a9962a70b5","system_id":"levelo_inurba_marseille","lat":43.25106,"lon":5.39506,"is_reserved":false,"is_disabled":false,"rental_uris":{"android":"levelo://app?vid=10f7a738-c950-4147-bce6-61a9962a70b5","ios":"levelo://app?vid=10f7a738-c950-4147-bce6-61a9962a70b5"},"vehicle_type_id":"4","last_reported":1770160714,"current_range_meters":7200,"station_id":"ce4bhm12rcd13ifvqgkg","pricing_plan_id":"cebpf4jnsgd1na2vs0mg"},{"bike_id":"e306f84e-f4a5-4da5-b221-959aa771268b","system_id":"levelo_inurba_marseille","lat":43.24076,"lon":5.37753,"is_reserved":false,"is_disabled":false,"rental_uris":{"android":"levelo://app?vid=e306f84e-f4a5-4da5-b221-959aa771268b","ios":"levelo://app?vid=e306f84e-f4a5-4da5-b221-959aa771268b"},"vehicle_type_id":"4","last_reported":1770160714,"current_range_meters":8000,"station_id":"ce4bhnp2rcd13ifvqgvg","pricing_plan_id":"cebpf4jnsgd1na2vs0mg"},{"bike_id":"5db40262-c973-4b13-b2a9-ee1639ccf6b3","system_id":"levelo_inurba_marseille","lat":43.2481,"lon":5.37457,"is_reserved":false,"is_disabled":false,"rental_uris":{"android":"levelo://app?vid=5db40262-c973-4b13-b2a9-ee1639ccf6b3","ios":"levelo://app?vid=5db40262-c973-4b13-b2a9-ee1639ccf6b3"},"vehicle_type_id":"4","last_reported":1770160714,"current_range_meters":8000,"station_id":"ce4bhgh2rcd13ifvqfb0","pricing_plan_id":"cebpf4jnsgd1na2vs0mg"},{"bike_id":"8e312380-e745-433d-90b9-ff07a309073d","system_id":"levelo_inurba_marseille","lat":43.24815,"lon":5.37436,"is_reserved":false,"is_disabled":false,"rental_uris":{"android":"levelo://app?vid=8e312380-e745-433d-90b9-ff07a309073d","ios":"levelo://app?vid=8e312380-e745-433d-90b9-ff07a309073d"},"vehicle_type_id":"4","last_reported":1770160714,"current_range_meters":8000,"station_id":"ce4bhgh2rcd13ifvqfb0","pricing_plan_id":"cebpf4jnsgd1na2vs0mg"},{"bike_id":"7d5be17c-b842-46f2-9e4c-12c3dae54688","system_id":"levelo_inurba_marseille","lat":43.27951,"lon":5.41047,"is_reserved":false,"is_disabled":false,"rental_uris":{"android":"levelo://app?vid=7d5be17c-b842-46f2-9e4c-12c3dae54688","ios":"levelo://app?vid=7d5be17c-b842-46f2-9e4c-12c3dae54688"},"vehicle_type_id":"4","last_reported":1770160714,"current_range_meters":8000,"station_id":"ce4bhnp2rcd13ifvqh0g","pricing_plan_id":"cebpf4jnsgd1na2vs0mg"},{"bike_id":"25ed47fc-271f-4de7-a2a6-6e589391bb92","system_id":"levelo_inurba_marseille","lat":43.28407,"lon":5.35007,"is_reserved":false,"is_disabled":false,"rental_uris":{"android":"levelo://app?vid=25ed47fc-271f-4de7-a2a6-6e589391bb92","ios":"levelo://app?vid=25ed47fc-271f-4de7-a2a6-6e589391bb92"},"vehicle_type_id":"4","last_reported":1770160714,"current_range_meters":8000,"station_id":"ce4bhbh2rcd13ifvqepg","pricing_plan_id":"cebpf4jnsgd1na2vs0mg"},{"bike_id":"574b46f0-3f1e-4de0-961b-a840353bfcf3","system_id":"levelo_inurba_marseille","lat":43.2379,"lon":5.36625,"is_reserved":false,"is_disabled":false,"rental_uris":{"android":"levelo://app?vid=574b46f0-3f1e-4de0-961b-a840353bfcf3","ios":"levelo://app?vid=574b46f0-3f1e-4de0-961b-a840353bfcf3"},"vehicle_type_id":"4","last_reported":1770160714,"current_range_meters":8000,"station_id":"st_d3nk18o9ro0c73en2l3g","pricing_plan_id":"cebpf4jnsgd1na2vs0mg"},{"bike_id":"242256f5-f0bd-4204-9565-2087ceacdda5","system_id":"levelo_inurba_marseille","lat":43.22556,"lon":5.41634,"is_reserved":false,"is_disabled":false,"rental_uris":{"android":"levelo://app?vid=242256f5-f0bd-4204-9565-2087ceacdda5","ios":"levelo://app?vid=242256f5-f0bd-4204-9565-2087ceacdda5"},"vehicle_type_id":"4","last_reported":1770160714,"current_range_meters":8000,"station_id":"st_d2o4gvlbi1j2169b742g","pricing_plan_id":"cebpf4jnsgd1na2vs0mg"},{"bike_id":"81f974fe-76a7-4b0a-927b-0f80730a75ae","system_id":"levelo_inurba_marseille","lat":43.29551,"lon":5.38003,"is_reserved":false,"is_disabled":false,"rental_uris":{"android":"levelo://app?vid=81f974fe-76a7-4b0a-927b-0f80730a75ae","ios":"levelo://app?vid=81f974fe-76a7-4b0a-927b-0f80730a75ae"},"vehicle_type_id":"4","last_reported":1770160714,"current_range_meters":8000,"station_id":"","pricing_plan_id":"cebpf4jnsgd1na2vs0mg"},{"bike_id":"ba3390f5-14ed-4160-abcf-8bea19885613","system_id":"levelo_inurba_marseille","lat":43.28479,"lon":5.48395,"is_reserved":false,"is_disabled":false,"rental_uris":{"android":"levelo://app?vid=ba3390f5-14ed-4160-abcf-8bea19885613","ios":"levelo://app?vid=ba3390f5-14ed-4160-abcf-8bea19885613"},"vehicle_type_id":"4","last_reported":1770160714,"current_range_meters":8000,"station_id":"st_d3svhcjqgbts73a3dn0g","pricing_plan_id":"cebpf4jnsgd1na2vs0mg"},{"bike_id":"6911c53c-b00c-45fb-be18-12fed0f35fcb","system_id":"levelo_inurba_marseille","lat":43.29052,"lon":5.40027,"is_reserved":false,"is_disabled":false,"rental_uris":{"android":"levelo://app?vid=6911c53c-b00c-45fb-be18-12fed0f35fcb","ios":"levelo://app?vid=6911c53c-b00c-45fb-be18-12fed0f35fcb"},"vehicle_type_id":"4","last_reported":1770160714,"current_range_meters":8000,"station_id":"","pricing_plan_id":"cebpf4jnsgd1na2vs0mg"},{"bike_id":"a8c22487-8662-4b4c-ad3e-edccba99e631","system_id":"levelo_inurba_marseille","lat":43.31359,"lon":5.38529,"is_reserved":false,"is_disabled":false,"rental_uris":{"android":"levelo://app?vid=a8c22487-8662-4b4c-ad3e-edccba99e631","ios":"levelo://app?vid=a8c22487-8662-4b4c-ad3e-edccba99e631"},"vehicle_type_id":"4","last_reported":1770160714,"current_range_meters":8000,"station_id":"ce4bgt92rcd13ifvqcf0","pricing_plan_id":"cebpf4jnsgd1na2vs0mg"},{"bike_id":"965fe77e-2880-48ae-9b04-83329f901992","system_id":"levelo_inurba_marseille","lat":43.2587,"lon":5.39883,"is_reserved":false,"is_disabled":false,"rental_uris":{"android":"levelo://app?vid=965fe77e-2880-48ae-9b04-83329f901992","ios":"levelo://app?vid=965fe77e-2880-48ae-9b04-83329f901992"},"vehicle_type_id":"4","last_reported":1770160714,"current_range_meters":8000,"station_id":"ce4bhl92rcd13ifvqghg","pricing_plan_id":"cebpf4jnsgd1na2vs0mg"},{"bike_id":"fdc74734-8708-4513-9519-5478f60a2254","system_id":"levelo_inurba_marseille","lat":43.24817,"lon":5.37463,"is_reserved":false,"is_disabled":false,"rental_uris":{"android":"levelo://app?vid=fdc74734-8708-4513-9519-5478f60a2254","ios":"levelo://app?vid=fdc74734-8708-4513-9519-5478f60a2254"},"vehicle_type_id":"4","last_reported":1770160714,"current_range_meters":8000,"station_id":"ce4bhgh2rcd13ifvqfb0","pricing_plan_id":"cebpf4jnsgd1na2vs0mg"},{"bike_id":"068098b6-2917-46c3-bbcd-2f4568f90c7b","system_id":"levelo_inurba_marseille","lat":43.286139,"lon":5.350963,"is_reserved":false,"is_disabled":true,"rental_uris":{"android":"levelo://app?vid=068098b6-2917-46c3-bbcd-2f4568f90c7b","ios":"levelo://app?vid=068098b6-2917-46c3-bbcd-2f4568f90c7b"},"vehicle_type_id":"4","last_reported":1770160714,"current_range_meters":8000,"station_id":"","pricing_plan_id":"cebpf4jnsgd1na2vs0mg"},{"bike_id":"03957cd6-ee2d-47d1-948d-c3da3284d226","system_id":"levelo_inurba_marseille","lat":43.28963,"lon":5.364,"is_reserved":false,"is_disabled":true,"rental_uris":{"android":"levelo://app?vid=03957cd6-ee2d-47d1-948d-c3da3284d226","ios":"levelo://app?vid=03957cd6-ee2d-47d1-948d-c3da3284d226"},"vehicle_type_id":"4","last_reported":1770160714,"current_range_meters":8000,"station_id":"ce4bhc92rcd13ifvqetg","pricing_plan_id":"cebpf4jnsgd1na2vs0mg"},{"bike_id":"9c7711da-5dad-44a8-8560-b03a82c64417","system_id":"levelo_inurba_marseille","lat":43.25341,"lon":5.42154,"is_reserved":false,"is_disabled":false,"rental_uris":{"android":"levelo://app?vid=9c7711da-5dad-44a8-8560-b03a82c64417","ios":"levelo://app?vid=9c7711da-5dad-44a8-8560-b03a82c64417"},"vehicle_type_id":"4","last_reported":1770160714,"current_range_meters":8000,"station_id":"st_d2m65c5bi1j21697t3ng","pricing_plan_id":"cebpf4jnsgd1na2vs0mg"},{"bike_id":"ccd45eab-22cf-4b08-a7a7-153728eecb29","system_id":"levelo_inurba_marseille","lat":43.29956,"lon":5.3849,"is_reserved":false,"is_disabled":false,"rental_uris":{"android":"levelo://app?vid=ccd45eab-22cf-4b08-a7a7-153728eecb29","ios":"levelo://app?vid=ccd45eab-22cf-4b08-a7a7-153728eecb29"},"vehicle_type_id":"4","last_reported":1770160714,"current_range_meters":8000,"station_id":"ce4bgj92rcd13ifvqbd0","pricing_plan_id":"cebpf4jnsgd1na2vs0mg"},{"bike_id":"a1d40264-31fa-4368-a92c-3f50c8a64b96","system_id":"levelo_inurba_marseille","lat":43.23147,"lon":5.43707,"is_reserved":false,"is_disabled":false,"rental_uris":{"android":"levelo://app?vid=a1d40264-31fa-4368-a92c-3f50c8a64b96","ios":"levelo://app?vid=a1d40264-31fa-4368-a92c-3f50c8a64b96"},"vehicle_type_id":"4","last_reported":1770160714,"current_range_meters":8000,"station_id":"ce4bhmp2rcd13ifvqgog","pricing_plan_id":"cebpf4jnsgd1na2vs0mg"},{"bike_id":"efea85db-b1c8-46f7-b3e0-9fa246910aa6","system_id":"levelo_inurba_marseille","lat":43.23192,"lon":5.39979,"is_reserved":false,"is_disabled":false,"rental_uris":{"android":"levelo://app?vid=efea85db-b1c8-46f7-b3e0-9fa246910aa6","ios":"levelo://app?vid=efea85db-b1c8-46f7-b3e0-9fa246910aa6"},"vehicle_type_id":"4","last_reported":1770160714,"current_range_meters":8000,"station_id":"ce4bhn12rcd13ifvqgqg","pricing_plan_id":"cebpf4jnsgd1na2vs0mg"},{"bike_id":"b0de10e1-c8dd-4794-bb07-685c2b13619b","system_id":"levelo_inurba_marseille","lat":43.249542,"lon":5.404859,"is_reserved":false,"is_disabled":false,"rental_uris":{"android":"levelo://app?vid=b0de10e1-c8dd-4794-bb07-685c2b13619b","ios":"levelo://app?vid=b0de10e1-c8dd-4794-bb07-685c2b13619b"},"vehicle_type_id":"4","last_reported":1770160714,"current_range_meters":8000,"station_id":"st_d2ngiaodas8pm72gd1h0","pricing_plan_id":"cebpf4jnsgd1na2vs0mg"},{"bike_id":"d4d04fe6-644e-4e9e-b6d2-1aad5cffa50d","system_id":"levelo_inurba_marseille","lat":43.30725,"lon":5.42448,"is_reserved":false,"is_disabled":false,"rental_uris":{"android":"levelo://app?vid=d4d04fe6-644e-4e9e-b6d2-1aad5cffa50d","ios":"levelo://app?vid=d4d04fe6-644e-4e9e-b6d2-1aad5cffa50d"},"vehicle_type_id":"4","last_reported":1770160714,"current_range_meters":8000,"station_id":"st_cvj6ca6bvosntc0bfgr0","pricing_plan_id":"cebpf4jnsgd1na2vs0mg"},{"bike_id":"941405a7-424a-4826-bff8-e6e8e3f93e0d","system_id":"levelo_inurba_marseille","lat":43.24386,"lon":5.37052,"is_reserved":false,"is_disabled":false,"rental_uris":{"android":"levelo://app?vid=941405a7-424a-4826-bff8-e6e8e3f93e0d","ios":"levelo://app?vid=941405a7-424a-4826-bff8-e6e8e3f93e0d"},"vehicle_type_id":"4","last_reported":1770160714,"current_range_meters":8000,"station_id":"ce4bhhh2rcd13ifvqfk0","pricing_plan_id":"cebpf4jnsgd1na2vs0mg"},{"bike_id":"d5d98457-3377-411c-bbd5-111f6add1380","system_id":"levelo_inurba_marseille","lat":43.25832,"lon":5.39422,"is_reserved":false,"is_disabled":false,"rental_uris":{"android":"levelo://app?vid=d5d98457-3377-411c-bbd5-111f6add1380","ios":"levelo://app?vid=d5d98457-3377-411c-bbd5-111f6add1380"},"vehicle_type_id":"4","last_reported":1770160714,"current_range_meters":8000,"station_id":"ce4bhip2rcd13ifvqft0","pricing_plan_id":"cebpf4jnsgd1na2vs0mg"},{"bike_id":"b3a54eab-b946-460c-8d1b-dbc0ce5bc3c5","system_id":"levelo_inurba_marseille","lat":43.28142,"lon":5.42655,"is_reserved":false,"is_disabled":false,"rental_uris":{"android":"levelo://app?vid=b3a54eab-b946-460c-8d1b-dbc0ce5bc3c5","ios":"levelo://app?vid=b3a54eab-b946-460c-8d1b-dbc0ce5bc3c5"},"vehicle_type_id":"4","last_reported":1770160714,"current_range_meters":8000,"station_id":"ce4bhnh2rcd13ifvqgug","pricing_plan_id":"cebpf4jnsgd1na2vs0mg"},{"bike_id":"3df40d52-54d5-43a8-9d94-da0ce2cf25e7","system_id":"levelo_inurba_marseille","lat":43.28721,"lon":5.39978,"is_reserved":false,"is_disabled":false,"rental_uris":{"android":"levelo://app?vid=3df40d52-54d5-43a8-9d94-da0ce2cf25e7","ios":"levelo://app?vid=3df40d52-54d5-43a8-9d94-da0ce2cf25e7"},"vehicle_type_id":"4","last_reported":1770160714,"current_range_meters":8000,"station_id":"ce4bho92rcd13ifvqh3g","pricing_plan_id":"cebpf4jnsgd1na2vs0mg"},{"bike_id":"988afa8e-d306-4003-baf9-728102144f56","system_id":"levelo_inurba_marseille","lat":43.26757,"lon":5.38292,"is_reserved":false,"is_disabled":false,"rental_uris":{"android":"levelo://app?vid=988afa8e-d306-4003-baf9-728102144f56","ios":"levelo://app?vid=988afa8e-d306-4003-baf9-728102144f56"},"vehicle_type_id":"4","last_reported":1770160714,"current_range_meters":8400,"station_id":"","pricing_plan_id":"cebpf4jnsgd1na2vs0mg"},{"bike_id":"30a564fc-cc84-4416-a8a0-217a2d812352","system_id":"levelo_inurba_marseille","lat":43.3169,"lon":5.40472,"is_reserved":false,"is_disabled":false,"rental_uris":{"android":"levelo://app?vid=30a564fc-cc84-4416-a8a0-217a2d812352","ios":"levelo://app?vid=30a564fc-cc84-4416-a8a0-217a2d812352"},"vehicle_type_id":"4","last_reported":1770160714,"current_range_meters":8400,"station_id":"ce4bh012rcd13ifvqd00","pricing_plan_id":"cebpf4jnsgd1na2vs0mg"},{"bike_id":"5892fc85-7848-4ac6-9041-3115ffbc60b4","system_id":"levelo_inurba_marseille","lat":43.24659,"lon":5.38154,"is_reserved":false,"is_disabled":false,"rental_uris":{"android":"levelo://app?vid=5892fc85-7848-4ac6-9041-3115ffbc60b4","ios":"levelo://app?vid=5892fc85-7848-4ac6-9041-3115ffbc60b4"},"vehicle_type_id":"4","last_reported":1770160714,"current_range_meters":8400,"station_id":"ce4bhih2rcd13ifvqfr0","pricing_plan_id":"cebpf4jnsgd1na2vs0mg"},{"bike_id":"9d79ec10-3ed1-4035-8609-ff591e4f54d3","system_id":"levelo_inurba_marseille","lat":43.25589,"lon":5.38221,"is_reserved":false,"is_disabled":false,"rental_uris":{"android":"levelo://app?vid=9d79ec10-3ed1-4035-8609-ff591e4f54d3","ios":"levelo://app?vid=9d79ec10-3ed1-4035-8609-ff591e4f54d3"},"vehicle_type_id":"4","last_reported":1770160714,"current_range_meters":8400,"station_id":"ce4bhih2rcd13ifvqfs0","pricing_plan_id":"cebpf4jnsgd1na2vs0mg"},{"bike_id":"9d5efcf5-64b9-46d7-ad49-3fe1f3baad99","system_id":"levelo_inurba_marseille","lat":43.28455,"lon":5.39204,"is_reserved":false,"is_disabled":false,"rental_uris":{"android":"levelo://app?vid=9d5efcf5-64b9-46d7-ad49-3fe1f3baad99","ios":"levelo://app?vid=9d5efcf5-64b9-46d7-ad49-3fe1f3baad99"},"vehicle_type_id":"4","last_reported":1770160714,"current_range_meters":8400,"station_id":"ce4bhoh2rcd13ifvqh5g","pricing_plan_id":"cebpf4jnsgd1na2vs0mg"},{"bike_id":"7b2c9527-61b7-4f0c-87d0-702098683de6","system_id":"levelo_inurba_marseille","lat":43.3013,"lon":5.3987,"is_reserved":false,"is_disabled":false,"rental_uris":{"android":"levelo://app?vid=7b2c9527-61b7-4f0c-87d0-702098683de6","ios":"levelo://app?vid=7b2c9527-61b7-4f0c-87d0-702098683de6"},"vehicle_type_id":"4","last_reported":1770160714,"current_range_meters":8400,"station_id":"ce4bh0h2rcd13ifvqd40","pricing_plan_id":"cebpf4jnsgd1na2vs0mg"},{"bike_id":"4162417e-6ce7-4785-b30a-90989c8a9a39","system_id":"levelo_inurba_marseille","lat":43.26564,"lon":5.40325,"is_reserved":false,"is_disabled":false,"rental_uris":{"android":"levelo://app?vid=4162417e-6ce7-4785-b30a-90989c8a9a39","ios":"levelo://app?vid=4162417e-6ce7-4785-b30a-90989c8a9a39"},"vehicle_type_id":"4","last_reported":1770160714,"current_range_meters":8400,"station_id":"ce4bhmp2rcd13ifvqgng","pricing_plan_id":"cebpf4jnsgd1na2vs0mg"},{"bike_id":"8fb4838b-c5bd-4cb2-8c92-fceeea48a889","system_id":"levelo_inurba_marseille","lat":43.29556,"lon":5.42275,"is_reserved":false,"is_disabled":false,"rental_uris":{"android":"levelo://app?vid=8fb4838b-c5bd-4cb2-8c92-fceeea48a889","ios":"levelo://app?vid=8fb4838b-c5bd-4cb2-8c92-fceeea48a889"},"vehicle_type_id":"4","last_reported":1770160714,"current_range_meters":8400,"station_id":"ce4bhph2rcd13ifvqhdg","pricing_plan_id":"cebpf4jnsgd1na2vs0mg"},{"bike_id":"04ab4868-a773-4da8-b9a9-f5fedd6e47ae","system_id":"levelo_inurba_marseille","lat":43.25727,"lon":5.41104,"is_reserved":false,"is_disabled":false,"rental_uris":{"android":"levelo://app?vid=04ab4868-a773-4da8-b9a9-f5fedd6e47ae","ios":"levelo://app?vid=04ab4868-a773-4da8-b9a9-f5fedd6e47ae"},"vehicle_type_id":"4","last_reported":1770160714,"current_range_meters":8400,"station_id":"ce4bhkp2rcd13ifvqgd0","pricing_plan_id":"cebpf4jnsgd1na2vs0mg"},{"bike_id":"ef4aafd7-31d8-4f9b-97f1-b8af2e53c15d","system_id":"levelo_inurba_marseille","lat":43.29906,"lon":5.43653,"is_reserved":false,"is_disabled":false,"rental_uris":{"android":"levelo://app?vid=ef4aafd7-31d8-4f9b-97f1-b8af2e53c15d","ios":"levelo://app?vid=ef4aafd7-31d8-4f9b-97f1-b8af2e53c15d"},"vehicle_type_id":"4","last_reported":1770160714,"current_range_meters":8400,"station_id":"ce4bhpp2rcd13ifvqhfg","pricing_plan_id":"cebpf4jnsgd1na2vs0mg"},{"bike_id":"e7a75837-8fdf-4782-b31e-36333cc75a98","system_id":"levelo_inurba_marseille","lat":43.28443,"lon":5.39193,"is_reserved":false,"is_disabled":false,"rental_uris":{"android":"levelo://app?vid=e7a75837-8fdf-4782-b31e-36333cc75a98","ios":"levelo://app?vid=e7a75837-8fdf-4782-b31e-36333cc75a98"},"vehicle_type_id":"4","last_reported":1770160714,"current_range_meters":8400,"station_id":"ce4bhoh2rcd13ifvqh5g","pricing_plan_id":"cebpf4jnsgd1na2vs0mg"},{"bike_id":"55a26406-35c2-412b-b866-aef6eb4960c3","system_id":"levelo_inurba_marseille","lat":43.30143,"lon":5.36721,"is_reserved":false,"is_disabled":false,"rental_uris":{"android":"levelo://app?vid=55a26406-35c2-412b-b866-aef6eb4960c3","ios":"levelo://app?vid=55a26406-35c2-412b-b866-aef6eb4960c3"},"vehicle_type_id":"4","last_reported":1770160714,"current_range_meters":8400,"station_id":"","pricing_plan_id":"cebpf4jnsgd1na2vs0mg"},{"bike_id":"9f9fb7d3-32b1-4c13-ae39-88c8b3a17cf7","system_id":"levelo_inurba_marseille","lat":43.31276,"lon":5.40161,"is_reserved":false,"is_disabled":false,"rental_uris":{"android":"levelo://app?vid=9f9fb7d3-32b1-4c13-ae39-88c8b3a17cf7","ios":"levelo://app?vid=9f9fb7d3-32b1-4c13-ae39-88c8b3a17cf7"},"vehicle_type_id":"4","last_reported":1770160714,"current_range_meters":8400,"station_id":"ce4bh092rcd13ifvqd30","pricing_plan_id":"cebpf4jnsgd1na2vs0mg"},{"bike_id":"3fd784f2-02b0-4d31-a3f6-03a4317d0973","system_id":"levelo_inurba_marseille","lat":43.27987,"lon":5.41662,"is_reserved":false,"is_disabled":false,"rental_uris":{"android":"levelo://app?vid=3fd784f2-02b0-4d31-a3f6-03a4317d0973","ios":"levelo://app?vid=3fd784f2-02b0-4d31-a3f6-03a4317d0973"},"vehicle_type_id":"4","last_reported":1770160714,"current_range_meters":8400,"station_id":"ce4bho12rcd13ifvqh1g","pricing_plan_id":"cebpf4jnsgd1na2vs0mg"},{"bike_id":"5ffc162c-3876-4a49-af02-3661f44effbb","system_id":"levelo_inurba_marseille","lat":43.28471,"lon":5.48401,"is_reserved":false,"is_disabled":false,"rental_uris":{"android":"levelo://app?vid=5ffc162c-3876-4a49-af02-3661f44effbb","ios":"levelo://app?vid=5ffc162c-3876-4a49-af02-3661f44effbb"},"vehicle_type_id":"4","last_reported":1770160714,"current_range_meters":8400,"station_id":"st_d3svhcjqgbts73a3dn0g","pricing_plan_id":"cebpf4jnsgd1na2vs0mg"},{"bike_id":"f57600aa-3553-4c5b-8eb9-2131032f6811","system_id":"levelo_inurba_marseille","lat":43.28214,"lon":5.39068,"is_reserved":false,"is_disabled":true,"rental_uris":{"android":"levelo://app?vid=f57600aa-3553-4c5b-8eb9-2131032f6811","ios":"levelo://app?vid=f57600aa-3553-4c5b-8eb9-2131032f6811"},"vehicle_type_id":"4","last_reported":1770160714,"current_range_meters":8400,"station_id":"ce4bhn92rcd13ifvqgsg","pricing_plan_id":"cebpf4jnsgd1na2vs0mg"},{"bike_id":"38e3e07b-adce-40ab-bc41-3d9f50c90e39","system_id":"levelo_inurba_marseille","lat":43.31294,"lon":5.40166,"is_reserved":false,"is_disabled":false,"rental_uris":{"android":"levelo://app?vid=38e3e07b-adce-40ab-bc41-3d9f50c90e39","ios":"levelo://app?vid=38e3e07b-adce-40ab-bc41-3d9f50c90e39"},"vehicle_type_id":"4","last_reported":1770160714,"current_range_meters":8800,"station_id":"ce4bh092rcd13ifvqd30","pricing_plan_id":"cebpf4jnsgd1na2vs0mg"},{"bike_id":"9438ade5-ce17-4668-a146-5805485616f4","system_id":"levelo_inurba_marseille","lat":43.31717,"lon":5.42392,"is_reserved":false,"is_disabled":false,"rental_uris":{"android":"levelo://app?vid=9438ade5-ce17-4668-a146-5805485616f4","ios":"levelo://app?vid=9438ade5-ce17-4668-a146-5805485616f4"},"vehicle_type_id":"4","last_reported":1770160714,"current_range_meters":8800,"station_id":"ce4bhp92rcd13ifvqhbg","pricing_plan_id":"cebpf4jnsgd1na2vs0mg"},{"bike_id":"4671fb6c-cdd2-4f46-9ff0-243c805d5954","system_id":"levelo_inurba_marseille","lat":43.29715,"lon":5.36596,"is_reserved":false,"is_disabled":false,"rental_uris":{"android":"levelo://app?vid=4671fb6c-cdd2-4f46-9ff0-243c805d5954","ios":"levelo://app?vid=4671fb6c-cdd2-4f46-9ff0-243c805d5954"},"vehicle_type_id":"4","last_reported":1770160714,"current_range_meters":8800,"station_id":"ce4bgn12rcd13ifvqbt0","pricing_plan_id":"cebpf4jnsgd1na2vs0mg"},{"bike_id":"97439aa1-31ad-4375-8f64-db4b0521352b","system_id":"levelo_inurba_marseille","lat":43.293039,"lon":5.371818,"is_reserved":false,"is_disabled":false,"rental_uris":{"android":"levelo://app?vid=97439aa1-31ad-4375-8f64-db4b0521352b","ios":"levelo://app?vid=97439aa1-31ad-4375-8f64-db4b0521352b"},"vehicle_type_id":"4","last_reported":1770160714,"current_range_meters":8800,"station_id":"ce4bgh92rcd13ifvqb40","pricing_plan_id":"cebpf4jnsgd1na2vs0mg"},{"bike_id":"ae4a16ba-5fc2-4e6e-86f1-52b891522f3b","system_id":"levelo_inurba_marseille","lat":43.29784,"lon":5.3932,"is_reserved":false,"is_disabled":false,"rental_uris":{"android":"levelo://app?vid=ae4a16ba-5fc2-4e6e-86f1-52b891522f3b","ios":"levelo://app?vid=ae4a16ba-5fc2-4e6e-86f1-52b891522f3b"},"vehicle_type_id":"4","last_reported":1770160714,"current_range_meters":8800,"station_id":"chh1huq6cuj3fo74tm60","pricing_plan_id":"cebpf4jnsgd1na2vs0mg"},{"bike_id":"06a32b71-6b5d-422f-9ffa-33d30a61072f","system_id":"levelo_inurba_marseille","lat":43.29695,"lon":5.36602,"is_reserved":false,"is_disabled":false,"rental_uris":{"android":"levelo://app?vid=06a32b71-6b5d-422f-9ffa-33d30a61072f","ios":"levelo://app?vid=06a32b71-6b5d-422f-9ffa-33d30a61072f"},"vehicle_type_id":"4","last_reported":1770160714,"current_range_meters":8800,"station_id":"ce4bgn12rcd13ifvqbt0","pricing_plan_id":"cebpf4jnsgd1na2vs0mg"},{"bike_id":"c7f54c04-a218-42d0-8644-fc599814cfde","system_id":"levelo_inurba_marseille","lat":43.28269,"lon":5.35052,"is_reserved":false,"is_disabled":false,"rental_uris":{"android":"levelo://app?vid=c7f54c04-a218-42d0-8644-fc599814cfde","ios":"levelo://app?vid=c7f54c04-a218-42d0-8644-fc599814cfde"},"vehicle_type_id":"4","last_reported":1770160714,"current_range_meters":8800,"station_id":"ce4bhbp2rcd13ifvqerg","pricing_plan_id":"cebpf4jnsgd1na2vs0mg"},{"bike_id":"2ca71d95-1987-485e-9bec-d8e651039ff3","system_id":"levelo_inurba_marseille","lat":43.31617,"lon":5.43715,"is_reserved":false,"is_disabled":false,"rental_uris":{"android":"levelo://app?vid=2ca71d95-1987-485e-9bec-d8e651039ff3","ios":"levelo://app?vid=2ca71d95-1987-485e-9bec-d8e651039ff3"},"vehicle_type_id":"4","last_reported":1770160714,"current_range_meters":8800,"station_id":"","pricing_plan_id":"cebpf4jnsgd1na2vs0mg"},{"bike_id":"1b876b25-6b22-4962-82d4-862e433d9f63","system_id":"levelo_inurba_marseille","lat":43.28701,"lon":5.38651,"is_reserved":false,"is_disabled":true,"rental_uris":{"android":"levelo://app?vid=1b876b25-6b22-4962-82d4-862e433d9f63","ios":"levelo://app?vid=1b876b25-6b22-4962-82d4-862e433d9f63"},"vehicle_type_id":"4","last_reported":1770160714,"current_range_meters":8800,"station_id":"ce4bh492rcd13ifvqdug","pricing_plan_id":"cebpf4jnsgd1na2vs0mg"},{"bike_id":"9a41c992-8ec6-4c5f-9787-da9fbb815a48","system_id":"levelo_inurba_marseille","lat":43.25566,"lon":5.38253,"is_reserved":false,"is_disabled":false,"rental_uris":{"android":"levelo://app?vid=9a41c992-8ec6-4c5f-9787-da9fbb815a48","ios":"levelo://app?vid=9a41c992-8ec6-4c5f-9787-da9fbb815a48"},"vehicle_type_id":"4","last_reported":1770160714,"current_range_meters":8800,"station_id":"ce4bhih2rcd13ifvqfs0","pricing_plan_id":"cebpf4jnsgd1na2vs0mg"},{"bike_id":"ef30bb24-f45f-400c-9967-a2a3b2da1488","system_id":"levelo_inurba_marseille","lat":43.28289,"lon":5.394323,"is_reserved":false,"is_disabled":false,"rental_uris":{"android":"levelo://app?vid=ef30bb24-f45f-400c-9967-a2a3b2da1488","ios":"levelo://app?vid=ef30bb24-f45f-400c-9967-a2a3b2da1488"},"vehicle_type_id":"4","last_reported":1770160714,"current_range_meters":8800,"station_id":"","pricing_plan_id":"cebpf4jnsgd1na2vs0mg"},{"bike_id":"c214f81c-e58b-4475-ad7c-a9d63d7d79c5","system_id":"levelo_inurba_marseille","lat":43.29552,"lon":5.42294,"is_reserved":false,"is_disabled":false,"rental_uris":{"android":"levelo://app?vid=c214f81c-e58b-4475-ad7c-a9d63d7d79c5","ios":"levelo://app?vid=c214f81c-e58b-4475-ad7c-a9d63d7d79c5"},"vehicle_type_id":"4","last_reported":1770160714,"current_range_meters":8800,"station_id":"ce4bhph2rcd13ifvqhdg","pricing_plan_id":"cebpf4jnsgd1na2vs0mg"},{"bike_id":"7b2df10f-d97d-4068-9983-8f53d0a78517","system_id":"levelo_inurba_marseille","lat":43.28867,"lon":5.42526,"is_reserved":false,"is_disabled":false,"rental_uris":{"android":"levelo://app?vid=7b2df10f-d97d-4068-9983-8f53d0a78517","ios":"levelo://app?vid=7b2df10f-d97d-4068-9983-8f53d0a78517"},"vehicle_type_id":"4","last_reported":1770160714,"current_range_meters":8800,"station_id":"st_d3b462108ojc7389ooeg","pricing_plan_id":"cebpf4jnsgd1na2vs0mg"},{"bike_id":"b4959117-dde4-4349-ae80-78726090a6a9","system_id":"levelo_inurba_marseille","lat":43.28851,"lon":5.35827,"is_reserved":false,"is_disabled":false,"rental_uris":{"android":"levelo://app?vid=b4959117-dde4-4349-ae80-78726090a6a9","ios":"levelo://app?vid=b4959117-dde4-4349-ae80-78726090a6a9"},"vehicle_type_id":"4","last_reported":1770160714,"current_range_meters":8800,"station_id":"ce4bhb12rcd13ifvqem0","pricing_plan_id":"cebpf4jnsgd1na2vs0mg"},{"bike_id":"425b6705-005a-49d5-9d47-e6a239d20f8c","system_id":"levelo_inurba_marseille","lat":43.26554,"lon":5.37287,"is_reserved":false,"is_disabled":false,"rental_uris":{"android":"levelo://app?vid=425b6705-005a-49d5-9d47-e6a239d20f8c","ios":"levelo://app?vid=425b6705-005a-49d5-9d47-e6a239d20f8c"},"vehicle_type_id":"4","last_reported":1770160714,"current_range_meters":8800,"station_id":"ce4bhg12rcd13ifvqf70","pricing_plan_id":"cebpf4jnsgd1na2vs0mg"},{"bike_id":"da4d19a5-63fa-471e-bc87-bb23db14643b","system_id":"levelo_inurba_marseille","lat":43.29544,"lon":5.42515,"is_reserved":false,"is_disabled":false,"rental_uris":{"android":"levelo://app?vid=da4d19a5-63fa-471e-bc87-bb23db14643b","ios":"levelo://app?vid=da4d19a5-63fa-471e-bc87-bb23db14643b"},"vehicle_type_id":"4","last_reported":1770160714,"current_range_meters":8800,"station_id":"","pricing_plan_id":"cebpf4jnsgd1na2vs0mg"},{"bike_id":"0b7778b9-6c79-42c5-9598-93186c10094a","system_id":"levelo_inurba_marseille","lat":43.31326,"lon":5.39702,"is_reserved":false,"is_disabled":false,"rental_uris":{"android":"levelo://app?vid=0b7778b9-6c79-42c5-9598-93186c10094a","ios":"levelo://app?vid=0b7778b9-6c79-42c5-9598-93186c10094a"},"vehicle_type_id":"4","last_reported":1770160714,"current_range_meters":8800,"station_id":"ce4bgvp2rcd13ifvqcu0","pricing_plan_id":"cebpf4jnsgd1na2vs0mg"},{"bike_id":"d9d9a805-5152-4ea4-9133-a35eec609771","system_id":"levelo_inurba_marseille","lat":43.2513,"lon":5.40306,"is_reserved":false,"is_disabled":false,"rental_uris":{"android":"levelo://app?vid=d9d9a805-5152-4ea4-9133-a35eec609771","ios":"levelo://app?vid=d9d9a805-5152-4ea4-9133-a35eec609771"},"vehicle_type_id":"4","last_reported":1770160714,"current_range_meters":8800,"station_id":"ce4bhlh2rcd13ifvqgig","pricing_plan_id":"cebpf4jnsgd1na2vs0mg"},{"bike_id":"11358eb5-b9b2-485b-a17b-c1783a7d03fb","system_id":"levelo_inurba_marseille","lat":43.32188,"lon":5.41003,"is_reserved":false,"is_disabled":false,"rental_uris":{"android":"levelo://app?vid=11358eb5-b9b2-485b-a17b-c1783a7d03fb","ios":"levelo://app?vid=11358eb5-b9b2-485b-a17b-c1783a7d03fb"},"vehicle_type_id":"4","last_reported":1770160714,"current_range_meters":8800,"station_id":"","pricing_plan_id":"cebpf4jnsgd1na2vs0mg"},{"bike_id":"0020ff85-02f4-4576-ab79-cb9c15460d7c","system_id":"levelo_inurba_marseille","lat":43.25904,"lon":5.39908,"is_reserved":false,"is_disabled":false,"rental_uris":{"android":"levelo://app?vid=0020ff85-02f4-4576-ab79-cb9c15460d7c","ios":"levelo://app?vid=0020ff85-02f4-4576-ab79-cb9c15460d7c"},"vehicle_type_id":"4","last_reported":1770160714,"current_range_meters":8800,"station_id":"ce4bhl92rcd13ifvqghg","pricing_plan_id":"cebpf4jnsgd1na2vs0mg"},{"bike_id":"96d61142-e70b-44ef-bab0-f5fdae9d9daa","system_id":"levelo_inurba_marseille","lat":43.30312,"lon":5.39206,"is_reserved":false,"is_disabled":false,"rental_uris":{"android":"levelo://app?vid=96d61142-e70b-44ef-bab0-f5fdae9d9daa","ios":"levelo://app?vid=96d61142-e70b-44ef-bab0-f5fdae9d9daa"},"vehicle_type_id":"4","last_reported":1770160714,"current_range_meters":8800,"station_id":"ce4bgkh2rcd13ifvqbk0","pricing_plan_id":"cebpf4jnsgd1na2vs0mg"},{"bike_id":"6be43c1f-db2c-43c9-a648-234cc72c5193","system_id":"levelo_inurba_marseille","lat":43.3156,"lon":5.40648,"is_reserved":false,"is_disabled":false,"rental_uris":{"android":"levelo://app?vid=6be43c1f-db2c-43c9-a648-234cc72c5193","ios":"levelo://app?vid=6be43c1f-db2c-43c9-a648-234cc72c5193"},"vehicle_type_id":"4","last_reported":1770160714,"current_range_meters":8800,"station_id":"","pricing_plan_id":"cebpf4jnsgd1na2vs0mg"},{"bike_id":"91011a09-c75f-44a2-86c1-461af25b0f3f","system_id":"levelo_inurba_marseille","lat":43.27204,"lon":5.40994,"is_reserved":false,"is_disabled":false,"rental_uris":{"android":"levelo://app?vid=91011a09-c75f-44a2-86c1-461af25b0f3f","ios":"levelo://app?vid=91011a09-c75f-44a2-86c1-461af25b0f3f"},"vehicle_type_id":"4","last_reported":1770160714,"current_range_meters":9200,"station_id":"ce4bhl12rcd13ifvqgf0","pricing_plan_id":"cebpf4jnsgd1na2vs0mg"},{"bike_id":"73b6626a-125d-4b63-8d66-3e6a9851d390","system_id":"levelo_inurba_marseille","lat":43.22566,"lon":5.41627,"is_reserved":false,"is_disabled":false,"rental_uris":{"android":"levelo://app?vid=73b6626a-125d-4b63-8d66-3e6a9851d390","ios":"levelo://app?vid=73b6626a-125d-4b63-8d66-3e6a9851d390"},"vehicle_type_id":"4","last_reported":1770160714,"current_range_meters":9200,"station_id":"st_d2o4gvlbi1j2169b742g","pricing_plan_id":"cebpf4jnsgd1na2vs0mg"},{"bike_id":"3c99789b-6c82-4ce6-99da-375aef3d9931","system_id":"levelo_inurba_marseille","lat":43.32659,"lon":5.409802,"is_reserved":false,"is_disabled":false,"rental_uris":{"android":"levelo://app?vid=3c99789b-6c82-4ce6-99da-375aef3d9931","ios":"levelo://app?vid=3c99789b-6c82-4ce6-99da-375aef3d9931"},"vehicle_type_id":"4","last_reported":1770160714,"current_range_meters":9200,"station_id":"ce4bhpp2rcd13ifvqhgg","pricing_plan_id":"cebpf4jnsgd1na2vs0mg"},{"bike_id":"61c4cbe2-eed4-41e6-a6ff-be907a5d72ed","system_id":"levelo_inurba_marseille","lat":43.25007,"lon":5.38929,"is_reserved":false,"is_disabled":false,"rental_uris":{"android":"levelo://app?vid=61c4cbe2-eed4-41e6-a6ff-be907a5d72ed","ios":"levelo://app?vid=61c4cbe2-eed4-41e6-a6ff-be907a5d72ed"},"vehicle_type_id":"4","last_reported":1770160714,"current_range_meters":9200,"station_id":"ce4bhgp2rcd13ifvqfd0","pricing_plan_id":"cebpf4jnsgd1na2vs0mg"},{"bike_id":"8c593ccb-9e44-419c-912b-9f1b0b88075a","system_id":"levelo_inurba_marseille","lat":43.26368,"lon":5.41081,"is_reserved":false,"is_disabled":false,"rental_uris":{"android":"levelo://app?vid=8c593ccb-9e44-419c-912b-9f1b0b88075a","ios":"levelo://app?vid=8c593ccb-9e44-419c-912b-9f1b0b88075a"},"vehicle_type_id":"4","last_reported":1770160714,"current_range_meters":9200,"station_id":"st_d4e5ca6na9uc73bfl5fg","pricing_plan_id":"cebpf4jnsgd1na2vs0mg"},{"bike_id":"d72c8d0b-6864-4eb2-b074-4484e5b3c2c1","system_id":"levelo_inurba_marseille","lat":43.28479,"lon":5.48416,"is_reserved":false,"is_disabled":false,"rental_uris":{"android":"levelo://app?vid=d72c8d0b-6864-4eb2-b074-4484e5b3c2c1","ios":"levelo://app?vid=d72c8d0b-6864-4eb2-b074-4484e5b3c2c1"},"vehicle_type_id":"4","last_reported":1770160714,"current_range_meters":9200,"station_id":"st_d3svhcjqgbts73a3dn0g","pricing_plan_id":"cebpf4jnsgd1na2vs0mg"},{"bike_id":"8e2f4441-d4a9-421a-863a-8c4e85979fa3","system_id":"levelo_inurba_marseille","lat":43.286181,"lon":5.351086,"is_reserved":false,"is_disabled":false,"rental_uris":{"android":"levelo://app?vid=8e2f4441-d4a9-421a-863a-8c4e85979fa3","ios":"levelo://app?vid=8e2f4441-d4a9-421a-863a-8c4e85979fa3"},"vehicle_type_id":"4","last_reported":1770160714,"current_range_meters":9200,"station_id":"ce4bhch2rcd13ifvqeug","pricing_plan_id":"cebpf4jnsgd1na2vs0mg"},{"bike_id":"68b12eb7-cbac-4d21-9d68-9311fe198434","system_id":"levelo_inurba_marseille","lat":43.29027,"lon":5.38667,"is_reserved":false,"is_disabled":true,"rental_uris":{"android":"levelo://app?vid=68b12eb7-cbac-4d21-9d68-9311fe198434","ios":"levelo://app?vid=68b12eb7-cbac-4d21-9d68-9311fe198434"},"vehicle_type_id":"4","last_reported":1770160714,"current_range_meters":9200,"station_id":"ce4bh4p2rcd13ifvqe0g","pricing_plan_id":"cebpf4jnsgd1na2vs0mg"},{"bike_id":"6215ae52-27fb-4fc8-b5d8-c075bde37a90","system_id":"levelo_inurba_marseille","lat":43.23965,"lon":5.36635,"is_reserved":false,"is_disabled":false,"rental_uris":{"android":"levelo://app?vid=6215ae52-27fb-4fc8-b5d8-c075bde37a90","ios":"levelo://app?vid=6215ae52-27fb-4fc8-b5d8-c075bde37a90"},"vehicle_type_id":"4","last_reported":1770160714,"current_range_meters":9200,"station_id":"ce4bhi12rcd13ifvqfp0","pricing_plan_id":"cebpf4jnsgd1na2vs0mg"},{"bike_id":"708d8107-a502-4715-8ee8-97e259938ef7","system_id":"levelo_inurba_marseille","lat":43.24121,"lon":5.36536,"is_reserved":false,"is_disabled":false,"rental_uris":{"android":"levelo://app?vid=708d8107-a502-4715-8ee8-97e259938ef7","ios":"levelo://app?vid=708d8107-a502-4715-8ee8-97e259938ef7"},"vehicle_type_id":"4","last_reported":1770160714,"current_range_meters":9200,"station_id":"cpo36qri1sfpv3e86is0","pricing_plan_id":"cebpf4jnsgd1na2vs0mg"},{"bike_id":"dbeef5c7-4028-4d99-a76c-21cebff9483e","system_id":"levelo_inurba_marseille","lat":43.33551,"lon":5.37476,"is_reserved":false,"is_disabled":false,"rental_uris":{"android":"levelo://app?vid=dbeef5c7-4028-4d99-a76c-21cebff9483e","ios":"levelo://app?vid=dbeef5c7-4028-4d99-a76c-21cebff9483e"},"vehicle_type_id":"4","last_reported":1770160714,"current_range_meters":9200,"station_id":"st_d46tts09ee8s73dlu43g","pricing_plan_id":"cebpf4jnsgd1na2vs0mg"},