{"last_updated":1736881607,"ttl":60,"version":"2.2","data":{"bikes":[{"bike_id":"ba484e63-4e5e-48df-80e8-717691e650cd","system_id":"levelo_inurba_marseille","lat":43.25587,"lon":5.38235,"is_reserved":false,"is_disabled":false,"rental_uris":{"android":"levelo://app?vid=ba484e63-4e5e-48df-80e8-717691e650cd","ios":"levelo://app?vid=ba484e63-4e5e-48df-80e8-717691e650cd"},"vehicle_type_id":"4","last_reported":1736881607,"current_range_meters":6400,"station_id":"ce4bhih2rcd13ifvqfs0","pricing_plan_id":"cebpf4jnsgd1na2vs0mg"},{"bike_id":"094f2b9d-982b-42a3-8932-981369abda5b","system_id":"levelo_inurba_marseille","lat":43.26946,"lon":5.40245,"is_reserved":false,"is_disabled":false,"rental_uris":{"android":"levelo://app?vid=094f2b9d-982b-42a3-8932-981369abda5b","ios":"levelo://app?vid=094f2b9d-982b-42a3-8932-981369abda5b"},"vehicle_type_id":"4","last_reported":1736881607,"current_range_meters":28400,"station_id":"cjm6bp8fraef2m0cb0m0","pricing_plan_id":"cebpf4jnsgd1na2vs0mg"},{"bike_id":"4d650d1c-16ba-41ab-bcb6-74b29ff0910c","system_id":"levelo_inurba_marseille","lat":43.27305,"lon":5.39113,"is_reserved":false,"is_disabled":false,"rental_uris":{"android":"levelo://app?vid=4d650d1c-16ba-41ab-bcb6-74b29ff0910c","ios":"levelo://app?vid=4d650d1c-16ba-41ab-bcb6-74b29ff0910c"},"vehicle_type_id":"4","last_reported":1736881607,"current_range_meters":36800,"station_id":"ce4bhgp2rcd13ifvqfe0","pricing_plan_id":"cebpf4jnsgd1na2vs0mg"},{"bike_id":"3e8db028-ed7b-4e18-9fc5-444671ac7245","system_id":"levelo_inurba_marseille","lat":43.260637,"lon":5.393977,"is_reserved":false,"is_disabled":false,"rental_uris":{"android":"levelo://app?vid=3e8db028-ed7b-4e18-9fc5-444671ac7245","ios":"levelo://app?vid=3e8db028-ed7b-4e18-9fc5-444671ac7245"},"vehicle_type_id":"4","last_reported":1736881607,"current_range_meters":39200,"station_id":"ce4bhh92rcd13ifvqfj0","pricing_plan_id":"cebpf4jnsgd1na2vs0mg"},{"bike_id":"8b946f40-6c08-4c0a-9db9-872b051c4842","system_id":"levelo_inurba_marseille","lat":43.28396,"lon":5.37553,"is_reserved":false,"is_disabled":false,"rental_uris":{"android":"levelo://app?vid=8b946f40-6c08-4c0a-9db9-872b051c4842","ios":"levelo://app?vid=8b946f40-6c08-4c0a-9db9-872b051c4842"},"vehicle_type_id":"4","last_reported":1736881607,"current_range_meters":23200,"station_id":"ce4bh412rcd13ifvqds0","pricing_plan_id":"cebpf4jnsgd1na2vs0mg"},{"bike_id":"459eda55-c02d-48e5-b482-24c6e37a8793","system_id":"levelo_inurba_marseille","lat":43.28446,"lon":5.3918,"is_reserved":false,"is_disabled":true,"rental_uris":{"android":"levelo://app?vid=459eda55-c02d-48e5-b482-24c6e37a8793","ios":"levelo://app?vid=459eda55-c02d-48e5-b482-24c6e37a8793"},"vehicle_type_id":"4","last_reported":1736881607,"current_range_meters":16000,"station_id":"ce4bhoh2rcd13ifvqh5g","pricing_plan_id":"cebpf4jnsgd1na2vs0mg"},{"bike_id":"b071cb0d-0d43-4303-900a-5fce398a8b0c","system_id":"levelo_inurba_marseille","lat":43.3229,"lon":5.38257,"is_reserved":false,"is_disabled":false,"rental_uris":{"android":"levelo://app?vid=b071cb0d-0d43-4303-900a-5fce398a8b0c","ios":"levelo://app?vid=b071cb0d-0d43-4303-900a-5fce398a8b0c"},"vehicle_type_id":"4","last_reported":1736881607,"current_range_meters":38800,"station_id":"ce4bhr12rcd13ifvqhqg","pricing_plan_id":"cebpf4jnsgd1na2vs0mg"},{"bike_id":"75e972c1-d61c-4de9-b47e-692d5319ad3c","system_id":"levelo_inurba_marseille","lat":43.31164,"lon":5.38724,"is_reserved":false,"is_disabled":false,"rental_uris":{"android":"levelo://app?vid=75e972c1-d61c-4de9-b47e-692d5319ad3c","ios":"levelo://app?vid=75e972c1-d61c-4de9-b47e-692d5319ad3c"},"vehicle_type_id":"4","last_reported":1736881607,"current_range_meters":12800,"station_id":"ce4bgv12rcd13ifvqcp0","pricing_plan_id":"cebpf4jnsgd1na2vs0mg"},{"bike_id":"5e0b46d4-53a6-4a9b-81ed-42b3629948b7","system_id":"levelo_inurba_marseille","lat":43.32106,"lon":5.36786,"is_reserved":false,"is_disabled":false,"rental_uris":{"android":"levelo://app?vid=5e0b46d4-53a6-4a9b-81ed-42b3629948b7","ios":"levelo://app?vid=5e0b46d4-53a6-4a9b-81ed-42b3629948b7"},"vehicle_type_id":"4","last_reported":1736881607,"current_range_meters":37600,"station_id":"ce4bhrh2rcd13ifvqhug","pricing_plan_id":"cebpf4jnsgd1na2vs0mg"},{"bike_id":"90008e08-866e-46c3-96ff-04c849cafc46","system_id":"levelo_inurba_marseille","lat":43.28063,"lon":5.39655,"is_reserved":false,"is_disabled":false,"rental_uris":{"android":"levelo://app?vid=90008e08-866e-46c3-96ff-04c849cafc46","ios":"levelo://app?vid=90008e08-866e-46c3-96ff-04c849cafc46"},"vehicle_type_id":"4","last_reported":1736881607,"current_range_meters":29600,"station_id":"ce4bho12rcd13ifvqh2g","pricing_plan_id":"cebpf4jnsgd1na2vs0mg"},{"bike_id":"5bb5758f-37be-496e-ac0a-3712e6b43125","system_id":"levelo_inurba_marseille","lat":43.262066,"lon":5.379279,"is_reserved":false,"is_disabled":false,"rental_uris":{"android":"levelo://app?vid=5bb5758f-37be-496e-ac0a-3712e6b43125","ios":"levelo://app?vid=5bb5758f-37be-496e-ac0a-3712e6b43125"},"vehicle_type_id":"4","last_reported":1736881607,"current_range_meters":38800,"station_id":"ce4bhjp2rcd13ifvqg90","pricing_plan_id":"cebpf4jnsgd1na2vs0mg"},{"bike_id":"f5b491dc-fbd0-4b94-8215-768689bb9d80","system_id":"levelo_inurba_marseille","lat":43.29042,"lon":5.35912,"is_reserved":false,"is_disabled":false,"rental_uris":{"android":"levelo://app?vid=f5b491dc-fbd0-4b94-8215-768689bb9d80","ios":"levelo://app?vid=f5b491dc-fbd0-4b94-8215-768689bb9d80"},"vehicle_type_id":"4","last_reported":1736881607,"current_range_meters":30800,"station_id":"ce4bha92rcd13ifvqeg0","pricing_plan_id":"cebpf4jnsgd1na2vs0mg"},{"bike_id":"6c72276d-8e89-4c2f-8150-2735b7561b95","system_id":"levelo_inurba_marseille","lat":43.27499,"lon":5.42447,"is_reserved":false,"is_disabled":true,"rental_uris":{"android":"levelo://app?vid=6c72276d-8e89-4c2f-8150-2735b7561b95","ios":"levelo://app?vid=6c72276d-8e89-4c2f-8150-2735b7561b95"},"vehicle_type_id":"4","last_reported":1736881607,"current_range_meters":0,"station_id":"ce4bhn92rcd13ifvqgrg","pricing_plan_id":"cebpf4jnsgd1na2vs0mg"},{"bike_id":"d301b2d7-d53f-43ff-9ec0-cc63ffc701fe","system_id":"levelo_inurba_marseille","lat":43.29224,"lon":5.36043,"is_reserved":false,"is_disabled":false,"rental_uris":{"android":"levelo://app?vid=d301b2d7-d53f-43ff-9ec0-cc63ffc701fe","ios":"levelo://app?vid=d301b2d7-d53f-43ff-9ec0-cc63ffc701fe"},"vehicle_type_id":"4","last_reported":1736881607,"current_range_meters":26800,"station_id":"ce4bhbh2rcd13ifvqeqg","pricing_plan_id":"cebpf4jnsgd1na2vs0mg"},{"bike_id":"8c97c7d3-013e-42fd-bee3-01cfaf9001fa","system_id":"levelo_inurba_marseille","lat":43.27831,"lon":5.39194,"is_reserved":false,"is_disabled":false,"rental_uris":{"android":"levelo://app?vid=8c97c7d3-013e-42fd-bee3-01cfaf9001fa","ios":"levelo://app?vid=8c97c7d3-013e-42fd-bee3-01cfaf9001fa"},"vehicle_type_id":"4","last_reported":1736881607,"current_range_meters":19600,"station_id":"ce4bhjp2rcd13ifvqga0","pricing_plan_id":"cebpf4jnsgd1na2vs0mg"},{"bike_id":"ee8d0927-a058-45e1-9340-a21be45279dd","system_id":"levelo_inurba_marseille","lat":43.24997,"lon":5.38934,"is_reserved":false,"is_disabled":false,"rental_uris":{"android":"levelo://app?vid=ee8d0927-a058-45e1-9340-a21be45279dd","ios":"levelo://app?vid=ee8d0927-a058-45e1-9340-a21be45279dd"},"vehicle_type_id":"4","last_reported":1736881607,"current_range_meters":8000,"station_id":"ce4bhgp2rcd13ifvqfd0","pricing_plan_id":"cebpf4jnsgd1na2vs0mg"},{"bike_id":"de24f0eb-d07d-4b52-b35d-5a84aaa3df22","system_id":"levelo_inurba_marseille","lat":43.29232,"lon":5.36056,"is_reserved":false,"is_disabled":true,"rental_uris":{"android":"levelo://app?vid=de24f0eb-d07d-4b52-b35d-5a84aaa3df22","ios":"levelo://app?vid=de24f0eb-d07d-4b52-b35d-5a84aaa3df22"},"vehicle_type_id":"4","last_reported":1736881607,"current_range_meters":10000,"station_id":"ce4bhbh2rcd13ifvqeqg","pricing_plan_id":"cebpf4jnsgd1na2vs0mg"},{"bike_id":"961a1c03-ea05-4b5c-86bd-3e5250b56085","system_id":"levelo_inurba_marseille","lat":43.28562,"lon":5.39485,"is_reserved":false,"is_disabled":false,"rental_uris":{"android":"levelo://app?vid=961a1c03-ea05-4b5c-86bd-3e5250b56085","ios":"levelo://app?vid=961a1c03-ea05-4b5c-86bd-3e5250b56085"},"vehicle_type_id":"4","last_reported":1736881607,"current_range_meters":11600,"station_id":"ce4bh292rcd13ifvqdg0","pricing_plan_id":"cebpf4jnsgd1na2vs0mg"},{"bike_id":"1546f697-d82b-4e5d-a850-a9023302096e","system_id":"levelo_inurba_marseille","lat":43.24999,"lon":5.38939,"is_reserved":false,"is_disabled":false,"rental_uris":{"android":"levelo://app?vid=1546f697-d82b-4e5d-a850-a9023302096e","ios":"levelo://app?vid=1546f697-d82b-4e5d-a850-a9023302096e"},"vehicle_type_id":"4","last_reported":1736881607,"current_range_meters":6800,"station_id":"ce4bhgp2rcd13ifvqfd0","pricing_plan_id":"cebpf4jnsgd1na2vs0mg"},{"bike_id":"3a154d79-06d4-4814-bd52-2ebbe8926e69","system_id":"levelo_inurba_marseille","lat":43.29799,"lon":5.393372,"is_reserved":false,"is_disabled":true,"rental_uris":{"android":"levelo://app?vid=3a154d79-06d4-4814-bd52-2ebbe8926e69","ios":"levelo://app?vid=3a154d79-06d4-4814-bd52-2ebbe8926e69"},"vehicle_type_id":"4","last_reported":1736881607,"current_range_meters":37600,"station_id":"chh1huq6cuj3fo74tm60","pricing_plan_id":"cebpf4jnsgd1na2vs0mg"},{"bike_id":"a05bd889-5f47-4435-a653-f868055678ed","system_id":"levelo_inurba_marseille","lat":43.25,"lon":5.3892,"is_reserved":false,"is_disabled":false,"rental_uris":{"android":"levelo://app?vid=a05bd889-5f47-4435-a653-f868055678ed","ios":"levelo://app?vid=a05bd889-5f47-4435-a653-f868055678ed"},"vehicle_type_id":"4","last_reported":1736881607,"current_range_meters":30000,"station_id":"ce4bhgp2rcd13ifvqfd0","pricing_plan_id":"cebpf4jnsgd1na2vs0mg"},{"bike_id":"d6d5004e-f401-4743-b020-ebb5bd2111bc","system_id":"levelo_inurba_marseille","lat":43.28718,"lon":5.37948,"is_reserved":false,"is_disabled":false,"rental_uris":{"android":"levelo://app?vid=d6d5004e-f401-4743-b020-ebb5bd2111bc","ios":"levelo://app?vid=d6d5004e-f401-4743-b020-ebb5bd2111bc"},"vehicle_type_id":"4","last_reported":1736881607,"current_range_meters":36800,"station_id":"ce4bh9p2rcd13ifvqec0","pricing_plan_id":"cebpf4jnsgd1na2vs0mg"},{"bike_id":"30be5c4e-066f-4a96-8b48-7cfcb4068f4f","system_id":"levelo_inurba_marseille","lat":43.25826,"lon":5.39434,"is_reserved":false,"is_disabled":false,"rental_uris":{"android":"levelo://app?vid=30be5c4e-066f-4a96-8b48-7cfcb4068f4f","ios":"levelo://app?vid=30be5c4e-066f-4a96-8b48-7cfcb4068f4f"},"vehicle_type_id":"4","last_reported":1736881607,"current_range_meters":15200,"station_id":"ce4bhip2rcd13ifvqft0","pricing_plan_id":"cebpf4jnsgd1na2vs0mg"},{"bike_id":"c93610bc-3721-4748-acac-88553ac5d9bb","system_id":"levelo_inurba_marseille","lat":43.26938,"lon":5.40247,"is_reserved":false,"is_disabled":false,"rental_uris":{"android":"levelo://app?vid=c93610bc-3721-4748-acac-88553ac5d9bb","ios":"levelo://app?vid=c93610bc-3721-4748-acac-88553ac5d9bb"},"vehicle_type_id":"4","last_reported":1736881607,"current_range_meters":16000,"station_id":"cjm6bp8fraef2m0cb0m0","pricing_plan_id":"cebpf4jnsgd1na2vs0mg"},{"bike_id":"76560d15-b9ad-4d0e-ac8e-bd69c846fea8","system_id":"levelo_inurba_marseille","lat":43.28002,"lon":5.40015,"is_reserved":false,"is_disabled":false,"rental_uris":{"android":"levelo://app?vid=76560d15-b9ad-4d0e-ac8e-bd69c846fea8","ios":"levelo://app?vid=76560d15-b9ad-4d0e-ac8e-bd69c846fea8"},"vehicle_type_id":"4","last_reported":1736881607,"current_range_meters":20800,"station_id":"ce4bho92rcd13ifvqh4g","pricing_plan_id":"cebpf4jnsgd1na2vs0mg"},{"bike_id":"8eaa02a1-0f94-46cc-b0be-aab54e25bde5","system_id":"levelo_inurba_marseille","lat":43.28678,"lon":5.38671,"is_reserved":false,"is_disabled":false,"rental_uris":{"android":"levelo://app?vid=8eaa02a1-0f94-46cc-b0be-aab54e25bde5","ios":"levelo://app?vid=8eaa02a1-0f94-46cc-b0be-aab54e25bde5"},"vehicle_type_id":"4","last_reported":1736881607,"current_range_meters":11600,"station_id":"ce4bh492rcd13ifvqdug","pricing_plan_id":"cebpf4jnsgd1na2vs0mg"},{"bike_id":"4f2d34a7-3342-4e22-a054-687ce7d50b05","system_id":"levelo_inurba_marseille","lat":43.25875,"lon":5.39915,"is_reserved":false,"is_disabled":false,"rental_uris":{"android":"levelo://app?vid=4f2d34a7-3342-4e22-a054-687ce7d50b05","ios":"levelo://app?vid=4f2d34a7-3342-4e22-a054-687ce7d50b05"},"vehicle_type_id":"4","last_reported":1736881607,"current_range_meters":19200,"station_id":"ce4bhl92rcd13ifvqghg","pricing_plan_id":"cebpf4jnsgd1na2vs0mg"},{"bike_id":"6d2e54c1-0c27-453e-88d9-6d899bdc3cfc","system_id":"levelo_inurba_marseille","lat":43.23185,"lon":5.40005,"is_reserved":false,"is_disabled":false,"rental_uris":{"android":"levelo://app?vid=6d2e54c1-0c27-453e-88d9-6d899bdc3cfc","ios":"levelo://app?vid=6d2e54c1-0c27-453e-88d9-6d899bdc3cfc"},"vehicle_type_id":"4","last_reported":1736881607,"current_range_meters":38800,"station_id":"ce4bhn12rcd13ifvqgqg","pricing_plan_id":"cebpf4jnsgd1na2vs0mg"},{"bike_id":"abf0ee83-7bab-44f7-bed9-fd6daf3b18a1","system_id":"levelo_inurba_marseille","lat":43.28564,"lon":5.39515,"is_reserved":false,"is_disabled":false,"rental_uris":{"android":"levelo://app?vid=abf0ee83-7bab-44f7-bed9-fd6daf3b18a1","ios":"levelo://app?vid=abf0ee83-7bab-44f7-bed9-fd6daf3b18a1"},"vehicle_type_id":"4","last_reported":1736881607,"current_range_meters":37600,"station_id":"ce4bh292rcd13ifvqdg0","pricing_plan_id":"cebpf4jnsgd1na2vs0mg"},{"bike_id":"e4334016-4c8d-4117-9df7-e64c94bf218e","system_id":"levelo_inurba_marseille","lat":43.28003,"lon":5.4001,"is_reserved":false,"is_disabled":false,"rental_uris":{"android":"levelo://app?vid=e4334016-4c8d-4117-9df7-e64c94bf218e","ios":"levelo://app?vid=e4334016-4c8d-4117-9df7-e64c94bf218e"},"vehicle_type_id":"4","last_reported":1736881607,"current_range_meters":36800,"station_id":"ce4bho92rcd13ifvqh4g","pricing_plan_id":"cebpf4jnsgd1na2vs0mg"},{"bike_id":"a402044d-1041-4786-a63f-9d18af3bc82f","system_id":"levelo_inurba_marseille","lat":43.24166,"lon":5.36397,"is_reserved":false,"is_disabled":false,"rental_uris":{"android":"levelo://app?vid=a402044d-1041-4786-a63f-9d18af3bc82f","ios":"levelo://app?vid=a402044d-1041-4786-a63f-9d18af3bc82f"},"vehicle_type_id":"4","last_reported":1736881607,"current_range_meters":38400,"station_id":"cpo36qri1sfpv3e86is0","pricing_plan_id":"cebpf4jnsgd1na2vs0mg"},{"bike_id":"4ae990a2-1900-42b1-9f13-1f3e658accfe","system_id":"levelo_inurba_marseille","lat":43.27997,"lon":5.40028,"is_reserved":false,"is_disabled":false,"rental_uris":{"android":"levelo://app?vid=4ae990a2-1900-42b1-9f13-1f3e658accfe","ios":"levelo://app?vid=4ae990a2-1900-42b1-9f13-1f3e658accfe"},"vehicle_type_id":"4","last_reported":1736881607,"current_range_meters":39200,"station_id":"ce4bho92rcd13ifvqh4g","pricing_plan_id":"cebpf4jnsgd1na2vs0mg"},{"bike_id":"c8e997c0-8580-4d0f-8d9f-0766596381e1","system_id":"levelo_inurba_marseille","lat":43.33925,"lon":5.37561,"is_reserved":false,"is_disabled":true,"rental_uris":{"android":"levelo://app?vid=c8e997c0-8580-4d0f-8d9f-0766596381e1","ios":"levelo://app?vid=c8e997c0-8580-4d0f-8d9f-0766596381e1"},"vehicle_type_id":"4","last_reported":1736881607,"current_range_meters":0,"station_id":"","pricing_plan_id":"cebpf4jnsgd1na2vs0mg"},{"bike_id":"140de28e-d84b-4549-920b-f5944a014864","system_id":"levelo_inurba_marseille","lat":43.27306,"lon":5.3908,"is_reserved":false,"is_disabled":false,"rental_uris":{"android":"levelo://app?vid=140de28e-d84b-4549-920b-f5944a014864","ios":"levelo://app?vid=140de28e-d84b-4549-920b-f5944a014864"},"vehicle_type_id":"4","last_reported":1736881607,"current_range_meters":22000,"station_id":"ce4bhgp2rcd13ifvqfe0","pricing_plan_id":"cebpf4jnsgd1na2vs0mg"},{"bike_id":"ba5df164-d25c-4a1c-8679-1bd1a1db0642","system_id":"levelo_inurba_marseille","lat":43.33736,"lon":5.39195,"is_reserved":false,"is_disabled":false,"rental_uris":{"android":"levelo://app?vid=ba5df164-d25c-4a1c-8679-1bd1a1db0642","ios":"levelo://app?vid=ba5df164-d25c-4a1c-8679-1bd1a1db0642"},"vehicle_type_id":"4","last_reported":1736881607,"current_range_meters":35200,"station_id":"ce4bhr92rcd13ifvqhsg","pricing_plan_id":"cebpf4jnsgd1na2vs0mg"},{"bike_id":"84c14737-c732-47b4-8ed3-09b4b8466aac","system_id":"levelo_inurba_marseille","lat":43.28428,"lon":5.37508,"is_reserved":false,"is_disabled":false,"rental_uris":{"android":"levelo://app?vid=84c14737-c732-47b4-8ed3-09b4b8466aac","ios":"levelo://app?vid=84c14737-c732-47b4-8ed3-09b4b8466aac"},"vehicle_type_id":"4","last_reported":1736881607,"current_range_meters":8000,"station_id":"ce4bh412rcd13ifvqds0","pricing_plan_id":"cebpf4jnsgd1na2vs0mg"},{"bike_id":"d3c55a35-8db3-4ddd-8731-c2f619f28f47","system_id":"levelo_inurba_marseille","lat":43.27435,"lon":5.39422,"is_reserved":false,"is_disabled":false,"rental_uris":{"android":"levelo://app?vid=d3c55a35-8db3-4ddd-8731-c2f619f28f47","ios":"levelo://app?vid=d3c55a35-8db3-4ddd-8731-c2f619f28f47"},"vehicle_type_id":"4","last_reported":1736881607,"current_range_meters":24800,"station_id":"ce4bhdp2rcd13ifvqf20","pricing_plan_id":"cebpf4jnsgd1na2vs0mg"},{"bike_id":"b73f1401-d1f1-4db5-9249-1d420505c604","system_id":"levelo_inurba_marseille","lat":43.29528,"lon":5.38542,"is_reserved":false,"is_disabled":false,"rental_uris":{"android":"levelo://app?vid=b73f1401-d1f1-4db5-9249-1d420505c604","ios":"levelo://app?vid=b73f1401-d1f1-4db5-9249-1d420505c604"},"vehicle_type_id":"4","last_reported":1736881607,"current_range_meters":8400,"station_id":"ce4bgih2rcd13ifvqba0","pricing_plan_id":"cebpf4jnsgd1na2vs0mg"},{"bike_id":"6a2b39da-efee-4bc0-be9f-a58db7af0edf","system_id":"levelo_inurba_marseille","lat":43.28466,"lon":5.35885,"is_reserved":false,"is_disabled":false,"rental_uris":{"android":"levelo://app?vid=6a2b39da-efee-4bc0-be9f-a58db7af0edf","ios":"levelo://app?vid=6a2b39da-efee-4bc0-be9f-a58db7af0edf"},"vehicle_type_id":"4","last_reported":1736881607,"current_range_meters":14000,"station_id":"ce4bhah2rcd13ifvqei0","pricing_plan_id":"cebpf4jnsgd1na2vs0mg"},{"bike_id":"ca939829-fffe-4670-b2aa-b9757d203f81","system_id":"levelo_inurba_marseille","lat":43.313186,"lon":5.397016,"is_reserved":false,"is_disabled":false,"rental_uris":{"android":"levelo://app?vid=ca939829-fffe-4670-b2aa-b9757d203f81","ios":"levelo://app?vid=ca939829-fffe-4670-b2aa-b9757d203f81"},"vehicle_type_id":"4","last_reported":1736881607,"current_range_meters":17600,"station_id":"ce4bgvp2rcd13ifvqcu0","pricing_plan_id":"cebpf4jnsgd1na2vs0mg"},{"bike_id":"f0691327-4efc-46db-9653-add386e0e1f0","system_id":"levelo_inurba_marseille","lat":43.28936,"lon":5.36618,"is_reserved":false,"is_disabled":false,"rental_uris":{"android":"levelo://app?vid=f0691327-4efc-46db-9653-add386e0e1f0","ios":"levelo://app?vid=f0691327-4efc-46db-9653-add386e0e1f0"},"vehicle_type_id":"4","last_reported":1736881607,"current_range_meters":39200,"station_id":"ce4bhap2rcd13ifvqek0","pricing_plan_id":"cebpf4jnsgd1na2vs0mg"},{"bike_id":"2d4131cd-2fa5-4d26-9ca0-c99a18ca4262","system_id":"levelo_inurba_marseille","lat":43.29975,"lon":5.3849,"is_reserved":false,"is_disabled":false,"rental_uris":{"android":"levelo://app?vid=2d4131cd-2fa5-4d26-9ca0-c99a18ca4262","ios":"levelo://app?vid=2d4131cd-2fa5-4d26-9ca0-c99a18ca4262"},"vehicle_type_id":"4","last_reported":1736881607,"current_range_meters":28800,"station_id":"ce4bgj92rcd13ifvqbd0","pricing_plan_id":"cebpf4jnsgd1na2vs0mg"},{"bike_id":"e81ef256-d7a3-4c28-9bcc-58b1fdfe2d9d","system_id":"levelo_inurba_marseille","lat":43.251,"lon":5.40325,"is_reserved":false,"is_disabled":false,"rental_uris":{"android":"levelo://app?vid=e81ef256-d7a3-4c28-9bcc-58b1fdfe2d9d","ios":"levelo://app?vid=e81ef256-d7a3-4c28-9bcc-58b1fdfe2d9d"},"vehicle_type_id":"4","last_reported":1736881607,"current_range_meters":38800,"station_id":"ce4bhlh2rcd13ifvqgig","pricing_plan_id":"cebpf4jnsgd1na2vs0mg"},{"bike_id":"56030b9e-68b1-4127-a965-b3d8dac0c886","system_id":"levelo_inurba_marseille","lat":43.24809,"lon":5.37466,"is_reserved":false,"is_disabled":false,"rental_uris":{"android":"levelo://app?vid=56030b9e-68b1-4127-a965-b3d8dac0c886","ios":"levelo://app?vid=56030b9e-68b1-4127-a965-b3d8dac0c886"},"vehicle_type_id":"4","last_reported":1736881607,"current_range_meters":3600,"station_id":"ce4bhgh2rcd13ifvqfb0","pricing_plan_id":"cebpf4jnsgd1na2vs0mg"},{"bike_id":"498ce990-07bb-4deb-b9a1-df22922adc18","system_id":"levelo_inurba_marseille","lat":43.28942,"lon":5.36641,"is_reserved":false,"is_disabled":false,"rental_uris":{"android":"levelo://app?vid=498ce990-07bb-4deb-b9a1-df22922adc18","ios":"levelo://app?vid=498ce990-07bb-4deb-b9a1-df22922adc18"},"vehicle_type_id":"4","last_reported":1736881607,"current_range_meters":8800,"station_id":"ce4bhap2rcd13ifvqek0","pricing_plan_id":"cebpf4jnsgd1na2vs0mg"},{"bike_id":"426ee80e-06b0-4d0f-86a5-ea8ad64aaa11","system_id":"levelo_inurba_marseille","lat":43.2892,"lon":5.43755,"is_reserved":false,"is_disabled":false,"rental_uris":{"android":"levelo://app?vid=426ee80e-06b0-4d0f-86a5-ea8ad64aaa11","ios":"levelo://app?vid=426ee80e-06b0-4d0f-86a5-ea8ad64aaa11"},"vehicle_type_id":"4","last_reported":1736881607,"current_range_meters":4400,"station_id":"","pricing_plan_id":"cebpf4jnsgd1na2vs0mg"},{"bike_id":"e193fcae-3614-40ce-8cb1-0bbb91b7246b","system_id":"levelo_inurba_marseille","lat":43.2926,"lon":5.38437,"is_reserved":false,"is_disabled":false,"rental_uris":{"android":"levelo://app?vid=e193fcae-3614-40ce-8cb1-0bbb91b7246b","ios":"levelo://app?vid=e193fcae-3614-40ce-8cb1-0bbb91b7246b"},"vehicle_type_id":"4","last_reported":1736881607,"current_range_meters":17200,"station_id":"ce4bh692rcd13ifvqea0","pricing_plan_id":"cebpf4jnsgd1na2vs0mg"},{"bike_id":"192943ff-6579-4067-8b54-834fbf6d8760","system_id":"levelo_inurba_marseille","lat":43.27621,"lon":5.3611,"is_reserved":false,"is_disabled":false,"rental_uris":{"android":"levelo://app?vid=192943ff-6579-4067-8b54-834fbf6d8760","ios":"levelo://app?vid=192943ff-6579-4067-8b54-834fbf6d8760"},"vehicle_type_id":"4","last_reported":1736881607,"current_range_meters":38800,"station_id":"ce4bgj92rcd13ifvqbe0","pricing_plan_id":"cebpf4jnsgd1na2vs0mg"},{"bike_id":"fea1b24d-bbfb-474a-b028-8645483cd7e6","system_id":"levelo_inurba_marseille","lat":43.27377,"lon":5.36251,"is_reserved":false,"is_disabled":false,"rental_uris":{"android":"levelo://app?vid=fea1b24d-bbfb-474a-b028-8645483cd7e6","ios":"levelo://app?vid=fea1b24d-bbfb-474a-b028-8645483cd7e6"},"vehicle_type_id":"4","last_reported":1736881607,"current_range_meters":38800,"station_id":"ce4bhbh2rcd13ifvqeo0","pricing_plan_id":"cebpf4jnsgd1na2vs0mg"},{"bike_id":"1c7b5e81-4790-430e-bdea-a0c9f783fb13","system_id":"levelo_inurba_marseille","lat":43.24391,"lon":5.37061,"is_reserved":false,"is_disabled":false,"rental_uris":{"android":"levelo://app?vid=1c7b5e81-4790-430e-bdea-a0c9f783fb13","ios":"levelo://app?vid=1c7b5e81-4790-430e-bdea-a0c9f783fb13"},"vehicle_type_id":"4","last_reported":1736881607,"current_range_meters":18000,"station_id":"ce4bhhh2rcd13ifvqfk0","pricing_plan_id":"cebpf4jnsgd1na2vs0mg"},{"bike_id":"394c1459-78bd-449f-aeb6-57dbaef6e809","system_id":"levelo_inurba_marseille","lat":43.25822,"lon":5.39435,"is_reserved":false,"is_disabled":false,"rental_uris":{"android":"levelo://app?vid=394c1459-78bd-449f-aeb6-57dbaef6e809","ios":"levelo://app?vid=394c1459-78bd-449f-aeb6-57dbaef6e809"},"vehicle_type_id":"4","last_reported":1736881607,"current_range_meters":31200,"station_id":"ce4bhip2rcd13ifvqft0","pricing_plan_id":"cebpf4jnsgd1na2vs0mg"},{"bike_id":"4de50674-b5ea-4b4e-8231-9baaab906075","system_id":"levelo_inurba_marseille","lat":43.28429,"lon":5.39211,"is_reserved":false,"is_disabled":false,"rental_uris":{"android":"levelo://app?vid=4de50674-b5ea-4b4e-8231-9baaab906075","ios":"levelo://app?vid=4de50674-b5ea-4b4e-8231-9baaab906075"},"vehicle_type_id":"4","last_reported":1736881607,"current_range_meters":38000,"station_id":"ce4bhoh2rcd13ifvqh5g","pricing_plan_id":"cebpf4jnsgd1na2vs0mg"},{"bike_id":"4ae300ae-adf7-4364-8fbd-1486a5cf3b81","system_id":"levelo_inurba_marseille","lat":43.28927,"lon":5.38383,"is_reserved":false,"is_disabled":false,"rental_uris":{"android":"levelo://app?vid=4ae300ae-adf7-4364-8fbd-1486a5cf3b81","ios":"levelo://app?vid=4ae300ae-adf7-4364-8fbd-1486a5cf3b81"},"vehicle_type_id":"4","last_reported":1736881607,"current_range_meters":28800,"station_id":"ce4bh612rcd13ifvqe6g","pricing_plan_id":"cebpf4jnsgd1na2vs0mg"},{"bike_id":"33599c56-d6e6-4e5d-9218-3b601dbbda24","system_id":"levelo_inurba_marseille","lat":43.30301,"lon":5.3919,"is_reserved":false,"is_disabled":true,"rental_uris":{"android":"levelo://app?vid=33599c56-d6e6-4e5d-9218-3b601dbbda24","ios":"levelo://app?vid=33599c56-d6e6-4e5d-9218-3b601dbbda24"},"vehicle_type_id":"4","last_reported":1736881607,"current_range_meters":8400,"station_id":"ce4bgkh2rcd13ifvqbk0","pricing_plan_id":"cebpf4jnsgd1na2vs0mg"},{"bike_id":"33948cef-159b-4075-a8c4-dd4eee89856a","system_id":"levelo_inurba_marseille","lat":43.23192,"lon":5.39964,"is_reserved":false,"is_disabled":false,"rental_uris":{"android":"levelo://app?vid=33948cef-159b-4075-a8c4-dd4eee89856a","ios":"levelo://app?vid=33948cef-159b-4075-a8c4-dd4eee89856a"},"vehicle_type_id":"4","last_reported":1736881607,"current_range_meters":26800,"station_id":"ce4bhn12rcd13ifvqgqg","pricing_plan_id":"cebpf4jnsgd1na2vs0mg"},{"bike_id":"ec4d7ef3-37f4-4003-80a6-21972954ebb8","system_id":"levelo_inurba_marseille","lat":43.27917,"lon":5.39575,"is_reserved":false,"is_disabled":true,"rental_uris":{"android":"levelo://app?vid=ec4d7ef3-37f4-4003-80a6-21972954ebb8","ios":"levelo://app?vid=ec4d7ef3-37f4-4003-80a6-21972954ebb8"},"vehicle_type_id":"4","last_reported":1736881607,"current_range_meters":1600,"station_id":"ce4bhf92rcd13ifvqf40","pricing_plan_id":"cebpf4jnsgd1na2vs0mg"},{"bike_id":"2f58ef0c-a69a-4c2c-a796-4b193fc22d52","system_id":"levelo_inurba_marseille","lat":43.2812,"lon":5.37849,"is_reserved":false,"is_disabled":false,"rental_uris":{"android":"levelo://app?vid=2f58ef0c-a69a-4c2c-a796-4b193fc22d52","ios":"levelo://app?vid=2f58ef0c-a69a-4c2c-a796-4b193fc22d52"},"vehicle_type_id":"4","last_reported":1736881607,"current_range_meters":20000,"station_id":"ce4bha12rcd13ifvqee0","pricing_plan_id":"cebpf4jnsgd1na2vs0mg"},{"bike_id":"9a14c226-93ca-4fa9-bb3f-3a41f18fcf15","system_id":"levelo_inurba_marseille","lat":43.30265,"lon":5.3974,"is_reserved":false,"is_disabled":false,"rental_uris":{"android":"levelo://app?vid=9a14c226-93ca-4fa9-bb3f-3a41f18fcf15","ios":"levelo://app?vid=9a14c226-93ca-4fa9-bb3f-3a41f18fcf15"},"vehicle_type_id":"4","last_reported":1736881607,"current_range_meters":6400,"station_id":"ce4bgvh2rcd13ifvqcs0","pricing_plan_id":"cebpf4jnsgd1na2vs0mg"},{"bike_id":"a1a925c1-025a-4e52-b724-c9c5776b8317","system_id":"levelo_inurba_marseille","lat":43.25102,"lon":5.40324,"is_reserved":false,"is_disabled":false,"rental_uris":{"android":"levelo://app?vid=a1a925c1-025a-4e52-b724-c9c5776b8317","ios":"levelo://app?vid=a1a925c1-025a-4e52-b724-c9c5776b8317"},"vehicle_type_id":"4","last_reported":1736881607,"current_range_meters":18800,"station_id":"ce4bhlh2rcd13ifvqgig","pricing_plan_id":"cebpf4jnsgd1na2vs0mg"},{"bike_id":"ac1b75ff-ff56-4e4e-9e99-c55f54da7bac","system_id":"levelo_inurba_marseille","lat":43.23185,"lon":5.39982,"is_reserved":false,"is_disabled":false,"rental_uris":{"android":"levelo://app?vid=ac1b75ff-ff56-4e4e-9e99-c55f54da7bac","ios":"levelo://app?vid=ac1b75ff-ff56-4e4e-9e99-c55f54da7bac"},"vehicle_type_id":"4","last_reported":1736881607,"current_range_meters":38000,"station_id":"ce4bhn12rcd13ifvqgqg","pricing_plan_id":"cebpf4jnsgd1na2vs0mg"},{"bike_id":"998e9013-3f54-4f91-b1f5-68829368d88b","system_id":"levelo_inurba_marseille","lat":43.24802,"lon":5.37455,"is_reserved":false,"is_disabled":false,"rental_uris":{"android":"levelo://app?vid=998e9013-3f54-4f91-b1f5-68829368d88b","ios":"levelo://app?vid=998e9013-3f54-4f91-b1f5-68829368d88b"},"vehicle_type_id":"4","last_reported":1736881607,"current_range_meters":38800,"station_id":"ce4bhgh2rcd13ifvqfb0","pricing_plan_id":"cebpf4jnsgd1na2vs0mg"},{"bike_id":"36974145-3c31-468b-9760-88b99b61f26c","system_id":"levelo_inurba_marseille","lat":43.271753,"lon":5.409983,"is_reserved":false,"is_disabled":false,"rental_uris":{"android":"levelo://app?vid=36974145-3c31-468b-9760-88b99b61f26c","ios":"levelo://app?vid=36974145-3c31-468b-9760-88b99b61f26c"},"vehicle_type_id":"4","last_reported":1736881607,"current_range_meters":9600,"station_id":"ce4bhl12rcd13ifvqgf0","pricing_plan_id":"cebpf4jnsgd1na2vs0mg"},{"bike_id":"b3ef46ee-af87-4b83-b89f-a4a6c31fc767","system_id":"levelo_inurba_marseille","lat":43.33027,"lon":5.39028,"is_reserved":false,"is_disabled":false,"rental_uris":{"android":"levelo://app?vid=b3ef46ee-af87-4b83-b89f-a4a6c31fc767","ios":"levelo://app?vid=b3ef46ee-af87-4b83-b89f-a4a6c31fc767"},"vehicle_type_id":"4","last_reported":1736881607,"current_range_meters":30000,"station_id":"ce4bhr92rcd13ifvqhrg","pricing_plan_id":"cebpf4jnsgd1na2vs0mg"},{"bike_id":"755e5c0a-8de7-4ee5-9d4e-5ec609711170","system_id":"levelo_inurba_marseille","lat":43.29608,"lon":5.38101,"is_reserved":false,"is_disabled":true,"rental_uris":{"android":"levelo://app?vid=755e5c0a-8de7-4ee5-9d4e-5ec609711170","ios":"levelo://app?vid=755e5c0a-8de7-4ee5-9d4e-5ec609711170"},"vehicle_type_id":"4","last_reported":1736881607,"current_range_meters":29600,"station_id":"ce4bgl12rcd13ifvqbo0","pricing_plan_id":"cebpf4jnsgd1na2vs0mg"},{"bike_id":"8db550fd-eb45-432a-9274-e5fa52a89cd8","system_id":"levelo_inurba_marseille","lat":43.27209,"lon":5.39183,"is_reserved":false,"is_disabled":false,"rental_uris":{"android":"levelo://app?vid=8db550fd-eb45-432a-9274-e5fa52a89cd8","ios":"levelo://app?vid=8db550fd-eb45-432a-9274-e5fa52a89cd8"},"vehicle_type_id":"4","last_reported":1736881607,"current_range_meters":16400,"station_id":"ce4bhhp2rcd13ifvqfm0","pricing_plan_id":"cebpf4jnsgd1na2vs0mg"},{"bike_id":"a7fbea3a-5a32-40d9-90eb-52f8eeb9302a","system_id":"levelo_inurba_marseille","lat":43.28945,"lon":5.3664,"is_reserved":false,"is_disabled":false,"rental_uris":{"android":"levelo://app?vid=a7fbea3a-5a32-40d9-90eb-52f8eeb9302a","ios":"levelo://app?vid=a7fbea3a-5a32-40d9-90eb-52f8eeb9302a"},"vehicle_type_id":"4","last_reported":1736881607,"current_range_meters":33200,"station_id":"ce4bhap2rcd13ifvqek0","pricing_plan_id":"cebpf4jnsgd1na2vs0mg"},{"bike_id":"293d34e8-cc29-4478-8318-b8afc4f87d7c","system_id":"levelo_inurba_marseille","lat":43.30292,"lon":5.39205,"is_reserved":false,"is_disabled":false,"rental_uris":{"android":"levelo://app?vid=293d34e8-cc29-4478-8318-b8afc4f87d7c","ios":"levelo://app?vid=293d34e8-cc29-4478-8318-b8afc4f87d7c"},"vehicle_type_id":"4","last_reported":1736881607,"current_range_meters":38800,"station_id":"ce4bgkh2rcd13ifvqbk0","pricing_plan_id":"cebpf4jnsgd1na2vs0mg"},{"bike_id":"a15980ac-c225-4e68-8982-6cc8c4cbfd79","system_id":"levelo_inurba_marseille","lat":43.231904,"lon":5.355528,"is_reserved":false,"is_disabled":false,"rental_uris":{"android":"levelo://app?vid=a15980ac-c225-4e68-8982-6cc8c4cbfd79","ios":"levelo://app?vid=a15980ac-c225-4e68-8982-6cc8c4cbfd79"},"vehicle_type_id":"4","last_reported":1736881607,"current_range_meters":38800,"station_id":"ce4bhu92rcd13ifvqi70","pricing_plan_id":"cebpf4jnsgd1na2vs0mg"},{"bike_id":"f4acedbd-efad-4ed3-87b6-3302ef76e5a0","system_id":"levelo_inurba_marseille","lat":43.28865,"lon":5.35838,"is_reserved":false,"is_disabled":false,"rental_uris":{"android":"levelo://app?vid=f4acedbd-efad-4ed3-87b6-3302ef76e5a0","ios":"levelo://app?vid=f4acedbd-efad-4ed3-87b6-3302ef76e5a0"},"vehicle_type_id":"4","last_reported":1736881607,"current_range_meters":38800,"station_id":"ce4bhb12rcd13ifvqem0","pricing_plan_id":"cebpf4jnsgd1na2vs0mg"},{"bike_id":"665d259b-317d-40f1-b909-db8fa31f6b35","system_id":"levelo_inurba_marseille","lat":43.28443,"lon":5.39184,"is_reserved":false,"is_disabled":false,"rental_uris":{"android":"levelo://app?vid=665d259b-317d-40f1-b909-db8fa31f6b35","ios":"levelo://app?vid=665d259b-317d-40f1-b909-db8fa31f6b35"},"vehicle_type_id":"4","last_reported":1736881607,"current_range_meters":38800,"station_id":"ce4bhoh2rcd13ifvqh5g","pricing_plan_id":"cebpf4jnsgd1na2vs0mg"},{"bike_id":"3c07fa6e-f4f9-404f-a9a8-7f19979108f6","system_id":"levelo_inurba_marseille","lat":43.320974,"lon":5.36771,"is_reserved":false,"is_disabled":false,"rental_uris":{"android":"levelo://app?vid=3c07fa6e-f4f9-404f-a9a8-7f19979108f6","ios":"levelo://app?vid=3c07fa6e-f4f9-404f-a9a8-7f19979108f6"},"vehicle_type_id":"4","last_reported":1736881607,"current_range_meters":27200,"station_id":"ce4bhrh2rcd13ifvqhug","pricing_plan_id":"cebpf4jnsgd1na2vs0mg"},{"bike_id":"f9d56c30-b886-4540-9acd-8171c4ed22f9","system_id":"levelo_inurba_marseille","lat":43.29236,"lon":5.36043,"is_reserved":false,"is_disabled":false,"rental_uris":{"android":"levelo://app?vid=f9d56c30-b886-4540-9acd-8171c4ed22f9","ios":"levelo://app?vid=f9d56c30-b886-4540-9acd-8171c4ed22f9"},"vehicle_type_id":"4","last_reported":1736881607,"current_range_meters":22800,"station_id":"ce4bhbh2rcd13ifvqeqg","pricing_plan_id":"cebpf4jnsgd1na2vs0mg"},{"bike_id":"64b2cb73-258b-4267-8d3c-722c97ae9969","system_id":"levelo_inurba_marseille","lat":43.2917,"lon":5.35822,"is_reserved":false,"is_disabled":false,"rental_uris":{"android":"levelo://app?vid=64b2cb73-258b-4267-8d3c-722c97ae9969","ios":"levelo://app?vid=64b2cb73-258b-4267-8d3c-722c97ae9969"},"vehicle_type_id":"4","last_reported":1736881607,"current_range_meters":38000,"station_id":"ce4bhb12rcd13ifvqel0","pricing_plan_id":"cebpf4jnsgd1na2vs0mg"},{"bike_id":"3f404148-f2c7-44b8-a466-977741fe2f8d","system_id":"levelo_inurba_marseille","lat":43.27918,"lon":5.39591,"is_reserved":false,"is_disabled":false,"rental_uris":{"android":"levelo://app?vid=3f404148-f2c7-44b8-a466-977741fe2f8d","ios":"levelo://app?vid=3f404148-f2c7-44b8-a466-977741fe2f8d"},"vehicle_type_id":"4","last_reported":1736881607,"current_range_meters":28000,"station_id":"ce4bhf92rcd13ifvqf40","pricing_plan_id":"cebpf4jnsgd1na2vs0mg"},{"bike_id":"34a0783c-0605-41d7-932b-4fc97f12d7a6","system_id":"levelo_inurba_marseille","lat":43.27962,"lon":5.38739,"is_reserved":false,"is_disabled":false,"rental_uris":{"android":"levelo://app?vid=34a0783c-0605-41d7-932b-4fc97f12d7a6","ios":"levelo://app?vid=34a0783c-0605-41d7-932b-4fc97f12d7a6"},"vehicle_type_id":"4","last_reported":1736881607,"current_range_meters":33200,"station_id":"ce4bhg12rcd13ifvqf80","pricing_plan_id":"cebpf4jnsgd1na2vs0mg"},{"bike_id":"26a6ee6f-2b2c-474f-bcf5-35e073d35684","system_id":"levelo_inurba_marseille","lat":43.28073,"lon":5.39654,"is_reserved":false,"is_disabled":false,"rental_uris":{"android":"levelo://app?vid=26a6ee6f-2b2c-474f-bcf5-35e073d35684","ios":"levelo://app?vid=26a6ee6f-2b2c-474f-bcf5-35e073d35684"},"vehicle_type_id":"4","last_reported":1736881607,"current_range_meters":30000,"station_id":"ce4bho12rcd13ifvqh2g","pricing_plan_id":"cebpf4jnsgd1na2vs0mg"},{"bike_id":"51bb6953-dea8-4e82-96bf-52696267905f","system_id":"levelo_inurba_marseille","lat":43.23057,"lon":5.35503,"is_reserved":false,"is_disabled":false,"rental_uris":{"android":"levelo://app?vid=51bb6953-dea8-4e82-96bf-52696267905f","ios":"levelo://app?vid=51bb6953-dea8-4e82-96bf-52696267905f"},"vehicle_type_id":"4","last_reported":1736881607,"current_range_meters":8000,"station_id":"cpo3342slgdg3j2ifvpg","pricing_plan_id":"cebpf4jnsgd1na2vs0mg"},{"bike_id":"b4d2fb64-79fe-432f-80df-64b6718d9f84","system_id":"levelo_inurba_marseille","lat":43.24639,"lon":5.38873,"is_reserved":false,"is_disabled":false,"rental_uris":{"android":"levelo://app?vid=b4d2fb64-79fe-432f-80df-64b6718d9f84","ios":"levelo://app?vid=b4d2fb64-79fe-432f-80df-64b6718d9f84"},"vehicle_type_id":"4","last_reported":1736881607,"current_range_meters":5600,"station_id":"ce4bhg12rcd13ifvqf60","pricing_plan_id":"cebpf4jnsgd1na2vs0mg"},{"bike_id":"eed58033-fa47-4e42-ac28-5d945be79d6b","system_id":"levelo_inurba_marseille","lat":43.28412,"lon":5.37543,"is_reserved":false,"is_disabled":false,"rental_uris":{"android":"levelo://app?vid=eed58033-fa47-4e42-ac28-5d945be79d6b","ios":"levelo://app?vid=eed58033-fa47-4e42-ac28-5d945be79d6b"},"vehicle_type_id":"4","last_reported":1736881607,"current_range_meters":32000,"station_id":"ce4bh412rcd13ifvqds0","pricing_plan_id":"cebpf4jnsgd1na2vs0mg"},{"bike_id":"4c7f866c-1d48-4185-b151-518b9a7b0f4c","system_id":"levelo_inurba_marseille","lat":43.29005,"lon":5.35608,"is_reserved":false,"is_disabled":false,"rental_uris":{"android":"levelo://app?vid=4c7f866c-1d48-4185-b151-518b9a7b0f4c","ios":"levelo://app?vid=4c7f866c-1d48-4185-b151-518b9a7b0f4c"},"vehicle_type_id":"4","last_reported":1736881607,"current_range_meters":4800,"station_id":"ce4bhb92rcd13ifvqen0","pricing_plan_id":"cebpf4jnsgd1na2vs0mg"},{"bike_id":"92cc8063-aed1-49c2-93f4-c1f73d681504","system_id":"levelo_inurba_marseille","lat":43.27309,"lon":5.39094,"is_reserved":false,"is_disabled":false,"rental_uris":{"android":"levelo://app?vid=92cc8063-aed1-49c2-93f4-c1f73d681504","ios":"levelo://app?vid=92cc8063-aed1-49c2-93f4-c1f73d681504"},"vehicle_type_id":"4","last_reported":1736881607,"current_range_meters":38800,"station_id":"ce4bhgp2rcd13ifvqfe0","pricing_plan_id":"cebpf4jnsgd1na2vs0mg"},{"bike_id":"c4a8dadf-2d26-4438-8022-6780136cb89c","system_id":"levelo_inurba_marseille","lat":43.27609,"lon":5.36113,"is_reserved":false,"is_disabled":false,"rental_uris":{"android":"levelo://app?vid=c4a8dadf-2d26-4438-8022-6780136cb89c","ios":"levelo://app?vid=c4a8dadf-2d26-4438-8022-6780136cb89c"},"vehicle_type_id":"4","last_reported":1736881607,"current_range_meters":35200,"station_id":"ce4bgj92rcd13ifvqbe0","pricing_plan_id":"cebpf4jnsgd1na2vs0mg"},{"bike_id":"a5bf1a4f-cd65-4a5f-b5a9-ac4f6ddd4b01","system_id":"levelo_inurba_marseille","lat":43.27205,"lon":5.39178,"is_reserved":false,"is_disabled":false,"rental_uris":{"android":"levelo://app?vid=a5bf1a4f-cd65-4a5f-b5a9-ac4f6ddd4b01","ios":"levelo://app?vid=a5bf1a4f-cd65-4a5f-b5a9-ac4f6ddd4b01"},"vehicle_type_id":"4","last_reported":1736881607,"current_range_meters":38000,"station_id":"ce4bhhp2rcd13ifvqfm0","pricing_plan_id":"cebpf4jnsgd1na2vs0mg"},{"bike_id":"81f30de0-c4ab-4931-aca3-f20f134f65cc","system_id":"levelo_inurba_marseille","lat":43.2693,"lon":5.38918,"is_reserved":false,"is_disabled":false,"rental_uris":{"android":"levelo://app?vid=81f30de0-c4ab-4931-aca3-f20f134f65cc","ios":"levelo://app?vid=81f30de0-c4ab-4931-aca3-f20f134f65cc"},"vehicle_type_id":"4","last_reported":1736881607,"current_range_meters":19600,"station_id":"ce4bhhh2rcd13ifvqfl0","pricing_plan_id":"cebpf4jnsgd1na2vs0mg"},{"bike_id":"2189381d-9d89-4eb9-a141-46938bb381d6","system_id":"levelo_inurba_marseille","lat":43.26556,"lon":5.39001,"is_reserved":false,"is_disabled":true,"rental_uris":{"android":"levelo://app?vid=2189381d-9d89-4eb9-a141-46938bb381d6","ios":"levelo://app?vid=2189381d-9d89-4eb9-a141-46938bb381d6"},"vehicle_type_id":"4","last_reported":1736881607,"current_range_meters":2000,"station_id":"ce4bhe12rcd13ifvqf30","pricing_plan_id":"cebpf4jnsgd1na2vs0mg"},{"bike_id":"e9ecb55f-a8b8-48af-8707-75d92da0a876","system_id":"levelo_inurba_marseille","lat":43.27813,"lon":5.40724,"is_reserved":false,"is_disabled":false,"rental_uris":{"android":"levelo://app?vid=e9ecb55f-a8b8-48af-8707-75d92da0a876","ios":"levelo://app?vid=e9ecb55f-a8b8-48af-8707-75d92da0a876"},"vehicle_type_id":"4","last_reported":1736881607,"current_range_meters":29600,"station_id":"ce4bhnh2rcd13ifvqgtg","pricing_plan_id":"cebpf4jnsgd1na2vs0mg"},{"bike_id":"a9e8d49a-2ba2-4689-b32f-e928cab22a0c","system_id":"levelo_inurba_marseille","lat":43.29533,"lon":5.38537,"is_reserved":false,"is_disabled":false,"rental_uris":{"android":"levelo://app?vid=a9e8d49a-2ba2-4689-b32f-e928cab22a0c","ios":"levelo://app?vid=a9e8d49a-2ba2-4689-b32f-e928cab22a0c"},"vehicle_type_id":"4","last_reported":1736881607,"current_range_meters":36400,"station_id":"ce4bgih2rcd13ifvqba0","pricing_plan_id":"cebpf4jnsgd1na2vs0mg"},{"bike_id":"b328758c-1306-4f48-9fa3-7f9b48fccfe1","system_id":"levelo_inurba_marseille","lat":43.23167,"lon":5.40042,"is_reserved":false,"is_disabled":false,"rental_uris":{"android":"levelo://app?vid=b328758c-1306-4f48-9fa3-7f9b48fccfe1","ios":"levelo://app?vid=b328758c-1306-4f48-9fa3-7f9b48fccfe1"},"vehicle_type_id":"4","last_reported":1736881607,"current_range_meters":17600,"station_id":"ce4bhn12rcd13ifvqgqg","pricing_plan_id":"cebpf4jnsgd1na2vs0mg"},{"bike_id":"a56bdef2-14b8-4e02-b3bc-538917283971","system_id":"levelo_inurba_marseille","lat":43.25084,"lon":5.395,"is_reserved":false,"is_disabled":false,"rental_uris":{"android":"levelo://app?vid=a56bdef2-14b8-4e02-b3bc-538917283971","ios":"levelo://app?vid=a56bdef2-14b8-4e02-b3bc-538917283971"},"vehicle_type_id":"4","last_reported":1736881607,"current_range_meters":30400,"station_id":"ce4bhm12rcd13ifvqgkg","pricing_plan_id":"cebpf4jnsgd1na2vs0mg"},{"bike_id":"e6e61600-8947-4a01-8e25-e9b575d98997","system_id":"levelo_inurba_marseille","lat":43.29884,"lon":5.38902,"is_reserved":false,"is_disabled":false,"rental_uris":{"android":"levelo://app?vid=e6e61600-8947-4a01-8e25-e9b575d98997","ios":"levelo://app?vid=e6e61600-8947-4a01-8e25-e9b575d98997"},"vehicle_type_id":"4","last_reported":1736881607,"current_range_meters":16000,"station_id":"ce4bh392rcd13ifvqdl0","pricing_plan_id":"cebpf4jnsgd1na2vs0mg"},{"bike_id":"d677a909-27ad-4353-b4cf-7fba66a9d9f6","system_id":"levelo_inurba_marseille","lat":43.26582,"lon":5.37306,"is_reserved":false,"is_disabled":false,"rental_uris":{"android":"levelo://app?vid=d677a909-27ad-4353-b4cf-7fba66a9d9f6","ios":"levelo://app?vid=d677a909-27ad-4353-b4cf-7fba66a9d9f6"},"vehicle_type_id":"4","last_reported":1736881607,"current_range_meters":18800,"station_id":"ce4bhg12rcd13ifvqf70","pricing_plan_id":"cebpf4jnsgd1na2vs0mg"},{"bike_id":"b82e6190-b9e8-496f-a002-b39f52a66828","system_id":"levelo_inurba_marseille","lat":43.28942,"lon":5.36644,"is_reserved":false,"is_disabled":false,"rental_uris":{"android":"levelo://app?vid=b82e6190-b9e8-496f-a002-b39f52a66828","ios":"levelo://app?vid=b82e6190-b9e8-496f-a002-b39f52a66828"},"vehicle_type_id":"4","last_reported":1736881607,"current_range_meters":15200,"station_id":"ce4bhap2rcd13ifvqek0","pricing_plan_id":"cebpf4jnsgd1na2vs0mg"},{"bike_id":"ac72bd68-fe43-417d-8d4d-367f04db8c3c","system_id":"levelo_inurba_marseille","lat":43.3171,"lon":5.43712,"is_reserved":false,"is_disabled":false,"rental_uris":{"android":"levelo://app?vid=ac72bd68-fe43-417d-8d4d-367f04db8c3c","ios":"levelo://app?vid=ac72bd68-fe43-417d-8d4d-367f04db8c3c"},"vehicle_type_id":"4","last_reported":1736881607,"current_range_meters":16400,"station_id":"ce4bhp92rcd13ifvqhcg","pricing_plan_id":"cebpf4jnsgd1na2vs0mg"},{"bike_id":"b51b8509-c21e-40ac-802b-edd56e55cdd0","system_id":"levelo_inurba_marseille","lat":43.303684,"lon":5.418776,"is_reserved":false,"is_disabled":true,"rental_uris":{"android":"levelo://app?vid=b51b8509-c21e-40ac-802b-edd56e55cdd0","ios":"levelo://app?vid=b51b8509-c21e-40ac-802b-edd56e55cdd0"},"vehicle_type_id":"4","last_reported":1736881607,"current_range_meters":19200,"station_id":"ce4bhop2rcd13ifvqh7g","pricing_plan_id":"cebpf4jnsgd1na2vs0mg"},{"bike_id":"fc40e8b5-f2b4-4e7d-bb2c-7da6142f0f77","system_id":"levelo_inurba_marseille","lat":43.26786,"lon":5.39422,"is_reserved":false,"is_disabled":false,"rental_uris":{"android":"levelo://app?vid=fc40e8b5-f2b4-4e7d-bb2c-7da6142f0f77","ios":"levelo://app?vid=fc40e8b5-f2b4-4e7d-bb2c-7da6142f0f77"},"vehicle_type_id":"4","last_reported":1736881607,"current_range_meters":31200,"station_id":"ce4bh3h2rcd13ifvqdn0","pricing_plan_id":"cebpf4jnsgd1na2vs0mg"},{"bike_id":"91faf942-6ac2-4015-8913-27ed845296fd","system_id":"levelo_inurba_marseille","lat":43.289463,"lon":5.363943,"is_reserved":false,"is_disabled":false,"rental_uris":{"android":"levelo://app?vid=91faf942-6ac2-4015-8913-27ed845296fd","ios":"levelo://app?vid=91faf942-6ac2-4015-8913-27ed845296fd"},"vehicle_type_id":"4","last_reported":1736881607,"current_range_meters":38800,"station_id":"ce4bhc92rcd13ifvqetg","pricing_plan_id":"cebpf4jnsgd1na2vs0mg"},{"bike_id":"a08ab7ce-22de-4410-90d6-311926d5d064","system_id":"levelo_inurba_marseille","lat":43.27059,"lon":5.40258,"is_reserved":false,"is_disabled":true,"rental_uris":{"android":"levelo://app?vid=a08ab7ce-22de-4410-90d6-311926d5d064","ios":"levelo://app?vid=a08ab7ce-22de-4410-90d6-311926d5d064"},"vehicle_type_id":"4","last_reported":1736881607,"current_range_meters":800,"station_id":"ce4bhk92rcd13ifvqgc0","pricing_plan_id":"cebpf4jnsgd1na2vs0mg"},{"bike_id":"111be7c2-f906-4453-b3c6-63975cd74396","system_id":"levelo_inurba_marseille","lat":43.28445,"lon":5.35894,"is_reserved":false,"is_disabled":false,"rental_uris":{"android":"levelo://app?vid=111be7c2-f906-4453-b3c6-63975cd74396","ios":"levelo://app?vid=111be7c2-f906-4453-b3c6-63975cd74396"},"vehicle_type_id":"4","last_reported":1736881607,"current_range_meters":24800,"station_id":"ce4bhah2rcd13ifvqei0","pricing_plan_id":"cebpf4jnsgd1na2vs0mg"},{"bike_id":"5a91ba28-6bde-4a64-ab8b-4c3edb00bfd7","system_id":"levelo_inurba_marseille","lat":43.27854,"lon":5.40654,"is_reserved":false,"is_disabled":false,"rental_uris":{"android":"levelo://app?vid=5a91ba28-6bde-4a64-ab8b-4c3edb00bfd7","ios":"levelo://app?vid=5a91ba28-6bde-4a64-ab8b-4c3edb00bfd7"},"vehicle_type_id":"4","last_reported":1736881607,"current_range_meters":11200,"station_id":"","pricing_plan_id":"cebpf4jnsgd1na2vs0mg"},{"bike_id":"b3e35a67-739e-4943-9329-8541a5d64a33","system_id":"levelo_inurba_marseille","lat":43.25084,"lon":5.395217,"is_reserved":false,"is_disabled":false,"rental_uris":{"android":"levelo://app?vid=b3e35a67-739e-4943-9329-8541a5d64a33","ios":"levelo://app?vid=b3e35a67-739e-4943-9329-8541a5d64a33"},"vehicle_type_id":"4","last_reported":1736881607,"current_range_meters":26800,"station_id":"ce4bhm12rcd13ifvqgkg","pricing_plan_id":"cebpf4jnsgd1na2vs0mg"},{"bike_id":"13d8461e-0932-4011-b23f-f1f784c30a3e","system_id":"levelo_inurba_marseille","lat":43.25007,"lon":5.38923,"is_reserved":false,"is_disabled":true,"rental_uris":{"android":"levelo://app?vid=13d8461e-0932-4011-b23f-f1f784c30a3e","ios":"levelo://app?vid=13d8461e-0932-4011-b23f-f1f784c30a3e"},"vehicle_type_id":"4","last_reported":1736881607,"current_range_meters":7200,"station_id":"ce4bhgp2rcd13ifvqfd0","pricing_plan_id":"cebpf4jnsgd1na2vs0mg"},{"bike_id":"3c42eb6e-b83c-4077-9ca9-b135c2481755","system_id":"levelo_inurba_marseille","lat":43.23192,"lon":5.39993,"is_reserved":false,"is_disabled":false,"rental_uris":{"android":"levelo://app?vid=3c42eb6e-b83c-4077-9ca9-b135c2481755","ios":"levelo://app?vid=3c42eb6e-b83c-4077-9ca9-b135c2481755"},"vehicle_type_id":"4","last_reported":1736881607,"current_range_meters":38800,"station_id":"ce4bhn12rcd13ifvqgqg","pricing_plan_id":"cebpf4jnsgd1na2vs0mg"},{"bike_id":"6d5531ab-8481-4086-b696-2b5d290876aa","system_id":"levelo_inurba_marseille","lat":43.27054,"lon":5.40265,"is_reserved":false,"is_disabled":false,"rental_uris":{"android":"levelo://app?vid=6d5531ab-8481-4086-b696-2b5d290876aa","ios":"levelo://app?vid=6d5531ab-8481-4086-b696-2b5d290876aa"},"vehicle_type_id":"4","last_reported":1736881607,"current_range_meters":12400,"station_id":"ce4bhk92rcd13ifvqgc0","pricing_plan_id":"cebpf4jnsgd1na2vs0mg"},{"bike_id":"6322901f-2bee-4208-bc0a-7bd3834979b7","system_id":"levelo_inurba_marseille","lat":43.31066,"lon":5.38343,"is_reserved":false,"is_disabled":false,"rental_uris":{"android":"levelo://app?vid=6322901f-2bee-4208-bc0a-7bd3834979b7","ios":"levelo://app?vid=6322901f-2bee-4208-bc0a-7bd3834979b7"},"vehicle_type_id":"4","last_reported":1736881607,"current_range_meters":7200,"station_id":"ce4bgv92rcd13ifvqcr0","pricing_plan_id":"cebpf4jnsgd1na2vs0mg"},{"bike_id":"f0e8402d-4472-47c3-8835-de5a76db090e","system_id":"levelo_inurba_marseille","lat":43.31069,"lon":5.38341,"is_reserved":false,"is_disabled":false,"rental_uris":{"android":"levelo://app?vid=f0e8402d-4472-47c3-8835-de5a76db090e","ios":"levelo://app?vid=f0e8402d-4472-47c3-8835-de5a76db090e"},"vehicle_type_id":"4","last_reported":1736881607,"current_range_meters":12400,"station_id":"ce4bgv92rcd13ifvqcr0","pricing_plan_id":"cebpf4jnsgd1na2vs0mg"},{"bike_id":"54562beb-d62d-45a9-aee6-6ac8321e0e4a","system_id":"levelo_inurba_marseille","lat":43.29796,"lon":5.40413,"is_reserved":false,"is_disabled":false,"rental_uris":{"android":"levelo://app?vid=54562beb-d62d-45a9-aee6-6ac8321e0e4a","ios":"levelo://app?vid=54562beb-d62d-45a9-aee6-6ac8321e0e4a"},"vehicle_type_id":"4","last_reported":1736881607,"current_range_meters":4800,"station_id":"ce4bh112rcd13ifvqd90","pricing_plan_id":"cebpf4jnsgd1na2vs0mg"},{"bike_id":"3ab26579-f4e3-4bf0-af70-a98271b1c8a7","system_id":"levelo_inurba_marseille","lat":43.32365,"lon":5.38878,"is_reserved":false,"is_disabled":false,"rental_uris":{"android":"levelo://app?vid=3ab26579-f4e3-4bf0-af70-a98271b1c8a7","ios":"levelo://app?vid=3ab26579-f4e3-4bf0-af70-a98271b1c8a7"},"vehicle_type_id":"4","last_reported":1736881607,"current_range_meters":28800,"station_id":"ce4bhqp2rcd13ifvqhog","pricing_plan_id":"cebpf4jnsgd1na2vs0mg"},{"bike_id":"37e21327-f1c3-4576-8bd9-3d96e9b29284","system_id":"levelo_inurba_marseille","lat":43.24651,"lon":5.38892,"is_reserved":false,"is_disabled":false,"rental_uris":{"android":"levelo://app?vid=37e21327-f1c3-4576-8bd9-3d96e9b29284","ios":"levelo://app?vid=37e21327-f1c3-4576-8bd9-3d96e9b29284"},"vehicle_type_id":"4","last_reported":1736881607,"current_range_meters":16400,"station_id":"ce4bhg12rcd13ifvqf60","pricing_plan_id":"cebpf4jnsgd1na2vs0mg"},{"bike_id":"96288e4c-2217-4363-a43b-27b3c199235a","system_id":"levelo_inurba_marseille","lat":43.28429,"lon":5.39195,"is_reserved":false,"is_disabled":false,"rental_uris":{"android":"levelo://app?vid=96288e4c-2217-4363-a43b-27b3c199235a","ios":"levelo://app?vid=96288e4c-2217-4363-a43b-27b3c199235a"},"vehicle_type_id":"4","last_reported":1736881607,"current_range_meters":38800,"station_id":"ce4bhoh2rcd13ifvqh5g","pricing_plan_id":"cebpf4jnsgd1na2vs0mg"},{"bike_id":"fc5a2978-9e81-40aa-befb-f736a12e7b56","system_id":"levelo_inurba_marseille","lat":43.31755,"lon":5.39025,"is_reserved":false,"is_disabled":false,"rental_uris":{"android":"levelo://app?vid=fc5a2978-9e81-40aa-befb-f736a12e7b56","ios":"levelo://app?vid=fc5a2978-9e81-40aa-befb-f736a12e7b56"},"vehicle_type_id":"4","last_reported":1736881607,"current_range_meters":19200,"station_id":"ce4bhqp2rcd13ifvqhng","pricing_plan_id":"cebpf4jnsgd1na2vs0mg"},{"bike_id":"2f6e45dc-8b02-48ec-829a-2aee59c930e5","system_id":"levelo_inurba_marseille","lat":43.25586,"lon":5.38224,"is_reserved":false,"is_disabled":false,"rental_uris":{"android":"levelo://app?vid=2f6e45dc-8b02-48ec-829a-2aee59c930e5","ios":"levelo://app?vid=2f6e45dc-8b02-48ec-829a-2aee59c930e5"},"vehicle_type_id":"4","last_reported":1736881607,"current_range_meters":28000,"station_id":"ce4bhih2rcd13ifvqfs0","pricing_plan_id":"cebpf4jnsgd1na2vs0mg"},{"bike_id":"5e0bd420-4c65-4345-b4eb-55d89b7d66fc","system_id":"levelo_inurba_marseille","lat":43.2942,"lon":5.38618,"is_reserved":false,"is_disabled":false,"rental_uris":{"android":"levelo://app?vid=5e0bd420-4c65-4345-b4eb-55d89b7d66fc","ios":"levelo://app?vid=5e0bd420-4c65-4345-b4eb-55d89b7d66fc"},"vehicle_type_id":"4","last_reported":1736881607,"current_range_meters":3600,"station_id":"ce4bh2h2rcd13ifvqdh0","pricing_plan_id":"cebpf4jnsgd1na2vs0mg"},{"bike_id":"6aaac62b-46d6-4196-b308-1f0e2230de84","system_id":"levelo_inurba_marseille","lat":43.28937,"lon":5.36629,"is_reserved":false,"is_disabled":false,"rental_uris":{"android":"levelo://app?vid=6aaac62b-46d6-4196-b308-1f0e2230de84","ios":"levelo://app?vid=6aaac62b-46d6-4196-b308-1f0e2230de84"},"vehicle_type_id":"4","last_reported":1736881607,"current_range_meters":38800,"station_id":"ce4bhap2rcd13ifvqek0","pricing_plan_id":"cebpf4jnsgd1na2vs0mg"},{"bike_id":"89e8502c-673d-4d8d-b382-80aba549655d","system_id":"levelo_inurba_marseille","lat":43.30596,"lon":5.39353,"is_reserved":false,"is_disabled":false,"rental_uris":{"android":"levelo://app?vid=89e8502c-673d-4d8d-b382-80aba549655d","ios":"levelo://app?vid=89e8502c-673d-4d8d-b382-80aba549655d"},"vehicle_type_id":"4","last_reported":1736881607,"current_range_meters":35200,"station_id":"ce4bh0p2rcd13ifvqd80","pricing_plan_id":"cebpf4jnsgd1na2vs0mg"},{"bike_id":"1a23c17e-4cab-4d89-88e4-c8c2f893f773","system_id":"levelo_inurba_marseille","lat":43.30135,"lon":5.38783,"is_reserved":false,"is_disabled":false,"rental_uris":{"android":"levelo://app?vid=1a23c17e-4cab-4d89-88e4-c8c2f893f773","ios":"levelo://app?vid=1a23c17e-4cab-4d89-88e4-c8c2f893f773"},"vehicle_type_id":"4","last_reported":1736881607,"current_range_meters":9200,"station_id":"ce4bghh2rcd13ifvqb60","pricing_plan_id":"cebpf4jnsgd1na2vs0mg"},{"bike_id":"1d69fa01-40f1-416c-b4f3-f232b3810737","system_id":"levelo_inurba_marseille","lat":43.26778,"lon":5.39419,"is_reserved":false,"is_disabled":false,"rental_uris":{"android":"levelo://app?vid=1d69fa01-40f1-416c-b4f3-f232b3810737","ios":"levelo://app?vid=1d69fa01-40f1-416c-b4f3-f232b3810737"},"vehicle_type_id":"4","last_reported":1736881607,"current_range_meters":36000,"station_id":"ce4bhh12rcd13ifvqfg0","pricing_plan_id":"cebpf4jnsgd1na2vs0mg"},{"bike_id":"26ba2c8d-12cc-40f5-bb48-b0ea9a048c9c","system_id":"levelo_inurba_marseille","lat":43.31713,"lon":5.43707,"is_reserved":false,"is_disabled":false,"rental_uris":{"android":"levelo://app?vid=26ba2c8d-12cc-40f5-bb48-b0ea9a048c9c","ios":"levelo://app?vid=26ba2c8d-12cc-40f5-bb48-b0ea9a048c9c"},"vehicle_type_id":"4","last_reported":1736881607,"current_range_meters":28000,"station_id":"ce4bhp92rcd13ifvqhcg","pricing_plan_id":"cebpf4jnsgd1na2vs0mg"},{"bike_id":"58d59913-a7c1-455a-8720-49c6564ff436","system_id":"levelo_inurba_marseille","lat":43.31325,"lon":5.39708,"is_reserved":false,"is_disabled":false,"rental_uris":{"android":"levelo://app?vid=58d59913-a7c1-455a-8720-49c6564ff436","ios":"levelo://app?vid=58d59913-a7c1-455a-8720-49c6564ff436"},"vehicle_type_id":"4","last_reported":1736881607,"current_range_meters":36800,"station_id":"ce4bgvp2rcd13ifvqcu0","pricing_plan_id":"cebpf4jnsgd1na2vs0mg"},{"bike_id":"5f23a61a-7e7d-465e-942d-98e84a6e0f49","system_id":"levelo_inurba_marseille","lat":43.24808,"lon":5.37456,"is_reserved":false,"is_disabled":false,"rental_uris":{"android":"levelo://app?vid=5f23a61a-7e7d-465e-942d-98e84a6e0f49","ios":"levelo://app?vid=5f23a61a-7e7d-465e-942d-98e84a6e0f49"},"vehicle_type_id":"4","last_reported":1736881607,"current_range_meters":36800,"station_id":"ce4bhgh2rcd13ifvqfb0","pricing_plan_id":"cebpf4jnsgd1na2vs0mg"},{"bike_id":"a86ccf68-5442-4ec9-98dc-c56a29851cd0","system_id":"levelo_inurba_marseille","lat":43.28942,"lon":5.3664,"is_reserved":false,"is_disabled":false,"rental_uris":{"android":"levelo://app?vid=a86ccf68-5442-4ec9-98dc-c56a29851cd0","ios":"levelo://app?vid=a86ccf68-5442-4ec9-98dc-c56a29851cd0"},"vehicle_type_id":"4","last_reported":1736881607,"current_range_meters":25600,"station_id":"ce4bhap2rcd13ifvqek0","pricing_plan_id":"cebpf4jnsgd1na2vs0mg"},{"bike_id":"f6449d14-99b5-4769-aa60-681d491580b1","system_id":"levelo_inurba_marseille","lat":43.26939,"lon":5.40261,"is_reserved":false,"is_disabled":false,"rental_uris":{"android":"levelo://app?vid=f6449d14-99b5-4769-aa60-681d491580b1","ios":"levelo://app?vid=f6449d14-99b5-4769-aa60-681d491580b1"},"vehicle_type_id":"4","last_reported":1736881607,"current_range_meters":27200,"station_id":"cjm6bp8fraef2m0cb0m0","pricing_plan_id":"cebpf4jnsgd1na2vs0mg"},{"bike_id":"366ffd9b-7407-41c0-898f-269cdc263249","system_id":"levelo_inurba_marseille","lat":43.30932,"lon":5.36841,"is_reserved":false,"is_disabled":false,"rental_uris":{"android":"levelo://app?vid=366ffd9b-7407-41c0-898f-269cdc263249","ios":"levelo://app?vid=366ffd9b-7407-41c0-898f-269cdc263249"},"vehicle_type_id":"4","last_reported":1736881607,"current_range_meters":4800,"station_id":"ce4bgn92rcd13ifvqbvg","pricing_plan_id":"cebpf4jnsgd1na2vs0mg"},{"bike_id":"d42ddf67-1396-4c81-baf7-8e42c2318a26","system_id":"levelo_inurba_marseille","lat":43.26956,"lon":5.38635,"is_reserved":false,"is_disabled":false,"rental_uris":{"android":"levelo://app?vid=d42ddf67-1396-4c81-baf7-8e42c2318a26","ios":"levelo://app?vid=d42ddf67-1396-4c81-baf7-8e42c2318a26"},"vehicle_type_id":"4","last_reported":1736881607,"current_range_meters":4400,"station_id":"ce4bhh92rcd13ifvqfh0","pricing_plan_id":"cebpf4jnsgd1na2vs0mg"},{"bike_id":"08b253e1-f984-44a7-af5f-77a50497e2f5","system_id":"levelo_inurba_marseille","lat":43.27326,"lon":5.39092,"is_reserved":false,"is_disabled":false,"rental_uris":{"android":"levelo://app?vid=08b253e1-f984-44a7-af5f-77a50497e2f5","ios":"levelo://app?vid=08b253e1-f984-44a7-af5f-77a50497e2f5"},"vehicle_type_id":"4","last_reported":1736881607,"current_range_meters":35200,"station_id":"ce4bhgp2rcd13ifvqfe0","pricing_plan_id":"cebpf4jnsgd1na2vs0mg"},{"bike_id":"cc586619-9f4c-4e1f-8ceb-9e7cdaff08aa","system_id":"levelo_inurba_marseille","lat":43.31178,"lon":5.38718,"is_reserved":false,"is_disabled":false,"rental_uris":{"android":"levelo://app?vid=cc586619-9f4c-4e1f-8ceb-9e7cdaff08aa","ios":"levelo://app?vid=cc586619-9f4c-4e1f-8ceb-9e7cdaff08aa"},"vehicle_type_id":"4","last_reported":1736881607,"current_range_meters":34800,"station_id":"ce4bgv12rcd13ifvqcp0","pricing_plan_id":"cebpf4jnsgd1na2vs0mg"},{"bike_id":"ae6a24c6-71f9-417a-adfe-c09c90280637","system_id":"levelo_inurba_marseille","lat":43.265484,"lon":5.372913,"is_reserved":false,"is_disabled":false,"rental_uris":{"android":"levelo://app?vid=ae6a24c6-71f9-417a-adfe-c09c90280637","ios":"levelo://app?vid=ae6a24c6-71f9-417a-adfe-c09c90280637"},"vehicle_type_id":"4","last_reported":1736881607,"current_range_meters":38800,"station_id":"ce4bhg12rcd13ifvqf70","pricing_plan_id":"cebpf4jnsgd1na2vs0mg"},{"bike_id":"31ca8b0e-c72e-47d4-a59b-a2766db72931","system_id":"levelo_inurba_marseille","lat":43.28411,"lon":5.40935,"is_reserved":false,"is_disabled":true,"rental_uris":{"android":"levelo://app?vid=31ca8b0e-c72e-47d4-a59b-a2766db72931","ios":"levelo://app?vid=31ca8b0e-c72e-47d4-a59b-a2766db72931"},"vehicle_type_id":"4","last_reported":1736881607,"current_range_meters":33600,"station_id":"","pricing_plan_id":"cebpf4jnsgd1na2vs0mg"},{"bike_id":"ec07fc30-5fe0-438e-a70f-83f634904c78","system_id":"levelo_inurba_marseille","lat":43.26198,"lon":5.37926,"is_reserved":false,"is_disabled":false,"rental_uris":{"android":"levelo://app?vid=ec07fc30-5fe0-438e-a70f-83f634904c78","ios":"levelo://app?vid=ec07fc30-5fe0-438e-a70f-83f634904c78"},"vehicle_type_id":"4","last_reported":1736881607,"current_range_meters":38800,"station_id":"ce4bhjp2rcd13ifvqg90","pricing_plan_id":"cebpf4jnsgd1na2vs0mg"},{"bike_id":"be340c0f-88b7-44d8-9521-d55f30bb2565","system_id":"levelo_inurba_marseille","lat":43.30949,"lon":5.39016,"is_reserved":false,"is_disabled":true,"rental_uris":{"android":"levelo://app?vid=be340c0f-88b7-44d8-9521-d55f30bb2565","ios":"levelo://app?vid=be340c0f-88b7-44d8-9521-d55f30bb2565"},"vehicle_type_id":"4","last_reported":1736881607,"current_range_meters":16000,"station_id":"ce4bgup2rcd13ifvqco0","pricing_plan_id":"cebpf4jnsgd1na2vs0mg"},{"bike_id":"60c48e84-151f-4edd-83cd-789ff87c7f63","system_id":"levelo_inurba_marseille","lat":43.28704,"lon":5.37393,"is_reserved":false,"is_disabled":true,"rental_uris":{"android":"levelo://app?vid=60c48e84-151f-4edd-83cd-789ff87c7f63","ios":"levelo://app?vid=60c48e84-151f-4edd-83cd-789ff87c7f63"},"vehicle_type_id":"4","last_reported":1736881607,"current_range_meters":32000,"station_id":"ce4bh3p2rcd13ifvqdq0","pricing_plan_id":"cebpf4jnsgd1na2vs0mg"},{"bike_id":"d4bd3ca0-48a8-4b8f-8823-cc0d13d0ab16","system_id":"levelo_inurba_marseille","lat":43.28075,"lon":5.39657,"is_reserved":false,"is_disabled":false,"rental_uris":{"android":"levelo://app?vid=d4bd3ca0-48a8-4b8f-8823-cc0d13d0ab16","ios":"levelo://app?vid=d4bd3ca0-48a8-4b8f-8823-cc0d13d0ab16"},"vehicle_type_id":"4","last_reported":1736881607,"current_range_meters":38000,"station_id":"ce4bho12rcd13ifvqh2g","pricing_plan_id":"cebpf4jnsgd1na2vs0mg"},{"bike_id":"fa8a30c7-7295-4469-b66e-9b5a43015aac","system_id":"levelo_inurba_marseille","lat":43.33011,"lon":5.39032,"is_reserved":false,"is_disabled":false,"rental_uris":{"android":"levelo://app?vid=fa8a30c7-7295-4469-b66e-9b5a43015aac","ios":"levelo://app?vid=fa8a30c7-7295-4469-b66e-9b5a43015aac"},"vehicle_type_id":"4","last_reported":1736881607,"current_range_meters":38800,"station_id":"ce4bhr92rcd13ifvqhrg","pricing_plan_id":"cebpf4jnsgd1na2vs0mg"},{"bike_id":"90f49f45-490f-4281-890b-c49241a10d97","system_id":"levelo_inurba_marseille","lat":43.27912,"lon":5.39594,"is_reserved":false,"is_disabled":false,"rental_uris":{"android":"levelo://app?vid=90f49f45-490f-4281-890b-c49241a10d97","ios":"levelo://app?vid=90f49f45-490f-4281-890b-c49241a10d97"},"vehicle_type_id":"4","last_reported":1736881607,"current_range_meters":30000,"station_id":"ce4bhf92rcd13ifvqf40","pricing_plan_id":"cebpf4jnsgd1na2vs0mg"},{"bike_id":"e73e4dfd-c1fe-4807-b6ae-ca82989529eb","system_id":"levelo_inurba_marseille","lat":43.29007,"lon":5.35608,"is_reserved":false,"is_disabled":false,"rental_uris":{"android":"levelo://app?vid=e73e4dfd-c1fe-4807-b6ae-ca82989529eb","ios":"levelo://app?vid=e73e4dfd-c1fe-4807-b6ae-ca82989529eb"},"vehicle_type_id":"4","last_reported":1736881607,"current_range_meters":39200,"station_id":"ce4bhb92rcd13ifvqen0","pricing_plan_id":"cebpf4jnsgd1na2vs0mg"},{"bike_id":"de05f028-7450-4792-8d5b-e268410faa9d","system_id":"levelo_inurba_marseille","lat":43.320943,"lon":5.367856,"is_reserved":false,"is_disabled":false,"rental_uris":{"android":"levelo://app?vid=de05f028-7450-4792-8d5b-e268410faa9d","ios":"levelo://app?vid=de05f028-7450-4792-8d5b-e268410faa9d"},"vehicle_type_id":"4","last_reported":1736881607,"current_range_meters":28000,"station_id":"ce4bhrh2rcd13ifvqhug","pricing_plan_id":"cebpf4jnsgd1na2vs0mg"},{"bike_id":"e8a7b18f-324f-4d29-886f-77b85b80b2c6","system_id":"levelo_inurba_marseille","lat":43.24072,"lon":5.37766,"is_reserved":false,"is_disabled":false,"rental_uris":{"android":"levelo://app?vid=e8a7b18f-324f-4d29-886f-77b85b80b2c6","ios":"levelo://app?vid=e8a7b18f-324f-4d29-886f-77b85b80b2c6"},"vehicle_type_id":"4","last_reported":1736881607,"current_range_meters":3600,"station_id":"ce4bhnp2rcd13ifvqgvg","pricing_plan_id":"cebpf4jnsgd1na2vs0mg"},{"bike_id":"c7245aca-14fc-481b-802f-513acc5b2a9d","system_id":"levelo_inurba_marseille","lat":43.25581,"lon":5.38235,"is_reserved":false,"is_disabled":false,"rental_uris":{"android":"levelo://app?vid=c7245aca-14fc-481b-802f-513acc5b2a9d","ios":"levelo://app?vid=c7245aca-14fc-481b-802f-513acc5b2a9d"},"vehicle_type_id":"4","last_reported":1736881607,"current_range_meters":4400,"station_id":"ce4bhih2rcd13ifvqfs0","pricing_plan_id":"cebpf4jnsgd1na2vs0mg"},{"bike_id":"12c84dc1-55d9-4869-8c9f-6a156dfc584a","system_id":"levelo_inurba_marseille","lat":43.27826,"lon":5.4071,"is_reserved":false,"is_disabled":false,"rental_uris":{"android":"levelo://app?vid=12c84dc1-55d9-4869-8c9f-6a156dfc584a","ios":"levelo://app?vid=12c84dc1-55d9-4869-8c9f-6a156dfc584a"},"vehicle_type_id":"4","last_reported":1736881607,"current_range_meters":30800,"station_id":"ce4bhnh2rcd13ifvqgtg","pricing_plan_id":"cebpf4jnsgd1na2vs0mg"},{"bike_id":"d85168cd-cda5-48df-a191-5048004ec8d2","system_id":"levelo_inurba_marseille","lat":43.25087,"lon":5.39513,"is_reserved":false,"is_disabled":false,"rental_uris":{"android":"levelo://app?vid=d85168cd-cda5-48df-a191-5048004ec8d2","ios":"levelo://app?vid=d85168cd-cda5-48df-a191-5048004ec8d2"},"vehicle_type_id":"4","last_reported":1736881607,"current_range_meters":38800,"station_id":"ce4bhm12rcd13ifvqgkg","pricing_plan_id":"cebpf4jnsgd1na2vs0mg"},{"bike_id":"4c818115-edb7-45ff-874f-75ea72cefd74","system_id":"levelo_inurba_marseille","lat":43.31264,"lon":5.40163,"is_reserved":false,"is_disabled":false,"rental_uris":{"android":"levelo://app?vid=4c818115-edb7-45ff-874f-75ea72cefd74","ios":"levelo://app?vid=4c818115-edb7-45ff-874f-75ea72cefd74"},"vehicle_type_id":"4","last_reported":1736881607,"current_range_meters":22400,"station_id":"ce4bh092rcd13ifvqd30","pricing_plan_id":"cebpf4jnsgd1na2vs0mg"},{"bike_id":"8f3d19ca-6788-4fa8-a3b9-31a1f06d17f5","system_id":"levelo_inurba_marseille","lat":43.2805,"lon":5.36934,"is_reserved":false,"is_disabled":false,"rental_uris":{"android":"levelo://app?vid=8f3d19ca-6788-4fa8-a3b9-31a1f06d17f5","ios":"levelo://app?vid=8f3d19ca-6788-4fa8-a3b9-31a1f06d17f5"},"vehicle_type_id":"4","last_reported":1736881607,"current_range_meters":38800,"station_id":"ce4bha12rcd13ifvqef0","pricing_plan_id":"cebpf4jnsgd1na2vs0mg"},{"bike_id":"7ab18eaa-fb49-4cb7-a02a-75b674d810ba","system_id":"levelo_inurba_marseille","lat":43.32365,"lon":5.38889,"is_reserved":false,"is_disabled":false,"rental_uris":{"android":"levelo://app?vid=7ab18eaa-fb49-4cb7-a02a-75b674d810ba","ios":"levelo://app?vid=7ab18eaa-fb49-4cb7-a02a-75b674d810ba"},"vehicle_type_id":"4","last_reported":1736881607,"current_range_meters":30000,"station_id":"ce4bhqp2rcd13ifvqhog","pricing_plan_id":"cebpf4jnsgd1na2vs0mg"},{"bike_id":"415c44d6-1956-4b43-9753-fb0ed6cfdd93","system_id":"levelo_inurba_marseille","lat":43.26067,"lon":5.39392,"is_reserved":false,"is_disabled":false,"rental_uris":{"android":"levelo://app?vid=415c44d6-1956-4b43-9753-fb0ed6cfdd93","ios":"levelo://app?vid=415c44d6-1956-4b43-9753-fb0ed6cfdd93"},"vehicle_type_id":"4","last_reported":1736881607,"current_range_meters":38800,"station_id":"ce4bhh92rcd13ifvqfj0","pricing_plan_id":"cebpf4jnsgd1na2vs0mg"},{"bike_id":"4617d328-5e3d-47fe-baf1-2f30cf998668","system_id":"levelo_inurba_marseille","lat":43.30419,"lon":5.41289,"is_reserved":false,"is_disabled":false,"rental_uris":{"android":"levelo://app?vid=4617d328-5e3d-47fe-baf1-2f30cf998668","ios":"levelo://app?vid=4617d328-5e3d-47fe-baf1-2f30cf998668"},"vehicle_type_id":"4","last_reported":1736881607,"current_range_meters":38800,"station_id":"ce4bhop2rcd13ifvqh8g","pricing_plan_id":"cebpf4jnsgd1na2vs0mg"},{"bike_id":"6280e12b-8c99-470a-acaf-04cfe5b073d5","system_id":"levelo_inurba_marseille","lat":43.27167,"lon":5.40996,"is_reserved":false,"is_disabled":false,"rental_uris":{"android":"levelo://app?vid=6280e12b-8c99-470a-acaf-04cfe5b073d5","ios":"levelo://app?vid=6280e12b-8c99-470a-acaf-04cfe5b073d5"},"vehicle_type_id":"4","last_reported":1736881607,"current_range_meters":39200,"station_id":"ce4bhl12rcd13ifvqgf0","pricing_plan_id":"cebpf4jnsgd1na2vs0mg"},{"bike_id":"a1d695d9-a774-43ab-b8b8-bffc67e8f15b","system_id":"levelo_inurba_marseille","lat":43.25578,"lon":5.38248,"is_reserved":false,"is_disabled":false,"rental_uris":{"android":"levelo://app?vid=a1d695d9-a774-43ab-b8b8-bffc67e8f15b","ios":"levelo://app?vid=a1d695d9-a774-43ab-b8b8-bffc67e8f15b"},"vehicle_type_id":"4","last_reported":1736881607,"current_range_meters":14800,"station_id":"ce4bhih2rcd13ifvqfs0","pricing_plan_id":"cebpf4jnsgd1na2vs0mg"},{"bike_id":"6626123f-fe94-432c-ac35-4da06f4a5179","system_id":"levelo_inurba_marseille","lat":43.27321,"lon":5.39061,"is_reserved":false,"is_disabled":false,"rental_uris":{"android":"levelo://app?vid=6626123f-fe94-432c-ac35-4da06f4a5179","ios":"levelo://app?vid=6626123f-fe94-432c-ac35-4da06f4a5179"},"vehicle_type_id":"4","last_reported":1736881607,"current_range_meters":26000,"station_id":"ce4bhgp2rcd13ifvqfe0","pricing_plan_id":"cebpf4jnsgd1na2vs0mg"},{"bike_id":"f62a7ed4-7c80-4ed8-9568-a4dea62069d1","system_id":"levelo_inurba_marseille","lat":43.28092,"lon":5.39676,"is_reserved":false,"is_disabled":false,"rental_uris":{"android":"levelo://app?vid=f62a7ed4-7c80-4ed8-9568-a4dea62069d1","ios":"levelo://app?vid=f62a7ed4-7c80-4ed8-9568-a4dea62069d1"},"vehicle_type_id":"4","last_reported":1736881607,"current_range_meters":24400,"station_id":"ce4bho12rcd13ifvqh2g","pricing_plan_id":"cebpf4jnsgd1na2vs0mg"},{"bike_id":"4467d7f9-67af-4647-b1b3-f3a1d228515b","system_id":"levelo_inurba_marseille","lat":43.26951,"lon":5.38631,"is_reserved":false,"is_disabled":true,"rental_uris":{"android":"levelo://app?vid=4467d7f9-67af-4647-b1b3-f3a1d228515b","ios":"levelo://app?vid=4467d7f9-67af-4647-b1b3-f3a1d228515b"},"vehicle_type_id":"4","last_reported":1736881607,"current_range_meters":1600,"station_id":"ce4bhh92rcd13ifvqfh0","pricing_plan_id":"cebpf4jnsgd1na2vs0mg"},{"bike_id":"710d5833-8ac1-4145-921e-ea3e3ff0b4a7","system_id":"levelo_inurba_marseille","lat":43.28957,"lon":5.36389,"is_reserved":false,"is_disabled":false,"rental_uris":{"android":"levelo://app?vid=710d5833-8ac1-4145-921e-ea3e3ff0b4a7","ios":"levelo://app?vid=710d5833-8ac1-4145-921e-ea3e3ff0b4a7"},"vehicle_type_id":"4","last_reported":1736881607,"current_range_meters":38800,"station_id":"ce4bhc92rcd13ifvqetg","pricing_plan_id":"cebpf4jnsgd1na2vs0mg"},{"bike_id":"2d299aa8-68d1-40ea-a1d0-c766b33ee2bf","system_id":"levelo_inurba_marseille","lat":43.26926,"lon":5.40251,"is_reserved":false,"is_disabled":false,"rental_uris":{"android":"levelo://app?vid=2d299aa8-68d1-40ea-a1d0-c766b33ee2bf","ios":"levelo://app?vid=2d299aa8-68d1-40ea-a1d0-c766b33ee2bf"},"vehicle_type_id":"4","last_reported":1736881607,"current_range_meters":38800,"station_id":"cjm6bp8fraef2m0cb0m0","pricing_plan_id":"cebpf4jnsgd1na2vs0mg"},{"bike_id":"11f8d0bd-700f-44c3-884c-632478828218","system_id":"levelo_inurba_marseille","lat":43.28617,"lon":5.35096,"is_reserved":false,"is_disabled":false,"rental_uris":{"android":"levelo://app?vid=11f8d0bd-700f-44c3-884c-632478828218","ios":"levelo://app?vid=11f8d0bd-700f-44c3-884c-632478828218"},"vehicle_type_id":"4","last_reported":1736881607,"current_range_meters":9600,"station_id":"ce4bhch2rcd13ifvqeug","pricing_plan_id":"cebpf4jnsgd1na2vs0mg"},{"bike_id":"8534aaf4-535f-4db5-8998-0f97ef68ef36","system_id":"levelo_inurba_marseille","lat":43.24407,"lon":5.37056,"is_reserved":false,"is_disabled":false,"rental_uris":{"android":"levelo://app?vid=8534aaf4-535f-4db5-8998-0f97ef68ef36","ios":"levelo://app?vid=8534aaf4-535f-4db5-8998-0f97ef68ef36"},"vehicle_type_id":"4","last_reported":1736881607,"current_range_meters":18800,"station_id":"ce4bhhh2rcd13ifvqfk0","pricing_plan_id":"cebpf4jnsgd1na2vs0mg"},{"bike_id":"b2c33e7b-da8a-4cda-ab12-4bcf5000aca5","system_id":"levelo_inurba_marseille","lat":43.27638,"lon":5.36102,"is_reserved":false,"is_disabled":false,"rental_uris":{"android":"levelo://app?vid=b2c33e7b-da8a-4cda-ab12-4bcf5000aca5","ios":"levelo://app?vid=b2c33e7b-da8a-4cda-ab12-4bcf5000aca5"},"vehicle_type_id":"4","last_reported":1736881607,"current_range_meters":31200,"station_id":"ce4bgj92rcd13ifvqbe0","pricing_plan_id":"cebpf4jnsgd1na2vs0mg"},{"bike_id":"653ae99f-696c-4168-8b30-4ae3b34b9acf","system_id":"levelo_inurba_marseille","lat":43.296989,"lon":5.376949,"is_reserved":false,"is_disabled":false,"rental_uris":{"android":"levelo://app?vid=653ae99f-696c-4168-8b30-4ae3b34b9acf","ios":"levelo://app?vid=653ae99f-696c-4168-8b30-4ae3b34b9acf"},"vehicle_type_id":"4","last_reported":1736881607,"current_range_meters":38400,"station_id":"","pricing_plan_id":"cebpf4jnsgd1na2vs0mg"},{"bike_id":"1c21871d-2c19-4086-b1d1-8033834ad37d","system_id":"levelo_inurba_marseille","lat":43.27919,"lon":5.39589,"is_reserved":false,"is_disabled":false,"rental_uris":{"android":"levelo://app?vid=1c21871d-2c19-4086-b1d1-8033834ad37d","ios":"levelo://app?vid=1c21871d-2c19-4086-b1d1-8033834ad37d"},"vehicle_type_id":"4","last_reported":1736881607,"current_range_meters":38000,"station_id":"ce4bhf92rcd13ifvqf40","pricing_plan_id":"cebpf4jnsgd1na2vs0mg"},{"bike_id":"6749cc36-3616-4588-a142-27ed7a54bc7d","system_id":"levelo_inurba_marseille","lat":43.25584,"lon":5.38236,"is_reserved":false,"is_disabled":false,"rental_uris":{"android":"levelo://app?vid=6749cc36-3616-4588-a142-27ed7a54bc7d","ios":"levelo://app?vid=6749cc36-3616-4588-a142-27ed7a54bc7d"},"vehicle_type_id":"4","last_reported":1736881607,"current_range_meters":37600,"station_id":"ce4bhih2rcd13ifvqfs0","pricing_plan_id":"cebpf4jnsgd1na2vs0mg"},{"bike_id":"20e1393f-328a-4292-8527-a5c73d24ceaf","system_id":"levelo_inurba_marseille","lat":43.27297,"lon":5.39098,"is_reserved":false,"is_disabled":false,"rental_uris":{"android":"levelo://app?vid=20e1393f-328a-4292-8527-a5c73d24ceaf","ios":"levelo://app?vid=20e1393f-328a-4292-8527-a5c73d24ceaf"},"vehicle_type_id":"4","last_reported":1736881607,"current_range_meters":8400,"station_id":"ce4bhgp2rcd13ifvqfe0","pricing_plan_id":"cebpf4jnsgd1na2vs0mg"},{"bike_id":"8176cef6-8015-429e-b7db-50d63dc3a79c","system_id":"levelo_inurba_marseille","lat":43.2767,"lon":5.3888,"is_reserved":false,"is_disabled":true,"rental_uris":{"android":"levelo://app?vid=8176cef6-8015-429e-b7db-50d63dc3a79c","ios":"levelo://app?vid=8176cef6-8015-429e-b7db-50d63dc3a79c"},"vehicle_type_id":"4","last_reported":1736881607,"current_range_meters":1600,"station_id":"ce4bhi12rcd13ifvqfo0","pricing_plan_id":"cebpf4jnsgd1na2vs0mg"},{"bike_id":"8e0499ea-662e-47b6-9895-fccb25a5f954","system_id":"levelo_inurba_marseille","lat":43.295272,"lon":5.394042,"is_reserved":false,"is_disabled":true,"rental_uris":{"android":"levelo://app?vid=8e0499ea-662e-47b6-9895-fccb25a5f954","ios":"levelo://app?vid=8e0499ea-662e-47b6-9895-fccb25a5f954"},"vehicle_type_id":"4","last_reported":1736881607,"current_range_meters":2800,"station_id":"ce4bh292rcd13ifvqdf0","pricing_plan_id":"cebpf4jnsgd1na2vs0mg"},{"bike_id":"184e363c-37b9-43b3-99b7-b6e6a22c1d8a","system_id":"levelo_inurba_marseille","lat":43.27429,"lon":5.39425,"is_reserved":false,"is_disabled":false,"rental_uris":{"android":"levelo://app?vid=184e363c-37b9-43b3-99b7-b6e6a22c1d8a","ios":"levelo://app?vid=184e363c-37b9-43b3-99b7-b6e6a22c1d8a"},"vehicle_type_id":"4","last_reported":1736881607,"current_range_meters":14400,"station_id":"ce4bhdp2rcd13ifvqf20","pricing_plan_id":"cebpf4jnsgd1na2vs0mg"},{"bike_id":"aac3639f-90f8-4e15-a6a1-bd23954c06a7","system_id":"levelo_inurba_marseille","lat":43.27427,"lon":5.39399,"is_reserved":false,"is_disabled":false,"rental_uris":{"android":"levelo://app?vid=aac3639f-90f8-4e15-a6a1-bd23954c06a7","ios":"levelo://app?vid=aac3639f-90f8-4e15-a6a1-bd23954c06a7"},"vehicle_type_id":"4","last_reported":1736881607,"current_range_meters":31200,"station_id":"ce4bhdp2rcd13ifvqf20","pricing_plan_id":"cebpf4jnsgd1na2vs0mg"},{"bike_id":"53abd080-d75f-42c8-bffa-784c1dff173c","system_id":"levelo_inurba_marseille","lat":43.29255,"lon":5.38447,"is_reserved":false,"is_disabled":false,"rental_uris":{"android":"levelo://app?vid=53abd080-d75f-42c8-bffa-784c1dff173c","ios":"levelo://app?vid=53abd080-d75f-42c8-bffa-784c1dff173c"},"vehicle_type_id":"4","last_reported":1736881607,"current_range_meters":9600,"station_id":"ce4bh692rcd13ifvqea0","pricing_plan_id":"cebpf4jnsgd1na2vs0mg"},{"bike_id":"7c6f01a9-52ac-448d-9ae7-465dd3489077","system_id":"levelo_inurba_marseille","lat":43.29815,"lon":5.40404,"is_reserved":false,"is_disabled":false,"rental_uris":{"android":"levelo://app?vid=7c6f01a9-52ac-448d-9ae7-465dd3489077","ios":"levelo://app?vid=7c6f01a9-52ac-448d-9ae7-465dd3489077"},"vehicle_type_id":"4","last_reported":1736881607,"current_range_meters":29600,"station_id":"ce4bh112rcd13ifvqd90","pricing_plan_id":"cebpf4jnsgd1na2vs0mg"},{"bike_id":"41922604-c7b8-4e93-9da5-3903771d7233","system_id":"levelo_inurba_marseille","lat":43.248143,"lon":5.374544,"is_reserved":false,"is_disabled":false,"rental_uris":{"android":"levelo://app?vid=41922604-c7b8-4e93-9da5-3903771d7233","ios":"levelo://app?vid=41922604-c7b8-4e93-9da5-3903771d7233"},"vehicle_type_id":"4","last_reported":1736881607,"current_range_meters":20400,"station_id":"ce4bhgh2rcd13ifvqfb0","pricing_plan_id":"cebpf4jnsgd1na2vs0mg"},{"bike_id":"9a0c6b7e-4bf9-4891-b5ca-ba18ca420306","system_id":"levelo_inurba_marseille","lat":43.27324,"lon":5.39087,"is_reserved":false,"is_disabled":false,"rental_uris":{"android":"levelo://app?vid=9a0c6b7e-4bf9-4891-b5ca-ba18ca420306","ios":"levelo://app?vid=9a0c6b7e-4bf9-4891-b5ca-ba18ca420306"},"vehicle_type_id":"4","last_reported":1736881607,"current_range_meters":18800,"station_id":"ce4bhgp2rcd13ifvqfe0","pricing_plan_id":"cebpf4jnsgd1na2vs0mg"},{"bike_id":"f94df94d-bc8f-423a-851a-769fb61ed24d","system_id":"levelo_inurba_marseille","lat":43.26546,"lon":5.3732,"is_reserved":false,"is_disabled":false,"rental_uris":{"android":"levelo://app?vid=f94df94d-bc8f-423a-851a-769fb61ed24d","ios":"levelo://app?vid=f94df94d-bc8f-423a-851a-769fb61ed24d"},"vehicle_type_id":"4","last_reported":1736881607,"current_range_meters":27600,"station_id":"ce4bhg12rcd13ifvqf70","pricing_plan_id":"cebpf4jnsgd1na2vs0mg"},{"bike_id":"2ee17601-3a84-4745-8ad6-40b8a844b898","system_id":"levelo_inurba_marseille","lat":43.26939,"lon":5.40245,"is_reserved":false,"is_disabled":false,"rental_uris":{"android":"levelo://app?vid=2ee17601-3a84-4745-8ad6-40b8a844b898","ios":"levelo://app?vid=2ee17601-3a84-4745-8ad6-40b8a844b898"},"vehicle_type_id":"4","last_reported":1736881607,"current_range_meters":27200,"station_id":"cjm6bp8fraef2m0cb0m0","pricing_plan_id":"cebpf4jnsgd1na2vs0mg"},{"bike_id":"b22d77c3-f37f-47b6-bfd3-17f35050e9db","system_id":"levelo_inurba_marseille","lat":43.27619,"lon":5.36104,"is_reserved":false,"is_disabled":false,"rental_uris":{"android":"levelo://app?vid=b22d77c3-f37f-47b6-bfd3-17f35050e9db","ios":"levelo://app?vid=b22d77c3-f37f-47b6-bfd3-17f35050e9db"},"vehicle_type_id":"4","last_reported":1736881607,"current_range_meters":6400,"station_id":"ce4bgj92rcd13ifvqbe0","pricing_plan_id":"cebpf4jnsgd1na2vs0mg"},{"bike_id":"70a4d228-2c41-4af9-a3eb-23abb00e4e21","system_id":"levelo_inurba_marseille","lat":43.26051,"lon":5.39384,"is_reserved":false,"is_disabled":false,"rental_uris":{"android":"levelo://app?vid=70a4d228-2c41-4af9-a3eb-23abb00e4e21","ios":"levelo://app?vid=70a4d228-2c41-4af9-a3eb-23abb00e4e21"},"vehicle_type_id":"4","last_reported":1736881607,"current_range_meters":12400,"station_id":"ce4bhh92rcd13ifvqfj0","pricing_plan_id":"cebpf4jnsgd1na2vs0mg"},{"bike_id":"968880d4-035c-49d2-9239-2804721e9e01","system_id":"levelo_inurba_marseille","lat":43.27961,"lon":5.38729,"is_reserved":false,"is_disabled":false,"rental_uris":{"android":"levelo://app?vid=968880d4-035c-49d2-9239-2804721e9e01","ios":"levelo://app?vid=968880d4-035c-49d2-9239-2804721e9e01"},"vehicle_type_id":"4","last_reported":1736881607,"current_range_meters":27600,"station_id":"ce4bhg12rcd13ifvqf80","pricing_plan_id":"cebpf4jnsgd1na2vs0mg"},{"bike_id":"d77ab8eb-301d-4932-9ae3-5faf3425ea34","system_id":"levelo_inurba_marseille","lat":43.25867,"lon":5.3989,"is_reserved":false,"is_disabled":false,"rental_uris":{"android":"levelo://app?vid=d77ab8eb-301d-4932-9ae3-5faf3425ea34","ios":"levelo://app?vid=d77ab8eb-301d-4932-9ae3-5faf3425ea34"},"vehicle_type_id":"4","last_reported":1736881607,"current_range_meters":24800,"station_id":"ce4bhl92rcd13ifvqghg","pricing_plan_id":"cebpf4jnsgd1na2vs0mg"},{"bike_id":"d7ca5915-338f-46db-8725-b258ca726a1c","system_id":"levelo_inurba_marseille","lat":43.28411,"lon":5.37516,"is_reserved":false,"is_disabled":false,"rental_uris":{"android":"levelo://app?vid=d7ca5915-338f-46db-8725-b258ca726a1c","ios":"levelo://app?vid=d7ca5915-338f-46db-8725-b258ca726a1c"},"vehicle_type_id":"4","last_reported":1736881607,"current_range_meters":22400,"station_id":"ce4bh412rcd13ifvqds0","pricing_plan_id":"cebpf4jnsgd1na2vs0mg"},{"bike_id":"5bb528b0-7ae2-48e6-ab60-167f85952f7b","system_id":"levelo_inurba_marseille","lat":43.2871,"lon":5.3742,"is_reserved":false,"is_disabled":false,"rental_uris":{"android":"levelo://app?vid=5bb528b0-7ae2-48e6-ab60-167f85952f7b","ios":"levelo://app?vid=5bb528b0-7ae2-48e6-ab60-167f85952f7b"},"vehicle_type_id":"4","last_reported":1736881607,"current_range_meters":38800,"station_id":"ce4bh3p2rcd13ifvqdq0","pricing_plan_id":"cebpf4jnsgd1na2vs0mg"},{"bike_id":"1d6b5ec1-c65e-445b-b61b-5d0aa3f062f8","system_id":"levelo_inurba_marseille","lat":43.31281,"lon":5.40158,"is_reserved":false,"is_disabled":false,"rental_uris":{"android":"levelo://app?vid=1d6b5ec1-c65e-445b-b61b-5d0aa3f062f8","ios":"levelo://app?vid=1d6b5ec1-c65e-445b-b61b-5d0aa3f062f8"},"vehicle_type_id":"4","last_reported":1736881607,"current_range_meters":11600,"station_id":"ce4bh092rcd13ifvqd30","pricing_plan_id":"cebpf4jnsgd1na2vs0mg"},{"bike_id":"eb228bcf-88cc-4bca-bb8a-654cc00e0035","system_id":"levelo_inurba_marseille","lat":43.27565,"lon":5.38432,"is_reserved":false,"is_disabled":false,"rental_uris":{"android":"levelo://app?vid=eb228bcf-88cc-4bca-bb8a-654cc00e0035","ios":"levelo://app?vid=eb228bcf-88cc-4bca-bb8a-654cc00e0035"},"vehicle_type_id":"4","last_reported":1736881607,"current_range_meters":38800,"station_id":"ce4bhh92rcd13ifvqfi0","pricing_plan_id":"cebpf4jnsgd1na2vs0mg"},{"bike_id":"1dc64d76-fff0-460c-af84-eaea7614f529","system_id":"levelo_inurba_marseille","lat":43.26927,"lon":5.40256,"is_reserved":false,"is_disabled":false,"rental_uris":{"android":"levelo://app?vid=1dc64d76-fff0-460c-af84-eaea7614f529","ios":"levelo://app?vid=1dc64d76-fff0-460c-af84-eaea7614f529"},"vehicle_type_id":"4","last_reported":1736881607,"current_range_meters":39200,"station_id":"cjm6bp8fraef2m0cb0m0","pricing_plan_id":"cebpf4jnsgd1na2vs0mg"},{"bike_id":"1a9e2fd5-2f08-4821-a0e8-5a79147c0238","system_id":"levelo_inurba_marseille","lat":43.27923,"lon":5.39593,"is_reserved":false,"is_disabled":false,"rental_uris":{"android":"levelo://app?vid=1a9e2fd5-2f08-4821-a0e8-5a79147c0238","ios":"levelo://app?vid=1a9e2fd5-2f08-4821-a0e8-5a79147c0238"},"vehicle_type_id":"4","last_reported":1736881607,"current_range_meters":24800,"station_id":"ce4bhf92rcd13ifvqf40","pricing_plan_id":"cebpf4jnsgd1na2vs0mg"},{"bike_id":"954e7e10-b6f6-467c-9afa-6c78409d184e","system_id":"levelo_inurba_marseille","lat":43.27957,"lon":5.41041,"is_reserved":false,"is_disabled":false,"rental_uris":{"android":"levelo://app?vid=954e7e10-b6f6-467c-9afa-6c78409d184e","ios":"levelo://app?vid=954e7e10-b6f6-467c-9afa-6c78409d184e"},"vehicle_type_id":"4","last_reported":1736881607,"current_range_meters":36000,"station_id":"ce4bhnp2rcd13ifvqh0g","pricing_plan_id":"cebpf4jnsgd1na2vs0mg"},{"bike_id":"f9f87261-1e26-4423-adc3-c66105140c7d","system_id":"levelo_inurba_marseille","lat":43.27045,"lon":5.40275,"is_reserved":false,"is_disabled":false,"rental_uris":{"android":"levelo://app?vid=f9f87261-1e26-4423-adc3-c66105140c7d","ios":"levelo://app?vid=f9f87261-1e26-4423-adc3-c66105140c7d"},"vehicle_type_id":"4","last_reported":1736881607,"current_range_meters":30800,"station_id":"ce4bhk92rcd13ifvqgc0","pricing_plan_id":"cebpf4jnsgd1na2vs0mg"},{"bike_id":"c0fd2063-31ae-4171-af17-771dbb4fa212","system_id":"levelo_inurba_marseille","lat":43.22939,"lon":5.35372,"is_reserved":false,"is_disabled":false,"rental_uris":{"android":"levelo://app?vid=c0fd2063-31ae-4171-af17-771dbb4fa212","ios":"levelo://app?vid=c0fd2063-31ae-4171-af17-771dbb4fa212"},"vehicle_type_id":"4","last_reported":1736881607,"current_range_meters":38800,"station_id":"cpo3532slgdg3j2ikp40","pricing_plan_id":"cebpf4jnsgd1na2vs0mg"},{"bike_id":"52dd6ea3-2bdb-41b1-aa26-4adee9e9994a","system_id":"levelo_inurba_marseille","lat":43.27665,"lon":5.38893,"is_reserved":false,"is_disabled":false,"rental_uris":{"android":"levelo://app?vid=52dd6ea3-2bdb-41b1-aa26-4adee9e9994a","ios":"levelo://app?vid=52dd6ea3-2bdb-41b1-aa26-4adee9e9994a"},"vehicle_type_id":"4","last_reported":1736881607,"current_range_meters":30800,"station_id":"ce4bhi12rcd13ifvqfo0","pricing_plan_id":"cebpf4jnsgd1na2vs0mg"},{"bike_id":"d8e43bb4-3b78-4764-b554-5dbfd1342833","system_id":"levelo_inurba_marseille","lat":43.30203,"lon":5.39472,"is_reserved":false,"is_disabled":false,"rental_uris":{"android":"levelo://app?vid=d8e43bb4-3b78-4764-b554-5dbfd1342833","ios":"levelo://app?vid=d8e43bb4-3b78-4764-b554-5dbfd1342833"},"vehicle_type_id":"4","last_reported":1736881607,"current_range_meters":27200,"station_id":"ce4bh0p2rcd13ifvqd70","pricing_plan_id":"cebpf4jnsgd1na2vs0mg"},{"bike_id":"49859924-9449-4404-b4e0-04b6ddce7f36","system_id":"levelo_inurba_marseille","lat":43.27373,"lon":5.36254,"is_reserved":false,"is_disabled":false,"rental_uris":{"android":"levelo://app?vid=49859924-9449-4404-b4e0-04b6ddce7f36","ios":"levelo://app?vid=49859924-9449-4404-b4e0-04b6ddce7f36"},"vehicle_type_id":"4","last_reported":1736881607,"current_range_meters":38000,"station_id":"ce4bhbh2rcd13ifvqeo0","pricing_plan_id":"cebpf4jnsgd1na2vs0mg"},{"bike_id":"8402fd40-a8fa-41c8-b94c-afcfe04740fe","system_id":"levelo_inurba_marseille","lat":43.292,"lon":5.39316,"is_reserved":false,"is_disabled":false,"rental_uris":{"android":"levelo://app?vid=8402fd40-a8fa-41c8-b94c-afcfe04740fe","ios":"levelo://app?vid=8402fd40-a8fa-41c8-b94c-afcfe04740fe"},"vehicle_type_id":"4","last_reported":1736881607,"current_range_meters":11200,"station_id":"ce4bh192rcd13ifvqdd0","pricing_plan_id":"cebpf4jnsgd1na2vs0mg"},{"bike_id":"8c56d69a-e0b0-4246-a4c8-ecfc8cbb2c1c","system_id":"levelo_inurba_marseille","lat":43.28094,"lon":5.38647,"is_reserved":false,"is_disabled":false,"rental_uris":{"android":"levelo://app?vid=8c56d69a-e0b0-4246-a4c8-ecfc8cbb2c1c","ios":"levelo://app?vid=8c56d69a-e0b0-4246-a4c8-ecfc8cbb2c1c"},"vehicle_type_id":"4","last_reported":1736881607,"current_range_meters":30400,"station_id":"ce4bhi12rcd13ifvqfo0","pricing_plan_id":"cebpf4jnsgd1na2vs0mg"},{"bike_id":"1b22370e-68ef-49e7-8d36-f18a88671a32","system_id":"levelo_inurba_marseille","lat":43.31755,"lon":5.39019,"is_reserved":false,"is_disabled":false,"rental_uris":{"android":"levelo://app?vid=1b22370e-68ef-49e7-8d36-f18a88671a32","ios":"levelo://app?vid=1b22370e-68ef-49e7-8d36-f18a88671a32"},"vehicle_type_id":"4","last_reported":1736881607,"current_range_meters":16800,"station_id":"ce4bhqp2rcd13ifvqhng","pricing_plan_id":"cebpf4jnsgd1na2vs0mg"},{"bike_id":"9f6dc16c-0d83-406f-91b0-cee9f467311a","system_id":"levelo_inurba_marseille","lat":43.27432,"lon":5.39424,"is_reserved":false,"is_disabled":false,"rental_uris":{"android":"levelo://app?vid=9f6dc16c-0d83-406f-91b0-cee9f467311a","ios":"levelo://app?vid=9f6dc16c-0d83-406f-91b0-cee9f467311a"},"vehicle_type_id":"4","last_reported":1736881607,"current_range_meters":34800,"station_id":"ce4bhdp2rcd13ifvqf20","pricing_plan_id":"cebpf4jnsgd1na2vs0mg"},{"bike_id":"8e1700e2-2825-47f3-9373-6fc227095b7d","system_id":"levelo_inurba_marseille","lat":43.24161,"lon":5.36407,"is_reserved":false,"is_disabled":false,"rental_uris":{"android":"levelo://app?vid=8e1700e2-2825-47f3-9373-6fc227095b7d","ios":"levelo://app?vid=8e1700e2-2825-47f3-9373-6fc227095b7d"},"vehicle_type_id":"4","last_reported":1736881607,"current_range_meters":38000,"station_id":"cpo36qri1sfpv3e86is0","pricing_plan_id":"cebpf4jnsgd1na2vs0mg"},{"bike_id":"5a967e45-6bf2-40fe-8c1c-756516865570","system_id":"levelo_inurba_marseille","lat":43.2606,"lon":5.39399,"is_reserved":false,"is_disabled":false,"rental_uris":{"android":"levelo://app?vid=5a967e45-6bf2-40fe-8c1c-756516865570","ios":"levelo://app?vid=5a967e45-6bf2-40fe-8c1c-756516865570"},"vehicle_type_id":"4","last_reported":1736881607,"current_range_meters":38000,"station_id":"ce4bhh92rcd13ifvqfj0","pricing_plan_id":"cebpf4jnsgd1na2vs0mg"},{"bike_id":"5a957638-0174-4316-baf5-ca8c020de24f","system_id":"levelo_inurba_marseille","lat":43.25088,"lon":5.39528,"is_reserved":false,"is_disabled":false,"rental_uris":{"android":"levelo://app?vid=5a957638-0174-4316-baf5-ca8c020de24f","ios":"levelo://app?vid=5a957638-0174-4316-baf5-ca8c020de24f"},"vehicle_type_id":"4","last_reported":1736881607,"current_range_meters":17600,"station_id":"ce4bhm12rcd13ifvqgkg","pricing_plan_id":"cebpf4jnsgd1na2vs0mg"},{"bike_id":"4a4d296c-e71a-4d73-8515-0b49a9079d8d","system_id":"levelo_inurba_marseille","lat":43.23186,"lon":5.39965,"is_reserved":false,"is_disabled":false,"rental_uris":{"android":"levelo://app?vid=4a4d296c-e71a-4d73-8515-0b49a9079d8d","ios":"levelo://app?vid=4a4d296c-e71a-4d73-8515-0b49a9079d8d"},"vehicle_type_id":"4","last_reported":1736881607,"current_range_meters":28400,"station_id":"ce4bhn12rcd13ifvqgqg","pricing_plan_id":"cebpf4jnsgd1na2vs0mg"},{"bike_id":"d28c64db-672d-4dc2-9aa8-36d7327fadae","system_id":"levelo_inurba_marseille","lat":43.31433,"lon":5.3738,"is_reserved":false,"is_disabled":false,"rental_uris":{"android":"levelo://app?vid=d28c64db-672d-4dc2-9aa8-36d7327fadae","ios":"levelo://app?vid=d28c64db-672d-4dc2-9aa8-36d7327fadae"},"vehicle_type_id":"4","last_reported":1736881607,"current_range_meters":10000,"station_id":"","pricing_plan_id":"cebpf4jnsgd1na2vs0mg"},{"bike_id":"b438a536-2826-455d-89c2-219747efc24e","system_id":"levelo_inurba_marseille","lat":43.2737,"lon":5.36252,"is_reserved":false,"is_disabled":false,"rental_uris":{"android":"levelo://app?vid=b438a536-2826-455d-89c2-219747efc24e","ios":"levelo://app?vid=b438a536-2826-455d-89c2-219747efc24e"},"vehicle_type_id":"4","last_reported":1736881607,"current_range_meters":10800,"station_id":"ce4bhbh2rcd13ifvqeo0","pricing_plan_id":"cebpf4jnsgd1na2vs0mg"},{"bike_id":"6027163c-6e0b-44a2-bfed-3a477a83b455","system_id":"levelo_inurba_marseille","lat":43.31718,"lon":5.37764,"is_reserved":false,"is_disabled":true,"rental_uris":{"android":"levelo://app?vid=6027163c-6e0b-44a2-bfed-3a477a83b455","ios":"levelo://app?vid=6027163c-6e0b-44a2-bfed-3a477a83b455"},"vehicle_type_id":"4","last_reported":1736881607,"current_range_meters":38800,"station_id":"ce4bgth2rcd13ifvqch0","pricing_plan_id":"cebpf4jnsgd1na2vs0mg"},{"bike_id":"fafb8cb8-a241-43cf-b448-6eabc4538c06","system_id":"levelo_inurba_marseille","lat":43.29823,"lon":5.40413,"is_reserved":false,"is_disabled":false,"rental_uris":{"android":"levelo://app?vid=fafb8cb8-a241-43cf-b448-6eabc4538c06","ios":"levelo://app?vid=fafb8cb8-a241-43cf-b448-6eabc4538c06"},"vehicle_type_id":"4","last_reported":1736881607,"current_range_meters":30400,"station_id":"ce4bh112rcd13ifvqd90","pricing_plan_id":"cebpf4jnsgd1na2vs0mg"},{"bike_id":"100ca39d-2ece-4755-a16f-6e08b6d46318","system_id":"levelo_inurba_marseille","lat":43.29552,"lon":5.42298,"is_reserved":false,"is_disabled":false,"rental_uris":{"android":"levelo://app?vid=100ca39d-2ece-4755-a16f-6e08b6d46318","ios":"levelo://app?vid=100ca39d-2ece-4755-a16f-6e08b6d46318"},"vehicle_type_id":"4","last_reported":1736881607,"current_range_meters":9200,"station_id":"ce4bhph2rcd13ifvqhdg","pricing_plan_id":"cebpf4jnsgd1na2vs0mg"},{"bike_id":"4725ae05-b600-47b7-ba70-7352c8181ea5","system_id":"levelo_inurba_marseille","lat":43.27407,"lon":5.39005,"is_reserved":false,"is_disabled":true,"rental_uris":{"android":"levelo://app?vid=4725ae05-b600-47b7-ba70-7352c8181ea5","ios":"levelo://app?vid=4725ae05-b600-47b7-ba70-7352c8181ea5"},"vehicle_type_id":"4","last_reported":1736881607,"current_range_meters":0,"station_id":"","pricing_plan_id":"cebpf4jnsgd1na2vs0mg"},{"bike_id":"6fac6463-b094-4502-b211-394e7e09fb79","system_id":"levelo_inurba_marseille","lat":43.24076,"lon":5.37769,"is_reserved":false,"is_disabled":false,"rental_uris":{"android":"levelo://app?vid=6fac6463-b094-4502-b211-394e7e09fb79","ios":"levelo://app?vid=6fac6463-b094-4502-b211-394e7e09fb79"},"vehicle_type_id":"4","last_reported":1736881607,"current_range_meters":36800,"station_id":"ce4bhnp2rcd13ifvqgvg","pricing_plan_id":"cebpf4jnsgd1na2vs0mg"},{"bike_id":"ef58bffb-9308-4166-b40c-acc9cd851305","system_id":"levelo_inurba_marseille","lat":43.32099,"lon":5.36777,"is_reserved":false,"is_disabled":false,"rental_uris":{"android":"levelo://app?vid=ef58bffb-9308-4166-b40c-acc9cd851305","ios":"levelo://app?vid=ef58bffb-9308-4166-b40c-acc9cd851305"},"vehicle_type_id":"4","last_reported":1736881607,"current_range_meters":8000,"station_id":"ce4bhrh2rcd13ifvqhug","pricing_plan_id":"cebpf4jnsgd1na2vs0mg"},{"bike_id":"b88c90d6-bea0-463a-a894-59466dc2047d","system_id":"levelo_inurba_marseille","lat":43.31693,"lon":5.37772,"is_reserved":false,"is_disabled":false,"rental_uris":{"android":"levelo://app?vid=b88c90d6-bea0-463a-a894-59466dc2047d","ios":"levelo://app?vid=b88c90d6-bea0-463a-a894-59466dc2047d"},"vehicle_type_id":"4","last_reported":1736881607,"current_range_meters":38800,"station_id":"ce4bgth2rcd13ifvqch0","pricing_plan_id":"cebpf4jnsgd1na2vs0mg"},{"bike_id":"f6670ba4-48b0-4474-a809-b70e1db7fd57","system_id":"levelo_inurba_marseille","lat":43.30813,"lon":5.38152,"is_reserved":false,"is_disabled":false,"rental_uris":{"android":"levelo://app?vid=f6670ba4-48b0-4474-a809-b70e1db7fd57","ios":"levelo://app?vid=f6670ba4-48b0-4474-a809-b70e1db7fd57"},"vehicle_type_id":"4","last_reported":1736881607,"current_range_meters":38400,"station_id":"ce4bgt12rcd13ifvqce0","pricing_plan_id":"cebpf4jnsgd1na2vs0mg"},{"bike_id":"b9972fcc-0a31-486a-944e-571d89f130a5","system_id":"levelo_inurba_marseille","lat":43.287,"lon":5.37926,"is_reserved":false,"is_disabled":false,"rental_uris":{"android":"levelo://app?vid=b9972fcc-0a31-486a-944e-571d89f130a5","ios":"levelo://app?vid=b9972fcc-0a31-486a-944e-571d89f130a5"},"vehicle_type_id":"4","last_reported":1736881607,"current_range_meters":38000,"station_id":"ce4bh9p2rcd13ifvqec0","pricing_plan_id":"cebpf4jnsgd1na2vs0mg"},{"bike_id":"7996be5a-01b2-471c-a352-a17a5e9caf87","system_id":"levelo_inurba_marseille","lat":43.27819,"lon":5.40715,"is_reserved":false,"is_disabled":false,"rental_uris":{"android":"levelo://app?vid=7996be5a-01b2-471c-a352-a17a5e9caf87","ios":"levelo://app?vid=7996be5a-01b2-471c-a352-a17a5e9caf87"},"vehicle_type_id":"4","last_reported":1736881607,"current_range_meters":38000,"station_id":"ce4bhnh2rcd13ifvqgtg","pricing_plan_id":"cebpf4jnsgd1na2vs0mg"},{"bike_id":"2797dfae-3177-47c3-8ddf-a9a9f37d5be1","system_id":"levelo_inurba_marseille","lat":43.28113,"lon":5.37849,"is_reserved":false,"is_disabled":false,"rental_uris":{"android":"levelo://app?vid=2797dfae-3177-47c3-8ddf-a9a9f37d5be1","ios":"levelo://app?vid=2797dfae-3177-47c3-8ddf-a9a9f37d5be1"},"vehicle_type_id":"4","last_reported":1736881607,"current_range_meters":22400,"station_id":"ce4bha12rcd13ifvqee0","pricing_plan_id":"cebpf4jnsgd1na2vs0mg"},{"bike_id":"20f47a16-142e-4016-b800-916ad9b55947","system_id":"levelo_inurba_marseille","lat":43.27621,"lon":5.36108,"is_reserved":false,"is_disabled":false,"rental_uris":{"android":"levelo://app?vid=20f47a16-142e-4016-b800-916ad9b55947","ios":"levelo://app?vid=20f47a16-142e-4016-b800-916ad9b55947"},"vehicle_type_id":"4","last_reported":1736881607,"current_range_meters":39200,"station_id":"ce4bgj92rcd13ifvqbe0","pricing_plan_id":"cebpf4jnsgd1na2vs0mg"},{"bike_id":"84d2821a-d4c5-49d5-b43c-207c0df30515","system_id":"levelo_inurba_marseille","lat":43.27813,"lon":5.40714,"is_reserved":false,"is_disabled":false,"rental_uris":{"android":"levelo://app?vid=84d2821a-d4c5-49d5-b43c-207c0df30515","ios":"levelo://app?vid=84d2821a-d4c5-49d5-b43c-207c0df30515"},"vehicle_type_id":"4","last_reported":1736881607,"current_range_meters":30400,"station_id":"ce4bhnh2rcd13ifvqgtg","pricing_plan_id":"cebpf4jnsgd1na2vs0mg"},{"bike_id":"266ba410-89ae-4c98-942e-e5a59c99ead3","system_id":"levelo_inurba_marseille","lat":43.31326,"lon":5.39704,"is_reserved":false,"is_disabled":false,"rental_uris":{"android":"levelo://app?vid=266ba410-89ae-4c98-942e-e5a59c99ead3","ios":"levelo://app?vid=266ba410-89ae-4c98-942e-e5a59c99ead3"},"vehicle_type_id":"4","last_reported":1736881607,"current_range_meters":38400,"station_id":"ce4bgvp2rcd13ifvqcu0","pricing_plan_id":"cebpf4jnsgd1na2vs0mg"},{"bike_id":"aa6c703a-8c90-45e2-a23b-8dce4254fa54","system_id":"levelo_inurba_marseille","lat":43.27301,"lon":5.3909,"is_reserved":false,"is_disabled":false,"rental_uris":{"android":"levelo://app?vid=aa6c703a-8c90-45e2-a23b-8dce4254fa54","ios":"levelo://app?vid=aa6c703a-8c90-45e2-a23b-8dce4254fa54"},"vehicle_type_id":"4","last_reported":1736881607,"current_range_meters":22800,"station_id":"ce4bhgp2rcd13ifvqfe0","pricing_plan_id":"cebpf4jnsgd1na2vs0mg"},{"bike_id":"53626c52-4a65-4143-9af2-00f496cea757","system_id":"levelo_inurba_marseille","lat":43.31123,"lon":5.37779,"is_reserved":false,"is_disabled":false,"rental_uris":{"android":"levelo://app?vid=53626c52-4a65-4143-9af2-00f496cea757","ios":"levelo://app?vid=53626c52-4a65-4143-9af2-00f496cea757"},"vehicle_type_id":"4","last_reported":1736881607,"current_range_meters":14000,"station_id":"ce4bgt92rcd13ifvqcg0","pricing_plan_id":"cebpf4jnsgd1na2vs0mg"},{"bike_id":"db97a588-9782-4206-9d36-b6e381bc7f97","system_id":"levelo_inurba_marseille","lat":43.28072,"lon":5.39649,"is_reserved":false,"is_disabled":false,"rental_uris":{"android":"levelo://app?vid=db97a588-9782-4206-9d36-b6e381bc7f97","ios":"levelo://app?vid=db97a588-9782-4206-9d36-b6e381bc7f97"},"vehicle_type_id":"4","last_reported":1736881607,"current_range_meters":28400,"station_id":"ce4bho12rcd13ifvqh2g","pricing_plan_id":"cebpf4jnsgd1na2vs0mg"},{"bike_id":"d88a8fb1-3d67-4a43-92ea-46fda2c5ae0a","system_id":"levelo_inurba_marseille","lat":43.27318,"lon":5.39068,"is_reserved":false,"is_disabled":false,"rental_uris":{"android":"levelo://app?vid=d88a8fb1-3d67-4a43-92ea-46fda2c5ae0a","ios":"levelo://app?vid=d88a8fb1-3d67-4a43-92ea-46fda2c5ae0a"},"vehicle_type_id":"4","last_reported":1736881607,"current_range_meters":20400,"station_id":"ce4bhgp2rcd13ifvqfe0","pricing_plan_id":"cebpf4jnsgd1na2vs0mg"},{"bike_id":"aa5a7fa4-3cb1-47ca-bc71-b1f5725185f6","system_id":"levelo_inurba_marseille","lat":43.28149,"lon":5.42643,"is_reserved":false,"is_disabled":false,"rental_uris":{"android":"levelo://app?vid=aa5a7fa4-3cb1-47ca-bc71-b1f5725185f6","ios":"levelo://app?vid=aa5a7fa4-3cb1-47ca-bc71-b1f5725185f6"},"vehicle_type_id":"4","last_reported":1736881607,"current_range_meters":38800,"station_id":"ce4bhnh2rcd13ifvqgug","pricing_plan_id":"cebpf4jnsgd1na2vs0mg"},{"bike_id":"5d6ee491-db6f-4a2a-8dad-1e433239109a","system_id":"levelo_inurba_marseille","lat":43.25574,"lon":5.38227,"is_reserved":false,"is_disabled":false,"rental_uris":{"android":"levelo://app?vid=5d6ee491-db6f-4a2a-8dad-1e433239109a","ios":"levelo://app?vid=5d6ee491-db6f-4a2a-8dad-1e433239109a"},"vehicle_type_id":"4","last_reported":1736881607,"current_range_meters":36400,"station_id":"ce4bhih2rcd13ifvqfs0","pricing_plan_id":"cebpf4jnsgd1na2vs0mg"},{"bike_id":"343f9ac0-a536-4e03-aafe-3a98c27c9ff7","system_id":"levelo_inurba_marseille","lat":43.27673,"lon":5.38898,"is_reserved":false,"is_disabled":false,"rental_uris":{"android":"levelo://app?vid=343f9ac0-a536-4e03-aafe-3a98c27c9ff7","ios":"levelo://app?vid=343f9ac0-a536-4e03-aafe-3a98c27c9ff7"},"vehicle_type_id":"4","last_reported":1736881607,"current_range_meters":39200,"station_id":"ce4bhi12rcd13ifvqfo0","pricing_plan_id":"cebpf4jnsgd1na2vs0mg"},{"bike_id":"af6ddcca-55ed-4a61-9f00-8fe1b43a7421","system_id":"levelo_inurba_marseille","lat":43.26949,"lon":5.38655,"is_reserved":false,"is_disabled":false,"rental_uris":{"android":"levelo://app?vid=af6ddcca-55ed-4a61-9f00-8fe1b43a7421","ios":"levelo://app?vid=af6ddcca-55ed-4a61-9f00-8fe1b43a7421"},"vehicle_type_id":"4","last_reported":1736881607,"current_range_meters":16400,"station_id":"ce4bhh92rcd13ifvqfh0","pricing_plan_id":"cebpf4jnsgd1na2vs0mg"},{"bike_id":"77c6346a-8a0f-45b0-b414-0faeecbce4b9","system_id":"levelo_inurba_marseille","lat":43.31082,"lon":5.38354,"is_reserved":false,"is_disabled":false,"rental_uris":{"android":"levelo://app?vid=77c6346a-8a0f-45b0-b414-0faeecbce4b9","ios":"levelo://app?vid=77c6346a-8a0f-45b0-b414-0faeecbce4b9"},"vehicle_type_id":"4","last_reported":1736881607,"current_range_meters":10800,"station_id":"ce4bgv92rcd13ifvqcr0","pricing_plan_id":"cebpf4jnsgd1na2vs0mg"},{"bike_id":"759ed0a9-7af4-4586-8886-de7cacc1eae3","system_id":"levelo_inurba_marseille","lat":43.32369,"lon":5.38883,"is_reserved":false,"is_disabled":false,"rental_uris":{"android":"levelo://app?vid=759ed0a9-7af4-4586-8886-de7cacc1eae3","ios":"levelo://app?vid=759ed0a9-7af4-4586-8886-de7cacc1eae3"},"vehicle_type_id":"4","last_reported":1736881607,"current_range_meters":6400,"station_id":"ce4bhqp2rcd13ifvqhog","pricing_plan_id":"cebpf4jnsgd1na2vs0mg"},{"bike_id":"cb40efa4-92da-4cc9-8bfc-ba7d1b903263","system_id":"levelo_inurba_marseille","lat":43.27922,"lon":5.39577,"is_reserved":false,"is_disabled":false,"rental_uris":{"android":"levelo://app?vid=cb40efa4-92da-4cc9-8bfc-ba7d1b903263","ios":"levelo://app?vid=cb40efa4-92da-4cc9-8bfc-ba7d1b903263"},"vehicle_type_id":"4","last_reported":1736881607,"current_range_meters":3600,"station_id":"ce4bhf92rcd13ifvqf40","pricing_plan_id":"cebpf4jnsgd1na2vs0mg"},