{"last_updated":1725642452,"ttl":30,"version":"2.2","data":{"bikes":[{"bike_id":"f80a262c-6bfd-491c-a641-0a88ad89d4d5","system_id":"levelo_inurba_marseille","lat":43.312239,"lon":5.368562,"is_reserved":false,"is_disabled":false,"rental_uris":{"android":"levelo://app?vid=f80a262c-6bfd-491c-a641-0a88ad89d4d5","ios":"levelo://app?vid=f80a262c-6bfd-491c-a641-0a88ad89d4d5"},"vehicle_type_id":"4","last_reported":1725642452,"current_range_meters":0,"station_id":"ce4bgl92rcd13ifvqbq0","pricing_plan_id":"cebpf4jnsgd1na2vs0mg"},{"bike_id":"a93cbe2f-b1b0-4270-946a-fccecbc6f699","system_id":"levelo_inurba_marseille","lat":43.312239,"lon":5.368562,"is_reserved":false,"is_disabled":false,"rental_uris":{"android":"levelo://app?vid=a93cbe2f-b1b0-4270-946a-fccecbc6f699","ios":"levelo://app?vid=a93cbe2f-b1b0-4270-946a-fccecbc6f699"},"vehicle_type_id":"4","last_reported":1725642452,"current_range_meters":20400,"station_id":"ce4bgl92rcd13ifvqbq0","pricing_plan_id":"cebpf4jnsgd1na2vs0mg"},{"bike_id":"987bc4e5-c906-4732-838c-85aaca92827c","system_id":"levelo_inurba_marseille","lat":43.309076,"lon":5.368465,"is_reserved":false,"is_disabled":false,"rental_uris":{"android":"levelo://app?vid=987bc4e5-c906-4732-838c-85aaca92827c","ios":"levelo://app?vid=987bc4e5-c906-4732-838c-85aaca92827c"},"vehicle_type_id":"4","last_reported":1725642452,"current_range_meters":18400,"station_id":"ce4bgn92rcd13ifvqbvg","pricing_plan_id":"cebpf4jnsgd1na2vs0mg"},{"bike_id":"0638cb71-ed8f-4fc1-bed7-aa65b44eae34","system_id":"levelo_inurba_marseille","lat":43.31682,"lon":5.37357,"is_reserved":false,"is_disabled":false,"rental_uris":{"android":"levelo://app?vid=0638cb71-ed8f-4fc1-bed7-aa65b44eae34","ios":"levelo://app?vid=0638cb71-ed8f-4fc1-bed7-aa65b44eae34"},"vehicle_type_id":"4","last_reported":1725642452,"current_range_meters":0,"station_id":"","pricing_plan_id":"cebpf4jnsgd1na2vs0mg"},{"bike_id":"530cb461-8459-461c-a971-f1ca18e395db","system_id":"levelo_inurba_marseille","lat":43.3054,"lon":5.367,"is_reserved":false,"is_disabled":false,"rental_uris":{"android":"levelo://app?vid=530cb461-8459-461c-a971-f1ca18e395db","ios":"levelo://app?vid=530cb461-8459-461c-a971-f1ca18e395db"},"vehicle_type_id":"4","last_reported":1725642452,"current_range_meters":0,"station_id":"ce4bgrp2rcd13ifvqc9g","pricing_plan_id":"cebpf4jnsgd1na2vs0mg"},{"bike_id":"30d1de74-ac50-4ad8-a328-1015f7f2e275","system_id":"levelo_inurba_marseille","lat":43.30537,"lon":5.367345,"is_reserved":false,"is_disabled":false,"rental_uris":{"android":"levelo://app?vid=30d1de74-ac50-4ad8-a328-1015f7f2e275","ios":"levelo://app?vid=30d1de74-ac50-4ad8-a328-1015f7f2e275"},"vehicle_type_id":"4","last_reported":1725642452,"current_range_meters":20000,"station_id":"ce4bgrp2rcd13ifvqc9g","pricing_plan_id":"cebpf4jnsgd1na2vs0mg"},{"bike_id":"f971f3ec-63d5-45b9-a14e-0e93d4c6d658","system_id":"levelo_inurba_marseille","lat":43.305706,"lon":5.365654,"is_reserved":false,"is_disabled":false,"rental_uris":{"android":"levelo://app?vid=f971f3ec-63d5-45b9-a14e-0e93d4c6d658","ios":"levelo://app?vid=f971f3ec-63d5-45b9-a14e-0e93d4c6d658"},"vehicle_type_id":"4","last_reported":1725642452,"current_range_meters":0,"station_id":"ce4bgs12rcd13ifvqcag","pricing_plan_id":"cebpf4jnsgd1na2vs0mg"},{"bike_id":"629993a9-aff7-44d1-8dab-8faa813a4490","system_id":"levelo_inurba_marseille","lat":43.311125,"lon":5.377624,"is_reserved":false,"is_disabled":false,"rental_uris":{"android":"levelo://app?vid=629993a9-aff7-44d1-8dab-8faa813a4490","ios":"levelo://app?vid=629993a9-aff7-44d1-8dab-8faa813a4490"},"vehicle_type_id":"4","last_reported":1725642452,"current_range_meters":0,"station_id":"ce4bgt92rcd13ifvqcg0","pricing_plan_id":"cebpf4jnsgd1na2vs0mg"},{"bike_id":"df3a7479-ae3a-4662-ac57-cbcebe184966","system_id":"levelo_inurba_marseille","lat":43.317075,"lon":5.377367,"is_reserved":false,"is_disabled":false,"rental_uris":{"android":"levelo://app?vid=df3a7479-ae3a-4662-ac57-cbcebe184966","ios":"levelo://app?vid=df3a7479-ae3a-4662-ac57-cbcebe184966"},"vehicle_type_id":"4","last_reported":1725642452,"current_range_meters":800,"station_id":"ce4bgth2rcd13ifvqch0","pricing_plan_id":"cebpf4jnsgd1na2vs0mg"},{"bike_id":"0dffcd48-a505-415f-994d-e3fda2ec6a3e","system_id":"levelo_inurba_marseille","lat":43.317075,"lon":5.377367,"is_reserved":false,"is_disabled":false,"rental_uris":{"android":"levelo://app?vid=0dffcd48-a505-415f-994d-e3fda2ec6a3e","ios":"levelo://app?vid=0dffcd48-a505-415f-994d-e3fda2ec6a3e"},"vehicle_type_id":"4","last_reported":1725642452,"current_range_meters":26000,"station_id":"ce4bgth2rcd13ifvqch0","pricing_plan_id":"cebpf4jnsgd1na2vs0mg"},{"bike_id":"7f8d4156-59f0-4aee-ac3e-c05dabbe79f8","system_id":"levelo_inurba_marseille","lat":43.317075,"lon":5.377367,"is_reserved":false,"is_disabled":false,"rental_uris":{"android":"levelo://app?vid=7f8d4156-59f0-4aee-ac3e-c05dabbe79f8","ios":"levelo://app?vid=7f8d4156-59f0-4aee-ac3e-c05dabbe79f8"},"vehicle_type_id":"4","last_reported":1725642452,"current_range_meters":2400,"station_id":"ce4bgth2rcd13ifvqch0","pricing_plan_id":"cebpf4jnsgd1na2vs0mg"},{"bike_id":"e53b5272-eb4f-42bb-afb6-44d73987a389","system_id":"levelo_inurba_marseille","lat":43.3113,"lon":5.37975,"is_reserved":false,"is_disabled":false,"rental_uris":{"android":"levelo://app?vid=e53b5272-eb4f-42bb-afb6-44d73987a389","ios":"levelo://app?vid=e53b5272-eb4f-42bb-afb6-44d73987a389"},"vehicle_type_id":"4","last_reported":1725642452,"current_range_meters":21600,"station_id":"","pricing_plan_id":"cebpf4jnsgd1na2vs0mg"},{"bike_id":"5c7e602c-f961-461f-96ab-799dea8e8115","system_id":"levelo_inurba_marseille","lat":43.32312,"lon":5.36758,"is_reserved":false,"is_disabled":false,"rental_uris":{"android":"levelo://app?vid=5c7e602c-f961-461f-96ab-799dea8e8115","ios":"levelo://app?vid=5c7e602c-f961-461f-96ab-799dea8e8115"},"vehicle_type_id":"4","last_reported":1725642452,"current_range_meters":18400,"station_id":"","pricing_plan_id":"cebpf4jnsgd1na2vs0mg"},{"bike_id":"4c423f1e-6455-45ae-b200-42262bf788f2","system_id":"levelo_inurba_marseille","lat":43.301939,"lon":5.366286,"is_reserved":false,"is_disabled":false,"rental_uris":{"android":"levelo://app?vid=4c423f1e-6455-45ae-b200-42262bf788f2","ios":"levelo://app?vid=4c423f1e-6455-45ae-b200-42262bf788f2"},"vehicle_type_id":"4","last_reported":1725642452,"current_range_meters":3600,"station_id":"ce4bgrh2rcd13ifvqc8g","pricing_plan_id":"cebpf4jnsgd1na2vs0mg"},{"bike_id":"877f21a8-d226-4ccb-95aa-51bcb906aeb9","system_id":"levelo_inurba_marseille","lat":43.308012,"lon":5.381511,"is_reserved":false,"is_disabled":false,"rental_uris":{"android":"levelo://app?vid=877f21a8-d226-4ccb-95aa-51bcb906aeb9","ios":"levelo://app?vid=877f21a8-d226-4ccb-95aa-51bcb906aeb9"},"vehicle_type_id":"4","last_reported":1725642452,"current_range_meters":15600,"station_id":"ce4bgt12rcd13ifvqce0","pricing_plan_id":"cebpf4jnsgd1na2vs0mg"},{"bike_id":"33a5524d-9e06-48a0-b030-c181cf3ce0c9","system_id":"levelo_inurba_marseille","lat":43.324886,"lon":5.36574,"is_reserved":false,"is_disabled":false,"rental_uris":{"android":"levelo://app?vid=33a5524d-9e06-48a0-b030-c181cf3ce0c9","ios":"levelo://app?vid=33a5524d-9e06-48a0-b030-c181cf3ce0c9"},"vehicle_type_id":"4","last_reported":1725642452,"current_range_meters":16400,"station_id":"ce4bhs12rcd13ifvqhvg","pricing_plan_id":"cebpf4jnsgd1na2vs0mg"},{"bike_id":"2d4dc541-a28b-4a2b-8913-99cffa5c6cfe","system_id":"levelo_inurba_marseille","lat":43.319935,"lon":5.381699,"is_reserved":false,"is_disabled":false,"rental_uris":{"android":"levelo://app?vid=2d4dc541-a28b-4a2b-8913-99cffa5c6cfe","ios":"levelo://app?vid=2d4dc541-a28b-4a2b-8913-99cffa5c6cfe"},"vehicle_type_id":"4","last_reported":1725642452,"current_range_meters":5600,"station_id":"ce4bhr12rcd13ifvqhpg","pricing_plan_id":"cebpf4jnsgd1na2vs0mg"},{"bike_id":"226dda00-2b94-43cc-8783-09698966e154","system_id":"levelo_inurba_marseille","lat":43.319935,"lon":5.381699,"is_reserved":false,"is_disabled":false,"rental_uris":{"android":"levelo://app?vid=226dda00-2b94-43cc-8783-09698966e154","ios":"levelo://app?vid=226dda00-2b94-43cc-8783-09698966e154"},"vehicle_type_id":"4","last_reported":1725642452,"current_range_meters":5200,"station_id":"ce4bhr12rcd13ifvqhpg","pricing_plan_id":"cebpf4jnsgd1na2vs0mg"},{"bike_id":"c03f9b6f-c476-490e-a908-d912860b1d23","system_id":"levelo_inurba_marseille","lat":43.299724,"lon":5.371829,"is_reserved":false,"is_disabled":false,"rental_uris":{"android":"levelo://app?vid=c03f9b6f-c476-490e-a908-d912860b1d23","ios":"levelo://app?vid=c03f9b6f-c476-490e-a908-d912860b1d23"},"vehicle_type_id":"4","last_reported":1725642452,"current_range_meters":29200,"station_id":"ce4bgr92rcd13ifvqc7g","pricing_plan_id":"cebpf4jnsgd1na2vs0mg"},{"bike_id":"c57ef018-eacb-404b-8e49-6bf9dd94d827","system_id":"levelo_inurba_marseille","lat":43.30101,"lon":5.37783,"is_reserved":false,"is_disabled":false,"rental_uris":{"android":"levelo://app?vid=c57ef018-eacb-404b-8e49-6bf9dd94d827","ios":"levelo://app?vid=c57ef018-eacb-404b-8e49-6bf9dd94d827"},"vehicle_type_id":"4","last_reported":1725642452,"current_range_meters":25600,"station_id":"","pricing_plan_id":"cebpf4jnsgd1na2vs0mg"},{"bike_id":"c1aa52ce-35b6-443d-8b63-c8a5f071f9e8","system_id":"levelo_inurba_marseille","lat":43.305364,"lon":5.384119,"is_reserved":false,"is_disabled":false,"rental_uris":{"android":"levelo://app?vid=c1aa52ce-35b6-443d-8b63-c8a5f071f9e8","ios":"levelo://app?vid=c1aa52ce-35b6-443d-8b63-c8a5f071f9e8"},"vehicle_type_id":"4","last_reported":1725642452,"current_range_meters":31200,"station_id":"ce4bgg92rcd13ifvqb30","pricing_plan_id":"cebpf4jnsgd1na2vs0mg"},{"bike_id":"1df108b0-a9c1-452e-a4c8-6a22e62958f9","system_id":"levelo_inurba_marseille","lat":43.298433,"lon":5.362774,"is_reserved":false,"is_disabled":false,"rental_uris":{"android":"levelo://app?vid=1df108b0-a9c1-452e-a4c8-6a22e62958f9","ios":"levelo://app?vid=1df108b0-a9c1-452e-a4c8-6a22e62958f9"},"vehicle_type_id":"4","last_reported":1725642452,"current_range_meters":6800,"station_id":"ce4bgpp2rcd13ifvqc3g","pricing_plan_id":"cebpf4jnsgd1na2vs0mg"},{"bike_id":"12109e9f-6ee2-4217-b1e4-853a95612a9e","system_id":"levelo_inurba_marseille","lat":43.305364,"lon":5.384119,"is_reserved":false,"is_disabled":false,"rental_uris":{"android":"levelo://app?vid=12109e9f-6ee2-4217-b1e4-853a95612a9e","ios":"levelo://app?vid=12109e9f-6ee2-4217-b1e4-853a95612a9e"},"vehicle_type_id":"4","last_reported":1725642452,"current_range_meters":29600,"station_id":"ce4bgg92rcd13ifvqb30","pricing_plan_id":"cebpf4jnsgd1na2vs0mg"},{"bike_id":"bafeec04-d7e3-47d2-8132-22bed9d2a454","system_id":"levelo_inurba_marseille","lat":43.299243,"lon":5.374807,"is_reserved":false,"is_disabled":false,"rental_uris":{"android":"levelo://app?vid=bafeec04-d7e3-47d2-8132-22bed9d2a454","ios":"levelo://app?vid=bafeec04-d7e3-47d2-8132-22bed9d2a454"},"vehicle_type_id":"4","last_reported":1725642452,"current_range_meters":0,"station_id":"ce4bgjh2rcd13ifvqbg0","pricing_plan_id":"cebpf4jnsgd1na2vs0mg"},{"bike_id":"a3c71c3e-c3cc-429e-b27f-72f0bffa8e24","system_id":"levelo_inurba_marseille","lat":43.301417,"lon":5.3809,"is_reserved":false,"is_disabled":false,"rental_uris":{"android":"levelo://app?vid=a3c71c3e-c3cc-429e-b27f-72f0bffa8e24","ios":"levelo://app?vid=a3c71c3e-c3cc-429e-b27f-72f0bffa8e24"},"vehicle_type_id":"4","last_reported":1725642452,"current_range_meters":11200,"station_id":"ce4bgjp2rcd13ifvqbh0","pricing_plan_id":"cebpf4jnsgd1na2vs0mg"},{"bike_id":"2005b5d0-b6aa-45eb-856b-e6e02bcc3f64","system_id":"levelo_inurba_marseille","lat":43.322872,"lon":5.382756,"is_reserved":false,"is_disabled":false,"rental_uris":{"android":"levelo://app?vid=2005b5d0-b6aa-45eb-856b-e6e02bcc3f64","ios":"levelo://app?vid=2005b5d0-b6aa-45eb-856b-e6e02bcc3f64"},"vehicle_type_id":"4","last_reported":1725642452,"current_range_meters":24400,"station_id":"ce4bhr12rcd13ifvqhqg","pricing_plan_id":"cebpf4jnsgd1na2vs0mg"},{"bike_id":"4916eca6-8c90-44a6-9a85-6ad90c3a07db","system_id":"levelo_inurba_marseille","lat":43.297794,"lon":5.370888,"is_reserved":false,"is_disabled":false,"rental_uris":{"android":"levelo://app?vid=4916eca6-8c90-44a6-9a85-6ad90c3a07db","ios":"levelo://app?vid=4916eca6-8c90-44a6-9a85-6ad90c3a07db"},"vehicle_type_id":"4","last_reported":1725642452,"current_range_meters":22400,"station_id":"ce4bgop2rcd13ifvqc1g","pricing_plan_id":"cebpf4jnsgd1na2vs0mg"},{"bike_id":"6cf70e6c-1654-4660-a11d-4eb366dc4243","system_id":"levelo_inurba_marseille","lat":43.322872,"lon":5.382756,"is_reserved":false,"is_disabled":false,"rental_uris":{"android":"levelo://app?vid=6cf70e6c-1654-4660-a11d-4eb366dc4243","ios":"levelo://app?vid=6cf70e6c-1654-4660-a11d-4eb366dc4243"},"vehicle_type_id":"4","last_reported":1725642452,"current_range_meters":14800,"station_id":"ce4bhr12rcd13ifvqhqg","pricing_plan_id":"cebpf4jnsgd1na2vs0mg"},{"bike_id":"b535930a-a062-40fc-a6d5-dbf752bf8794","system_id":"levelo_inurba_marseille","lat":43.322872,"lon":5.382756,"is_reserved":false,"is_disabled":false,"rental_uris":{"android":"levelo://app?vid=b535930a-a062-40fc-a6d5-dbf752bf8794","ios":"levelo://app?vid=b535930a-a062-40fc-a6d5-dbf752bf8794"},"vehicle_type_id":"4","last_reported":1725642452,"current_range_meters":30000,"station_id":"ce4bhr12rcd13ifvqhqg","pricing_plan_id":"cebpf4jnsgd1na2vs0mg"},{"bike_id":"9d4d4ad3-9fa4-4394-8995-8a5887e80cc8","system_id":"levelo_inurba_marseille","lat":43.32297,"lon":5.38266,"is_reserved":false,"is_disabled":false,"rental_uris":{"android":"levelo://app?vid=9d4d4ad3-9fa4-4394-8995-8a5887e80cc8","ios":"levelo://app?vid=9d4d4ad3-9fa4-4394-8995-8a5887e80cc8"},"vehicle_type_id":"4","last_reported":1725642452,"current_range_meters":18800,"station_id":"ce4bhr12rcd13ifvqhqg","pricing_plan_id":"cebpf4jnsgd1na2vs0mg"},{"bike_id":"b816b361-e728-4914-b6bd-c91e834601fd","system_id":"levelo_inurba_marseille","lat":43.29709,"lon":5.36612,"is_reserved":false,"is_disabled":false,"rental_uris":{"android":"levelo://app?vid=b816b361-e728-4914-b6bd-c91e834601fd","ios":"levelo://app?vid=b816b361-e728-4914-b6bd-c91e834601fd"},"vehicle_type_id":"4","last_reported":1725642452,"current_range_meters":5200,"station_id":"ce4bgn12rcd13ifvqbt0","pricing_plan_id":"cebpf4jnsgd1na2vs0mg"},{"bike_id":"98e998fc-3439-40e7-9163-60f1c18f7f26","system_id":"levelo_inurba_marseille","lat":43.297163,"lon":5.365866,"is_reserved":false,"is_disabled":false,"rental_uris":{"android":"levelo://app?vid=98e998fc-3439-40e7-9163-60f1c18f7f26","ios":"levelo://app?vid=98e998fc-3439-40e7-9163-60f1c18f7f26"},"vehicle_type_id":"4","last_reported":1725642452,"current_range_meters":30000,"station_id":"ce4bgn12rcd13ifvqbt0","pricing_plan_id":"cebpf4jnsgd1na2vs0mg"},{"bike_id":"8a8887de-5c7d-4b1c-91b2-78e9c920b48d","system_id":"levelo_inurba_marseille","lat":43.2968,"lon":5.37291,"is_reserved":false,"is_disabled":false,"rental_uris":{"android":"levelo://app?vid=8a8887de-5c7d-4b1c-91b2-78e9c920b48d","ios":"levelo://app?vid=8a8887de-5c7d-4b1c-91b2-78e9c920b48d"},"vehicle_type_id":"4","last_reported":1725642452,"current_range_meters":30000,"station_id":"ce4bgk12rcd13ifvqbj0","pricing_plan_id":"cebpf4jnsgd1na2vs0mg"},{"bike_id":"89e28377-0a34-4bca-a799-b890544cdcc4","system_id":"levelo_inurba_marseille","lat":43.296131,"lon":5.370773,"is_reserved":false,"is_disabled":false,"rental_uris":{"android":"levelo://app?vid=89e28377-0a34-4bca-a799-b890544cdcc4","ios":"levelo://app?vid=89e28377-0a34-4bca-a799-b890544cdcc4"},"vehicle_type_id":"4","last_reported":1725642452,"current_range_meters":25600,"station_id":"ce4bgnh2rcd13ifvqc0g","pricing_plan_id":"cebpf4jnsgd1na2vs0mg"},{"bike_id":"afac7f4a-b59e-4c70-84e3-ed0508c8967d","system_id":"levelo_inurba_marseille","lat":43.299145,"lon":5.380846,"is_reserved":false,"is_disabled":false,"rental_uris":{"android":"levelo://app?vid=afac7f4a-b59e-4c70-84e3-ed0508c8967d","ios":"levelo://app?vid=afac7f4a-b59e-4c70-84e3-ed0508c8967d"},"vehicle_type_id":"4","last_reported":1725642452,"current_range_meters":0,"station_id":"","pricing_plan_id":"cebpf4jnsgd1na2vs0mg"},{"bike_id":"d78b691e-dd13-499b-a285-8315296c6b08","system_id":"levelo_inurba_marseille","lat":43.296921,"lon":5.376579,"is_reserved":false,"is_disabled":false,"rental_uris":{"android":"levelo://app?vid=d78b691e-dd13-499b-a285-8315296c6b08","ios":"levelo://app?vid=d78b691e-dd13-499b-a285-8315296c6b08"},"vehicle_type_id":"4","last_reported":1725642452,"current_range_meters":0,"station_id":"ce4bgkh2rcd13ifvqbl0","pricing_plan_id":"cebpf4jnsgd1na2vs0mg"},{"bike_id":"7a102eff-e3e5-4ebc-b92d-7ff8a36d9b57","system_id":"levelo_inurba_marseille","lat":43.309589,"lon":5.390258,"is_reserved":false,"is_disabled":false,"rental_uris":{"android":"levelo://app?vid=7a102eff-e3e5-4ebc-b92d-7ff8a36d9b57","ios":"levelo://app?vid=7a102eff-e3e5-4ebc-b92d-7ff8a36d9b57"},"vehicle_type_id":"4","last_reported":1725642452,"current_range_meters":400,"station_id":"ce4bgup2rcd13ifvqco0","pricing_plan_id":"cebpf4jnsgd1na2vs0mg"},{"bike_id":"2d3cd696-cd31-4b67-96d2-4fd170f013d3","system_id":"levelo_inurba_marseille","lat":43.317557,"lon":5.390173,"is_reserved":false,"is_disabled":false,"rental_uris":{"android":"levelo://app?vid=2d3cd696-cd31-4b67-96d2-4fd170f013d3","ios":"levelo://app?vid=2d3cd696-cd31-4b67-96d2-4fd170f013d3"},"vehicle_type_id":"4","last_reported":1725642452,"current_range_meters":12800,"station_id":"ce4bhqp2rcd13ifvqhng","pricing_plan_id":"cebpf4jnsgd1na2vs0mg"},{"bike_id":"4cc992b9-cd99-491a-877b-0ef7e5a83f52","system_id":"levelo_inurba_marseille","lat":43.317557,"lon":5.390173,"is_reserved":false,"is_disabled":false,"rental_uris":{"android":"levelo://app?vid=4cc992b9-cd99-491a-877b-0ef7e5a83f52","ios":"levelo://app?vid=4cc992b9-cd99-491a-877b-0ef7e5a83f52"},"vehicle_type_id":"4","last_reported":1725642452,"current_range_meters":5200,"station_id":"ce4bhqp2rcd13ifvqhng","pricing_plan_id":"cebpf4jnsgd1na2vs0mg"},{"bike_id":"ece02c0b-5f08-462a-9099-faea2935dbe4","system_id":"levelo_inurba_marseille","lat":43.317557,"lon":5.390173,"is_reserved":false,"is_disabled":false,"rental_uris":{"android":"levelo://app?vid=ece02c0b-5f08-462a-9099-faea2935dbe4","ios":"levelo://app?vid=ece02c0b-5f08-462a-9099-faea2935dbe4"},"vehicle_type_id":"4","last_reported":1725642452,"current_range_meters":12800,"station_id":"ce4bhqp2rcd13ifvqhng","pricing_plan_id":"cebpf4jnsgd1na2vs0mg"},{"bike_id":"1af3945a-9b3b-4155-b7c6-ea58590d596b","system_id":"levelo_inurba_marseille","lat":43.317557,"lon":5.390173,"is_reserved":false,"is_disabled":false,"rental_uris":{"android":"levelo://app?vid=1af3945a-9b3b-4155-b7c6-ea58590d596b","ios":"levelo://app?vid=1af3945a-9b3b-4155-b7c6-ea58590d596b"},"vehicle_type_id":"4","last_reported":1725642452,"current_range_meters":31200,"station_id":"ce4bhqp2rcd13ifvqhng","pricing_plan_id":"cebpf4jnsgd1na2vs0mg"},{"bike_id":"c4ce77a1-5d9c-4555-a00a-1584476fe7f5","system_id":"levelo_inurba_marseille","lat":43.317557,"lon":5.390173,"is_reserved":false,"is_disabled":false,"rental_uris":{"android":"levelo://app?vid=c4ce77a1-5d9c-4555-a00a-1584476fe7f5","ios":"levelo://app?vid=c4ce77a1-5d9c-4555-a00a-1584476fe7f5"},"vehicle_type_id":"4","last_reported":1725642452,"current_range_meters":24000,"station_id":"ce4bhqp2rcd13ifvqhng","pricing_plan_id":"cebpf4jnsgd1na2vs0mg"},{"bike_id":"1c80b433-d963-415a-84a7-d61cc7d4d9d0","system_id":"levelo_inurba_marseille","lat":43.31758,"lon":5.39018,"is_reserved":false,"is_disabled":false,"rental_uris":{"android":"levelo://app?vid=1c80b433-d963-415a-84a7-d61cc7d4d9d0","ios":"levelo://app?vid=1c80b433-d963-415a-84a7-d61cc7d4d9d0"},"vehicle_type_id":"4","last_reported":1725642452,"current_range_meters":10400,"station_id":"ce4bhqp2rcd13ifvqhng","pricing_plan_id":"cebpf4jnsgd1na2vs0mg"},{"bike_id":"10f69fe8-7773-460f-8cbc-84d5043d302b","system_id":"levelo_inurba_marseille","lat":43.32253,"lon":5.387034,"is_reserved":false,"is_disabled":false,"rental_uris":{"android":"levelo://app?vid=10f69fe8-7773-460f-8cbc-84d5043d302b","ios":"levelo://app?vid=10f69fe8-7773-460f-8cbc-84d5043d302b"},"vehicle_type_id":"4","last_reported":1725642452,"current_range_meters":26400,"station_id":"","pricing_plan_id":"cebpf4jnsgd1na2vs0mg"},{"bike_id":"ee98d696-fc8f-4bd7-9acc-ba17f9c78589","system_id":"levelo_inurba_marseille","lat":43.3177,"lon":5.39016,"is_reserved":false,"is_disabled":false,"rental_uris":{"android":"levelo://app?vid=ee98d696-fc8f-4bd7-9acc-ba17f9c78589","ios":"levelo://app?vid=ee98d696-fc8f-4bd7-9acc-ba17f9c78589"},"vehicle_type_id":"4","last_reported":1725642452,"current_range_meters":1600,"station_id":"ce4bhqp2rcd13ifvqhng","pricing_plan_id":"cebpf4jnsgd1na2vs0mg"},{"bike_id":"d4c8c636-46ca-4bec-8ace-dbcca494fccf","system_id":"levelo_inurba_marseille","lat":43.317557,"lon":5.390173,"is_reserved":false,"is_disabled":false,"rental_uris":{"android":"levelo://app?vid=d4c8c636-46ca-4bec-8ace-dbcca494fccf","ios":"levelo://app?vid=d4c8c636-46ca-4bec-8ace-dbcca494fccf"},"vehicle_type_id":"4","last_reported":1725642452,"current_range_meters":19600,"station_id":"ce4bhqp2rcd13ifvqhng","pricing_plan_id":"cebpf4jnsgd1na2vs0mg"},{"bike_id":"931813eb-b6fd-4433-985f-b0c977997291","system_id":"levelo_inurba_marseille","lat":43.298037,"lon":5.381066,"is_reserved":false,"is_disabled":false,"rental_uris":{"android":"levelo://app?vid=931813eb-b6fd-4433-985f-b0c977997291","ios":"levelo://app?vid=931813eb-b6fd-4433-985f-b0c977997291"},"vehicle_type_id":"4","last_reported":1725642452,"current_range_meters":0,"station_id":"ce4bgip2rcd13ifvqbb0","pricing_plan_id":"cebpf4jnsgd1na2vs0mg"},{"bike_id":"dbcd87fe-ef73-4464-97ee-982ccaaffbb2","system_id":"levelo_inurba_marseille","lat":43.304278,"lon":5.388868,"is_reserved":false,"is_disabled":false,"rental_uris":{"android":"levelo://app?vid=dbcd87fe-ef73-4464-97ee-982ccaaffbb2","ios":"levelo://app?vid=dbcd87fe-ef73-4464-97ee-982ccaaffbb2"},"vehicle_type_id":"4","last_reported":1725642452,"current_range_meters":2400,"station_id":"ce4bgk12rcd13ifvqbi0","pricing_plan_id":"cebpf4jnsgd1na2vs0mg"},{"bike_id":"545d6733-799d-42a7-aba9-5bac3db08dc6","system_id":"levelo_inurba_marseille","lat":43.295748,"lon":5.37522,"is_reserved":false,"is_disabled":false,"rental_uris":{"android":"levelo://app?vid=545d6733-799d-42a7-aba9-5bac3db08dc6","ios":"levelo://app?vid=545d6733-799d-42a7-aba9-5bac3db08dc6"},"vehicle_type_id":"4","last_reported":1725642452,"current_range_meters":6000,"station_id":"ce4bgh92rcd13ifvqb50","pricing_plan_id":"cebpf4jnsgd1na2vs0mg"},{"bike_id":"9f829480-7005-4aa3-bd2d-8f55e3179b5d","system_id":"levelo_inurba_marseille","lat":43.295748,"lon":5.37522,"is_reserved":false,"is_disabled":false,"rental_uris":{"android":"levelo://app?vid=9f829480-7005-4aa3-bd2d-8f55e3179b5d","ios":"levelo://app?vid=9f829480-7005-4aa3-bd2d-8f55e3179b5d"},"vehicle_type_id":"4","last_reported":1725642452,"current_range_meters":0,"station_id":"ce4bgh92rcd13ifvqb50","pricing_plan_id":"cebpf4jnsgd1na2vs0mg"},{"bike_id":"17dc9b82-aef7-4279-8ed1-e511528e9f66","system_id":"levelo_inurba_marseille","lat":43.29619,"lon":5.37709,"is_reserved":false,"is_disabled":false,"rental_uris":{"android":"levelo://app?vid=17dc9b82-aef7-4279-8ed1-e511528e9f66","ios":"levelo://app?vid=17dc9b82-aef7-4279-8ed1-e511528e9f66"},"vehicle_type_id":"4","last_reported":1725642452,"current_range_meters":0,"station_id":"ce4bgi92rcd13ifvqb90","pricing_plan_id":"cebpf4jnsgd1na2vs0mg"},{"bike_id":"e71d04cd-40de-46eb-8cf2-82360321165f","system_id":"levelo_inurba_marseille","lat":43.29617,"lon":5.37711,"is_reserved":false,"is_disabled":false,"rental_uris":{"android":"levelo://app?vid=e71d04cd-40de-46eb-8cf2-82360321165f","ios":"levelo://app?vid=e71d04cd-40de-46eb-8cf2-82360321165f"},"vehicle_type_id":"4","last_reported":1725642452,"current_range_meters":0,"station_id":"ce4bgi92rcd13ifvqb90","pricing_plan_id":"cebpf4jnsgd1na2vs0mg"},{"bike_id":"a07d8f8c-b865-491b-8244-64ae8555226f","system_id":"levelo_inurba_marseille","lat":43.295169,"lon":5.390426,"is_reserved":false,"is_disabled":false,"rental_uris":{"android":"levelo://app?vid=a07d8f8c-b865-491b-8244-64ae8555226f","ios":"levelo://app?vid=a07d8f8c-b865-491b-8244-64ae8555226f"},"vehicle_type_id":"4","last_reported":1725642452,"current_range_meters":0,"station_id":"ce4bh3p2rcd13ifvqdp0","pricing_plan_id":"cebpf4jnsgd1na2vs0mg"},{"bike_id":"ed0ce010-21f4-42cc-8069-39c6ed93b7c1","system_id":"levelo_inurba_marseille","lat":43.301396,"lon":5.387812,"is_reserved":false,"is_disabled":false,"rental_uris":{"android":"levelo://app?vid=ed0ce010-21f4-42cc-8069-39c6ed93b7c1","ios":"levelo://app?vid=ed0ce010-21f4-42cc-8069-39c6ed93b7c1"},"vehicle_type_id":"4","last_reported":1725642452,"current_range_meters":4800,"station_id":"ce4bghh2rcd13ifvqb60","pricing_plan_id":"cebpf4jnsgd1na2vs0mg"},{"bike_id":"00cdca7f-8f26-45a6-96ac-a4c25cb4306d","system_id":"levelo_inurba_marseille","lat":43.301396,"lon":5.387812,"is_reserved":false,"is_disabled":false,"rental_uris":{"android":"levelo://app?vid=00cdca7f-8f26-45a6-96ac-a4c25cb4306d","ios":"levelo://app?vid=00cdca7f-8f26-45a6-96ac-a4c25cb4306d"},"vehicle_type_id":"4","last_reported":1725642452,"current_range_meters":8800,"station_id":"ce4bghh2rcd13ifvqb60","pricing_plan_id":"cebpf4jnsgd1na2vs0mg"},{"bike_id":"cb9ffe0c-8610-493b-937f-f4f2d33ca55b","system_id":"levelo_inurba_marseille","lat":43.301396,"lon":5.387812,"is_reserved":false,"is_disabled":false,"rental_uris":{"android":"levelo://app?vid=cb9ffe0c-8610-493b-937f-f4f2d33ca55b","ios":"levelo://app?vid=cb9ffe0c-8610-493b-937f-f4f2d33ca55b"},"vehicle_type_id":"4","last_reported":1725642452,"current_range_meters":0,"station_id":"ce4bghh2rcd13ifvqb60","pricing_plan_id":"cebpf4jnsgd1na2vs0mg"},{"bike_id":"c9ceca39-1ff0-4f4e-8efc-6cb0a977d5bb","system_id":"levelo_inurba_marseille","lat":43.32367,"lon":5.388836,"is_reserved":false,"is_disabled":false,"rental_uris":{"android":"levelo://app?vid=c9ceca39-1ff0-4f4e-8efc-6cb0a977d5bb","ios":"levelo://app?vid=c9ceca39-1ff0-4f4e-8efc-6cb0a977d5bb"},"vehicle_type_id":"4","last_reported":1725642452,"current_range_meters":15200,"station_id":"ce4bhqp2rcd13ifvqhog","pricing_plan_id":"cebpf4jnsgd1na2vs0mg"},{"bike_id":"fcc8f44c-e90a-4970-9b53-7af36a2f285d","system_id":"levelo_inurba_marseille","lat":43.32371,"lon":5.38885,"is_reserved":false,"is_disabled":false,"rental_uris":{"android":"levelo://app?vid=fcc8f44c-e90a-4970-9b53-7af36a2f285d","ios":"levelo://app?vid=fcc8f44c-e90a-4970-9b53-7af36a2f285d"},"vehicle_type_id":"4","last_reported":1725642452,"current_range_meters":4000,"station_id":"ce4bhqp2rcd13ifvqhog","pricing_plan_id":"cebpf4jnsgd1na2vs0mg"},{"bike_id":"d92b249e-931d-43e9-8a0b-1b788002b27a","system_id":"levelo_inurba_marseille","lat":43.32369,"lon":5.38889,"is_reserved":false,"is_disabled":false,"rental_uris":{"android":"levelo://app?vid=d92b249e-931d-43e9-8a0b-1b788002b27a","ios":"levelo://app?vid=d92b249e-931d-43e9-8a0b-1b788002b27a"},"vehicle_type_id":"4","last_reported":1725642452,"current_range_meters":18400,"station_id":"ce4bhqp2rcd13ifvqhog","pricing_plan_id":"cebpf4jnsgd1na2vs0mg"},{"bike_id":"81a98824-2008-44d6-9c81-2be30d9e0932","system_id":"levelo_inurba_marseille","lat":43.32367,"lon":5.38892,"is_reserved":false,"is_disabled":false,"rental_uris":{"android":"levelo://app?vid=81a98824-2008-44d6-9c81-2be30d9e0932","ios":"levelo://app?vid=81a98824-2008-44d6-9c81-2be30d9e0932"},"vehicle_type_id":"4","last_reported":1725642452,"current_range_meters":0,"station_id":"ce4bhqp2rcd13ifvqhog","pricing_plan_id":"cebpf4jnsgd1na2vs0mg"},{"bike_id":"0f513e08-4a65-41cb-873f-9be7541ee9a4","system_id":"levelo_inurba_marseille","lat":43.29349,"lon":5.37143,"is_reserved":false,"is_disabled":false,"rental_uris":{"android":"levelo://app?vid=0f513e08-4a65-41cb-873f-9be7541ee9a4","ios":"levelo://app?vid=0f513e08-4a65-41cb-873f-9be7541ee9a4"},"vehicle_type_id":"4","last_reported":1725642452,"current_range_meters":0,"station_id":"","pricing_plan_id":"cebpf4jnsgd1na2vs0mg"},{"bike_id":"1389f4a0-fe8c-45a8-89e1-761602337135","system_id":"levelo_inurba_marseille","lat":43.32367,"lon":5.38925,"is_reserved":false,"is_disabled":false,"rental_uris":{"android":"levelo://app?vid=1389f4a0-fe8c-45a8-89e1-761602337135","ios":"levelo://app?vid=1389f4a0-fe8c-45a8-89e1-761602337135"},"vehicle_type_id":"4","last_reported":1725642452,"current_range_meters":23200,"station_id":"ce4bhqp2rcd13ifvqhog","pricing_plan_id":"cebpf4jnsgd1na2vs0mg"},{"bike_id":"974dd4ac-df50-4dce-8630-117e0e6e002a","system_id":"levelo_inurba_marseille","lat":43.3237,"lon":5.38926,"is_reserved":false,"is_disabled":false,"rental_uris":{"android":"levelo://app?vid=974dd4ac-df50-4dce-8630-117e0e6e002a","ios":"levelo://app?vid=974dd4ac-df50-4dce-8630-117e0e6e002a"},"vehicle_type_id":"4","last_reported":1725642452,"current_range_meters":28400,"station_id":"ce4bhqp2rcd13ifvqhog","pricing_plan_id":"cebpf4jnsgd1na2vs0mg"},{"bike_id":"41704600-e9e6-4869-aefd-a4a12996605b","system_id":"levelo_inurba_marseille","lat":43.3237,"lon":5.38926,"is_reserved":false,"is_disabled":false,"rental_uris":{"android":"levelo://app?vid=41704600-e9e6-4869-aefd-a4a12996605b","ios":"levelo://app?vid=41704600-e9e6-4869-aefd-a4a12996605b"},"vehicle_type_id":"4","last_reported":1725642452,"current_range_meters":16000,"station_id":"ce4bhqp2rcd13ifvqhog","pricing_plan_id":"cebpf4jnsgd1na2vs0mg"},{"bike_id":"21fae847-6903-478f-a8c6-7ab18e8c5e84","system_id":"levelo_inurba_marseille","lat":43.29284,"lon":5.36842,"is_reserved":false,"is_disabled":false,"rental_uris":{"android":"levelo://app?vid=21fae847-6903-478f-a8c6-7ab18e8c5e84","ios":"levelo://app?vid=21fae847-6903-478f-a8c6-7ab18e8c5e84"},"vehicle_type_id":"4","last_reported":1725642452,"current_range_meters":800,"station_id":"ce4bhbp2rcd13ifvqesg","pricing_plan_id":"cebpf4jnsgd1na2vs0mg"},{"bike_id":"617eb6bb-8caf-4f82-9f5a-a93b1bf32fbf","system_id":"levelo_inurba_marseille","lat":43.29309,"lon":5.37156,"is_reserved":false,"is_disabled":false,"rental_uris":{"android":"levelo://app?vid=617eb6bb-8caf-4f82-9f5a-a93b1bf32fbf","ios":"levelo://app?vid=617eb6bb-8caf-4f82-9f5a-a93b1bf32fbf"},"vehicle_type_id":"4","last_reported":1725642452,"current_range_meters":0,"station_id":"ce4bgh92rcd13ifvqb40","pricing_plan_id":"cebpf4jnsgd1na2vs0mg"},{"bike_id":"a64ce11f-c810-4b4c-9fc4-f69f214029ca","system_id":"levelo_inurba_marseille","lat":43.29279,"lon":5.36843,"is_reserved":false,"is_disabled":false,"rental_uris":{"android":"levelo://app?vid=a64ce11f-c810-4b4c-9fc4-f69f214029ca","ios":"levelo://app?vid=a64ce11f-c810-4b4c-9fc4-f69f214029ca"},"vehicle_type_id":"4","last_reported":1725642452,"current_range_meters":0,"station_id":"ce4bhbp2rcd13ifvqesg","pricing_plan_id":"cebpf4jnsgd1na2vs0mg"},{"bike_id":"de216316-1575-40f5-a616-814ee44aaa56","system_id":"levelo_inurba_marseille","lat":43.29256,"lon":5.36642,"is_reserved":false,"is_disabled":false,"rental_uris":{"android":"levelo://app?vid=de216316-1575-40f5-a616-814ee44aaa56","ios":"levelo://app?vid=de216316-1575-40f5-a616-814ee44aaa56"},"vehicle_type_id":"4","last_reported":1725642452,"current_range_meters":26800,"station_id":"","pricing_plan_id":"cebpf4jnsgd1na2vs0mg"},{"bike_id":"4badf78d-97a0-4c2b-a295-d4e5cb42edfa","system_id":"levelo_inurba_marseille","lat":43.305994,"lon":5.393687,"is_reserved":false,"is_disabled":false,"rental_uris":{"android":"levelo://app?vid=4badf78d-97a0-4c2b-a295-d4e5cb42edfa","ios":"levelo://app?vid=4badf78d-97a0-4c2b-a295-d4e5cb42edfa"},"vehicle_type_id":"4","last_reported":1725642452,"current_range_meters":20400,"station_id":"ce4bh0p2rcd13ifvqd80","pricing_plan_id":"cebpf4jnsgd1na2vs0mg"},{"bike_id":"37349c04-a8f1-4db7-bbaf-4a113697daa8","system_id":"levelo_inurba_marseille","lat":43.2936,"lon":5.37835,"is_reserved":false,"is_disabled":false,"rental_uris":{"android":"levelo://app?vid=37349c04-a8f1-4db7-bbaf-4a113697daa8","ios":"levelo://app?vid=37349c04-a8f1-4db7-bbaf-4a113697daa8"},"vehicle_type_id":"4","last_reported":1725642452,"current_range_meters":4400,"station_id":"ce4bgjh2rcd13ifvqbf0","pricing_plan_id":"cebpf4jnsgd1na2vs0mg"},{"bike_id":"39725cf0-ce22-4fe5-a168-67759b7558e7","system_id":"levelo_inurba_marseille","lat":43.30085,"lon":5.390856,"is_reserved":false,"is_disabled":false,"rental_uris":{"android":"levelo://app?vid=39725cf0-ce22-4fe5-a168-67759b7558e7","ios":"levelo://app?vid=39725cf0-ce22-4fe5-a168-67759b7558e7"},"vehicle_type_id":"4","last_reported":1725642452,"current_range_meters":5200,"station_id":"ce4bh192rcd13ifvqdb0","pricing_plan_id":"cebpf4jnsgd1na2vs0mg"},{"bike_id":"325ab079-efad-49aa-9767-38769be78935","system_id":"levelo_inurba_marseille","lat":43.30085,"lon":5.390856,"is_reserved":false,"is_disabled":false,"rental_uris":{"android":"levelo://app?vid=325ab079-efad-49aa-9767-38769be78935","ios":"levelo://app?vid=325ab079-efad-49aa-9767-38769be78935"},"vehicle_type_id":"4","last_reported":1725642452,"current_range_meters":19200,"station_id":"ce4bh192rcd13ifvqdb0","pricing_plan_id":"cebpf4jnsgd1na2vs0mg"},{"bike_id":"93b7dce8-9168-4fd8-80c9-056403a981b4","system_id":"levelo_inurba_marseille","lat":43.30085,"lon":5.390856,"is_reserved":false,"is_disabled":false,"rental_uris":{"android":"levelo://app?vid=93b7dce8-9168-4fd8-80c9-056403a981b4","ios":"levelo://app?vid=93b7dce8-9168-4fd8-80c9-056403a981b4"},"vehicle_type_id":"4","last_reported":1725642452,"current_range_meters":21200,"station_id":"ce4bh192rcd13ifvqdb0","pricing_plan_id":"cebpf4jnsgd1na2vs0mg"},{"bike_id":"60cce442-c2bf-4d17-975d-5f751a957083","system_id":"levelo_inurba_marseille","lat":43.292311,"lon":5.360731,"is_reserved":false,"is_disabled":false,"rental_uris":{"android":"levelo://app?vid=60cce442-c2bf-4d17-975d-5f751a957083","ios":"levelo://app?vid=60cce442-c2bf-4d17-975d-5f751a957083"},"vehicle_type_id":"4","last_reported":1725642452,"current_range_meters":24000,"station_id":"ce4bhbh2rcd13ifvqeqg","pricing_plan_id":"cebpf4jnsgd1na2vs0mg"},{"bike_id":"4f4a563d-198e-4cd1-b8d1-b6d56d012d4c","system_id":"levelo_inurba_marseille","lat":43.298797,"lon":5.389053,"is_reserved":false,"is_disabled":false,"rental_uris":{"android":"levelo://app?vid=4f4a563d-198e-4cd1-b8d1-b6d56d012d4c","ios":"levelo://app?vid=4f4a563d-198e-4cd1-b8d1-b6d56d012d4c"},"vehicle_type_id":"4","last_reported":1725642452,"current_range_meters":0,"station_id":"ce4bh392rcd13ifvqdl0","pricing_plan_id":"cebpf4jnsgd1na2vs0mg"},{"bike_id":"b0cd4c78-a8ba-4f5a-8f2f-1fd224a31700","system_id":"levelo_inurba_marseille","lat":43.29199,"lon":5.35811,"is_reserved":false,"is_disabled":false,"rental_uris":{"android":"levelo://app?vid=b0cd4c78-a8ba-4f5a-8f2f-1fd224a31700","ios":"levelo://app?vid=b0cd4c78-a8ba-4f5a-8f2f-1fd224a31700"},"vehicle_type_id":"4","last_reported":1725642452,"current_range_meters":0,"station_id":"ce4bhb12rcd13ifvqel0","pricing_plan_id":"cebpf4jnsgd1na2vs0mg"},{"bike_id":"18d4821b-7670-48ab-b86d-fc7f8d1c2c11","system_id":"levelo_inurba_marseille","lat":43.292005,"lon":5.357875,"is_reserved":false,"is_disabled":false,"rental_uris":{"android":"levelo://app?vid=18d4821b-7670-48ab-b86d-fc7f8d1c2c11","ios":"levelo://app?vid=18d4821b-7670-48ab-b86d-fc7f8d1c2c11"},"vehicle_type_id":"4","last_reported":1725642452,"current_range_meters":4800,"station_id":"ce4bhb12rcd13ifvqel0","pricing_plan_id":"cebpf4jnsgd1na2vs0mg"},{"bike_id":"61a25f3b-5411-4a4c-87de-b910138f138e","system_id":"levelo_inurba_marseille","lat":43.292005,"lon":5.357875,"is_reserved":false,"is_disabled":false,"rental_uris":{"android":"levelo://app?vid=61a25f3b-5411-4a4c-87de-b910138f138e","ios":"levelo://app?vid=61a25f3b-5411-4a4c-87de-b910138f138e"},"vehicle_type_id":"4","last_reported":1725642452,"current_range_meters":20800,"station_id":"ce4bhb12rcd13ifvqel0","pricing_plan_id":"cebpf4jnsgd1na2vs0mg"},{"bike_id":"72a262d1-56b9-420d-a324-8acdd6c59f02","system_id":"levelo_inurba_marseille","lat":43.313291,"lon":5.396838,"is_reserved":false,"is_disabled":false,"rental_uris":{"android":"levelo://app?vid=72a262d1-56b9-420d-a324-8acdd6c59f02","ios":"levelo://app?vid=72a262d1-56b9-420d-a324-8acdd6c59f02"},"vehicle_type_id":"4","last_reported":1725642452,"current_range_meters":15600,"station_id":"ce4bgvp2rcd13ifvqcu0","pricing_plan_id":"cebpf4jnsgd1na2vs0mg"},{"bike_id":"feadfb86-5c08-4a6c-bc8b-ec3624a9b0d9","system_id":"levelo_inurba_marseille","lat":43.295169,"lon":5.390426,"is_reserved":false,"is_disabled":false,"rental_uris":{"android":"levelo://app?vid=feadfb86-5c08-4a6c-bc8b-ec3624a9b0d9","ios":"levelo://app?vid=feadfb86-5c08-4a6c-bc8b-ec3624a9b0d9"},"vehicle_type_id":"4","last_reported":1725642452,"current_range_meters":15200,"station_id":"ce4bh3p2rcd13ifvqdp0","pricing_plan_id":"cebpf4jnsgd1na2vs0mg"},{"bike_id":"790ef065-c5de-45bc-bccd-29dd0a9f65a3","system_id":"levelo_inurba_marseille","lat":43.313291,"lon":5.396838,"is_reserved":false,"is_disabled":false,"rental_uris":{"android":"levelo://app?vid=790ef065-c5de-45bc-bccd-29dd0a9f65a3","ios":"levelo://app?vid=790ef065-c5de-45bc-bccd-29dd0a9f65a3"},"vehicle_type_id":"4","last_reported":1725642452,"current_range_meters":6800,"station_id":"ce4bgvp2rcd13ifvqcu0","pricing_plan_id":"cebpf4jnsgd1na2vs0mg"},{"bike_id":"c660ea8c-92f1-44ce-9a33-aca8880a3cfa","system_id":"levelo_inurba_marseille","lat":43.30889,"lon":5.39651,"is_reserved":false,"is_disabled":false,"rental_uris":{"android":"levelo://app?vid=c660ea8c-92f1-44ce-9a33-aca8880a3cfa","ios":"levelo://app?vid=c660ea8c-92f1-44ce-9a33-aca8880a3cfa"},"vehicle_type_id":"4","last_reported":1725642452,"current_range_meters":7600,"station_id":"ce4bh012rcd13ifvqcv0","pricing_plan_id":"cebpf4jnsgd1na2vs0mg"},{"bike_id":"7e4db96d-efd7-464b-be76-e4808ca3b0a2","system_id":"levelo_inurba_marseille","lat":43.309038,"lon":5.396546,"is_reserved":false,"is_disabled":false,"rental_uris":{"android":"levelo://app?vid=7e4db96d-efd7-464b-be76-e4808ca3b0a2","ios":"levelo://app?vid=7e4db96d-efd7-464b-be76-e4808ca3b0a2"},"vehicle_type_id":"4","last_reported":1725642452,"current_range_meters":1200,"station_id":"ce4bh012rcd13ifvqcv0","pricing_plan_id":"cebpf4jnsgd1na2vs0mg"},{"bike_id":"909e854e-293e-4569-850d-4bfd9759acbf","system_id":"levelo_inurba_marseille","lat":43.29529,"lon":5.385581,"is_reserved":false,"is_disabled":false,"rental_uris":{"android":"levelo://app?vid=909e854e-293e-4569-850d-4bfd9759acbf","ios":"levelo://app?vid=909e854e-293e-4569-850d-4bfd9759acbf"},"vehicle_type_id":"4","last_reported":1725642452,"current_range_meters":10000,"station_id":"ce4bgih2rcd13ifvqba0","pricing_plan_id":"cebpf4jnsgd1na2vs0mg"},{"bike_id":"586801f4-ce9e-49e2-af9f-960333407252","system_id":"levelo_inurba_marseille","lat":43.295283,"lon":5.385387,"is_reserved":false,"is_disabled":false,"rental_uris":{"android":"levelo://app?vid=586801f4-ce9e-49e2-af9f-960333407252","ios":"levelo://app?vid=586801f4-ce9e-49e2-af9f-960333407252"},"vehicle_type_id":"4","last_reported":1725642452,"current_range_meters":0,"station_id":"ce4bgih2rcd13ifvqba0","pricing_plan_id":"cebpf4jnsgd1na2vs0mg"},{"bike_id":"0a677f32-20fb-4193-b492-d8a498f6a45e","system_id":"levelo_inurba_marseille","lat":43.29529,"lon":5.385581,"is_reserved":false,"is_disabled":false,"rental_uris":{"android":"levelo://app?vid=0a677f32-20fb-4193-b492-d8a498f6a45e","ios":"levelo://app?vid=0a677f32-20fb-4193-b492-d8a498f6a45e"},"vehicle_type_id":"4","last_reported":1725642452,"current_range_meters":0,"station_id":"ce4bgih2rcd13ifvqba0","pricing_plan_id":"cebpf4jnsgd1na2vs0mg"},{"bike_id":"a7f1b83e-bbf5-4053-a9ad-896ffab8364e","system_id":"levelo_inurba_marseille","lat":43.290779,"lon":5.371482,"is_reserved":false,"is_disabled":false,"rental_uris":{"android":"levelo://app?vid=a7f1b83e-bbf5-4053-a9ad-896ffab8364e","ios":"levelo://app?vid=a7f1b83e-bbf5-4053-a9ad-896ffab8364e"},"vehicle_type_id":"4","last_reported":1725642452,"current_range_meters":0,"station_id":"ce4bh5p2rcd13ifvqe4g","pricing_plan_id":"cebpf4jnsgd1na2vs0mg"},{"bike_id":"32d32dc6-955c-4dce-862a-fadf6e9e90d5","system_id":"levelo_inurba_marseille","lat":43.290779,"lon":5.371482,"is_reserved":false,"is_disabled":false,"rental_uris":{"android":"levelo://app?vid=32d32dc6-955c-4dce-862a-fadf6e9e90d5","ios":"levelo://app?vid=32d32dc6-955c-4dce-862a-fadf6e9e90d5"},"vehicle_type_id":"4","last_reported":1725642452,"current_range_meters":1600,"station_id":"ce4bh5p2rcd13ifvqe4g","pricing_plan_id":"cebpf4jnsgd1na2vs0mg"},{"bike_id":"5a265609-f3c2-49dc-b633-20361f33ab1d","system_id":"levelo_inurba_marseille","lat":43.290779,"lon":5.371482,"is_reserved":false,"is_disabled":false,"rental_uris":{"android":"levelo://app?vid=5a265609-f3c2-49dc-b633-20361f33ab1d","ios":"levelo://app?vid=5a265609-f3c2-49dc-b633-20361f33ab1d"},"vehicle_type_id":"4","last_reported":1725642452,"current_range_meters":16000,"station_id":"ce4bh5p2rcd13ifvqe4g","pricing_plan_id":"cebpf4jnsgd1na2vs0mg"},{"bike_id":"fe4329ca-e7d4-4b76-b402-c42ff6057a81","system_id":"levelo_inurba_marseille","lat":43.294153,"lon":5.386305,"is_reserved":false,"is_disabled":false,"rental_uris":{"android":"levelo://app?vid=fe4329ca-e7d4-4b76-b402-c42ff6057a81","ios":"levelo://app?vid=fe4329ca-e7d4-4b76-b402-c42ff6057a81"},"vehicle_type_id":"4","last_reported":1725642452,"current_range_meters":0,"station_id":"ce4bh2h2rcd13ifvqdh0","pricing_plan_id":"cebpf4jnsgd1na2vs0mg"},{"bike_id":"0ce61fce-2154-4c6f-b018-909b56c058b0","system_id":"levelo_inurba_marseille","lat":43.29425,"lon":5.38635,"is_reserved":false,"is_disabled":false,"rental_uris":{"android":"levelo://app?vid=0ce61fce-2154-4c6f-b018-909b56c058b0","ios":"levelo://app?vid=0ce61fce-2154-4c6f-b018-909b56c058b0"},"vehicle_type_id":"4","last_reported":1725642452,"current_range_meters":0,"station_id":"ce4bh2h2rcd13ifvqdh0","pricing_plan_id":"cebpf4jnsgd1na2vs0mg"},{"bike_id":"0a4149c3-4912-4e36-beab-a073077c7c90","system_id":"levelo_inurba_marseille","lat":43.29417,"lon":5.38623,"is_reserved":false,"is_disabled":false,"rental_uris":{"android":"levelo://app?vid=0a4149c3-4912-4e36-beab-a073077c7c90","ios":"levelo://app?vid=0a4149c3-4912-4e36-beab-a073077c7c90"},"vehicle_type_id":"4","last_reported":1725642452,"current_range_meters":0,"station_id":"ce4bh2h2rcd13ifvqdh0","pricing_plan_id":"cebpf4jnsgd1na2vs0mg"},{"bike_id":"fce66434-2e23-4822-a5b2-ad7e7bc80883","system_id":"levelo_inurba_marseille","lat":43.289315,"lon":5.366346,"is_reserved":false,"is_disabled":false,"rental_uris":{"android":"levelo://app?vid=fce66434-2e23-4822-a5b2-ad7e7bc80883","ios":"levelo://app?vid=fce66434-2e23-4822-a5b2-ad7e7bc80883"},"vehicle_type_id":"4","last_reported":1725642452,"current_range_meters":14000,"station_id":"ce4bhap2rcd13ifvqek0","pricing_plan_id":"cebpf4jnsgd1na2vs0mg"},{"bike_id":"224d9351-0688-4568-8996-ffd710003728","system_id":"levelo_inurba_marseille","lat":43.292642,"lon":5.384254,"is_reserved":false,"is_disabled":false,"rental_uris":{"android":"levelo://app?vid=224d9351-0688-4568-8996-ffd710003728","ios":"levelo://app?vid=224d9351-0688-4568-8996-ffd710003728"},"vehicle_type_id":"4","last_reported":1725642452,"current_range_meters":0,"station_id":"ce4bh692rcd13ifvqea0","pricing_plan_id":"cebpf4jnsgd1na2vs0mg"},{"bike_id":"ba3c99e5-5f81-42c8-a0a7-427fdf67d139","system_id":"levelo_inurba_marseille","lat":43.292642,"lon":5.384254,"is_reserved":false,"is_disabled":false,"rental_uris":{"android":"levelo://app?vid=ba3c99e5-5f81-42c8-a0a7-427fdf67d139","ios":"levelo://app?vid=ba3c99e5-5f81-42c8-a0a7-427fdf67d139"},"vehicle_type_id":"4","last_reported":1725642452,"current_range_meters":28000,"station_id":"ce4bh692rcd13ifvqea0","pricing_plan_id":"cebpf4jnsgd1na2vs0mg"},{"bike_id":"413cea6c-3b8e-49e1-8272-a9d9f70ad7c5","system_id":"levelo_inurba_marseille","lat":43.292642,"lon":5.384254,"is_reserved":false,"is_disabled":false,"rental_uris":{"android":"levelo://app?vid=413cea6c-3b8e-49e1-8272-a9d9f70ad7c5","ios":"levelo://app?vid=413cea6c-3b8e-49e1-8272-a9d9f70ad7c5"},"vehicle_type_id":"4","last_reported":1725642452,"current_range_meters":22400,"station_id":"ce4bh692rcd13ifvqea0","pricing_plan_id":"cebpf4jnsgd1na2vs0mg"},{"bike_id":"0ffeda56-4a76-42fc-9175-dc6529f9ce0e","system_id":"levelo_inurba_marseille","lat":43.29269,"lon":5.38444,"is_reserved":false,"is_disabled":false,"rental_uris":{"android":"levelo://app?vid=0ffeda56-4a76-42fc-9175-dc6529f9ce0e","ios":"levelo://app?vid=0ffeda56-4a76-42fc-9175-dc6529f9ce0e"},"vehicle_type_id":"4","last_reported":1725642452,"current_range_meters":0,"station_id":"ce4bh692rcd13ifvqea0","pricing_plan_id":"cebpf4jnsgd1na2vs0mg"},{"bike_id":"5f4188a5-1688-4d55-847b-c239eec33b08","system_id":"levelo_inurba_marseille","lat":43.29273,"lon":5.38453,"is_reserved":false,"is_disabled":false,"rental_uris":{"android":"levelo://app?vid=5f4188a5-1688-4d55-847b-c239eec33b08","ios":"levelo://app?vid=5f4188a5-1688-4d55-847b-c239eec33b08"},"vehicle_type_id":"4","last_reported":1725642452,"current_range_meters":0,"station_id":"ce4bh692rcd13ifvqea0","pricing_plan_id":"cebpf4jnsgd1na2vs0mg"},{"bike_id":"830d7d3c-6b1a-4292-b864-3037d9df36f4","system_id":"levelo_inurba_marseille","lat":43.29262,"lon":5.38455,"is_reserved":false,"is_disabled":false,"rental_uris":{"android":"levelo://app?vid=830d7d3c-6b1a-4292-b864-3037d9df36f4","ios":"levelo://app?vid=830d7d3c-6b1a-4292-b864-3037d9df36f4"},"vehicle_type_id":"4","last_reported":1725642452,"current_range_meters":0,"station_id":"ce4bh692rcd13ifvqea0","pricing_plan_id":"cebpf4jnsgd1na2vs0mg"},{"bike_id":"3f766c17-2cf0-4dde-8aeb-57fc83c9d833","system_id":"levelo_inurba_marseille","lat":43.273613,"lon":5.362705,"is_reserved":false,"is_disabled":false,"rental_uris":{"android":"levelo://app?vid=3f766c17-2cf0-4dde-8aeb-57fc83c9d833","ios":"levelo://app?vid=3f766c17-2cf0-4dde-8aeb-57fc83c9d833"},"vehicle_type_id":"4","last_reported":1725642452,"current_range_meters":14800,"station_id":"ce4bhbh2rcd13ifvqeo0","pricing_plan_id":"cebpf4jnsgd1na2vs0mg"},{"bike_id":"05ce42da-80c3-42bf-9edc-10f8cbfe87f6","system_id":"levelo_inurba_marseille","lat":43.290104,"lon":5.356111,"is_reserved":false,"is_disabled":false,"rental_uris":{"android":"levelo://app?vid=05ce42da-80c3-42bf-9edc-10f8cbfe87f6","ios":"levelo://app?vid=05ce42da-80c3-42bf-9edc-10f8cbfe87f6"},"vehicle_type_id":"4","last_reported":1725642452,"current_range_meters":0,"station_id":"ce4bhb92rcd13ifvqen0","pricing_plan_id":"cebpf4jnsgd1na2vs0mg"},{"bike_id":"3ee3b1fd-1e5c-49ba-8525-ac1b0a49e439","system_id":"levelo_inurba_marseille","lat":43.29008,"lon":5.35617,"is_reserved":false,"is_disabled":false,"rental_uris":{"android":"levelo://app?vid=3ee3b1fd-1e5c-49ba-8525-ac1b0a49e439","ios":"levelo://app?vid=3ee3b1fd-1e5c-49ba-8525-ac1b0a49e439"},"vehicle_type_id":"4","last_reported":1725642452,"current_range_meters":0,"station_id":"ce4bhb92rcd13ifvqen0","pricing_plan_id":"cebpf4jnsgd1na2vs0mg"},{"bike_id":"1fd78426-0dc1-4850-84d4-55413d8db715","system_id":"levelo_inurba_marseille","lat":43.29001,"lon":5.3561,"is_reserved":false,"is_disabled":false,"rental_uris":{"android":"levelo://app?vid=1fd78426-0dc1-4850-84d4-55413d8db715","ios":"levelo://app?vid=1fd78426-0dc1-4850-84d4-55413d8db715"},"vehicle_type_id":"4","last_reported":1725642452,"current_range_meters":0,"station_id":"ce4bhb92rcd13ifvqen0","pricing_plan_id":"cebpf4jnsgd1na2vs0mg"},{"bike_id":"07121751-977e-4441-8afc-df24bc4beef7","system_id":"levelo_inurba_marseille","lat":43.290995,"lon":5.381361,"is_reserved":false,"is_disabled":false,"rental_uris":{"android":"levelo://app?vid=07121751-977e-4441-8afc-df24bc4beef7","ios":"levelo://app?vid=07121751-977e-4441-8afc-df24bc4beef7"},"vehicle_type_id":"4","last_reported":1725642452,"current_range_meters":0,"station_id":"ce4bh512rcd13ifvqe2g","pricing_plan_id":"cebpf4jnsgd1na2vs0mg"},{"bike_id":"e7b3dc9a-1eb2-4d70-a084-99b363e376ca","system_id":"levelo_inurba_marseille","lat":43.297807,"lon":5.393533,"is_reserved":false,"is_disabled":false,"rental_uris":{"android":"levelo://app?vid=e7b3dc9a-1eb2-4d70-a084-99b363e376ca","ios":"levelo://app?vid=e7b3dc9a-1eb2-4d70-a084-99b363e376ca"},"vehicle_type_id":"4","last_reported":1725642452,"current_range_meters":10000,"station_id":"chh1huq6cuj3fo74tm60","pricing_plan_id":"cebpf4jnsgd1na2vs0mg"},{"bike_id":"58492005-85f4-42a2-b932-a380f5d0ee36","system_id":"levelo_inurba_marseille","lat":43.29793,"lon":5.39352,"is_reserved":false,"is_disabled":false,"rental_uris":{"android":"levelo://app?vid=58492005-85f4-42a2-b932-a380f5d0ee36","ios":"levelo://app?vid=58492005-85f4-42a2-b932-a380f5d0ee36"},"vehicle_type_id":"4","last_reported":1725642452,"current_range_meters":0,"station_id":"chh1huq6cuj3fo74tm60","pricing_plan_id":"cebpf4jnsgd1na2vs0mg"},{"bike_id":"62b9599f-7e15-4911-b1c9-791d591d26db","system_id":"levelo_inurba_marseille","lat":43.297807,"lon":5.393533,"is_reserved":false,"is_disabled":false,"rental_uris":{"android":"levelo://app?vid=62b9599f-7e15-4911-b1c9-791d591d26db","ios":"levelo://app?vid=62b9599f-7e15-4911-b1c9-791d591d26db"},"vehicle_type_id":"4","last_reported":1725642452,"current_range_meters":23200,"station_id":"chh1huq6cuj3fo74tm60","pricing_plan_id":"cebpf4jnsgd1na2vs0mg"},{"bike_id":"86dff939-81ae-499b-bd4b-85df48383cc1","system_id":"levelo_inurba_marseille","lat":43.29528,"lon":5.39039,"is_reserved":false,"is_disabled":false,"rental_uris":{"android":"levelo://app?vid=86dff939-81ae-499b-bd4b-85df48383cc1","ios":"levelo://app?vid=86dff939-81ae-499b-bd4b-85df48383cc1"},"vehicle_type_id":"4","last_reported":1725642452,"current_range_meters":14000,"station_id":"ce4bh3p2rcd13ifvqdp0","pricing_plan_id":"cebpf4jnsgd1na2vs0mg"},{"bike_id":"5ed5cabd-ac13-4642-83a4-9e1637398442","system_id":"levelo_inurba_marseille","lat":43.29523,"lon":5.39032,"is_reserved":false,"is_disabled":false,"rental_uris":{"android":"levelo://app?vid=5ed5cabd-ac13-4642-83a4-9e1637398442","ios":"levelo://app?vid=5ed5cabd-ac13-4642-83a4-9e1637398442"},"vehicle_type_id":"4","last_reported":1725642452,"current_range_meters":0,"station_id":"ce4bh3p2rcd13ifvqdp0","pricing_plan_id":"cebpf4jnsgd1na2vs0mg"},{"bike_id":"62a38062-cc76-4ba7-b992-bf5e703f15f2","system_id":"levelo_inurba_marseille","lat":43.330442,"lon":5.389148,"is_reserved":false,"is_disabled":false,"rental_uris":{"android":"levelo://app?vid=62a38062-cc76-4ba7-b992-bf5e703f15f2","ios":"levelo://app?vid=62a38062-cc76-4ba7-b992-bf5e703f15f2"},"vehicle_type_id":"4","last_reported":1725642452,"current_range_meters":800,"station_id":"ce4bhr92rcd13ifvqhrg","pricing_plan_id":"cebpf4jnsgd1na2vs0mg"},{"bike_id":"f38f8c15-c577-455f-a775-159675baa7ec","system_id":"levelo_inurba_marseille","lat":43.29522,"lon":5.39037,"is_reserved":false,"is_disabled":false,"rental_uris":{"android":"levelo://app?vid=f38f8c15-c577-455f-a775-159675baa7ec","ios":"levelo://app?vid=f38f8c15-c577-455f-a775-159675baa7ec"},"vehicle_type_id":"4","last_reported":1725642452,"current_range_meters":4400,"station_id":"ce4bh3p2rcd13ifvqdp0","pricing_plan_id":"cebpf4jnsgd1na2vs0mg"},{"bike_id":"1aaea0a3-088a-4135-88a5-6cf89c8cce77","system_id":"levelo_inurba_marseille","lat":43.33024,"lon":5.39042,"is_reserved":false,"is_disabled":false,"rental_uris":{"android":"levelo://app?vid=1aaea0a3-088a-4135-88a5-6cf89c8cce77","ios":"levelo://app?vid=1aaea0a3-088a-4135-88a5-6cf89c8cce77"},"vehicle_type_id":"4","last_reported":1725642452,"current_range_meters":0,"station_id":"ce4bhr92rcd13ifvqhrg","pricing_plan_id":"cebpf4jnsgd1na2vs0mg"},{"bike_id":"979b7a99-0e2f-4e68-be17-c2cbbdd35cbf","system_id":"levelo_inurba_marseille","lat":43.33025,"lon":5.39042,"is_reserved":false,"is_disabled":false,"rental_uris":{"android":"levelo://app?vid=979b7a99-0e2f-4e68-be17-c2cbbdd35cbf","ios":"levelo://app?vid=979b7a99-0e2f-4e68-be17-c2cbbdd35cbf"},"vehicle_type_id":"4","last_reported":1725642452,"current_range_meters":22800,"station_id":"ce4bhr92rcd13ifvqhrg","pricing_plan_id":"cebpf4jnsgd1na2vs0mg"},{"bike_id":"eae9de7a-a02e-4012-b2b3-8f27eec20651","system_id":"levelo_inurba_marseille","lat":43.33026,"lon":5.39044,"is_reserved":false,"is_disabled":false,"rental_uris":{"android":"levelo://app?vid=eae9de7a-a02e-4012-b2b3-8f27eec20651","ios":"levelo://app?vid=eae9de7a-a02e-4012-b2b3-8f27eec20651"},"vehicle_type_id":"4","last_reported":1725642452,"current_range_meters":6800,"station_id":"ce4bhr92rcd13ifvqhrg","pricing_plan_id":"cebpf4jnsgd1na2vs0mg"},{"bike_id":"cff56aae-3b9b-4789-9282-00b193ae8fa1","system_id":"levelo_inurba_marseille","lat":43.330442,"lon":5.389148,"is_reserved":false,"is_disabled":false,"rental_uris":{"android":"levelo://app?vid=cff56aae-3b9b-4789-9282-00b193ae8fa1","ios":"levelo://app?vid=cff56aae-3b9b-4789-9282-00b193ae8fa1"},"vehicle_type_id":"4","last_reported":1725642452,"current_range_meters":9600,"station_id":"ce4bhr92rcd13ifvqhrg","pricing_plan_id":"cebpf4jnsgd1na2vs0mg"},{"bike_id":"cffb2de2-b4e0-421c-805c-7cb0c177beda","system_id":"levelo_inurba_marseille","lat":43.330442,"lon":5.389148,"is_reserved":false,"is_disabled":false,"rental_uris":{"android":"levelo://app?vid=cffb2de2-b4e0-421c-805c-7cb0c177beda","ios":"levelo://app?vid=cffb2de2-b4e0-421c-805c-7cb0c177beda"},"vehicle_type_id":"4","last_reported":1725642452,"current_range_meters":6000,"station_id":"ce4bhr92rcd13ifvqhrg","pricing_plan_id":"cebpf4jnsgd1na2vs0mg"},{"bike_id":"768d2872-5317-45a2-8efc-ad1dcd697b97","system_id":"levelo_inurba_marseille","lat":43.330442,"lon":5.389148,"is_reserved":false,"is_disabled":false,"rental_uris":{"android":"levelo://app?vid=768d2872-5317-45a2-8efc-ad1dcd697b97","ios":"levelo://app?vid=768d2872-5317-45a2-8efc-ad1dcd697b97"},"vehicle_type_id":"4","last_reported":1725642452,"current_range_meters":6400,"station_id":"ce4bhr92rcd13ifvqhrg","pricing_plan_id":"cebpf4jnsgd1na2vs0mg"},{"bike_id":"c7d7ad8e-fa24-44f9-bd9a-c895ec1502b3","system_id":"levelo_inurba_marseille","lat":43.33028,"lon":5.39049,"is_reserved":false,"is_disabled":false,"rental_uris":{"android":"levelo://app?vid=c7d7ad8e-fa24-44f9-bd9a-c895ec1502b3","ios":"levelo://app?vid=c7d7ad8e-fa24-44f9-bd9a-c895ec1502b3"},"vehicle_type_id":"4","last_reported":1725642452,"current_range_meters":19200,"station_id":"ce4bhr92rcd13ifvqhrg","pricing_plan_id":"cebpf4jnsgd1na2vs0mg"},{"bike_id":"67d31dc6-5726-4f4f-a297-124ed198ea6f","system_id":"levelo_inurba_marseille","lat":43.31063,"lon":5.40084,"is_reserved":false,"is_disabled":false,"rental_uris":{"android":"levelo://app?vid=67d31dc6-5726-4f4f-a297-124ed198ea6f","ios":"levelo://app?vid=67d31dc6-5726-4f4f-a297-124ed198ea6f"},"vehicle_type_id":"4","last_reported":1725642452,"current_range_meters":24400,"station_id":"","pricing_plan_id":"cebpf4jnsgd1na2vs0mg"},{"bike_id":"d041d1c0-a1ec-4263-a299-e22cb4191a6e","system_id":"levelo_inurba_marseille","lat":43.2901,"lon":5.381269,"is_reserved":false,"is_disabled":false,"rental_uris":{"android":"levelo://app?vid=d041d1c0-a1ec-4263-a299-e22cb4191a6e","ios":"levelo://app?vid=d041d1c0-a1ec-4263-a299-e22cb4191a6e"},"vehicle_type_id":"4","last_reported":1725642452,"current_range_meters":8800,"station_id":"ce4bh4p2rcd13ifvqe1g","pricing_plan_id":"cebpf4jnsgd1na2vs0mg"},{"bike_id":"fe806469-8d43-4180-98e4-e30fcfb3f878","system_id":"levelo_inurba_marseille","lat":43.28856,"lon":5.358371,"is_reserved":false,"is_disabled":false,"rental_uris":{"android":"levelo://app?vid=fe806469-8d43-4180-98e4-e30fcfb3f878","ios":"levelo://app?vid=fe806469-8d43-4180-98e4-e30fcfb3f878"},"vehicle_type_id":"4","last_reported":1725642452,"current_range_meters":0,"station_id":"ce4bhb12rcd13ifvqem0","pricing_plan_id":"cebpf4jnsgd1na2vs0mg"},{"bike_id":"f4b585ad-5789-489d-9718-bb04a5be32da","system_id":"levelo_inurba_marseille","lat":43.28856,"lon":5.358371,"is_reserved":false,"is_disabled":false,"rental_uris":{"android":"levelo://app?vid=f4b585ad-5789-489d-9718-bb04a5be32da","ios":"levelo://app?vid=f4b585ad-5789-489d-9718-bb04a5be32da"},"vehicle_type_id":"4","last_reported":1725642452,"current_range_meters":0,"station_id":"ce4bhb12rcd13ifvqem0","pricing_plan_id":"cebpf4jnsgd1na2vs0mg"},{"bike_id":"921af63b-c8b1-416f-9c38-88666385431d","system_id":"levelo_inurba_marseille","lat":43.28852,"lon":5.35838,"is_reserved":false,"is_disabled":false,"rental_uris":{"android":"levelo://app?vid=921af63b-c8b1-416f-9c38-88666385431d","ios":"levelo://app?vid=921af63b-c8b1-416f-9c38-88666385431d"},"vehicle_type_id":"4","last_reported":1725642452,"current_range_meters":0,"station_id":"ce4bhb12rcd13ifvqem0","pricing_plan_id":"cebpf4jnsgd1na2vs0mg"},{"bike_id":"588661c8-4dc7-4a4d-b068-bf0811cd658f","system_id":"levelo_inurba_marseille","lat":43.28856,"lon":5.358371,"is_reserved":false,"is_disabled":false,"rental_uris":{"android":"levelo://app?vid=588661c8-4dc7-4a4d-b068-bf0811cd658f","ios":"levelo://app?vid=588661c8-4dc7-4a4d-b068-bf0811cd658f"},"vehicle_type_id":"4","last_reported":1725642452,"current_range_meters":0,"station_id":"ce4bhb12rcd13ifvqem0","pricing_plan_id":"cebpf4jnsgd1na2vs0mg"},{"bike_id":"a3b8c069-9edf-4b43-bf1f-4e329c95f63c","system_id":"levelo_inurba_marseille","lat":43.28856,"lon":5.358371,"is_reserved":false,"is_disabled":false,"rental_uris":{"android":"levelo://app?vid=a3b8c069-9edf-4b43-bf1f-4e329c95f63c","ios":"levelo://app?vid=a3b8c069-9edf-4b43-bf1f-4e329c95f63c"},"vehicle_type_id":"4","last_reported":1725642452,"current_range_meters":4000,"station_id":"ce4bhb12rcd13ifvqem0","pricing_plan_id":"cebpf4jnsgd1na2vs0mg"},{"bike_id":"75c808a3-4c48-42f0-af48-a1a24a6bfafc","system_id":"levelo_inurba_marseille","lat":43.28856,"lon":5.358371,"is_reserved":false,"is_disabled":false,"rental_uris":{"android":"levelo://app?vid=75c808a3-4c48-42f0-af48-a1a24a6bfafc","ios":"levelo://app?vid=75c808a3-4c48-42f0-af48-a1a24a6bfafc"},"vehicle_type_id":"4","last_reported":1725642452,"current_range_meters":20400,"station_id":"ce4bhb12rcd13ifvqem0","pricing_plan_id":"cebpf4jnsgd1na2vs0mg"},{"bike_id":"004b86d5-4eb7-4fae-b346-f672696ff729","system_id":"levelo_inurba_marseille","lat":43.309371,"lon":5.401449,"is_reserved":false,"is_disabled":false,"rental_uris":{"android":"levelo://app?vid=004b86d5-4eb7-4fae-b346-f672696ff729","ios":"levelo://app?vid=004b86d5-4eb7-4fae-b346-f672696ff729"},"vehicle_type_id":"4","last_reported":1725642452,"current_range_meters":2800,"station_id":"ce4bgvp2rcd13ifvqct0","pricing_plan_id":"cebpf4jnsgd1na2vs0mg"},{"bike_id":"99a1e414-4b8a-4f7f-a07c-d27078502a2d","system_id":"levelo_inurba_marseille","lat":43.309371,"lon":5.401449,"is_reserved":false,"is_disabled":false,"rental_uris":{"android":"levelo://app?vid=99a1e414-4b8a-4f7f-a07c-d27078502a2d","ios":"levelo://app?vid=99a1e414-4b8a-4f7f-a07c-d27078502a2d"},"vehicle_type_id":"4","last_reported":1725642452,"current_range_meters":1600,"station_id":"ce4bgvp2rcd13ifvqct0","pricing_plan_id":"cebpf4jnsgd1na2vs0mg"},{"bike_id":"027ef4b8-a45c-42f2-8656-36250348da25","system_id":"levelo_inurba_marseille","lat":43.33747,"lon":5.37485,"is_reserved":false,"is_disabled":false,"rental_uris":{"android":"levelo://app?vid=027ef4b8-a45c-42f2-8656-36250348da25","ios":"levelo://app?vid=027ef4b8-a45c-42f2-8656-36250348da25"},"vehicle_type_id":"4","last_reported":1725642452,"current_range_meters":24800,"station_id":"","pricing_plan_id":"cebpf4jnsgd1na2vs0mg"},{"bike_id":"8b7f2c19-7f94-489b-9e7d-0cc8704f7222","system_id":"levelo_inurba_marseille","lat":43.298681,"lon":5.397225,"is_reserved":false,"is_disabled":false,"rental_uris":{"android":"levelo://app?vid=8b7f2c19-7f94-489b-9e7d-0cc8704f7222","ios":"levelo://app?vid=8b7f2c19-7f94-489b-9e7d-0cc8704f7222"},"vehicle_type_id":"4","last_reported":1725642452,"current_range_meters":0,"station_id":"ce4bh0h2rcd13ifvqd50","pricing_plan_id":"cebpf4jnsgd1na2vs0mg"},{"bike_id":"3f3244df-bee4-4437-b2a1-ab9135c8e39a","system_id":"levelo_inurba_marseille","lat":43.33758,"lon":5.37448,"is_reserved":false,"is_disabled":false,"rental_uris":{"android":"levelo://app?vid=3f3244df-bee4-4437-b2a1-ab9135c8e39a","ios":"levelo://app?vid=3f3244df-bee4-4437-b2a1-ab9135c8e39a"},"vehicle_type_id":"4","last_reported":1725642452,"current_range_meters":25600,"station_id":"","pricing_plan_id":"cebpf4jnsgd1na2vs0mg"},{"bike_id":"f45353cc-19df-436c-8560-413833ac4da1","system_id":"levelo_inurba_marseille","lat":43.30642,"lon":5.401031,"is_reserved":false,"is_disabled":false,"rental_uris":{"android":"levelo://app?vid=f45353cc-19df-436c-8560-413833ac4da1","ios":"levelo://app?vid=f45353cc-19df-436c-8560-413833ac4da1"},"vehicle_type_id":"4","last_reported":1725642452,"current_range_meters":0,"station_id":"ce4bh112rcd13ifvqda0","pricing_plan_id":"cebpf4jnsgd1na2vs0mg"},{"bike_id":"83e1febb-afb7-49bb-a33c-998468ff1d2f","system_id":"levelo_inurba_marseille","lat":43.30143,"lon":5.39875,"is_reserved":false,"is_disabled":false,"rental_uris":{"android":"levelo://app?vid=83e1febb-afb7-49bb-a33c-998468ff1d2f","ios":"levelo://app?vid=83e1febb-afb7-49bb-a33c-998468ff1d2f"},"vehicle_type_id":"4","last_reported":1725642452,"current_range_meters":0,"station_id":"ce4bh0h2rcd13ifvqd40","pricing_plan_id":"cebpf4jnsgd1na2vs0mg"},{"bike_id":"93a8027b-f5a0-4378-8dea-e560022c00e5","system_id":"levelo_inurba_marseille","lat":43.301117,"lon":5.398795,"is_reserved":false,"is_disabled":false,"rental_uris":{"android":"levelo://app?vid=93a8027b-f5a0-4378-8dea-e560022c00e5","ios":"levelo://app?vid=93a8027b-f5a0-4378-8dea-e560022c00e5"},"vehicle_type_id":"4","last_reported":1725642452,"current_range_meters":18800,"station_id":"ce4bh0h2rcd13ifvqd40","pricing_plan_id":"cebpf4jnsgd1na2vs0mg"},{"bike_id":"45b0e36d-0987-4fd0-8976-76deee906a6b","system_id":"levelo_inurba_marseille","lat":43.28727,"lon":5.36078,"is_reserved":false,"is_disabled":false,"rental_uris":{"android":"levelo://app?vid=45b0e36d-0987-4fd0-8976-76deee906a6b","ios":"levelo://app?vid=45b0e36d-0987-4fd0-8976-76deee906a6b"},"vehicle_type_id":"4","last_reported":1725642452,"current_range_meters":16400,"station_id":"cki0cbj6b192h4jlfktg","pricing_plan_id":"cebpf4jnsgd1na2vs0mg"},{"bike_id":"2c5b9e9f-ec8a-45d7-8b21-6da1688e689b","system_id":"levelo_inurba_marseille","lat":43.298681,"lon":5.397225,"is_reserved":false,"is_disabled":false,"rental_uris":{"android":"levelo://app?vid=2c5b9e9f-ec8a-45d7-8b21-6da1688e689b","ios":"levelo://app?vid=2c5b9e9f-ec8a-45d7-8b21-6da1688e689b"},"vehicle_type_id":"4","last_reported":1725642452,"current_range_meters":16000,"station_id":"ce4bh0h2rcd13ifvqd50","pricing_plan_id":"cebpf4jnsgd1na2vs0mg"},{"bike_id":"aa59c6f7-b3cd-46bd-97f5-4f6733f13bec","system_id":"levelo_inurba_marseille","lat":43.286591,"lon":5.363346,"is_reserved":false,"is_disabled":false,"rental_uris":{"android":"levelo://app?vid=aa59c6f7-b3cd-46bd-97f5-4f6733f13bec","ios":"levelo://app?vid=aa59c6f7-b3cd-46bd-97f5-4f6733f13bec"},"vehicle_type_id":"4","last_reported":1725642452,"current_range_meters":0,"station_id":"ce4bhah2rcd13ifvqej0","pricing_plan_id":"cebpf4jnsgd1na2vs0mg"},{"bike_id":"83ca1e55-efc5-4fa3-9b25-4b1aaa7b78a0","system_id":"levelo_inurba_marseille","lat":43.286591,"lon":5.363346,"is_reserved":false,"is_disabled":false,"rental_uris":{"android":"levelo://app?vid=83ca1e55-efc5-4fa3-9b25-4b1aaa7b78a0","ios":"levelo://app?vid=83ca1e55-efc5-4fa3-9b25-4b1aaa7b78a0"},"vehicle_type_id":"4","last_reported":1725642452,"current_range_meters":22000,"station_id":"ce4bhah2rcd13ifvqej0","pricing_plan_id":"cebpf4jnsgd1na2vs0mg"},{"bike_id":"e77acef4-2423-4cec-931d-a9d38d877119","system_id":"levelo_inurba_marseille","lat":43.286961,"lon":5.373785,"is_reserved":false,"is_disabled":false,"rental_uris":{"android":"levelo://app?vid=e77acef4-2423-4cec-931d-a9d38d877119","ios":"levelo://app?vid=e77acef4-2423-4cec-931d-a9d38d877119"},"vehicle_type_id":"4","last_reported":1725642452,"current_range_meters":0,"station_id":"ce4bh3p2rcd13ifvqdq0","pricing_plan_id":"cebpf4jnsgd1na2vs0mg"},{"bike_id":"af41446e-dd4b-4c2b-a737-f2fdfcba7147","system_id":"levelo_inurba_marseille","lat":43.286961,"lon":5.373785,"is_reserved":false,"is_disabled":false,"rental_uris":{"android":"levelo://app?vid=af41446e-dd4b-4c2b-a737-f2fdfcba7147","ios":"levelo://app?vid=af41446e-dd4b-4c2b-a737-f2fdfcba7147"},"vehicle_type_id":"4","last_reported":1725642452,"current_range_meters":0,"station_id":"ce4bh3p2rcd13ifvqdq0","pricing_plan_id":"cebpf4jnsgd1na2vs0mg"},{"bike_id":"ccf2ab0a-77ec-433d-8fe6-f0e29bd43e21","system_id":"levelo_inurba_marseille","lat":43.28914,"lon":5.38263,"is_reserved":false,"is_disabled":false,"rental_uris":{"android":"levelo://app?vid=ccf2ab0a-77ec-433d-8fe6-f0e29bd43e21","ios":"levelo://app?vid=ccf2ab0a-77ec-433d-8fe6-f0e29bd43e21"},"vehicle_type_id":"4","last_reported":1725642452,"current_range_meters":1600,"station_id":"","pricing_plan_id":"cebpf4jnsgd1na2vs0mg"},{"bike_id":"6a93c993-96d5-4e00-80df-609a64bdb2de","system_id":"levelo_inurba_marseille","lat":43.28664,"lon":5.36339,"is_reserved":false,"is_disabled":false,"rental_uris":{"android":"levelo://app?vid=6a93c993-96d5-4e00-80df-609a64bdb2de","ios":"levelo://app?vid=6a93c993-96d5-4e00-80df-609a64bdb2de"},"vehicle_type_id":"4","last_reported":1725642452,"current_range_meters":7600,"station_id":"ce4bhah2rcd13ifvqej0","pricing_plan_id":"cebpf4jnsgd1na2vs0mg"},{"bike_id":"f3ab059b-d88a-4493-8193-36771b13f589","system_id":"levelo_inurba_marseille","lat":43.29033,"lon":5.38623,"is_reserved":false,"is_disabled":false,"rental_uris":{"android":"levelo://app?vid=f3ab059b-d88a-4493-8193-36771b13f589","ios":"levelo://app?vid=f3ab059b-d88a-4493-8193-36771b13f589"},"vehicle_type_id":"4","last_reported":1725642452,"current_range_meters":24800,"station_id":"ce4bh4p2rcd13ifvqe0g","pricing_plan_id":"cebpf4jnsgd1na2vs0mg"},{"bike_id":"add51230-539a-4c31-81f5-0347bc6599ed","system_id":"levelo_inurba_marseille","lat":43.289307,"lon":5.38406,"is_reserved":false,"is_disabled":false,"rental_uris":{"android":"levelo://app?vid=add51230-539a-4c31-81f5-0347bc6599ed","ios":"levelo://app?vid=add51230-539a-4c31-81f5-0347bc6599ed"},"vehicle_type_id":"4","last_reported":1725642452,"current_range_meters":0,"station_id":"ce4bh612rcd13ifvqe6g","pricing_plan_id":"cebpf4jnsgd1na2vs0mg"},{"bike_id":"2fdbed3f-5938-421f-9096-b229ad2e93e0","system_id":"levelo_inurba_marseille","lat":43.28928,"lon":5.38394,"is_reserved":false,"is_disabled":false,"rental_uris":{"android":"levelo://app?vid=2fdbed3f-5938-421f-9096-b229ad2e93e0","ios":"levelo://app?vid=2fdbed3f-5938-421f-9096-b229ad2e93e0"},"vehicle_type_id":"4","last_reported":1725642452,"current_range_meters":0,"station_id":"ce4bh612rcd13ifvqe6g","pricing_plan_id":"cebpf4jnsgd1na2vs0mg"},{"bike_id":"adef0cd8-89ca-4179-8b58-d1bdee23d7cc","system_id":"levelo_inurba_marseille","lat":43.290267,"lon":5.386379,"is_reserved":false,"is_disabled":false,"rental_uris":{"android":"levelo://app?vid=adef0cd8-89ca-4179-8b58-d1bdee23d7cc","ios":"levelo://app?vid=adef0cd8-89ca-4179-8b58-d1bdee23d7cc"},"vehicle_type_id":"4","last_reported":1725642452,"current_range_meters":0,"station_id":"ce4bh4p2rcd13ifvqe0g","pricing_plan_id":"cebpf4jnsgd1na2vs0mg"},{"bike_id":"842ff373-1959-450d-83d7-e205ae3cb100","system_id":"levelo_inurba_marseille","lat":43.29029,"lon":5.38644,"is_reserved":false,"is_disabled":false,"rental_uris":{"android":"levelo://app?vid=842ff373-1959-450d-83d7-e205ae3cb100","ios":"levelo://app?vid=842ff373-1959-450d-83d7-e205ae3cb100"},"vehicle_type_id":"4","last_reported":1725642452,"current_range_meters":21600,"station_id":"ce4bh4p2rcd13ifvqe0g","pricing_plan_id":"cebpf4jnsgd1na2vs0mg"},{"bike_id":"2e242d21-0d81-4260-b1ec-349356712aa2","system_id":"levelo_inurba_marseille","lat":43.289307,"lon":5.38406,"is_reserved":false,"is_disabled":false,"rental_uris":{"android":"levelo://app?vid=2e242d21-0d81-4260-b1ec-349356712aa2","ios":"levelo://app?vid=2e242d21-0d81-4260-b1ec-349356712aa2"},"vehicle_type_id":"4","last_reported":1725642452,"current_range_meters":3200,"station_id":"ce4bh612rcd13ifvqe6g","pricing_plan_id":"cebpf4jnsgd1na2vs0mg"},{"bike_id":"32cd2ed7-f4f2-4cc7-91eb-9455e2073600","system_id":"levelo_inurba_marseille","lat":43.286039,"lon":5.370679,"is_reserved":false,"is_disabled":false,"rental_uris":{"android":"levelo://app?vid=32cd2ed7-f4f2-4cc7-91eb-9455e2073600","ios":"levelo://app?vid=32cd2ed7-f4f2-4cc7-91eb-9455e2073600"},"vehicle_type_id":"4","last_reported":1725642452,"current_range_meters":10800,"station_id":"ce4bht12rcd13ifvqi60","pricing_plan_id":"cebpf4jnsgd1na2vs0mg"},{"bike_id":"89e8eee8-0102-4c39-8754-29db0d56631c","system_id":"levelo_inurba_marseille","lat":43.286039,"lon":5.370679,"is_reserved":false,"is_disabled":false,"rental_uris":{"android":"levelo://app?vid=89e8eee8-0102-4c39-8754-29db0d56631c","ios":"levelo://app?vid=89e8eee8-0102-4c39-8754-29db0d56631c"},"vehicle_type_id":"4","last_reported":1725642452,"current_range_meters":4800,"station_id":"ce4bht12rcd13ifvqi60","pricing_plan_id":"cebpf4jnsgd1na2vs0mg"},{"bike_id":"30e67bba-1c1d-4307-91a1-fdddc94e95bd","system_id":"levelo_inurba_marseille","lat":43.286039,"lon":5.370679,"is_reserved":false,"is_disabled":false,"rental_uris":{"android":"levelo://app?vid=30e67bba-1c1d-4307-91a1-fdddc94e95bd","ios":"levelo://app?vid=30e67bba-1c1d-4307-91a1-fdddc94e95bd"},"vehicle_type_id":"4","last_reported":1725642452,"current_range_meters":28400,"station_id":"ce4bht12rcd13ifvqi60","pricing_plan_id":"cebpf4jnsgd1na2vs0mg"},{"bike_id":"11f20808-8cec-42ad-bb10-04466ecaf8e9","system_id":"levelo_inurba_marseille","lat":43.301117,"lon":5.398795,"is_reserved":false,"is_disabled":false,"rental_uris":{"android":"levelo://app?vid=11f20808-8cec-42ad-bb10-04466ecaf8e9","ios":"levelo://app?vid=11f20808-8cec-42ad-bb10-04466ecaf8e9"},"vehicle_type_id":"4","last_reported":1725642452,"current_range_meters":0,"station_id":"ce4bh0h2rcd13ifvqd40","pricing_plan_id":"cebpf4jnsgd1na2vs0mg"},{"bike_id":"fafbc21a-440f-43cd-810b-176200bc7228","system_id":"levelo_inurba_marseille","lat":43.316828,"lon":5.404723,"is_reserved":false,"is_disabled":false,"rental_uris":{"android":"levelo://app?vid=fafbc21a-440f-43cd-810b-176200bc7228","ios":"levelo://app?vid=fafbc21a-440f-43cd-810b-176200bc7228"},"vehicle_type_id":"4","last_reported":1725642452,"current_range_meters":0,"station_id":"ce4bh012rcd13ifvqd00","pricing_plan_id":"cebpf4jnsgd1na2vs0mg"},{"bike_id":"d877b893-81ba-459f-bee9-cd3c1a9becca","system_id":"levelo_inurba_marseille","lat":43.29198,"lon":5.39306,"is_reserved":false,"is_disabled":false,"rental_uris":{"android":"levelo://app?vid=d877b893-81ba-459f-bee9-cd3c1a9becca","ios":"levelo://app?vid=d877b893-81ba-459f-bee9-cd3c1a9becca"},"vehicle_type_id":"4","last_reported":1725642452,"current_range_meters":0,"station_id":"ce4bh192rcd13ifvqdd0","pricing_plan_id":"cebpf4jnsgd1na2vs0mg"},{"bike_id":"87ab24e6-c3e9-41c6-ac07-dffe2130da47","system_id":"levelo_inurba_marseille","lat":43.291994,"lon":5.392907,"is_reserved":false,"is_disabled":false,"rental_uris":{"android":"levelo://app?vid=87ab24e6-c3e9-41c6-ac07-dffe2130da47","ios":"levelo://app?vid=87ab24e6-c3e9-41c6-ac07-dffe2130da47"},"vehicle_type_id":"4","last_reported":1725642452,"current_range_meters":800,"station_id":"ce4bh192rcd13ifvqdd0","pricing_plan_id":"cebpf4jnsgd1na2vs0mg"},{"bike_id":"0267a5b7-5988-4e2d-ad57-054b07973bf6","system_id":"levelo_inurba_marseille","lat":43.284538,"lon":5.358657,"is_reserved":false,"is_disabled":false,"rental_uris":{"android":"levelo://app?vid=0267a5b7-5988-4e2d-ad57-054b07973bf6","ios":"levelo://app?vid=0267a5b7-5988-4e2d-ad57-054b07973bf6"},"vehicle_type_id":"4","last_reported":1725642452,"current_range_meters":0,"station_id":"ce4bhah2rcd13ifvqei0","pricing_plan_id":"cebpf4jnsgd1na2vs0mg"},{"bike_id":"00e7a99e-e1ca-4e83-85d2-ed78bd63e196","system_id":"levelo_inurba_marseille","lat":43.284538,"lon":5.358657,"is_reserved":false,"is_disabled":false,"rental_uris":{"android":"levelo://app?vid=00e7a99e-e1ca-4e83-85d2-ed78bd63e196","ios":"levelo://app?vid=00e7a99e-e1ca-4e83-85d2-ed78bd63e196"},"vehicle_type_id":"4","last_reported":1725642452,"current_range_meters":0,"station_id":"ce4bhah2rcd13ifvqei0","pricing_plan_id":"cebpf4jnsgd1na2vs0mg"},{"bike_id":"69b399e2-b1d2-4c8d-ac9a-48d5a0552222","system_id":"levelo_inurba_marseille","lat":43.284538,"lon":5.358657,"is_reserved":false,"is_disabled":false,"rental_uris":{"android":"levelo://app?vid=69b399e2-b1d2-4c8d-ac9a-48d5a0552222","ios":"levelo://app?vid=69b399e2-b1d2-4c8d-ac9a-48d5a0552222"},"vehicle_type_id":"4","last_reported":1725642452,"current_range_meters":20400,"station_id":"ce4bhah2rcd13ifvqei0","pricing_plan_id":"cebpf4jnsgd1na2vs0mg"},{"bike_id":"f07636b6-dd39-49df-925d-73fa94b4e604","system_id":"levelo_inurba_marseille","lat":43.284538,"lon":5.358657,"is_reserved":false,"is_disabled":false,"rental_uris":{"android":"levelo://app?vid=f07636b6-dd39-49df-925d-73fa94b4e604","ios":"levelo://app?vid=f07636b6-dd39-49df-925d-73fa94b4e604"},"vehicle_type_id":"4","last_reported":1725642452,"current_range_meters":31600,"station_id":"ce4bhah2rcd13ifvqei0","pricing_plan_id":"cebpf4jnsgd1na2vs0mg"},{"bike_id":"4dddb397-fb5e-4559-be0a-53fde9c17a8e","system_id":"levelo_inurba_marseille","lat":43.284534,"lon":5.358662,"is_reserved":false,"is_disabled":false,"rental_uris":{"android":"levelo://app?vid=4dddb397-fb5e-4559-be0a-53fde9c17a8e","ios":"levelo://app?vid=4dddb397-fb5e-4559-be0a-53fde9c17a8e"},"vehicle_type_id":"4","last_reported":1725642452,"current_range_meters":20800,"station_id":"ce4bhah2rcd13ifvqei0","pricing_plan_id":"cebpf4jnsgd1na2vs0mg"},{"bike_id":"c6552494-1cb9-4883-93b2-794bda7aa23c","system_id":"levelo_inurba_marseille","lat":43.284538,"lon":5.358657,"is_reserved":false,"is_disabled":false,"rental_uris":{"android":"levelo://app?vid=c6552494-1cb9-4883-93b2-794bda7aa23c","ios":"levelo://app?vid=c6552494-1cb9-4883-93b2-794bda7aa23c"},"vehicle_type_id":"4","last_reported":1725642452,"current_range_meters":0,"station_id":"ce4bhah2rcd13ifvqei0","pricing_plan_id":"cebpf4jnsgd1na2vs0mg"},{"bike_id":"684b82fd-2efa-4046-9d1d-c82a7779c355","system_id":"levelo_inurba_marseille","lat":43.284538,"lon":5.358657,"is_reserved":false,"is_disabled":false,"rental_uris":{"android":"levelo://app?vid=684b82fd-2efa-4046-9d1d-c82a7779c355","ios":"levelo://app?vid=684b82fd-2efa-4046-9d1d-c82a7779c355"},"vehicle_type_id":"4","last_reported":1725642452,"current_range_meters":14400,"station_id":"ce4bhah2rcd13ifvqei0","pricing_plan_id":"cebpf4jnsgd1na2vs0mg"},{"bike_id":"5303e8bc-5516-41f0-8c69-a3049fd5b8b9","system_id":"levelo_inurba_marseille","lat":43.28459,"lon":5.35881,"is_reserved":false,"is_disabled":false,"rental_uris":{"android":"levelo://app?vid=5303e8bc-5516-41f0-8c69-a3049fd5b8b9","ios":"levelo://app?vid=5303e8bc-5516-41f0-8c69-a3049fd5b8b9"},"vehicle_type_id":"4","last_reported":1725642452,"current_range_meters":0,"station_id":"ce4bhah2rcd13ifvqei0","pricing_plan_id":"cebpf4jnsgd1na2vs0mg"},{"bike_id":"df79789f-3909-4000-8600-0ea120013ff7","system_id":"levelo_inurba_marseille","lat":43.284136,"lon":5.371638,"is_reserved":false,"is_disabled":false,"rental_uris":{"android":"levelo://app?vid=df79789f-3909-4000-8600-0ea120013ff7","ios":"levelo://app?vid=df79789f-3909-4000-8600-0ea120013ff7"},"vehicle_type_id":"4","last_reported":1725642452,"current_range_meters":1200,"station_id":"","pricing_plan_id":"cebpf4jnsgd1na2vs0mg"},{"bike_id":"df7ca32f-3093-4b01-8016-d91389b6ef6c","system_id":"levelo_inurba_marseille","lat":43.28621,"lon":5.35103,"is_reserved":false,"is_disabled":false,"rental_uris":{"android":"levelo://app?vid=df7ca32f-3093-4b01-8016-d91389b6ef6c","ios":"levelo://app?vid=df7ca32f-3093-4b01-8016-d91389b6ef6c"},"vehicle_type_id":"4","last_reported":1725642452,"current_range_meters":0,"station_id":"ce4bhch2rcd13ifvqeug","pricing_plan_id":"cebpf4jnsgd1na2vs0mg"},{"bike_id":"d58ac93c-068b-4c3b-a537-5eb6ff7e73ac","system_id":"levelo_inurba_marseille","lat":43.28618,"lon":5.35108,"is_reserved":false,"is_disabled":false,"rental_uris":{"android":"levelo://app?vid=d58ac93c-068b-4c3b-a537-5eb6ff7e73ac","ios":"levelo://app?vid=d58ac93c-068b-4c3b-a537-5eb6ff7e73ac"},"vehicle_type_id":"4","last_reported":1725642452,"current_range_meters":0,"station_id":"ce4bhch2rcd13ifvqeug","pricing_plan_id":"cebpf4jnsgd1na2vs0mg"},{"bike_id":"9556ccef-370c-4164-8f57-2dda8f49757e","system_id":"levelo_inurba_marseille","lat":43.28614,"lon":5.35107,"is_reserved":false,"is_disabled":false,"rental_uris":{"android":"levelo://app?vid=9556ccef-370c-4164-8f57-2dda8f49757e","ios":"levelo://app?vid=9556ccef-370c-4164-8f57-2dda8f49757e"},"vehicle_type_id":"4","last_reported":1725642452,"current_range_meters":0,"station_id":"ce4bhch2rcd13ifvqeug","pricing_plan_id":"cebpf4jnsgd1na2vs0mg"},{"bike_id":"c30b2a90-e89b-4165-a31e-1b2189212cfa","system_id":"levelo_inurba_marseille","lat":43.28433,"lon":5.37525,"is_reserved":false,"is_disabled":false,"rental_uris":{"android":"levelo://app?vid=c30b2a90-e89b-4165-a31e-1b2189212cfa","ios":"levelo://app?vid=c30b2a90-e89b-4165-a31e-1b2189212cfa"},"vehicle_type_id":"4","last_reported":1725642452,"current_range_meters":0,"station_id":"ce4bh412rcd13ifvqds0","pricing_plan_id":"cebpf4jnsgd1na2vs0mg"},{"bike_id":"0e90067e-75fc-4b93-80d0-5f4b87454785","system_id":"levelo_inurba_marseille","lat":43.286595,"lon":5.386795,"is_reserved":false,"is_disabled":false,"rental_uris":{"android":"levelo://app?vid=0e90067e-75fc-4b93-80d0-5f4b87454785","ios":"levelo://app?vid=0e90067e-75fc-4b93-80d0-5f4b87454785"},"vehicle_type_id":"4","last_reported":1725642452,"current_range_meters":0,"station_id":"ce4bh492rcd13ifvqdug","pricing_plan_id":"cebpf4jnsgd1na2vs0mg"},{"bike_id":"d24e4cc8-c9a3-4f0b-a5a2-ce3989175d54","system_id":"levelo_inurba_marseille","lat":43.286595,"lon":5.386795,"is_reserved":false,"is_disabled":false,"rental_uris":{"android":"levelo://app?vid=d24e4cc8-c9a3-4f0b-a5a2-ce3989175d54","ios":"levelo://app?vid=d24e4cc8-c9a3-4f0b-a5a2-ce3989175d54"},"vehicle_type_id":"4","last_reported":1725642452,"current_range_meters":0,"station_id":"ce4bh492rcd13ifvqdug","pricing_plan_id":"cebpf4jnsgd1na2vs0mg"},{"bike_id":"25371246-314b-498f-99fa-aad85d1eed69","system_id":"levelo_inurba_marseille","lat":43.323464,"lon":5.406297,"is_reserved":false,"is_disabled":false,"rental_uris":{"android":"levelo://app?vid=25371246-314b-498f-99fa-aad85d1eed69","ios":"levelo://app?vid=25371246-314b-498f-99fa-aad85d1eed69"},"vehicle_type_id":"4","last_reported":1725642452,"current_range_meters":16400,"station_id":"ce4bhq92rcd13ifvqhjg","pricing_plan_id":"cebpf4jnsgd1na2vs0mg"},{"bike_id":"b2990b48-7b16-4987-b0f6-46cba0f6979c","system_id":"levelo_inurba_marseille","lat":43.337168,"lon":5.391825,"is_reserved":false,"is_disabled":false,"rental_uris":{"android":"levelo://app?vid=b2990b48-7b16-4987-b0f6-46cba0f6979c","ios":"levelo://app?vid=b2990b48-7b16-4987-b0f6-46cba0f6979c"},"vehicle_type_id":"4","last_reported":1725642452,"current_range_meters":20000,"station_id":"ce4bhr92rcd13ifvqhsg","pricing_plan_id":"cebpf4jnsgd1na2vs0mg"},{"bike_id":"8dd682f4-e8b1-4ad7-ae0d-2e17846d5860","system_id":"levelo_inurba_marseille","lat":43.337168,"lon":5.391825,"is_reserved":false,"is_disabled":false,"rental_uris":{"android":"levelo://app?vid=8dd682f4-e8b1-4ad7-ae0d-2e17846d5860","ios":"levelo://app?vid=8dd682f4-e8b1-4ad7-ae0d-2e17846d5860"},"vehicle_type_id":"4","last_reported":1725642452,"current_range_meters":14800,"station_id":"ce4bhr92rcd13ifvqhsg","pricing_plan_id":"cebpf4jnsgd1na2vs0mg"},{"bike_id":"cb0a1428-9a65-4e5a-a909-fe5eb5de5a92","system_id":"levelo_inurba_marseille","lat":43.323464,"lon":5.406297,"is_reserved":false,"is_disabled":false,"rental_uris":{"android":"levelo://app?vid=cb0a1428-9a65-4e5a-a909-fe5eb5de5a92","ios":"levelo://app?vid=cb0a1428-9a65-4e5a-a909-fe5eb5de5a92"},"vehicle_type_id":"4","last_reported":1725642452,"current_range_meters":4400,"station_id":"ce4bhq92rcd13ifvqhjg","pricing_plan_id":"cebpf4jnsgd1na2vs0mg"},{"bike_id":"54180023-bf1e-4f04-9a3e-8d6e674f3a7b","system_id":"levelo_inurba_marseille","lat":43.28484,"lon":5.3841,"is_reserved":false,"is_disabled":false,"rental_uris":{"android":"levelo://app?vid=54180023-bf1e-4f04-9a3e-8d6e674f3a7b","ios":"levelo://app?vid=54180023-bf1e-4f04-9a3e-8d6e674f3a7b"},"vehicle_type_id":"4","last_reported":1725642452,"current_range_meters":0,"station_id":"ce4bh512rcd13ifvqe3g","pricing_plan_id":"cebpf4jnsgd1na2vs0mg"},{"bike_id":"c417b60e-009c-4e12-a8f2-44025e06cd20","system_id":"levelo_inurba_marseille","lat":43.284787,"lon":5.384116,"is_reserved":false,"is_disabled":false,"rental_uris":{"android":"levelo://app?vid=c417b60e-009c-4e12-a8f2-44025e06cd20","ios":"levelo://app?vid=c417b60e-009c-4e12-a8f2-44025e06cd20"},"vehicle_type_id":"4","last_reported":1725642452,"current_range_meters":0,"station_id":"ce4bh512rcd13ifvqe3g","pricing_plan_id":"cebpf4jnsgd1na2vs0mg"},{"bike_id":"142e9306-248a-4aa5-9aa0-d8276ba394c8","system_id":"levelo_inurba_marseille","lat":43.288543,"lon":5.393127,"is_reserved":false,"is_disabled":false,"rental_uris":{"android":"levelo://app?vid=142e9306-248a-4aa5-9aa0-d8276ba394c8","ios":"levelo://app?vid=142e9306-248a-4aa5-9aa0-d8276ba394c8"},"vehicle_type_id":"4","last_reported":1725642452,"current_range_meters":0,"station_id":"ce4bh2p2rcd13ifvqdi0","pricing_plan_id":"cebpf4jnsgd1na2vs0mg"},{"bike_id":"b28aec0c-9f73-49b5-b12c-ad99edf4812d","system_id":"levelo_inurba_marseille","lat":43.288501,"lon":5.393087,"is_reserved":false,"is_disabled":false,"rental_uris":{"android":"levelo://app?vid=b28aec0c-9f73-49b5-b12c-ad99edf4812d","ios":"levelo://app?vid=b28aec0c-9f73-49b5-b12c-ad99edf4812d"},"vehicle_type_id":"4","last_reported":1725642452,"current_range_meters":18000,"station_id":"ce4bh2p2rcd13ifvqdi0","pricing_plan_id":"cebpf4jnsgd1na2vs0mg"},{"bike_id":"1d861b23-1935-4614-9596-b619608fca1c","system_id":"levelo_inurba_marseille","lat":43.28435,"lon":5.3499,"is_reserved":false,"is_disabled":false,"rental_uris":{"android":"levelo://app?vid=1d861b23-1935-4614-9596-b619608fca1c","ios":"levelo://app?vid=1d861b23-1935-4614-9596-b619608fca1c"},"vehicle_type_id":"4","last_reported":1725642452,"current_range_meters":0,"station_id":"ce4bhbh2rcd13ifvqepg","pricing_plan_id":"cebpf4jnsgd1na2vs0mg"},{"bike_id":"6dd24b35-dfea-4e9f-9087-ffe161b6e469","system_id":"levelo_inurba_marseille","lat":43.284219,"lon":5.3497,"is_reserved":false,"is_disabled":false,"rental_uris":{"android":"levelo://app?vid=6dd24b35-dfea-4e9f-9087-ffe161b6e469","ios":"levelo://app?vid=6dd24b35-dfea-4e9f-9087-ffe161b6e469"},"vehicle_type_id":"4","last_reported":1725642452,"current_range_meters":3200,"station_id":"ce4bhbh2rcd13ifvqepg","pricing_plan_id":"cebpf4jnsgd1na2vs0mg"},{"bike_id":"26335146-8bd4-46fe-b742-879c38bdb547","system_id":"levelo_inurba_marseille","lat":43.284214,"lon":5.349706,"is_reserved":false,"is_disabled":false,"rental_uris":{"android":"levelo://app?vid=26335146-8bd4-46fe-b742-879c38bdb547","ios":"levelo://app?vid=26335146-8bd4-46fe-b742-879c38bdb547"},"vehicle_type_id":"4","last_reported":1725642452,"current_range_meters":29200,"station_id":"ce4bhbh2rcd13ifvqepg","pricing_plan_id":"cebpf4jnsgd1na2vs0mg"},{"bike_id":"9b60b4c7-f766-4873-b869-c6bebad153e5","system_id":"levelo_inurba_marseille","lat":43.284214,"lon":5.349706,"is_reserved":false,"is_disabled":false,"rental_uris":{"android":"levelo://app?vid=9b60b4c7-f766-4873-b869-c6bebad153e5","ios":"levelo://app?vid=9b60b4c7-f766-4873-b869-c6bebad153e5"},"vehicle_type_id":"4","last_reported":1725642452,"current_range_meters":0,"station_id":"ce4bhbh2rcd13ifvqepg","pricing_plan_id":"cebpf4jnsgd1na2vs0mg"},{"bike_id":"e12693c4-0edc-4d91-8207-bd02e42f6290","system_id":"levelo_inurba_marseille","lat":43.28414,"lon":5.3498,"is_reserved":false,"is_disabled":false,"rental_uris":{"android":"levelo://app?vid=e12693c4-0edc-4d91-8207-bd02e42f6290","ios":"levelo://app?vid=e12693c4-0edc-4d91-8207-bd02e42f6290"},"vehicle_type_id":"4","last_reported":1725642452,"current_range_meters":0,"station_id":"ce4bhbh2rcd13ifvqepg","pricing_plan_id":"cebpf4jnsgd1na2vs0mg"},{"bike_id":"691ee01e-eb31-478e-8902-03e94bac64db","system_id":"levelo_inurba_marseille","lat":43.28281,"lon":5.35074,"is_reserved":false,"is_disabled":false,"rental_uris":{"android":"levelo://app?vid=691ee01e-eb31-478e-8902-03e94bac64db","ios":"levelo://app?vid=691ee01e-eb31-478e-8902-03e94bac64db"},"vehicle_type_id":"4","last_reported":1725642452,"current_range_meters":0,"station_id":"ce4bhbp2rcd13ifvqerg","pricing_plan_id":"cebpf4jnsgd1na2vs0mg"},{"bike_id":"dc1cd922-670d-4ac7-a8cd-4df045fcfd91","system_id":"levelo_inurba_marseille","lat":43.282744,"lon":5.350533,"is_reserved":false,"is_disabled":false,"rental_uris":{"android":"levelo://app?vid=dc1cd922-670d-4ac7-a8cd-4df045fcfd91","ios":"levelo://app?vid=dc1cd922-670d-4ac7-a8cd-4df045fcfd91"},"vehicle_type_id":"4","last_reported":1725642452,"current_range_meters":21600,"station_id":"ce4bhbp2rcd13ifvqerg","pricing_plan_id":"cebpf4jnsgd1na2vs0mg"},{"bike_id":"14ae3931-ef86-4998-bce2-803ccec66116","system_id":"levelo_inurba_marseille","lat":43.282744,"lon":5.350533,"is_reserved":false,"is_disabled":false,"rental_uris":{"android":"levelo://app?vid=14ae3931-ef86-4998-bce2-803ccec66116","ios":"levelo://app?vid=14ae3931-ef86-4998-bce2-803ccec66116"},"vehicle_type_id":"4","last_reported":1725642452,"current_range_meters":0,"station_id":"ce4bhbp2rcd13ifvqerg","pricing_plan_id":"cebpf4jnsgd1na2vs0mg"},{"bike_id":"0b51f992-6c5b-472c-bb9b-ab157667dd87","system_id":"levelo_inurba_marseille","lat":43.28266,"lon":5.3507,"is_reserved":false,"is_disabled":false,"rental_uris":{"android":"levelo://app?vid=0b51f992-6c5b-472c-bb9b-ab157667dd87","ios":"levelo://app?vid=0b51f992-6c5b-472c-bb9b-ab157667dd87"},"vehicle_type_id":"4","last_reported":1725642452,"current_range_meters":0,"station_id":"ce4bhbp2rcd13ifvqerg","pricing_plan_id":"cebpf4jnsgd1na2vs0mg"},{"bike_id":"bb9c54b2-eef1-41bb-ac93-5917f1a67446","system_id":"levelo_inurba_marseille","lat":43.28042,"lon":5.36941,"is_reserved":false,"is_disabled":false,"rental_uris":{"android":"levelo://app?vid=bb9c54b2-eef1-41bb-ac93-5917f1a67446","ios":"levelo://app?vid=bb9c54b2-eef1-41bb-ac93-5917f1a67446"},"vehicle_type_id":"4","last_reported":1725642452,"current_range_meters":22000,"station_id":"ce4bha12rcd13ifvqef0","pricing_plan_id":"cebpf4jnsgd1na2vs0mg"},{"bike_id":"6861e739-aa04-49a2-88c2-b51d102ef60e","system_id":"levelo_inurba_marseille","lat":43.283502,"lon":5.386471,"is_reserved":false,"is_disabled":false,"rental_uris":{"android":"levelo://app?vid=6861e739-aa04-49a2-88c2-b51d102ef60e","ios":"levelo://app?vid=6861e739-aa04-49a2-88c2-b51d102ef60e"},"vehicle_type_id":"4","last_reported":1725642452,"current_range_meters":0,"station_id":"ce4bh492rcd13ifvqdvg","pricing_plan_id":"cebpf4jnsgd1na2vs0mg"},{"bike_id":"d73d454f-cccd-4e84-9a39-462420a58ec1","system_id":"levelo_inurba_marseille","lat":43.28035,"lon":5.36934,"is_reserved":false,"is_disabled":false,"rental_uris":{"android":"levelo://app?vid=d73d454f-cccd-4e84-9a39-462420a58ec1","ios":"levelo://app?vid=d73d454f-cccd-4e84-9a39-462420a58ec1"},"vehicle_type_id":"4","last_reported":1725642452,"current_range_meters":26800,"station_id":"ce4bha12rcd13ifvqef0","pricing_plan_id":"cebpf4jnsgd1na2vs0mg"},{"bike_id":"df865174-1be1-43be-881f-3bfdc6c4b449","system_id":"levelo_inurba_marseille","lat":43.28039,"lon":5.369297,"is_reserved":false,"is_disabled":false,"rental_uris":{"android":"levelo://app?vid=df865174-1be1-43be-881f-3bfdc6c4b449","ios":"levelo://app?vid=df865174-1be1-43be-881f-3bfdc6c4b449"},"vehicle_type_id":"4","last_reported":1725642452,"current_range_meters":0,"station_id":"ce4bha12rcd13ifvqef0","pricing_plan_id":"cebpf4jnsgd1na2vs0mg"},{"bike_id":"eea53211-d14b-4fef-9a69-93805bb01b95","system_id":"levelo_inurba_marseille","lat":43.29044,"lon":5.399615,"is_reserved":false,"is_disabled":false,"rental_uris":{"android":"levelo://app?vid=eea53211-d14b-4fef-9a69-93805bb01b95","ios":"levelo://app?vid=eea53211-d14b-4fef-9a69-93805bb01b95"},"vehicle_type_id":"4","last_reported":1725642452,"current_range_meters":0,"station_id":"ce4bh392rcd13ifvqdm0","pricing_plan_id":"cebpf4jnsgd1na2vs0mg"},{"bike_id":"3f482f7a-982b-4ce9-8298-e109e7cc3a18","system_id":"levelo_inurba_marseille","lat":43.29627,"lon":5.40618,"is_reserved":false,"is_disabled":false,"rental_uris":{"android":"levelo://app?vid=3f482f7a-982b-4ce9-8298-e109e7cc3a18","ios":"levelo://app?vid=3f482f7a-982b-4ce9-8298-e109e7cc3a18"},"vehicle_type_id":"4","last_reported":1725642452,"current_range_meters":0,"station_id":"ce4bh0h2rcd13ifvqd60","pricing_plan_id":"cebpf4jnsgd1na2vs0mg"},{"bike_id":"adaf1ed2-a4b7-48c1-aaf1-9ebe572e7b86","system_id":"levelo_inurba_marseille","lat":43.341214,"lon":5.390288,"is_reserved":false,"is_disabled":false,"rental_uris":{"android":"levelo://app?vid=adaf1ed2-a4b7-48c1-aaf1-9ebe572e7b86","ios":"levelo://app?vid=adaf1ed2-a4b7-48c1-aaf1-9ebe572e7b86"},"vehicle_type_id":"4","last_reported":1725642452,"current_range_meters":23600,"station_id":"","pricing_plan_id":"cebpf4jnsgd1na2vs0mg"},{"bike_id":"cc378061-5351-44c7-b44d-89f0353e5348","system_id":"levelo_inurba_marseille","lat":43.284462,"lon":5.392121,"is_reserved":false,"is_disabled":false,"rental_uris":{"android":"levelo://app?vid=cc378061-5351-44c7-b44d-89f0353e5348","ios":"levelo://app?vid=cc378061-5351-44c7-b44d-89f0353e5348"},"vehicle_type_id":"4","last_reported":1725642452,"current_range_meters":0,"station_id":"ce4bhoh2rcd13ifvqh5g","pricing_plan_id":"cebpf4jnsgd1na2vs0mg"},{"bike_id":"9fb7a13e-bcd0-4dda-b62d-91810bdac8c0","system_id":"levelo_inurba_marseille","lat":43.28443,"lon":5.39199,"is_reserved":false,"is_disabled":false,"rental_uris":{"android":"levelo://app?vid=9fb7a13e-bcd0-4dda-b62d-91810bdac8c0","ios":"levelo://app?vid=9fb7a13e-bcd0-4dda-b62d-91810bdac8c0"},"vehicle_type_id":"4","last_reported":1725642452,"current_range_meters":400,"station_id":"ce4bhoh2rcd13ifvqh5g","pricing_plan_id":"cebpf4jnsgd1na2vs0mg"},{"bike_id":"6fabf75a-c198-4961-bdf8-bb9f7daed73a","system_id":"levelo_inurba_marseille","lat":43.32659,"lon":5.40977,"is_reserved":false,"is_disabled":false,"rental_uris":{"android":"levelo://app?vid=6fabf75a-c198-4961-bdf8-bb9f7daed73a","ios":"levelo://app?vid=6fabf75a-c198-4961-bdf8-bb9f7daed73a"},"vehicle_type_id":"4","last_reported":1725642452,"current_range_meters":0,"station_id":"ce4bhpp2rcd13ifvqhgg","pricing_plan_id":"cebpf4jnsgd1na2vs0mg"},{"bike_id":"da3e4375-fda5-429a-962a-debc16624ae2","system_id":"levelo_inurba_marseille","lat":43.32662,"lon":5.40984,"is_reserved":false,"is_disabled":false,"rental_uris":{"android":"levelo://app?vid=da3e4375-fda5-429a-962a-debc16624ae2","ios":"levelo://app?vid=da3e4375-fda5-429a-962a-debc16624ae2"},"vehicle_type_id":"4","last_reported":1725642452,"current_range_meters":0,"station_id":"ce4bhpp2rcd13ifvqhgg","pricing_plan_id":"cebpf4jnsgd1na2vs0mg"},{"bike_id":"c47c1d56-2b98-48db-a3f9-d0b5274152fa","system_id":"levelo_inurba_marseille","lat":43.326605,"lon":5.409903,"is_reserved":false,"is_disabled":false,"rental_uris":{"android":"levelo://app?vid=c47c1d56-2b98-48db-a3f9-d0b5274152fa","ios":"levelo://app?vid=c47c1d56-2b98-48db-a3f9-d0b5274152fa"},"vehicle_type_id":"4","last_reported":1725642452,"current_range_meters":5600,"station_id":"ce4bhpp2rcd13ifvqhgg","pricing_plan_id":"cebpf4jnsgd1na2vs0mg"},{"bike_id":"710888aa-00e4-49dc-a814-ecbb990213b1","system_id":"levelo_inurba_marseille","lat":43.326605,"lon":5.409903,"is_reserved":false,"is_disabled":false,"rental_uris":{"android":"levelo://app?vid=710888aa-00e4-49dc-a814-ecbb990213b1","ios":"levelo://app?vid=710888aa-00e4-49dc-a814-ecbb990213b1"},"vehicle_type_id":"4","last_reported":1725642452,"current_range_meters":3600,"station_id":"ce4bhpp2rcd13ifvqhgg","pricing_plan_id":"cebpf4jnsgd1na2vs0mg"},{"bike_id":"f904acb5-5e83-4774-8ea8-d2c5985839df","system_id":"levelo_inurba_marseille","lat":43.304188,"lon":5.412904,"is_reserved":false,"is_disabled":false,"rental_uris":{"android":"levelo://app?vid=f904acb5-5e83-4774-8ea8-d2c5985839df","ios":"levelo://app?vid=f904acb5-5e83-4774-8ea8-d2c5985839df"},"vehicle_type_id":"4","last_reported":1725642452,"current_range_meters":14400,"station_id":"ce4bhop2rcd13ifvqh8g","pricing_plan_id":"cebpf4jnsgd1na2vs0mg"},{"bike_id":"6f5584a6-c839-4608-b99f-5538f3bc07b6","system_id":"levelo_inurba_marseille","lat":43.304188,"lon":5.412904,"is_reserved":false,"is_disabled":false,"rental_uris":{"android":"levelo://app?vid=6f5584a6-c839-4608-b99f-5538f3bc07b6","ios":"levelo://app?vid=6f5584a6-c839-4608-b99f-5538f3bc07b6"},"vehicle_type_id":"4","last_reported":1725642452,"current_range_meters":22000,"station_id":"ce4bhop2rcd13ifvqh8g","pricing_plan_id":"cebpf4jnsgd1na2vs0mg"},{"bike_id":"0628bbb6-355d-48c7-bc17-02ff08d87440","system_id":"levelo_inurba_marseille","lat":43.320533,"lon":5.415463,"is_reserved":false,"is_disabled":false,"rental_uris":{"android":"levelo://app?vid=0628bbb6-355d-48c7-bc17-02ff08d87440","ios":"levelo://app?vid=0628bbb6-355d-48c7-bc17-02ff08d87440"},"vehicle_type_id":"4","last_reported":1725642452,"current_range_meters":0,"station_id":"ce4bhq92rcd13ifvqhkg","pricing_plan_id":"cebpf4jnsgd1na2vs0mg"},{"bike_id":"ce5db4d7-5709-4b71-990c-7bfe68f923ac","system_id":"levelo_inurba_marseille","lat":43.320045,"lon":5.415048,"is_reserved":false,"is_disabled":false,"rental_uris":{"android":"levelo://app?vid=ce5db4d7-5709-4b71-990c-7bfe68f923ac","ios":"levelo://app?vid=ce5db4d7-5709-4b71-990c-7bfe68f923ac"},"vehicle_type_id":"4","last_reported":1725642452,"current_range_meters":0,"station_id":"ce4bhq92rcd13ifvqhkg","pricing_plan_id":"cebpf4jnsgd1na2vs0mg"},{"bike_id":"e25ebe21-4444-4ea6-a118-b3857c78e9e4","system_id":"levelo_inurba_marseille","lat":43.279742,"lon":5.38744,"is_reserved":false,"is_disabled":false,"rental_uris":{"android":"levelo://app?vid=e25ebe21-4444-4ea6-a118-b3857c78e9e4","ios":"levelo://app?vid=e25ebe21-4444-4ea6-a118-b3857c78e9e4"},"vehicle_type_id":"4","last_reported":1725642452,"current_range_meters":0,"station_id":"ce4bhg12rcd13ifvqf80","pricing_plan_id":"cebpf4jnsgd1na2vs0mg"},{"bike_id":"d97c0425-ef48-4f0d-801d-cad18fab2d44","system_id":"levelo_inurba_marseille","lat":43.27624,"lon":5.36115,"is_reserved":false,"is_disabled":false,"rental_uris":{"android":"levelo://app?vid=d97c0425-ef48-4f0d-801d-cad18fab2d44","ios":"levelo://app?vid=d97c0425-ef48-4f0d-801d-cad18fab2d44"},"vehicle_type_id":"4","last_reported":1725642452,"current_range_meters":28000,"station_id":"ce4bgj92rcd13ifvqbe0","pricing_plan_id":"cebpf4jnsgd1na2vs0mg"},{"bike_id":"d8d55cfb-ce1b-4410-88ec-e5577963eee4","system_id":"levelo_inurba_marseille","lat":43.27622,"lon":5.36117,"is_reserved":false,"is_disabled":false,"rental_uris":{"android":"levelo://app?vid=d8d55cfb-ce1b-4410-88ec-e5577963eee4","ios":"levelo://app?vid=d8d55cfb-ce1b-4410-88ec-e5577963eee4"},"vehicle_type_id":"4","last_reported":1725642452,"current_range_meters":12400,"station_id":"ce4bgj92rcd13ifvqbe0","pricing_plan_id":"cebpf4jnsgd1na2vs0mg"},{"bike_id":"145a077b-8100-4a07-924e-774b49a098be","system_id":"levelo_inurba_marseille","lat":43.27623,"lon":5.36104,"is_reserved":false,"is_disabled":false,"rental_uris":{"android":"levelo://app?vid=145a077b-8100-4a07-924e-774b49a098be","ios":"levelo://app?vid=145a077b-8100-4a07-924e-774b49a098be"},"vehicle_type_id":"4","last_reported":1725642452,"current_range_meters":11600,"station_id":"ce4bgj92rcd13ifvqbe0","pricing_plan_id":"cebpf4jnsgd1na2vs0mg"},{"bike_id":"41648828-4543-47f7-89a6-3fa6bcfe71bd","system_id":"levelo_inurba_marseille","lat":43.292569,"lon":5.409107,"is_reserved":false,"is_disabled":false,"rental_uris":{"android":"levelo://app?vid=41648828-4543-47f7-89a6-3fa6bcfe71bd","ios":"levelo://app?vid=41648828-4543-47f7-89a6-3fa6bcfe71bd"},"vehicle_type_id":"4","last_reported":1725642452,"current_range_meters":3200,"station_id":"ce4bh192rcd13ifvqdc0","pricing_plan_id":"cebpf4jnsgd1na2vs0mg"},{"bike_id":"6e5f35a1-ffb1-409d-8032-0343eba4ea36","system_id":"levelo_inurba_marseille","lat":43.2762,"lon":5.36121,"is_reserved":false,"is_disabled":false,"rental_uris":{"android":"levelo://app?vid=6e5f35a1-ffb1-409d-8032-0343eba4ea36","ios":"levelo://app?vid=6e5f35a1-ffb1-409d-8032-0343eba4ea36"},"vehicle_type_id":"4","last_reported":1725642452,"current_range_meters":27600,"station_id":"ce4bgj92rcd13ifvqbe0","pricing_plan_id":"cebpf4jnsgd1na2vs0mg"},{"bike_id":"6d4230bd-3c8d-45bd-b7d8-27658ca5b513","system_id":"levelo_inurba_marseille","lat":43.276209,"lon":5.3611,"is_reserved":false,"is_disabled":false,"rental_uris":{"android":"levelo://app?vid=6d4230bd-3c8d-45bd-b7d8-27658ca5b513","ios":"levelo://app?vid=6d4230bd-3c8d-45bd-b7d8-27658ca5b513"},"vehicle_type_id":"4","last_reported":1725642452,"current_range_meters":10000,"station_id":"ce4bgj92rcd13ifvqbe0","pricing_plan_id":"cebpf4jnsgd1na2vs0mg"},{"bike_id":"07d1addd-46d4-45ef-9cfc-3f9fa37f8ece","system_id":"levelo_inurba_marseille","lat":43.27619,"lon":5.36116,"is_reserved":false,"is_disabled":false,"rental_uris":{"android":"levelo://app?vid=07d1addd-46d4-45ef-9cfc-3f9fa37f8ece","ios":"levelo://app?vid=07d1addd-46d4-45ef-9cfc-3f9fa37f8ece"},"vehicle_type_id":"4","last_reported":1725642452,"current_range_meters":30800,"station_id":"ce4bgj92rcd13ifvqbe0","pricing_plan_id":"cebpf4jnsgd1na2vs0mg"},{"bike_id":"25338a7f-4307-4a1b-b349-84df0738340d","system_id":"levelo_inurba_marseille","lat":43.27618,"lon":5.36113,"is_reserved":false,"is_disabled":false,"rental_uris":{"android":"levelo://app?vid=25338a7f-4307-4a1b-b349-84df0738340d","ios":"levelo://app?vid=25338a7f-4307-4a1b-b349-84df0738340d"},"vehicle_type_id":"4","last_reported":1725642452,"current_range_meters":5200,"station_id":"ce4bgj92rcd13ifvqbe0","pricing_plan_id":"cebpf4jnsgd1na2vs0mg"},{"bike_id":"7d5477ef-511b-4bd1-a814-a2f0469c52e3","system_id":"levelo_inurba_marseille","lat":43.325233,"lon":5.414318,"is_reserved":false,"is_disabled":false,"rental_uris":{"android":"levelo://app?vid=7d5477ef-511b-4bd1-a814-a2f0469c52e3","ios":"levelo://app?vid=7d5477ef-511b-4bd1-a814-a2f0469c52e3"},"vehicle_type_id":"4","last_reported":1725642452,"current_range_meters":28400,"station_id":"ce4bhq12rcd13ifvqhhg","pricing_plan_id":"cebpf4jnsgd1na2vs0mg"},{"bike_id":"7b0dc90a-23f1-4d2a-961e-d7cbc79a8c24","system_id":"levelo_inurba_marseille","lat":43.28262,"lon":5.39694,"is_reserved":false,"is_disabled":false,"rental_uris":{"android":"levelo://app?vid=7b0dc90a-23f1-4d2a-961e-d7cbc79a8c24","ios":"levelo://app?vid=7b0dc90a-23f1-4d2a-961e-d7cbc79a8c24"},"vehicle_type_id":"4","last_reported":1725642452,"current_range_meters":24400,"station_id":"","pricing_plan_id":"cebpf4jnsgd1na2vs0mg"},{"bike_id":"4faed725-9220-46d3-8b3f-3648e2f8f455","system_id":"levelo_inurba_marseille","lat":43.28081,"lon":5.39662,"is_reserved":false,"is_disabled":false,"rental_uris":{"android":"levelo://app?vid=4faed725-9220-46d3-8b3f-3648e2f8f455","ios":"levelo://app?vid=4faed725-9220-46d3-8b3f-3648e2f8f455"},"vehicle_type_id":"4","last_reported":1725642452,"current_range_meters":0,"station_id":"ce4bho12rcd13ifvqh2g","pricing_plan_id":"cebpf4jnsgd1na2vs0mg"},{"bike_id":"d6afde24-2463-425d-8b14-94b7012be67d","system_id":"levelo_inurba_marseille","lat":43.303837,"lon":5.418724,"is_reserved":false,"is_disabled":false,"rental_uris":{"android":"levelo://app?vid=d6afde24-2463-425d-8b14-94b7012be67d","ios":"levelo://app?vid=d6afde24-2463-425d-8b14-94b7012be67d"},"vehicle_type_id":"4","last_reported":1725642452,"current_range_meters":16800,"station_id":"ce4bhop2rcd13ifvqh7g","pricing_plan_id":"cebpf4jnsgd1na2vs0mg"},{"bike_id":"30872807-1725-4c06-afab-f45f9c9dcd00","system_id":"levelo_inurba_marseille","lat":43.27396,"lon":5.36261,"is_reserved":false,"is_disabled":false,"rental_uris":{"android":"levelo://app?vid=30872807-1725-4c06-afab-f45f9c9dcd00","ios":"levelo://app?vid=30872807-1725-4c06-afab-f45f9c9dcd00"},"vehicle_type_id":"4","last_reported":1725642452,"current_range_meters":17200,"station_id":"ce4bhbh2rcd13ifvqeo0","pricing_plan_id":"cebpf4jnsgd1na2vs0mg"},{"bike_id":"69d4ff4c-eb7a-4f3f-899c-70dad5b38af3","system_id":"levelo_inurba_marseille","lat":43.27838,"lon":5.39209,"is_reserved":false,"is_disabled":false,"rental_uris":{"android":"levelo://app?vid=69d4ff4c-eb7a-4f3f-899c-70dad5b38af3","ios":"levelo://app?vid=69d4ff4c-eb7a-4f3f-899c-70dad5b38af3"},"vehicle_type_id":"4","last_reported":1725642452,"current_range_meters":0,"station_id":"ce4bhjp2rcd13ifvqga0","pricing_plan_id":"cebpf4jnsgd1na2vs0mg"},{"bike_id":"d28f821c-712b-42ab-9d77-18bb71bd7ddb","system_id":"levelo_inurba_marseille","lat":43.27389,"lon":5.36256,"is_reserved":false,"is_disabled":false,"rental_uris":{"android":"levelo://app?vid=d28f821c-712b-42ab-9d77-18bb71bd7ddb","ios":"levelo://app?vid=d28f821c-712b-42ab-9d77-18bb71bd7ddb"},