{"last_updated":1685217990,"ttl":30,"version":"2.2","data":{"bikes":[{"bike_id":"54716154-8db0-4266-ab8e-a58a594b5020","system_id":"levelo_inurba_marseille","lat":43.312239,"lon":5.368562,"is_reserved":false,"is_disabled":false,"rental_uris":{"android":"levelo://app?vid=54716154-8db0-4266-ab8e-a58a594b5020","ios":"levelo://app?vid=54716154-8db0-4266-ab8e-a58a594b5020"},"vehicle_type_id":"4","last_reported":1685217990,"current_range_meters":0,"station_id":"ce4bgl92rcd13ifvqbq0","pricing_plan_id":"free"},{"bike_id":"4da93afe-df9b-41fe-a87f-a633ba36a756","system_id":"levelo_inurba_marseille","lat":43.308614,"lon":5.372098,"is_reserved":false,"is_disabled":false,"rental_uris":{"android":"levelo://app?vid=4da93afe-df9b-41fe-a87f-a633ba36a756","ios":"levelo://app?vid=4da93afe-df9b-41fe-a87f-a633ba36a756"},"vehicle_type_id":"4","last_reported":1685217990,"current_range_meters":16800,"station_id":"ce4bguh2rcd13ifvqckg","pricing_plan_id":"free"},{"bike_id":"23b29743-b73f-43e4-93c8-355a6384f6a3","system_id":"levelo_inurba_marseille","lat":43.308614,"lon":5.372098,"is_reserved":false,"is_disabled":false,"rental_uris":{"android":"levelo://app?vid=23b29743-b73f-43e4-93c8-355a6384f6a3","ios":"levelo://app?vid=23b29743-b73f-43e4-93c8-355a6384f6a3"},"vehicle_type_id":"4","last_reported":1685217990,"current_range_meters":12000,"station_id":"ce4bguh2rcd13ifvqckg","pricing_plan_id":"free"},{"bike_id":"5b477c80-42e3-4b58-b10c-69df32f43c97","system_id":"levelo_inurba_marseille","lat":43.303046,"lon":5.368981,"is_reserved":false,"is_disabled":false,"rental_uris":{"android":"levelo://app?vid=5b477c80-42e3-4b58-b10c-69df32f43c97","ios":"levelo://app?vid=5b477c80-42e3-4b58-b10c-69df32f43c97"},"vehicle_type_id":"4","last_reported":1685217990,"current_range_meters":0,"station_id":"ce4bgqh2rcd13ifvqc5g","pricing_plan_id":"free"},{"bike_id":"fa0dcc79-9252-4d41-85aa-f29541bc7442","system_id":"levelo_inurba_marseille","lat":43.307989,"lon":5.381544,"is_reserved":false,"is_disabled":false,"rental_uris":{"android":"levelo://app?vid=fa0dcc79-9252-4d41-85aa-f29541bc7442","ios":"levelo://app?vid=fa0dcc79-9252-4d41-85aa-f29541bc7442"},"vehicle_type_id":"4","last_reported":1685217990,"current_range_meters":8800,"station_id":"","pricing_plan_id":"free"},{"bike_id":"9bb0050a-b892-46ae-8e17-628592520429","system_id":"levelo_inurba_marseille","lat":43.304606,"lon":5.379026,"is_reserved":false,"is_disabled":false,"rental_uris":{"android":"levelo://app?vid=9bb0050a-b892-46ae-8e17-628592520429","ios":"levelo://app?vid=9bb0050a-b892-46ae-8e17-628592520429"},"vehicle_type_id":"4","last_reported":1685217990,"current_range_meters":30400,"station_id":"ce4bgup2rcd13ifvqcn0","pricing_plan_id":"free"},{"bike_id":"9822dd32-ce7a-4ed5-873b-710b516e0d05","system_id":"levelo_inurba_marseille","lat":43.30142,"lon":5.37419,"is_reserved":false,"is_disabled":false,"rental_uris":{"android":"levelo://app?vid=9822dd32-ce7a-4ed5-873b-710b516e0d05","ios":"levelo://app?vid=9822dd32-ce7a-4ed5-873b-710b516e0d05"},"vehicle_type_id":"4","last_reported":1685217990,"current_range_meters":4000,"station_id":"","pricing_plan_id":"free"},{"bike_id":"043b8837-d974-4e8a-824b-87c48710aa6e","system_id":"levelo_inurba_marseille","lat":43.319935,"lon":5.381699,"is_reserved":false,"is_disabled":false,"rental_uris":{"android":"levelo://app?vid=043b8837-d974-4e8a-824b-87c48710aa6e","ios":"levelo://app?vid=043b8837-d974-4e8a-824b-87c48710aa6e"},"vehicle_type_id":"4","last_reported":1685217990,"current_range_meters":10400,"station_id":"ce4bhr12rcd13ifvqhpg","pricing_plan_id":"free"},{"bike_id":"4701465e-60f7-4efc-a949-0e76b5abdf47","system_id":"levelo_inurba_marseille","lat":43.298433,"lon":5.362774,"is_reserved":false,"is_disabled":false,"rental_uris":{"android":"levelo://app?vid=4701465e-60f7-4efc-a949-0e76b5abdf47","ios":"levelo://app?vid=4701465e-60f7-4efc-a949-0e76b5abdf47"},"vehicle_type_id":"4","last_reported":1685217990,"current_range_meters":22000,"station_id":"ce4bgpp2rcd13ifvqc3g","pricing_plan_id":"free"},{"bike_id":"446fbf3f-555a-4546-a328-be0387108604","system_id":"levelo_inurba_marseille","lat":43.311722,"lon":5.387247,"is_reserved":false,"is_disabled":false,"rental_uris":{"android":"levelo://app?vid=446fbf3f-555a-4546-a328-be0387108604","ios":"levelo://app?vid=446fbf3f-555a-4546-a328-be0387108604"},"vehicle_type_id":"4","last_reported":1685217990,"current_range_meters":12800,"station_id":"ce4bgv12rcd13ifvqcp0","pricing_plan_id":"free"},{"bike_id":"fcbed497-d2a8-482c-92d1-ee59547f63b3","system_id":"levelo_inurba_marseille","lat":43.32822,"lon":5.36673,"is_reserved":false,"is_disabled":false,"rental_uris":{"android":"levelo://app?vid=fcbed497-d2a8-482c-92d1-ee59547f63b3","ios":"levelo://app?vid=fcbed497-d2a8-482c-92d1-ee59547f63b3"},"vehicle_type_id":"4","last_reported":1685217990,"current_range_meters":31200,"station_id":"ce4bhs92rcd13ifvqi0g","pricing_plan_id":"free"},{"bike_id":"6aadd20f-ee22-42f7-9c69-f3066c5dfcf1","system_id":"levelo_inurba_marseille","lat":43.328371,"lon":5.366909,"is_reserved":false,"is_disabled":false,"rental_uris":{"android":"levelo://app?vid=6aadd20f-ee22-42f7-9c69-f3066c5dfcf1","ios":"levelo://app?vid=6aadd20f-ee22-42f7-9c69-f3066c5dfcf1"},"vehicle_type_id":"4","last_reported":1685217990,"current_range_meters":14400,"station_id":"ce4bhs92rcd13ifvqi0g","pricing_plan_id":"free"},{"bike_id":"ec00ef44-24fd-4afb-8bb4-3cf75fde794f","system_id":"levelo_inurba_marseille","lat":43.328371,"lon":5.366909,"is_reserved":false,"is_disabled":false,"rental_uris":{"android":"levelo://app?vid=ec00ef44-24fd-4afb-8bb4-3cf75fde794f","ios":"levelo://app?vid=ec00ef44-24fd-4afb-8bb4-3cf75fde794f"},"vehicle_type_id":"4","last_reported":1685217990,"current_range_meters":31200,"station_id":"ce4bhs92rcd13ifvqi0g","pricing_plan_id":"free"},{"bike_id":"3232ef33-5859-4816-89f8-ba13659ad816","system_id":"levelo_inurba_marseille","lat":43.3283,"lon":5.36686,"is_reserved":false,"is_disabled":false,"rental_uris":{"android":"levelo://app?vid=3232ef33-5859-4816-89f8-ba13659ad816","ios":"levelo://app?vid=3232ef33-5859-4816-89f8-ba13659ad816"},"vehicle_type_id":"4","last_reported":1685217990,"current_range_meters":0,"station_id":"ce4bhs92rcd13ifvqi0g","pricing_plan_id":"free"},{"bike_id":"a83b73cc-71af-4049-8863-614fb9abda16","system_id":"levelo_inurba_marseille","lat":43.29718,"lon":5.3661,"is_reserved":false,"is_disabled":false,"rental_uris":{"android":"levelo://app?vid=a83b73cc-71af-4049-8863-614fb9abda16","ios":"levelo://app?vid=a83b73cc-71af-4049-8863-614fb9abda16"},"vehicle_type_id":"4","last_reported":1685217990,"current_range_meters":400,"station_id":"","pricing_plan_id":"free"},{"bike_id":"e56cb228-bb4d-4c0c-918c-5fb17ff8d7c3","system_id":"levelo_inurba_marseille","lat":43.32833,"lon":5.3668,"is_reserved":false,"is_disabled":false,"rental_uris":{"android":"levelo://app?vid=e56cb228-bb4d-4c0c-918c-5fb17ff8d7c3","ios":"levelo://app?vid=e56cb228-bb4d-4c0c-918c-5fb17ff8d7c3"},"vehicle_type_id":"4","last_reported":1685217990,"current_range_meters":28400,"station_id":"","pricing_plan_id":"free"},{"bike_id":"43d041a6-cdcf-4897-8665-6ed61b2c409c","system_id":"levelo_inurba_marseille","lat":43.328371,"lon":5.366909,"is_reserved":false,"is_disabled":false,"rental_uris":{"android":"levelo://app?vid=43d041a6-cdcf-4897-8665-6ed61b2c409c","ios":"levelo://app?vid=43d041a6-cdcf-4897-8665-6ed61b2c409c"},"vehicle_type_id":"4","last_reported":1685217990,"current_range_meters":31200,"station_id":"ce4bhs92rcd13ifvqi0g","pricing_plan_id":"free"},{"bike_id":"d3a15385-1158-4fce-93db-a96bd78b52e9","system_id":"levelo_inurba_marseille","lat":43.2971,"lon":5.36603,"is_reserved":false,"is_disabled":false,"rental_uris":{"android":"levelo://app?vid=d3a15385-1158-4fce-93db-a96bd78b52e9","ios":"levelo://app?vid=d3a15385-1158-4fce-93db-a96bd78b52e9"},"vehicle_type_id":"4","last_reported":1685217990,"current_range_meters":800,"station_id":"","pricing_plan_id":"free"},{"bike_id":"0d1903d0-d07f-4ef8-ba81-87a55ce8f009","system_id":"levelo_inurba_marseille","lat":43.309589,"lon":5.390258,"is_reserved":false,"is_disabled":false,"rental_uris":{"android":"levelo://app?vid=0d1903d0-d07f-4ef8-ba81-87a55ce8f009","ios":"levelo://app?vid=0d1903d0-d07f-4ef8-ba81-87a55ce8f009"},"vehicle_type_id":"4","last_reported":1685217990,"current_range_meters":0,"station_id":"ce4bgup2rcd13ifvqco0","pricing_plan_id":"free"},{"bike_id":"de6f997a-62ef-45a7-b27e-6ca95f019962","system_id":"levelo_inurba_marseille","lat":43.29573,"lon":5.367355,"is_reserved":false,"is_disabled":false,"rental_uris":{"android":"levelo://app?vid=de6f997a-62ef-45a7-b27e-6ca95f019962","ios":"levelo://app?vid=de6f997a-62ef-45a7-b27e-6ca95f019962"},"vehicle_type_id":"4","last_reported":1685217990,"current_range_meters":0,"station_id":"ce4bgph2rcd13ifvqc2g","pricing_plan_id":"free"},{"bike_id":"2261bff3-93e9-47cf-8574-19555d425f9f","system_id":"levelo_inurba_marseille","lat":43.309589,"lon":5.390258,"is_reserved":false,"is_disabled":false,"rental_uris":{"android":"levelo://app?vid=2261bff3-93e9-47cf-8574-19555d425f9f","ios":"levelo://app?vid=2261bff3-93e9-47cf-8574-19555d425f9f"},"vehicle_type_id":"4","last_reported":1685217990,"current_range_meters":5200,"station_id":"ce4bgup2rcd13ifvqco0","pricing_plan_id":"free"},{"bike_id":"5685e6eb-ffef-460d-a67c-2db4393dd1cf","system_id":"levelo_inurba_marseille","lat":43.309589,"lon":5.390258,"is_reserved":false,"is_disabled":false,"rental_uris":{"android":"levelo://app?vid=5685e6eb-ffef-460d-a67c-2db4393dd1cf","ios":"levelo://app?vid=5685e6eb-ffef-460d-a67c-2db4393dd1cf"},"vehicle_type_id":"4","last_reported":1685217990,"current_range_meters":2000,"station_id":"ce4bgup2rcd13ifvqco0","pricing_plan_id":"free"},{"bike_id":"030aad06-7178-47f9-9a38-ccf25190a144","system_id":"levelo_inurba_marseille","lat":43.309589,"lon":5.390258,"is_reserved":false,"is_disabled":false,"rental_uris":{"android":"levelo://app?vid=030aad06-7178-47f9-9a38-ccf25190a144","ios":"levelo://app?vid=030aad06-7178-47f9-9a38-ccf25190a144"},"vehicle_type_id":"4","last_reported":1685217990,"current_range_meters":18400,"station_id":"ce4bgup2rcd13ifvqco0","pricing_plan_id":"free"},{"bike_id":"e0254191-efa0-477d-831c-06280b25dbb6","system_id":"levelo_inurba_marseille","lat":43.296935,"lon":5.376544,"is_reserved":false,"is_disabled":false,"rental_uris":{"android":"levelo://app?vid=e0254191-efa0-477d-831c-06280b25dbb6","ios":"levelo://app?vid=e0254191-efa0-477d-831c-06280b25dbb6"},"vehicle_type_id":"4","last_reported":1685217990,"current_range_meters":0,"station_id":"ce4bgkh2rcd13ifvqbl0","pricing_plan_id":"free"},{"bike_id":"55f4fa09-749c-43a4-9483-2329a69a8e3a","system_id":"levelo_inurba_marseille","lat":43.30944,"lon":5.39038,"is_reserved":false,"is_disabled":false,"rental_uris":{"android":"levelo://app?vid=55f4fa09-749c-43a4-9483-2329a69a8e3a","ios":"levelo://app?vid=55f4fa09-749c-43a4-9483-2329a69a8e3a"},"vehicle_type_id":"4","last_reported":1685217990,"current_range_meters":3600,"station_id":"ce4bgup2rcd13ifvqco0","pricing_plan_id":"free"},{"bike_id":"04f6883d-fac2-49cf-876c-0d231a0edf40","system_id":"levelo_inurba_marseille","lat":43.317557,"lon":5.390173,"is_reserved":false,"is_disabled":false,"rental_uris":{"android":"levelo://app?vid=04f6883d-fac2-49cf-876c-0d231a0edf40","ios":"levelo://app?vid=04f6883d-fac2-49cf-876c-0d231a0edf40"},"vehicle_type_id":"4","last_reported":1685217990,"current_range_meters":28400,"station_id":"ce4bhqp2rcd13ifvqhng","pricing_plan_id":"free"},{"bike_id":"794f0de2-ca9c-47ee-a77a-3f1b232a3e18","system_id":"levelo_inurba_marseille","lat":43.32301,"lon":5.38692,"is_reserved":false,"is_disabled":false,"rental_uris":{"android":"levelo://app?vid=794f0de2-ca9c-47ee-a77a-3f1b232a3e18","ios":"levelo://app?vid=794f0de2-ca9c-47ee-a77a-3f1b232a3e18"},"vehicle_type_id":"4","last_reported":1685217990,"current_range_meters":18000,"station_id":"","pricing_plan_id":"free"},{"bike_id":"e03378b9-c4eb-4892-b393-5b87f76483e7","system_id":"levelo_inurba_marseille","lat":43.29959,"lon":5.38502,"is_reserved":false,"is_disabled":false,"rental_uris":{"android":"levelo://app?vid=e03378b9-c4eb-4892-b393-5b87f76483e7","ios":"levelo://app?vid=e03378b9-c4eb-4892-b393-5b87f76483e7"},"vehicle_type_id":"4","last_reported":1685217990,"current_range_meters":0,"station_id":"ce4bgj92rcd13ifvqbd0","pricing_plan_id":"free"},{"bike_id":"7f49ef87-7fc7-45b0-8263-747245d48ec0","system_id":"levelo_inurba_marseille","lat":43.32365,"lon":5.3888,"is_reserved":false,"is_disabled":false,"rental_uris":{"android":"levelo://app?vid=7f49ef87-7fc7-45b0-8263-747245d48ec0","ios":"levelo://app?vid=7f49ef87-7fc7-45b0-8263-747245d48ec0"},"vehicle_type_id":"4","last_reported":1685217990,"current_range_meters":6400,"station_id":"ce4bhqp2rcd13ifvqhog","pricing_plan_id":"free"},{"bike_id":"b7aaf5f7-41da-4c1c-884e-e2dda27d393f","system_id":"levelo_inurba_marseille","lat":43.292749,"lon":5.368398,"is_reserved":false,"is_disabled":false,"rental_uris":{"android":"levelo://app?vid=b7aaf5f7-41da-4c1c-884e-e2dda27d393f","ios":"levelo://app?vid=b7aaf5f7-41da-4c1c-884e-e2dda27d393f"},"vehicle_type_id":"4","last_reported":1685217990,"current_range_meters":31200,"station_id":"ce4bhbp2rcd13ifvqesg","pricing_plan_id":"free"},{"bike_id":"b8fe9a2c-f891-4ac4-a240-08faeb0da730","system_id":"levelo_inurba_marseille","lat":43.305994,"lon":5.393687,"is_reserved":false,"is_disabled":false,"rental_uris":{"android":"levelo://app?vid=b8fe9a2c-f891-4ac4-a240-08faeb0da730","ios":"levelo://app?vid=b8fe9a2c-f891-4ac4-a240-08faeb0da730"},"vehicle_type_id":"4","last_reported":1685217990,"current_range_meters":3200,"station_id":"ce4bh0p2rcd13ifvqd80","pricing_plan_id":"free"},{"bike_id":"5d2f09cd-1f63-473d-89c6-bce90ac65c4e","system_id":"levelo_inurba_marseille","lat":43.293009,"lon":5.374584,"is_reserved":false,"is_disabled":false,"rental_uris":{"android":"levelo://app?vid=5d2f09cd-1f63-473d-89c6-bce90ac65c4e","ios":"levelo://app?vid=5d2f09cd-1f63-473d-89c6-bce90ac65c4e"},"vehicle_type_id":"4","last_reported":1685217990,"current_range_meters":0,"station_id":"ce4bgi12rcd13ifvqb70","pricing_plan_id":"free"},{"bike_id":"544c9fe6-21eb-4f41-9a8d-0df2c1c3ec5f","system_id":"levelo_inurba_marseille","lat":43.293751,"lon":5.378405,"is_reserved":false,"is_disabled":false,"rental_uris":{"android":"levelo://app?vid=544c9fe6-21eb-4f41-9a8d-0df2c1c3ec5f","ios":"levelo://app?vid=544c9fe6-21eb-4f41-9a8d-0df2c1c3ec5f"},"vehicle_type_id":"4","last_reported":1685217990,"current_range_meters":14000,"station_id":"ce4bh012rcd13ifvqd00","pricing_plan_id":"free"},{"bike_id":"f2d28183-4fa8-4f03-83ee-f06776ed1084","system_id":"levelo_inurba_marseille","lat":43.30085,"lon":5.390856,"is_reserved":false,"is_disabled":false,"rental_uris":{"android":"levelo://app?vid=f2d28183-4fa8-4f03-83ee-f06776ed1084","ios":"levelo://app?vid=f2d28183-4fa8-4f03-83ee-f06776ed1084"},"vehicle_type_id":"4","last_reported":1685217990,"current_range_meters":3600,"station_id":"ce4bh192rcd13ifvqdb0","pricing_plan_id":"free"},{"bike_id":"d25ceca1-028e-465b-a790-6626546b0a0c","system_id":"levelo_inurba_marseille","lat":43.295817,"lon":5.384218,"is_reserved":false,"is_disabled":false,"rental_uris":{"android":"levelo://app?vid=d25ceca1-028e-465b-a790-6626546b0a0c","ios":"levelo://app?vid=d25ceca1-028e-465b-a790-6626546b0a0c"},"vehicle_type_id":"4","last_reported":1685217990,"current_range_meters":0,"station_id":"","pricing_plan_id":"free"},{"bike_id":"a9fd27de-044b-4e72-af66-98fa7b535742","system_id":"levelo_inurba_marseille","lat":43.309038,"lon":5.396546,"is_reserved":false,"is_disabled":false,"rental_uris":{"android":"levelo://app?vid=a9fd27de-044b-4e72-af66-98fa7b535742","ios":"levelo://app?vid=a9fd27de-044b-4e72-af66-98fa7b535742"},"vehicle_type_id":"4","last_reported":1685217990,"current_range_meters":1200,"station_id":"ce4bh012rcd13ifvqcv0","pricing_plan_id":"free"},{"bike_id":"32ad9ecb-3797-4a82-ac3f-2ba40b3df435","system_id":"levelo_inurba_marseille","lat":43.29529,"lon":5.385581,"is_reserved":false,"is_disabled":false,"rental_uris":{"android":"levelo://app?vid=32ad9ecb-3797-4a82-ac3f-2ba40b3df435","ios":"levelo://app?vid=32ad9ecb-3797-4a82-ac3f-2ba40b3df435"},"vehicle_type_id":"4","last_reported":1685217990,"current_range_meters":1600,"station_id":"ce4bgih2rcd13ifvqba0","pricing_plan_id":"free"},{"bike_id":"332168ca-a606-48e4-b99f-a282f16557c1","system_id":"levelo_inurba_marseille","lat":43.294153,"lon":5.386305,"is_reserved":false,"is_disabled":false,"rental_uris":{"android":"levelo://app?vid=332168ca-a606-48e4-b99f-a282f16557c1","ios":"levelo://app?vid=332168ca-a606-48e4-b99f-a282f16557c1"},"vehicle_type_id":"4","last_reported":1685217990,"current_range_meters":800,"station_id":"ce4bh2h2rcd13ifvqdh0","pricing_plan_id":"free"},{"bike_id":"f655a1d6-b824-4b40-94b4-fe049659265c","system_id":"levelo_inurba_marseille","lat":43.294153,"lon":5.386305,"is_reserved":false,"is_disabled":false,"rental_uris":{"android":"levelo://app?vid=f655a1d6-b824-4b40-94b4-fe049659265c","ios":"levelo://app?vid=f655a1d6-b824-4b40-94b4-fe049659265c"},"vehicle_type_id":"4","last_reported":1685217990,"current_range_meters":800,"station_id":"ce4bh2h2rcd13ifvqdh0","pricing_plan_id":"free"},{"bike_id":"ea81d171-76c1-4ece-bb67-05fcd975d2a4","system_id":"levelo_inurba_marseille","lat":43.294153,"lon":5.386305,"is_reserved":false,"is_disabled":false,"rental_uris":{"android":"levelo://app?vid=ea81d171-76c1-4ece-bb67-05fcd975d2a4","ios":"levelo://app?vid=ea81d171-76c1-4ece-bb67-05fcd975d2a4"},"vehicle_type_id":"4","last_reported":1685217990,"current_range_meters":400,"station_id":"ce4bh2h2rcd13ifvqdh0","pricing_plan_id":"free"},{"bike_id":"798ef867-6d78-4c4a-81ed-a6644864d808","system_id":"levelo_inurba_marseille","lat":43.290327,"lon":5.375711,"is_reserved":false,"is_disabled":false,"rental_uris":{"android":"levelo://app?vid=798ef867-6d78-4c4a-81ed-a6644864d808","ios":"levelo://app?vid=798ef867-6d78-4c4a-81ed-a6644864d808"},"vehicle_type_id":"4","last_reported":1685217990,"current_range_meters":25600,"station_id":"ce4bh692rcd13ifvqe90","pricing_plan_id":"free"},{"bike_id":"667f469e-8ede-4da2-9e08-b13ec2ddfc1a","system_id":"levelo_inurba_marseille","lat":43.294162,"lon":5.386292,"is_reserved":false,"is_disabled":false,"rental_uris":{"android":"levelo://app?vid=667f469e-8ede-4da2-9e08-b13ec2ddfc1a","ios":"levelo://app?vid=667f469e-8ede-4da2-9e08-b13ec2ddfc1a"},"vehicle_type_id":"4","last_reported":1685217990,"current_range_meters":6400,"station_id":"ce4bh2h2rcd13ifvqdh0","pricing_plan_id":"free"},{"bike_id":"11d82583-b083-4f1c-91a2-8df0b6d84919","system_id":"levelo_inurba_marseille","lat":43.2894,"lon":5.36398,"is_reserved":false,"is_disabled":false,"rental_uris":{"android":"levelo://app?vid=11d82583-b083-4f1c-91a2-8df0b6d84919","ios":"levelo://app?vid=11d82583-b083-4f1c-91a2-8df0b6d84919"},"vehicle_type_id":"4","last_reported":1685217990,"current_range_meters":0,"station_id":"","pricing_plan_id":"free"},{"bike_id":"70de7881-648e-4626-bf0f-156cbeb9345a","system_id":"levelo_inurba_marseille","lat":43.292644,"lon":5.384257,"is_reserved":false,"is_disabled":false,"rental_uris":{"android":"levelo://app?vid=70de7881-648e-4626-bf0f-156cbeb9345a","ios":"levelo://app?vid=70de7881-648e-4626-bf0f-156cbeb9345a"},"vehicle_type_id":"4","last_reported":1685217990,"current_range_meters":400,"station_id":"ce4bh692rcd13ifvqea0","pricing_plan_id":"free"},{"bike_id":"f7f206e8-e750-42e5-908e-204ab4ee7113","system_id":"levelo_inurba_marseille","lat":43.292642,"lon":5.384254,"is_reserved":false,"is_disabled":false,"rental_uris":{"android":"levelo://app?vid=f7f206e8-e750-42e5-908e-204ab4ee7113","ios":"levelo://app?vid=f7f206e8-e750-42e5-908e-204ab4ee7113"},"vehicle_type_id":"4","last_reported":1685217990,"current_range_meters":10400,"station_id":"ce4bh692rcd13ifvqea0","pricing_plan_id":"free"},{"bike_id":"35506471-501b-4278-9792-ec97fac92ec7","system_id":"levelo_inurba_marseille","lat":43.292642,"lon":5.384254,"is_reserved":false,"is_disabled":false,"rental_uris":{"android":"levelo://app?vid=35506471-501b-4278-9792-ec97fac92ec7","ios":"levelo://app?vid=35506471-501b-4278-9792-ec97fac92ec7"},"vehicle_type_id":"4","last_reported":1685217990,"current_range_meters":2800,"station_id":"ce4bh692rcd13ifvqea0","pricing_plan_id":"free"},{"bike_id":"42ad85e6-275a-42bf-9838-3fce3e3449be","system_id":"levelo_inurba_marseille","lat":43.29255,"lon":5.38441,"is_reserved":false,"is_disabled":false,"rental_uris":{"android":"levelo://app?vid=42ad85e6-275a-42bf-9838-3fce3e3449be","ios":"levelo://app?vid=42ad85e6-275a-42bf-9838-3fce3e3449be"},"vehicle_type_id":"4","last_reported":1685217990,"current_range_meters":16400,"station_id":"ce4bh692rcd13ifvqea0","pricing_plan_id":"free"},{"bike_id":"0cf0b4f5-d04f-4747-9193-a5aca8cf52a6","system_id":"levelo_inurba_marseille","lat":43.292644,"lon":5.384257,"is_reserved":false,"is_disabled":false,"rental_uris":{"android":"levelo://app?vid=0cf0b4f5-d04f-4747-9193-a5aca8cf52a6","ios":"levelo://app?vid=0cf0b4f5-d04f-4747-9193-a5aca8cf52a6"},"vehicle_type_id":"4","last_reported":1685217990,"current_range_meters":28000,"station_id":"ce4bh692rcd13ifvqea0","pricing_plan_id":"free"},{"bike_id":"2fb4c105-843b-417b-a53f-cb9a51ccf733","system_id":"levelo_inurba_marseille","lat":43.290995,"lon":5.381361,"is_reserved":false,"is_disabled":false,"rental_uris":{"android":"levelo://app?vid=2fb4c105-843b-417b-a53f-cb9a51ccf733","ios":"levelo://app?vid=2fb4c105-843b-417b-a53f-cb9a51ccf733"},"vehicle_type_id":"4","last_reported":1685217990,"current_range_meters":0,"station_id":"ce4bh512rcd13ifvqe2g","pricing_plan_id":"free"},{"bike_id":"37ba581a-e4c6-47e2-9a20-aee61b131b4e","system_id":"levelo_inurba_marseille","lat":43.290995,"lon":5.381361,"is_reserved":false,"is_disabled":false,"rental_uris":{"android":"levelo://app?vid=37ba581a-e4c6-47e2-9a20-aee61b131b4e","ios":"levelo://app?vid=37ba581a-e4c6-47e2-9a20-aee61b131b4e"},"vehicle_type_id":"4","last_reported":1685217990,"current_range_meters":27600,"station_id":"ce4bh512rcd13ifvqe2g","pricing_plan_id":"free"},{"bike_id":"b3c7a6dc-146f-420b-8389-1eb79136fb7f","system_id":"levelo_inurba_marseille","lat":43.28965,"lon":5.37831,"is_reserved":false,"is_disabled":false,"rental_uris":{"android":"levelo://app?vid=b3c7a6dc-146f-420b-8389-1eb79136fb7f","ios":"levelo://app?vid=b3c7a6dc-146f-420b-8389-1eb79136fb7f"},"vehicle_type_id":"4","last_reported":1685217990,"current_range_meters":0,"station_id":"ce4bh9p2rcd13ifvqed0","pricing_plan_id":"free"},{"bike_id":"735168a7-8d40-437a-bedd-92b0cc3ab3fb","system_id":"levelo_inurba_marseille","lat":43.289741,"lon":5.378306,"is_reserved":false,"is_disabled":false,"rental_uris":{"android":"levelo://app?vid=735168a7-8d40-437a-bedd-92b0cc3ab3fb","ios":"levelo://app?vid=735168a7-8d40-437a-bedd-92b0cc3ab3fb"},"vehicle_type_id":"4","last_reported":1685217990,"current_range_meters":9200,"station_id":"ce4bh9p2rcd13ifvqed0","pricing_plan_id":"free"},{"bike_id":"f601a451-7015-4131-8fde-82bdc213d502","system_id":"levelo_inurba_marseille","lat":43.2901,"lon":5.381269,"is_reserved":false,"is_disabled":false,"rental_uris":{"android":"levelo://app?vid=f601a451-7015-4131-8fde-82bdc213d502","ios":"levelo://app?vid=f601a451-7015-4131-8fde-82bdc213d502"},"vehicle_type_id":"4","last_reported":1685217990,"current_range_meters":4400,"station_id":"ce4bh4p2rcd13ifvqe1g","pricing_plan_id":"free"},{"bike_id":"493860ce-e063-4684-ab33-c360eaf64153","system_id":"levelo_inurba_marseille","lat":43.33744,"lon":5.37451,"is_reserved":false,"is_disabled":false,"rental_uris":{"android":"levelo://app?vid=493860ce-e063-4684-ab33-c360eaf64153","ios":"levelo://app?vid=493860ce-e063-4684-ab33-c360eaf64153"},"vehicle_type_id":"4","last_reported":1685217990,"current_range_meters":20800,"station_id":"","pricing_plan_id":"free"},{"bike_id":"c67b547c-3fcb-4384-8614-e15f558fec55","system_id":"levelo_inurba_marseille","lat":43.33744,"lon":5.37451,"is_reserved":false,"is_disabled":false,"rental_uris":{"android":"levelo://app?vid=c67b547c-3fcb-4384-8614-e15f558fec55","ios":"levelo://app?vid=c67b547c-3fcb-4384-8614-e15f558fec55"},"vehicle_type_id":"4","last_reported":1685217990,"current_range_meters":30000,"station_id":"","pricing_plan_id":"free"},{"bike_id":"556c6db1-2600-4c2b-9521-aae8453517c1","system_id":"levelo_inurba_marseille","lat":43.3375,"lon":5.37433,"is_reserved":false,"is_disabled":false,"rental_uris":{"android":"levelo://app?vid=556c6db1-2600-4c2b-9521-aae8453517c1","ios":"levelo://app?vid=556c6db1-2600-4c2b-9521-aae8453517c1"},"vehicle_type_id":"4","last_reported":1685217990,"current_range_meters":16800,"station_id":"","pricing_plan_id":"free"},{"bike_id":"9e8ba907-b276-46b3-a0d4-643791b8cf62","system_id":"levelo_inurba_marseille","lat":43.33756,"lon":5.37449,"is_reserved":false,"is_disabled":false,"rental_uris":{"android":"levelo://app?vid=9e8ba907-b276-46b3-a0d4-643791b8cf62","ios":"levelo://app?vid=9e8ba907-b276-46b3-a0d4-643791b8cf62"},"vehicle_type_id":"4","last_reported":1685217990,"current_range_meters":30400,"station_id":"","pricing_plan_id":"free"},{"bike_id":"074ea2c3-5324-4cd8-88fb-9602f1e5bfff","system_id":"levelo_inurba_marseille","lat":43.33756,"lon":5.37454,"is_reserved":false,"is_disabled":false,"rental_uris":{"android":"levelo://app?vid=074ea2c3-5324-4cd8-88fb-9602f1e5bfff","ios":"levelo://app?vid=074ea2c3-5324-4cd8-88fb-9602f1e5bfff"},"vehicle_type_id":"4","last_reported":1685217990,"current_range_meters":31200,"station_id":"","pricing_plan_id":"free"},{"bike_id":"5aaf445f-f097-4041-99e9-0b2edc8a39b1","system_id":"levelo_inurba_marseille","lat":43.3376,"lon":5.37432,"is_reserved":false,"is_disabled":false,"rental_uris":{"android":"levelo://app?vid=5aaf445f-f097-4041-99e9-0b2edc8a39b1","ios":"levelo://app?vid=5aaf445f-f097-4041-99e9-0b2edc8a39b1"},"vehicle_type_id":"4","last_reported":1685217990,"current_range_meters":23600,"station_id":"","pricing_plan_id":"free"},{"bike_id":"21bebb90-bd37-4351-9ead-f26273aea005","system_id":"levelo_inurba_marseille","lat":43.33759,"lon":5.37442,"is_reserved":false,"is_disabled":false,"rental_uris":{"android":"levelo://app?vid=21bebb90-bd37-4351-9ead-f26273aea005","ios":"levelo://app?vid=21bebb90-bd37-4351-9ead-f26273aea005"},"vehicle_type_id":"4","last_reported":1685217990,"current_range_meters":14400,"station_id":"","pricing_plan_id":"free"},{"bike_id":"141c14ea-594b-43ee-894e-8c44af1dcd73","system_id":"levelo_inurba_marseille","lat":43.33762,"lon":5.37441,"is_reserved":false,"is_disabled":false,"rental_uris":{"android":"levelo://app?vid=141c14ea-594b-43ee-894e-8c44af1dcd73","ios":"levelo://app?vid=141c14ea-594b-43ee-894e-8c44af1dcd73"},"vehicle_type_id":"4","last_reported":1685217990,"current_range_meters":10800,"station_id":"","pricing_plan_id":"free"},{"bike_id":"c622c08e-a260-4027-b92a-839107253eb5","system_id":"levelo_inurba_marseille","lat":43.33761,"lon":5.37454,"is_reserved":false,"is_disabled":false,"rental_uris":{"android":"levelo://app?vid=c622c08e-a260-4027-b92a-839107253eb5","ios":"levelo://app?vid=c622c08e-a260-4027-b92a-839107253eb5"},"vehicle_type_id":"4","last_reported":1685217990,"current_range_meters":28800,"station_id":"","pricing_plan_id":"free"},{"bike_id":"3cfd1b5f-86db-4c1e-9fd2-40555f34297f","system_id":"levelo_inurba_marseille","lat":43.33764,"lon":5.37436,"is_reserved":false,"is_disabled":false,"rental_uris":{"android":"levelo://app?vid=3cfd1b5f-86db-4c1e-9fd2-40555f34297f","ios":"levelo://app?vid=3cfd1b5f-86db-4c1e-9fd2-40555f34297f"},"vehicle_type_id":"4","last_reported":1685217990,"current_range_meters":31200,"station_id":"","pricing_plan_id":"free"},{"bike_id":"d9d32683-0764-4c42-93bb-3f7770c4d102","system_id":"levelo_inurba_marseille","lat":43.298681,"lon":5.397225,"is_reserved":false,"is_disabled":false,"rental_uris":{"android":"levelo://app?vid=d9d32683-0764-4c42-93bb-3f7770c4d102","ios":"levelo://app?vid=d9d32683-0764-4c42-93bb-3f7770c4d102"},"vehicle_type_id":"4","last_reported":1685217990,"current_range_meters":0,"station_id":"ce4bh0h2rcd13ifvqd50","pricing_plan_id":"free"},{"bike_id":"9b75e935-bf83-43c4-8e21-dadac5ecfa58","system_id":"levelo_inurba_marseille","lat":43.298681,"lon":5.397225,"is_reserved":false,"is_disabled":false,"rental_uris":{"android":"levelo://app?vid=9b75e935-bf83-43c4-8e21-dadac5ecfa58","ios":"levelo://app?vid=9b75e935-bf83-43c4-8e21-dadac5ecfa58"},"vehicle_type_id":"4","last_reported":1685217990,"current_range_meters":11600,"station_id":"ce4bh0h2rcd13ifvqd50","pricing_plan_id":"free"},{"bike_id":"b829aba6-cdc8-4be6-b941-bc59bc9afb17","system_id":"levelo_inurba_marseille","lat":43.28656,"lon":5.36357,"is_reserved":false,"is_disabled":false,"rental_uris":{"android":"levelo://app?vid=b829aba6-cdc8-4be6-b941-bc59bc9afb17","ios":"levelo://app?vid=b829aba6-cdc8-4be6-b941-bc59bc9afb17"},"vehicle_type_id":"4","last_reported":1685217990,"current_range_meters":4800,"station_id":"ce4bhah2rcd13ifvqej0","pricing_plan_id":"free"},{"bike_id":"b93818ab-5f46-4515-abb0-b9516fc685a8","system_id":"levelo_inurba_marseille","lat":43.290336,"lon":5.386425,"is_reserved":false,"is_disabled":false,"rental_uris":{"android":"levelo://app?vid=b93818ab-5f46-4515-abb0-b9516fc685a8","ios":"levelo://app?vid=b93818ab-5f46-4515-abb0-b9516fc685a8"},"vehicle_type_id":"4","last_reported":1685217990,"current_range_meters":5200,"station_id":"ce4bh4p2rcd13ifvqe0g","pricing_plan_id":"free"},{"bike_id":"cde12674-4d2d-4d46-90eb-472c96ddde40","system_id":"levelo_inurba_marseille","lat":43.287185,"lon":5.379373,"is_reserved":false,"is_disabled":false,"rental_uris":{"android":"levelo://app?vid=cde12674-4d2d-4d46-90eb-472c96ddde40","ios":"levelo://app?vid=cde12674-4d2d-4d46-90eb-472c96ddde40"},"vehicle_type_id":"4","last_reported":1685217990,"current_range_meters":4800,"station_id":"ce4bh9p2rcd13ifvqec0","pricing_plan_id":"free"},{"bike_id":"ffb62472-9591-424e-8859-a465d1636aec","system_id":"levelo_inurba_marseille","lat":43.287185,"lon":5.379373,"is_reserved":false,"is_disabled":false,"rental_uris":{"android":"levelo://app?vid=ffb62472-9591-424e-8859-a465d1636aec","ios":"levelo://app?vid=ffb62472-9591-424e-8859-a465d1636aec"},"vehicle_type_id":"4","last_reported":1685217990,"current_range_meters":20800,"station_id":"ce4bh9p2rcd13ifvqec0","pricing_plan_id":"free"},{"bike_id":"978a4717-9669-4f49-8f0d-883975624d7e","system_id":"levelo_inurba_marseille","lat":43.287185,"lon":5.379373,"is_reserved":false,"is_disabled":false,"rental_uris":{"android":"levelo://app?vid=978a4717-9669-4f49-8f0d-883975624d7e","ios":"levelo://app?vid=978a4717-9669-4f49-8f0d-883975624d7e"},"vehicle_type_id":"4","last_reported":1685217990,"current_range_meters":3200,"station_id":"ce4bh9p2rcd13ifvqec0","pricing_plan_id":"free"},{"bike_id":"4ebe09ea-bbd9-477a-ad27-805daef49ec1","system_id":"levelo_inurba_marseille","lat":43.31649,"lon":5.40437,"is_reserved":false,"is_disabled":false,"rental_uris":{"android":"levelo://app?vid=4ebe09ea-bbd9-477a-ad27-805daef49ec1","ios":"levelo://app?vid=4ebe09ea-bbd9-477a-ad27-805daef49ec1"},"vehicle_type_id":"4","last_reported":1685217990,"current_range_meters":0,"station_id":"ce4bh012rcd13ifvqd00","pricing_plan_id":"free"},{"bike_id":"b329daa9-232c-49bd-8ff3-81b882ef5b48","system_id":"levelo_inurba_marseille","lat":43.291994,"lon":5.392907,"is_reserved":false,"is_disabled":false,"rental_uris":{"android":"levelo://app?vid=b329daa9-232c-49bd-8ff3-81b882ef5b48","ios":"levelo://app?vid=b329daa9-232c-49bd-8ff3-81b882ef5b48"},"vehicle_type_id":"4","last_reported":1685217990,"current_range_meters":8800,"station_id":"ce4bh192rcd13ifvqdd0","pricing_plan_id":"free"},{"bike_id":"5cd61b87-b395-4e77-b539-b10086f46e1c","system_id":"levelo_inurba_marseille","lat":43.291994,"lon":5.392907,"is_reserved":false,"is_disabled":false,"rental_uris":{"android":"levelo://app?vid=5cd61b87-b395-4e77-b539-b10086f46e1c","ios":"levelo://app?vid=5cd61b87-b395-4e77-b539-b10086f46e1c"},"vehicle_type_id":"4","last_reported":1685217990,"current_range_meters":2800,"station_id":"ce4bh192rcd13ifvqdd0","pricing_plan_id":"free"},{"bike_id":"31176884-4be9-46aa-ac3d-0e49f0204fd6","system_id":"levelo_inurba_marseille","lat":43.284534,"lon":5.358662,"is_reserved":false,"is_disabled":false,"rental_uris":{"android":"levelo://app?vid=31176884-4be9-46aa-ac3d-0e49f0204fd6","ios":"levelo://app?vid=31176884-4be9-46aa-ac3d-0e49f0204fd6"},"vehicle_type_id":"4","last_reported":1685217990,"current_range_meters":800,"station_id":"ce4bhah2rcd13ifvqei0","pricing_plan_id":"free"},{"bike_id":"81deacd8-98b9-453b-9cb0-74662eab40b3","system_id":"levelo_inurba_marseille","lat":43.284534,"lon":5.358662,"is_reserved":false,"is_disabled":false,"rental_uris":{"android":"levelo://app?vid=81deacd8-98b9-453b-9cb0-74662eab40b3","ios":"levelo://app?vid=81deacd8-98b9-453b-9cb0-74662eab40b3"},"vehicle_type_id":"4","last_reported":1685217990,"current_range_meters":800,"station_id":"ce4bhah2rcd13ifvqei0","pricing_plan_id":"free"},{"bike_id":"766abbe0-0648-4603-8564-03a8018d1f07","system_id":"levelo_inurba_marseille","lat":43.28685,"lon":5.38652,"is_reserved":false,"is_disabled":false,"rental_uris":{"android":"levelo://app?vid=766abbe0-0648-4603-8564-03a8018d1f07","ios":"levelo://app?vid=766abbe0-0648-4603-8564-03a8018d1f07"},"vehicle_type_id":"4","last_reported":1685217990,"current_range_meters":0,"station_id":"","pricing_plan_id":"free"},{"bike_id":"313049e2-232c-4f54-9b26-81086cea8884","system_id":"levelo_inurba_marseille","lat":43.33724,"lon":5.39184,"is_reserved":false,"is_disabled":false,"rental_uris":{"android":"levelo://app?vid=313049e2-232c-4f54-9b26-81086cea8884","ios":"levelo://app?vid=313049e2-232c-4f54-9b26-81086cea8884"},"vehicle_type_id":"4","last_reported":1685217990,"current_range_meters":7600,"station_id":"","pricing_plan_id":"free"},{"bike_id":"745a43ad-1a5d-46fb-a0a9-38af425e2aad","system_id":"levelo_inurba_marseille","lat":43.284793,"lon":5.384113,"is_reserved":false,"is_disabled":false,"rental_uris":{"android":"levelo://app?vid=745a43ad-1a5d-46fb-a0a9-38af425e2aad","ios":"levelo://app?vid=745a43ad-1a5d-46fb-a0a9-38af425e2aad"},"vehicle_type_id":"4","last_reported":1685217990,"current_range_meters":0,"station_id":"ce4bh512rcd13ifvqe3g","pricing_plan_id":"free"},{"bike_id":"1d4f6d15-346f-4b64-add2-6667c0dcb26c","system_id":"levelo_inurba_marseille","lat":43.28861,"lon":5.39312,"is_reserved":false,"is_disabled":false,"rental_uris":{"android":"levelo://app?vid=1d4f6d15-346f-4b64-add2-6667c0dcb26c","ios":"levelo://app?vid=1d4f6d15-346f-4b64-add2-6667c0dcb26c"},"vehicle_type_id":"4","last_reported":1685217990,"current_range_meters":4000,"station_id":"ce4bh2p2rcd13ifvqdi0","pricing_plan_id":"free"},{"bike_id":"54320662-179d-4c80-9f22-38ab1ed9a394","system_id":"levelo_inurba_marseille","lat":43.283494,"lon":5.380945,"is_reserved":false,"is_disabled":false,"rental_uris":{"android":"levelo://app?vid=54320662-179d-4c80-9f22-38ab1ed9a394","ios":"levelo://app?vid=54320662-179d-4c80-9f22-38ab1ed9a394"},"vehicle_type_id":"4","last_reported":1685217990,"current_range_meters":24800,"station_id":"ce4bh412rcd13ifvqdr0","pricing_plan_id":"free"},{"bike_id":"4ee092f4-bbbf-4cbd-88af-bd88fc5959b6","system_id":"levelo_inurba_marseille","lat":43.28344,"lon":5.38106,"is_reserved":false,"is_disabled":false,"rental_uris":{"android":"levelo://app?vid=4ee092f4-bbbf-4cbd-88af-bd88fc5959b6","ios":"levelo://app?vid=4ee092f4-bbbf-4cbd-88af-bd88fc5959b6"},"vehicle_type_id":"4","last_reported":1685217990,"current_range_meters":0,"station_id":"ce4bh412rcd13ifvqdr0","pricing_plan_id":"free"},{"bike_id":"e9d781d0-f246-4aa5-8610-6058dc3998a1","system_id":"levelo_inurba_marseille","lat":43.284217,"lon":5.349697,"is_reserved":false,"is_disabled":false,"rental_uris":{"android":"levelo://app?vid=e9d781d0-f246-4aa5-8610-6058dc3998a1","ios":"levelo://app?vid=e9d781d0-f246-4aa5-8610-6058dc3998a1"},"vehicle_type_id":"4","last_reported":1685217990,"current_range_meters":1200,"station_id":"ce4bhbh2rcd13ifvqepg","pricing_plan_id":"free"},{"bike_id":"44c3a0fa-b6cf-476d-96a5-086b007f5084","system_id":"levelo_inurba_marseille","lat":43.28039,"lon":5.369297,"is_reserved":false,"is_disabled":false,"rental_uris":{"android":"levelo://app?vid=44c3a0fa-b6cf-476d-96a5-086b007f5084","ios":"levelo://app?vid=44c3a0fa-b6cf-476d-96a5-086b007f5084"},"vehicle_type_id":"4","last_reported":1685217990,"current_range_meters":22000,"station_id":"ce4bha12rcd13ifvqef0","pricing_plan_id":"free"},{"bike_id":"ea89e536-baa4-4146-a839-9a8176c30bc9","system_id":"levelo_inurba_marseille","lat":43.28039,"lon":5.369297,"is_reserved":false,"is_disabled":false,"rental_uris":{"android":"levelo://app?vid=ea89e536-baa4-4146-a839-9a8176c30bc9","ios":"levelo://app?vid=ea89e536-baa4-4146-a839-9a8176c30bc9"},"vehicle_type_id":"4","last_reported":1685217990,"current_range_meters":25200,"station_id":"ce4bha12rcd13ifvqef0","pricing_plan_id":"free"},{"bike_id":"7a40110c-e19d-4bc6-a907-970e110cfb0f","system_id":"levelo_inurba_marseille","lat":43.28039,"lon":5.369297,"is_reserved":false,"is_disabled":false,"rental_uris":{"android":"levelo://app?vid=7a40110c-e19d-4bc6-a907-970e110cfb0f","ios":"levelo://app?vid=7a40110c-e19d-4bc6-a907-970e110cfb0f"},"vehicle_type_id":"4","last_reported":1685217990,"current_range_meters":18400,"station_id":"ce4bha12rcd13ifvqef0","pricing_plan_id":"free"},{"bike_id":"4e714206-f604-4bc2-9215-bb3aeccde328","system_id":"levelo_inurba_marseille","lat":43.2803,"lon":5.36943,"is_reserved":false,"is_disabled":false,"rental_uris":{"android":"levelo://app?vid=4e714206-f604-4bc2-9215-bb3aeccde328","ios":"levelo://app?vid=4e714206-f604-4bc2-9215-bb3aeccde328"},"vehicle_type_id":"4","last_reported":1685217990,"current_range_meters":400,"station_id":"ce4bha12rcd13ifvqef0","pricing_plan_id":"free"},{"bike_id":"4d86ce40-e406-44d0-9e2e-59dcfae65e59","system_id":"levelo_inurba_marseille","lat":43.29041,"lon":5.39947,"is_reserved":false,"is_disabled":false,"rental_uris":{"android":"levelo://app?vid=4d86ce40-e406-44d0-9e2e-59dcfae65e59","ios":"levelo://app?vid=4d86ce40-e406-44d0-9e2e-59dcfae65e59"},"vehicle_type_id":"4","last_reported":1685217990,"current_range_meters":0,"station_id":"ce4bh392rcd13ifvqdm0","pricing_plan_id":"free"},{"bike_id":"0fd987bd-8f5a-4d83-bd39-56825b965300","system_id":"levelo_inurba_marseille","lat":43.296263,"lon":5.40601,"is_reserved":false,"is_disabled":false,"rental_uris":{"android":"levelo://app?vid=0fd987bd-8f5a-4d83-bd39-56825b965300","ios":"levelo://app?vid=0fd987bd-8f5a-4d83-bd39-56825b965300"},"vehicle_type_id":"4","last_reported":1685217990,"current_range_meters":4400,"station_id":"ce4bh0h2rcd13ifvqd60","pricing_plan_id":"free"},{"bike_id":"67da2218-6c14-48bc-a253-fdd2486b15ba","system_id":"levelo_inurba_marseille","lat":43.296263,"lon":5.40601,"is_reserved":false,"is_disabled":false,"rental_uris":{"android":"levelo://app?vid=67da2218-6c14-48bc-a253-fdd2486b15ba","ios":"levelo://app?vid=67da2218-6c14-48bc-a253-fdd2486b15ba"},"vehicle_type_id":"4","last_reported":1685217990,"current_range_meters":400,"station_id":"ce4bh0h2rcd13ifvqd60","pricing_plan_id":"free"},{"bike_id":"cf7896ce-0193-45d2-992d-059d7398c763","system_id":"levelo_inurba_marseille","lat":43.284462,"lon":5.392121,"is_reserved":false,"is_disabled":false,"rental_uris":{"android":"levelo://app?vid=cf7896ce-0193-45d2-992d-059d7398c763","ios":"levelo://app?vid=cf7896ce-0193-45d2-992d-059d7398c763"},"vehicle_type_id":"4","last_reported":1685217990,"current_range_meters":28000,"station_id":"ce4bhoh2rcd13ifvqh5g","pricing_plan_id":"free"},{"bike_id":"aef1c5cf-91ba-445b-ae88-1d8b072abf33","system_id":"levelo_inurba_marseille","lat":43.28573,"lon":5.394992,"is_reserved":false,"is_disabled":false,"rental_uris":{"android":"levelo://app?vid=aef1c5cf-91ba-445b-ae88-1d8b072abf33","ios":"levelo://app?vid=aef1c5cf-91ba-445b-ae88-1d8b072abf33"},"vehicle_type_id":"4","last_reported":1685217990,"current_range_meters":1600,"station_id":"ce4bh292rcd13ifvqdg0","pricing_plan_id":"free"},{"bike_id":"ae933baa-3619-464c-b7a3-182f361b7fb4","system_id":"levelo_inurba_marseille","lat":43.30414,"lon":5.41275,"is_reserved":false,"is_disabled":false,"rental_uris":{"android":"levelo://app?vid=ae933baa-3619-464c-b7a3-182f361b7fb4","ios":"levelo://app?vid=ae933baa-3619-464c-b7a3-182f361b7fb4"},"vehicle_type_id":"4","last_reported":1685217990,"current_range_meters":4000,"station_id":"ce4bhop2rcd13ifvqh8g","pricing_plan_id":"free"},{"bike_id":"72955f6c-7da2-4149-a2ff-f068449222e2","system_id":"levelo_inurba_marseille","lat":43.304188,"lon":5.412904,"is_reserved":false,"is_disabled":false,"rental_uris":{"android":"levelo://app?vid=72955f6c-7da2-4149-a2ff-f068449222e2","ios":"levelo://app?vid=72955f6c-7da2-4149-a2ff-f068449222e2"},"vehicle_type_id":"4","last_reported":1685217990,"current_range_meters":14000,"station_id":"ce4bhop2rcd13ifvqh8g","pricing_plan_id":"free"},{"bike_id":"84d12069-021b-4680-8bac-2b856acbd98f","system_id":"levelo_inurba_marseille","lat":43.304188,"lon":5.412904,"is_reserved":false,"is_disabled":false,"rental_uris":{"android":"levelo://app?vid=84d12069-021b-4680-8bac-2b856acbd98f","ios":"levelo://app?vid=84d12069-021b-4680-8bac-2b856acbd98f"},"vehicle_type_id":"4","last_reported":1685217990,"current_range_meters":17600,"station_id":"ce4bhop2rcd13ifvqh8g","pricing_plan_id":"free"},{"bike_id":"6f0c4f67-c037-4e70-98cd-ce7868d72ed6","system_id":"levelo_inurba_marseille","lat":43.304188,"lon":5.412904,"is_reserved":false,"is_disabled":false,"rental_uris":{"android":"levelo://app?vid=6f0c4f67-c037-4e70-98cd-ce7868d72ed6","ios":"levelo://app?vid=6f0c4f67-c037-4e70-98cd-ce7868d72ed6"},"vehicle_type_id":"4","last_reported":1685217990,"current_range_meters":11600,"station_id":"ce4bhop2rcd13ifvqh8g","pricing_plan_id":"free"},{"bike_id":"7bdae8c0-7920-41d0-ae1b-21404029104c","system_id":"levelo_inurba_marseille","lat":43.287154,"lon":5.399979,"is_reserved":false,"is_disabled":false,"rental_uris":{"android":"levelo://app?vid=7bdae8c0-7920-41d0-ae1b-21404029104c","ios":"levelo://app?vid=7bdae8c0-7920-41d0-ae1b-21404029104c"},"vehicle_type_id":"4","last_reported":1685217990,"current_range_meters":19600,"station_id":"ce4bho92rcd13ifvqh3g","pricing_plan_id":"free"},{"bike_id":"0064be8c-b6cf-4adf-abf4-49942f143537","system_id":"levelo_inurba_marseille","lat":43.27888,"lon":5.3801,"is_reserved":false,"is_disabled":false,"rental_uris":{"android":"levelo://app?vid=0064be8c-b6cf-4adf-abf4-49942f143537","ios":"levelo://app?vid=0064be8c-b6cf-4adf-abf4-49942f143537"},"vehicle_type_id":"4","last_reported":1685217990,"current_range_meters":4000,"station_id":"","pricing_plan_id":"free"},{"bike_id":"ac57c80e-a04c-4e94-b826-7a3c2c79fc35","system_id":"levelo_inurba_marseille","lat":43.320045,"lon":5.415048,"is_reserved":false,"is_disabled":false,"rental_uris":{"android":"levelo://app?vid=ac57c80e-a04c-4e94-b826-7a3c2c79fc35","ios":"levelo://app?vid=ac57c80e-a04c-4e94-b826-7a3c2c79fc35"},"vehicle_type_id":"4","last_reported":1685217990,"current_range_meters":21200,"station_id":"ce4bhq92rcd13ifvqhkg","pricing_plan_id":"free"},{"bike_id":"a8ec6b99-a56b-4471-afb1-dcbb838a1676","system_id":"levelo_inurba_marseille","lat":43.320045,"lon":5.415046,"is_reserved":false,"is_disabled":false,"rental_uris":{"android":"levelo://app?vid=a8ec6b99-a56b-4471-afb1-dcbb838a1676","ios":"levelo://app?vid=a8ec6b99-a56b-4471-afb1-dcbb838a1676"},"vehicle_type_id":"4","last_reported":1685217990,"current_range_meters":3200,"station_id":"ce4bhq92rcd13ifvqhkg","pricing_plan_id":"free"},{"bike_id":"e71f1185-914c-4bd0-8845-2fc39b7f9339","system_id":"levelo_inurba_marseille","lat":43.299577,"lon":5.413277,"is_reserved":false,"is_disabled":false,"rental_uris":{"android":"levelo://app?vid=e71f1185-914c-4bd0-8845-2fc39b7f9339","ios":"levelo://app?vid=e71f1185-914c-4bd0-8845-2fc39b7f9339"},"vehicle_type_id":"4","last_reported":1685217990,"current_range_meters":8800,"station_id":"ce4bhp12rcd13ifvqh9g","pricing_plan_id":"free"},{"bike_id":"c0bb5c2e-b50e-45b4-94ec-87e6bf18ad4d","system_id":"levelo_inurba_marseille","lat":43.27618,"lon":5.361009,"is_reserved":false,"is_disabled":false,"rental_uris":{"android":"levelo://app?vid=c0bb5c2e-b50e-45b4-94ec-87e6bf18ad4d","ios":"levelo://app?vid=c0bb5c2e-b50e-45b4-94ec-87e6bf18ad4d"},"vehicle_type_id":"4","last_reported":1685217990,"current_range_meters":8800,"station_id":"ce4bgj92rcd13ifvqbe0","pricing_plan_id":"free"},{"bike_id":"eced1892-a944-4019-a938-29b6a5f5dee0","system_id":"levelo_inurba_marseille","lat":43.287154,"lon":5.399979,"is_reserved":false,"is_disabled":false,"rental_uris":{"android":"levelo://app?vid=eced1892-a944-4019-a938-29b6a5f5dee0","ios":"levelo://app?vid=eced1892-a944-4019-a938-29b6a5f5dee0"},"vehicle_type_id":"4","last_reported":1685217990,"current_range_meters":3200,"station_id":"ce4bho92rcd13ifvqh3g","pricing_plan_id":"free"},{"bike_id":"70132c36-c515-4204-82a1-c90f3d42a08d","system_id":"levelo_inurba_marseille","lat":43.278401,"lon":5.392152,"is_reserved":false,"is_disabled":false,"rental_uris":{"android":"levelo://app?vid=70132c36-c515-4204-82a1-c90f3d42a08d","ios":"levelo://app?vid=70132c36-c515-4204-82a1-c90f3d42a08d"},"vehicle_type_id":"4","last_reported":1685217990,"current_range_meters":2800,"station_id":"ce4bhjp2rcd13ifvqga0","pricing_plan_id":"free"},{"bike_id":"91b49189-18df-431a-bbbf-f0b2350181de","system_id":"levelo_inurba_marseille","lat":43.28414,"lon":5.40779,"is_reserved":false,"is_disabled":false,"rental_uris":{"android":"levelo://app?vid=91b49189-18df-431a-bbbf-f0b2350181de","ios":"levelo://app?vid=91b49189-18df-431a-bbbf-f0b2350181de"},"vehicle_type_id":"4","last_reported":1685217990,"current_range_meters":9600,"station_id":"","pricing_plan_id":"free"},{"bike_id":"bc8b1168-136e-4656-a421-980b7f5f4b9f","system_id":"levelo_inurba_marseille","lat":43.273125,"lon":5.390731,"is_reserved":false,"is_disabled":false,"rental_uris":{"android":"levelo://app?vid=bc8b1168-136e-4656-a421-980b7f5f4b9f","ios":"levelo://app?vid=bc8b1168-136e-4656-a421-980b7f5f4b9f"},"vehicle_type_id":"4","last_reported":1685217990,"current_range_meters":6800,"station_id":"ce4bhgp2rcd13ifvqfe0","pricing_plan_id":"free"},{"bike_id":"b858ad10-13de-44b8-b3bd-a7bb51ffe5eb","system_id":"levelo_inurba_marseille","lat":43.27409,"lon":5.39419,"is_reserved":false,"is_disabled":false,"rental_uris":{"android":"levelo://app?vid=b858ad10-13de-44b8-b3bd-a7bb51ffe5eb","ios":"levelo://app?vid=b858ad10-13de-44b8-b3bd-a7bb51ffe5eb"},"vehicle_type_id":"4","last_reported":1685217990,"current_range_meters":5200,"station_id":"","pricing_plan_id":"free"},{"bike_id":"c7172aef-a8b0-4b2d-80b3-07253285ec80","system_id":"levelo_inurba_marseille","lat":43.272116,"lon":5.391763,"is_reserved":false,"is_disabled":false,"rental_uris":{"android":"levelo://app?vid=c7172aef-a8b0-4b2d-80b3-07253285ec80","ios":"levelo://app?vid=c7172aef-a8b0-4b2d-80b3-07253285ec80"},"vehicle_type_id":"4","last_reported":1685217990,"current_range_meters":0,"station_id":"ce4bhhp2rcd13ifvqfm0","pricing_plan_id":"free"},{"bike_id":"00aee4cb-dbe7-42a7-af1d-479c2713e68c","system_id":"levelo_inurba_marseille","lat":43.278128,"lon":5.407195,"is_reserved":false,"is_disabled":false,"rental_uris":{"android":"levelo://app?vid=00aee4cb-dbe7-42a7-af1d-479c2713e68c","ios":"levelo://app?vid=00aee4cb-dbe7-42a7-af1d-479c2713e68c"},"vehicle_type_id":"4","last_reported":1685217990,"current_range_meters":29200,"station_id":"ce4bhnh2rcd13ifvqgtg","pricing_plan_id":"free"},{"bike_id":"8b7d02e8-fb7d-4ee5-84f6-bacacdf60f8d","system_id":"levelo_inurba_marseille","lat":43.278128,"lon":5.407195,"is_reserved":false,"is_disabled":false,"rental_uris":{"android":"levelo://app?vid=8b7d02e8-fb7d-4ee5-84f6-bacacdf60f8d","ios":"levelo://app?vid=8b7d02e8-fb7d-4ee5-84f6-bacacdf60f8d"},"vehicle_type_id":"4","last_reported":1685217990,"current_range_meters":19600,"station_id":"ce4bhnh2rcd13ifvqgtg","pricing_plan_id":"free"},{"bike_id":"8123f3a1-05dc-4fe7-a0e0-0e1d2ab74f14","system_id":"levelo_inurba_marseille","lat":43.2781,"lon":5.40711,"is_reserved":false,"is_disabled":false,"rental_uris":{"android":"levelo://app?vid=8123f3a1-05dc-4fe7-a0e0-0e1d2ab74f14","ios":"levelo://app?vid=8123f3a1-05dc-4fe7-a0e0-0e1d2ab74f14"},"vehicle_type_id":"4","last_reported":1685217990,"current_range_meters":20800,"station_id":"ce4bhnh2rcd13ifvqgtg","pricing_plan_id":"free"},{"bike_id":"df0d29bd-9342-46f9-9635-49a4fe6e6d67","system_id":"levelo_inurba_marseille","lat":43.309589,"lon":5.390258,"is_reserved":false,"is_disabled":false,"rental_uris":{"android":"levelo://app?vid=df0d29bd-9342-46f9-9635-49a4fe6e6d67","ios":"levelo://app?vid=df0d29bd-9342-46f9-9635-49a4fe6e6d67"},"vehicle_type_id":"4","last_reported":1685217990,"current_range_meters":800,"station_id":"ce4bgup2rcd13ifvqco0","pricing_plan_id":"free"},{"bike_id":"e352f473-ab54-47d5-87a6-485dcc316348","system_id":"levelo_inurba_marseille","lat":43.26559,"lon":5.37281,"is_reserved":false,"is_disabled":false,"rental_uris":{"android":"levelo://app?vid=e352f473-ab54-47d5-87a6-485dcc316348","ios":"levelo://app?vid=e352f473-ab54-47d5-87a6-485dcc316348"},"vehicle_type_id":"4","last_reported":1685217990,"current_range_meters":7600,"station_id":"ce4bhg12rcd13ifvqf70","pricing_plan_id":"free"},{"bike_id":"97f92444-dc7f-4ac8-885e-43ac50454dc0","system_id":"levelo_inurba_marseille","lat":43.31696,"lon":5.43305,"is_reserved":false,"is_disabled":false,"rental_uris":{"android":"levelo://app?vid=97f92444-dc7f-4ac8-885e-43ac50454dc0","ios":"levelo://app?vid=97f92444-dc7f-4ac8-885e-43ac50454dc0"},"vehicle_type_id":"4","last_reported":1685217990,"current_range_meters":0,"station_id":"","pricing_plan_id":"free"},{"bike_id":"6d2ce819-822d-4f1a-8f15-09307b6a6515","system_id":"levelo_inurba_marseille","lat":43.27996,"lon":5.416624,"is_reserved":false,"is_disabled":false,"rental_uris":{"android":"levelo://app?vid=6d2ce819-822d-4f1a-8f15-09307b6a6515","ios":"levelo://app?vid=6d2ce819-822d-4f1a-8f15-09307b6a6515"},"vehicle_type_id":"4","last_reported":1685217990,"current_range_meters":5600,"station_id":"ce4bho12rcd13ifvqh1g","pricing_plan_id":"free"},{"bike_id":"797fbfa5-fd5e-4798-ae71-5128ce88ba51","system_id":"levelo_inurba_marseille","lat":43.27996,"lon":5.416624,"is_reserved":false,"is_disabled":false,"rental_uris":{"android":"levelo://app?vid=797fbfa5-fd5e-4798-ae71-5128ce88ba51","ios":"levelo://app?vid=797fbfa5-fd5e-4798-ae71-5128ce88ba51"},"vehicle_type_id":"4","last_reported":1685217990,"current_range_meters":23600,"station_id":"ce4bho12rcd13ifvqh1g","pricing_plan_id":"free"},{"bike_id":"a703deb0-7c18-4797-9a49-57b709d1d1b1","system_id":"levelo_inurba_marseille","lat":43.30796,"lon":5.43519,"is_reserved":false,"is_disabled":false,"rental_uris":{"android":"levelo://app?vid=a703deb0-7c18-4797-9a49-57b709d1d1b1","ios":"levelo://app?vid=a703deb0-7c18-4797-9a49-57b709d1d1b1"},"vehicle_type_id":"4","last_reported":1685217990,"current_range_meters":8000,"station_id":"","pricing_plan_id":"free"},{"bike_id":"2d160bfa-cf4e-4726-814c-4950079d52cd","system_id":"levelo_inurba_marseille","lat":43.30802,"lon":5.43525,"is_reserved":false,"is_disabled":false,"rental_uris":{"android":"levelo://app?vid=2d160bfa-cf4e-4726-814c-4950079d52cd","ios":"levelo://app?vid=2d160bfa-cf4e-4726-814c-4950079d52cd"},"vehicle_type_id":"4","last_reported":1685217990,"current_range_meters":19600,"station_id":"","pricing_plan_id":"free"},{"bike_id":"e3ec5939-1376-4397-942a-05af320f4d57","system_id":"levelo_inurba_marseille","lat":43.265569,"lon":5.390047,"is_reserved":false,"is_disabled":false,"rental_uris":{"android":"levelo://app?vid=e3ec5939-1376-4397-942a-05af320f4d57","ios":"levelo://app?vid=e3ec5939-1376-4397-942a-05af320f4d57"},"vehicle_type_id":"4","last_reported":1685217990,"current_range_meters":800,"station_id":"ce4bhe12rcd13ifvqf30","pricing_plan_id":"free"},{"bike_id":"75adb7d2-07d6-4dbd-885a-2c595c0d52aa","system_id":"levelo_inurba_marseille","lat":43.261782,"lon":5.374515,"is_reserved":false,"is_disabled":false,"rental_uris":{"android":"levelo://app?vid=75adb7d2-07d6-4dbd-885a-2c595c0d52aa","ios":"levelo://app?vid=75adb7d2-07d6-4dbd-885a-2c595c0d52aa"},"vehicle_type_id":"4","last_reported":1685217990,"current_range_meters":3600,"station_id":"ce4bhgp2rcd13ifvqfc0","pricing_plan_id":"free"},{"bike_id":"efa33533-7b89-4499-b27f-4869a7bd4dcb","system_id":"levelo_inurba_marseille","lat":43.261782,"lon":5.374515,"is_reserved":false,"is_disabled":false,"rental_uris":{"android":"levelo://app?vid=efa33533-7b89-4499-b27f-4869a7bd4dcb","ios":"levelo://app?vid=efa33533-7b89-4499-b27f-4869a7bd4dcb"},"vehicle_type_id":"4","last_reported":1685217990,"current_range_meters":7600,"station_id":"ce4bhgp2rcd13ifvqfc0","pricing_plan_id":"free"},{"bike_id":"7a28099f-e6b4-4d93-8b7b-bfd06ce5edbc","system_id":"levelo_inurba_marseille","lat":43.261782,"lon":5.374515,"is_reserved":false,"is_disabled":false,"rental_uris":{"android":"levelo://app?vid=7a28099f-e6b4-4d93-8b7b-bfd06ce5edbc","ios":"levelo://app?vid=7a28099f-e6b4-4d93-8b7b-bfd06ce5edbc"},"vehicle_type_id":"4","last_reported":1685217990,"current_range_meters":3600,"station_id":"ce4bhgp2rcd13ifvqfc0","pricing_plan_id":"free"},{"bike_id":"2ee21dbd-f86f-498d-b998-7051f0a5ce6a","system_id":"levelo_inurba_marseille","lat":43.261782,"lon":5.374515,"is_reserved":false,"is_disabled":false,"rental_uris":{"android":"levelo://app?vid=2ee21dbd-f86f-498d-b998-7051f0a5ce6a","ios":"levelo://app?vid=2ee21dbd-f86f-498d-b998-7051f0a5ce6a"},"vehicle_type_id":"4","last_reported":1685217990,"current_range_meters":4800,"station_id":"ce4bhgp2rcd13ifvqfc0","pricing_plan_id":"free"},{"bike_id":"cfac2244-08a2-4a55-bbfd-2b12d2ce88d6","system_id":"levelo_inurba_marseille","lat":43.26803,"lon":5.40266,"is_reserved":false,"is_disabled":false,"rental_uris":{"android":"levelo://app?vid=cfac2244-08a2-4a55-bbfd-2b12d2ce88d6","ios":"levelo://app?vid=cfac2244-08a2-4a55-bbfd-2b12d2ce88d6"},"vehicle_type_id":"4","last_reported":1685217990,"current_range_meters":0,"station_id":"ce501612rcd8frsf0b60","pricing_plan_id":"free"},{"bike_id":"21e1e67c-4f96-4594-9f77-1ef210d58baa","system_id":"levelo_inurba_marseille","lat":43.26802,"lon":5.40265,"is_reserved":false,"is_disabled":false,"rental_uris":{"android":"levelo://app?vid=21e1e67c-4f96-4594-9f77-1ef210d58baa","ios":"levelo://app?vid=21e1e67c-4f96-4594-9f77-1ef210d58baa"},"vehicle_type_id":"4","last_reported":1685217990,"current_range_meters":23200,"station_id":"ce501612rcd8frsf0b60","pricing_plan_id":"free"},{"bike_id":"b2cc06a2-b661-4cf4-8720-d993a19ff626","system_id":"levelo_inurba_marseille","lat":43.268,"lon":5.40267,"is_reserved":false,"is_disabled":false,"rental_uris":{"android":"levelo://app?vid=b2cc06a2-b661-4cf4-8720-d993a19ff626","ios":"levelo://app?vid=b2cc06a2-b661-4cf4-8720-d993a19ff626"},"vehicle_type_id":"4","last_reported":1685217990,"current_range_meters":10400,"station_id":"ce501612rcd8frsf0b60","pricing_plan_id":"free"},{"bike_id":"4e1b86b6-b12c-441f-b5c1-ba0a90fca197","system_id":"levelo_inurba_marseille","lat":43.298768,"lon":5.43643,"is_reserved":false,"is_disabled":false,"rental_uris":{"android":"levelo://app?vid=4e1b86b6-b12c-441f-b5c1-ba0a90fca197","ios":"levelo://app?vid=4e1b86b6-b12c-441f-b5c1-ba0a90fca197"},"vehicle_type_id":"4","last_reported":1685217990,"current_range_meters":32000,"station_id":"ce4bhpp2rcd13ifvqhfg","pricing_plan_id":"free"},{"bike_id":"1522e6fe-e66c-4a0c-a606-391cd3d5a93b","system_id":"levelo_inurba_marseille","lat":43.298768,"lon":5.43643,"is_reserved":false,"is_disabled":false,"rental_uris":{"android":"levelo://app?vid=1522e6fe-e66c-4a0c-a606-391cd3d5a93b","ios":"levelo://app?vid=1522e6fe-e66c-4a0c-a606-391cd3d5a93b"},"vehicle_type_id":"4","last_reported":1685217990,"current_range_meters":31600,"station_id":"ce4bhpp2rcd13ifvqhfg","pricing_plan_id":"free"},{"bike_id":"a01b8269-cd6f-432a-9c44-37513ea96cd0","system_id":"levelo_inurba_marseille","lat":43.298768,"lon":5.43643,"is_reserved":false,"is_disabled":false,"rental_uris":{"android":"levelo://app?vid=a01b8269-cd6f-432a-9c44-37513ea96cd0","ios":"levelo://app?vid=a01b8269-cd6f-432a-9c44-37513ea96cd0"},"vehicle_type_id":"4","last_reported":1685217990,"current_range_meters":30000,"station_id":"ce4bhpp2rcd13ifvqhfg","pricing_plan_id":"free"},{"bike_id":"393fb8d7-9c3a-4c26-adde-9c67bba0a82d","system_id":"levelo_inurba_marseille","lat":43.298768,"lon":5.43643,"is_reserved":false,"is_disabled":false,"rental_uris":{"android":"levelo://app?vid=393fb8d7-9c3a-4c26-adde-9c67bba0a82d","ios":"levelo://app?vid=393fb8d7-9c3a-4c26-adde-9c67bba0a82d"},"vehicle_type_id":"4","last_reported":1685217990,"current_range_meters":16800,"station_id":"ce4bhpp2rcd13ifvqhfg","pricing_plan_id":"free"},{"bike_id":"859b48b3-311c-4d5c-b5d1-e39c0858cea0","system_id":"levelo_inurba_marseille","lat":43.260225,"lon":5.375455,"is_reserved":false,"is_disabled":false,"rental_uris":{"android":"levelo://app?vid=859b48b3-311c-4d5c-b5d1-e39c0858cea0","ios":"levelo://app?vid=859b48b3-311c-4d5c-b5d1-e39c0858cea0"},"vehicle_type_id":"4","last_reported":1685217990,"current_range_meters":8400,"station_id":"ce4bhgh2rcd13ifvqfa0","pricing_plan_id":"free"},{"bike_id":"42b35f31-5133-46f4-bff6-9da242e7212a","system_id":"levelo_inurba_marseille","lat":43.260225,"lon":5.375455,"is_reserved":false,"is_disabled":false,"rental_uris":{"android":"levelo://app?vid=42b35f31-5133-46f4-bff6-9da242e7212a","ios":"levelo://app?vid=42b35f31-5133-46f4-bff6-9da242e7212a"},"vehicle_type_id":"4","last_reported":1685217990,"current_range_meters":0,"station_id":"ce4bhgh2rcd13ifvqfa0","pricing_plan_id":"free"},{"bike_id":"9f67ebd8-9381-4ce0-956f-c1ed8618479d","system_id":"levelo_inurba_marseille","lat":43.26031,"lon":5.37545,"is_reserved":false,"is_disabled":false,"rental_uris":{"android":"levelo://app?vid=9f67ebd8-9381-4ce0-956f-c1ed8618479d","ios":"levelo://app?vid=9f67ebd8-9381-4ce0-956f-c1ed8618479d"},"vehicle_type_id":"4","last_reported":1685217990,"current_range_meters":14400,"station_id":"ce4bhgh2rcd13ifvqfa0","pricing_plan_id":"free"},{"bike_id":"c1693b3a-95a7-4a81-bfe7-b6fade1fe6c1","system_id":"levelo_inurba_marseille","lat":43.26031,"lon":5.37551,"is_reserved":false,"is_disabled":false,"rental_uris":{"android":"levelo://app?vid=c1693b3a-95a7-4a81-bfe7-b6fade1fe6c1","ios":"levelo://app?vid=c1693b3a-95a7-4a81-bfe7-b6fade1fe6c1"},"vehicle_type_id":"4","last_reported":1685217990,"current_range_meters":20800,"station_id":"ce4bhgh2rcd13ifvqfa0","pricing_plan_id":"free"},{"bike_id":"6b404443-757b-4b8d-9a78-a03ca59013fb","system_id":"levelo_inurba_marseille","lat":43.2592,"lon":5.37283,"is_reserved":false,"is_disabled":false,"rental_uris":{"android":"levelo://app?vid=6b404443-757b-4b8d-9a78-a03ca59013fb","ios":"levelo://app?vid=6b404443-757b-4b8d-9a78-a03ca59013fb"},"vehicle_type_id":"4","last_reported":1685217990,"current_range_meters":13200,"station_id":"","pricing_plan_id":"free"},{"bike_id":"d0bb262b-de9e-4154-b5f4-6ae73f149362","system_id":"levelo_inurba_marseille","lat":43.2607,"lon":5.393983,"is_reserved":false,"is_disabled":false,"rental_uris":{"android":"levelo://app?vid=d0bb262b-de9e-4154-b5f4-6ae73f149362","ios":"levelo://app?vid=d0bb262b-de9e-4154-b5f4-6ae73f149362"},"vehicle_type_id":"4","last_reported":1685217990,"current_range_meters":25600,"station_id":"ce4bhh92rcd13ifvqfj0","pricing_plan_id":"free"},{"bike_id":"a026d077-4fb7-44a1-bff8-b18000194fda","system_id":"levelo_inurba_marseille","lat":43.26053,"lon":5.39396,"is_reserved":false,"is_disabled":false,"rental_uris":{"android":"levelo://app?vid=a026d077-4fb7-44a1-bff8-b18000194fda","ios":"levelo://app?vid=a026d077-4fb7-44a1-bff8-b18000194fda"},"vehicle_type_id":"4","last_reported":1685217990,"current_range_meters":10400,"station_id":"ce4bhh92rcd13ifvqfj0","pricing_plan_id":"free"},{"bike_id":"f072cd81-3b89-40b1-a023-ab01c8f89174","system_id":"levelo_inurba_marseille","lat":43.26082,"lon":5.3977,"is_reserved":false,"is_disabled":false,"rental_uris":{"android":"levelo://app?vid=f072cd81-3b89-40b1-a023-ab01c8f89174","ios":"levelo://app?vid=f072cd81-3b89-40b1-a023-ab01c8f89174"},"vehicle_type_id":"4","last_reported":1685217990,"current_range_meters":13600,"station_id":"ce4bhi12rcd13ifvqfq0","pricing_plan_id":"free"},{"bike_id":"e32cd300-722d-4b89-9763-e960e61395c0","system_id":"levelo_inurba_marseille","lat":43.255756,"lon":5.382303,"is_reserved":false,"is_disabled":false,"rental_uris":{"android":"levelo://app?vid=e32cd300-722d-4b89-9763-e960e61395c0","ios":"levelo://app?vid=e32cd300-722d-4b89-9763-e960e61395c0"},"vehicle_type_id":"4","last_reported":1685217990,"current_range_meters":0,"station_id":"ce4bhih2rcd13ifvqfs0","pricing_plan_id":"free"},{"bike_id":"21a94e83-2bcf-4902-8a6a-85407ac0d3c9","system_id":"levelo_inurba_marseille","lat":43.254952,"lon":5.376471,"is_reserved":false,"is_disabled":false,"rental_uris":{"android":"levelo://app?vid=21a94e83-2bcf-4902-8a6a-85407ac0d3c9","ios":"levelo://app?vid=21a94e83-2bcf-4902-8a6a-85407ac0d3c9"},"vehicle_type_id":"4","last_reported":1685217990,"current_range_meters":3600,"station_id":"","pricing_plan_id":"free"},{"bike_id":"8705c1f3-7fdd-44d2-9e28-7d4f5178e7f4","system_id":"levelo_inurba_marseille","lat":43.259013,"lon":5.409301,"is_reserved":false,"is_disabled":false,"rental_uris":{"android":"levelo://app?vid=8705c1f3-7fdd-44d2-9e28-7d4f5178e7f4","ios":"levelo://app?vid=8705c1f3-7fdd-44d2-9e28-7d4f5178e7f4"},"vehicle_type_id":"4","last_reported":1685217990,"current_range_meters":6400,"station_id":"ce4bhm92rcd13ifvqglg","pricing_plan_id":"free"},{"bike_id":"4e0e8f00-88ca-48ac-a41a-59d2fd6f3d70","system_id":"levelo_inurba_marseille","lat":43.250023,"lon":5.38919,"is_reserved":false,"is_disabled":false,"rental_uris":{"android":"levelo://app?vid=4e0e8f00-88ca-48ac-a41a-59d2fd6f3d70","ios":"levelo://app?vid=4e0e8f00-88ca-48ac-a41a-59d2fd6f3d70"},"vehicle_type_id":"4","last_reported":1685217990,"current_range_meters":25200,"station_id":"ce4bhgp2rcd13ifvqfd0","pricing_plan_id":"free"},{"bike_id":"2e0ebd23-71fc-4f0c-b12e-af8b948edb58","system_id":"levelo_inurba_marseille","lat":43.250023,"lon":5.38919,"is_reserved":false,"is_disabled":false,"rental_uris":{"android":"levelo://app?vid=2e0ebd23-71fc-4f0c-b12e-af8b948edb58","ios":"levelo://app?vid=2e0ebd23-71fc-4f0c-b12e-af8b948edb58"},"vehicle_type_id":"4","last_reported":1685217990,"current_range_meters":29200,"station_id":"ce4bhgp2rcd13ifvqfd0","pricing_plan_id":"free"},{"bike_id":"8483ae41-26a7-4e84-a7b5-214db2c89a65","system_id":"levelo_inurba_marseille","lat":43.2479,"lon":5.374457,"is_reserved":false,"is_disabled":false,"rental_uris":{"android":"levelo://app?vid=8483ae41-26a7-4e84-a7b5-214db2c89a65","ios":"levelo://app?vid=8483ae41-26a7-4e84-a7b5-214db2c89a65"},"vehicle_type_id":"4","last_reported":1685217990,"current_range_meters":25200,"station_id":"ce4bhgh2rcd13ifvqfb0","pricing_plan_id":"free"},{"bike_id":"ef2a23f0-66f5-438f-a2fe-060a08a8c266","system_id":"levelo_inurba_marseille","lat":43.24807,"lon":5.3746,"is_reserved":false,"is_disabled":false,"rental_uris":{"android":"levelo://app?vid=ef2a23f0-66f5-438f-a2fe-060a08a8c266","ios":"levelo://app?vid=ef2a23f0-66f5-438f-a2fe-060a08a8c266"},"vehicle_type_id":"4","last_reported":1685217990,"current_range_meters":0,"station_id":"ce4bhgh2rcd13ifvqfb0","pricing_plan_id":"free"},{"bike_id":"315f5e0a-a652-486f-858a-3e20bcad95c9","system_id":"levelo_inurba_marseille","lat":43.25087,"lon":5.39508,"is_reserved":false,"is_disabled":false,"rental_uris":{"android":"levelo://app?vid=315f5e0a-a652-486f-858a-3e20bcad95c9","ios":"levelo://app?vid=315f5e0a-a652-486f-858a-3e20bcad95c9"},"vehicle_type_id":"4","last_reported":1685217990,"current_range_meters":0,"station_id":"ce4bhm12rcd13ifvqgkg","pricing_plan_id":"free"},{"bike_id":"1ca86c43-932e-4774-8b5b-e6c724720f51","system_id":"levelo_inurba_marseille","lat":43.25865,"lon":5.41726,"is_reserved":false,"is_disabled":false,"rental_uris":{"android":"levelo://app?vid=1ca86c43-932e-4774-8b5b-e6c724720f51","ios":"levelo://app?vid=1ca86c43-932e-4774-8b5b-e6c724720f51"},"vehicle_type_id":"4","last_reported":1685217990,"current_range_meters":11200,"station_id":"","pricing_plan_id":"free"},{"bike_id":"65994491-39fe-4e59-b553-acdf89d2203c","system_id":"levelo_inurba_marseille","lat":43.24673,"lon":5.38161,"is_reserved":false,"is_disabled":false,"rental_uris":{"android":"levelo://app?vid=65994491-39fe-4e59-b553-acdf89d2203c","ios":"levelo://app?vid=65994491-39fe-4e59-b553-acdf89d2203c"},"vehicle_type_id":"4","last_reported":1685217990,"current_range_meters":8800,"station_id":"","pricing_plan_id":"free"},{"bike_id":"b9a0bd4f-6a94-4e48-ae83-b666ad9abd38","system_id":"levelo_inurba_marseille","lat":43.25102,"lon":5.403214,"is_reserved":false,"is_disabled":false,"rental_uris":{"android":"levelo://app?vid=b9a0bd4f-6a94-4e48-ae83-b666ad9abd38","ios":"levelo://app?vid=b9a0bd4f-6a94-4e48-ae83-b666ad9abd38"},"vehicle_type_id":"4","last_reported":1685217990,"current_range_meters":400,"station_id":"ce4bhlh2rcd13ifvqgig","pricing_plan_id":"free"},{"bike_id":"75e79d25-88d5-4993-8e97-ea84d12f0745","system_id":"levelo_inurba_marseille","lat":43.25102,"lon":5.403214,"is_reserved":false,"is_disabled":false,"rental_uris":{"android":"levelo://app?vid=75e79d25-88d5-4993-8e97-ea84d12f0745","ios":"levelo://app?vid=75e79d25-88d5-4993-8e97-ea84d12f0745"},"vehicle_type_id":"4","last_reported":1685217990,"current_range_meters":26800,"station_id":"ce4bhlh2rcd13ifvqgig","pricing_plan_id":"free"},{"bike_id":"dfd9e973-4e54-4fa8-8648-8bb61d42f399","system_id":"levelo_inurba_marseille","lat":43.25102,"lon":5.403214,"is_reserved":false,"is_disabled":false,"rental_uris":{"android":"levelo://app?vid=dfd9e973-4e54-4fa8-8648-8bb61d42f399","ios":"levelo://app?vid=dfd9e973-4e54-4fa8-8648-8bb61d42f399"},"vehicle_type_id":"4","last_reported":1685217990,"current_range_meters":4800,"station_id":"ce4bhlh2rcd13ifvqgig","pricing_plan_id":"free"},{"bike_id":"28d2c968-67e6-43b3-9211-1441728ae497","system_id":"levelo_inurba_marseille","lat":43.246571,"lon":5.381585,"is_reserved":false,"is_disabled":false,"rental_uris":{"android":"levelo://app?vid=28d2c968-67e6-43b3-9211-1441728ae497","ios":"levelo://app?vid=28d2c968-67e6-43b3-9211-1441728ae497"},"vehicle_type_id":"4","last_reported":1685217990,"current_range_meters":18400,"station_id":"ce4bhih2rcd13ifvqfr0","pricing_plan_id":"free"},{"bike_id":"ce35cd0c-3412-42d2-bc81-38a30e81ce2d","system_id":"levelo_inurba_marseille","lat":43.245581,"lon":5.395069,"is_reserved":false,"is_disabled":false,"rental_uris":{"android":"levelo://app?vid=ce35cd0c-3412-42d2-bc81-38a30e81ce2d","ios":"levelo://app?vid=ce35cd0c-3412-42d2-bc81-38a30e81ce2d"},"vehicle_type_id":"4","last_reported":1685217990,"current_range_meters":30800,"station_id":"ce4bhlp2rcd13ifvqgjg","pricing_plan_id":"free"},{"bike_id":"15e4c68d-5958-4cdc-a41d-29e73dee594b","system_id":"levelo_inurba_marseille","lat":43.245581,"lon":5.395069,"is_reserved":false,"is_disabled":false,"rental_uris":{"android":"levelo://app?vid=15e4c68d-5958-4cdc-a41d-29e73dee594b","ios":"levelo://app?vid=15e4c68d-5958-4cdc-a41d-29e73dee594b"},"vehicle_type_id":"4","last_reported":1685217990,"current_range_meters":800,"station_id":"ce4bhlp2rcd13ifvqgjg","pricing_plan_id":"free"},{"bike_id":"4cec0365-f91b-44c0-9ceb-efa3852333ae","system_id":"levelo_inurba_marseille","lat":43.245581,"lon":5.395069,"is_reserved":false,"is_disabled":false,"rental_uris":{"android":"levelo://app?vid=4cec0365-f91b-44c0-9ceb-efa3852333ae","ios":"levelo://app?vid=4cec0365-f91b-44c0-9ceb-efa3852333ae"},"vehicle_type_id":"4","last_reported":1685217990,"current_range_meters":3600,"station_id":"ce4bhlp2rcd13ifvqgjg","pricing_plan_id":"free"},{"bike_id":"65c9d813-f717-43b6-a0c3-55f47a8bccea","system_id":"levelo_inurba_marseille","lat":43.24082,"lon":5.37749,"is_reserved":false,"is_disabled":false,"rental_uris":{"android":"levelo://app?vid=65c9d813-f717-43b6-a0c3-55f47a8bccea","ios":"levelo://app?vid=65c9d813-f717-43b6-a0c3-55f47a8bccea"},"vehicle_type_id":"4","last_reported":1685217990,"current_range_meters":20800,"station_id":"","pricing_plan_id":"free"},{"bike_id":"b3ac0f63-1d71-46d2-ba24-5e1165bfbe33","system_id":"levelo_inurba_marseille","lat":43.24078,"lon":5.37747,"is_reserved":false,"is_disabled":false,"rental_uris":{"android":"levelo://app?vid=b3ac0f63-1d71-46d2-ba24-5e1165bfbe33","ios":"levelo://app?vid=b3ac0f63-1d71-46d2-ba24-5e1165bfbe33"},"vehicle_type_id":"4","last_reported":1685217990,"current_range_meters":28000,"station_id":"","pricing_plan_id":"free"},{"bike_id":"62d9782b-69bd-4c92-8688-4ef46c30007b","system_id":"levelo_inurba_marseille","lat":43.24078,"lon":5.37756,"is_reserved":false,"is_disabled":false,"rental_uris":{"android":"levelo://app?vid=62d9782b-69bd-4c92-8688-4ef46c30007b","ios":"levelo://app?vid=62d9782b-69bd-4c92-8688-4ef46c30007b"},"vehicle_type_id":"4","last_reported":1685217990,"current_range_meters":400,"station_id":"","pricing_plan_id":"free"},{"bike_id":"c889d2a8-cf9f-4219-bbea-a5b1396f9923","system_id":"levelo_inurba_marseille","lat":43.23959,"lon":5.36626,"is_reserved":false,"is_disabled":false,"rental_uris":{"android":"levelo://app?vid=c889d2a8-cf9f-4219-bbea-a5b1396f9923","ios":"levelo://app?vid=c889d2a8-cf9f-4219-bbea-a5b1396f9923"},"vehicle_type_id":"4","last_reported":1685217990,"current_range_meters":30800,"station_id":"ce4bhi12rcd13ifvqfp0","pricing_plan_id":"free"},{"bike_id":"2efba59c-2c4d-4071-8a72-2e54c6726ac2","system_id":"levelo_inurba_marseille","lat":43.241782,"lon":5.397261,"is_reserved":false,"is_disabled":false,"rental_uris":{"android":"levelo://app?vid=2efba59c-2c4d-4071-8a72-2e54c6726ac2","ios":"levelo://app?vid=2efba59c-2c4d-4071-8a72-2e54c6726ac2"},"vehicle_type_id":"4","last_reported":1685217990,"current_range_meters":22800,"station_id":"ce4bhn12rcd13ifvqgpg","pricing_plan_id":"free"},{"bike_id":"081a581b-2a60-44a9-a09d-152adad4823a","system_id":"levelo_inurba_marseille","lat":43.24178,"lon":5.39736,"is_reserved":false,"is_disabled":false,"rental_uris":{"android":"levelo://app?vid=081a581b-2a60-44a9-a09d-152adad4823a","ios":"levelo://app?vid=081a581b-2a60-44a9-a09d-152adad4823a"},"vehicle_type_id":"4","last_reported":1685217990,"current_range_meters":8000,"station_id":"ce4bhn12rcd13ifvqgpg","pricing_plan_id":"free"},{"bike_id":"a57b8abb-5b93-49e2-afa2-168c81dbc629","system_id":"levelo_inurba_marseille","lat":43.241782,"lon":5.397261,"is_reserved":false,"is_disabled":false,"rental_uris":{"android":"levelo://app?vid=a57b8abb-5b93-49e2-afa2-168c81dbc629","ios":"levelo://app?vid=a57b8abb-5b93-49e2-afa2-168c81dbc629"},"vehicle_type_id":"4","last_reported":1685217990,"current_range_meters":18000,"station_id":"ce4bhn12rcd13ifvqgpg","pricing_plan_id":"free"},{"bike_id":"8c649ba4-225e-4bde-817d-7f09aa852ace","system_id":"levelo_inurba_marseille","lat":43.241782,"lon":5.397261,"is_reserved":false,"is_disabled":false,"rental_uris":{"android":"levelo://app?vid=8c649ba4-225e-4bde-817d-7f09aa852ace","ios":"levelo://app?vid=8c649ba4-225e-4bde-817d-7f09aa852ace"},"vehicle_type_id":"4","last_reported":1685217990,"current_range_meters":20400,"station_id":"ce4bhn12rcd13ifvqgpg","pricing_plan_id":"free"},{"bike_id":"31b40f63-0aef-459d-9a61-5faed4be6f30","system_id":"levelo_inurba_marseille","lat":43.231919,"lon":5.355532,"is_reserved":false,"is_disabled":false,"rental_uris":{"android":"levelo://app?vid=31b40f63-0aef-459d-9a61-5faed4be6f30","ios":"levelo://app?vid=31b40f63-0aef-459d-9a61-5faed4be6f30"},"vehicle_type_id":"4","last_reported":1685217990,"current_range_meters":0,"station_id":"ce4bhu92rcd13ifvqi70","pricing_plan_id":"free"},{"bike_id":"92f20019-942e-4840-863c-c7f82f11ea36","system_id":"levelo_inurba_marseille","lat":43.231923,"lon":5.355545,"is_reserved":false,"is_disabled":false,"rental_uris":{"android":"levelo://app?vid=92f20019-942e-4840-863c-c7f82f11ea36","ios":"levelo://app?vid=92f20019-942e-4840-863c-c7f82f11ea36"},"vehicle_type_id":"4","last_reported":1685217990,"current_range_meters":6800,"station_id":"ce4bhu92rcd13ifvqi70","pricing_plan_id":"free"},{"bike_id":"67b77559-a903-49c5-9f37-4b2143617b52","system_id":"levelo_inurba_marseille","lat":43.231794,"lon":5.400052,"is_reserved":false,"is_disabled":false,"rental_uris":{"android":"levelo://app?vid=67b77559-a903-49c5-9f37-4b2143617b52","ios":"levelo://app?vid=67b77559-a903-49c5-9f37-4b2143617b52"},"vehicle_type_id":"4","last_reported":1685217990,"current_range_meters":31600,"station_id":"ce4bhn12rcd13ifvqgqg","pricing_plan_id":"free"},{"bike_id":"a7fbfb05-3a72-4dea-b5c9-12ad7997a8ad","system_id":"levelo_inurba_marseille","lat":43.231794,"lon":5.400052,"is_reserved":false,"is_disabled":false,"rental_uris":{"android":"levelo://app?vid=a7fbfb05-3a72-4dea-b5c9-12ad7997a8ad","ios":"levelo://app?vid=a7fbfb05-3a72-4dea-b5c9-12ad7997a8ad"},"vehicle_type_id":"4","last_reported":1685217990,"current_range_meters":29600,"station_id":"ce4bhn12rcd13ifvqgqg","pricing_plan_id":"free"},{"bike_id":"6bf87b3f-2e5e-484d-9f73-d12a90c06e2e","system_id":"levelo_inurba_marseille","lat":43.231794,"lon":5.400052,"is_reserved":false,"is_disabled":false,"rental_uris":{"android":"levelo://app?vid=6bf87b3f-2e5e-484d-9f73-d12a90c06e2e","ios":"levelo://app?vid=6bf87b3f-2e5e-484d-9f73-d12a90c06e2e"},"vehicle_type_id":"4","last_reported":1685217990,"current_range_meters":31600,"station_id":"ce4bhn12rcd13ifvqgqg","pricing_plan_id":"free"},{"bike_id":"279132f9-fc26-4eef-a41e-65b19a1b60ea","system_id":"levelo_inurba_marseille","lat":43.231794,"lon":5.400052,"is_reserved":false,"is_disabled":false,"rental_uris":{"android":"levelo://app?vid=279132f9-fc26-4eef-a41e-65b19a1b60ea","ios":"levelo://app?vid=279132f9-fc26-4eef-a41e-65b19a1b60ea"},"vehicle_type_id":"4","last_reported":1685217990,"current_range_meters":27200,"station_id":"ce4bhn12rcd13ifvqgqg","pricing_plan_id":"free"},{"bike_id":"1420567d-5493-4112-adec-f09973b532e9","system_id":"levelo_inurba_marseille","lat":43.231793,"lon":5.400044,"is_reserved":false,"is_disabled":false,"rental_uris":{"android":"levelo://app?vid=1420567d-5493-4112-adec-f09973b532e9","ios":"levelo://app?vid=1420567d-5493-4112-adec-f09973b532e9"},"vehicle_type_id":"4","last_reported":1685217990,"current_range_meters":21200,"station_id":"ce4bhn12rcd13ifvqgqg","pricing_plan_id":"free"},{"bike_id":"e39c0672-1b6c-4e48-943d-c79fd5ce8d4a","system_id":"levelo_inurba_marseille","lat":43.23183,"lon":5.39993,"is_reserved":false,"is_disabled":false,"rental_uris":{"android":"levelo://app?vid=e39c0672-1b6c-4e48-943d-c79fd5ce8d4a","ios":"levelo://app?vid=e39c0672-1b6c-4e48-943d-c79fd5ce8d4a"},"vehicle_type_id":"4","last_reported":1685217990,"current_range_meters":12000,"station_id":"ce4bhn12rcd13ifvqgqg","pricing_plan_id":"free"},{"bike_id":"a9afbc4d-e95b-487f-9d6c-175b2546a34b","system_id":"levelo_inurba_marseille","lat":43.231794,"lon":5.400052,"is_reserved":false,"is_disabled":false,"rental_uris":{"android":"levelo://app?vid=a9afbc4d-e95b-487f-9d6c-175b2546a34b","ios":"levelo://app?vid=a9afbc4d-e95b-487f-9d6c-175b2546a34b"},"vehicle_type_id":"4","last_reported":1685217990,"current_range_meters":13600,"station_id":"ce4bhn12rcd13ifvqgqg","pricing_plan_id":"free"},{"bike_id":"fa025f6b-9b72-4047-81a2-78b1accb1a5e","system_id":"levelo_inurba_marseille","lat":43.231793,"lon":5.400044,"is_reserved":false,"is_disabled":false,"rental_uris":{"android":"levelo://app?vid=fa025f6b-9b72-4047-81a2-78b1accb1a5e","ios":"levelo://app?vid=fa025f6b-9b72-4047-81a2-78b1accb1a5e"},"vehicle_type_id":"4","last_reported":1685217990,"current_range_meters":10400,"station_id":"ce4bhn12rcd13ifvqgqg","pricing_plan_id":"free"}]}}