{"last_updated":1703837359,"ttl":30,"version":"2.2","data":{"bikes":[{"bike_id":"44a0eecc-c53e-480c-b1d7-f2799286c30a","system_id":"levelo_inurba_marseille","lat":43.31341,"lon":5.367098,"is_reserved":false,"is_disabled":false,"rental_uris":{"android":"levelo://app?vid=44a0eecc-c53e-480c-b1d7-f2799286c30a","ios":"levelo://app?vid=44a0eecc-c53e-480c-b1d7-f2799286c30a"},"vehicle_type_id":"4","last_reported":1703837359,"current_range_meters":24800,"station_id":"ce4bgr92rcd13ifvqc6g","pricing_plan_id":"free"},{"bike_id":"a498d4da-ae88-4dc1-8446-c8aa39c9ead8","system_id":"levelo_inurba_marseille","lat":43.313391,"lon":5.36706,"is_reserved":false,"is_disabled":false,"rental_uris":{"android":"levelo://app?vid=a498d4da-ae88-4dc1-8446-c8aa39c9ead8","ios":"levelo://app?vid=a498d4da-ae88-4dc1-8446-c8aa39c9ead8"},"vehicle_type_id":"4","last_reported":1703837359,"current_range_meters":16800,"station_id":"ce4bgr92rcd13ifvqc6g","pricing_plan_id":"free"},{"bike_id":"06f7bc28-7976-433f-8413-616887770a83","system_id":"levelo_inurba_marseille","lat":43.31341,"lon":5.367098,"is_reserved":false,"is_disabled":false,"rental_uris":{"android":"levelo://app?vid=06f7bc28-7976-433f-8413-616887770a83","ios":"levelo://app?vid=06f7bc28-7976-433f-8413-616887770a83"},"vehicle_type_id":"4","last_reported":1703837359,"current_range_meters":20400,"station_id":"ce4bgr92rcd13ifvqc6g","pricing_plan_id":"free"},{"bike_id":"82335499-6239-4e35-afa3-7d9013ef6d7b","system_id":"levelo_inurba_marseille","lat":43.313391,"lon":5.36706,"is_reserved":false,"is_disabled":false,"rental_uris":{"android":"levelo://app?vid=82335499-6239-4e35-afa3-7d9013ef6d7b","ios":"levelo://app?vid=82335499-6239-4e35-afa3-7d9013ef6d7b"},"vehicle_type_id":"4","last_reported":1703837359,"current_range_meters":20800,"station_id":"ce4bgr92rcd13ifvqc6g","pricing_plan_id":"free"},{"bike_id":"a6eacb00-266a-49d1-80f9-fb5225e25acc","system_id":"levelo_inurba_marseille","lat":43.313391,"lon":5.36706,"is_reserved":false,"is_disabled":false,"rental_uris":{"android":"levelo://app?vid=a6eacb00-266a-49d1-80f9-fb5225e25acc","ios":"levelo://app?vid=a6eacb00-266a-49d1-80f9-fb5225e25acc"},"vehicle_type_id":"4","last_reported":1703837359,"current_range_meters":31200,"station_id":"ce4bgr92rcd13ifvqc6g","pricing_plan_id":"free"},{"bike_id":"ab8a70ef-1975-4143-ba97-d978fb95ade8","system_id":"levelo_inurba_marseille","lat":43.312239,"lon":5.368562,"is_reserved":false,"is_disabled":false,"rental_uris":{"android":"levelo://app?vid=ab8a70ef-1975-4143-ba97-d978fb95ade8","ios":"levelo://app?vid=ab8a70ef-1975-4143-ba97-d978fb95ade8"},"vehicle_type_id":"4","last_reported":1703837359,"current_range_meters":28400,"station_id":"ce4bgl92rcd13ifvqbq0","pricing_plan_id":"free"},{"bike_id":"2d5452e2-316d-4dd9-98e9-d320f34e3fe8","system_id":"levelo_inurba_marseille","lat":43.309076,"lon":5.368465,"is_reserved":false,"is_disabled":false,"rental_uris":{"android":"levelo://app?vid=2d5452e2-316d-4dd9-98e9-d320f34e3fe8","ios":"levelo://app?vid=2d5452e2-316d-4dd9-98e9-d320f34e3fe8"},"vehicle_type_id":"4","last_reported":1703837359,"current_range_meters":28400,"station_id":"ce4bgn92rcd13ifvqbvg","pricing_plan_id":"free"},{"bike_id":"b119803b-67a1-469a-a87f-003c712c152c","system_id":"levelo_inurba_marseille","lat":43.309076,"lon":5.368465,"is_reserved":false,"is_disabled":false,"rental_uris":{"android":"levelo://app?vid=b119803b-67a1-469a-a87f-003c712c152c","ios":"levelo://app?vid=b119803b-67a1-469a-a87f-003c712c152c"},"vehicle_type_id":"4","last_reported":1703837359,"current_range_meters":30000,"station_id":"ce4bgn92rcd13ifvqbvg","pricing_plan_id":"free"},{"bike_id":"7342a0e2-ffde-4e8a-8d50-a88fcee896c9","system_id":"levelo_inurba_marseille","lat":43.30918,"lon":5.36845,"is_reserved":false,"is_disabled":false,"rental_uris":{"android":"levelo://app?vid=7342a0e2-ffde-4e8a-8d50-a88fcee896c9","ios":"levelo://app?vid=7342a0e2-ffde-4e8a-8d50-a88fcee896c9"},"vehicle_type_id":"4","last_reported":1703837359,"current_range_meters":18400,"station_id":"ce4bgn92rcd13ifvqbvg","pricing_plan_id":"free"},{"bike_id":"f3e3c339-02e0-43de-8744-eb75112a734a","system_id":"levelo_inurba_marseille","lat":43.309076,"lon":5.368465,"is_reserved":false,"is_disabled":false,"rental_uris":{"android":"levelo://app?vid=f3e3c339-02e0-43de-8744-eb75112a734a","ios":"levelo://app?vid=f3e3c339-02e0-43de-8744-eb75112a734a"},"vehicle_type_id":"4","last_reported":1703837359,"current_range_meters":25200,"station_id":"ce4bgn92rcd13ifvqbvg","pricing_plan_id":"free"},{"bike_id":"4dd2a43d-c423-42a1-b6ac-736d356f55c4","system_id":"levelo_inurba_marseille","lat":43.309076,"lon":5.368465,"is_reserved":false,"is_disabled":false,"rental_uris":{"android":"levelo://app?vid=4dd2a43d-c423-42a1-b6ac-736d356f55c4","ios":"levelo://app?vid=4dd2a43d-c423-42a1-b6ac-736d356f55c4"},"vehicle_type_id":"4","last_reported":1703837359,"current_range_meters":28400,"station_id":"ce4bgn92rcd13ifvqbvg","pricing_plan_id":"free"},{"bike_id":"ba1030d1-985b-4348-b352-c5993d69fe0b","system_id":"levelo_inurba_marseille","lat":43.30819,"lon":5.36797,"is_reserved":false,"is_disabled":false,"rental_uris":{"android":"levelo://app?vid=ba1030d1-985b-4348-b352-c5993d69fe0b","ios":"levelo://app?vid=ba1030d1-985b-4348-b352-c5993d69fe0b"},"vehicle_type_id":"4","last_reported":1703837359,"current_range_meters":5600,"station_id":"ce4bgn92rcd13ifvqbvg","pricing_plan_id":"free"},{"bike_id":"b383f3e1-ef8d-4e95-8846-22cfabcc06a7","system_id":"levelo_inurba_marseille","lat":43.314811,"lon":5.373104,"is_reserved":false,"is_disabled":false,"rental_uris":{"android":"levelo://app?vid=b383f3e1-ef8d-4e95-8846-22cfabcc06a7","ios":"levelo://app?vid=b383f3e1-ef8d-4e95-8846-22cfabcc06a7"},"vehicle_type_id":"4","last_reported":1703837359,"current_range_meters":28400,"station_id":"ce4bgt12rcd13ifvqcd0","pricing_plan_id":"free"},{"bike_id":"80462666-01ed-4db4-ab16-0c54e4795dd2","system_id":"levelo_inurba_marseille","lat":43.314811,"lon":5.373103,"is_reserved":false,"is_disabled":false,"rental_uris":{"android":"levelo://app?vid=80462666-01ed-4db4-ab16-0c54e4795dd2","ios":"levelo://app?vid=80462666-01ed-4db4-ab16-0c54e4795dd2"},"vehicle_type_id":"4","last_reported":1703837359,"current_range_meters":28800,"station_id":"ce4bgt12rcd13ifvqcd0","pricing_plan_id":"free"},{"bike_id":"aea4164c-520d-470d-9f70-abd5c66e1c7c","system_id":"levelo_inurba_marseille","lat":43.30895,"lon":5.371903,"is_reserved":false,"is_disabled":false,"rental_uris":{"android":"levelo://app?vid=aea4164c-520d-470d-9f70-abd5c66e1c7c","ios":"levelo://app?vid=aea4164c-520d-470d-9f70-abd5c66e1c7c"},"vehicle_type_id":"4","last_reported":1703837359,"current_range_meters":31200,"station_id":"ce4bguh2rcd13ifvqckg","pricing_plan_id":"free"},{"bike_id":"e8ae46fa-9c9f-47a3-a12f-2ecc12fad0ed","system_id":"levelo_inurba_marseille","lat":43.3089,"lon":5.37192,"is_reserved":false,"is_disabled":false,"rental_uris":{"android":"levelo://app?vid=e8ae46fa-9c9f-47a3-a12f-2ecc12fad0ed","ios":"levelo://app?vid=e8ae46fa-9c9f-47a3-a12f-2ecc12fad0ed"},"vehicle_type_id":"4","last_reported":1703837359,"current_range_meters":9200,"station_id":"ce4bguh2rcd13ifvqckg","pricing_plan_id":"free"},{"bike_id":"d5ffcd6b-bd9c-4361-a16e-51adfab592e0","system_id":"levelo_inurba_marseille","lat":43.3089,"lon":5.37196,"is_reserved":false,"is_disabled":false,"rental_uris":{"android":"levelo://app?vid=d5ffcd6b-bd9c-4361-a16e-51adfab592e0","ios":"levelo://app?vid=d5ffcd6b-bd9c-4361-a16e-51adfab592e0"},"vehicle_type_id":"4","last_reported":1703837359,"current_range_meters":15200,"station_id":"ce4bguh2rcd13ifvqckg","pricing_plan_id":"free"},{"bike_id":"e53a9163-4e5b-47fe-9556-01a0a159d6b4","system_id":"levelo_inurba_marseille","lat":43.318964,"lon":5.36877,"is_reserved":false,"is_disabled":false,"rental_uris":{"android":"levelo://app?vid=e53a9163-4e5b-47fe-9556-01a0a159d6b4","ios":"levelo://app?vid=e53a9163-4e5b-47fe-9556-01a0a159d6b4"},"vehicle_type_id":"4","last_reported":1703837359,"current_range_meters":1200,"station_id":"","pricing_plan_id":"free"},{"bike_id":"a5aac7fd-33ca-46a3-98d8-21e6de83a247","system_id":"levelo_inurba_marseille","lat":43.318234,"lon":5.372898,"is_reserved":false,"is_disabled":false,"rental_uris":{"android":"levelo://app?vid=a5aac7fd-33ca-46a3-98d8-21e6de83a247","ios":"levelo://app?vid=a5aac7fd-33ca-46a3-98d8-21e6de83a247"},"vehicle_type_id":"4","last_reported":1703837359,"current_range_meters":22800,"station_id":"","pricing_plan_id":"free"},{"bike_id":"3bd6beed-8b4c-433e-8a5d-70f3abbaf84c","system_id":"levelo_inurba_marseille","lat":43.30537,"lon":5.367345,"is_reserved":false,"is_disabled":false,"rental_uris":{"android":"levelo://app?vid=3bd6beed-8b4c-433e-8a5d-70f3abbaf84c","ios":"levelo://app?vid=3bd6beed-8b4c-433e-8a5d-70f3abbaf84c"},"vehicle_type_id":"4","last_reported":1703837359,"current_range_meters":26800,"station_id":"ce4bgrp2rcd13ifvqc9g","pricing_plan_id":"free"},{"bike_id":"778a2549-58eb-4063-a8d9-b62c7265d406","system_id":"levelo_inurba_marseille","lat":43.305712,"lon":5.365641,"is_reserved":false,"is_disabled":false,"rental_uris":{"android":"levelo://app?vid=778a2549-58eb-4063-a8d9-b62c7265d406","ios":"levelo://app?vid=778a2549-58eb-4063-a8d9-b62c7265d406"},"vehicle_type_id":"4","last_reported":1703837359,"current_range_meters":15200,"station_id":"ce4bgs12rcd13ifvqcag","pricing_plan_id":"free"},{"bike_id":"b679fa2e-b403-4957-8fc4-7bb8e707b56b","system_id":"levelo_inurba_marseille","lat":43.3055,"lon":5.36557,"is_reserved":false,"is_disabled":false,"rental_uris":{"android":"levelo://app?vid=b679fa2e-b403-4957-8fc4-7bb8e707b56b","ios":"levelo://app?vid=b679fa2e-b403-4957-8fc4-7bb8e707b56b"},"vehicle_type_id":"4","last_reported":1703837359,"current_range_meters":27600,"station_id":"ce4bgs12rcd13ifvqcag","pricing_plan_id":"free"},{"bike_id":"85bf332f-195f-4c21-a399-f54927826088","system_id":"levelo_inurba_marseille","lat":43.305706,"lon":5.365654,"is_reserved":false,"is_disabled":false,"rental_uris":{"android":"levelo://app?vid=85bf332f-195f-4c21-a399-f54927826088","ios":"levelo://app?vid=85bf332f-195f-4c21-a399-f54927826088"},"vehicle_type_id":"4","last_reported":1703837359,"current_range_meters":24400,"station_id":"ce4bgs12rcd13ifvqcag","pricing_plan_id":"free"},{"bike_id":"bc92937c-b8ad-40e0-8bef-c6e617c29afa","system_id":"levelo_inurba_marseille","lat":43.305706,"lon":5.365654,"is_reserved":false,"is_disabled":false,"rental_uris":{"android":"levelo://app?vid=bc92937c-b8ad-40e0-8bef-c6e617c29afa","ios":"levelo://app?vid=bc92937c-b8ad-40e0-8bef-c6e617c29afa"},"vehicle_type_id":"4","last_reported":1703837359,"current_range_meters":26400,"station_id":"ce4bgs12rcd13ifvqcag","pricing_plan_id":"free"},{"bike_id":"5fc8e2d3-05e6-4d8a-bb1d-5aa0eeaf0b2b","system_id":"levelo_inurba_marseille","lat":43.305712,"lon":5.365641,"is_reserved":false,"is_disabled":false,"rental_uris":{"android":"levelo://app?vid=5fc8e2d3-05e6-4d8a-bb1d-5aa0eeaf0b2b","ios":"levelo://app?vid=5fc8e2d3-05e6-4d8a-bb1d-5aa0eeaf0b2b"},"vehicle_type_id":"4","last_reported":1703837359,"current_range_meters":16000,"station_id":"ce4bgs12rcd13ifvqcag","pricing_plan_id":"free"},{"bike_id":"07a6ce2f-f44f-48c3-ab70-7cb3fe5d702c","system_id":"levelo_inurba_marseille","lat":43.305706,"lon":5.365654,"is_reserved":false,"is_disabled":false,"rental_uris":{"android":"levelo://app?vid=07a6ce2f-f44f-48c3-ab70-7cb3fe5d702c","ios":"levelo://app?vid=07a6ce2f-f44f-48c3-ab70-7cb3fe5d702c"},"vehicle_type_id":"4","last_reported":1703837359,"current_range_meters":25200,"station_id":"ce4bgs12rcd13ifvqcag","pricing_plan_id":"free"},{"bike_id":"2bf1159c-4b34-4bc3-a8b5-156be571c011","system_id":"levelo_inurba_marseille","lat":43.30728,"lon":5.37388,"is_reserved":false,"is_disabled":false,"rental_uris":{"android":"levelo://app?vid=2bf1159c-4b34-4bc3-a8b5-156be571c011","ios":"levelo://app?vid=2bf1159c-4b34-4bc3-a8b5-156be571c011"},"vehicle_type_id":"4","last_reported":1703837359,"current_range_meters":29200,"station_id":"","pricing_plan_id":"free"},{"bike_id":"d9ac79ea-39f8-4fb6-b46f-024017eba94f","system_id":"levelo_inurba_marseille","lat":43.305706,"lon":5.365654,"is_reserved":false,"is_disabled":false,"rental_uris":{"android":"levelo://app?vid=d9ac79ea-39f8-4fb6-b46f-024017eba94f","ios":"levelo://app?vid=d9ac79ea-39f8-4fb6-b46f-024017eba94f"},"vehicle_type_id":"4","last_reported":1703837359,"current_range_meters":5600,"station_id":"ce4bgs12rcd13ifvqcag","pricing_plan_id":"free"},{"bike_id":"189c35b5-972c-4c3b-b16b-c3196730e953","system_id":"levelo_inurba_marseille","lat":43.305706,"lon":5.365654,"is_reserved":false,"is_disabled":false,"rental_uris":{"android":"levelo://app?vid=189c35b5-972c-4c3b-b16b-c3196730e953","ios":"levelo://app?vid=189c35b5-972c-4c3b-b16b-c3196730e953"},"vehicle_type_id":"4","last_reported":1703837359,"current_range_meters":5600,"station_id":"ce4bgs12rcd13ifvqcag","pricing_plan_id":"free"},{"bike_id":"0cd73e44-a0a7-4305-b215-45404e84db96","system_id":"levelo_inurba_marseille","lat":43.305706,"lon":5.365654,"is_reserved":false,"is_disabled":false,"rental_uris":{"android":"levelo://app?vid=0cd73e44-a0a7-4305-b215-45404e84db96","ios":"levelo://app?vid=0cd73e44-a0a7-4305-b215-45404e84db96"},"vehicle_type_id":"4","last_reported":1703837359,"current_range_meters":31200,"station_id":"ce4bgs12rcd13ifvqcag","pricing_plan_id":"free"},{"bike_id":"d8045480-dd9f-4480-bc08-9ec37d96f54f","system_id":"levelo_inurba_marseille","lat":43.311131,"lon":5.377651,"is_reserved":false,"is_disabled":false,"rental_uris":{"android":"levelo://app?vid=d8045480-dd9f-4480-bc08-9ec37d96f54f","ios":"levelo://app?vid=d8045480-dd9f-4480-bc08-9ec37d96f54f"},"vehicle_type_id":"4","last_reported":1703837359,"current_range_meters":12800,"station_id":"ce4bgt92rcd13ifvqcg0","pricing_plan_id":"free"},{"bike_id":"f14cc80f-937e-4452-8f45-ded06168280d","system_id":"levelo_inurba_marseille","lat":43.311131,"lon":5.377651,"is_reserved":false,"is_disabled":false,"rental_uris":{"android":"levelo://app?vid=f14cc80f-937e-4452-8f45-ded06168280d","ios":"levelo://app?vid=f14cc80f-937e-4452-8f45-ded06168280d"},"vehicle_type_id":"4","last_reported":1703837359,"current_range_meters":13600,"station_id":"ce4bgt92rcd13ifvqcg0","pricing_plan_id":"free"},{"bike_id":"a9a5dfd0-b300-4fc2-b6e7-fd986ab57c3a","system_id":"levelo_inurba_marseille","lat":43.307945,"lon":5.376487,"is_reserved":false,"is_disabled":false,"rental_uris":{"android":"levelo://app?vid=a9a5dfd0-b300-4fc2-b6e7-fd986ab57c3a","ios":"levelo://app?vid=a9a5dfd0-b300-4fc2-b6e7-fd986ab57c3a"},"vehicle_type_id":"4","last_reported":1703837359,"current_range_meters":22000,"station_id":"ce4bgv92rcd13ifvqcq0","pricing_plan_id":"free"},{"bike_id":"11f76219-cc9d-49d1-852b-dfc7e044b580","system_id":"levelo_inurba_marseille","lat":43.303046,"lon":5.368981,"is_reserved":false,"is_disabled":false,"rental_uris":{"android":"levelo://app?vid=11f76219-cc9d-49d1-852b-dfc7e044b580","ios":"levelo://app?vid=11f76219-cc9d-49d1-852b-dfc7e044b580"},"vehicle_type_id":"4","last_reported":1703837359,"current_range_meters":28800,"station_id":"ce4bgqh2rcd13ifvqc5g","pricing_plan_id":"free"},{"bike_id":"e6df8858-380a-4e2c-ac2b-6a92cc117aba","system_id":"levelo_inurba_marseille","lat":43.30304,"lon":5.368987,"is_reserved":false,"is_disabled":false,"rental_uris":{"android":"levelo://app?vid=e6df8858-380a-4e2c-ac2b-6a92cc117aba","ios":"levelo://app?vid=e6df8858-380a-4e2c-ac2b-6a92cc117aba"},"vehicle_type_id":"4","last_reported":1703837359,"current_range_meters":31200,"station_id":"ce4bgqh2rcd13ifvqc5g","pricing_plan_id":"free"},{"bike_id":"16be4ead-3413-4cda-b431-0d6616037da8","system_id":"levelo_inurba_marseille","lat":43.30304,"lon":5.368987,"is_reserved":false,"is_disabled":false,"rental_uris":{"android":"levelo://app?vid=16be4ead-3413-4cda-b431-0d6616037da8","ios":"levelo://app?vid=16be4ead-3413-4cda-b431-0d6616037da8"},"vehicle_type_id":"4","last_reported":1703837359,"current_range_meters":15600,"station_id":"ce4bgqh2rcd13ifvqc5g","pricing_plan_id":"free"},{"bike_id":"90db3963-6212-4aaf-8329-f77edccb687b","system_id":"levelo_inurba_marseille","lat":43.30289,"lon":5.372,"is_reserved":false,"is_disabled":false,"rental_uris":{"android":"levelo://app?vid=90db3963-6212-4aaf-8329-f77edccb687b","ios":"levelo://app?vid=90db3963-6212-4aaf-8329-f77edccb687b"},"vehicle_type_id":"4","last_reported":1703837359,"current_range_meters":5200,"station_id":"","pricing_plan_id":"free"},{"bike_id":"912ca46e-2090-462a-9f75-3ebabc45ccd2","system_id":"levelo_inurba_marseille","lat":43.301939,"lon":5.366286,"is_reserved":false,"is_disabled":false,"rental_uris":{"android":"levelo://app?vid=912ca46e-2090-462a-9f75-3ebabc45ccd2","ios":"levelo://app?vid=912ca46e-2090-462a-9f75-3ebabc45ccd2"},"vehicle_type_id":"4","last_reported":1703837359,"current_range_meters":31200,"station_id":"ce4bgrh2rcd13ifvqc8g","pricing_plan_id":"free"},{"bike_id":"e9a27655-3eec-48d8-9b7e-4872c4dc04b2","system_id":"levelo_inurba_marseille","lat":43.301939,"lon":5.366286,"is_reserved":false,"is_disabled":false,"rental_uris":{"android":"levelo://app?vid=e9a27655-3eec-48d8-9b7e-4872c4dc04b2","ios":"levelo://app?vid=e9a27655-3eec-48d8-9b7e-4872c4dc04b2"},"vehicle_type_id":"4","last_reported":1703837359,"current_range_meters":19200,"station_id":"ce4bgrh2rcd13ifvqc8g","pricing_plan_id":"free"},{"bike_id":"c5fbbb62-81e1-4bc3-bdbb-d05944f29fd0","system_id":"levelo_inurba_marseille","lat":43.308012,"lon":5.381511,"is_reserved":false,"is_disabled":false,"rental_uris":{"android":"levelo://app?vid=c5fbbb62-81e1-4bc3-bdbb-d05944f29fd0","ios":"levelo://app?vid=c5fbbb62-81e1-4bc3-bdbb-d05944f29fd0"},"vehicle_type_id":"4","last_reported":1703837359,"current_range_meters":31200,"station_id":"ce4bgt12rcd13ifvqce0","pricing_plan_id":"free"},{"bike_id":"649df3d5-9214-4f4e-a184-f44b7c0f5272","system_id":"levelo_inurba_marseille","lat":43.308012,"lon":5.381511,"is_reserved":false,"is_disabled":false,"rental_uris":{"android":"levelo://app?vid=649df3d5-9214-4f4e-a184-f44b7c0f5272","ios":"levelo://app?vid=649df3d5-9214-4f4e-a184-f44b7c0f5272"},"vehicle_type_id":"4","last_reported":1703837359,"current_range_meters":30800,"station_id":"ce4bgt12rcd13ifvqce0","pricing_plan_id":"free"},{"bike_id":"de00af46-8d8a-48da-8b4f-14cbb30b7fbd","system_id":"levelo_inurba_marseille","lat":43.308012,"lon":5.381511,"is_reserved":false,"is_disabled":false,"rental_uris":{"android":"levelo://app?vid=de00af46-8d8a-48da-8b4f-14cbb30b7fbd","ios":"levelo://app?vid=de00af46-8d8a-48da-8b4f-14cbb30b7fbd"},"vehicle_type_id":"4","last_reported":1703837359,"current_range_meters":12000,"station_id":"ce4bgt12rcd13ifvqce0","pricing_plan_id":"free"},{"bike_id":"17c7d2dd-1979-40c7-b96e-625af7520c4d","system_id":"levelo_inurba_marseille","lat":43.308012,"lon":5.381511,"is_reserved":false,"is_disabled":false,"rental_uris":{"android":"levelo://app?vid=17c7d2dd-1979-40c7-b96e-625af7520c4d","ios":"levelo://app?vid=17c7d2dd-1979-40c7-b96e-625af7520c4d"},"vehicle_type_id":"4","last_reported":1703837359,"current_range_meters":31200,"station_id":"ce4bgt12rcd13ifvqce0","pricing_plan_id":"free"},{"bike_id":"f6dbc236-2712-42fa-8a0b-c97eb077abfd","system_id":"levelo_inurba_marseille","lat":43.304606,"lon":5.379026,"is_reserved":false,"is_disabled":false,"rental_uris":{"android":"levelo://app?vid=f6dbc236-2712-42fa-8a0b-c97eb077abfd","ios":"levelo://app?vid=f6dbc236-2712-42fa-8a0b-c97eb077abfd"},"vehicle_type_id":"4","last_reported":1703837359,"current_range_meters":5200,"station_id":"ce4bgup2rcd13ifvqcn0","pricing_plan_id":"free"},{"bike_id":"4a0bcf23-b3f7-4b0d-81b7-e412a8b762d2","system_id":"levelo_inurba_marseille","lat":43.304606,"lon":5.379026,"is_reserved":false,"is_disabled":false,"rental_uris":{"android":"levelo://app?vid=4a0bcf23-b3f7-4b0d-81b7-e412a8b762d2","ios":"levelo://app?vid=4a0bcf23-b3f7-4b0d-81b7-e412a8b762d2"},"vehicle_type_id":"4","last_reported":1703837359,"current_range_meters":25600,"station_id":"ce4bgup2rcd13ifvqcn0","pricing_plan_id":"free"},{"bike_id":"9cf75e76-8f02-4564-90e5-2b3b4935e573","system_id":"levelo_inurba_marseille","lat":43.304606,"lon":5.379026,"is_reserved":false,"is_disabled":false,"rental_uris":{"android":"levelo://app?vid=9cf75e76-8f02-4564-90e5-2b3b4935e573","ios":"levelo://app?vid=9cf75e76-8f02-4564-90e5-2b3b4935e573"},"vehicle_type_id":"4","last_reported":1703837359,"current_range_meters":22400,"station_id":"ce4bgup2rcd13ifvqcn0","pricing_plan_id":"free"},{"bike_id":"f15b892e-52a0-44bd-8af0-c727e84edf41","system_id":"levelo_inurba_marseille","lat":43.304606,"lon":5.379026,"is_reserved":false,"is_disabled":false,"rental_uris":{"android":"levelo://app?vid=f15b892e-52a0-44bd-8af0-c727e84edf41","ios":"levelo://app?vid=f15b892e-52a0-44bd-8af0-c727e84edf41"},"vehicle_type_id":"4","last_reported":1703837359,"current_range_meters":15200,"station_id":"ce4bgup2rcd13ifvqcn0","pricing_plan_id":"free"},{"bike_id":"5299bd07-fd5a-478e-b8f5-f931dd9975a2","system_id":"levelo_inurba_marseille","lat":43.304606,"lon":5.379026,"is_reserved":false,"is_disabled":false,"rental_uris":{"android":"levelo://app?vid=5299bd07-fd5a-478e-b8f5-f931dd9975a2","ios":"levelo://app?vid=5299bd07-fd5a-478e-b8f5-f931dd9975a2"},"vehicle_type_id":"4","last_reported":1703837359,"current_range_meters":15600,"station_id":"ce4bgup2rcd13ifvqcn0","pricing_plan_id":"free"},{"bike_id":"65a7d136-99e5-4eda-8dd9-8c128dc8f4fe","system_id":"levelo_inurba_marseille","lat":43.324771,"lon":5.36557,"is_reserved":false,"is_disabled":false,"rental_uris":{"android":"levelo://app?vid=65a7d136-99e5-4eda-8dd9-8c128dc8f4fe","ios":"levelo://app?vid=65a7d136-99e5-4eda-8dd9-8c128dc8f4fe"},"vehicle_type_id":"4","last_reported":1703837359,"current_range_meters":19600,"station_id":"ce4bhs12rcd13ifvqhvg","pricing_plan_id":"free"},{"bike_id":"5f62cab8-2526-4af4-91fc-c5aa755a65b5","system_id":"levelo_inurba_marseille","lat":43.302784,"lon":5.377158,"is_reserved":false,"is_disabled":false,"rental_uris":{"android":"levelo://app?vid=5f62cab8-2526-4af4-91fc-c5aa755a65b5","ios":"levelo://app?vid=5f62cab8-2526-4af4-91fc-c5aa755a65b5"},"vehicle_type_id":"4","last_reported":1703837359,"current_range_meters":28000,"station_id":"ce4bguh2rcd13ifvqcj0","pricing_plan_id":"free"},{"bike_id":"eb75f652-373e-4726-9e33-c05a085e4a2d","system_id":"levelo_inurba_marseille","lat":43.301453,"lon":5.37416,"is_reserved":false,"is_disabled":false,"rental_uris":{"android":"levelo://app?vid=eb75f652-373e-4726-9e33-c05a085e4a2d","ios":"levelo://app?vid=eb75f652-373e-4726-9e33-c05a085e4a2d"},"vehicle_type_id":"4","last_reported":1703837359,"current_range_meters":2800,"station_id":"","pricing_plan_id":"free"},{"bike_id":"be005218-082b-4ff0-a467-1b11cf78b6b3","system_id":"levelo_inurba_marseille","lat":43.319935,"lon":5.381699,"is_reserved":false,"is_disabled":false,"rental_uris":{"android":"levelo://app?vid=be005218-082b-4ff0-a467-1b11cf78b6b3","ios":"levelo://app?vid=be005218-082b-4ff0-a467-1b11cf78b6b3"},"vehicle_type_id":"4","last_reported":1703837359,"current_range_meters":24000,"station_id":"ce4bhr12rcd13ifvqhpg","pricing_plan_id":"free"},{"bike_id":"c2852d5c-2803-4b92-93df-fbf4f0ce246a","system_id":"levelo_inurba_marseille","lat":43.313571,"lon":5.384829,"is_reserved":false,"is_disabled":false,"rental_uris":{"android":"levelo://app?vid=c2852d5c-2803-4b92-93df-fbf4f0ce246a","ios":"levelo://app?vid=c2852d5c-2803-4b92-93df-fbf4f0ce246a"},"vehicle_type_id":"4","last_reported":1703837359,"current_range_meters":29200,"station_id":"ce4bgt92rcd13ifvqcf0","pricing_plan_id":"free"},{"bike_id":"ffe1a6c8-4174-4a29-bfd7-44e0aa17d2e6","system_id":"levelo_inurba_marseille","lat":43.299724,"lon":5.371829,"is_reserved":false,"is_disabled":false,"rental_uris":{"android":"levelo://app?vid=ffe1a6c8-4174-4a29-bfd7-44e0aa17d2e6","ios":"levelo://app?vid=ffe1a6c8-4174-4a29-bfd7-44e0aa17d2e6"},"vehicle_type_id":"4","last_reported":1703837359,"current_range_meters":26000,"station_id":"ce4bgr92rcd13ifvqc7g","pricing_plan_id":"free"},{"bike_id":"6aab7a94-fa15-4b76-adbf-c91b2932e1e7","system_id":"levelo_inurba_marseille","lat":43.299222,"lon":5.365554,"is_reserved":false,"is_disabled":false,"rental_uris":{"android":"levelo://app?vid=6aab7a94-fa15-4b76-adbf-c91b2932e1e7","ios":"levelo://app?vid=6aab7a94-fa15-4b76-adbf-c91b2932e1e7"},"vehicle_type_id":"4","last_reported":1703837359,"current_range_meters":27200,"station_id":"ce4bgm92rcd13ifvqbr0","pricing_plan_id":"free"},{"bike_id":"ea579624-c49f-4ff3-bc44-e533268e5f02","system_id":"levelo_inurba_marseille","lat":43.299724,"lon":5.371829,"is_reserved":false,"is_disabled":false,"rental_uris":{"android":"levelo://app?vid=ea579624-c49f-4ff3-bc44-e533268e5f02","ios":"levelo://app?vid=ea579624-c49f-4ff3-bc44-e533268e5f02"},"vehicle_type_id":"4","last_reported":1703837359,"current_range_meters":26800,"station_id":"ce4bgr92rcd13ifvqc7g","pricing_plan_id":"free"},{"bike_id":"a7227d44-9409-4fb4-b2e6-7ce06232db81","system_id":"levelo_inurba_marseille","lat":43.29573,"lon":5.367355,"is_reserved":false,"is_disabled":false,"rental_uris":{"android":"levelo://app?vid=a7227d44-9409-4fb4-b2e6-7ce06232db81","ios":"levelo://app?vid=a7227d44-9409-4fb4-b2e6-7ce06232db81"},"vehicle_type_id":"4","last_reported":1703837359,"current_range_meters":27200,"station_id":"ce4bgph2rcd13ifvqc2g","pricing_plan_id":"free"},{"bike_id":"27577d73-d5af-4072-9fba-11fc17b52a6c","system_id":"levelo_inurba_marseille","lat":43.298433,"lon":5.362774,"is_reserved":false,"is_disabled":false,"rental_uris":{"android":"levelo://app?vid=27577d73-d5af-4072-9fba-11fc17b52a6c","ios":"levelo://app?vid=27577d73-d5af-4072-9fba-11fc17b52a6c"},"vehicle_type_id":"4","last_reported":1703837359,"current_range_meters":25600,"station_id":"ce4bgpp2rcd13ifvqc3g","pricing_plan_id":"free"},{"bike_id":"f5307558-727a-4471-b063-5fb143ad51b2","system_id":"levelo_inurba_marseille","lat":43.298433,"lon":5.362774,"is_reserved":false,"is_disabled":false,"rental_uris":{"android":"levelo://app?vid=f5307558-727a-4471-b063-5fb143ad51b2","ios":"levelo://app?vid=f5307558-727a-4471-b063-5fb143ad51b2"},"vehicle_type_id":"4","last_reported":1703837359,"current_range_meters":20800,"station_id":"ce4bgpp2rcd13ifvqc3g","pricing_plan_id":"free"},{"bike_id":"65a834f0-da40-414b-9c7d-b30ab3fc3560","system_id":"levelo_inurba_marseille","lat":43.297794,"lon":5.370888,"is_reserved":false,"is_disabled":false,"rental_uris":{"android":"levelo://app?vid=65a834f0-da40-414b-9c7d-b30ab3fc3560","ios":"levelo://app?vid=65a834f0-da40-414b-9c7d-b30ab3fc3560"},"vehicle_type_id":"4","last_reported":1703837359,"current_range_meters":16800,"station_id":"ce4bgop2rcd13ifvqc1g","pricing_plan_id":"free"},{"bike_id":"6593638e-700c-4c76-a081-5e8a09d348e5","system_id":"levelo_inurba_marseille","lat":43.297794,"lon":5.370888,"is_reserved":false,"is_disabled":false,"rental_uris":{"android":"levelo://app?vid=6593638e-700c-4c76-a081-5e8a09d348e5","ios":"levelo://app?vid=6593638e-700c-4c76-a081-5e8a09d348e5"},"vehicle_type_id":"4","last_reported":1703837359,"current_range_meters":31200,"station_id":"ce4bgop2rcd13ifvqc1g","pricing_plan_id":"free"},{"bike_id":"accbbe6d-f8a2-4d0d-badc-393301aad27d","system_id":"levelo_inurba_marseille","lat":43.322872,"lon":5.382756,"is_reserved":false,"is_disabled":false,"rental_uris":{"android":"levelo://app?vid=accbbe6d-f8a2-4d0d-badc-393301aad27d","ios":"levelo://app?vid=accbbe6d-f8a2-4d0d-badc-393301aad27d"},"vehicle_type_id":"4","last_reported":1703837359,"current_range_meters":29600,"station_id":"ce4bhr12rcd13ifvqhqg","pricing_plan_id":"free"},{"bike_id":"3270f28d-7b09-46cb-ba43-f40752fc3385","system_id":"levelo_inurba_marseille","lat":43.322872,"lon":5.382756,"is_reserved":false,"is_disabled":false,"rental_uris":{"android":"levelo://app?vid=3270f28d-7b09-46cb-ba43-f40752fc3385","ios":"levelo://app?vid=3270f28d-7b09-46cb-ba43-f40752fc3385"},"vehicle_type_id":"4","last_reported":1703837359,"current_range_meters":31200,"station_id":"ce4bhr12rcd13ifvqhqg","pricing_plan_id":"free"},{"bike_id":"a677cd10-a09b-4b2e-bffd-45b05d2c9229","system_id":"levelo_inurba_marseille","lat":43.328253,"lon":5.366776,"is_reserved":false,"is_disabled":false,"rental_uris":{"android":"levelo://app?vid=a677cd10-a09b-4b2e-bffd-45b05d2c9229","ios":"levelo://app?vid=a677cd10-a09b-4b2e-bffd-45b05d2c9229"},"vehicle_type_id":"4","last_reported":1703837359,"current_range_meters":22400,"station_id":"ce4bhs92rcd13ifvqi0g","pricing_plan_id":"free"},{"bike_id":"b30b3d1b-ef61-4776-bd7b-61c34fd8cc81","system_id":"levelo_inurba_marseille","lat":43.32828,"lon":5.36683,"is_reserved":false,"is_disabled":false,"rental_uris":{"android":"levelo://app?vid=b30b3d1b-ef61-4776-bd7b-61c34fd8cc81","ios":"levelo://app?vid=b30b3d1b-ef61-4776-bd7b-61c34fd8cc81"},"vehicle_type_id":"4","last_reported":1703837359,"current_range_meters":14000,"station_id":"ce4bhs92rcd13ifvqi0g","pricing_plan_id":"free"},{"bike_id":"96cf793f-3bea-48e9-ad43-3f4f189e0b76","system_id":"levelo_inurba_marseille","lat":43.32828,"lon":5.36682,"is_reserved":false,"is_disabled":false,"rental_uris":{"android":"levelo://app?vid=96cf793f-3bea-48e9-ad43-3f4f189e0b76","ios":"levelo://app?vid=96cf793f-3bea-48e9-ad43-3f4f189e0b76"},"vehicle_type_id":"4","last_reported":1703837359,"current_range_meters":30400,"station_id":"ce4bhs92rcd13ifvqi0g","pricing_plan_id":"free"},{"bike_id":"18a514cc-b799-4d5c-8007-6d7e3d72dda3","system_id":"levelo_inurba_marseille","lat":43.32828,"lon":5.36677,"is_reserved":false,"is_disabled":false,"rental_uris":{"android":"levelo://app?vid=18a514cc-b799-4d5c-8007-6d7e3d72dda3","ios":"levelo://app?vid=18a514cc-b799-4d5c-8007-6d7e3d72dda3"},"vehicle_type_id":"4","last_reported":1703837359,"current_range_meters":22800,"station_id":"ce4bhs92rcd13ifvqi0g","pricing_plan_id":"free"},{"bike_id":"5c89eee7-6e83-42b4-bd81-efdcf68f6666","system_id":"levelo_inurba_marseille","lat":43.328286,"lon":5.366799,"is_reserved":false,"is_disabled":false,"rental_uris":{"android":"levelo://app?vid=5c89eee7-6e83-42b4-bd81-efdcf68f6666","ios":"levelo://app?vid=5c89eee7-6e83-42b4-bd81-efdcf68f6666"},"vehicle_type_id":"4","last_reported":1703837359,"current_range_meters":28800,"station_id":"ce4bhs92rcd13ifvqi0g","pricing_plan_id":"free"},{"bike_id":"51714c4a-3132-4951-88ec-80e85fa125e8","system_id":"levelo_inurba_marseille","lat":43.328287,"lon":5.36683,"is_reserved":false,"is_disabled":false,"rental_uris":{"android":"levelo://app?vid=51714c4a-3132-4951-88ec-80e85fa125e8","ios":"levelo://app?vid=51714c4a-3132-4951-88ec-80e85fa125e8"},"vehicle_type_id":"4","last_reported":1703837359,"current_range_meters":15600,"station_id":"ce4bhs92rcd13ifvqi0g","pricing_plan_id":"free"},{"bike_id":"a448ca86-2b35-41e1-89c4-32a99bab0563","system_id":"levelo_inurba_marseille","lat":43.328371,"lon":5.366912,"is_reserved":false,"is_disabled":false,"rental_uris":{"android":"levelo://app?vid=a448ca86-2b35-41e1-89c4-32a99bab0563","ios":"levelo://app?vid=a448ca86-2b35-41e1-89c4-32a99bab0563"},"vehicle_type_id":"4","last_reported":1703837359,"current_range_meters":20400,"station_id":"ce4bhs92rcd13ifvqi0g","pricing_plan_id":"free"},{"bike_id":"ea7074d7-b7c9-4941-82c2-dff391bae9cb","system_id":"levelo_inurba_marseille","lat":43.32831,"lon":5.36676,"is_reserved":false,"is_disabled":false,"rental_uris":{"android":"levelo://app?vid=ea7074d7-b7c9-4941-82c2-dff391bae9cb","ios":"levelo://app?vid=ea7074d7-b7c9-4941-82c2-dff391bae9cb"},"vehicle_type_id":"4","last_reported":1703837359,"current_range_meters":12000,"station_id":"ce4bhs92rcd13ifvqi0g","pricing_plan_id":"free"},{"bike_id":"520290bd-48a0-4016-9c3c-b95db8586e08","system_id":"levelo_inurba_marseille","lat":43.32831,"lon":5.36671,"is_reserved":false,"is_disabled":false,"rental_uris":{"android":"levelo://app?vid=520290bd-48a0-4016-9c3c-b95db8586e08","ios":"levelo://app?vid=520290bd-48a0-4016-9c3c-b95db8586e08"},"vehicle_type_id":"4","last_reported":1703837359,"current_range_meters":20000,"station_id":"ce4bhs92rcd13ifvqi0g","pricing_plan_id":"free"},{"bike_id":"6eb75a18-acfd-4ffa-bf23-27c5e63a3c58","system_id":"levelo_inurba_marseille","lat":43.32832,"lon":5.36681,"is_reserved":false,"is_disabled":false,"rental_uris":{"android":"levelo://app?vid=6eb75a18-acfd-4ffa-bf23-27c5e63a3c58","ios":"levelo://app?vid=6eb75a18-acfd-4ffa-bf23-27c5e63a3c58"},"vehicle_type_id":"4","last_reported":1703837359,"current_range_meters":19600,"station_id":"ce4bhs92rcd13ifvqi0g","pricing_plan_id":"free"},{"bike_id":"1ea82e61-37ea-4b15-a6ef-01d29683b9fd","system_id":"levelo_inurba_marseille","lat":43.32832,"lon":5.36674,"is_reserved":false,"is_disabled":false,"rental_uris":{"android":"levelo://app?vid=1ea82e61-37ea-4b15-a6ef-01d29683b9fd","ios":"levelo://app?vid=1ea82e61-37ea-4b15-a6ef-01d29683b9fd"},"vehicle_type_id":"4","last_reported":1703837359,"current_range_meters":16800,"station_id":"ce4bhs92rcd13ifvqi0g","pricing_plan_id":"free"},{"bike_id":"de708f00-7118-4d7c-9021-d7dcbd798473","system_id":"levelo_inurba_marseille","lat":43.328324,"lon":5.366804,"is_reserved":false,"is_disabled":false,"rental_uris":{"android":"levelo://app?vid=de708f00-7118-4d7c-9021-d7dcbd798473","ios":"levelo://app?vid=de708f00-7118-4d7c-9021-d7dcbd798473"},"vehicle_type_id":"4","last_reported":1703837359,"current_range_meters":11600,"station_id":"ce4bhs92rcd13ifvqi0g","pricing_plan_id":"free"},{"bike_id":"a1dac54d-476c-4dac-913f-aae102098541","system_id":"levelo_inurba_marseille","lat":43.32833,"lon":5.36667,"is_reserved":false,"is_disabled":false,"rental_uris":{"android":"levelo://app?vid=a1dac54d-476c-4dac-913f-aae102098541","ios":"levelo://app?vid=a1dac54d-476c-4dac-913f-aae102098541"},"vehicle_type_id":"4","last_reported":1703837359,"current_range_meters":26400,"station_id":"ce4bhs92rcd13ifvqi0g","pricing_plan_id":"free"},{"bike_id":"904f83aa-e9ab-401d-84c1-9edfed82b884","system_id":"levelo_inurba_marseille","lat":43.328371,"lon":5.366912,"is_reserved":false,"is_disabled":false,"rental_uris":{"android":"levelo://app?vid=904f83aa-e9ab-401d-84c1-9edfed82b884","ios":"levelo://app?vid=904f83aa-e9ab-401d-84c1-9edfed82b884"},"vehicle_type_id":"4","last_reported":1703837359,"current_range_meters":30800,"station_id":"ce4bhs92rcd13ifvqi0g","pricing_plan_id":"free"},{"bike_id":"c99c1421-6c70-45e1-a99f-19afba82ca69","system_id":"levelo_inurba_marseille","lat":43.32834,"lon":5.36673,"is_reserved":false,"is_disabled":false,"rental_uris":{"android":"levelo://app?vid=c99c1421-6c70-45e1-a99f-19afba82ca69","ios":"levelo://app?vid=c99c1421-6c70-45e1-a99f-19afba82ca69"},"vehicle_type_id":"4","last_reported":1703837359,"current_range_meters":30400,"station_id":"ce4bhs92rcd13ifvqi0g","pricing_plan_id":"free"},{"bike_id":"c5148a93-b957-4625-8299-141753f2bd05","system_id":"levelo_inurba_marseille","lat":43.328341,"lon":5.366779,"is_reserved":false,"is_disabled":false,"rental_uris":{"android":"levelo://app?vid=c5148a93-b957-4625-8299-141753f2bd05","ios":"levelo://app?vid=c5148a93-b957-4625-8299-141753f2bd05"},"vehicle_type_id":"4","last_reported":1703837359,"current_range_meters":30800,"station_id":"ce4bhs92rcd13ifvqi0g","pricing_plan_id":"free"},{"bike_id":"70017d6e-6f1a-4af6-baf6-320a119b5691","system_id":"levelo_inurba_marseille","lat":43.32835,"lon":5.36678,"is_reserved":false,"is_disabled":false,"rental_uris":{"android":"levelo://app?vid=70017d6e-6f1a-4af6-baf6-320a119b5691","ios":"levelo://app?vid=70017d6e-6f1a-4af6-baf6-320a119b5691"},"vehicle_type_id":"4","last_reported":1703837359,"current_range_meters":10400,"station_id":"ce4bhs92rcd13ifvqi0g","pricing_plan_id":"free"},{"bike_id":"7eca0020-ccea-4036-bc10-b021c9c35b36","system_id":"levelo_inurba_marseille","lat":43.297163,"lon":5.365866,"is_reserved":false,"is_disabled":false,"rental_uris":{"android":"levelo://app?vid=7eca0020-ccea-4036-bc10-b021c9c35b36","ios":"levelo://app?vid=7eca0020-ccea-4036-bc10-b021c9c35b36"},"vehicle_type_id":"4","last_reported":1703837359,"current_range_meters":27200,"station_id":"ce4bgn12rcd13ifvqbt0","pricing_plan_id":"free"},{"bike_id":"370cccf7-c9ba-46c2-819b-c8e8cacc4c21","system_id":"levelo_inurba_marseille","lat":43.3277,"lon":5.37458,"is_reserved":false,"is_disabled":false,"rental_uris":{"android":"levelo://app?vid=370cccf7-c9ba-46c2-819b-c8e8cacc4c21","ios":"levelo://app?vid=370cccf7-c9ba-46c2-819b-c8e8cacc4c21"},"vehicle_type_id":"4","last_reported":1703837359,"current_range_meters":17200,"station_id":"","pricing_plan_id":"free"},{"bike_id":"4322ccfa-7041-4cd6-862c-b2968499cb04","system_id":"levelo_inurba_marseille","lat":43.297774,"lon":5.370875,"is_reserved":false,"is_disabled":false,"rental_uris":{"android":"levelo://app?vid=4322ccfa-7041-4cd6-862c-b2968499cb04","ios":"levelo://app?vid=4322ccfa-7041-4cd6-862c-b2968499cb04"},"vehicle_type_id":"4","last_reported":1703837359,"current_range_meters":20000,"station_id":"ce4bgop2rcd13ifvqc1g","pricing_plan_id":"free"},{"bike_id":"921b424d-ad0d-4c7a-9d74-66e3a49bfa19","system_id":"levelo_inurba_marseille","lat":43.32934,"lon":5.36612,"is_reserved":false,"is_disabled":false,"rental_uris":{"android":"levelo://app?vid=921b424d-ad0d-4c7a-9d74-66e3a49bfa19","ios":"levelo://app?vid=921b424d-ad0d-4c7a-9d74-66e3a49bfa19"},"vehicle_type_id":"4","last_reported":1703837359,"current_range_meters":10400,"station_id":"","pricing_plan_id":"free"},{"bike_id":"b1a9fd4f-7257-4a13-a678-5307fa53d216","system_id":"levelo_inurba_marseille","lat":43.29573,"lon":5.367355,"is_reserved":false,"is_disabled":false,"rental_uris":{"android":"levelo://app?vid=b1a9fd4f-7257-4a13-a678-5307fa53d216","ios":"levelo://app?vid=b1a9fd4f-7257-4a13-a678-5307fa53d216"},"vehicle_type_id":"4","last_reported":1703837359,"current_range_meters":26000,"station_id":"ce4bgph2rcd13ifvqc2g","pricing_plan_id":"free"},{"bike_id":"8ec89992-365e-4385-836e-edd35977a0b0","system_id":"levelo_inurba_marseille","lat":43.296921,"lon":5.376579,"is_reserved":false,"is_disabled":false,"rental_uris":{"android":"levelo://app?vid=8ec89992-365e-4385-836e-edd35977a0b0","ios":"levelo://app?vid=8ec89992-365e-4385-836e-edd35977a0b0"},"vehicle_type_id":"4","last_reported":1703837359,"current_range_meters":23200,"station_id":"ce4bgkh2rcd13ifvqbl0","pricing_plan_id":"free"},{"bike_id":"039547d1-88ed-43fb-be92-f037a4ad7dd2","system_id":"levelo_inurba_marseille","lat":43.309589,"lon":5.390258,"is_reserved":false,"is_disabled":false,"rental_uris":{"android":"levelo://app?vid=039547d1-88ed-43fb-be92-f037a4ad7dd2","ios":"levelo://app?vid=039547d1-88ed-43fb-be92-f037a4ad7dd2"},"vehicle_type_id":"4","last_reported":1703837359,"current_range_meters":31200,"station_id":"ce4bgup2rcd13ifvqco0","pricing_plan_id":"free"},{"bike_id":"22138e00-0381-4860-8536-2ff5562e0b48","system_id":"levelo_inurba_marseille","lat":43.309589,"lon":5.390258,"is_reserved":false,"is_disabled":false,"rental_uris":{"android":"levelo://app?vid=22138e00-0381-4860-8536-2ff5562e0b48","ios":"levelo://app?vid=22138e00-0381-4860-8536-2ff5562e0b48"},"vehicle_type_id":"4","last_reported":1703837359,"current_range_meters":21200,"station_id":"ce4bgup2rcd13ifvqco0","pricing_plan_id":"free"},{"bike_id":"564ecdbe-938e-4a06-bd62-84902acedae2","system_id":"levelo_inurba_marseille","lat":43.296935,"lon":5.376544,"is_reserved":false,"is_disabled":false,"rental_uris":{"android":"levelo://app?vid=564ecdbe-938e-4a06-bd62-84902acedae2","ios":"levelo://app?vid=564ecdbe-938e-4a06-bd62-84902acedae2"},"vehicle_type_id":"4","last_reported":1703837359,"current_range_meters":28800,"station_id":"ce4bgkh2rcd13ifvqbl0","pricing_plan_id":"free"},{"bike_id":"64e9474e-4ef8-4cc5-9947-c606dc10f382","system_id":"levelo_inurba_marseille","lat":43.309589,"lon":5.390258,"is_reserved":false,"is_disabled":false,"rental_uris":{"android":"levelo://app?vid=64e9474e-4ef8-4cc5-9947-c606dc10f382","ios":"levelo://app?vid=64e9474e-4ef8-4cc5-9947-c606dc10f382"},"vehicle_type_id":"4","last_reported":1703837359,"current_range_meters":27600,"station_id":"ce4bgup2rcd13ifvqco0","pricing_plan_id":"free"},{"bike_id":"bbef500d-0cee-4826-b935-d74972248145","system_id":"levelo_inurba_marseille","lat":43.309493,"lon":5.39041,"is_reserved":false,"is_disabled":false,"rental_uris":{"android":"levelo://app?vid=bbef500d-0cee-4826-b935-d74972248145","ios":"levelo://app?vid=bbef500d-0cee-4826-b935-d74972248145"},"vehicle_type_id":"4","last_reported":1703837359,"current_range_meters":23200,"station_id":"","pricing_plan_id":"free"},{"bike_id":"e6270e07-7d38-4634-9103-543b64b9f946","system_id":"levelo_inurba_marseille","lat":43.317557,"lon":5.390173,"is_reserved":false,"is_disabled":false,"rental_uris":{"android":"levelo://app?vid=e6270e07-7d38-4634-9103-543b64b9f946","ios":"levelo://app?vid=e6270e07-7d38-4634-9103-543b64b9f946"},"vehicle_type_id":"4","last_reported":1703837359,"current_range_meters":17600,"station_id":"ce4bhqp2rcd13ifvqhng","pricing_plan_id":"free"},{"bike_id":"bda80994-26d4-4a1a-97fd-c52e17edf04f","system_id":"levelo_inurba_marseille","lat":43.295748,"lon":5.37522,"is_reserved":false,"is_disabled":false,"rental_uris":{"android":"levelo://app?vid=bda80994-26d4-4a1a-97fd-c52e17edf04f","ios":"levelo://app?vid=bda80994-26d4-4a1a-97fd-c52e17edf04f"},"vehicle_type_id":"4","last_reported":1703837359,"current_range_meters":29600,"station_id":"ce4bgh92rcd13ifvqb50","pricing_plan_id":"free"},{"bike_id":"d60802d6-4f47-444a-b234-883690eec05b","system_id":"levelo_inurba_marseille","lat":43.33064,"lon":5.36289,"is_reserved":false,"is_disabled":false,"rental_uris":{"android":"levelo://app?vid=d60802d6-4f47-444a-b234-883690eec05b","ios":"levelo://app?vid=d60802d6-4f47-444a-b234-883690eec05b"},"vehicle_type_id":"4","last_reported":1703837359,"current_range_meters":30000,"station_id":"","pricing_plan_id":"free"},{"bike_id":"02758fa1-3c04-4bf0-b338-57709b858b80","system_id":"levelo_inurba_marseille","lat":43.295748,"lon":5.37522,"is_reserved":false,"is_disabled":false,"rental_uris":{"android":"levelo://app?vid=02758fa1-3c04-4bf0-b338-57709b858b80","ios":"levelo://app?vid=02758fa1-3c04-4bf0-b338-57709b858b80"},"vehicle_type_id":"4","last_reported":1703837359,"current_range_meters":28800,"station_id":"ce4bgh92rcd13ifvqb50","pricing_plan_id":"free"},{"bike_id":"cdc334d1-154c-43a0-baba-1ec234943aab","system_id":"levelo_inurba_marseille","lat":43.296277,"lon":5.377108,"is_reserved":false,"is_disabled":false,"rental_uris":{"android":"levelo://app?vid=cdc334d1-154c-43a0-baba-1ec234943aab","ios":"levelo://app?vid=cdc334d1-154c-43a0-baba-1ec234943aab"},"vehicle_type_id":"4","last_reported":1703837359,"current_range_meters":29600,"station_id":"ce4bgi92rcd13ifvqb90","pricing_plan_id":"free"},{"bike_id":"7119845d-00aa-4d9f-be8c-fc97d41f1380","system_id":"levelo_inurba_marseille","lat":43.297594,"lon":5.381134,"is_reserved":false,"is_disabled":false,"rental_uris":{"android":"levelo://app?vid=7119845d-00aa-4d9f-be8c-fc97d41f1380","ios":"levelo://app?vid=7119845d-00aa-4d9f-be8c-fc97d41f1380"},"vehicle_type_id":"4","last_reported":1703837359,"current_range_meters":20400,"station_id":"ce4bgip2rcd13ifvqbb0","pricing_plan_id":"free"},{"bike_id":"753d8284-2218-472a-9689-30d6b96f87bc","system_id":"levelo_inurba_marseille","lat":43.295279,"lon":5.375048,"is_reserved":false,"is_disabled":false,"rental_uris":{"android":"levelo://app?vid=753d8284-2218-472a-9689-30d6b96f87bc","ios":"levelo://app?vid=753d8284-2218-472a-9689-30d6b96f87bc"},"vehicle_type_id":"4","last_reported":1703837359,"current_range_meters":27600,"station_id":"ce4bgkp2rcd13ifvqbmg","pricing_plan_id":"free"},{"bike_id":"0a9fe2ad-fe58-4254-bd4e-0f72c5c44005","system_id":"levelo_inurba_marseille","lat":43.32367,"lon":5.388836,"is_reserved":false,"is_disabled":false,"rental_uris":{"android":"levelo://app?vid=0a9fe2ad-fe58-4254-bd4e-0f72c5c44005","ios":"levelo://app?vid=0a9fe2ad-fe58-4254-bd4e-0f72c5c44005"},"vehicle_type_id":"4","last_reported":1703837359,"current_range_meters":24400,"station_id":"ce4bhqp2rcd13ifvqhog","pricing_plan_id":"free"},{"bike_id":"2794ea7d-b159-4214-ab4c-913fdac9e84b","system_id":"levelo_inurba_marseille","lat":43.32367,"lon":5.388836,"is_reserved":false,"is_disabled":false,"rental_uris":{"android":"levelo://app?vid=2794ea7d-b159-4214-ab4c-913fdac9e84b","ios":"levelo://app?vid=2794ea7d-b159-4214-ab4c-913fdac9e84b"},"vehicle_type_id":"4","last_reported":1703837359,"current_range_meters":22400,"station_id":"ce4bhqp2rcd13ifvqhog","pricing_plan_id":"free"},{"bike_id":"412b0300-bca9-407f-8529-62d2e7880d74","system_id":"levelo_inurba_marseille","lat":43.32367,"lon":5.388836,"is_reserved":false,"is_disabled":false,"rental_uris":{"android":"levelo://app?vid=412b0300-bca9-407f-8529-62d2e7880d74","ios":"levelo://app?vid=412b0300-bca9-407f-8529-62d2e7880d74"},"vehicle_type_id":"4","last_reported":1703837359,"current_range_meters":30000,"station_id":"ce4bhqp2rcd13ifvqhog","pricing_plan_id":"free"},{"bike_id":"64e08778-3e7b-4c08-aaa7-765ecbf426e5","system_id":"levelo_inurba_marseille","lat":43.32367,"lon":5.388836,"is_reserved":false,"is_disabled":false,"rental_uris":{"android":"levelo://app?vid=64e08778-3e7b-4c08-aaa7-765ecbf426e5","ios":"levelo://app?vid=64e08778-3e7b-4c08-aaa7-765ecbf426e5"},"vehicle_type_id":"4","last_reported":1703837359,"current_range_meters":28800,"station_id":"ce4bhqp2rcd13ifvqhog","pricing_plan_id":"free"},{"bike_id":"ad5dfc75-2f80-4c91-b482-0dd22788910c","system_id":"levelo_inurba_marseille","lat":43.2936,"lon":5.37835,"is_reserved":false,"is_disabled":false,"rental_uris":{"android":"levelo://app?vid=ad5dfc75-2f80-4c91-b482-0dd22788910c","ios":"levelo://app?vid=ad5dfc75-2f80-4c91-b482-0dd22788910c"},"vehicle_type_id":"4","last_reported":1703837359,"current_range_meters":28000,"station_id":"ce4bgjh2rcd13ifvqbf0","pricing_plan_id":"free"},{"bike_id":"91489c8a-b2fa-4640-bd3d-288533f4b64e","system_id":"levelo_inurba_marseille","lat":43.2936,"lon":5.37835,"is_reserved":false,"is_disabled":false,"rental_uris":{"android":"levelo://app?vid=91489c8a-b2fa-4640-bd3d-288533f4b64e","ios":"levelo://app?vid=91489c8a-b2fa-4640-bd3d-288533f4b64e"},"vehicle_type_id":"4","last_reported":1703837359,"current_range_meters":23200,"station_id":"ce4bgjh2rcd13ifvqbf0","pricing_plan_id":"free"},{"bike_id":"6eacc578-84d5-403d-b518-beb25a341a8e","system_id":"levelo_inurba_marseille","lat":43.298965,"lon":5.388537,"is_reserved":false,"is_disabled":false,"rental_uris":{"android":"levelo://app?vid=6eacc578-84d5-403d-b518-beb25a341a8e","ios":"levelo://app?vid=6eacc578-84d5-403d-b518-beb25a341a8e"},"vehicle_type_id":"4","last_reported":1703837359,"current_range_meters":800,"station_id":"","pricing_plan_id":"free"},{"bike_id":"2d07af19-c054-498e-bf03-ac3e1918e59b","system_id":"levelo_inurba_marseille","lat":43.292311,"lon":5.360731,"is_reserved":false,"is_disabled":false,"rental_uris":{"android":"levelo://app?vid=2d07af19-c054-498e-bf03-ac3e1918e59b","ios":"levelo://app?vid=2d07af19-c054-498e-bf03-ac3e1918e59b"},"vehicle_type_id":"4","last_reported":1703837359,"current_range_meters":26000,"station_id":"ce4bhbh2rcd13ifvqeqg","pricing_plan_id":"free"},{"bike_id":"3e051d45-d8c6-4c7b-95b0-220d46ef57ba","system_id":"levelo_inurba_marseille","lat":43.292264,"lon":5.360644,"is_reserved":false,"is_disabled":false,"rental_uris":{"android":"levelo://app?vid=3e051d45-d8c6-4c7b-95b0-220d46ef57ba","ios":"levelo://app?vid=3e051d45-d8c6-4c7b-95b0-220d46ef57ba"},"vehicle_type_id":"4","last_reported":1703837359,"current_range_meters":24400,"station_id":"","pricing_plan_id":"free"},{"bike_id":"2d220ce0-d4ab-4ca5-805c-f9e27e1aff95","system_id":"levelo_inurba_marseille","lat":43.30085,"lon":5.390856,"is_reserved":false,"is_disabled":false,"rental_uris":{"android":"levelo://app?vid=2d220ce0-d4ab-4ca5-805c-f9e27e1aff95","ios":"levelo://app?vid=2d220ce0-d4ab-4ca5-805c-f9e27e1aff95"},"vehicle_type_id":"4","last_reported":1703837359,"current_range_meters":23600,"station_id":"ce4bh192rcd13ifvqdb0","pricing_plan_id":"free"},{"bike_id":"9d0e1f46-6c5b-40a6-a495-1d5b7daf1e63","system_id":"levelo_inurba_marseille","lat":43.309038,"lon":5.396546,"is_reserved":false,"is_disabled":false,"rental_uris":{"android":"levelo://app?vid=9d0e1f46-6c5b-40a6-a495-1d5b7daf1e63","ios":"levelo://app?vid=9d0e1f46-6c5b-40a6-a495-1d5b7daf1e63"},"vehicle_type_id":"4","last_reported":1703837359,"current_range_meters":26800,"station_id":"ce4bh012rcd13ifvqcv0","pricing_plan_id":"free"},{"bike_id":"b5ab4d8f-4be5-49ad-9660-7666de367904","system_id":"levelo_inurba_marseille","lat":43.313291,"lon":5.396838,"is_reserved":false,"is_disabled":false,"rental_uris":{"android":"levelo://app?vid=b5ab4d8f-4be5-49ad-9660-7666de367904","ios":"levelo://app?vid=b5ab4d8f-4be5-49ad-9660-7666de367904"},"vehicle_type_id":"4","last_reported":1703837359,"current_range_meters":30000,"station_id":"ce4bgvp2rcd13ifvqcu0","pricing_plan_id":"free"},{"bike_id":"07b8bcbc-d28e-4abc-a7f1-219d62fe83ca","system_id":"levelo_inurba_marseille","lat":43.29529,"lon":5.385581,"is_reserved":false,"is_disabled":false,"rental_uris":{"android":"levelo://app?vid=07b8bcbc-d28e-4abc-a7f1-219d62fe83ca","ios":"levelo://app?vid=07b8bcbc-d28e-4abc-a7f1-219d62fe83ca"},"vehicle_type_id":"4","last_reported":1703837359,"current_range_meters":13600,"station_id":"ce4bgih2rcd13ifvqba0","pricing_plan_id":"free"},{"bike_id":"0d5bc31d-2672-42dd-ad83-08bd2473a150","system_id":"levelo_inurba_marseille","lat":43.311495,"lon":5.398031,"is_reserved":false,"is_disabled":false,"rental_uris":{"android":"levelo://app?vid=0d5bc31d-2672-42dd-ad83-08bd2473a150","ios":"levelo://app?vid=0d5bc31d-2672-42dd-ad83-08bd2473a150"},"vehicle_type_id":"4","last_reported":1703837359,"current_range_meters":3600,"station_id":"","pricing_plan_id":"free"},{"bike_id":"5cbf0cd4-0628-42c0-a01e-9f9f604402de","system_id":"levelo_inurba_marseille","lat":43.290631,"lon":5.359244,"is_reserved":false,"is_disabled":false,"rental_uris":{"android":"levelo://app?vid=5cbf0cd4-0628-42c0-a01e-9f9f604402de","ios":"levelo://app?vid=5cbf0cd4-0628-42c0-a01e-9f9f604402de"},"vehicle_type_id":"4","last_reported":1703837359,"current_range_meters":31200,"station_id":"ce4bha92rcd13ifvqeg0","pricing_plan_id":"free"},{"bike_id":"d59f0d48-43c7-4277-90cd-0870e1f7feb8","system_id":"levelo_inurba_marseille","lat":43.290631,"lon":5.359244,"is_reserved":false,"is_disabled":false,"rental_uris":{"android":"levelo://app?vid=d59f0d48-43c7-4277-90cd-0870e1f7feb8","ios":"levelo://app?vid=d59f0d48-43c7-4277-90cd-0870e1f7feb8"},"vehicle_type_id":"4","last_reported":1703837359,"current_range_meters":30000,"station_id":"ce4bha92rcd13ifvqeg0","pricing_plan_id":"free"},{"bike_id":"adfa475c-f802-464d-8d4f-ef98992d23d6","system_id":"levelo_inurba_marseille","lat":43.294153,"lon":5.386305,"is_reserved":false,"is_disabled":false,"rental_uris":{"android":"levelo://app?vid=adfa475c-f802-464d-8d4f-ef98992d23d6","ios":"levelo://app?vid=adfa475c-f802-464d-8d4f-ef98992d23d6"},"vehicle_type_id":"4","last_reported":1703837359,"current_range_meters":28800,"station_id":"ce4bh2h2rcd13ifvqdh0","pricing_plan_id":"free"},{"bike_id":"4dbe208c-fec0-4737-9354-22711e14a08c","system_id":"levelo_inurba_marseille","lat":43.290327,"lon":5.375711,"is_reserved":false,"is_disabled":false,"rental_uris":{"android":"levelo://app?vid=4dbe208c-fec0-4737-9354-22711e14a08c","ios":"levelo://app?vid=4dbe208c-fec0-4737-9354-22711e14a08c"},"vehicle_type_id":"4","last_reported":1703837359,"current_range_meters":11200,"station_id":"ce4bh692rcd13ifvqe90","pricing_plan_id":"free"},{"bike_id":"525e48ac-c895-4fc6-9543-58d983ce0cf9","system_id":"levelo_inurba_marseille","lat":43.294162,"lon":5.386292,"is_reserved":false,"is_disabled":false,"rental_uris":{"android":"levelo://app?vid=525e48ac-c895-4fc6-9543-58d983ce0cf9","ios":"levelo://app?vid=525e48ac-c895-4fc6-9543-58d983ce0cf9"},"vehicle_type_id":"4","last_reported":1703837359,"current_range_meters":26800,"station_id":"ce4bh2h2rcd13ifvqdh0","pricing_plan_id":"free"},{"bike_id":"7acec111-a0a4-49e6-a0db-422c895c1397","system_id":"levelo_inurba_marseille","lat":43.292642,"lon":5.384254,"is_reserved":false,"is_disabled":false,"rental_uris":{"android":"levelo://app?vid=7acec111-a0a4-49e6-a0db-422c895c1397","ios":"levelo://app?vid=7acec111-a0a4-49e6-a0db-422c895c1397"},"vehicle_type_id":"4","last_reported":1703837359,"current_range_meters":23600,"station_id":"ce4bh692rcd13ifvqea0","pricing_plan_id":"free"},{"bike_id":"f1df8713-5cff-4b68-af72-adda1ab8f3b6","system_id":"levelo_inurba_marseille","lat":43.290103,"lon":5.356114,"is_reserved":false,"is_disabled":false,"rental_uris":{"android":"levelo://app?vid=f1df8713-5cff-4b68-af72-adda1ab8f3b6","ios":"levelo://app?vid=f1df8713-5cff-4b68-af72-adda1ab8f3b6"},"vehicle_type_id":"4","last_reported":1703837359,"current_range_meters":31200,"station_id":"ce4bhb92rcd13ifvqen0","pricing_plan_id":"free"},{"bike_id":"651d84ac-49d7-40dc-bc42-1b9b302eda50","system_id":"levelo_inurba_marseille","lat":43.290103,"lon":5.356114,"is_reserved":false,"is_disabled":false,"rental_uris":{"android":"levelo://app?vid=651d84ac-49d7-40dc-bc42-1b9b302eda50","ios":"levelo://app?vid=651d84ac-49d7-40dc-bc42-1b9b302eda50"},"vehicle_type_id":"4","last_reported":1703837359,"current_range_meters":31200,"station_id":"ce4bhb92rcd13ifvqen0","pricing_plan_id":"free"},{"bike_id":"28f6f0fe-0e00-40b8-af75-c10504d2636e","system_id":"levelo_inurba_marseille","lat":43.290104,"lon":5.356111,"is_reserved":false,"is_disabled":false,"rental_uris":{"android":"levelo://app?vid=28f6f0fe-0e00-40b8-af75-c10504d2636e","ios":"levelo://app?vid=28f6f0fe-0e00-40b8-af75-c10504d2636e"},"vehicle_type_id":"4","last_reported":1703837359,"current_range_meters":27600,"station_id":"ce4bhb92rcd13ifvqen0","pricing_plan_id":"free"},{"bike_id":"cf08c86e-f49c-44d1-8243-ddfaf7e62faf","system_id":"levelo_inurba_marseille","lat":43.289743,"lon":5.378304,"is_reserved":false,"is_disabled":false,"rental_uris":{"android":"levelo://app?vid=cf08c86e-f49c-44d1-8243-ddfaf7e62faf","ios":"levelo://app?vid=cf08c86e-f49c-44d1-8243-ddfaf7e62faf"},"vehicle_type_id":"4","last_reported":1703837359,"current_range_meters":14000,"station_id":"ce4bh9p2rcd13ifvqed0","pricing_plan_id":"free"},{"bike_id":"495faf64-a935-4c6e-b77f-2b296d14493a","system_id":"levelo_inurba_marseille","lat":43.331017,"lon":5.389194,"is_reserved":false,"is_disabled":false,"rental_uris":{"android":"levelo://app?vid=495faf64-a935-4c6e-b77f-2b296d14493a","ios":"levelo://app?vid=495faf64-a935-4c6e-b77f-2b296d14493a"},"vehicle_type_id":"4","last_reported":1703837359,"current_range_meters":8400,"station_id":"","pricing_plan_id":"free"},{"bike_id":"8ca22f4d-a1d4-474c-b231-162ff927aeea","system_id":"levelo_inurba_marseille","lat":43.330442,"lon":5.389148,"is_reserved":false,"is_disabled":false,"rental_uris":{"android":"levelo://app?vid=8ca22f4d-a1d4-474c-b231-162ff927aeea","ios":"levelo://app?vid=8ca22f4d-a1d4-474c-b231-162ff927aeea"},"vehicle_type_id":"4","last_reported":1703837359,"current_range_meters":26800,"station_id":"ce4bhr92rcd13ifvqhrg","pricing_plan_id":"free"},{"bike_id":"54b99773-a5eb-4130-a325-115b625d6f3c","system_id":"levelo_inurba_marseille","lat":43.245581,"lon":5.395069,"is_reserved":false,"is_disabled":false,"rental_uris":{"android":"levelo://app?vid=54b99773-a5eb-4130-a325-115b625d6f3c","ios":"levelo://app?vid=54b99773-a5eb-4130-a325-115b625d6f3c"},"vehicle_type_id":"4","last_reported":1703837359,"current_range_meters":20400,"station_id":"ce4bhlp2rcd13ifvqgjg","pricing_plan_id":"free"},{"bike_id":"d12137dd-50da-4bcd-a5c3-705c2222ce30","system_id":"levelo_inurba_marseille","lat":43.28851,"lon":5.35844,"is_reserved":false,"is_disabled":false,"rental_uris":{"android":"levelo://app?vid=d12137dd-50da-4bcd-a5c3-705c2222ce30","ios":"levelo://app?vid=d12137dd-50da-4bcd-a5c3-705c2222ce30"},"vehicle_type_id":"4","last_reported":1703837359,"current_range_meters":24800,"station_id":"ce4bhb12rcd13ifvqem0","pricing_plan_id":"free"},{"bike_id":"8c09831c-cb9c-4b39-b8e1-c947711a9c74","system_id":"levelo_inurba_marseille","lat":43.28845,"lon":5.35844,"is_reserved":false,"is_disabled":false,"rental_uris":{"android":"levelo://app?vid=8c09831c-cb9c-4b39-b8e1-c947711a9c74","ios":"levelo://app?vid=8c09831c-cb9c-4b39-b8e1-c947711a9c74"},"vehicle_type_id":"4","last_reported":1703837359,"current_range_meters":21200,"station_id":"ce4bhb12rcd13ifvqem0","pricing_plan_id":"free"},{"bike_id":"0f77e5c1-acd3-4588-b799-63c1730334b2","system_id":"levelo_inurba_marseille","lat":43.300129,"lon":5.396712,"is_reserved":false,"is_disabled":false,"rental_uris":{"android":"levelo://app?vid=0f77e5c1-acd3-4588-b799-63c1730334b2","ios":"levelo://app?vid=0f77e5c1-acd3-4588-b799-63c1730334b2"},"vehicle_type_id":"4","last_reported":1703837359,"current_range_meters":0,"station_id":"","pricing_plan_id":"free"},{"bike_id":"433a4871-0435-434a-ba1f-f1586384ef40","system_id":"levelo_inurba_marseille","lat":43.312609,"lon":5.401662,"is_reserved":false,"is_disabled":false,"rental_uris":{"android":"levelo://app?vid=433a4871-0435-434a-ba1f-f1586384ef40","ios":"levelo://app?vid=433a4871-0435-434a-ba1f-f1586384ef40"},"vehicle_type_id":"4","last_reported":1703837359,"current_range_meters":30400,"station_id":"ce4bh092rcd13ifvqd30","pricing_plan_id":"free"},{"bike_id":"d29f7a6c-6eff-46b1-9d51-bbf08faabfa1","system_id":"levelo_inurba_marseille","lat":43.337477,"lon":5.374431,"is_reserved":false,"is_disabled":false,"rental_uris":{"android":"levelo://app?vid=d29f7a6c-6eff-46b1-9d51-bbf08faabfa1","ios":"levelo://app?vid=d29f7a6c-6eff-46b1-9d51-bbf08faabfa1"},"vehicle_type_id":"4","last_reported":1703837359,"current_range_meters":4800,"station_id":"","pricing_plan_id":"free"},{"bike_id":"d355be85-f443-4d31-a1f8-440464625141","system_id":"levelo_inurba_marseille","lat":43.309371,"lon":5.401449,"is_reserved":false,"is_disabled":false,"rental_uris":{"android":"levelo://app?vid=d355be85-f443-4d31-a1f8-440464625141","ios":"levelo://app?vid=d355be85-f443-4d31-a1f8-440464625141"},"vehicle_type_id":"4","last_reported":1703837359,"current_range_meters":30800,"station_id":"ce4bgvp2rcd13ifvqct0","pricing_plan_id":"free"},{"bike_id":"ea8a6bff-354d-4116-a654-9eab6b292ed6","system_id":"levelo_inurba_marseille","lat":43.306412,"lon":5.401035,"is_reserved":false,"is_disabled":false,"rental_uris":{"android":"levelo://app?vid=ea8a6bff-354d-4116-a654-9eab6b292ed6","ios":"levelo://app?vid=ea8a6bff-354d-4116-a654-9eab6b292ed6"},"vehicle_type_id":"4","last_reported":1703837359,"current_range_meters":26400,"station_id":"ce4bh112rcd13ifvqda0","pricing_plan_id":"free"},{"bike_id":"dfed2bf4-90de-4b70-9178-32315c78f060","system_id":"levelo_inurba_marseille","lat":43.337665,"lon":5.374315,"is_reserved":false,"is_disabled":false,"rental_uris":{"android":"levelo://app?vid=dfed2bf4-90de-4b70-9178-32315c78f060","ios":"levelo://app?vid=dfed2bf4-90de-4b70-9178-32315c78f060"},"vehicle_type_id":"4","last_reported":1703837359,"current_range_meters":30400,"station_id":"ce4rr2p2rcd13i802rgg","pricing_plan_id":"free"},{"bike_id":"77d29c51-c21b-4068-9bb0-4c188bb82a11","system_id":"levelo_inurba_marseille","lat":43.337603,"lon":5.374707,"is_reserved":false,"is_disabled":false,"rental_uris":{"android":"levelo://app?vid=77d29c51-c21b-4068-9bb0-4c188bb82a11","ios":"levelo://app?vid=77d29c51-c21b-4068-9bb0-4c188bb82a11"},"vehicle_type_id":"4","last_reported":1703837359,"current_range_meters":30800,"station_id":"","pricing_plan_id":"free"},{"bike_id":"7dc2c35f-ef5a-420a-8db0-42141eab3542","system_id":"levelo_inurba_marseille","lat":43.30642,"lon":5.401031,"is_reserved":false,"is_disabled":false,"rental_uris":{"android":"levelo://app?vid=7dc2c35f-ef5a-420a-8db0-42141eab3542","ios":"levelo://app?vid=7dc2c35f-ef5a-420a-8db0-42141eab3542"},"vehicle_type_id":"4","last_reported":1703837359,"current_range_meters":16400,"station_id":"ce4bh112rcd13ifvqda0","pricing_plan_id":"free"},{"bike_id":"bb315701-5ddd-47af-a0e8-8e234552c90a","system_id":"levelo_inurba_marseille","lat":43.28727,"lon":5.36078,"is_reserved":false,"is_disabled":false,"rental_uris":{"android":"levelo://app?vid=bb315701-5ddd-47af-a0e8-8e234552c90a","ios":"levelo://app?vid=bb315701-5ddd-47af-a0e8-8e234552c90a"},"vehicle_type_id":"4","last_reported":1703837359,"current_range_meters":31200,"station_id":"cki0cbj6b192h4jlfktg","pricing_plan_id":"free"},{"bike_id":"b1d95b68-d322-4177-bf35-a3c707654a2f","system_id":"levelo_inurba_marseille","lat":43.28727,"lon":5.36078,"is_reserved":false,"is_disabled":false,"rental_uris":{"android":"levelo://app?vid=b1d95b68-d322-4177-bf35-a3c707654a2f","ios":"levelo://app?vid=b1d95b68-d322-4177-bf35-a3c707654a2f"},"vehicle_type_id":"4","last_reported":1703837359,"current_range_meters":31200,"station_id":"cki0cbj6b192h4jlfktg","pricing_plan_id":"free"},{"bike_id":"6f956c89-e00d-41db-8051-d061fd526caf","system_id":"levelo_inurba_marseille","lat":43.28727,"lon":5.36078,"is_reserved":false,"is_disabled":false,"rental_uris":{"android":"levelo://app?vid=6f956c89-e00d-41db-8051-d061fd526caf","ios":"levelo://app?vid=6f956c89-e00d-41db-8051-d061fd526caf"},"vehicle_type_id":"4","last_reported":1703837359,"current_range_meters":20800,"station_id":"cki0cbj6b192h4jlfktg","pricing_plan_id":"free"},{"bike_id":"d3bfb79c-dd01-4ec1-96bb-18b3ff54f1b9","system_id":"levelo_inurba_marseille","lat":43.286591,"lon":5.363346,"is_reserved":false,"is_disabled":false,"rental_uris":{"android":"levelo://app?vid=d3bfb79c-dd01-4ec1-96bb-18b3ff54f1b9","ios":"levelo://app?vid=d3bfb79c-dd01-4ec1-96bb-18b3ff54f1b9"},"vehicle_type_id":"4","last_reported":1703837359,"current_range_meters":31200,"station_id":"ce4bhah2rcd13ifvqej0","pricing_plan_id":"free"},{"bike_id":"6b658ad6-9cb2-4246-98c7-67696546f052","system_id":"levelo_inurba_marseille","lat":43.289307,"lon":5.38406,"is_reserved":false,"is_disabled":false,"rental_uris":{"android":"levelo://app?vid=6b658ad6-9cb2-4246-98c7-67696546f052","ios":"levelo://app?vid=6b658ad6-9cb2-4246-98c7-67696546f052"},"vehicle_type_id":"4","last_reported":1703837359,"current_range_meters":4800,"station_id":"ce4bh612rcd13ifvqe6g","pricing_plan_id":"free"},{"bike_id":"4cda55f5-70eb-479c-863b-7f590163cb45","system_id":"levelo_inurba_marseille","lat":43.30258,"lon":5.4008,"is_reserved":false,"is_disabled":false,"rental_uris":{"android":"levelo://app?vid=4cda55f5-70eb-479c-863b-7f590163cb45","ios":"levelo://app?vid=4cda55f5-70eb-479c-863b-7f590163cb45"},"vehicle_type_id":"4","last_reported":1703837359,"current_range_meters":17600,"station_id":"ce4bgvh2rcd13ifvqcs0","pricing_plan_id":"free"},{"bike_id":"48959245-f646-43e8-9d91-1e2bf59ff29c","system_id":"levelo_inurba_marseille","lat":43.287185,"lon":5.379373,"is_reserved":false,"is_disabled":false,"rental_uris":{"android":"levelo://app?vid=48959245-f646-43e8-9d91-1e2bf59ff29c","ios":"levelo://app?vid=48959245-f646-43e8-9d91-1e2bf59ff29c"},"vehicle_type_id":"4","last_reported":1703837359,"current_range_meters":18400,"station_id":"ce4bh9p2rcd13ifvqec0","pricing_plan_id":"free"},{"bike_id":"791ac705-2228-4e6c-9cf5-a520a225c7f5","system_id":"levelo_inurba_marseille","lat":43.287185,"lon":5.379373,"is_reserved":false,"is_disabled":false,"rental_uris":{"android":"levelo://app?vid=791ac705-2228-4e6c-9cf5-a520a225c7f5","ios":"levelo://app?vid=791ac705-2228-4e6c-9cf5-a520a225c7f5"},"vehicle_type_id":"4","last_reported":1703837359,"current_range_meters":28400,"station_id":"ce4bh9p2rcd13ifvqec0","pricing_plan_id":"free"},{"bike_id":"aac00441-5e5c-4474-92e6-e699a3867bae","system_id":"levelo_inurba_marseille","lat":43.285801,"lon":5.36019,"is_reserved":false,"is_disabled":false,"rental_uris":{"android":"levelo://app?vid=aac00441-5e5c-4474-92e6-e699a3867bae","ios":"levelo://app?vid=aac00441-5e5c-4474-92e6-e699a3867bae"},"vehicle_type_id":"4","last_reported":1703837359,"current_range_meters":28000,"station_id":"","pricing_plan_id":"free"},{"bike_id":"4ff69062-b4c1-40b0-9369-8974f016e861","system_id":"levelo_inurba_marseille","lat":43.316828,"lon":5.404723,"is_reserved":false,"is_disabled":false,"rental_uris":{"android":"levelo://app?vid=4ff69062-b4c1-40b0-9369-8974f016e861","ios":"levelo://app?vid=4ff69062-b4c1-40b0-9369-8974f016e861"},"vehicle_type_id":"4","last_reported":1703837359,"current_range_meters":7600,"station_id":"ce4bh012rcd13ifvqd00","pricing_plan_id":"free"},{"bike_id":"7c92bfab-54f7-43ac-b0be-94d11bf7d813","system_id":"levelo_inurba_marseille","lat":43.316828,"lon":5.404723,"is_reserved":false,"is_disabled":false,"rental_uris":{"android":"levelo://app?vid=7c92bfab-54f7-43ac-b0be-94d11bf7d813","ios":"levelo://app?vid=7c92bfab-54f7-43ac-b0be-94d11bf7d813"},"vehicle_type_id":"4","last_reported":1703837359,"current_range_meters":20800,"station_id":"ce4bh012rcd13ifvqd00","pricing_plan_id":"free"},{"bike_id":"85b95d96-302c-4ac1-9d98-36c8e47e50a5","system_id":"levelo_inurba_marseille","lat":43.28471,"lon":5.3589,"is_reserved":false,"is_disabled":false,"rental_uris":{"android":"levelo://app?vid=85b95d96-302c-4ac1-9d98-36c8e47e50a5","ios":"levelo://app?vid=85b95d96-302c-4ac1-9d98-36c8e47e50a5"},"vehicle_type_id":"4","last_reported":1703837359,"current_range_meters":26800,"station_id":"ce4bhah2rcd13ifvqei0","pricing_plan_id":"free"},{"bike_id":"95671ea6-e01c-43c4-b051-eb05fa0c74a0","system_id":"levelo_inurba_marseille","lat":43.286595,"lon":5.386795,"is_reserved":false,"is_disabled":false,"rental_uris":{"android":"levelo://app?vid=95671ea6-e01c-43c4-b051-eb05fa0c74a0","ios":"levelo://app?vid=95671ea6-e01c-43c4-b051-eb05fa0c74a0"},"vehicle_type_id":"4","last_reported":1703837359,"current_range_meters":23600,"station_id":"ce4bh492rcd13ifvqdug","pricing_plan_id":"free"},{"bike_id":"eb0839c4-3270-42e2-bfb8-e0514473fdff","system_id":"levelo_inurba_marseille","lat":43.293418,"lon":5.398643,"is_reserved":false,"is_disabled":false,"rental_uris":{"android":"levelo://app?vid=eb0839c4-3270-42e2-bfb8-e0514473fdff","ios":"levelo://app?vid=eb0839c4-3270-42e2-bfb8-e0514473fdff"},"vehicle_type_id":"4","last_reported":1703837359,"current_range_meters":20400,"station_id":"","pricing_plan_id":"free"},{"bike_id":"88a90eb6-df1d-4c20-8e42-f03f5a6f3a0d","system_id":"levelo_inurba_marseille","lat":43.3372,"lon":5.39178,"is_reserved":false,"is_disabled":false,"rental_uris":{"android":"levelo://app?vid=88a90eb6-df1d-4c20-8e42-f03f5a6f3a0d","ios":"levelo://app?vid=88a90eb6-df1d-4c20-8e42-f03f5a6f3a0d"},"vehicle_type_id":"4","last_reported":1703837359,"current_range_meters":8000,"station_id":"ce4bhr92rcd13ifvqhsg","pricing_plan_id":"free"},{"bike_id":"dc01f71e-723b-469f-aec5-061ea8997c0f","system_id":"levelo_inurba_marseille","lat":43.337168,"lon":5.391825,"is_reserved":false,"is_disabled":false,"rental_uris":{"android":"levelo://app?vid=dc01f71e-723b-469f-aec5-061ea8997c0f","ios":"levelo://app?vid=dc01f71e-723b-469f-aec5-061ea8997c0f"},"vehicle_type_id":"4","last_reported":1703837359,"current_range_meters":31200,"station_id":"ce4bhr92rcd13ifvqhsg","pricing_plan_id":"free"},{"bike_id":"5c5c748b-92be-461a-ab0b-9881ab0f70e0","system_id":"levelo_inurba_marseille","lat":43.323464,"lon":5.406297,"is_reserved":false,"is_disabled":false,"rental_uris":{"android":"levelo://app?vid=5c5c748b-92be-461a-ab0b-9881ab0f70e0","ios":"levelo://app?vid=5c5c748b-92be-461a-ab0b-9881ab0f70e0"},"vehicle_type_id":"4","last_reported":1703837359,"current_range_meters":15600,"station_id":"ce4bhq92rcd13ifvqhjg","pricing_plan_id":"free"},{"bike_id":"05b69abe-5f9e-4f64-92b2-0d85f8ca8094","system_id":"levelo_inurba_marseille","lat":43.323464,"lon":5.406297,"is_reserved":false,"is_disabled":false,"rental_uris":{"android":"levelo://app?vid=05b69abe-5f9e-4f64-92b2-0d85f8ca8094","ios":"levelo://app?vid=05b69abe-5f9e-4f64-92b2-0d85f8ca8094"},"vehicle_type_id":"4","last_reported":1703837359,"current_range_meters":24000,"station_id":"ce4bhq92rcd13ifvqhjg","pricing_plan_id":"free"},{"bike_id":"62c99a34-ebf8-4262-aab1-f313d6a9d508","system_id":"levelo_inurba_marseille","lat":43.323464,"lon":5.406297,"is_reserved":false,"is_disabled":false,"rental_uris":{"android":"levelo://app?vid=62c99a34-ebf8-4262-aab1-f313d6a9d508","ios":"levelo://app?vid=62c99a34-ebf8-4262-aab1-f313d6a9d508"},"vehicle_type_id":"4","last_reported":1703837359,"current_range_meters":21600,"station_id":"ce4bhq92rcd13ifvqhjg","pricing_plan_id":"free"},{"bike_id":"30c28359-fe6f-4521-b6f8-124ed38a777b","system_id":"levelo_inurba_marseille","lat":43.323464,"lon":5.406297,"is_reserved":false,"is_disabled":false,"rental_uris":{"android":"levelo://app?vid=30c28359-fe6f-4521-b6f8-124ed38a777b","ios":"levelo://app?vid=30c28359-fe6f-4521-b6f8-124ed38a777b"},"vehicle_type_id":"4","last_reported":1703837359,"current_range_meters":14400,"station_id":"ce4bhq92rcd13ifvqhjg","pricing_plan_id":"free"},{"bike_id":"2ad95a4b-214e-48fc-9c4c-dced021e229f","system_id":"levelo_inurba_marseille","lat":43.323464,"lon":5.406297,"is_reserved":false,"is_disabled":false,"rental_uris":{"android":"levelo://app?vid=2ad95a4b-214e-48fc-9c4c-dced021e229f","ios":"levelo://app?vid=2ad95a4b-214e-48fc-9c4c-dced021e229f"},"vehicle_type_id":"4","last_reported":1703837359,"current_range_meters":31200,"station_id":"ce4bhq92rcd13ifvqhjg","pricing_plan_id":"free"},{"bike_id":"a2788dea-8db3-4cf3-9ca6-f7a24929f142","system_id":"levelo_inurba_marseille","lat":43.297946,"lon":5.404063,"is_reserved":false,"is_disabled":false,"rental_uris":{"android":"levelo://app?vid=a2788dea-8db3-4cf3-9ca6-f7a24929f142","ios":"levelo://app?vid=a2788dea-8db3-4cf3-9ca6-f7a24929f142"},"vehicle_type_id":"4","last_reported":1703837359,"current_range_meters":30400,"station_id":"ce4bh112rcd13ifvqd90","pricing_plan_id":"free"},{"bike_id":"e485450b-2736-4f4c-b94b-0da5a69b88aa","system_id":"levelo_inurba_marseille","lat":43.33385,"lon":5.39822,"is_reserved":false,"is_disabled":false,"rental_uris":{"android":"levelo://app?vid=e485450b-2736-4f4c-b94b-0da5a69b88aa","ios":"levelo://app?vid=e485450b-2736-4f4c-b94b-0da5a69b88aa"},"vehicle_type_id":"4","last_reported":1703837359,"current_range_meters":11600,"station_id":"","pricing_plan_id":"free"},{"bike_id":"fd806734-020d-49ee-bc45-e6b7119917ff","system_id":"levelo_inurba_marseille","lat":43.284238,"lon":5.349833,"is_reserved":false,"is_disabled":false,"rental_uris":{"android":"levelo://app?vid=fd806734-020d-49ee-bc45-e6b7119917ff","ios":"levelo://app?vid=fd806734-020d-49ee-bc45-e6b7119917ff"},"vehicle_type_id":"4","last_reported":1703837359,"current_range_meters":25600,"station_id":"ce4bhbh2rcd13ifvqepg","pricing_plan_id":"free"},{"bike_id":"a76e4412-24df-4eb5-a18c-8ba105624f9c","system_id":"levelo_inurba_marseille","lat":43.284234,"lon":5.349839,"is_reserved":false,"is_disabled":false,"rental_uris":{"android":"levelo://app?vid=a76e4412-24df-4eb5-a18c-8ba105624f9c","ios":"levelo://app?vid=a76e4412-24df-4eb5-a18c-8ba105624f9c"},"vehicle_type_id":"4","last_reported":1703837359,"current_range_meters":18000,"station_id":"ce4bhbh2rcd13ifvqepg","pricing_plan_id":"free"},{"bike_id":"dca0fa18-7996-474e-bb6b-4a1cc91c2b11","system_id":"levelo_inurba_marseille","lat":43.284214,"lon":5.349706,"is_reserved":false,"is_disabled":false,"rental_uris":{"android":"levelo://app?vid=dca0fa18-7996-474e-bb6b-4a1cc91c2b11","ios":"levelo://app?vid=dca0fa18-7996-474e-bb6b-4a1cc91c2b11"},"vehicle_type_id":"4","last_reported":1703837359,"current_range_meters":27200,"station_id":"ce4bhbh2rcd13ifvqepg","pricing_plan_id":"free"},{"bike_id":"04cf4339-6bd9-4453-aa68-0fe6859db319","system_id":"levelo_inurba_marseille","lat":43.289363,"lon":5.396322,"is_reserved":false,"is_disabled":false,"rental_uris":{"android":"levelo://app?vid=04cf4339-6bd9-4453-aa68-0fe6859db319","ios":"levelo://app?vid=04cf4339-6bd9-4453-aa68-0fe6859db319"},"vehicle_type_id":"4","last_reported":1703837359,"current_range_meters":30400,"station_id":"ce4bh3h2rcd13ifvqdn0","pricing_plan_id":"free"},{"bike_id":"156a5b33-ff84-4df3-8208-e3a59b8bf22c","system_id":"levelo_inurba_marseille","lat":43.279742,"lon":5.38744,"is_reserved":false,"is_disabled":false,"rental_uris":{"android":"levelo://app?vid=156a5b33-ff84-4df3-8208-e3a59b8bf22c","ios":"levelo://app?vid=156a5b33-ff84-4df3-8208-e3a59b8bf22c"},"vehicle_type_id":"4","last_reported":1703837359,"current_range_meters":10800,"station_id":"ce4bhg12rcd13ifvqf80","pricing_plan_id":"free"},{"bike_id":"9b0eb865-1732-47e8-8622-541121b05d70","system_id":"levelo_inurba_marseille","lat":43.280351,"lon":5.369394,"is_reserved":false,"is_disabled":false,"rental_uris":{"android":"levelo://app?vid=9b0eb865-1732-47e8-8622-541121b05d70","ios":"levelo://app?vid=9b0eb865-1732-47e8-8622-541121b05d70"},"vehicle_type_id":"4","last_reported":1703837359,"current_range_meters":20800,"station_id":"ce4bha12rcd13ifvqef0","pricing_plan_id":"free"},{"bike_id":"67051d57-9e3f-4564-b7fc-ddedb7cea4f8","system_id":"levelo_inurba_marseille","lat":43.28039,"lon":5.369297,"is_reserved":false,"is_disabled":false,"rental_uris":{"android":"levelo://app?vid=67051d57-9e3f-4564-b7fc-ddedb7cea4f8","ios":"levelo://app?vid=67051d57-9e3f-4564-b7fc-ddedb7cea4f8"},"vehicle_type_id":"4","last_reported":1703837359,"current_range_meters":30000,"station_id":"ce4bha12rcd13ifvqef0","pricing_plan_id":"free"},{"bike_id":"668df2cd-cd30-47ba-af77-84c9b6b7d26e","system_id":"levelo_inurba_marseille","lat":43.28039,"lon":5.369297,"is_reserved":false,"is_disabled":false,"rental_uris":{"android":"levelo://app?vid=668df2cd-cd30-47ba-af77-84c9b6b7d26e","ios":"levelo://app?vid=668df2cd-cd30-47ba-af77-84c9b6b7d26e"},"vehicle_type_id":"4","last_reported":1703837359,"current_range_meters":18000,"station_id":"ce4bha12rcd13ifvqef0","pricing_plan_id":"free"},{"bike_id":"3dde3caf-9015-4794-8df0-fc9db19480f7","system_id":"levelo_inurba_marseille","lat":43.290463,"lon":5.3997,"is_reserved":false,"is_disabled":false,"rental_uris":{"android":"levelo://app?vid=3dde3caf-9015-4794-8df0-fc9db19480f7","ios":"levelo://app?vid=3dde3caf-9015-4794-8df0-fc9db19480f7"},"vehicle_type_id":"4","last_reported":1703837359,"current_range_meters":13200,"station_id":"ce4bh392rcd13ifvqdm0","pricing_plan_id":"free"},{"bike_id":"e47331fa-f862-4c53-8989-077e63caae17","system_id":"levelo_inurba_marseille","lat":43.281044,"lon":5.378308,"is_reserved":false,"is_disabled":false,"rental_uris":{"android":"levelo://app?vid=e47331fa-f862-4c53-8989-077e63caae17","ios":"levelo://app?vid=e47331fa-f862-4c53-8989-077e63caae17"},"vehicle_type_id":"4","last_reported":1703837359,"current_range_meters":26800,"station_id":"ce4bha12rcd13ifvqee0","pricing_plan_id":"free"},{"bike_id":"a36c608d-0ef7-4708-ba09-d24bbdb6a585","system_id":"levelo_inurba_marseille","lat":43.290412,"lon":5.399633,"is_reserved":false,"is_disabled":false,"rental_uris":{"android":"levelo://app?vid=a36c608d-0ef7-4708-ba09-d24bbdb6a585","ios":"levelo://app?vid=a36c608d-0ef7-4708-ba09-d24bbdb6a585"},"vehicle_type_id":"4","last_reported":1703837359,"current_range_meters":28800,"station_id":"ce4bh392rcd13ifvqdm0","pricing_plan_id":"free"},{"bike_id":"70989930-15e8-4fb8-866a-fa79490c43de","system_id":"levelo_inurba_marseille","lat":43.281044,"lon":5.378308,"is_reserved":false,"is_disabled":false,"rental_uris":{"android":"levelo://app?vid=70989930-15e8-4fb8-866a-fa79490c43de","ios":"levelo://app?vid=70989930-15e8-4fb8-866a-fa79490c43de"},"vehicle_type_id":"4","last_reported":1703837359,"current_range_meters":30400,"station_id":"ce4bha12rcd13ifvqee0","pricing_plan_id":"free"},{"bike_id":"47a51011-9d01-430c-b707-f7db9078477b","system_id":"levelo_inurba_marseille","lat":43.281044,"lon":5.378308,"is_reserved":false,"is_disabled":false,"rental_uris":{"android":"levelo://app?vid=47a51011-9d01-430c-b707-f7db9078477b","ios":"levelo://app?vid=47a51011-9d01-430c-b707-f7db9078477b"},"vehicle_type_id":"4","last_reported":1703837359,"current_range_meters":31200,"station_id":"ce4bha12rcd13ifvqee0","pricing_plan_id":"free"},{"bike_id":"efa1b61e-27b7-4d44-a94a-967ebbee8051","system_id":"levelo_inurba_marseille","lat":43.281044,"lon":5.378308,"is_reserved":false,"is_disabled":false,"rental_uris":{"android":"levelo://app?vid=efa1b61e-27b7-4d44-a94a-967ebbee8051","ios":"levelo://app?vid=efa1b61e-27b7-4d44-a94a-967ebbee8051"},"vehicle_type_id":"4","last_reported":1703837359,"current_range_meters":31200,"station_id":"ce4bha12rcd13ifvqee0","pricing_plan_id":"free"},{"bike_id":"8285c850-195f-4c23-8409-bc0b1fe08b6a","system_id":"levelo_inurba_marseille","lat":43.273125,"lon":5.390731,"is_reserved":false,"is_disabled":false,"rental_uris":{"android":"levelo://app?vid=8285c850-195f-4c23-8409-bc0b1fe08b6a","ios":"levelo://app?vid=8285c850-195f-4c23-8409-bc0b1fe08b6a"},"vehicle_type_id":"4","last_reported":1703837359,"current_range_meters":14800,"station_id":"ce4bhgp2rcd13ifvqfe0","pricing_plan_id":"free"},{"bike_id":"54716e23-2e50-4639-a9e2-c3fbd42fa9b5","system_id":"levelo_inurba_marseille","lat":43.284462,"lon":5.392121,"is_reserved":false,"is_disabled":false,"rental_uris":{"android":"levelo://app?vid=54716e23-2e50-4639-a9e2-c3fbd42fa9b5","ios":"levelo://app?vid=54716e23-2e50-4639-a9e2-c3fbd42fa9b5"},"vehicle_type_id":"4","last_reported":1703837359,"current_range_meters":27600,"station_id":"ce4bhoh2rcd13ifvqh5g","pricing_plan_id":"free"},{"bike_id":"b1a1ec4f-075c-4e24-8de0-00356cbc1a79","system_id":"levelo_inurba_marseille","lat":43.304188,"lon":5.412904,"is_reserved":false,"is_disabled":false,"rental_uris":{"android":"levelo://app?vid=b1a1ec4f-075c-4e24-8de0-00356cbc1a79","ios":"levelo://app?vid=b1a1ec4f-075c-4e24-8de0-00356cbc1a79"},"vehicle_type_id":"4","last_reported":1703837359,"current_range_meters":20400,"station_id":"ce4bhop2rcd13ifvqh8g","pricing_plan_id":"free"},{"bike_id":"8aa533c5-c934-4124-9798-e09b0803030a","system_id":"levelo_inurba_marseille","lat":43.304188,"lon":5.412904,"is_reserved":false,"is_disabled":false,"rental_uris":{"android":"levelo://app?vid=8aa533c5-c934-4124-9798-e09b0803030a","ios":"levelo://app?vid=8aa533c5-c934-4124-9798-e09b0803030a"},"vehicle_type_id":"4","last_reported":1703837359,"current_range_meters":30000,"station_id":"ce4bhop2rcd13ifvqh8g","pricing_plan_id":"free"},{"bike_id":"3440c69c-1a7e-44aa-a20e-e4bab1e8d352","system_id":"levelo_inurba_marseille","lat":43.287154,"lon":5.399979,"is_reserved":false,"is_disabled":false,"rental_uris":{"android":"levelo://app?vid=3440c69c-1a7e-44aa-a20e-e4bab1e8d352","ios":"levelo://app?vid=3440c69c-1a7e-44aa-a20e-e4bab1e8d352"},"vehicle_type_id":"4","last_reported":1703837359,"current_range_meters":10400,"station_id":"ce4bho92rcd13ifvqh3g","pricing_plan_id":"free"},{"bike_id":"222cf7db-a53b-4965-b2cf-0911b8210b78","system_id":"levelo_inurba_marseille","lat":43.279087,"lon":5.380114,"is_reserved":false,"is_disabled":false,"rental_uris":{"android":"levelo://app?vid=222cf7db-a53b-4965-b2cf-0911b8210b78","ios":"levelo://app?vid=222cf7db-a53b-4965-b2cf-0911b8210b78"},"vehicle_type_id":"4","last_reported":1703837359,"current_range_meters":30000,"station_id":"ce4bhf92rcd13ifvqf50","pricing_plan_id":"free"},{"bike_id":"65e3ac2c-a116-4185-aa86-9f7a80cd1ed7","system_id":"levelo_inurba_marseille","lat":43.287154,"lon":5.399979,"is_reserved":false,"is_disabled":false,"rental_uris":{"android":"levelo://app?vid=65e3ac2c-a116-4185-aa86-9f7a80cd1ed7","ios":"levelo://app?vid=65e3ac2c-a116-4185-aa86-9f7a80cd1ed7"},"vehicle_type_id":"4","last_reported":1703837359,"current_range_meters":26000,"station_id":"ce4bho92rcd13ifvqh3g","pricing_plan_id":"free"},{"bike_id":"bb7ca081-6286-4e85-91cb-4c55898a5540","system_id":"levelo_inurba_marseille","lat":43.287154,"lon":5.399979,"is_reserved":false,"is_disabled":false,"rental_uris":{"android":"levelo://app?vid=bb7ca081-6286-4e85-91cb-4c55898a5540","ios":"levelo://app?vid=bb7ca081-6286-4e85-91cb-4c55898a5540"},"vehicle_type_id":"4","last_reported":1703837359,"current_range_meters":25600,"station_id":"ce4bho92rcd13ifvqh3g","pricing_plan_id":"free"},{"bike_id":"1ec792bc-8c87-4e2d-8e43-f8f29613ea13","system_id":"levelo_inurba_marseille","lat":43.320045,"lon":5.415046,"is_reserved":false,"is_disabled":false,"rental_uris":{"android":"levelo://app?vid=1ec792bc-8c87-4e2d-8e43-f8f29613ea13","ios":"levelo://app?vid=1ec792bc-8c87-4e2d-8e43-f8f29613ea13"},"vehicle_type_id":"4","last_reported":1703837359,"current_range_meters":30000,"station_id":"ce4bhq92rcd13ifvqhkg","pricing_plan_id":"free"},{"bike_id":"713c67c9-f128-451f-81e6-044efed61733","system_id":"levelo_inurba_marseille","lat":43.279742,"lon":5.38744,"is_reserved":false,"is_disabled":false,"rental_uris":{"android":"levelo://app?vid=713c67c9-f128-451f-81e6-044efed61733","ios":"levelo://app?vid=713c67c9-f128-451f-81e6-044efed61733"},"vehicle_type_id":"4","last_reported":1703837359,"current_range_meters":29600,"station_id":"ce4bhg12rcd13ifvqf80","pricing_plan_id":"free"},{"bike_id":"0983efcf-e728-44b8-9777-7b8a958f3e0a","system_id":"levelo_inurba_marseille","lat":43.279742,"lon":5.38744,"is_reserved":false,"is_disabled":false,"rental_uris":{"android":"levelo://app?vid=0983efcf-e728-44b8-9777-7b8a958f3e0a","ios":"levelo://app?vid=0983efcf-e728-44b8-9777-7b8a958f3e0a"},"vehicle_type_id":"4","last_reported":1703837359,"current_range_meters":24800,"station_id":"ce4bhg12rcd13ifvqf80","pricing_plan_id":"free"},{"bike_id":"ad080b9b-8424-48df-86f5-835301bcbb00","system_id":"levelo_inurba_marseille","lat":43.279742,"lon":5.38744,"is_reserved":false,"is_disabled":false,"rental_uris":{"android":"levelo://app?vid=ad080b9b-8424-48df-86f5-835301bcbb00","ios":"levelo://app?vid=ad080b9b-8424-48df-86f5-835301bcbb00"},"vehicle_type_id":"4","last_reported":1703837359,"current_range_meters":12400,"station_id":"ce4bhg12rcd13ifvqf80","pricing_plan_id":"free"},{"bike_id":"1bc23da1-87c2-40f7-93c3-fcac5f32d633","system_id":"levelo_inurba_marseille","lat":43.292542,"lon":5.409121,"is_reserved":false,"is_disabled":false,"rental_uris":{"android":"levelo://app?vid=1bc23da1-87c2-40f7-93c3-fcac5f32d633","ios":"levelo://app?vid=1bc23da1-87c2-40f7-93c3-fcac5f32d633"},"vehicle_type_id":"4","last_reported":1703837359,"current_range_meters":20000,"station_id":"ce4bh192rcd13ifvqdc0","pricing_plan_id":"free"},{"bike_id":"1c9f7517-3ceb-4015-b198-eef37a6cc1bc","system_id":"levelo_inurba_marseille","lat":43.27618,"lon":5.361009,"is_reserved":false,"is_disabled":false,"rental_uris":{"android":"levelo://app?vid=1c9f7517-3ceb-4015-b198-eef37a6cc1bc","ios":"levelo://app?vid=1c9f7517-3ceb-4015-b198-eef37a6cc1bc"},"vehicle_type_id":"4","last_reported":1703837359,"current_range_meters":30000,"station_id":"ce4bgj92rcd13ifvqbe0","pricing_plan_id":"free"},{"bike_id":"526046ed-5927-4911-bee7-e9c4a1320b2e","system_id":"levelo_inurba_marseille","lat":43.280849,"lon":5.39653,"is_reserved":false,"is_disabled":false,"rental_uris":{"android":"levelo://app?vid=526046ed-5927-4911-bee7-e9c4a1320b2e","ios":"levelo://app?vid=526046ed-5927-4911-bee7-e9c4a1320b2e"},"vehicle_type_id":"4","last_reported":1703837359,"current_range_meters":15600,"station_id":"ce4bho12rcd13ifvqh2g","pricing_plan_id":"free"},{"bike_id":"e0db9863-9a81-468a-886f-7dbf00b38255","system_id":"levelo_inurba_marseille","lat":43.280784,"lon":5.396622,"is_reserved":false,"is_disabled":false,"rental_uris":{"android":"levelo://app?vid=e0db9863-9a81-468a-886f-7dbf00b38255","ios":"levelo://app?vid=e0db9863-9a81-468a-886f-7dbf00b38255"},"vehicle_type_id":"4","last_reported":1703837359,"current_range_meters":28800,"station_id":"ce4bho12rcd13ifvqh2g","pricing_plan_id":"free"},{"bike_id":"1cfa2c67-3cf0-434b-b356-1136962b5a22","system_id":"levelo_inurba_marseille","lat":43.280784,"lon":5.396622,"is_reserved":false,"is_disabled":false,"rental_uris":{"android":"levelo://app?vid=1cfa2c67-3cf0-434b-b356-1136962b5a22","ios":"levelo://app?vid=1cfa2c67-3cf0-434b-b356-1136962b5a22"},"vehicle_type_id":"4","last_reported":1703837359,"current_range_meters":31200,"station_id":"ce4bho12rcd13ifvqh2g","pricing_plan_id":"free"},{"bike_id":"f877b7f9-dc20-4acb-ab4b-c31fc0a67220","system_id":"levelo_inurba_marseille","lat":43.280784,"lon":5.396622,"is_reserved":false,"is_disabled":false,"rental_uris":{"android":"levelo://app?vid=f877b7f9-dc20-4acb-ab4b-c31fc0a67220","ios":"levelo://app?vid=f877b7f9-dc20-4acb-ab4b-c31fc0a67220"},"vehicle_type_id":"4","last_reported":1703837359,"current_range_meters":15200,"station_id":"ce4bho12rcd13ifvqh2g","pricing_plan_id":"free"},{"bike_id":"2e7c407e-f60d-499d-9404-664b96cbada9","system_id":"levelo_inurba_marseille","lat":43.280784,"lon":5.396622,"is_reserved":false,"is_disabled":false,"rental_uris":{"android":"levelo://app?vid=2e7c407e-f60d-499d-9404-664b96cbada9","ios":"levelo://app?vid=2e7c407e-f60d-499d-9404-664b96cbada9"},"vehicle_type_id":"4","last_reported":1703837359,"current_range_meters":12400,"station_id":"ce4bho12rcd13ifvqh2g","pricing_plan_id":"free"},{"bike_id":"31f2e725-0062-475f-abab-f0b442485cca","system_id":"levelo_inurba_marseille","lat":43.275625,"lon":5.384392,"is_reserved":false,"is_disabled":false,"rental_uris":{"android":"levelo://app?vid=31f2e725-0062-475f-abab-f0b442485cca","ios":"levelo://app?vid=31f2e725-0062-475f-abab-f0b442485cca"},"vehicle_type_id":"4","last_reported":1703837359,"current_range_meters":26000,"station_id":"ce4bhh92rcd13ifvqfi0","pricing_plan_id":"free"},{"bike_id":"385f6825-847e-4940-b675-3f52ce050c6f","system_id":"levelo_inurba_marseille","lat":43.273613,"lon":5.362705,"is_reserved":false,"is_disabled":false,"rental_uris":{"android":"levelo://app?vid=385f6825-847e-4940-b675-3f52ce050c6f","ios":"levelo://app?vid=385f6825-847e-4940-b675-3f52ce050c6f"},"vehicle_type_id":"4","last_reported":1703837359,"current_range_meters":28800,"station_id":"ce4bhbh2rcd13ifvqeo0","pricing_plan_id":"free"},{"bike_id":"91729a13-adb0-4e97-8482-ab5f17e53f57","system_id":"levelo_inurba_marseille","lat":43.273613,"lon":5.362705,"is_reserved":false,"is_disabled":false,"rental_uris":{"android":"levelo://app?vid=91729a13-adb0-4e97-8482-ab5f17e53f57","ios":"levelo://app?vid=91729a13-adb0-4e97-8482-ab5f17e53f57"},"vehicle_type_id":"4","last_reported":1703837359,"current_range_meters":29200,"station_id":"ce4bhbh2rcd13ifvqeo0","pricing_plan_id":"free"},{"bike_id":"1b2ab6c4-1f7a-4224-b871-31abe69e2324","system_id":"levelo_inurba_marseille","lat":43.336134,"lon":5.410341,"is_reserved":false,"is_disabled":false,"rental_uris":{"android":"levelo://app?vid=1b2ab6c4-1f7a-4224-b871-31abe69e2324","ios":"levelo://app?vid=1b2ab6c4-1f7a-4224-b871-31abe69e2324"},"vehicle_type_id":"4","last_reported":1703837359,"current_range_meters":10400,"station_id":"ce4bhqh2rcd13ifvqhmg","pricing_plan_id":"free"},{"bike_id":"fded7ab9-e1d0-44bf-b6e9-de20708360ba","system_id":"levelo_inurba_marseille","lat":43.275625,"lon":5.384392,"is_reserved":false,"is_disabled":false,"rental_uris":{"android":"levelo://app?vid=fded7ab9-e1d0-44bf-b6e9-de20708360ba","ios":"levelo://app?vid=fded7ab9-e1d0-44bf-b6e9-de20708360ba"},"vehicle_type_id":"4","last_reported":1703837359,"current_range_meters":31200,"station_id":"ce4bhh92rcd13ifvqfi0","pricing_plan_id":"free"},{"bike_id":"bfb762c5-97af-4af8-8eeb-487f8b4ee571","system_id":"levelo_inurba_marseille","lat":43.336148,"lon":5.410349,"is_reserved":false,"is_disabled":false,"rental_uris":{"android":"levelo://app?vid=bfb762c5-97af-4af8-8eeb-487f8b4ee571","ios":"levelo://app?vid=bfb762c5-97af-4af8-8eeb-487f8b4ee571"},"vehicle_type_id":"4","last_reported":1703837359,"current_range_meters":30000,"station_id":"ce4bhqh2rcd13ifvqhmg","pricing_plan_id":"free"},{"bike_id":"c9d45cb5-9653-46f2-9667-6753449c6341","system_id":"levelo_inurba_marseille","lat":43.276937,"lon":5.388995,"is_reserved":false,"is_disabled":false,"rental_uris":{"android":"levelo://app?vid=c9d45cb5-9653-46f2-9667-6753449c6341","ios":"levelo://app?vid=c9d45cb5-9653-46f2-9667-6753449c6341"},"vehicle_type_id":"4","last_reported":1703837359,"current_range_meters":19600,"station_id":"ce4bhi12rcd13ifvqfo0","pricing_plan_id":"free"},{"bike_id":"bacb1525-f779-486a-a6f4-a6a5be597f94","system_id":"levelo_inurba_marseille","lat":43.276769,"lon":5.388787,"is_reserved":false,"is_disabled":false,"rental_uris":{"android":"levelo://app?vid=bacb1525-f779-486a-a6f4-a6a5be597f94","ios":"levelo://app?vid=bacb1525-f779-486a-a6f4-a6a5be597f94"},"vehicle_type_id":"4","last_reported":1703837359,"current_range_meters":31200,"station_id":"ce4bhi12rcd13ifvqfo0","pricing_plan_id":"free"},{"bike_id":"0d856b6a-a166-4ce8-99a9-d99a68d17fa5","system_id":"levelo_inurba_marseille","lat":43.27679,"lon":5.38884,"is_reserved":false,"is_disabled":false,"rental_uris":{"android":"levelo://app?vid=0d856b6a-a166-4ce8-99a9-d99a68d17fa5","ios":"levelo://app?vid=0d856b6a-a166-4ce8-99a9-d99a68d17fa5"},"vehicle_type_id":"4","last_reported":1703837359,"current_range_meters":27200,"station_id":"ce4bhi12rcd13ifvqfo0","pricing_plan_id":"free"},{"bike_id":"1aa24b15-9b12-4588-97fb-1cfdd276ecd2","system_id":"levelo_inurba_marseille","lat":43.279975,"lon":5.40009,"is_reserved":false,"is_disabled":false,"rental_uris":{"android":"levelo://app?vid=1aa24b15-9b12-4588-97fb-1cfdd276ecd2","ios":"levelo://app?vid=1aa24b15-9b12-4588-97fb-1cfdd276ecd2"},"vehicle_type_id":"4","last_reported":1703837359,"current_range_meters":25200,"station_id":"ce4bho92rcd13ifvqh4g","pricing_plan_id":"free"},{"bike_id":"7c905b24-8df9-4fc0-ae8b-76c89f50fa23","system_id":"levelo_inurba_marseille","lat":43.279975,"lon":5.40009,"is_reserved":false,"is_disabled":false,"rental_uris":{"android":"levelo://app?vid=7c905b24-8df9-4fc0-ae8b-76c89f50fa23","ios":"levelo://app?vid=7c905b24-8df9-4fc0-ae8b-76c89f50fa23"},"vehicle_type_id":"4","last_reported":1703837359,"current_range_meters":18000,"station_id":"ce4bho92rcd13ifvqh4g","pricing_plan_id":"free"},{"bike_id":"98e75801-6872-4cca-809c-552e18c99a3c","system_id":"levelo_inurba_marseille","lat":43.317121,"lon":5.423936,"is_reserved":false,"is_disabled":false,"rental_uris":{"android":"levelo://app?vid=98e75801-6872-4cca-809c-552e18c99a3c","ios":"levelo://app?vid=98e75801-6872-4cca-809c-552e18c99a3c"},"vehicle_type_id":"4","last_reported":1703837359,"current_range_meters":28800,"station_id":"ce4bhp92rcd13ifvqhbg","pricing_plan_id":"free"},{"bike_id":"8f534724-1afc-4c89-915a-458f0a670a18","system_id":"levelo_inurba_marseille","lat":43.310785,"lon":5.424305,"is_reserved":false,"is_disabled":false,"rental_uris":{"android":"levelo://app?vid=8f534724-1afc-4c89-915a-458f0a670a18","ios":"levelo://app?vid=8f534724-1afc-4c89-915a-458f0a670a18"},"vehicle_type_id":"4","last_reported":1703837359,"current_range_meters":20400,"station_id":"ce4bhp92rcd13ifvqhag","pricing_plan_id":"free"},{"bike_id":"e9ebc297-5690-454c-90ee-c665d575ca1a","system_id":"levelo_inurba_marseille","lat":43.317121,"lon":5.423936,"is_reserved":false,"is_disabled":false,"rental_uris":{"android":"levelo://app?vid=e9ebc297-5690-454c-90ee-c665d575ca1a","ios":"levelo://app?vid=e9ebc297-5690-454c-90ee-c665d575ca1a"},"vehicle_type_id":"4","last_reported":1703837359,"current_range_meters":30400,"station_id":"ce4bhp92rcd13ifvqhbg","pricing_plan_id":"free"},{"bike_id":"1a16c248-260d-4c68-b0d5-f07822219418","system_id":"levelo_inurba_marseille","lat":43.340804,"lon":5.410219,"is_reserved":false,"is_disabled":false,"rental_uris":{"android":"levelo://app?vid=1a16c248-260d-4c68-b0d5-f07822219418","ios":"levelo://app?vid=1a16c248-260d-4c68-b0d5-f07822219418"},"vehicle_type_id":"4","last_reported":1703837359,"current_range_meters":12400,"station_id":"ce4bhqh2rcd13ifvqhlg","pricing_plan_id":"free"},{"bike_id":"73e9490c-78b3-4eab-afcd-25587fc1ed71","system_id":"levelo_inurba_marseille","lat":43.340804,"lon":5.410219,"is_reserved":false,"is_disabled":false,"rental_uris":{"android":"levelo://app?vid=73e9490c-78b3-4eab-afcd-25587fc1ed71","ios":"levelo://app?vid=73e9490c-78b3-4eab-afcd-25587fc1ed71"},"vehicle_type_id":"4","last_reported":1703837359,"current_range_meters":27200,"station_id":"ce4bhqh2rcd13ifvqhlg","pricing_plan_id":"free"},{"bike_id":"e2fd0ea3-8e75-46ed-91dd-141950cbbf81","system_id":"levelo_inurba_marseille","lat":43.340804,"lon":5.410219,"is_reserved":false,"is_disabled":false,"rental_uris":{"android":"levelo://app?vid=e2fd0ea3-8e75-46ed-91dd-141950cbbf81","ios":"levelo://app?vid=e2fd0ea3-8e75-46ed-91dd-141950cbbf81"},"vehicle_type_id":"4","last_reported":1703837359,"current_range_meters":30400,"station_id":"ce4bhqh2rcd13ifvqhlg","pricing_plan_id":"free"},{"bike_id":"d85a7cee-4ef9-409c-8438-1d957d65f770","system_id":"levelo_inurba_marseille","lat":43.273125,"lon":5.390731,"is_reserved":false,"is_disabled":false,"rental_uris":{"android":"levelo://app?vid=d85a7cee-4ef9-409c-8438-1d957d65f770","ios":"levelo://app?vid=d85a7cee-4ef9-409c-8438-1d957d65f770"},"vehicle_type_id":"4","last_reported":1703837359,"current_range_meters":24800,"station_id":"ce4bhgp2rcd13ifvqfe0","pricing_plan_id":"free"},{"bike_id":"bd2fc648-2fdf-4a90-901f-50ca3a621159","system_id":"levelo_inurba_marseille","lat":43.273125,"lon":5.390731,"is_reserved":false,"is_disabled":false,"rental_uris":{"android":"levelo://app?vid=bd2fc648-2fdf-4a90-901f-50ca3a621159","ios":"levelo://app?vid=bd2fc648-2fdf-4a90-901f-50ca3a621159"},"vehicle_type_id":"4","last_reported":1703837359,"current_range_meters":28800,"station_id":"ce4bhgp2rcd13ifvqfe0","pricing_plan_id":"free"},{"bike_id":"aa0c9972-993f-444e-b6f3-b7b5b6314216","system_id":"levelo_inurba_marseille","lat":43.274103,"lon":5.394016,"is_reserved":false,"is_disabled":false,"rental_uris":{"android":"levelo://app?vid=aa0c9972-993f-444e-b6f3-b7b5b6314216","ios":"levelo://app?vid=aa0c9972-993f-444e-b6f3-b7b5b6314216"},"vehicle_type_id":"4","last_reported":1703837359,"current_range_meters":26000,"station_id":"ce4bhdp2rcd13ifvqf20","pricing_plan_id":"free"},{"bike_id":"21460e86-4a1f-4073-ad85-4ee62650f54c","system_id":"levelo_inurba_marseille","lat":43.274103,"lon":5.394016,"is_reserved":false,"is_disabled":false,"rental_uris":{"android":"levelo://app?vid=21460e86-4a1f-4073-ad85-4ee62650f54c","ios":"levelo://app?vid=21460e86-4a1f-4073-ad85-4ee62650f54c"},"vehicle_type_id":"4","last_reported":1703837359,"current_range_meters":29200,"station_id":"ce4bhdp2rcd13ifvqf20","pricing_plan_id":"free"},{"bike_id":"793765ed-a82f-4343-960f-a319f4976f03","system_id":"levelo_inurba_marseille","lat":43.273129,"lon":5.390725,"is_reserved":false,"is_disabled":false,"rental_uris":{"android":"levelo://app?vid=793765ed-a82f-4343-960f-a319f4976f03","ios":"levelo://app?vid=793765ed-a82f-4343-960f-a319f4976f03"},"vehicle_type_id":"4","last_reported":1703837359,"current_range_meters":22000,"station_id":"ce4bhgp2rcd13ifvqfe0","pricing_plan_id":"free"},{"bike_id":"7a66a28e-aeb4-48e9-8cc8-f232ccfb7b07","system_id":"levelo_inurba_marseille","lat":43.273125,"lon":5.390731,"is_reserved":false,"is_disabled":false,"rental_uris":{"android":"levelo://app?vid=7a66a28e-aeb4-48e9-8cc8-f232ccfb7b07","ios":"levelo://app?vid=7a66a28e-aeb4-48e9-8cc8-f232ccfb7b07"},"vehicle_type_id":"4","last_reported":1703837359,"current_range_meters":26400,"station_id":"ce4bhgp2rcd13ifvqfe0","pricing_plan_id":"free"},{"bike_id":"8bdbf0de-aec8-4801-af02-8f31585d8db7","system_id":"levelo_inurba_marseille","lat":43.274099,"lon":5.394019,"is_reserved":false,"is_disabled":false,"rental_uris":{"android":"levelo://app?vid=8bdbf0de-aec8-4801-af02-8f31585d8db7","ios":"levelo://app?vid=8bdbf0de-aec8-4801-af02-8f31585d8db7"},"vehicle_type_id":"4","last_reported":1703837359,"current_range_meters":30800,"station_id":"ce4bhdp2rcd13ifvqf20","pricing_plan_id":"free"},{"bike_id":"d2fbed49-e56c-491d-9e61-f589a48af637","system_id":"levelo_inurba_marseille","lat":43.304096,"lon":5.425385,"is_reserved":false,"is_disabled":false,"rental_uris":{"android":"levelo://app?vid=d2fbed49-e56c-491d-9e61-f589a48af637","ios":"levelo://app?vid=d2fbed49-e56c-491d-9e61-f589a48af637"},"vehicle_type_id":"4","last_reported":1703837359,"current_range_meters":15200,"station_id":"ce4bhoh2rcd13ifvqh6g","pricing_plan_id":"free"},{"bike_id":"1f567e76-852e-4aa1-8421-e0a7af417c26","system_id":"levelo_inurba_marseille","lat":43.304096,"lon":5.425385,"is_reserved":false,"is_disabled":false,"rental_uris":{"android":"levelo://app?vid=1f567e76-852e-4aa1-8421-e0a7af417c26","ios":"levelo://app?vid=1f567e76-852e-4aa1-8421-e0a7af417c26"},"vehicle_type_id":"4","last_reported":1703837359,"current_range_meters":29200,"station_id":"ce4bhoh2rcd13ifvqh6g","pricing_plan_id":"free"},{"bike_id":"e43782e5-9b2d-4e13-9246-2452f501c0ed","system_id":"levelo_inurba_marseille","lat":43.274954,"lon":5.397473,"is_reserved":false,"is_disabled":false,"rental_uris":{"android":"levelo://app?vid=e43782e5-9b2d-4e13-9246-2452f501c0ed","ios":"levelo://app?vid=e43782e5-9b2d-4e13-9246-2452f501c0ed"},"vehicle_type_id":"4","last_reported":1703837359,"current_range_meters":24400,"station_id":"","pricing_plan_id":"free"},{"bike_id":"e192df68-2c2b-482d-b6fd-3b8920434290","system_id":"levelo_inurba_marseille","lat":43.29552,"lon":5.422807,"is_reserved":false,"is_disabled":false,"rental_uris":{"android":"levelo://app?vid=e192df68-2c2b-482d-b6fd-3b8920434290","ios":"levelo://app?vid=e192df68-2c2b-482d-b6fd-3b8920434290"},"vehicle_type_id":"4","last_reported":1703837359,"current_range_meters":19200,"station_id":"ce4bhph2rcd13ifvqhdg","pricing_plan_id":"free"},{"bike_id":"bfa9dde3-1a6d-4662-8145-c001dc22b7f9","system_id":"levelo_inurba_marseille","lat":43.295511,"lon":5.422926,"is_reserved":false,"is_disabled":false,"rental_uris":{"android":"levelo://app?vid=bfa9dde3-1a6d-4662-8145-c001dc22b7f9","ios":"levelo://app?vid=bfa9dde3-1a6d-4662-8145-c001dc22b7f9"},"vehicle_type_id":"4","last_reported":1703837359,"current_range_meters":27600,"station_id":"ce4bhph2rcd13ifvqhdg","pricing_plan_id":"free"},{"bike_id":"0c41bc08-49fa-41b0-83dd-5c7480a15cc6","system_id":"levelo_inurba_marseille","lat":43.295597,"lon":5.422941,"is_reserved":false,"is_disabled":false,"rental_uris":{"android":"levelo://app?vid=0c41bc08-49fa-41b0-83dd-5c7480a15cc6","ios":"levelo://app?vid=0c41bc08-49fa-41b0-83dd-5c7480a15cc6"},"vehicle_type_id":"4","last_reported":1703837359,"current_range_meters":28000,"station_id":"ce4bhph2rcd13ifvqhdg","pricing_plan_id":"free"},{"bike_id":"0375cb33-1069-488a-adfb-35aa9b90f4d5","system_id":"levelo_inurba_marseille","lat":43.269467,"lon":5.386439,"is_reserved":false,"is_disabled":false,"rental_uris":{"android":"levelo://app?vid=0375cb33-1069-488a-adfb-35aa9b90f4d5","ios":"levelo://app?vid=0375cb33-1069-488a-adfb-35aa9b90f4d5"},"vehicle_type_id":"4","last_reported":1703837359,"current_range_meters":26000,"station_id":"ce4bhh92rcd13ifvqfh0","pricing_plan_id":"free"},{"bike_id":"f447d391-3615-4e02-9cbf-a1417fec2e76","system_id":"levelo_inurba_marseille","lat":43.269467,"lon":5.386439,"is_reserved":false,"is_disabled":false,"rental_uris":{"android":"levelo://app?vid=f447d391-3615-4e02-9cbf-a1417fec2e76","ios":"levelo://app?vid=f447d391-3615-4e02-9cbf-a1417fec2e76"},"vehicle_type_id":"4","last_reported":1703837359,"current_range_meters":26400,"station_id":"ce4bhh92rcd13ifvqfh0","pricing_plan_id":"free"},{"bike_id":"7076aac3-de59-4cea-a718-8e5b7cb8745f","system_id":"levelo_inurba_marseille","lat":43.269467,"lon":5.386439,"is_reserved":false,"is_disabled":false,"rental_uris":{"android":"levelo://app?vid=7076aac3-de59-4cea-a718-8e5b7cb8745f","ios":"levelo://app?vid=7076aac3-de59-4cea-a718-8e5b7cb8745f"},"vehicle_type_id":"4","last_reported":1703837359,"current_range_meters":27200,"station_id":"ce4bhh92rcd13ifvqfh0","pricing_plan_id":"free"},{"bike_id":"1d79346a-491f-4e84-855d-63b0b7ff8971","system_id":"levelo_inurba_marseille","lat":43.279465,"lon":5.410561,"is_reserved":false,"is_disabled":false,"rental_uris":{"android":"levelo://app?vid=1d79346a-491f-4e84-855d-63b0b7ff8971","ios":"levelo://app?vid=1d79346a-491f-4e84-855d-63b0b7ff8971"},"vehicle_type_id":"4","last_reported":1703837359,"current_range_meters":30000,"station_id":"ce4bhnp2rcd13ifvqh0g","pricing_plan_id":"free"},{"bike_id":"11046fbb-8cc9-4918-8659-0a55c3660453","system_id":"levelo_inurba_marseille","lat":43.279465,"lon":5.410561,"is_reserved":false,"is_disabled":false,"rental_uris":{"android":"levelo://app?vid=11046fbb-8cc9-4918-8659-0a55c3660453","ios":"levelo://app?vid=11046fbb-8cc9-4918-8659-0a55c3660453"},"vehicle_type_id":"4","last_reported":1703837359,"current_range_meters":23600,"station_id":"ce4bhnp2rcd13ifvqh0g","pricing_plan_id":"free"},{"bike_id":"2356b3e9-09ec-4cdd-a447-a974134d80a1","system_id":"levelo_inurba_marseille","lat":43.279407,"lon":5.410384,"is_reserved":false,"is_disabled":false,"rental_uris":{"android":"levelo://app?vid=2356b3e9-09ec-4cdd-a447-a974134d80a1","ios":"levelo://app?vid=2356b3e9-09ec-4cdd-a447-a974134d80a1"},