{"last_updated":1685390805,"ttl":30,"version":"2.2","data":{"bikes":[{"bike_id":"bc88529e-534d-458b-9e32-0b9331c9a0bd","system_id":"levelo_inurba_marseille","lat":43.312239,"lon":5.368562,"is_reserved":false,"is_disabled":false,"rental_uris":{"android":"levelo://app?vid=bc88529e-534d-458b-9e32-0b9331c9a0bd","ios":"levelo://app?vid=bc88529e-534d-458b-9e32-0b9331c9a0bd"},"vehicle_type_id":"4","last_reported":1685390806,"current_range_meters":10800,"station_id":"ce4bgl92rcd13ifvqbq0","pricing_plan_id":"free"},{"bike_id":"6a1b2239-b3ba-4402-9bf6-1b600d0c9e36","system_id":"levelo_inurba_marseille","lat":43.312239,"lon":5.368562,"is_reserved":false,"is_disabled":false,"rental_uris":{"android":"levelo://app?vid=6a1b2239-b3ba-4402-9bf6-1b600d0c9e36","ios":"levelo://app?vid=6a1b2239-b3ba-4402-9bf6-1b600d0c9e36"},"vehicle_type_id":"4","last_reported":1685390806,"current_range_meters":11600,"station_id":"ce4bgl92rcd13ifvqbq0","pricing_plan_id":"free"},{"bike_id":"5ce57644-4ffa-47e2-8542-af764691264c","system_id":"levelo_inurba_marseille","lat":43.31219,"lon":5.37204,"is_reserved":false,"is_disabled":false,"rental_uris":{"android":"levelo://app?vid=5ce57644-4ffa-47e2-8542-af764691264c","ios":"levelo://app?vid=5ce57644-4ffa-47e2-8542-af764691264c"},"vehicle_type_id":"4","last_reported":1685390806,"current_range_meters":6400,"station_id":"ce4bhr92rcd13ifvqhrg","pricing_plan_id":"free"},{"bike_id":"8d799229-31df-4f01-82ed-756d60aa097f","system_id":"levelo_inurba_marseille","lat":43.309076,"lon":5.368465,"is_reserved":false,"is_disabled":false,"rental_uris":{"android":"levelo://app?vid=8d799229-31df-4f01-82ed-756d60aa097f","ios":"levelo://app?vid=8d799229-31df-4f01-82ed-756d60aa097f"},"vehicle_type_id":"4","last_reported":1685390806,"current_range_meters":6400,"station_id":"ce4bgn92rcd13ifvqbvg","pricing_plan_id":"free"},{"bike_id":"70f66029-645b-4138-a2bc-3d594c327735","system_id":"levelo_inurba_marseille","lat":43.309076,"lon":5.368465,"is_reserved":false,"is_disabled":false,"rental_uris":{"android":"levelo://app?vid=70f66029-645b-4138-a2bc-3d594c327735","ios":"levelo://app?vid=70f66029-645b-4138-a2bc-3d594c327735"},"vehicle_type_id":"4","last_reported":1685390806,"current_range_meters":14400,"station_id":"ce4bgn92rcd13ifvqbvg","pricing_plan_id":"free"},{"bike_id":"4a1c549e-1914-490f-8591-754bbe74071c","system_id":"levelo_inurba_marseille","lat":43.314811,"lon":5.373103,"is_reserved":false,"is_disabled":false,"rental_uris":{"android":"levelo://app?vid=4a1c549e-1914-490f-8591-754bbe74071c","ios":"levelo://app?vid=4a1c549e-1914-490f-8591-754bbe74071c"},"vehicle_type_id":"4","last_reported":1685390806,"current_range_meters":11200,"station_id":"ce4bgt12rcd13ifvqcd0","pricing_plan_id":"free"},{"bike_id":"93c71f89-b3ce-4a2a-8f82-254cbc3b5840","system_id":"levelo_inurba_marseille","lat":43.314811,"lon":5.373104,"is_reserved":false,"is_disabled":false,"rental_uris":{"android":"levelo://app?vid=93c71f89-b3ce-4a2a-8f82-254cbc3b5840","ios":"levelo://app?vid=93c71f89-b3ce-4a2a-8f82-254cbc3b5840"},"vehicle_type_id":"4","last_reported":1685390806,"current_range_meters":31200,"station_id":"ce4bgt12rcd13ifvqcd0","pricing_plan_id":"free"},{"bike_id":"d226e977-3f0b-4b0c-a0e0-157c44aec210","system_id":"levelo_inurba_marseille","lat":43.31493,"lon":5.37309,"is_reserved":false,"is_disabled":false,"rental_uris":{"android":"levelo://app?vid=d226e977-3f0b-4b0c-a0e0-157c44aec210","ios":"levelo://app?vid=d226e977-3f0b-4b0c-a0e0-157c44aec210"},"vehicle_type_id":"4","last_reported":1685390806,"current_range_meters":26800,"station_id":"ce4bgt12rcd13ifvqcd0","pricing_plan_id":"free"},{"bike_id":"1b000bd2-4a72-44c5-a438-9d6ecfb521e0","system_id":"levelo_inurba_marseille","lat":43.308614,"lon":5.372098,"is_reserved":false,"is_disabled":false,"rental_uris":{"android":"levelo://app?vid=1b000bd2-4a72-44c5-a438-9d6ecfb521e0","ios":"levelo://app?vid=1b000bd2-4a72-44c5-a438-9d6ecfb521e0"},"vehicle_type_id":"4","last_reported":1685390806,"current_range_meters":22400,"station_id":"ce4bguh2rcd13ifvqckg","pricing_plan_id":"free"},{"bike_id":"9d181687-a99c-458d-b32c-4292e8408e42","system_id":"levelo_inurba_marseille","lat":43.305989,"lon":5.37225,"is_reserved":false,"is_disabled":false,"rental_uris":{"android":"levelo://app?vid=9d181687-a99c-458d-b32c-4292e8408e42","ios":"levelo://app?vid=9d181687-a99c-458d-b32c-4292e8408e42"},"vehicle_type_id":"4","last_reported":1685390806,"current_range_meters":9200,"station_id":"ce4bgqh2rcd13ifvqc4g","pricing_plan_id":"free"},{"bike_id":"1ce5a1f7-af14-46c4-b601-7ff78ea14ef9","system_id":"levelo_inurba_marseille","lat":43.311125,"lon":5.377624,"is_reserved":false,"is_disabled":false,"rental_uris":{"android":"levelo://app?vid=1ce5a1f7-af14-46c4-b601-7ff78ea14ef9","ios":"levelo://app?vid=1ce5a1f7-af14-46c4-b601-7ff78ea14ef9"},"vehicle_type_id":"4","last_reported":1685390806,"current_range_meters":7600,"station_id":"ce4bgt92rcd13ifvqcg0","pricing_plan_id":"free"},{"bike_id":"37a85ad5-7654-4f7c-91cb-95c4eda6da41","system_id":"levelo_inurba_marseille","lat":43.30431,"lon":5.36629,"is_reserved":false,"is_disabled":false,"rental_uris":{"android":"levelo://app?vid=37a85ad5-7654-4f7c-91cb-95c4eda6da41","ios":"levelo://app?vid=37a85ad5-7654-4f7c-91cb-95c4eda6da41"},"vehicle_type_id":"4","last_reported":1685390806,"current_range_meters":0,"station_id":"","pricing_plan_id":"free"},{"bike_id":"dfff3356-fafb-4e6d-af8e-de454bc768ab","system_id":"levelo_inurba_marseille","lat":43.315289,"lon":5.380349,"is_reserved":false,"is_disabled":false,"rental_uris":{"android":"levelo://app?vid=dfff3356-fafb-4e6d-af8e-de454bc768ab","ios":"levelo://app?vid=dfff3356-fafb-4e6d-af8e-de454bc768ab"},"vehicle_type_id":"4","last_reported":1685390806,"current_range_meters":0,"station_id":"ce4bhsp2rcd13ifvqi50","pricing_plan_id":"free"},{"bike_id":"8a31a765-c1d2-476d-838a-d099ee5fa1c0","system_id":"levelo_inurba_marseille","lat":43.315289,"lon":5.380349,"is_reserved":false,"is_disabled":false,"rental_uris":{"android":"levelo://app?vid=8a31a765-c1d2-476d-838a-d099ee5fa1c0","ios":"levelo://app?vid=8a31a765-c1d2-476d-838a-d099ee5fa1c0"},"vehicle_type_id":"4","last_reported":1685390806,"current_range_meters":4400,"station_id":"ce4bhsp2rcd13ifvqi50","pricing_plan_id":"free"},{"bike_id":"d03dfde3-848d-4a12-b8c5-302f4c16e8c3","system_id":"levelo_inurba_marseille","lat":43.3156,"lon":5.38059,"is_reserved":false,"is_disabled":false,"rental_uris":{"android":"levelo://app?vid=d03dfde3-848d-4a12-b8c5-302f4c16e8c3","ios":"levelo://app?vid=d03dfde3-848d-4a12-b8c5-302f4c16e8c3"},"vehicle_type_id":"4","last_reported":1685390806,"current_range_meters":16400,"station_id":"","pricing_plan_id":"free"},{"bike_id":"8ee53efb-2fb0-4d4a-8c86-f2d27fd20abf","system_id":"levelo_inurba_marseille","lat":43.308012,"lon":5.381511,"is_reserved":false,"is_disabled":false,"rental_uris":{"android":"levelo://app?vid=8ee53efb-2fb0-4d4a-8c86-f2d27fd20abf","ios":"levelo://app?vid=8ee53efb-2fb0-4d4a-8c86-f2d27fd20abf"},"vehicle_type_id":"4","last_reported":1685390806,"current_range_meters":2000,"station_id":"ce4bgt12rcd13ifvqce0","pricing_plan_id":"free"},{"bike_id":"32183d42-7851-475d-8962-7a2f2dce4179","system_id":"levelo_inurba_marseille","lat":43.304606,"lon":5.379026,"is_reserved":false,"is_disabled":false,"rental_uris":{"android":"levelo://app?vid=32183d42-7851-475d-8962-7a2f2dce4179","ios":"levelo://app?vid=32183d42-7851-475d-8962-7a2f2dce4179"},"vehicle_type_id":"4","last_reported":1685390806,"current_range_meters":1200,"station_id":"ce4bgup2rcd13ifvqcn0","pricing_plan_id":"free"},{"bike_id":"a7669bd0-3fd2-4807-baa4-8c12eb778a84","system_id":"levelo_inurba_marseille","lat":43.304606,"lon":5.379026,"is_reserved":false,"is_disabled":false,"rental_uris":{"android":"levelo://app?vid=a7669bd0-3fd2-4807-baa4-8c12eb778a84","ios":"levelo://app?vid=a7669bd0-3fd2-4807-baa4-8c12eb778a84"},"vehicle_type_id":"4","last_reported":1685390806,"current_range_meters":7600,"station_id":"ce4bgup2rcd13ifvqcn0","pricing_plan_id":"free"},{"bike_id":"c2bec32a-a73a-4e24-a2e0-568533278983","system_id":"levelo_inurba_marseille","lat":43.304606,"lon":5.379026,"is_reserved":false,"is_disabled":false,"rental_uris":{"android":"levelo://app?vid=c2bec32a-a73a-4e24-a2e0-568533278983","ios":"levelo://app?vid=c2bec32a-a73a-4e24-a2e0-568533278983"},"vehicle_type_id":"4","last_reported":1685390806,"current_range_meters":7600,"station_id":"ce4bgup2rcd13ifvqcn0","pricing_plan_id":"free"},{"bike_id":"609800e7-ebed-423b-ab9a-24d2a319c353","system_id":"levelo_inurba_marseille","lat":43.304606,"lon":5.379026,"is_reserved":false,"is_disabled":false,"rental_uris":{"android":"levelo://app?vid=609800e7-ebed-423b-ab9a-24d2a319c353","ios":"levelo://app?vid=609800e7-ebed-423b-ab9a-24d2a319c353"},"vehicle_type_id":"4","last_reported":1685390806,"current_range_meters":19200,"station_id":"ce4bgup2rcd13ifvqcn0","pricing_plan_id":"free"},{"bike_id":"c400e462-a4de-4542-ac86-b99081db2f1e","system_id":"levelo_inurba_marseille","lat":43.31638,"lon":5.38321,"is_reserved":false,"is_disabled":false,"rental_uris":{"android":"levelo://app?vid=c400e462-a4de-4542-ac86-b99081db2f1e","ios":"levelo://app?vid=c400e462-a4de-4542-ac86-b99081db2f1e"},"vehicle_type_id":"4","last_reported":1685390806,"current_range_meters":8800,"station_id":"","pricing_plan_id":"free"},{"bike_id":"d11da2d4-50ab-475d-a497-999f76f85bd5","system_id":"levelo_inurba_marseille","lat":43.3164,"lon":5.38332,"is_reserved":false,"is_disabled":false,"rental_uris":{"android":"levelo://app?vid=d11da2d4-50ab-475d-a497-999f76f85bd5","ios":"levelo://app?vid=d11da2d4-50ab-475d-a497-999f76f85bd5"},"vehicle_type_id":"4","last_reported":1685390806,"current_range_meters":20800,"station_id":"","pricing_plan_id":"free"},{"bike_id":"f9192e4d-971e-4e40-81bf-588a6fd11389","system_id":"levelo_inurba_marseille","lat":43.31994,"lon":5.38151,"is_reserved":false,"is_disabled":false,"rental_uris":{"android":"levelo://app?vid=f9192e4d-971e-4e40-81bf-588a6fd11389","ios":"levelo://app?vid=f9192e4d-971e-4e40-81bf-588a6fd11389"},"vehicle_type_id":"4","last_reported":1685390806,"current_range_meters":4400,"station_id":"ce4bhr12rcd13ifvqhpg","pricing_plan_id":"free"},{"bike_id":"ac29a3e2-3de3-4ef9-a505-87d7fa405400","system_id":"levelo_inurba_marseille","lat":43.319935,"lon":5.381699,"is_reserved":false,"is_disabled":false,"rental_uris":{"android":"levelo://app?vid=ac29a3e2-3de3-4ef9-a505-87d7fa405400","ios":"levelo://app?vid=ac29a3e2-3de3-4ef9-a505-87d7fa405400"},"vehicle_type_id":"4","last_reported":1685390806,"current_range_meters":6800,"station_id":"ce4bhr12rcd13ifvqhpg","pricing_plan_id":"free"},{"bike_id":"2b59d5aa-c585-4cc7-8cd7-ecacf95a3812","system_id":"levelo_inurba_marseille","lat":43.319935,"lon":5.381699,"is_reserved":false,"is_disabled":false,"rental_uris":{"android":"levelo://app?vid=2b59d5aa-c585-4cc7-8cd7-ecacf95a3812","ios":"levelo://app?vid=2b59d5aa-c585-4cc7-8cd7-ecacf95a3812"},"vehicle_type_id":"4","last_reported":1685390806,"current_range_meters":2800,"station_id":"ce4bhr12rcd13ifvqhpg","pricing_plan_id":"free"},{"bike_id":"52631d07-b792-4214-80a5-76d54590b90e","system_id":"levelo_inurba_marseille","lat":43.29785,"lon":5.371,"is_reserved":false,"is_disabled":false,"rental_uris":{"android":"levelo://app?vid=52631d07-b792-4214-80a5-76d54590b90e","ios":"levelo://app?vid=52631d07-b792-4214-80a5-76d54590b90e"},"vehicle_type_id":"4","last_reported":1685390806,"current_range_meters":0,"station_id":"ce4bgop2rcd13ifvqc1g","pricing_plan_id":"free"},{"bike_id":"41ae650f-8a5e-46ee-a73e-41d658cb3d30","system_id":"levelo_inurba_marseille","lat":43.297774,"lon":5.370875,"is_reserved":false,"is_disabled":false,"rental_uris":{"android":"levelo://app?vid=41ae650f-8a5e-46ee-a73e-41d658cb3d30","ios":"levelo://app?vid=41ae650f-8a5e-46ee-a73e-41d658cb3d30"},"vehicle_type_id":"4","last_reported":1685390806,"current_range_meters":18400,"station_id":"ce4bgop2rcd13ifvqc1g","pricing_plan_id":"free"},{"bike_id":"1ec1dde0-b812-4c1e-9e22-a25041461290","system_id":"levelo_inurba_marseille","lat":43.297774,"lon":5.370875,"is_reserved":false,"is_disabled":false,"rental_uris":{"android":"levelo://app?vid=1ec1dde0-b812-4c1e-9e22-a25041461290","ios":"levelo://app?vid=1ec1dde0-b812-4c1e-9e22-a25041461290"},"vehicle_type_id":"4","last_reported":1685390806,"current_range_meters":8400,"station_id":"ce4bgop2rcd13ifvqc1g","pricing_plan_id":"free"},{"bike_id":"5895156f-f83a-4b54-a0b5-57f02c18ef1a","system_id":"levelo_inurba_marseille","lat":43.32823,"lon":5.36678,"is_reserved":false,"is_disabled":false,"rental_uris":{"android":"levelo://app?vid=5895156f-f83a-4b54-a0b5-57f02c18ef1a","ios":"levelo://app?vid=5895156f-f83a-4b54-a0b5-57f02c18ef1a"},"vehicle_type_id":"4","last_reported":1685390806,"current_range_meters":20800,"station_id":"ce4bhs92rcd13ifvqi0g","pricing_plan_id":"free"},{"bike_id":"bfcee4c7-8dc0-4f3e-a9f5-26101145ee75","system_id":"levelo_inurba_marseille","lat":43.29719,"lon":5.36609,"is_reserved":false,"is_disabled":false,"rental_uris":{"android":"levelo://app?vid=bfcee4c7-8dc0-4f3e-a9f5-26101145ee75","ios":"levelo://app?vid=bfcee4c7-8dc0-4f3e-a9f5-26101145ee75"},"vehicle_type_id":"4","last_reported":1685390806,"current_range_meters":4800,"station_id":"","pricing_plan_id":"free"},{"bike_id":"adce169d-1db5-4afc-96a1-07474fb14d13","system_id":"levelo_inurba_marseille","lat":43.29573,"lon":5.367355,"is_reserved":false,"is_disabled":false,"rental_uris":{"android":"levelo://app?vid=adce169d-1db5-4afc-96a1-07474fb14d13","ios":"levelo://app?vid=adce169d-1db5-4afc-96a1-07474fb14d13"},"vehicle_type_id":"4","last_reported":1685390806,"current_range_meters":29600,"station_id":"ce4bgph2rcd13ifvqc2g","pricing_plan_id":"free"},{"bike_id":"574190e5-850d-4dd1-8eea-8ea5be63aef3","system_id":"levelo_inurba_marseille","lat":43.309589,"lon":5.390258,"is_reserved":false,"is_disabled":false,"rental_uris":{"android":"levelo://app?vid=574190e5-850d-4dd1-8eea-8ea5be63aef3","ios":"levelo://app?vid=574190e5-850d-4dd1-8eea-8ea5be63aef3"},"vehicle_type_id":"4","last_reported":1685390806,"current_range_meters":0,"station_id":"ce4bgup2rcd13ifvqco0","pricing_plan_id":"free"},{"bike_id":"59374a13-2c80-406c-ba0e-9dcfebaddfa2","system_id":"levelo_inurba_marseille","lat":43.309589,"lon":5.390258,"is_reserved":false,"is_disabled":false,"rental_uris":{"android":"levelo://app?vid=59374a13-2c80-406c-ba0e-9dcfebaddfa2","ios":"levelo://app?vid=59374a13-2c80-406c-ba0e-9dcfebaddfa2"},"vehicle_type_id":"4","last_reported":1685390806,"current_range_meters":27200,"station_id":"ce4bgup2rcd13ifvqco0","pricing_plan_id":"free"},{"bike_id":"de3f0e0c-d381-48d6-a614-a388ddde6937","system_id":"levelo_inurba_marseille","lat":43.309589,"lon":5.390258,"is_reserved":false,"is_disabled":false,"rental_uris":{"android":"levelo://app?vid=de3f0e0c-d381-48d6-a614-a388ddde6937","ios":"levelo://app?vid=de3f0e0c-d381-48d6-a614-a388ddde6937"},"vehicle_type_id":"4","last_reported":1685390806,"current_range_meters":22000,"station_id":"ce4bgup2rcd13ifvqco0","pricing_plan_id":"free"},{"bike_id":"2ebe01c2-de39-4446-9001-e610b13722a5","system_id":"levelo_inurba_marseille","lat":43.317557,"lon":5.390173,"is_reserved":false,"is_disabled":false,"rental_uris":{"android":"levelo://app?vid=2ebe01c2-de39-4446-9001-e610b13722a5","ios":"levelo://app?vid=2ebe01c2-de39-4446-9001-e610b13722a5"},"vehicle_type_id":"4","last_reported":1685390806,"current_range_meters":16800,"station_id":"ce4bhqp2rcd13ifvqhng","pricing_plan_id":"free"},{"bike_id":"6b07a2c2-72f9-4bb0-bdd5-ebd34c6a238b","system_id":"levelo_inurba_marseille","lat":43.298037,"lon":5.381066,"is_reserved":false,"is_disabled":false,"rental_uris":{"android":"levelo://app?vid=6b07a2c2-72f9-4bb0-bdd5-ebd34c6a238b","ios":"levelo://app?vid=6b07a2c2-72f9-4bb0-bdd5-ebd34c6a238b"},"vehicle_type_id":"4","last_reported":1685390806,"current_range_meters":0,"station_id":"ce4bgip2rcd13ifvqbb0","pricing_plan_id":"free"},{"bike_id":"030488b7-4f35-4cf6-8f1f-46f8b67d8c8c","system_id":"levelo_inurba_marseille","lat":43.299717,"lon":5.384845,"is_reserved":false,"is_disabled":false,"rental_uris":{"android":"levelo://app?vid=030488b7-4f35-4cf6-8f1f-46f8b67d8c8c","ios":"levelo://app?vid=030488b7-4f35-4cf6-8f1f-46f8b67d8c8c"},"vehicle_type_id":"4","last_reported":1685390806,"current_range_meters":0,"station_id":"ce4bgj92rcd13ifvqbd0","pricing_plan_id":"free"},{"bike_id":"26fbc97d-2c51-492a-b899-f225a4287553","system_id":"levelo_inurba_marseille","lat":43.295279,"lon":5.375048,"is_reserved":false,"is_disabled":false,"rental_uris":{"android":"levelo://app?vid=26fbc97d-2c51-492a-b899-f225a4287553","ios":"levelo://app?vid=26fbc97d-2c51-492a-b899-f225a4287553"},"vehicle_type_id":"4","last_reported":1685390806,"current_range_meters":13600,"station_id":"ce4bgkp2rcd13ifvqbmg","pricing_plan_id":"free"},{"bike_id":"1e5e5a1b-3ff7-4bf0-a472-e7355e0e1009","system_id":"levelo_inurba_marseille","lat":43.299724,"lon":5.384848,"is_reserved":false,"is_disabled":false,"rental_uris":{"android":"levelo://app?vid=1e5e5a1b-3ff7-4bf0-a472-e7355e0e1009","ios":"levelo://app?vid=1e5e5a1b-3ff7-4bf0-a472-e7355e0e1009"},"vehicle_type_id":"4","last_reported":1685390806,"current_range_meters":6000,"station_id":"ce4bgj92rcd13ifvqbd0","pricing_plan_id":"free"},{"bike_id":"92cf922f-ef0f-416d-9345-ca71cd2c7e3c","system_id":"levelo_inurba_marseille","lat":43.299717,"lon":5.384845,"is_reserved":false,"is_disabled":false,"rental_uris":{"android":"levelo://app?vid=92cf922f-ef0f-416d-9345-ca71cd2c7e3c","ios":"levelo://app?vid=92cf922f-ef0f-416d-9345-ca71cd2c7e3c"},"vehicle_type_id":"4","last_reported":1685390806,"current_range_meters":5200,"station_id":"ce4bgj92rcd13ifvqbd0","pricing_plan_id":"free"},{"bike_id":"5624d85a-a817-4fb2-ac8c-948ad3cafecb","system_id":"levelo_inurba_marseille","lat":43.299717,"lon":5.384845,"is_reserved":false,"is_disabled":false,"rental_uris":{"android":"levelo://app?vid=5624d85a-a817-4fb2-ac8c-948ad3cafecb","ios":"levelo://app?vid=5624d85a-a817-4fb2-ac8c-948ad3cafecb"},"vehicle_type_id":"4","last_reported":1685390806,"current_range_meters":5600,"station_id":"ce4bgj92rcd13ifvqbd0","pricing_plan_id":"free"},{"bike_id":"db9d0b8c-a66e-4144-a40d-f2a5f8a93f17","system_id":"levelo_inurba_marseille","lat":43.29791,"lon":5.38354,"is_reserved":false,"is_disabled":false,"rental_uris":{"android":"levelo://app?vid=db9d0b8c-a66e-4144-a40d-f2a5f8a93f17","ios":"levelo://app?vid=db9d0b8c-a66e-4144-a40d-f2a5f8a93f17"},"vehicle_type_id":"4","last_reported":1685390806,"current_range_meters":5200,"station_id":"","pricing_plan_id":"free"},{"bike_id":"6345f779-7590-4ebf-81b7-14a3c3a95e37","system_id":"levelo_inurba_marseille","lat":43.32367,"lon":5.388836,"is_reserved":false,"is_disabled":false,"rental_uris":{"android":"levelo://app?vid=6345f779-7590-4ebf-81b7-14a3c3a95e37","ios":"levelo://app?vid=6345f779-7590-4ebf-81b7-14a3c3a95e37"},"vehicle_type_id":"4","last_reported":1685390806,"current_range_meters":4400,"station_id":"ce4bhqp2rcd13ifvqhog","pricing_plan_id":"free"},{"bike_id":"00c9b202-b5b6-4f69-8084-db1f9466ee79","system_id":"levelo_inurba_marseille","lat":43.32367,"lon":5.388836,"is_reserved":false,"is_disabled":false,"rental_uris":{"android":"levelo://app?vid=00c9b202-b5b6-4f69-8084-db1f9466ee79","ios":"levelo://app?vid=00c9b202-b5b6-4f69-8084-db1f9466ee79"},"vehicle_type_id":"4","last_reported":1685390806,"current_range_meters":24400,"station_id":"ce4bhqp2rcd13ifvqhog","pricing_plan_id":"free"},{"bike_id":"d1ab7cdd-c6a3-4e43-a50c-3d50e564a673","system_id":"levelo_inurba_marseille","lat":43.32367,"lon":5.388836,"is_reserved":false,"is_disabled":false,"rental_uris":{"android":"levelo://app?vid=d1ab7cdd-c6a3-4e43-a50c-3d50e564a673","ios":"levelo://app?vid=d1ab7cdd-c6a3-4e43-a50c-3d50e564a673"},"vehicle_type_id":"4","last_reported":1685390806,"current_range_meters":14400,"station_id":"ce4bhqp2rcd13ifvqhog","pricing_plan_id":"free"},{"bike_id":"1c37c083-39b8-4242-99c8-3430fc05b14b","system_id":"levelo_inurba_marseille","lat":43.32367,"lon":5.388836,"is_reserved":false,"is_disabled":false,"rental_uris":{"android":"levelo://app?vid=1c37c083-39b8-4242-99c8-3430fc05b14b","ios":"levelo://app?vid=1c37c083-39b8-4242-99c8-3430fc05b14b"},"vehicle_type_id":"4","last_reported":1685390806,"current_range_meters":20800,"station_id":"ce4bhqp2rcd13ifvqhog","pricing_plan_id":"free"},{"bike_id":"950f3a0b-8466-40bf-8f81-5f5cf1a96632","system_id":"levelo_inurba_marseille","lat":43.32367,"lon":5.388836,"is_reserved":false,"is_disabled":false,"rental_uris":{"android":"levelo://app?vid=950f3a0b-8466-40bf-8f81-5f5cf1a96632","ios":"levelo://app?vid=950f3a0b-8466-40bf-8f81-5f5cf1a96632"},"vehicle_type_id":"4","last_reported":1685390806,"current_range_meters":7600,"station_id":"ce4bhqp2rcd13ifvqhog","pricing_plan_id":"free"},{"bike_id":"9c45c231-a376-4057-b4cf-7429736ebe2a","system_id":"levelo_inurba_marseille","lat":43.29458,"lon":5.37599,"is_reserved":false,"is_disabled":false,"rental_uris":{"android":"levelo://app?vid=9c45c231-a376-4057-b4cf-7429736ebe2a","ios":"levelo://app?vid=9c45c231-a376-4057-b4cf-7429736ebe2a"},"vehicle_type_id":"4","last_reported":1685390806,"current_range_meters":18800,"station_id":"","pricing_plan_id":"free"},{"bike_id":"3361876b-5ac1-40cb-960f-347ce30a1e80","system_id":"levelo_inurba_marseille","lat":43.32367,"lon":5.38884,"is_reserved":false,"is_disabled":false,"rental_uris":{"android":"levelo://app?vid=3361876b-5ac1-40cb-960f-347ce30a1e80","ios":"levelo://app?vid=3361876b-5ac1-40cb-960f-347ce30a1e80"},"vehicle_type_id":"4","last_reported":1685390806,"current_range_meters":20400,"station_id":"ce4bhqp2rcd13ifvqhog","pricing_plan_id":"free"},{"bike_id":"117d4d10-948d-447b-928a-ec5b70efb5e4","system_id":"levelo_inurba_marseille","lat":43.29595,"lon":5.38098,"is_reserved":false,"is_disabled":false,"rental_uris":{"android":"levelo://app?vid=117d4d10-948d-447b-928a-ec5b70efb5e4","ios":"levelo://app?vid=117d4d10-948d-447b-928a-ec5b70efb5e4"},"vehicle_type_id":"4","last_reported":1685390806,"current_range_meters":6000,"station_id":"ce4bgl12rcd13ifvqbo0","pricing_plan_id":"free"},{"bike_id":"2f259fb7-3f9a-41f5-878d-5388369a63fb","system_id":"levelo_inurba_marseille","lat":43.305994,"lon":5.393687,"is_reserved":false,"is_disabled":false,"rental_uris":{"android":"levelo://app?vid=2f259fb7-3f9a-41f5-878d-5388369a63fb","ios":"levelo://app?vid=2f259fb7-3f9a-41f5-878d-5388369a63fb"},"vehicle_type_id":"4","last_reported":1685390806,"current_range_meters":15200,"station_id":"ce4bh0p2rcd13ifvqd80","pricing_plan_id":"free"},{"bike_id":"9165b02c-922f-44d1-b7e0-ba1565161166","system_id":"levelo_inurba_marseille","lat":43.305994,"lon":5.393687,"is_reserved":false,"is_disabled":false,"rental_uris":{"android":"levelo://app?vid=9165b02c-922f-44d1-b7e0-ba1565161166","ios":"levelo://app?vid=9165b02c-922f-44d1-b7e0-ba1565161166"},"vehicle_type_id":"4","last_reported":1685390806,"current_range_meters":7200,"station_id":"ce4bh0p2rcd13ifvqd80","pricing_plan_id":"free"},{"bike_id":"d0962cc8-206b-4755-b25f-39947c04e2b4","system_id":"levelo_inurba_marseille","lat":43.302992,"lon":5.392136,"is_reserved":false,"is_disabled":false,"rental_uris":{"android":"levelo://app?vid=d0962cc8-206b-4755-b25f-39947c04e2b4","ios":"levelo://app?vid=d0962cc8-206b-4755-b25f-39947c04e2b4"},"vehicle_type_id":"4","last_reported":1685390806,"current_range_meters":11200,"station_id":"ce4bgkh2rcd13ifvqbk0","pricing_plan_id":"free"},{"bike_id":"56234b75-6430-4dea-8f26-882f22a733d2","system_id":"levelo_inurba_marseille","lat":43.302992,"lon":5.392136,"is_reserved":false,"is_disabled":false,"rental_uris":{"android":"levelo://app?vid=56234b75-6430-4dea-8f26-882f22a733d2","ios":"levelo://app?vid=56234b75-6430-4dea-8f26-882f22a733d2"},"vehicle_type_id":"4","last_reported":1685390806,"current_range_meters":22800,"station_id":"ce4bgkh2rcd13ifvqbk0","pricing_plan_id":"free"},{"bike_id":"c7743222-31dd-4a1e-8044-f44d03d2328b","system_id":"levelo_inurba_marseille","lat":43.30091,"lon":5.39061,"is_reserved":false,"is_disabled":false,"rental_uris":{"android":"levelo://app?vid=c7743222-31dd-4a1e-8044-f44d03d2328b","ios":"levelo://app?vid=c7743222-31dd-4a1e-8044-f44d03d2328b"},"vehicle_type_id":"4","last_reported":1685390806,"current_range_meters":17600,"station_id":"ce4bh192rcd13ifvqdb0","pricing_plan_id":"free"},{"bike_id":"526e8797-7fe4-41c6-b046-9a97d0377d18","system_id":"levelo_inurba_marseille","lat":43.30085,"lon":5.390856,"is_reserved":false,"is_disabled":false,"rental_uris":{"android":"levelo://app?vid=526e8797-7fe4-41c6-b046-9a97d0377d18","ios":"levelo://app?vid=526e8797-7fe4-41c6-b046-9a97d0377d18"},"vehicle_type_id":"4","last_reported":1685390806,"current_range_meters":3600,"station_id":"ce4bh192rcd13ifvqdb0","pricing_plan_id":"free"},{"bike_id":"9a50b32c-3239-42f7-9305-435bba038229","system_id":"levelo_inurba_marseille","lat":43.298764,"lon":5.388973,"is_reserved":false,"is_disabled":false,"rental_uris":{"android":"levelo://app?vid=9a50b32c-3239-42f7-9305-435bba038229","ios":"levelo://app?vid=9a50b32c-3239-42f7-9305-435bba038229"},"vehicle_type_id":"4","last_reported":1685390806,"current_range_meters":13200,"station_id":"ce4bh392rcd13ifvqdl0","pricing_plan_id":"free"},{"bike_id":"13f3d365-c59a-4879-afdd-9b7ab613d83d","system_id":"levelo_inurba_marseille","lat":43.29264,"lon":5.37631,"is_reserved":false,"is_disabled":false,"rental_uris":{"android":"levelo://app?vid=13f3d365-c59a-4879-afdd-9b7ab613d83d","ios":"levelo://app?vid=13f3d365-c59a-4879-afdd-9b7ab613d83d"},"vehicle_type_id":"4","last_reported":1685390806,"current_range_meters":0,"station_id":"ce4bgi12rcd13ifvqb80","pricing_plan_id":"free"},{"bike_id":"221b20c9-9a54-414c-bfdf-3fa32b2a589c","system_id":"levelo_inurba_marseille","lat":43.291675,"lon":5.371583,"is_reserved":false,"is_disabled":false,"rental_uris":{"android":"levelo://app?vid=221b20c9-9a54-414c-bfdf-3fa32b2a589c","ios":"levelo://app?vid=221b20c9-9a54-414c-bfdf-3fa32b2a589c"},"vehicle_type_id":"4","last_reported":1685390806,"current_range_meters":4800,"station_id":"ce4bha92rcd13ifvqeh0","pricing_plan_id":"free"},{"bike_id":"8649da42-9253-42c3-adef-ebe24c61f84f","system_id":"levelo_inurba_marseille","lat":43.309038,"lon":5.396546,"is_reserved":false,"is_disabled":false,"rental_uris":{"android":"levelo://app?vid=8649da42-9253-42c3-adef-ebe24c61f84f","ios":"levelo://app?vid=8649da42-9253-42c3-adef-ebe24c61f84f"},"vehicle_type_id":"4","last_reported":1685390806,"current_range_meters":10000,"station_id":"ce4bh012rcd13ifvqcv0","pricing_plan_id":"free"},{"bike_id":"d84748ca-56de-4c39-8d97-8763d6af5c17","system_id":"levelo_inurba_marseille","lat":43.313291,"lon":5.396838,"is_reserved":false,"is_disabled":false,"rental_uris":{"android":"levelo://app?vid=d84748ca-56de-4c39-8d97-8763d6af5c17","ios":"levelo://app?vid=d84748ca-56de-4c39-8d97-8763d6af5c17"},"vehicle_type_id":"4","last_reported":1685390806,"current_range_meters":18400,"station_id":"ce4bgvp2rcd13ifvqcu0","pricing_plan_id":"free"},{"bike_id":"737aca39-49d9-4f99-9329-98f2b4e38a26","system_id":"levelo_inurba_marseille","lat":43.29529,"lon":5.385412,"is_reserved":false,"is_disabled":false,"rental_uris":{"android":"levelo://app?vid=737aca39-49d9-4f99-9329-98f2b4e38a26","ios":"levelo://app?vid=737aca39-49d9-4f99-9329-98f2b4e38a26"},"vehicle_type_id":"4","last_reported":1685390806,"current_range_meters":19200,"station_id":"ce4bgih2rcd13ifvqba0","pricing_plan_id":"free"},{"bike_id":"bc17d2b5-5d04-49c9-8ec1-af0fde3cab74","system_id":"levelo_inurba_marseille","lat":43.302008,"lon":5.394694,"is_reserved":false,"is_disabled":false,"rental_uris":{"android":"levelo://app?vid=bc17d2b5-5d04-49c9-8ec1-af0fde3cab74","ios":"levelo://app?vid=bc17d2b5-5d04-49c9-8ec1-af0fde3cab74"},"vehicle_type_id":"4","last_reported":1685390806,"current_range_meters":10800,"station_id":"ce4bh0p2rcd13ifvqd70","pricing_plan_id":"free"},{"bike_id":"1f72ec24-a470-485e-b948-dfe799ac3542","system_id":"levelo_inurba_marseille","lat":43.302008,"lon":5.394694,"is_reserved":false,"is_disabled":false,"rental_uris":{"android":"levelo://app?vid=1f72ec24-a470-485e-b948-dfe799ac3542","ios":"levelo://app?vid=1f72ec24-a470-485e-b948-dfe799ac3542"},"vehicle_type_id":"4","last_reported":1685390806,"current_range_meters":16000,"station_id":"ce4bh0p2rcd13ifvqd70","pricing_plan_id":"free"},{"bike_id":"6735f361-a4bd-4b38-8f3a-03c1195b3ca7","system_id":"levelo_inurba_marseille","lat":43.302008,"lon":5.394694,"is_reserved":false,"is_disabled":false,"rental_uris":{"android":"levelo://app?vid=6735f361-a4bd-4b38-8f3a-03c1195b3ca7","ios":"levelo://app?vid=6735f361-a4bd-4b38-8f3a-03c1195b3ca7"},"vehicle_type_id":"4","last_reported":1685390806,"current_range_meters":19600,"station_id":"ce4bh0p2rcd13ifvqd70","pricing_plan_id":"free"},{"bike_id":"67a5e307-8180-4895-9117-d151c2b2cdcb","system_id":"levelo_inurba_marseille","lat":43.302008,"lon":5.394694,"is_reserved":false,"is_disabled":false,"rental_uris":{"android":"levelo://app?vid=67a5e307-8180-4895-9117-d151c2b2cdcb","ios":"levelo://app?vid=67a5e307-8180-4895-9117-d151c2b2cdcb"},"vehicle_type_id":"4","last_reported":1685390806,"current_range_meters":4800,"station_id":"ce4bh0p2rcd13ifvqd70","pricing_plan_id":"free"},{"bike_id":"311f0588-96e7-48e7-9b32-d58db5a8f8f9","system_id":"levelo_inurba_marseille","lat":43.290624,"lon":5.359245,"is_reserved":false,"is_disabled":false,"rental_uris":{"android":"levelo://app?vid=311f0588-96e7-48e7-9b32-d58db5a8f8f9","ios":"levelo://app?vid=311f0588-96e7-48e7-9b32-d58db5a8f8f9"},"vehicle_type_id":"4","last_reported":1685390806,"current_range_meters":2000,"station_id":"ce4bha92rcd13ifvqeg0","pricing_plan_id":"free"},{"bike_id":"6e875279-a918-4b56-b6da-e8f4bf4604f8","system_id":"levelo_inurba_marseille","lat":43.29042,"lon":5.35928,"is_reserved":false,"is_disabled":false,"rental_uris":{"android":"levelo://app?vid=6e875279-a918-4b56-b6da-e8f4bf4604f8","ios":"levelo://app?vid=6e875279-a918-4b56-b6da-e8f4bf4604f8"},"vehicle_type_id":"4","last_reported":1685390806,"current_range_meters":0,"station_id":"ce4bha92rcd13ifvqeg0","pricing_plan_id":"free"},{"bike_id":"819badb5-f8e9-4147-a3a9-72be74cfa533","system_id":"levelo_inurba_marseille","lat":43.290624,"lon":5.359245,"is_reserved":false,"is_disabled":false,"rental_uris":{"android":"levelo://app?vid=819badb5-f8e9-4147-a3a9-72be74cfa533","ios":"levelo://app?vid=819badb5-f8e9-4147-a3a9-72be74cfa533"},"vehicle_type_id":"4","last_reported":1685390806,"current_range_meters":4000,"station_id":"ce4bha92rcd13ifvqeg0","pricing_plan_id":"free"},{"bike_id":"f6478e7c-e5d0-4404-8f3b-68d7a52c6b33","system_id":"levelo_inurba_marseille","lat":43.28943,"lon":5.36637,"is_reserved":false,"is_disabled":false,"rental_uris":{"android":"levelo://app?vid=f6478e7c-e5d0-4404-8f3b-68d7a52c6b33","ios":"levelo://app?vid=f6478e7c-e5d0-4404-8f3b-68d7a52c6b33"},"vehicle_type_id":"4","last_reported":1685390806,"current_range_meters":23600,"station_id":"","pricing_plan_id":"free"},{"bike_id":"3b4c7d38-09c6-454e-b788-4e532460ac0a","system_id":"levelo_inurba_marseille","lat":43.28933,"lon":5.36638,"is_reserved":false,"is_disabled":false,"rental_uris":{"android":"levelo://app?vid=3b4c7d38-09c6-454e-b788-4e532460ac0a","ios":"levelo://app?vid=3b4c7d38-09c6-454e-b788-4e532460ac0a"},"vehicle_type_id":"4","last_reported":1685390806,"current_range_meters":26000,"station_id":"ce4bhap2rcd13ifvqek0","pricing_plan_id":"free"},{"bike_id":"74523e2a-6966-4b78-aa66-faea97e87801","system_id":"levelo_inurba_marseille","lat":43.29272,"lon":5.384377,"is_reserved":false,"is_disabled":false,"rental_uris":{"android":"levelo://app?vid=74523e2a-6966-4b78-aa66-faea97e87801","ios":"levelo://app?vid=74523e2a-6966-4b78-aa66-faea97e87801"},"vehicle_type_id":"4","last_reported":1685390806,"current_range_meters":2400,"station_id":"ce4bh692rcd13ifvqea0","pricing_plan_id":"free"},{"bike_id":"0cf77719-bbfe-4933-a60e-bacc96b77ae2","system_id":"levelo_inurba_marseille","lat":43.304296,"lon":5.397513,"is_reserved":false,"is_disabled":false,"rental_uris":{"android":"levelo://app?vid=0cf77719-bbfe-4933-a60e-bacc96b77ae2","ios":"levelo://app?vid=0cf77719-bbfe-4933-a60e-bacc96b77ae2"},"vehicle_type_id":"4","last_reported":1685390806,"current_range_meters":18400,"station_id":"ce4bh092rcd13ifvqd20","pricing_plan_id":"free"},{"bike_id":"eb2ddfe4-4895-492a-9ef3-9d8d5fc8230b","system_id":"levelo_inurba_marseille","lat":43.33043,"lon":5.38917,"is_reserved":false,"is_disabled":false,"rental_uris":{"android":"levelo://app?vid=eb2ddfe4-4895-492a-9ef3-9d8d5fc8230b","ios":"levelo://app?vid=eb2ddfe4-4895-492a-9ef3-9d8d5fc8230b"},"vehicle_type_id":"4","last_reported":1685390806,"current_range_meters":0,"station_id":"ce4bhr92rcd13ifvqhrg","pricing_plan_id":"free"},{"bike_id":"a8a0a2ce-882c-480d-9c8d-104ff0262970","system_id":"levelo_inurba_marseille","lat":43.33044,"lon":5.38917,"is_reserved":false,"is_disabled":false,"rental_uris":{"android":"levelo://app?vid=a8a0a2ce-882c-480d-9c8d-104ff0262970","ios":"levelo://app?vid=a8a0a2ce-882c-480d-9c8d-104ff0262970"},"vehicle_type_id":"4","last_reported":1685390806,"current_range_meters":11600,"station_id":"ce4bhr92rcd13ifvqhrg","pricing_plan_id":"free"},{"bike_id":"b8ecdefe-b57f-443a-9b4d-e4666bd6e40e","system_id":"levelo_inurba_marseille","lat":43.290995,"lon":5.381361,"is_reserved":false,"is_disabled":false,"rental_uris":{"android":"levelo://app?vid=b8ecdefe-b57f-443a-9b4d-e4666bd6e40e","ios":"levelo://app?vid=b8ecdefe-b57f-443a-9b4d-e4666bd6e40e"},"vehicle_type_id":"4","last_reported":1685390806,"current_range_meters":0,"station_id":"ce4bh512rcd13ifvqe2g","pricing_plan_id":"free"},{"bike_id":"5ce01d77-d020-4e62-ab75-60f6261d71be","system_id":"levelo_inurba_marseille","lat":43.290995,"lon":5.381361,"is_reserved":false,"is_disabled":false,"rental_uris":{"android":"levelo://app?vid=5ce01d77-d020-4e62-ab75-60f6261d71be","ios":"levelo://app?vid=5ce01d77-d020-4e62-ab75-60f6261d71be"},"vehicle_type_id":"4","last_reported":1685390806,"current_range_meters":0,"station_id":"ce4bh512rcd13ifvqe2g","pricing_plan_id":"free"},{"bike_id":"3e1d2050-1521-40ec-9569-6654a61182b5","system_id":"levelo_inurba_marseille","lat":43.290995,"lon":5.381361,"is_reserved":false,"is_disabled":false,"rental_uris":{"android":"levelo://app?vid=3e1d2050-1521-40ec-9569-6654a61182b5","ios":"levelo://app?vid=3e1d2050-1521-40ec-9569-6654a61182b5"},"vehicle_type_id":"4","last_reported":1685390806,"current_range_meters":0,"station_id":"ce4bh512rcd13ifvqe2g","pricing_plan_id":"free"},{"bike_id":"37779d1a-29b1-40f4-befc-fafeb0e830e1","system_id":"levelo_inurba_marseille","lat":43.297814,"lon":5.393513,"is_reserved":false,"is_disabled":false,"rental_uris":{"android":"levelo://app?vid=37779d1a-29b1-40f4-befc-fafeb0e830e1","ios":"levelo://app?vid=37779d1a-29b1-40f4-befc-fafeb0e830e1"},"vehicle_type_id":"4","last_reported":1685390806,"current_range_meters":12800,"station_id":"chh1huq6cuj3fo74tm60","pricing_plan_id":"free"},{"bike_id":"763026ec-2b9a-4580-8d1a-654167259792","system_id":"levelo_inurba_marseille","lat":43.297814,"lon":5.393513,"is_reserved":false,"is_disabled":false,"rental_uris":{"android":"levelo://app?vid=763026ec-2b9a-4580-8d1a-654167259792","ios":"levelo://app?vid=763026ec-2b9a-4580-8d1a-654167259792"},"vehicle_type_id":"4","last_reported":1685390806,"current_range_meters":6800,"station_id":"chh1huq6cuj3fo74tm60","pricing_plan_id":"free"},{"bike_id":"0461f6ad-f00d-4273-af11-21d4d101a174","system_id":"levelo_inurba_marseille","lat":43.295169,"lon":5.390426,"is_reserved":false,"is_disabled":false,"rental_uris":{"android":"levelo://app?vid=0461f6ad-f00d-4273-af11-21d4d101a174","ios":"levelo://app?vid=0461f6ad-f00d-4273-af11-21d4d101a174"},"vehicle_type_id":"4","last_reported":1685390806,"current_range_meters":10000,"station_id":"ce4bh3p2rcd13ifvqdp0","pricing_plan_id":"free"},{"bike_id":"42e6983f-c75a-4eda-b190-c6ed2031b930","system_id":"levelo_inurba_marseille","lat":43.28856,"lon":5.358371,"is_reserved":false,"is_disabled":false,"rental_uris":{"android":"levelo://app?vid=42e6983f-c75a-4eda-b190-c6ed2031b930","ios":"levelo://app?vid=42e6983f-c75a-4eda-b190-c6ed2031b930"},"vehicle_type_id":"4","last_reported":1685390806,"current_range_meters":27600,"station_id":"ce4bhb12rcd13ifvqem0","pricing_plan_id":"free"},{"bike_id":"141c14ea-594b-43ee-894e-8c44af1dcd73","system_id":"levelo_inurba_marseille","lat":43.33741,"lon":5.37457,"is_reserved":false,"is_disabled":false,"rental_uris":{"android":"levelo://app?vid=141c14ea-594b-43ee-894e-8c44af1dcd73","ios":"levelo://app?vid=141c14ea-594b-43ee-894e-8c44af1dcd73"},"vehicle_type_id":"4","last_reported":1685390806,"current_range_meters":30800,"station_id":"","pricing_plan_id":"free"},{"bike_id":"493860ce-e063-4684-ab33-c360eaf64153","system_id":"levelo_inurba_marseille","lat":43.33744,"lon":5.37451,"is_reserved":false,"is_disabled":false,"rental_uris":{"android":"levelo://app?vid=493860ce-e063-4684-ab33-c360eaf64153","ios":"levelo://app?vid=493860ce-e063-4684-ab33-c360eaf64153"},"vehicle_type_id":"4","last_reported":1685390806,"current_range_meters":13200,"station_id":"","pricing_plan_id":"free"},{"bike_id":"c67b547c-3fcb-4384-8614-e15f558fec55","system_id":"levelo_inurba_marseille","lat":43.33744,"lon":5.37451,"is_reserved":false,"is_disabled":false,"rental_uris":{"android":"levelo://app?vid=c67b547c-3fcb-4384-8614-e15f558fec55","ios":"levelo://app?vid=c67b547c-3fcb-4384-8614-e15f558fec55"},"vehicle_type_id":"4","last_reported":1685390806,"current_range_meters":22400,"station_id":"","pricing_plan_id":"free"},{"bike_id":"556c6db1-2600-4c2b-9521-aae8453517c1","system_id":"levelo_inurba_marseille","lat":43.33759,"lon":5.37438,"is_reserved":false,"is_disabled":false,"rental_uris":{"android":"levelo://app?vid=556c6db1-2600-4c2b-9521-aae8453517c1","ios":"levelo://app?vid=556c6db1-2600-4c2b-9521-aae8453517c1"},"vehicle_type_id":"4","last_reported":1685390806,"current_range_meters":8800,"station_id":"","pricing_plan_id":"free"},{"bike_id":"3acfb8ce-db7a-4fdd-b9bf-6c0cffb0d52b","system_id":"levelo_inurba_marseille","lat":43.30642,"lon":5.401031,"is_reserved":false,"is_disabled":false,"rental_uris":{"android":"levelo://app?vid=3acfb8ce-db7a-4fdd-b9bf-6c0cffb0d52b","ios":"levelo://app?vid=3acfb8ce-db7a-4fdd-b9bf-6c0cffb0d52b"},"vehicle_type_id":"4","last_reported":1685390806,"current_range_meters":14000,"station_id":"ce4bh112rcd13ifvqda0","pricing_plan_id":"free"},{"bike_id":"b540f4fc-5dbd-465b-8fad-b20b97fc9595","system_id":"levelo_inurba_marseille","lat":43.301117,"lon":5.398795,"is_reserved":false,"is_disabled":false,"rental_uris":{"android":"levelo://app?vid=b540f4fc-5dbd-465b-8fad-b20b97fc9595","ios":"levelo://app?vid=b540f4fc-5dbd-465b-8fad-b20b97fc9595"},"vehicle_type_id":"4","last_reported":1685390806,"current_range_meters":5600,"station_id":"ce4bh0h2rcd13ifvqd40","pricing_plan_id":"free"},{"bike_id":"b1ed10f9-b3fd-4b57-8740-81cf5e5b956b","system_id":"levelo_inurba_marseille","lat":43.301117,"lon":5.398795,"is_reserved":false,"is_disabled":false,"rental_uris":{"android":"levelo://app?vid=b1ed10f9-b3fd-4b57-8740-81cf5e5b956b","ios":"levelo://app?vid=b1ed10f9-b3fd-4b57-8740-81cf5e5b956b"},"vehicle_type_id":"4","last_reported":1685390806,"current_range_meters":19200,"station_id":"ce4bh0h2rcd13ifvqd40","pricing_plan_id":"free"},{"bike_id":"f7c6dd2d-7d66-43b1-95b0-1c66fc4c5036","system_id":"levelo_inurba_marseille","lat":43.301117,"lon":5.398795,"is_reserved":false,"is_disabled":false,"rental_uris":{"android":"levelo://app?vid=f7c6dd2d-7d66-43b1-95b0-1c66fc4c5036","ios":"levelo://app?vid=f7c6dd2d-7d66-43b1-95b0-1c66fc4c5036"},"vehicle_type_id":"4","last_reported":1685390806,"current_range_meters":30800,"station_id":"ce4bh0h2rcd13ifvqd40","pricing_plan_id":"free"},{"bike_id":"3eb9dd09-ec82-4940-9cd2-db24ca7d5eba","system_id":"levelo_inurba_marseille","lat":43.301117,"lon":5.398795,"is_reserved":false,"is_disabled":false,"rental_uris":{"android":"levelo://app?vid=3eb9dd09-ec82-4940-9cd2-db24ca7d5eba","ios":"levelo://app?vid=3eb9dd09-ec82-4940-9cd2-db24ca7d5eba"},"vehicle_type_id":"4","last_reported":1685390806,"current_range_meters":15200,"station_id":"ce4bh0h2rcd13ifvqd40","pricing_plan_id":"free"},{"bike_id":"12efc254-3fb2-4f70-aeb6-bc4d3511f47f","system_id":"levelo_inurba_marseille","lat":43.301117,"lon":5.398795,"is_reserved":false,"is_disabled":false,"rental_uris":{"android":"levelo://app?vid=12efc254-3fb2-4f70-aeb6-bc4d3511f47f","ios":"levelo://app?vid=12efc254-3fb2-4f70-aeb6-bc4d3511f47f"},"vehicle_type_id":"4","last_reported":1685390806,"current_range_meters":0,"station_id":"ce4bh0h2rcd13ifvqd40","pricing_plan_id":"free"},{"bike_id":"63a9223a-b042-46b7-8247-e66689d83fc0","system_id":"levelo_inurba_marseille","lat":43.301117,"lon":5.398795,"is_reserved":false,"is_disabled":false,"rental_uris":{"android":"levelo://app?vid=63a9223a-b042-46b7-8247-e66689d83fc0","ios":"levelo://app?vid=63a9223a-b042-46b7-8247-e66689d83fc0"},"vehicle_type_id":"4","last_reported":1685390806,"current_range_meters":30400,"station_id":"ce4bh0h2rcd13ifvqd40","pricing_plan_id":"free"},{"bike_id":"6098e7c1-a1a6-4a71-9c15-707f87dead59","system_id":"levelo_inurba_marseille","lat":43.286591,"lon":5.363346,"is_reserved":false,"is_disabled":false,"rental_uris":{"android":"levelo://app?vid=6098e7c1-a1a6-4a71-9c15-707f87dead59","ios":"levelo://app?vid=6098e7c1-a1a6-4a71-9c15-707f87dead59"},"vehicle_type_id":"4","last_reported":1685390806,"current_range_meters":7600,"station_id":"ce4bhah2rcd13ifvqej0","pricing_plan_id":"free"},{"bike_id":"297e9f76-c6a5-41d7-84ef-2ac20579865c","system_id":"levelo_inurba_marseille","lat":43.298681,"lon":5.397225,"is_reserved":false,"is_disabled":false,"rental_uris":{"android":"levelo://app?vid=297e9f76-c6a5-41d7-84ef-2ac20579865c","ios":"levelo://app?vid=297e9f76-c6a5-41d7-84ef-2ac20579865c"},"vehicle_type_id":"4","last_reported":1685390806,"current_range_meters":14000,"station_id":"ce4bh0h2rcd13ifvqd50","pricing_plan_id":"free"},{"bike_id":"1c3dca46-84aa-45b4-bac7-909fa1c1e9cb","system_id":"levelo_inurba_marseille","lat":43.295194,"lon":5.39397,"is_reserved":false,"is_disabled":false,"rental_uris":{"android":"levelo://app?vid=1c3dca46-84aa-45b4-bac7-909fa1c1e9cb","ios":"levelo://app?vid=1c3dca46-84aa-45b4-bac7-909fa1c1e9cb"},"vehicle_type_id":"4","last_reported":1685390806,"current_range_meters":14800,"station_id":"ce4bh292rcd13ifvqdf0","pricing_plan_id":"free"},{"bike_id":"11ea1cf9-5acb-4d74-bd67-f48b8e379c5d","system_id":"levelo_inurba_marseille","lat":43.29042,"lon":5.38629,"is_reserved":false,"is_disabled":false,"rental_uris":{"android":"levelo://app?vid=11ea1cf9-5acb-4d74-bd67-f48b8e379c5d","ios":"levelo://app?vid=11ea1cf9-5acb-4d74-bd67-f48b8e379c5d"},"vehicle_type_id":"4","last_reported":1685390806,"current_range_meters":22400,"station_id":"ce4bh4p2rcd13ifvqe0g","pricing_plan_id":"free"},{"bike_id":"6e6d5f41-612e-4fc0-ac27-df771188fb43","system_id":"levelo_inurba_marseille","lat":43.295194,"lon":5.39397,"is_reserved":false,"is_disabled":false,"rental_uris":{"android":"levelo://app?vid=6e6d5f41-612e-4fc0-ac27-df771188fb43","ios":"levelo://app?vid=6e6d5f41-612e-4fc0-ac27-df771188fb43"},"vehicle_type_id":"4","last_reported":1685390806,"current_range_meters":27600,"station_id":"ce4bh292rcd13ifvqdf0","pricing_plan_id":"free"},{"bike_id":"fb492694-b979-4ba4-92e7-8073028e15ec","system_id":"levelo_inurba_marseille","lat":43.29035,"lon":5.38646,"is_reserved":false,"is_disabled":false,"rental_uris":{"android":"levelo://app?vid=fb492694-b979-4ba4-92e7-8073028e15ec","ios":"levelo://app?vid=fb492694-b979-4ba4-92e7-8073028e15ec"},"vehicle_type_id":"4","last_reported":1685390806,"current_range_meters":18400,"station_id":"ce4bh4p2rcd13ifvqe0g","pricing_plan_id":"free"},{"bike_id":"9100064b-2c07-4cbc-9b1a-5de38ed0d5cc","system_id":"levelo_inurba_marseille","lat":43.29034,"lon":5.38654,"is_reserved":false,"is_disabled":false,"rental_uris":{"android":"levelo://app?vid=9100064b-2c07-4cbc-9b1a-5de38ed0d5cc","ios":"levelo://app?vid=9100064b-2c07-4cbc-9b1a-5de38ed0d5cc"},"vehicle_type_id":"4","last_reported":1685390806,"current_range_meters":22000,"station_id":"ce4bh4p2rcd13ifvqe0g","pricing_plan_id":"free"},{"bike_id":"c5b14af7-b978-4404-a525-e495c3dd7863","system_id":"levelo_inurba_marseille","lat":43.302759,"lon":5.400793,"is_reserved":false,"is_disabled":false,"rental_uris":{"android":"levelo://app?vid=c5b14af7-b978-4404-a525-e495c3dd7863","ios":"levelo://app?vid=c5b14af7-b978-4404-a525-e495c3dd7863"},"vehicle_type_id":"4","last_reported":1685390806,"current_range_meters":8000,"station_id":"ce4bgvh2rcd13ifvqcs0","pricing_plan_id":"free"},{"bike_id":"c144603d-bc7a-4a1d-9665-6b37cf0439f7","system_id":"levelo_inurba_marseille","lat":43.302759,"lon":5.400793,"is_reserved":false,"is_disabled":false,"rental_uris":{"android":"levelo://app?vid=c144603d-bc7a-4a1d-9665-6b37cf0439f7","ios":"levelo://app?vid=c144603d-bc7a-4a1d-9665-6b37cf0439f7"},"vehicle_type_id":"4","last_reported":1685390806,"current_range_meters":6000,"station_id":"ce4bgvh2rcd13ifvqcs0","pricing_plan_id":"free"},{"bike_id":"1606c1b0-fef6-41aa-b776-0d8aef810713","system_id":"levelo_inurba_marseille","lat":43.316517,"lon":5.404375,"is_reserved":false,"is_disabled":false,"rental_uris":{"android":"levelo://app?vid=1606c1b0-fef6-41aa-b776-0d8aef810713","ios":"levelo://app?vid=1606c1b0-fef6-41aa-b776-0d8aef810713"},"vehicle_type_id":"4","last_reported":1685390806,"current_range_meters":10400,"station_id":"ce4bh012rcd13ifvqd00","pricing_plan_id":"free"},{"bike_id":"4254c66c-5909-4d21-bb42-4a6b3ae89a26","system_id":"levelo_inurba_marseille","lat":43.316517,"lon":5.404375,"is_reserved":false,"is_disabled":false,"rental_uris":{"android":"levelo://app?vid=4254c66c-5909-4d21-bb42-4a6b3ae89a26","ios":"levelo://app?vid=4254c66c-5909-4d21-bb42-4a6b3ae89a26"},"vehicle_type_id":"4","last_reported":1685390806,"current_range_meters":9600,"station_id":"ce4bh012rcd13ifvqd00","pricing_plan_id":"free"},{"bike_id":"911523ab-6644-409c-81a0-c5885a4c1d83","system_id":"levelo_inurba_marseille","lat":43.316517,"lon":5.404375,"is_reserved":false,"is_disabled":false,"rental_uris":{"android":"levelo://app?vid=911523ab-6644-409c-81a0-c5885a4c1d83","ios":"levelo://app?vid=911523ab-6644-409c-81a0-c5885a4c1d83"},"vehicle_type_id":"4","last_reported":1685390806,"current_range_meters":6400,"station_id":"ce4bh012rcd13ifvqd00","pricing_plan_id":"free"},{"bike_id":"623adf98-fec5-4711-8ef4-28f22ca4494d","system_id":"levelo_inurba_marseille","lat":43.316517,"lon":5.404375,"is_reserved":false,"is_disabled":false,"rental_uris":{"android":"levelo://app?vid=623adf98-fec5-4711-8ef4-28f22ca4494d","ios":"levelo://app?vid=623adf98-fec5-4711-8ef4-28f22ca4494d"},"vehicle_type_id":"4","last_reported":1685390806,"current_range_meters":13600,"station_id":"ce4bh012rcd13ifvqd00","pricing_plan_id":"free"},{"bike_id":"5a86566e-ea2d-4d34-b28a-bd6d67f2f854","system_id":"levelo_inurba_marseille","lat":43.316517,"lon":5.404375,"is_reserved":false,"is_disabled":false,"rental_uris":{"android":"levelo://app?vid=5a86566e-ea2d-4d34-b28a-bd6d67f2f854","ios":"levelo://app?vid=5a86566e-ea2d-4d34-b28a-bd6d67f2f854"},"vehicle_type_id":"4","last_reported":1685390806,"current_range_meters":22000,"station_id":"ce4bh012rcd13ifvqd00","pricing_plan_id":"free"},{"bike_id":"356a0ed3-f419-4208-abb4-25a6818607c4","system_id":"levelo_inurba_marseille","lat":43.316517,"lon":5.404375,"is_reserved":false,"is_disabled":false,"rental_uris":{"android":"levelo://app?vid=356a0ed3-f419-4208-abb4-25a6818607c4","ios":"levelo://app?vid=356a0ed3-f419-4208-abb4-25a6818607c4"},"vehicle_type_id":"4","last_reported":1685390806,"current_range_meters":15200,"station_id":"ce4bh012rcd13ifvqd00","pricing_plan_id":"free"},{"bike_id":"c5021a32-e1c0-4ed6-803c-4998512206c4","system_id":"levelo_inurba_marseille","lat":43.31646,"lon":5.4044,"is_reserved":false,"is_disabled":false,"rental_uris":{"android":"levelo://app?vid=c5021a32-e1c0-4ed6-803c-4998512206c4","ios":"levelo://app?vid=c5021a32-e1c0-4ed6-803c-4998512206c4"},"vehicle_type_id":"4","last_reported":1685390806,"current_range_meters":2800,"station_id":"ce4bh012rcd13ifvqd00","pricing_plan_id":"free"},{"bike_id":"14f4b22d-537f-4b23-ac1d-c624097bc581","system_id":"levelo_inurba_marseille","lat":43.291994,"lon":5.392907,"is_reserved":false,"is_disabled":false,"rental_uris":{"android":"levelo://app?vid=14f4b22d-537f-4b23-ac1d-c624097bc581","ios":"levelo://app?vid=14f4b22d-537f-4b23-ac1d-c624097bc581"},"vehicle_type_id":"4","last_reported":1685390806,"current_range_meters":22400,"station_id":"ce4bh192rcd13ifvqdd0","pricing_plan_id":"free"},{"bike_id":"13b36c97-8f86-49ff-ad9c-6fb36414e4a1","system_id":"levelo_inurba_marseille","lat":43.31745,"lon":5.40582,"is_reserved":false,"is_disabled":false,"rental_uris":{"android":"levelo://app?vid=13b36c97-8f86-49ff-ad9c-6fb36414e4a1","ios":"levelo://app?vid=13b36c97-8f86-49ff-ad9c-6fb36414e4a1"},"vehicle_type_id":"4","last_reported":1685390806,"current_range_meters":16800,"station_id":"","pricing_plan_id":"free"},{"bike_id":"e2e15a3d-96f2-4aa1-b243-1c64aff9baf2","system_id":"levelo_inurba_marseille","lat":43.31761,"lon":5.40583,"is_reserved":false,"is_disabled":false,"rental_uris":{"android":"levelo://app?vid=e2e15a3d-96f2-4aa1-b243-1c64aff9baf2","ios":"levelo://app?vid=e2e15a3d-96f2-4aa1-b243-1c64aff9baf2"},"vehicle_type_id":"4","last_reported":1685390806,"current_range_meters":20400,"station_id":"","pricing_plan_id":"free"},{"bike_id":"6d5333f4-e6af-4086-9947-0d87e5878dd7","system_id":"levelo_inurba_marseille","lat":43.284534,"lon":5.358662,"is_reserved":false,"is_disabled":false,"rental_uris":{"android":"levelo://app?vid=6d5333f4-e6af-4086-9947-0d87e5878dd7","ios":"levelo://app?vid=6d5333f4-e6af-4086-9947-0d87e5878dd7"},"vehicle_type_id":"4","last_reported":1685390806,"current_range_meters":0,"station_id":"ce4bhah2rcd13ifvqei0","pricing_plan_id":"free"},{"bike_id":"f7b698d2-6b7c-4084-b270-c20ad33f8d7d","system_id":"levelo_inurba_marseille","lat":43.284534,"lon":5.358662,"is_reserved":false,"is_disabled":false,"rental_uris":{"android":"levelo://app?vid=f7b698d2-6b7c-4084-b270-c20ad33f8d7d","ios":"levelo://app?vid=f7b698d2-6b7c-4084-b270-c20ad33f8d7d"},"vehicle_type_id":"4","last_reported":1685390806,"current_range_meters":2400,"station_id":"ce4bhah2rcd13ifvqei0","pricing_plan_id":"free"},{"bike_id":"fa6dccac-e3ae-4778-a53d-69df45939d54","system_id":"levelo_inurba_marseille","lat":43.284534,"lon":5.358662,"is_reserved":false,"is_disabled":false,"rental_uris":{"android":"levelo://app?vid=fa6dccac-e3ae-4778-a53d-69df45939d54","ios":"levelo://app?vid=fa6dccac-e3ae-4778-a53d-69df45939d54"},"vehicle_type_id":"4","last_reported":1685390806,"current_range_meters":0,"station_id":"ce4bhah2rcd13ifvqei0","pricing_plan_id":"free"},{"bike_id":"3c83aa28-a5f3-4e32-8842-87922f0cf9ac","system_id":"levelo_inurba_marseille","lat":43.28452,"lon":5.35888,"is_reserved":false,"is_disabled":false,"rental_uris":{"android":"levelo://app?vid=3c83aa28-a5f3-4e32-8842-87922f0cf9ac","ios":"levelo://app?vid=3c83aa28-a5f3-4e32-8842-87922f0cf9ac"},"vehicle_type_id":"4","last_reported":1685390806,"current_range_meters":0,"station_id":"ce4bhah2rcd13ifvqei0","pricing_plan_id":"free"},{"bike_id":"f8ed514f-b73e-439c-8783-0306ab4c690f","system_id":"levelo_inurba_marseille","lat":43.31763,"lon":5.40598,"is_reserved":false,"is_disabled":false,"rental_uris":{"android":"levelo://app?vid=f8ed514f-b73e-439c-8783-0306ab4c690f","ios":"levelo://app?vid=f8ed514f-b73e-439c-8783-0306ab4c690f"},"vehicle_type_id":"4","last_reported":1685390806,"current_range_meters":20000,"station_id":"","pricing_plan_id":"free"},{"bike_id":"c1ed57af-de4a-48f4-87ca-e0e2df94f1aa","system_id":"levelo_inurba_marseille","lat":43.2861,"lon":5.35099,"is_reserved":false,"is_disabled":false,"rental_uris":{"android":"levelo://app?vid=c1ed57af-de4a-48f4-87ca-e0e2df94f1aa","ios":"levelo://app?vid=c1ed57af-de4a-48f4-87ca-e0e2df94f1aa"},"vehicle_type_id":"4","last_reported":1685390806,"current_range_meters":20800,"station_id":"","pricing_plan_id":"free"},{"bike_id":"25e6fdfa-51e9-433b-aa4e-a5e3ebc22de0","system_id":"levelo_inurba_marseille","lat":43.295713,"lon":5.399639,"is_reserved":false,"is_disabled":false,"rental_uris":{"android":"levelo://app?vid=25e6fdfa-51e9-433b-aa4e-a5e3ebc22de0","ios":"levelo://app?vid=25e6fdfa-51e9-433b-aa4e-a5e3ebc22de0"},"vehicle_type_id":"4","last_reported":1685390806,"current_range_meters":18400,"station_id":"ce4bh312rcd13ifvqdj0","pricing_plan_id":"free"},{"bike_id":"b0855190-de36-4add-b4b4-0b2ab925f188","system_id":"levelo_inurba_marseille","lat":43.295713,"lon":5.399639,"is_reserved":false,"is_disabled":false,"rental_uris":{"android":"levelo://app?vid=b0855190-de36-4add-b4b4-0b2ab925f188","ios":"levelo://app?vid=b0855190-de36-4add-b4b4-0b2ab925f188"},"vehicle_type_id":"4","last_reported":1685390806,"current_range_meters":1200,"station_id":"ce4bh312rcd13ifvqdj0","pricing_plan_id":"free"},{"bike_id":"db5c134f-ad61-41d3-877a-3d5e88175d32","system_id":"levelo_inurba_marseille","lat":43.295713,"lon":5.399639,"is_reserved":false,"is_disabled":false,"rental_uris":{"android":"levelo://app?vid=db5c134f-ad61-41d3-877a-3d5e88175d32","ios":"levelo://app?vid=db5c134f-ad61-41d3-877a-3d5e88175d32"},"vehicle_type_id":"4","last_reported":1685390806,"current_range_meters":11200,"station_id":"ce4bh312rcd13ifvqdj0","pricing_plan_id":"free"},{"bike_id":"e6758af4-7206-4176-8654-1a5235059a06","system_id":"levelo_inurba_marseille","lat":43.295713,"lon":5.399639,"is_reserved":false,"is_disabled":false,"rental_uris":{"android":"levelo://app?vid=e6758af4-7206-4176-8654-1a5235059a06","ios":"levelo://app?vid=e6758af4-7206-4176-8654-1a5235059a06"},"vehicle_type_id":"4","last_reported":1685390806,"current_range_meters":15600,"station_id":"ce4bh312rcd13ifvqdj0","pricing_plan_id":"free"},{"bike_id":"9c2195c7-a6d1-4e8c-ab4b-15d16eaa0c1e","system_id":"levelo_inurba_marseille","lat":43.29568,"lon":5.3999,"is_reserved":false,"is_disabled":false,"rental_uris":{"android":"levelo://app?vid=9c2195c7-a6d1-4e8c-ab4b-15d16eaa0c1e","ios":"levelo://app?vid=9c2195c7-a6d1-4e8c-ab4b-15d16eaa0c1e"},"vehicle_type_id":"4","last_reported":1685390806,"current_range_meters":14800,"station_id":"ce4bh312rcd13ifvqdj0","pricing_plan_id":"free"},{"bike_id":"a57aec3c-8cda-409f-8275-6b383f660528","system_id":"levelo_inurba_marseille","lat":43.286595,"lon":5.386795,"is_reserved":false,"is_disabled":false,"rental_uris":{"android":"levelo://app?vid=a57aec3c-8cda-409f-8275-6b383f660528","ios":"levelo://app?vid=a57aec3c-8cda-409f-8275-6b383f660528"},"vehicle_type_id":"4","last_reported":1685390806,"current_range_meters":11600,"station_id":"ce4bh492rcd13ifvqdug","pricing_plan_id":"free"},{"bike_id":"8a0df7f5-e271-4cf5-90c3-3b23da74aeca","system_id":"levelo_inurba_marseille","lat":43.286595,"lon":5.386795,"is_reserved":false,"is_disabled":false,"rental_uris":{"android":"levelo://app?vid=8a0df7f5-e271-4cf5-90c3-3b23da74aeca","ios":"levelo://app?vid=8a0df7f5-e271-4cf5-90c3-3b23da74aeca"},"vehicle_type_id":"4","last_reported":1685390806,"current_range_meters":2000,"station_id":"ce4bh492rcd13ifvqdug","pricing_plan_id":"free"},{"bike_id":"abe231fb-5e29-4d91-bdf9-b5d7bf4adb35","system_id":"levelo_inurba_marseille","lat":43.286595,"lon":5.386795,"is_reserved":false,"is_disabled":false,"rental_uris":{"android":"levelo://app?vid=abe231fb-5e29-4d91-bdf9-b5d7bf4adb35","ios":"levelo://app?vid=abe231fb-5e29-4d91-bdf9-b5d7bf4adb35"},"vehicle_type_id":"4","last_reported":1685390806,"current_range_meters":8000,"station_id":"ce4bh492rcd13ifvqdug","pricing_plan_id":"free"},{"bike_id":"e2fc3e02-c01e-4cf9-b6e1-91c460e6e31b","system_id":"levelo_inurba_marseille","lat":43.323464,"lon":5.406297,"is_reserved":false,"is_disabled":false,"rental_uris":{"android":"levelo://app?vid=e2fc3e02-c01e-4cf9-b6e1-91c460e6e31b","ios":"levelo://app?vid=e2fc3e02-c01e-4cf9-b6e1-91c460e6e31b"},"vehicle_type_id":"4","last_reported":1685390806,"current_range_meters":800,"station_id":"ce4bhq92rcd13ifvqhjg","pricing_plan_id":"free"},{"bike_id":"c66d9da6-e508-458d-b985-aea348e3b1c4","system_id":"levelo_inurba_marseille","lat":43.323464,"lon":5.406297,"is_reserved":false,"is_disabled":false,"rental_uris":{"android":"levelo://app?vid=c66d9da6-e508-458d-b985-aea348e3b1c4","ios":"levelo://app?vid=c66d9da6-e508-458d-b985-aea348e3b1c4"},"vehicle_type_id":"4","last_reported":1685390806,"current_range_meters":4000,"station_id":"ce4bhq92rcd13ifvqhjg","pricing_plan_id":"free"},{"bike_id":"03d7153a-d0c5-434c-8670-3a812f481e9c","system_id":"levelo_inurba_marseille","lat":43.284793,"lon":5.384119,"is_reserved":false,"is_disabled":false,"rental_uris":{"android":"levelo://app?vid=03d7153a-d0c5-434c-8670-3a812f481e9c","ios":"levelo://app?vid=03d7153a-d0c5-434c-8670-3a812f481e9c"},"vehicle_type_id":"4","last_reported":1685390806,"current_range_meters":26000,"station_id":"ce4bh512rcd13ifvqe3g","pricing_plan_id":"free"},{"bike_id":"1225aaac-710b-451f-81d3-bec87b5dcd6a","system_id":"levelo_inurba_marseille","lat":43.288497,"lon":5.393089,"is_reserved":false,"is_disabled":false,"rental_uris":{"android":"levelo://app?vid=1225aaac-710b-451f-81d3-bec87b5dcd6a","ios":"levelo://app?vid=1225aaac-710b-451f-81d3-bec87b5dcd6a"},"vehicle_type_id":"4","last_reported":1685390806,"current_range_meters":5200,"station_id":"ce4bh2p2rcd13ifvqdi0","pricing_plan_id":"free"},{"bike_id":"a63b6134-0e03-40d8-a753-652b05feb921","system_id":"levelo_inurba_marseille","lat":43.288497,"lon":5.393089,"is_reserved":false,"is_disabled":false,"rental_uris":{"android":"levelo://app?vid=a63b6134-0e03-40d8-a753-652b05feb921","ios":"levelo://app?vid=a63b6134-0e03-40d8-a753-652b05feb921"},"vehicle_type_id":"4","last_reported":1685390806,"current_range_meters":6800,"station_id":"ce4bh2p2rcd13ifvqdi0","pricing_plan_id":"free"},{"bike_id":"f0032253-c890-4108-ae5c-ed741c365491","system_id":"levelo_inurba_marseille","lat":43.288497,"lon":5.393089,"is_reserved":false,"is_disabled":false,"rental_uris":{"android":"levelo://app?vid=f0032253-c890-4108-ae5c-ed741c365491","ios":"levelo://app?vid=f0032253-c890-4108-ae5c-ed741c365491"},"vehicle_type_id":"4","last_reported":1685390806,"current_range_meters":800,"station_id":"ce4bh2p2rcd13ifvqdi0","pricing_plan_id":"free"},{"bike_id":"b340bc7c-339a-41ef-8d27-a5687ae287d8","system_id":"levelo_inurba_marseille","lat":43.28845,"lon":5.39318,"is_reserved":false,"is_disabled":false,"rental_uris":{"android":"levelo://app?vid=b340bc7c-339a-41ef-8d27-a5687ae287d8","ios":"levelo://app?vid=b340bc7c-339a-41ef-8d27-a5687ae287d8"},"vehicle_type_id":"4","last_reported":1685390806,"current_range_meters":5200,"station_id":"ce4bh2p2rcd13ifvqdi0","pricing_plan_id":"free"},{"bike_id":"aac6b717-70b1-45ae-95ec-208874b32251","system_id":"levelo_inurba_marseille","lat":43.288501,"lon":5.393087,"is_reserved":false,"is_disabled":false,"rental_uris":{"android":"levelo://app?vid=aac6b717-70b1-45ae-95ec-208874b32251","ios":"levelo://app?vid=aac6b717-70b1-45ae-95ec-208874b32251"},"vehicle_type_id":"4","last_reported":1685390806,"current_range_meters":10800,"station_id":"ce4bh2p2rcd13ifvqdi0","pricing_plan_id":"free"},{"bike_id":"9b499205-77fb-4d1c-9a0d-4b1091e044fe","system_id":"levelo_inurba_marseille","lat":43.310785,"lon":5.424305,"is_reserved":false,"is_disabled":false,"rental_uris":{"android":"levelo://app?vid=9b499205-77fb-4d1c-9a0d-4b1091e044fe","ios":"levelo://app?vid=9b499205-77fb-4d1c-9a0d-4b1091e044fe"},"vehicle_type_id":"4","last_reported":1685390806,"current_range_meters":1600,"station_id":"ce4bhp92rcd13ifvqhag","pricing_plan_id":"free"},{"bike_id":"ff038a5f-e1f1-4f3c-acd8-0910f26eaf23","system_id":"levelo_inurba_marseille","lat":43.283494,"lon":5.380945,"is_reserved":false,"is_disabled":false,"rental_uris":{"android":"levelo://app?vid=ff038a5f-e1f1-4f3c-acd8-0910f26eaf23","ios":"levelo://app?vid=ff038a5f-e1f1-4f3c-acd8-0910f26eaf23"},"vehicle_type_id":"4","last_reported":1685390806,"current_range_meters":31600,"station_id":"ce4bh412rcd13ifvqdr0","pricing_plan_id":"free"},{"bike_id":"90773ef0-fb98-494c-91ca-5ef606c0a914","system_id":"levelo_inurba_marseille","lat":43.283494,"lon":5.380945,"is_reserved":false,"is_disabled":false,"rental_uris":{"android":"levelo://app?vid=90773ef0-fb98-494c-91ca-5ef606c0a914","ios":"levelo://app?vid=90773ef0-fb98-494c-91ca-5ef606c0a914"},"vehicle_type_id":"4","last_reported":1685390806,"current_range_meters":21200,"station_id":"ce4bh412rcd13ifvqdr0","pricing_plan_id":"free"},{"bike_id":"7007e466-28f5-4b92-ba7d-91146b8bf26e","system_id":"levelo_inurba_marseille","lat":43.289363,"lon":5.396322,"is_reserved":false,"is_disabled":false,"rental_uris":{"android":"levelo://app?vid=7007e466-28f5-4b92-ba7d-91146b8bf26e","ios":"levelo://app?vid=7007e466-28f5-4b92-ba7d-91146b8bf26e"},"vehicle_type_id":"4","last_reported":1685390806,"current_range_meters":16400,"station_id":"ce4bh3h2rcd13ifvqdn0","pricing_plan_id":"free"},{"bike_id":"c4bfd046-7c04-4bd5-bc3e-f7ba98e93ea4","system_id":"levelo_inurba_marseille","lat":43.289363,"lon":5.396322,"is_reserved":false,"is_disabled":false,"rental_uris":{"android":"levelo://app?vid=c4bfd046-7c04-4bd5-bc3e-f7ba98e93ea4","ios":"levelo://app?vid=c4bfd046-7c04-4bd5-bc3e-f7ba98e93ea4"},"vehicle_type_id":"4","last_reported":1685390806,"current_range_meters":8400,"station_id":"ce4bh3h2rcd13ifvqdn0","pricing_plan_id":"free"},{"bike_id":"1671423a-115f-486b-a5f9-f9bc819623c3","system_id":"levelo_inurba_marseille","lat":43.28938,"lon":5.39628,"is_reserved":false,"is_disabled":false,"rental_uris":{"android":"levelo://app?vid=1671423a-115f-486b-a5f9-f9bc819623c3","ios":"levelo://app?vid=1671423a-115f-486b-a5f9-f9bc819623c3"},"vehicle_type_id":"4","last_reported":1685390806,"current_range_meters":10800,"station_id":"ce4bh3h2rcd13ifvqdn0","pricing_plan_id":"free"},{"bike_id":"8a8a5299-0ab4-48de-a71f-9b0f438a834e","system_id":"levelo_inurba_marseille","lat":43.292724,"lon":5.401131,"is_reserved":false,"is_disabled":false,"rental_uris":{"android":"levelo://app?vid=8a8a5299-0ab4-48de-a71f-9b0f438a834e","ios":"levelo://app?vid=8a8a5299-0ab4-48de-a71f-9b0f438a834e"},"vehicle_type_id":"4","last_reported":1685390806,"current_range_meters":22800,"station_id":"ce4bh312rcd13ifvqdk0","pricing_plan_id":"free"},{"bike_id":"855cb5fc-e806-42f8-bca0-2b07d70f88a3","system_id":"levelo_inurba_marseille","lat":43.292724,"lon":5.401131,"is_reserved":false,"is_disabled":false,"rental_uris":{"android":"levelo://app?vid=855cb5fc-e806-42f8-bca0-2b07d70f88a3","ios":"levelo://app?vid=855cb5fc-e806-42f8-bca0-2b07d70f88a3"},"vehicle_type_id":"4","last_reported":1685390806,"current_range_meters":1200,"station_id":"ce4bh312rcd13ifvqdk0","pricing_plan_id":"free"},{"bike_id":"e5f6ced2-b7f4-4ca4-b8bf-649d536e0b2d","system_id":"levelo_inurba_marseille","lat":43.292724,"lon":5.401131,"is_reserved":false,"is_disabled":false,"rental_uris":{"android":"levelo://app?vid=e5f6ced2-b7f4-4ca4-b8bf-649d536e0b2d","ios":"levelo://app?vid=e5f6ced2-b7f4-4ca4-b8bf-649d536e0b2d"},"vehicle_type_id":"4","last_reported":1685390806,"current_range_meters":400,"station_id":"ce4bh312rcd13ifvqdk0","pricing_plan_id":"free"},{"bike_id":"d1487993-c50c-472b-a527-d6dce88eac8c","system_id":"levelo_inurba_marseille","lat":43.292724,"lon":5.401131,"is_reserved":false,"is_disabled":false,"rental_uris":{"android":"levelo://app?vid=d1487993-c50c-472b-a527-d6dce88eac8c","ios":"levelo://app?vid=d1487993-c50c-472b-a527-d6dce88eac8c"},"vehicle_type_id":"4","last_reported":1685390806,"current_range_meters":21200,"station_id":"ce4bh312rcd13ifvqdk0","pricing_plan_id":"free"},{"bike_id":"9b946f11-1f13-4040-ad02-df95ec070a54","system_id":"levelo_inurba_marseille","lat":43.282754,"lon":5.350519,"is_reserved":false,"is_disabled":false,"rental_uris":{"android":"levelo://app?vid=9b946f11-1f13-4040-ad02-df95ec070a54","ios":"levelo://app?vid=9b946f11-1f13-4040-ad02-df95ec070a54"},"vehicle_type_id":"4","last_reported":1685390806,"current_range_meters":1200,"station_id":"ce4bhbp2rcd13ifvqerg","pricing_plan_id":"free"},{"bike_id":"47b1bee4-243b-4c06-9926-dbadcdb9f7ae","system_id":"levelo_inurba_marseille","lat":43.28039,"lon":5.369297,"is_reserved":false,"is_disabled":false,"rental_uris":{"android":"levelo://app?vid=47b1bee4-243b-4c06-9926-dbadcdb9f7ae","ios":"levelo://app?vid=47b1bee4-243b-4c06-9926-dbadcdb9f7ae"},"vehicle_type_id":"4","last_reported":1685390806,"current_range_meters":1600,"station_id":"ce4bha12rcd13ifvqef0","pricing_plan_id":"free"},{"bike_id":"95339fdd-0215-41a6-b7d7-903411ef2cb6","system_id":"levelo_inurba_marseille","lat":43.28039,"lon":5.369297,"is_reserved":false,"is_disabled":false,"rental_uris":{"android":"levelo://app?vid=95339fdd-0215-41a6-b7d7-903411ef2cb6","ios":"levelo://app?vid=95339fdd-0215-41a6-b7d7-903411ef2cb6"},"vehicle_type_id":"4","last_reported":1685390806,"current_range_meters":24400,"station_id":"ce4bha12rcd13ifvqef0","pricing_plan_id":"free"},{"bike_id":"ec70ec26-77d3-444d-a4ef-25c73a19aba3","system_id":"levelo_inurba_marseille","lat":43.29035,"lon":5.39953,"is_reserved":false,"is_disabled":false,"rental_uris":{"android":"levelo://app?vid=ec70ec26-77d3-444d-a4ef-25c73a19aba3","ios":"levelo://app?vid=ec70ec26-77d3-444d-a4ef-25c73a19aba3"},"vehicle_type_id":"4","last_reported":1685390806,"current_range_meters":16400,"station_id":"ce4bh392rcd13ifvqdm0","pricing_plan_id":"free"},{"bike_id":"a58a5910-b4f5-490a-bbd7-038ce7c04af8","system_id":"levelo_inurba_marseille","lat":43.281044,"lon":5.378308,"is_reserved":false,"is_disabled":false,"rental_uris":{"android":"levelo://app?vid=a58a5910-b4f5-490a-bbd7-038ce7c04af8","ios":"levelo://app?vid=a58a5910-b4f5-490a-bbd7-038ce7c04af8"},"vehicle_type_id":"4","last_reported":1685390806,"current_range_meters":23200,"station_id":"ce4bha12rcd13ifvqee0","pricing_plan_id":"free"},{"bike_id":"971ed3cc-3b28-4216-81fe-046c44a956ec","system_id":"levelo_inurba_marseille","lat":43.281044,"lon":5.378308,"is_reserved":false,"is_disabled":false,"rental_uris":{"android":"levelo://app?vid=971ed3cc-3b28-4216-81fe-046c44a956ec","ios":"levelo://app?vid=971ed3cc-3b28-4216-81fe-046c44a956ec"},"vehicle_type_id":"4","last_reported":1685390806,"current_range_meters":6400,"station_id":"ce4bha12rcd13ifvqee0","pricing_plan_id":"free"},{"bike_id":"f76c0686-61f9-4a8a-be7a-ab685e168a08","system_id":"levelo_inurba_marseille","lat":43.281044,"lon":5.378308,"is_reserved":false,"is_disabled":false,"rental_uris":{"android":"levelo://app?vid=f76c0686-61f9-4a8a-be7a-ab685e168a08","ios":"levelo://app?vid=f76c0686-61f9-4a8a-be7a-ab685e168a08"},"vehicle_type_id":"4","last_reported":1685390806,"current_range_meters":2000,"station_id":"ce4bha12rcd13ifvqee0","pricing_plan_id":"free"},{"bike_id":"57626bc4-351b-4d87-abb0-0ff27564887c","system_id":"levelo_inurba_marseille","lat":43.281044,"lon":5.378308,"is_reserved":false,"is_disabled":false,"rental_uris":{"android":"levelo://app?vid=57626bc4-351b-4d87-abb0-0ff27564887c","ios":"levelo://app?vid=57626bc4-351b-4d87-abb0-0ff27564887c"},"vehicle_type_id":"4","last_reported":1685390806,"current_range_meters":20800,"station_id":"ce4bha12rcd13ifvqee0","pricing_plan_id":"free"},{"bike_id":"e912d36a-e630-4967-875f-e8a8c1b28c01","system_id":"levelo_inurba_marseille","lat":43.281044,"lon":5.378308,"is_reserved":false,"is_disabled":false,"rental_uris":{"android":"levelo://app?vid=e912d36a-e630-4967-875f-e8a8c1b28c01","ios":"levelo://app?vid=e912d36a-e630-4967-875f-e8a8c1b28c01"},"vehicle_type_id":"4","last_reported":1685390806,"current_range_meters":27600,"station_id":"ce4bha12rcd13ifvqee0","pricing_plan_id":"free"},{"bike_id":"0a91f695-24b8-4063-a86c-17b30d57b6eb","system_id":"levelo_inurba_marseille","lat":43.296263,"lon":5.40601,"is_reserved":false,"is_disabled":false,"rental_uris":{"android":"levelo://app?vid=0a91f695-24b8-4063-a86c-17b30d57b6eb","ios":"levelo://app?vid=0a91f695-24b8-4063-a86c-17b30d57b6eb"},"vehicle_type_id":"4","last_reported":1685390806,"current_range_meters":5600,"station_id":"ce4bh0h2rcd13ifvqd60","pricing_plan_id":"free"},{"bike_id":"caa21cc0-dee7-4c23-b1cf-9dac9fbadfb0","system_id":"levelo_inurba_marseille","lat":43.281044,"lon":5.378308,"is_reserved":false,"is_disabled":false,"rental_uris":{"android":"levelo://app?vid=caa21cc0-dee7-4c23-b1cf-9dac9fbadfb0","ios":"levelo://app?vid=caa21cc0-dee7-4c23-b1cf-9dac9fbadfb0"},"vehicle_type_id":"4","last_reported":1685390806,"current_range_meters":28000,"station_id":"ce4bha12rcd13ifvqee0","pricing_plan_id":"free"},{"bike_id":"b6bf9326-00f0-493c-b398-db2433806ad0","system_id":"levelo_inurba_marseille","lat":43.281044,"lon":5.378308,"is_reserved":false,"is_disabled":false,"rental_uris":{"android":"levelo://app?vid=b6bf9326-00f0-493c-b398-db2433806ad0","ios":"levelo://app?vid=b6bf9326-00f0-493c-b398-db2433806ad0"},"vehicle_type_id":"4","last_reported":1685390806,"current_range_meters":17200,"station_id":"ce4bha12rcd13ifvqee0","pricing_plan_id":"free"},{"bike_id":"b5e523e4-f969-4839-a37a-5a1dd7ad7df6","system_id":"levelo_inurba_marseille","lat":43.28091,"lon":5.37847,"is_reserved":false,"is_disabled":false,"rental_uris":{"android":"levelo://app?vid=b5e523e4-f969-4839-a37a-5a1dd7ad7df6","ios":"levelo://app?vid=b5e523e4-f969-4839-a37a-5a1dd7ad7df6"},"vehicle_type_id":"4","last_reported":1685390806,"current_range_meters":22000,"station_id":"ce4bha12rcd13ifvqee0","pricing_plan_id":"free"},{"bike_id":"9d835ed8-1041-49e2-8d8e-ccde1a696b7f","system_id":"levelo_inurba_marseille","lat":43.284462,"lon":5.392121,"is_reserved":false,"is_disabled":false,"rental_uris":{"android":"levelo://app?vid=9d835ed8-1041-49e2-8d8e-ccde1a696b7f","ios":"levelo://app?vid=9d835ed8-1041-49e2-8d8e-ccde1a696b7f"},"vehicle_type_id":"4","last_reported":1685390806,"current_range_meters":15200,"station_id":"ce4bhoh2rcd13ifvqh5g","pricing_plan_id":"free"},{"bike_id":"ea9c728c-75f4-40c5-9f20-645d746ed5f1","system_id":"levelo_inurba_marseille","lat":43.28573,"lon":5.394992,"is_reserved":false,"is_disabled":false,"rental_uris":{"android":"levelo://app?vid=ea9c728c-75f4-40c5-9f20-645d746ed5f1","ios":"levelo://app?vid=ea9c728c-75f4-40c5-9f20-645d746ed5f1"},"vehicle_type_id":"4","last_reported":1685390806,"current_range_meters":19200,"station_id":"ce4bh292rcd13ifvqdg0","pricing_plan_id":"free"},{"bike_id":"66668c22-6aa3-4657-8f7a-1fafef019cda","system_id":"levelo_inurba_marseille","lat":43.285742,"lon":5.395004,"is_reserved":false,"is_disabled":false,"rental_uris":{"android":"levelo://app?vid=66668c22-6aa3-4657-8f7a-1fafef019cda","ios":"levelo://app?vid=66668c22-6aa3-4657-8f7a-1fafef019cda"},"vehicle_type_id":"4","last_reported":1685390806,"current_range_meters":23200,"station_id":"ce4bh292rcd13ifvqdg0","pricing_plan_id":"free"},{"bike_id":"47f1c969-39b0-49ad-933e-fd9e2f9169a0","system_id":"levelo_inurba_marseille","lat":43.28573,"lon":5.394992,"is_reserved":false,"is_disabled":false,"rental_uris":{"android":"levelo://app?vid=47f1c969-39b0-49ad-933e-fd9e2f9169a0","ios":"levelo://app?vid=47f1c969-39b0-49ad-933e-fd9e2f9169a0"},"vehicle_type_id":"4","last_reported":1685390806,"current_range_meters":30400,"station_id":"ce4bh292rcd13ifvqdg0","pricing_plan_id":"free"},{"bike_id":"f0447088-943e-440a-adb7-8886e9f79049","system_id":"levelo_inurba_marseille","lat":43.28573,"lon":5.394992,"is_reserved":false,"is_disabled":false,"rental_uris":{"android":"levelo://app?vid=f0447088-943e-440a-adb7-8886e9f79049","ios":"levelo://app?vid=f0447088-943e-440a-adb7-8886e9f79049"},"vehicle_type_id":"4","last_reported":1685390806,"current_range_meters":7600,"station_id":"ce4bh292rcd13ifvqdg0","pricing_plan_id":"free"},{"bike_id":"6ebfea49-f843-4651-b8df-ca3c67b4a2f1","system_id":"levelo_inurba_marseille","lat":43.285392,"lon":5.395055,"is_reserved":false,"is_disabled":false,"rental_uris":{"android":"levelo://app?vid=6ebfea49-f843-4651-b8df-ca3c67b4a2f1","ios":"levelo://app?vid=6ebfea49-f843-4651-b8df-ca3c67b4a2f1"},"vehicle_type_id":"4","last_reported":1685390806,"current_range_meters":8400,"station_id":"ce4bh292rcd13ifvqdg0","pricing_plan_id":"free"},{"bike_id":"4cb4f14c-101a-42bd-a855-c4d9f4718faf","system_id":"levelo_inurba_marseille","lat":43.28717,"lon":5.3999,"is_reserved":false,"is_disabled":false,"rental_uris":{"android":"levelo://app?vid=4cb4f14c-101a-42bd-a855-c4d9f4718faf","ios":"levelo://app?vid=4cb4f14c-101a-42bd-a855-c4d9f4718faf"},"vehicle_type_id":"4","last_reported":1685390806,"current_range_meters":0,"station_id":"ce4bho92rcd13ifvqh3g","pricing_plan_id":"free"},{"bike_id":"7b347dc2-3947-40d8-91ef-9c492af93b5d","system_id":"levelo_inurba_marseille","lat":43.2871,"lon":5.39994,"is_reserved":false,"is_disabled":false,"rental_uris":{"android":"levelo://app?vid=7b347dc2-3947-40d8-91ef-9c492af93b5d","ios":"levelo://app?vid=7b347dc2-3947-40d8-91ef-9c492af93b5d"},"vehicle_type_id":"4","last_reported":1685390806,"current_range_meters":0,"station_id":"ce4bho92rcd13ifvqh3g","pricing_plan_id":"free"},{"bike_id":"00d6e3bb-b27a-4869-b104-6967b51c868c","system_id":"levelo_inurba_marseille","lat":43.287154,"lon":5.399979,"is_reserved":false,"is_disabled":false,"rental_uris":{"android":"levelo://app?vid=00d6e3bb-b27a-4869-b104-6967b51c868c","ios":"levelo://app?vid=00d6e3bb-b27a-4869-b104-6967b51c868c"},"vehicle_type_id":"4","last_reported":1685390806,"current_range_meters":3600,"station_id":"ce4bho92rcd13ifvqh3g","pricing_plan_id":"free"},{"bike_id":"25e1e598-f10f-46df-946e-d4c431686782","system_id":"levelo_inurba_marseille","lat":43.287154,"lon":5.399979,"is_reserved":false,"is_disabled":false,"rental_uris":{"android":"levelo://app?vid=25e1e598-f10f-46df-946e-d4c431686782","ios":"levelo://app?vid=25e1e598-f10f-46df-946e-d4c431686782"},"vehicle_type_id":"4","last_reported":1685390806,"current_range_meters":0,"station_id":"ce4bho92rcd13ifvqh3g","pricing_plan_id":"free"},{"bike_id":"b45be651-f332-41af-8415-8b7c1e1524e5","system_id":"levelo_inurba_marseille","lat":43.287154,"lon":5.399979,"is_reserved":false,"is_disabled":false,"rental_uris":{"android":"levelo://app?vid=b45be651-f332-41af-8415-8b7c1e1524e5","ios":"levelo://app?vid=b45be651-f332-41af-8415-8b7c1e1524e5"},"vehicle_type_id":"4","last_reported":1685390806,"current_range_meters":2800,"station_id":"ce4bho92rcd13ifvqh3g","pricing_plan_id":"free"},{"bike_id":"97f2ee9c-d68e-4c6a-81b6-9a9040dd168f","system_id":"levelo_inurba_marseille","lat":43.287154,"lon":5.399979,"is_reserved":false,"is_disabled":false,"rental_uris":{"android":"levelo://app?vid=97f2ee9c-d68e-4c6a-81b6-9a9040dd168f","ios":"levelo://app?vid=97f2ee9c-d68e-4c6a-81b6-9a9040dd168f"},"vehicle_type_id":"4","last_reported":1685390806,"current_range_meters":1600,"station_id":"ce4bho92rcd13ifvqh3g","pricing_plan_id":"free"},{"bike_id":"1dcef9cd-fff5-4f56-b721-3dfbbd1ada34","system_id":"levelo_inurba_marseille","lat":43.279742,"lon":5.38744,"is_reserved":false,"is_disabled":false,"rental_uris":{"android":"levelo://app?vid=1dcef9cd-fff5-4f56-b721-3dfbbd1ada34","ios":"levelo://app?vid=1dcef9cd-fff5-4f56-b721-3dfbbd1ada34"},"vehicle_type_id":"4","last_reported":1685390806,"current_range_meters":16800,"station_id":"ce4bhg12rcd13ifvqf80","pricing_plan_id":"free"},{"bike_id":"06c18f8b-8ed4-4e71-a77b-6fb923727ee9","system_id":"levelo_inurba_marseille","lat":43.292569,"lon":5.409107,"is_reserved":false,"is_disabled":false,"rental_uris":{"android":"levelo://app?vid=06c18f8b-8ed4-4e71-a77b-6fb923727ee9","ios":"levelo://app?vid=06c18f8b-8ed4-4e71-a77b-6fb923727ee9"},"vehicle_type_id":"4","last_reported":1685390806,"current_range_meters":10400,"station_id":"ce4bh192rcd13ifvqdc0","pricing_plan_id":"free"},{"bike_id":"f4b8133a-4d22-458a-bc77-8e01defd8c93","system_id":"levelo_inurba_marseille","lat":43.29251,"lon":5.40907,"is_reserved":false,"is_disabled":false,"rental_uris":{"android":"levelo://app?vid=f4b8133a-4d22-458a-bc77-8e01defd8c93","ios":"levelo://app?vid=f4b8133a-4d22-458a-bc77-8e01defd8c93"},"vehicle_type_id":"4","last_reported":1685390806,"current_range_meters":0,"station_id":"ce4bh192rcd13ifvqdc0","pricing_plan_id":"free"},{"bike_id":"43e751b2-af47-482c-b4ff-066feca566a0","system_id":"levelo_inurba_marseille","lat":43.280784,"lon":5.396622,"is_reserved":false,"is_disabled":false,"rental_uris":{"android":"levelo://app?vid=43e751b2-af47-482c-b4ff-066feca566a0","ios":"levelo://app?vid=43e751b2-af47-482c-b4ff-066feca566a0"},"vehicle_type_id":"4","last_reported":1685390806,"current_range_meters":10000,"station_id":"ce4bho12rcd13ifvqh2g","pricing_plan_id":"free"},{"bike_id":"a559be4f-2ec9-4a49-85bc-72621f478390","system_id":"levelo_inurba_marseille","lat":43.28078,"lon":5.39662,"is_reserved":false,"is_disabled":false,"rental_uris":{"android":"levelo://app?vid=a559be4f-2ec9-4a49-85bc-72621f478390","ios":"levelo://app?vid=a559be4f-2ec9-4a49-85bc-72621f478390"},"vehicle_type_id":"4","last_reported":1685390806,"current_range_meters":27600,"station_id":"ce4bho12rcd13ifvqh2g","pricing_plan_id":"free"},{"bike_id":"a6183742-cf4f-439c-9fb7-40bbe5d2103b","system_id":"levelo_inurba_marseille","lat":43.280784,"lon":5.396622,"is_reserved":false,"is_disabled":false,"rental_uris":{"android":"levelo://app?vid=a6183742-cf4f-439c-9fb7-40bbe5d2103b","ios":"levelo://app?vid=a6183742-cf4f-439c-9fb7-40bbe5d2103b"},"vehicle_type_id":"4","last_reported":1685390806,"current_range_meters":23200,"station_id":"ce4bho12rcd13ifvqh2g","pricing_plan_id":"free"},{"bike_id":"f1c3a643-e82e-4236-9f4b-a8235aeb6f72","system_id":"levelo_inurba_marseille","lat":43.278399,"lon":5.392139,"is_reserved":false,"is_disabled":false,"rental_uris":{"android":"levelo://app?vid=f1c3a643-e82e-4236-9f4b-a8235aeb6f72","ios":"levelo://app?vid=f1c3a643-e82e-4236-9f4b-a8235aeb6f72"},"vehicle_type_id":"4","last_reported":1685390806,"current_range_meters":6800,"station_id":"ce4bhjp2rcd13ifvqga0","pricing_plan_id":"free"},{"bike_id":"7f3df96e-fb54-4ce7-b3b2-58cb4d962f52","system_id":"levelo_inurba_marseille","lat":43.278399,"lon":5.392139,"is_reserved":false,"is_disabled":false,"rental_uris":{"android":"levelo://app?vid=7f3df96e-fb54-4ce7-b3b2-58cb4d962f52","ios":"levelo://app?vid=7f3df96e-fb54-4ce7-b3b2-58cb4d962f52"},"vehicle_type_id":"4","last_reported":1685390806,"current_range_meters":13600,"station_id":"ce4bhjp2rcd13ifvqga0","pricing_plan_id":"free"},{"bike_id":"7867a613-f2f5-453c-9826-52c97b088050","system_id":"levelo_inurba_marseille","lat":43.278399,"lon":5.392139,"is_reserved":false,"is_disabled":false,"rental_uris":{"android":"levelo://app?vid=7867a613-f2f5-453c-9826-52c97b088050","ios":"levelo://app?vid=7867a613-f2f5-453c-9826-52c97b088050"},"vehicle_type_id":"4","last_reported":1685390806,"current_range_meters":26800,"station_id":"ce4bhjp2rcd13ifvqga0","pricing_plan_id":"free"},{"bike_id":"43072536-585c-4ccd-b5a3-d81511196a3a","system_id":"levelo_inurba_marseille","lat":43.276769,"lon":5.388787,"is_reserved":false,"is_disabled":false,"rental_uris":{"android":"levelo://app?vid=43072536-585c-4ccd-b5a3-d81511196a3a","ios":"levelo://app?vid=43072536-585c-4ccd-b5a3-d81511196a3a"},"vehicle_type_id":"4","last_reported":1685390806,"current_range_meters":9600,"station_id":"ce4bhi12rcd13ifvqfo0","pricing_plan_id":"free"},{"bike_id":"38e84c47-6666-4ee0-b609-c12af9c51e80","system_id":"levelo_inurba_marseille","lat":43.276771,"lon":5.388799,"is_reserved":false,"is_disabled":false,"rental_uris":{"android":"levelo://app?vid=38e84c47-6666-4ee0-b609-c12af9c51e80","ios":"levelo://app?vid=38e84c47-6666-4ee0-b609-c12af9c51e80"},"vehicle_type_id":"4","last_reported":1685390806,"current_range_meters":0,"station_id":"ce4bhi12rcd13ifvqfo0","pricing_plan_id":"free"},{"bike_id":"91b49189-18df-431a-bbbf-f0b2350181de","system_id":"levelo_inurba_marseille","lat":43.28424,"lon":5.40788,"is_reserved":false,"is_disabled":false,"rental_uris":{"android":"levelo://app?vid=91b49189-18df-431a-bbbf-f0b2350181de","ios":"levelo://app?vid=91b49189-18df-431a-bbbf-f0b2350181de"},"vehicle_type_id":"4","last_reported":1685390806,"current_range_meters":2400,"station_id":"","pricing_plan_id":"free"},{"bike_id":"a6c1561c-8f12-4d93-8c9d-afec0b961f21","system_id":"levelo_inurba_marseille","lat":43.310785,"lon":5.424305,"is_reserved":false,"is_disabled":false,"rental_uris":{"android":"levelo://app?vid=a6c1561c-8f12-4d93-8c9d-afec0b961f21","ios":"levelo://app?vid=a6c1561c-8f12-4d93-8c9d-afec0b961f21"},"vehicle_type_id":"4","last_reported":1685390806,"current_range_meters":10400,"station_id":"ce4bhp92rcd13ifvqhag","pricing_plan_id":"free"},{"bike_id":"eb08d254-0735-4cee-8ef3-e42909f01409","system_id":"levelo_inurba_marseille","lat":43.261782,"lon":5.374515,"is_reserved":false,"is_disabled":false,"rental_uris":{"android":"levelo://app?vid=eb08d254-0735-4cee-8ef3-e42909f01409","ios":"levelo://app?vid=eb08d254-0735-4cee-8ef3-e42909f01409"},"vehicle_type_id":"4","last_reported":1685390806,"current_range_meters":3200,"station_id":"ce4bhgp2rcd13ifvqfc0","pricing_plan_id":"free"},{"bike_id":"d57c1e39-c8a2-46ba-a47b-a6980483d2a5","system_id":"levelo_inurba_marseille","lat":43.304096,"lon":5.425385,"is_reserved":false,"is_disabled":false,"rental_uris":{"android":"levelo://app?vid=d57c1e39-c8a2-46ba-a47b-a6980483d2a5","ios":"levelo://app?vid=d57c1e39-c8a2-46ba-a47b-a6980483d2a5"},"vehicle_type_id":"4","last_reported":1685390806,"current_range_meters":11200,"station_id":"ce4bhoh2rcd13ifvqh6g","pricing_plan_id":"free"},{"bike_id":"7ced472c-e968-4f03-8dcf-84938741b45b","system_id":"levelo_inurba_marseille","lat":43.295523,"lon":5.422926,"is_reserved":false,"is_disabled":false,"rental_uris":{"android":"levelo://app?vid=7ced472c-e968-4f03-8dcf-84938741b45b","ios":"levelo://app?vid=7ced472c-e968-4f03-8dcf-84938741b45b"},"vehicle_type_id":"4","last_reported":1685390806,"current_range_meters":800,"station_id":"ce4bhph2rcd13ifvqhdg","pricing_plan_id":"free"},{"bike_id":"006b1477-59d9-4abf-bf30-fe468e8a0337","system_id":"levelo_inurba_marseille","lat":43.30778,"lon":5.42778,"is_reserved":false,"is_disabled":false,"rental_uris":{"android":"levelo://app?vid=006b1477-59d9-4abf-bf30-fe468e8a0337","ios":"levelo://app?vid=006b1477-59d9-4abf-bf30-fe468e8a0337"},"vehicle_type_id":"4","last_reported":1685390806,"current_range_meters":25600,"station_id":"","pricing_plan_id":"free"},{"bike_id":"d5dd3644-ecf4-433e-8139-84aa72f51b1a","system_id":"levelo_inurba_marseille","lat":43.278128,"lon":5.407195,"is_reserved":false,"is_disabled":false,"rental_uris":{"android":"levelo://app?vid=d5dd3644-ecf4-433e-8139-84aa72f51b1a","ios":"levelo://app?vid=d5dd3644-ecf4-433e-8139-84aa72f51b1a"},"vehicle_type_id":"4","last_reported":1685390806,"current_range_meters":24400,"station_id":"ce4bhnh2rcd13ifvqgtg","pricing_plan_id":"free"},{"bike_id":"065d3873-a0bb-4371-95c5-a024d87274be","system_id":"levelo_inurba_marseille","lat":43.2781,"lon":5.40706,"is_reserved":false,"is_disabled":false,"rental_uris":{"android":"levelo://app?vid=065d3873-a0bb-4371-95c5-a024d87274be","ios":"levelo://app?vid=065d3873-a0bb-4371-95c5-a024d87274be"},"vehicle_type_id":"4","last_reported":1685390806,"current_range_meters":6800,"station_id":"ce4bhnh2rcd13ifvqgtg","pricing_plan_id":"free"},{"bike_id":"7067f393-3ad1-4f72-a3ca-ed697ad6f2ab","system_id":"levelo_inurba_marseille","lat":43.26681,"lon":5.382694,"is_reserved":false,"is_disabled":false,"rental_uris":{"android":"levelo://app?vid=7067f393-3ad1-4f72-a3ca-ed697ad6f2ab","ios":"levelo://app?vid=7067f393-3ad1-4f72-a3ca-ed697ad6f2ab"},"vehicle_type_id":"4","last_reported":1685390806,"current_range_meters":25200,"station_id":"ce4bhg92rcd13ifvqf90","pricing_plan_id":"free"},{"bike_id":"3d05dbb1-d56c-4933-a6b1-90c3b839356e","system_id":"levelo_inurba_marseille","lat":43.26681,"lon":5.382694,"is_reserved":false,"is_disabled":false,"rental_uris":{"android":"levelo://app?vid=3d05dbb1-d56c-4933-a6b1-90c3b839356e","ios":"levelo://app?vid=3d05dbb1-d56c-4933-a6b1-90c3b839356e"},"vehicle_type_id":"4","last_reported":1685390806,"current_range_meters":29200,"station_id":"ce4bhg92rcd13ifvqf90","pricing_plan_id":"free"},{"bike_id":"d9d9b657-7cdd-4600-acb5-7fc6140ff404","system_id":"levelo_inurba_marseille","lat":43.26548,"lon":5.372857,"is_reserved":false,"is_disabled":false,"rental_uris":{"android":"levelo://app?vid=d9d9b657-7cdd-4600-acb5-7fc6140ff404","ios":"levelo://app?vid=d9d9b657-7cdd-4600-acb5-7fc6140ff404"},"vehicle_type_id":"4","last_reported":1685390806,"current_range_meters":1600,"station_id":"ce4bh492rcd13ifvqdvg","pricing_plan_id":"free"},{"bike_id":"97f92444-dc7f-4ac8-885e-43ac50454dc0","system_id":"levelo_inurba_marseille","lat":43.31679,"lon":5.4333,"is_reserved":false,"is_disabled":false,"rental_uris":{"android":"levelo://app?vid=97f92444-dc7f-4ac8-885e-43ac50454dc0","ios":"levelo://app?vid=97f92444-dc7f-4ac8-885e-43ac50454dc0"},"vehicle_type_id":"4","last_reported":1685390806,"current_range_meters":0,"station_id":"","pricing_plan_id":"free"},{"bike_id":"0d2b983e-0f91-40fa-bb97-fb10c1d47d44","system_id":"levelo_inurba_marseille","lat":43.27996,"lon":5.416624,"is_reserved":false,"is_disabled":false,"rental_uris":{"android":"levelo://app?vid=0d2b983e-0f91-40fa-bb97-fb10c1d47d44","ios":"levelo://app?vid=0d2b983e-0f91-40fa-bb97-fb10c1d47d44"},"vehicle_type_id":"4","last_reported":1685390806,"current_range_meters":800,"station_id":"ce4bho12rcd13ifvqh1g","pricing_plan_id":"free"},{"bike_id":"43f13e32-2027-4eb6-9c1f-d6455f8722f0","system_id":"levelo_inurba_marseille","lat":43.27996,"lon":5.416624,"is_reserved":false,"is_disabled":false,"rental_uris":{"android":"levelo://app?vid=43f13e32-2027-4eb6-9c1f-d6455f8722f0","ios":"levelo://app?vid=43f13e32-2027-4eb6-9c1f-d6455f8722f0"},"vehicle_type_id":"4","last_reported":1685390806,"current_range_meters":26400,"station_id":"ce4bho12rcd13ifvqh1g","pricing_plan_id":"free"},{"bike_id":"54dfd9d5-d8ae-4bb3-a00c-a179cdaf86d0","system_id":"levelo_inurba_marseille","lat":43.27996,"lon":5.416624,"is_reserved":false,"is_disabled":false,"rental_uris":{"android":"levelo://app?vid=54dfd9d5-d8ae-4bb3-a00c-a179cdaf86d0","ios":"levelo://app?vid=54dfd9d5-d8ae-4bb3-a00c-a179cdaf86d0"},"vehicle_type_id":"4","last_reported":1685390806,"current_range_meters":20800,"station_id":"ce4bho12rcd13ifvqh1g","pricing_plan_id":"free"},{"bike_id":"2970e44d-1019-413f-946c-d9b4a4581ef7","system_id":"levelo_inurba_marseille","lat":43.27996,"lon":5.416624,"is_reserved":false,"is_disabled":false,"rental_uris":{"android":"levelo://app?vid=2970e44d-1019-413f-946c-d9b4a4581ef7","ios":"levelo://app?vid=2970e44d-1019-413f-946c-d9b4a4581ef7"},"vehicle_type_id":"4","last_reported":1685390806,"current_range_meters":18800,"station_id":"ce4bho12rcd13ifvqh1g","pricing_plan_id":"free"},{"bike_id":"cbf3dd7e-eb0d-4a8c-8731-9d8d76845613","system_id":"levelo_inurba_marseille","lat":43.27996,"lon":5.416624,"is_reserved":false,"is_disabled":false,"rental_uris":{"android":"levelo://app?vid=cbf3dd7e-eb0d-4a8c-8731-9d8d76845613","ios":"levelo://app?vid=cbf3dd7e-eb0d-4a8c-8731-9d8d76845613"},"vehicle_type_id":"4","last_reported":1685390806,"current_range_meters":1600,"station_id":"ce4bho12rcd13ifvqh1g","pricing_plan_id":"free"},{"bike_id":"27c9fc2d-4cec-4c81-9305-7020b37d4bd9","system_id":"levelo_inurba_marseille","lat":43.267966,"lon":5.393976,"is_reserved":false,"is_disabled":false,"rental_uris":{"android":"levelo://app?vid=27c9fc2d-4cec-4c81-9305-7020b37d4bd9","ios":"levelo://app?vid=27c9fc2d-4cec-4c81-9305-7020b37d4bd9"},"vehicle_type_id":"4","last_reported":1685390806,"current_range_meters":0,"station_id":"ce4bhh12rcd13ifvqfg0","pricing_plan_id":"free"},{"bike_id":"d1851c0a-6e9b-458b-921f-ce85e914c0c7","system_id":"levelo_inurba_marseille","lat":43.308,"lon":5.43516,"is_reserved":false,"is_disabled":false,"rental_uris":{"android":"levelo://app?vid=d1851c0a-6e9b-458b-921f-ce85e914c0c7","ios":"levelo://app?vid=d1851c0a-6e9b-458b-921f-ce85e914c0c7"},"vehicle_type_id":"4","last_reported":1685390806,"current_range_meters":11200,"station_id":"","pricing_plan_id":"free"},{"bike_id":"4c1123e9-68de-4d56-a1ce-e6a1d2ce3a7a","system_id":"levelo_inurba_marseille","lat":43.265569,"lon":5.390047,"is_reserved":false,"is_disabled":false,"rental_uris":{"android":"levelo://app?vid=4c1123e9-68de-4d56-a1ce-e6a1d2ce3a7a","ios":"levelo://app?vid=4c1123e9-68de-4d56-a1ce-e6a1d2ce3a7a"},"vehicle_type_id":"4","last_reported":1685390806,"current_range_meters":15600,"station_id":"ce4bhe12rcd13ifvqf30","pricing_plan_id":"free"},{"bike_id":"9d77bf58-143e-43a2-9bf5-db49bcf86787","system_id":"levelo_inurba_marseille","lat":43.265569,"lon":5.390047,"is_reserved":false,"is_disabled":false,"rental_uris":{"android":"levelo://app?vid=9d77bf58-143e-43a2-9bf5-db49bcf86787","ios":"levelo://app?vid=9d77bf58-143e-43a2-9bf5-db49bcf86787"},"vehicle_type_id":"4","last_reported":1685390806,"current_range_meters":31200,"station_id":"ce4bhe12rcd13ifvqf30","pricing_plan_id":"free"},{"bike_id":"2fcc0c23-ac53-41eb-a2d4-d3336177ee7b","system_id":"levelo_inurba_marseille","lat":43.32316,"lon":5.4357,"is_reserved":false,"is_disabled":false,"rental_uris":{"android":"levelo://app?vid=2fcc0c23-ac53-41eb-a2d4-d3336177ee7b","ios":"levelo://app?vid=2fcc0c23-ac53-41eb-a2d4-d3336177ee7b"},"vehicle_type_id":"4","last_reported":1685390806,"current_range_meters":10400,"station_id":"","pricing_plan_id":"free"},{"bike_id":"df997386-4549-4653-bf5e-0ee8755d5852","system_id":"levelo_inurba_marseille","lat":43.261782,"lon":5.374515,"is_reserved":false,"is_disabled":false,"rental_uris":{"android":"levelo://app?vid=df997386-4549-4653-bf5e-0ee8755d5852","ios":"levelo://app?vid=df997386-4549-4653-bf5e-0ee8755d5852"},"vehicle_type_id":"4","last_reported":1685390806,"current_range_meters":8400,"station_id":"ce4bhgp2rcd13ifvqfc0","pricing_plan_id":"free"},{"bike_id":"c886b0d7-6fb9-4c3b-80f3-9117998d8bdb","system_id":"levelo_inurba_marseille","lat":43.27182,"lon":5.40994,"is_reserved":false,"is_disabled":false,"rental_uris":{"android":"levelo://app?vid=c886b0d7-6fb9-4c3b-80f3-9117998d8bdb","ios":"levelo://app?vid=c886b0d7-6fb9-4c3b-80f3-9117998d8bdb"},"vehicle_type_id":"4","last_reported":1685390806,"current_range_meters":23200,"station_id":"","pricing_plan_id":"free"},{"bike_id":"4be642e2-f871-4e33-bb4a-fb2b0004c8cf","system_id":"levelo_inurba_marseille","lat":43.27174,"lon":5.40989,"is_reserved":false,"is_disabled":false,"rental_uris":{"android":"levelo://app?vid=4be642e2-f871-4e33-bb4a-fb2b0004c8cf","ios":"levelo://app?vid=4be642e2-f871-4e33-bb4a-fb2b0004c8cf"},"vehicle_type_id":"4","last_reported":1685390806,"current_range_meters":6800,"station_id":"","pricing_plan_id":"free"},{"bike_id":"e01e4add-9126-451a-9912-309c038cfc13","system_id":"levelo_inurba_marseille","lat":43.271388,"lon":5.409269,"is_reserved":false,"is_disabled":false,"rental_uris":{"android":"levelo://app?vid=e01e4add-9126-451a-9912-309c038cfc13","ios":"levelo://app?vid=e01e4add-9126-451a-9912-309c038cfc13"},"vehicle_type_id":"4","last_reported":1685390806,"current_range_meters":28400,"station_id":"ce4bhl12rcd13ifvqgf0","pricing_plan_id":"free"},{"bike_id":"a82f1f3d-cf3e-4acf-b3a8-5051bcebffad","system_id":"levelo_inurba_marseille","lat":43.267959,"lon":5.402687,"is_reserved":false,"is_disabled":false,"rental_uris":{"android":"levelo://app?vid=a82f1f3d-cf3e-4acf-b3a8-5051bcebffad","ios":"levelo://app?vid=a82f1f3d-cf3e-4acf-b3a8-5051bcebffad"},"vehicle_type_id":"4","last_reported":1685390806,"current_range_meters":31200,"station_id":"ce501612rcd8frsf0b60","pricing_plan_id":"free"},{"bike_id":"d5d7c90c-6818-4808-a42b-96107f21122e","system_id":"levelo_inurba_marseille","lat":43.267959,"lon":5.402687,"is_reserved":false,"is_disabled":false,"rental_uris":{"android":"levelo://app?vid=d5d7c90c-6818-4808-a42b-96107f21122e","ios":"levelo://app?vid=d5d7c90c-6818-4808-a42b-96107f21122e"},"vehicle_type_id":"4","last_reported":1685390806,"current_range_meters":31200,"station_id":"ce501612rcd8frsf0b60","pricing_plan_id":"free"},{"bike_id":"01e3bdd2-e33f-49e8-83e3-caafd20a574a","system_id":"levelo_inurba_marseille","lat":43.267959,"lon":5.402685,"is_reserved":false,"is_disabled":false,"rental_uris":{"android":"levelo://app?vid=01e3bdd2-e33f-49e8-83e3-caafd20a574a","ios":"levelo://app?vid=01e3bdd2-e33f-49e8-83e3-caafd20a574a"},"vehicle_type_id":"4","last_reported":1685390806,"current_range_meters":29200,"station_id":"ce501612rcd8frsf0b60","pricing_plan_id":"free"},{"bike_id":"74474b43-2943-4493-a56d-39da3fa8faaa","system_id":"levelo_inurba_marseille","lat":43.267959,"lon":5.402687,"is_reserved":false,"is_disabled":false,"rental_uris":{"android":"levelo://app?vid=74474b43-2943-4493-a56d-39da3fa8faaa","ios":"levelo://app?vid=74474b43-2943-4493-a56d-39da3fa8faaa"},"vehicle_type_id":"4","last_reported":1685390806,"current_range_meters":29600,"station_id":"ce501612rcd8frsf0b60","pricing_plan_id":"free"},{"bike_id":"7bb42435-2456-4cb0-879f-fb51b0f4f105","system_id":"levelo_inurba_marseille","lat":43.260355,"lon":5.375478,"is_reserved":false,"is_disabled":false,"rental_uris":{"android":"levelo://app?vid=7bb42435-2456-4cb0-879f-fb51b0f4f105","ios":"levelo://app?vid=7bb42435-2456-4cb0-879f-fb51b0f4f105"},"vehicle_type_id":"4","last_reported":1685390806,"current_range_meters":31600,"station_id":"","pricing_plan_id":"free"},{"bike_id":"6b404443-757b-4b8d-9a78-a03ca59013fb","system_id":"levelo_inurba_marseille","lat":43.2592,"lon":5.37283,"is_reserved":false,"is_disabled":false,"rental_uris":{"android":"levelo://app?vid=6b404443-757b-4b8d-9a78-a03ca59013fb","ios":"levelo://app?vid=6b404443-757b-4b8d-9a78-a03ca59013fb"},"vehicle_type_id":"4","last_reported":1685390806,"current_range_meters":5200,"station_id":"","pricing_plan_id":"free"},{"bike_id":"4985b727-6c1a-4ec0-b3e8-f9c7daea61c5","system_id":"levelo_inurba_marseille","lat":43.260909,"lon":5.397591,"is_reserved":false,"is_disabled":false,"rental_uris":{"android":"levelo://app?vid=4985b727-6c1a-4ec0-b3e8-f9c7daea61c5","ios":"levelo://app?vid=4985b727-6c1a-4ec0-b3e8-f9c7daea61c5"},"vehicle_type_id":"4","last_reported":1685390806,"current_range_meters":21200,"station_id":"ce4bhi12rcd13ifvqfq0","pricing_plan_id":"free"},{"bike_id":"87d4c18b-deba-44d0-bfb3-d7008d1483c0","system_id":"levelo_inurba_marseille","lat":43.270721,"lon":5.422764,"is_reserved":false,"is_disabled":false,"rental_uris":{"android":"levelo://app?vid=87d4c18b-deba-44d0-bfb3-d7008d1483c0","ios":"levelo://app?vid=87d4c18b-deba-44d0-bfb3-d7008d1483c0"},"vehicle_type_id":"4","last_reported":1685390806,"current_range_meters":10000,"station_id":"ce4bhk92rcd13ifvqgb0","pricing_plan_id":"free"},{"bike_id":"f70dd318-aa1c-495f-97df-8337c7bbacb0","system_id":"levelo_inurba_marseille","lat":43.258658,"lon":5.398935,"is_reserved":false,"is_disabled":false,"rental_uris":{"android":"levelo://app?vid=f70dd318-aa1c-495f-97df-8337c7bbacb0","ios":"levelo://app?vid=f70dd318-aa1c-495f-97df-8337c7bbacb0"},"vehicle_type_id":"4","last_reported":1685390806,"current_range_meters":8400,"station_id":"ce4bhl92rcd13ifvqghg","pricing_plan_id":"free"},{"bike_id":"7af78c7f-2d97-43c9-98cf-2d44b3c0242d","system_id":"levelo_inurba_marseille","lat":43.2479,"lon":5.374457,"is_reserved":false,"is_disabled":false,"rental_uris":{"android":"levelo://app?vid=7af78c7f-2d97-43c9-98cf-2d44b3c0242d","ios":"levelo://app?vid=7af78c7f-2d97-43c9-98cf-2d44b3c0242d"},"vehicle_type_id":"4","last_reported":1685390806,"current_range_meters":4800,"station_id":"ce4bhgh2rcd13ifvqfb0","pricing_plan_id":"free"},{"bike_id":"44937c0e-4019-4eca-a556-bf25959ffa29","system_id":"levelo_inurba_marseille","lat":43.250966,"lon":5.395186,"is_reserved":false,"is_disabled":false,"rental_uris":{"android":"levelo://app?vid=44937c0e-4019-4eca-a556-bf25959ffa29","ios":"levelo://app?vid=44937c0e-4019-4eca-a556-bf25959ffa29"},"vehicle_type_id":"4","last_reported":1685390806,"current_range_meters":5600,"station_id":"ce4bhm12rcd13ifvqgkg","pricing_plan_id":"free"},{"bike_id":"1b41f02f-e50a-4cab-8910-42a7f65fa9b2","system_id":"levelo_inurba_marseille","lat":43.250966,"lon":5.395186,"is_reserved":false,"is_disabled":false,"rental_uris":{"android":"levelo://app?vid=1b41f02f-e50a-4cab-8910-42a7f65fa9b2","ios":"levelo://app?vid=1b41f02f-e50a-4cab-8910-42a7f65fa9b2"},"vehicle_type_id":"4","last_reported":1685390806,"current_range_meters":21600,"station_id":"ce4bhm12rcd13ifvqgkg","pricing_plan_id":"free"},{"bike_id":"2083719c-d28b-4a58-a603-44bd8cbfaddc","system_id":"levelo_inurba_marseille","lat":43.250966,"lon":5.395186,"is_reserved":false,"is_disabled":false,"rental_uris":{"android":"levelo://app?vid=2083719c-d28b-4a58-a603-44bd8cbfaddc","ios":"levelo://app?vid=2083719c-d28b-4a58-a603-44bd8cbfaddc"},"vehicle_type_id":"4","last_reported":1685390806,"current_range_meters":15200,"station_id":"ce4bhm12rcd13ifvqgkg","pricing_plan_id":"free"},{"bike_id":"a05b00ef-7236-40a3-99bf-6c85ac4556e8","system_id":"levelo_inurba_marseille","lat":43.250966,"lon":5.395186,"is_reserved":false,"is_disabled":false,"rental_uris":{"android":"levelo://app?vid=a05b00ef-7236-40a3-99bf-6c85ac4556e8","ios":"levelo://app?vid=a05b00ef-7236-40a3-99bf-6c85ac4556e8"},"vehicle_type_id":"4","last_reported":1685390806,"current_range_meters":28800,"station_id":"ce4bhm12rcd13ifvqgkg","pricing_plan_id":"free"},{"bike_id":"9547d5ef-69d7-4ff4-9e04-6570349a2507","system_id":"levelo_inurba_marseille","lat":43.250966,"lon":5.395186,"is_reserved":false,"is_disabled":false,"rental_uris":{"android":"levelo://app?vid=9547d5ef-69d7-4ff4-9e04-6570349a2507","ios":"levelo://app?vid=9547d5ef-69d7-4ff4-9e04-6570349a2507"},"vehicle_type_id":"4","last_reported":1685390806,"current_range_meters":19200,"station_id":"ce4bhm12rcd13ifvqgkg","pricing_plan_id":"free"},{"bike_id":"295109d7-8f32-447b-a32d-fdd4a3375719","system_id":"levelo_inurba_marseille","lat":43.24668,"lon":5.38156,"is_reserved":false,"is_disabled":false,"rental_uris":{"android":"levelo://app?vid=295109d7-8f32-447b-a32d-fdd4a3375719","ios":"levelo://app?vid=295109d7-8f32-447b-a32d-fdd4a3375719"},"vehicle_type_id":"4","last_reported":1685390806,"current_range_meters":20800,"station_id":"","pricing_plan_id":"free"},{"bike_id":"6d2073a6-d325-48b2-a6bc-c5f818f0cdb3","system_id":"levelo_inurba_marseille","lat":43.24668,"lon":5.38157,"is_reserved":false,"is_disabled":false,"rental_uris":{"android":"levelo://app?vid=6d2073a6-d325-48b2-a6bc-c5f818f0cdb3","ios":"levelo://app?vid=6d2073a6-d325-48b2-a6bc-c5f818f0cdb3"},"vehicle_type_id":"4","last_reported":1685390806,"current_range_meters":19200,"station_id":"","pricing_plan_id":"free"},{"bike_id":"1d3a1dc5-30ce-4cb3-92a2-df90e2828158","system_id":"levelo_inurba_marseille","lat":43.24667,"lon":5.38157,"is_reserved":false,"is_disabled":false,"rental_uris":{"android":"levelo://app?vid=1d3a1dc5-30ce-4cb3-92a2-df90e2828158","ios":"levelo://app?vid=1d3a1dc5-30ce-4cb3-92a2-df90e2828158"},"vehicle_type_id":"4","last_reported":1685390806,"current_range_meters":31200,"station_id":"","pricing_plan_id":"free"},{"bike_id":"bfeb42c6-e813-4d24-b7ea-5911a96d4b18","system_id":"levelo_inurba_marseille","lat":43.24667,"lon":5.3816,"is_reserved":false,"is_disabled":false,"rental_uris":{"android":"levelo://app?vid=bfeb42c6-e813-4d24-b7ea-5911a96d4b18","ios":"levelo://app?vid=bfeb42c6-e813-4d24-b7ea-5911a96d4b18"},"vehicle_type_id":"4","last_reported":1685390806,"current_range_meters":28800,"station_id":"","pricing_plan_id":"free"},{"bike_id":"766b704c-7fe9-41d6-bfea-1cfa91b2986b","system_id":"levelo_inurba_marseille","lat":43.25102,"lon":5.403214,"is_reserved":false,"is_disabled":false,"rental_uris":{"android":"levelo://app?vid=766b704c-7fe9-41d6-bfea-1cfa91b2986b","ios":"levelo://app?vid=766b704c-7fe9-41d6-bfea-1cfa91b2986b"},"vehicle_type_id":"4","last_reported":1685390806,"current_range_meters":4800,"station_id":"ce4bhlh2rcd13ifvqgig","pricing_plan_id":"free"},{"bike_id":"8f8b17bc-bf8e-492d-bed0-a1df47a2fedf","system_id":"levelo_inurba_marseille","lat":43.25102,"lon":5.403214,"is_reserved":false,"is_disabled":false,"rental_uris":{"android":"levelo://app?vid=8f8b17bc-bf8e-492d-bed0-a1df47a2fedf","ios":"levelo://app?vid=8f8b17bc-bf8e-492d-bed0-a1df47a2fedf"},"vehicle_type_id":"4","last_reported":1685390806,"current_range_meters":12400,"station_id":"ce4bhlh2rcd13ifvqgig","pricing_plan_id":"free"},