{"last_updated":1730405360,"ttl":60,"version":"2.2","data":{"bikes":[{"bike_id":"4619a927-69f6-4e40-aea7-50e83b0fe185","system_id":"levelo_inurba_marseille","lat":43.31753,"lon":5.39014,"is_reserved":false,"is_disabled":false,"rental_uris":{"android":"levelo://app?vid=4619a927-69f6-4e40-aea7-50e83b0fe185","ios":"levelo://app?vid=4619a927-69f6-4e40-aea7-50e83b0fe185"},"vehicle_type_id":"4","last_reported":1730405360,"current_range_meters":13600,"station_id":"ce4bhs12rcd13ifvqhvg","pricing_plan_id":"cebpf4jnsgd1na2vs0mg"},{"bike_id":"0c7f281d-9f44-4823-aa6f-f3357ac5662f","system_id":"levelo_inurba_marseille","lat":43.246643,"lon":5.381673,"is_reserved":false,"is_disabled":false,"rental_uris":{"android":"levelo://app?vid=0c7f281d-9f44-4823-aa6f-f3357ac5662f","ios":"levelo://app?vid=0c7f281d-9f44-4823-aa6f-f3357ac5662f"},"vehicle_type_id":"4","last_reported":1730405360,"current_range_meters":37600,"station_id":"ce4bhih2rcd13ifvqfr0","pricing_plan_id":"cebpf4jnsgd1na2vs0mg"},{"bike_id":"938f42e8-ca6d-4f51-bf52-3f80a2e1c511","system_id":"levelo_inurba_marseille","lat":43.292213,"lon":5.360251,"is_reserved":false,"is_disabled":false,"rental_uris":{"android":"levelo://app?vid=938f42e8-ca6d-4f51-bf52-3f80a2e1c511","ios":"levelo://app?vid=938f42e8-ca6d-4f51-bf52-3f80a2e1c511"},"vehicle_type_id":"4","last_reported":1730405360,"current_range_meters":31200,"station_id":"ce4bhb12rcd13ifvqel0","pricing_plan_id":"cebpf4jnsgd1na2vs0mg"},{"bike_id":"9400d765-0dfe-43ca-a6b1-557131a0084e","system_id":"levelo_inurba_marseille","lat":43.29944,"lon":5.37562,"is_reserved":false,"is_disabled":false,"rental_uris":{"android":"levelo://app?vid=9400d765-0dfe-43ca-a6b1-557131a0084e","ios":"levelo://app?vid=9400d765-0dfe-43ca-a6b1-557131a0084e"},"vehicle_type_id":"4","last_reported":1730405360,"current_range_meters":31200,"station_id":"","pricing_plan_id":"cebpf4jnsgd1na2vs0mg"},{"bike_id":"40594320-4cc5-49fc-a52d-270a0edc42b8","system_id":"levelo_inurba_marseille","lat":43.28719,"lon":5.37934,"is_reserved":false,"is_disabled":false,"rental_uris":{"android":"levelo://app?vid=40594320-4cc5-49fc-a52d-270a0edc42b8","ios":"levelo://app?vid=40594320-4cc5-49fc-a52d-270a0edc42b8"},"vehicle_type_id":"4","last_reported":1730405360,"current_range_meters":4000,"station_id":"ce4bh9p2rcd13ifvqec0","pricing_plan_id":"cebpf4jnsgd1na2vs0mg"},{"bike_id":"25491936-c7f1-4f41-ac55-938b39a2e4e2","system_id":"levelo_inurba_marseille","lat":43.30879,"lon":5.37189,"is_reserved":false,"is_disabled":false,"rental_uris":{"android":"levelo://app?vid=25491936-c7f1-4f41-ac55-938b39a2e4e2","ios":"levelo://app?vid=25491936-c7f1-4f41-ac55-938b39a2e4e2"},"vehicle_type_id":"4","last_reported":1730405360,"current_range_meters":38400,"station_id":"ce4bguh2rcd13ifvqckg","pricing_plan_id":"cebpf4jnsgd1na2vs0mg"},{"bike_id":"fdcf8f8f-9721-4758-81b9-44fb24c1f34a","system_id":"levelo_inurba_marseille","lat":43.29412,"lon":5.38622,"is_reserved":false,"is_disabled":false,"rental_uris":{"android":"levelo://app?vid=fdcf8f8f-9721-4758-81b9-44fb24c1f34a","ios":"levelo://app?vid=fdcf8f8f-9721-4758-81b9-44fb24c1f34a"},"vehicle_type_id":"4","last_reported":1730405360,"current_range_meters":38000,"station_id":"ce4bh2h2rcd13ifvqdh0","pricing_plan_id":"cebpf4jnsgd1na2vs0mg"},{"bike_id":"695423f6-b574-4d28-87bc-37f94ed982d2","system_id":"levelo_inurba_marseille","lat":43.31997,"lon":5.3815,"is_reserved":false,"is_disabled":false,"rental_uris":{"android":"levelo://app?vid=695423f6-b574-4d28-87bc-37f94ed982d2","ios":"levelo://app?vid=695423f6-b574-4d28-87bc-37f94ed982d2"},"vehicle_type_id":"4","last_reported":1730405360,"current_range_meters":10800,"station_id":"ce4bhr12rcd13ifvqhpg","pricing_plan_id":"cebpf4jnsgd1na2vs0mg"},{"bike_id":"06e32548-f808-43af-9ccc-f30b9b0d784e","system_id":"levelo_inurba_marseille","lat":43.29022,"lon":5.38133,"is_reserved":false,"is_disabled":false,"rental_uris":{"android":"levelo://app?vid=06e32548-f808-43af-9ccc-f30b9b0d784e","ios":"levelo://app?vid=06e32548-f808-43af-9ccc-f30b9b0d784e"},"vehicle_type_id":"4","last_reported":1730405360,"current_range_meters":38800,"station_id":"ce4bh4p2rcd13ifvqe1g","pricing_plan_id":"cebpf4jnsgd1na2vs0mg"},{"bike_id":"6011a0fe-708c-4d36-a7bb-f6be163320db","system_id":"levelo_inurba_marseille","lat":43.29902,"lon":5.43668,"is_reserved":false,"is_disabled":false,"rental_uris":{"android":"levelo://app?vid=6011a0fe-708c-4d36-a7bb-f6be163320db","ios":"levelo://app?vid=6011a0fe-708c-4d36-a7bb-f6be163320db"},"vehicle_type_id":"4","last_reported":1730405360,"current_range_meters":14000,"station_id":"ce4bhpp2rcd13ifvqhfg","pricing_plan_id":"cebpf4jnsgd1na2vs0mg"},{"bike_id":"6d5f036e-7e12-430a-9fc6-8d070be6dbb4","system_id":"levelo_inurba_marseille","lat":43.29258,"lon":5.38436,"is_reserved":false,"is_disabled":false,"rental_uris":{"android":"levelo://app?vid=6d5f036e-7e12-430a-9fc6-8d070be6dbb4","ios":"levelo://app?vid=6d5f036e-7e12-430a-9fc6-8d070be6dbb4"},"vehicle_type_id":"4","last_reported":1730405360,"current_range_meters":4800,"station_id":"ce4bh692rcd13ifvqea0","pricing_plan_id":"cebpf4jnsgd1na2vs0mg"},{"bike_id":"5a630d2f-334a-434e-9444-556db0f632d1","system_id":"levelo_inurba_marseille","lat":43.30214,"lon":5.39469,"is_reserved":false,"is_disabled":false,"rental_uris":{"android":"levelo://app?vid=5a630d2f-334a-434e-9444-556db0f632d1","ios":"levelo://app?vid=5a630d2f-334a-434e-9444-556db0f632d1"},"vehicle_type_id":"4","last_reported":1730405360,"current_range_meters":38800,"station_id":"ce4bh0p2rcd13ifvqd70","pricing_plan_id":"cebpf4jnsgd1na2vs0mg"},{"bike_id":"a4627486-a087-47d1-bdea-e9476cd49986","system_id":"levelo_inurba_marseille","lat":43.23193,"lon":5.35548,"is_reserved":false,"is_disabled":false,"rental_uris":{"android":"levelo://app?vid=a4627486-a087-47d1-bdea-e9476cd49986","ios":"levelo://app?vid=a4627486-a087-47d1-bdea-e9476cd49986"},"vehicle_type_id":"4","last_reported":1730405360,"current_range_meters":35600,"station_id":"ce4bhu92rcd13ifvqi70","pricing_plan_id":"cebpf4jnsgd1na2vs0mg"},{"bike_id":"667f7298-80b1-4b98-aa17-693906637342","system_id":"levelo_inurba_marseille","lat":43.25002,"lon":5.38925,"is_reserved":false,"is_disabled":false,"rental_uris":{"android":"levelo://app?vid=667f7298-80b1-4b98-aa17-693906637342","ios":"levelo://app?vid=667f7298-80b1-4b98-aa17-693906637342"},"vehicle_type_id":"4","last_reported":1730405360,"current_range_meters":22000,"station_id":"ce4bhgp2rcd13ifvqfd0","pricing_plan_id":"cebpf4jnsgd1na2vs0mg"},{"bike_id":"15698ef6-b5f1-406a-b6cb-b671e2825356","system_id":"levelo_inurba_marseille","lat":43.27423,"lon":5.39425,"is_reserved":false,"is_disabled":false,"rental_uris":{"android":"levelo://app?vid=15698ef6-b5f1-406a-b6cb-b671e2825356","ios":"levelo://app?vid=15698ef6-b5f1-406a-b6cb-b671e2825356"},"vehicle_type_id":"4","last_reported":1730405360,"current_range_meters":38400,"station_id":"ce4bhdp2rcd13ifvqf20","pricing_plan_id":"cebpf4jnsgd1na2vs0mg"},{"bike_id":"33db4c6a-d3ad-4ffe-a784-425dc4757b92","system_id":"levelo_inurba_marseille","lat":43.26957,"lon":5.38637,"is_reserved":false,"is_disabled":false,"rental_uris":{"android":"levelo://app?vid=33db4c6a-d3ad-4ffe-a784-425dc4757b92","ios":"levelo://app?vid=33db4c6a-d3ad-4ffe-a784-425dc4757b92"},"vehicle_type_id":"4","last_reported":1730405360,"current_range_meters":16000,"station_id":"ce4bhh92rcd13ifvqfh0","pricing_plan_id":"cebpf4jnsgd1na2vs0mg"},{"bike_id":"209a2144-1436-4891-b7dd-3a92718302e8","system_id":"levelo_inurba_marseille","lat":43.29571,"lon":5.37429,"is_reserved":false,"is_disabled":false,"rental_uris":{"android":"levelo://app?vid=209a2144-1436-4891-b7dd-3a92718302e8","ios":"levelo://app?vid=209a2144-1436-4891-b7dd-3a92718302e8"},"vehicle_type_id":"4","last_reported":1730405360,"current_range_meters":38800,"station_id":"","pricing_plan_id":"cebpf4jnsgd1na2vs0mg"},{"bike_id":"8556a7f5-a36a-420f-80e5-aa85e92a1cc5","system_id":"levelo_inurba_marseille","lat":43.24072,"lon":5.37759,"is_reserved":false,"is_disabled":false,"rental_uris":{"android":"levelo://app?vid=8556a7f5-a36a-420f-80e5-aa85e92a1cc5","ios":"levelo://app?vid=8556a7f5-a36a-420f-80e5-aa85e92a1cc5"},"vehicle_type_id":"4","last_reported":1730405360,"current_range_meters":27600,"station_id":"ce4bhnp2rcd13ifvqgvg","pricing_plan_id":"cebpf4jnsgd1na2vs0mg"},{"bike_id":"7f22154d-3720-4542-987a-731c893b16b6","system_id":"levelo_inurba_marseille","lat":43.26495,"lon":5.39547,"is_reserved":false,"is_disabled":false,"rental_uris":{"android":"levelo://app?vid=7f22154d-3720-4542-987a-731c893b16b6","ios":"levelo://app?vid=7f22154d-3720-4542-987a-731c893b16b6"},"vehicle_type_id":"4","last_reported":1730405360,"current_range_meters":4400,"station_id":"ce4bhi12rcd13ifvqfq0","pricing_plan_id":"cebpf4jnsgd1na2vs0mg"},{"bike_id":"61a17217-866a-45e4-ad7d-ed917d0d9903","system_id":"levelo_inurba_marseille","lat":43.29527,"lon":5.38535,"is_reserved":false,"is_disabled":false,"rental_uris":{"android":"levelo://app?vid=61a17217-866a-45e4-ad7d-ed917d0d9903","ios":"levelo://app?vid=61a17217-866a-45e4-ad7d-ed917d0d9903"},"vehicle_type_id":"4","last_reported":1730405360,"current_range_meters":36800,"station_id":"ce4bgih2rcd13ifvqba0","pricing_plan_id":"cebpf4jnsgd1na2vs0mg"},{"bike_id":"efbe383f-83c6-4df5-ac1f-ffa8f2e0197b","system_id":"levelo_inurba_marseille","lat":43.31329,"lon":5.39694,"is_reserved":false,"is_disabled":false,"rental_uris":{"android":"levelo://app?vid=efbe383f-83c6-4df5-ac1f-ffa8f2e0197b","ios":"levelo://app?vid=efbe383f-83c6-4df5-ac1f-ffa8f2e0197b"},"vehicle_type_id":"4","last_reported":1730405360,"current_range_meters":14400,"station_id":"ce4bgvp2rcd13ifvqcu0","pricing_plan_id":"cebpf4jnsgd1na2vs0mg"},{"bike_id":"504c3616-4345-4079-91d9-35dec124aa24","system_id":"levelo_inurba_marseille","lat":43.34135,"lon":5.40999,"is_reserved":false,"is_disabled":false,"rental_uris":{"android":"levelo://app?vid=504c3616-4345-4079-91d9-35dec124aa24","ios":"levelo://app?vid=504c3616-4345-4079-91d9-35dec124aa24"},"vehicle_type_id":"4","last_reported":1730405360,"current_range_meters":36400,"station_id":"","pricing_plan_id":"cebpf4jnsgd1na2vs0mg"},{"bike_id":"b7a4dfde-3ddb-4b1c-a468-a18ba245ef16","system_id":"levelo_inurba_marseille","lat":43.29877,"lon":5.38894,"is_reserved":false,"is_disabled":false,"rental_uris":{"android":"levelo://app?vid=b7a4dfde-3ddb-4b1c-a468-a18ba245ef16","ios":"levelo://app?vid=b7a4dfde-3ddb-4b1c-a468-a18ba245ef16"},"vehicle_type_id":"4","last_reported":1730405360,"current_range_meters":36800,"station_id":"ce4bgs12rcd13ifvqcag","pricing_plan_id":"cebpf4jnsgd1na2vs0mg"},{"bike_id":"c877f25d-7701-4526-b4eb-1b351133f6e9","system_id":"levelo_inurba_marseille","lat":43.29531,"lon":5.38538,"is_reserved":false,"is_disabled":false,"rental_uris":{"android":"levelo://app?vid=c877f25d-7701-4526-b4eb-1b351133f6e9","ios":"levelo://app?vid=c877f25d-7701-4526-b4eb-1b351133f6e9"},"vehicle_type_id":"4","last_reported":1730405360,"current_range_meters":20800,"station_id":"ce4bgih2rcd13ifvqba0","pricing_plan_id":"cebpf4jnsgd1na2vs0mg"},{"bike_id":"457f63bb-18be-4c7e-ac29-be5c176166ad","system_id":"levelo_inurba_marseille","lat":43.29415,"lon":5.38628,"is_reserved":false,"is_disabled":false,"rental_uris":{"android":"levelo://app?vid=457f63bb-18be-4c7e-ac29-be5c176166ad","ios":"levelo://app?vid=457f63bb-18be-4c7e-ac29-be5c176166ad"},"vehicle_type_id":"4","last_reported":1730405360,"current_range_meters":38800,"station_id":"ce4bh2h2rcd13ifvqdh0","pricing_plan_id":"cebpf4jnsgd1na2vs0mg"},{"bike_id":"9ec06832-24ee-497b-b43a-c22e221cee6d","system_id":"levelo_inurba_marseille","lat":43.2954,"lon":5.38546,"is_reserved":false,"is_disabled":false,"rental_uris":{"android":"levelo://app?vid=9ec06832-24ee-497b-b43a-c22e221cee6d","ios":"levelo://app?vid=9ec06832-24ee-497b-b43a-c22e221cee6d"},"vehicle_type_id":"4","last_reported":1730405360,"current_range_meters":22000,"station_id":"ce4bgih2rcd13ifvqba0","pricing_plan_id":"cebpf4jnsgd1na2vs0mg"},{"bike_id":"93cf32d6-c9ea-4909-b0bd-7820a8d2213d","system_id":"levelo_inurba_marseille","lat":43.26682,"lon":5.38272,"is_reserved":false,"is_disabled":false,"rental_uris":{"android":"levelo://app?vid=93cf32d6-c9ea-4909-b0bd-7820a8d2213d","ios":"levelo://app?vid=93cf32d6-c9ea-4909-b0bd-7820a8d2213d"},"vehicle_type_id":"4","last_reported":1730405360,"current_range_meters":2000,"station_id":"ce4bhg92rcd13ifvqf90","pricing_plan_id":"cebpf4jnsgd1na2vs0mg"},{"bike_id":"bf61f1ba-5234-4dfa-be6a-d053caa84c67","system_id":"levelo_inurba_marseille","lat":43.26565,"lon":5.39003,"is_reserved":false,"is_disabled":false,"rental_uris":{"android":"levelo://app?vid=bf61f1ba-5234-4dfa-be6a-d053caa84c67","ios":"levelo://app?vid=bf61f1ba-5234-4dfa-be6a-d053caa84c67"},"vehicle_type_id":"4","last_reported":1730405360,"current_range_meters":26000,"station_id":"ce4bhe12rcd13ifvqf30","pricing_plan_id":"cebpf4jnsgd1na2vs0mg"},{"bike_id":"43611269-a215-477e-8054-74e6555c43fe","system_id":"levelo_inurba_marseille","lat":43.2762,"lon":5.36109,"is_reserved":false,"is_disabled":false,"rental_uris":{"android":"levelo://app?vid=43611269-a215-477e-8054-74e6555c43fe","ios":"levelo://app?vid=43611269-a215-477e-8054-74e6555c43fe"},"vehicle_type_id":"4","last_reported":1730405360,"current_range_meters":14000,"station_id":"ce4bgj92rcd13ifvqbe0","pricing_plan_id":"cebpf4jnsgd1na2vs0mg"},{"bike_id":"adb0ea8b-9566-4d12-8630-a782db5ce23c","system_id":"levelo_inurba_marseille","lat":43.29542,"lon":5.38545,"is_reserved":false,"is_disabled":false,"rental_uris":{"android":"levelo://app?vid=adb0ea8b-9566-4d12-8630-a782db5ce23c","ios":"levelo://app?vid=adb0ea8b-9566-4d12-8630-a782db5ce23c"},"vehicle_type_id":"4","last_reported":1730405360,"current_range_meters":27600,"station_id":"ce4bgih2rcd13ifvqba0","pricing_plan_id":"cebpf4jnsgd1na2vs0mg"},{"bike_id":"dd1e6e7a-bc64-4da2-9950-11a570d7eaa5","system_id":"levelo_inurba_marseille","lat":43.29262,"lon":5.3844,"is_reserved":false,"is_disabled":false,"rental_uris":{"android":"levelo://app?vid=dd1e6e7a-bc64-4da2-9950-11a570d7eaa5","ios":"levelo://app?vid=dd1e6e7a-bc64-4da2-9950-11a570d7eaa5"},"vehicle_type_id":"4","last_reported":1730405360,"current_range_meters":37600,"station_id":"ce4bh692rcd13ifvqea0","pricing_plan_id":"cebpf4jnsgd1na2vs0mg"},{"bike_id":"628b7b35-c586-4350-8dc6-6fcbf82a4cff","system_id":"levelo_inurba_marseille","lat":43.26579,"lon":5.39003,"is_reserved":false,"is_disabled":false,"rental_uris":{"android":"levelo://app?vid=628b7b35-c586-4350-8dc6-6fcbf82a4cff","ios":"levelo://app?vid=628b7b35-c586-4350-8dc6-6fcbf82a4cff"},"vehicle_type_id":"4","last_reported":1730405360,"current_range_meters":35200,"station_id":"ce4bhe12rcd13ifvqf30","pricing_plan_id":"cebpf4jnsgd1na2vs0mg"},{"bike_id":"7dc92ad6-3be4-426e-9950-769ccd94cfcf","system_id":"levelo_inurba_marseille","lat":43.296234,"lon":5.381309,"is_reserved":false,"is_disabled":false,"rental_uris":{"android":"levelo://app?vid=7dc92ad6-3be4-426e-9950-769ccd94cfcf","ios":"levelo://app?vid=7dc92ad6-3be4-426e-9950-769ccd94cfcf"},"vehicle_type_id":"4","last_reported":1730405360,"current_range_meters":17200,"station_id":"ce4bgl12rcd13ifvqbo0","pricing_plan_id":"cebpf4jnsgd1na2vs0mg"},{"bike_id":"9c697b6a-aecf-448a-97b2-3d026da42db9","system_id":"levelo_inurba_marseille","lat":43.29526,"lon":5.38544,"is_reserved":false,"is_disabled":false,"rental_uris":{"android":"levelo://app?vid=9c697b6a-aecf-448a-97b2-3d026da42db9","ios":"levelo://app?vid=9c697b6a-aecf-448a-97b2-3d026da42db9"},"vehicle_type_id":"4","last_reported":1730405360,"current_range_meters":38800,"station_id":"ce4bgih2rcd13ifvqba0","pricing_plan_id":"cebpf4jnsgd1na2vs0mg"},{"bike_id":"4c3b0e2a-422d-4200-9bce-276c684101a6","system_id":"levelo_inurba_marseille","lat":43.29786,"lon":5.38091,"is_reserved":false,"is_disabled":false,"rental_uris":{"android":"levelo://app?vid=4c3b0e2a-422d-4200-9bce-276c684101a6","ios":"levelo://app?vid=4c3b0e2a-422d-4200-9bce-276c684101a6"},"vehicle_type_id":"4","last_reported":1730405360,"current_range_meters":39200,"station_id":"ce4bgip2rcd13ifvqbb0","pricing_plan_id":"cebpf4jnsgd1na2vs0mg"},{"bike_id":"b9748c4a-d4fd-4575-bdb4-d87ec7438bdc","system_id":"levelo_inurba_marseille","lat":43.29894,"lon":5.43665,"is_reserved":false,"is_disabled":false,"rental_uris":{"android":"levelo://app?vid=b9748c4a-d4fd-4575-bdb4-d87ec7438bdc","ios":"levelo://app?vid=b9748c4a-d4fd-4575-bdb4-d87ec7438bdc"},"vehicle_type_id":"4","last_reported":1730405360,"current_range_meters":10800,"station_id":"ce4bhpp2rcd13ifvqhfg","pricing_plan_id":"cebpf4jnsgd1na2vs0mg"},{"bike_id":"aeea1237-3887-42d7-be21-0e7463630790","system_id":"levelo_inurba_marseille","lat":43.23717,"lon":5.4019,"is_reserved":false,"is_disabled":false,"rental_uris":{"android":"levelo://app?vid=aeea1237-3887-42d7-be21-0e7463630790","ios":"levelo://app?vid=aeea1237-3887-42d7-be21-0e7463630790"},"vehicle_type_id":"4","last_reported":1730405360,"current_range_meters":18000,"station_id":"","pricing_plan_id":"cebpf4jnsgd1na2vs0mg"},{"bike_id":"0fb7f59f-276d-48e0-a744-69022ae5b5ee","system_id":"levelo_inurba_marseille","lat":43.2867,"lon":5.36353,"is_reserved":false,"is_disabled":false,"rental_uris":{"android":"levelo://app?vid=0fb7f59f-276d-48e0-a744-69022ae5b5ee","ios":"levelo://app?vid=0fb7f59f-276d-48e0-a744-69022ae5b5ee"},"vehicle_type_id":"4","last_reported":1730405360,"current_range_meters":38800,"station_id":"ce4bhah2rcd13ifvqej0","pricing_plan_id":"cebpf4jnsgd1na2vs0mg"},{"bike_id":"89d995e6-dbe8-49eb-b963-bc7888742db5","system_id":"levelo_inurba_marseille","lat":43.25574,"lon":5.38234,"is_reserved":false,"is_disabled":false,"rental_uris":{"android":"levelo://app?vid=89d995e6-dbe8-49eb-b963-bc7888742db5","ios":"levelo://app?vid=89d995e6-dbe8-49eb-b963-bc7888742db5"},"vehicle_type_id":"4","last_reported":1730405360,"current_range_meters":38800,"station_id":"ce4bhih2rcd13ifvqfs0","pricing_plan_id":"cebpf4jnsgd1na2vs0mg"},{"bike_id":"fbf552b3-8b90-4c94-a1d3-0f7d0cd207d6","system_id":"levelo_inurba_marseille","lat":43.29423,"lon":5.38603,"is_reserved":false,"is_disabled":false,"rental_uris":{"android":"levelo://app?vid=fbf552b3-8b90-4c94-a1d3-0f7d0cd207d6","ios":"levelo://app?vid=fbf552b3-8b90-4c94-a1d3-0f7d0cd207d6"},"vehicle_type_id":"4","last_reported":1730405360,"current_range_meters":38800,"station_id":"ce4bh2h2rcd13ifvqdh0","pricing_plan_id":"cebpf4jnsgd1na2vs0mg"},{"bike_id":"60b71c7c-4918-47ba-8287-329d23746782","system_id":"levelo_inurba_marseille","lat":43.29896,"lon":5.43662,"is_reserved":false,"is_disabled":false,"rental_uris":{"android":"levelo://app?vid=60b71c7c-4918-47ba-8287-329d23746782","ios":"levelo://app?vid=60b71c7c-4918-47ba-8287-329d23746782"},"vehicle_type_id":"4","last_reported":1730405360,"current_range_meters":36800,"station_id":"ce4bhpp2rcd13ifvqhfg","pricing_plan_id":"cebpf4jnsgd1na2vs0mg"},{"bike_id":"188724d6-fd54-4170-adce-5a4b01feec18","system_id":"levelo_inurba_marseille","lat":43.26952,"lon":5.38631,"is_reserved":false,"is_disabled":false,"rental_uris":{"android":"levelo://app?vid=188724d6-fd54-4170-adce-5a4b01feec18","ios":"levelo://app?vid=188724d6-fd54-4170-adce-5a4b01feec18"},"vehicle_type_id":"4","last_reported":1730405360,"current_range_meters":25200,"station_id":"ce4bhh92rcd13ifvqfh0","pricing_plan_id":"cebpf4jnsgd1na2vs0mg"},{"bike_id":"e48f2196-d82e-4f70-a09e-e95ca5ce8c33","system_id":"levelo_inurba_marseille","lat":43.2984,"lon":5.36263,"is_reserved":false,"is_disabled":false,"rental_uris":{"android":"levelo://app?vid=e48f2196-d82e-4f70-a09e-e95ca5ce8c33","ios":"levelo://app?vid=e48f2196-d82e-4f70-a09e-e95ca5ce8c33"},"vehicle_type_id":"4","last_reported":1730405360,"current_range_meters":34800,"station_id":"ce4bgpp2rcd13ifvqc3g","pricing_plan_id":"cebpf4jnsgd1na2vs0mg"},{"bike_id":"cda2cdac-b3b0-4c9a-b01f-c30f5c453992","system_id":"levelo_inurba_marseille","lat":43.30329,"lon":5.4044,"is_reserved":false,"is_disabled":false,"rental_uris":{"android":"levelo://app?vid=cda2cdac-b3b0-4c9a-b01f-c30f5c453992","ios":"levelo://app?vid=cda2cdac-b3b0-4c9a-b01f-c30f5c453992"},"vehicle_type_id":"4","last_reported":1730405360,"current_range_meters":22800,"station_id":"ce4bh012rcd13ifvqd10","pricing_plan_id":"cebpf4jnsgd1na2vs0mg"},{"bike_id":"a9b14aad-eedc-44c9-9f0a-8b43c86795fa","system_id":"levelo_inurba_marseille","lat":43.23034,"lon":5.40347,"is_reserved":false,"is_disabled":false,"rental_uris":{"android":"levelo://app?vid=a9b14aad-eedc-44c9-9f0a-8b43c86795fa","ios":"levelo://app?vid=a9b14aad-eedc-44c9-9f0a-8b43c86795fa"},"vehicle_type_id":"4","last_reported":1730405360,"current_range_meters":25600,"station_id":"","pricing_plan_id":"cebpf4jnsgd1na2vs0mg"},{"bike_id":"89c69ac8-94a8-411c-8fbc-3ae956f1323b","system_id":"levelo_inurba_marseille","lat":43.31996,"lon":5.3815,"is_reserved":false,"is_disabled":false,"rental_uris":{"android":"levelo://app?vid=89c69ac8-94a8-411c-8fbc-3ae956f1323b","ios":"levelo://app?vid=89c69ac8-94a8-411c-8fbc-3ae956f1323b"},"vehicle_type_id":"4","last_reported":1730405360,"current_range_meters":36800,"station_id":"ce4bhr12rcd13ifvqhpg","pricing_plan_id":"cebpf4jnsgd1na2vs0mg"},{"bike_id":"eac6d106-015b-42d3-9a0f-a7559963694e","system_id":"levelo_inurba_marseille","lat":43.323402,"lon":5.406171,"is_reserved":false,"is_disabled":false,"rental_uris":{"android":"levelo://app?vid=eac6d106-015b-42d3-9a0f-a7559963694e","ios":"levelo://app?vid=eac6d106-015b-42d3-9a0f-a7559963694e"},"vehicle_type_id":"4","last_reported":1730405360,"current_range_meters":11600,"station_id":"ce4bhq92rcd13ifvqhjg","pricing_plan_id":"cebpf4jnsgd1na2vs0mg"},{"bike_id":"6e1850f0-c8b5-4ff4-93cb-6f8dfbc66b1e","system_id":"levelo_inurba_marseille","lat":43.30794,"lon":5.39205,"is_reserved":false,"is_disabled":false,"rental_uris":{"android":"levelo://app?vid=6e1850f0-c8b5-4ff4-93cb-6f8dfbc66b1e","ios":"levelo://app?vid=6e1850f0-c8b5-4ff4-93cb-6f8dfbc66b1e"},"vehicle_type_id":"4","last_reported":1730405360,"current_range_meters":10800,"station_id":"ce4bgup2rcd13ifvqco0","pricing_plan_id":"cebpf4jnsgd1na2vs0mg"},{"bike_id":"fece2b4d-5fbc-4072-950a-5fe5acd29804","system_id":"levelo_inurba_marseille","lat":43.29532,"lon":5.38529,"is_reserved":false,"is_disabled":false,"rental_uris":{"android":"levelo://app?vid=fece2b4d-5fbc-4072-950a-5fe5acd29804","ios":"levelo://app?vid=fece2b4d-5fbc-4072-950a-5fe5acd29804"},"vehicle_type_id":"4","last_reported":1730405360,"current_range_meters":16400,"station_id":"ce4bgih2rcd13ifvqba0","pricing_plan_id":"cebpf4jnsgd1na2vs0mg"},{"bike_id":"84098211-d98e-4aba-a423-13b0ea038f67","system_id":"levelo_inurba_marseille","lat":43.29257,"lon":5.38442,"is_reserved":false,"is_disabled":false,"rental_uris":{"android":"levelo://app?vid=84098211-d98e-4aba-a423-13b0ea038f67","ios":"levelo://app?vid=84098211-d98e-4aba-a423-13b0ea038f67"},"vehicle_type_id":"4","last_reported":1730405360,"current_range_meters":38800,"station_id":"ce4bh692rcd13ifvqea0","pricing_plan_id":"cebpf4jnsgd1na2vs0mg"},{"bike_id":"7b278c06-161f-4fa6-92a8-f89903978599","system_id":"levelo_inurba_marseille","lat":43.29716,"lon":5.36615,"is_reserved":false,"is_disabled":false,"rental_uris":{"android":"levelo://app?vid=7b278c06-161f-4fa6-92a8-f89903978599","ios":"levelo://app?vid=7b278c06-161f-4fa6-92a8-f89903978599"},"vehicle_type_id":"4","last_reported":1730405360,"current_range_meters":38400,"station_id":"ce4bgn12rcd13ifvqbt0","pricing_plan_id":"cebpf4jnsgd1na2vs0mg"},{"bike_id":"39e8b041-adb1-4368-9018-4beec5fbd600","system_id":"levelo_inurba_marseille","lat":43.29709,"lon":5.36616,"is_reserved":false,"is_disabled":false,"rental_uris":{"android":"levelo://app?vid=39e8b041-adb1-4368-9018-4beec5fbd600","ios":"levelo://app?vid=39e8b041-adb1-4368-9018-4beec5fbd600"},"vehicle_type_id":"4","last_reported":1730405360,"current_range_meters":35200,"station_id":"ce4bgn12rcd13ifvqbt0","pricing_plan_id":"cebpf4jnsgd1na2vs0mg"},{"bike_id":"ceb55059-2562-42a2-9035-244f2e2577c8","system_id":"levelo_inurba_marseille","lat":43.29258,"lon":5.38445,"is_reserved":false,"is_disabled":false,"rental_uris":{"android":"levelo://app?vid=ceb55059-2562-42a2-9035-244f2e2577c8","ios":"levelo://app?vid=ceb55059-2562-42a2-9035-244f2e2577c8"},"vehicle_type_id":"4","last_reported":1730405360,"current_range_meters":8400,"station_id":"ce4bh692rcd13ifvqea0","pricing_plan_id":"cebpf4jnsgd1na2vs0mg"},{"bike_id":"a9bbcbbe-e1bb-449c-adcd-34688245503d","system_id":"levelo_inurba_marseille","lat":43.29518,"lon":5.38533,"is_reserved":false,"is_disabled":false,"rental_uris":{"android":"levelo://app?vid=a9bbcbbe-e1bb-449c-adcd-34688245503d","ios":"levelo://app?vid=a9bbcbbe-e1bb-449c-adcd-34688245503d"},"vehicle_type_id":"4","last_reported":1730405360,"current_range_meters":38800,"station_id":"ce4bgih2rcd13ifvqba0","pricing_plan_id":"cebpf4jnsgd1na2vs0mg"},{"bike_id":"10dd4f0a-3352-467f-bdd2-7b7d82421551","system_id":"levelo_inurba_marseille","lat":43.25734,"lon":5.4111,"is_reserved":false,"is_disabled":false,"rental_uris":{"android":"levelo://app?vid=10dd4f0a-3352-467f-bdd2-7b7d82421551","ios":"levelo://app?vid=10dd4f0a-3352-467f-bdd2-7b7d82421551"},"vehicle_type_id":"4","last_reported":1730405360,"current_range_meters":36800,"station_id":"ce4bhkp2rcd13ifvqgd0","pricing_plan_id":"cebpf4jnsgd1na2vs0mg"},{"bike_id":"27f86334-642e-4978-b2ff-cf0ffb970634","system_id":"levelo_inurba_marseille","lat":43.27998,"lon":5.41666,"is_reserved":false,"is_disabled":false,"rental_uris":{"android":"levelo://app?vid=27f86334-642e-4978-b2ff-cf0ffb970634","ios":"levelo://app?vid=27f86334-642e-4978-b2ff-cf0ffb970634"},"vehicle_type_id":"4","last_reported":1730405360,"current_range_meters":36800,"station_id":"ce4bho12rcd13ifvqh1g","pricing_plan_id":"cebpf4jnsgd1na2vs0mg"},{"bike_id":"5c8a5bb5-a198-4a3b-92e7-8543db03156f","system_id":"levelo_inurba_marseille","lat":43.3171,"lon":5.37759,"is_reserved":false,"is_disabled":false,"rental_uris":{"android":"levelo://app?vid=5c8a5bb5-a198-4a3b-92e7-8543db03156f","ios":"levelo://app?vid=5c8a5bb5-a198-4a3b-92e7-8543db03156f"},"vehicle_type_id":"4","last_reported":1730405360,"current_range_meters":38800,"station_id":"ce4bgth2rcd13ifvqch0","pricing_plan_id":"cebpf4jnsgd1na2vs0mg"},{"bike_id":"8033fbcb-0f55-4666-ab07-204baa398da4","system_id":"levelo_inurba_marseille","lat":43.28468,"lon":5.38415,"is_reserved":false,"is_disabled":false,"rental_uris":{"android":"levelo://app?vid=8033fbcb-0f55-4666-ab07-204baa398da4","ios":"levelo://app?vid=8033fbcb-0f55-4666-ab07-204baa398da4"},"vehicle_type_id":"4","last_reported":1730405360,"current_range_meters":38800,"station_id":"ce4bh512rcd13ifvqe3g","pricing_plan_id":"cebpf4jnsgd1na2vs0mg"},{"bike_id":"3d762461-ddf0-42eb-9b6e-f26add914a1b","system_id":"levelo_inurba_marseille","lat":43.27553,"lon":5.38427,"is_reserved":false,"is_disabled":false,"rental_uris":{"android":"levelo://app?vid=3d762461-ddf0-42eb-9b6e-f26add914a1b","ios":"levelo://app?vid=3d762461-ddf0-42eb-9b6e-f26add914a1b"},"vehicle_type_id":"4","last_reported":1730405360,"current_range_meters":6000,"station_id":"ce4bhh92rcd13ifvqfi0","pricing_plan_id":"cebpf4jnsgd1na2vs0mg"},{"bike_id":"d5fcb897-e917-445f-b61e-614086c1444c","system_id":"levelo_inurba_marseille","lat":43.23171,"lon":5.40173,"is_reserved":false,"is_disabled":false,"rental_uris":{"android":"levelo://app?vid=d5fcb897-e917-445f-b61e-614086c1444c","ios":"levelo://app?vid=d5fcb897-e917-445f-b61e-614086c1444c"},"vehicle_type_id":"4","last_reported":1730405360,"current_range_meters":36400,"station_id":"ce4bhn12rcd13ifvqgqg","pricing_plan_id":"cebpf4jnsgd1na2vs0mg"},{"bike_id":"e60cad74-424c-4087-9575-bf98a75e3a3b","system_id":"levelo_inurba_marseille","lat":43.28619,"lon":5.35105,"is_reserved":false,"is_disabled":false,"rental_uris":{"android":"levelo://app?vid=e60cad74-424c-4087-9575-bf98a75e3a3b","ios":"levelo://app?vid=e60cad74-424c-4087-9575-bf98a75e3a3b"},"vehicle_type_id":"4","last_reported":1730405360,"current_range_meters":36400,"station_id":"ce4bhch2rcd13ifvqeug","pricing_plan_id":"cebpf4jnsgd1na2vs0mg"},{"bike_id":"51756bb6-4223-410b-977c-83ba6eeba71c","system_id":"levelo_inurba_marseille","lat":43.29528,"lon":5.38545,"is_reserved":false,"is_disabled":false,"rental_uris":{"android":"levelo://app?vid=51756bb6-4223-410b-977c-83ba6eeba71c","ios":"levelo://app?vid=51756bb6-4223-410b-977c-83ba6eeba71c"},"vehicle_type_id":"4","last_reported":1730405360,"current_range_meters":30400,"station_id":"ce4bgih2rcd13ifvqba0","pricing_plan_id":"cebpf4jnsgd1na2vs0mg"},{"bike_id":"6f091c9c-e1f4-4df3-aa18-c140e4b15b86","system_id":"levelo_inurba_marseille","lat":43.28709,"lon":5.37946,"is_reserved":false,"is_disabled":false,"rental_uris":{"android":"levelo://app?vid=6f091c9c-e1f4-4df3-aa18-c140e4b15b86","ios":"levelo://app?vid=6f091c9c-e1f4-4df3-aa18-c140e4b15b86"},"vehicle_type_id":"4","last_reported":1730405360,"current_range_meters":36400,"station_id":"ce4bh9p2rcd13ifvqec0","pricing_plan_id":"cebpf4jnsgd1na2vs0mg"},{"bike_id":"ed9aa993-8003-4cbf-9aaf-8a3f2e010645","system_id":"levelo_inurba_marseille","lat":43.24167,"lon":5.36403,"is_reserved":false,"is_disabled":false,"rental_uris":{"android":"levelo://app?vid=ed9aa993-8003-4cbf-9aaf-8a3f2e010645","ios":"levelo://app?vid=ed9aa993-8003-4cbf-9aaf-8a3f2e010645"},"vehicle_type_id":"4","last_reported":1730405360,"current_range_meters":8800,"station_id":"cpo36qri1sfpv3e86is0","pricing_plan_id":"cebpf4jnsgd1na2vs0mg"},{"bike_id":"33a098b5-2f3f-4957-af96-675614306bdc","system_id":"levelo_inurba_marseille","lat":43.28285,"lon":5.39021,"is_reserved":false,"is_disabled":false,"rental_uris":{"android":"levelo://app?vid=33a098b5-2f3f-4957-af96-675614306bdc","ios":"levelo://app?vid=33a098b5-2f3f-4957-af96-675614306bdc"},"vehicle_type_id":"4","last_reported":1730405360,"current_range_meters":20000,"station_id":"","pricing_plan_id":"cebpf4jnsgd1na2vs0mg"},{"bike_id":"aa9601c0-622c-4ab6-a747-92657d1569b5","system_id":"levelo_inurba_marseille","lat":43.29252,"lon":5.38445,"is_reserved":false,"is_disabled":false,"rental_uris":{"android":"levelo://app?vid=aa9601c0-622c-4ab6-a747-92657d1569b5","ios":"levelo://app?vid=aa9601c0-622c-4ab6-a747-92657d1569b5"},"vehicle_type_id":"4","last_reported":1730405360,"current_range_meters":24000,"station_id":"ce4bh692rcd13ifvqea0","pricing_plan_id":"cebpf4jnsgd1na2vs0mg"},{"bike_id":"39d4271f-38b2-48e9-b1e8-31d9d66a4c5c","system_id":"levelo_inurba_marseille","lat":43.295563,"lon":5.422925,"is_reserved":false,"is_disabled":false,"rental_uris":{"android":"levelo://app?vid=39d4271f-38b2-48e9-b1e8-31d9d66a4c5c","ios":"levelo://app?vid=39d4271f-38b2-48e9-b1e8-31d9d66a4c5c"},"vehicle_type_id":"4","last_reported":1730405360,"current_range_meters":20000,"station_id":"ce4bhph2rcd13ifvqhdg","pricing_plan_id":"cebpf4jnsgd1na2vs0mg"},{"bike_id":"ec7997c3-bd39-41c3-81be-dd78887c8120","system_id":"levelo_inurba_marseille","lat":43.29126,"lon":5.385088,"is_reserved":false,"is_disabled":false,"rental_uris":{"android":"levelo://app?vid=ec7997c3-bd39-41c3-81be-dd78887c8120","ios":"levelo://app?vid=ec7997c3-bd39-41c3-81be-dd78887c8120"},"vehicle_type_id":"4","last_reported":1730405360,"current_range_meters":17600,"station_id":"","pricing_plan_id":"cebpf4jnsgd1na2vs0mg"},{"bike_id":"5480739b-2a82-4f8e-a154-79b3f71124eb","system_id":"levelo_inurba_marseille","lat":43.29423,"lon":5.38636,"is_reserved":false,"is_disabled":false,"rental_uris":{"android":"levelo://app?vid=5480739b-2a82-4f8e-a154-79b3f71124eb","ios":"levelo://app?vid=5480739b-2a82-4f8e-a154-79b3f71124eb"},"vehicle_type_id":"4","last_reported":1730405360,"current_range_meters":20000,"station_id":"ce4bh2h2rcd13ifvqdh0","pricing_plan_id":"cebpf4jnsgd1na2vs0mg"},{"bike_id":"808070a0-8dbb-45a0-8acf-4251fa3146bd","system_id":"levelo_inurba_marseille","lat":43.30888,"lon":5.37185,"is_reserved":false,"is_disabled":false,"rental_uris":{"android":"levelo://app?vid=808070a0-8dbb-45a0-8acf-4251fa3146bd","ios":"levelo://app?vid=808070a0-8dbb-45a0-8acf-4251fa3146bd"},"vehicle_type_id":"4","last_reported":1730405360,"current_range_meters":38800,"station_id":"ce4bguh2rcd13ifvqckg","pricing_plan_id":"cebpf4jnsgd1na2vs0mg"},{"bike_id":"829a1e21-30a4-45f9-9040-0386b711a06e","system_id":"levelo_inurba_marseille","lat":43.29365,"lon":5.37832,"is_reserved":false,"is_disabled":false,"rental_uris":{"android":"levelo://app?vid=829a1e21-30a4-45f9-9040-0386b711a06e","ios":"levelo://app?vid=829a1e21-30a4-45f9-9040-0386b711a06e"},"vehicle_type_id":"4","last_reported":1730405360,"current_range_meters":38800,"station_id":"ce4bgjh2rcd13ifvqbf0","pricing_plan_id":"cebpf4jnsgd1na2vs0mg"},{"bike_id":"fbebbad3-cab0-431e-ae57-4824480cdc9a","system_id":"levelo_inurba_marseille","lat":43.29536,"lon":5.37504,"is_reserved":false,"is_disabled":false,"rental_uris":{"android":"levelo://app?vid=fbebbad3-cab0-431e-ae57-4824480cdc9a","ios":"levelo://app?vid=fbebbad3-cab0-431e-ae57-4824480cdc9a"},"vehicle_type_id":"4","last_reported":1730405360,"current_range_meters":6000,"station_id":"ce4bgkp2rcd13ifvqbmg","pricing_plan_id":"cebpf4jnsgd1na2vs0mg"},{"bike_id":"8bb669ee-3599-4693-88e4-70d6053938fe","system_id":"levelo_inurba_marseille","lat":43.27316,"lon":5.39085,"is_reserved":false,"is_disabled":false,"rental_uris":{"android":"levelo://app?vid=8bb669ee-3599-4693-88e4-70d6053938fe","ios":"levelo://app?vid=8bb669ee-3599-4693-88e4-70d6053938fe"},"vehicle_type_id":"4","last_reported":1730405360,"current_range_meters":24800,"station_id":"ce4bhgp2rcd13ifvqfe0","pricing_plan_id":"cebpf4jnsgd1na2vs0mg"},{"bike_id":"bde093fc-65b0-4411-8230-e88565b2347f","system_id":"levelo_inurba_marseille","lat":43.30131,"lon":5.38769,"is_reserved":false,"is_disabled":false,"rental_uris":{"android":"levelo://app?vid=bde093fc-65b0-4411-8230-e88565b2347f","ios":"levelo://app?vid=bde093fc-65b0-4411-8230-e88565b2347f"},"vehicle_type_id":"4","last_reported":1730405360,"current_range_meters":36400,"station_id":"ce4bghh2rcd13ifvqb60","pricing_plan_id":"cebpf4jnsgd1na2vs0mg"},{"bike_id":"44093c18-8987-45d5-b7a9-e8ded18de5a0","system_id":"levelo_inurba_marseille","lat":43.283431,"lon":5.382668,"is_reserved":false,"is_disabled":false,"rental_uris":{"android":"levelo://app?vid=44093c18-8987-45d5-b7a9-e8ded18de5a0","ios":"levelo://app?vid=44093c18-8987-45d5-b7a9-e8ded18de5a0"},"vehicle_type_id":"4","last_reported":1730405360,"current_range_meters":39200,"station_id":"ce4bh412rcd13ifvqdr0","pricing_plan_id":"cebpf4jnsgd1na2vs0mg"},{"bike_id":"cced5470-1efa-4569-b735-f5e15e8a8c7c","system_id":"levelo_inurba_marseille","lat":43.31704,"lon":5.37744,"is_reserved":false,"is_disabled":false,"rental_uris":{"android":"levelo://app?vid=cced5470-1efa-4569-b735-f5e15e8a8c7c","ios":"levelo://app?vid=cced5470-1efa-4569-b735-f5e15e8a8c7c"},"vehicle_type_id":"4","last_reported":1730405360,"current_range_meters":6400,"station_id":"ce4bgth2rcd13ifvqch0","pricing_plan_id":"cebpf4jnsgd1na2vs0mg"},{"bike_id":"0eac5a1d-d684-45e0-be5d-a22f3e11c4ca","system_id":"levelo_inurba_marseille","lat":43.23964,"lon":5.36643,"is_reserved":false,"is_disabled":false,"rental_uris":{"android":"levelo://app?vid=0eac5a1d-d684-45e0-be5d-a22f3e11c4ca","ios":"levelo://app?vid=0eac5a1d-d684-45e0-be5d-a22f3e11c4ca"},"vehicle_type_id":"4","last_reported":1730405360,"current_range_meters":10800,"station_id":"ce4bhi12rcd13ifvqfp0","pricing_plan_id":"cebpf4jnsgd1na2vs0mg"},{"bike_id":"2136c808-dbd5-4e9d-94e9-81dce9d2cc17","system_id":"levelo_inurba_marseille","lat":43.29521,"lon":5.38544,"is_reserved":false,"is_disabled":false,"rental_uris":{"android":"levelo://app?vid=2136c808-dbd5-4e9d-94e9-81dce9d2cc17","ios":"levelo://app?vid=2136c808-dbd5-4e9d-94e9-81dce9d2cc17"},"vehicle_type_id":"4","last_reported":1730405360,"current_range_meters":22800,"station_id":"ce4bgih2rcd13ifvqba0","pricing_plan_id":"cebpf4jnsgd1na2vs0mg"},{"bike_id":"d14308cc-43de-4fbe-90b5-f13f5c6c5281","system_id":"levelo_inurba_marseille","lat":43.29708,"lon":5.36614,"is_reserved":false,"is_disabled":false,"rental_uris":{"android":"levelo://app?vid=d14308cc-43de-4fbe-90b5-f13f5c6c5281","ios":"levelo://app?vid=d14308cc-43de-4fbe-90b5-f13f5c6c5281"},"vehicle_type_id":"4","last_reported":1730405360,"current_range_meters":36400,"station_id":"ce4bgn12rcd13ifvqbt0","pricing_plan_id":"cebpf4jnsgd1na2vs0mg"},{"bike_id":"e7b2be94-21fc-42ac-bdf7-d486710a5d9a","system_id":"levelo_inurba_marseille","lat":43.23191,"lon":5.3555,"is_reserved":false,"is_disabled":false,"rental_uris":{"android":"levelo://app?vid=e7b2be94-21fc-42ac-bdf7-d486710a5d9a","ios":"levelo://app?vid=e7b2be94-21fc-42ac-bdf7-d486710a5d9a"},"vehicle_type_id":"4","last_reported":1730405360,"current_range_meters":38800,"station_id":"ce4bhu92rcd13ifvqi70","pricing_plan_id":"cebpf4jnsgd1na2vs0mg"},{"bike_id":"a1b770cf-e1ce-4fcf-94eb-375cb12ef397","system_id":"levelo_inurba_marseille","lat":43.29169,"lon":5.37158,"is_reserved":false,"is_disabled":false,"rental_uris":{"android":"levelo://app?vid=a1b770cf-e1ce-4fcf-94eb-375cb12ef397","ios":"levelo://app?vid=a1b770cf-e1ce-4fcf-94eb-375cb12ef397"},"vehicle_type_id":"4","last_reported":1730405360,"current_range_meters":30800,"station_id":"ce4bha92rcd13ifvqeh0","pricing_plan_id":"cebpf4jnsgd1na2vs0mg"},{"bike_id":"ce9125b4-2784-49e5-86f8-4920df44b4e6","system_id":"levelo_inurba_marseille","lat":43.29391,"lon":5.38619,"is_reserved":false,"is_disabled":false,"rental_uris":{"android":"levelo://app?vid=ce9125b4-2784-49e5-86f8-4920df44b4e6","ios":"levelo://app?vid=ce9125b4-2784-49e5-86f8-4920df44b4e6"},"vehicle_type_id":"4","last_reported":1730405360,"current_range_meters":35600,"station_id":"ce4bh2h2rcd13ifvqdh0","pricing_plan_id":"cebpf4jnsgd1na2vs0mg"},{"bike_id":"ba3355e5-1e30-4576-8c01-4ad8c906bce3","system_id":"levelo_inurba_marseille","lat":43.30544,"lon":5.3653,"is_reserved":false,"is_disabled":false,"rental_uris":{"android":"levelo://app?vid=ba3355e5-1e30-4576-8c01-4ad8c906bce3","ios":"levelo://app?vid=ba3355e5-1e30-4576-8c01-4ad8c906bce3"},"vehicle_type_id":"4","last_reported":1730405360,"current_range_meters":39200,"station_id":"ce4bgs12rcd13ifvqcag","pricing_plan_id":"cebpf4jnsgd1na2vs0mg"},{"bike_id":"ddd61f92-90bb-4c96-bb29-cb24e60dddcf","system_id":"levelo_inurba_marseille","lat":43.29671,"lon":5.37294,"is_reserved":false,"is_disabled":false,"rental_uris":{"android":"levelo://app?vid=ddd61f92-90bb-4c96-bb29-cb24e60dddcf","ios":"levelo://app?vid=ddd61f92-90bb-4c96-bb29-cb24e60dddcf"},"vehicle_type_id":"4","last_reported":1730405360,"current_range_meters":38000,"station_id":"ce4bgk12rcd13ifvqbj0","pricing_plan_id":"cebpf4jnsgd1na2vs0mg"},{"bike_id":"dacaf0a1-652d-4a4b-ae67-ee7a01f2112c","system_id":"levelo_inurba_marseille","lat":43.23193,"lon":5.35552,"is_reserved":false,"is_disabled":false,"rental_uris":{"android":"levelo://app?vid=dacaf0a1-652d-4a4b-ae67-ee7a01f2112c","ios":"levelo://app?vid=dacaf0a1-652d-4a4b-ae67-ee7a01f2112c"},"vehicle_type_id":"4","last_reported":1730405360,"current_range_meters":21600,"station_id":"ce4bhu92rcd13ifvqi70","pricing_plan_id":"cebpf4jnsgd1na2vs0mg"},{"bike_id":"46f626a0-2501-4540-ba80-fb070c2b5759","system_id":"levelo_inurba_marseille","lat":43.29525,"lon":5.38538,"is_reserved":false,"is_disabled":false,"rental_uris":{"android":"levelo://app?vid=46f626a0-2501-4540-ba80-fb070c2b5759","ios":"levelo://app?vid=46f626a0-2501-4540-ba80-fb070c2b5759"},"vehicle_type_id":"4","last_reported":1730405360,"current_range_meters":6400,"station_id":"ce4bgih2rcd13ifvqba0","pricing_plan_id":"cebpf4jnsgd1na2vs0mg"},{"bike_id":"0c0d4548-c9f5-4b26-84f3-518a85e46544","system_id":"levelo_inurba_marseille","lat":43.27414,"lon":5.39405,"is_reserved":false,"is_disabled":false,"rental_uris":{"android":"levelo://app?vid=0c0d4548-c9f5-4b26-84f3-518a85e46544","ios":"levelo://app?vid=0c0d4548-c9f5-4b26-84f3-518a85e46544"},"vehicle_type_id":"4","last_reported":1730405360,"current_range_meters":27600,"station_id":"ce4bhdp2rcd13ifvqf20","pricing_plan_id":"cebpf4jnsgd1na2vs0mg"},{"bike_id":"a42a947a-602c-43db-be77-3c3b08d01fa7","system_id":"levelo_inurba_marseille","lat":43.30539,"lon":5.36549,"is_reserved":false,"is_disabled":false,"rental_uris":{"android":"levelo://app?vid=a42a947a-602c-43db-be77-3c3b08d01fa7","ios":"levelo://app?vid=a42a947a-602c-43db-be77-3c3b08d01fa7"},"vehicle_type_id":"4","last_reported":1730405360,"current_range_meters":12000,"station_id":"ce4bgs12rcd13ifvqcag","pricing_plan_id":"cebpf4jnsgd1na2vs0mg"},{"bike_id":"735ddfc3-72b9-4bb6-b140-400834512885","system_id":"levelo_inurba_marseille","lat":43.25578,"lon":5.38233,"is_reserved":false,"is_disabled":false,"rental_uris":{"android":"levelo://app?vid=735ddfc3-72b9-4bb6-b140-400834512885","ios":"levelo://app?vid=735ddfc3-72b9-4bb6-b140-400834512885"},"vehicle_type_id":"4","last_reported":1730405360,"current_range_meters":36800,"station_id":"ce4bhih2rcd13ifvqfs0","pricing_plan_id":"cebpf4jnsgd1na2vs0mg"},{"bike_id":"388ecff5-a92f-426f-8f41-0ab209545c3a","system_id":"levelo_inurba_marseille","lat":43.26569,"lon":5.38995,"is_reserved":false,"is_disabled":false,"rental_uris":{"android":"levelo://app?vid=388ecff5-a92f-426f-8f41-0ab209545c3a","ios":"levelo://app?vid=388ecff5-a92f-426f-8f41-0ab209545c3a"},"vehicle_type_id":"4","last_reported":1730405360,"current_range_meters":37600,"station_id":"ce4bhe12rcd13ifvqf30","pricing_plan_id":"cebpf4jnsgd1na2vs0mg"},{"bike_id":"5505627b-8278-457b-9c63-9a16aac49a16","system_id":"levelo_inurba_marseille","lat":43.26936,"lon":5.38916,"is_reserved":false,"is_disabled":false,"rental_uris":{"android":"levelo://app?vid=5505627b-8278-457b-9c63-9a16aac49a16","ios":"levelo://app?vid=5505627b-8278-457b-9c63-9a16aac49a16"},"vehicle_type_id":"4","last_reported":1730405360,"current_range_meters":38400,"station_id":"ce4bhhh2rcd13ifvqfl0","pricing_plan_id":"cebpf4jnsgd1na2vs0mg"},{"bike_id":"6ebb58ed-1590-42c1-bd35-58362bfc1769","system_id":"levelo_inurba_marseille","lat":43.32376,"lon":5.38932,"is_reserved":false,"is_disabled":false,"rental_uris":{"android":"levelo://app?vid=6ebb58ed-1590-42c1-bd35-58362bfc1769","ios":"levelo://app?vid=6ebb58ed-1590-42c1-bd35-58362bfc1769"},"vehicle_type_id":"4","last_reported":1730405360,"current_range_meters":6800,"station_id":"ce4bhqp2rcd13ifvqhog","pricing_plan_id":"cebpf4jnsgd1na2vs0mg"},{"bike_id":"bfa424a7-b615-4fb3-91f2-f1fe7d68845a","system_id":"levelo_inurba_marseille","lat":43.29851,"lon":5.36288,"is_reserved":false,"is_disabled":false,"rental_uris":{"android":"levelo://app?vid=bfa424a7-b615-4fb3-91f2-f1fe7d68845a","ios":"levelo://app?vid=bfa424a7-b615-4fb3-91f2-f1fe7d68845a"},"vehicle_type_id":"4","last_reported":1730405360,"current_range_meters":31200,"station_id":"ce4bgpp2rcd13ifvqc3g","pricing_plan_id":"cebpf4jnsgd1na2vs0mg"},{"bike_id":"cd506133-45e2-421c-adbd-9501e6e43795","system_id":"levelo_inurba_marseille","lat":43.28032,"lon":5.36943,"is_reserved":false,"is_disabled":false,"rental_uris":{"android":"levelo://app?vid=cd506133-45e2-421c-adbd-9501e6e43795","ios":"levelo://app?vid=cd506133-45e2-421c-adbd-9501e6e43795"},"vehicle_type_id":"4","last_reported":1730405360,"current_range_meters":36400,"station_id":"ce4bha12rcd13ifvqef0","pricing_plan_id":"cebpf4jnsgd1na2vs0mg"},{"bike_id":"84eb234f-5cef-4e43-995c-c2a6c7272b1a","system_id":"levelo_inurba_marseille","lat":43.27937,"lon":5.41043,"is_reserved":false,"is_disabled":false,"rental_uris":{"android":"levelo://app?vid=84eb234f-5cef-4e43-995c-c2a6c7272b1a","ios":"levelo://app?vid=84eb234f-5cef-4e43-995c-c2a6c7272b1a"},"vehicle_type_id":"4","last_reported":1730405360,"current_range_meters":28400,"station_id":"ce4bhnp2rcd13ifvqh0g","pricing_plan_id":"cebpf4jnsgd1na2vs0mg"},{"bike_id":"d7ffa81d-2529-46b6-a8eb-e37e63999233","system_id":"levelo_inurba_marseille","lat":43.27432,"lon":5.39421,"is_reserved":false,"is_disabled":false,"rental_uris":{"android":"levelo://app?vid=d7ffa81d-2529-46b6-a8eb-e37e63999233","ios":"levelo://app?vid=d7ffa81d-2529-46b6-a8eb-e37e63999233"},"vehicle_type_id":"4","last_reported":1730405360,"current_range_meters":32000,"station_id":"ce4bhdp2rcd13ifvqf20","pricing_plan_id":"cebpf4jnsgd1na2vs0mg"},{"bike_id":"6badb0e3-569f-479f-ab58-214ac3d8e72a","system_id":"levelo_inurba_marseille","lat":43.29417,"lon":5.38623,"is_reserved":false,"is_disabled":false,"rental_uris":{"android":"levelo://app?vid=6badb0e3-569f-479f-ab58-214ac3d8e72a","ios":"levelo://app?vid=6badb0e3-569f-479f-ab58-214ac3d8e72a"},"vehicle_type_id":"4","last_reported":1730405360,"current_range_meters":38000,"station_id":"ce4bh2h2rcd13ifvqdh0","pricing_plan_id":"cebpf4jnsgd1na2vs0mg"},{"bike_id":"98594522-d75d-4443-82d0-0407f8264d8f","system_id":"levelo_inurba_marseille","lat":43.26551,"lon":5.37284,"is_reserved":false,"is_disabled":false,"rental_uris":{"android":"levelo://app?vid=98594522-d75d-4443-82d0-0407f8264d8f","ios":"levelo://app?vid=98594522-d75d-4443-82d0-0407f8264d8f"},"vehicle_type_id":"4","last_reported":1730405360,"current_range_meters":36000,"station_id":"ce4bhg12rcd13ifvqf70","pricing_plan_id":"cebpf4jnsgd1na2vs0mg"},{"bike_id":"655e5c84-6957-4a22-898b-b606bb7480d4","system_id":"levelo_inurba_marseille","lat":43.2293,"lon":5.35381,"is_reserved":false,"is_disabled":false,"rental_uris":{"android":"levelo://app?vid=655e5c84-6957-4a22-898b-b606bb7480d4","ios":"levelo://app?vid=655e5c84-6957-4a22-898b-b606bb7480d4"},"vehicle_type_id":"4","last_reported":1730405360,"current_range_meters":29600,"station_id":"cpo3532slgdg3j2ikp40","pricing_plan_id":"cebpf4jnsgd1na2vs0mg"},{"bike_id":"1bd932cc-d80c-4477-a551-14be4dcdee75","system_id":"levelo_inurba_marseille","lat":43.29522,"lon":5.3751,"is_reserved":false,"is_disabled":false,"rental_uris":{"android":"levelo://app?vid=1bd932cc-d80c-4477-a551-14be4dcdee75","ios":"levelo://app?vid=1bd932cc-d80c-4477-a551-14be4dcdee75"},"vehicle_type_id":"4","last_reported":1730405360,"current_range_meters":20000,"station_id":"ce4bgkp2rcd13ifvqbmg","pricing_plan_id":"cebpf4jnsgd1na2vs0mg"},{"bike_id":"55d5af3e-9029-41f2-a283-446ade2d7411","system_id":"levelo_inurba_marseille","lat":43.29168,"lon":5.37153,"is_reserved":false,"is_disabled":false,"rental_uris":{"android":"levelo://app?vid=55d5af3e-9029-41f2-a283-446ade2d7411","ios":"levelo://app?vid=55d5af3e-9029-41f2-a283-446ade2d7411"},"vehicle_type_id":"4","last_reported":1730405360,"current_range_meters":38800,"station_id":"ce4bha92rcd13ifvqeh0","pricing_plan_id":"cebpf4jnsgd1na2vs0mg"},{"bike_id":"32595b1d-cd5c-4cc2-96ce-fdd8a0eb8452","system_id":"levelo_inurba_marseille","lat":43.29599,"lon":5.38092,"is_reserved":false,"is_disabled":false,"rental_uris":{"android":"levelo://app?vid=32595b1d-cd5c-4cc2-96ce-fdd8a0eb8452","ios":"levelo://app?vid=32595b1d-cd5c-4cc2-96ce-fdd8a0eb8452"},"vehicle_type_id":"4","last_reported":1730405360,"current_range_meters":37600,"station_id":"ce4bgl12rcd13ifvqbo0","pricing_plan_id":"cebpf4jnsgd1na2vs0mg"},{"bike_id":"ed51f16f-0ea8-43bb-9dee-96116439e0c2","system_id":"levelo_inurba_marseille","lat":43.27203,"lon":5.39173,"is_reserved":false,"is_disabled":false,"rental_uris":{"android":"levelo://app?vid=ed51f16f-0ea8-43bb-9dee-96116439e0c2","ios":"levelo://app?vid=ed51f16f-0ea8-43bb-9dee-96116439e0c2"},"vehicle_type_id":"4","last_reported":1730405360,"current_range_meters":24400,"station_id":"ce4bhhp2rcd13ifvqfm0","pricing_plan_id":"cebpf4jnsgd1na2vs0mg"},{"bike_id":"7dc07648-9fb1-4248-92f4-9aec012db4cc","system_id":"levelo_inurba_marseille","lat":43.27205,"lon":5.39189,"is_reserved":false,"is_disabled":false,"rental_uris":{"android":"levelo://app?vid=7dc07648-9fb1-4248-92f4-9aec012db4cc","ios":"levelo://app?vid=7dc07648-9fb1-4248-92f4-9aec012db4cc"},"vehicle_type_id":"4","last_reported":1730405360,"current_range_meters":3600,"station_id":"ce4bhhp2rcd13ifvqfm0","pricing_plan_id":"cebpf4jnsgd1na2vs0mg"},{"bike_id":"cf984b07-c06a-489f-a198-682f7019d2a4","system_id":"levelo_inurba_marseille","lat":43.25579,"lon":5.38233,"is_reserved":false,"is_disabled":false,"rental_uris":{"android":"levelo://app?vid=cf984b07-c06a-489f-a198-682f7019d2a4","ios":"levelo://app?vid=cf984b07-c06a-489f-a198-682f7019d2a4"},"vehicle_type_id":"4","last_reported":1730405360,"current_range_meters":38800,"station_id":"ce4bhih2rcd13ifvqfs0","pricing_plan_id":"cebpf4jnsgd1na2vs0mg"},{"bike_id":"8f55f6cc-0b54-4d5f-9029-aa15dfd6d9b0","system_id":"levelo_inurba_marseille","lat":43.31622,"lon":5.39066,"is_reserved":false,"is_disabled":false,"rental_uris":{"android":"levelo://app?vid=8f55f6cc-0b54-4d5f-9029-aa15dfd6d9b0","ios":"levelo://app?vid=8f55f6cc-0b54-4d5f-9029-aa15dfd6d9b0"},"vehicle_type_id":"4","last_reported":1730405360,"current_range_meters":12400,"station_id":"","pricing_plan_id":"cebpf4jnsgd1na2vs0mg"},{"bike_id":"9dea5968-0e30-4366-947c-4679fc57c9ac","system_id":"levelo_inurba_marseille","lat":43.26062,"lon":5.39397,"is_reserved":false,"is_disabled":false,"rental_uris":{"android":"levelo://app?vid=9dea5968-0e30-4366-947c-4679fc57c9ac","ios":"levelo://app?vid=9dea5968-0e30-4366-947c-4679fc57c9ac"},"vehicle_type_id":"4","last_reported":1730405360,"current_range_meters":37600,"station_id":"ce4bhh92rcd13ifvqfj0","pricing_plan_id":"cebpf4jnsgd1na2vs0mg"},{"bike_id":"f43d672d-bc61-4cce-908b-d99b79faaa4f","system_id":"levelo_inurba_marseille","lat":43.29522,"lon":5.38536,"is_reserved":false,"is_disabled":false,"rental_uris":{"android":"levelo://app?vid=f43d672d-bc61-4cce-908b-d99b79faaa4f","ios":"levelo://app?vid=f43d672d-bc61-4cce-908b-d99b79faaa4f"},"vehicle_type_id":"4","last_reported":1730405360,"current_range_meters":12400,"station_id":"ce4bgih2rcd13ifvqba0","pricing_plan_id":"cebpf4jnsgd1na2vs0mg"},{"bike_id":"5ff74640-5d39-40f8-808a-e5695df59fd4","system_id":"levelo_inurba_marseille","lat":43.27191,"lon":5.41027,"is_reserved":false,"is_disabled":false,"rental_uris":{"android":"levelo://app?vid=5ff74640-5d39-40f8-808a-e5695df59fd4","ios":"levelo://app?vid=5ff74640-5d39-40f8-808a-e5695df59fd4"},"vehicle_type_id":"4","last_reported":1730405360,"current_range_meters":6000,"station_id":"ce4bhl12rcd13ifvqgf0","pricing_plan_id":"cebpf4jnsgd1na2vs0mg"},{"bike_id":"a1f0b7ce-7ef0-42cb-88c1-e23687ad7b91","system_id":"levelo_inurba_marseille","lat":43.29525,"lon":5.38544,"is_reserved":false,"is_disabled":false,"rental_uris":{"android":"levelo://app?vid=a1f0b7ce-7ef0-42cb-88c1-e23687ad7b91","ios":"levelo://app?vid=a1f0b7ce-7ef0-42cb-88c1-e23687ad7b91"},"vehicle_type_id":"4","last_reported":1730405360,"current_range_meters":13600,"station_id":"ce4bgih2rcd13ifvqba0","pricing_plan_id":"cebpf4jnsgd1na2vs0mg"},{"bike_id":"63a9f77e-6a3d-43bd-9f91-df32e10ff01f","system_id":"levelo_inurba_marseille","lat":43.29273,"lon":5.38433,"is_reserved":false,"is_disabled":false,"rental_uris":{"android":"levelo://app?vid=63a9f77e-6a3d-43bd-9f91-df32e10ff01f","ios":"levelo://app?vid=63a9f77e-6a3d-43bd-9f91-df32e10ff01f"},"vehicle_type_id":"4","last_reported":1730405360,"current_range_meters":34000,"station_id":"ce4bh692rcd13ifvqea0","pricing_plan_id":"cebpf4jnsgd1na2vs0mg"},{"bike_id":"7b34eaf0-3c96-46c5-be9b-70b1469a1918","system_id":"levelo_inurba_marseille","lat":43.29805,"lon":5.40389,"is_reserved":false,"is_disabled":false,"rental_uris":{"android":"levelo://app?vid=7b34eaf0-3c96-46c5-be9b-70b1469a1918","ios":"levelo://app?vid=7b34eaf0-3c96-46c5-be9b-70b1469a1918"},"vehicle_type_id":"4","last_reported":1730405360,"current_range_meters":11600,"station_id":"ce4bh112rcd13ifvqd90","pricing_plan_id":"cebpf4jnsgd1na2vs0mg"},{"bike_id":"b01f7fb7-581d-4a11-b1ff-60b1326781b9","system_id":"levelo_inurba_marseille","lat":43.29877,"lon":5.39742,"is_reserved":false,"is_disabled":false,"rental_uris":{"android":"levelo://app?vid=b01f7fb7-581d-4a11-b1ff-60b1326781b9","ios":"levelo://app?vid=b01f7fb7-581d-4a11-b1ff-60b1326781b9"},"vehicle_type_id":"4","last_reported":1730405360,"current_range_meters":37600,"station_id":"ce4bh0h2rcd13ifvqd50","pricing_plan_id":"cebpf4jnsgd1na2vs0mg"},{"bike_id":"f50cc67a-e569-48ea-8328-412f01de5064","system_id":"levelo_inurba_marseille","lat":43.28713,"lon":5.37921,"is_reserved":false,"is_disabled":false,"rental_uris":{"android":"levelo://app?vid=f50cc67a-e569-48ea-8328-412f01de5064","ios":"levelo://app?vid=f50cc67a-e569-48ea-8328-412f01de5064"},"vehicle_type_id":"4","last_reported":1730405360,"current_range_meters":22000,"station_id":"ce4bh9p2rcd13ifvqec0","pricing_plan_id":"cebpf4jnsgd1na2vs0mg"},{"bike_id":"a931e96c-2049-447b-83ac-c717bfca3d41","system_id":"levelo_inurba_marseille","lat":43.25581,"lon":5.38232,"is_reserved":false,"is_disabled":false,"rental_uris":{"android":"levelo://app?vid=a931e96c-2049-447b-83ac-c717bfca3d41","ios":"levelo://app?vid=a931e96c-2049-447b-83ac-c717bfca3d41"},"vehicle_type_id":"4","last_reported":1730405360,"current_range_meters":35200,"station_id":"ce4bhih2rcd13ifvqfs0","pricing_plan_id":"cebpf4jnsgd1na2vs0mg"},{"bike_id":"e1cd0fbe-03a4-4225-8716-10fc69a250f8","system_id":"levelo_inurba_marseille","lat":43.29375,"lon":5.37846,"is_reserved":false,"is_disabled":false,"rental_uris":{"android":"levelo://app?vid=e1cd0fbe-03a4-4225-8716-10fc69a250f8","ios":"levelo://app?vid=e1cd0fbe-03a4-4225-8716-10fc69a250f8"},"vehicle_type_id":"4","last_reported":1730405360,"current_range_meters":18000,"station_id":"ce4bgjh2rcd13ifvqbf0","pricing_plan_id":"cebpf4jnsgd1na2vs0mg"},{"bike_id":"24690883-53ed-4e59-b93f-1b774333d011","system_id":"levelo_inurba_marseille","lat":43.29621,"lon":5.38103,"is_reserved":false,"is_disabled":false,"rental_uris":{"android":"levelo://app?vid=24690883-53ed-4e59-b93f-1b774333d011","ios":"levelo://app?vid=24690883-53ed-4e59-b93f-1b774333d011"},"vehicle_type_id":"4","last_reported":1730405360,"current_range_meters":35600,"station_id":"ce4bgl12rcd13ifvqbo0","pricing_plan_id":"cebpf4jnsgd1na2vs0mg"},{"bike_id":"32f49aa0-97a9-433e-a5d8-092237ba3894","system_id":"levelo_inurba_marseille","lat":43.30553,"lon":5.3656,"is_reserved":false,"is_disabled":false,"rental_uris":{"android":"levelo://app?vid=32f49aa0-97a9-433e-a5d8-092237ba3894","ios":"levelo://app?vid=32f49aa0-97a9-433e-a5d8-092237ba3894"},"vehicle_type_id":"4","last_reported":1730405360,"current_range_meters":38800,"station_id":"ce4bgs12rcd13ifvqcag","pricing_plan_id":"cebpf4jnsgd1na2vs0mg"},{"bike_id":"ec6b9073-f040-4b5d-9196-6ef1515ae5be","system_id":"levelo_inurba_marseille","lat":43.31997,"lon":5.38153,"is_reserved":false,"is_disabled":false,"rental_uris":{"android":"levelo://app?vid=ec6b9073-f040-4b5d-9196-6ef1515ae5be","ios":"levelo://app?vid=ec6b9073-f040-4b5d-9196-6ef1515ae5be"},"vehicle_type_id":"4","last_reported":1730405360,"current_range_meters":16800,"station_id":"ce4bhr12rcd13ifvqhpg","pricing_plan_id":"cebpf4jnsgd1na2vs0mg"},{"bike_id":"47559785-93de-40ff-accd-0643c51db46c","system_id":"levelo_inurba_marseille","lat":43.27209,"lon":5.39173,"is_reserved":false,"is_disabled":false,"rental_uris":{"android":"levelo://app?vid=47559785-93de-40ff-accd-0643c51db46c","ios":"levelo://app?vid=47559785-93de-40ff-accd-0643c51db46c"},"vehicle_type_id":"4","last_reported":1730405360,"current_range_meters":25600,"station_id":"ce4bhhp2rcd13ifvqfm0","pricing_plan_id":"cebpf4jnsgd1na2vs0mg"},{"bike_id":"63ad6031-69cc-44e0-a545-f4d2e006c831","system_id":"levelo_inurba_marseille","lat":43.26805,"lon":5.40266,"is_reserved":false,"is_disabled":false,"rental_uris":{"android":"levelo://app?vid=63ad6031-69cc-44e0-a545-f4d2e006c831","ios":"levelo://app?vid=63ad6031-69cc-44e0-a545-f4d2e006c831"},"vehicle_type_id":"4","last_reported":1730405360,"current_range_meters":39200,"station_id":"ce501612rcd8frsf0b60","pricing_plan_id":"cebpf4jnsgd1na2vs0mg"},{"bike_id":"3a09ceaf-2e70-40df-b9b5-539e96d81463","system_id":"levelo_inurba_marseille","lat":43.26952,"lon":5.38633,"is_reserved":false,"is_disabled":false,"rental_uris":{"android":"levelo://app?vid=3a09ceaf-2e70-40df-b9b5-539e96d81463","ios":"levelo://app?vid=3a09ceaf-2e70-40df-b9b5-539e96d81463"},"vehicle_type_id":"4","last_reported":1730405360,"current_range_meters":30800,"station_id":"ce4bhh92rcd13ifvqfh0","pricing_plan_id":"cebpf4jnsgd1na2vs0mg"},{"bike_id":"5b1beb29-08c3-4517-96e1-89c4b727e0c3","system_id":"levelo_inurba_marseille","lat":43.2319,"lon":5.35547,"is_reserved":false,"is_disabled":false,"rental_uris":{"android":"levelo://app?vid=5b1beb29-08c3-4517-96e1-89c4b727e0c3","ios":"levelo://app?vid=5b1beb29-08c3-4517-96e1-89c4b727e0c3"},"vehicle_type_id":"4","last_reported":1730405360,"current_range_meters":33200,"station_id":"ce4bhu92rcd13ifvqi70","pricing_plan_id":"cebpf4jnsgd1na2vs0mg"},{"bike_id":"b8c309ac-2d71-44a4-9ec0-1d42458adc5a","system_id":"levelo_inurba_marseille","lat":43.29426,"lon":5.3861,"is_reserved":false,"is_disabled":false,"rental_uris":{"android":"levelo://app?vid=b8c309ac-2d71-44a4-9ec0-1d42458adc5a","ios":"levelo://app?vid=b8c309ac-2d71-44a4-9ec0-1d42458adc5a"},"vehicle_type_id":"4","last_reported":1730405360,"current_range_meters":9200,"station_id":"ce4bh2h2rcd13ifvqdh0","pricing_plan_id":"cebpf4jnsgd1na2vs0mg"},{"bike_id":"22e5e5c1-6dbf-40f4-b818-a64e5c930397","system_id":"levelo_inurba_marseille","lat":43.23968,"lon":5.36621,"is_reserved":false,"is_disabled":false,"rental_uris":{"android":"levelo://app?vid=22e5e5c1-6dbf-40f4-b818-a64e5c930397","ios":"levelo://app?vid=22e5e5c1-6dbf-40f4-b818-a64e5c930397"},"vehicle_type_id":"4","last_reported":1730405360,"current_range_meters":38800,"station_id":"ce4bhi12rcd13ifvqfp0","pricing_plan_id":"cebpf4jnsgd1na2vs0mg"},{"bike_id":"678bd49d-4e97-464a-9d6b-ff8f1a094f5f","system_id":"levelo_inurba_marseille","lat":43.29023,"lon":5.3864,"is_reserved":false,"is_disabled":false,"rental_uris":{"android":"levelo://app?vid=678bd49d-4e97-464a-9d6b-ff8f1a094f5f","ios":"levelo://app?vid=678bd49d-4e97-464a-9d6b-ff8f1a094f5f"},"vehicle_type_id":"4","last_reported":1730405360,"current_range_meters":36400,"station_id":"ce4bh4p2rcd13ifvqe0g","pricing_plan_id":"cebpf4jnsgd1na2vs0mg"},{"bike_id":"42dfebb6-ce28-46ba-90a1-c3a7dc77abdc","system_id":"levelo_inurba_marseille","lat":43.30425,"lon":5.39753,"is_reserved":false,"is_disabled":false,"rental_uris":{"android":"levelo://app?vid=42dfebb6-ce28-46ba-90a1-c3a7dc77abdc","ios":"levelo://app?vid=42dfebb6-ce28-46ba-90a1-c3a7dc77abdc"},"vehicle_type_id":"4","last_reported":1730405360,"current_range_meters":35600,"station_id":"ce4bh092rcd13ifvqd20","pricing_plan_id":"cebpf4jnsgd1na2vs0mg"},{"bike_id":"f99547b6-e0b7-4a86-b4bb-f600f8ca5cb2","system_id":"levelo_inurba_marseille","lat":43.24168,"lon":5.36401,"is_reserved":false,"is_disabled":false,"rental_uris":{"android":"levelo://app?vid=f99547b6-e0b7-4a86-b4bb-f600f8ca5cb2","ios":"levelo://app?vid=f99547b6-e0b7-4a86-b4bb-f600f8ca5cb2"},"vehicle_type_id":"4","last_reported":1730405360,"current_range_meters":9200,"station_id":"cpo36qri1sfpv3e86is0","pricing_plan_id":"cebpf4jnsgd1na2vs0mg"},{"bike_id":"3d3a158b-5db6-486e-ac5b-b149fba80bfb","system_id":"levelo_inurba_marseille","lat":43.23464,"lon":5.3818,"is_reserved":false,"is_disabled":false,"rental_uris":{"android":"levelo://app?vid=3d3a158b-5db6-486e-ac5b-b149fba80bfb","ios":"levelo://app?vid=3d3a158b-5db6-486e-ac5b-b149fba80bfb"},"vehicle_type_id":"4","last_reported":1730405360,"current_range_meters":6000,"station_id":"","pricing_plan_id":"cebpf4jnsgd1na2vs0mg"},{"bike_id":"ad423d48-e9c3-49a3-8744-a69ab957b193","system_id":"levelo_inurba_marseille","lat":43.29253,"lon":5.38427,"is_reserved":false,"is_disabled":false,"rental_uris":{"android":"levelo://app?vid=ad423d48-e9c3-49a3-8744-a69ab957b193","ios":"levelo://app?vid=ad423d48-e9c3-49a3-8744-a69ab957b193"},"vehicle_type_id":"4","last_reported":1730405360,"current_range_meters":16800,"station_id":"ce4bh692rcd13ifvqea0","pricing_plan_id":"cebpf4jnsgd1na2vs0mg"},{"bike_id":"32a7b847-ca99-48d0-8695-b92bf6f9b7c4","system_id":"levelo_inurba_marseille","lat":43.30423,"lon":5.41282,"is_reserved":false,"is_disabled":false,"rental_uris":{"android":"levelo://app?vid=32a7b847-ca99-48d0-8695-b92bf6f9b7c4","ios":"levelo://app?vid=32a7b847-ca99-48d0-8695-b92bf6f9b7c4"},"vehicle_type_id":"4","last_reported":1730405360,"current_range_meters":24800,"station_id":"ce4bhop2rcd13ifvqh8g","pricing_plan_id":"cebpf4jnsgd1na2vs0mg"},{"bike_id":"46d0efb5-345c-4ad7-a068-29c63db12266","system_id":"levelo_inurba_marseille","lat":43.23964,"lon":5.36632,"is_reserved":false,"is_disabled":false,"rental_uris":{"android":"levelo://app?vid=46d0efb5-345c-4ad7-a068-29c63db12266","ios":"levelo://app?vid=46d0efb5-345c-4ad7-a068-29c63db12266"},"vehicle_type_id":"4","last_reported":1730405360,"current_range_meters":14400,"station_id":"ce4bhi12rcd13ifvqfp0","pricing_plan_id":"cebpf4jnsgd1na2vs0mg"},{"bike_id":"794d23c0-def7-4557-a69a-112ea268f585","system_id":"levelo_inurba_marseille","lat":43.23186,"lon":5.35542,"is_reserved":false,"is_disabled":false,"rental_uris":{"android":"levelo://app?vid=794d23c0-def7-4557-a69a-112ea268f585","ios":"levelo://app?vid=794d23c0-def7-4557-a69a-112ea268f585"},"vehicle_type_id":"4","last_reported":1730405360,"current_range_meters":38000,"station_id":"ce4bhu92rcd13ifvqi70","pricing_plan_id":"cebpf4jnsgd1na2vs0mg"},{"bike_id":"600b4235-6b10-47a5-9c47-8f7ac981c68e","system_id":"levelo_inurba_marseille","lat":43.29003,"lon":5.35616,"is_reserved":false,"is_disabled":false,"rental_uris":{"android":"levelo://app?vid=600b4235-6b10-47a5-9c47-8f7ac981c68e","ios":"levelo://app?vid=600b4235-6b10-47a5-9c47-8f7ac981c68e"},"vehicle_type_id":"4","last_reported":1730405360,"current_range_meters":34800,"station_id":"ce4bhb92rcd13ifvqen0","pricing_plan_id":"cebpf4jnsgd1na2vs0mg"},{"bike_id":"d843627f-14fd-4686-94e3-ce47a963fbbd","system_id":"levelo_inurba_marseille","lat":43.2926,"lon":5.38433,"is_reserved":false,"is_disabled":false,"rental_uris":{"android":"levelo://app?vid=d843627f-14fd-4686-94e3-ce47a963fbbd","ios":"levelo://app?vid=d843627f-14fd-4686-94e3-ce47a963fbbd"},"vehicle_type_id":"4","last_reported":1730405360,"current_range_meters":38800,"station_id":"ce4bh692rcd13ifvqea0","pricing_plan_id":"cebpf4jnsgd1na2vs0mg"},{"bike_id":"e1f38475-1a5f-460f-8d3a-c2ed01dbd393","system_id":"levelo_inurba_marseille","lat":43.29026,"lon":5.38649,"is_reserved":false,"is_disabled":false,"rental_uris":{"android":"levelo://app?vid=e1f38475-1a5f-460f-8d3a-c2ed01dbd393","ios":"levelo://app?vid=e1f38475-1a5f-460f-8d3a-c2ed01dbd393"},"vehicle_type_id":"4","last_reported":1730405360,"current_range_meters":9200,"station_id":"ce4bh4p2rcd13ifvqe0g","pricing_plan_id":"cebpf4jnsgd1na2vs0mg"},{"bike_id":"4714ada8-93a5-4108-ae0d-b8d49c924193","system_id":"levelo_inurba_marseille","lat":43.24178,"lon":5.39729,"is_reserved":false,"is_disabled":false,"rental_uris":{"android":"levelo://app?vid=4714ada8-93a5-4108-ae0d-b8d49c924193","ios":"levelo://app?vid=4714ada8-93a5-4108-ae0d-b8d49c924193"},"vehicle_type_id":"4","last_reported":1730405360,"current_range_meters":18000,"station_id":"ce4bhn12rcd13ifvqgpg","pricing_plan_id":"cebpf4jnsgd1na2vs0mg"},{"bike_id":"5b65c998-a70a-4147-a5ad-cfde4a53ff4d","system_id":"levelo_inurba_marseille","lat":43.29028,"lon":5.38657,"is_reserved":false,"is_disabled":false,"rental_uris":{"android":"levelo://app?vid=5b65c998-a70a-4147-a5ad-cfde4a53ff4d","ios":"levelo://app?vid=5b65c998-a70a-4147-a5ad-cfde4a53ff4d"},"vehicle_type_id":"4","last_reported":1730405360,"current_range_meters":27600,"station_id":"ce4bh4p2rcd13ifvqe0g","pricing_plan_id":"cebpf4jnsgd1na2vs0mg"},{"bike_id":"2e7d8ddd-fbee-4b3b-895f-c6318a27e9c5","system_id":"levelo_inurba_marseille","lat":43.30494,"lon":5.37928,"is_reserved":false,"is_disabled":false,"rental_uris":{"android":"levelo://app?vid=2e7d8ddd-fbee-4b3b-895f-c6318a27e9c5","ios":"levelo://app?vid=2e7d8ddd-fbee-4b3b-895f-c6318a27e9c5"},"vehicle_type_id":"4","last_reported":1730405360,"current_range_meters":38400,"station_id":"ce4bgup2rcd13ifvqcn0","pricing_plan_id":"cebpf4jnsgd1na2vs0mg"},{"bike_id":"d4247ed7-9f1e-4c56-9be6-367fdf0ad3b2","system_id":"levelo_inurba_marseille","lat":43.29531,"lon":5.38547,"is_reserved":false,"is_disabled":false,"rental_uris":{"android":"levelo://app?vid=d4247ed7-9f1e-4c56-9be6-367fdf0ad3b2","ios":"levelo://app?vid=d4247ed7-9f1e-4c56-9be6-367fdf0ad3b2"},"vehicle_type_id":"4","last_reported":1730405360,"current_range_meters":31200,"station_id":"ce4bgih2rcd13ifvqba0","pricing_plan_id":"cebpf4jnsgd1na2vs0mg"},{"bike_id":"bc6cb124-330c-41c5-b941-669f8ff37102","system_id":"levelo_inurba_marseille","lat":43.27424,"lon":5.39417,"is_reserved":false,"is_disabled":false,"rental_uris":{"android":"levelo://app?vid=bc6cb124-330c-41c5-b941-669f8ff37102","ios":"levelo://app?vid=bc6cb124-330c-41c5-b941-669f8ff37102"},"vehicle_type_id":"4","last_reported":1730405360,"current_range_meters":36800,"station_id":"ce4bhdp2rcd13ifvqf20","pricing_plan_id":"cebpf4jnsgd1na2vs0mg"},{"bike_id":"bb9ef8e0-3c24-4a8a-a2bc-1f2b40a2e581","system_id":"levelo_inurba_marseille","lat":43.29516,"lon":5.37499,"is_reserved":false,"is_disabled":false,"rental_uris":{"android":"levelo://app?vid=bb9ef8e0-3c24-4a8a-a2bc-1f2b40a2e581","ios":"levelo://app?vid=bb9ef8e0-3c24-4a8a-a2bc-1f2b40a2e581"},"vehicle_type_id":"4","last_reported":1730405360,"current_range_meters":25600,"station_id":"ce4bgkp2rcd13ifvqbmg","pricing_plan_id":"cebpf4jnsgd1na2vs0mg"},{"bike_id":"128e004d-d866-4629-b9a8-0ef62bb11b68","system_id":"levelo_inurba_marseille","lat":43.29899,"lon":5.43669,"is_reserved":false,"is_disabled":false,"rental_uris":{"android":"levelo://app?vid=128e004d-d866-4629-b9a8-0ef62bb11b68","ios":"levelo://app?vid=128e004d-d866-4629-b9a8-0ef62bb11b68"},"vehicle_type_id":"4","last_reported":1730405360,"current_range_meters":12400,"station_id":"ce4bhpp2rcd13ifvqhfg","pricing_plan_id":"cebpf4jnsgd1na2vs0mg"},{"bike_id":"6942b42a-0e5c-418c-aff8-66728d07da76","system_id":"levelo_inurba_marseille","lat":43.28005,"lon":5.40018,"is_reserved":false,"is_disabled":false,"rental_uris":{"android":"levelo://app?vid=6942b42a-0e5c-418c-aff8-66728d07da76","ios":"levelo://app?vid=6942b42a-0e5c-418c-aff8-66728d07da76"},"vehicle_type_id":"4","last_reported":1730405360,"current_range_meters":17200,"station_id":"ce4bho92rcd13ifvqh4g","pricing_plan_id":"cebpf4jnsgd1na2vs0mg"},{"bike_id":"a170b4cb-3e23-4249-961a-c8b3c67a8011","system_id":"levelo_inurba_marseille","lat":43.29522,"lon":5.38533,"is_reserved":false,"is_disabled":false,"rental_uris":{"android":"levelo://app?vid=a170b4cb-3e23-4249-961a-c8b3c67a8011","ios":"levelo://app?vid=a170b4cb-3e23-4249-961a-c8b3c67a8011"},"vehicle_type_id":"4","last_reported":1730405360,"current_range_meters":12800,"station_id":"ce4bgih2rcd13ifvqba0","pricing_plan_id":"cebpf4jnsgd1na2vs0mg"},{"bike_id":"40750dc3-fcfc-4900-94b4-4e8533d25abf","system_id":"levelo_inurba_marseille","lat":43.29012,"lon":5.38146,"is_reserved":false,"is_disabled":false,"rental_uris":{"android":"levelo://app?vid=40750dc3-fcfc-4900-94b4-4e8533d25abf","ios":"levelo://app?vid=40750dc3-fcfc-4900-94b4-4e8533d25abf"},"vehicle_type_id":"4","last_reported":1730405360,"current_range_meters":38000,"station_id":"ce4bh4p2rcd13ifvqe1g","pricing_plan_id":"cebpf4jnsgd1na2vs0mg"},{"bike_id":"577c4bd0-b18e-4ba5-ac46-9a26a3450009","system_id":"levelo_inurba_marseille","lat":43.312897,"lon":5.367412,"is_reserved":false,"is_disabled":false,"rental_uris":{"android":"levelo://app?vid=577c4bd0-b18e-4ba5-ac46-9a26a3450009","ios":"levelo://app?vid=577c4bd0-b18e-4ba5-ac46-9a26a3450009"},"vehicle_type_id":"4","last_reported":1730405360,"current_range_meters":25200,"station_id":"ce4bh312rcd13ifvqdj0","pricing_plan_id":"cebpf4jnsgd1na2vs0mg"},{"bike_id":"264a30ce-3003-43f7-8d64-59b303ec06d3","system_id":"levelo_inurba_marseille","lat":43.24998,"lon":5.3893,"is_reserved":false,"is_disabled":false,"rental_uris":{"android":"levelo://app?vid=264a30ce-3003-43f7-8d64-59b303ec06d3","ios":"levelo://app?vid=264a30ce-3003-43f7-8d64-59b303ec06d3"},"vehicle_type_id":"4","last_reported":1730405360,"current_range_meters":32800,"station_id":"ce4bhgp2rcd13ifvqfd0","pricing_plan_id":"cebpf4jnsgd1na2vs0mg"},{"bike_id":"30cd3637-5231-4451-8b17-3902824e2d98","system_id":"levelo_inurba_marseille","lat":43.31435,"lon":5.39294,"is_reserved":false,"is_disabled":false,"rental_uris":{"android":"levelo://app?vid=30cd3637-5231-4451-8b17-3902824e2d98","ios":"levelo://app?vid=30cd3637-5231-4451-8b17-3902824e2d98"},"vehicle_type_id":"4","last_reported":1730405360,"current_range_meters":20800,"station_id":"","pricing_plan_id":"cebpf4jnsgd1na2vs0mg"},{"bike_id":"2150a47c-3ab4-44ef-bf62-5ffade1a92bc","system_id":"levelo_inurba_marseille","lat":43.2927,"lon":5.38437,"is_reserved":false,"is_disabled":false,"rental_uris":{"android":"levelo://app?vid=2150a47c-3ab4-44ef-bf62-5ffade1a92bc","ios":"levelo://app?vid=2150a47c-3ab4-44ef-bf62-5ffade1a92bc"},"vehicle_type_id":"4","last_reported":1730405360,"current_range_meters":26800,"station_id":"ce4bh692rcd13ifvqea0","pricing_plan_id":"cebpf4jnsgd1na2vs0mg"},{"bike_id":"43593456-1fc7-466e-9966-4e71827096d2","system_id":"levelo_inurba_marseille","lat":43.292698,"lon":5.38446,"is_reserved":false,"is_disabled":false,"rental_uris":{"android":"levelo://app?vid=43593456-1fc7-466e-9966-4e71827096d2","ios":"levelo://app?vid=43593456-1fc7-466e-9966-4e71827096d2"},"vehicle_type_id":"4","last_reported":1730405360,"current_range_meters":38800,"station_id":"ce4bh692rcd13ifvqea0","pricing_plan_id":"cebpf4jnsgd1na2vs0mg"},{"bike_id":"55e8dde2-617e-4c29-bde2-a7deb8339727","system_id":"levelo_inurba_marseille","lat":43.30211,"lon":5.39464,"is_reserved":false,"is_disabled":false,"rental_uris":{"android":"levelo://app?vid=55e8dde2-617e-4c29-bde2-a7deb8339727","ios":"levelo://app?vid=55e8dde2-617e-4c29-bde2-a7deb8339727"},"vehicle_type_id":"4","last_reported":1730405360,"current_range_meters":40000,"station_id":"ce4bh0p2rcd13ifvqd70","pricing_plan_id":"cebpf4jnsgd1na2vs0mg"},{"bike_id":"4f8e6845-01cd-4213-b156-300805d0d9f0","system_id":"levelo_inurba_marseille","lat":43.3054,"lon":5.36546,"is_reserved":false,"is_disabled":false,"rental_uris":{"android":"levelo://app?vid=4f8e6845-01cd-4213-b156-300805d0d9f0","ios":"levelo://app?vid=4f8e6845-01cd-4213-b156-300805d0d9f0"},"vehicle_type_id":"4","last_reported":1730405360,"current_range_meters":28800,"station_id":"ce4bgs12rcd13ifvqcag","pricing_plan_id":"cebpf4jnsgd1na2vs0mg"},{"bike_id":"28d3908a-af05-463f-ba89-60bb7ec0116a","system_id":"levelo_inurba_marseille","lat":43.29531,"lon":5.38554,"is_reserved":false,"is_disabled":false,"rental_uris":{"android":"levelo://app?vid=28d3908a-af05-463f-ba89-60bb7ec0116a","ios":"levelo://app?vid=28d3908a-af05-463f-ba89-60bb7ec0116a"},"vehicle_type_id":"4","last_reported":1730405360,"current_range_meters":36800,"station_id":"ce4bgih2rcd13ifvqba0","pricing_plan_id":"cebpf4jnsgd1na2vs0mg"},{"bike_id":"bc1e7e4c-d357-4446-8b3e-fe8780c2a2c3","system_id":"levelo_inurba_marseille","lat":43.30647,"lon":5.4007,"is_reserved":false,"is_disabled":false,"rental_uris":{"android":"levelo://app?vid=bc1e7e4c-d357-4446-8b3e-fe8780c2a2c3","ios":"levelo://app?vid=bc1e7e4c-d357-4446-8b3e-fe8780c2a2c3"},"vehicle_type_id":"4","last_reported":1730405360,"current_range_meters":8400,"station_id":"ce4bh112rcd13ifvqda0","pricing_plan_id":"cebpf4jnsgd1na2vs0mg"},{"bike_id":"8e63b503-778b-42f4-ae04-a1cee9c5ac08","system_id":"levelo_inurba_marseille","lat":43.29414,"lon":5.3864,"is_reserved":false,"is_disabled":false,"rental_uris":{"android":"levelo://app?vid=8e63b503-778b-42f4-ae04-a1cee9c5ac08","ios":"levelo://app?vid=8e63b503-778b-42f4-ae04-a1cee9c5ac08"},"vehicle_type_id":"4","last_reported":1730405360,"current_range_meters":24800,"station_id":"ce4bh2h2rcd13ifvqdh0","pricing_plan_id":"cebpf4jnsgd1na2vs0mg"},{"bike_id":"2e67f7b6-01c2-4ccc-9d96-369af4546414","system_id":"levelo_inurba_marseille","lat":43.29541,"lon":5.38549,"is_reserved":false,"is_disabled":false,"rental_uris":{"android":"levelo://app?vid=2e67f7b6-01c2-4ccc-9d96-369af4546414","ios":"levelo://app?vid=2e67f7b6-01c2-4ccc-9d96-369af4546414"},"vehicle_type_id":"4","last_reported":1730405360,"current_range_meters":38800,"station_id":"ce4bgih2rcd13ifvqba0","pricing_plan_id":"cebpf4jnsgd1na2vs0mg"},{"bike_id":"6b37bacb-7a59-4dc5-95a4-e99ee0afea96","system_id":"levelo_inurba_marseille","lat":43.29417,"lon":5.38629,"is_reserved":false,"is_disabled":false,"rental_uris":{"android":"levelo://app?vid=6b37bacb-7a59-4dc5-95a4-e99ee0afea96","ios":"levelo://app?vid=6b37bacb-7a59-4dc5-95a4-e99ee0afea96"},"vehicle_type_id":"4","last_reported":1730405360,"current_range_meters":9200,"station_id":"ce4bh2h2rcd13ifvqdh0","pricing_plan_id":"cebpf4jnsgd1na2vs0mg"},{"bike_id":"4a39e43a-09cd-4df1-b2ab-df4b01b0afea","system_id":"levelo_inurba_marseille","lat":43.27394,"lon":5.42681,"is_reserved":false,"is_disabled":false,"rental_uris":{"android":"levelo://app?vid=4a39e43a-09cd-4df1-b2ab-df4b01b0afea","ios":"levelo://app?vid=4a39e43a-09cd-4df1-b2ab-df4b01b0afea"},"vehicle_type_id":"4","last_reported":1730405360,"current_range_meters":28800,"station_id":"","pricing_plan_id":"cebpf4jnsgd1na2vs0mg"},{"bike_id":"054ee56e-cf0e-440b-a682-7a1df4c36e7a","system_id":"levelo_inurba_marseille","lat":43.25582,"lon":5.38242,"is_reserved":false,"is_disabled":false,"rental_uris":{"android":"levelo://app?vid=054ee56e-cf0e-440b-a682-7a1df4c36e7a","ios":"levelo://app?vid=054ee56e-cf0e-440b-a682-7a1df4c36e7a"},"vehicle_type_id":"4","last_reported":1730405360,"current_range_meters":16000,"station_id":"ce4bhih2rcd13ifvqfs0","pricing_plan_id":"cebpf4jnsgd1na2vs0mg"},{"bike_id":"a46989d1-40cb-4edc-a303-ea27515b4f17","system_id":"levelo_inurba_marseille","lat":43.27818,"lon":5.40706,"is_reserved":false,"is_disabled":false,"rental_uris":{"android":"levelo://app?vid=a46989d1-40cb-4edc-a303-ea27515b4f17","ios":"levelo://app?vid=a46989d1-40cb-4edc-a303-ea27515b4f17"},"vehicle_type_id":"4","last_reported":1730405360,"current_range_meters":34800,"station_id":"ce4bhnh2rcd13ifvqgtg","pricing_plan_id":"cebpf4jnsgd1na2vs0mg"},{"bike_id":"6b9fba57-cc34-43ea-be1f-baa5835b5ec6","system_id":"levelo_inurba_marseille","lat":43.30292,"lon":5.39217,"is_reserved":false,"is_disabled":false,"rental_uris":{"android":"levelo://app?vid=6b9fba57-cc34-43ea-be1f-baa5835b5ec6","ios":"levelo://app?vid=6b9fba57-cc34-43ea-be1f-baa5835b5ec6"},"vehicle_type_id":"4","last_reported":1730405360,"current_range_meters":9600,"station_id":"ce4bgkh2rcd13ifvqbk0","pricing_plan_id":"cebpf4jnsgd1na2vs0mg"},{"bike_id":"f62fba6b-c3ee-4a17-9696-1fdbc2909eaa","system_id":"levelo_inurba_marseille","lat":43.295741,"lon":5.375246,"is_reserved":false,"is_disabled":false,"rental_uris":{"android":"levelo://app?vid=f62fba6b-c3ee-4a17-9696-1fdbc2909eaa","ios":"levelo://app?vid=f62fba6b-c3ee-4a17-9696-1fdbc2909eaa"},"vehicle_type_id":"4","last_reported":1730405360,"current_range_meters":33200,"station_id":"ce4bgh92rcd13ifvqb50","pricing_plan_id":"cebpf4jnsgd1na2vs0mg"},{"bike_id":"7955dbe3-7df6-423b-b5ea-52fcee764df0","system_id":"levelo_inurba_marseille","lat":43.30529,"lon":5.3671,"is_reserved":false,"is_disabled":false,"rental_uris":{"android":"levelo://app?vid=7955dbe3-7df6-423b-b5ea-52fcee764df0","ios":"levelo://app?vid=7955dbe3-7df6-423b-b5ea-52fcee764df0"},"vehicle_type_id":"4","last_reported":1730405360,"current_range_meters":18000,"station_id":"ce4bhp92rcd13ifvqhcg","pricing_plan_id":"cebpf4jnsgd1na2vs0mg"},{"bike_id":"a8bf15a2-3da0-456e-bd97-081c5a518dd1","system_id":"levelo_inurba_marseille","lat":43.27369,"lon":5.36262,"is_reserved":false,"is_disabled":false,"rental_uris":{"android":"levelo://app?vid=a8bf15a2-3da0-456e-bd97-081c5a518dd1","ios":"levelo://app?vid=a8bf15a2-3da0-456e-bd97-081c5a518dd1"},"vehicle_type_id":"4","last_reported":1730405360,"current_range_meters":38800,"station_id":"ce4bhbh2rcd13ifvqeo0","pricing_plan_id":"cebpf4jnsgd1na2vs0mg"},{"bike_id":"ea860d18-d5bb-4b0e-a22b-25a2ca231534","system_id":"levelo_inurba_marseille","lat":43.29027,"lon":5.38641,"is_reserved":false,"is_disabled":false,"rental_uris":{"android":"levelo://app?vid=ea860d18-d5bb-4b0e-a22b-25a2ca231534","ios":"levelo://app?vid=ea860d18-d5bb-4b0e-a22b-25a2ca231534"},"vehicle_type_id":"4","last_reported":1730405360,"current_range_meters":8000,"station_id":"ce4bh4p2rcd13ifvqe0g","pricing_plan_id":"cebpf4jnsgd1na2vs0mg"},{"bike_id":"4748c607-e231-4758-abac-4ae44466df2c","system_id":"levelo_inurba_marseille","lat":43.29266,"lon":5.38427,"is_reserved":false,"is_disabled":false,"rental_uris":{"android":"levelo://app?vid=4748c607-e231-4758-abac-4ae44466df2c","ios":"levelo://app?vid=4748c607-e231-4758-abac-4ae44466df2c"},"vehicle_type_id":"4","last_reported":1730405360,"current_range_meters":17600,"station_id":"ce4bh692rcd13ifvqea0","pricing_plan_id":"cebpf4jnsgd1na2vs0mg"},{"bike_id":"94279a57-03c0-47b7-abe3-7226e86fd3b0","system_id":"levelo_inurba_marseille","lat":43.2761,"lon":5.36105,"is_reserved":false,"is_disabled":false,"rental_uris":{"android":"levelo://app?vid=94279a57-03c0-47b7-abe3-7226e86fd3b0","ios":"levelo://app?vid=94279a57-03c0-47b7-abe3-7226e86fd3b0"},"vehicle_type_id":"4","last_reported":1730405360,"current_range_meters":28400,"station_id":"ce4bgj92rcd13ifvqbe0","pricing_plan_id":"cebpf4jnsgd1na2vs0mg"},{"bike_id":"e4578546-19d3-4d2c-9701-34a0fb5f0a6c","system_id":"levelo_inurba_marseille","lat":43.23961,"lon":5.36621,"is_reserved":false,"is_disabled":false,"rental_uris":{"android":"levelo://app?vid=e4578546-19d3-4d2c-9701-34a0fb5f0a6c","ios":"levelo://app?vid=e4578546-19d3-4d2c-9701-34a0fb5f0a6c"},"vehicle_type_id":"4","last_reported":1730405360,"current_range_meters":4400,"station_id":"ce4bhi12rcd13ifvqfp0","pricing_plan_id":"cebpf4jnsgd1na2vs0mg"},{"bike_id":"487554ff-bf08-478c-9d0d-83f3e8568ef8","system_id":"levelo_inurba_marseille","lat":43.26195,"lon":5.37447,"is_reserved":false,"is_disabled":false,"rental_uris":{"android":"levelo://app?vid=487554ff-bf08-478c-9d0d-83f3e8568ef8","ios":"levelo://app?vid=487554ff-bf08-478c-9d0d-83f3e8568ef8"},"vehicle_type_id":"4","last_reported":1730405360,"current_range_meters":28000,"station_id":"ce4bhgp2rcd13ifvqfc0","pricing_plan_id":"cebpf4jnsgd1na2vs0mg"},{"bike_id":"65f185a7-b01b-4715-a467-945483d3c9b6","system_id":"levelo_inurba_marseille","lat":43.31098,"lon":5.40943,"is_reserved":false,"is_disabled":false,"rental_uris":{"android":"levelo://app?vid=65f185a7-b01b-4715-a467-945483d3c9b6","ios":"levelo://app?vid=65f185a7-b01b-4715-a467-945483d3c9b6"},"vehicle_type_id":"4","last_reported":1730405360,"current_range_meters":36400,"station_id":"","pricing_plan_id":"cebpf4jnsgd1na2vs0mg"},{"bike_id":"1c03b1dd-0784-49b8-889b-839041fa077d","system_id":"levelo_inurba_marseille","lat":43.27626,"lon":5.36111,"is_reserved":false,"is_disabled":false,"rental_uris":{"android":"levelo://app?vid=1c03b1dd-0784-49b8-889b-839041fa077d","ios":"levelo://app?vid=1c03b1dd-0784-49b8-889b-839041fa077d"},"vehicle_type_id":"4","last_reported":1730405360,"current_range_meters":36000,"station_id":"ce4bgj92rcd13ifvqbe0","pricing_plan_id":"cebpf4jnsgd1na2vs0mg"},{"bike_id":"6ed6a989-9445-42cb-88f4-17f899a86427","system_id":"levelo_inurba_marseille","lat":43.25581,"lon":5.38241,"is_reserved":false,"is_disabled":false,"rental_uris":{"android":"levelo://app?vid=6ed6a989-9445-42cb-88f4-17f899a86427","ios":"levelo://app?vid=6ed6a989-9445-42cb-88f4-17f899a86427"},"vehicle_type_id":"4","last_reported":1730405360,"current_range_meters":35600,"station_id":"ce4bhih2rcd13ifvqfs0","pricing_plan_id":"cebpf4jnsgd1na2vs0mg"},{"bike_id":"ef0ac3fc-9318-4899-879d-ca0d36bee3ba","system_id":"levelo_inurba_marseille","lat":43.26686,"lon":5.3827,"is_reserved":false,"is_disabled":false,"rental_uris":{"android":"levelo://app?vid=ef0ac3fc-9318-4899-879d-ca0d36bee3ba","ios":"levelo://app?vid=ef0ac3fc-9318-4899-879d-ca0d36bee3ba"},"vehicle_type_id":"4","last_reported":1730405360,"current_range_meters":28400,"station_id":"ce4bhg92rcd13ifvqf90","pricing_plan_id":"cebpf4jnsgd1na2vs0mg"},{"bike_id":"423813e8-a3e6-4863-912b-b1f2d23689d0","system_id":"levelo_inurba_marseille","lat":43.301367,"lon":5.387817,"is_reserved":false,"is_disabled":false,"rental_uris":{"android":"levelo://app?vid=423813e8-a3e6-4863-912b-b1f2d23689d0","ios":"levelo://app?vid=423813e8-a3e6-4863-912b-b1f2d23689d0"},"vehicle_type_id":"4","last_reported":1730405360,"current_range_meters":8800,"station_id":"ce4bhhp2rcd13ifvqfm0","pricing_plan_id":"cebpf4jnsgd1na2vs0mg"},{"bike_id":"742e3b39-99d0-477f-8dff-13676bdb1f4a","system_id":"levelo_inurba_marseille","lat":43.27072,"lon":5.42282,"is_reserved":false,"is_disabled":false,"rental_uris":{"android":"levelo://app?vid=742e3b39-99d0-477f-8dff-13676bdb1f4a","ios":"levelo://app?vid=742e3b39-99d0-477f-8dff-13676bdb1f4a"},"vehicle_type_id":"4","last_reported":1730405360,"current_range_meters":38800,"station_id":"ce4bhk92rcd13ifvqgb0","pricing_plan_id":"cebpf4jnsgd1na2vs0mg"},{"bike_id":"cd93c24a-f3ac-44dd-b326-6b2ee308fc81","system_id":"levelo_inurba_marseille","lat":43.26492,"lon":5.39541,"is_reserved":false,"is_disabled":false,"rental_uris":{"android":"levelo://app?vid=cd93c24a-f3ac-44dd-b326-6b2ee308fc81","ios":"levelo://app?vid=cd93c24a-f3ac-44dd-b326-6b2ee308fc81"},"vehicle_type_id":"4","last_reported":1730405360,"current_range_meters":16800,"station_id":"ce4bhi12rcd13ifvqfq0","pricing_plan_id":"cebpf4jnsgd1na2vs0mg"},{"bike_id":"e0239e16-0be3-4761-8a70-03aa614bce11","system_id":"levelo_inurba_marseille","lat":43.29069,"lon":5.3716,"is_reserved":false,"is_disabled":false,"rental_uris":{"android":"levelo://app?vid=e0239e16-0be3-4761-8a70-03aa614bce11","ios":"levelo://app?vid=e0239e16-0be3-4761-8a70-03aa614bce11"},"vehicle_type_id":"4","last_reported":1730405360,"current_range_meters":32000,"station_id":"ce4bh5p2rcd13ifvqe4g","pricing_plan_id":"cebpf4jnsgd1na2vs0mg"},{"bike_id":"b3149f62-3524-49a2-a4af-0a2c293d4c8c","system_id":"levelo_inurba_marseille","lat":43.28723,"lon":5.36083,"is_reserved":false,"is_disabled":false,"rental_uris":{"android":"levelo://app?vid=b3149f62-3524-49a2-a4af-0a2c293d4c8c","ios":"levelo://app?vid=b3149f62-3524-49a2-a4af-0a2c293d4c8c"},"vehicle_type_id":"4","last_reported":1730405360,"current_range_meters":28000,"station_id":"cki0cbj6b192h4jlfktg","pricing_plan_id":"cebpf4jnsgd1na2vs0mg"},{"bike_id":"98b6d671-73be-4e9f-9eb5-4e9410e42c9d","system_id":"levelo_inurba_marseille","lat":43.27626,"lon":5.36116,"is_reserved":false,"is_disabled":false,"rental_uris":{"android":"levelo://app?vid=98b6d671-73be-4e9f-9eb5-4e9410e42c9d","ios":"levelo://app?vid=98b6d671-73be-4e9f-9eb5-4e9410e42c9d"},"vehicle_type_id":"4","last_reported":1730405360,"current_range_meters":38800,"station_id":"ce4bgj92rcd13ifvqbe0","pricing_plan_id":"cebpf4jnsgd1na2vs0mg"},{"bike_id":"a3126011-34ea-44f9-8739-4e0b0ad74aa0","system_id":"levelo_inurba_marseille","lat":43.23974,"lon":5.3663,"is_reserved":false,"is_disabled":false,"rental_uris":{"android":"levelo://app?vid=a3126011-34ea-44f9-8739-4e0b0ad74aa0","ios":"levelo://app?vid=a3126011-34ea-44f9-8739-4e0b0ad74aa0"},"vehicle_type_id":"4","last_reported":1730405360,"current_range_meters":14000,"station_id":"ce4bhi12rcd13ifvqfp0","pricing_plan_id":"cebpf4jnsgd1na2vs0mg"},{"bike_id":"50042c64-a3e5-44c2-99fd-65d915e45780","system_id":"levelo_inurba_marseille","lat":43.30324,"lon":5.4044,"is_reserved":false,"is_disabled":false,"rental_uris":{"android":"levelo://app?vid=50042c64-a3e5-44c2-99fd-65d915e45780","ios":"levelo://app?vid=50042c64-a3e5-44c2-99fd-65d915e45780"},"vehicle_type_id":"4","last_reported":1730405360,"current_range_meters":38800,"station_id":"ce4bh012rcd13ifvqd10","pricing_plan_id":"cebpf4jnsgd1na2vs0mg"},{"bike_id":"b5758fb8-ba16-4654-9f47-73091e0dd4c3","system_id":"levelo_inurba_marseille","lat":43.23199,"lon":5.35551,"is_reserved":false,"is_disabled":false,"rental_uris":{"android":"levelo://app?vid=b5758fb8-ba16-4654-9f47-73091e0dd4c3","ios":"levelo://app?vid=b5758fb8-ba16-4654-9f47-73091e0dd4c3"},"vehicle_type_id":"4","last_reported":1730405360,"current_range_meters":18000,"station_id":"ce4bhu92rcd13ifvqi70","pricing_plan_id":"cebpf4jnsgd1na2vs0mg"},{"bike_id":"160c3125-d109-49e3-a687-ede78b99dea2","system_id":"levelo_inurba_marseille","lat":43.23196,"lon":5.35543,"is_reserved":false,"is_disabled":false,"rental_uris":{"android":"levelo://app?vid=160c3125-d109-49e3-a687-ede78b99dea2","ios":"levelo://app?vid=160c3125-d109-49e3-a687-ede78b99dea2"},"vehicle_type_id":"4","last_reported":1730405360,"current_range_meters":33600,"station_id":"ce4bhu92rcd13ifvqi70","pricing_plan_id":"cebpf4jnsgd1na2vs0mg"},{"bike_id":"0e664c17-da14-4dad-904a-bfe1e659c0e3","system_id":"levelo_inurba_marseille","lat":43.29423,"lon":5.38611,"is_reserved":false,"is_disabled":false,"rental_uris":{"android":"levelo://app?vid=0e664c17-da14-4dad-904a-bfe1e659c0e3","ios":"levelo://app?vid=0e664c17-da14-4dad-904a-bfe1e659c0e3"},"vehicle_type_id":"4","last_reported":1730405360,"current_range_meters":28400,"station_id":"ce4bh2h2rcd13ifvqdh0","pricing_plan_id":"cebpf4jnsgd1na2vs0mg"},{"bike_id":"9f4b3ed9-8fdf-49ee-82b0-52062da6c3cd","system_id":"levelo_inurba_marseille","lat":43.29421,"lon":5.38616,"is_reserved":false,"is_disabled":false,"rental_uris":{"android":"levelo://app?vid=9f4b3ed9-8fdf-49ee-82b0-52062da6c3cd","ios":"levelo://app?vid=9f4b3ed9-8fdf-49ee-82b0-52062da6c3cd"},"vehicle_type_id":"4","last_reported":1730405360,"current_range_meters":15200,"station_id":"ce4bh2h2rcd13ifvqdh0","pricing_plan_id":"cebpf4jnsgd1na2vs0mg"},{"bike_id":"b603a0e4-d7a7-4357-878c-9df6fa8979af","system_id":"levelo_inurba_marseille","lat":43.27811,"lon":5.40714,"is_reserved":false,"is_disabled":false,"rental_uris":{"android":"levelo://app?vid=b603a0e4-d7a7-4357-878c-9df6fa8979af","ios":"levelo://app?vid=b603a0e4-d7a7-4357-878c-9df6fa8979af"},"vehicle_type_id":"4","last_reported":1730405360,"current_range_meters":26000,"station_id":"ce4bhnh2rcd13ifvqgtg","pricing_plan_id":"cebpf4jnsgd1na2vs0mg"},{"bike_id":"71d10f41-2ffe-4394-bc10-bfa4bb58be1e","system_id":"levelo_inurba_marseille","lat":43.32339,"lon":5.40624,"is_reserved":false,"is_disabled":false,"rental_uris":{"android":"levelo://app?vid=71d10f41-2ffe-4394-bc10-bfa4bb58be1e","ios":"levelo://app?vid=71d10f41-2ffe-4394-bc10-bfa4bb58be1e"},"vehicle_type_id":"4","last_reported":1730405360,"current_range_meters":27200,"station_id":"ce4bhq92rcd13ifvqhjg","pricing_plan_id":"cebpf4jnsgd1na2vs0mg"},{"bike_id":"ba2b4351-93c7-4b3b-a12a-28a78fd9f7a9","system_id":"levelo_inurba_marseille","lat":43.29553,"lon":5.42285,"is_reserved":false,"is_disabled":false,"rental_uris":{"android":"levelo://app?vid=ba2b4351-93c7-4b3b-a12a-28a78fd9f7a9","ios":"levelo://app?vid=ba2b4351-93c7-4b3b-a12a-28a78fd9f7a9"},"vehicle_type_id":"4","last_reported":1730405360,"current_range_meters":27600,"station_id":"ce4bhph2rcd13ifvqhdg","pricing_plan_id":"cebpf4jnsgd1na2vs0mg"},{"bike_id":"60b52f73-037f-43c6-8084-ac4f86706d98","system_id":"levelo_inurba_marseille","lat":43.29554,"lon":5.42291,"is_reserved":false,"is_disabled":false,"rental_uris":{"android":"levelo://app?vid=60b52f73-037f-43c6-8084-ac4f86706d98","ios":"levelo://app?vid=60b52f73-037f-43c6-8084-ac4f86706d98"},"vehicle_type_id":"4","last_reported":1730405360,"current_range_meters":36400,"station_id":"ce4bhph2rcd13ifvqhdg","pricing_plan_id":"cebpf4jnsgd1na2vs0mg"},{"bike_id":"58b459e7-98b8-401c-a596-91f249377fc2","system_id":"levelo_inurba_marseille","lat":43.30353,"lon":5.4186,"is_reserved":false,"is_disabled":false,"rental_uris":{"android":"levelo://app?vid=58b459e7-98b8-401c-a596-91f249377fc2","ios":"levelo://app?vid=58b459e7-98b8-401c-a596-91f249377fc2"},"vehicle_type_id":"4","last_reported":1730405360,"current_range_meters":25600,"station_id":"ce4bhop2rcd13ifvqh7g","pricing_plan_id":"cebpf4jnsgd1na2vs0mg"},{"bike_id":"56bf23b5-b89b-4068-aa80-4548df17eb67","system_id":"levelo_inurba_marseille","lat":43.280757,"lon":5.39645,"is_reserved":false,"is_disabled":false,"rental_uris":{"android":"levelo://app?vid=56bf23b5-b89b-4068-aa80-4548df17eb67","ios":"levelo://app?vid=56bf23b5-b89b-4068-aa80-4548df17eb67"},"vehicle_type_id":"4","last_reported":1730405360,"current_range_meters":35200,"station_id":"ce4bho12rcd13ifvqh2g","pricing_plan_id":"cebpf4jnsgd1na2vs0mg"},{"bike_id":"988fcbf0-b108-436c-9575-e303232a8ee9","system_id":"levelo_inurba_marseille","lat":43.29908,"lon":5.3814,"is_reserved":false,"is_disabled":false,"rental_uris":{"android":"levelo://app?vid=988fcbf0-b108-436c-9575-e303232a8ee9","ios":"levelo://app?vid=988fcbf0-b108-436c-9575-e303232a8ee9"},"vehicle_type_id":"4","last_reported":1730405360,"current_range_meters":16400,"station_id":"ce4bgj12rcd13ifvqbc0","pricing_plan_id":"cebpf4jnsgd1na2vs0mg"},{"bike_id":"c99dfe37-61dd-4f4b-8981-1c568a8063d5","system_id":"levelo_inurba_marseille","lat":43.27491,"lon":5.42453,"is_reserved":false,"is_disabled":false,"rental_uris":{"android":"levelo://app?vid=c99dfe37-61dd-4f4b-8981-1c568a8063d5","ios":"levelo://app?vid=c99dfe37-61dd-4f4b-8981-1c568a8063d5"},"vehicle_type_id":"4","last_reported":1730405360,"current_range_meters":31200,"station_id":"ce4bhn92rcd13ifvqgrg","pricing_plan_id":"cebpf4jnsgd1na2vs0mg"},{"bike_id":"a4e1ca50-ded6-4271-a5da-c67edd55fc27","system_id":"levelo_inurba_marseille","lat":43.27918,"lon":5.39582,"is_reserved":false,"is_disabled":false,"rental_uris":{"android":"levelo://app?vid=a4e1ca50-ded6-4271-a5da-c67edd55fc27","ios":"levelo://app?vid=a4e1ca50-ded6-4271-a5da-c67edd55fc27"},"vehicle_type_id":"4","last_reported":1730405360,"current_range_meters":32800,"station_id":"ce4bhf92rcd13ifvqf40","pricing_plan_id":"cebpf4jnsgd1na2vs0mg"},{"bike_id":"9c0ce7c2-266b-456a-b600-aad012ecaf01","system_id":"levelo_inurba_marseille","lat":43.262,"lon":5.37932,"is_reserved":false,"is_disabled":false,"rental_uris":{"android":"levelo://app?vid=9c0ce7c2-266b-456a-b600-aad012ecaf01","ios":"levelo://app?vid=9c0ce7c2-266b-456a-b600-aad012ecaf01"},"vehicle_type_id":"4","last_reported":1730405360,"current_range_meters":38400,"station_id":"ce4bhjp2rcd13ifvqg90","pricing_plan_id":"cebpf4jnsgd1na2vs0mg"},{"bike_id":"abbaacca-0578-46bc-b5b0-302119ef6e33","system_id":"levelo_inurba_marseille","lat":43.29413,"lon":5.38637,"is_reserved":false,"is_disabled":false,"rental_uris":{"android":"levelo://app?vid=abbaacca-0578-46bc-b5b0-302119ef6e33","ios":"levelo://app?vid=abbaacca-0578-46bc-b5b0-302119ef6e33"},"vehicle_type_id":"4","last_reported":1730405360,"current_range_meters":14400,"station_id":"ce4bh2h2rcd13ifvqdh0","pricing_plan_id":"cebpf4jnsgd1na2vs0mg"},{"bike_id":"3d3468e3-80bd-4658-9d06-38331bc1b506","system_id":"levelo_inurba_marseille","lat":43.29924,"lon":5.36533,"is_reserved":false,"is_disabled":false,"rental_uris":{"android":"levelo://app?vid=3d3468e3-80bd-4658-9d06-38331bc1b506","ios":"levelo://app?vid=3d3468e3-80bd-4658-9d06-38331bc1b506"},"vehicle_type_id":"4","last_reported":1730405360,"current_range_meters":28400,"station_id":"ce4bho12rcd13ifvqh2g","pricing_plan_id":"cebpf4jnsgd1na2vs0mg"},{"bike_id":"80f33e28-2ad5-472c-ae19-071ffeb118a9","system_id":"levelo_inurba_marseille","lat":43.28848,"lon":5.39301,"is_reserved":false,"is_disabled":false,"rental_uris":{"android":"levelo://app?vid=80f33e28-2ad5-472c-ae19-071ffeb118a9","ios":"levelo://app?vid=80f33e28-2ad5-472c-ae19-071ffeb118a9"},"vehicle_type_id":"4","last_reported":1730405360,"current_range_meters":27600,"station_id":"ce4bh2p2rcd13ifvqdi0","pricing_plan_id":"cebpf4jnsgd1na2vs0mg"},{"bike_id":"6fe95313-e873-4982-8420-95fec21f0b5f","system_id":"levelo_inurba_marseille","lat":43.31991,"lon":5.38153,"is_reserved":false,"is_disabled":false,"rental_uris":{"android":"levelo://app?vid=6fe95313-e873-4982-8420-95fec21f0b5f","ios":"levelo://app?vid=6fe95313-e873-4982-8420-95fec21f0b5f"},"vehicle_type_id":"4","last_reported":1730405360,"current_range_meters":24000,"station_id":"ce4bhr12rcd13ifvqhpg","pricing_plan_id":"cebpf4jnsgd1na2vs0mg"},{"bike_id":"e8293b4e-059a-4396-9bed-846c599622d5","system_id":"levelo_inurba_marseille","lat":43.2717,"lon":5.4099,"is_reserved":false,"is_disabled":false,"rental_uris":{"android":"levelo://app?vid=e8293b4e-059a-4396-9bed-846c599622d5","ios":"levelo://app?vid=e8293b4e-059a-4396-9bed-846c599622d5"},"vehicle_type_id":"4","last_reported":1730405360,"current_range_meters":40000,"station_id":"ce4bhl12rcd13ifvqgf0","pricing_plan_id":"cebpf4jnsgd1na2vs0mg"},{"bike_id":"d22e09bb-dafa-464b-bd89-da281c0b87cf","system_id":"levelo_inurba_marseille","lat":43.30245,"lon":5.40048,"is_reserved":false,"is_disabled":false,"rental_uris":{"android":"levelo://app?vid=d22e09bb-dafa-464b-bd89-da281c0b87cf","ios":"levelo://app?vid=d22e09bb-dafa-464b-bd89-da281c0b87cf"},"vehicle_type_id":"4","last_reported":1730405360,"current_range_meters":24000,"station_id":"ce4bgvh2rcd13ifvqcs0","pricing_plan_id":"cebpf4jnsgd1na2vs0mg"},{"bike_id":"646971bd-7b4e-417e-a986-35e42b284858","system_id":"levelo_inurba_marseille","lat":43.27309,"lon":5.39082,"is_reserved":false,"is_disabled":false,"rental_uris":{"android":"levelo://app?vid=646971bd-7b4e-417e-a986-35e42b284858","ios":"levelo://app?vid=646971bd-7b4e-417e-a986-35e42b284858"},"vehicle_type_id":"4","last_reported":1730405360,"current_range_meters":17600,"station_id":"ce4bhgp2rcd13ifvqfe0","pricing_plan_id":"cebpf4jnsgd1na2vs0mg"},{"bike_id":"0d4423ab-8969-438b-851d-2191af124a18","system_id":"levelo_inurba_marseille","lat":43.28414,"lon":5.37514,"is_reserved":false,"is_disabled":false,"rental_uris":{"android":"levelo://app?vid=0d4423ab-8969-438b-851d-2191af124a18","ios":"levelo://app?vid=0d4423ab-8969-438b-851d-2191af124a18"},"vehicle_type_id":"4","last_reported":1730405360,"current_range_meters":20000,"station_id":"ce4bh412rcd13ifvqds0","pricing_plan_id":"cebpf4jnsgd1na2vs0mg"},{"bike_id":"81d6995a-464d-4fb7-8623-acef3f6e4615","system_id":"levelo_inurba_marseille","lat":43.25116,"lon":5.4032,"is_reserved":false,"is_disabled":false,"rental_uris":{"android":"levelo://app?vid=81d6995a-464d-4fb7-8623-acef3f6e4615","ios":"levelo://app?vid=81d6995a-464d-4fb7-8623-acef3f6e4615"},"vehicle_type_id":"4","last_reported":1730405360,"current_range_meters":8800,"station_id":"ce4bhlh2rcd13ifvqgig","pricing_plan_id":"cebpf4jnsgd1na2vs0mg"},{"bike_id":"2e679aa2-6222-4666-94d2-8febbbac34cf","system_id":"levelo_inurba_marseille","lat":43.28947,"lon":5.48066,"is_reserved":false,"is_disabled":false,"rental_uris":{"android":"levelo://app?vid=2e679aa2-6222-4666-94d2-8febbbac34cf","ios":"levelo://app?vid=2e679aa2-6222-4666-94d2-8febbbac34cf"},"vehicle_type_id":"4","last_reported":1730405360,"current_range_meters":10000,"station_id":"ce4bgvp2rcd13ifvqct0","pricing_plan_id":"cebpf4jnsgd1na2vs0mg"},{"bike_id":"9d443d41-356e-45d2-8441-a80d3613cfea","system_id":"levelo_inurba_marseille","lat":43.30166,"lon":5.38077,"is_reserved":false,"is_disabled":false,"rental_uris":{"android":"levelo://app?vid=9d443d41-356e-45d2-8441-a80d3613cfea","ios":"levelo://app?vid=9d443d41-356e-45d2-8441-a80d3613cfea"},"vehicle_type_id":"4","last_reported":1730405360,"current_range_meters":16800,"station_id":"ce4bgjp2rcd13ifvqbh0","pricing_plan_id":"cebpf4jnsgd1na2vs0mg"},{"bike_id":"3109fae2-c3ea-4fe2-995b-1cb86118b057","system_id":"levelo_inurba_marseille","lat":43.30206,"lon":5.39466,"is_reserved":false,"is_disabled":false,"rental_uris":{"android":"levelo://app?vid=3109fae2-c3ea-4fe2-995b-1cb86118b057","ios":"levelo://app?vid=3109fae2-c3ea-4fe2-995b-1cb86118b057"},"vehicle_type_id":"4","last_reported":1730405360,"current_range_meters":38800,"station_id":"ce4bh0p2rcd13ifvqd70","pricing_plan_id":"cebpf4jnsgd1na2vs0mg"},{"bike_id":"c2f1f60e-4da7-4ef6-8db0-1291cb12ffe0","system_id":"levelo_inurba_marseille","lat":43.29251,"lon":5.38436,"is_reserved":false,"is_disabled":false,"rental_uris":{"android":"levelo://app?vid=c2f1f60e-4da7-4ef6-8db0-1291cb12ffe0","ios":"levelo://app?vid=c2f1f60e-4da7-4ef6-8db0-1291cb12ffe0"},"vehicle_type_id":"4","last_reported":1730405360,"current_range_meters":19200,"station_id":"ce4bh692rcd13ifvqea0","pricing_plan_id":"cebpf4jnsgd1na2vs0mg"},{"bike_id":"b8ae1d1b-9f47-4983-bfdf-dd4ce03f3447","system_id":"levelo_inurba_marseille","lat":43.29304,"lon":5.37436,"is_reserved":false,"is_disabled":false,"rental_uris":{"android":"levelo://app?vid=b8ae1d1b-9f47-4983-bfdf-dd4ce03f3447","ios":"levelo://app?vid=b8ae1d1b-9f47-4983-bfdf-dd4ce03f3447"},"vehicle_type_id":"4","last_reported":1730405360,"current_range_meters":38800,"station_id":"ce4bgi12rcd13ifvqb70","pricing_plan_id":"cebpf4jnsgd1na2vs0mg"},{"bike_id":"0483bfa3-11fd-4a1f-8173-f5ded1239110","system_id":"levelo_inurba_marseille","lat":43.23968,"lon":5.36639,"is_reserved":false,"is_disabled":false,"rental_uris":{"android":"levelo://app?vid=0483bfa3-11fd-4a1f-8173-f5ded1239110","ios":"levelo://app?vid=0483bfa3-11fd-4a1f-8173-f5ded1239110"},"vehicle_type_id":"4","last_reported":1730405360,"current_range_meters":38800,"station_id":"ce4bhi12rcd13ifvqfp0","pricing_plan_id":"cebpf4jnsgd1na2vs0mg"},{"bike_id":"477beab3-6647-4751-8dd3-f3703cc75b4d","system_id":"levelo_inurba_marseille","lat":43.301971,"lon":5.394624,"is_reserved":false,"is_disabled":false,"rental_uris":{"android":"levelo://app?vid=477beab3-6647-4751-8dd3-f3703cc75b4d","ios":"levelo://app?vid=477beab3-6647-4751-8dd3-f3703cc75b4d"},"vehicle_type_id":"4","last_reported":1730405360,"current_range_meters":2000,"station_id":"ce4bh0p2rcd13ifvqd70","pricing_plan_id":"cebpf4jnsgd1na2vs0mg"},{"bike_id":"b88053c0-3809-4101-8975-e0f82a1bcb5d","system_id":"levelo_inurba_marseille","lat":43.30867,"lon":5.397,"is_reserved":false,"is_disabled":false,"rental_uris":{"android":"levelo://app?vid=b88053c0-3809-4101-8975-e0f82a1bcb5d","ios":"levelo://app?vid=b88053c0-3809-4101-8975-e0f82a1bcb5d"},"vehicle_type_id":"4","last_reported":1730405360,"current_range_meters":14400,"station_id":"","pricing_plan_id":"cebpf4jnsgd1na2vs0mg"},{"bike_id":"46eb2db5-f39a-4bf9-b20f-8029e969885e","system_id":"levelo_inurba_marseille","lat":43.29245,"lon":5.38436,"is_reserved":false,"is_disabled":false,"rental_uris":{"android":"levelo://app?vid=46eb2db5-f39a-4bf9-b20f-8029e969885e","ios":"levelo://app?vid=46eb2db5-f39a-4bf9-b20f-8029e969885e"},"vehicle_type_id":"4","last_reported":1730405360,"current_range_meters":16000,"station_id":"ce4bh692rcd13ifvqea0","pricing_plan_id":"cebpf4jnsgd1na2vs0mg"},{"bike_id":"c6bf5478-8cbd-4f9f-84c9-d44a8b59f18f","system_id":"levelo_inurba_marseille","lat":43.27425,"lon":5.39409,"is_reserved":false,"is_disabled":false,"rental_uris":{"android":"levelo://app?vid=c6bf5478-8cbd-4f9f-84c9-d44a8b59f18f","ios":"levelo://app?vid=c6bf5478-8cbd-4f9f-84c9-d44a8b59f18f"},"vehicle_type_id":"4","last_reported":1730405360,"current_range_meters":18800,"station_id":"ce4bhdp2rcd13ifvqf20","pricing_plan_id":"cebpf4jnsgd1na2vs0mg"},{"bike_id":"f5beaaad-8417-4e05-9e45-532f96b8c7bf","system_id":"levelo_inurba_marseille","lat":43.30413,"lon":5.41287,"is_reserved":false,"is_disabled":false,"rental_uris":{"android":"levelo://app?vid=f5beaaad-8417-4e05-9e45-532f96b8c7bf","ios":"levelo://app?vid=f5beaaad-8417-4e05-9e45-532f96b8c7bf"},"vehicle_type_id":"4","last_reported":1730405360,"current_range_meters":40000,"station_id":"ce4bhop2rcd13ifvqh8g","pricing_plan_id":"cebpf4jnsgd1na2vs0mg"},{"bike_id":"4a3430eb-c466-4d39-a62b-a37cfb7e95cb","system_id":"levelo_inurba_marseille","lat":43.30537,"lon":5.36529,"is_reserved":false,"is_disabled":false,"rental_uris":{"android":"levelo://app?vid=4a3430eb-c466-4d39-a62b-a37cfb7e95cb","ios":"levelo://app?vid=4a3430eb-c466-4d39-a62b-a37cfb7e95cb"},"vehicle_type_id":"4","last_reported":1730405360,"current_range_meters":37600,"station_id":"ce4bgs12rcd13ifvqcag","pricing_plan_id":"cebpf4jnsgd1na2vs0mg"},{"bike_id":"39254036-8dab-42d4-a48c-ef03b45f29f6","system_id":"levelo_inurba_marseille","lat":43.2942,"lon":5.38609,"is_reserved":false,"is_disabled":false,"rental_uris":{"android":"levelo://app?vid=39254036-8dab-42d4-a48c-ef03b45f29f6","ios":"levelo://app?vid=39254036-8dab-42d4-a48c-ef03b45f29f6"},"vehicle_type_id":"4","last_reported":1730405360,"current_range_meters":33600,"station_id":"ce4bh2h2rcd13ifvqdh0","pricing_plan_id":"cebpf4jnsgd1na2vs0mg"},{"bike_id":"d847b23d-1904-4659-9268-325fc36a5e1d","system_id":"levelo_inurba_marseille","lat":43.295206,"lon":5.390399,"is_reserved":false,"is_disabled":false,"rental_uris":{"android":"levelo://app?vid=d847b23d-1904-4659-9268-325fc36a5e1d","ios":"levelo://app?vid=d847b23d-1904-4659-9268-325fc36a5e1d"},"vehicle_type_id":"4","last_reported":1730405360,"current_range_meters":37600,"station_id":"ce4bh3p2rcd13ifvqdp0","pricing_plan_id":"cebpf4jnsgd1na2vs0mg"},