{"last_updated":1741108117,"ttl":60,"version":"2.2","data":{"bikes":[{"bike_id":"1e1b6b63-adbc-42ec-b37d-8fe6b9bdf00f","system_id":"levelo_inurba_marseille","lat":43.29259,"lon":5.40903,"is_reserved":false,"is_disabled":false,"rental_uris":{"android":"levelo://app?vid=1e1b6b63-adbc-42ec-b37d-8fe6b9bdf00f","ios":"levelo://app?vid=1e1b6b63-adbc-42ec-b37d-8fe6b9bdf00f"},"vehicle_type_id":"4","last_reported":1741108117,"current_range_meters":2800,"station_id":"ce4bh192rcd13ifvqdc0","pricing_plan_id":"cebpf4jnsgd1na2vs0mg"},{"bike_id":"b4bdd5ca-b803-40c4-abed-cc396af7d1ee","system_id":"levelo_inurba_marseille","lat":43.27616,"lon":5.36104,"is_reserved":false,"is_disabled":false,"rental_uris":{"android":"levelo://app?vid=b4bdd5ca-b803-40c4-abed-cc396af7d1ee","ios":"levelo://app?vid=b4bdd5ca-b803-40c4-abed-cc396af7d1ee"},"vehicle_type_id":"4","last_reported":1741108117,"current_range_meters":2800,"station_id":"ce4bgj92rcd13ifvqbe0","pricing_plan_id":"cebpf4jnsgd1na2vs0mg"},{"bike_id":"ec163466-92bf-41cb-9228-a182e59ccc1f","system_id":"levelo_inurba_marseille","lat":43.29994,"lon":5.39782,"is_reserved":false,"is_disabled":false,"rental_uris":{"android":"levelo://app?vid=ec163466-92bf-41cb-9228-a182e59ccc1f","ios":"levelo://app?vid=ec163466-92bf-41cb-9228-a182e59ccc1f"},"vehicle_type_id":"4","last_reported":1741108117,"current_range_meters":2800,"station_id":"ce4bgvh2rcd13ifvqcs0","pricing_plan_id":"cebpf4jnsgd1na2vs0mg"},{"bike_id":"11d66989-5712-4a41-8fd7-284007dde0a3","system_id":"levelo_inurba_marseille","lat":43.28415,"lon":5.37513,"is_reserved":false,"is_disabled":false,"rental_uris":{"android":"levelo://app?vid=11d66989-5712-4a41-8fd7-284007dde0a3","ios":"levelo://app?vid=11d66989-5712-4a41-8fd7-284007dde0a3"},"vehicle_type_id":"4","last_reported":1741108117,"current_range_meters":2800,"station_id":"ce4bh412rcd13ifvqds0","pricing_plan_id":"cebpf4jnsgd1na2vs0mg"},{"bike_id":"2d9b67a7-ee8c-4d33-8b31-51241fb3371e","system_id":"levelo_inurba_marseille","lat":43.29547,"lon":5.39955,"is_reserved":false,"is_disabled":false,"rental_uris":{"android":"levelo://app?vid=2d9b67a7-ee8c-4d33-8b31-51241fb3371e","ios":"levelo://app?vid=2d9b67a7-ee8c-4d33-8b31-51241fb3371e"},"vehicle_type_id":"4","last_reported":1741108117,"current_range_meters":2800,"station_id":"ce4bh312rcd13ifvqdj0","pricing_plan_id":"cebpf4jnsgd1na2vs0mg"},{"bike_id":"d2c0809a-dbca-42f5-8b55-8062d86c2f7b","system_id":"levelo_inurba_marseille","lat":43.23195,"lon":5.35555,"is_reserved":false,"is_disabled":true,"rental_uris":{"android":"levelo://app?vid=d2c0809a-dbca-42f5-8b55-8062d86c2f7b","ios":"levelo://app?vid=d2c0809a-dbca-42f5-8b55-8062d86c2f7b"},"vehicle_type_id":"4","last_reported":1741108117,"current_range_meters":3200,"station_id":"ce4bhu92rcd13ifvqi70","pricing_plan_id":"cebpf4jnsgd1na2vs0mg"},{"bike_id":"527b06e3-7b84-40ca-813e-4c7bedff18e6","system_id":"levelo_inurba_marseille","lat":43.27919,"lon":5.3958,"is_reserved":false,"is_disabled":false,"rental_uris":{"android":"levelo://app?vid=527b06e3-7b84-40ca-813e-4c7bedff18e6","ios":"levelo://app?vid=527b06e3-7b84-40ca-813e-4c7bedff18e6"},"vehicle_type_id":"4","last_reported":1741108117,"current_range_meters":3600,"station_id":"ce4bhf92rcd13ifvqf40","pricing_plan_id":"cebpf4jnsgd1na2vs0mg"},{"bike_id":"1e21c606-d174-4969-8635-247157143f72","system_id":"levelo_inurba_marseille","lat":43.26784,"lon":5.39413,"is_reserved":false,"is_disabled":false,"rental_uris":{"android":"levelo://app?vid=1e21c606-d174-4969-8635-247157143f72","ios":"levelo://app?vid=1e21c606-d174-4969-8635-247157143f72"},"vehicle_type_id":"4","last_reported":1741108117,"current_range_meters":3600,"station_id":"ce4bhh12rcd13ifvqfg0","pricing_plan_id":"cebpf4jnsgd1na2vs0mg"},{"bike_id":"9365aec2-5e39-4e18-87c3-25b7686a4a27","system_id":"levelo_inurba_marseille","lat":43.28705,"lon":5.37396,"is_reserved":false,"is_disabled":false,"rental_uris":{"android":"levelo://app?vid=9365aec2-5e39-4e18-87c3-25b7686a4a27","ios":"levelo://app?vid=9365aec2-5e39-4e18-87c3-25b7686a4a27"},"vehicle_type_id":"4","last_reported":1741108117,"current_range_meters":3600,"station_id":"ce4bh3p2rcd13ifvqdq0","pricing_plan_id":"cebpf4jnsgd1na2vs0mg"},{"bike_id":"5d6e7723-8748-47b1-a15b-5c719e60614f","system_id":"levelo_inurba_marseille","lat":43.30801,"lon":5.43524,"is_reserved":false,"is_disabled":false,"rental_uris":{"android":"levelo://app?vid=5d6e7723-8748-47b1-a15b-5c719e60614f","ios":"levelo://app?vid=5d6e7723-8748-47b1-a15b-5c719e60614f"},"vehicle_type_id":"4","last_reported":1741108117,"current_range_meters":3600,"station_id":"ce4bhph2rcd13ifvqheg","pricing_plan_id":"cebpf4jnsgd1na2vs0mg"},{"bike_id":"d4782c3a-b6bc-4126-b217-83d6fd1dcc67","system_id":"levelo_inurba_marseille","lat":43.28357,"lon":5.3864,"is_reserved":false,"is_disabled":false,"rental_uris":{"android":"levelo://app?vid=d4782c3a-b6bc-4126-b217-83d6fd1dcc67","ios":"levelo://app?vid=d4782c3a-b6bc-4126-b217-83d6fd1dcc67"},"vehicle_type_id":"4","last_reported":1741108117,"current_range_meters":4000,"station_id":"ce4bh492rcd13ifvqdvg","pricing_plan_id":"cebpf4jnsgd1na2vs0mg"},{"bike_id":"a19a3ced-a47a-4fde-bac1-8270159bd2ce","system_id":"levelo_inurba_marseille","lat":43.30307,"lon":5.39209,"is_reserved":false,"is_disabled":false,"rental_uris":{"android":"levelo://app?vid=a19a3ced-a47a-4fde-bac1-8270159bd2ce","ios":"levelo://app?vid=a19a3ced-a47a-4fde-bac1-8270159bd2ce"},"vehicle_type_id":"4","last_reported":1741108117,"current_range_meters":4000,"station_id":"ce4bgkh2rcd13ifvqbk0","pricing_plan_id":"cebpf4jnsgd1na2vs0mg"},{"bike_id":"d2146be1-2ce8-43fd-a22b-414ff8591afb","system_id":"levelo_inurba_marseille","lat":43.29976,"lon":5.38478,"is_reserved":false,"is_disabled":false,"rental_uris":{"android":"levelo://app?vid=d2146be1-2ce8-43fd-a22b-414ff8591afb","ios":"levelo://app?vid=d2146be1-2ce8-43fd-a22b-414ff8591afb"},"vehicle_type_id":"4","last_reported":1741108117,"current_range_meters":4400,"station_id":"ce4bgj92rcd13ifvqbd0","pricing_plan_id":"cebpf4jnsgd1na2vs0mg"},{"bike_id":"457d3ee5-1841-4a02-ba4a-3e5d08e97021","system_id":"levelo_inurba_marseille","lat":43.24548,"lon":5.39523,"is_reserved":false,"is_disabled":false,"rental_uris":{"android":"levelo://app?vid=457d3ee5-1841-4a02-ba4a-3e5d08e97021","ios":"levelo://app?vid=457d3ee5-1841-4a02-ba4a-3e5d08e97021"},"vehicle_type_id":"4","last_reported":1741108117,"current_range_meters":4400,"station_id":"ce4bhlp2rcd13ifvqgjg","pricing_plan_id":"cebpf4jnsgd1na2vs0mg"},{"bike_id":"0400176c-54ce-497f-8418-5fcda52f11f2","system_id":"levelo_inurba_marseille","lat":43.26564,"lon":5.37287,"is_reserved":false,"is_disabled":false,"rental_uris":{"android":"levelo://app?vid=0400176c-54ce-497f-8418-5fcda52f11f2","ios":"levelo://app?vid=0400176c-54ce-497f-8418-5fcda52f11f2"},"vehicle_type_id":"4","last_reported":1741108117,"current_range_meters":4800,"station_id":"ce4bhg12rcd13ifvqf70","pricing_plan_id":"cebpf4jnsgd1na2vs0mg"},{"bike_id":"4e6eac08-b624-4f71-84f3-0c6188cb583d","system_id":"levelo_inurba_marseille","lat":43.33026,"lon":5.39032,"is_reserved":false,"is_disabled":false,"rental_uris":{"android":"levelo://app?vid=4e6eac08-b624-4f71-84f3-0c6188cb583d","ios":"levelo://app?vid=4e6eac08-b624-4f71-84f3-0c6188cb583d"},"vehicle_type_id":"4","last_reported":1741108117,"current_range_meters":5600,"station_id":"ce4bhr92rcd13ifvqhrg","pricing_plan_id":"cebpf4jnsgd1na2vs0mg"},{"bike_id":"e7ec1ac1-2323-47bd-a2b5-7cd3afb282cf","system_id":"levelo_inurba_marseille","lat":43.26937,"lon":5.3667,"is_reserved":false,"is_disabled":false,"rental_uris":{"android":"levelo://app?vid=e7ec1ac1-2323-47bd-a2b5-7cd3afb282cf","ios":"levelo://app?vid=e7ec1ac1-2323-47bd-a2b5-7cd3afb282cf"},"vehicle_type_id":"4","last_reported":1741108117,"current_range_meters":5600,"station_id":"","pricing_plan_id":"cebpf4jnsgd1na2vs0mg"},{"bike_id":"0cc0fc87-2cfb-4f66-b1e5-febd1e3bc89d","system_id":"levelo_inurba_marseille","lat":43.283936,"lon":5.386031,"is_reserved":false,"is_disabled":false,"rental_uris":{"android":"levelo://app?vid=0cc0fc87-2cfb-4f66-b1e5-febd1e3bc89d","ios":"levelo://app?vid=0cc0fc87-2cfb-4f66-b1e5-febd1e3bc89d"},"vehicle_type_id":"4","last_reported":1741108117,"current_range_meters":5600,"station_id":"ce4bh392rcd13ifvqdl0","pricing_plan_id":"cebpf4jnsgd1na2vs0mg"},{"bike_id":"abd1835d-8285-4e7f-aa5d-1c9933878153","system_id":"levelo_inurba_marseille","lat":43.28727,"lon":5.37942,"is_reserved":false,"is_disabled":false,"rental_uris":{"android":"levelo://app?vid=abd1835d-8285-4e7f-aa5d-1c9933878153","ios":"levelo://app?vid=abd1835d-8285-4e7f-aa5d-1c9933878153"},"vehicle_type_id":"4","last_reported":1741108117,"current_range_meters":5600,"station_id":"ce4bh9p2rcd13ifvqec0","pricing_plan_id":"cebpf4jnsgd1na2vs0mg"},{"bike_id":"8e749145-ba4e-4dfc-8dce-244b1e7f07ee","system_id":"levelo_inurba_marseille","lat":43.26567,"lon":5.39004,"is_reserved":false,"is_disabled":false,"rental_uris":{"android":"levelo://app?vid=8e749145-ba4e-4dfc-8dce-244b1e7f07ee","ios":"levelo://app?vid=8e749145-ba4e-4dfc-8dce-244b1e7f07ee"},"vehicle_type_id":"4","last_reported":1741108117,"current_range_meters":5600,"station_id":"ce4bhe12rcd13ifvqf30","pricing_plan_id":"cebpf4jnsgd1na2vs0mg"},{"bike_id":"cbeb989b-1e6f-48ed-998d-e2792887d159","system_id":"levelo_inurba_marseille","lat":43.28109,"lon":5.37837,"is_reserved":false,"is_disabled":false,"rental_uris":{"android":"levelo://app?vid=cbeb989b-1e6f-48ed-998d-e2792887d159","ios":"levelo://app?vid=cbeb989b-1e6f-48ed-998d-e2792887d159"},"vehicle_type_id":"4","last_reported":1741108117,"current_range_meters":5600,"station_id":"ce4bha12rcd13ifvqee0","pricing_plan_id":"cebpf4jnsgd1na2vs0mg"},{"bike_id":"4b27935a-60b9-4b6f-9b18-0203a7d1281c","system_id":"levelo_inurba_marseille","lat":43.30231,"lon":5.39472,"is_reserved":false,"is_disabled":false,"rental_uris":{"android":"levelo://app?vid=4b27935a-60b9-4b6f-9b18-0203a7d1281c","ios":"levelo://app?vid=4b27935a-60b9-4b6f-9b18-0203a7d1281c"},"vehicle_type_id":"4","last_reported":1741108117,"current_range_meters":6000,"station_id":"ce4bh0p2rcd13ifvqd70","pricing_plan_id":"cebpf4jnsgd1na2vs0mg"},{"bike_id":"9fa3a17f-7423-41be-a0d2-253c9f27a2e2","system_id":"levelo_inurba_marseille","lat":43.28619,"lon":5.35112,"is_reserved":false,"is_disabled":false,"rental_uris":{"android":"levelo://app?vid=9fa3a17f-7423-41be-a0d2-253c9f27a2e2","ios":"levelo://app?vid=9fa3a17f-7423-41be-a0d2-253c9f27a2e2"},"vehicle_type_id":"4","last_reported":1741108117,"current_range_meters":6000,"station_id":"ce4bhch2rcd13ifvqeug","pricing_plan_id":"cebpf4jnsgd1na2vs0mg"},{"bike_id":"8e9b0fe7-15ff-43d5-919c-82c62abfc9e5","system_id":"levelo_inurba_marseille","lat":43.30248,"lon":5.40065,"is_reserved":false,"is_disabled":false,"rental_uris":{"android":"levelo://app?vid=8e9b0fe7-15ff-43d5-919c-82c62abfc9e5","ios":"levelo://app?vid=8e9b0fe7-15ff-43d5-919c-82c62abfc9e5"},"vehicle_type_id":"4","last_reported":1741108117,"current_range_meters":6000,"station_id":"ce4bgvh2rcd13ifvqcs0","pricing_plan_id":"cebpf4jnsgd1na2vs0mg"},{"bike_id":"5101d483-cf68-4435-a7db-ce0d2a5c30da","system_id":"levelo_inurba_marseille","lat":43.3089,"lon":5.37194,"is_reserved":false,"is_disabled":false,"rental_uris":{"android":"levelo://app?vid=5101d483-cf68-4435-a7db-ce0d2a5c30da","ios":"levelo://app?vid=5101d483-cf68-4435-a7db-ce0d2a5c30da"},"vehicle_type_id":"4","last_reported":1741108117,"current_range_meters":5600,"station_id":"ce4bguh2rcd13ifvqckg","pricing_plan_id":"cebpf4jnsgd1na2vs0mg"},{"bike_id":"4af9cc9e-90db-41b5-b196-277baf8501ca","system_id":"levelo_inurba_marseille","lat":43.29275,"lon":5.40121,"is_reserved":false,"is_disabled":false,"rental_uris":{"android":"levelo://app?vid=4af9cc9e-90db-41b5-b196-277baf8501ca","ios":"levelo://app?vid=4af9cc9e-90db-41b5-b196-277baf8501ca"},"vehicle_type_id":"4","last_reported":1741108117,"current_range_meters":6000,"station_id":"ce4bh312rcd13ifvqdk0","pricing_plan_id":"cebpf4jnsgd1na2vs0mg"},{"bike_id":"79687e17-5ece-4f9c-9252-898196d1c2cb","system_id":"levelo_inurba_marseille","lat":43.29892,"lon":5.38506,"is_reserved":false,"is_disabled":false,"rental_uris":{"android":"levelo://app?vid=79687e17-5ece-4f9c-9252-898196d1c2cb","ios":"levelo://app?vid=79687e17-5ece-4f9c-9252-898196d1c2cb"},"vehicle_type_id":"4","last_reported":1741108117,"current_range_meters":6400,"station_id":"","pricing_plan_id":"cebpf4jnsgd1na2vs0mg"},{"bike_id":"39fbed77-4b9c-4f8d-bb61-98aaba0b0ee1","system_id":"levelo_inurba_marseille","lat":43.28078,"lon":5.39663,"is_reserved":false,"is_disabled":false,"rental_uris":{"android":"levelo://app?vid=39fbed77-4b9c-4f8d-bb61-98aaba0b0ee1","ios":"levelo://app?vid=39fbed77-4b9c-4f8d-bb61-98aaba0b0ee1"},"vehicle_type_id":"4","last_reported":1741108117,"current_range_meters":6400,"station_id":"ce4bho12rcd13ifvqh2g","pricing_plan_id":"cebpf4jnsgd1na2vs0mg"},{"bike_id":"66cab7e9-6ac3-4264-9060-3434a3039719","system_id":"levelo_inurba_marseille","lat":43.2926,"lon":5.40906,"is_reserved":false,"is_disabled":false,"rental_uris":{"android":"levelo://app?vid=66cab7e9-6ac3-4264-9060-3434a3039719","ios":"levelo://app?vid=66cab7e9-6ac3-4264-9060-3434a3039719"},"vehicle_type_id":"4","last_reported":1741108117,"current_range_meters":6400,"station_id":"ce4bh192rcd13ifvqdc0","pricing_plan_id":"cebpf4jnsgd1na2vs0mg"},{"bike_id":"788d5f16-e2ea-4db8-a37b-66050a06cb07","system_id":"levelo_inurba_marseille","lat":43.2989,"lon":5.39738,"is_reserved":false,"is_disabled":false,"rental_uris":{"android":"levelo://app?vid=788d5f16-e2ea-4db8-a37b-66050a06cb07","ios":"levelo://app?vid=788d5f16-e2ea-4db8-a37b-66050a06cb07"},"vehicle_type_id":"4","last_reported":1741108117,"current_range_meters":6400,"station_id":"ce4bh0h2rcd13ifvqd50","pricing_plan_id":"cebpf4jnsgd1na2vs0mg"},{"bike_id":"3917cff9-5cf8-4ab5-a7c7-bc3562bd890e","system_id":"levelo_inurba_marseille","lat":43.29265,"lon":5.40906,"is_reserved":false,"is_disabled":false,"rental_uris":{"android":"levelo://app?vid=3917cff9-5cf8-4ab5-a7c7-bc3562bd890e","ios":"levelo://app?vid=3917cff9-5cf8-4ab5-a7c7-bc3562bd890e"},"vehicle_type_id":"4","last_reported":1741108117,"current_range_meters":6400,"station_id":"ce4bh192rcd13ifvqdc0","pricing_plan_id":"cebpf4jnsgd1na2vs0mg"},{"bike_id":"3fdc9a7e-2885-4db2-b302-c77e590b4771","system_id":"levelo_inurba_marseille","lat":43.31031,"lon":5.37541,"is_reserved":false,"is_disabled":false,"rental_uris":{"android":"levelo://app?vid=3fdc9a7e-2885-4db2-b302-c77e590b4771","ios":"levelo://app?vid=3fdc9a7e-2885-4db2-b302-c77e590b4771"},"vehicle_type_id":"4","last_reported":1741108117,"current_range_meters":6400,"station_id":"","pricing_plan_id":"cebpf4jnsgd1na2vs0mg"},{"bike_id":"ce8ef3d2-07e3-4512-8813-bcde53a01429","system_id":"levelo_inurba_marseille","lat":43.24181,"lon":5.36413,"is_reserved":false,"is_disabled":false,"rental_uris":{"android":"levelo://app?vid=ce8ef3d2-07e3-4512-8813-bcde53a01429","ios":"levelo://app?vid=ce8ef3d2-07e3-4512-8813-bcde53a01429"},"vehicle_type_id":"4","last_reported":1741108117,"current_range_meters":6800,"station_id":"cpo36qri1sfpv3e86is0","pricing_plan_id":"cebpf4jnsgd1na2vs0mg"},{"bike_id":"10f6e421-c5e1-4348-a059-0c462e86bbf0","system_id":"levelo_inurba_marseille","lat":43.28715,"lon":5.37398,"is_reserved":false,"is_disabled":false,"rental_uris":{"android":"levelo://app?vid=10f6e421-c5e1-4348-a059-0c462e86bbf0","ios":"levelo://app?vid=10f6e421-c5e1-4348-a059-0c462e86bbf0"},"vehicle_type_id":"4","last_reported":1741108117,"current_range_meters":6800,"station_id":"ce4bh3p2rcd13ifvqdq0","pricing_plan_id":"cebpf4jnsgd1na2vs0mg"},{"bike_id":"0335ffbe-113d-48cf-b771-a78afdf3b5d8","system_id":"levelo_inurba_marseille","lat":43.28412,"lon":5.34987,"is_reserved":false,"is_disabled":false,"rental_uris":{"android":"levelo://app?vid=0335ffbe-113d-48cf-b771-a78afdf3b5d8","ios":"levelo://app?vid=0335ffbe-113d-48cf-b771-a78afdf3b5d8"},"vehicle_type_id":"4","last_reported":1741108117,"current_range_meters":6800,"station_id":"ce4bhbh2rcd13ifvqepg","pricing_plan_id":"cebpf4jnsgd1na2vs0mg"},{"bike_id":"db912754-bb10-4076-9a35-0a037d46d35f","system_id":"levelo_inurba_marseille","lat":43.27804,"lon":5.40722,"is_reserved":false,"is_disabled":false,"rental_uris":{"android":"levelo://app?vid=db912754-bb10-4076-9a35-0a037d46d35f","ios":"levelo://app?vid=db912754-bb10-4076-9a35-0a037d46d35f"},"vehicle_type_id":"4","last_reported":1741108117,"current_range_meters":6800,"station_id":"ce4bhnh2rcd13ifvqgtg","pricing_plan_id":"cebpf4jnsgd1na2vs0mg"},{"bike_id":"8a7f7dec-8ac4-4ac7-9f33-b53621825235","system_id":"levelo_inurba_marseille","lat":43.27818,"lon":5.40736,"is_reserved":false,"is_disabled":false,"rental_uris":{"android":"levelo://app?vid=8a7f7dec-8ac4-4ac7-9f33-b53621825235","ios":"levelo://app?vid=8a7f7dec-8ac4-4ac7-9f33-b53621825235"},"vehicle_type_id":"4","last_reported":1741108117,"current_range_meters":6800,"station_id":"ce4bhnh2rcd13ifvqgtg","pricing_plan_id":"cebpf4jnsgd1na2vs0mg"},{"bike_id":"77804919-200f-4647-81c5-0d98e45eca7e","system_id":"levelo_inurba_marseille","lat":43.24548,"lon":5.39526,"is_reserved":false,"is_disabled":false,"rental_uris":{"android":"levelo://app?vid=77804919-200f-4647-81c5-0d98e45eca7e","ios":"levelo://app?vid=77804919-200f-4647-81c5-0d98e45eca7e"},"vehicle_type_id":"4","last_reported":1741108117,"current_range_meters":6800,"station_id":"ce4bhlp2rcd13ifvqgjg","pricing_plan_id":"cebpf4jnsgd1na2vs0mg"},{"bike_id":"d8b7d910-cddd-43ed-b7bd-4f5e93e16189","system_id":"levelo_inurba_marseille","lat":43.31708,"lon":5.37749,"is_reserved":false,"is_disabled":false,"rental_uris":{"android":"levelo://app?vid=d8b7d910-cddd-43ed-b7bd-4f5e93e16189","ios":"levelo://app?vid=d8b7d910-cddd-43ed-b7bd-4f5e93e16189"},"vehicle_type_id":"4","last_reported":1741108117,"current_range_meters":7200,"station_id":"ce4bgth2rcd13ifvqch0","pricing_plan_id":"cebpf4jnsgd1na2vs0mg"},{"bike_id":"10d61af2-a218-4397-b179-939c5dec9f2f","system_id":"levelo_inurba_marseille","lat":43.26491,"lon":5.39548,"is_reserved":false,"is_disabled":false,"rental_uris":{"android":"levelo://app?vid=10d61af2-a218-4397-b179-939c5dec9f2f","ios":"levelo://app?vid=10d61af2-a218-4397-b179-939c5dec9f2f"},"vehicle_type_id":"4","last_reported":1741108117,"current_range_meters":7200,"station_id":"ce4bhi12rcd13ifvqfq0","pricing_plan_id":"cebpf4jnsgd1na2vs0mg"},{"bike_id":"6d68e2ec-4b46-4933-a260-1d809e99937e","system_id":"levelo_inurba_marseille","lat":43.28616,"lon":5.35109,"is_reserved":false,"is_disabled":false,"rental_uris":{"android":"levelo://app?vid=6d68e2ec-4b46-4933-a260-1d809e99937e","ios":"levelo://app?vid=6d68e2ec-4b46-4933-a260-1d809e99937e"},"vehicle_type_id":"4","last_reported":1741108117,"current_range_meters":7200,"station_id":"ce4bhch2rcd13ifvqeug","pricing_plan_id":"cebpf4jnsgd1na2vs0mg"},{"bike_id":"2e59c51a-bb6c-43e0-808b-3e7f2c6ba176","system_id":"levelo_inurba_marseille","lat":43.29794,"lon":5.38099,"is_reserved":false,"is_disabled":false,"rental_uris":{"android":"levelo://app?vid=2e59c51a-bb6c-43e0-808b-3e7f2c6ba176","ios":"levelo://app?vid=2e59c51a-bb6c-43e0-808b-3e7f2c6ba176"},"vehicle_type_id":"4","last_reported":1741108117,"current_range_meters":7200,"station_id":"ce4bgip2rcd13ifvqbb0","pricing_plan_id":"cebpf4jnsgd1na2vs0mg"},{"bike_id":"aa54e865-06b9-4504-90b9-cc1208b6eb00","system_id":"levelo_inurba_marseille","lat":43.29074,"lon":5.37165,"is_reserved":false,"is_disabled":false,"rental_uris":{"android":"levelo://app?vid=aa54e865-06b9-4504-90b9-cc1208b6eb00","ios":"levelo://app?vid=aa54e865-06b9-4504-90b9-cc1208b6eb00"},"vehicle_type_id":"4","last_reported":1741108117,"current_range_meters":7200,"station_id":"ce4bh5p2rcd13ifvqe4g","pricing_plan_id":"cebpf4jnsgd1na2vs0mg"},{"bike_id":"2ca6f909-4b60-40dd-8f3e-7bdf3c1fc431","system_id":"levelo_inurba_marseille","lat":43.29698,"lon":5.37693,"is_reserved":false,"is_disabled":false,"rental_uris":{"android":"levelo://app?vid=2ca6f909-4b60-40dd-8f3e-7bdf3c1fc431","ios":"levelo://app?vid=2ca6f909-4b60-40dd-8f3e-7bdf3c1fc431"},"vehicle_type_id":"4","last_reported":1741108117,"current_range_meters":6800,"station_id":"ce4bgkh2rcd13ifvqbl0","pricing_plan_id":"cebpf4jnsgd1na2vs0mg"},{"bike_id":"7f8c1dc6-8f79-401b-ab35-b870cda67707","system_id":"levelo_inurba_marseille","lat":43.278164,"lon":5.407152,"is_reserved":false,"is_disabled":false,"rental_uris":{"android":"levelo://app?vid=7f8c1dc6-8f79-401b-ab35-b870cda67707","ios":"levelo://app?vid=7f8c1dc6-8f79-401b-ab35-b870cda67707"},"vehicle_type_id":"4","last_reported":1741108117,"current_range_meters":7200,"station_id":"ce4bhnh2rcd13ifvqgtg","pricing_plan_id":"cebpf4jnsgd1na2vs0mg"},{"bike_id":"d47a2196-b5f1-4c78-9c59-68e41da775b1","system_id":"levelo_inurba_marseille","lat":43.29563,"lon":5.39961,"is_reserved":false,"is_disabled":false,"rental_uris":{"android":"levelo://app?vid=d47a2196-b5f1-4c78-9c59-68e41da775b1","ios":"levelo://app?vid=d47a2196-b5f1-4c78-9c59-68e41da775b1"},"vehicle_type_id":"4","last_reported":1741108117,"current_range_meters":8000,"station_id":"ce4bh312rcd13ifvqdj0","pricing_plan_id":"cebpf4jnsgd1na2vs0mg"},{"bike_id":"6522d8fe-a033-424f-b842-952e814d7413","system_id":"levelo_inurba_marseille","lat":43.27944,"lon":5.41052,"is_reserved":false,"is_disabled":false,"rental_uris":{"android":"levelo://app?vid=6522d8fe-a033-424f-b842-952e814d7413","ios":"levelo://app?vid=6522d8fe-a033-424f-b842-952e814d7413"},"vehicle_type_id":"4","last_reported":1741108117,"current_range_meters":8000,"station_id":"ce4bhnp2rcd13ifvqh0g","pricing_plan_id":"cebpf4jnsgd1na2vs0mg"},{"bike_id":"96a8fd5c-84c2-4c82-8e76-a0db22287095","system_id":"levelo_inurba_marseille","lat":43.25007,"lon":5.38916,"is_reserved":false,"is_disabled":false,"rental_uris":{"android":"levelo://app?vid=96a8fd5c-84c2-4c82-8e76-a0db22287095","ios":"levelo://app?vid=96a8fd5c-84c2-4c82-8e76-a0db22287095"},"vehicle_type_id":"4","last_reported":1741108117,"current_range_meters":8000,"station_id":"ce4bhgp2rcd13ifvqfd0","pricing_plan_id":"cebpf4jnsgd1na2vs0mg"},{"bike_id":"d1dbde63-62f3-404d-8c3d-aca97ef1d5b4","system_id":"levelo_inurba_marseille","lat":43.26228,"lon":5.40442,"is_reserved":false,"is_disabled":false,"rental_uris":{"android":"levelo://app?vid=d1dbde63-62f3-404d-8c3d-aca97ef1d5b4","ios":"levelo://app?vid=d1dbde63-62f3-404d-8c3d-aca97ef1d5b4"},"vehicle_type_id":"4","last_reported":1741108117,"current_range_meters":8000,"station_id":"ce4bhmh2rcd13ifvqgmg","pricing_plan_id":"cebpf4jnsgd1na2vs0mg"},{"bike_id":"3b7eb5f2-6d6d-46d4-aaee-fb854ec0c9d4","system_id":"levelo_inurba_marseille","lat":43.2755,"lon":5.38424,"is_reserved":false,"is_disabled":false,"rental_uris":{"android":"levelo://app?vid=3b7eb5f2-6d6d-46d4-aaee-fb854ec0c9d4","ios":"levelo://app?vid=3b7eb5f2-6d6d-46d4-aaee-fb854ec0c9d4"},"vehicle_type_id":"4","last_reported":1741108117,"current_range_meters":8000,"station_id":"ce4bhh92rcd13ifvqfi0","pricing_plan_id":"cebpf4jnsgd1na2vs0mg"},{"bike_id":"13c44e5e-5463-4505-ba1b-c0544af7d8ca","system_id":"levelo_inurba_marseille","lat":43.23193,"lon":5.3555,"is_reserved":false,"is_disabled":false,"rental_uris":{"android":"levelo://app?vid=13c44e5e-5463-4505-ba1b-c0544af7d8ca","ios":"levelo://app?vid=13c44e5e-5463-4505-ba1b-c0544af7d8ca"},"vehicle_type_id":"4","last_reported":1741108117,"current_range_meters":8000,"station_id":"ce4bhu92rcd13ifvqi70","pricing_plan_id":"cebpf4jnsgd1na2vs0mg"},{"bike_id":"1273fc70-8f2e-4aa8-ba90-3598dab09126","system_id":"levelo_inurba_marseille","lat":43.30929,"lon":5.40136,"is_reserved":false,"is_disabled":false,"rental_uris":{"android":"levelo://app?vid=1273fc70-8f2e-4aa8-ba90-3598dab09126","ios":"levelo://app?vid=1273fc70-8f2e-4aa8-ba90-3598dab09126"},"vehicle_type_id":"4","last_reported":1741108117,"current_range_meters":8000,"station_id":"ce4bgvp2rcd13ifvqct0","pricing_plan_id":"cebpf4jnsgd1na2vs0mg"},{"bike_id":"123c7a80-231c-41e3-8864-182e3020ccec","system_id":"levelo_inurba_marseille","lat":43.31758,"lon":5.39013,"is_reserved":false,"is_disabled":false,"rental_uris":{"android":"levelo://app?vid=123c7a80-231c-41e3-8864-182e3020ccec","ios":"levelo://app?vid=123c7a80-231c-41e3-8864-182e3020ccec"},"vehicle_type_id":"4","last_reported":1741108117,"current_range_meters":8000,"station_id":"ce4bhqp2rcd13ifvqhng","pricing_plan_id":"cebpf4jnsgd1na2vs0mg"},{"bike_id":"c8eadf63-55f6-4818-b468-98db3056edac","system_id":"levelo_inurba_marseille","lat":43.26927,"lon":5.40256,"is_reserved":false,"is_disabled":false,"rental_uris":{"android":"levelo://app?vid=c8eadf63-55f6-4818-b468-98db3056edac","ios":"levelo://app?vid=c8eadf63-55f6-4818-b468-98db3056edac"},"vehicle_type_id":"4","last_reported":1741108117,"current_range_meters":8000,"station_id":"cjm6bp8fraef2m0cb0m0","pricing_plan_id":"cebpf4jnsgd1na2vs0mg"},{"bike_id":"0b818497-4d97-451b-b637-cef3d02b5c9d","system_id":"levelo_inurba_marseille","lat":43.31712,"lon":5.4371,"is_reserved":false,"is_disabled":false,"rental_uris":{"android":"levelo://app?vid=0b818497-4d97-451b-b637-cef3d02b5c9d","ios":"levelo://app?vid=0b818497-4d97-451b-b637-cef3d02b5c9d"},"vehicle_type_id":"4","last_reported":1741108117,"current_range_meters":8400,"station_id":"ce4bhp92rcd13ifvqhcg","pricing_plan_id":"cebpf4jnsgd1na2vs0mg"},{"bike_id":"64953142-7637-42b4-b0d1-c449e63f1db7","system_id":"levelo_inurba_marseille","lat":43.29648,"lon":5.36009,"is_reserved":false,"is_disabled":false,"rental_uris":{"android":"levelo://app?vid=64953142-7637-42b4-b0d1-c449e63f1db7","ios":"levelo://app?vid=64953142-7637-42b4-b0d1-c449e63f1db7"},"vehicle_type_id":"4","last_reported":1741108117,"current_range_meters":8400,"station_id":"","pricing_plan_id":"cebpf4jnsgd1na2vs0mg"},{"bike_id":"1acd0dad-108c-4f3b-af27-11d33f665517","system_id":"levelo_inurba_marseille","lat":43.31483,"lon":5.37316,"is_reserved":false,"is_disabled":false,"rental_uris":{"android":"levelo://app?vid=1acd0dad-108c-4f3b-af27-11d33f665517","ios":"levelo://app?vid=1acd0dad-108c-4f3b-af27-11d33f665517"},"vehicle_type_id":"4","last_reported":1741108117,"current_range_meters":8800,"station_id":"ce4bgt12rcd13ifvqcd0","pricing_plan_id":"cebpf4jnsgd1na2vs0mg"},{"bike_id":"6f359f76-3a72-41be-9552-f3e86e80f519","system_id":"levelo_inurba_marseille","lat":43.31359,"lon":5.3849,"is_reserved":false,"is_disabled":false,"rental_uris":{"android":"levelo://app?vid=6f359f76-3a72-41be-9552-f3e86e80f519","ios":"levelo://app?vid=6f359f76-3a72-41be-9552-f3e86e80f519"},"vehicle_type_id":"4","last_reported":1741108117,"current_range_meters":8400,"station_id":"ce4bgt92rcd13ifvqcf0","pricing_plan_id":"cebpf4jnsgd1na2vs0mg"},{"bike_id":"a8848b16-cad0-4cda-a0f4-35d26c412126","system_id":"levelo_inurba_marseille","lat":43.31484,"lon":5.37306,"is_reserved":false,"is_disabled":false,"rental_uris":{"android":"levelo://app?vid=a8848b16-cad0-4cda-a0f4-35d26c412126","ios":"levelo://app?vid=a8848b16-cad0-4cda-a0f4-35d26c412126"},"vehicle_type_id":"4","last_reported":1741108117,"current_range_meters":8800,"station_id":"ce4bgt12rcd13ifvqcd0","pricing_plan_id":"cebpf4jnsgd1na2vs0mg"},{"bike_id":"0b661548-daaf-4025-8712-e0c5e56cc4ba","system_id":"levelo_inurba_marseille","lat":43.30655,"lon":5.40097,"is_reserved":false,"is_disabled":false,"rental_uris":{"android":"levelo://app?vid=0b661548-daaf-4025-8712-e0c5e56cc4ba","ios":"levelo://app?vid=0b661548-daaf-4025-8712-e0c5e56cc4ba"},"vehicle_type_id":"4","last_reported":1741108117,"current_range_meters":8800,"station_id":"ce4bh112rcd13ifvqda0","pricing_plan_id":"cebpf4jnsgd1na2vs0mg"},{"bike_id":"70c84ee7-75c2-4659-b667-d3e332e81b9b","system_id":"levelo_inurba_marseille","lat":43.289,"lon":5.36385,"is_reserved":false,"is_disabled":false,"rental_uris":{"android":"levelo://app?vid=70c84ee7-75c2-4659-b667-d3e332e81b9b","ios":"levelo://app?vid=70c84ee7-75c2-4659-b667-d3e332e81b9b"},"vehicle_type_id":"4","last_reported":1741108117,"current_range_meters":8800,"station_id":"","pricing_plan_id":"cebpf4jnsgd1na2vs0mg"},{"bike_id":"38bc443c-9321-4c7b-aef1-6228b56ff7ed","system_id":"levelo_inurba_marseille","lat":43.29997,"lon":5.38519,"is_reserved":false,"is_disabled":false,"rental_uris":{"android":"levelo://app?vid=38bc443c-9321-4c7b-aef1-6228b56ff7ed","ios":"levelo://app?vid=38bc443c-9321-4c7b-aef1-6228b56ff7ed"},"vehicle_type_id":"4","last_reported":1741108117,"current_range_meters":8800,"station_id":"ce4bgj92rcd13ifvqbd0","pricing_plan_id":"cebpf4jnsgd1na2vs0mg"},{"bike_id":"dd8f1a96-70d3-4ea0-a5dd-cd7ca7f328f0","system_id":"levelo_inurba_marseille","lat":43.28037,"lon":5.36946,"is_reserved":false,"is_disabled":false,"rental_uris":{"android":"levelo://app?vid=dd8f1a96-70d3-4ea0-a5dd-cd7ca7f328f0","ios":"levelo://app?vid=dd8f1a96-70d3-4ea0-a5dd-cd7ca7f328f0"},"vehicle_type_id":"4","last_reported":1741108117,"current_range_meters":8800,"station_id":"ce4bha12rcd13ifvqef0","pricing_plan_id":"cebpf4jnsgd1na2vs0mg"},{"bike_id":"5748bb3c-8361-4621-9017-fb475b70f147","system_id":"levelo_inurba_marseille","lat":43.29361,"lon":5.37835,"is_reserved":false,"is_disabled":false,"rental_uris":{"android":"levelo://app?vid=5748bb3c-8361-4621-9017-fb475b70f147","ios":"levelo://app?vid=5748bb3c-8361-4621-9017-fb475b70f147"},"vehicle_type_id":"4","last_reported":1741108117,"current_range_meters":8800,"station_id":"ce4bgjh2rcd13ifvqbf0","pricing_plan_id":"cebpf4jnsgd1na2vs0mg"},{"bike_id":"6805d7b7-3709-4159-a850-aceccba0c126","system_id":"levelo_inurba_marseille","lat":43.31761,"lon":5.39006,"is_reserved":false,"is_disabled":false,"rental_uris":{"android":"levelo://app?vid=6805d7b7-3709-4159-a850-aceccba0c126","ios":"levelo://app?vid=6805d7b7-3709-4159-a850-aceccba0c126"},"vehicle_type_id":"4","last_reported":1741108117,"current_range_meters":8800,"station_id":"ce4bhqp2rcd13ifvqhng","pricing_plan_id":"cebpf4jnsgd1na2vs0mg"},{"bike_id":"7623ccf8-b92a-4f7b-bd0b-d68e610f6563","system_id":"levelo_inurba_marseille","lat":43.29574,"lon":5.39973,"is_reserved":false,"is_disabled":false,"rental_uris":{"android":"levelo://app?vid=7623ccf8-b92a-4f7b-bd0b-d68e610f6563","ios":"levelo://app?vid=7623ccf8-b92a-4f7b-bd0b-d68e610f6563"},"vehicle_type_id":"4","last_reported":1741108117,"current_range_meters":8800,"station_id":"ce4bh312rcd13ifvqdj0","pricing_plan_id":"cebpf4jnsgd1na2vs0mg"},{"bike_id":"053f5423-172b-4b40-ae66-c542213447c6","system_id":"levelo_inurba_marseille","lat":43.27999,"lon":5.40015,"is_reserved":false,"is_disabled":false,"rental_uris":{"android":"levelo://app?vid=053f5423-172b-4b40-ae66-c542213447c6","ios":"levelo://app?vid=053f5423-172b-4b40-ae66-c542213447c6"},"vehicle_type_id":"4","last_reported":1741108117,"current_range_meters":8800,"station_id":"ce4bho92rcd13ifvqh4g","pricing_plan_id":"cebpf4jnsgd1na2vs0mg"},{"bike_id":"11321686-0e29-40e1-8464-4e575a09c89b","system_id":"levelo_inurba_marseille","lat":43.28467,"lon":5.3589,"is_reserved":false,"is_disabled":false,"rental_uris":{"android":"levelo://app?vid=11321686-0e29-40e1-8464-4e575a09c89b","ios":"levelo://app?vid=11321686-0e29-40e1-8464-4e575a09c89b"},"vehicle_type_id":"4","last_reported":1741108117,"current_range_meters":9200,"station_id":"ce4bhah2rcd13ifvqei0","pricing_plan_id":"cebpf4jnsgd1na2vs0mg"},{"bike_id":"a94e14c5-efcb-4b8c-9260-ceff0273dbb9","system_id":"levelo_inurba_marseille","lat":43.30924,"lon":5.40135,"is_reserved":false,"is_disabled":false,"rental_uris":{"android":"levelo://app?vid=a94e14c5-efcb-4b8c-9260-ceff0273dbb9","ios":"levelo://app?vid=a94e14c5-efcb-4b8c-9260-ceff0273dbb9"},"vehicle_type_id":"4","last_reported":1741108117,"current_range_meters":9200,"station_id":"ce4bgvp2rcd13ifvqct0","pricing_plan_id":"cebpf4jnsgd1na2vs0mg"},{"bike_id":"c723381d-ed5b-46a6-8992-b87fe824316b","system_id":"levelo_inurba_marseille","lat":43.2993,"lon":5.36509,"is_reserved":false,"is_disabled":false,"rental_uris":{"android":"levelo://app?vid=c723381d-ed5b-46a6-8992-b87fe824316b","ios":"levelo://app?vid=c723381d-ed5b-46a6-8992-b87fe824316b"},"vehicle_type_id":"4","last_reported":1741108117,"current_range_meters":9200,"station_id":"ce4bgm92rcd13ifvqbr0","pricing_plan_id":"cebpf4jnsgd1na2vs0mg"},{"bike_id":"63568cfb-3a09-4731-9bf0-3c5806a6c289","system_id":"levelo_inurba_marseille","lat":43.28944,"lon":5.36394,"is_reserved":false,"is_disabled":false,"rental_uris":{"android":"levelo://app?vid=63568cfb-3a09-4731-9bf0-3c5806a6c289","ios":"levelo://app?vid=63568cfb-3a09-4731-9bf0-3c5806a6c289"},"vehicle_type_id":"4","last_reported":1741108117,"current_range_meters":8800,"station_id":"ce4bhc92rcd13ifvqetg","pricing_plan_id":"cebpf4jnsgd1na2vs0mg"},{"bike_id":"b5c8c284-3cf1-49c9-8ed4-a3e6dfa315e0","system_id":"levelo_inurba_marseille","lat":43.25114,"lon":5.40323,"is_reserved":false,"is_disabled":false,"rental_uris":{"android":"levelo://app?vid=b5c8c284-3cf1-49c9-8ed4-a3e6dfa315e0","ios":"levelo://app?vid=b5c8c284-3cf1-49c9-8ed4-a3e6dfa315e0"},"vehicle_type_id":"4","last_reported":1741108117,"current_range_meters":9200,"station_id":"ce4bhlh2rcd13ifvqgig","pricing_plan_id":"cebpf4jnsgd1na2vs0mg"},{"bike_id":"d0b636ed-14ff-43b5-a116-b5d669f8b546","system_id":"levelo_inurba_marseille","lat":43.23183,"lon":5.39985,"is_reserved":false,"is_disabled":false,"rental_uris":{"android":"levelo://app?vid=d0b636ed-14ff-43b5-a116-b5d669f8b546","ios":"levelo://app?vid=d0b636ed-14ff-43b5-a116-b5d669f8b546"},"vehicle_type_id":"4","last_reported":1741108117,"current_range_meters":9600,"station_id":"ce4bhn12rcd13ifvqgqg","pricing_plan_id":"cebpf4jnsgd1na2vs0mg"},{"bike_id":"1f31e20d-f64b-4c43-8c75-28a45bd6b9ac","system_id":"levelo_inurba_marseille","lat":43.30221,"lon":5.39468,"is_reserved":false,"is_disabled":false,"rental_uris":{"android":"levelo://app?vid=1f31e20d-f64b-4c43-8c75-28a45bd6b9ac","ios":"levelo://app?vid=1f31e20d-f64b-4c43-8c75-28a45bd6b9ac"},"vehicle_type_id":"4","last_reported":1741108117,"current_range_meters":9600,"station_id":"ce4bh0p2rcd13ifvqd70","pricing_plan_id":"cebpf4jnsgd1na2vs0mg"},{"bike_id":"b8dacfd7-6aa1-4cb2-ac25-dfdf82e53218","system_id":"levelo_inurba_marseille","lat":43.32365,"lon":5.38891,"is_reserved":false,"is_disabled":false,"rental_uris":{"android":"levelo://app?vid=b8dacfd7-6aa1-4cb2-ac25-dfdf82e53218","ios":"levelo://app?vid=b8dacfd7-6aa1-4cb2-ac25-dfdf82e53218"},"vehicle_type_id":"4","last_reported":1741108117,"current_range_meters":9600,"station_id":"ce4bhqp2rcd13ifvqhog","pricing_plan_id":"cebpf4jnsgd1na2vs0mg"},{"bike_id":"997f96f3-c582-4b01-8b76-53e81397c9a9","system_id":"levelo_inurba_marseille","lat":43.29576,"lon":5.39982,"is_reserved":false,"is_disabled":false,"rental_uris":{"android":"levelo://app?vid=997f96f3-c582-4b01-8b76-53e81397c9a9","ios":"levelo://app?vid=997f96f3-c582-4b01-8b76-53e81397c9a9"},"vehicle_type_id":"4","last_reported":1741108117,"current_range_meters":9600,"station_id":"ce4bh312rcd13ifvqdj0","pricing_plan_id":"cebpf4jnsgd1na2vs0mg"},{"bike_id":"ee1d2ad1-36ca-49dd-a328-f2a9a9994ecb","system_id":"levelo_inurba_marseille","lat":43.31086,"lon":5.38136,"is_reserved":false,"is_disabled":false,"rental_uris":{"android":"levelo://app?vid=ee1d2ad1-36ca-49dd-a328-f2a9a9994ecb","ios":"levelo://app?vid=ee1d2ad1-36ca-49dd-a328-f2a9a9994ecb"},"vehicle_type_id":"4","last_reported":1741108117,"current_range_meters":10000,"station_id":"","pricing_plan_id":"cebpf4jnsgd1na2vs0mg"},{"bike_id":"e5cdc1dd-72c1-4d70-956f-4c4162808041","system_id":"levelo_inurba_marseille","lat":43.26576,"lon":5.39018,"is_reserved":false,"is_disabled":false,"rental_uris":{"android":"levelo://app?vid=e5cdc1dd-72c1-4d70-956f-4c4162808041","ios":"levelo://app?vid=e5cdc1dd-72c1-4d70-956f-4c4162808041"},"vehicle_type_id":"4","last_reported":1741108117,"current_range_meters":10000,"station_id":"ce4bhe12rcd13ifvqf30","pricing_plan_id":"cebpf4jnsgd1na2vs0mg"},{"bike_id":"0bd2e439-f303-4dbb-a21b-c599c146a67e","system_id":"levelo_inurba_marseille","lat":43.30431,"lon":5.39318,"is_reserved":false,"is_disabled":false,"rental_uris":{"android":"levelo://app?vid=0bd2e439-f303-4dbb-a21b-c599c146a67e","ios":"levelo://app?vid=0bd2e439-f303-4dbb-a21b-c599c146a67e"},"vehicle_type_id":"4","last_reported":1741108117,"current_range_meters":10000,"station_id":"","pricing_plan_id":"cebpf4jnsgd1na2vs0mg"},{"bike_id":"b73d5dea-465a-49e7-9a05-b8dc1b67d380","system_id":"levelo_inurba_marseille","lat":43.27997,"lon":5.40013,"is_reserved":false,"is_disabled":false,"rental_uris":{"android":"levelo://app?vid=b73d5dea-465a-49e7-9a05-b8dc1b67d380","ios":"levelo://app?vid=b73d5dea-465a-49e7-9a05-b8dc1b67d380"},"vehicle_type_id":"4","last_reported":1741108117,"current_range_meters":10000,"station_id":"ce4bho92rcd13ifvqh4g","pricing_plan_id":"cebpf4jnsgd1na2vs0mg"},{"bike_id":"ede61442-3229-4ac2-8d72-b654099eef6a","system_id":"levelo_inurba_marseille","lat":43.33023,"lon":5.39037,"is_reserved":false,"is_disabled":false,"rental_uris":{"android":"levelo://app?vid=ede61442-3229-4ac2-8d72-b654099eef6a","ios":"levelo://app?vid=ede61442-3229-4ac2-8d72-b654099eef6a"},"vehicle_type_id":"4","last_reported":1741108117,"current_range_meters":10000,"station_id":"ce4bhr92rcd13ifvqhrg","pricing_plan_id":"cebpf4jnsgd1na2vs0mg"},{"bike_id":"ead2fc0e-4156-4a53-86d9-692f8aec79f1","system_id":"levelo_inurba_marseille","lat":43.2985,"lon":5.36273,"is_reserved":false,"is_disabled":false,"rental_uris":{"android":"levelo://app?vid=ead2fc0e-4156-4a53-86d9-692f8aec79f1","ios":"levelo://app?vid=ead2fc0e-4156-4a53-86d9-692f8aec79f1"},"vehicle_type_id":"4","last_reported":1741108117,"current_range_meters":10000,"station_id":"ce4bgpp2rcd13ifvqc3g","pricing_plan_id":"cebpf4jnsgd1na2vs0mg"},{"bike_id":"44a7153b-0fd7-4509-836b-676bbf84fb06","system_id":"levelo_inurba_marseille","lat":43.23182,"lon":5.35562,"is_reserved":false,"is_disabled":false,"rental_uris":{"android":"levelo://app?vid=44a7153b-0fd7-4509-836b-676bbf84fb06","ios":"levelo://app?vid=44a7153b-0fd7-4509-836b-676bbf84fb06"},"vehicle_type_id":"4","last_reported":1741108117,"current_range_meters":10000,"station_id":"ce4bhu92rcd13ifvqi70","pricing_plan_id":"cebpf4jnsgd1na2vs0mg"},{"bike_id":"5063d5c8-5a76-4746-aab6-24e02eb594fe","system_id":"levelo_inurba_marseille","lat":43.28615,"lon":5.35104,"is_reserved":false,"is_disabled":false,"rental_uris":{"android":"levelo://app?vid=5063d5c8-5a76-4746-aab6-24e02eb594fe","ios":"levelo://app?vid=5063d5c8-5a76-4746-aab6-24e02eb594fe"},"vehicle_type_id":"4","last_reported":1741108117,"current_range_meters":10800,"station_id":"ce4bhch2rcd13ifvqeug","pricing_plan_id":"cebpf4jnsgd1na2vs0mg"},{"bike_id":"7d5ac60b-01a8-4c3d-bb7d-6ea8977fb608","system_id":"levelo_inurba_marseille","lat":43.27917,"lon":5.38024,"is_reserved":false,"is_disabled":false,"rental_uris":{"android":"levelo://app?vid=7d5ac60b-01a8-4c3d-bb7d-6ea8977fb608","ios":"levelo://app?vid=7d5ac60b-01a8-4c3d-bb7d-6ea8977fb608"},"vehicle_type_id":"4","last_reported":1741108117,"current_range_meters":10800,"station_id":"ce4bhf92rcd13ifvqf50","pricing_plan_id":"cebpf4jnsgd1na2vs0mg"},{"bike_id":"5d346255-6da2-4c21-b99f-14ddbb1337ea","system_id":"levelo_inurba_marseille","lat":43.23185,"lon":5.39986,"is_reserved":false,"is_disabled":false,"rental_uris":{"android":"levelo://app?vid=5d346255-6da2-4c21-b99f-14ddbb1337ea","ios":"levelo://app?vid=5d346255-6da2-4c21-b99f-14ddbb1337ea"},"vehicle_type_id":"4","last_reported":1741108117,"current_range_meters":10800,"station_id":"ce4bhn12rcd13ifvqgqg","pricing_plan_id":"cebpf4jnsgd1na2vs0mg"},{"bike_id":"a2e9312b-d692-42a0-9823-fe0aab56075b","system_id":"levelo_inurba_marseille","lat":43.23147,"lon":5.43721,"is_reserved":false,"is_disabled":true,"rental_uris":{"android":"levelo://app?vid=a2e9312b-d692-42a0-9823-fe0aab56075b","ios":"levelo://app?vid=a2e9312b-d692-42a0-9823-fe0aab56075b"},"vehicle_type_id":"4","last_reported":1741108117,"current_range_meters":10800,"station_id":"ce4bhmp2rcd13ifvqgog","pricing_plan_id":"cebpf4jnsgd1na2vs0mg"},{"bike_id":"6150014d-df8d-4675-bbc9-0104d504d0b0","system_id":"levelo_inurba_marseille","lat":43.278162,"lon":5.40719,"is_reserved":false,"is_disabled":false,"rental_uris":{"android":"levelo://app?vid=6150014d-df8d-4675-bbc9-0104d504d0b0","ios":"levelo://app?vid=6150014d-df8d-4675-bbc9-0104d504d0b0"},"vehicle_type_id":"4","last_reported":1741108117,"current_range_meters":10800,"station_id":"ce4bhnh2rcd13ifvqgtg","pricing_plan_id":"cebpf4jnsgd1na2vs0mg"},{"bike_id":"96534ab7-4f6f-4c1c-9eeb-a2113adfd031","system_id":"levelo_inurba_marseille","lat":43.27189,"lon":5.40986,"is_reserved":false,"is_disabled":false,"rental_uris":{"android":"levelo://app?vid=96534ab7-4f6f-4c1c-9eeb-a2113adfd031","ios":"levelo://app?vid=96534ab7-4f6f-4c1c-9eeb-a2113adfd031"},"vehicle_type_id":"4","last_reported":1741108117,"current_range_meters":11200,"station_id":"ce4bhl12rcd13ifvqgf0","pricing_plan_id":"cebpf4jnsgd1na2vs0mg"},{"bike_id":"4a560db6-d9ce-4055-a392-6a671283fbda","system_id":"levelo_inurba_marseille","lat":43.25819,"lon":5.39435,"is_reserved":false,"is_disabled":false,"rental_uris":{"android":"levelo://app?vid=4a560db6-d9ce-4055-a392-6a671283fbda","ios":"levelo://app?vid=4a560db6-d9ce-4055-a392-6a671283fbda"},"vehicle_type_id":"4","last_reported":1741108117,"current_range_meters":11200,"station_id":"ce4bhip2rcd13ifvqft0","pricing_plan_id":"cebpf4jnsgd1na2vs0mg"},{"bike_id":"d5aaa75c-535a-4f94-9bd5-dbcafeb455a7","system_id":"levelo_inurba_marseille","lat":43.29625,"lon":5.37707,"is_reserved":false,"is_disabled":false,"rental_uris":{"android":"levelo://app?vid=d5aaa75c-535a-4f94-9bd5-dbcafeb455a7","ios":"levelo://app?vid=d5aaa75c-535a-4f94-9bd5-dbcafeb455a7"},"vehicle_type_id":"4","last_reported":1741108117,"current_range_meters":11200,"station_id":"ce4bgi92rcd13ifvqb90","pricing_plan_id":"cebpf4jnsgd1na2vs0mg"},{"bike_id":"dd031907-9190-4c57-aab5-31ab3d579e20","system_id":"levelo_inurba_marseille","lat":43.27376,"lon":5.3625,"is_reserved":false,"is_disabled":false,"rental_uris":{"android":"levelo://app?vid=dd031907-9190-4c57-aab5-31ab3d579e20","ios":"levelo://app?vid=dd031907-9190-4c57-aab5-31ab3d579e20"},"vehicle_type_id":"4","last_reported":1741108117,"current_range_meters":11200,"station_id":"ce4bhbh2rcd13ifvqeo0","pricing_plan_id":"cebpf4jnsgd1na2vs0mg"},{"bike_id":"913bb55b-2edb-4434-9d82-fe796f8d08f1","system_id":"levelo_inurba_marseille","lat":43.28614,"lon":5.35107,"is_reserved":false,"is_disabled":false,"rental_uris":{"android":"levelo://app?vid=913bb55b-2edb-4434-9d82-fe796f8d08f1","ios":"levelo://app?vid=913bb55b-2edb-4434-9d82-fe796f8d08f1"},"vehicle_type_id":"4","last_reported":1741108117,"current_range_meters":11200,"station_id":"ce4bhch2rcd13ifvqeug","pricing_plan_id":"cebpf4jnsgd1na2vs0mg"},{"bike_id":"fc2a76a7-7979-4949-9cfb-4e12b0e70e1e","system_id":"levelo_inurba_marseille","lat":43.24391,"lon":5.3706,"is_reserved":false,"is_disabled":false,"rental_uris":{"android":"levelo://app?vid=fc2a76a7-7979-4949-9cfb-4e12b0e70e1e","ios":"levelo://app?vid=fc2a76a7-7979-4949-9cfb-4e12b0e70e1e"},"vehicle_type_id":"4","last_reported":1741108117,"current_range_meters":11200,"station_id":"ce4bhhh2rcd13ifvqfk0","pricing_plan_id":"cebpf4jnsgd1na2vs0mg"},{"bike_id":"78db89ff-2e34-4583-9a53-092ad269fa9a","system_id":"levelo_inurba_marseille","lat":43.29078,"lon":5.37161,"is_reserved":false,"is_disabled":false,"rental_uris":{"android":"levelo://app?vid=78db89ff-2e34-4583-9a53-092ad269fa9a","ios":"levelo://app?vid=78db89ff-2e34-4583-9a53-092ad269fa9a"},"vehicle_type_id":"4","last_reported":1741108117,"current_range_meters":11200,"station_id":"ce4bh5p2rcd13ifvqe4g","pricing_plan_id":"cebpf4jnsgd1na2vs0mg"},{"bike_id":"21b19842-9ad9-4db0-bc46-3d2827c0069e","system_id":"levelo_inurba_marseille","lat":43.23204,"lon":5.35531,"is_reserved":false,"is_disabled":false,"rental_uris":{"android":"levelo://app?vid=21b19842-9ad9-4db0-bc46-3d2827c0069e","ios":"levelo://app?vid=21b19842-9ad9-4db0-bc46-3d2827c0069e"},"vehicle_type_id":"4","last_reported":1741108117,"current_range_meters":11200,"station_id":"ce4bhu92rcd13ifvqi70","pricing_plan_id":"cebpf4jnsgd1na2vs0mg"},{"bike_id":"9747368a-1f80-409b-8b2c-bee64829bc86","system_id":"levelo_inurba_marseille","lat":43.3025,"lon":5.39685,"is_reserved":false,"is_disabled":false,"rental_uris":{"android":"levelo://app?vid=9747368a-1f80-409b-8b2c-bee64829bc86","ios":"levelo://app?vid=9747368a-1f80-409b-8b2c-bee64829bc86"},"vehicle_type_id":"4","last_reported":1741108117,"current_range_meters":11600,"station_id":"","pricing_plan_id":"cebpf4jnsgd1na2vs0mg"},{"bike_id":"8caa3965-8df2-4769-ba39-b1c61d160a62","system_id":"levelo_inurba_marseille","lat":43.28614,"lon":5.35108,"is_reserved":false,"is_disabled":false,"rental_uris":{"android":"levelo://app?vid=8caa3965-8df2-4769-ba39-b1c61d160a62","ios":"levelo://app?vid=8caa3965-8df2-4769-ba39-b1c61d160a62"},"vehicle_type_id":"4","last_reported":1741108117,"current_range_meters":11600,"station_id":"ce4bhch2rcd13ifvqeug","pricing_plan_id":"cebpf4jnsgd1na2vs0mg"},{"bike_id":"dee39c4e-d276-4190-99f8-ccd76a6a2c9f","system_id":"levelo_inurba_marseille","lat":43.25244,"lon":5.39167,"is_reserved":false,"is_disabled":false,"rental_uris":{"android":"levelo://app?vid=dee39c4e-d276-4190-99f8-ccd76a6a2c9f","ios":"levelo://app?vid=dee39c4e-d276-4190-99f8-ccd76a6a2c9f"},"vehicle_type_id":"4","last_reported":1741108117,"current_range_meters":11600,"station_id":"ce4bhg12rcd13ifvqf60","pricing_plan_id":"cebpf4jnsgd1na2vs0mg"},{"bike_id":"3b913804-aaec-4a02-94aa-fc3b4235ab66","system_id":"levelo_inurba_marseille","lat":43.30141,"lon":5.37423,"is_reserved":false,"is_disabled":false,"rental_uris":{"android":"levelo://app?vid=3b913804-aaec-4a02-94aa-fc3b4235ab66","ios":"levelo://app?vid=3b913804-aaec-4a02-94aa-fc3b4235ab66"},"vehicle_type_id":"4","last_reported":1741108117,"current_range_meters":11600,"station_id":"ce4bgs92rcd13ifvqcc0","pricing_plan_id":"cebpf4jnsgd1na2vs0mg"},{"bike_id":"36898df2-660c-4353-a656-0c37e35eaef9","system_id":"levelo_inurba_marseille","lat":43.28441,"lon":5.39207,"is_reserved":false,"is_disabled":false,"rental_uris":{"android":"levelo://app?vid=36898df2-660c-4353-a656-0c37e35eaef9","ios":"levelo://app?vid=36898df2-660c-4353-a656-0c37e35eaef9"},"vehicle_type_id":"4","last_reported":1741108117,"current_range_meters":11600,"station_id":"ce4bhoh2rcd13ifvqh5g","pricing_plan_id":"cebpf4jnsgd1na2vs0mg"},{"bike_id":"0596970d-6eb4-4331-8d1d-96c25a649f4a","system_id":"levelo_inurba_marseille","lat":43.286676,"lon":5.363416,"is_reserved":false,"is_disabled":false,"rental_uris":{"android":"levelo://app?vid=0596970d-6eb4-4331-8d1d-96c25a649f4a","ios":"levelo://app?vid=0596970d-6eb4-4331-8d1d-96c25a649f4a"},"vehicle_type_id":"4","last_reported":1741108117,"current_range_meters":11600,"station_id":"ce4bhah2rcd13ifvqej0","pricing_plan_id":"cebpf4jnsgd1na2vs0mg"},{"bike_id":"da911602-76dc-451d-93fe-1dcbdf9555d7","system_id":"levelo_inurba_marseille","lat":43.3061,"lon":5.37223,"is_reserved":false,"is_disabled":false,"rental_uris":{"android":"levelo://app?vid=da911602-76dc-451d-93fe-1dcbdf9555d7","ios":"levelo://app?vid=da911602-76dc-451d-93fe-1dcbdf9555d7"},"vehicle_type_id":"4","last_reported":1741108117,"current_range_meters":12000,"station_id":"ce4bgqh2rcd13ifvqc4g","pricing_plan_id":"cebpf4jnsgd1na2vs0mg"},{"bike_id":"c39e2295-e7a5-4c5b-833a-007e71b3658e","system_id":"levelo_inurba_marseille","lat":43.308052,"lon":5.435273,"is_reserved":false,"is_disabled":false,"rental_uris":{"android":"levelo://app?vid=c39e2295-e7a5-4c5b-833a-007e71b3658e","ios":"levelo://app?vid=c39e2295-e7a5-4c5b-833a-007e71b3658e"},"vehicle_type_id":"4","last_reported":1741108117,"current_range_meters":12000,"station_id":"ce4bhph2rcd13ifvqheg","pricing_plan_id":"cebpf4jnsgd1na2vs0mg"},{"bike_id":"ab072cc3-15d5-4867-b6bc-de7623a55c2e","system_id":"levelo_inurba_marseille","lat":43.27676,"lon":5.38853,"is_reserved":false,"is_disabled":false,"rental_uris":{"android":"levelo://app?vid=ab072cc3-15d5-4867-b6bc-de7623a55c2e","ios":"levelo://app?vid=ab072cc3-15d5-4867-b6bc-de7623a55c2e"},"vehicle_type_id":"4","last_reported":1741108117,"current_range_meters":12400,"station_id":"ce4bhi12rcd13ifvqfo0","pricing_plan_id":"cebpf4jnsgd1na2vs0mg"},{"bike_id":"2f6bb5ff-cac8-467c-9e7d-b7c0dd886a05","system_id":"levelo_inurba_marseille","lat":43.29254,"lon":5.37619,"is_reserved":false,"is_disabled":false,"rental_uris":{"android":"levelo://app?vid=2f6bb5ff-cac8-467c-9e7d-b7c0dd886a05","ios":"levelo://app?vid=2f6bb5ff-cac8-467c-9e7d-b7c0dd886a05"},"vehicle_type_id":"4","last_reported":1741108117,"current_range_meters":12000,"station_id":"ce4bgi12rcd13ifvqb80","pricing_plan_id":"cebpf4jnsgd1na2vs0mg"},{"bike_id":"1c5da8b3-f817-4ce3-a4e4-95a9fe584e18","system_id":"levelo_inurba_marseille","lat":43.23196,"lon":5.35555,"is_reserved":false,"is_disabled":false,"rental_uris":{"android":"levelo://app?vid=1c5da8b3-f817-4ce3-a4e4-95a9fe584e18","ios":"levelo://app?vid=1c5da8b3-f817-4ce3-a4e4-95a9fe584e18"},"vehicle_type_id":"4","last_reported":1741108117,"current_range_meters":12000,"station_id":"ce4bhu92rcd13ifvqi70","pricing_plan_id":"cebpf4jnsgd1na2vs0mg"},{"bike_id":"b06e6ff2-83d1-4cc8-ab3f-ae199b7d296e","system_id":"levelo_inurba_marseille","lat":43.2965,"lon":5.37776,"is_reserved":false,"is_disabled":false,"rental_uris":{"android":"levelo://app?vid=b06e6ff2-83d1-4cc8-ab3f-ae199b7d296e","ios":"levelo://app?vid=b06e6ff2-83d1-4cc8-ab3f-ae199b7d296e"},"vehicle_type_id":"4","last_reported":1741108117,"current_range_meters":12000,"station_id":"","pricing_plan_id":"cebpf4jnsgd1na2vs0mg"},{"bike_id":"3b1a2be8-40b6-4fdb-934d-2f6321c06e93","system_id":"levelo_inurba_marseille","lat":43.26486,"lon":5.39566,"is_reserved":false,"is_disabled":false,"rental_uris":{"android":"levelo://app?vid=3b1a2be8-40b6-4fdb-934d-2f6321c06e93","ios":"levelo://app?vid=3b1a2be8-40b6-4fdb-934d-2f6321c06e93"},"vehicle_type_id":"4","last_reported":1741108117,"current_range_meters":12400,"station_id":"ce4bhi12rcd13ifvqfq0","pricing_plan_id":"cebpf4jnsgd1na2vs0mg"},{"bike_id":"beed5a3a-a05b-4776-bd29-a07060d5d89a","system_id":"levelo_inurba_marseille","lat":43.29021,"lon":5.39993,"is_reserved":false,"is_disabled":false,"rental_uris":{"android":"levelo://app?vid=beed5a3a-a05b-4776-bd29-a07060d5d89a","ios":"levelo://app?vid=beed5a3a-a05b-4776-bd29-a07060d5d89a"},"vehicle_type_id":"4","last_reported":1741108117,"current_range_meters":12000,"station_id":"ce4bhh92rcd13ifvqfi0","pricing_plan_id":"cebpf4jnsgd1na2vs0mg"},{"bike_id":"051c1bd3-badf-4850-b553-f9d006e61de3","system_id":"levelo_inurba_marseille","lat":43.28486,"lon":5.3856,"is_reserved":false,"is_disabled":false,"rental_uris":{"android":"levelo://app?vid=051c1bd3-badf-4850-b553-f9d006e61de3","ios":"levelo://app?vid=051c1bd3-badf-4850-b553-f9d006e61de3"},"vehicle_type_id":"4","last_reported":1741108117,"current_range_meters":12000,"station_id":"ce4bh8p2rcd13ifvqeb0","pricing_plan_id":"cebpf4jnsgd1na2vs0mg"},{"bike_id":"51f6f578-8898-487a-9da7-ff3d6d379d1b","system_id":"levelo_inurba_marseille","lat":43.32104,"lon":5.36777,"is_reserved":false,"is_disabled":false,"rental_uris":{"android":"levelo://app?vid=51f6f578-8898-487a-9da7-ff3d6d379d1b","ios":"levelo://app?vid=51f6f578-8898-487a-9da7-ff3d6d379d1b"},"vehicle_type_id":"4","last_reported":1741108117,"current_range_meters":12400,"station_id":"ce4bhrh2rcd13ifvqhug","pricing_plan_id":"cebpf4jnsgd1na2vs0mg"},{"bike_id":"4c0e314a-87e2-48f0-a7b0-ec6605046de8","system_id":"levelo_inurba_marseille","lat":43.32106,"lon":5.36784,"is_reserved":false,"is_disabled":false,"rental_uris":{"android":"levelo://app?vid=4c0e314a-87e2-48f0-a7b0-ec6605046de8","ios":"levelo://app?vid=4c0e314a-87e2-48f0-a7b0-ec6605046de8"},"vehicle_type_id":"4","last_reported":1741108117,"current_range_meters":12400,"station_id":"ce4bhrh2rcd13ifvqhug","pricing_plan_id":"cebpf4jnsgd1na2vs0mg"},{"bike_id":"0122c1c3-b417-4093-9107-12ae15086493","system_id":"levelo_inurba_marseille","lat":43.31328,"lon":5.39701,"is_reserved":false,"is_disabled":false,"rental_uris":{"android":"levelo://app?vid=0122c1c3-b417-4093-9107-12ae15086493","ios":"levelo://app?vid=0122c1c3-b417-4093-9107-12ae15086493"},"vehicle_type_id":"4","last_reported":1741108117,"current_range_meters":12800,"station_id":"ce4bgvp2rcd13ifvqcu0","pricing_plan_id":"cebpf4jnsgd1na2vs0mg"},{"bike_id":"6077a9b4-d2ff-4b90-bb78-3c388c992bfe","system_id":"levelo_inurba_marseille","lat":43.31325,"lon":5.39693,"is_reserved":false,"is_disabled":false,"rental_uris":{"android":"levelo://app?vid=6077a9b4-d2ff-4b90-bb78-3c388c992bfe","ios":"levelo://app?vid=6077a9b4-d2ff-4b90-bb78-3c388c992bfe"},"vehicle_type_id":"4","last_reported":1741108117,"current_range_meters":12800,"station_id":"ce4bgvp2rcd13ifvqcu0","pricing_plan_id":"cebpf4jnsgd1na2vs0mg"},{"bike_id":"6ea8ab5c-65c2-4db6-8cb6-dfdbe5b30189","system_id":"levelo_inurba_marseille","lat":43.32361,"lon":5.38888,"is_reserved":false,"is_disabled":false,"rental_uris":{"android":"levelo://app?vid=6ea8ab5c-65c2-4db6-8cb6-dfdbe5b30189","ios":"levelo://app?vid=6ea8ab5c-65c2-4db6-8cb6-dfdbe5b30189"},"vehicle_type_id":"4","last_reported":1741108117,"current_range_meters":12800,"station_id":"ce4bhqp2rcd13ifvqhog","pricing_plan_id":"cebpf4jnsgd1na2vs0mg"},{"bike_id":"98a47fd5-b737-449c-a170-fd525e80150a","system_id":"levelo_inurba_marseille","lat":43.25725,"lon":5.41106,"is_reserved":false,"is_disabled":false,"rental_uris":{"android":"levelo://app?vid=98a47fd5-b737-449c-a170-fd525e80150a","ios":"levelo://app?vid=98a47fd5-b737-449c-a170-fd525e80150a"},"vehicle_type_id":"4","last_reported":1741108117,"current_range_meters":12800,"station_id":"ce4bhkp2rcd13ifvqgd0","pricing_plan_id":"cebpf4jnsgd1na2vs0mg"},{"bike_id":"0fa26cac-4335-4e98-a83f-d58c604085d7","system_id":"levelo_inurba_marseille","lat":43.31479,"lon":5.37309,"is_reserved":false,"is_disabled":false,"rental_uris":{"android":"levelo://app?vid=0fa26cac-4335-4e98-a83f-d58c604085d7","ios":"levelo://app?vid=0fa26cac-4335-4e98-a83f-d58c604085d7"},"vehicle_type_id":"4","last_reported":1741108117,"current_range_meters":13600,"station_id":"ce4bgt12rcd13ifvqcd0","pricing_plan_id":"cebpf4jnsgd1na2vs0mg"},{"bike_id":"e94a5fce-6bea-4c6b-a4fa-535f0a096198","system_id":"levelo_inurba_marseille","lat":43.27809,"lon":5.40714,"is_reserved":false,"is_disabled":false,"rental_uris":{"android":"levelo://app?vid=e94a5fce-6bea-4c6b-a4fa-535f0a096198","ios":"levelo://app?vid=e94a5fce-6bea-4c6b-a4fa-535f0a096198"},"vehicle_type_id":"4","last_reported":1741108117,"current_range_meters":13600,"station_id":"ce4bhnh2rcd13ifvqgtg","pricing_plan_id":"cebpf4jnsgd1na2vs0mg"},{"bike_id":"4167f6bd-40b7-45c1-950d-68f467926bd6","system_id":"levelo_inurba_marseille","lat":43.289844,"lon":5.378368,"is_reserved":false,"is_disabled":true,"rental_uris":{"android":"levelo://app?vid=4167f6bd-40b7-45c1-950d-68f467926bd6","ios":"levelo://app?vid=4167f6bd-40b7-45c1-950d-68f467926bd6"},"vehicle_type_id":"4","last_reported":1741108117,"current_range_meters":13600,"station_id":"ce4bh9p2rcd13ifvqed0","pricing_plan_id":"cebpf4jnsgd1na2vs0mg"},{"bike_id":"0cd86f0a-25ae-45b4-bfed-ac118cb7b04a","system_id":"levelo_inurba_marseille","lat":43.31702,"lon":5.37727,"is_reserved":false,"is_disabled":false,"rental_uris":{"android":"levelo://app?vid=0cd86f0a-25ae-45b4-bfed-ac118cb7b04a","ios":"levelo://app?vid=0cd86f0a-25ae-45b4-bfed-ac118cb7b04a"},"vehicle_type_id":"4","last_reported":1741108117,"current_range_meters":13600,"station_id":"ce4bgth2rcd13ifvqch0","pricing_plan_id":"cebpf4jnsgd1na2vs0mg"},{"bike_id":"3cc4cb73-fa2a-4201-9ce0-bd165d23d35b","system_id":"levelo_inurba_marseille","lat":43.29277,"lon":5.37636,"is_reserved":false,"is_disabled":false,"rental_uris":{"android":"levelo://app?vid=3cc4cb73-fa2a-4201-9ce0-bd165d23d35b","ios":"levelo://app?vid=3cc4cb73-fa2a-4201-9ce0-bd165d23d35b"},"vehicle_type_id":"4","last_reported":1741108117,"current_range_meters":13600,"station_id":"ce4bgi12rcd13ifvqb80","pricing_plan_id":"cebpf4jnsgd1na2vs0mg"},{"bike_id":"5447a901-ad0e-4acf-b64d-784abbc2d4de","system_id":"levelo_inurba_marseille","lat":43.27674,"lon":5.38877,"is_reserved":false,"is_disabled":false,"rental_uris":{"android":"levelo://app?vid=5447a901-ad0e-4acf-b64d-784abbc2d4de","ios":"levelo://app?vid=5447a901-ad0e-4acf-b64d-784abbc2d4de"},"vehicle_type_id":"4","last_reported":1741108117,"current_range_meters":13600,"station_id":"ce4bhi12rcd13ifvqfo0","pricing_plan_id":"cebpf4jnsgd1na2vs0mg"},{"bike_id":"394a45dc-fce1-4e5d-8fad-9e36111e03e9","system_id":"levelo_inurba_marseille","lat":43.298677,"lon":5.397378,"is_reserved":false,"is_disabled":false,"rental_uris":{"android":"levelo://app?vid=394a45dc-fce1-4e5d-8fad-9e36111e03e9","ios":"levelo://app?vid=394a45dc-fce1-4e5d-8fad-9e36111e03e9"},"vehicle_type_id":"4","last_reported":1741108117,"current_range_meters":14000,"station_id":"","pricing_plan_id":"cebpf4jnsgd1na2vs0mg"},{"bike_id":"a47a13a9-c176-4f2b-bca1-9dd7e5a64881","system_id":"levelo_inurba_marseille","lat":43.30913,"lon":5.40155,"is_reserved":false,"is_disabled":true,"rental_uris":{"android":"levelo://app?vid=a47a13a9-c176-4f2b-bca1-9dd7e5a64881","ios":"levelo://app?vid=a47a13a9-c176-4f2b-bca1-9dd7e5a64881"},"vehicle_type_id":"4","last_reported":1741108117,"current_range_meters":14000,"station_id":"ce4bgvp2rcd13ifvqct0","pricing_plan_id":"cebpf4jnsgd1na2vs0mg"},{"bike_id":"82686e65-c111-4b54-951c-660dc2783d79","system_id":"levelo_inurba_marseille","lat":43.26577,"lon":5.39004,"is_reserved":false,"is_disabled":false,"rental_uris":{"android":"levelo://app?vid=82686e65-c111-4b54-951c-660dc2783d79","ios":"levelo://app?vid=82686e65-c111-4b54-951c-660dc2783d79"},"vehicle_type_id":"4","last_reported":1741108117,"current_range_meters":14000,"station_id":"ce4bhe12rcd13ifvqf30","pricing_plan_id":"cebpf4jnsgd1na2vs0mg"},{"bike_id":"d79b5190-164e-4d77-a3b5-0badae2543eb","system_id":"levelo_inurba_marseille","lat":43.2512,"lon":5.40317,"is_reserved":false,"is_disabled":false,"rental_uris":{"android":"levelo://app?vid=d79b5190-164e-4d77-a3b5-0badae2543eb","ios":"levelo://app?vid=d79b5190-164e-4d77-a3b5-0badae2543eb"},"vehicle_type_id":"4","last_reported":1741108117,"current_range_meters":14000,"station_id":"ce4bhlh2rcd13ifvqgig","pricing_plan_id":"cebpf4jnsgd1na2vs0mg"},{"bike_id":"f8b34b05-3ce8-4023-b46a-493d367bd4f6","system_id":"levelo_inurba_marseille","lat":43.27191,"lon":5.40973,"is_reserved":false,"is_disabled":false,"rental_uris":{"android":"levelo://app?vid=f8b34b05-3ce8-4023-b46a-493d367bd4f6","ios":"levelo://app?vid=f8b34b05-3ce8-4023-b46a-493d367bd4f6"},"vehicle_type_id":"4","last_reported":1741108117,"current_range_meters":14000,"station_id":"ce4bhl12rcd13ifvqgf0","pricing_plan_id":"cebpf4jnsgd1na2vs0mg"},{"bike_id":"53370df7-9791-4141-8ab6-479eee9f8d86","system_id":"levelo_inurba_marseille","lat":43.29808,"lon":5.43603,"is_reserved":false,"is_disabled":false,"rental_uris":{"android":"levelo://app?vid=53370df7-9791-4141-8ab6-479eee9f8d86","ios":"levelo://app?vid=53370df7-9791-4141-8ab6-479eee9f8d86"},"vehicle_type_id":"4","last_reported":1741108117,"current_range_meters":14000,"station_id":"","pricing_plan_id":"cebpf4jnsgd1na2vs0mg"},{"bike_id":"0eb9fef3-83c8-47c8-ad9e-cfe2998c47d1","system_id":"levelo_inurba_marseille","lat":43.31042,"lon":5.37565,"is_reserved":false,"is_disabled":false,"rental_uris":{"android":"levelo://app?vid=0eb9fef3-83c8-47c8-ad9e-cfe2998c47d1","ios":"levelo://app?vid=0eb9fef3-83c8-47c8-ad9e-cfe2998c47d1"},"vehicle_type_id":"4","last_reported":1741108117,"current_range_meters":14400,"station_id":"","pricing_plan_id":"cebpf4jnsgd1na2vs0mg"},{"bike_id":"7a82949f-2920-40a3-a0df-21a11d05302b","system_id":"levelo_inurba_marseille","lat":43.29197,"lon":5.39312,"is_reserved":false,"is_disabled":false,"rental_uris":{"android":"levelo://app?vid=7a82949f-2920-40a3-a0df-21a11d05302b","ios":"levelo://app?vid=7a82949f-2920-40a3-a0df-21a11d05302b"},"vehicle_type_id":"4","last_reported":1741108117,"current_range_meters":14400,"station_id":"ce4bh192rcd13ifvqdd0","pricing_plan_id":"cebpf4jnsgd1na2vs0mg"},{"bike_id":"7cd5e07c-ad2a-4af8-99d9-77c41335ce79","system_id":"levelo_inurba_marseille","lat":43.241681,"lon":5.363938,"is_reserved":false,"is_disabled":false,"rental_uris":{"android":"levelo://app?vid=7cd5e07c-ad2a-4af8-99d9-77c41335ce79","ios":"levelo://app?vid=7cd5e07c-ad2a-4af8-99d9-77c41335ce79"},"vehicle_type_id":"4","last_reported":1741108117,"current_range_meters":14400,"station_id":"cpo36qri1sfpv3e86is0","pricing_plan_id":"cebpf4jnsgd1na2vs0mg"},{"bike_id":"62abbf65-fdb4-4039-8d17-a6787ca98437","system_id":"levelo_inurba_marseille","lat":43.26486,"lon":5.39537,"is_reserved":false,"is_disabled":true,"rental_uris":{"android":"levelo://app?vid=62abbf65-fdb4-4039-8d17-a6787ca98437","ios":"levelo://app?vid=62abbf65-fdb4-4039-8d17-a6787ca98437"},"vehicle_type_id":"4","last_reported":1741108117,"current_range_meters":14400,"station_id":"ce4bhi12rcd13ifvqfq0","pricing_plan_id":"cebpf4jnsgd1na2vs0mg"},{"bike_id":"d571166c-77a4-4a91-b051-9cc34ad31336","system_id":"levelo_inurba_marseille","lat":43.30205,"lon":5.39313,"is_reserved":false,"is_disabled":false,"rental_uris":{"android":"levelo://app?vid=d571166c-77a4-4a91-b051-9cc34ad31336","ios":"levelo://app?vid=d571166c-77a4-4a91-b051-9cc34ad31336"},"vehicle_type_id":"4","last_reported":1741108117,"current_range_meters":14400,"station_id":"","pricing_plan_id":"cebpf4jnsgd1na2vs0mg"},{"bike_id":"8d906772-f462-4654-8be7-b8fc740ebd1c","system_id":"levelo_inurba_marseille","lat":43.29532,"lon":5.38538,"is_reserved":false,"is_disabled":false,"rental_uris":{"android":"levelo://app?vid=8d906772-f462-4654-8be7-b8fc740ebd1c","ios":"levelo://app?vid=8d906772-f462-4654-8be7-b8fc740ebd1c"},"vehicle_type_id":"4","last_reported":1741108117,"current_range_meters":14400,"station_id":"ce4bgih2rcd13ifvqba0","pricing_plan_id":"cebpf4jnsgd1na2vs0mg"},{"bike_id":"a171e9d9-95da-4cfa-aaec-d6adfc116969","system_id":"levelo_inurba_marseille","lat":43.23153,"lon":5.43719,"is_reserved":false,"is_disabled":false,"rental_uris":{"android":"levelo://app?vid=a171e9d9-95da-4cfa-aaec-d6adfc116969","ios":"levelo://app?vid=a171e9d9-95da-4cfa-aaec-d6adfc116969"},"vehicle_type_id":"4","last_reported":1741108117,"current_range_meters":14800,"station_id":"ce4bhmp2rcd13ifvqgog","pricing_plan_id":"cebpf4jnsgd1na2vs0mg"},{"bike_id":"cae13070-32c9-4161-b60c-98d184c94e45","system_id":"levelo_inurba_marseille","lat":43.26804,"lon":5.4027,"is_reserved":false,"is_disabled":false,"rental_uris":{"android":"levelo://app?vid=cae13070-32c9-4161-b60c-98d184c94e45","ios":"levelo://app?vid=cae13070-32c9-4161-b60c-98d184c94e45"},"vehicle_type_id":"4","last_reported":1741108117,"current_range_meters":14800,"station_id":"ce501612rcd8frsf0b60","pricing_plan_id":"cebpf4jnsgd1na2vs0mg"},{"bike_id":"2dccb468-c79a-4964-bfca-1d104aecfaa2","system_id":"levelo_inurba_marseille","lat":43.26555,"lon":5.37291,"is_reserved":false,"is_disabled":false,"rental_uris":{"android":"levelo://app?vid=2dccb468-c79a-4964-bfca-1d104aecfaa2","ios":"levelo://app?vid=2dccb468-c79a-4964-bfca-1d104aecfaa2"},"vehicle_type_id":"4","last_reported":1741108117,"current_range_meters":14800,"station_id":"ce4bhg12rcd13ifvqf70","pricing_plan_id":"cebpf4jnsgd1na2vs0mg"},{"bike_id":"9636ad97-a520-4ec9-a995-b3e6df223e35","system_id":"levelo_inurba_marseille","lat":43.25579,"lon":5.38234,"is_reserved":false,"is_disabled":false,"rental_uris":{"android":"levelo://app?vid=9636ad97-a520-4ec9-a995-b3e6df223e35","ios":"levelo://app?vid=9636ad97-a520-4ec9-a995-b3e6df223e35"},"vehicle_type_id":"4","last_reported":1741108117,"current_range_meters":14800,"station_id":"ce4bhih2rcd13ifvqfs0","pricing_plan_id":"cebpf4jnsgd1na2vs0mg"},{"bike_id":"d7697f21-5a88-422c-b504-437af1eb3924","system_id":"levelo_inurba_marseille","lat":43.28419,"lon":5.34972,"is_reserved":false,"is_disabled":false,"rental_uris":{"android":"levelo://app?vid=d7697f21-5a88-422c-b504-437af1eb3924","ios":"levelo://app?vid=d7697f21-5a88-422c-b504-437af1eb3924"},"vehicle_type_id":"4","last_reported":1741108117,"current_range_meters":14800,"station_id":"ce4bhbh2rcd13ifvqepg","pricing_plan_id":"cebpf4jnsgd1na2vs0mg"},{"bike_id":"609d208b-671a-4307-bef8-b65f40ed5124","system_id":"levelo_inurba_marseille","lat":43.28702,"lon":5.39982,"is_reserved":false,"is_disabled":false,"rental_uris":{"android":"levelo://app?vid=609d208b-671a-4307-bef8-b65f40ed5124","ios":"levelo://app?vid=609d208b-671a-4307-bef8-b65f40ed5124"},"vehicle_type_id":"4","last_reported":1741108117,"current_range_meters":14800,"station_id":"ce4bho92rcd13ifvqh3g","pricing_plan_id":"cebpf4jnsgd1na2vs0mg"},{"bike_id":"547e5d18-de98-4232-90a8-5e4a6673204f","system_id":"levelo_inurba_marseille","lat":43.29515,"lon":5.39401,"is_reserved":false,"is_disabled":false,"rental_uris":{"android":"levelo://app?vid=547e5d18-de98-4232-90a8-5e4a6673204f","ios":"levelo://app?vid=547e5d18-de98-4232-90a8-5e4a6673204f"},"vehicle_type_id":"4","last_reported":1741108117,"current_range_meters":15200,"station_id":"ce4bh292rcd13ifvqdf0","pricing_plan_id":"cebpf4jnsgd1na2vs0mg"},{"bike_id":"3adb599d-782c-40c9-979c-90b3767df10a","system_id":"levelo_inurba_marseille","lat":43.2893,"lon":5.36648,"is_reserved":false,"is_disabled":false,"rental_uris":{"android":"levelo://app?vid=3adb599d-782c-40c9-979c-90b3767df10a","ios":"levelo://app?vid=3adb599d-782c-40c9-979c-90b3767df10a"},"vehicle_type_id":"4","last_reported":1741108117,"current_range_meters":15200,"station_id":"ce4bhap2rcd13ifvqek0","pricing_plan_id":"cebpf4jnsgd1na2vs0mg"},{"bike_id":"03d5bd23-db2c-4a3d-9573-a1403447f741","system_id":"levelo_inurba_marseille","lat":43.27812,"lon":5.40728,"is_reserved":false,"is_disabled":false,"rental_uris":{"android":"levelo://app?vid=03d5bd23-db2c-4a3d-9573-a1403447f741","ios":"levelo://app?vid=03d5bd23-db2c-4a3d-9573-a1403447f741"},"vehicle_type_id":"4","last_reported":1741108117,"current_range_meters":15200,"station_id":"ce4bhnh2rcd13ifvqgtg","pricing_plan_id":"cebpf4jnsgd1na2vs0mg"},{"bike_id":"2a1e8839-016e-4a9a-b770-d8ced0aed47c","system_id":"levelo_inurba_marseille","lat":43.2808,"lon":5.39662,"is_reserved":false,"is_disabled":false,"rental_uris":{"android":"levelo://app?vid=2a1e8839-016e-4a9a-b770-d8ced0aed47c","ios":"levelo://app?vid=2a1e8839-016e-4a9a-b770-d8ced0aed47c"},"vehicle_type_id":"4","last_reported":1741108117,"current_range_meters":14800,"station_id":"ce4bho12rcd13ifvqh2g","pricing_plan_id":"cebpf4jnsgd1na2vs0mg"},{"bike_id":"1dea6fe4-9009-4cba-8a00-f30b450b2de7","system_id":"levelo_inurba_marseille","lat":43.27177,"lon":5.40994,"is_reserved":false,"is_disabled":false,"rental_uris":{"android":"levelo://app?vid=1dea6fe4-9009-4cba-8a00-f30b450b2de7","ios":"levelo://app?vid=1dea6fe4-9009-4cba-8a00-f30b450b2de7"},"vehicle_type_id":"4","last_reported":1741108117,"current_range_meters":15200,"station_id":"ce4bhl12rcd13ifvqgf0","pricing_plan_id":"cebpf4jnsgd1na2vs0mg"},{"bike_id":"1d6310c7-9151-4c08-ae46-5e7a54eeb386","system_id":"levelo_inurba_marseille","lat":43.29046,"lon":5.39959,"is_reserved":false,"is_disabled":false,"rental_uris":{"android":"levelo://app?vid=1d6310c7-9151-4c08-ae46-5e7a54eeb386","ios":"levelo://app?vid=1d6310c7-9151-4c08-ae46-5e7a54eeb386"},"vehicle_type_id":"4","last_reported":1741108117,"current_range_meters":15200,"station_id":"ce4bh392rcd13ifvqdm0","pricing_plan_id":"cebpf4jnsgd1na2vs0mg"},{"bike_id":"d78dc5bc-f92c-4b72-9d27-7d6c096fa879","system_id":"levelo_inurba_marseille","lat":43.30142,"lon":5.39862,"is_reserved":false,"is_disabled":false,"rental_uris":{"android":"levelo://app?vid=d78dc5bc-f92c-4b72-9d27-7d6c096fa879","ios":"levelo://app?vid=d78dc5bc-f92c-4b72-9d27-7d6c096fa879"},"vehicle_type_id":"4","last_reported":1741108117,"current_range_meters":15200,"station_id":"ce4bh0h2rcd13ifvqd40","pricing_plan_id":"cebpf4jnsgd1na2vs0mg"},{"bike_id":"63a7adc4-b03b-466f-ab59-3fe3a9a9a8ca","system_id":"levelo_inurba_marseille","lat":43.26779,"lon":5.39413,"is_reserved":false,"is_disabled":false,"rental_uris":{"android":"levelo://app?vid=63a7adc4-b03b-466f-ab59-3fe3a9a9a8ca","ios":"levelo://app?vid=63a7adc4-b03b-466f-ab59-3fe3a9a9a8ca"},"vehicle_type_id":"4","last_reported":1741108117,"current_range_meters":15200,"station_id":"ce4bhh12rcd13ifvqfg0","pricing_plan_id":"cebpf4jnsgd1na2vs0mg"},{"bike_id":"06393245-0c31-4d56-aa43-30ec9bc3df3b","system_id":"levelo_inurba_marseille","lat":43.30906,"lon":5.36838,"is_reserved":false,"is_disabled":false,"rental_uris":{"android":"levelo://app?vid=06393245-0c31-4d56-aa43-30ec9bc3df3b","ios":"levelo://app?vid=06393245-0c31-4d56-aa43-30ec9bc3df3b"},"vehicle_type_id":"4","last_reported":1741108117,"current_range_meters":15200,"station_id":"ce4bgn92rcd13ifvqbvg","pricing_plan_id":"cebpf4jnsgd1na2vs0mg"},{"bike_id":"063d94cb-36ac-40ab-9f36-c5d59567ae27","system_id":"levelo_inurba_marseille","lat":43.27913,"lon":5.39581,"is_reserved":false,"is_disabled":false,"rental_uris":{"android":"levelo://app?vid=063d94cb-36ac-40ab-9f36-c5d59567ae27","ios":"levelo://app?vid=063d94cb-36ac-40ab-9f36-c5d59567ae27"},"vehicle_type_id":"4","last_reported":1741108117,"current_range_meters":16000,"station_id":"ce4bhf92rcd13ifvqf40","pricing_plan_id":"cebpf4jnsgd1na2vs0mg"},{"bike_id":"28096b7f-96ae-4ea2-8ceb-2396385a6306","system_id":"levelo_inurba_marseille","lat":43.2464,"lon":5.38922,"is_reserved":false,"is_disabled":true,"rental_uris":{"android":"levelo://app?vid=28096b7f-96ae-4ea2-8ceb-2396385a6306","ios":"levelo://app?vid=28096b7f-96ae-4ea2-8ceb-2396385a6306"},"vehicle_type_id":"4","last_reported":1741108117,"current_range_meters":16000,"station_id":"ce4bhg12rcd13ifvqf60","pricing_plan_id":"cebpf4jnsgd1na2vs0mg"},{"bike_id":"af78da3b-c4d9-4c98-8da7-a243aedee3fb","system_id":"levelo_inurba_marseille","lat":43.30565,"lon":5.37552,"is_reserved":false,"is_disabled":false,"rental_uris":{"android":"levelo://app?vid=af78da3b-c4d9-4c98-8da7-a243aedee3fb","ios":"levelo://app?vid=af78da3b-c4d9-4c98-8da7-a243aedee3fb"},"vehicle_type_id":"4","last_reported":1741108117,"current_range_meters":16000,"station_id":"","pricing_plan_id":"cebpf4jnsgd1na2vs0mg"},{"bike_id":"ebde8550-d672-4877-a6f4-17b655cbc38c","system_id":"levelo_inurba_marseille","lat":43.29535,"lon":5.38544,"is_reserved":false,"is_disabled":false,"rental_uris":{"android":"levelo://app?vid=ebde8550-d672-4877-a6f4-17b655cbc38c","ios":"levelo://app?vid=ebde8550-d672-4877-a6f4-17b655cbc38c"},"vehicle_type_id":"4","last_reported":1741108117,"current_range_meters":16000,"station_id":"ce4bgih2rcd13ifvqba0","pricing_plan_id":"cebpf4jnsgd1na2vs0mg"},{"bike_id":"b0bcb438-1190-4ea8-8810-af64f1b2db8f","system_id":"levelo_inurba_marseille","lat":43.2438,"lon":5.39153,"is_reserved":false,"is_disabled":false,"rental_uris":{"android":"levelo://app?vid=b0bcb438-1190-4ea8-8810-af64f1b2db8f","ios":"levelo://app?vid=b0bcb438-1190-4ea8-8810-af64f1b2db8f"},"vehicle_type_id":"4","last_reported":1741108117,"current_range_meters":16000,"station_id":"","pricing_plan_id":"cebpf4jnsgd1na2vs0mg"},{"bike_id":"faa0e53b-ed8c-44c5-9ce8-c06a5973460c","system_id":"levelo_inurba_marseille","lat":43.29286,"lon":5.4012,"is_reserved":false,"is_disabled":false,"rental_uris":{"android":"levelo://app?vid=faa0e53b-ed8c-44c5-9ce8-c06a5973460c","ios":"levelo://app?vid=faa0e53b-ed8c-44c5-9ce8-c06a5973460c"},"vehicle_type_id":"4","last_reported":1741108117,"current_range_meters":16400,"station_id":"ce4bh312rcd13ifvqdk0","pricing_plan_id":"cebpf4jnsgd1na2vs0mg"},{"bike_id":"4af072f6-fa8c-4cf6-abc7-9ef7fbc1e43d","system_id":"levelo_inurba_marseille","lat":43.30903,"lon":5.40143,"is_reserved":false,"is_disabled":false,"rental_uris":{"android":"levelo://app?vid=4af072f6-fa8c-4cf6-abc7-9ef7fbc1e43d","ios":"levelo://app?vid=4af072f6-fa8c-4cf6-abc7-9ef7fbc1e43d"},"vehicle_type_id":"4","last_reported":1741108117,"current_range_meters":16400,"station_id":"ce4bgvp2rcd13ifvqct0","pricing_plan_id":"cebpf4jnsgd1na2vs0mg"},{"bike_id":"cd6daa3a-07f9-42ed-90a2-4f41a2e8d311","system_id":"levelo_inurba_marseille","lat":43.30221,"lon":5.39471,"is_reserved":false,"is_disabled":false,"rental_uris":{"android":"levelo://app?vid=cd6daa3a-07f9-42ed-90a2-4f41a2e8d311","ios":"levelo://app?vid=cd6daa3a-07f9-42ed-90a2-4f41a2e8d311"},"vehicle_type_id":"4","last_reported":1741108117,"current_range_meters":16400,"station_id":"ce4bh0p2rcd13ifvqd70","pricing_plan_id":"cebpf4jnsgd1na2vs0mg"},{"bike_id":"95af3f61-11f3-48c0-a765-258073df16be","system_id":"levelo_inurba_marseille","lat":43.24804,"lon":5.37455,"is_reserved":false,"is_disabled":false,"rental_uris":{"android":"levelo://app?vid=95af3f61-11f3-48c0-a765-258073df16be","ios":"levelo://app?vid=95af3f61-11f3-48c0-a765-258073df16be"},"vehicle_type_id":"4","last_reported":1741108117,"current_range_meters":16400,"station_id":"ce4bhgh2rcd13ifvqfb0","pricing_plan_id":"cebpf4jnsgd1na2vs0mg"},{"bike_id":"8fce11ba-9fcc-4bd8-9a46-721886e64f6f","system_id":"levelo_inurba_marseille","lat":43.29528,"lon":5.38542,"is_reserved":false,"is_disabled":false,"rental_uris":{"android":"levelo://app?vid=8fce11ba-9fcc-4bd8-9a46-721886e64f6f","ios":"levelo://app?vid=8fce11ba-9fcc-4bd8-9a46-721886e64f6f"},"vehicle_type_id":"4","last_reported":1741108117,"current_range_meters":16400,"station_id":"ce4bgih2rcd13ifvqba0","pricing_plan_id":"cebpf4jnsgd1na2vs0mg"},{"bike_id":"946e4ecf-fad9-4839-b716-fff17ccb476d","system_id":"levelo_inurba_marseille","lat":43.32328,"lon":5.38942,"is_reserved":false,"is_disabled":false,"rental_uris":{"android":"levelo://app?vid=946e4ecf-fad9-4839-b716-fff17ccb476d","ios":"levelo://app?vid=946e4ecf-fad9-4839-b716-fff17ccb476d"},"vehicle_type_id":"4","last_reported":1741108117,"current_range_meters":16400,"station_id":"ce4bhqp2rcd13ifvqhog","pricing_plan_id":"cebpf4jnsgd1na2vs0mg"},{"bike_id":"096facb4-48e3-4656-b41a-55c4d328e711","system_id":"levelo_inurba_marseille","lat":43.30931,"lon":5.40142,"is_reserved":false,"is_disabled":false,"rental_uris":{"android":"levelo://app?vid=096facb4-48e3-4656-b41a-55c4d328e711","ios":"levelo://app?vid=096facb4-48e3-4656-b41a-55c4d328e711"},"vehicle_type_id":"4","last_reported":1741108117,"current_range_meters":16400,"station_id":"ce4bgvp2rcd13ifvqct0","pricing_plan_id":"cebpf4jnsgd1na2vs0mg"},{"bike_id":"46092b38-fd21-4477-9698-fb82636c56e4","system_id":"levelo_inurba_marseille","lat":43.28436,"lon":5.39195,"is_reserved":false,"is_disabled":false,"rental_uris":{"android":"levelo://app?vid=46092b38-fd21-4477-9698-fb82636c56e4","ios":"levelo://app?vid=46092b38-fd21-4477-9698-fb82636c56e4"},"vehicle_type_id":"4","last_reported":1741108117,"current_range_meters":16000,"station_id":"ce4bhoh2rcd13ifvqh5g","pricing_plan_id":"cebpf4jnsgd1na2vs0mg"},{"bike_id":"0dff6b47-13e9-42e7-868d-e7577fd379d5","system_id":"levelo_inurba_marseille","lat":43.278413,"lon":5.392092,"is_reserved":false,"is_disabled":false,"rental_uris":{"android":"levelo://app?vid=0dff6b47-13e9-42e7-868d-e7577fd379d5","ios":"levelo://app?vid=0dff6b47-13e9-42e7-868d-e7577fd379d5"},"vehicle_type_id":"4","last_reported":1741108117,"current_range_meters":16400,"station_id":"ce4bhjp2rcd13ifvqga0","pricing_plan_id":"cebpf4jnsgd1na2vs0mg"},{"bike_id":"a630f00f-c2ac-4910-8d1a-aeee1d96880e","system_id":"levelo_inurba_marseille","lat":43.27999,"lon":5.40006,"is_reserved":false,"is_disabled":false,"rental_uris":{"android":"levelo://app?vid=a630f00f-c2ac-4910-8d1a-aeee1d96880e","ios":"levelo://app?vid=a630f00f-c2ac-4910-8d1a-aeee1d96880e"},"vehicle_type_id":"4","last_reported":1741108117,"current_range_meters":16400,"station_id":"ce4bho92rcd13ifvqh4g","pricing_plan_id":"cebpf4jnsgd1na2vs0mg"},{"bike_id":"4c318e6f-45ad-4827-bf6b-ffb0059697a8","system_id":"levelo_inurba_marseille","lat":43.32282,"lon":5.405,"is_reserved":false,"is_disabled":false,"rental_uris":{"android":"levelo://app?vid=4c318e6f-45ad-4827-bf6b-ffb0059697a8","ios":"levelo://app?vid=4c318e6f-45ad-4827-bf6b-ffb0059697a8"},"vehicle_type_id":"4","last_reported":1741108117,"current_range_meters":16400,"station_id":"","pricing_plan_id":"cebpf4jnsgd1na2vs0mg"},{"bike_id":"0887995a-7163-48cf-a17f-e3237da9ea00","system_id":"levelo_inurba_marseille","lat":43.23173,"lon":5.39989,"is_reserved":false,"is_disabled":false,"rental_uris":{"android":"levelo://app?vid=0887995a-7163-48cf-a17f-e3237da9ea00","ios":"levelo://app?vid=0887995a-7163-48cf-a17f-e3237da9ea00"},"vehicle_type_id":"4","last_reported":1741108117,"current_range_meters":16400,"station_id":"ce4bhn12rcd13ifvqgqg","pricing_plan_id":"cebpf4jnsgd1na2vs0mg"},{"bike_id":"264cfc58-e8d1-4127-98ee-90cc1da4063c","system_id":"levelo_inurba_marseille","lat":43.31342,"lon":5.39709,"is_reserved":false,"is_disabled":false,"rental_uris":{"android":"levelo://app?vid=264cfc58-e8d1-4127-98ee-90cc1da4063c","ios":"levelo://app?vid=264cfc58-e8d1-4127-98ee-90cc1da4063c"},"vehicle_type_id":"4","last_reported":1741108117,"current_range_meters":16800,"station_id":"ce4bgvp2rcd13ifvqcu0","pricing_plan_id":"cebpf4jnsgd1na2vs0mg"},{"bike_id":"8f490366-d102-45b9-b48b-5cefacc92aba","system_id":"levelo_inurba_marseille","lat":43.32473,"lon":5.36565,"is_reserved":false,"is_disabled":false,"rental_uris":{"android":"levelo://app?vid=8f490366-d102-45b9-b48b-5cefacc92aba","ios":"levelo://app?vid=8f490366-d102-45b9-b48b-5cefacc92aba"},"vehicle_type_id":"4","last_reported":1741108117,"current_range_meters":16400,"station_id":"ce4bhs12rcd13ifvqhvg","pricing_plan_id":"cebpf4jnsgd1na2vs0mg"},{"bike_id":"4cc707dc-3c82-4b9e-a42f-eeb7e4b5b49c","system_id":"levelo_inurba_marseille","lat":43.28167,"lon":5.4265,"is_reserved":false,"is_disabled":false,"rental_uris":{"android":"levelo://app?vid=4cc707dc-3c82-4b9e-a42f-eeb7e4b5b49c","ios":"levelo://app?vid=4cc707dc-3c82-4b9e-a42f-eeb7e4b5b49c"},"vehicle_type_id":"4","last_reported":1741108117,"current_range_meters":16400,"station_id":"ce4bhnh2rcd13ifvqgug","pricing_plan_id":"cebpf4jnsgd1na2vs0mg"},{"bike_id":"48d8b9c0-d6bc-44f3-a4ef-4cd6141ef0ac","system_id":"levelo_inurba_marseille","lat":43.29227,"lon":5.36051,"is_reserved":false,"is_disabled":false,"rental_uris":{"android":"levelo://app?vid=48d8b9c0-d6bc-44f3-a4ef-4cd6141ef0ac","ios":"levelo://app?vid=48d8b9c0-d6bc-44f3-a4ef-4cd6141ef0ac"},"vehicle_type_id":"4","last_reported":1741108117,"current_range_meters":16800,"station_id":"ce4bhbh2rcd13ifvqeqg","pricing_plan_id":"cebpf4jnsgd1na2vs0mg"},{"bike_id":"cba6a766-3158-4fdc-849a-5887af830bdc","system_id":"levelo_inurba_marseille","lat":43.29243,"lon":5.38227,"is_reserved":false,"is_disabled":false,"rental_uris":{"android":"levelo://app?vid=cba6a766-3158-4fdc-849a-5887af830bdc","ios":"levelo://app?vid=cba6a766-3158-4fdc-849a-5887af830bdc"},"vehicle_type_id":"4","last_reported":1741108117,"current_range_meters":16800,"station_id":"","pricing_plan_id":"cebpf4jnsgd1na2vs0mg"},{"bike_id":"92f4ddfd-ac36-45bf-b839-b70e259a3987","system_id":"levelo_inurba_marseille","lat":43.27946,"lon":5.4105,"is_reserved":false,"is_disabled":false,"rental_uris":{"android":"levelo://app?vid=92f4ddfd-ac36-45bf-b839-b70e259a3987","ios":"levelo://app?vid=92f4ddfd-ac36-45bf-b839-b70e259a3987"},"vehicle_type_id":"4","last_reported":1741108117,"current_range_meters":16800,"station_id":"ce4bhnp2rcd13ifvqh0g","pricing_plan_id":"cebpf4jnsgd1na2vs0mg"},{"bike_id":"330426bc-0af9-4c3e-8e4c-6ec10833df11","system_id":"levelo_inurba_marseille","lat":43.298966,"lon":5.436694,"is_reserved":false,"is_disabled":false,"rental_uris":{"android":"levelo://app?vid=330426bc-0af9-4c3e-8e4c-6ec10833df11","ios":"levelo://app?vid=330426bc-0af9-4c3e-8e4c-6ec10833df11"},"vehicle_type_id":"4","last_reported":1741108117,"current_range_meters":16800,"station_id":"ce4bhpp2rcd13ifvqhfg","pricing_plan_id":"cebpf4jnsgd1na2vs0mg"},{"bike_id":"6a2b0cf1-e808-40be-ae07-ac62a48d5b1b","system_id":"levelo_inurba_marseille","lat":43.28254,"lon":5.40263,"is_reserved":false,"is_disabled":false,"rental_uris":{"android":"levelo://app?vid=6a2b0cf1-e808-40be-ae07-ac62a48d5b1b","ios":"levelo://app?vid=6a2b0cf1-e808-40be-ae07-ac62a48d5b1b"},"vehicle_type_id":"4","last_reported":1741108117,"current_range_meters":16800,"station_id":"","pricing_plan_id":"cebpf4jnsgd1na2vs0mg"},{"bike_id":"6989f629-aaff-4d0c-82b2-d76a766e7d23","system_id":"levelo_inurba_marseille","lat":43.29718,"lon":5.37691,"is_reserved":false,"is_disabled":false,"rental_uris":{"android":"levelo://app?vid=6989f629-aaff-4d0c-82b2-d76a766e7d23","ios":"levelo://app?vid=6989f629-aaff-4d0c-82b2-d76a766e7d23"},"vehicle_type_id":"4","last_reported":1741108117,"current_range_meters":16800,"station_id":"ce4bgkh2rcd13ifvqbl0","pricing_plan_id":"cebpf4jnsgd1na2vs0mg"},{"bike_id":"c6762606-6123-4176-98c0-430a38ac0378","system_id":"levelo_inurba_marseille","lat":43.24756,"lon":5.41166,"is_reserved":false,"is_disabled":false,"rental_uris":{"android":"levelo://app?vid=c6762606-6123-4176-98c0-430a38ac0378","ios":"levelo://app?vid=c6762606-6123-4176-98c0-430a38ac0378"},"vehicle_type_id":"4","last_reported":1741108117,"current_range_meters":16800,"station_id":"","pricing_plan_id":"cebpf4jnsgd1na2vs0mg"},{"bike_id":"9947a7f9-7c1e-4802-a8d7-d4abb1434cd5","system_id":"levelo_inurba_marseille","lat":43.28417,"lon":5.34981,"is_reserved":false,"is_disabled":false,"rental_uris":{"android":"levelo://app?vid=9947a7f9-7c1e-4802-a8d7-d4abb1434cd5","ios":"levelo://app?vid=9947a7f9-7c1e-4802-a8d7-d4abb1434cd5"},"vehicle_type_id":"4","last_reported":1741108117,"current_range_meters":16800,"station_id":"ce4bhbh2rcd13ifvqepg","pricing_plan_id":"cebpf4jnsgd1na2vs0mg"},{"bike_id":"3d5374f3-9802-4701-a976-d6bc1115bed8","system_id":"levelo_inurba_marseille","lat":43.33717,"lon":5.39187,"is_reserved":false,"is_disabled":false,"rental_uris":{"android":"levelo://app?vid=3d5374f3-9802-4701-a976-d6bc1115bed8","ios":"levelo://app?vid=3d5374f3-9802-4701-a976-d6bc1115bed8"},"vehicle_type_id":"4","last_reported":1741108117,"current_range_meters":17200,"station_id":"ce4bhr92rcd13ifvqhsg","pricing_plan_id":"cebpf4jnsgd1na2vs0mg"},{"bike_id":"c55557ad-1ed5-4997-aee7-ac92107f14b6","system_id":"levelo_inurba_marseille","lat":43.2646,"lon":5.37497,"is_reserved":false,"is_disabled":false,"rental_uris":{"android":"levelo://app?vid=c55557ad-1ed5-4997-aee7-ac92107f14b6","ios":"levelo://app?vid=c55557ad-1ed5-4997-aee7-ac92107f14b6"},"vehicle_type_id":"4","last_reported":1741108117,"current_range_meters":17200,"station_id":"","pricing_plan_id":"cebpf4jnsgd1na2vs0mg"},{"bike_id":"e8fb3957-55aa-4712-b8af-a6da8b77890f","system_id":"levelo_inurba_marseille","lat":43.30159,"lon":5.38108,"is_reserved":false,"is_disabled":false,"rental_uris":{"android":"levelo://app?vid=e8fb3957-55aa-4712-b8af-a6da8b77890f","ios":"levelo://app?vid=e8fb3957-55aa-4712-b8af-a6da8b77890f"},"vehicle_type_id":"4","last_reported":1741108117,"current_range_meters":17200,"station_id":"ce4bgjp2rcd13ifvqbh0","pricing_plan_id":"cebpf4jnsgd1na2vs0mg"},{"bike_id":"9cbb5914-3ce0-45a9-bfe4-895657d5f46f","system_id":"levelo_inurba_marseille","lat":43.23203,"lon":5.35568,"is_reserved":false,"is_disabled":false,"rental_uris":{"android":"levelo://app?vid=9cbb5914-3ce0-45a9-bfe4-895657d5f46f","ios":"levelo://app?vid=9cbb5914-3ce0-45a9-bfe4-895657d5f46f"},"vehicle_type_id":"4","last_reported":1741108117,"current_range_meters":17200,"station_id":"ce4bhu92rcd13ifvqi70","pricing_plan_id":"cebpf4jnsgd1na2vs0mg"},{"bike_id":"6be2d959-3029-43e5-9ca2-a3dfb9eee01b","system_id":"levelo_inurba_marseille","lat":43.30798,"lon":5.43531,"is_reserved":false,"is_disabled":false,"rental_uris":{"android":"levelo://app?vid=6be2d959-3029-43e5-9ca2-a3dfb9eee01b","ios":"levelo://app?vid=6be2d959-3029-43e5-9ca2-a3dfb9eee01b"},"vehicle_type_id":"4","last_reported":1741108117,"current_range_meters":17600,"station_id":"ce4bhph2rcd13ifvqheg","pricing_plan_id":"cebpf4jnsgd1na2vs0mg"},{"bike_id":"036d74fd-9cab-4bd0-91e8-ba683c6a5eae","system_id":"levelo_inurba_marseille","lat":43.28665,"lon":5.36348,"is_reserved":false,"is_disabled":false,"rental_uris":{"android":"levelo://app?vid=036d74fd-9cab-4bd0-91e8-ba683c6a5eae","ios":"levelo://app?vid=036d74fd-9cab-4bd0-91e8-ba683c6a5eae"},"vehicle_type_id":"4","last_reported":1741108117,"current_range_meters":17200,"station_id":"ce4bhah2rcd13ifvqej0","pricing_plan_id":"cebpf4jnsgd1na2vs0mg"},{"bike_id":"6adada0e-1263-4e3e-b728-25047c9652b9","system_id":"levelo_inurba_marseille","lat":43.2511,"lon":5.38981,"is_reserved":false,"is_disabled":false,"rental_uris":{"android":"levelo://app?vid=6adada0e-1263-4e3e-b728-25047c9652b9","ios":"levelo://app?vid=6adada0e-1263-4e3e-b728-25047c9652b9"},"vehicle_type_id":"4","last_reported":1741108117,"current_range_meters":17200,"station_id":"ce4bhlp2rcd13ifvqgjg","pricing_plan_id":"cebpf4jnsgd1na2vs0mg"},{"bike_id":"28e2e907-10e2-4ec8-8257-200dc5652fac","system_id":"levelo_inurba_marseille","lat":43.27566,"lon":5.3843,"is_reserved":false,"is_disabled":false,"rental_uris":{"android":"levelo://app?vid=28e2e907-10e2-4ec8-8257-200dc5652fac","ios":"levelo://app?vid=28e2e907-10e2-4ec8-8257-200dc5652fac"},"vehicle_type_id":"4","last_reported":1741108117,"current_range_meters":17200,"station_id":"ce4bhh92rcd13ifvqfi0","pricing_plan_id":"cebpf4jnsgd1na2vs0mg"},{"bike_id":"8e67c6c2-1f86-420e-855b-676e159ed831","system_id":"levelo_inurba_marseille","lat":43.23062,"lon":5.35491,"is_reserved":false,"is_disabled":false,"rental_uris":{"android":"levelo://app?vid=8e67c6c2-1f86-420e-855b-676e159ed831","ios":"levelo://app?vid=8e67c6c2-1f86-420e-855b-676e159ed831"},"vehicle_type_id":"4","last_reported":1741108117,"current_range_meters":17600,"station_id":"cpo3342slgdg3j2ifvpg","pricing_plan_id":"cebpf4jnsgd1na2vs0mg"},{"bike_id":"8a258d2c-17d5-4cd5-b6f3-f9a761db3758","system_id":"levelo_inurba_marseille","lat":43.30916,"lon":5.40154,"is_reserved":false,"is_disabled":false,"rental_uris":{"android":"levelo://app?vid=8a258d2c-17d5-4cd5-b6f3-f9a761db3758","ios":"levelo://app?vid=8a258d2c-17d5-4cd5-b6f3-f9a761db3758"},"vehicle_type_id":"4","last_reported":1741108117,"current_range_meters":17600,"station_id":"ce4bgvp2rcd13ifvqct0","pricing_plan_id":"cebpf4jnsgd1na2vs0mg"},{"bike_id":"a490f13d-ff40-47b1-9376-19fb2024ec77","system_id":"levelo_inurba_marseille","lat":43.28569,"lon":5.39501,"is_reserved":false,"is_disabled":true,"rental_uris":{"android":"levelo://app?vid=a490f13d-ff40-47b1-9376-19fb2024ec77","ios":"levelo://app?vid=a490f13d-ff40-47b1-9376-19fb2024ec77"},"vehicle_type_id":"4","last_reported":1741108117,"current_range_meters":17600,"station_id":"ce4bh292rcd13ifvqdg0","pricing_plan_id":"cebpf4jnsgd1na2vs0mg"},{"bike_id":"ee59b3a3-0f87-489f-91b5-15c91569f1b2","system_id":"levelo_inurba_marseille","lat":43.24164,"lon":5.3641,"is_reserved":false,"is_disabled":false,"rental_uris":{"android":"levelo://app?vid=ee59b3a3-0f87-489f-91b5-15c91569f1b2","ios":"levelo://app?vid=ee59b3a3-0f87-489f-91b5-15c91569f1b2"},"vehicle_type_id":"4","last_reported":1741108117,"current_range_meters":17600,"station_id":"cpo36qri1sfpv3e86is0","pricing_plan_id":"cebpf4jnsgd1na2vs0mg"},{"bike_id":"faba34a5-5170-484c-a414-f6b11608f3d5","system_id":"levelo_inurba_marseille","lat":43.27814,"lon":5.4071,"is_reserved":false,"is_disabled":false,"rental_uris":{"android":"levelo://app?vid=faba34a5-5170-484c-a414-f6b11608f3d5","ios":"levelo://app?vid=faba34a5-5170-484c-a414-f6b11608f3d5"},"vehicle_type_id":"4","last_reported":1741108117,"current_range_meters":17600,"station_id":"ce4bhnh2rcd13ifvqgtg","pricing_plan_id":"cebpf4jnsgd1na2vs0mg"},{"bike_id":"57cc304b-570e-47e0-b58a-584691de5475","system_id":"levelo_inurba_marseille","lat":43.27996,"lon":5.4001,"is_reserved":false,"is_disabled":false,"rental_uris":{"android":"levelo://app?vid=57cc304b-570e-47e0-b58a-584691de5475","ios":"levelo://app?vid=57cc304b-570e-47e0-b58a-584691de5475"},"vehicle_type_id":"4","last_reported":1741108117,"current_range_meters":17600,"station_id":"ce4bho92rcd13ifvqh4g","pricing_plan_id":"cebpf4jnsgd1na2vs0mg"},{"bike_id":"da1a2d22-1046-4831-8770-d9f32b47dc0e","system_id":"levelo_inurba_marseille","lat":43.28453,"lon":5.39205,"is_reserved":false,"is_disabled":false,"rental_uris":{"android":"levelo://app?vid=da1a2d22-1046-4831-8770-d9f32b47dc0e","ios":"levelo://app?vid=da1a2d22-1046-4831-8770-d9f32b47dc0e"},"vehicle_type_id":"4","last_reported":1741108117,"current_range_meters":17600,"station_id":"ce4bhoh2rcd13ifvqh5g","pricing_plan_id":"cebpf4jnsgd1na2vs0mg"},{"bike_id":"f11f6193-f1bd-4c19-afdd-7d337281460a","system_id":"levelo_inurba_marseille","lat":43.27809,"lon":5.40716,"is_reserved":false,"is_disabled":false,"rental_uris":{"android":"levelo://app?vid=f11f6193-f1bd-4c19-afdd-7d337281460a","ios":"levelo://app?vid=f11f6193-f1bd-4c19-afdd-7d337281460a"},"vehicle_type_id":"4","last_reported":1741108117,"current_range_meters":17200,"station_id":"ce4bhnh2rcd13ifvqgtg","pricing_plan_id":"cebpf4jnsgd1na2vs0mg"},{"bike_id":"55ed9c4f-78eb-46e3-98c6-949027a0a739","system_id":"levelo_inurba_marseille","lat":43.28709,"lon":5.39988,"is_reserved":false,"is_disabled":false,"rental_uris":{"android":"levelo://app?vid=55ed9c4f-78eb-46e3-98c6-949027a0a739","ios":"levelo://app?vid=55ed9c4f-78eb-46e3-98c6-949027a0a739"},"vehicle_type_id":"4","last_reported":1741108117,"current_range_meters":17600,"station_id":"ce4bho92rcd13ifvqh3g","pricing_plan_id":"cebpf4jnsgd1na2vs0mg"},{"bike_id":"77bb0730-a733-4022-8581-f41144ba4f5f","system_id":"levelo_inurba_marseille","lat":43.26495,"lon":5.39584,"is_reserved":false,"is_disabled":false,"rental_uris":{"android":"levelo://app?vid=77bb0730-a733-4022-8581-f41144ba4f5f","ios":"levelo://app?vid=77bb0730-a733-4022-8581-f41144ba4f5f"},"vehicle_type_id":"4","last_reported":1741108117,"current_range_meters":17600,"station_id":"ce4bhi12rcd13ifvqfq0","pricing_plan_id":"cebpf4jnsgd1na2vs0mg"},{"bike_id":"cd26efdb-0e46-4b8b-a415-465536e04043","system_id":"levelo_inurba_marseille","lat":43.2841,"lon":5.37503,"is_reserved":false,"is_disabled":false,"rental_uris":{"android":"levelo://app?vid=cd26efdb-0e46-4b8b-a415-465536e04043","ios":"levelo://app?vid=cd26efdb-0e46-4b8b-a415-465536e04043"},"vehicle_type_id":"4","last_reported":1741108117,"current_range_meters":18000,"station_id":"ce4bh412rcd13ifvqds0","pricing_plan_id":"cebpf4jnsgd1na2vs0mg"},{"bike_id":"100d50b8-0e09-4bf8-8be3-a71265fa876a","system_id":"levelo_inurba_marseille","lat":43.2987,"lon":5.39731,"is_reserved":false,"is_disabled":false,"rental_uris":{"android":"levelo://app?vid=100d50b8-0e09-4bf8-8be3-a71265fa876a","ios":"levelo://app?vid=100d50b8-0e09-4bf8-8be3-a71265fa876a"},"vehicle_type_id":"4","last_reported":1741108117,"current_range_meters":18000,"station_id":"ce4bh0h2rcd13ifvqd50","pricing_plan_id":"cebpf4jnsgd1na2vs0mg"},{"bike_id":"54ce4aef-9c07-4d24-aa50-20dcaeae984a","system_id":"levelo_inurba_marseille","lat":43.27557,"lon":5.38403,"is_reserved":false,"is_disabled":false,"rental_uris":{"android":"levelo://app?vid=54ce4aef-9c07-4d24-aa50-20dcaeae984a","ios":"levelo://app?vid=54ce4aef-9c07-4d24-aa50-20dcaeae984a"},"vehicle_type_id":"4","last_reported":1741108117,"current_range_meters":18000,"station_id":"ce4bhh92rcd13ifvqfi0","pricing_plan_id":"cebpf4jnsgd1na2vs0mg"},{"bike_id":"5d6ed9f3-0ec3-49e0-a86e-2dcd531b6aac","system_id":"levelo_inurba_marseille","lat":43.29885,"lon":5.39725,"is_reserved":false,"is_disabled":false,"rental_uris":{"android":"levelo://app?vid=5d6ed9f3-0ec3-49e0-a86e-2dcd531b6aac","ios":"levelo://app?vid=5d6ed9f3-0ec3-49e0-a86e-2dcd531b6aac"},"vehicle_type_id":"4","last_reported":1741108117,"current_range_meters":18000,"station_id":"ce4bh0h2rcd13ifvqd50","pricing_plan_id":"cebpf4jnsgd1na2vs0mg"},{"bike_id":"a845c971-45f5-4b91-84f7-83de397fe822","system_id":"levelo_inurba_marseille","lat":43.28466,"lon":5.35887,"is_reserved":false,"is_disabled":false,"rental_uris":{"android":"levelo://app?vid=a845c971-45f5-4b91-84f7-83de397fe822","ios":"levelo://app?vid=a845c971-45f5-4b91-84f7-83de397fe822"},"vehicle_type_id":"4","last_reported":1741108117,"current_range_meters":18000,"station_id":"ce4bhah2rcd13ifvqei0","pricing_plan_id":"cebpf4jnsgd1na2vs0mg"},{"bike_id":"a7fdb7b9-1bc1-4687-abde-015d347a9641","system_id":"levelo_inurba_marseille","lat":43.29894,"lon":5.43664,"is_reserved":false,"is_disabled":false,"rental_uris":{"android":"levelo://app?vid=a7fdb7b9-1bc1-4687-abde-015d347a9641","ios":"levelo://app?vid=a7fdb7b9-1bc1-4687-abde-015d347a9641"},"vehicle_type_id":"4","last_reported":1741108117,"current_range_meters":18000,"station_id":"ce4bhpp2rcd13ifvqhfg","pricing_plan_id":"cebpf4jnsgd1na2vs0mg"},{"bike_id":"dbc958c9-b359-4140-80d7-1f164ada71f5","system_id":"levelo_inurba_marseille","lat":43.31526,"lon":5.37266,"is_reserved":false,"is_disabled":false,"rental_uris":{"android":"levelo://app?vid=dbc958c9-b359-4140-80d7-1f164ada71f5","ios":"levelo://app?vid=dbc958c9-b359-4140-80d7-1f164ada71f5"},"vehicle_type_id":"4","last_reported":1741108117,"current_range_meters":18000,"station_id":"","pricing_plan_id":"cebpf4jnsgd1na2vs0mg"},{"bike_id":"fb080723-485c-497c-a75d-c928aea6a01f","system_id":"levelo_inurba_marseille","lat":43.29558,"lon":5.39967,"is_reserved":false,"is_disabled":false,"rental_uris":{"android":"levelo://app?vid=fb080723-485c-497c-a75d-c928aea6a01f","ios":"levelo://app?vid=fb080723-485c-497c-a75d-c928aea6a01f"},"vehicle_type_id":"4","last_reported":1741108117,"current_range_meters":18000,"station_id":"ce4bh312rcd13ifvqdj0","pricing_plan_id":"cebpf4jnsgd1na2vs0mg"},{"bike_id":"c4c5c21c-6c58-42e1-8d63-f58814aeeaee","system_id":"levelo_inurba_marseille","lat":43.30544,"lon":5.38415,"is_reserved":false,"is_disabled":false,"rental_uris":{"android":"levelo://app?vid=c4c5c21c-6c58-42e1-8d63-f58814aeeaee","ios":"levelo://app?vid=c4c5c21c-6c58-42e1-8d63-f58814aeeaee"},"vehicle_type_id":"4","last_reported":1741108117,"current_range_meters":18000,"station_id":"ce4bgg92rcd13ifvqb30","pricing_plan_id":"cebpf4jnsgd1na2vs0mg"},{"bike_id":"e16b43ac-5fba-43a0-961b-5e2f2830a7db","system_id":"levelo_inurba_marseille","lat":43.30435,"lon":5.39743,"is_reserved":false,"is_disabled":false,"rental_uris":{"android":"levelo://app?vid=e16b43ac-5fba-43a0-961b-5e2f2830a7db","ios":"levelo://app?vid=e16b43ac-5fba-43a0-961b-5e2f2830a7db"},"vehicle_type_id":"4","last_reported":1741108117,"current_range_meters":18000,"station_id":"ce4bh092rcd13ifvqd20","pricing_plan_id":"cebpf4jnsgd1na2vs0mg"},{"bike_id":"c9e6218b-e80f-4165-b8e8-df9d45aac696","system_id":"levelo_inurba_marseille","lat":43.31714,"lon":5.43717,"is_reserved":false,"is_disabled":false,"rental_uris":{"android":"levelo://app?vid=c9e6218b-e80f-4165-b8e8-df9d45aac696","ios":"levelo://app?vid=c9e6218b-e80f-4165-b8e8-df9d45aac696"},"vehicle_type_id":"4","last_reported":1741108117,"current_range_meters":18000,"station_id":"ce4bhp92rcd13ifvqhcg","pricing_plan_id":"cebpf4jnsgd1na2vs0mg"},{"bike_id":"5852d44d-c98b-4c2d-ad7f-21bea669f8ee","system_id":"levelo_inurba_marseille","lat":43.31702,"lon":5.43715,"is_reserved":false,"is_disabled":false,"rental_uris":{"android":"levelo://app?vid=5852d44d-c98b-4c2d-ad7f-21bea669f8ee","ios":"levelo://app?vid=5852d44d-c98b-4c2d-ad7f-21bea669f8ee"},"vehicle_type_id":"4","last_reported":1741108117,"current_range_meters":18000,"station_id":"ce4bhp92rcd13ifvqhcg","pricing_plan_id":"cebpf4jnsgd1na2vs0mg"},{"bike_id":"0b797e2c-b233-4bb4-a096-4eda2093229e","system_id":"levelo_inurba_marseille","lat":43.2416,"lon":5.36397,"is_reserved":false,"is_disabled":false,"rental_uris":{"android":"levelo://app?vid=0b797e2c-b233-4bb4-a096-4eda2093229e","ios":"levelo://app?vid=0b797e2c-b233-4bb4-a096-4eda2093229e"},"vehicle_type_id":"4","last_reported":1741108117,"current_range_meters":18800,"station_id":"cpo36qri1sfpv3e86is0","pricing_plan_id":"cebpf4jnsgd1na2vs0mg"},{"bike_id":"b118c4b7-7946-4afe-9c57-5c6cafdda4c8","system_id":"levelo_inurba_marseille","lat":43.2943,"lon":5.3976,"is_reserved":false,"is_disabled":false,"rental_uris":{"android":"levelo://app?vid=b118c4b7-7946-4afe-9c57-5c6cafdda4c8","ios":"levelo://app?vid=b118c4b7-7946-4afe-9c57-5c6cafdda4c8"},"vehicle_type_id":"4","last_reported":1741108117,"current_range_meters":18800,"station_id":"ce4bh3h2rcd13ifvqdo0","pricing_plan_id":"cebpf4jnsgd1na2vs0mg"},{"bike_id":"4a11412c-3d31-4b93-aac8-bba78dee47ad","system_id":"levelo_inurba_marseille","lat":43.3067,"lon":5.40074,"is_reserved":false,"is_disabled":false,"rental_uris":{"android":"levelo://app?vid=4a11412c-3d31-4b93-aac8-bba78dee47ad","ios":"levelo://app?vid=4a11412c-3d31-4b93-aac8-bba78dee47ad"},"vehicle_type_id":"4","last_reported":1741108117,"current_range_meters":18800,"station_id":"ce4bh112rcd13ifvqda0","pricing_plan_id":"cebpf4jnsgd1na2vs0mg"},{"bike_id":"09cd31f1-ce90-44d1-885f-9a130df58079","system_id":"levelo_inurba_marseille","lat":43.265565,"lon":5.372851,"is_reserved":false,"is_disabled":false,"rental_uris":{"android":"levelo://app?vid=09cd31f1-ce90-44d1-885f-9a130df58079","ios":"levelo://app?vid=09cd31f1-ce90-44d1-885f-9a130df58079"},"vehicle_type_id":"4","last_reported":1741108117,"current_range_meters":18800,"station_id":"ce4bhg12rcd13ifvqf70","pricing_plan_id":"cebpf4jnsgd1na2vs0mg"},{"bike_id":"ad1b3cd5-c334-43de-86a0-be9bd2c52264","system_id":"levelo_inurba_marseille","lat":43.29907,"lon":5.3814,"is_reserved":false,"is_disabled":false,"rental_uris":{"android":"levelo://app?vid=ad1b3cd5-c334-43de-86a0-be9bd2c52264","ios":"levelo://app?vid=ad1b3cd5-c334-43de-86a0-be9bd2c52264"},"vehicle_type_id":"4","last_reported":1741108117,"current_range_meters":18800,"station_id":"ce4bgj12rcd13ifvqbc0","pricing_plan_id":"cebpf4jnsgd1na2vs0mg"},{"bike_id":"aceccace-d1be-4d9c-abd2-2f78560287bf","system_id":"levelo_inurba_marseille","lat":43.23188,"lon":5.3998,"is_reserved":false,"is_disabled":false,"rental_uris":{"android":"levelo://app?vid=aceccace-d1be-4d9c-abd2-2f78560287bf","ios":"levelo://app?vid=aceccace-d1be-4d9c-abd2-2f78560287bf"},"vehicle_type_id":"4","last_reported":1741108117,"current_range_meters":18800,"station_id":"ce4bhn12rcd13ifvqgqg","pricing_plan_id":"cebpf4jnsgd1na2vs0mg"},{"bike_id":"23349db6-8000-463e-9765-601a4491fb37","system_id":"levelo_inurba_marseille","lat":43.24547,"lon":5.39523,"is_reserved":false,"is_disabled":false,"rental_uris":{"android":"levelo://app?vid=23349db6-8000-463e-9765-601a4491fb37","ios":"levelo://app?vid=23349db6-8000-463e-9765-601a4491fb37"},"vehicle_type_id":"4","last_reported":1741108117,"current_range_meters":18800,"station_id":"ce4bhlp2rcd13ifvqgjg","pricing_plan_id":"cebpf4jnsgd1na2vs0mg"},{"bike_id":"ddc4e932-3700-46b0-a34f-49ccac99feb1","system_id":"levelo_inurba_marseille","lat":43.28435,"lon":5.37505,"is_reserved":false,"is_disabled":false,"rental_uris":{"android":"levelo://app?vid=ddc4e932-3700-46b0-a34f-49ccac99feb1","ios":"levelo://app?vid=ddc4e932-3700-46b0-a34f-49ccac99feb1"},"vehicle_type_id":"4","last_reported":1741108117,"current_range_meters":18800,"station_id":"ce4bh412rcd13ifvqds0","pricing_plan_id":"cebpf4jnsgd1na2vs0mg"},{"bike_id":"53dc8307-e2bb-4a61-9721-bab25d0964c8","system_id":"levelo_inurba_marseille","lat":43.29551,"lon":5.3738,"is_reserved":false,"is_disabled":false,"rental_uris":{"android":"levelo://app?vid=53dc8307-e2bb-4a61-9721-bab25d0964c8","ios":"levelo://app?vid=53dc8307-e2bb-4a61-9721-bab25d0964c8"},"vehicle_type_id":"4","last_reported":1741108117,"current_range_meters":18800,"station_id":"ce4bgpp2rcd13ifvqc3g","pricing_plan_id":"cebpf4jnsgd1na2vs0mg"},{"bike_id":"e393c4f0-9316-491d-8133-59a94bb0f619","system_id":"levelo_inurba_marseille","lat":43.29901,"lon":5.43656,"is_reserved":false,"is_disabled":false,"rental_uris":{"android":"levelo://app?vid=e393c4f0-9316-491d-8133-59a94bb0f619","ios":"levelo://app?vid=e393c4f0-9316-491d-8133-59a94bb0f619"},"vehicle_type_id":"4","last_reported":1741108117,"current_range_meters":19200,"station_id":"ce4bhpp2rcd13ifvqhfg","pricing_plan_id":"cebpf4jnsgd1na2vs0mg"},{"bike_id":"7f1905bf-da4d-4f13-af14-c5d46804e585","system_id":"levelo_inurba_marseille","lat":43.23188,"lon":5.35554,"is_reserved":false,"is_disabled":false,"rental_uris":{"android":"levelo://app?vid=7f1905bf-da4d-4f13-af14-c5d46804e585","ios":"levelo://app?vid=7f1905bf-da4d-4f13-af14-c5d46804e585"},"vehicle_type_id":"4","last_reported":1741108117,"current_range_meters":19200,"station_id":"ce4bhu92rcd13ifvqi70","pricing_plan_id":"cebpf4jnsgd1na2vs0mg"},{"bike_id":"0b3cb245-c1ab-4265-9e03-36f6b9bfa685","system_id":"levelo_inurba_marseille","lat":43.23066,"lon":5.35477,"is_reserved":false,"is_disabled":false,"rental_uris":{"android":"levelo://app?vid=0b3cb245-c1ab-4265-9e03-36f6b9bfa685","ios":"levelo://app?vid=0b3cb245-c1ab-4265-9e03-36f6b9bfa685"},