{"last_updated":1742483433,"ttl":60,"version":"2.2","data":{"bikes":[{"bike_id":"bfb6956f-4230-48dd-ad04-443869896c56","system_id":"levelo_inurba_marseille","lat":43.29969,"lon":5.38491,"is_reserved":false,"is_disabled":false,"rental_uris":{"android":"levelo://app?vid=bfb6956f-4230-48dd-ad04-443869896c56","ios":"levelo://app?vid=bfb6956f-4230-48dd-ad04-443869896c56"},"vehicle_type_id":"4","last_reported":1742483433,"current_range_meters":2800,"station_id":"ce4bgj92rcd13ifvqbd0","pricing_plan_id":"cebpf4jnsgd1na2vs0mg"},{"bike_id":"ed357763-946b-4e52-a3f5-c94d0ac5f281","system_id":"levelo_inurba_marseille","lat":43.30547,"lon":5.36531,"is_reserved":false,"is_disabled":false,"rental_uris":{"android":"levelo://app?vid=ed357763-946b-4e52-a3f5-c94d0ac5f281","ios":"levelo://app?vid=ed357763-946b-4e52-a3f5-c94d0ac5f281"},"vehicle_type_id":"4","last_reported":1742483433,"current_range_meters":2800,"station_id":"ce4bgs12rcd13ifvqcag","pricing_plan_id":"cebpf4jnsgd1na2vs0mg"},{"bike_id":"ce28ec21-fe4c-4faa-8e7e-ce9767bd4ded","system_id":"levelo_inurba_marseille","lat":43.25823,"lon":5.39432,"is_reserved":false,"is_disabled":false,"rental_uris":{"android":"levelo://app?vid=ce28ec21-fe4c-4faa-8e7e-ce9767bd4ded","ios":"levelo://app?vid=ce28ec21-fe4c-4faa-8e7e-ce9767bd4ded"},"vehicle_type_id":"4","last_reported":1742483433,"current_range_meters":2800,"station_id":"ce4bhip2rcd13ifvqft0","pricing_plan_id":"cebpf4jnsgd1na2vs0mg"},{"bike_id":"20ea2354-c2c8-4de7-b493-cd7a4504b28f","system_id":"levelo_inurba_marseille","lat":43.23193,"lon":5.39991,"is_reserved":false,"is_disabled":false,"rental_uris":{"android":"levelo://app?vid=20ea2354-c2c8-4de7-b493-cd7a4504b28f","ios":"levelo://app?vid=20ea2354-c2c8-4de7-b493-cd7a4504b28f"},"vehicle_type_id":"4","last_reported":1742483433,"current_range_meters":2800,"station_id":"ce4bhn12rcd13ifvqgqg","pricing_plan_id":"cebpf4jnsgd1na2vs0mg"},{"bike_id":"7c63742e-04a5-4619-b8b0-5b4858885ac9","system_id":"levelo_inurba_marseille","lat":43.24082,"lon":5.37755,"is_reserved":false,"is_disabled":false,"rental_uris":{"android":"levelo://app?vid=7c63742e-04a5-4619-b8b0-5b4858885ac9","ios":"levelo://app?vid=7c63742e-04a5-4619-b8b0-5b4858885ac9"},"vehicle_type_id":"4","last_reported":1742483433,"current_range_meters":2800,"station_id":"ce4bhnp2rcd13ifvqgvg","pricing_plan_id":"cebpf4jnsgd1na2vs0mg"},{"bike_id":"877b50da-d813-486a-afd5-931ac2390ec8","system_id":"levelo_inurba_marseille","lat":43.29917,"lon":5.38511,"is_reserved":false,"is_disabled":false,"rental_uris":{"android":"levelo://app?vid=877b50da-d813-486a-afd5-931ac2390ec8","ios":"levelo://app?vid=877b50da-d813-486a-afd5-931ac2390ec8"},"vehicle_type_id":"4","last_reported":1742483433,"current_range_meters":3200,"station_id":"","pricing_plan_id":"cebpf4jnsgd1na2vs0mg"},{"bike_id":"00843a9d-3ec5-4fa5-9157-0b59f195aafd","system_id":"levelo_inurba_marseille","lat":43.26563,"lon":5.39014,"is_reserved":false,"is_disabled":false,"rental_uris":{"android":"levelo://app?vid=00843a9d-3ec5-4fa5-9157-0b59f195aafd","ios":"levelo://app?vid=00843a9d-3ec5-4fa5-9157-0b59f195aafd"},"vehicle_type_id":"4","last_reported":1742483433,"current_range_meters":3200,"station_id":"ce4bhe12rcd13ifvqf30","pricing_plan_id":"cebpf4jnsgd1na2vs0mg"},{"bike_id":"2571cb1d-7234-4efa-8ef9-2586cacb0d87","system_id":"levelo_inurba_marseille","lat":43.30416,"lon":5.41279,"is_reserved":false,"is_disabled":false,"rental_uris":{"android":"levelo://app?vid=2571cb1d-7234-4efa-8ef9-2586cacb0d87","ios":"levelo://app?vid=2571cb1d-7234-4efa-8ef9-2586cacb0d87"},"vehicle_type_id":"4","last_reported":1742483433,"current_range_meters":3200,"station_id":"ce4bhop2rcd13ifvqh8g","pricing_plan_id":"cebpf4jnsgd1na2vs0mg"},{"bike_id":"20222763-ac82-491e-a303-8d3211e161f6","system_id":"levelo_inurba_marseille","lat":43.25002,"lon":5.38927,"is_reserved":false,"is_disabled":false,"rental_uris":{"android":"levelo://app?vid=20222763-ac82-491e-a303-8d3211e161f6","ios":"levelo://app?vid=20222763-ac82-491e-a303-8d3211e161f6"},"vehicle_type_id":"4","last_reported":1742483433,"current_range_meters":3200,"station_id":"ce4bhgp2rcd13ifvqfd0","pricing_plan_id":"cebpf4jnsgd1na2vs0mg"},{"bike_id":"83a7a460-27ee-4352-8f6a-469cf3e52c0d","system_id":"levelo_inurba_marseille","lat":43.279797,"lon":5.387462,"is_reserved":false,"is_disabled":false,"rental_uris":{"android":"levelo://app?vid=83a7a460-27ee-4352-8f6a-469cf3e52c0d","ios":"levelo://app?vid=83a7a460-27ee-4352-8f6a-469cf3e52c0d"},"vehicle_type_id":"4","last_reported":1742483433,"current_range_meters":3600,"station_id":"ce4bhh12rcd13ifvqfg0","pricing_plan_id":"cebpf4jnsgd1na2vs0mg"},{"bike_id":"c5048b5b-679f-4398-9bd1-66ed975a5617","system_id":"levelo_inurba_marseille","lat":43.27827,"lon":5.3921,"is_reserved":false,"is_disabled":false,"rental_uris":{"android":"levelo://app?vid=c5048b5b-679f-4398-9bd1-66ed975a5617","ios":"levelo://app?vid=c5048b5b-679f-4398-9bd1-66ed975a5617"},"vehicle_type_id":"4","last_reported":1742483433,"current_range_meters":3600,"station_id":"ce4bhjp2rcd13ifvqga0","pricing_plan_id":"cebpf4jnsgd1na2vs0mg"},{"bike_id":"f0f950a2-79c9-4c63-86eb-fbbdab40aaa2","system_id":"levelo_inurba_marseille","lat":43.26556,"lon":5.37285,"is_reserved":false,"is_disabled":false,"rental_uris":{"android":"levelo://app?vid=f0f950a2-79c9-4c63-86eb-fbbdab40aaa2","ios":"levelo://app?vid=f0f950a2-79c9-4c63-86eb-fbbdab40aaa2"},"vehicle_type_id":"4","last_reported":1742483433,"current_range_meters":4000,"station_id":"ce4bhg12rcd13ifvqf70","pricing_plan_id":"cebpf4jnsgd1na2vs0mg"},{"bike_id":"df64c8b2-e5a7-47d6-a1b0-61c2edd02094","system_id":"levelo_inurba_marseille","lat":43.25497,"lon":5.37649,"is_reserved":false,"is_disabled":false,"rental_uris":{"android":"levelo://app?vid=df64c8b2-e5a7-47d6-a1b0-61c2edd02094","ios":"levelo://app?vid=df64c8b2-e5a7-47d6-a1b0-61c2edd02094"},"vehicle_type_id":"4","last_reported":1742483433,"current_range_meters":4000,"station_id":"ce4bhh12rcd13ifvqff0","pricing_plan_id":"cebpf4jnsgd1na2vs0mg"},{"bike_id":"989b330e-2d09-42ad-a5ff-b9d6dbd82617","system_id":"levelo_inurba_marseille","lat":43.32924,"lon":5.41982,"is_reserved":false,"is_disabled":false,"rental_uris":{"android":"levelo://app?vid=989b330e-2d09-42ad-a5ff-b9d6dbd82617","ios":"levelo://app?vid=989b330e-2d09-42ad-a5ff-b9d6dbd82617"},"vehicle_type_id":"4","last_reported":1742483433,"current_range_meters":4000,"station_id":"","pricing_plan_id":"cebpf4jnsgd1na2vs0mg"},{"bike_id":"316a70b1-dcf4-457b-8d7f-0285a7e6bf48","system_id":"levelo_inurba_marseille","lat":43.30539,"lon":5.36701,"is_reserved":false,"is_disabled":false,"rental_uris":{"android":"levelo://app?vid=316a70b1-dcf4-457b-8d7f-0285a7e6bf48","ios":"levelo://app?vid=316a70b1-dcf4-457b-8d7f-0285a7e6bf48"},"vehicle_type_id":"4","last_reported":1742483433,"current_range_meters":4000,"station_id":"ce4bgrp2rcd13ifvqc9g","pricing_plan_id":"cebpf4jnsgd1na2vs0mg"},{"bike_id":"f7a3ce9d-659b-4709-ae86-8ef8eb534148","system_id":"levelo_inurba_marseille","lat":43.28939,"lon":5.39633,"is_reserved":false,"is_disabled":false,"rental_uris":{"android":"levelo://app?vid=f7a3ce9d-659b-4709-ae86-8ef8eb534148","ios":"levelo://app?vid=f7a3ce9d-659b-4709-ae86-8ef8eb534148"},"vehicle_type_id":"4","last_reported":1742483433,"current_range_meters":4400,"station_id":"ce4bh3h2rcd13ifvqdn0","pricing_plan_id":"cebpf4jnsgd1na2vs0mg"},{"bike_id":"a045fb2a-2587-4994-9868-0340a87c6827","system_id":"levelo_inurba_marseille","lat":43.24665,"lon":5.38171,"is_reserved":false,"is_disabled":false,"rental_uris":{"android":"levelo://app?vid=a045fb2a-2587-4994-9868-0340a87c6827","ios":"levelo://app?vid=a045fb2a-2587-4994-9868-0340a87c6827"},"vehicle_type_id":"4","last_reported":1742483433,"current_range_meters":4400,"station_id":"ce4bhih2rcd13ifvqfr0","pricing_plan_id":"cebpf4jnsgd1na2vs0mg"},{"bike_id":"9596c7a3-574f-4597-a28e-1fc68ae5b3a5","system_id":"levelo_inurba_marseille","lat":43.29522,"lon":5.38535,"is_reserved":false,"is_disabled":false,"rental_uris":{"android":"levelo://app?vid=9596c7a3-574f-4597-a28e-1fc68ae5b3a5","ios":"levelo://app?vid=9596c7a3-574f-4597-a28e-1fc68ae5b3a5"},"vehicle_type_id":"4","last_reported":1742483433,"current_range_meters":4400,"station_id":"ce4bgih2rcd13ifvqba0","pricing_plan_id":"cebpf4jnsgd1na2vs0mg"},{"bike_id":"6a01d35b-27fc-49e9-962c-6b5cad105822","system_id":"levelo_inurba_marseille","lat":43.29881,"lon":5.39738,"is_reserved":false,"is_disabled":false,"rental_uris":{"android":"levelo://app?vid=6a01d35b-27fc-49e9-962c-6b5cad105822","ios":"levelo://app?vid=6a01d35b-27fc-49e9-962c-6b5cad105822"},"vehicle_type_id":"4","last_reported":1742483433,"current_range_meters":4800,"station_id":"ce4bh0h2rcd13ifvqd50","pricing_plan_id":"cebpf4jnsgd1na2vs0mg"},{"bike_id":"de7615c8-f5f4-420b-a80b-45fc38c1c0a2","system_id":"levelo_inurba_marseille","lat":43.30966,"lon":5.3903,"is_reserved":false,"is_disabled":false,"rental_uris":{"android":"levelo://app?vid=de7615c8-f5f4-420b-a80b-45fc38c1c0a2","ios":"levelo://app?vid=de7615c8-f5f4-420b-a80b-45fc38c1c0a2"},"vehicle_type_id":"4","last_reported":1742483433,"current_range_meters":4800,"station_id":"ce4bgup2rcd13ifvqco0","pricing_plan_id":"cebpf4jnsgd1na2vs0mg"},{"bike_id":"3e9dec05-8e3d-47d6-84ba-674b008ac1c1","system_id":"levelo_inurba_marseille","lat":43.29373,"lon":5.37856,"is_reserved":false,"is_disabled":false,"rental_uris":{"android":"levelo://app?vid=3e9dec05-8e3d-47d6-84ba-674b008ac1c1","ios":"levelo://app?vid=3e9dec05-8e3d-47d6-84ba-674b008ac1c1"},"vehicle_type_id":"4","last_reported":1742483433,"current_range_meters":4800,"station_id":"ce4bgjh2rcd13ifvqbf0","pricing_plan_id":"cebpf4jnsgd1na2vs0mg"},{"bike_id":"50c954ca-534e-44cb-b298-4b0e6941aece","system_id":"levelo_inurba_marseille","lat":43.2715,"lon":5.40943,"is_reserved":false,"is_disabled":false,"rental_uris":{"android":"levelo://app?vid=50c954ca-534e-44cb-b298-4b0e6941aece","ios":"levelo://app?vid=50c954ca-534e-44cb-b298-4b0e6941aece"},"vehicle_type_id":"4","last_reported":1742483433,"current_range_meters":4800,"station_id":"ce4bhl12rcd13ifvqgf0","pricing_plan_id":"cebpf4jnsgd1na2vs0mg"},{"bike_id":"8f4aba26-310a-4061-907d-dd7bcaaf0b61","system_id":"levelo_inurba_marseille","lat":43.23185,"lon":5.40016,"is_reserved":false,"is_disabled":false,"rental_uris":{"android":"levelo://app?vid=8f4aba26-310a-4061-907d-dd7bcaaf0b61","ios":"levelo://app?vid=8f4aba26-310a-4061-907d-dd7bcaaf0b61"},"vehicle_type_id":"4","last_reported":1742483433,"current_range_meters":5600,"station_id":"ce4bhn12rcd13ifvqgqg","pricing_plan_id":"cebpf4jnsgd1na2vs0mg"},{"bike_id":"f4f1b281-5e09-4545-ac9f-5d3a5a5072a3","system_id":"levelo_inurba_marseille","lat":43.2623,"lon":5.40471,"is_reserved":false,"is_disabled":false,"rental_uris":{"android":"levelo://app?vid=f4f1b281-5e09-4545-ac9f-5d3a5a5072a3","ios":"levelo://app?vid=f4f1b281-5e09-4545-ac9f-5d3a5a5072a3"},"vehicle_type_id":"4","last_reported":1742483433,"current_range_meters":5600,"station_id":"ce4bhmh2rcd13ifvqgmg","pricing_plan_id":"cebpf4jnsgd1na2vs0mg"},{"bike_id":"7c9cf1fe-d9a2-4001-a629-fcc670d7bf93","system_id":"levelo_inurba_marseille","lat":43.32656,"lon":5.40985,"is_reserved":false,"is_disabled":false,"rental_uris":{"android":"levelo://app?vid=7c9cf1fe-d9a2-4001-a629-fcc670d7bf93","ios":"levelo://app?vid=7c9cf1fe-d9a2-4001-a629-fcc670d7bf93"},"vehicle_type_id":"4","last_reported":1742483433,"current_range_meters":5600,"station_id":"ce4bhpp2rcd13ifvqhgg","pricing_plan_id":"cebpf4jnsgd1na2vs0mg"},{"bike_id":"02713ee5-e9af-4994-b604-18ccdfc53cef","system_id":"levelo_inurba_marseille","lat":43.31071,"lon":5.38344,"is_reserved":false,"is_disabled":false,"rental_uris":{"android":"levelo://app?vid=02713ee5-e9af-4994-b604-18ccdfc53cef","ios":"levelo://app?vid=02713ee5-e9af-4994-b604-18ccdfc53cef"},"vehicle_type_id":"4","last_reported":1742483433,"current_range_meters":6000,"station_id":"ce4bgv92rcd13ifvqcr0","pricing_plan_id":"cebpf4jnsgd1na2vs0mg"},{"bike_id":"b104a7a2-1af1-4467-b430-99ae187fe24c","system_id":"levelo_inurba_marseille","lat":43.27498,"lon":5.42449,"is_reserved":false,"is_disabled":false,"rental_uris":{"android":"levelo://app?vid=b104a7a2-1af1-4467-b430-99ae187fe24c","ios":"levelo://app?vid=b104a7a2-1af1-4467-b430-99ae187fe24c"},"vehicle_type_id":"4","last_reported":1742483433,"current_range_meters":6000,"station_id":"ce4bhn92rcd13ifvqgrg","pricing_plan_id":"cebpf4jnsgd1na2vs0mg"},{"bike_id":"3f628062-fa6d-4716-abbc-80b481bcfc30","system_id":"levelo_inurba_marseille","lat":43.30814,"lon":5.38159,"is_reserved":false,"is_disabled":false,"rental_uris":{"android":"levelo://app?vid=3f628062-fa6d-4716-abbc-80b481bcfc30","ios":"levelo://app?vid=3f628062-fa6d-4716-abbc-80b481bcfc30"},"vehicle_type_id":"4","last_reported":1742483433,"current_range_meters":6000,"station_id":"ce4bgt12rcd13ifvqce0","pricing_plan_id":"cebpf4jnsgd1na2vs0mg"},{"bike_id":"58d283d1-fa64-46c2-b5e1-4d77cf5751b9","system_id":"levelo_inurba_marseille","lat":43.29871,"lon":5.39749,"is_reserved":false,"is_disabled":false,"rental_uris":{"android":"levelo://app?vid=58d283d1-fa64-46c2-b5e1-4d77cf5751b9","ios":"levelo://app?vid=58d283d1-fa64-46c2-b5e1-4d77cf5751b9"},"vehicle_type_id":"4","last_reported":1742483433,"current_range_meters":6000,"station_id":"ce4bh0h2rcd13ifvqd50","pricing_plan_id":"cebpf4jnsgd1na2vs0mg"},{"bike_id":"0134c4eb-cb81-45fb-8190-07fb52725b22","system_id":"levelo_inurba_marseille","lat":43.27183,"lon":5.40989,"is_reserved":false,"is_disabled":false,"rental_uris":{"android":"levelo://app?vid=0134c4eb-cb81-45fb-8190-07fb52725b22","ios":"levelo://app?vid=0134c4eb-cb81-45fb-8190-07fb52725b22"},"vehicle_type_id":"4","last_reported":1742483433,"current_range_meters":6000,"station_id":"ce4bhl12rcd13ifvqgf0","pricing_plan_id":"cebpf4jnsgd1na2vs0mg"},{"bike_id":"5d6040da-a22d-4644-92cc-c182b7481377","system_id":"levelo_inurba_marseille","lat":43.27175,"lon":5.40978,"is_reserved":false,"is_disabled":false,"rental_uris":{"android":"levelo://app?vid=5d6040da-a22d-4644-92cc-c182b7481377","ios":"levelo://app?vid=5d6040da-a22d-4644-92cc-c182b7481377"},"vehicle_type_id":"4","last_reported":1742483433,"current_range_meters":6400,"station_id":"ce4bhl12rcd13ifvqgf0","pricing_plan_id":"cebpf4jnsgd1na2vs0mg"},{"bike_id":"af9747cb-2a24-41df-9ea0-dd73ad306d04","system_id":"levelo_inurba_marseille","lat":43.29712,"lon":5.3662,"is_reserved":false,"is_disabled":false,"rental_uris":{"android":"levelo://app?vid=af9747cb-2a24-41df-9ea0-dd73ad306d04","ios":"levelo://app?vid=af9747cb-2a24-41df-9ea0-dd73ad306d04"},"vehicle_type_id":"4","last_reported":1742483433,"current_range_meters":6400,"station_id":"ce4bgn12rcd13ifvqbt0","pricing_plan_id":"cebpf4jnsgd1na2vs0mg"},{"bike_id":"82201986-43a8-4715-9aa8-20ffbbc0f990","system_id":"levelo_inurba_marseille","lat":43.2938,"lon":5.37851,"is_reserved":false,"is_disabled":false,"rental_uris":{"android":"levelo://app?vid=82201986-43a8-4715-9aa8-20ffbbc0f990","ios":"levelo://app?vid=82201986-43a8-4715-9aa8-20ffbbc0f990"},"vehicle_type_id":"4","last_reported":1742483433,"current_range_meters":6400,"station_id":"ce4bgjh2rcd13ifvqbf0","pricing_plan_id":"cebpf4jnsgd1na2vs0mg"},{"bike_id":"2fa254a3-078a-483c-ace3-30ec6076136e","system_id":"levelo_inurba_marseille","lat":43.26497,"lon":5.39547,"is_reserved":false,"is_disabled":false,"rental_uris":{"android":"levelo://app?vid=2fa254a3-078a-483c-ace3-30ec6076136e","ios":"levelo://app?vid=2fa254a3-078a-483c-ace3-30ec6076136e"},"vehicle_type_id":"4","last_reported":1742483433,"current_range_meters":6400,"station_id":"ce4bhi12rcd13ifvqfq0","pricing_plan_id":"cebpf4jnsgd1na2vs0mg"},{"bike_id":"3455258b-4135-46b9-9a26-10bf95160e40","system_id":"levelo_inurba_marseille","lat":43.23191,"lon":5.35553,"is_reserved":false,"is_disabled":false,"rental_uris":{"android":"levelo://app?vid=3455258b-4135-46b9-9a26-10bf95160e40","ios":"levelo://app?vid=3455258b-4135-46b9-9a26-10bf95160e40"},"vehicle_type_id":"4","last_reported":1742483433,"current_range_meters":6400,"station_id":"ce4bhu92rcd13ifvqi70","pricing_plan_id":"cebpf4jnsgd1na2vs0mg"},{"bike_id":"30448cfc-53ac-4088-86ed-3a624fbeb1f7","system_id":"levelo_inurba_marseille","lat":43.23968,"lon":5.366218,"is_reserved":false,"is_disabled":false,"rental_uris":{"android":"levelo://app?vid=30448cfc-53ac-4088-86ed-3a624fbeb1f7","ios":"levelo://app?vid=30448cfc-53ac-4088-86ed-3a624fbeb1f7"},"vehicle_type_id":"4","last_reported":1742483433,"current_range_meters":6400,"station_id":"ce4bhi12rcd13ifvqfp0","pricing_plan_id":"cebpf4jnsgd1na2vs0mg"},{"bike_id":"ee355945-8ba5-4a9c-88aa-aa2e3bfc76a3","system_id":"levelo_inurba_marseille","lat":43.29023,"lon":5.38124,"is_reserved":false,"is_disabled":false,"rental_uris":{"android":"levelo://app?vid=ee355945-8ba5-4a9c-88aa-aa2e3bfc76a3","ios":"levelo://app?vid=ee355945-8ba5-4a9c-88aa-aa2e3bfc76a3"},"vehicle_type_id":"4","last_reported":1742483433,"current_range_meters":6400,"station_id":"ce4bh4p2rcd13ifvqe1g","pricing_plan_id":"cebpf4jnsgd1na2vs0mg"},{"bike_id":"f2dc44ab-4460-4ae6-9e8f-1abed24c55ae","system_id":"levelo_inurba_marseille","lat":43.27172,"lon":5.40986,"is_reserved":false,"is_disabled":false,"rental_uris":{"android":"levelo://app?vid=f2dc44ab-4460-4ae6-9e8f-1abed24c55ae","ios":"levelo://app?vid=f2dc44ab-4460-4ae6-9e8f-1abed24c55ae"},"vehicle_type_id":"4","last_reported":1742483433,"current_range_meters":6400,"station_id":"ce4bhl12rcd13ifvqgf0","pricing_plan_id":"cebpf4jnsgd1na2vs0mg"},{"bike_id":"35971730-6c6f-4719-99f2-a8cdad28de63","system_id":"levelo_inurba_marseille","lat":43.29871,"lon":5.43634,"is_reserved":false,"is_disabled":false,"rental_uris":{"android":"levelo://app?vid=35971730-6c6f-4719-99f2-a8cdad28de63","ios":"levelo://app?vid=35971730-6c6f-4719-99f2-a8cdad28de63"},"vehicle_type_id":"4","last_reported":1742483433,"current_range_meters":6400,"station_id":"ce4bhpp2rcd13ifvqhfg","pricing_plan_id":"cebpf4jnsgd1na2vs0mg"},{"bike_id":"2e4f166b-8aa0-431d-ad1f-a961193feed2","system_id":"levelo_inurba_marseille","lat":43.27494,"lon":5.42447,"is_reserved":false,"is_disabled":false,"rental_uris":{"android":"levelo://app?vid=2e4f166b-8aa0-431d-ad1f-a961193feed2","ios":"levelo://app?vid=2e4f166b-8aa0-431d-ad1f-a961193feed2"},"vehicle_type_id":"4","last_reported":1742483433,"current_range_meters":6800,"station_id":"ce4bhn92rcd13ifvqgrg","pricing_plan_id":"cebpf4jnsgd1na2vs0mg"},{"bike_id":"0f0379d0-9e31-4d59-aa71-1b8fef29c39c","system_id":"levelo_inurba_marseille","lat":43.25687,"lon":5.41102,"is_reserved":false,"is_disabled":false,"rental_uris":{"android":"levelo://app?vid=0f0379d0-9e31-4d59-aa71-1b8fef29c39c","ios":"levelo://app?vid=0f0379d0-9e31-4d59-aa71-1b8fef29c39c"},"vehicle_type_id":"4","last_reported":1742483433,"current_range_meters":6800,"station_id":"ce4bhkp2rcd13ifvqgd0","pricing_plan_id":"cebpf4jnsgd1na2vs0mg"},{"bike_id":"3eed20f1-d886-4cb7-8b00-8299a3bf9e89","system_id":"levelo_inurba_marseille","lat":43.31172,"lon":5.38719,"is_reserved":false,"is_disabled":false,"rental_uris":{"android":"levelo://app?vid=3eed20f1-d886-4cb7-8b00-8299a3bf9e89","ios":"levelo://app?vid=3eed20f1-d886-4cb7-8b00-8299a3bf9e89"},"vehicle_type_id":"4","last_reported":1742483433,"current_range_meters":6800,"station_id":"ce4bgv12rcd13ifvqcp0","pricing_plan_id":"cebpf4jnsgd1na2vs0mg"},{"bike_id":"d45aa902-4bcb-471b-8a0f-8cdc3416ec8c","system_id":"levelo_inurba_marseille","lat":43.2763,"lon":5.36109,"is_reserved":false,"is_disabled":false,"rental_uris":{"android":"levelo://app?vid=d45aa902-4bcb-471b-8a0f-8cdc3416ec8c","ios":"levelo://app?vid=d45aa902-4bcb-471b-8a0f-8cdc3416ec8c"},"vehicle_type_id":"4","last_reported":1742483433,"current_range_meters":6800,"station_id":"ce4bgj92rcd13ifvqbe0","pricing_plan_id":"cebpf4jnsgd1na2vs0mg"},{"bike_id":"a27e9e25-06bf-4175-9bd6-9c00c02ad86d","system_id":"levelo_inurba_marseille","lat":43.24387,"lon":5.37068,"is_reserved":false,"is_disabled":false,"rental_uris":{"android":"levelo://app?vid=a27e9e25-06bf-4175-9bd6-9c00c02ad86d","ios":"levelo://app?vid=a27e9e25-06bf-4175-9bd6-9c00c02ad86d"},"vehicle_type_id":"4","last_reported":1742483433,"current_range_meters":6800,"station_id":"ce4bhhh2rcd13ifvqfk0","pricing_plan_id":"cebpf4jnsgd1na2vs0mg"},{"bike_id":"95c05065-d729-45d5-aa4a-b59a79291382","system_id":"levelo_inurba_marseille","lat":43.24181,"lon":5.39741,"is_reserved":false,"is_disabled":false,"rental_uris":{"android":"levelo://app?vid=95c05065-d729-45d5-aa4a-b59a79291382","ios":"levelo://app?vid=95c05065-d729-45d5-aa4a-b59a79291382"},"vehicle_type_id":"4","last_reported":1742483433,"current_range_meters":6800,"station_id":"ce4bhn12rcd13ifvqgpg","pricing_plan_id":"cebpf4jnsgd1na2vs0mg"},{"bike_id":"ee87f031-6d3b-4a2a-ac4f-80f1ab09529a","system_id":"levelo_inurba_marseille","lat":43.2314,"lon":5.4368,"is_reserved":false,"is_disabled":false,"rental_uris":{"android":"levelo://app?vid=ee87f031-6d3b-4a2a-ac4f-80f1ab09529a","ios":"levelo://app?vid=ee87f031-6d3b-4a2a-ac4f-80f1ab09529a"},"vehicle_type_id":"4","last_reported":1742483433,"current_range_meters":6800,"station_id":"ce4bhmp2rcd13ifvqgog","pricing_plan_id":"cebpf4jnsgd1na2vs0mg"},{"bike_id":"feee4f95-eaad-4cb7-a78d-fc3c31261f89","system_id":"levelo_inurba_marseille","lat":43.24679,"lon":5.38149,"is_reserved":false,"is_disabled":false,"rental_uris":{"android":"levelo://app?vid=feee4f95-eaad-4cb7-a78d-fc3c31261f89","ios":"levelo://app?vid=feee4f95-eaad-4cb7-a78d-fc3c31261f89"},"vehicle_type_id":"4","last_reported":1742483433,"current_range_meters":6800,"station_id":"ce4bhih2rcd13ifvqfr0","pricing_plan_id":"cebpf4jnsgd1na2vs0mg"},{"bike_id":"829670c9-9f79-4d17-b215-00b3bf37cee9","system_id":"levelo_inurba_marseille","lat":43.29531,"lon":5.38538,"is_reserved":false,"is_disabled":false,"rental_uris":{"android":"levelo://app?vid=829670c9-9f79-4d17-b215-00b3bf37cee9","ios":"levelo://app?vid=829670c9-9f79-4d17-b215-00b3bf37cee9"},"vehicle_type_id":"4","last_reported":1742483433,"current_range_meters":6800,"station_id":"ce4bgih2rcd13ifvqba0","pricing_plan_id":"cebpf4jnsgd1na2vs0mg"},{"bike_id":"1fea0b3c-94ab-41af-b18e-d9bbaa7dda49","system_id":"levelo_inurba_marseille","lat":43.31722,"lon":5.43688,"is_reserved":false,"is_disabled":false,"rental_uris":{"android":"levelo://app?vid=1fea0b3c-94ab-41af-b18e-d9bbaa7dda49","ios":"levelo://app?vid=1fea0b3c-94ab-41af-b18e-d9bbaa7dda49"},"vehicle_type_id":"4","last_reported":1742483433,"current_range_meters":6800,"station_id":"ce4bhp92rcd13ifvqhcg","pricing_plan_id":"cebpf4jnsgd1na2vs0mg"},{"bike_id":"ea91aac8-fd90-4aa0-97fd-ec515209a88f","system_id":"levelo_inurba_marseille","lat":43.27954,"lon":5.38697,"is_reserved":false,"is_disabled":false,"rental_uris":{"android":"levelo://app?vid=ea91aac8-fd90-4aa0-97fd-ec515209a88f","ios":"levelo://app?vid=ea91aac8-fd90-4aa0-97fd-ec515209a88f"},"vehicle_type_id":"4","last_reported":1742483433,"current_range_meters":6800,"station_id":"ce4bhg12rcd13ifvqf80","pricing_plan_id":"cebpf4jnsgd1na2vs0mg"},{"bike_id":"51303281-4f04-43e8-b00c-08d0d12305ef","system_id":"levelo_inurba_marseille","lat":43.32664,"lon":5.40976,"is_reserved":false,"is_disabled":false,"rental_uris":{"android":"levelo://app?vid=51303281-4f04-43e8-b00c-08d0d12305ef","ios":"levelo://app?vid=51303281-4f04-43e8-b00c-08d0d12305ef"},"vehicle_type_id":"4","last_reported":1742483433,"current_range_meters":7200,"station_id":"ce4bhpp2rcd13ifvqhgg","pricing_plan_id":"cebpf4jnsgd1na2vs0mg"},{"bike_id":"c76a4d35-3f4b-4728-a54f-decfdc407403","system_id":"levelo_inurba_marseille","lat":43.24668,"lon":5.38146,"is_reserved":false,"is_disabled":false,"rental_uris":{"android":"levelo://app?vid=c76a4d35-3f4b-4728-a54f-decfdc407403","ios":"levelo://app?vid=c76a4d35-3f4b-4728-a54f-decfdc407403"},"vehicle_type_id":"4","last_reported":1742483433,"current_range_meters":7200,"station_id":"ce4bhih2rcd13ifvqfr0","pricing_plan_id":"cebpf4jnsgd1na2vs0mg"},{"bike_id":"bfd67b10-fd7c-4b25-bc6e-0830b23c1f4b","system_id":"levelo_inurba_marseille","lat":43.25828,"lon":5.39437,"is_reserved":false,"is_disabled":false,"rental_uris":{"android":"levelo://app?vid=bfd67b10-fd7c-4b25-bc6e-0830b23c1f4b","ios":"levelo://app?vid=bfd67b10-fd7c-4b25-bc6e-0830b23c1f4b"},"vehicle_type_id":"4","last_reported":1742483433,"current_range_meters":7200,"station_id":"ce4bhip2rcd13ifvqft0","pricing_plan_id":"cebpf4jnsgd1na2vs0mg"},{"bike_id":"e0b27211-0516-458b-ab39-c648788a1b82","system_id":"levelo_inurba_marseille","lat":43.28936,"lon":5.36639,"is_reserved":false,"is_disabled":false,"rental_uris":{"android":"levelo://app?vid=e0b27211-0516-458b-ab39-c648788a1b82","ios":"levelo://app?vid=e0b27211-0516-458b-ab39-c648788a1b82"},"vehicle_type_id":"4","last_reported":1742483433,"current_range_meters":7200,"station_id":"ce4bhap2rcd13ifvqek0","pricing_plan_id":"cebpf4jnsgd1na2vs0mg"},{"bike_id":"27ee5aae-86e0-44b6-b1c4-d410a7957171","system_id":"levelo_inurba_marseille","lat":43.29615,"lon":5.40547,"is_reserved":false,"is_disabled":false,"rental_uris":{"android":"levelo://app?vid=27ee5aae-86e0-44b6-b1c4-d410a7957171","ios":"levelo://app?vid=27ee5aae-86e0-44b6-b1c4-d410a7957171"},"vehicle_type_id":"4","last_reported":1742483433,"current_range_meters":7200,"station_id":"ce4bh0h2rcd13ifvqd60","pricing_plan_id":"cebpf4jnsgd1na2vs0mg"},{"bike_id":"02f43b01-3b74-45fa-a40e-2df823c84cda","system_id":"levelo_inurba_marseille","lat":43.24175,"lon":5.39702,"is_reserved":false,"is_disabled":false,"rental_uris":{"android":"levelo://app?vid=02f43b01-3b74-45fa-a40e-2df823c84cda","ios":"levelo://app?vid=02f43b01-3b74-45fa-a40e-2df823c84cda"},"vehicle_type_id":"4","last_reported":1742483433,"current_range_meters":7200,"station_id":"ce4bhn12rcd13ifvqgpg","pricing_plan_id":"cebpf4jnsgd1na2vs0mg"},{"bike_id":"d2b8be9a-9db4-47b5-8a71-21a29067547f","system_id":"levelo_inurba_marseille","lat":43.28943,"lon":5.36636,"is_reserved":false,"is_disabled":false,"rental_uris":{"android":"levelo://app?vid=d2b8be9a-9db4-47b5-8a71-21a29067547f","ios":"levelo://app?vid=d2b8be9a-9db4-47b5-8a71-21a29067547f"},"vehicle_type_id":"4","last_reported":1742483433,"current_range_meters":7200,"station_id":"ce4bhap2rcd13ifvqek0","pricing_plan_id":"cebpf4jnsgd1na2vs0mg"},{"bike_id":"3a855446-3336-43e1-a856-05c64d086a42","system_id":"levelo_inurba_marseille","lat":43.26782,"lon":5.39415,"is_reserved":false,"is_disabled":false,"rental_uris":{"android":"levelo://app?vid=3a855446-3336-43e1-a856-05c64d086a42","ios":"levelo://app?vid=3a855446-3336-43e1-a856-05c64d086a42"},"vehicle_type_id":"4","last_reported":1742483433,"current_range_meters":7200,"station_id":"ce4bhh12rcd13ifvqfg0","pricing_plan_id":"cebpf4jnsgd1na2vs0mg"},{"bike_id":"9d26c008-8ec1-4269-9cd2-f45774f03ccb","system_id":"levelo_inurba_marseille","lat":43.27969,"lon":5.37941,"is_reserved":false,"is_disabled":false,"rental_uris":{"android":"levelo://app?vid=9d26c008-8ec1-4269-9cd2-f45774f03ccb","ios":"levelo://app?vid=9d26c008-8ec1-4269-9cd2-f45774f03ccb"},"vehicle_type_id":"4","last_reported":1742483433,"current_range_meters":7200,"station_id":"","pricing_plan_id":"cebpf4jnsgd1na2vs0mg"},{"bike_id":"f8e532d6-e317-445d-91cb-19a6e01b4151","system_id":"levelo_inurba_marseille","lat":43.25914,"lon":5.40876,"is_reserved":false,"is_disabled":false,"rental_uris":{"android":"levelo://app?vid=f8e532d6-e317-445d-91cb-19a6e01b4151","ios":"levelo://app?vid=f8e532d6-e317-445d-91cb-19a6e01b4151"},"vehicle_type_id":"4","last_reported":1742483433,"current_range_meters":7200,"station_id":"ce4bhm92rcd13ifvqglg","pricing_plan_id":"cebpf4jnsgd1na2vs0mg"},{"bike_id":"b4f35a70-1f0e-4dad-9d6d-d19608f34365","system_id":"levelo_inurba_marseille","lat":43.28471,"lon":5.36878,"is_reserved":false,"is_disabled":false,"rental_uris":{"android":"levelo://app?vid=b4f35a70-1f0e-4dad-9d6d-d19608f34365","ios":"levelo://app?vid=b4f35a70-1f0e-4dad-9d6d-d19608f34365"},"vehicle_type_id":"4","last_reported":1742483433,"current_range_meters":7200,"station_id":"ce4bha12rcd13ifvqef0","pricing_plan_id":"cebpf4jnsgd1na2vs0mg"},{"bike_id":"d526b6e2-b103-4339-baa5-b85128efba8c","system_id":"levelo_inurba_marseille","lat":43.23052,"lon":5.35482,"is_reserved":false,"is_disabled":false,"rental_uris":{"android":"levelo://app?vid=d526b6e2-b103-4339-baa5-b85128efba8c","ios":"levelo://app?vid=d526b6e2-b103-4339-baa5-b85128efba8c"},"vehicle_type_id":"4","last_reported":1742483433,"current_range_meters":7200,"station_id":"cpo3342slgdg3j2ifvpg","pricing_plan_id":"cebpf4jnsgd1na2vs0mg"},{"bike_id":"86aff10e-c6a5-4a45-9865-7275ac25f771","system_id":"levelo_inurba_marseille","lat":43.25005,"lon":5.38927,"is_reserved":false,"is_disabled":false,"rental_uris":{"android":"levelo://app?vid=86aff10e-c6a5-4a45-9865-7275ac25f771","ios":"levelo://app?vid=86aff10e-c6a5-4a45-9865-7275ac25f771"},"vehicle_type_id":"4","last_reported":1742483433,"current_range_meters":8000,"station_id":"ce4bhgp2rcd13ifvqfd0","pricing_plan_id":"cebpf4jnsgd1na2vs0mg"},{"bike_id":"3ae4f3bd-c485-4c98-8e8e-3c9bb312423a","system_id":"levelo_inurba_marseille","lat":43.24808,"lon":5.37445,"is_reserved":false,"is_disabled":false,"rental_uris":{"android":"levelo://app?vid=3ae4f3bd-c485-4c98-8e8e-3c9bb312423a","ios":"levelo://app?vid=3ae4f3bd-c485-4c98-8e8e-3c9bb312423a"},"vehicle_type_id":"4","last_reported":1742483433,"current_range_meters":8000,"station_id":"ce4bhgh2rcd13ifvqfb0","pricing_plan_id":"cebpf4jnsgd1na2vs0mg"},{"bike_id":"a8b8dae1-87ef-4f8a-a2c8-fe9fd9bf0f77","system_id":"levelo_inurba_marseille","lat":43.23528,"lon":5.37771,"is_reserved":false,"is_disabled":false,"rental_uris":{"android":"levelo://app?vid=a8b8dae1-87ef-4f8a-a2c8-fe9fd9bf0f77","ios":"levelo://app?vid=a8b8dae1-87ef-4f8a-a2c8-fe9fd9bf0f77"},"vehicle_type_id":"4","last_reported":1742483433,"current_range_meters":8000,"station_id":"","pricing_plan_id":"cebpf4jnsgd1na2vs0mg"},{"bike_id":"3c4a5071-afd8-4132-943a-c731f217d950","system_id":"levelo_inurba_marseille","lat":43.27371,"lon":5.36259,"is_reserved":false,"is_disabled":false,"rental_uris":{"android":"levelo://app?vid=3c4a5071-afd8-4132-943a-c731f217d950","ios":"levelo://app?vid=3c4a5071-afd8-4132-943a-c731f217d950"},"vehicle_type_id":"4","last_reported":1742483433,"current_range_meters":8000,"station_id":"ce4bhbh2rcd13ifvqeo0","pricing_plan_id":"cebpf4jnsgd1na2vs0mg"},{"bike_id":"b4f87394-025a-48b1-8a94-c1bfb0a5f809","system_id":"levelo_inurba_marseille","lat":43.31071,"lon":5.3836,"is_reserved":false,"is_disabled":false,"rental_uris":{"android":"levelo://app?vid=b4f87394-025a-48b1-8a94-c1bfb0a5f809","ios":"levelo://app?vid=b4f87394-025a-48b1-8a94-c1bfb0a5f809"},"vehicle_type_id":"4","last_reported":1742483433,"current_range_meters":8000,"station_id":"ce4bgv92rcd13ifvqcr0","pricing_plan_id":"cebpf4jnsgd1na2vs0mg"},{"bike_id":"aafef8e1-7b2b-4e2b-97bb-de1294372794","system_id":"levelo_inurba_marseille","lat":43.27502,"lon":5.4245,"is_reserved":false,"is_disabled":false,"rental_uris":{"android":"levelo://app?vid=aafef8e1-7b2b-4e2b-97bb-de1294372794","ios":"levelo://app?vid=aafef8e1-7b2b-4e2b-97bb-de1294372794"},"vehicle_type_id":"4","last_reported":1742483433,"current_range_meters":8000,"station_id":"ce4bhn92rcd13ifvqgrg","pricing_plan_id":"cebpf4jnsgd1na2vs0mg"},{"bike_id":"f73ea29f-f283-48fd-b3f6-955c325c870d","system_id":"levelo_inurba_marseille","lat":43.25942,"lon":5.40913,"is_reserved":false,"is_disabled":false,"rental_uris":{"android":"levelo://app?vid=f73ea29f-f283-48fd-b3f6-955c325c870d","ios":"levelo://app?vid=f73ea29f-f283-48fd-b3f6-955c325c870d"},"vehicle_type_id":"4","last_reported":1742483433,"current_range_meters":8400,"station_id":"ce4bhm92rcd13ifvqglg","pricing_plan_id":"cebpf4jnsgd1na2vs0mg"},{"bike_id":"ace03f6b-f2d6-45e9-8357-f872c39bd7e9","system_id":"levelo_inurba_marseille","lat":43.23194,"lon":5.35554,"is_reserved":false,"is_disabled":false,"rental_uris":{"android":"levelo://app?vid=ace03f6b-f2d6-45e9-8357-f872c39bd7e9","ios":"levelo://app?vid=ace03f6b-f2d6-45e9-8357-f872c39bd7e9"},"vehicle_type_id":"4","last_reported":1742483433,"current_range_meters":8000,"station_id":"ce4bhu92rcd13ifvqi70","pricing_plan_id":"cebpf4jnsgd1na2vs0mg"},{"bike_id":"176d2e0b-da43-4b98-b92e-b45d4ab12b2f","system_id":"levelo_inurba_marseille","lat":43.30222,"lon":5.38452,"is_reserved":false,"is_disabled":false,"rental_uris":{"android":"levelo://app?vid=176d2e0b-da43-4b98-b92e-b45d4ab12b2f","ios":"levelo://app?vid=176d2e0b-da43-4b98-b92e-b45d4ab12b2f"},"vehicle_type_id":"4","last_reported":1742483433,"current_range_meters":8000,"station_id":"","pricing_plan_id":"cebpf4jnsgd1na2vs0mg"},{"bike_id":"6eb98e18-92f8-411c-92c0-82d5569fb85c","system_id":"levelo_inurba_marseille","lat":43.32361,"lon":5.36738,"is_reserved":false,"is_disabled":false,"rental_uris":{"android":"levelo://app?vid=6eb98e18-92f8-411c-92c0-82d5569fb85c","ios":"levelo://app?vid=6eb98e18-92f8-411c-92c0-82d5569fb85c"},"vehicle_type_id":"4","last_reported":1742483433,"current_range_meters":8400,"station_id":"ce4bhsh2rcd13ifvqi2g","pricing_plan_id":"cebpf4jnsgd1na2vs0mg"},{"bike_id":"e2373ad1-2b50-4dc9-9234-06298adab2ab","system_id":"levelo_inurba_marseille","lat":43.27318,"lon":5.39085,"is_reserved":false,"is_disabled":false,"rental_uris":{"android":"levelo://app?vid=e2373ad1-2b50-4dc9-9234-06298adab2ab","ios":"levelo://app?vid=e2373ad1-2b50-4dc9-9234-06298adab2ab"},"vehicle_type_id":"4","last_reported":1742483433,"current_range_meters":8400,"station_id":"ce4bhgp2rcd13ifvqfe0","pricing_plan_id":"cebpf4jnsgd1na2vs0mg"},{"bike_id":"f4c4bf6d-48a4-4198-942b-eda89b945e41","system_id":"levelo_inurba_marseille","lat":43.27366,"lon":5.36244,"is_reserved":false,"is_disabled":false,"rental_uris":{"android":"levelo://app?vid=f4c4bf6d-48a4-4198-942b-eda89b945e41","ios":"levelo://app?vid=f4c4bf6d-48a4-4198-942b-eda89b945e41"},"vehicle_type_id":"4","last_reported":1742483433,"current_range_meters":8400,"station_id":"ce4bhbh2rcd13ifvqeo0","pricing_plan_id":"cebpf4jnsgd1na2vs0mg"},{"bike_id":"ed5cea79-0bea-4c86-8c80-f8de23687c7f","system_id":"levelo_inurba_marseille","lat":43.2749,"lon":5.43973,"is_reserved":false,"is_disabled":false,"rental_uris":{"android":"levelo://app?vid=ed5cea79-0bea-4c86-8c80-f8de23687c7f","ios":"levelo://app?vid=ed5cea79-0bea-4c86-8c80-f8de23687c7f"},"vehicle_type_id":"4","last_reported":1742483433,"current_range_meters":8400,"station_id":"","pricing_plan_id":"cebpf4jnsgd1na2vs0mg"},{"bike_id":"471b8c1a-1a85-4080-b533-fb41f3dbfd81","system_id":"levelo_inurba_marseille","lat":43.23179,"lon":5.35541,"is_reserved":false,"is_disabled":false,"rental_uris":{"android":"levelo://app?vid=471b8c1a-1a85-4080-b533-fb41f3dbfd81","ios":"levelo://app?vid=471b8c1a-1a85-4080-b533-fb41f3dbfd81"},"vehicle_type_id":"4","last_reported":1742483433,"current_range_meters":8400,"station_id":"ce4bhu92rcd13ifvqi70","pricing_plan_id":"cebpf4jnsgd1na2vs0mg"},{"bike_id":"b7d7f342-1a92-4d45-8c3a-58d5270f4a90","system_id":"levelo_inurba_marseille","lat":43.25919,"lon":5.40916,"is_reserved":false,"is_disabled":false,"rental_uris":{"android":"levelo://app?vid=b7d7f342-1a92-4d45-8c3a-58d5270f4a90","ios":"levelo://app?vid=b7d7f342-1a92-4d45-8c3a-58d5270f4a90"},"vehicle_type_id":"4","last_reported":1742483433,"current_range_meters":8400,"station_id":"ce4bhm92rcd13ifvqglg","pricing_plan_id":"cebpf4jnsgd1na2vs0mg"},{"bike_id":"a2c22420-6af3-4ac4-9566-5987df0bdfa2","system_id":"levelo_inurba_marseille","lat":43.28452,"lon":5.392,"is_reserved":false,"is_disabled":false,"rental_uris":{"android":"levelo://app?vid=a2c22420-6af3-4ac4-9566-5987df0bdfa2","ios":"levelo://app?vid=a2c22420-6af3-4ac4-9566-5987df0bdfa2"},"vehicle_type_id":"4","last_reported":1742483433,"current_range_meters":8400,"station_id":"ce4bhoh2rcd13ifvqh5g","pricing_plan_id":"cebpf4jnsgd1na2vs0mg"},{"bike_id":"0b74de9f-e2b4-4a02-b6c3-278b27f0b52d","system_id":"levelo_inurba_marseille","lat":43.23144,"lon":5.43712,"is_reserved":false,"is_disabled":false,"rental_uris":{"android":"levelo://app?vid=0b74de9f-e2b4-4a02-b6c3-278b27f0b52d","ios":"levelo://app?vid=0b74de9f-e2b4-4a02-b6c3-278b27f0b52d"},"vehicle_type_id":"4","last_reported":1742483433,"current_range_meters":8400,"station_id":"ce4bhmp2rcd13ifvqgog","pricing_plan_id":"cebpf4jnsgd1na2vs0mg"},{"bike_id":"98e3e236-ea27-4f9f-a78c-2ae521f178dd","system_id":"levelo_inurba_marseille","lat":43.29064,"lon":5.37164,"is_reserved":false,"is_disabled":false,"rental_uris":{"android":"levelo://app?vid=98e3e236-ea27-4f9f-a78c-2ae521f178dd","ios":"levelo://app?vid=98e3e236-ea27-4f9f-a78c-2ae521f178dd"},"vehicle_type_id":"4","last_reported":1742483433,"current_range_meters":8400,"station_id":"ce4bh5p2rcd13ifvqe4g","pricing_plan_id":"cebpf4jnsgd1na2vs0mg"},{"bike_id":"a77224e7-4c97-4fe0-a63b-6b5a762be6ec","system_id":"levelo_inurba_marseille","lat":43.29196,"lon":5.39323,"is_reserved":false,"is_disabled":false,"rental_uris":{"android":"levelo://app?vid=a77224e7-4c97-4fe0-a63b-6b5a762be6ec","ios":"levelo://app?vid=a77224e7-4c97-4fe0-a63b-6b5a762be6ec"},"vehicle_type_id":"4","last_reported":1742483433,"current_range_meters":8400,"station_id":"ce4bh192rcd13ifvqdd0","pricing_plan_id":"cebpf4jnsgd1na2vs0mg"},{"bike_id":"248596d9-129b-472b-a9a1-5da6606146ac","system_id":"levelo_inurba_marseille","lat":43.28348,"lon":5.38104,"is_reserved":false,"is_disabled":false,"rental_uris":{"android":"levelo://app?vid=248596d9-129b-472b-a9a1-5da6606146ac","ios":"levelo://app?vid=248596d9-129b-472b-a9a1-5da6606146ac"},"vehicle_type_id":"4","last_reported":1742483433,"current_range_meters":8800,"station_id":"ce4bh412rcd13ifvqdr0","pricing_plan_id":"cebpf4jnsgd1na2vs0mg"},{"bike_id":"9b2a4ae1-45d2-42a7-b1d8-970226b193d0","system_id":"levelo_inurba_marseille","lat":43.24189,"lon":5.39739,"is_reserved":false,"is_disabled":false,"rental_uris":{"android":"levelo://app?vid=9b2a4ae1-45d2-42a7-b1d8-970226b193d0","ios":"levelo://app?vid=9b2a4ae1-45d2-42a7-b1d8-970226b193d0"},"vehicle_type_id":"4","last_reported":1742483433,"current_range_meters":8800,"station_id":"ce4bhn12rcd13ifvqgpg","pricing_plan_id":"cebpf4jnsgd1na2vs0mg"},{"bike_id":"d96160e5-8d5b-4a20-ab7c-388f9914087a","system_id":"levelo_inurba_marseille","lat":43.27326,"lon":5.39072,"is_reserved":false,"is_disabled":false,"rental_uris":{"android":"levelo://app?vid=d96160e5-8d5b-4a20-ab7c-388f9914087a","ios":"levelo://app?vid=d96160e5-8d5b-4a20-ab7c-388f9914087a"},"vehicle_type_id":"4","last_reported":1742483433,"current_range_meters":8800,"station_id":"ce4bhgp2rcd13ifvqfe0","pricing_plan_id":"cebpf4jnsgd1na2vs0mg"},{"bike_id":"504ee4bc-f94f-46d1-b4aa-bb159ff861b7","system_id":"levelo_inurba_marseille","lat":43.27184,"lon":5.4102,"is_reserved":false,"is_disabled":false,"rental_uris":{"android":"levelo://app?vid=504ee4bc-f94f-46d1-b4aa-bb159ff861b7","ios":"levelo://app?vid=504ee4bc-f94f-46d1-b4aa-bb159ff861b7"},"vehicle_type_id":"4","last_reported":1742483433,"current_range_meters":8800,"station_id":"ce4bhl12rcd13ifvqgf0","pricing_plan_id":"cebpf4jnsgd1na2vs0mg"},{"bike_id":"671210b1-9e8f-4893-953f-985ab8b97e34","system_id":"levelo_inurba_marseille","lat":43.32114,"lon":5.36762,"is_reserved":false,"is_disabled":false,"rental_uris":{"android":"levelo://app?vid=671210b1-9e8f-4893-953f-985ab8b97e34","ios":"levelo://app?vid=671210b1-9e8f-4893-953f-985ab8b97e34"},"vehicle_type_id":"4","last_reported":1742483433,"current_range_meters":8800,"station_id":"ce4bhrh2rcd13ifvqhug","pricing_plan_id":"cebpf4jnsgd1na2vs0mg"},{"bike_id":"6745ed85-ab48-4664-a7f2-81ee57ad5a34","system_id":"levelo_inurba_marseille","lat":43.30553,"lon":5.36524,"is_reserved":false,"is_disabled":false,"rental_uris":{"android":"levelo://app?vid=6745ed85-ab48-4664-a7f2-81ee57ad5a34","ios":"levelo://app?vid=6745ed85-ab48-4664-a7f2-81ee57ad5a34"},"vehicle_type_id":"4","last_reported":1742483433,"current_range_meters":8800,"station_id":"ce4bgs12rcd13ifvqcag","pricing_plan_id":"cebpf4jnsgd1na2vs0mg"},{"bike_id":"cb6062cd-3cfa-4917-b79b-5707b99e3c03","system_id":"levelo_inurba_marseille","lat":43.321185,"lon":5.367534,"is_reserved":false,"is_disabled":false,"rental_uris":{"android":"levelo://app?vid=cb6062cd-3cfa-4917-b79b-5707b99e3c03","ios":"levelo://app?vid=cb6062cd-3cfa-4917-b79b-5707b99e3c03"},"vehicle_type_id":"4","last_reported":1742483433,"current_range_meters":9200,"station_id":"ce4bho92rcd13ifvqh3g","pricing_plan_id":"cebpf4jnsgd1na2vs0mg"},{"bike_id":"fa3ff28f-bdb8-472a-b005-3341767faa5f","system_id":"levelo_inurba_marseille","lat":43.30138,"lon":5.37405,"is_reserved":false,"is_disabled":false,"rental_uris":{"android":"levelo://app?vid=fa3ff28f-bdb8-472a-b005-3341767faa5f","ios":"levelo://app?vid=fa3ff28f-bdb8-472a-b005-3341767faa5f"},"vehicle_type_id":"4","last_reported":1742483433,"current_range_meters":9200,"station_id":"ce4bgs92rcd13ifvqcc0","pricing_plan_id":"cebpf4jnsgd1na2vs0mg"},{"bike_id":"dc794141-ff9e-4a7f-b185-4194ca570c51","system_id":"levelo_inurba_marseille","lat":43.29616,"lon":5.3772,"is_reserved":false,"is_disabled":false,"rental_uris":{"android":"levelo://app?vid=dc794141-ff9e-4a7f-b185-4194ca570c51","ios":"levelo://app?vid=dc794141-ff9e-4a7f-b185-4194ca570c51"},"vehicle_type_id":"4","last_reported":1742483433,"current_range_meters":8800,"station_id":"ce4bgi92rcd13ifvqb90","pricing_plan_id":"cebpf4jnsgd1na2vs0mg"},{"bike_id":"6d3f830c-4185-4d92-aa5d-1c17ab550c3a","system_id":"levelo_inurba_marseille","lat":43.3212,"lon":5.36794,"is_reserved":false,"is_disabled":false,"rental_uris":{"android":"levelo://app?vid=6d3f830c-4185-4d92-aa5d-1c17ab550c3a","ios":"levelo://app?vid=6d3f830c-4185-4d92-aa5d-1c17ab550c3a"},"vehicle_type_id":"4","last_reported":1742483433,"current_range_meters":9200,"station_id":"ce4bhrh2rcd13ifvqhug","pricing_plan_id":"cebpf4jnsgd1na2vs0mg"},{"bike_id":"ab954655-199a-4dd0-9fe4-7af00487def9","system_id":"levelo_inurba_marseille","lat":43.301526,"lon":5.374171,"is_reserved":false,"is_disabled":false,"rental_uris":{"android":"levelo://app?vid=ab954655-199a-4dd0-9fe4-7af00487def9","ios":"levelo://app?vid=ab954655-199a-4dd0-9fe4-7af00487def9"},"vehicle_type_id":"4","last_reported":1742483433,"current_range_meters":9200,"station_id":"ce4bgs92rcd13ifvqcc0","pricing_plan_id":"cebpf4jnsgd1na2vs0mg"},{"bike_id":"06d0e448-9a0a-4f39-bfaf-824aafe9c300","system_id":"levelo_inurba_marseille","lat":43.3266,"lon":5.40996,"is_reserved":false,"is_disabled":false,"rental_uris":{"android":"levelo://app?vid=06d0e448-9a0a-4f39-bfaf-824aafe9c300","ios":"levelo://app?vid=06d0e448-9a0a-4f39-bfaf-824aafe9c300"},"vehicle_type_id":"4","last_reported":1742483433,"current_range_meters":9200,"station_id":"ce4bhpp2rcd13ifvqhgg","pricing_plan_id":"cebpf4jnsgd1na2vs0mg"},{"bike_id":"8430fce9-9844-401a-bd7e-2b339be2949f","system_id":"levelo_inurba_marseille","lat":43.27616,"lon":5.36132,"is_reserved":false,"is_disabled":false,"rental_uris":{"android":"levelo://app?vid=8430fce9-9844-401a-bd7e-2b339be2949f","ios":"levelo://app?vid=8430fce9-9844-401a-bd7e-2b339be2949f"},"vehicle_type_id":"4","last_reported":1742483433,"current_range_meters":9200,"station_id":"ce4bgj92rcd13ifvqbe0","pricing_plan_id":"cebpf4jnsgd1na2vs0mg"},{"bike_id":"de84da4a-3571-420d-b198-b16185707696","system_id":"levelo_inurba_marseille","lat":43.25914,"lon":5.40899,"is_reserved":false,"is_disabled":false,"rental_uris":{"android":"levelo://app?vid=de84da4a-3571-420d-b198-b16185707696","ios":"levelo://app?vid=de84da4a-3571-420d-b198-b16185707696"},"vehicle_type_id":"4","last_reported":1742483433,"current_range_meters":9200,"station_id":"ce4bhm92rcd13ifvqglg","pricing_plan_id":"cebpf4jnsgd1na2vs0mg"},{"bike_id":"aba7a31c-d1db-4bb4-ba56-e84838fed699","system_id":"levelo_inurba_marseille","lat":43.24645,"lon":5.38887,"is_reserved":false,"is_disabled":false,"rental_uris":{"android":"levelo://app?vid=aba7a31c-d1db-4bb4-ba56-e84838fed699","ios":"levelo://app?vid=aba7a31c-d1db-4bb4-ba56-e84838fed699"},"vehicle_type_id":"4","last_reported":1742483433,"current_range_meters":9200,"station_id":"ce4bhg12rcd13ifvqf60","pricing_plan_id":"cebpf4jnsgd1na2vs0mg"},{"bike_id":"1983241e-dcf4-412a-b965-b9e661a9d6d5","system_id":"levelo_inurba_marseille","lat":43.29828,"lon":5.40165,"is_reserved":false,"is_disabled":false,"rental_uris":{"android":"levelo://app?vid=1983241e-dcf4-412a-b965-b9e661a9d6d5","ios":"levelo://app?vid=1983241e-dcf4-412a-b965-b9e661a9d6d5"},"vehicle_type_id":"4","last_reported":1742483433,"current_range_meters":9200,"station_id":"","pricing_plan_id":"cebpf4jnsgd1na2vs0mg"},{"bike_id":"0d95e6a4-60fa-4989-a414-058ecea80aee","system_id":"levelo_inurba_marseille","lat":43.30502,"lon":5.36527,"is_reserved":false,"is_disabled":false,"rental_uris":{"android":"levelo://app?vid=0d95e6a4-60fa-4989-a414-058ecea80aee","ios":"levelo://app?vid=0d95e6a4-60fa-4989-a414-058ecea80aee"},"vehicle_type_id":"4","last_reported":1742483433,"current_range_meters":9600,"station_id":"","pricing_plan_id":"cebpf4jnsgd1na2vs0mg"},{"bike_id":"b3f6f1ae-45b7-4a88-8624-47e3cf20603d","system_id":"levelo_inurba_marseille","lat":43.25865,"lon":5.39895,"is_reserved":false,"is_disabled":false,"rental_uris":{"android":"levelo://app?vid=b3f6f1ae-45b7-4a88-8624-47e3cf20603d","ios":"levelo://app?vid=b3f6f1ae-45b7-4a88-8624-47e3cf20603d"},"vehicle_type_id":"4","last_reported":1742483433,"current_range_meters":9600,"station_id":"ce4bhl92rcd13ifvqghg","pricing_plan_id":"cebpf4jnsgd1na2vs0mg"},{"bike_id":"4ad02f92-df1e-4602-9f5a-fe2c45a4c428","system_id":"levelo_inurba_marseille","lat":43.28079,"lon":5.39658,"is_reserved":false,"is_disabled":false,"rental_uris":{"android":"levelo://app?vid=4ad02f92-df1e-4602-9f5a-fe2c45a4c428","ios":"levelo://app?vid=4ad02f92-df1e-4602-9f5a-fe2c45a4c428"},"vehicle_type_id":"4","last_reported":1742483433,"current_range_meters":9600,"station_id":"ce4bho12rcd13ifvqh2g","pricing_plan_id":"cebpf4jnsgd1na2vs0mg"},{"bike_id":"efb9ed43-dd51-4c99-a034-3cda93bac910","system_id":"levelo_inurba_marseille","lat":43.29932,"lon":5.36549,"is_reserved":false,"is_disabled":false,"rental_uris":{"android":"levelo://app?vid=efb9ed43-dd51-4c99-a034-3cda93bac910","ios":"levelo://app?vid=efb9ed43-dd51-4c99-a034-3cda93bac910"},"vehicle_type_id":"4","last_reported":1742483433,"current_range_meters":9600,"station_id":"ce4bgm92rcd13ifvqbr0","pricing_plan_id":"cebpf4jnsgd1na2vs0mg"},{"bike_id":"a0deeb6c-62a7-4efb-834c-1bec837aaba6","system_id":"levelo_inurba_marseille","lat":43.33715,"lon":5.37791,"is_reserved":false,"is_disabled":false,"rental_uris":{"android":"levelo://app?vid=a0deeb6c-62a7-4efb-834c-1bec837aaba6","ios":"levelo://app?vid=a0deeb6c-62a7-4efb-834c-1bec837aaba6"},"vehicle_type_id":"4","last_reported":1742483433,"current_range_meters":9600,"station_id":"","pricing_plan_id":"cebpf4jnsgd1na2vs0mg"},{"bike_id":"ba3d3621-1f4e-4fa8-80df-d43a0e2d8e52","system_id":"levelo_inurba_marseille","lat":43.29799,"lon":5.40394,"is_reserved":false,"is_disabled":false,"rental_uris":{"android":"levelo://app?vid=ba3d3621-1f4e-4fa8-80df-d43a0e2d8e52","ios":"levelo://app?vid=ba3d3621-1f4e-4fa8-80df-d43a0e2d8e52"},"vehicle_type_id":"4","last_reported":1742483433,"current_range_meters":9600,"station_id":"ce4bh112rcd13ifvqd90","pricing_plan_id":"cebpf4jnsgd1na2vs0mg"},{"bike_id":"898eab17-d035-40aa-9b32-d668cf4406f4","system_id":"levelo_inurba_marseille","lat":43.32297,"lon":5.38254,"is_reserved":false,"is_disabled":false,"rental_uris":{"android":"levelo://app?vid=898eab17-d035-40aa-9b32-d668cf4406f4","ios":"levelo://app?vid=898eab17-d035-40aa-9b32-d668cf4406f4"},"vehicle_type_id":"4","last_reported":1742483433,"current_range_meters":9600,"station_id":"ce4bhr12rcd13ifvqhqg","pricing_plan_id":"cebpf4jnsgd1na2vs0mg"},{"bike_id":"d7645557-54c5-44ed-8c44-41e433a350da","system_id":"levelo_inurba_marseille","lat":43.29474,"lon":5.35566,"is_reserved":false,"is_disabled":false,"rental_uris":{"android":"levelo://app?vid=d7645557-54c5-44ed-8c44-41e433a350da","ios":"levelo://app?vid=d7645557-54c5-44ed-8c44-41e433a350da"},"vehicle_type_id":"4","last_reported":1742483433,"current_range_meters":9600,"station_id":"","pricing_plan_id":"cebpf4jnsgd1na2vs0mg"},{"bike_id":"1c216d3b-50b8-4037-9790-072766a4a8f3","system_id":"levelo_inurba_marseille","lat":43.26222,"lon":5.37441,"is_reserved":false,"is_disabled":false,"rental_uris":{"android":"levelo://app?vid=1c216d3b-50b8-4037-9790-072766a4a8f3","ios":"levelo://app?vid=1c216d3b-50b8-4037-9790-072766a4a8f3"},"vehicle_type_id":"4","last_reported":1742483433,"current_range_meters":10000,"station_id":"ce4bhgp2rcd13ifvqfc0","pricing_plan_id":"cebpf4jnsgd1na2vs0mg"},{"bike_id":"ffbee1c9-ab8d-45ee-b606-c546ab78c5f2","system_id":"levelo_inurba_marseille","lat":43.29732,"lon":5.37792,"is_reserved":false,"is_disabled":false,"rental_uris":{"android":"levelo://app?vid=ffbee1c9-ab8d-45ee-b606-c546ab78c5f2","ios":"levelo://app?vid=ffbee1c9-ab8d-45ee-b606-c546ab78c5f2"},"vehicle_type_id":"4","last_reported":1742483433,"current_range_meters":10000,"station_id":"","pricing_plan_id":"cebpf4jnsgd1na2vs0mg"},{"bike_id":"78cc3ab6-e404-4151-b59b-6f047344a20e","system_id":"levelo_inurba_marseille","lat":43.29261,"lon":5.40903,"is_reserved":false,"is_disabled":false,"rental_uris":{"android":"levelo://app?vid=78cc3ab6-e404-4151-b59b-6f047344a20e","ios":"levelo://app?vid=78cc3ab6-e404-4151-b59b-6f047344a20e"},"vehicle_type_id":"4","last_reported":1742483433,"current_range_meters":10000,"station_id":"ce4bh192rcd13ifvqdc0","pricing_plan_id":"cebpf4jnsgd1na2vs0mg"},{"bike_id":"5a744e10-af42-4895-8ea6-4be2388dba33","system_id":"levelo_inurba_marseille","lat":43.28439,"lon":5.39193,"is_reserved":false,"is_disabled":false,"rental_uris":{"android":"levelo://app?vid=5a744e10-af42-4895-8ea6-4be2388dba33","ios":"levelo://app?vid=5a744e10-af42-4895-8ea6-4be2388dba33"},"vehicle_type_id":"4","last_reported":1742483433,"current_range_meters":10000,"station_id":"ce4bhoh2rcd13ifvqh5g","pricing_plan_id":"cebpf4jnsgd1na2vs0mg"},{"bike_id":"179c5197-3e72-4838-8728-31f06512a069","system_id":"levelo_inurba_marseille","lat":43.23964,"lon":5.36633,"is_reserved":false,"is_disabled":false,"rental_uris":{"android":"levelo://app?vid=179c5197-3e72-4838-8728-31f06512a069","ios":"levelo://app?vid=179c5197-3e72-4838-8728-31f06512a069"},"vehicle_type_id":"4","last_reported":1742483433,"current_range_meters":10000,"station_id":"ce4bhi12rcd13ifvqfp0","pricing_plan_id":"cebpf4jnsgd1na2vs0mg"},{"bike_id":"6883c811-8746-429a-bd41-848ecf4dd19e","system_id":"levelo_inurba_marseille","lat":43.23518,"lon":5.37754,"is_reserved":false,"is_disabled":false,"rental_uris":{"android":"levelo://app?vid=6883c811-8746-429a-bd41-848ecf4dd19e","ios":"levelo://app?vid=6883c811-8746-429a-bd41-848ecf4dd19e"},"vehicle_type_id":"4","last_reported":1742483433,"current_range_meters":10000,"station_id":"","pricing_plan_id":"cebpf4jnsgd1na2vs0mg"},{"bike_id":"181b1742-09ee-46ab-8712-67d8396af664","system_id":"levelo_inurba_marseille","lat":43.24181,"lon":5.39735,"is_reserved":false,"is_disabled":false,"rental_uris":{"android":"levelo://app?vid=181b1742-09ee-46ab-8712-67d8396af664","ios":"levelo://app?vid=181b1742-09ee-46ab-8712-67d8396af664"},"vehicle_type_id":"4","last_reported":1742483433,"current_range_meters":10000,"station_id":"ce4bhn12rcd13ifvqgpg","pricing_plan_id":"cebpf4jnsgd1na2vs0mg"},{"bike_id":"44be6318-b2e8-471f-8553-2aee231a4fa2","system_id":"levelo_inurba_marseille","lat":43.30531,"lon":5.36523,"is_reserved":false,"is_disabled":false,"rental_uris":{"android":"levelo://app?vid=44be6318-b2e8-471f-8553-2aee231a4fa2","ios":"levelo://app?vid=44be6318-b2e8-471f-8553-2aee231a4fa2"},"vehicle_type_id":"4","last_reported":1742483433,"current_range_meters":10000,"station_id":"ce4bgs12rcd13ifvqcag","pricing_plan_id":"cebpf4jnsgd1na2vs0mg"},{"bike_id":"c5bb5dca-1dc9-450e-9a3d-9fa737cf345d","system_id":"levelo_inurba_marseille","lat":43.2465,"lon":5.38893,"is_reserved":false,"is_disabled":false,"rental_uris":{"android":"levelo://app?vid=c5bb5dca-1dc9-450e-9a3d-9fa737cf345d","ios":"levelo://app?vid=c5bb5dca-1dc9-450e-9a3d-9fa737cf345d"},"vehicle_type_id":"4","last_reported":1742483433,"current_range_meters":10000,"station_id":"ce4bhg12rcd13ifvqf60","pricing_plan_id":"cebpf4jnsgd1na2vs0mg"},{"bike_id":"b4f58fb9-f8fc-49f3-b537-d6ea695f1338","system_id":"levelo_inurba_marseille","lat":43.24671,"lon":5.3815,"is_reserved":false,"is_disabled":false,"rental_uris":{"android":"levelo://app?vid=b4f58fb9-f8fc-49f3-b537-d6ea695f1338","ios":"levelo://app?vid=b4f58fb9-f8fc-49f3-b537-d6ea695f1338"},"vehicle_type_id":"4","last_reported":1742483433,"current_range_meters":10000,"station_id":"ce4bhih2rcd13ifvqfr0","pricing_plan_id":"cebpf4jnsgd1na2vs0mg"},{"bike_id":"2e78a2bb-c8fd-40f0-816e-5e0fec01c77f","system_id":"levelo_inurba_marseille","lat":43.313606,"lon":5.367164,"is_reserved":false,"is_disabled":false,"rental_uris":{"android":"levelo://app?vid=2e78a2bb-c8fd-40f0-816e-5e0fec01c77f","ios":"levelo://app?vid=2e78a2bb-c8fd-40f0-816e-5e0fec01c77f"},"vehicle_type_id":"4","last_reported":1742483433,"current_range_meters":10800,"station_id":"ce4bgr92rcd13ifvqc6g","pricing_plan_id":"cebpf4jnsgd1na2vs0mg"},{"bike_id":"e4fa4be4-c48f-4bf6-af84-7a8304cec4b3","system_id":"levelo_inurba_marseille","lat":43.24245,"lon":5.39633,"is_reserved":false,"is_disabled":false,"rental_uris":{"android":"levelo://app?vid=e4fa4be4-c48f-4bf6-af84-7a8304cec4b3","ios":"levelo://app?vid=e4fa4be4-c48f-4bf6-af84-7a8304cec4b3"},"vehicle_type_id":"4","last_reported":1742483433,"current_range_meters":10800,"station_id":"","pricing_plan_id":"cebpf4jnsgd1na2vs0mg"},{"bike_id":"9b6c7625-970f-4b1d-b285-5ed75625f7aa","system_id":"levelo_inurba_marseille","lat":43.30872,"lon":5.39641,"is_reserved":false,"is_disabled":false,"rental_uris":{"android":"levelo://app?vid=9b6c7625-970f-4b1d-b285-5ed75625f7aa","ios":"levelo://app?vid=9b6c7625-970f-4b1d-b285-5ed75625f7aa"},"vehicle_type_id":"4","last_reported":1742483433,"current_range_meters":10800,"station_id":"ce4bh012rcd13ifvqcv0","pricing_plan_id":"cebpf4jnsgd1na2vs0mg"},{"bike_id":"fa49cbc9-0c00-4095-8dde-59da84de7f55","system_id":"levelo_inurba_marseille","lat":43.29633,"lon":5.40596,"is_reserved":false,"is_disabled":false,"rental_uris":{"android":"levelo://app?vid=fa49cbc9-0c00-4095-8dde-59da84de7f55","ios":"levelo://app?vid=fa49cbc9-0c00-4095-8dde-59da84de7f55"},"vehicle_type_id":"4","last_reported":1742483433,"current_range_meters":10800,"station_id":"ce4bh0h2rcd13ifvqd60","pricing_plan_id":"cebpf4jnsgd1na2vs0mg"},{"bike_id":"92f31abb-25e7-481b-baf0-01963f45f7b3","system_id":"levelo_inurba_marseille","lat":43.30535,"lon":5.36522,"is_reserved":false,"is_disabled":false,"rental_uris":{"android":"levelo://app?vid=92f31abb-25e7-481b-baf0-01963f45f7b3","ios":"levelo://app?vid=92f31abb-25e7-481b-baf0-01963f45f7b3"},"vehicle_type_id":"4","last_reported":1742483433,"current_range_meters":10800,"station_id":"ce4bgs12rcd13ifvqcag","pricing_plan_id":"cebpf4jnsgd1na2vs0mg"},{"bike_id":"b9e4bdd0-024c-4547-9a94-39d0c7923642","system_id":"levelo_inurba_marseille","lat":43.24189,"lon":5.36366,"is_reserved":false,"is_disabled":false,"rental_uris":{"android":"levelo://app?vid=b9e4bdd0-024c-4547-9a94-39d0c7923642","ios":"levelo://app?vid=b9e4bdd0-024c-4547-9a94-39d0c7923642"},"vehicle_type_id":"4","last_reported":1742483433,"current_range_meters":10800,"station_id":"cpo36qri1sfpv3e86is0","pricing_plan_id":"cebpf4jnsgd1na2vs0mg"},{"bike_id":"c169c3ed-b0b4-46a8-b8f6-cf446124b8df","system_id":"levelo_inurba_marseille","lat":43.24656,"lon":5.38173,"is_reserved":false,"is_disabled":false,"rental_uris":{"android":"levelo://app?vid=c169c3ed-b0b4-46a8-b8f6-cf446124b8df","ios":"levelo://app?vid=c169c3ed-b0b4-46a8-b8f6-cf446124b8df"},"vehicle_type_id":"4","last_reported":1742483433,"current_range_meters":10800,"station_id":"ce4bhih2rcd13ifvqfr0","pricing_plan_id":"cebpf4jnsgd1na2vs0mg"},{"bike_id":"c5544639-2d44-4b2d-a154-7c53abb9719f","system_id":"levelo_inurba_marseille","lat":43.24086,"lon":5.3775,"is_reserved":false,"is_disabled":false,"rental_uris":{"android":"levelo://app?vid=c5544639-2d44-4b2d-a154-7c53abb9719f","ios":"levelo://app?vid=c5544639-2d44-4b2d-a154-7c53abb9719f"},"vehicle_type_id":"4","last_reported":1742483433,"current_range_meters":11200,"station_id":"ce4bhnp2rcd13ifvqgvg","pricing_plan_id":"cebpf4jnsgd1na2vs0mg"},{"bike_id":"f8598189-52c2-42ad-9f8a-f7538a3d34b0","system_id":"levelo_inurba_marseille","lat":43.31175,"lon":5.38706,"is_reserved":false,"is_disabled":false,"rental_uris":{"android":"levelo://app?vid=f8598189-52c2-42ad-9f8a-f7538a3d34b0","ios":"levelo://app?vid=f8598189-52c2-42ad-9f8a-f7538a3d34b0"},"vehicle_type_id":"4","last_reported":1742483433,"current_range_meters":11200,"station_id":"ce4bgv12rcd13ifvqcp0","pricing_plan_id":"cebpf4jnsgd1na2vs0mg"},{"bike_id":"6370e802-1ce7-46b3-ab38-c299ec041499","system_id":"levelo_inurba_marseille","lat":43.26697,"lon":5.38239,"is_reserved":false,"is_disabled":false,"rental_uris":{"android":"levelo://app?vid=6370e802-1ce7-46b3-ab38-c299ec041499","ios":"levelo://app?vid=6370e802-1ce7-46b3-ab38-c299ec041499"},"vehicle_type_id":"4","last_reported":1742483433,"current_range_meters":11200,"station_id":"ce4bhg92rcd13ifvqf90","pricing_plan_id":"cebpf4jnsgd1na2vs0mg"},{"bike_id":"d274abcf-916e-4210-bcf6-43c4bc78a01b","system_id":"levelo_inurba_marseille","lat":43.275787,"lon":5.384296,"is_reserved":false,"is_disabled":false,"rental_uris":{"android":"levelo://app?vid=d274abcf-916e-4210-bcf6-43c4bc78a01b","ios":"levelo://app?vid=d274abcf-916e-4210-bcf6-43c4bc78a01b"},"vehicle_type_id":"4","last_reported":1742483433,"current_range_meters":11200,"station_id":"ce4bhh92rcd13ifvqfi0","pricing_plan_id":"cebpf4jnsgd1na2vs0mg"},{"bike_id":"563ee584-476e-43f4-83dc-52890f9997a1","system_id":"levelo_inurba_marseille","lat":43.25574,"lon":5.38221,"is_reserved":false,"is_disabled":false,"rental_uris":{"android":"levelo://app?vid=563ee584-476e-43f4-83dc-52890f9997a1","ios":"levelo://app?vid=563ee584-476e-43f4-83dc-52890f9997a1"},"vehicle_type_id":"4","last_reported":1742483433,"current_range_meters":11200,"station_id":"ce4bhih2rcd13ifvqfs0","pricing_plan_id":"cebpf4jnsgd1na2vs0mg"},{"bike_id":"10040ff5-09c7-4549-9697-fbeae20cf216","system_id":"levelo_inurba_marseille","lat":43.24648,"lon":5.38894,"is_reserved":false,"is_disabled":false,"rental_uris":{"android":"levelo://app?vid=10040ff5-09c7-4549-9697-fbeae20cf216","ios":"levelo://app?vid=10040ff5-09c7-4549-9697-fbeae20cf216"},"vehicle_type_id":"4","last_reported":1742483433,"current_range_meters":11600,"station_id":"ce4bhg12rcd13ifvqf60","pricing_plan_id":"cebpf4jnsgd1na2vs0mg"},{"bike_id":"4b82f001-2f5b-4dad-8681-23d9378ab3f4","system_id":"levelo_inurba_marseille","lat":43.298431,"lon":5.362921,"is_reserved":false,"is_disabled":false,"rental_uris":{"android":"levelo://app?vid=4b82f001-2f5b-4dad-8681-23d9378ab3f4","ios":"levelo://app?vid=4b82f001-2f5b-4dad-8681-23d9378ab3f4"},"vehicle_type_id":"4","last_reported":1742483433,"current_range_meters":11600,"station_id":"ce4bh612rcd13ifvqe6g","pricing_plan_id":"cebpf4jnsgd1na2vs0mg"},{"bike_id":"12c8d64e-a113-46d0-a4a4-ed59d367ed5e","system_id":"levelo_inurba_marseille","lat":43.28411,"lon":5.37522,"is_reserved":false,"is_disabled":false,"rental_uris":{"android":"levelo://app?vid=12c8d64e-a113-46d0-a4a4-ed59d367ed5e","ios":"levelo://app?vid=12c8d64e-a113-46d0-a4a4-ed59d367ed5e"},"vehicle_type_id":"4","last_reported":1742483433,"current_range_meters":11600,"station_id":"ce4bh412rcd13ifvqds0","pricing_plan_id":"cebpf4jnsgd1na2vs0mg"},{"bike_id":"3126940c-2786-4517-b3fd-4462dd672603","system_id":"levelo_inurba_marseille","lat":43.312744,"lon":5.401706,"is_reserved":false,"is_disabled":false,"rental_uris":{"android":"levelo://app?vid=3126940c-2786-4517-b3fd-4462dd672603","ios":"levelo://app?vid=3126940c-2786-4517-b3fd-4462dd672603"},"vehicle_type_id":"4","last_reported":1742483433,"current_range_meters":11600,"station_id":"","pricing_plan_id":"cebpf4jnsgd1na2vs0mg"},{"bike_id":"f75d32cd-32c5-4f70-9df2-f2320d24a18d","system_id":"levelo_inurba_marseille","lat":43.31998,"lon":5.38166,"is_reserved":false,"is_disabled":false,"rental_uris":{"android":"levelo://app?vid=f75d32cd-32c5-4f70-9df2-f2320d24a18d","ios":"levelo://app?vid=f75d32cd-32c5-4f70-9df2-f2320d24a18d"},"vehicle_type_id":"4","last_reported":1742483433,"current_range_meters":11600,"station_id":"ce4bhr12rcd13ifvqhpg","pricing_plan_id":"cebpf4jnsgd1na2vs0mg"},{"bike_id":"6bb71293-893a-445a-981a-dd86f726209b","system_id":"levelo_inurba_marseille","lat":43.2861,"lon":5.35105,"is_reserved":false,"is_disabled":false,"rental_uris":{"android":"levelo://app?vid=6bb71293-893a-445a-981a-dd86f726209b","ios":"levelo://app?vid=6bb71293-893a-445a-981a-dd86f726209b"},"vehicle_type_id":"4","last_reported":1742483433,"current_range_meters":12000,"station_id":"ce4bhch2rcd13ifvqeug","pricing_plan_id":"cebpf4jnsgd1na2vs0mg"},{"bike_id":"e492177b-e9ed-4cac-baed-0b7ba54277b7","system_id":"levelo_inurba_marseille","lat":43.29575,"lon":5.39986,"is_reserved":false,"is_disabled":false,"rental_uris":{"android":"levelo://app?vid=e492177b-e9ed-4cac-baed-0b7ba54277b7","ios":"levelo://app?vid=e492177b-e9ed-4cac-baed-0b7ba54277b7"},"vehicle_type_id":"4","last_reported":1742483433,"current_range_meters":12000,"station_id":"ce4bh312rcd13ifvqdj0","pricing_plan_id":"cebpf4jnsgd1na2vs0mg"},{"bike_id":"b03c2ced-7096-40bd-a7e4-f48d4dc91bb2","system_id":"levelo_inurba_marseille","lat":43.27213,"lon":5.39183,"is_reserved":false,"is_disabled":false,"rental_uris":{"android":"levelo://app?vid=b03c2ced-7096-40bd-a7e4-f48d4dc91bb2","ios":"levelo://app?vid=b03c2ced-7096-40bd-a7e4-f48d4dc91bb2"},"vehicle_type_id":"4","last_reported":1742483433,"current_range_meters":12000,"station_id":"ce4bhhp2rcd13ifvqfm0","pricing_plan_id":"cebpf4jnsgd1na2vs0mg"},{"bike_id":"303ac50b-ed3d-4323-82b7-6f4167b93f4e","system_id":"levelo_inurba_marseille","lat":43.28266,"lon":5.35057,"is_reserved":false,"is_disabled":false,"rental_uris":{"android":"levelo://app?vid=303ac50b-ed3d-4323-82b7-6f4167b93f4e","ios":"levelo://app?vid=303ac50b-ed3d-4323-82b7-6f4167b93f4e"},"vehicle_type_id":"4","last_reported":1742483433,"current_range_meters":12000,"station_id":"ce4bhbp2rcd13ifvqerg","pricing_plan_id":"cebpf4jnsgd1na2vs0mg"},{"bike_id":"a4e2d5bf-b71a-475d-ba47-f756b991c79f","system_id":"levelo_inurba_marseille","lat":43.29933,"lon":5.36552,"is_reserved":false,"is_disabled":false,"rental_uris":{"android":"levelo://app?vid=a4e2d5bf-b71a-475d-ba47-f756b991c79f","ios":"levelo://app?vid=a4e2d5bf-b71a-475d-ba47-f756b991c79f"},"vehicle_type_id":"4","last_reported":1742483433,"current_range_meters":12000,"station_id":"ce4bgm92rcd13ifvqbr0","pricing_plan_id":"cebpf4jnsgd1na2vs0mg"},{"bike_id":"a0d8bc8b-2527-4379-b73e-178c9b575ebe","system_id":"levelo_inurba_marseille","lat":43.29791,"lon":5.3936,"is_reserved":false,"is_disabled":false,"rental_uris":{"android":"levelo://app?vid=a0d8bc8b-2527-4379-b73e-178c9b575ebe","ios":"levelo://app?vid=a0d8bc8b-2527-4379-b73e-178c9b575ebe"},"vehicle_type_id":"4","last_reported":1742483433,"current_range_meters":12000,"station_id":"chh1huq6cuj3fo74tm60","pricing_plan_id":"cebpf4jnsgd1na2vs0mg"},{"bike_id":"24ece498-c17f-498c-b0fa-ff548d1059d0","system_id":"levelo_inurba_marseille","lat":43.30418,"lon":5.39729,"is_reserved":false,"is_disabled":false,"rental_uris":{"android":"levelo://app?vid=24ece498-c17f-498c-b0fa-ff548d1059d0","ios":"levelo://app?vid=24ece498-c17f-498c-b0fa-ff548d1059d0"},"vehicle_type_id":"4","last_reported":1742483433,"current_range_meters":12000,"station_id":"ce4bh092rcd13ifvqd20","pricing_plan_id":"cebpf4jnsgd1na2vs0mg"},{"bike_id":"0c4182c7-a2bd-482b-8102-a3c2c3c36491","system_id":"levelo_inurba_marseille","lat":43.28941,"lon":5.39618,"is_reserved":false,"is_disabled":false,"rental_uris":{"android":"levelo://app?vid=0c4182c7-a2bd-482b-8102-a3c2c3c36491","ios":"levelo://app?vid=0c4182c7-a2bd-482b-8102-a3c2c3c36491"},"vehicle_type_id":"4","last_reported":1742483433,"current_range_meters":12000,"station_id":"ce4bh3h2rcd13ifvqdn0","pricing_plan_id":"cebpf4jnsgd1na2vs0mg"},{"bike_id":"1c3b5361-695c-4ccc-94f9-aca7f37b6d45","system_id":"levelo_inurba_marseille","lat":43.23191,"lon":5.35566,"is_reserved":false,"is_disabled":false,"rental_uris":{"android":"levelo://app?vid=1c3b5361-695c-4ccc-94f9-aca7f37b6d45","ios":"levelo://app?vid=1c3b5361-695c-4ccc-94f9-aca7f37b6d45"},"vehicle_type_id":"4","last_reported":1742483433,"current_range_meters":12400,"station_id":"ce4bhu92rcd13ifvqi70","pricing_plan_id":"cebpf4jnsgd1na2vs0mg"},{"bike_id":"ff43cedd-1f0c-437e-b994-18caa88f5862","system_id":"levelo_inurba_marseille","lat":43.29935,"lon":5.36548,"is_reserved":false,"is_disabled":false,"rental_uris":{"android":"levelo://app?vid=ff43cedd-1f0c-437e-b994-18caa88f5862","ios":"levelo://app?vid=ff43cedd-1f0c-437e-b994-18caa88f5862"},"vehicle_type_id":"4","last_reported":1742483433,"current_range_meters":12400,"station_id":"ce4bgm92rcd13ifvqbr0","pricing_plan_id":"cebpf4jnsgd1na2vs0mg"},{"bike_id":"24ea597e-5efe-4b0e-b607-64144170e3ec","system_id":"levelo_inurba_marseille","lat":43.28745,"lon":5.3795,"is_reserved":false,"is_disabled":false,"rental_uris":{"android":"levelo://app?vid=24ea597e-5efe-4b0e-b607-64144170e3ec","ios":"levelo://app?vid=24ea597e-5efe-4b0e-b607-64144170e3ec"},"vehicle_type_id":"4","last_reported":1742483433,"current_range_meters":12400,"station_id":"ce4bh9p2rcd13ifvqec0","pricing_plan_id":"cebpf4jnsgd1na2vs0mg"},{"bike_id":"d1329446-4c1c-48eb-ba1c-3adf26ba1492","system_id":"levelo_inurba_marseille","lat":43.29042,"lon":5.35918,"is_reserved":false,"is_disabled":false,"rental_uris":{"android":"levelo://app?vid=d1329446-4c1c-48eb-ba1c-3adf26ba1492","ios":"levelo://app?vid=d1329446-4c1c-48eb-ba1c-3adf26ba1492"},"vehicle_type_id":"4","last_reported":1742483433,"current_range_meters":12400,"station_id":"ce4bha92rcd13ifvqeg0","pricing_plan_id":"cebpf4jnsgd1na2vs0mg"},{"bike_id":"4a686bb4-999b-4baf-8bfd-51c4f13cdd7e","system_id":"levelo_inurba_marseille","lat":43.28925,"lon":5.38396,"is_reserved":false,"is_disabled":false,"rental_uris":{"android":"levelo://app?vid=4a686bb4-999b-4baf-8bfd-51c4f13cdd7e","ios":"levelo://app?vid=4a686bb4-999b-4baf-8bfd-51c4f13cdd7e"},"vehicle_type_id":"4","last_reported":1742483433,"current_range_meters":12000,"station_id":"ce4bh612rcd13ifvqe6g","pricing_plan_id":"cebpf4jnsgd1na2vs0mg"},{"bike_id":"293089b4-dcf0-4672-9c32-bbd688d949e9","system_id":"levelo_inurba_marseille","lat":43.3132,"lon":5.39712,"is_reserved":false,"is_disabled":false,"rental_uris":{"android":"levelo://app?vid=293089b4-dcf0-4672-9c32-bbd688d949e9","ios":"levelo://app?vid=293089b4-dcf0-4672-9c32-bbd688d949e9"},"vehicle_type_id":"4","last_reported":1742483433,"current_range_meters":12400,"station_id":"ce4bgvp2rcd13ifvqcu0","pricing_plan_id":"cebpf4jnsgd1na2vs0mg"},{"bike_id":"c914c58e-ae12-4444-9779-79b8a916e1ef","system_id":"levelo_inurba_marseille","lat":43.2512,"lon":5.4032,"is_reserved":false,"is_disabled":false,"rental_uris":{"android":"levelo://app?vid=c914c58e-ae12-4444-9779-79b8a916e1ef","ios":"levelo://app?vid=c914c58e-ae12-4444-9779-79b8a916e1ef"},"vehicle_type_id":"4","last_reported":1742483433,"current_range_meters":12400,"station_id":"ce4bhlh2rcd13ifvqgig","pricing_plan_id":"cebpf4jnsgd1na2vs0mg"},{"bike_id":"4c3723f3-bda4-4b00-b3e1-462d555c86b9","system_id":"levelo_inurba_marseille","lat":43.28369,"lon":5.3864,"is_reserved":false,"is_disabled":false,"rental_uris":{"android":"levelo://app?vid=4c3723f3-bda4-4b00-b3e1-462d555c86b9","ios":"levelo://app?vid=4c3723f3-bda4-4b00-b3e1-462d555c86b9"},"vehicle_type_id":"4","last_reported":1742483433,"current_range_meters":12800,"station_id":"ce4bh492rcd13ifvqdvg","pricing_plan_id":"cebpf4jnsgd1na2vs0mg"},{"bike_id":"9328d7d1-0a21-4b58-88cf-fb42c383415c","system_id":"levelo_inurba_marseille","lat":43.29193,"lon":5.39317,"is_reserved":false,"is_disabled":false,"rental_uris":{"android":"levelo://app?vid=9328d7d1-0a21-4b58-88cf-fb42c383415c","ios":"levelo://app?vid=9328d7d1-0a21-4b58-88cf-fb42c383415c"},"vehicle_type_id":"4","last_reported":1742483433,"current_range_meters":12800,"station_id":"ce4bh192rcd13ifvqdd0","pricing_plan_id":"cebpf4jnsgd1na2vs0mg"},{"bike_id":"89931dd0-537e-48bf-be5a-31a31475b33b","system_id":"levelo_inurba_marseille","lat":43.30293,"lon":5.36857,"is_reserved":false,"is_disabled":false,"rental_uris":{"android":"levelo://app?vid=89931dd0-537e-48bf-be5a-31a31475b33b","ios":"levelo://app?vid=89931dd0-537e-48bf-be5a-31a31475b33b"},"vehicle_type_id":"4","last_reported":1742483433,"current_range_meters":12800,"station_id":"ce4bgqh2rcd13ifvqc5g","pricing_plan_id":"cebpf4jnsgd1na2vs0mg"},{"bike_id":"e5aa7dd4-d37e-4309-b217-eaa18ab0d609","system_id":"levelo_inurba_marseille","lat":43.28612,"lon":5.35101,"is_reserved":false,"is_disabled":false,"rental_uris":{"android":"levelo://app?vid=e5aa7dd4-d37e-4309-b217-eaa18ab0d609","ios":"levelo://app?vid=e5aa7dd4-d37e-4309-b217-eaa18ab0d609"},"vehicle_type_id":"4","last_reported":1742483433,"current_range_meters":12800,"station_id":"ce4bhch2rcd13ifvqeug","pricing_plan_id":"cebpf4jnsgd1na2vs0mg"},{"bike_id":"33eac996-04c1-4244-862e-d262aa2b7f9f","system_id":"levelo_inurba_marseille","lat":43.29928,"lon":5.3653,"is_reserved":false,"is_disabled":false,"rental_uris":{"android":"levelo://app?vid=33eac996-04c1-4244-862e-d262aa2b7f9f","ios":"levelo://app?vid=33eac996-04c1-4244-862e-d262aa2b7f9f"},"vehicle_type_id":"4","last_reported":1742483433,"current_range_meters":12800,"station_id":"ce4bgm92rcd13ifvqbr0","pricing_plan_id":"cebpf4jnsgd1na2vs0mg"},{"bike_id":"83fe4b7d-c313-402b-a1b1-9f765824d193","system_id":"levelo_inurba_marseille","lat":43.26207,"lon":5.37421,"is_reserved":false,"is_disabled":false,"rental_uris":{"android":"levelo://app?vid=83fe4b7d-c313-402b-a1b1-9f765824d193","ios":"levelo://app?vid=83fe4b7d-c313-402b-a1b1-9f765824d193"},"vehicle_type_id":"4","last_reported":1742483433,"current_range_meters":12800,"station_id":"ce4bhgp2rcd13ifvqfc0","pricing_plan_id":"cebpf4jnsgd1na2vs0mg"},{"bike_id":"2678929a-312d-4089-b116-1e816de7db90","system_id":"levelo_inurba_marseille","lat":43.32108,"lon":5.36772,"is_reserved":false,"is_disabled":false,"rental_uris":{"android":"levelo://app?vid=2678929a-312d-4089-b116-1e816de7db90","ios":"levelo://app?vid=2678929a-312d-4089-b116-1e816de7db90"},"vehicle_type_id":"4","last_reported":1742483433,"current_range_meters":13600,"station_id":"ce4bhrh2rcd13ifvqhug","pricing_plan_id":"cebpf4jnsgd1na2vs0mg"},{"bike_id":"958ed087-d508-45c3-9970-18102de3afd7","system_id":"levelo_inurba_marseille","lat":43.23963,"lon":5.36645,"is_reserved":false,"is_disabled":false,"rental_uris":{"android":"levelo://app?vid=958ed087-d508-45c3-9970-18102de3afd7","ios":"levelo://app?vid=958ed087-d508-45c3-9970-18102de3afd7"},"vehicle_type_id":"4","last_reported":1742483433,"current_range_meters":13600,"station_id":"ce4bhi12rcd13ifvqfp0","pricing_plan_id":"cebpf4jnsgd1na2vs0mg"},{"bike_id":"0f4829c5-f12d-44ea-8a46-b6170105c343","system_id":"levelo_inurba_marseille","lat":43.23062,"lon":5.35494,"is_reserved":false,"is_disabled":false,"rental_uris":{"android":"levelo://app?vid=0f4829c5-f12d-44ea-8a46-b6170105c343","ios":"levelo://app?vid=0f4829c5-f12d-44ea-8a46-b6170105c343"},"vehicle_type_id":"4","last_reported":1742483433,"current_range_meters":13600,"station_id":"cpo3342slgdg3j2ifvpg","pricing_plan_id":"cebpf4jnsgd1na2vs0mg"},{"bike_id":"d6924a39-64cf-4be8-a6c7-6377793c9dde","system_id":"levelo_inurba_marseille","lat":43.30141,"lon":5.38073,"is_reserved":false,"is_disabled":false,"rental_uris":{"android":"levelo://app?vid=d6924a39-64cf-4be8-a6c7-6377793c9dde","ios":"levelo://app?vid=d6924a39-64cf-4be8-a6c7-6377793c9dde"},"vehicle_type_id":"4","last_reported":1742483433,"current_range_meters":13600,"station_id":"ce4bgjp2rcd13ifvqbh0","pricing_plan_id":"cebpf4jnsgd1na2vs0mg"},{"bike_id":"f587a394-c1e9-4403-85ce-2987d325f0a0","system_id":"levelo_inurba_marseille","lat":43.31071,"lon":5.38351,"is_reserved":false,"is_disabled":false,"rental_uris":{"android":"levelo://app?vid=f587a394-c1e9-4403-85ce-2987d325f0a0","ios":"levelo://app?vid=f587a394-c1e9-4403-85ce-2987d325f0a0"},"vehicle_type_id":"4","last_reported":1742483433,"current_range_meters":13600,"station_id":"ce4bgv92rcd13ifvqcr0","pricing_plan_id":"cebpf4jnsgd1na2vs0mg"},{"bike_id":"c24d9f67-ee61-4261-b17d-f7544fd66cff","system_id":"levelo_inurba_marseille","lat":43.2844,"lon":5.39189,"is_reserved":false,"is_disabled":false,"rental_uris":{"android":"levelo://app?vid=c24d9f67-ee61-4261-b17d-f7544fd66cff","ios":"levelo://app?vid=c24d9f67-ee61-4261-b17d-f7544fd66cff"},"vehicle_type_id":"4","last_reported":1742483433,"current_range_meters":13600,"station_id":"ce4bhoh2rcd13ifvqh5g","pricing_plan_id":"cebpf4jnsgd1na2vs0mg"},{"bike_id":"a67c54b6-5ce9-4632-8070-5ca7d5b7fc9e","system_id":"levelo_inurba_marseille","lat":43.2306,"lon":5.35498,"is_reserved":false,"is_disabled":false,"rental_uris":{"android":"levelo://app?vid=a67c54b6-5ce9-4632-8070-5ca7d5b7fc9e","ios":"levelo://app?vid=a67c54b6-5ce9-4632-8070-5ca7d5b7fc9e"},"vehicle_type_id":"4","last_reported":1742483433,"current_range_meters":14000,"station_id":"cpo3342slgdg3j2ifvpg","pricing_plan_id":"cebpf4jnsgd1na2vs0mg"},{"bike_id":"4afd1938-0a09-4872-ad8a-fdae028b618b","system_id":"levelo_inurba_marseille","lat":43.272031,"lon":5.392084,"is_reserved":false,"is_disabled":false,"rental_uris":{"android":"levelo://app?vid=4afd1938-0a09-4872-ad8a-fdae028b618b","ios":"levelo://app?vid=4afd1938-0a09-4872-ad8a-fdae028b618b"},"vehicle_type_id":"4","last_reported":1742483433,"current_range_meters":14000,"station_id":"ce4bhhp2rcd13ifvqfm0","pricing_plan_id":"cebpf4jnsgd1na2vs0mg"},{"bike_id":"c314afb8-a3bf-460d-bde0-80d7bd2f5b02","system_id":"levelo_inurba_marseille","lat":43.27837,"lon":5.39211,"is_reserved":false,"is_disabled":false,"rental_uris":{"android":"levelo://app?vid=c314afb8-a3bf-460d-bde0-80d7bd2f5b02","ios":"levelo://app?vid=c314afb8-a3bf-460d-bde0-80d7bd2f5b02"},"vehicle_type_id":"4","last_reported":1742483433,"current_range_meters":14000,"station_id":"ce4bhjp2rcd13ifvqga0","pricing_plan_id":"cebpf4jnsgd1na2vs0mg"},{"bike_id":"eeb3a972-c918-4208-9059-236d71c45874","system_id":"levelo_inurba_marseille","lat":43.22928,"lon":5.35374,"is_reserved":false,"is_disabled":false,"rental_uris":{"android":"levelo://app?vid=eeb3a972-c918-4208-9059-236d71c45874","ios":"levelo://app?vid=eeb3a972-c918-4208-9059-236d71c45874"},"vehicle_type_id":"4","last_reported":1742483433,"current_range_meters":14000,"station_id":"cpo3532slgdg3j2ikp40","pricing_plan_id":"cebpf4jnsgd1na2vs0mg"},{"bike_id":"bf5d7bdb-65a8-4310-b955-6a76e2cbd7fe","system_id":"levelo_inurba_marseille","lat":43.33721,"lon":5.39178,"is_reserved":false,"is_disabled":false,"rental_uris":{"android":"levelo://app?vid=bf5d7bdb-65a8-4310-b955-6a76e2cbd7fe","ios":"levelo://app?vid=bf5d7bdb-65a8-4310-b955-6a76e2cbd7fe"},"vehicle_type_id":"4","last_reported":1742483433,"current_range_meters":14400,"station_id":"ce4bhr92rcd13ifvqhsg","pricing_plan_id":"cebpf4jnsgd1na2vs0mg"},{"bike_id":"bb7b7256-324f-4182-85d8-e1af41498e96","system_id":"levelo_inurba_marseille","lat":43.23964,"lon":5.36642,"is_reserved":false,"is_disabled":false,"rental_uris":{"android":"levelo://app?vid=bb7b7256-324f-4182-85d8-e1af41498e96","ios":"levelo://app?vid=bb7b7256-324f-4182-85d8-e1af41498e96"},"vehicle_type_id":"4","last_reported":1742483433,"current_range_meters":14400,"station_id":"ce4bhi12rcd13ifvqfp0","pricing_plan_id":"cebpf4jnsgd1na2vs0mg"},{"bike_id":"52801b30-faa5-4912-8b1c-d6f2e330bea2","system_id":"levelo_inurba_marseille","lat":43.29795,"lon":5.38101,"is_reserved":false,"is_disabled":false,"rental_uris":{"android":"levelo://app?vid=52801b30-faa5-4912-8b1c-d6f2e330bea2","ios":"levelo://app?vid=52801b30-faa5-4912-8b1c-d6f2e330bea2"},"vehicle_type_id":"4","last_reported":1742483433,"current_range_meters":14400,"station_id":"ce4bgip2rcd13ifvqbb0","pricing_plan_id":"cebpf4jnsgd1na2vs0mg"},{"bike_id":"d8d0c0ea-adb4-43e1-8fe1-dbd4d5c05f43","system_id":"levelo_inurba_marseille","lat":43.3108,"lon":5.42429,"is_reserved":false,"is_disabled":false,"rental_uris":{"android":"levelo://app?vid=d8d0c0ea-adb4-43e1-8fe1-dbd4d5c05f43","ios":"levelo://app?vid=d8d0c0ea-adb4-43e1-8fe1-dbd4d5c05f43"},"vehicle_type_id":"4","last_reported":1742483433,"current_range_meters":14800,"station_id":"ce4bhp92rcd13ifvqhag","pricing_plan_id":"cebpf4jnsgd1na2vs0mg"},{"bike_id":"c5dcd043-2c26-4703-811e-8d1eb52498be","system_id":"levelo_inurba_marseille","lat":43.31756,"lon":5.3902,"is_reserved":false,"is_disabled":false,"rental_uris":{"android":"levelo://app?vid=c5dcd043-2c26-4703-811e-8d1eb52498be","ios":"levelo://app?vid=c5dcd043-2c26-4703-811e-8d1eb52498be"},"vehicle_type_id":"4","last_reported":1742483433,"current_range_meters":14400,"station_id":"ce4bhqp2rcd13ifvqhng","pricing_plan_id":"cebpf4jnsgd1na2vs0mg"},{"bike_id":"c3b217a0-a427-48ea-bae3-e0cddf4dede8","system_id":"levelo_inurba_marseille","lat":43.312449,"lon":5.396174,"is_reserved":false,"is_disabled":false,"rental_uris":{"android":"levelo://app?vid=c3b217a0-a427-48ea-bae3-e0cddf4dede8","ios":"levelo://app?vid=c3b217a0-a427-48ea-bae3-e0cddf4dede8"},"vehicle_type_id":"4","last_reported":1742483433,"current_range_meters":14800,"station_id":"ce4bgvp2rcd13ifvqcu0","pricing_plan_id":"cebpf4jnsgd1na2vs0mg"},{"bike_id":"8536c990-ec23-46ff-9f2c-1907491b7a27","system_id":"levelo_inurba_marseille","lat":43.24178,"lon":5.39735,"is_reserved":false,"is_disabled":false,"rental_uris":{"android":"levelo://app?vid=8536c990-ec23-46ff-9f2c-1907491b7a27","ios":"levelo://app?vid=8536c990-ec23-46ff-9f2c-1907491b7a27"},"vehicle_type_id":"4","last_reported":1742483433,"current_range_meters":15200,"station_id":"ce4bhn12rcd13ifvqgpg","pricing_plan_id":"cebpf4jnsgd1na2vs0mg"},{"bike_id":"a1041188-6377-4dc0-808b-553dfa8836d0","system_id":"levelo_inurba_marseille","lat":43.30541,"lon":5.36522,"is_reserved":false,"is_disabled":false,"rental_uris":{"android":"levelo://app?vid=a1041188-6377-4dc0-808b-553dfa8836d0","ios":"levelo://app?vid=a1041188-6377-4dc0-808b-553dfa8836d0"},"vehicle_type_id":"4","last_reported":1742483433,"current_range_meters":15200,"station_id":"ce4bgs12rcd13ifvqcag","pricing_plan_id":"cebpf4jnsgd1na2vs0mg"},{"bike_id":"f32def60-4f1a-4807-ac2f-c107a8732cdb","system_id":"levelo_inurba_marseille","lat":43.23153,"lon":5.43709,"is_reserved":false,"is_disabled":false,"rental_uris":{"android":"levelo://app?vid=f32def60-4f1a-4807-ac2f-c107a8732cdb","ios":"levelo://app?vid=f32def60-4f1a-4807-ac2f-c107a8732cdb"},"vehicle_type_id":"4","last_reported":1742483433,"current_range_meters":15200,"station_id":"ce4bhmp2rcd13ifvqgog","pricing_plan_id":"cebpf4jnsgd1na2vs0mg"},{"bike_id":"2b18f56a-93d1-4f6e-8f5b-1e15ec45c3e2","system_id":"levelo_inurba_marseille","lat":43.27204,"lon":5.3918,"is_reserved":false,"is_disabled":false,"rental_uris":{"android":"levelo://app?vid=2b18f56a-93d1-4f6e-8f5b-1e15ec45c3e2","ios":"levelo://app?vid=2b18f56a-93d1-4f6e-8f5b-1e15ec45c3e2"},"vehicle_type_id":"4","last_reported":1742483433,"current_range_meters":15200,"station_id":"ce4bhhp2rcd13ifvqfm0","pricing_plan_id":"cebpf4jnsgd1na2vs0mg"},{"bike_id":"6f0a77cd-f792-44d4-a0e2-d92eb2fc25f7","system_id":"levelo_inurba_marseille","lat":43.29966,"lon":5.38501,"is_reserved":false,"is_disabled":false,"rental_uris":{"android":"levelo://app?vid=6f0a77cd-f792-44d4-a0e2-d92eb2fc25f7","ios":"levelo://app?vid=6f0a77cd-f792-44d4-a0e2-d92eb2fc25f7"},"vehicle_type_id":"4","last_reported":1742483433,"current_range_meters":15200,"station_id":"ce4bgj92rcd13ifvqbd0","pricing_plan_id":"cebpf4jnsgd1na2vs0mg"},{"bike_id":"47309717-7b3f-4a7c-8831-5aff671af4e4","system_id":"levelo_inurba_marseille","lat":43.32264,"lon":5.38327,"is_reserved":false,"is_disabled":false,"rental_uris":{"android":"levelo://app?vid=47309717-7b3f-4a7c-8831-5aff671af4e4","ios":"levelo://app?vid=47309717-7b3f-4a7c-8831-5aff671af4e4"},"vehicle_type_id":"4","last_reported":1742483433,"current_range_meters":15200,"station_id":"ce4bhr12rcd13ifvqhqg","pricing_plan_id":"cebpf4jnsgd1na2vs0mg"},{"bike_id":"47607dd3-629d-4f70-878c-8cf1fb291880","system_id":"levelo_inurba_marseille","lat":43.26562,"lon":5.39037,"is_reserved":false,"is_disabled":false,"rental_uris":{"android":"levelo://app?vid=47607dd3-629d-4f70-878c-8cf1fb291880","ios":"levelo://app?vid=47607dd3-629d-4f70-878c-8cf1fb291880"},"vehicle_type_id":"4","last_reported":1742483433,"current_range_meters":15200,"station_id":"ce4bhe12rcd13ifvqf30","pricing_plan_id":"cebpf4jnsgd1na2vs0mg"},{"bike_id":"7b43987f-5e07-40f5-b081-a574ea34998e","system_id":"levelo_inurba_marseille","lat":43.32293,"lon":5.38277,"is_reserved":false,"is_disabled":false,"rental_uris":{"android":"levelo://app?vid=7b43987f-5e07-40f5-b081-a574ea34998e","ios":"levelo://app?vid=7b43987f-5e07-40f5-b081-a574ea34998e"},"vehicle_type_id":"4","last_reported":1742483433,"current_range_meters":15200,"station_id":"ce4bhr12rcd13ifvqhqg","pricing_plan_id":"cebpf4jnsgd1na2vs0mg"},{"bike_id":"a81e7547-55d7-4c1c-a724-2c96fce552a8","system_id":"levelo_inurba_marseille","lat":43.239701,"lon":5.366225,"is_reserved":false,"is_disabled":false,"rental_uris":{"android":"levelo://app?vid=a81e7547-55d7-4c1c-a724-2c96fce552a8","ios":"levelo://app?vid=a81e7547-55d7-4c1c-a724-2c96fce552a8"},"vehicle_type_id":"4","last_reported":1742483433,"current_range_meters":15200,"station_id":"ce4bhgh2rcd13ifvqfb0","pricing_plan_id":"cebpf4jnsgd1na2vs0mg"},{"bike_id":"126fad63-8d78-4273-b633-f90f368d4c66","system_id":"levelo_inurba_marseille","lat":43.27947,"lon":5.38713,"is_reserved":false,"is_disabled":false,"rental_uris":{"android":"levelo://app?vid=126fad63-8d78-4273-b633-f90f368d4c66","ios":"levelo://app?vid=126fad63-8d78-4273-b633-f90f368d4c66"},"vehicle_type_id":"4","last_reported":1742483433,"current_range_meters":16000,"station_id":"ce4bhg12rcd13ifvqf80","pricing_plan_id":"cebpf4jnsgd1na2vs0mg"},{"bike_id":"d466a903-6071-4e59-b1ef-4ffaa43c5848","system_id":"levelo_inurba_marseille","lat":43.2846,"lon":5.35899,"is_reserved":false,"is_disabled":false,"rental_uris":{"android":"levelo://app?vid=d466a903-6071-4e59-b1ef-4ffaa43c5848","ios":"levelo://app?vid=d466a903-6071-4e59-b1ef-4ffaa43c5848"},"vehicle_type_id":"4","last_reported":1742483433,"current_range_meters":16000,"station_id":"ce4bhah2rcd13ifvqei0","pricing_plan_id":"cebpf4jnsgd1na2vs0mg"},{"bike_id":"c239b307-a42c-4cfd-b5fc-105d04a3256f","system_id":"levelo_inurba_marseille","lat":43.2396,"lon":5.36629,"is_reserved":false,"is_disabled":false,"rental_uris":{"android":"levelo://app?vid=c239b307-a42c-4cfd-b5fc-105d04a3256f","ios":"levelo://app?vid=c239b307-a42c-4cfd-b5fc-105d04a3256f"},"vehicle_type_id":"4","last_reported":1742483433,"current_range_meters":16000,"station_id":"ce4bhi12rcd13ifvqfp0","pricing_plan_id":"cebpf4jnsgd1na2vs0mg"},{"bike_id":"5aaffbf1-0195-45a0-9700-484a2fabd484","system_id":"levelo_inurba_marseille","lat":43.31076,"lon":5.38351,"is_reserved":false,"is_disabled":false,"rental_uris":{"android":"levelo://app?vid=5aaffbf1-0195-45a0-9700-484a2fabd484","ios":"levelo://app?vid=5aaffbf1-0195-45a0-9700-484a2fabd484"},"vehicle_type_id":"4","last_reported":1742483433,"current_range_meters":16000,"station_id":"ce4bgv92rcd13ifvqcr0","pricing_plan_id":"cebpf4jnsgd1na2vs0mg"},{"bike_id":"64f70e87-2367-4be9-8ccf-53c6ed3e59bd","system_id":"levelo_inurba_marseille","lat":43.29607,"lon":5.38104,"is_reserved":false,"is_disabled":false,"rental_uris":{"android":"levelo://app?vid=64f70e87-2367-4be9-8ccf-53c6ed3e59bd","ios":"levelo://app?vid=64f70e87-2367-4be9-8ccf-53c6ed3e59bd"},"vehicle_type_id":"4","last_reported":1742483433,"current_range_meters":16000,"station_id":"ce4bgl12rcd13ifvqbo0","pricing_plan_id":"cebpf4jnsgd1na2vs0mg"},{"bike_id":"70546797-1d75-4a7f-82b9-c05161c15bb4","system_id":"levelo_inurba_marseille","lat":43.33024,"lon":5.39038,"is_reserved":false,"is_disabled":false,"rental_uris":{"android":"levelo://app?vid=70546797-1d75-4a7f-82b9-c05161c15bb4","ios":"levelo://app?vid=70546797-1d75-4a7f-82b9-c05161c15bb4"},"vehicle_type_id":"4","last_reported":1742483433,"current_range_meters":16000,"station_id":"ce4bhr92rcd13ifvqhrg","pricing_plan_id":"cebpf4jnsgd1na2vs0mg"},{"bike_id":"c1ff82b1-826b-4d70-9a8c-7a9a2a322d31","system_id":"levelo_inurba_marseille","lat":43.29032,"lon":5.3755,"is_reserved":false,"is_disabled":false,"rental_uris":{"android":"levelo://app?vid=c1ff82b1-826b-4d70-9a8c-7a9a2a322d31","ios":"levelo://app?vid=c1ff82b1-826b-4d70-9a8c-7a9a2a322d31"},"vehicle_type_id":"4","last_reported":1742483433,"current_range_meters":16000,"station_id":"ce4bh692rcd13ifvqe90","pricing_plan_id":"cebpf4jnsgd1na2vs0mg"},{"bike_id":"aae1ce88-77c2-44e8-8f2c-6493d7570278","system_id":"levelo_inurba_marseille","lat":43.28109,"lon":5.37852,"is_reserved":false,"is_disabled":false,"rental_uris":{"android":"levelo://app?vid=aae1ce88-77c2-44e8-8f2c-6493d7570278","ios":"levelo://app?vid=aae1ce88-77c2-44e8-8f2c-6493d7570278"},"vehicle_type_id":"4","last_reported":1742483433,"current_range_meters":16000,"station_id":"ce4bha12rcd13ifvqee0","pricing_plan_id":"cebpf4jnsgd1na2vs0mg"},{"bike_id":"53e438fa-dedb-4d74-83bd-4285ba9df014","system_id":"levelo_inurba_marseille","lat":43.26018,"lon":5.41744,"is_reserved":false,"is_disabled":false,"rental_uris":{"android":"levelo://app?vid=53e438fa-dedb-4d74-83bd-4285ba9df014","ios":"levelo://app?vid=53e438fa-dedb-4d74-83bd-4285ba9df014"},"vehicle_type_id":"4","last_reported":1742483433,"current_range_meters":16400,"station_id":"","pricing_plan_id":"cebpf4jnsgd1na2vs0mg"},{"bike_id":"bb657bda-96fd-4cbb-a0e8-4bafe9c06e5c","system_id":"levelo_inurba_marseille","lat":43.26925,"lon":5.3891,"is_reserved":false,"is_disabled":false,"rental_uris":{"android":"levelo://app?vid=bb657bda-96fd-4cbb-a0e8-4bafe9c06e5c","ios":"levelo://app?vid=bb657bda-96fd-4cbb-a0e8-4bafe9c06e5c"},"vehicle_type_id":"4","last_reported":1742483433,"current_range_meters":16000,"station_id":"ce4bhhh2rcd13ifvqfl0","pricing_plan_id":"cebpf4jnsgd1na2vs0mg"},{"bike_id":"0456f5f6-8fe5-4a89-961a-c5cb4d1bee1a","system_id":"levelo_inurba_marseille","lat":43.24649,"lon":5.38892,"is_reserved":false,"is_disabled":false,"rental_uris":{"android":"levelo://app?vid=0456f5f6-8fe5-4a89-961a-c5cb4d1bee1a","ios":"levelo://app?vid=0456f5f6-8fe5-4a89-961a-c5cb4d1bee1a"},"vehicle_type_id":"4","last_reported":1742483433,"current_range_meters":16000,"station_id":"ce4bhg12rcd13ifvqf60","pricing_plan_id":"cebpf4jnsgd1na2vs0mg"},{"bike_id":"aca85f7e-b8a2-4870-b39b-b288e2417b85","system_id":"levelo_inurba_marseille","lat":43.32475,"lon":5.36535,"is_reserved":false,"is_disabled":false,"rental_uris":{"android":"levelo://app?vid=aca85f7e-b8a2-4870-b39b-b288e2417b85","ios":"levelo://app?vid=aca85f7e-b8a2-4870-b39b-b288e2417b85"},"vehicle_type_id":"4","last_reported":1742483433,"current_range_meters":16000,"station_id":"ce4bhs12rcd13ifvqhvg","pricing_plan_id":"cebpf4jnsgd1na2vs0mg"},{"bike_id":"96029180-54ef-4379-bfaf-7e88c91090c2","system_id":"levelo_inurba_marseille","lat":43.30893,"lon":5.39639,"is_reserved":false,"is_disabled":false,"rental_uris":{"android":"levelo://app?vid=96029180-54ef-4379-bfaf-7e88c91090c2","ios":"levelo://app?vid=96029180-54ef-4379-bfaf-7e88c91090c2"},"vehicle_type_id":"4","last_reported":1742483433,"current_range_meters":16400,"station_id":"ce4bh012rcd13ifvqcv0","pricing_plan_id":"cebpf4jnsgd1na2vs0mg"},{"bike_id":"d794cd65-a763-455d-8aa5-5477214269e0","system_id":"levelo_inurba_marseille","lat":43.29006,"lon":5.35611,"is_reserved":false,"is_disabled":false,"rental_uris":{"android":"levelo://app?vid=d794cd65-a763-455d-8aa5-5477214269e0","ios":"levelo://app?vid=d794cd65-a763-455d-8aa5-5477214269e0"},"vehicle_type_id":"4","last_reported":1742483433,"current_range_meters":16400,"station_id":"ce4bhb92rcd13ifvqen0","pricing_plan_id":"cebpf4jnsgd1na2vs0mg"},{"bike_id":"141e4538-1f64-4f7a-83b9-c8f36a5d0fbc","system_id":"levelo_inurba_marseille","lat":43.24159,"lon":5.3642,"is_reserved":false,"is_disabled":false,"rental_uris":{"android":"levelo://app?vid=141e4538-1f64-4f7a-83b9-c8f36a5d0fbc","ios":"levelo://app?vid=141e4538-1f64-4f7a-83b9-c8f36a5d0fbc"},"vehicle_type_id":"4","last_reported":1742483433,"current_range_meters":16400,"station_id":"cpo36qri1sfpv3e86is0","pricing_plan_id":"cebpf4jnsgd1na2vs0mg"},{"bike_id":"b9a6339a-4164-4c58-81b6-d4deca684d4d","system_id":"levelo_inurba_marseille","lat":43.27209,"lon":5.39178,"is_reserved":false,"is_disabled":false,"rental_uris":{"android":"levelo://app?vid=b9a6339a-4164-4c58-81b6-d4deca684d4d","ios":"levelo://app?vid=b9a6339a-4164-4c58-81b6-d4deca684d4d"},"vehicle_type_id":"4","last_reported":1742483433,"current_range_meters":16400,"station_id":"ce4bhhp2rcd13ifvqfm0","pricing_plan_id":"cebpf4jnsgd1na2vs0mg"},{"bike_id":"405e3093-22fa-4ac7-a3d5-4c272e98bb37","system_id":"levelo_inurba_marseille","lat":43.28842,"lon":5.39314,"is_reserved":false,"is_disabled":false,"rental_uris":{"android":"levelo://app?vid=405e3093-22fa-4ac7-a3d5-4c272e98bb37","ios":"levelo://app?vid=405e3093-22fa-4ac7-a3d5-4c272e98bb37"},"vehicle_type_id":"4","last_reported":1742483433,"current_range_meters":16400,"station_id":"ce4bh2p2rcd13ifvqdi0","pricing_plan_id":"cebpf4jnsgd1na2vs0mg"},{"bike_id":"9540ad59-2cd5-4383-9d7a-a19b18542189","system_id":"levelo_inurba_marseille","lat":43.2963,"lon":5.40594,"is_reserved":false,"is_disabled":false,"rental_uris":{"android":"levelo://app?vid=9540ad59-2cd5-4383-9d7a-a19b18542189","ios":"levelo://app?vid=9540ad59-2cd5-4383-9d7a-a19b18542189"},"vehicle_type_id":"4","last_reported":1742483433,"current_range_meters":16400,"station_id":"ce4bh0h2rcd13ifvqd60","pricing_plan_id":"cebpf4jnsgd1na2vs0mg"},{"bike_id":"0e62ca51-1d9a-40f0-a17f-e17d2801c48b","system_id":"levelo_inurba_marseille","lat":43.29032,"lon":5.39969,"is_reserved":false,"is_disabled":false,"rental_uris":{"android":"levelo://app?vid=0e62ca51-1d9a-40f0-a17f-e17d2801c48b","ios":"levelo://app?vid=0e62ca51-1d9a-40f0-a17f-e17d2801c48b"},"vehicle_type_id":"4","last_reported":1742483433,"current_range_meters":16400,"station_id":"ce4bh392rcd13ifvqdm0","pricing_plan_id":"cebpf4jnsgd1na2vs0mg"},{"bike_id":"15c04b88-d898-4f59-9522-4058565a4835","system_id":"levelo_inurba_marseille","lat":43.23193,"lon":5.35558,"is_reserved":false,"is_disabled":false,"rental_uris":{"android":"levelo://app?vid=15c04b88-d898-4f59-9522-4058565a4835","ios":"levelo://app?vid=15c04b88-d898-4f59-9522-4058565a4835"},"vehicle_type_id":"4","last_reported":1742483433,"current_range_meters":16400,"station_id":"ce4bhu92rcd13ifvqi70","pricing_plan_id":"cebpf4jnsgd1na2vs0mg"},{"bike_id":"addc9e43-cb17-41f3-a0d8-a264d0dc9a57","system_id":"levelo_inurba_marseille","lat":43.34851,"lon":5.38109,"is_reserved":false,"is_disabled":false,"rental_uris":{"android":"levelo://app?vid=addc9e43-cb17-41f3-a0d8-a264d0dc9a57","ios":"levelo://app?vid=addc9e43-cb17-41f3-a0d8-a264d0dc9a57"},"vehicle_type_id":"4","last_reported":1742483433,"current_range_meters":16400,"station_id":"","pricing_plan_id":"cebpf4jnsgd1na2vs0mg"},{"bike_id":"8c3c6e64-a224-4b4f-b4f3-712e20d75b68","system_id":"levelo_inurba_marseille","lat":43.29908,"lon":5.39728,"is_reserved":false,"is_disabled":false,"rental_uris":{"android":"levelo://app?vid=8c3c6e64-a224-4b4f-b4f3-712e20d75b68","ios":"levelo://app?vid=8c3c6e64-a224-4b4f-b4f3-712e20d75b68"},"vehicle_type_id":"4","last_reported":1742483433,"current_range_meters":16400,"station_id":"ce4bh0h2rcd13ifvqd50","pricing_plan_id":"cebpf4jnsgd1na2vs0mg"},{"bike_id":"7281c9ed-92ac-4a63-9c67-eff51afa89ba","system_id":"levelo_inurba_marseille","lat":43.273178,"lon":5.39094,"is_reserved":false,"is_disabled":false,"rental_uris":{"android":"levelo://app?vid=7281c9ed-92ac-4a63-9c67-eff51afa89ba","ios":"levelo://app?vid=7281c9ed-92ac-4a63-9c67-eff51afa89ba"},"vehicle_type_id":"4","last_reported":1742483433,"current_range_meters":16400,"station_id":"ce4bhgp2rcd13ifvqfe0","pricing_plan_id":"cebpf4jnsgd1na2vs0mg"},{"bike_id":"c40cad6e-50ff-46e7-8ccd-6fea39167325","system_id":"levelo_inurba_marseille","lat":43.25938,"lon":5.40896,"is_reserved":false,"is_disabled":false,"rental_uris":{"android":"levelo://app?vid=c40cad6e-50ff-46e7-8ccd-6fea39167325","ios":"levelo://app?vid=c40cad6e-50ff-46e7-8ccd-6fea39167325"},"vehicle_type_id":"4","last_reported":1742483433,"current_range_meters":16400,"station_id":"ce4bhm92rcd13ifvqglg","pricing_plan_id":"cebpf4jnsgd1na2vs0mg"},{"bike_id":"a06df953-ee24-4eee-acd9-cfb685fc1c62","system_id":"levelo_inurba_marseille","lat":43.31413,"lon":5.37416,"is_reserved":false,"is_disabled":false,"rental_uris":{"android":"levelo://app?vid=a06df953-ee24-4eee-acd9-cfb685fc1c62","ios":"levelo://app?vid=a06df953-ee24-4eee-acd9-cfb685fc1c62"},"vehicle_type_id":"4","last_reported":1742483433,"current_range_meters":16800,"station_id":"","pricing_plan_id":"cebpf4jnsgd1na2vs0mg"},{"bike_id":"1a6bc700-9912-4e61-93ac-a6a9f0b7dde9","system_id":"levelo_inurba_marseille","lat":43.31123,"lon":5.37762,"is_reserved":false,"is_disabled":false,"rental_uris":{"android":"levelo://app?vid=1a6bc700-9912-4e61-93ac-a6a9f0b7dde9","ios":"levelo://app?vid=1a6bc700-9912-4e61-93ac-a6a9f0b7dde9"},"vehicle_type_id":"4","last_reported":1742483433,"current_range_meters":16800,"station_id":"ce4bgt92rcd13ifvqcg0","pricing_plan_id":"cebpf4jnsgd1na2vs0mg"},{"bike_id":"b282d051-1739-43e2-96ba-16e2a033d829","system_id":"levelo_inurba_marseille","lat":43.26559,"lon":5.39029,"is_reserved":false,"is_disabled":false,"rental_uris":{"android":"levelo://app?vid=b282d051-1739-43e2-96ba-16e2a033d829","ios":"levelo://app?vid=b282d051-1739-43e2-96ba-16e2a033d829"},"vehicle_type_id":"4","last_reported":1742483433,"current_range_meters":16800,"station_id":"ce4bhe12rcd13ifvqf30","pricing_plan_id":"cebpf4jnsgd1na2vs0mg"},{"bike_id":"9f1c3e5c-869d-4869-b7c6-0c926f2da6bf","system_id":"levelo_inurba_marseille","lat":43.28369,"lon":5.39804,"is_reserved":false,"is_disabled":false,"rental_uris":{"android":"levelo://app?vid=9f1c3e5c-869d-4869-b7c6-0c926f2da6bf","ios":"levelo://app?vid=9f1c3e5c-869d-4869-b7c6-0c926f2da6bf"},"vehicle_type_id":"4","last_reported":1742483433,"current_range_meters":16800,"station_id":"","pricing_plan_id":"cebpf4jnsgd1na2vs0mg"},{"bike_id":"828df7d4-d029-4653-b5ee-d12d177fe2d8","system_id":"levelo_inurba_marseille","lat":43.23966,"lon":5.3663,"is_reserved":false,"is_disabled":false,"rental_uris":{"android":"levelo://app?vid=828df7d4-d029-4653-b5ee-d12d177fe2d8","ios":"levelo://app?vid=828df7d4-d029-4653-b5ee-d12d177fe2d8"},"vehicle_type_id":"4","last_reported":1742483433,"current_range_meters":16800,"station_id":"ce4bhi12rcd13ifvqfp0","pricing_plan_id":"cebpf4jnsgd1na2vs0mg"},{"bike_id":"9def5b30-da64-40ca-a4f8-f22e1a604ee3","system_id":"levelo_inurba_marseille","lat":43.24179,"lon":5.39734,"is_reserved":false,"is_disabled":false,"rental_uris":{"android":"levelo://app?vid=9def5b30-da64-40ca-a4f8-f22e1a604ee3","ios":"levelo://app?vid=9def5b30-da64-40ca-a4f8-f22e1a604ee3"},"vehicle_type_id":"4","last_reported":1742483433,"current_range_meters":16800,"station_id":"ce4bhn12rcd13ifvqgpg","pricing_plan_id":"cebpf4jnsgd1na2vs0mg"},{"bike_id":"7419b7cc-7423-40aa-8c84-faa7551e3f63","system_id":"levelo_inurba_marseille","lat":43.24804,"lon":5.37456,"is_reserved":false,"is_disabled":false,"rental_uris":{"android":"levelo://app?vid=7419b7cc-7423-40aa-8c84-faa7551e3f63","ios":"levelo://app?vid=7419b7cc-7423-40aa-8c84-faa7551e3f63"},"vehicle_type_id":"4","last_reported":1742483433,"current_range_meters":16800,"station_id":"ce4bhgh2rcd13ifvqfb0","pricing_plan_id":"cebpf4jnsgd1na2vs0mg"},{"bike_id":"a03eb670-d86f-423a-be08-2f0438318e99","system_id":"levelo_inurba_marseille","lat":43.27207,"lon":5.39184,"is_reserved":false,"is_disabled":false,"rental_uris":{"android":"levelo://app?vid=a03eb670-d86f-423a-be08-2f0438318e99","ios":"levelo://app?vid=a03eb670-d86f-423a-be08-2f0438318e99"},"vehicle_type_id":"4","last_reported":1742483433,"current_range_meters":16800,"station_id":"ce4bhhp2rcd13ifvqfm0","pricing_plan_id":"cebpf4jnsgd1na2vs0mg"},{"bike_id":"fbbb3028-b15b-4750-98dc-ac90972ecc9b","system_id":"levelo_inurba_marseille","lat":43.32117,"lon":5.36767,"is_reserved":false,"is_disabled":false,"rental_uris":{"android":"levelo://app?vid=fbbb3028-b15b-4750-98dc-ac90972ecc9b","ios":"levelo://app?vid=fbbb3028-b15b-4750-98dc-ac90972ecc9b"},"vehicle_type_id":"4","last_reported":1742483433,"current_range_meters":16800,"station_id":"ce4bhrh2rcd13ifvqhug","pricing_plan_id":"cebpf4jnsgd1na2vs0mg"},{"bike_id":"d0630dc5-8d39-40fe-be36-4bcdd90396e8","system_id":"levelo_inurba_marseille","lat":43.33019,"lon":5.3905,"is_reserved":false,"is_disabled":false,"rental_uris":{"android":"levelo://app?vid=d0630dc5-8d39-40fe-be36-4bcdd90396e8","ios":"levelo://app?vid=d0630dc5-8d39-40fe-be36-4bcdd90396e8"},"vehicle_type_id":"4","last_reported":1742483433,"current_range_meters":16800,"station_id":"ce4bhr92rcd13ifvqhrg","pricing_plan_id":"cebpf4jnsgd1na2vs0mg"},{"bike_id":"2b94e4dd-2dd5-4881-ab38-40eb855f87c1","system_id":"levelo_inurba_marseille","lat":43.29848,"lon":5.36293,"is_reserved":false,"is_disabled":false,"rental_uris":{"android":"levelo://app?vid=2b94e4dd-2dd5-4881-ab38-40eb855f87c1","ios":"levelo://app?vid=2b94e4dd-2dd5-4881-ab38-40eb855f87c1"},"vehicle_type_id":"4","last_reported":1742483433,"current_range_meters":16800,"station_id":"ce4bgpp2rcd13ifvqc3g","pricing_plan_id":"cebpf4jnsgd1na2vs0mg"},{"bike_id":"30a21f9e-6996-4161-b853-e9e8a68c571c","system_id":"levelo_inurba_marseille","lat":43.28938,"lon":5.36644,"is_reserved":false,"is_disabled":false,"rental_uris":{"android":"levelo://app?vid=30a21f9e-6996-4161-b853-e9e8a68c571c","ios":"levelo://app?vid=30a21f9e-6996-4161-b853-e9e8a68c571c"},"vehicle_type_id":"4","last_reported":1742483433,"current_range_meters":16800,"station_id":"ce4bhap2rcd13ifvqek0","pricing_plan_id":"cebpf4jnsgd1na2vs0mg"},{"bike_id":"c8af2ad6-63a7-400e-8c64-da51482f91e1","system_id":"levelo_inurba_marseille","lat":43.31272,"lon":5.40162,"is_reserved":false,"is_disabled":false,"rental_uris":{"android":"levelo://app?vid=c8af2ad6-63a7-400e-8c64-da51482f91e1","ios":"levelo://app?vid=c8af2ad6-63a7-400e-8c64-da51482f91e1"},"vehicle_type_id":"4","last_reported":1742483433,"current_range_meters":16800,"station_id":"ce4bh092rcd13ifvqd30","pricing_plan_id":"cebpf4jnsgd1na2vs0mg"},{"bike_id":"adf9b4fe-5db7-4357-b293-cc0424d5d9b6","system_id":"levelo_inurba_marseille","lat":43.29858,"lon":5.36283,"is_reserved":false,"is_disabled":false,"rental_uris":{"android":"levelo://app?vid=adf9b4fe-5db7-4357-b293-cc0424d5d9b6","ios":"levelo://app?vid=adf9b4fe-5db7-4357-b293-cc0424d5d9b6"},"vehicle_type_id":"4","last_reported":1742483433,"current_range_meters":16800,"station_id":"ce4bgpp2rcd13ifvqc3g","pricing_plan_id":"cebpf4jnsgd1na2vs0mg"},{"bike_id":"0ae8b85b-0c5d-4e11-9c4d-0c3c57c36aca","system_id":"levelo_inurba_marseille","lat":43.30442,"lon":5.36841,"is_reserved":false,"is_disabled":false,"rental_uris":{"android":"levelo://app?vid=0ae8b85b-0c5d-4e11-9c4d-0c3c57c36aca","ios":"levelo://app?vid=0ae8b85b-0c5d-4e11-9c4d-0c3c57c36aca"},"vehicle_type_id":"4","last_reported":1742483433,"current_range_meters":16800,"station_id":"","pricing_plan_id":"cebpf4jnsgd1na2vs0mg"},{"bike_id":"3e26cbf8-ea7c-4fbc-a23e-f98f8f0d5728","system_id":"levelo_inurba_marseille","lat":43.27383,"lon":5.36268,"is_reserved":false,"is_disabled":false,"rental_uris":{"android":"levelo://app?vid=3e26cbf8-ea7c-4fbc-a23e-f98f8f0d5728","ios":"levelo://app?vid=3e26cbf8-ea7c-4fbc-a23e-f98f8f0d5728"},"vehicle_type_id":"4","last_reported":1742483433,"current_range_meters":16800,"station_id":"ce4bhbh2rcd13ifvqeo0","pricing_plan_id":"cebpf4jnsgd1na2vs0mg"},{"bike_id":"09e54730-3ad2-419a-9317-3cefe8196151","system_id":"levelo_inurba_marseille","lat":43.27377,"lon":5.36259,"is_reserved":false,"is_disabled":false,"rental_uris":{"android":"levelo://app?vid=09e54730-3ad2-419a-9317-3cefe8196151","ios":"levelo://app?vid=09e54730-3ad2-419a-9317-3cefe8196151"},"vehicle_type_id":"4","last_reported":1742483433,"current_range_meters":17200,"station_id":"ce4bhbh2rcd13ifvqeo0","pricing_plan_id":"cebpf4jnsgd1na2vs0mg"},{"bike_id":"c5c72dbc-bdee-478c-8ffc-2a91e1c31a40","system_id":"levelo_inurba_marseille","lat":43.30141,"lon":5.38545,"is_reserved":false,"is_disabled":false,"rental_uris":{"android":"levelo://app?vid=c5c72dbc-bdee-478c-8ffc-2a91e1c31a40","ios":"levelo://app?vid=c5c72dbc-bdee-478c-8ffc-2a91e1c31a40"},