{"last_updated":1702314422,"ttl":30,"version":"2.2","data":{"bikes":[{"bike_id":"b42cc489-fc54-49f5-a027-7c606f2a41a9","system_id":"levelo_inurba_marseille","lat":43.305706,"lon":5.365654,"is_reserved":false,"is_disabled":false,"rental_uris":{"android":"levelo://app?vid=b42cc489-fc54-49f5-a027-7c606f2a41a9","ios":"levelo://app?vid=b42cc489-fc54-49f5-a027-7c606f2a41a9"},"vehicle_type_id":"4","last_reported":1702314422,"current_range_meters":0,"station_id":"ce4bgs12rcd13ifvqcag","pricing_plan_id":"free"},{"bike_id":"565c073d-2175-45c7-a72e-4603292a4f75","system_id":"levelo_inurba_marseille","lat":43.305989,"lon":5.37225,"is_reserved":false,"is_disabled":false,"rental_uris":{"android":"levelo://app?vid=565c073d-2175-45c7-a72e-4603292a4f75","ios":"levelo://app?vid=565c073d-2175-45c7-a72e-4603292a4f75"},"vehicle_type_id":"4","last_reported":1702314422,"current_range_meters":28400,"station_id":"ce4bgqh2rcd13ifvqc4g","pricing_plan_id":"free"},{"bike_id":"eb55ab0f-4cf4-4960-b142-1557f23bc7ca","system_id":"levelo_inurba_marseille","lat":43.31122,"lon":5.37771,"is_reserved":false,"is_disabled":false,"rental_uris":{"android":"levelo://app?vid=eb55ab0f-4cf4-4960-b142-1557f23bc7ca","ios":"levelo://app?vid=eb55ab0f-4cf4-4960-b142-1557f23bc7ca"},"vehicle_type_id":"4","last_reported":1702314422,"current_range_meters":0,"station_id":"ce4bgt92rcd13ifvqcg0","pricing_plan_id":"free"},{"bike_id":"0df358b2-a461-4a59-b299-6fd3eadddf20","system_id":"levelo_inurba_marseille","lat":43.31085,"lon":5.37846,"is_reserved":false,"is_disabled":false,"rental_uris":{"android":"levelo://app?vid=0df358b2-a461-4a59-b299-6fd3eadddf20","ios":"levelo://app?vid=0df358b2-a461-4a59-b299-6fd3eadddf20"},"vehicle_type_id":"4","last_reported":1702314422,"current_range_meters":17200,"station_id":"","pricing_plan_id":"free"},{"bike_id":"a5589e38-f15a-46fe-9b37-27cf16ba9de2","system_id":"levelo_inurba_marseille","lat":43.3223,"lon":5.36922,"is_reserved":false,"is_disabled":false,"rental_uris":{"android":"levelo://app?vid=a5589e38-f15a-46fe-9b37-27cf16ba9de2","ios":"levelo://app?vid=a5589e38-f15a-46fe-9b37-27cf16ba9de2"},"vehicle_type_id":"4","last_reported":1702314422,"current_range_meters":23600,"station_id":"","pricing_plan_id":"free"},{"bike_id":"e9627390-7690-4fa6-86d0-ff8597dd3cc8","system_id":"levelo_inurba_marseille","lat":43.3153,"lon":5.38039,"is_reserved":false,"is_disabled":false,"rental_uris":{"android":"levelo://app?vid=e9627390-7690-4fa6-86d0-ff8597dd3cc8","ios":"levelo://app?vid=e9627390-7690-4fa6-86d0-ff8597dd3cc8"},"vehicle_type_id":"4","last_reported":1702314422,"current_range_meters":22400,"station_id":"ce4bhsp2rcd13ifvqi50","pricing_plan_id":"free"},{"bike_id":"9c9e5821-53af-4426-855e-91220792af65","system_id":"levelo_inurba_marseille","lat":43.30143,"lon":5.37413,"is_reserved":false,"is_disabled":false,"rental_uris":{"android":"levelo://app?vid=9c9e5821-53af-4426-855e-91220792af65","ios":"levelo://app?vid=9c9e5821-53af-4426-855e-91220792af65"},"vehicle_type_id":"4","last_reported":1702314422,"current_range_meters":25200,"station_id":"ce4bgs92rcd13ifvqcc0","pricing_plan_id":"free"},{"bike_id":"b14237e7-1489-465b-ba68-8d2528aaf2a2","system_id":"levelo_inurba_marseille","lat":43.30143,"lon":5.37413,"is_reserved":false,"is_disabled":false,"rental_uris":{"android":"levelo://app?vid=b14237e7-1489-465b-ba68-8d2528aaf2a2","ios":"levelo://app?vid=b14237e7-1489-465b-ba68-8d2528aaf2a2"},"vehicle_type_id":"4","last_reported":1702314422,"current_range_meters":15600,"station_id":"ce4bgs92rcd13ifvqcc0","pricing_plan_id":"free"},{"bike_id":"d507dc20-f3f0-485a-b520-e5ecd0effbe5","system_id":"levelo_inurba_marseille","lat":43.319935,"lon":5.381699,"is_reserved":false,"is_disabled":false,"rental_uris":{"android":"levelo://app?vid=d507dc20-f3f0-485a-b520-e5ecd0effbe5","ios":"levelo://app?vid=d507dc20-f3f0-485a-b520-e5ecd0effbe5"},"vehicle_type_id":"4","last_reported":1702314422,"current_range_meters":18000,"station_id":"ce4bhr12rcd13ifvqhpg","pricing_plan_id":"free"},{"bike_id":"f5dc87db-1627-40f9-8d4d-6dfa629a504a","system_id":"levelo_inurba_marseille","lat":43.31356,"lon":5.38493,"is_reserved":false,"is_disabled":false,"rental_uris":{"android":"levelo://app?vid=f5dc87db-1627-40f9-8d4d-6dfa629a504a","ios":"levelo://app?vid=f5dc87db-1627-40f9-8d4d-6dfa629a504a"},"vehicle_type_id":"4","last_reported":1702314422,"current_range_meters":15600,"station_id":"ce4bgt92rcd13ifvqcf0","pricing_plan_id":"free"},{"bike_id":"043bb0f3-c05a-42d9-ae89-684746540342","system_id":"levelo_inurba_marseille","lat":43.299222,"lon":5.365554,"is_reserved":false,"is_disabled":false,"rental_uris":{"android":"levelo://app?vid=043bb0f3-c05a-42d9-ae89-684746540342","ios":"levelo://app?vid=043bb0f3-c05a-42d9-ae89-684746540342"},"vehicle_type_id":"4","last_reported":1702314422,"current_range_meters":0,"station_id":"ce4bgm92rcd13ifvqbr0","pricing_plan_id":"free"},{"bike_id":"c90f6b46-66b9-4dc9-8e04-8581d73e4ad1","system_id":"levelo_inurba_marseille","lat":43.298433,"lon":5.362774,"is_reserved":false,"is_disabled":false,"rental_uris":{"android":"levelo://app?vid=c90f6b46-66b9-4dc9-8e04-8581d73e4ad1","ios":"levelo://app?vid=c90f6b46-66b9-4dc9-8e04-8581d73e4ad1"},"vehicle_type_id":"4","last_reported":1702314422,"current_range_meters":22400,"station_id":"ce4bgpp2rcd13ifvqc3g","pricing_plan_id":"free"},{"bike_id":"76ca42d9-c835-432f-a3d5-981f52a265be","system_id":"levelo_inurba_marseille","lat":43.298433,"lon":5.362774,"is_reserved":false,"is_disabled":false,"rental_uris":{"android":"levelo://app?vid=76ca42d9-c835-432f-a3d5-981f52a265be","ios":"levelo://app?vid=76ca42d9-c835-432f-a3d5-981f52a265be"},"vehicle_type_id":"4","last_reported":1702314422,"current_range_meters":2400,"station_id":"ce4bgpp2rcd13ifvqc3g","pricing_plan_id":"free"},{"bike_id":"de0f3ca7-6402-460f-b15c-0eaaa894a67b","system_id":"levelo_inurba_marseille","lat":43.311722,"lon":5.387247,"is_reserved":false,"is_disabled":false,"rental_uris":{"android":"levelo://app?vid=de0f3ca7-6402-460f-b15c-0eaaa894a67b","ios":"levelo://app?vid=de0f3ca7-6402-460f-b15c-0eaaa894a67b"},"vehicle_type_id":"4","last_reported":1702314422,"current_range_meters":0,"station_id":"ce4bgv12rcd13ifvqcp0","pricing_plan_id":"free"},{"bike_id":"f2bb4c75-18d9-4aa6-b59a-1f8dc9f77828","system_id":"levelo_inurba_marseille","lat":43.297794,"lon":5.370888,"is_reserved":false,"is_disabled":false,"rental_uris":{"android":"levelo://app?vid=f2bb4c75-18d9-4aa6-b59a-1f8dc9f77828","ios":"levelo://app?vid=f2bb4c75-18d9-4aa6-b59a-1f8dc9f77828"},"vehicle_type_id":"4","last_reported":1702314422,"current_range_meters":1600,"station_id":"ce4bgop2rcd13ifvqc1g","pricing_plan_id":"free"},{"bike_id":"09661d30-026d-4f34-bf22-f6bfc115aa0b","system_id":"levelo_inurba_marseille","lat":43.328371,"lon":5.366909,"is_reserved":false,"is_disabled":false,"rental_uris":{"android":"levelo://app?vid=09661d30-026d-4f34-bf22-f6bfc115aa0b","ios":"levelo://app?vid=09661d30-026d-4f34-bf22-f6bfc115aa0b"},"vehicle_type_id":"4","last_reported":1702314422,"current_range_meters":14000,"station_id":"ce4bhs92rcd13ifvqi0g","pricing_plan_id":"free"},{"bike_id":"e169360a-58c2-425e-a8a9-4d0d6723d241","system_id":"levelo_inurba_marseille","lat":43.32827,"lon":5.36695,"is_reserved":false,"is_disabled":false,"rental_uris":{"android":"levelo://app?vid=e169360a-58c2-425e-a8a9-4d0d6723d241","ios":"levelo://app?vid=e169360a-58c2-425e-a8a9-4d0d6723d241"},"vehicle_type_id":"4","last_reported":1702314422,"current_range_meters":0,"station_id":"ce4bhs92rcd13ifvqi0g","pricing_plan_id":"free"},{"bike_id":"e445088b-ea85-4a39-915c-fe076c5e8f64","system_id":"levelo_inurba_marseille","lat":43.328277,"lon":5.366748,"is_reserved":false,"is_disabled":false,"rental_uris":{"android":"levelo://app?vid=e445088b-ea85-4a39-915c-fe076c5e8f64","ios":"levelo://app?vid=e445088b-ea85-4a39-915c-fe076c5e8f64"},"vehicle_type_id":"4","last_reported":1702314422,"current_range_meters":0,"station_id":"ce4bhs92rcd13ifvqi0g","pricing_plan_id":"free"},{"bike_id":"52d8b7ba-7505-413c-b898-efb75f14c13c","system_id":"levelo_inurba_marseille","lat":43.328371,"lon":5.366909,"is_reserved":false,"is_disabled":false,"rental_uris":{"android":"levelo://app?vid=52d8b7ba-7505-413c-b898-efb75f14c13c","ios":"levelo://app?vid=52d8b7ba-7505-413c-b898-efb75f14c13c"},"vehicle_type_id":"4","last_reported":1702314422,"current_range_meters":16800,"station_id":"ce4bhs92rcd13ifvqi0g","pricing_plan_id":"free"},{"bike_id":"c2a9cf38-d6c9-4324-9e80-07176f3724d2","system_id":"levelo_inurba_marseille","lat":43.297163,"lon":5.365866,"is_reserved":false,"is_disabled":false,"rental_uris":{"android":"levelo://app?vid=c2a9cf38-d6c9-4324-9e80-07176f3724d2","ios":"levelo://app?vid=c2a9cf38-d6c9-4324-9e80-07176f3724d2"},"vehicle_type_id":"4","last_reported":1702314422,"current_range_meters":26400,"station_id":"ce4bgn12rcd13ifvqbt0","pricing_plan_id":"free"},{"bike_id":"61a9d821-211d-4cd3-b66f-6a9b3fadd2d2","system_id":"levelo_inurba_marseille","lat":43.32833,"lon":5.3668,"is_reserved":false,"is_disabled":false,"rental_uris":{"android":"levelo://app?vid=61a9d821-211d-4cd3-b66f-6a9b3fadd2d2","ios":"levelo://app?vid=61a9d821-211d-4cd3-b66f-6a9b3fadd2d2"},"vehicle_type_id":"4","last_reported":1702314422,"current_range_meters":22400,"station_id":"ce4bhs92rcd13ifvqi0g","pricing_plan_id":"free"},{"bike_id":"9b0409c8-952e-43cd-8929-2c98668b8e00","system_id":"levelo_inurba_marseille","lat":43.32833,"lon":5.36676,"is_reserved":false,"is_disabled":false,"rental_uris":{"android":"levelo://app?vid=9b0409c8-952e-43cd-8929-2c98668b8e00","ios":"levelo://app?vid=9b0409c8-952e-43cd-8929-2c98668b8e00"},"vehicle_type_id":"4","last_reported":1702314422,"current_range_meters":13200,"station_id":"ce4bhs92rcd13ifvqi0g","pricing_plan_id":"free"},{"bike_id":"73593f75-1f8b-45fe-a687-6b2618c1e26b","system_id":"levelo_inurba_marseille","lat":43.2979,"lon":5.38108,"is_reserved":false,"is_disabled":false,"rental_uris":{"android":"levelo://app?vid=73593f75-1f8b-45fe-a687-6b2618c1e26b","ios":"levelo://app?vid=73593f75-1f8b-45fe-a687-6b2618c1e26b"},"vehicle_type_id":"4","last_reported":1702314422,"current_range_meters":0,"station_id":"ce4bgip2rcd13ifvqbb0","pricing_plan_id":"free"},{"bike_id":"f94ef47b-b456-454d-b78e-d53403f03479","system_id":"levelo_inurba_marseille","lat":43.304278,"lon":5.388868,"is_reserved":false,"is_disabled":false,"rental_uris":{"android":"levelo://app?vid=f94ef47b-b456-454d-b78e-d53403f03479","ios":"levelo://app?vid=f94ef47b-b456-454d-b78e-d53403f03479"},"vehicle_type_id":"4","last_reported":1702314422,"current_range_meters":0,"station_id":"ce4bgk12rcd13ifvqbi0","pricing_plan_id":"free"},{"bike_id":"171f794e-6904-4299-b225-748296957f91","system_id":"levelo_inurba_marseille","lat":43.304274,"lon":5.388873,"is_reserved":false,"is_disabled":false,"rental_uris":{"android":"levelo://app?vid=171f794e-6904-4299-b225-748296957f91","ios":"levelo://app?vid=171f794e-6904-4299-b225-748296957f91"},"vehicle_type_id":"4","last_reported":1702314422,"current_range_meters":1600,"station_id":"ce4bgk12rcd13ifvqbi0","pricing_plan_id":"free"},{"bike_id":"5f87770f-ebb5-40c1-a69a-c37d735a7410","system_id":"levelo_inurba_marseille","lat":43.29615,"lon":5.37704,"is_reserved":false,"is_disabled":false,"rental_uris":{"android":"levelo://app?vid=5f87770f-ebb5-40c1-a69a-c37d735a7410","ios":"levelo://app?vid=5f87770f-ebb5-40c1-a69a-c37d735a7410"},"vehicle_type_id":"4","last_reported":1702314422,"current_range_meters":0,"station_id":"ce4bgi92rcd13ifvqb90","pricing_plan_id":"free"},{"bike_id":"77a6c46d-d898-4e4f-8846-efa91689c7f0","system_id":"levelo_inurba_marseille","lat":43.295504,"lon":5.379308,"is_reserved":false,"is_disabled":false,"rental_uris":{"android":"levelo://app?vid=77a6c46d-d898-4e4f-8846-efa91689c7f0","ios":"levelo://app?vid=77a6c46d-d898-4e4f-8846-efa91689c7f0"},"vehicle_type_id":"4","last_reported":1702314422,"current_range_meters":0,"station_id":"","pricing_plan_id":"free"},{"bike_id":"f88e6e3a-3870-4b9a-a314-2a5955943a01","system_id":"levelo_inurba_marseille","lat":43.305994,"lon":5.393687,"is_reserved":false,"is_disabled":false,"rental_uris":{"android":"levelo://app?vid=f88e6e3a-3870-4b9a-a314-2a5955943a01","ios":"levelo://app?vid=f88e6e3a-3870-4b9a-a314-2a5955943a01"},"vehicle_type_id":"4","last_reported":1702314422,"current_range_meters":9200,"station_id":"ce4bh0p2rcd13ifvqd80","pricing_plan_id":"free"},{"bike_id":"05704356-dc14-4291-b4eb-84733c82b772","system_id":"levelo_inurba_marseille","lat":43.2936,"lon":5.37835,"is_reserved":false,"is_disabled":false,"rental_uris":{"android":"levelo://app?vid=05704356-dc14-4291-b4eb-84733c82b772","ios":"levelo://app?vid=05704356-dc14-4291-b4eb-84733c82b772"},"vehicle_type_id":"4","last_reported":1702314422,"current_range_meters":4400,"station_id":"ce4bgjh2rcd13ifvqbf0","pricing_plan_id":"free"},{"bike_id":"ecc1b8c9-27cd-4216-879b-2e88a325fc02","system_id":"levelo_inurba_marseille","lat":43.2936,"lon":5.37835,"is_reserved":false,"is_disabled":false,"rental_uris":{"android":"levelo://app?vid=ecc1b8c9-27cd-4216-879b-2e88a325fc02","ios":"levelo://app?vid=ecc1b8c9-27cd-4216-879b-2e88a325fc02"},"vehicle_type_id":"4","last_reported":1702314422,"current_range_meters":16400,"station_id":"ce4bgjh2rcd13ifvqbf0","pricing_plan_id":"free"},{"bike_id":"1e08bcb9-a46c-4621-ac4c-85937327cda2","system_id":"levelo_inurba_marseille","lat":43.2936,"lon":5.37835,"is_reserved":false,"is_disabled":false,"rental_uris":{"android":"levelo://app?vid=1e08bcb9-a46c-4621-ac4c-85937327cda2","ios":"levelo://app?vid=1e08bcb9-a46c-4621-ac4c-85937327cda2"},"vehicle_type_id":"4","last_reported":1702314422,"current_range_meters":10800,"station_id":"ce4bgjh2rcd13ifvqbf0","pricing_plan_id":"free"},{"bike_id":"1dc38d15-7e69-458a-beb2-cebd575ca7f3","system_id":"levelo_inurba_marseille","lat":43.300852,"lon":5.390859,"is_reserved":false,"is_disabled":false,"rental_uris":{"android":"levelo://app?vid=1dc38d15-7e69-458a-beb2-cebd575ca7f3","ios":"levelo://app?vid=1dc38d15-7e69-458a-beb2-cebd575ca7f3"},"vehicle_type_id":"4","last_reported":1702314422,"current_range_meters":0,"station_id":"ce4bh192rcd13ifvqdb0","pricing_plan_id":"free"},{"bike_id":"a3b67d9b-35db-4777-8594-61d5215cb2e0","system_id":"levelo_inurba_marseille","lat":43.290624,"lon":5.359245,"is_reserved":false,"is_disabled":false,"rental_uris":{"android":"levelo://app?vid=a3b67d9b-35db-4777-8594-61d5215cb2e0","ios":"levelo://app?vid=a3b67d9b-35db-4777-8594-61d5215cb2e0"},"vehicle_type_id":"4","last_reported":1702314422,"current_range_meters":10000,"station_id":"ce4bha92rcd13ifvqeg0","pricing_plan_id":"free"},{"bike_id":"5e1fda8b-dc34-4e7a-8514-fbde9eb6e834","system_id":"levelo_inurba_marseille","lat":43.290631,"lon":5.359244,"is_reserved":false,"is_disabled":false,"rental_uris":{"android":"levelo://app?vid=5e1fda8b-dc34-4e7a-8514-fbde9eb6e834","ios":"levelo://app?vid=5e1fda8b-dc34-4e7a-8514-fbde9eb6e834"},"vehicle_type_id":"4","last_reported":1702314422,"current_range_meters":19200,"station_id":"ce4bha92rcd13ifvqeg0","pricing_plan_id":"free"},{"bike_id":"07b28bd1-0200-4ec6-81be-77cb2b20af24","system_id":"levelo_inurba_marseille","lat":43.294153,"lon":5.386305,"is_reserved":false,"is_disabled":false,"rental_uris":{"android":"levelo://app?vid=07b28bd1-0200-4ec6-81be-77cb2b20af24","ios":"levelo://app?vid=07b28bd1-0200-4ec6-81be-77cb2b20af24"},"vehicle_type_id":"4","last_reported":1702314422,"current_range_meters":26800,"station_id":"ce4bh2h2rcd13ifvqdh0","pricing_plan_id":"free"},{"bike_id":"a84eb383-ff0f-4983-afc0-57e6c791303a","system_id":"levelo_inurba_marseille","lat":43.294162,"lon":5.386292,"is_reserved":false,"is_disabled":false,"rental_uris":{"android":"levelo://app?vid=a84eb383-ff0f-4983-afc0-57e6c791303a","ios":"levelo://app?vid=a84eb383-ff0f-4983-afc0-57e6c791303a"},"vehicle_type_id":"4","last_reported":1702314422,"current_range_meters":31600,"station_id":"ce4bh2h2rcd13ifvqdh0","pricing_plan_id":"free"},{"bike_id":"18b287aa-1956-45e3-b683-b8fab871b944","system_id":"levelo_inurba_marseille","lat":43.294162,"lon":5.386292,"is_reserved":false,"is_disabled":false,"rental_uris":{"android":"levelo://app?vid=18b287aa-1956-45e3-b683-b8fab871b944","ios":"levelo://app?vid=18b287aa-1956-45e3-b683-b8fab871b944"},"vehicle_type_id":"4","last_reported":1702314422,"current_range_meters":31200,"station_id":"ce4bh2h2rcd13ifvqdh0","pricing_plan_id":"free"},{"bike_id":"cc1aca8a-68ba-453f-958f-8d443bc5f895","system_id":"levelo_inurba_marseille","lat":43.294153,"lon":5.386305,"is_reserved":false,"is_disabled":false,"rental_uris":{"android":"levelo://app?vid=cc1aca8a-68ba-453f-958f-8d443bc5f895","ios":"levelo://app?vid=cc1aca8a-68ba-453f-958f-8d443bc5f895"},"vehicle_type_id":"4","last_reported":1702314422,"current_range_meters":28000,"station_id":"ce4bh2h2rcd13ifvqdh0","pricing_plan_id":"free"},{"bike_id":"836baf04-ecd5-489d-abe1-ebc1f8302764","system_id":"levelo_inurba_marseille","lat":43.294153,"lon":5.386305,"is_reserved":false,"is_disabled":false,"rental_uris":{"android":"levelo://app?vid=836baf04-ecd5-489d-abe1-ebc1f8302764","ios":"levelo://app?vid=836baf04-ecd5-489d-abe1-ebc1f8302764"},"vehicle_type_id":"4","last_reported":1702314422,"current_range_meters":26400,"station_id":"ce4bh2h2rcd13ifvqdh0","pricing_plan_id":"free"},{"bike_id":"da1bab3e-9c4b-4e1b-8767-ed4d63552253","system_id":"levelo_inurba_marseille","lat":43.294153,"lon":5.386305,"is_reserved":false,"is_disabled":false,"rental_uris":{"android":"levelo://app?vid=da1bab3e-9c4b-4e1b-8767-ed4d63552253","ios":"levelo://app?vid=da1bab3e-9c4b-4e1b-8767-ed4d63552253"},"vehicle_type_id":"4","last_reported":1702314422,"current_range_meters":31200,"station_id":"ce4bh2h2rcd13ifvqdh0","pricing_plan_id":"free"},{"bike_id":"44291009-1373-4be0-890a-7b366ecee1f6","system_id":"levelo_inurba_marseille","lat":43.292644,"lon":5.384257,"is_reserved":false,"is_disabled":false,"rental_uris":{"android":"levelo://app?vid=44291009-1373-4be0-890a-7b366ecee1f6","ios":"levelo://app?vid=44291009-1373-4be0-890a-7b366ecee1f6"},"vehicle_type_id":"4","last_reported":1702314422,"current_range_meters":0,"station_id":"ce4bh692rcd13ifvqea0","pricing_plan_id":"free"},{"bike_id":"f1896741-896e-40c9-aa4d-96fe134ed880","system_id":"levelo_inurba_marseille","lat":43.330442,"lon":5.389148,"is_reserved":false,"is_disabled":false,"rental_uris":{"android":"levelo://app?vid=f1896741-896e-40c9-aa4d-96fe134ed880","ios":"levelo://app?vid=f1896741-896e-40c9-aa4d-96fe134ed880"},"vehicle_type_id":"4","last_reported":1702314422,"current_range_meters":5200,"station_id":"ce4bhr92rcd13ifvqhrg","pricing_plan_id":"free"},{"bike_id":"a3a30c45-a99a-4c28-8d82-e1868e03e4be","system_id":"levelo_inurba_marseille","lat":43.290104,"lon":5.356111,"is_reserved":false,"is_disabled":false,"rental_uris":{"android":"levelo://app?vid=a3a30c45-a99a-4c28-8d82-e1868e03e4be","ios":"levelo://app?vid=a3a30c45-a99a-4c28-8d82-e1868e03e4be"},"vehicle_type_id":"4","last_reported":1702314422,"current_range_meters":4800,"station_id":"ce4bhb92rcd13ifvqen0","pricing_plan_id":"free"},{"bike_id":"9d8e17a7-c4c7-4287-a923-25a1cf206b9b","system_id":"levelo_inurba_marseille","lat":43.330442,"lon":5.389148,"is_reserved":false,"is_disabled":false,"rental_uris":{"android":"levelo://app?vid=9d8e17a7-c4c7-4287-a923-25a1cf206b9b","ios":"levelo://app?vid=9d8e17a7-c4c7-4287-a923-25a1cf206b9b"},"vehicle_type_id":"4","last_reported":1702314422,"current_range_meters":11200,"station_id":"ce4bhr92rcd13ifvqhrg","pricing_plan_id":"free"},{"bike_id":"4601da1a-2bc2-4be5-8fac-e44f32e20802","system_id":"levelo_inurba_marseille","lat":43.33043,"lon":5.38924,"is_reserved":false,"is_disabled":false,"rental_uris":{"android":"levelo://app?vid=4601da1a-2bc2-4be5-8fac-e44f32e20802","ios":"levelo://app?vid=4601da1a-2bc2-4be5-8fac-e44f32e20802"},"vehicle_type_id":"4","last_reported":1702314422,"current_range_meters":27200,"station_id":"ce4bhr92rcd13ifvqhrg","pricing_plan_id":"free"},{"bike_id":"cbad27c0-8ded-481a-a7a9-030915f83b18","system_id":"levelo_inurba_marseille","lat":43.289741,"lon":5.378306,"is_reserved":false,"is_disabled":false,"rental_uris":{"android":"levelo://app?vid=cbad27c0-8ded-481a-a7a9-030915f83b18","ios":"levelo://app?vid=cbad27c0-8ded-481a-a7a9-030915f83b18"},"vehicle_type_id":"4","last_reported":1702314422,"current_range_meters":20000,"station_id":"ce4bh9p2rcd13ifvqed0","pricing_plan_id":"free"},{"bike_id":"1f53a7f3-d156-4498-9cc4-be2e64857e5b","system_id":"levelo_inurba_marseille","lat":43.30926,"lon":5.40149,"is_reserved":false,"is_disabled":false,"rental_uris":{"android":"levelo://app?vid=1f53a7f3-d156-4498-9cc4-be2e64857e5b","ios":"levelo://app?vid=1f53a7f3-d156-4498-9cc4-be2e64857e5b"},"vehicle_type_id":"4","last_reported":1702314422,"current_range_meters":11200,"station_id":"ce4bgvp2rcd13ifvqct0","pricing_plan_id":"free"},{"bike_id":"2fd69906-f6d5-43a5-af8c-7a98f29279e4","system_id":"levelo_inurba_marseille","lat":43.30658,"lon":5.40086,"is_reserved":false,"is_disabled":false,"rental_uris":{"android":"levelo://app?vid=2fd69906-f6d5-43a5-af8c-7a98f29279e4","ios":"levelo://app?vid=2fd69906-f6d5-43a5-af8c-7a98f29279e4"},"vehicle_type_id":"4","last_reported":1702314422,"current_range_meters":25200,"station_id":"ce4bh112rcd13ifvqda0","pricing_plan_id":"free"},{"bike_id":"357c0342-4746-4875-8863-f1f19ff2fa1a","system_id":"levelo_inurba_marseille","lat":43.33758,"lon":5.3747,"is_reserved":false,"is_disabled":false,"rental_uris":{"android":"levelo://app?vid=357c0342-4746-4875-8863-f1f19ff2fa1a","ios":"levelo://app?vid=357c0342-4746-4875-8863-f1f19ff2fa1a"},"vehicle_type_id":"4","last_reported":1702314422,"current_range_meters":27200,"station_id":"","pricing_plan_id":"free"},{"bike_id":"1ffa6cab-2192-4490-9617-61044011c6b1","system_id":"levelo_inurba_marseille","lat":43.337608,"lon":5.374572,"is_reserved":false,"is_disabled":false,"rental_uris":{"android":"levelo://app?vid=1ffa6cab-2192-4490-9617-61044011c6b1","ios":"levelo://app?vid=1ffa6cab-2192-4490-9617-61044011c6b1"},"vehicle_type_id":"4","last_reported":1702314422,"current_range_meters":20000,"station_id":"","pricing_plan_id":"free"},{"bike_id":"60f84eb0-2206-4e1b-94df-fd8c129930f0","system_id":"levelo_inurba_marseille","lat":43.337668,"lon":5.374343,"is_reserved":false,"is_disabled":false,"rental_uris":{"android":"levelo://app?vid=60f84eb0-2206-4e1b-94df-fd8c129930f0","ios":"levelo://app?vid=60f84eb0-2206-4e1b-94df-fd8c129930f0"},"vehicle_type_id":"4","last_reported":1702314422,"current_range_meters":14800,"station_id":"","pricing_plan_id":"free"},{"bike_id":"b329e36a-730b-4742-bd80-1e703395f74e","system_id":"levelo_inurba_marseille","lat":43.28727,"lon":5.36078,"is_reserved":false,"is_disabled":false,"rental_uris":{"android":"levelo://app?vid=b329e36a-730b-4742-bd80-1e703395f74e","ios":"levelo://app?vid=b329e36a-730b-4742-bd80-1e703395f74e"},"vehicle_type_id":"4","last_reported":1702314422,"current_range_meters":26800,"station_id":"cki0cbj6b192h4jlfktg","pricing_plan_id":"free"},{"bike_id":"3f9429ce-0e2f-4adf-9908-c8a7985761c7","system_id":"levelo_inurba_marseille","lat":43.28727,"lon":5.36078,"is_reserved":false,"is_disabled":false,"rental_uris":{"android":"levelo://app?vid=3f9429ce-0e2f-4adf-9908-c8a7985761c7","ios":"levelo://app?vid=3f9429ce-0e2f-4adf-9908-c8a7985761c7"},"vehicle_type_id":"4","last_reported":1702314422,"current_range_meters":13600,"station_id":"cki0cbj6b192h4jlfktg","pricing_plan_id":"free"},{"bike_id":"25cb2694-7f7d-4c43-aba7-3f359a174e0e","system_id":"levelo_inurba_marseille","lat":43.28727,"lon":5.36078,"is_reserved":false,"is_disabled":false,"rental_uris":{"android":"levelo://app?vid=25cb2694-7f7d-4c43-aba7-3f359a174e0e","ios":"levelo://app?vid=25cb2694-7f7d-4c43-aba7-3f359a174e0e"},"vehicle_type_id":"4","last_reported":1702314422,"current_range_meters":20400,"station_id":"cki0cbj6b192h4jlfktg","pricing_plan_id":"free"},{"bike_id":"92b25594-f8ae-4950-bcf3-386e2c02229a","system_id":"levelo_inurba_marseille","lat":43.286591,"lon":5.363346,"is_reserved":false,"is_disabled":false,"rental_uris":{"android":"levelo://app?vid=92b25594-f8ae-4950-bcf3-386e2c02229a","ios":"levelo://app?vid=92b25594-f8ae-4950-bcf3-386e2c02229a"},"vehicle_type_id":"4","last_reported":1702314422,"current_range_meters":21200,"station_id":"ce4bhah2rcd13ifvqej0","pricing_plan_id":"free"},{"bike_id":"3025e8aa-365e-4323-a117-d92fd8ecce89","system_id":"levelo_inurba_marseille","lat":43.298681,"lon":5.397225,"is_reserved":false,"is_disabled":false,"rental_uris":{"android":"levelo://app?vid=3025e8aa-365e-4323-a117-d92fd8ecce89","ios":"levelo://app?vid=3025e8aa-365e-4323-a117-d92fd8ecce89"},"vehicle_type_id":"4","last_reported":1702314422,"current_range_meters":26000,"station_id":"ce4bh0h2rcd13ifvqd50","pricing_plan_id":"free"},{"bike_id":"c4d445f4-4c65-4eeb-8fe0-b1a01161add8","system_id":"levelo_inurba_marseille","lat":43.286591,"lon":5.363346,"is_reserved":false,"is_disabled":false,"rental_uris":{"android":"levelo://app?vid=c4d445f4-4c65-4eeb-8fe0-b1a01161add8","ios":"levelo://app?vid=c4d445f4-4c65-4eeb-8fe0-b1a01161add8"},"vehicle_type_id":"4","last_reported":1702314422,"current_range_meters":30800,"station_id":"ce4bhah2rcd13ifvqej0","pricing_plan_id":"free"},{"bike_id":"56fa440b-cdf4-4bdf-bd24-a95180f88aed","system_id":"levelo_inurba_marseille","lat":43.295194,"lon":5.39397,"is_reserved":false,"is_disabled":false,"rental_uris":{"android":"levelo://app?vid=56fa440b-cdf4-4bdf-bd24-a95180f88aed","ios":"levelo://app?vid=56fa440b-cdf4-4bdf-bd24-a95180f88aed"},"vehicle_type_id":"4","last_reported":1702314422,"current_range_meters":9200,"station_id":"ce4bh292rcd13ifvqdf0","pricing_plan_id":"free"},{"bike_id":"f8dbd23f-d0d7-49b5-8ba6-97faf1818966","system_id":"levelo_inurba_marseille","lat":43.286591,"lon":5.363346,"is_reserved":false,"is_disabled":false,"rental_uris":{"android":"levelo://app?vid=f8dbd23f-d0d7-49b5-8ba6-97faf1818966","ios":"levelo://app?vid=f8dbd23f-d0d7-49b5-8ba6-97faf1818966"},"vehicle_type_id":"4","last_reported":1702314422,"current_range_meters":10000,"station_id":"ce4bhah2rcd13ifvqej0","pricing_plan_id":"free"},{"bike_id":"601186fe-95d2-4b4e-b87c-8aa2c9b2c79c","system_id":"levelo_inurba_marseille","lat":43.29526,"lon":5.39394,"is_reserved":false,"is_disabled":false,"rental_uris":{"android":"levelo://app?vid=601186fe-95d2-4b4e-b87c-8aa2c9b2c79c","ios":"levelo://app?vid=601186fe-95d2-4b4e-b87c-8aa2c9b2c79c"},"vehicle_type_id":"4","last_reported":1702314422,"current_range_meters":0,"station_id":"ce4bh292rcd13ifvqdf0","pricing_plan_id":"free"},{"bike_id":"cc418fb9-fec0-401d-9a6a-0379a93e6682","system_id":"levelo_inurba_marseille","lat":43.295194,"lon":5.39397,"is_reserved":false,"is_disabled":false,"rental_uris":{"android":"levelo://app?vid=cc418fb9-fec0-401d-9a6a-0379a93e6682","ios":"levelo://app?vid=cc418fb9-fec0-401d-9a6a-0379a93e6682"},"vehicle_type_id":"4","last_reported":1702314422,"current_range_meters":26400,"station_id":"ce4bh292rcd13ifvqdf0","pricing_plan_id":"free"},{"bike_id":"1b896104-e021-41a3-821d-90b015df7f7e","system_id":"levelo_inurba_marseille","lat":43.316828,"lon":5.404723,"is_reserved":false,"is_disabled":false,"rental_uris":{"android":"levelo://app?vid=1b896104-e021-41a3-821d-90b015df7f7e","ios":"levelo://app?vid=1b896104-e021-41a3-821d-90b015df7f7e"},"vehicle_type_id":"4","last_reported":1702314422,"current_range_meters":6000,"station_id":"ce4bh012rcd13ifvqd00","pricing_plan_id":"free"},{"bike_id":"d2de1e8b-73bf-43ac-9e34-43816c746a58","system_id":"levelo_inurba_marseille","lat":43.305706,"lon":5.365654,"is_reserved":false,"is_disabled":false,"rental_uris":{"android":"levelo://app?vid=d2de1e8b-73bf-43ac-9e34-43816c746a58","ios":"levelo://app?vid=d2de1e8b-73bf-43ac-9e34-43816c746a58"},"vehicle_type_id":"4","last_reported":1702314422,"current_range_meters":20400,"station_id":"ce4bgs12rcd13ifvqcag","pricing_plan_id":"free"},{"bike_id":"a4f702f4-4a13-42b4-9a7e-18082c5dacee","system_id":"levelo_inurba_marseille","lat":43.284538,"lon":5.358657,"is_reserved":false,"is_disabled":false,"rental_uris":{"android":"levelo://app?vid=a4f702f4-4a13-42b4-9a7e-18082c5dacee","ios":"levelo://app?vid=a4f702f4-4a13-42b4-9a7e-18082c5dacee"},"vehicle_type_id":"4","last_reported":1702314422,"current_range_meters":16000,"station_id":"ce4bhah2rcd13ifvqei0","pricing_plan_id":"free"},{"bike_id":"1ade9461-4a1e-48a2-b17e-5d07cfd2b471","system_id":"levelo_inurba_marseille","lat":43.284538,"lon":5.358657,"is_reserved":false,"is_disabled":false,"rental_uris":{"android":"levelo://app?vid=1ade9461-4a1e-48a2-b17e-5d07cfd2b471","ios":"levelo://app?vid=1ade9461-4a1e-48a2-b17e-5d07cfd2b471"},"vehicle_type_id":"4","last_reported":1702314422,"current_range_meters":30000,"station_id":"ce4bhah2rcd13ifvqei0","pricing_plan_id":"free"},{"bike_id":"88dcba98-f765-49f6-9fdc-5eec0bd523b7","system_id":"levelo_inurba_marseille","lat":43.294314,"lon":5.397498,"is_reserved":false,"is_disabled":false,"rental_uris":{"android":"levelo://app?vid=88dcba98-f765-49f6-9fdc-5eec0bd523b7","ios":"levelo://app?vid=88dcba98-f765-49f6-9fdc-5eec0bd523b7"},"vehicle_type_id":"4","last_reported":1702314422,"current_range_meters":28400,"station_id":"ce4bh3h2rcd13ifvqdo0","pricing_plan_id":"free"},{"bike_id":"0e13425f-ff46-439c-b40e-89de6230b5d1","system_id":"levelo_inurba_marseille","lat":43.284538,"lon":5.358657,"is_reserved":false,"is_disabled":false,"rental_uris":{"android":"levelo://app?vid=0e13425f-ff46-439c-b40e-89de6230b5d1","ios":"levelo://app?vid=0e13425f-ff46-439c-b40e-89de6230b5d1"},"vehicle_type_id":"4","last_reported":1702314422,"current_range_meters":31200,"station_id":"ce4bhah2rcd13ifvqei0","pricing_plan_id":"free"},{"bike_id":"5878fb3f-ab66-48fc-9a0e-5322272ab82e","system_id":"levelo_inurba_marseille","lat":43.284538,"lon":5.358657,"is_reserved":false,"is_disabled":false,"rental_uris":{"android":"levelo://app?vid=5878fb3f-ab66-48fc-9a0e-5322272ab82e","ios":"levelo://app?vid=5878fb3f-ab66-48fc-9a0e-5322272ab82e"},"vehicle_type_id":"4","last_reported":1702314422,"current_range_meters":9200,"station_id":"ce4bhah2rcd13ifvqei0","pricing_plan_id":"free"},{"bike_id":"97d8fcc7-4aef-45da-b019-c3d5381f038e","system_id":"levelo_inurba_marseille","lat":43.28614,"lon":5.35098,"is_reserved":false,"is_disabled":false,"rental_uris":{"android":"levelo://app?vid=97d8fcc7-4aef-45da-b019-c3d5381f038e","ios":"levelo://app?vid=97d8fcc7-4aef-45da-b019-c3d5381f038e"},"vehicle_type_id":"4","last_reported":1702314422,"current_range_meters":0,"station_id":"ce4bhch2rcd13ifvqeug","pricing_plan_id":"free"},{"bike_id":"ddd61fd9-15a5-48f5-b66d-f50d8a92ed38","system_id":"levelo_inurba_marseille","lat":43.288501,"lon":5.393087,"is_reserved":false,"is_disabled":false,"rental_uris":{"android":"levelo://app?vid=ddd61fd9-15a5-48f5-b66d-f50d8a92ed38","ios":"levelo://app?vid=ddd61fd9-15a5-48f5-b66d-f50d8a92ed38"},"vehicle_type_id":"4","last_reported":1702314422,"current_range_meters":19200,"station_id":"ce4bh2p2rcd13ifvqdi0","pricing_plan_id":"free"},{"bike_id":"ff9ff457-650b-42cd-9999-d24167d8fe14","system_id":"levelo_inurba_marseille","lat":43.283494,"lon":5.380945,"is_reserved":false,"is_disabled":false,"rental_uris":{"android":"levelo://app?vid=ff9ff457-650b-42cd-9999-d24167d8fe14","ios":"levelo://app?vid=ff9ff457-650b-42cd-9999-d24167d8fe14"},"vehicle_type_id":"4","last_reported":1702314422,"current_range_meters":27600,"station_id":"ce4bh412rcd13ifvqdr0","pricing_plan_id":"free"},{"bike_id":"96fe251b-eb2c-4f53-a237-15a1c8d09a1e","system_id":"levelo_inurba_marseille","lat":43.288501,"lon":5.393087,"is_reserved":false,"is_disabled":false,"rental_uris":{"android":"levelo://app?vid=96fe251b-eb2c-4f53-a237-15a1c8d09a1e","ios":"levelo://app?vid=96fe251b-eb2c-4f53-a237-15a1c8d09a1e"},"vehicle_type_id":"4","last_reported":1702314422,"current_range_meters":11200,"station_id":"ce4bh2p2rcd13ifvqdi0","pricing_plan_id":"free"},{"bike_id":"581ce6aa-4ed0-4582-8d8b-233cd6a39a95","system_id":"levelo_inurba_marseille","lat":43.283498,"lon":5.380948,"is_reserved":false,"is_disabled":false,"rental_uris":{"android":"levelo://app?vid=581ce6aa-4ed0-4582-8d8b-233cd6a39a95","ios":"levelo://app?vid=581ce6aa-4ed0-4582-8d8b-233cd6a39a95"},"vehicle_type_id":"4","last_reported":1702314422,"current_range_meters":13200,"station_id":"ce4bh412rcd13ifvqdr0","pricing_plan_id":"free"},{"bike_id":"76c792fb-5dd3-4c9e-865a-7f3300d33da2","system_id":"levelo_inurba_marseille","lat":43.29284,"lon":5.40119,"is_reserved":false,"is_disabled":false,"rental_uris":{"android":"levelo://app?vid=76c792fb-5dd3-4c9e-865a-7f3300d33da2","ios":"levelo://app?vid=76c792fb-5dd3-4c9e-865a-7f3300d33da2"},"vehicle_type_id":"4","last_reported":1702314422,"current_range_meters":0,"station_id":"ce4bh312rcd13ifvqdk0","pricing_plan_id":"free"},{"bike_id":"4783e1c1-623a-48aa-945d-e5fe1908db02","system_id":"levelo_inurba_marseille","lat":43.292724,"lon":5.401131,"is_reserved":false,"is_disabled":false,"rental_uris":{"android":"levelo://app?vid=4783e1c1-623a-48aa-945d-e5fe1908db02","ios":"levelo://app?vid=4783e1c1-623a-48aa-945d-e5fe1908db02"},"vehicle_type_id":"4","last_reported":1702314422,"current_range_meters":28800,"station_id":"ce4bh312rcd13ifvqdk0","pricing_plan_id":"free"},{"bike_id":"abfb2037-34fb-4437-be64-9e35bd0c2a90","system_id":"levelo_inurba_marseille","lat":43.292724,"lon":5.401131,"is_reserved":false,"is_disabled":false,"rental_uris":{"android":"levelo://app?vid=abfb2037-34fb-4437-be64-9e35bd0c2a90","ios":"levelo://app?vid=abfb2037-34fb-4437-be64-9e35bd0c2a90"},"vehicle_type_id":"4","last_reported":1702314422,"current_range_meters":2800,"station_id":"ce4bh312rcd13ifvqdk0","pricing_plan_id":"free"},{"bike_id":"a6293421-2f53-4d22-b3a9-1a774e17b5cb","system_id":"levelo_inurba_marseille","lat":43.282754,"lon":5.350519,"is_reserved":false,"is_disabled":false,"rental_uris":{"android":"levelo://app?vid=a6293421-2f53-4d22-b3a9-1a774e17b5cb","ios":"levelo://app?vid=a6293421-2f53-4d22-b3a9-1a774e17b5cb"},"vehicle_type_id":"4","last_reported":1702314422,"current_range_meters":29200,"station_id":"ce4bhbp2rcd13ifvqerg","pricing_plan_id":"free"},{"bike_id":"5dda3b7f-11ff-49bf-9ba1-728a62fd37be","system_id":"levelo_inurba_marseille","lat":43.282744,"lon":5.350533,"is_reserved":false,"is_disabled":false,"rental_uris":{"android":"levelo://app?vid=5dda3b7f-11ff-49bf-9ba1-728a62fd37be","ios":"levelo://app?vid=5dda3b7f-11ff-49bf-9ba1-728a62fd37be"},"vehicle_type_id":"4","last_reported":1702314422,"current_range_meters":23600,"station_id":"ce4bhbp2rcd13ifvqerg","pricing_plan_id":"free"},{"bike_id":"1a755c5d-9b3c-4f8b-a5a3-2cb0e2abc85a","system_id":"levelo_inurba_marseille","lat":43.282754,"lon":5.350519,"is_reserved":false,"is_disabled":false,"rental_uris":{"android":"levelo://app?vid=1a755c5d-9b3c-4f8b-a5a3-2cb0e2abc85a","ios":"levelo://app?vid=1a755c5d-9b3c-4f8b-a5a3-2cb0e2abc85a"},"vehicle_type_id":"4","last_reported":1702314422,"current_range_meters":29200,"station_id":"ce4bhbp2rcd13ifvqerg","pricing_plan_id":"free"},{"bike_id":"9d85ea57-aab2-4af5-acd1-7b11cc28f90f","system_id":"levelo_inurba_marseille","lat":43.282744,"lon":5.350533,"is_reserved":false,"is_disabled":false,"rental_uris":{"android":"levelo://app?vid=9d85ea57-aab2-4af5-acd1-7b11cc28f90f","ios":"levelo://app?vid=9d85ea57-aab2-4af5-acd1-7b11cc28f90f"},"vehicle_type_id":"4","last_reported":1702314422,"current_range_meters":28800,"station_id":"ce4bhbp2rcd13ifvqerg","pricing_plan_id":"free"},{"bike_id":"79f2da63-5223-4c7c-b72b-c3226f261b56","system_id":"levelo_inurba_marseille","lat":43.28268,"lon":5.35072,"is_reserved":false,"is_disabled":false,"rental_uris":{"android":"levelo://app?vid=79f2da63-5223-4c7c-b72b-c3226f261b56","ios":"levelo://app?vid=79f2da63-5223-4c7c-b72b-c3226f261b56"},"vehicle_type_id":"4","last_reported":1702314422,"current_range_meters":0,"station_id":"ce4bhbp2rcd13ifvqerg","pricing_plan_id":"free"},{"bike_id":"15d98c6a-6828-4ac4-8746-cc58b5cad2b0","system_id":"levelo_inurba_marseille","lat":43.282744,"lon":5.350533,"is_reserved":false,"is_disabled":false,"rental_uris":{"android":"levelo://app?vid=15d98c6a-6828-4ac4-8746-cc58b5cad2b0","ios":"levelo://app?vid=15d98c6a-6828-4ac4-8746-cc58b5cad2b0"},"vehicle_type_id":"4","last_reported":1702314422,"current_range_meters":31200,"station_id":"ce4bhbp2rcd13ifvqerg","pricing_plan_id":"free"},{"bike_id":"82b11f6e-cea3-4f77-aec4-9975fb6ea446","system_id":"levelo_inurba_marseille","lat":43.281044,"lon":5.378308,"is_reserved":false,"is_disabled":false,"rental_uris":{"android":"levelo://app?vid=82b11f6e-cea3-4f77-aec4-9975fb6ea446","ios":"levelo://app?vid=82b11f6e-cea3-4f77-aec4-9975fb6ea446"},"vehicle_type_id":"4","last_reported":1702314422,"current_range_meters":23200,"station_id":"ce4bha12rcd13ifvqee0","pricing_plan_id":"free"},{"bike_id":"dbb32c68-89ea-42d5-9bbd-5de5751b5866","system_id":"levelo_inurba_marseille","lat":43.280382,"lon":5.369291,"is_reserved":false,"is_disabled":false,"rental_uris":{"android":"levelo://app?vid=dbb32c68-89ea-42d5-9bbd-5de5751b5866","ios":"levelo://app?vid=dbb32c68-89ea-42d5-9bbd-5de5751b5866"},"vehicle_type_id":"4","last_reported":1702314422,"current_range_meters":31600,"station_id":"ce4bha12rcd13ifvqef0","pricing_plan_id":"free"},{"bike_id":"4ee53fc3-95fe-4ec3-ae50-b9a8cd12442e","system_id":"levelo_inurba_marseille","lat":43.280382,"lon":5.369291,"is_reserved":false,"is_disabled":false,"rental_uris":{"android":"levelo://app?vid=4ee53fc3-95fe-4ec3-ae50-b9a8cd12442e","ios":"levelo://app?vid=4ee53fc3-95fe-4ec3-ae50-b9a8cd12442e"},"vehicle_type_id":"4","last_reported":1702314422,"current_range_meters":10800,"station_id":"ce4bha12rcd13ifvqef0","pricing_plan_id":"free"},{"bike_id":"a9087632-d97b-4295-ac27-f172913e6205","system_id":"levelo_inurba_marseille","lat":43.280382,"lon":5.369291,"is_reserved":false,"is_disabled":false,"rental_uris":{"android":"levelo://app?vid=a9087632-d97b-4295-ac27-f172913e6205","ios":"levelo://app?vid=a9087632-d97b-4295-ac27-f172913e6205"},"vehicle_type_id":"4","last_reported":1702314422,"current_range_meters":29600,"station_id":"ce4bha12rcd13ifvqef0","pricing_plan_id":"free"},{"bike_id":"f6745fb3-3576-423a-947a-ec053173245c","system_id":"levelo_inurba_marseille","lat":43.296263,"lon":5.40601,"is_reserved":false,"is_disabled":false,"rental_uris":{"android":"levelo://app?vid=f6745fb3-3576-423a-947a-ec053173245c","ios":"levelo://app?vid=f6745fb3-3576-423a-947a-ec053173245c"},"vehicle_type_id":"4","last_reported":1702314422,"current_range_meters":4400,"station_id":"ce4bh0h2rcd13ifvqd60","pricing_plan_id":"free"},{"bike_id":"160bd7e5-05f6-43a1-9bc7-4629c7a42466","system_id":"levelo_inurba_marseille","lat":43.31321,"lon":5.41284,"is_reserved":false,"is_disabled":false,"rental_uris":{"android":"levelo://app?vid=160bd7e5-05f6-43a1-9bc7-4629c7a42466","ios":"levelo://app?vid=160bd7e5-05f6-43a1-9bc7-4629c7a42466"},"vehicle_type_id":"4","last_reported":1702314422,"current_range_meters":800,"station_id":"","pricing_plan_id":"free"},{"bike_id":"b468296f-e966-44ce-82a4-e7d0a883f780","system_id":"levelo_inurba_marseille","lat":43.279893,"lon":5.37874,"is_reserved":false,"is_disabled":false,"rental_uris":{"android":"levelo://app?vid=b468296f-e966-44ce-82a4-e7d0a883f780","ios":"levelo://app?vid=b468296f-e966-44ce-82a4-e7d0a883f780"},"vehicle_type_id":"4","last_reported":1702314422,"current_range_meters":19200,"station_id":"ce4bha12rcd13ifvqee0","pricing_plan_id":"free"},{"bike_id":"6702dbe4-57c0-47ab-8f15-dff6fffda773","system_id":"levelo_inurba_marseille","lat":43.304188,"lon":5.412904,"is_reserved":false,"is_disabled":false,"rental_uris":{"android":"levelo://app?vid=6702dbe4-57c0-47ab-8f15-dff6fffda773","ios":"levelo://app?vid=6702dbe4-57c0-47ab-8f15-dff6fffda773"},"vehicle_type_id":"4","last_reported":1702314422,"current_range_meters":28400,"station_id":"ce4bhop2rcd13ifvqh8g","pricing_plan_id":"free"},{"bike_id":"a5ccf812-c64f-4176-b0f3-da9c5f6628cf","system_id":"levelo_inurba_marseille","lat":43.304188,"lon":5.412904,"is_reserved":false,"is_disabled":false,"rental_uris":{"android":"levelo://app?vid=a5ccf812-c64f-4176-b0f3-da9c5f6628cf","ios":"levelo://app?vid=a5ccf812-c64f-4176-b0f3-da9c5f6628cf"},"vehicle_type_id":"4","last_reported":1702314422,"current_range_meters":26000,"station_id":"ce4bhop2rcd13ifvqh8g","pricing_plan_id":"free"},{"bike_id":"b1e93ae0-4654-45af-9647-13868c0c9d69","system_id":"levelo_inurba_marseille","lat":43.279087,"lon":5.380114,"is_reserved":false,"is_disabled":false,"rental_uris":{"android":"levelo://app?vid=b1e93ae0-4654-45af-9647-13868c0c9d69","ios":"levelo://app?vid=b1e93ae0-4654-45af-9647-13868c0c9d69"},"vehicle_type_id":"4","last_reported":1702314422,"current_range_meters":6800,"station_id":"ce4bhf92rcd13ifvqf50","pricing_plan_id":"free"},{"bike_id":"3ec56a7a-0697-4c9d-8101-c2d740495177","system_id":"levelo_inurba_marseille","lat":43.276266,"lon":5.361069,"is_reserved":false,"is_disabled":false,"rental_uris":{"android":"levelo://app?vid=3ec56a7a-0697-4c9d-8101-c2d740495177","ios":"levelo://app?vid=3ec56a7a-0697-4c9d-8101-c2d740495177"},"vehicle_type_id":"4","last_reported":1702314422,"current_range_meters":20400,"station_id":"ce4bgj92rcd13ifvqbe0","pricing_plan_id":"free"},{"bike_id":"6fb7d017-b245-43a0-8373-a842d3457d15","system_id":"levelo_inurba_marseille","lat":43.28697,"lon":5.406028,"is_reserved":false,"is_disabled":false,"rental_uris":{"android":"levelo://app?vid=6fb7d017-b245-43a0-8373-a842d3457d15","ios":"levelo://app?vid=6fb7d017-b245-43a0-8373-a842d3457d15"},"vehicle_type_id":"4","last_reported":1702314422,"current_range_meters":6800,"station_id":"","pricing_plan_id":"free"},{"bike_id":"9861af89-9127-44a7-97f2-3ce99764f464","system_id":"levelo_inurba_marseille","lat":43.280784,"lon":5.396622,"is_reserved":false,"is_disabled":false,"rental_uris":{"android":"levelo://app?vid=9861af89-9127-44a7-97f2-3ce99764f464","ios":"levelo://app?vid=9861af89-9127-44a7-97f2-3ce99764f464"},"vehicle_type_id":"4","last_reported":1702314422,"current_range_meters":22800,"station_id":"ce4bho12rcd13ifvqh2g","pricing_plan_id":"free"},{"bike_id":"54250ba5-4a26-4529-a9fa-140a477b1937","system_id":"levelo_inurba_marseille","lat":43.280784,"lon":5.396622,"is_reserved":false,"is_disabled":false,"rental_uris":{"android":"levelo://app?vid=54250ba5-4a26-4529-a9fa-140a477b1937","ios":"levelo://app?vid=54250ba5-4a26-4529-a9fa-140a477b1937"},"vehicle_type_id":"4","last_reported":1702314422,"current_range_meters":24800,"station_id":"ce4bho12rcd13ifvqh2g","pricing_plan_id":"free"},{"bike_id":"2c5ce8cd-19d1-46f5-90af-3b93c3bf9cb8","system_id":"levelo_inurba_marseille","lat":43.278401,"lon":5.392152,"is_reserved":false,"is_disabled":false,"rental_uris":{"android":"levelo://app?vid=2c5ce8cd-19d1-46f5-90af-3b93c3bf9cb8","ios":"levelo://app?vid=2c5ce8cd-19d1-46f5-90af-3b93c3bf9cb8"},"vehicle_type_id":"4","last_reported":1702314422,"current_range_meters":22000,"station_id":"ce4bhjp2rcd13ifvqga0","pricing_plan_id":"free"},{"bike_id":"722f25a3-fce7-493e-a953-2c3e11f04d5f","system_id":"levelo_inurba_marseille","lat":43.27381,"lon":5.3626,"is_reserved":false,"is_disabled":false,"rental_uris":{"android":"levelo://app?vid=722f25a3-fce7-493e-a953-2c3e11f04d5f","ios":"levelo://app?vid=722f25a3-fce7-493e-a953-2c3e11f04d5f"},"vehicle_type_id":"4","last_reported":1702314422,"current_range_meters":31200,"station_id":"ce4bhbh2rcd13ifvqeo0","pricing_plan_id":"free"},{"bike_id":"4d091a37-5e7d-42f8-9fea-a68332779feb","system_id":"levelo_inurba_marseille","lat":43.273779,"lon":5.362638,"is_reserved":false,"is_disabled":false,"rental_uris":{"android":"levelo://app?vid=4d091a37-5e7d-42f8-9fea-a68332779feb","ios":"levelo://app?vid=4d091a37-5e7d-42f8-9fea-a68332779feb"},"vehicle_type_id":"4","last_reported":1702314422,"current_range_meters":30400,"station_id":"ce4bhbh2rcd13ifvqeo0","pricing_plan_id":"free"},{"bike_id":"105072d3-81bc-41cb-b6c7-cd50bb20cc23","system_id":"levelo_inurba_marseille","lat":43.31723,"lon":5.42405,"is_reserved":false,"is_disabled":false,"rental_uris":{"android":"levelo://app?vid=105072d3-81bc-41cb-b6c7-cd50bb20cc23","ios":"levelo://app?vid=105072d3-81bc-41cb-b6c7-cd50bb20cc23"},"vehicle_type_id":"4","last_reported":1702314422,"current_range_meters":8800,"station_id":"ce4bhp92rcd13ifvqhbg","pricing_plan_id":"free"},{"bike_id":"bebfed21-d030-44bc-9497-1a07d4af39b3","system_id":"levelo_inurba_marseille","lat":43.274099,"lon":5.394019,"is_reserved":false,"is_disabled":false,"rental_uris":{"android":"levelo://app?vid=bebfed21-d030-44bc-9497-1a07d4af39b3","ios":"levelo://app?vid=bebfed21-d030-44bc-9497-1a07d4af39b3"},"vehicle_type_id":"4","last_reported":1702314422,"current_range_meters":19600,"station_id":"ce4bhdp2rcd13ifvqf20","pricing_plan_id":"free"},{"bike_id":"e1594a24-7438-4d32-a376-b5fea89d9716","system_id":"levelo_inurba_marseille","lat":43.27305,"lon":5.39081,"is_reserved":false,"is_disabled":false,"rental_uris":{"android":"levelo://app?vid=e1594a24-7438-4d32-a376-b5fea89d9716","ios":"levelo://app?vid=e1594a24-7438-4d32-a376-b5fea89d9716"},"vehicle_type_id":"4","last_reported":1702314422,"current_range_meters":0,"station_id":"ce4bhgp2rcd13ifvqfe0","pricing_plan_id":"free"},{"bike_id":"dc6be9fb-106b-40e5-a957-75781049922b","system_id":"levelo_inurba_marseille","lat":43.274099,"lon":5.394019,"is_reserved":false,"is_disabled":false,"rental_uris":{"android":"levelo://app?vid=dc6be9fb-106b-40e5-a957-75781049922b","ios":"levelo://app?vid=dc6be9fb-106b-40e5-a957-75781049922b"},"vehicle_type_id":"4","last_reported":1702314422,"current_range_meters":0,"station_id":"ce4bhdp2rcd13ifvqf20","pricing_plan_id":"free"},{"bike_id":"5eb071ac-e5cb-47bc-814c-b1a4073b4e65","system_id":"levelo_inurba_marseille","lat":43.27492,"lon":5.396613,"is_reserved":false,"is_disabled":false,"rental_uris":{"android":"levelo://app?vid=5eb071ac-e5cb-47bc-814c-b1a4073b4e65","ios":"levelo://app?vid=5eb071ac-e5cb-47bc-814c-b1a4073b4e65"},"vehicle_type_id":"4","last_reported":1702314422,"current_range_meters":20800,"station_id":"","pricing_plan_id":"free"},{"bike_id":"114ed9a0-f405-4e5a-8abc-a36515ad57b3","system_id":"levelo_inurba_marseille","lat":43.27214,"lon":5.39234,"is_reserved":false,"is_disabled":false,"rental_uris":{"android":"levelo://app?vid=114ed9a0-f405-4e5a-8abc-a36515ad57b3","ios":"levelo://app?vid=114ed9a0-f405-4e5a-8abc-a36515ad57b3"},"vehicle_type_id":"4","last_reported":1702314422,"current_range_meters":23200,"station_id":"ce4bhhp2rcd13ifvqfm0","pricing_plan_id":"free"},{"bike_id":"fe76fbf0-86dc-468c-af4d-7442a6cb7c3f","system_id":"levelo_inurba_marseille","lat":43.27996,"lon":5.416624,"is_reserved":false,"is_disabled":false,"rental_uris":{"android":"levelo://app?vid=fe76fbf0-86dc-468c-af4d-7442a6cb7c3f","ios":"levelo://app?vid=fe76fbf0-86dc-468c-af4d-7442a6cb7c3f"},"vehicle_type_id":"4","last_reported":1702314422,"current_range_meters":19200,"station_id":"ce4bho12rcd13ifvqh1g","pricing_plan_id":"free"},{"bike_id":"8018f3e3-f12d-40ef-96ab-4630bb16c52e","system_id":"levelo_inurba_marseille","lat":43.267966,"lon":5.393976,"is_reserved":false,"is_disabled":false,"rental_uris":{"android":"levelo://app?vid=8018f3e3-f12d-40ef-96ab-4630bb16c52e","ios":"levelo://app?vid=8018f3e3-f12d-40ef-96ab-4630bb16c52e"},"vehicle_type_id":"4","last_reported":1702314422,"current_range_meters":13200,"station_id":"ce4bhh12rcd13ifvqfg0","pricing_plan_id":"free"},{"bike_id":"49dce94c-82ae-4f23-93c1-e59d6bf32e4b","system_id":"levelo_inurba_marseille","lat":43.267966,"lon":5.393976,"is_reserved":false,"is_disabled":false,"rental_uris":{"android":"levelo://app?vid=49dce94c-82ae-4f23-93c1-e59d6bf32e4b","ios":"levelo://app?vid=49dce94c-82ae-4f23-93c1-e59d6bf32e4b"},"vehicle_type_id":"4","last_reported":1702314422,"current_range_meters":6400,"station_id":"ce4bhh12rcd13ifvqfg0","pricing_plan_id":"free"},{"bike_id":"b82e3ff7-6824-4eb6-9baf-96fee802bc08","system_id":"levelo_inurba_marseille","lat":43.308051,"lon":5.43527,"is_reserved":false,"is_disabled":false,"rental_uris":{"android":"levelo://app?vid=b82e3ff7-6824-4eb6-9baf-96fee802bc08","ios":"levelo://app?vid=b82e3ff7-6824-4eb6-9baf-96fee802bc08"},"vehicle_type_id":"4","last_reported":1702314422,"current_range_meters":10800,"station_id":"ce4bhph2rcd13ifvqheg","pricing_plan_id":"free"},{"bike_id":"a4c2e866-1ad6-4353-a4f2-cb755e151f55","system_id":"levelo_inurba_marseille","lat":43.26324,"lon":5.37682,"is_reserved":false,"is_disabled":false,"rental_uris":{"android":"levelo://app?vid=a4c2e866-1ad6-4353-a4f2-cb755e151f55","ios":"levelo://app?vid=a4c2e866-1ad6-4353-a4f2-cb755e151f55"},"vehicle_type_id":"4","last_reported":1702314422,"current_range_meters":13600,"station_id":"","pricing_plan_id":"free"},{"bike_id":"b416b7c7-e77c-4623-963a-cd5eb122d93d","system_id":"levelo_inurba_marseille","lat":43.265571,"lon":5.390032,"is_reserved":false,"is_disabled":false,"rental_uris":{"android":"levelo://app?vid=b416b7c7-e77c-4623-963a-cd5eb122d93d","ios":"levelo://app?vid=b416b7c7-e77c-4623-963a-cd5eb122d93d"},"vehicle_type_id":"4","last_reported":1702314422,"current_range_meters":0,"station_id":"ce4bhe12rcd13ifvqf30","pricing_plan_id":"free"},{"bike_id":"3593adc0-8e83-4951-805b-d12c5831989b","system_id":"levelo_inurba_marseille","lat":43.26949,"lon":5.40262,"is_reserved":false,"is_disabled":false,"rental_uris":{"android":"levelo://app?vid=3593adc0-8e83-4951-805b-d12c5831989b","ios":"levelo://app?vid=3593adc0-8e83-4951-805b-d12c5831989b"},"vehicle_type_id":"4","last_reported":1702314422,"current_range_meters":3600,"station_id":"cjm6bp8fraef2m0cb0m0","pricing_plan_id":"free"},{"bike_id":"4ee2ebe4-ccab-47af-b669-1b687cc9fb82","system_id":"levelo_inurba_marseille","lat":43.317104,"lon":5.436818,"is_reserved":false,"is_disabled":false,"rental_uris":{"android":"levelo://app?vid=4ee2ebe4-ccab-47af-b669-1b687cc9fb82","ios":"levelo://app?vid=4ee2ebe4-ccab-47af-b669-1b687cc9fb82"},"vehicle_type_id":"4","last_reported":1702314422,"current_range_meters":2000,"station_id":"ce4bhp92rcd13ifvqhcg","pricing_plan_id":"free"},{"bike_id":"37645cb8-5c24-41ba-b0d3-f9e32e3bff51","system_id":"levelo_inurba_marseille","lat":43.317104,"lon":5.436818,"is_reserved":false,"is_disabled":false,"rental_uris":{"android":"levelo://app?vid=37645cb8-5c24-41ba-b0d3-f9e32e3bff51","ios":"levelo://app?vid=37645cb8-5c24-41ba-b0d3-f9e32e3bff51"},"vehicle_type_id":"4","last_reported":1702314422,"current_range_meters":30800,"station_id":"ce4bhp92rcd13ifvqhcg","pricing_plan_id":"free"},{"bike_id":"cdd036f6-7ea5-4424-b6f3-3af93ebb2fa0","system_id":"levelo_inurba_marseille","lat":43.317104,"lon":5.436818,"is_reserved":false,"is_disabled":false,"rental_uris":{"android":"levelo://app?vid=cdd036f6-7ea5-4424-b6f3-3af93ebb2fa0","ios":"levelo://app?vid=cdd036f6-7ea5-4424-b6f3-3af93ebb2fa0"},"vehicle_type_id":"4","last_reported":1702314422,"current_range_meters":29200,"station_id":"ce4bhp92rcd13ifvqhcg","pricing_plan_id":"free"},{"bike_id":"782cbed8-9ac9-41c0-b7d2-c9e45a9fba70","system_id":"levelo_inurba_marseille","lat":43.271368,"lon":5.40928,"is_reserved":false,"is_disabled":false,"rental_uris":{"android":"levelo://app?vid=782cbed8-9ac9-41c0-b7d2-c9e45a9fba70","ios":"levelo://app?vid=782cbed8-9ac9-41c0-b7d2-c9e45a9fba70"},"vehicle_type_id":"4","last_reported":1702314422,"current_range_meters":17200,"station_id":"ce4bhl12rcd13ifvqgf0","pricing_plan_id":"free"},{"bike_id":"15f3ef98-16c7-42d0-8f9e-6f944ce8c637","system_id":"levelo_inurba_marseille","lat":43.271368,"lon":5.40928,"is_reserved":false,"is_disabled":false,"rental_uris":{"android":"levelo://app?vid=15f3ef98-16c7-42d0-8f9e-6f944ce8c637","ios":"levelo://app?vid=15f3ef98-16c7-42d0-8f9e-6f944ce8c637"},"vehicle_type_id":"4","last_reported":1702314422,"current_range_meters":28000,"station_id":"ce4bhl12rcd13ifvqgf0","pricing_plan_id":"free"},{"bike_id":"f81eea78-69c9-40c6-87f8-dea729488e09","system_id":"levelo_inurba_marseille","lat":43.267959,"lon":5.402687,"is_reserved":false,"is_disabled":false,"rental_uris":{"android":"levelo://app?vid=f81eea78-69c9-40c6-87f8-dea729488e09","ios":"levelo://app?vid=f81eea78-69c9-40c6-87f8-dea729488e09"},"vehicle_type_id":"4","last_reported":1702314422,"current_range_meters":12000,"station_id":"ce501612rcd8frsf0b60","pricing_plan_id":"free"},{"bike_id":"4e6e4a4d-e00f-4453-991c-edd03f91627b","system_id":"levelo_inurba_marseille","lat":43.27701,"lon":5.41984,"is_reserved":false,"is_disabled":false,"rental_uris":{"android":"levelo://app?vid=4e6e4a4d-e00f-4453-991c-edd03f91627b","ios":"levelo://app?vid=4e6e4a4d-e00f-4453-991c-edd03f91627b"},"vehicle_type_id":"4","last_reported":1702314422,"current_range_meters":0,"station_id":"","pricing_plan_id":"free"},{"bike_id":"7ef0e874-4d14-4db6-97d3-23537a85b219","system_id":"levelo_inurba_marseille","lat":43.298768,"lon":5.43643,"is_reserved":false,"is_disabled":false,"rental_uris":{"android":"levelo://app?vid=7ef0e874-4d14-4db6-97d3-23537a85b219","ios":"levelo://app?vid=7ef0e874-4d14-4db6-97d3-23537a85b219"},"vehicle_type_id":"4","last_reported":1702314422,"current_range_meters":27600,"station_id":"ce4bhpp2rcd13ifvqhfg","pricing_plan_id":"free"},{"bike_id":"c8cebb5d-9066-496c-99b3-a1e80396e970","system_id":"levelo_inurba_marseille","lat":43.281548,"lon":5.42643,"is_reserved":false,"is_disabled":false,"rental_uris":{"android":"levelo://app?vid=c8cebb5d-9066-496c-99b3-a1e80396e970","ios":"levelo://app?vid=c8cebb5d-9066-496c-99b3-a1e80396e970"},"vehicle_type_id":"4","last_reported":1702314422,"current_range_meters":23600,"station_id":"ce4bhnh2rcd13ifvqgug","pricing_plan_id":"free"},{"bike_id":"562fd73c-d8bf-41ba-b2f2-92df04b19b66","system_id":"levelo_inurba_marseille","lat":43.281548,"lon":5.42643,"is_reserved":false,"is_disabled":false,"rental_uris":{"android":"levelo://app?vid=562fd73c-d8bf-41ba-b2f2-92df04b19b66","ios":"levelo://app?vid=562fd73c-d8bf-41ba-b2f2-92df04b19b66"},"vehicle_type_id":"4","last_reported":1702314422,"current_range_meters":31200,"station_id":"ce4bhnh2rcd13ifvqgug","pricing_plan_id":"free"},{"bike_id":"77910899-6cbb-4a70-97da-159a80f66392","system_id":"levelo_inurba_marseille","lat":43.281548,"lon":5.42643,"is_reserved":false,"is_disabled":false,"rental_uris":{"android":"levelo://app?vid=77910899-6cbb-4a70-97da-159a80f66392","ios":"levelo://app?vid=77910899-6cbb-4a70-97da-159a80f66392"},"vehicle_type_id":"4","last_reported":1702314422,"current_range_meters":31200,"station_id":"ce4bhnh2rcd13ifvqgug","pricing_plan_id":"free"},{"bike_id":"958b505a-b8bd-4f40-9f08-d4f875f828f5","system_id":"levelo_inurba_marseille","lat":43.28146,"lon":5.426545,"is_reserved":false,"is_disabled":false,"rental_uris":{"android":"levelo://app?vid=958b505a-b8bd-4f40-9f08-d4f875f828f5","ios":"levelo://app?vid=958b505a-b8bd-4f40-9f08-d4f875f828f5"},"vehicle_type_id":"4","last_reported":1702314422,"current_range_meters":8800,"station_id":"ce4bhnh2rcd13ifvqgug","pricing_plan_id":"free"},{"bike_id":"bdbb276e-8ebf-4ffe-8db4-44c918e9b1b9","system_id":"levelo_inurba_marseille","lat":43.25583,"lon":5.38232,"is_reserved":false,"is_disabled":false,"rental_uris":{"android":"levelo://app?vid=bdbb276e-8ebf-4ffe-8db4-44c918e9b1b9","ios":"levelo://app?vid=bdbb276e-8ebf-4ffe-8db4-44c918e9b1b9"},"vehicle_type_id":"4","last_reported":1702314422,"current_range_meters":11600,"station_id":"ce4bhih2rcd13ifvqfs0","pricing_plan_id":"free"},{"bike_id":"7a13e7a8-bec9-4c30-89cd-400c4ebc1d19","system_id":"levelo_inurba_marseille","lat":43.257079,"lon":5.411051,"is_reserved":false,"is_disabled":false,"rental_uris":{"android":"levelo://app?vid=7a13e7a8-bec9-4c30-89cd-400c4ebc1d19","ios":"levelo://app?vid=7a13e7a8-bec9-4c30-89cd-400c4ebc1d19"},"vehicle_type_id":"4","last_reported":1702314422,"current_range_meters":10400,"station_id":"ce4bhkp2rcd13ifvqgd0","pricing_plan_id":"free"},{"bike_id":"ad1fa67a-d5eb-470a-8144-ab1566be70e6","system_id":"levelo_inurba_marseille","lat":43.2572,"lon":5.41122,"is_reserved":false,"is_disabled":false,"rental_uris":{"android":"levelo://app?vid=ad1fa67a-d5eb-470a-8144-ab1566be70e6","ios":"levelo://app?vid=ad1fa67a-d5eb-470a-8144-ab1566be70e6"},"vehicle_type_id":"4","last_reported":1702314422,"current_range_meters":31200,"station_id":"ce4bhkp2rcd13ifvqgd0","pricing_plan_id":"free"},{"bike_id":"8bfba5f0-6d02-4058-854b-b88f3097ad8f","system_id":"levelo_inurba_marseille","lat":43.25709,"lon":5.41124,"is_reserved":false,"is_disabled":false,"rental_uris":{"android":"levelo://app?vid=8bfba5f0-6d02-4058-854b-b88f3097ad8f","ios":"levelo://app?vid=8bfba5f0-6d02-4058-854b-b88f3097ad8f"},"vehicle_type_id":"4","last_reported":1702314422,"current_range_meters":4800,"station_id":"ce4bhkp2rcd13ifvqgd0","pricing_plan_id":"free"},{"bike_id":"ad70fedb-6cf0-480e-9a51-057325c1361d","system_id":"levelo_inurba_marseille","lat":43.24812,"lon":5.37458,"is_reserved":false,"is_disabled":false,"rental_uris":{"android":"levelo://app?vid=ad70fedb-6cf0-480e-9a51-057325c1361d","ios":"levelo://app?vid=ad70fedb-6cf0-480e-9a51-057325c1361d"},"vehicle_type_id":"4","last_reported":1702314422,"current_range_meters":14400,"station_id":"ce4bhgh2rcd13ifvqfb0","pricing_plan_id":"free"},{"bike_id":"402b17ce-9506-4885-9190-4bbb43338702","system_id":"levelo_inurba_marseille","lat":43.2479,"lon":5.374457,"is_reserved":false,"is_disabled":false,"rental_uris":{"android":"levelo://app?vid=402b17ce-9506-4885-9190-4bbb43338702","ios":"levelo://app?vid=402b17ce-9506-4885-9190-4bbb43338702"},"vehicle_type_id":"4","last_reported":1702314422,"current_range_meters":12400,"station_id":"ce4bhgh2rcd13ifvqfb0","pricing_plan_id":"free"},{"bike_id":"aa5a1544-06b4-4241-bf2c-98d30cd134f7","system_id":"levelo_inurba_marseille","lat":43.25102,"lon":5.403214,"is_reserved":false,"is_disabled":false,"rental_uris":{"android":"levelo://app?vid=aa5a1544-06b4-4241-bf2c-98d30cd134f7","ios":"levelo://app?vid=aa5a1544-06b4-4241-bf2c-98d30cd134f7"},"vehicle_type_id":"4","last_reported":1702314422,"current_range_meters":25200,"station_id":"ce4bhlh2rcd13ifvqgig","pricing_plan_id":"free"},{"bike_id":"13de40cc-6306-44a8-92dc-d392cfce5957","system_id":"levelo_inurba_marseille","lat":43.25102,"lon":5.403214,"is_reserved":false,"is_disabled":false,"rental_uris":{"android":"levelo://app?vid=13de40cc-6306-44a8-92dc-d392cfce5957","ios":"levelo://app?vid=13de40cc-6306-44a8-92dc-d392cfce5957"},"vehicle_type_id":"4","last_reported":1702314422,"current_range_meters":7600,"station_id":"ce4bhlh2rcd13ifvqgig","pricing_plan_id":"free"},{"bike_id":"43f78d9d-eae9-4fa1-a0b4-801f010583db","system_id":"levelo_inurba_marseille","lat":43.25102,"lon":5.403214,"is_reserved":false,"is_disabled":false,"rental_uris":{"android":"levelo://app?vid=43f78d9d-eae9-4fa1-a0b4-801f010583db","ios":"levelo://app?vid=43f78d9d-eae9-4fa1-a0b4-801f010583db"},"vehicle_type_id":"4","last_reported":1702314422,"current_range_meters":9600,"station_id":"ce4bhlh2rcd13ifvqgig","pricing_plan_id":"free"},{"bike_id":"34161403-0c7b-4d63-acf9-b62197697c32","system_id":"levelo_inurba_marseille","lat":43.243884,"lon":5.370737,"is_reserved":false,"is_disabled":false,"rental_uris":{"android":"levelo://app?vid=34161403-0c7b-4d63-acf9-b62197697c32","ios":"levelo://app?vid=34161403-0c7b-4d63-acf9-b62197697c32"},"vehicle_type_id":"4","last_reported":1702314422,"current_range_meters":28400,"station_id":"ce4bhhh2rcd13ifvqfk0","pricing_plan_id":"free"},{"bike_id":"cc63f9b4-668f-4eb3-a064-7a13fd62d877","system_id":"levelo_inurba_marseille","lat":43.239588,"lon":5.366238,"is_reserved":false,"is_disabled":false,"rental_uris":{"android":"levelo://app?vid=cc63f9b4-668f-4eb3-a064-7a13fd62d877","ios":"levelo://app?vid=cc63f9b4-668f-4eb3-a064-7a13fd62d877"},"vehicle_type_id":"4","last_reported":1702314422,"current_range_meters":7200,"station_id":"ce4bhi12rcd13ifvqfp0","pricing_plan_id":"free"},{"bike_id":"6b08c0e8-6329-4838-b655-864a638ee280","system_id":"levelo_inurba_marseille","lat":43.24181,"lon":5.39724,"is_reserved":false,"is_disabled":false,"rental_uris":{"android":"levelo://app?vid=6b08c0e8-6329-4838-b655-864a638ee280","ios":"levelo://app?vid=6b08c0e8-6329-4838-b655-864a638ee280"},"vehicle_type_id":"4","last_reported":1702314422,"current_range_meters":16400,"station_id":"ce4bhn12rcd13ifvqgpg","pricing_plan_id":"free"},{"bike_id":"d4216b28-6573-4e3c-9c6e-b1f827f4d9da","system_id":"levelo_inurba_marseille","lat":43.231794,"lon":5.400052,"is_reserved":false,"is_disabled":false,"rental_uris":{"android":"levelo://app?vid=d4216b28-6573-4e3c-9c6e-b1f827f4d9da","ios":"levelo://app?vid=d4216b28-6573-4e3c-9c6e-b1f827f4d9da"},"vehicle_type_id":"4","last_reported":1702314422,"current_range_meters":20800,"station_id":"ce4bhn12rcd13ifvqgqg","pricing_plan_id":"free"}]}}