{"last_updated":1750681369,"ttl":60,"version":"2.2","data":{"bikes":[{"bike_id":"3da29fb8-fc97-44c6-b9ac-31dd456b2fd4","system_id":"levelo_inurba_marseille","lat":43.33771,"lon":5.37424,"is_reserved":false,"is_disabled":true,"rental_uris":{"android":"levelo://app?vid=3da29fb8-fc97-44c6-b9ac-31dd456b2fd4","ios":"levelo://app?vid=3da29fb8-fc97-44c6-b9ac-31dd456b2fd4"},"vehicle_type_id":"4","last_reported":1750681369,"current_range_meters":0,"station_id":"","pricing_plan_id":"cebpf4jnsgd1na2vs0mg"},{"bike_id":"01861ad8-a8d7-4be6-816e-651927c87584","system_id":"levelo_inurba_marseille","lat":43.33751,"lon":5.37456,"is_reserved":false,"is_disabled":true,"rental_uris":{"android":"levelo://app?vid=01861ad8-a8d7-4be6-816e-651927c87584","ios":"levelo://app?vid=01861ad8-a8d7-4be6-816e-651927c87584"},"vehicle_type_id":"4","last_reported":1750681369,"current_range_meters":0,"station_id":"","pricing_plan_id":"cebpf4jnsgd1na2vs0mg"},{"bike_id":"f0a1d594-9817-42ab-a8d6-aea4947e8858","system_id":"levelo_inurba_marseille","lat":43.288028,"lon":5.434345,"is_reserved":false,"is_disabled":true,"rental_uris":{"android":"levelo://app?vid=f0a1d594-9817-42ab-a8d6-aea4947e8858","ios":"levelo://app?vid=f0a1d594-9817-42ab-a8d6-aea4947e8858"},"vehicle_type_id":"4","last_reported":1750681369,"current_range_meters":0,"station_id":"","pricing_plan_id":"cebpf4jnsgd1na2vs0mg"},{"bike_id":"38fa1014-dc0c-49c9-ad0a-4ed146026865","system_id":"levelo_inurba_marseille","lat":43.21195,"lon":5.35079,"is_reserved":false,"is_disabled":true,"rental_uris":{"android":"levelo://app?vid=38fa1014-dc0c-49c9-ad0a-4ed146026865","ios":"levelo://app?vid=38fa1014-dc0c-49c9-ad0a-4ed146026865"},"vehicle_type_id":"4","last_reported":1750681369,"current_range_meters":0,"station_id":"","pricing_plan_id":"cebpf4jnsgd1na2vs0mg"},{"bike_id":"62a493c7-4534-4419-ad43-0582de34a72a","system_id":"levelo_inurba_marseille","lat":43.21366,"lon":5.355183,"is_reserved":false,"is_disabled":true,"rental_uris":{"android":"levelo://app?vid=62a493c7-4534-4419-ad43-0582de34a72a","ios":"levelo://app?vid=62a493c7-4534-4419-ad43-0582de34a72a"},"vehicle_type_id":"4","last_reported":1750681369,"current_range_meters":0,"station_id":"","pricing_plan_id":"cebpf4jnsgd1na2vs0mg"},{"bike_id":"bec97e80-f20a-4137-a561-725ff16a4b68","system_id":"levelo_inurba_marseille","lat":43.27122,"lon":5.39241,"is_reserved":false,"is_disabled":true,"rental_uris":{"android":"levelo://app?vid=bec97e80-f20a-4137-a561-725ff16a4b68","ios":"levelo://app?vid=bec97e80-f20a-4137-a561-725ff16a4b68"},"vehicle_type_id":"4","last_reported":1750681369,"current_range_meters":0,"station_id":"","pricing_plan_id":"cebpf4jnsgd1na2vs0mg"},{"bike_id":"91aba767-1cca-4550-b38f-d3b7ad9c97e6","system_id":"levelo_inurba_marseille","lat":43.28227,"lon":5.40302,"is_reserved":false,"is_disabled":true,"rental_uris":{"android":"levelo://app?vid=91aba767-1cca-4550-b38f-d3b7ad9c97e6","ios":"levelo://app?vid=91aba767-1cca-4550-b38f-d3b7ad9c97e6"},"vehicle_type_id":"4","last_reported":1750681369,"current_range_meters":0,"station_id":"","pricing_plan_id":"cebpf4jnsgd1na2vs0mg"},{"bike_id":"d6609b4f-333b-43c1-9ebe-8726f5e76e88","system_id":"levelo_inurba_marseille","lat":43.337444,"lon":5.374475,"is_reserved":false,"is_disabled":true,"rental_uris":{"android":"levelo://app?vid=d6609b4f-333b-43c1-9ebe-8726f5e76e88","ios":"levelo://app?vid=d6609b4f-333b-43c1-9ebe-8726f5e76e88"},"vehicle_type_id":"4","last_reported":1750681369,"current_range_meters":0,"station_id":"","pricing_plan_id":"cebpf4jnsgd1na2vs0mg"},{"bike_id":"88ae5b64-1dbd-48a9-b30e-c1d98d52e5a6","system_id":"levelo_inurba_marseille","lat":43.28076,"lon":5.40772,"is_reserved":false,"is_disabled":true,"rental_uris":{"android":"levelo://app?vid=88ae5b64-1dbd-48a9-b30e-c1d98d52e5a6","ios":"levelo://app?vid=88ae5b64-1dbd-48a9-b30e-c1d98d52e5a6"},"vehicle_type_id":"4","last_reported":1750681369,"current_range_meters":0,"station_id":"","pricing_plan_id":"cebpf4jnsgd1na2vs0mg"},{"bike_id":"0c86cdad-b64a-47bf-ba91-5b398064181c","system_id":"levelo_inurba_marseille","lat":43.38411,"lon":5.35853,"is_reserved":false,"is_disabled":true,"rental_uris":{"android":"levelo://app?vid=0c86cdad-b64a-47bf-ba91-5b398064181c","ios":"levelo://app?vid=0c86cdad-b64a-47bf-ba91-5b398064181c"},"vehicle_type_id":"4","last_reported":1750681369,"current_range_meters":0,"station_id":"","pricing_plan_id":"cebpf4jnsgd1na2vs0mg"},{"bike_id":"1fab7942-023f-436c-a152-3b00a372655c","system_id":"levelo_inurba_marseille","lat":43.30546,"lon":5.38428,"is_reserved":false,"is_disabled":true,"rental_uris":{"android":"levelo://app?vid=1fab7942-023f-436c-a152-3b00a372655c","ios":"levelo://app?vid=1fab7942-023f-436c-a152-3b00a372655c"},"vehicle_type_id":"4","last_reported":1750681369,"current_range_meters":0,"station_id":"ce4bgg92rcd13ifvqb30","pricing_plan_id":"cebpf4jnsgd1na2vs0mg"},{"bike_id":"739cde72-6675-4226-95e0-f6a17c4c85c6","system_id":"levelo_inurba_marseille","lat":43.30137,"lon":5.38783,"is_reserved":false,"is_disabled":true,"rental_uris":{"android":"levelo://app?vid=739cde72-6675-4226-95e0-f6a17c4c85c6","ios":"levelo://app?vid=739cde72-6675-4226-95e0-f6a17c4c85c6"},"vehicle_type_id":"4","last_reported":1750681369,"current_range_meters":0,"station_id":"ce4bghh2rcd13ifvqb60","pricing_plan_id":"cebpf4jnsgd1na2vs0mg"},{"bike_id":"ff15d745-6ac8-40e0-93a2-547231547e82","system_id":"levelo_inurba_marseille","lat":43.31485,"lon":5.37308,"is_reserved":false,"is_disabled":true,"rental_uris":{"android":"levelo://app?vid=ff15d745-6ac8-40e0-93a2-547231547e82","ios":"levelo://app?vid=ff15d745-6ac8-40e0-93a2-547231547e82"},"vehicle_type_id":"4","last_reported":1750681369,"current_range_meters":0,"station_id":"ce4bgt12rcd13ifvqcd0","pricing_plan_id":"cebpf4jnsgd1na2vs0mg"},{"bike_id":"1edd5e73-2373-45d3-be98-627703832cd2","system_id":"levelo_inurba_marseille","lat":43.28098,"lon":5.37813,"is_reserved":false,"is_disabled":true,"rental_uris":{"android":"levelo://app?vid=1edd5e73-2373-45d3-be98-627703832cd2","ios":"levelo://app?vid=1edd5e73-2373-45d3-be98-627703832cd2"},"vehicle_type_id":"4","last_reported":1750681369,"current_range_meters":0,"station_id":"ce4bha12rcd13ifvqee0","pricing_plan_id":"cebpf4jnsgd1na2vs0mg"},{"bike_id":"1fe35b8d-b07b-4cb5-a488-0c28a436e002","system_id":"levelo_inurba_marseille","lat":43.29196,"lon":5.35816,"is_reserved":false,"is_disabled":true,"rental_uris":{"android":"levelo://app?vid=1fe35b8d-b07b-4cb5-a488-0c28a436e002","ios":"levelo://app?vid=1fe35b8d-b07b-4cb5-a488-0c28a436e002"},"vehicle_type_id":"4","last_reported":1750681369,"current_range_meters":0,"station_id":"ce4bhb12rcd13ifvqel0","pricing_plan_id":"cebpf4jnsgd1na2vs0mg"},{"bike_id":"d5f9465f-8d74-4294-9d99-f05262305de8","system_id":"levelo_inurba_marseille","lat":43.280211,"lon":5.353609,"is_reserved":false,"is_disabled":true,"rental_uris":{"android":"levelo://app?vid=d5f9465f-8d74-4294-9d99-f05262305de8","ios":"levelo://app?vid=d5f9465f-8d74-4294-9d99-f05262305de8"},"vehicle_type_id":"4","last_reported":1750681369,"current_range_meters":0,"station_id":"ce4bhbp2rcd13ifvqerg","pricing_plan_id":"cebpf4jnsgd1na2vs0mg"},{"bike_id":"9fc28a9b-0175-4c22-8dd2-e334c435b997","system_id":"levelo_inurba_marseille","lat":43.24652,"lon":5.38896,"is_reserved":false,"is_disabled":true,"rental_uris":{"android":"levelo://app?vid=9fc28a9b-0175-4c22-8dd2-e334c435b997","ios":"levelo://app?vid=9fc28a9b-0175-4c22-8dd2-e334c435b997"},"vehicle_type_id":"4","last_reported":1750681369,"current_range_meters":0,"station_id":"ce4bhg12rcd13ifvqf60","pricing_plan_id":"cebpf4jnsgd1na2vs0mg"},{"bike_id":"8b48ce5e-ce08-4e37-8101-74547c8ceecf","system_id":"levelo_inurba_marseille","lat":43.27213,"lon":5.39177,"is_reserved":false,"is_disabled":true,"rental_uris":{"android":"levelo://app?vid=8b48ce5e-ce08-4e37-8101-74547c8ceecf","ios":"levelo://app?vid=8b48ce5e-ce08-4e37-8101-74547c8ceecf"},"vehicle_type_id":"4","last_reported":1750681369,"current_range_meters":0,"station_id":"ce4bhhp2rcd13ifvqfm0","pricing_plan_id":"cebpf4jnsgd1na2vs0mg"},{"bike_id":"1106b1cf-55e6-4c0c-b695-9e636ef41e87","system_id":"levelo_inurba_marseille","lat":43.25885,"lon":5.39877,"is_reserved":false,"is_disabled":true,"rental_uris":{"android":"levelo://app?vid=1106b1cf-55e6-4c0c-b695-9e636ef41e87","ios":"levelo://app?vid=1106b1cf-55e6-4c0c-b695-9e636ef41e87"},"vehicle_type_id":"4","last_reported":1750681369,"current_range_meters":0,"station_id":"ce4bhl92rcd13ifvqghg","pricing_plan_id":"cebpf4jnsgd1na2vs0mg"},{"bike_id":"6e484f63-7dc7-40d1-9847-219a634d8c49","system_id":"levelo_inurba_marseille","lat":43.23153,"lon":5.4372,"is_reserved":false,"is_disabled":true,"rental_uris":{"android":"levelo://app?vid=6e484f63-7dc7-40d1-9847-219a634d8c49","ios":"levelo://app?vid=6e484f63-7dc7-40d1-9847-219a634d8c49"},"vehicle_type_id":"4","last_reported":1750681369,"current_range_meters":0,"station_id":"ce4bhmp2rcd13ifvqgog","pricing_plan_id":"cebpf4jnsgd1na2vs0mg"},{"bike_id":"3a5e8970-91ba-4dae-b7f1-f3e0562c63a4","system_id":"levelo_inurba_marseille","lat":43.28075,"lon":5.39644,"is_reserved":false,"is_disabled":true,"rental_uris":{"android":"levelo://app?vid=3a5e8970-91ba-4dae-b7f1-f3e0562c63a4","ios":"levelo://app?vid=3a5e8970-91ba-4dae-b7f1-f3e0562c63a4"},"vehicle_type_id":"4","last_reported":1750681369,"current_range_meters":0,"station_id":"ce4bho12rcd13ifvqh2g","pricing_plan_id":"cebpf4jnsgd1na2vs0mg"},{"bike_id":"a047edcc-ef2f-4af6-a645-2c02a585db1e","system_id":"levelo_inurba_marseille","lat":43.28619,"lon":5.37067,"is_reserved":false,"is_disabled":true,"rental_uris":{"android":"levelo://app?vid=a047edcc-ef2f-4af6-a645-2c02a585db1e","ios":"levelo://app?vid=a047edcc-ef2f-4af6-a645-2c02a585db1e"},"vehicle_type_id":"4","last_reported":1750681369,"current_range_meters":0,"station_id":"ce4bht12rcd13ifvqi60","pricing_plan_id":"cebpf4jnsgd1na2vs0mg"},{"bike_id":"848db95a-5fc5-4133-8bb9-0c10ec5ec0b5","system_id":"levelo_inurba_marseille","lat":43.23192,"lon":5.35521,"is_reserved":false,"is_disabled":true,"rental_uris":{"android":"levelo://app?vid=848db95a-5fc5-4133-8bb9-0c10ec5ec0b5","ios":"levelo://app?vid=848db95a-5fc5-4133-8bb9-0c10ec5ec0b5"},"vehicle_type_id":"4","last_reported":1750681369,"current_range_meters":0,"station_id":"ce4bhu92rcd13ifvqi70","pricing_plan_id":"cebpf4jnsgd1na2vs0mg"},{"bike_id":"432563a4-90bf-4d0d-b197-6900caa76712","system_id":"levelo_inurba_marseille","lat":43.22931,"lon":5.35376,"is_reserved":false,"is_disabled":true,"rental_uris":{"android":"levelo://app?vid=432563a4-90bf-4d0d-b197-6900caa76712","ios":"levelo://app?vid=432563a4-90bf-4d0d-b197-6900caa76712"},"vehicle_type_id":"4","last_reported":1750681369,"current_range_meters":0,"station_id":"cpo3532slgdg3j2ikp40","pricing_plan_id":"cebpf4jnsgd1na2vs0mg"},{"bike_id":"fe35375f-96f2-4d14-94d0-a21e3d334489","system_id":"levelo_inurba_marseille","lat":43.2417,"lon":5.363886,"is_reserved":false,"is_disabled":true,"rental_uris":{"android":"levelo://app?vid=fe35375f-96f2-4d14-94d0-a21e3d334489","ios":"levelo://app?vid=fe35375f-96f2-4d14-94d0-a21e3d334489"},"vehicle_type_id":"4","last_reported":1750681369,"current_range_meters":0,"station_id":"cpo36qri1sfpv3e86is0","pricing_plan_id":"cebpf4jnsgd1na2vs0mg"},{"bike_id":"0616c89e-afdc-4d2d-8b80-7e5e208bf1a6","system_id":"levelo_inurba_marseille","lat":43.32083,"lon":5.36849,"is_reserved":false,"is_disabled":true,"rental_uris":{"android":"levelo://app?vid=0616c89e-afdc-4d2d-8b80-7e5e208bf1a6","ios":"levelo://app?vid=0616c89e-afdc-4d2d-8b80-7e5e208bf1a6"},"vehicle_type_id":"4","last_reported":1750681369,"current_range_meters":400,"station_id":"","pricing_plan_id":"cebpf4jnsgd1na2vs0mg"},{"bike_id":"663ce652-56ef-4060-8b50-15c59354697b","system_id":"levelo_inurba_marseille","lat":43.2927,"lon":5.38446,"is_reserved":false,"is_disabled":true,"rental_uris":{"android":"levelo://app?vid=663ce652-56ef-4060-8b50-15c59354697b","ios":"levelo://app?vid=663ce652-56ef-4060-8b50-15c59354697b"},"vehicle_type_id":"4","last_reported":1750681369,"current_range_meters":400,"station_id":"ce4bh692rcd13ifvqea0","pricing_plan_id":"cebpf4jnsgd1na2vs0mg"},{"bike_id":"1000bd98-eb53-4310-9867-ccadbad5ae42","system_id":"levelo_inurba_marseille","lat":43.30255,"lon":5.39024,"is_reserved":false,"is_disabled":true,"rental_uris":{"android":"levelo://app?vid=1000bd98-eb53-4310-9867-ccadbad5ae42","ios":"levelo://app?vid=1000bd98-eb53-4310-9867-ccadbad5ae42"},"vehicle_type_id":"4","last_reported":1750681369,"current_range_meters":800,"station_id":"","pricing_plan_id":"cebpf4jnsgd1na2vs0mg"},{"bike_id":"cf5a86f2-b25a-44f6-a499-f05713ba8fdd","system_id":"levelo_inurba_marseille","lat":43.3032,"lon":5.40447,"is_reserved":false,"is_disabled":true,"rental_uris":{"android":"levelo://app?vid=cf5a86f2-b25a-44f6-a499-f05713ba8fdd","ios":"levelo://app?vid=cf5a86f2-b25a-44f6-a499-f05713ba8fdd"},"vehicle_type_id":"4","last_reported":1750681369,"current_range_meters":800,"station_id":"ce4bh012rcd13ifvqd10","pricing_plan_id":"cebpf4jnsgd1na2vs0mg"},{"bike_id":"aeb70768-688a-4a6f-9fae-6a411082c1c0","system_id":"levelo_inurba_marseille","lat":43.23975,"lon":5.3663,"is_reserved":false,"is_disabled":true,"rental_uris":{"android":"levelo://app?vid=aeb70768-688a-4a6f-9fae-6a411082c1c0","ios":"levelo://app?vid=aeb70768-688a-4a6f-9fae-6a411082c1c0"},"vehicle_type_id":"4","last_reported":1750681369,"current_range_meters":800,"station_id":"ce4bhi12rcd13ifvqfp0","pricing_plan_id":"cebpf4jnsgd1na2vs0mg"},{"bike_id":"e33d6114-e768-4962-ac07-ecceca34b693","system_id":"levelo_inurba_marseille","lat":43.254765,"lon":5.401125,"is_reserved":false,"is_disabled":true,"rental_uris":{"android":"levelo://app?vid=e33d6114-e768-4962-ac07-ecceca34b693","ios":"levelo://app?vid=e33d6114-e768-4962-ac07-ecceca34b693"},"vehicle_type_id":"4","last_reported":1750681369,"current_range_meters":1200,"station_id":"","pricing_plan_id":"cebpf4jnsgd1na2vs0mg"},{"bike_id":"a099336f-a2e1-41e0-a361-fb284edb4248","system_id":"levelo_inurba_marseille","lat":43.30935,"lon":5.40143,"is_reserved":false,"is_disabled":true,"rental_uris":{"android":"levelo://app?vid=a099336f-a2e1-41e0-a361-fb284edb4248","ios":"levelo://app?vid=a099336f-a2e1-41e0-a361-fb284edb4248"},"vehicle_type_id":"4","last_reported":1750681369,"current_range_meters":1200,"station_id":"ce4bgvp2rcd13ifvqct0","pricing_plan_id":"cebpf4jnsgd1na2vs0mg"},{"bike_id":"f7288810-ffd1-4311-9c52-d9beda7a5699","system_id":"levelo_inurba_marseille","lat":43.29785,"lon":5.38129,"is_reserved":false,"is_disabled":true,"rental_uris":{"android":"levelo://app?vid=f7288810-ffd1-4311-9c52-d9beda7a5699","ios":"levelo://app?vid=f7288810-ffd1-4311-9c52-d9beda7a5699"},"vehicle_type_id":"4","last_reported":1750681369,"current_range_meters":1600,"station_id":"ce4bgip2rcd13ifvqbb0","pricing_plan_id":"cebpf4jnsgd1na2vs0mg"},{"bike_id":"4d79361b-71f6-4786-968d-a1644f9de55c","system_id":"levelo_inurba_marseille","lat":43.31716,"lon":5.40446,"is_reserved":false,"is_disabled":true,"rental_uris":{"android":"levelo://app?vid=4d79361b-71f6-4786-968d-a1644f9de55c","ios":"levelo://app?vid=4d79361b-71f6-4786-968d-a1644f9de55c"},"vehicle_type_id":"4","last_reported":1750681369,"current_range_meters":1600,"station_id":"ce4bh012rcd13ifvqd00","pricing_plan_id":"cebpf4jnsgd1na2vs0mg"},{"bike_id":"295275bf-db04-45bf-906f-a13c904fa3a2","system_id":"levelo_inurba_marseille","lat":43.33607,"lon":5.40977,"is_reserved":false,"is_disabled":true,"rental_uris":{"android":"levelo://app?vid=295275bf-db04-45bf-906f-a13c904fa3a2","ios":"levelo://app?vid=295275bf-db04-45bf-906f-a13c904fa3a2"},"vehicle_type_id":"4","last_reported":1750681369,"current_range_meters":1600,"station_id":"ce4bhqh2rcd13ifvqhmg","pricing_plan_id":"cebpf4jnsgd1na2vs0mg"},{"bike_id":"7358cf72-8a91-4e42-8def-2bc076fa87bd","system_id":"levelo_inurba_marseille","lat":43.30608,"lon":5.37223,"is_reserved":false,"is_disabled":true,"rental_uris":{"android":"levelo://app?vid=7358cf72-8a91-4e42-8def-2bc076fa87bd","ios":"levelo://app?vid=7358cf72-8a91-4e42-8def-2bc076fa87bd"},"vehicle_type_id":"4","last_reported":1750681369,"current_range_meters":2000,"station_id":"ce4bgqh2rcd13ifvqc4g","pricing_plan_id":"cebpf4jnsgd1na2vs0mg"},{"bike_id":"1464280c-6387-482d-8190-9dfb09020b12","system_id":"levelo_inurba_marseille","lat":43.28666,"lon":5.3634,"is_reserved":false,"is_disabled":true,"rental_uris":{"android":"levelo://app?vid=1464280c-6387-482d-8190-9dfb09020b12","ios":"levelo://app?vid=1464280c-6387-482d-8190-9dfb09020b12"},"vehicle_type_id":"4","last_reported":1750681369,"current_range_meters":2000,"station_id":"ce4bhah2rcd13ifvqej0","pricing_plan_id":"cebpf4jnsgd1na2vs0mg"},{"bike_id":"af10315f-8948-4135-abe0-b618a8b9d66d","system_id":"levelo_inurba_marseille","lat":43.30268,"lon":5.3772,"is_reserved":false,"is_disabled":false,"rental_uris":{"android":"levelo://app?vid=af10315f-8948-4135-abe0-b618a8b9d66d","ios":"levelo://app?vid=af10315f-8948-4135-abe0-b618a8b9d66d"},"vehicle_type_id":"4","last_reported":1750681369,"current_range_meters":2800,"station_id":"ce4bguh2rcd13ifvqcj0","pricing_plan_id":"cebpf4jnsgd1na2vs0mg"},{"bike_id":"a7f02663-3b27-4e2f-aee7-49fb1db71a01","system_id":"levelo_inurba_marseille","lat":43.2848,"lon":5.38556,"is_reserved":false,"is_disabled":false,"rental_uris":{"android":"levelo://app?vid=a7f02663-3b27-4e2f-aee7-49fb1db71a01","ios":"levelo://app?vid=a7f02663-3b27-4e2f-aee7-49fb1db71a01"},"vehicle_type_id":"4","last_reported":1750681369,"current_range_meters":2800,"station_id":"ce4bh8p2rcd13ifvqeb0","pricing_plan_id":"cebpf4jnsgd1na2vs0mg"},{"bike_id":"74070c95-8628-4bec-b06e-b8f6cafd55c1","system_id":"levelo_inurba_marseille","lat":43.28422,"lon":5.37513,"is_reserved":false,"is_disabled":false,"rental_uris":{"android":"levelo://app?vid=74070c95-8628-4bec-b06e-b8f6cafd55c1","ios":"levelo://app?vid=74070c95-8628-4bec-b06e-b8f6cafd55c1"},"vehicle_type_id":"4","last_reported":1750681369,"current_range_meters":3200,"station_id":"ce4bh412rcd13ifvqds0","pricing_plan_id":"cebpf4jnsgd1na2vs0mg"},{"bike_id":"8bd4135d-bc67-4b0f-9552-013b64de7d6a","system_id":"levelo_inurba_marseille","lat":43.32664,"lon":5.41013,"is_reserved":false,"is_disabled":false,"rental_uris":{"android":"levelo://app?vid=8bd4135d-bc67-4b0f-9552-013b64de7d6a","ios":"levelo://app?vid=8bd4135d-bc67-4b0f-9552-013b64de7d6a"},"vehicle_type_id":"4","last_reported":1750681369,"current_range_meters":3200,"station_id":"ce4bhpp2rcd13ifvqhgg","pricing_plan_id":"cebpf4jnsgd1na2vs0mg"},{"bike_id":"bc982420-423e-4ad8-9171-068e5de85af8","system_id":"levelo_inurba_marseille","lat":43.29158,"lon":5.37934,"is_reserved":false,"is_disabled":false,"rental_uris":{"android":"levelo://app?vid=bc982420-423e-4ad8-9171-068e5de85af8","ios":"levelo://app?vid=bc982420-423e-4ad8-9171-068e5de85af8"},"vehicle_type_id":"4","last_reported":1750681369,"current_range_meters":3600,"station_id":"","pricing_plan_id":"cebpf4jnsgd1na2vs0mg"},{"bike_id":"3530acec-9aec-4ca7-883a-cd4e4efe8154","system_id":"levelo_inurba_marseille","lat":43.284171,"lon":5.349947,"is_reserved":false,"is_disabled":false,"rental_uris":{"android":"levelo://app?vid=3530acec-9aec-4ca7-883a-cd4e4efe8154","ios":"levelo://app?vid=3530acec-9aec-4ca7-883a-cd4e4efe8154"},"vehicle_type_id":"4","last_reported":1750681369,"current_range_meters":3600,"station_id":"","pricing_plan_id":"cebpf4jnsgd1na2vs0mg"},{"bike_id":"a66f85b3-f692-41aa-98b6-3f97b9a3f52d","system_id":"levelo_inurba_marseille","lat":43.2281,"lon":5.34914,"is_reserved":false,"is_disabled":false,"rental_uris":{"android":"levelo://app?vid=a66f85b3-f692-41aa-98b6-3f97b9a3f52d","ios":"levelo://app?vid=a66f85b3-f692-41aa-98b6-3f97b9a3f52d"},"vehicle_type_id":"4","last_reported":1750681369,"current_range_meters":3600,"station_id":"","pricing_plan_id":"cebpf4jnsgd1na2vs0mg"},{"bike_id":"3af8e414-6142-4432-a6dc-f481c7269c68","system_id":"levelo_inurba_marseille","lat":43.231216,"lon":5.366121,"is_reserved":false,"is_disabled":false,"rental_uris":{"android":"levelo://app?vid=3af8e414-6142-4432-a6dc-f481c7269c68","ios":"levelo://app?vid=3af8e414-6142-4432-a6dc-f481c7269c68"},"vehicle_type_id":"4","last_reported":1750681369,"current_range_meters":3600,"station_id":"","pricing_plan_id":"cebpf4jnsgd1na2vs0mg"},{"bike_id":"315d89df-fb8c-40e9-bd02-a7881e6f4613","system_id":"levelo_inurba_marseille","lat":43.29227,"lon":5.40048,"is_reserved":false,"is_disabled":false,"rental_uris":{"android":"levelo://app?vid=315d89df-fb8c-40e9-bd02-a7881e6f4613","ios":"levelo://app?vid=315d89df-fb8c-40e9-bd02-a7881e6f4613"},"vehicle_type_id":"4","last_reported":1750681369,"current_range_meters":3600,"station_id":"","pricing_plan_id":"cebpf4jnsgd1na2vs0mg"},{"bike_id":"916c6bb8-beb6-42ba-b518-ac89a93913fb","system_id":"levelo_inurba_marseille","lat":43.23204,"lon":5.35536,"is_reserved":false,"is_disabled":false,"rental_uris":{"android":"levelo://app?vid=916c6bb8-beb6-42ba-b518-ac89a93913fb","ios":"levelo://app?vid=916c6bb8-beb6-42ba-b518-ac89a93913fb"},"vehicle_type_id":"4","last_reported":1750681369,"current_range_meters":3600,"station_id":"ce4bhu92rcd13ifvqi70","pricing_plan_id":"cebpf4jnsgd1na2vs0mg"},{"bike_id":"6700f95c-965e-479f-aaea-a2b987dbda13","system_id":"levelo_inurba_marseille","lat":43.308897,"lon":5.396606,"is_reserved":false,"is_disabled":false,"rental_uris":{"android":"levelo://app?vid=6700f95c-965e-479f-aaea-a2b987dbda13","ios":"levelo://app?vid=6700f95c-965e-479f-aaea-a2b987dbda13"},"vehicle_type_id":"4","last_reported":1750681369,"current_range_meters":4000,"station_id":"ce4bh012rcd13ifvqcv0","pricing_plan_id":"cebpf4jnsgd1na2vs0mg"},{"bike_id":"6b75762a-81db-4aab-abe3-b99d06cff767","system_id":"levelo_inurba_marseille","lat":43.30605,"lon":5.39364,"is_reserved":false,"is_disabled":false,"rental_uris":{"android":"levelo://app?vid=6b75762a-81db-4aab-abe3-b99d06cff767","ios":"levelo://app?vid=6b75762a-81db-4aab-abe3-b99d06cff767"},"vehicle_type_id":"4","last_reported":1750681369,"current_range_meters":4000,"station_id":"ce4bh0p2rcd13ifvqd80","pricing_plan_id":"cebpf4jnsgd1na2vs0mg"},{"bike_id":"a5280d62-a14f-42ff-9117-80ae756a08ab","system_id":"levelo_inurba_marseille","lat":43.28469,"lon":5.35896,"is_reserved":false,"is_disabled":false,"rental_uris":{"android":"levelo://app?vid=a5280d62-a14f-42ff-9117-80ae756a08ab","ios":"levelo://app?vid=a5280d62-a14f-42ff-9117-80ae756a08ab"},"vehicle_type_id":"4","last_reported":1750681369,"current_range_meters":4000,"station_id":"ce4bhah2rcd13ifvqei0","pricing_plan_id":"cebpf4jnsgd1na2vs0mg"},{"bike_id":"79c01dfe-0dd3-40af-b701-a882b5d37801","system_id":"levelo_inurba_marseille","lat":43.295848,"lon":5.376107,"is_reserved":false,"is_disabled":false,"rental_uris":{"android":"levelo://app?vid=79c01dfe-0dd3-40af-b701-a882b5d37801","ios":"levelo://app?vid=79c01dfe-0dd3-40af-b701-a882b5d37801"},"vehicle_type_id":"4","last_reported":1750681369,"current_range_meters":4400,"station_id":"","pricing_plan_id":"cebpf4jnsgd1na2vs0mg"},{"bike_id":"0ccd24b7-588b-4acd-b1f4-59a71facf9e8","system_id":"levelo_inurba_marseille","lat":43.25293,"lon":5.40439,"is_reserved":false,"is_disabled":false,"rental_uris":{"android":"levelo://app?vid=0ccd24b7-588b-4acd-b1f4-59a71facf9e8","ios":"levelo://app?vid=0ccd24b7-588b-4acd-b1f4-59a71facf9e8"},"vehicle_type_id":"4","last_reported":1750681369,"current_range_meters":4400,"station_id":"","pricing_plan_id":"cebpf4jnsgd1na2vs0mg"},{"bike_id":"a3033e28-8eec-4d34-b94a-5f67f693c1b1","system_id":"levelo_inurba_marseille","lat":43.285187,"lon":5.350302,"is_reserved":false,"is_disabled":false,"rental_uris":{"android":"levelo://app?vid=a3033e28-8eec-4d34-b94a-5f67f693c1b1","ios":"levelo://app?vid=a3033e28-8eec-4d34-b94a-5f67f693c1b1"},"vehicle_type_id":"4","last_reported":1750681369,"current_range_meters":4400,"station_id":"ce4bghh2rcd13ifvqb60","pricing_plan_id":"cebpf4jnsgd1na2vs0mg"},{"bike_id":"7d6f2cd0-4b97-40bc-91c6-66576fa3b44a","system_id":"levelo_inurba_marseille","lat":43.29027,"lon":5.3814,"is_reserved":false,"is_disabled":false,"rental_uris":{"android":"levelo://app?vid=7d6f2cd0-4b97-40bc-91c6-66576fa3b44a","ios":"levelo://app?vid=7d6f2cd0-4b97-40bc-91c6-66576fa3b44a"},"vehicle_type_id":"4","last_reported":1750681369,"current_range_meters":4400,"station_id":"ce4bh4p2rcd13ifvqe1g","pricing_plan_id":"cebpf4jnsgd1na2vs0mg"},{"bike_id":"cbbf71b5-6569-4e9b-ba90-3ac2da187ffd","system_id":"levelo_inurba_marseille","lat":43.28043,"lon":5.35102,"is_reserved":false,"is_disabled":false,"rental_uris":{"android":"levelo://app?vid=cbbf71b5-6569-4e9b-ba90-3ac2da187ffd","ios":"levelo://app?vid=cbbf71b5-6569-4e9b-ba90-3ac2da187ffd"},"vehicle_type_id":"4","last_reported":1750681369,"current_range_meters":4800,"station_id":"","pricing_plan_id":"cebpf4jnsgd1na2vs0mg"},{"bike_id":"0503e1d2-ec4f-4cb3-9ea6-e4f3eb558d3e","system_id":"levelo_inurba_marseille","lat":43.29935,"lon":5.36985,"is_reserved":false,"is_disabled":false,"rental_uris":{"android":"levelo://app?vid=0503e1d2-ec4f-4cb3-9ea6-e4f3eb558d3e","ios":"levelo://app?vid=0503e1d2-ec4f-4cb3-9ea6-e4f3eb558d3e"},"vehicle_type_id":"4","last_reported":1750681369,"current_range_meters":4800,"station_id":"","pricing_plan_id":"cebpf4jnsgd1na2vs0mg"},{"bike_id":"93a2e970-5d0d-4b24-abe0-5b3c21688407","system_id":"levelo_inurba_marseille","lat":43.28669,"lon":5.38672,"is_reserved":false,"is_disabled":false,"rental_uris":{"android":"levelo://app?vid=93a2e970-5d0d-4b24-abe0-5b3c21688407","ios":"levelo://app?vid=93a2e970-5d0d-4b24-abe0-5b3c21688407"},"vehicle_type_id":"4","last_reported":1750681369,"current_range_meters":4800,"station_id":"ce4bh492rcd13ifvqdug","pricing_plan_id":"cebpf4jnsgd1na2vs0mg"},{"bike_id":"d9d7f21b-58ac-49ae-bfd3-20b31380f241","system_id":"levelo_inurba_marseille","lat":43.28418,"lon":5.34984,"is_reserved":false,"is_disabled":false,"rental_uris":{"android":"levelo://app?vid=d9d7f21b-58ac-49ae-bfd3-20b31380f241","ios":"levelo://app?vid=d9d7f21b-58ac-49ae-bfd3-20b31380f241"},"vehicle_type_id":"4","last_reported":1750681369,"current_range_meters":4800,"station_id":"ce4bhbh2rcd13ifvqepg","pricing_plan_id":"cebpf4jnsgd1na2vs0mg"},{"bike_id":"823460ec-d62c-4abf-be73-caa27f3841e0","system_id":"levelo_inurba_marseille","lat":43.23148,"lon":5.43711,"is_reserved":false,"is_disabled":false,"rental_uris":{"android":"levelo://app?vid=823460ec-d62c-4abf-be73-caa27f3841e0","ios":"levelo://app?vid=823460ec-d62c-4abf-be73-caa27f3841e0"},"vehicle_type_id":"4","last_reported":1750681369,"current_range_meters":4800,"station_id":"ce4bhmp2rcd13ifvqgog","pricing_plan_id":"cebpf4jnsgd1na2vs0mg"},{"bike_id":"23ed33e6-e9b9-4ba1-b728-ad5f21a64a04","system_id":"levelo_inurba_marseille","lat":43.28719,"lon":5.3608,"is_reserved":false,"is_disabled":false,"rental_uris":{"android":"levelo://app?vid=23ed33e6-e9b9-4ba1-b728-ad5f21a64a04","ios":"levelo://app?vid=23ed33e6-e9b9-4ba1-b728-ad5f21a64a04"},"vehicle_type_id":"4","last_reported":1750681369,"current_range_meters":4800,"station_id":"cki0cbj6b192h4jlfktg","pricing_plan_id":"cebpf4jnsgd1na2vs0mg"},{"bike_id":"3d07ef76-af52-42e0-81f1-5f4963c9ee29","system_id":"levelo_inurba_marseille","lat":43.29491,"lon":5.43865,"is_reserved":false,"is_disabled":false,"rental_uris":{"android":"levelo://app?vid=3d07ef76-af52-42e0-81f1-5f4963c9ee29","ios":"levelo://app?vid=3d07ef76-af52-42e0-81f1-5f4963c9ee29"},"vehicle_type_id":"4","last_reported":1750681369,"current_range_meters":5600,"station_id":"","pricing_plan_id":"cebpf4jnsgd1na2vs0mg"},{"bike_id":"29dcb7e1-af82-4912-87b2-97becc229f30","system_id":"levelo_inurba_marseille","lat":43.29976,"lon":5.38494,"is_reserved":false,"is_disabled":false,"rental_uris":{"android":"levelo://app?vid=29dcb7e1-af82-4912-87b2-97becc229f30","ios":"levelo://app?vid=29dcb7e1-af82-4912-87b2-97becc229f30"},"vehicle_type_id":"4","last_reported":1750681369,"current_range_meters":5600,"station_id":"ce4bgj92rcd13ifvqbd0","pricing_plan_id":"cebpf4jnsgd1na2vs0mg"},{"bike_id":"78a4feea-747c-4858-b4d4-fe6919bd3c0a","system_id":"levelo_inurba_marseille","lat":43.29793,"lon":5.37104,"is_reserved":false,"is_disabled":false,"rental_uris":{"android":"levelo://app?vid=78a4feea-747c-4858-b4d4-fe6919bd3c0a","ios":"levelo://app?vid=78a4feea-747c-4858-b4d4-fe6919bd3c0a"},"vehicle_type_id":"4","last_reported":1750681369,"current_range_meters":5600,"station_id":"ce4bgop2rcd13ifvqc1g","pricing_plan_id":"cebpf4jnsgd1na2vs0mg"},{"bike_id":"102e7f36-d8dd-46c2-8d7e-c097a90bb81d","system_id":"levelo_inurba_marseille","lat":43.3303,"lon":5.39044,"is_reserved":false,"is_disabled":false,"rental_uris":{"android":"levelo://app?vid=102e7f36-d8dd-46c2-8d7e-c097a90bb81d","ios":"levelo://app?vid=102e7f36-d8dd-46c2-8d7e-c097a90bb81d"},"vehicle_type_id":"4","last_reported":1750681369,"current_range_meters":5600,"station_id":"ce4bhr92rcd13ifvqhrg","pricing_plan_id":"cebpf4jnsgd1na2vs0mg"},{"bike_id":"9d299eea-7537-4144-8777-a71a3a86fdae","system_id":"levelo_inurba_marseille","lat":43.30614,"lon":5.37227,"is_reserved":false,"is_disabled":false,"rental_uris":{"android":"levelo://app?vid=9d299eea-7537-4144-8777-a71a3a86fdae","ios":"levelo://app?vid=9d299eea-7537-4144-8777-a71a3a86fdae"},"vehicle_type_id":"4","last_reported":1750681369,"current_range_meters":6000,"station_id":"ce4bgqh2rcd13ifvqc4g","pricing_plan_id":"cebpf4jnsgd1na2vs0mg"},{"bike_id":"28599e33-636d-4434-8d60-0d8522b2a2e5","system_id":"levelo_inurba_marseille","lat":43.24172,"lon":5.36404,"is_reserved":false,"is_disabled":false,"rental_uris":{"android":"levelo://app?vid=28599e33-636d-4434-8d60-0d8522b2a2e5","ios":"levelo://app?vid=28599e33-636d-4434-8d60-0d8522b2a2e5"},"vehicle_type_id":"4","last_reported":1750681369,"current_range_meters":6000,"station_id":"cpo36qri1sfpv3e86is0","pricing_plan_id":"cebpf4jnsgd1na2vs0mg"},{"bike_id":"b7036bc1-c072-4f36-9c66-21ff695540f4","system_id":"levelo_inurba_marseille","lat":43.24685,"lon":5.39467,"is_reserved":false,"is_disabled":false,"rental_uris":{"android":"levelo://app?vid=b7036bc1-c072-4f36-9c66-21ff695540f4","ios":"levelo://app?vid=b7036bc1-c072-4f36-9c66-21ff695540f4"},"vehicle_type_id":"4","last_reported":1750681369,"current_range_meters":6400,"station_id":"","pricing_plan_id":"cebpf4jnsgd1na2vs0mg"},{"bike_id":"bf6fd1ce-91a2-4279-bbce-b64661176b1f","system_id":"levelo_inurba_marseille","lat":43.30886,"lon":5.39661,"is_reserved":false,"is_disabled":false,"rental_uris":{"android":"levelo://app?vid=bf6fd1ce-91a2-4279-bbce-b64661176b1f","ios":"levelo://app?vid=bf6fd1ce-91a2-4279-bbce-b64661176b1f"},"vehicle_type_id":"4","last_reported":1750681369,"current_range_meters":6400,"station_id":"ce4bh012rcd13ifvqcv0","pricing_plan_id":"cebpf4jnsgd1na2vs0mg"},{"bike_id":"ecc231bb-d1d4-431a-8e27-8e17cdfdda03","system_id":"levelo_inurba_marseille","lat":43.30896,"lon":5.39643,"is_reserved":false,"is_disabled":false,"rental_uris":{"android":"levelo://app?vid=ecc231bb-d1d4-431a-8e27-8e17cdfdda03","ios":"levelo://app?vid=ecc231bb-d1d4-431a-8e27-8e17cdfdda03"},"vehicle_type_id":"4","last_reported":1750681369,"current_range_meters":6400,"station_id":"ce4bh012rcd13ifvqcv0","pricing_plan_id":"cebpf4jnsgd1na2vs0mg"},{"bike_id":"d4457186-a218-4107-9539-5f78afe6651a","system_id":"levelo_inurba_marseille","lat":43.24175,"lon":5.36394,"is_reserved":false,"is_disabled":false,"rental_uris":{"android":"levelo://app?vid=d4457186-a218-4107-9539-5f78afe6651a","ios":"levelo://app?vid=d4457186-a218-4107-9539-5f78afe6651a"},"vehicle_type_id":"4","last_reported":1750681369,"current_range_meters":6400,"station_id":"cpo36qri1sfpv3e86is0","pricing_plan_id":"cebpf4jnsgd1na2vs0mg"},{"bike_id":"a5836382-ce2b-4ca4-a2aa-fbcfec520f5d","system_id":"levelo_inurba_marseille","lat":43.21751,"lon":5.34605,"is_reserved":false,"is_disabled":false,"rental_uris":{"android":"levelo://app?vid=a5836382-ce2b-4ca4-a2aa-fbcfec520f5d","ios":"levelo://app?vid=a5836382-ce2b-4ca4-a2aa-fbcfec520f5d"},"vehicle_type_id":"4","last_reported":1750681369,"current_range_meters":6400,"station_id":"st_cvj6r9ubvosntc0bgbag","pricing_plan_id":"cebpf4jnsgd1na2vs0mg"},{"bike_id":"f3ca9422-cd2f-4a9b-a328-5cc2f8371373","system_id":"levelo_inurba_marseille","lat":43.31364,"lon":5.36712,"is_reserved":false,"is_disabled":false,"rental_uris":{"android":"levelo://app?vid=f3ca9422-cd2f-4a9b-a328-5cc2f8371373","ios":"levelo://app?vid=f3ca9422-cd2f-4a9b-a328-5cc2f8371373"},"vehicle_type_id":"4","last_reported":1750681369,"current_range_meters":6800,"station_id":"ce4bgr92rcd13ifvqc6g","pricing_plan_id":"cebpf4jnsgd1na2vs0mg"},{"bike_id":"366af174-4757-4f78-825d-c8e3189e4ae0","system_id":"levelo_inurba_marseille","lat":43.28719,"lon":5.37935,"is_reserved":false,"is_disabled":false,"rental_uris":{"android":"levelo://app?vid=366af174-4757-4f78-825d-c8e3189e4ae0","ios":"levelo://app?vid=366af174-4757-4f78-825d-c8e3189e4ae0"},"vehicle_type_id":"4","last_reported":1750681369,"current_range_meters":6800,"station_id":"ce4bh9p2rcd13ifvqec0","pricing_plan_id":"cebpf4jnsgd1na2vs0mg"},{"bike_id":"fc1bb1c2-0345-4dc4-a80d-3dc26cffcb28","system_id":"levelo_inurba_marseille","lat":43.28418,"lon":5.34978,"is_reserved":false,"is_disabled":false,"rental_uris":{"android":"levelo://app?vid=fc1bb1c2-0345-4dc4-a80d-3dc26cffcb28","ios":"levelo://app?vid=fc1bb1c2-0345-4dc4-a80d-3dc26cffcb28"},"vehicle_type_id":"4","last_reported":1750681369,"current_range_meters":6800,"station_id":"ce4bhbh2rcd13ifvqepg","pricing_plan_id":"cebpf4jnsgd1na2vs0mg"},{"bike_id":"7bcb5c0f-2e10-40f3-a3d4-1a69fa0c94d9","system_id":"levelo_inurba_marseille","lat":43.2441,"lon":5.37105,"is_reserved":false,"is_disabled":false,"rental_uris":{"android":"levelo://app?vid=7bcb5c0f-2e10-40f3-a3d4-1a69fa0c94d9","ios":"levelo://app?vid=7bcb5c0f-2e10-40f3-a3d4-1a69fa0c94d9"},"vehicle_type_id":"4","last_reported":1750681369,"current_range_meters":6800,"station_id":"ce4bhhh2rcd13ifvqfk0","pricing_plan_id":"cebpf4jnsgd1na2vs0mg"},{"bike_id":"4ea8c948-828d-469d-a71f-7c8764a4de70","system_id":"levelo_inurba_marseille","lat":43.24663,"lon":5.38164,"is_reserved":false,"is_disabled":false,"rental_uris":{"android":"levelo://app?vid=4ea8c948-828d-469d-a71f-7c8764a4de70","ios":"levelo://app?vid=4ea8c948-828d-469d-a71f-7c8764a4de70"},"vehicle_type_id":"4","last_reported":1750681369,"current_range_meters":6800,"station_id":"ce4bhih2rcd13ifvqfr0","pricing_plan_id":"cebpf4jnsgd1na2vs0mg"},{"bike_id":"e00116b5-29ba-45d1-b032-69dbad09bbba","system_id":"levelo_inurba_marseille","lat":43.29904,"lon":5.4367,"is_reserved":false,"is_disabled":false,"rental_uris":{"android":"levelo://app?vid=e00116b5-29ba-45d1-b032-69dbad09bbba","ios":"levelo://app?vid=e00116b5-29ba-45d1-b032-69dbad09bbba"},"vehicle_type_id":"4","last_reported":1750681369,"current_range_meters":6800,"station_id":"ce4bhpp2rcd13ifvqhfg","pricing_plan_id":"cebpf4jnsgd1na2vs0mg"},{"bike_id":"e672c7ab-9539-485a-b360-1e12bbab178b","system_id":"levelo_inurba_marseille","lat":43.30348,"lon":5.4353,"is_reserved":false,"is_disabled":false,"rental_uris":{"android":"levelo://app?vid=e672c7ab-9539-485a-b360-1e12bbab178b","ios":"levelo://app?vid=e672c7ab-9539-485a-b360-1e12bbab178b"},"vehicle_type_id":"4","last_reported":1750681369,"current_range_meters":7200,"station_id":"","pricing_plan_id":"cebpf4jnsgd1na2vs0mg"},{"bike_id":"008ac6e0-b1cf-4c53-9fc8-3bdb2303addb","system_id":"levelo_inurba_marseille","lat":43.29086,"lon":5.39035,"is_reserved":false,"is_disabled":false,"rental_uris":{"android":"levelo://app?vid=008ac6e0-b1cf-4c53-9fc8-3bdb2303addb","ios":"levelo://app?vid=008ac6e0-b1cf-4c53-9fc8-3bdb2303addb"},"vehicle_type_id":"4","last_reported":1750681369,"current_range_meters":7200,"station_id":"","pricing_plan_id":"cebpf4jnsgd1na2vs0mg"},{"bike_id":"2918bcfc-3ae7-4e90-b1ca-239f9a284a9c","system_id":"levelo_inurba_marseille","lat":43.30528,"lon":5.39382,"is_reserved":false,"is_disabled":false,"rental_uris":{"android":"levelo://app?vid=2918bcfc-3ae7-4e90-b1ca-239f9a284a9c","ios":"levelo://app?vid=2918bcfc-3ae7-4e90-b1ca-239f9a284a9c"},"vehicle_type_id":"4","last_reported":1750681369,"current_range_meters":7200,"station_id":"","pricing_plan_id":"cebpf4jnsgd1na2vs0mg"},{"bike_id":"f759ce6e-546d-42eb-b6cd-7a998515376c","system_id":"levelo_inurba_marseille","lat":43.29524,"lon":5.39037,"is_reserved":false,"is_disabled":false,"rental_uris":{"android":"levelo://app?vid=f759ce6e-546d-42eb-b6cd-7a998515376c","ios":"levelo://app?vid=f759ce6e-546d-42eb-b6cd-7a998515376c"},"vehicle_type_id":"4","last_reported":1750681369,"current_range_meters":7200,"station_id":"ce4bh3p2rcd13ifvqdp0","pricing_plan_id":"cebpf4jnsgd1na2vs0mg"},{"bike_id":"1fc972dd-6173-4f11-9cc9-29fe9f4754bf","system_id":"levelo_inurba_marseille","lat":43.28347,"lon":5.38104,"is_reserved":false,"is_disabled":false,"rental_uris":{"android":"levelo://app?vid=1fc972dd-6173-4f11-9cc9-29fe9f4754bf","ios":"levelo://app?vid=1fc972dd-6173-4f11-9cc9-29fe9f4754bf"},"vehicle_type_id":"4","last_reported":1750681369,"current_range_meters":7200,"station_id":"ce4bh412rcd13ifvqdr0","pricing_plan_id":"cebpf4jnsgd1na2vs0mg"},{"bike_id":"8891c768-315a-47ca-b705-3060fbdc3db8","system_id":"levelo_inurba_marseille","lat":43.32367,"lon":5.3888,"is_reserved":false,"is_disabled":false,"rental_uris":{"android":"levelo://app?vid=8891c768-315a-47ca-b705-3060fbdc3db8","ios":"levelo://app?vid=8891c768-315a-47ca-b705-3060fbdc3db8"},"vehicle_type_id":"4","last_reported":1750681369,"current_range_meters":7200,"station_id":"ce4bhqp2rcd13ifvqhog","pricing_plan_id":"cebpf4jnsgd1na2vs0mg"},{"bike_id":"b0338cdb-8951-4b08-9f00-89ffd5c7a17b","system_id":"levelo_inurba_marseille","lat":43.2761,"lon":5.3612,"is_reserved":false,"is_disabled":false,"rental_uris":{"android":"levelo://app?vid=b0338cdb-8951-4b08-9f00-89ffd5c7a17b","ios":"levelo://app?vid=b0338cdb-8951-4b08-9f00-89ffd5c7a17b"},"vehicle_type_id":"4","last_reported":1750681369,"current_range_meters":8000,"station_id":"ce4bgj92rcd13ifvqbe0","pricing_plan_id":"cebpf4jnsgd1na2vs0mg"},{"bike_id":"390bd475-fb91-417c-90cc-e6ca5256b008","system_id":"levelo_inurba_marseille","lat":43.31353,"lon":5.36717,"is_reserved":false,"is_disabled":false,"rental_uris":{"android":"levelo://app?vid=390bd475-fb91-417c-90cc-e6ca5256b008","ios":"levelo://app?vid=390bd475-fb91-417c-90cc-e6ca5256b008"},"vehicle_type_id":"4","last_reported":1750681369,"current_range_meters":8000,"station_id":"ce4bgr92rcd13ifvqc6g","pricing_plan_id":"cebpf4jnsgd1na2vs0mg"},{"bike_id":"630af6da-784e-4049-adb4-12a40ea0a429","system_id":"levelo_inurba_marseille","lat":43.26211,"lon":5.3745,"is_reserved":false,"is_disabled":false,"rental_uris":{"android":"levelo://app?vid=630af6da-784e-4049-adb4-12a40ea0a429","ios":"levelo://app?vid=630af6da-784e-4049-adb4-12a40ea0a429"},"vehicle_type_id":"4","last_reported":1750681369,"current_range_meters":8000,"station_id":"ce4bhgp2rcd13ifvqfc0","pricing_plan_id":"cebpf4jnsgd1na2vs0mg"},{"bike_id":"2cf44482-c2e9-4399-a95b-5342854cd1d9","system_id":"levelo_inurba_marseille","lat":43.33625,"lon":5.410487,"is_reserved":false,"is_disabled":false,"rental_uris":{"android":"levelo://app?vid=2cf44482-c2e9-4399-a95b-5342854cd1d9","ios":"levelo://app?vid=2cf44482-c2e9-4399-a95b-5342854cd1d9"},"vehicle_type_id":"4","last_reported":1750681369,"current_range_meters":8400,"station_id":"ce4bhqh2rcd13ifvqhmg","pricing_plan_id":"cebpf4jnsgd1na2vs0mg"},{"bike_id":"f66a6e34-c553-4ffc-a010-eca73da9f571","system_id":"levelo_inurba_marseille","lat":43.28029,"lon":5.39837,"is_reserved":false,"is_disabled":false,"rental_uris":{"android":"levelo://app?vid=f66a6e34-c553-4ffc-a010-eca73da9f571","ios":"levelo://app?vid=f66a6e34-c553-4ffc-a010-eca73da9f571"},"vehicle_type_id":"4","last_reported":1750681369,"current_range_meters":8800,"station_id":"","pricing_plan_id":"cebpf4jnsgd1na2vs0mg"},{"bike_id":"18c8f8e2-2e30-457f-896b-6458233f3410","system_id":"levelo_inurba_marseille","lat":43.29941,"lon":5.36544,"is_reserved":false,"is_disabled":false,"rental_uris":{"android":"levelo://app?vid=18c8f8e2-2e30-457f-896b-6458233f3410","ios":"levelo://app?vid=18c8f8e2-2e30-457f-896b-6458233f3410"},"vehicle_type_id":"4","last_reported":1750681369,"current_range_meters":8800,"station_id":"ce4bgm92rcd13ifvqbr0","pricing_plan_id":"cebpf4jnsgd1na2vs0mg"},{"bike_id":"b0ee92de-e7f9-4d0b-a1ad-eb8a168326cd","system_id":"levelo_inurba_marseille","lat":43.30549,"lon":5.36731,"is_reserved":false,"is_disabled":false,"rental_uris":{"android":"levelo://app?vid=b0ee92de-e7f9-4d0b-a1ad-eb8a168326cd","ios":"levelo://app?vid=b0ee92de-e7f9-4d0b-a1ad-eb8a168326cd"},"vehicle_type_id":"4","last_reported":1750681369,"current_range_meters":8800,"station_id":"ce4bgrp2rcd13ifvqc9g","pricing_plan_id":"cebpf4jnsgd1na2vs0mg"},{"bike_id":"c6579df2-954b-4170-8966-e37192f79a89","system_id":"levelo_inurba_marseille","lat":43.2722,"lon":5.39183,"is_reserved":false,"is_disabled":false,"rental_uris":{"android":"levelo://app?vid=c6579df2-954b-4170-8966-e37192f79a89","ios":"levelo://app?vid=c6579df2-954b-4170-8966-e37192f79a89"},"vehicle_type_id":"4","last_reported":1750681369,"current_range_meters":8800,"station_id":"ce4bhhp2rcd13ifvqfm0","pricing_plan_id":"cebpf4jnsgd1na2vs0mg"},{"bike_id":"8c6de0c1-9eaf-4c18-8155-d956789067ae","system_id":"levelo_inurba_marseille","lat":43.279487,"lon":5.443223,"is_reserved":false,"is_disabled":false,"rental_uris":{"android":"levelo://app?vid=8c6de0c1-9eaf-4c18-8155-d956789067ae","ios":"levelo://app?vid=8c6de0c1-9eaf-4c18-8155-d956789067ae"},"vehicle_type_id":"4","last_reported":1750681369,"current_range_meters":9200,"station_id":"","pricing_plan_id":"cebpf4jnsgd1na2vs0mg"},{"bike_id":"8d197929-9fd5-4312-a5f7-b6d7fc6475a8","system_id":"levelo_inurba_marseille","lat":43.23522,"lon":5.36081,"is_reserved":false,"is_disabled":false,"rental_uris":{"android":"levelo://app?vid=8d197929-9fd5-4312-a5f7-b6d7fc6475a8","ios":"levelo://app?vid=8d197929-9fd5-4312-a5f7-b6d7fc6475a8"},"vehicle_type_id":"4","last_reported":1750681369,"current_range_meters":9200,"station_id":"","pricing_plan_id":"cebpf4jnsgd1na2vs0mg"},{"bike_id":"a9e5e555-fdaf-49c0-b286-f0f2659b17d0","system_id":"levelo_inurba_marseille","lat":43.28325,"lon":5.43236,"is_reserved":false,"is_disabled":false,"rental_uris":{"android":"levelo://app?vid=a9e5e555-fdaf-49c0-b286-f0f2659b17d0","ios":"levelo://app?vid=a9e5e555-fdaf-49c0-b286-f0f2659b17d0"},"vehicle_type_id":"4","last_reported":1750681369,"current_range_meters":9200,"station_id":"","pricing_plan_id":"cebpf4jnsgd1na2vs0mg"},{"bike_id":"8ce8f9e4-a75b-4ada-b28b-582786b94197","system_id":"levelo_inurba_marseille","lat":43.2987,"lon":5.37665,"is_reserved":false,"is_disabled":false,"rental_uris":{"android":"levelo://app?vid=8ce8f9e4-a75b-4ada-b28b-582786b94197","ios":"levelo://app?vid=8ce8f9e4-a75b-4ada-b28b-582786b94197"},"vehicle_type_id":"4","last_reported":1750681369,"current_range_meters":9200,"station_id":"","pricing_plan_id":"cebpf4jnsgd1na2vs0mg"},{"bike_id":"9fcdd1df-eadb-4eef-9a75-240ca3bf7fcf","system_id":"levelo_inurba_marseille","lat":43.29569,"lon":5.37519,"is_reserved":false,"is_disabled":false,"rental_uris":{"android":"levelo://app?vid=9fcdd1df-eadb-4eef-9a75-240ca3bf7fcf","ios":"levelo://app?vid=9fcdd1df-eadb-4eef-9a75-240ca3bf7fcf"},"vehicle_type_id":"4","last_reported":1750681369,"current_range_meters":9200,"station_id":"ce4bgh92rcd13ifvqb50","pricing_plan_id":"cebpf4jnsgd1na2vs0mg"},{"bike_id":"3a28251d-0250-4373-b769-a417e43f09f1","system_id":"levelo_inurba_marseille","lat":43.30546,"lon":5.3653,"is_reserved":false,"is_disabled":false,"rental_uris":{"android":"levelo://app?vid=3a28251d-0250-4373-b769-a417e43f09f1","ios":"levelo://app?vid=3a28251d-0250-4373-b769-a417e43f09f1"},"vehicle_type_id":"4","last_reported":1750681369,"current_range_meters":9200,"station_id":"ce4bgs12rcd13ifvqcag","pricing_plan_id":"cebpf4jnsgd1na2vs0mg"},{"bike_id":"e5727e68-6e22-4548-b33b-364eda945210","system_id":"levelo_inurba_marseille","lat":43.27972,"lon":5.38742,"is_reserved":false,"is_disabled":false,"rental_uris":{"android":"levelo://app?vid=e5727e68-6e22-4548-b33b-364eda945210","ios":"levelo://app?vid=e5727e68-6e22-4548-b33b-364eda945210"},"vehicle_type_id":"4","last_reported":1750681369,"current_range_meters":9200,"station_id":"ce4bhg12rcd13ifvqf80","pricing_plan_id":"cebpf4jnsgd1na2vs0mg"},{"bike_id":"13920610-105c-40f8-a4a7-1e8529941564","system_id":"levelo_inurba_marseille","lat":43.25942,"lon":5.40904,"is_reserved":false,"is_disabled":false,"rental_uris":{"android":"levelo://app?vid=13920610-105c-40f8-a4a7-1e8529941564","ios":"levelo://app?vid=13920610-105c-40f8-a4a7-1e8529941564"},"vehicle_type_id":"4","last_reported":1750681369,"current_range_meters":9200,"station_id":"ce4bhm92rcd13ifvqglg","pricing_plan_id":"cebpf4jnsgd1na2vs0mg"},{"bike_id":"eb8e0445-594f-44a0-85cb-9b475413e1ad","system_id":"levelo_inurba_marseille","lat":43.29572,"lon":5.42286,"is_reserved":false,"is_disabled":false,"rental_uris":{"android":"levelo://app?vid=eb8e0445-594f-44a0-85cb-9b475413e1ad","ios":"levelo://app?vid=eb8e0445-594f-44a0-85cb-9b475413e1ad"},"vehicle_type_id":"4","last_reported":1750681369,"current_range_meters":9200,"station_id":"ce4bhph2rcd13ifvqhdg","pricing_plan_id":"cebpf4jnsgd1na2vs0mg"},{"bike_id":"7c250638-816e-4cdd-9efe-24ef2358cce0","system_id":"levelo_inurba_marseille","lat":43.33613,"lon":5.41032,"is_reserved":false,"is_disabled":false,"rental_uris":{"android":"levelo://app?vid=7c250638-816e-4cdd-9efe-24ef2358cce0","ios":"levelo://app?vid=7c250638-816e-4cdd-9efe-24ef2358cce0"},"vehicle_type_id":"4","last_reported":1750681369,"current_range_meters":9200,"station_id":"ce4bhqh2rcd13ifvqhmg","pricing_plan_id":"cebpf4jnsgd1na2vs0mg"},{"bike_id":"c35f1469-6975-4dfe-932a-86edbe01a878","system_id":"levelo_inurba_marseille","lat":43.2916,"lon":5.37512,"is_reserved":false,"is_disabled":false,"rental_uris":{"android":"levelo://app?vid=c35f1469-6975-4dfe-932a-86edbe01a878","ios":"levelo://app?vid=c35f1469-6975-4dfe-932a-86edbe01a878"},"vehicle_type_id":"4","last_reported":1750681369,"current_range_meters":9600,"station_id":"","pricing_plan_id":"cebpf4jnsgd1na2vs0mg"},{"bike_id":"c8b4bc5d-cf50-4f37-9d72-57cf8aa4dc9b","system_id":"levelo_inurba_marseille","lat":43.29074,"lon":5.37145,"is_reserved":false,"is_disabled":false,"rental_uris":{"android":"levelo://app?vid=c8b4bc5d-cf50-4f37-9d72-57cf8aa4dc9b","ios":"levelo://app?vid=c8b4bc5d-cf50-4f37-9d72-57cf8aa4dc9b"},"vehicle_type_id":"4","last_reported":1750681369,"current_range_meters":9600,"station_id":"ce4bh5p2rcd13ifvqe4g","pricing_plan_id":"cebpf4jnsgd1na2vs0mg"},{"bike_id":"e583696a-868d-4576-a288-dcf678e45501","system_id":"levelo_inurba_marseille","lat":43.243813,"lon":5.370469,"is_reserved":false,"is_disabled":false,"rental_uris":{"android":"levelo://app?vid=e583696a-868d-4576-a288-dcf678e45501","ios":"levelo://app?vid=e583696a-868d-4576-a288-dcf678e45501"},"vehicle_type_id":"4","last_reported":1750681369,"current_range_meters":9600,"station_id":"ce4bhhh2rcd13ifvqfk0","pricing_plan_id":"cebpf4jnsgd1na2vs0mg"},{"bike_id":"f4d826b5-8d88-4c38-b19b-673d51e0dde8","system_id":"levelo_inurba_marseille","lat":43.245524,"lon":5.395311,"is_reserved":false,"is_disabled":false,"rental_uris":{"android":"levelo://app?vid=f4d826b5-8d88-4c38-b19b-673d51e0dde8","ios":"levelo://app?vid=f4d826b5-8d88-4c38-b19b-673d51e0dde8"},"vehicle_type_id":"4","last_reported":1750681369,"current_range_meters":9600,"station_id":"ce4bhlp2rcd13ifvqgjg","pricing_plan_id":"cebpf4jnsgd1na2vs0mg"},{"bike_id":"d0355270-d04c-4910-acd5-96415de64e67","system_id":"levelo_inurba_marseille","lat":43.33721,"lon":5.39185,"is_reserved":false,"is_disabled":false,"rental_uris":{"android":"levelo://app?vid=d0355270-d04c-4910-acd5-96415de64e67","ios":"levelo://app?vid=d0355270-d04c-4910-acd5-96415de64e67"},"vehicle_type_id":"4","last_reported":1750681369,"current_range_meters":9600,"station_id":"ce4bhr92rcd13ifvqhsg","pricing_plan_id":"cebpf4jnsgd1na2vs0mg"},{"bike_id":"f10e38ce-c08a-4001-873a-ec3e8846285a","system_id":"levelo_inurba_marseille","lat":43.32922,"lon":5.38045,"is_reserved":false,"is_disabled":false,"rental_uris":{"android":"levelo://app?vid=f10e38ce-c08a-4001-873a-ec3e8846285a","ios":"levelo://app?vid=f10e38ce-c08a-4001-873a-ec3e8846285a"},"vehicle_type_id":"4","last_reported":1750681369,"current_range_meters":10000,"station_id":"","pricing_plan_id":"cebpf4jnsgd1na2vs0mg"},{"bike_id":"930a00ad-65ae-4c91-ad47-9ee0684e56bd","system_id":"levelo_inurba_marseille","lat":43.2467,"lon":5.38163,"is_reserved":false,"is_disabled":false,"rental_uris":{"android":"levelo://app?vid=930a00ad-65ae-4c91-ad47-9ee0684e56bd","ios":"levelo://app?vid=930a00ad-65ae-4c91-ad47-9ee0684e56bd"},"vehicle_type_id":"4","last_reported":1750681369,"current_range_meters":10000,"station_id":"ce4bhih2rcd13ifvqfr0","pricing_plan_id":"cebpf4jnsgd1na2vs0mg"},{"bike_id":"a81bb845-3c69-4e60-b96a-9ec7765d8b44","system_id":"levelo_inurba_marseille","lat":43.31386,"lon":5.3668,"is_reserved":false,"is_disabled":false,"rental_uris":{"android":"levelo://app?vid=a81bb845-3c69-4e60-b96a-9ec7765d8b44","ios":"levelo://app?vid=a81bb845-3c69-4e60-b96a-9ec7765d8b44"},"vehicle_type_id":"4","last_reported":1750681369,"current_range_meters":10800,"station_id":"","pricing_plan_id":"cebpf4jnsgd1na2vs0mg"},{"bike_id":"70764641-799a-4261-99bd-903918c1b74a","system_id":"levelo_inurba_marseille","lat":43.32897,"lon":5.38345,"is_reserved":false,"is_disabled":false,"rental_uris":{"android":"levelo://app?vid=70764641-799a-4261-99bd-903918c1b74a","ios":"levelo://app?vid=70764641-799a-4261-99bd-903918c1b74a"},"vehicle_type_id":"4","last_reported":1750681369,"current_range_meters":10800,"station_id":"","pricing_plan_id":"cebpf4jnsgd1na2vs0mg"},{"bike_id":"16cabd9a-6ae4-4dc0-8917-08eb63279e87","system_id":"levelo_inurba_marseille","lat":43.30308,"lon":5.39212,"is_reserved":false,"is_disabled":false,"rental_uris":{"android":"levelo://app?vid=16cabd9a-6ae4-4dc0-8917-08eb63279e87","ios":"levelo://app?vid=16cabd9a-6ae4-4dc0-8917-08eb63279e87"},"vehicle_type_id":"4","last_reported":1750681369,"current_range_meters":10800,"station_id":"ce4bgkh2rcd13ifvqbk0","pricing_plan_id":"cebpf4jnsgd1na2vs0mg"},{"bike_id":"c14649e1-f90b-433e-a3ab-a5638e537274","system_id":"levelo_inurba_marseille","lat":43.30598,"lon":5.39353,"is_reserved":false,"is_disabled":false,"rental_uris":{"android":"levelo://app?vid=c14649e1-f90b-433e-a3ab-a5638e537274","ios":"levelo://app?vid=c14649e1-f90b-433e-a3ab-a5638e537274"},"vehicle_type_id":"4","last_reported":1750681369,"current_range_meters":10800,"station_id":"ce4bh0p2rcd13ifvqd80","pricing_plan_id":"cebpf4jnsgd1na2vs0mg"},{"bike_id":"0ac24836-1209-412c-b20f-55d51ce07651","system_id":"levelo_inurba_marseille","lat":43.30787,"lon":5.4353,"is_reserved":false,"is_disabled":false,"rental_uris":{"android":"levelo://app?vid=0ac24836-1209-412c-b20f-55d51ce07651","ios":"levelo://app?vid=0ac24836-1209-412c-b20f-55d51ce07651"},"vehicle_type_id":"4","last_reported":1750681369,"current_range_meters":10800,"station_id":"ce4bhph2rcd13ifvqheg","pricing_plan_id":"cebpf4jnsgd1na2vs0mg"},{"bike_id":"ac126a41-0db6-4e36-a2dc-1f6d5999c376","system_id":"levelo_inurba_marseille","lat":43.231964,"lon":5.355496,"is_reserved":false,"is_disabled":false,"rental_uris":{"android":"levelo://app?vid=ac126a41-0db6-4e36-a2dc-1f6d5999c376","ios":"levelo://app?vid=ac126a41-0db6-4e36-a2dc-1f6d5999c376"},"vehicle_type_id":"4","last_reported":1750681369,"current_range_meters":11200,"station_id":"","pricing_plan_id":"cebpf4jnsgd1na2vs0mg"},{"bike_id":"a5235372-add4-4093-9ffe-81ca46fb0cb4","system_id":"levelo_inurba_marseille","lat":43.28853,"lon":5.39324,"is_reserved":false,"is_disabled":false,"rental_uris":{"android":"levelo://app?vid=a5235372-add4-4093-9ffe-81ca46fb0cb4","ios":"levelo://app?vid=a5235372-add4-4093-9ffe-81ca46fb0cb4"},"vehicle_type_id":"4","last_reported":1750681369,"current_range_meters":11200,"station_id":"ce4bh2p2rcd13ifvqdi0","pricing_plan_id":"cebpf4jnsgd1na2vs0mg"},{"bike_id":"f8a02294-8e0d-4d97-ae2a-06c75a50f461","system_id":"levelo_inurba_marseille","lat":43.29028,"lon":5.37552,"is_reserved":false,"is_disabled":false,"rental_uris":{"android":"levelo://app?vid=f8a02294-8e0d-4d97-ae2a-06c75a50f461","ios":"levelo://app?vid=f8a02294-8e0d-4d97-ae2a-06c75a50f461"},"vehicle_type_id":"4","last_reported":1750681369,"current_range_meters":11200,"station_id":"ce4bh692rcd13ifvqe90","pricing_plan_id":"cebpf4jnsgd1na2vs0mg"},{"bike_id":"70665bf1-b40a-49fb-b9f6-2a8e13fe21ed","system_id":"levelo_inurba_marseille","lat":43.32533,"lon":5.41414,"is_reserved":false,"is_disabled":false,"rental_uris":{"android":"levelo://app?vid=70665bf1-b40a-49fb-b9f6-2a8e13fe21ed","ios":"levelo://app?vid=70665bf1-b40a-49fb-b9f6-2a8e13fe21ed"},"vehicle_type_id":"4","last_reported":1750681369,"current_range_meters":11200,"station_id":"ce4bhq12rcd13ifvqhhg","pricing_plan_id":"cebpf4jnsgd1na2vs0mg"},{"bike_id":"cd74af28-79fa-44d7-bfb3-a63961abcf07","system_id":"levelo_inurba_marseille","lat":43.34151,"lon":5.40916,"is_reserved":false,"is_disabled":false,"rental_uris":{"android":"levelo://app?vid=cd74af28-79fa-44d7-bfb3-a63961abcf07","ios":"levelo://app?vid=cd74af28-79fa-44d7-bfb3-a63961abcf07"},"vehicle_type_id":"4","last_reported":1750681369,"current_range_meters":11200,"station_id":"ce4bhqh2rcd13ifvqhlg","pricing_plan_id":"cebpf4jnsgd1na2vs0mg"},{"bike_id":"b121b815-4832-48cb-be5c-48bedc9fea93","system_id":"levelo_inurba_marseille","lat":43.25657,"lon":5.40961,"is_reserved":false,"is_disabled":false,"rental_uris":{"android":"levelo://app?vid=b121b815-4832-48cb-be5c-48bedc9fea93","ios":"levelo://app?vid=b121b815-4832-48cb-be5c-48bedc9fea93"},"vehicle_type_id":"4","last_reported":1750681369,"current_range_meters":11600,"station_id":"","pricing_plan_id":"cebpf4jnsgd1na2vs0mg"},{"bike_id":"b140cafa-11a7-4928-8835-cf71d5705111","system_id":"levelo_inurba_marseille","lat":43.29964,"lon":5.38502,"is_reserved":false,"is_disabled":false,"rental_uris":{"android":"levelo://app?vid=b140cafa-11a7-4928-8835-cf71d5705111","ios":"levelo://app?vid=b140cafa-11a7-4928-8835-cf71d5705111"},"vehicle_type_id":"4","last_reported":1750681369,"current_range_meters":11600,"station_id":"ce4bgj92rcd13ifvqbd0","pricing_plan_id":"cebpf4jnsgd1na2vs0mg"},{"bike_id":"c66d6637-78bf-45c0-a764-14a09e64c862","system_id":"levelo_inurba_marseille","lat":43.30528,"lon":5.36708,"is_reserved":false,"is_disabled":false,"rental_uris":{"android":"levelo://app?vid=c66d6637-78bf-45c0-a764-14a09e64c862","ios":"levelo://app?vid=c66d6637-78bf-45c0-a764-14a09e64c862"},"vehicle_type_id":"4","last_reported":1750681369,"current_range_meters":11600,"station_id":"ce4bgrp2rcd13ifvqc9g","pricing_plan_id":"cebpf4jnsgd1na2vs0mg"},{"bike_id":"0d40ed47-d109-4073-938d-5d33f3029c54","system_id":"levelo_inurba_marseille","lat":43.24798,"lon":5.374673,"is_reserved":false,"is_disabled":false,"rental_uris":{"android":"levelo://app?vid=0d40ed47-d109-4073-938d-5d33f3029c54","ios":"levelo://app?vid=0d40ed47-d109-4073-938d-5d33f3029c54"},"vehicle_type_id":"4","last_reported":1750681369,"current_range_meters":11600,"station_id":"ce4bhgh2rcd13ifvqfb0","pricing_plan_id":"cebpf4jnsgd1na2vs0mg"},{"bike_id":"c809fd60-5eaf-4f25-afd0-88439338fb6d","system_id":"levelo_inurba_marseille","lat":43.27846,"lon":5.39221,"is_reserved":false,"is_disabled":false,"rental_uris":{"android":"levelo://app?vid=c809fd60-5eaf-4f25-afd0-88439338fb6d","ios":"levelo://app?vid=c809fd60-5eaf-4f25-afd0-88439338fb6d"},"vehicle_type_id":"4","last_reported":1750681369,"current_range_meters":11600,"station_id":"ce4bhjp2rcd13ifvqga0","pricing_plan_id":"cebpf4jnsgd1na2vs0mg"},{"bike_id":"66f943d8-9eae-4657-b66f-697b45638bfe","system_id":"levelo_inurba_marseille","lat":43.32102,"lon":5.36785,"is_reserved":false,"is_disabled":false,"rental_uris":{"android":"levelo://app?vid=66f943d8-9eae-4657-b66f-697b45638bfe","ios":"levelo://app?vid=66f943d8-9eae-4657-b66f-697b45638bfe"},"vehicle_type_id":"4","last_reported":1750681369,"current_range_meters":11600,"station_id":"ce4bhrh2rcd13ifvqhug","pricing_plan_id":"cebpf4jnsgd1na2vs0mg"},{"bike_id":"dcb881bc-3243-46bf-9708-9904614a9a14","system_id":"levelo_inurba_marseille","lat":43.32361,"lon":5.36745,"is_reserved":false,"is_disabled":false,"rental_uris":{"android":"levelo://app?vid=dcb881bc-3243-46bf-9708-9904614a9a14","ios":"levelo://app?vid=dcb881bc-3243-46bf-9708-9904614a9a14"},"vehicle_type_id":"4","last_reported":1750681369,"current_range_meters":11600,"station_id":"ce4bhsh2rcd13ifvqi2g","pricing_plan_id":"cebpf4jnsgd1na2vs0mg"},{"bike_id":"466a9ca0-9b0a-4e42-975b-42bee49d645d","system_id":"levelo_inurba_marseille","lat":43.323651,"lon":5.367632,"is_reserved":false,"is_disabled":false,"rental_uris":{"android":"levelo://app?vid=466a9ca0-9b0a-4e42-975b-42bee49d645d","ios":"levelo://app?vid=466a9ca0-9b0a-4e42-975b-42bee49d645d"},"vehicle_type_id":"4","last_reported":1750681369,"current_range_meters":11600,"station_id":"ce4bhsh2rcd13ifvqi2g","pricing_plan_id":"cebpf4jnsgd1na2vs0mg"},{"bike_id":"c903e63d-2b4e-468e-bdbb-44bc2c3ee4be","system_id":"levelo_inurba_marseille","lat":43.21181,"lon":5.35077,"is_reserved":false,"is_disabled":false,"rental_uris":{"android":"levelo://app?vid=c903e63d-2b4e-468e-bdbb-44bc2c3ee4be","ios":"levelo://app?vid=c903e63d-2b4e-468e-bdbb-44bc2c3ee4be"},"vehicle_type_id":"4","last_reported":1750681369,"current_range_meters":11600,"station_id":"st_cvj6sg6p6f1abm77japg","pricing_plan_id":"cebpf4jnsgd1na2vs0mg"},{"bike_id":"bacc9864-06f7-4e1c-b403-88c23eeb6d09","system_id":"levelo_inurba_marseille","lat":43.31392,"lon":5.36774,"is_reserved":false,"is_disabled":false,"rental_uris":{"android":"levelo://app?vid=bacc9864-06f7-4e1c-b403-88c23eeb6d09","ios":"levelo://app?vid=bacc9864-06f7-4e1c-b403-88c23eeb6d09"},"vehicle_type_id":"4","last_reported":1750681369,"current_range_meters":12000,"station_id":"","pricing_plan_id":"cebpf4jnsgd1na2vs0mg"},{"bike_id":"1e0c60e1-43c3-4b9b-9446-e89ae26c50bd","system_id":"levelo_inurba_marseille","lat":43.31386,"lon":5.36737,"is_reserved":false,"is_disabled":false,"rental_uris":{"android":"levelo://app?vid=1e0c60e1-43c3-4b9b-9446-e89ae26c50bd","ios":"levelo://app?vid=1e0c60e1-43c3-4b9b-9446-e89ae26c50bd"},"vehicle_type_id":"4","last_reported":1750681369,"current_range_meters":12400,"station_id":"","pricing_plan_id":"cebpf4jnsgd1na2vs0mg"},{"bike_id":"ca558d8a-42ea-4e3f-b868-0f3633cdc7fc","system_id":"levelo_inurba_marseille","lat":43.27618,"lon":5.36107,"is_reserved":false,"is_disabled":false,"rental_uris":{"android":"levelo://app?vid=ca558d8a-42ea-4e3f-b868-0f3633cdc7fc","ios":"levelo://app?vid=ca558d8a-42ea-4e3f-b868-0f3633cdc7fc"},"vehicle_type_id":"4","last_reported":1750681369,"current_range_meters":12400,"station_id":"ce4bgj92rcd13ifvqbe0","pricing_plan_id":"cebpf4jnsgd1na2vs0mg"},{"bike_id":"684d7ac6-ac5a-4777-8552-8096bce2131e","system_id":"levelo_inurba_marseille","lat":43.305641,"lon":5.365252,"is_reserved":false,"is_disabled":false,"rental_uris":{"android":"levelo://app?vid=684d7ac6-ac5a-4777-8552-8096bce2131e","ios":"levelo://app?vid=684d7ac6-ac5a-4777-8552-8096bce2131e"},"vehicle_type_id":"4","last_reported":1750681369,"current_range_meters":12400,"station_id":"ce4bgs12rcd13ifvqcag","pricing_plan_id":"cebpf4jnsgd1na2vs0mg"},{"bike_id":"0fa7d321-433d-49aa-8587-785cb618c952","system_id":"levelo_inurba_marseille","lat":43.295333,"lon":5.375093,"is_reserved":false,"is_disabled":false,"rental_uris":{"android":"levelo://app?vid=0fa7d321-433d-49aa-8587-785cb618c952","ios":"levelo://app?vid=0fa7d321-433d-49aa-8587-785cb618c952"},"vehicle_type_id":"4","last_reported":1750681369,"current_range_meters":12800,"station_id":"ce4bgkp2rcd13ifvqbmg","pricing_plan_id":"cebpf4jnsgd1na2vs0mg"},{"bike_id":"5b93836b-46c0-408c-b120-74f94009d8e2","system_id":"levelo_inurba_marseille","lat":43.30978,"lon":5.369706,"is_reserved":false,"is_disabled":false,"rental_uris":{"android":"levelo://app?vid=5b93836b-46c0-408c-b120-74f94009d8e2","ios":"levelo://app?vid=5b93836b-46c0-408c-b120-74f94009d8e2"},"vehicle_type_id":"4","last_reported":1750681369,"current_range_meters":12800,"station_id":"ce4bgop2rcd13ifvqc1g","pricing_plan_id":"cebpf4jnsgd1na2vs0mg"},{"bike_id":"9d07857b-9618-498e-ba9d-6a2555510c76","system_id":"levelo_inurba_marseille","lat":43.25003,"lon":5.38925,"is_reserved":false,"is_disabled":false,"rental_uris":{"android":"levelo://app?vid=9d07857b-9618-498e-ba9d-6a2555510c76","ios":"levelo://app?vid=9d07857b-9618-498e-ba9d-6a2555510c76"},"vehicle_type_id":"4","last_reported":1750681369,"current_range_meters":12800,"station_id":"ce4bhgp2rcd13ifvqfd0","pricing_plan_id":"cebpf4jnsgd1na2vs0mg"},{"bike_id":"9a92f04c-8580-45e6-8177-eef468f86f11","system_id":"levelo_inurba_marseille","lat":43.3236,"lon":5.36779,"is_reserved":false,"is_disabled":false,"rental_uris":{"android":"levelo://app?vid=9a92f04c-8580-45e6-8177-eef468f86f11","ios":"levelo://app?vid=9a92f04c-8580-45e6-8177-eef468f86f11"},"vehicle_type_id":"4","last_reported":1750681369,"current_range_meters":12800,"station_id":"ce4bhsh2rcd13ifvqi2g","pricing_plan_id":"cebpf4jnsgd1na2vs0mg"},{"bike_id":"723f5d56-ac33-4c94-8bb8-ee4c6dc93f60","system_id":"levelo_inurba_marseille","lat":43.229347,"lon":5.353787,"is_reserved":false,"is_disabled":false,"rental_uris":{"android":"levelo://app?vid=723f5d56-ac33-4c94-8bb8-ee4c6dc93f60","ios":"levelo://app?vid=723f5d56-ac33-4c94-8bb8-ee4c6dc93f60"},"vehicle_type_id":"4","last_reported":1750681369,"current_range_meters":12800,"station_id":"cpo3532slgdg3j2ikp40","pricing_plan_id":"cebpf4jnsgd1na2vs0mg"},{"bike_id":"3052f7b2-bb91-4a81-836f-18d703055e04","system_id":"levelo_inurba_marseille","lat":43.21744,"lon":5.34605,"is_reserved":false,"is_disabled":false,"rental_uris":{"android":"levelo://app?vid=3052f7b2-bb91-4a81-836f-18d703055e04","ios":"levelo://app?vid=3052f7b2-bb91-4a81-836f-18d703055e04"},"vehicle_type_id":"4","last_reported":1750681369,"current_range_meters":12800,"station_id":"st_cvj6r9ubvosntc0bgbag","pricing_plan_id":"cebpf4jnsgd1na2vs0mg"},{"bike_id":"1382813f-f596-4216-9170-2fca78d6847d","system_id":"levelo_inurba_marseille","lat":43.30546,"lon":5.36561,"is_reserved":false,"is_disabled":false,"rental_uris":{"android":"levelo://app?vid=1382813f-f596-4216-9170-2fca78d6847d","ios":"levelo://app?vid=1382813f-f596-4216-9170-2fca78d6847d"},"vehicle_type_id":"4","last_reported":1750681369,"current_range_meters":13600,"station_id":"ce4bgs12rcd13ifvqcag","pricing_plan_id":"cebpf4jnsgd1na2vs0mg"},{"bike_id":"b41975f4-ffb2-4b43-8c8c-dff1d738cb28","system_id":"levelo_inurba_marseille","lat":43.27842,"lon":5.39222,"is_reserved":false,"is_disabled":false,"rental_uris":{"android":"levelo://app?vid=b41975f4-ffb2-4b43-8c8c-dff1d738cb28","ios":"levelo://app?vid=b41975f4-ffb2-4b43-8c8c-dff1d738cb28"},"vehicle_type_id":"4","last_reported":1750681369,"current_range_meters":13600,"station_id":"ce4bhjp2rcd13ifvqga0","pricing_plan_id":"cebpf4jnsgd1na2vs0mg"},{"bike_id":"fc85cb26-9e39-40ec-bef0-69051a3080ce","system_id":"levelo_inurba_marseille","lat":43.29935,"lon":5.36542,"is_reserved":false,"is_disabled":false,"rental_uris":{"android":"levelo://app?vid=fc85cb26-9e39-40ec-bef0-69051a3080ce","ios":"levelo://app?vid=fc85cb26-9e39-40ec-bef0-69051a3080ce"},"vehicle_type_id":"4","last_reported":1750681369,"current_range_meters":14000,"station_id":"ce4bgm92rcd13ifvqbr0","pricing_plan_id":"cebpf4jnsgd1na2vs0mg"},{"bike_id":"3cd559ee-9c24-48e6-b617-a4d9bb78713f","system_id":"levelo_inurba_marseille","lat":43.304633,"lon":5.379028,"is_reserved":false,"is_disabled":false,"rental_uris":{"android":"levelo://app?vid=3cd559ee-9c24-48e6-b617-a4d9bb78713f","ios":"levelo://app?vid=3cd559ee-9c24-48e6-b617-a4d9bb78713f"},"vehicle_type_id":"4","last_reported":1750681369,"current_range_meters":14000,"station_id":"ce4bgup2rcd13ifvqcn0","pricing_plan_id":"cebpf4jnsgd1na2vs0mg"},{"bike_id":"a69156ca-7afd-4760-8d18-8e2581fdad03","system_id":"levelo_inurba_marseille","lat":43.22932,"lon":5.35385,"is_reserved":false,"is_disabled":false,"rental_uris":{"android":"levelo://app?vid=a69156ca-7afd-4760-8d18-8e2581fdad03","ios":"levelo://app?vid=a69156ca-7afd-4760-8d18-8e2581fdad03"},"vehicle_type_id":"4","last_reported":1750681369,"current_range_meters":14000,"station_id":"cpo3532slgdg3j2ikp40","pricing_plan_id":"cebpf4jnsgd1na2vs0mg"},{"bike_id":"54b2acbe-bee3-4655-bb20-be01d8d7f683","system_id":"levelo_inurba_marseille","lat":43.2743,"lon":5.39421,"is_reserved":false,"is_disabled":false,"rental_uris":{"android":"levelo://app?vid=54b2acbe-bee3-4655-bb20-be01d8d7f683","ios":"levelo://app?vid=54b2acbe-bee3-4655-bb20-be01d8d7f683"},"vehicle_type_id":"4","last_reported":1750681369,"current_range_meters":14400,"station_id":"ce4bhdp2rcd13ifvqf20","pricing_plan_id":"cebpf4jnsgd1na2vs0mg"},{"bike_id":"1b7d0a54-e2ea-4d70-b14f-cf6d44e9d60d","system_id":"levelo_inurba_marseille","lat":43.24388,"lon":5.37056,"is_reserved":false,"is_disabled":false,"rental_uris":{"android":"levelo://app?vid=1b7d0a54-e2ea-4d70-b14f-cf6d44e9d60d","ios":"levelo://app?vid=1b7d0a54-e2ea-4d70-b14f-cf6d44e9d60d"},"vehicle_type_id":"4","last_reported":1750681369,"current_range_meters":14400,"station_id":"ce4bhhh2rcd13ifvqfk0","pricing_plan_id":"cebpf4jnsgd1na2vs0mg"},{"bike_id":"9ad43fe6-1b49-4ea3-9f06-a5733a9a82aa","system_id":"levelo_inurba_marseille","lat":43.211905,"lon":5.350762,"is_reserved":false,"is_disabled":false,"rental_uris":{"android":"levelo://app?vid=9ad43fe6-1b49-4ea3-9f06-a5733a9a82aa","ios":"levelo://app?vid=9ad43fe6-1b49-4ea3-9f06-a5733a9a82aa"},"vehicle_type_id":"4","last_reported":1750681369,"current_range_meters":14800,"station_id":"","pricing_plan_id":"cebpf4jnsgd1na2vs0mg"},{"bike_id":"8b4ff33a-65e7-401f-8604-be89fca175ca","system_id":"levelo_inurba_marseille","lat":43.28939,"lon":5.36633,"is_reserved":false,"is_disabled":false,"rental_uris":{"android":"levelo://app?vid=8b4ff33a-65e7-401f-8604-be89fca175ca","ios":"levelo://app?vid=8b4ff33a-65e7-401f-8604-be89fca175ca"},"vehicle_type_id":"4","last_reported":1750681369,"current_range_meters":14800,"station_id":"ce4bhap2rcd13ifvqek0","pricing_plan_id":"cebpf4jnsgd1na2vs0mg"},{"bike_id":"062bb8ae-8168-414f-b739-eed802adb54e","system_id":"levelo_inurba_marseille","lat":43.24389,"lon":5.3705,"is_reserved":false,"is_disabled":false,"rental_uris":{"android":"levelo://app?vid=062bb8ae-8168-414f-b739-eed802adb54e","ios":"levelo://app?vid=062bb8ae-8168-414f-b739-eed802adb54e"},"vehicle_type_id":"4","last_reported":1750681369,"current_range_meters":14800,"station_id":"ce4bhhh2rcd13ifvqfk0","pricing_plan_id":"cebpf4jnsgd1na2vs0mg"},{"bike_id":"36ee4635-6d58-43c2-8cec-51daaa215973","system_id":"levelo_inurba_marseille","lat":43.2417,"lon":5.36405,"is_reserved":false,"is_disabled":false,"rental_uris":{"android":"levelo://app?vid=36ee4635-6d58-43c2-8cec-51daaa215973","ios":"levelo://app?vid=36ee4635-6d58-43c2-8cec-51daaa215973"},"vehicle_type_id":"4","last_reported":1750681369,"current_range_meters":14800,"station_id":"cpo36qri1sfpv3e86is0","pricing_plan_id":"cebpf4jnsgd1na2vs0mg"},{"bike_id":"d1e50195-3b98-4355-8033-d7cc97e2d52d","system_id":"levelo_inurba_marseille","lat":43.34664,"lon":5.36649,"is_reserved":false,"is_disabled":false,"rental_uris":{"android":"levelo://app?vid=d1e50195-3b98-4355-8033-d7cc97e2d52d","ios":"levelo://app?vid=d1e50195-3b98-4355-8033-d7cc97e2d52d"},"vehicle_type_id":"4","last_reported":1750681369,"current_range_meters":15200,"station_id":"","pricing_plan_id":"cebpf4jnsgd1na2vs0mg"},{"bike_id":"6ed46150-2534-4956-a76f-a644b5e7b8e4","system_id":"levelo_inurba_marseille","lat":43.30146,"lon":5.37407,"is_reserved":false,"is_disabled":false,"rental_uris":{"android":"levelo://app?vid=6ed46150-2534-4956-a76f-a644b5e7b8e4","ios":"levelo://app?vid=6ed46150-2534-4956-a76f-a644b5e7b8e4"},"vehicle_type_id":"4","last_reported":1750681369,"current_range_meters":15200,"station_id":"ce4bgs92rcd13ifvqcc0","pricing_plan_id":"cebpf4jnsgd1na2vs0mg"},{"bike_id":"21743436-16dc-4995-985a-d7022faffd89","system_id":"levelo_inurba_marseille","lat":43.30128,"lon":5.39853,"is_reserved":false,"is_disabled":false,"rental_uris":{"android":"levelo://app?vid=21743436-16dc-4995-985a-d7022faffd89","ios":"levelo://app?vid=21743436-16dc-4995-985a-d7022faffd89"},"vehicle_type_id":"4","last_reported":1750681369,"current_range_meters":15200,"station_id":"ce4bh0h2rcd13ifvqd40","pricing_plan_id":"cebpf4jnsgd1na2vs0mg"},{"bike_id":"dcb10811-af0c-4a83-a2ce-c0bcfa4230a2","system_id":"levelo_inurba_marseille","lat":43.284166,"lon":5.34986,"is_reserved":false,"is_disabled":false,"rental_uris":{"android":"levelo://app?vid=dcb10811-af0c-4a83-a2ce-c0bcfa4230a2","ios":"levelo://app?vid=dcb10811-af0c-4a83-a2ce-c0bcfa4230a2"},"vehicle_type_id":"4","last_reported":1750681369,"current_range_meters":15200,"station_id":"ce4bhbh2rcd13ifvqepg","pricing_plan_id":"cebpf4jnsgd1na2vs0mg"},{"bike_id":"2bbbf54f-6a1e-4833-b090-28bb7a4cd0fa","system_id":"levelo_inurba_marseille","lat":43.26958,"lon":5.38644,"is_reserved":false,"is_disabled":false,"rental_uris":{"android":"levelo://app?vid=2bbbf54f-6a1e-4833-b090-28bb7a4cd0fa","ios":"levelo://app?vid=2bbbf54f-6a1e-4833-b090-28bb7a4cd0fa"},"vehicle_type_id":"4","last_reported":1750681369,"current_range_meters":15200,"station_id":"ce4bhh92rcd13ifvqfh0","pricing_plan_id":"cebpf4jnsgd1na2vs0mg"},{"bike_id":"6a42d39f-0bd8-482c-bccc-97f7d0f86db8","system_id":"levelo_inurba_marseille","lat":43.23161,"lon":5.43732,"is_reserved":false,"is_disabled":false,"rental_uris":{"android":"levelo://app?vid=6a42d39f-0bd8-482c-bccc-97f7d0f86db8","ios":"levelo://app?vid=6a42d39f-0bd8-482c-bccc-97f7d0f86db8"},"vehicle_type_id":"4","last_reported":1750681369,"current_range_meters":15200,"station_id":"ce4bhmp2rcd13ifvqgog","pricing_plan_id":"cebpf4jnsgd1na2vs0mg"},{"bike_id":"48b62853-1baa-42c7-aeab-99152b5dfc89","system_id":"levelo_inurba_marseille","lat":43.317193,"lon":5.437002,"is_reserved":false,"is_disabled":false,"rental_uris":{"android":"levelo://app?vid=48b62853-1baa-42c7-aeab-99152b5dfc89","ios":"levelo://app?vid=48b62853-1baa-42c7-aeab-99152b5dfc89"},"vehicle_type_id":"4","last_reported":1750681369,"current_range_meters":15200,"station_id":"ce4bhp92rcd13ifvqhcg","pricing_plan_id":"cebpf4jnsgd1na2vs0mg"},{"bike_id":"e3c98ea9-5ede-4f57-8f11-2e25041a9538","system_id":"levelo_inurba_marseille","lat":43.29905,"lon":5.43678,"is_reserved":false,"is_disabled":false,"rental_uris":{"android":"levelo://app?vid=e3c98ea9-5ede-4f57-8f11-2e25041a9538","ios":"levelo://app?vid=e3c98ea9-5ede-4f57-8f11-2e25041a9538"},"vehicle_type_id":"4","last_reported":1750681369,"current_range_meters":15200,"station_id":"ce4bhpp2rcd13ifvqhfg","pricing_plan_id":"cebpf4jnsgd1na2vs0mg"},{"bike_id":"1cc9d007-7e10-4d0c-b239-0e689fb9ac9d","system_id":"levelo_inurba_marseille","lat":43.30552,"lon":5.366,"is_reserved":false,"is_disabled":false,"rental_uris":{"android":"levelo://app?vid=1cc9d007-7e10-4d0c-b239-0e689fb9ac9d","ios":"levelo://app?vid=1cc9d007-7e10-4d0c-b239-0e689fb9ac9d"},"vehicle_type_id":"4","last_reported":1750681369,"current_range_meters":16000,"station_id":"ce4bgs12rcd13ifvqcag","pricing_plan_id":"cebpf4jnsgd1na2vs0mg"},{"bike_id":"c7e2a98e-3c52-4efc-a733-c00c682ad432","system_id":"levelo_inurba_marseille","lat":43.30914,"lon":5.39651,"is_reserved":false,"is_disabled":false,"rental_uris":{"android":"levelo://app?vid=c7e2a98e-3c52-4efc-a733-c00c682ad432","ios":"levelo://app?vid=c7e2a98e-3c52-4efc-a733-c00c682ad432"},"vehicle_type_id":"4","last_reported":1750681369,"current_range_meters":16000,"station_id":"ce4bh012rcd13ifvqcv0","pricing_plan_id":"cebpf4jnsgd1na2vs0mg"},{"bike_id":"75a52c5a-7dfb-45e6-af10-d70e253628a7","system_id":"levelo_inurba_marseille","lat":43.285611,"lon":5.383843,"is_reserved":false,"is_disabled":false,"rental_uris":{"android":"levelo://app?vid=75a52c5a-7dfb-45e6-af10-d70e253628a7","ios":"levelo://app?vid=75a52c5a-7dfb-45e6-af10-d70e253628a7"},"vehicle_type_id":"4","last_reported":1750681369,"current_range_meters":16000,"station_id":"ce4bh8p2rcd13ifvqeb0","pricing_plan_id":"cebpf4jnsgd1na2vs0mg"},{"bike_id":"9213f417-38fe-4ac6-ba73-fa7495d6b748","system_id":"levelo_inurba_marseille","lat":43.241695,"lon":5.36399,"is_reserved":false,"is_disabled":false,"rental_uris":{"android":"levelo://app?vid=9213f417-38fe-4ac6-ba73-fa7495d6b748","ios":"levelo://app?vid=9213f417-38fe-4ac6-ba73-fa7495d6b748"},"vehicle_type_id":"4","last_reported":1750681369,"current_range_meters":16000,"station_id":"cpo36qri1sfpv3e86is0","pricing_plan_id":"cebpf4jnsgd1na2vs0mg"},{"bike_id":"3f5feefb-afac-4fae-bf96-2312f50939a4","system_id":"levelo_inurba_marseille","lat":43.21197,"lon":5.35093,"is_reserved":false,"is_disabled":false,"rental_uris":{"android":"levelo://app?vid=3f5feefb-afac-4fae-bf96-2312f50939a4","ios":"levelo://app?vid=3f5feefb-afac-4fae-bf96-2312f50939a4"},"vehicle_type_id":"4","last_reported":1750681369,"current_range_meters":16000,"station_id":"st_cvj6sg6p6f1abm77japg","pricing_plan_id":"cebpf4jnsgd1na2vs0mg"},{"bike_id":"7392fde1-5084-4261-99bb-8a322b520dbf","system_id":"levelo_inurba_marseille","lat":43.29987,"lon":5.37185,"is_reserved":false,"is_disabled":false,"rental_uris":{"android":"levelo://app?vid=7392fde1-5084-4261-99bb-8a322b520dbf","ios":"levelo://app?vid=7392fde1-5084-4261-99bb-8a322b520dbf"},"vehicle_type_id":"4","last_reported":1750681369,"current_range_meters":16400,"station_id":"ce4bgrp2rcd13ifvqc9g","pricing_plan_id":"cebpf4jnsgd1na2vs0mg"},{"bike_id":"fbd0b782-429b-43bb-8841-44d7d21a8d6a","system_id":"levelo_inurba_marseille","lat":43.30581,"lon":5.36565,"is_reserved":false,"is_disabled":false,"rental_uris":{"android":"levelo://app?vid=fbd0b782-429b-43bb-8841-44d7d21a8d6a","ios":"levelo://app?vid=fbd0b782-429b-43bb-8841-44d7d21a8d6a"},"vehicle_type_id":"4","last_reported":1750681369,"current_range_meters":16400,"station_id":"ce4bgs12rcd13ifvqcag","pricing_plan_id":"cebpf4jnsgd1na2vs0mg"},{"bike_id":"84bf028c-b163-4762-bc76-2b34963cd56b","system_id":"levelo_inurba_marseille","lat":43.286654,"lon":5.363497,"is_reserved":false,"is_disabled":false,"rental_uris":{"android":"levelo://app?vid=84bf028c-b163-4762-bc76-2b34963cd56b","ios":"levelo://app?vid=84bf028c-b163-4762-bc76-2b34963cd56b"},"vehicle_type_id":"4","last_reported":1750681369,"current_range_meters":16400,"station_id":"ce4bhah2rcd13ifvqej0","pricing_plan_id":"cebpf4jnsgd1na2vs0mg"},{"bike_id":"38c0c8cc-ef76-4205-b8bb-244b193d7bf4","system_id":"levelo_inurba_marseille","lat":43.28622,"lon":5.35111,"is_reserved":false,"is_disabled":false,"rental_uris":{"android":"levelo://app?vid=38c0c8cc-ef76-4205-b8bb-244b193d7bf4","ios":"levelo://app?vid=38c0c8cc-ef76-4205-b8bb-244b193d7bf4"},"vehicle_type_id":"4","last_reported":1750681369,"current_range_meters":16400,"station_id":"ce4bhch2rcd13ifvqeug","pricing_plan_id":"cebpf4jnsgd1na2vs0mg"},{"bike_id":"c0b3b047-0a1d-447b-abc5-e14c12a1bbc6","system_id":"levelo_inurba_marseille","lat":43.26686,"lon":5.38282,"is_reserved":false,"is_disabled":false,"rental_uris":{"android":"levelo://app?vid=c0b3b047-0a1d-447b-abc5-e14c12a1bbc6","ios":"levelo://app?vid=c0b3b047-0a1d-447b-abc5-e14c12a1bbc6"},"vehicle_type_id":"4","last_reported":1750681369,"current_range_meters":16400,"station_id":"ce4bhg92rcd13ifvqf90","pricing_plan_id":"cebpf4jnsgd1na2vs0mg"},{"bike_id":"58e3de6a-5eab-4f18-9436-2c0a5c2808fe","system_id":"levelo_inurba_marseille","lat":43.26214,"lon":5.37424,"is_reserved":false,"is_disabled":false,"rental_uris":{"android":"levelo://app?vid=58e3de6a-5eab-4f18-9436-2c0a5c2808fe","ios":"levelo://app?vid=58e3de6a-5eab-4f18-9436-2c0a5c2808fe"},"vehicle_type_id":"4","last_reported":1750681369,"current_range_meters":16400,"station_id":"ce4bhgp2rcd13ifvqfc0","pricing_plan_id":"cebpf4jnsgd1na2vs0mg"},{"bike_id":"e77b75b6-d130-43a3-abb4-254740d44e61","system_id":"levelo_inurba_marseille","lat":43.24173,"lon":5.36394,"is_reserved":false,"is_disabled":false,"rental_uris":{"android":"levelo://app?vid=e77b75b6-d130-43a3-abb4-254740d44e61","ios":"levelo://app?vid=e77b75b6-d130-43a3-abb4-254740d44e61"},"vehicle_type_id":"4","last_reported":1750681369,"current_range_meters":16400,"station_id":"cpo36qri1sfpv3e86is0","pricing_plan_id":"cebpf4jnsgd1na2vs0mg"},{"bike_id":"f2479ec5-2f13-4f00-bb84-fab82f46d308","system_id":"levelo_inurba_marseille","lat":43.25771,"lon":5.38968,"is_reserved":false,"is_disabled":false,"rental_uris":{"android":"levelo://app?vid=f2479ec5-2f13-4f00-bb84-fab82f46d308","ios":"levelo://app?vid=f2479ec5-2f13-4f00-bb84-fab82f46d308"},"vehicle_type_id":"4","last_reported":1750681369,"current_range_meters":16800,"station_id":"","pricing_plan_id":"cebpf4jnsgd1na2vs0mg"},{"bike_id":"709c1451-0f01-4113-a733-ed7dbe8abbe7","system_id":"levelo_inurba_marseille","lat":43.30549,"lon":5.36546,"is_reserved":false,"is_disabled":false,"rental_uris":{"android":"levelo://app?vid=709c1451-0f01-4113-a733-ed7dbe8abbe7","ios":"levelo://app?vid=709c1451-0f01-4113-a733-ed7dbe8abbe7"},"vehicle_type_id":"4","last_reported":1750681369,"current_range_meters":16800,"station_id":"ce4bgs12rcd13ifvqcag","pricing_plan_id":"cebpf4jnsgd1na2vs0mg"},{"bike_id":"267530db-e5d3-4fba-912b-d9efcb1f5abe","system_id":"levelo_inurba_marseille","lat":43.30798,"lon":5.37655,"is_reserved":false,"is_disabled":false,"rental_uris":{"android":"levelo://app?vid=267530db-e5d3-4fba-912b-d9efcb1f5abe","ios":"levelo://app?vid=267530db-e5d3-4fba-912b-d9efcb1f5abe"},"vehicle_type_id":"4","last_reported":1750681369,"current_range_meters":16800,"station_id":"ce4bgv92rcd13ifvqcq0","pricing_plan_id":"cebpf4jnsgd1na2vs0mg"},{"bike_id":"b56cdc80-ecc6-4634-929d-f06bf3f34354","system_id":"levelo_inurba_marseille","lat":43.31706,"lon":5.40462,"is_reserved":false,"is_disabled":false,"rental_uris":{"android":"levelo://app?vid=b56cdc80-ecc6-4634-929d-f06bf3f34354","ios":"levelo://app?vid=b56cdc80-ecc6-4634-929d-f06bf3f34354"},"vehicle_type_id":"4","last_reported":1750681369,"current_range_meters":16800,"station_id":"ce4bh012rcd13ifvqd00","pricing_plan_id":"cebpf4jnsgd1na2vs0mg"},{"bike_id":"9afca751-df61-49b9-833f-118cf73350ca","system_id":"levelo_inurba_marseille","lat":43.243938,"lon":5.370633,"is_reserved":false,"is_disabled":false,"rental_uris":{"android":"levelo://app?vid=9afca751-df61-49b9-833f-118cf73350ca","ios":"levelo://app?vid=9afca751-df61-49b9-833f-118cf73350ca"},"vehicle_type_id":"4","last_reported":1750681369,"current_range_meters":16800,"station_id":"ce4bhhh2rcd13ifvqfk0","pricing_plan_id":"cebpf4jnsgd1na2vs0mg"},{"bike_id":"c408c062-199b-4921-b546-a1eb903aabb8","system_id":"levelo_inurba_marseille","lat":43.239648,"lon":5.366351,"is_reserved":false,"is_disabled":false,"rental_uris":{"android":"levelo://app?vid=c408c062-199b-4921-b546-a1eb903aabb8","ios":"levelo://app?vid=c408c062-199b-4921-b546-a1eb903aabb8"},"vehicle_type_id":"4","last_reported":1750681369,"current_range_meters":16800,"station_id":"ce4bhi12rcd13ifvqfp0","pricing_plan_id":"cebpf4jnsgd1na2vs0mg"},{"bike_id":"950f7f9f-899b-47e3-b097-2ade7879ad8f","system_id":"levelo_inurba_marseille","lat":43.27075,"lon":5.42256,"is_reserved":false,"is_disabled":false,"rental_uris":{"android":"levelo://app?vid=950f7f9f-899b-47e3-b097-2ade7879ad8f","ios":"levelo://app?vid=950f7f9f-899b-47e3-b097-2ade7879ad8f"},"vehicle_type_id":"4","last_reported":1750681369,"current_range_meters":16800,"station_id":"ce4bhk92rcd13ifvqgb0","pricing_plan_id":"cebpf4jnsgd1na2vs0mg"},{"bike_id":"d3b4acd1-475d-43e1-bb04-3b5b22c96457","system_id":"levelo_inurba_marseille","lat":43.29912,"lon":5.43675,"is_reserved":false,"is_disabled":false,"rental_uris":{"android":"levelo://app?vid=d3b4acd1-475d-43e1-bb04-3b5b22c96457","ios":"levelo://app?vid=d3b4acd1-475d-43e1-bb04-3b5b22c96457"},"vehicle_type_id":"4","last_reported":1750681369,"current_range_meters":16800,"station_id":"ce4bhpp2rcd13ifvqhfg","pricing_plan_id":"cebpf4jnsgd1na2vs0mg"},{"bike_id":"708a5153-e9eb-4b8c-828a-f2918a7ff712","system_id":"levelo_inurba_marseille","lat":43.337176,"lon":5.391821,"is_reserved":false,"is_disabled":false,"rental_uris":{"android":"levelo://app?vid=708a5153-e9eb-4b8c-828a-f2918a7ff712","ios":"levelo://app?vid=708a5153-e9eb-4b8c-828a-f2918a7ff712"},"vehicle_type_id":"4","last_reported":1750681369,"current_range_meters":16800,"station_id":"ce4bhr92rcd13ifvqhsg","pricing_plan_id":"cebpf4jnsgd1na2vs0mg"},{"bike_id":"c6de97fd-de18-4c55-8dba-2899551c4326","system_id":"levelo_inurba_marseille","lat":43.26944,"lon":5.40258,"is_reserved":false,"is_disabled":false,"rental_uris":{"android":"levelo://app?vid=c6de97fd-de18-4c55-8dba-2899551c4326","ios":"levelo://app?vid=c6de97fd-de18-4c55-8dba-2899551c4326"},"vehicle_type_id":"4","last_reported":1750681369,"current_range_meters":16800,"station_id":"cjm6bp8fraef2m0cb0m0","pricing_plan_id":"cebpf4jnsgd1na2vs0mg"},{"bike_id":"66fe660e-bbbe-4cd1-b5fb-9344c71cb66e","system_id":"levelo_inurba_marseille","lat":43.211951,"lon":5.350676,"is_reserved":false,"is_disabled":false,"rental_uris":{"android":"levelo://app?vid=66fe660e-bbbe-4cd1-b5fb-9344c71cb66e","ios":"levelo://app?vid=66fe660e-bbbe-4cd1-b5fb-9344c71cb66e"},"vehicle_type_id":"4","last_reported":1750681369,"current_range_meters":16800,"station_id":"st_cvj6sg6p6f1abm77japg","pricing_plan_id":"cebpf4jnsgd1na2vs0mg"},{"bike_id":"aa7ccc51-994c-4657-93fc-3ef5de9776c6","system_id":"levelo_inurba_marseille","lat":43.291979,"lon":5.358054,"is_reserved":false,"is_disabled":false,"rental_uris":{"android":"levelo://app?vid=aa7ccc51-994c-4657-93fc-3ef5de9776c6","ios":"levelo://app?vid=aa7ccc51-994c-4657-93fc-3ef5de9776c6"},"vehicle_type_id":"4","last_reported":1750681369,"current_range_meters":17200,"station_id":"","pricing_plan_id":"cebpf4jnsgd1na2vs0mg"},{"bike_id":"7bd7ab6e-0284-4340-acb8-397b5bd3427c","system_id":"levelo_inurba_marseille","lat":43.32023,"lon":5.36804,"is_reserved":false,"is_disabled":false,"rental_uris":{"android":"levelo://app?vid=7bd7ab6e-0284-4340-acb8-397b5bd3427c","ios":"levelo://app?vid=7bd7ab6e-0284-4340-acb8-397b5bd3427c"},"vehicle_type_id":"4","last_reported":1750681369,"current_range_meters":17200,"station_id":"","pricing_plan_id":"cebpf4jnsgd1na2vs0mg"},{"bike_id":"d600b302-e4ef-465d-804e-61901faeca8b","system_id":"levelo_inurba_marseille","lat":43.301271,"lon":5.38789,"is_reserved":false,"is_disabled":false,"rental_uris":{"android":"levelo://app?vid=d600b302-e4ef-465d-804e-61901faeca8b","ios":"levelo://app?vid=d600b302-e4ef-465d-804e-61901faeca8b"},"vehicle_type_id":"4","last_reported":1750681369,"current_range_meters":17200,"station_id":"ce4bghh2rcd13ifvqb60","pricing_plan_id":"cebpf4jnsgd1na2vs0mg"},{"bike_id":"79cdb9d1-deee-4492-b744-294838dd3cc7","system_id":"levelo_inurba_marseille","lat":43.303015,"lon":5.391943,"is_reserved":false,"is_disabled":false,"rental_uris":{"android":"levelo://app?vid=79cdb9d1-deee-4492-b744-294838dd3cc7","ios":"levelo://app?vid=79cdb9d1-deee-4492-b744-294838dd3cc7"},"vehicle_type_id":"4","last_reported":1750681369,"current_range_meters":17200,"station_id":"ce4bgkh2rcd13ifvqbk0","pricing_plan_id":"cebpf4jnsgd1na2vs0mg"},{"bike_id":"276d6de1-6e9c-49d2-92b1-e036d0d599bb","system_id":"levelo_inurba_marseille","lat":43.29788,"lon":5.37089,"is_reserved":false,"is_disabled":false,"rental_uris":{"android":"levelo://app?vid=276d6de1-6e9c-49d2-92b1-e036d0d599bb","ios":"levelo://app?vid=276d6de1-6e9c-49d2-92b1-e036d0d599bb"},"vehicle_type_id":"4","last_reported":1750681369,"current_range_meters":17200,"station_id":"ce4bgop2rcd13ifvqc1g","pricing_plan_id":"cebpf4jnsgd1na2vs0mg"},{"bike_id":"12b357fa-8838-4257-9b79-30e803e51cc2","system_id":"levelo_inurba_marseille","lat":43.28708,"lon":5.37937,"is_reserved":false,"is_disabled":false,"rental_uris":{"android":"levelo://app?vid=12b357fa-8838-4257-9b79-30e803e51cc2","ios":"levelo://app?vid=12b357fa-8838-4257-9b79-30e803e51cc2"},"vehicle_type_id":"4","last_reported":1750681369,"current_range_meters":17200,"station_id":"ce4bh9p2rcd13ifvqec0","pricing_plan_id":"cebpf4jnsgd1na2vs0mg"},{"bike_id":"af8ac115-b126-43d0-8dc2-1ca55684e741","system_id":"levelo_inurba_marseille","lat":43.28428,"lon":5.3501,"is_reserved":false,"is_disabled":false,"rental_uris":{"android":"levelo://app?vid=af8ac115-b126-43d0-8dc2-1ca55684e741","ios":"levelo://app?vid=af8ac115-b126-43d0-8dc2-1ca55684e741"},"vehicle_type_id":"4","last_reported":1750681369,"current_range_meters":17200,"station_id":"ce4bhbh2rcd13ifvqepg","pricing_plan_id":"cebpf4jnsgd1na2vs0mg"},{"bike_id":"ced7d9b8-daf0-4ecf-83e7-eba514b245c2","system_id":"levelo_inurba_marseille","lat":43.24392,"lon":5.37062,"is_reserved":false,"is_disabled":false,"rental_uris":{"android":"levelo://app?vid=ced7d9b8-daf0-4ecf-83e7-eba514b245c2","ios":"levelo://app?vid=ced7d9b8-daf0-4ecf-83e7-eba514b245c2"},"vehicle_type_id":"4","last_reported":1750681369,"current_range_meters":17200,"station_id":"ce4bhhh2rcd13ifvqfk0","pricing_plan_id":"cebpf4jnsgd1na2vs0mg"},{"bike_id":"7028f74e-f5b1-4ba4-9516-c6cba275b3a1","system_id":"levelo_inurba_marseille","lat":43.25934,"lon":5.40906,"is_reserved":false,"is_disabled":false,"rental_uris":{"android":"levelo://app?vid=7028f74e-f5b1-4ba4-9516-c6cba275b3a1","ios":"levelo://app?vid=7028f74e-f5b1-4ba4-9516-c6cba275b3a1"},"vehicle_type_id":"4","last_reported":1750681369,"current_range_meters":17200,"station_id":"ce4bhm92rcd13ifvqglg","pricing_plan_id":"cebpf4jnsgd1na2vs0mg"},{"bike_id":"a2f82b75-0ebb-4c75-a9d4-11be415acd0c","system_id":"levelo_inurba_marseille","lat":43.33607,"lon":5.41013,"is_reserved":false,"is_disabled":false,"rental_uris":{"android":"levelo://app?vid=a2f82b75-0ebb-4c75-a9d4-11be415acd0c","ios":"levelo://app?vid=a2f82b75-0ebb-4c75-a9d4-11be415acd0c"},"vehicle_type_id":"4","last_reported":1750681369,"current_range_meters":17200,"station_id":"ce4bhqh2rcd13ifvqhmg","pricing_plan_id":"cebpf4jnsgd1na2vs0mg"},{"bike_id":"a47b3ca7-ac74-4aca-9c76-314ff6c96723","system_id":"levelo_inurba_marseille","lat":43.24161,"lon":5.36399,"is_reserved":false,"is_disabled":false,"rental_uris":{"android":"levelo://app?vid=a47b3ca7-ac74-4aca-9c76-314ff6c96723","ios":"levelo://app?vid=a47b3ca7-ac74-4aca-9c76-314ff6c96723"},"vehicle_type_id":"4","last_reported":1750681369,"current_range_meters":17200,"station_id":"cpo36qri1sfpv3e86is0","pricing_plan_id":"cebpf4jnsgd1na2vs0mg"},{"bike_id":"c3b67a3c-755c-43da-b7f2-a4d8a045bf9d","system_id":"levelo_inurba_marseille","lat":43.21198,"lon":5.35078,"is_reserved":false,"is_disabled":false,"rental_uris":{"android":"levelo://app?vid=c3b67a3c-755c-43da-b7f2-a4d8a045bf9d","ios":"levelo://app?vid=c3b67a3c-755c-43da-b7f2-a4d8a045bf9d"},"vehicle_type_id":"4","last_reported":1750681369,"current_range_meters":17200,"station_id":"st_cvj6sg6p6f1abm77japg","pricing_plan_id":"cebpf4jnsgd1na2vs0mg"},{"bike_id":"ff359b06-e82b-4518-b602-f9c62162a27d","system_id":"levelo_inurba_marseille","lat":43.21199,"lon":5.35059,"is_reserved":false,"is_disabled":false,"rental_uris":{"android":"levelo://app?vid=ff359b06-e82b-4518-b602-f9c62162a27d","ios":"levelo://app?vid=ff359b06-e82b-4518-b602-f9c62162a27d"},"vehicle_type_id":"4","last_reported":1750681369,"current_range_meters":17200,"station_id":"st_cvj6sg6p6f1abm77japg","pricing_plan_id":"cebpf4jnsgd1na2vs0mg"},{"bike_id":"8bc99dda-0ecb-4209-a614-58636df6b374","system_id":"levelo_inurba_marseille","lat":43.21196,"lon":5.35074,"is_reserved":false,"is_disabled":false,"rental_uris":{"android":"levelo://app?vid=8bc99dda-0ecb-4209-a614-58636df6b374","ios":"levelo://app?vid=8bc99dda-0ecb-4209-a614-58636df6b374"},"vehicle_type_id":"4","last_reported":1750681369,"current_range_meters":17200,"station_id":"st_cvj6sg6p6f1abm77japg","pricing_plan_id":"cebpf4jnsgd1na2vs0mg"},{"bike_id":"5084f12b-10e7-40ef-b036-fbc93427303b","system_id":"levelo_inurba_marseille","lat":43.25942,"lon":5.409,"is_reserved":false,"is_disabled":false,"rental_uris":{"android":"levelo://app?vid=5084f12b-10e7-40ef-b036-fbc93427303b","ios":"levelo://app?vid=5084f12b-10e7-40ef-b036-fbc93427303b"},"vehicle_type_id":"4","last_reported":1750681369,"current_range_meters":17600,"station_id":"ce4bhm92rcd13ifvqglg","pricing_plan_id":"cebpf4jnsgd1na2vs0mg"},{"bike_id":"e6e1ec66-36d4-41d2-872a-c2836e7851fd","system_id":"levelo_inurba_marseille","lat":43.21751,"lon":5.34602,"is_reserved":false,"is_disabled":false,"rental_uris":{"android":"levelo://app?vid=e6e1ec66-36d4-41d2-872a-c2836e7851fd","ios":"levelo://app?vid=e6e1ec66-36d4-41d2-872a-c2836e7851fd"},"vehicle_type_id":"4","last_reported":1750681369,"current_range_meters":17600,"station_id":"st_cvj6r9ubvosntc0bgbag","pricing_plan_id":"cebpf4jnsgd1na2vs0mg"},{"bike_id":"b6b861fa-fd27-43ad-89fb-4be1a264be92","system_id":"levelo_inurba_marseille","lat":43.25307,"lon":5.37497,"is_reserved":false,"is_disabled":false,"rental_uris":{"android":"levelo://app?vid=b6b861fa-fd27-43ad-89fb-4be1a264be92","ios":"levelo://app?vid=b6b861fa-fd27-43ad-89fb-4be1a264be92"},"vehicle_type_id":"4","last_reported":1750681369,"current_range_meters":18000,"station_id":"","pricing_plan_id":"cebpf4jnsgd1na2vs0mg"},{"bike_id":"55b6c2dc-b7db-476c-b842-cecfcf0069df","system_id":"levelo_inurba_marseille","lat":43.23794,"lon":5.36414,"is_reserved":false,"is_disabled":false,"rental_uris":{"android":"levelo://app?vid=55b6c2dc-b7db-476c-b842-cecfcf0069df","ios":"levelo://app?vid=55b6c2dc-b7db-476c-b842-cecfcf0069df"},"vehicle_type_id":"4","last_reported":1750681369,"current_range_meters":18000,"station_id":"","pricing_plan_id":"cebpf4jnsgd1na2vs0mg"},{"bike_id":"7c3f6852-4f29-42a9-a8c1-e2b82bb43fcf","system_id":"levelo_inurba_marseille","lat":43.29262,"lon":5.42673,"is_reserved":false,"is_disabled":false,"rental_uris":{"android":"levelo://app?vid=7c3f6852-4f29-42a9-a8c1-e2b82bb43fcf","ios":"levelo://app?vid=7c3f6852-4f29-42a9-a8c1-e2b82bb43fcf"},"vehicle_type_id":"4","last_reported":1750681369,"current_range_meters":18000,"station_id":"","pricing_plan_id":"cebpf4jnsgd1na2vs0mg"},{"bike_id":"9de81781-7b2f-478d-bb3c-feacb6b7bfd7","system_id":"levelo_inurba_marseille","lat":43.30132,"lon":5.39859,"is_reserved":false,"is_disabled":false,"rental_uris":{"android":"levelo://app?vid=9de81781-7b2f-478d-bb3c-feacb6b7bfd7","ios":"levelo://app?vid=9de81781-7b2f-478d-bb3c-feacb6b7bfd7"},"vehicle_type_id":"4","last_reported":1750681369,"current_range_meters":18000,"station_id":"ce4bh0h2rcd13ifvqd40","pricing_plan_id":"cebpf4jnsgd1na2vs0mg"},{"bike_id":"11ec98fd-600d-4cd9-af5f-c0a30aa69154","system_id":"levelo_inurba_marseille","lat":43.28366,"lon":5.38631,"is_reserved":false,"is_disabled":false,"rental_uris":{"android":"levelo://app?vid=11ec98fd-600d-4cd9-af5f-c0a30aa69154","ios":"levelo://app?vid=11ec98fd-600d-4cd9-af5f-c0a30aa69154"},"vehicle_type_id":"4","last_reported":1750681369,"current_range_meters":18000,"station_id":"ce4bh492rcd13ifvqdvg","pricing_plan_id":"cebpf4jnsgd1na2vs0mg"},{"bike_id":"f8896ba2-3db9-45b6-953c-cc2fa71c33fc","system_id":"levelo_inurba_marseille","lat":43.265552,"lon":5.372892,"is_reserved":false,"is_disabled":false,"rental_uris":{"android":"levelo://app?vid=f8896ba2-3db9-45b6-953c-cc2fa71c33fc","ios":"levelo://app?vid=f8896ba2-3db9-45b6-953c-cc2fa71c33fc"},"vehicle_type_id":"4","last_reported":1750681369,"current_range_meters":18000,"station_id":"ce4bhg12rcd13ifvqf70","pricing_plan_id":"cebpf4jnsgd1na2vs0mg"},{"bike_id":"cdab7ea0-0a3c-444a-adba-369c02ca39d9","system_id":"levelo_inurba_marseille","lat":43.27498,"lon":5.42455,"is_reserved":false,"is_disabled":false,"rental_uris":{"android":"levelo://app?vid=cdab7ea0-0a3c-444a-adba-369c02ca39d9","ios":"levelo://app?vid=cdab7ea0-0a3c-444a-adba-369c02ca39d9"},"vehicle_type_id":"4","last_reported":1750681369,"current_range_meters":18000,"station_id":"ce4bhn92rcd13ifvqgrg","pricing_plan_id":"cebpf4jnsgd1na2vs0mg"},{"bike_id":"f1f219f8-ce94-4d65-be05-bffbfbc9de73","system_id":"levelo_inurba_marseille","lat":43.307987,"lon":5.435214,"is_reserved":false,"is_disabled":false,"rental_uris":{"android":"levelo://app?vid=f1f219f8-ce94-4d65-be05-bffbfbc9de73","ios":"levelo://app?vid=f1f219f8-ce94-4d65-be05-bffbfbc9de73"},"vehicle_type_id":"4","last_reported":1750681369,"current_range_meters":18000,"station_id":"ce4bhph2rcd13ifvqheg","pricing_plan_id":"cebpf4jnsgd1na2vs0mg"},{"bike_id":"7f645385-71ee-4fab-9b34-7befb56d29a6","system_id":"levelo_inurba_marseille","lat":43.21197,"lon":5.3506,"is_reserved":false,"is_disabled":false,"rental_uris":{"android":"levelo://app?vid=7f645385-71ee-4fab-9b34-7befb56d29a6","ios":"levelo://app?vid=7f645385-71ee-4fab-9b34-7befb56d29a6"},"vehicle_type_id":"4","last_reported":1750681369,"current_range_meters":18000,"station_id":"st_cvj6sg6p6f1abm77japg","pricing_plan_id":"cebpf4jnsgd1na2vs0mg"},{"bike_id":"2c945723-e6ce-421d-ab70-9119b09be8fc","system_id":"levelo_inurba_marseille","lat":43.289447,"lon":5.363923,"is_reserved":false,"is_disabled":false,"rental_uris":{"android":"levelo://app?vid=2c945723-e6ce-421d-ab70-9119b09be8fc","ios":"levelo://app?vid=2c945723-e6ce-421d-ab70-9119b09be8fc"},"vehicle_type_id":"4","last_reported":1750681369,"current_range_meters":18800,"station_id":"","pricing_plan_id":"cebpf4jnsgd1na2vs0mg"},{"bike_id":"75581321-cba9-4754-b559-ca5dbf86db91","system_id":"levelo_inurba_marseille","lat":43.299193,"lon":5.374555,"is_reserved":false,"is_disabled":false,"rental_uris":{"android":"levelo://app?vid=75581321-cba9-4754-b559-ca5dbf86db91","ios":"levelo://app?vid=75581321-cba9-4754-b559-ca5dbf86db91"},"vehicle_type_id":"4","last_reported":1750681369,"current_range_meters":18800,"station_id":"ce4bgjh2rcd13ifvqbg0","pricing_plan_id":"cebpf4jnsgd1na2vs0mg"},{"bike_id":"f97294e2-1f5a-4b99-a149-b6025574b075","system_id":"levelo_inurba_marseille","lat":43.31329,"lon":5.39686,"is_reserved":false,"is_disabled":false,"rental_uris":{"android":"levelo://app?vid=f97294e2-1f5a-4b99-a149-b6025574b075","ios":"levelo://app?vid=f97294e2-1f5a-4b99-a149-b6025574b075"},"vehicle_type_id":"4","last_reported":1750681369,"current_range_meters":18800,"station_id":"ce4bgvp2rcd13ifvqcu0","pricing_plan_id":"cebpf4jnsgd1na2vs0mg"},{"bike_id":"cfbf8aea-4be3-4e57-b670-f32dce5a6b36","system_id":"levelo_inurba_marseille","lat":43.24648,"lon":5.38898,"is_reserved":false,"is_disabled":false,"rental_uris":{"android":"levelo://app?vid=cfbf8aea-4be3-4e57-b670-f32dce5a6b36","ios":"levelo://app?vid=cfbf8aea-4be3-4e57-b670-f32dce5a6b36"},"vehicle_type_id":"4","last_reported":1750681369,"current_range_meters":18800,"station_id":"ce4bhg12rcd13ifvqf60","pricing_plan_id":"cebpf4jnsgd1na2vs0mg"},{"bike_id":"cef721fd-afe4-48d0-89b0-0777a634e87f","system_id":"levelo_inurba_marseille","lat":43.24411,"lon":5.37123,"is_reserved":false,"is_disabled":false,"rental_uris":{"android":"levelo://app?vid=cef721fd-afe4-48d0-89b0-0777a634e87f","ios":"levelo://app?vid=cef721fd-afe4-48d0-89b0-0777a634e87f"},"vehicle_type_id":"4","last_reported":1750681369,"current_range_meters":18800,"station_id":"ce4bhhh2rcd13ifvqfk0","pricing_plan_id":"cebpf4jnsgd1na2vs0mg"},{"bike_id":"dae444a2-a17a-4dac-8fa0-de2b9dc93eae","system_id":"levelo_inurba_marseille","lat":43.23153,"lon":5.43734,"is_reserved":false,"is_disabled":false,"rental_uris":{"android":"levelo://app?vid=dae444a2-a17a-4dac-8fa0-de2b9dc93eae","ios":"levelo://app?vid=dae444a2-a17a-4dac-8fa0-de2b9dc93eae"},"vehicle_type_id":"4","last_reported":1750681369,"current_range_meters":18800,"station_id":"ce4bhmp2rcd13ifvqgog","pricing_plan_id":"cebpf4jnsgd1na2vs0mg"},{"bike_id":"ffb9feac-bb19-46ec-b280-10de336104b2","system_id":"levelo_inurba_marseille","lat":43.32555,"lon":5.41424,"is_reserved":false,"is_disabled":false,"rental_uris":{"android":"levelo://app?vid=ffb9feac-bb19-46ec-b280-10de336104b2","ios":"levelo://app?vid=ffb9feac-bb19-46ec-b280-10de336104b2"},"vehicle_type_id":"4","last_reported":1750681369,"current_range_meters":18800,"station_id":"ce4bhq12rcd13ifvqhhg","pricing_plan_id":"cebpf4jnsgd1na2vs0mg"},{"bike_id":"188d4fce-4db2-4c22-b866-f7871bae90c0","system_id":"levelo_inurba_marseille","lat":43.32066,"lon":5.36907,"is_reserved":false,"is_disabled":false,"rental_uris":{"android":"levelo://app?vid=188d4fce-4db2-4c22-b866-f7871bae90c0","ios":"levelo://app?vid=188d4fce-4db2-4c22-b866-f7871bae90c0"},"vehicle_type_id":"4","last_reported":1750681369,"current_range_meters":18800,"station_id":"ce4bhrh2rcd13ifvqhug","pricing_plan_id":"cebpf4jnsgd1na2vs0mg"},{"bike_id":"122b840d-085e-4424-b222-8443b08a7d00","system_id":"levelo_inurba_marseille","lat":43.21767,"lon":5.34595,"is_reserved":false,"is_disabled":false,"rental_uris":{"android":"levelo://app?vid=122b840d-085e-4424-b222-8443b08a7d00","ios":"levelo://app?vid=122b840d-085e-4424-b222-8443b08a7d00"},"vehicle_type_id":"4","last_reported":1750681369,"current_range_meters":18800,"station_id":"st_cvj6r9ubvosntc0bgbag","pricing_plan_id":"cebpf4jnsgd1na2vs0mg"},{"bike_id":"801c2515-e061-4ec1-b305-97c3a566a070","system_id":"levelo_inurba_marseille","lat":43.211921,"lon":5.350679,"is_reserved":false,"is_disabled":false,"rental_uris":{"android":"levelo://app?vid=801c2515-e061-4ec1-b305-97c3a566a070","ios":"levelo://app?vid=801c2515-e061-4ec1-b305-97c3a566a070"},"vehicle_type_id":"4","last_reported":1750681369,"current_range_meters":18800,"station_id":"st_cvj6sg6p6f1abm77japg","pricing_plan_id":"cebpf4jnsgd1na2vs0mg"},{"bike_id":"3cd404d1-613f-4351-8fdf-d20535e0aa98","system_id":"levelo_inurba_marseille","lat":43.337444,"lon":5.374475,"is_reserved":false,"is_disabled":false,"rental_uris":{"android":"levelo://app?vid=3cd404d1-613f-4351-8fdf-d20535e0aa98","ios":"levelo://app?vid=3cd404d1-613f-4351-8fdf-d20535e0aa98"},"vehicle_type_id":"4","last_reported":1750681369,"current_range_meters":19200,"station_id":"","pricing_plan_id":"cebpf4jnsgd1na2vs0mg"},{"bike_id":"71fc1d16-dace-4077-bf22-e91ef38f8edb","system_id":"levelo_inurba_marseille","lat":43.31343,"lon":5.36717,"is_reserved":false,"is_disabled":false,"rental_uris":{"android":"levelo://app?vid=71fc1d16-dace-4077-bf22-e91ef38f8edb","ios":"levelo://app?vid=71fc1d16-dace-4077-bf22-e91ef38f8edb"},"vehicle_type_id":"4","last_reported":1750681369,"current_range_meters":19200,"station_id":"ce4bgr92rcd13ifvqc6g","pricing_plan_id":"cebpf4jnsgd1na2vs0mg"},{"bike_id":"474bcb88-d0c7-4b66-9448-fa494152dbbd","system_id":"levelo_inurba_marseille","lat":43.30143,"lon":5.39868,"is_reserved":false,"is_disabled":false,"rental_uris":{"android":"levelo://app?vid=474bcb88-d0c7-4b66-9448-fa494152dbbd","ios":"levelo://app?vid=474bcb88-d0c7-4b66-9448-fa494152dbbd"},"vehicle_type_id":"4","last_reported":1750681369,"current_range_meters":19200,"station_id":"ce4bh0h2rcd13ifvqd40","pricing_plan_id":"cebpf4jnsgd1na2vs0mg"},{"bike_id":"62147c36-1723-46e1-887d-dc1794a6b6bd","system_id":"levelo_inurba_marseille","lat":43.25932,"lon":5.40907,"is_reserved":false,"is_disabled":false,"rental_uris":{"android":"levelo://app?vid=62147c36-1723-46e1-887d-dc1794a6b6bd","ios":"levelo://app?vid=62147c36-1723-46e1-887d-dc1794a6b6bd"},"vehicle_type_id":"4","last_reported":1750681369,"current_range_meters":19200,"station_id":"ce4bhm92rcd13ifvqglg","pricing_plan_id":"cebpf4jnsgd1na2vs0mg"},{"bike_id":"3fcd71f7-9584-4b65-9284-45efec287bd3","system_id":"levelo_inurba_marseille","lat":43.33592,"lon":5.40993,"is_reserved":false,"is_disabled":false,"rental_uris":{"android":"levelo://app?vid=3fcd71f7-9584-4b65-9284-45efec287bd3","ios":"levelo://app?vid=3fcd71f7-9584-4b65-9284-45efec287bd3"},"vehicle_type_id":"4","last_reported":1750681369,"current_range_meters":19200,"station_id":"ce4bhqh2rcd13ifvqhmg","pricing_plan_id":"cebpf4jnsgd1na2vs0mg"},{"bike_id":"9871c15c-3b9a-4c6f-a49d-a85d327ee8d8","system_id":"levelo_inurba_marseille","lat":43.2175,"lon":5.34602,"is_reserved":false,"is_disabled":false,"rental_uris":{"android":"levelo://app?vid=9871c15c-3b9a-4c6f-a49d-a85d327ee8d8","ios":"levelo://app?vid=9871c15c-3b9a-4c6f-a49d-a85d327ee8d8"},"vehicle_type_id":"4","last_reported":1750681369,"current_range_meters":19200,"station_id":"st_cvj6r9ubvosntc0bgbag","pricing_plan_id":"cebpf4jnsgd1na2vs0mg"},{"bike_id":"e6c51a1d-33ea-41ac-b9a2-8996574b46a1","system_id":"levelo_inurba_marseille","lat":43.211907,"lon":5.350714,"is_reserved":false,"is_disabled":false,"rental_uris":{"android":"levelo://app?vid=e6c51a1d-33ea-41ac-b9a2-8996574b46a1","ios":"levelo://app?vid=e6c51a1d-33ea-41ac-b9a2-8996574b46a1"},"vehicle_type_id":"4","last_reported":1750681369,"current_range_meters":19200,"station_id":"st_cvj6sg6p6f1abm77japg","pricing_plan_id":"cebpf4jnsgd1na2vs0mg"},