{"last_updated":1738350441,"ttl":60,"version":"2.2","data":{"bikes":[{"bike_id":"99c8e731-f913-430f-a2bc-32d57a5fab53","system_id":"levelo_inurba_marseille","lat":43.28485,"lon":5.38461,"is_reserved":false,"is_disabled":true,"rental_uris":{"android":"levelo://app?vid=99c8e731-f913-430f-a2bc-32d57a5fab53","ios":"levelo://app?vid=99c8e731-f913-430f-a2bc-32d57a5fab53"},"vehicle_type_id":"4","last_reported":1738350442,"current_range_meters":27600,"station_id":"ce4bh512rcd13ifvqe3g","pricing_plan_id":"cebpf4jnsgd1na2vs0mg"},{"bike_id":"50dba4e6-d441-43cb-81b3-18b5b479c80a","system_id":"levelo_inurba_marseille","lat":43.27373,"lon":5.3625,"is_reserved":false,"is_disabled":false,"rental_uris":{"android":"levelo://app?vid=50dba4e6-d441-43cb-81b3-18b5b479c80a","ios":"levelo://app?vid=50dba4e6-d441-43cb-81b3-18b5b479c80a"},"vehicle_type_id":"4","last_reported":1738350442,"current_range_meters":30000,"station_id":"ce4bhbh2rcd13ifvqeo0","pricing_plan_id":"cebpf4jnsgd1na2vs0mg"},{"bike_id":"2bdb9a95-9fa1-4f10-9ec5-85be30eeb977","system_id":"levelo_inurba_marseille","lat":43.29301,"lon":5.37456,"is_reserved":false,"is_disabled":false,"rental_uris":{"android":"levelo://app?vid=2bdb9a95-9fa1-4f10-9ec5-85be30eeb977","ios":"levelo://app?vid=2bdb9a95-9fa1-4f10-9ec5-85be30eeb977"},"vehicle_type_id":"4","last_reported":1738350442,"current_range_meters":37600,"station_id":"ce4bgi12rcd13ifvqb70","pricing_plan_id":"cebpf4jnsgd1na2vs0mg"},{"bike_id":"789f0df9-856c-4659-b1c6-f3d6971ed461","system_id":"levelo_inurba_marseille","lat":43.29601,"lon":5.38103,"is_reserved":false,"is_disabled":false,"rental_uris":{"android":"levelo://app?vid=789f0df9-856c-4659-b1c6-f3d6971ed461","ios":"levelo://app?vid=789f0df9-856c-4659-b1c6-f3d6971ed461"},"vehicle_type_id":"4","last_reported":1738350442,"current_range_meters":4000,"station_id":"ce4bgl12rcd13ifvqbo0","pricing_plan_id":"cebpf4jnsgd1na2vs0mg"},{"bike_id":"ec8f6058-6100-4152-a231-a6e2b63a93a4","system_id":"levelo_inurba_marseille","lat":43.25822,"lon":5.3941,"is_reserved":false,"is_disabled":false,"rental_uris":{"android":"levelo://app?vid=ec8f6058-6100-4152-a231-a6e2b63a93a4","ios":"levelo://app?vid=ec8f6058-6100-4152-a231-a6e2b63a93a4"},"vehicle_type_id":"4","last_reported":1738350442,"current_range_meters":26800,"station_id":"ce4bhip2rcd13ifvqft0","pricing_plan_id":"cebpf4jnsgd1na2vs0mg"},{"bike_id":"81ea0d51-679e-4bcf-bef0-fe6a18cedd11","system_id":"levelo_inurba_marseille","lat":43.29413,"lon":5.38624,"is_reserved":false,"is_disabled":false,"rental_uris":{"android":"levelo://app?vid=81ea0d51-679e-4bcf-bef0-fe6a18cedd11","ios":"levelo://app?vid=81ea0d51-679e-4bcf-bef0-fe6a18cedd11"},"vehicle_type_id":"4","last_reported":1738350442,"current_range_meters":9200,"station_id":"ce4bh2h2rcd13ifvqdh0","pricing_plan_id":"cebpf4jnsgd1na2vs0mg"},{"bike_id":"d0a09a48-211d-4f83-91fd-175566dbbfca","system_id":"levelo_inurba_marseille","lat":43.31754,"lon":5.39017,"is_reserved":false,"is_disabled":false,"rental_uris":{"android":"levelo://app?vid=d0a09a48-211d-4f83-91fd-175566dbbfca","ios":"levelo://app?vid=d0a09a48-211d-4f83-91fd-175566dbbfca"},"vehicle_type_id":"4","last_reported":1738350442,"current_range_meters":30800,"station_id":"ce4bhqp2rcd13ifvqhng","pricing_plan_id":"cebpf4jnsgd1na2vs0mg"},{"bike_id":"9d397261-6963-47ac-a075-c1485ca541bb","system_id":"levelo_inurba_marseille","lat":43.257237,"lon":5.411063,"is_reserved":false,"is_disabled":false,"rental_uris":{"android":"levelo://app?vid=9d397261-6963-47ac-a075-c1485ca541bb","ios":"levelo://app?vid=9d397261-6963-47ac-a075-c1485ca541bb"},"vehicle_type_id":"4","last_reported":1738350442,"current_range_meters":39200,"station_id":"ce4bhkp2rcd13ifvqgd0","pricing_plan_id":"cebpf4jnsgd1na2vs0mg"},{"bike_id":"3ee72586-d6c2-49b3-a6a9-6912148e2606","system_id":"levelo_inurba_marseille","lat":43.31756,"lon":5.39015,"is_reserved":false,"is_disabled":false,"rental_uris":{"android":"levelo://app?vid=3ee72586-d6c2-49b3-a6a9-6912148e2606","ios":"levelo://app?vid=3ee72586-d6c2-49b3-a6a9-6912148e2606"},"vehicle_type_id":"4","last_reported":1738350442,"current_range_meters":27600,"station_id":"ce4bhqp2rcd13ifvqhng","pricing_plan_id":"cebpf4jnsgd1na2vs0mg"},{"bike_id":"9589ffb9-c7bb-4b69-9093-3f10a1b7ad66","system_id":"levelo_inurba_marseille","lat":43.32045,"lon":5.41595,"is_reserved":false,"is_disabled":false,"rental_uris":{"android":"levelo://app?vid=9589ffb9-c7bb-4b69-9093-3f10a1b7ad66","ios":"levelo://app?vid=9589ffb9-c7bb-4b69-9093-3f10a1b7ad66"},"vehicle_type_id":"4","last_reported":1738350442,"current_range_meters":24000,"station_id":"ce4bhq92rcd13ifvqhkg","pricing_plan_id":"cebpf4jnsgd1na2vs0mg"},{"bike_id":"07cc68cc-8cb9-4fee-8c85-127697b4d1e3","system_id":"levelo_inurba_marseille","lat":43.29259,"lon":5.38451,"is_reserved":false,"is_disabled":false,"rental_uris":{"android":"levelo://app?vid=07cc68cc-8cb9-4fee-8c85-127697b4d1e3","ios":"levelo://app?vid=07cc68cc-8cb9-4fee-8c85-127697b4d1e3"},"vehicle_type_id":"4","last_reported":1738350442,"current_range_meters":32000,"station_id":"ce4bh692rcd13ifvqea0","pricing_plan_id":"cebpf4jnsgd1na2vs0mg"},{"bike_id":"a6e6eb94-2d83-46f0-b083-8fb06c890fcf","system_id":"levelo_inurba_marseille","lat":43.29878,"lon":5.39737,"is_reserved":false,"is_disabled":false,"rental_uris":{"android":"levelo://app?vid=a6e6eb94-2d83-46f0-b083-8fb06c890fcf","ios":"levelo://app?vid=a6e6eb94-2d83-46f0-b083-8fb06c890fcf"},"vehicle_type_id":"4","last_reported":1738350442,"current_range_meters":17600,"station_id":"ce4bh0h2rcd13ifvqd50","pricing_plan_id":"cebpf4jnsgd1na2vs0mg"},{"bike_id":"364eb652-69b2-4cd0-85cc-79efa41d2c35","system_id":"levelo_inurba_marseille","lat":43.26819,"lon":5.40239,"is_reserved":false,"is_disabled":false,"rental_uris":{"android":"levelo://app?vid=364eb652-69b2-4cd0-85cc-79efa41d2c35","ios":"levelo://app?vid=364eb652-69b2-4cd0-85cc-79efa41d2c35"},"vehicle_type_id":"4","last_reported":1738350442,"current_range_meters":8800,"station_id":"ce501612rcd8frsf0b60","pricing_plan_id":"cebpf4jnsgd1na2vs0mg"},{"bike_id":"8126c25c-c3a2-4cdd-a2e4-d380d215e724","system_id":"levelo_inurba_marseille","lat":43.268078,"lon":5.402603,"is_reserved":false,"is_disabled":false,"rental_uris":{"android":"levelo://app?vid=8126c25c-c3a2-4cdd-a2e4-d380d215e724","ios":"levelo://app?vid=8126c25c-c3a2-4cdd-a2e4-d380d215e724"},"vehicle_type_id":"4","last_reported":1738350442,"current_range_meters":37600,"station_id":"ce501612rcd8frsf0b60","pricing_plan_id":"cebpf4jnsgd1na2vs0mg"},{"bike_id":"02442849-ff14-46ba-80ba-b65e4aab8db8","system_id":"levelo_inurba_marseille","lat":43.32055,"lon":5.41538,"is_reserved":false,"is_disabled":false,"rental_uris":{"android":"levelo://app?vid=02442849-ff14-46ba-80ba-b65e4aab8db8","ios":"levelo://app?vid=02442849-ff14-46ba-80ba-b65e4aab8db8"},"vehicle_type_id":"4","last_reported":1738350442,"current_range_meters":8400,"station_id":"ce4bhq92rcd13ifvqhkg","pricing_plan_id":"cebpf4jnsgd1na2vs0mg"},{"bike_id":"661644af-f6d5-4e30-b98d-4cca5657f33b","system_id":"levelo_inurba_marseille","lat":43.32102,"lon":5.36776,"is_reserved":false,"is_disabled":false,"rental_uris":{"android":"levelo://app?vid=661644af-f6d5-4e30-b98d-4cca5657f33b","ios":"levelo://app?vid=661644af-f6d5-4e30-b98d-4cca5657f33b"},"vehicle_type_id":"4","last_reported":1738350442,"current_range_meters":8400,"station_id":"ce4bhrh2rcd13ifvqhug","pricing_plan_id":"cebpf4jnsgd1na2vs0mg"},{"bike_id":"1fbf3f20-0930-4b85-8900-561217e5a0eb","system_id":"levelo_inurba_marseille","lat":43.3042,"lon":5.41268,"is_reserved":false,"is_disabled":false,"rental_uris":{"android":"levelo://app?vid=1fbf3f20-0930-4b85-8900-561217e5a0eb","ios":"levelo://app?vid=1fbf3f20-0930-4b85-8900-561217e5a0eb"},"vehicle_type_id":"4","last_reported":1738350442,"current_range_meters":27600,"station_id":"ce4bhop2rcd13ifvqh8g","pricing_plan_id":"cebpf4jnsgd1na2vs0mg"},{"bike_id":"0ed8a6c6-eadb-4bd0-a58f-0b8be240ba0c","system_id":"levelo_inurba_marseille","lat":43.27808,"lon":5.40725,"is_reserved":false,"is_disabled":false,"rental_uris":{"android":"levelo://app?vid=0ed8a6c6-eadb-4bd0-a58f-0b8be240ba0c","ios":"levelo://app?vid=0ed8a6c6-eadb-4bd0-a58f-0b8be240ba0c"},"vehicle_type_id":"4","last_reported":1738350442,"current_range_meters":25200,"station_id":"ce4bhnh2rcd13ifvqgtg","pricing_plan_id":"cebpf4jnsgd1na2vs0mg"},{"bike_id":"76df036c-7392-4822-9ea6-9a12a29880a0","system_id":"levelo_inurba_marseille","lat":43.26208,"lon":5.37458,"is_reserved":false,"is_disabled":false,"rental_uris":{"android":"levelo://app?vid=76df036c-7392-4822-9ea6-9a12a29880a0","ios":"levelo://app?vid=76df036c-7392-4822-9ea6-9a12a29880a0"},"vehicle_type_id":"4","last_reported":1738350442,"current_range_meters":38000,"station_id":"ce4bhgp2rcd13ifvqfc0","pricing_plan_id":"cebpf4jnsgd1na2vs0mg"},{"bike_id":"b53cf432-0e47-4b61-a305-952377a64c88","system_id":"levelo_inurba_marseille","lat":43.30799,"lon":5.38174,"is_reserved":false,"is_disabled":true,"rental_uris":{"android":"levelo://app?vid=b53cf432-0e47-4b61-a305-952377a64c88","ios":"levelo://app?vid=b53cf432-0e47-4b61-a305-952377a64c88"},"vehicle_type_id":"4","last_reported":1738350442,"current_range_meters":400,"station_id":"ce4bgt12rcd13ifvqce0","pricing_plan_id":"cebpf4jnsgd1na2vs0mg"},{"bike_id":"7b3e02c5-0818-4fc4-813c-4a89f3c75475","system_id":"levelo_inurba_marseille","lat":43.28001,"lon":5.39997,"is_reserved":false,"is_disabled":false,"rental_uris":{"android":"levelo://app?vid=7b3e02c5-0818-4fc4-813c-4a89f3c75475","ios":"levelo://app?vid=7b3e02c5-0818-4fc4-813c-4a89f3c75475"},"vehicle_type_id":"4","last_reported":1738350442,"current_range_meters":28400,"station_id":"ce4bho92rcd13ifvqh4g","pricing_plan_id":"cebpf4jnsgd1na2vs0mg"},{"bike_id":"13a71ca0-af90-4e61-a6f2-18a028732efe","system_id":"levelo_inurba_marseille","lat":43.25087,"lon":5.39505,"is_reserved":false,"is_disabled":false,"rental_uris":{"android":"levelo://app?vid=13a71ca0-af90-4e61-a6f2-18a028732efe","ios":"levelo://app?vid=13a71ca0-af90-4e61-a6f2-18a028732efe"},"vehicle_type_id":"4","last_reported":1738350442,"current_range_meters":37600,"station_id":"ce4bhm12rcd13ifvqgkg","pricing_plan_id":"cebpf4jnsgd1na2vs0mg"},{"bike_id":"e5380715-5ad5-40ab-8b45-176c4ad14117","system_id":"levelo_inurba_marseille","lat":43.29422,"lon":5.38627,"is_reserved":false,"is_disabled":false,"rental_uris":{"android":"levelo://app?vid=e5380715-5ad5-40ab-8b45-176c4ad14117","ios":"levelo://app?vid=e5380715-5ad5-40ab-8b45-176c4ad14117"},"vehicle_type_id":"4","last_reported":1738350442,"current_range_meters":34800,"station_id":"ce4bh2h2rcd13ifvqdh0","pricing_plan_id":"cebpf4jnsgd1na2vs0mg"},{"bike_id":"586058d9-7368-4703-b568-7ebfb2000ee5","system_id":"levelo_inurba_marseille","lat":43.32285,"lon":5.38245,"is_reserved":false,"is_disabled":false,"rental_uris":{"android":"levelo://app?vid=586058d9-7368-4703-b568-7ebfb2000ee5","ios":"levelo://app?vid=586058d9-7368-4703-b568-7ebfb2000ee5"},"vehicle_type_id":"4","last_reported":1738350442,"current_range_meters":16800,"station_id":"ce4bhr12rcd13ifvqhqg","pricing_plan_id":"cebpf4jnsgd1na2vs0mg"},{"bike_id":"6b2f7924-572e-4d2d-a2f9-88a0a4666758","system_id":"levelo_inurba_marseille","lat":43.27932,"lon":5.39617,"is_reserved":false,"is_disabled":true,"rental_uris":{"android":"levelo://app?vid=6b2f7924-572e-4d2d-a2f9-88a0a4666758","ios":"levelo://app?vid=6b2f7924-572e-4d2d-a2f9-88a0a4666758"},"vehicle_type_id":"4","last_reported":1738350442,"current_range_meters":1200,"station_id":"ce4bhf92rcd13ifvqf40","pricing_plan_id":"cebpf4jnsgd1na2vs0mg"},{"bike_id":"6bb6d109-ff68-401d-bd44-42b35957da76","system_id":"levelo_inurba_marseille","lat":43.3078,"lon":5.37635,"is_reserved":false,"is_disabled":false,"rental_uris":{"android":"levelo://app?vid=6bb6d109-ff68-401d-bd44-42b35957da76","ios":"levelo://app?vid=6bb6d109-ff68-401d-bd44-42b35957da76"},"vehicle_type_id":"4","last_reported":1738350442,"current_range_meters":18000,"station_id":"ce4bgv92rcd13ifvqcq0","pricing_plan_id":"cebpf4jnsgd1na2vs0mg"},{"bike_id":"e99c90aa-e079-42e2-a963-1534829ba9c7","system_id":"levelo_inurba_marseille","lat":43.26212,"lon":5.37441,"is_reserved":false,"is_disabled":false,"rental_uris":{"android":"levelo://app?vid=e99c90aa-e079-42e2-a963-1534829ba9c7","ios":"levelo://app?vid=e99c90aa-e079-42e2-a963-1534829ba9c7"},"vehicle_type_id":"4","last_reported":1738350442,"current_range_meters":30400,"station_id":"ce4bhgp2rcd13ifvqfc0","pricing_plan_id":"cebpf4jnsgd1na2vs0mg"},{"bike_id":"cc47836a-b908-432f-8e0e-2f793407f141","system_id":"levelo_inurba_marseille","lat":43.2294,"lon":5.35368,"is_reserved":false,"is_disabled":false,"rental_uris":{"android":"levelo://app?vid=cc47836a-b908-432f-8e0e-2f793407f141","ios":"levelo://app?vid=cc47836a-b908-432f-8e0e-2f793407f141"},"vehicle_type_id":"4","last_reported":1738350442,"current_range_meters":9200,"station_id":"cpo3532slgdg3j2ikp40","pricing_plan_id":"cebpf4jnsgd1na2vs0mg"},{"bike_id":"b7b8b73a-0c1c-45e0-b545-54a4098ad50c","system_id":"levelo_inurba_marseille","lat":43.27563,"lon":5.38422,"is_reserved":false,"is_disabled":false,"rental_uris":{"android":"levelo://app?vid=b7b8b73a-0c1c-45e0-b545-54a4098ad50c","ios":"levelo://app?vid=b7b8b73a-0c1c-45e0-b545-54a4098ad50c"},"vehicle_type_id":"4","last_reported":1738350442,"current_range_meters":38400,"station_id":"ce4bhh92rcd13ifvqfi0","pricing_plan_id":"cebpf4jnsgd1na2vs0mg"},{"bike_id":"c821611c-3a63-4374-8e2d-66e76ea55158","system_id":"levelo_inurba_marseille","lat":43.29261,"lon":5.38433,"is_reserved":false,"is_disabled":false,"rental_uris":{"android":"levelo://app?vid=c821611c-3a63-4374-8e2d-66e76ea55158","ios":"levelo://app?vid=c821611c-3a63-4374-8e2d-66e76ea55158"},"vehicle_type_id":"4","last_reported":1738350442,"current_range_meters":8400,"station_id":"ce4bh692rcd13ifvqea0","pricing_plan_id":"cebpf4jnsgd1na2vs0mg"},{"bike_id":"ed145e3a-ee1d-41c2-8843-159a0431a26e","system_id":"levelo_inurba_marseille","lat":43.29384,"lon":5.38584,"is_reserved":false,"is_disabled":false,"rental_uris":{"android":"levelo://app?vid=ed145e3a-ee1d-41c2-8843-159a0431a26e","ios":"levelo://app?vid=ed145e3a-ee1d-41c2-8843-159a0431a26e"},"vehicle_type_id":"4","last_reported":1738350442,"current_range_meters":9200,"station_id":"","pricing_plan_id":"cebpf4jnsgd1na2vs0mg"},{"bike_id":"0c8187f5-988a-4457-bbb8-4cf908ac31d3","system_id":"levelo_inurba_marseille","lat":43.25836,"lon":5.39427,"is_reserved":false,"is_disabled":false,"rental_uris":{"android":"levelo://app?vid=0c8187f5-988a-4457-bbb8-4cf908ac31d3","ios":"levelo://app?vid=0c8187f5-988a-4457-bbb8-4cf908ac31d3"},"vehicle_type_id":"4","last_reported":1738350442,"current_range_meters":23200,"station_id":"ce4bhip2rcd13ifvqft0","pricing_plan_id":"cebpf4jnsgd1na2vs0mg"},{"bike_id":"ae669b1d-22a3-4d17-b34a-435edda556dd","system_id":"levelo_inurba_marseille","lat":43.31334,"lon":5.39689,"is_reserved":false,"is_disabled":false,"rental_uris":{"android":"levelo://app?vid=ae669b1d-22a3-4d17-b34a-435edda556dd","ios":"levelo://app?vid=ae669b1d-22a3-4d17-b34a-435edda556dd"},"vehicle_type_id":"4","last_reported":1738350442,"current_range_meters":14000,"station_id":"ce4bgvp2rcd13ifvqcu0","pricing_plan_id":"cebpf4jnsgd1na2vs0mg"},{"bike_id":"7fbc607b-e12b-47bd-a53f-1c18ac62adfd","system_id":"levelo_inurba_marseille","lat":43.27822,"lon":5.40721,"is_reserved":false,"is_disabled":false,"rental_uris":{"android":"levelo://app?vid=7fbc607b-e12b-47bd-a53f-1c18ac62adfd","ios":"levelo://app?vid=7fbc607b-e12b-47bd-a53f-1c18ac62adfd"},"vehicle_type_id":"4","last_reported":1738350442,"current_range_meters":32400,"station_id":"ce4bhnh2rcd13ifvqgtg","pricing_plan_id":"cebpf4jnsgd1na2vs0mg"},{"bike_id":"751d8bbb-2e5d-4def-ac30-db001a2ca141","system_id":"levelo_inurba_marseille","lat":43.28714,"lon":5.37938,"is_reserved":false,"is_disabled":false,"rental_uris":{"android":"levelo://app?vid=751d8bbb-2e5d-4def-ac30-db001a2ca141","ios":"levelo://app?vid=751d8bbb-2e5d-4def-ac30-db001a2ca141"},"vehicle_type_id":"4","last_reported":1738350442,"current_range_meters":22400,"station_id":"ce4bh9p2rcd13ifvqec0","pricing_plan_id":"cebpf4jnsgd1na2vs0mg"},{"bike_id":"782a9e00-edb1-4b9c-b05b-9a13e231f1e4","system_id":"levelo_inurba_marseille","lat":43.29262,"lon":5.38443,"is_reserved":false,"is_disabled":false,"rental_uris":{"android":"levelo://app?vid=782a9e00-edb1-4b9c-b05b-9a13e231f1e4","ios":"levelo://app?vid=782a9e00-edb1-4b9c-b05b-9a13e231f1e4"},"vehicle_type_id":"4","last_reported":1738350442,"current_range_meters":5600,"station_id":"ce4bh692rcd13ifvqea0","pricing_plan_id":"cebpf4jnsgd1na2vs0mg"},{"bike_id":"db7f3b10-3249-4ef1-b2d2-417c75340e93","system_id":"levelo_inurba_marseille","lat":43.26815,"lon":5.403,"is_reserved":false,"is_disabled":false,"rental_uris":{"android":"levelo://app?vid=db7f3b10-3249-4ef1-b2d2-417c75340e93","ios":"levelo://app?vid=db7f3b10-3249-4ef1-b2d2-417c75340e93"},"vehicle_type_id":"4","last_reported":1738350442,"current_range_meters":38000,"station_id":"ce501612rcd8frsf0b60","pricing_plan_id":"cebpf4jnsgd1na2vs0mg"},{"bike_id":"606053f9-3da2-4594-b4df-8e24b5fa812c","system_id":"levelo_inurba_marseille","lat":43.269337,"lon":5.402667,"is_reserved":false,"is_disabled":false,"rental_uris":{"android":"levelo://app?vid=606053f9-3da2-4594-b4df-8e24b5fa812c","ios":"levelo://app?vid=606053f9-3da2-4594-b4df-8e24b5fa812c"},"vehicle_type_id":"4","last_reported":1738350442,"current_range_meters":36800,"station_id":"cjm6bp8fraef2m0cb0m0","pricing_plan_id":"cebpf4jnsgd1na2vs0mg"},{"bike_id":"8838e785-ddde-4529-b2e2-2393a68c07bc","system_id":"levelo_inurba_marseille","lat":43.31429,"lon":5.37296,"is_reserved":false,"is_disabled":true,"rental_uris":{"android":"levelo://app?vid=8838e785-ddde-4529-b2e2-2393a68c07bc","ios":"levelo://app?vid=8838e785-ddde-4529-b2e2-2393a68c07bc"},"vehicle_type_id":"4","last_reported":1738350442,"current_range_meters":0,"station_id":"","pricing_plan_id":"cebpf4jnsgd1na2vs0mg"},{"bike_id":"c1dac6bc-1d5f-442d-823d-1945bf1b35b3","system_id":"levelo_inurba_marseille","lat":43.23202,"lon":5.35542,"is_reserved":false,"is_disabled":false,"rental_uris":{"android":"levelo://app?vid=c1dac6bc-1d5f-442d-823d-1945bf1b35b3","ios":"levelo://app?vid=c1dac6bc-1d5f-442d-823d-1945bf1b35b3"},"vehicle_type_id":"4","last_reported":1738350442,"current_range_meters":14800,"station_id":"ce4bhu92rcd13ifvqi70","pricing_plan_id":"cebpf4jnsgd1na2vs0mg"},{"bike_id":"25d1abb7-38f7-4aa9-b93a-52bf90780279","system_id":"levelo_inurba_marseille","lat":43.28072,"lon":5.39644,"is_reserved":false,"is_disabled":false,"rental_uris":{"android":"levelo://app?vid=25d1abb7-38f7-4aa9-b93a-52bf90780279","ios":"levelo://app?vid=25d1abb7-38f7-4aa9-b93a-52bf90780279"},"vehicle_type_id":"4","last_reported":1738350442,"current_range_meters":32400,"station_id":"ce4bho12rcd13ifvqh2g","pricing_plan_id":"cebpf4jnsgd1na2vs0mg"},{"bike_id":"5cd5a23a-ab00-4fbc-8a6c-45981dcdea3e","system_id":"levelo_inurba_marseille","lat":43.23963,"lon":5.36622,"is_reserved":false,"is_disabled":false,"rental_uris":{"android":"levelo://app?vid=5cd5a23a-ab00-4fbc-8a6c-45981dcdea3e","ios":"levelo://app?vid=5cd5a23a-ab00-4fbc-8a6c-45981dcdea3e"},"vehicle_type_id":"4","last_reported":1738350442,"current_range_meters":8800,"station_id":"ce4bhi12rcd13ifvqfp0","pricing_plan_id":"cebpf4jnsgd1na2vs0mg"},{"bike_id":"db14cd8a-5ba9-45f6-b197-f717b13b5230","system_id":"levelo_inurba_marseille","lat":43.29845,"lon":5.36277,"is_reserved":false,"is_disabled":false,"rental_uris":{"android":"levelo://app?vid=db14cd8a-5ba9-45f6-b197-f717b13b5230","ios":"levelo://app?vid=db14cd8a-5ba9-45f6-b197-f717b13b5230"},"vehicle_type_id":"4","last_reported":1738350442,"current_range_meters":38800,"station_id":"ce4bgpp2rcd13ifvqc3g","pricing_plan_id":"cebpf4jnsgd1na2vs0mg"},{"bike_id":"808232f1-e991-4dd8-8765-6f4f5aba4517","system_id":"levelo_inurba_marseille","lat":43.33589,"lon":5.40995,"is_reserved":false,"is_disabled":true,"rental_uris":{"android":"levelo://app?vid=808232f1-e991-4dd8-8765-6f4f5aba4517","ios":"levelo://app?vid=808232f1-e991-4dd8-8765-6f4f5aba4517"},"vehicle_type_id":"4","last_reported":1738350442,"current_range_meters":0,"station_id":"ce4bhqh2rcd13ifvqhmg","pricing_plan_id":"cebpf4jnsgd1na2vs0mg"},{"bike_id":"970e5d5c-e300-4863-a667-d6b791531f4a","system_id":"levelo_inurba_marseille","lat":43.30903,"lon":5.3964,"is_reserved":false,"is_disabled":false,"rental_uris":{"android":"levelo://app?vid=970e5d5c-e300-4863-a667-d6b791531f4a","ios":"levelo://app?vid=970e5d5c-e300-4863-a667-d6b791531f4a"},"vehicle_type_id":"4","last_reported":1738350442,"current_range_meters":37600,"station_id":"ce4bh012rcd13ifvqcv0","pricing_plan_id":"cebpf4jnsgd1na2vs0mg"},{"bike_id":"6a387eaf-dc82-4c8e-8a36-4d5cb8056c24","system_id":"levelo_inurba_marseille","lat":43.28154,"lon":5.42645,"is_reserved":false,"is_disabled":false,"rental_uris":{"android":"levelo://app?vid=6a387eaf-dc82-4c8e-8a36-4d5cb8056c24","ios":"levelo://app?vid=6a387eaf-dc82-4c8e-8a36-4d5cb8056c24"},"vehicle_type_id":"4","last_reported":1738350442,"current_range_meters":27600,"station_id":"ce4bhnh2rcd13ifvqgug","pricing_plan_id":"cebpf4jnsgd1na2vs0mg"},{"bike_id":"21519395-19c0-4328-8a4a-97566bc4df95","system_id":"levelo_inurba_marseille","lat":43.29055,"lon":5.35889,"is_reserved":false,"is_disabled":false,"rental_uris":{"android":"levelo://app?vid=21519395-19c0-4328-8a4a-97566bc4df95","ios":"levelo://app?vid=21519395-19c0-4328-8a4a-97566bc4df95"},"vehicle_type_id":"4","last_reported":1738350442,"current_range_meters":8400,"station_id":"ce4bha92rcd13ifvqeg0","pricing_plan_id":"cebpf4jnsgd1na2vs0mg"},{"bike_id":"9f7cbc3c-6e0b-4442-8c70-64c0b2a1452e","system_id":"levelo_inurba_marseille","lat":43.23052,"lon":5.35496,"is_reserved":false,"is_disabled":false,"rental_uris":{"android":"levelo://app?vid=9f7cbc3c-6e0b-4442-8c70-64c0b2a1452e","ios":"levelo://app?vid=9f7cbc3c-6e0b-4442-8c70-64c0b2a1452e"},"vehicle_type_id":"4","last_reported":1738350442,"current_range_meters":38800,"station_id":"cpo3342slgdg3j2ifvpg","pricing_plan_id":"cebpf4jnsgd1na2vs0mg"},{"bike_id":"c8a3a0ed-dff2-4f3c-87dc-2e6b47b1ad28","system_id":"levelo_inurba_marseille","lat":43.337444,"lon":5.374475,"is_reserved":false,"is_disabled":true,"rental_uris":{"android":"levelo://app?vid=c8a3a0ed-dff2-4f3c-87dc-2e6b47b1ad28","ios":"levelo://app?vid=c8a3a0ed-dff2-4f3c-87dc-2e6b47b1ad28"},"vehicle_type_id":"4","last_reported":1738350442,"current_range_meters":0,"station_id":"","pricing_plan_id":"cebpf4jnsgd1na2vs0mg"},{"bike_id":"47a665de-85a6-4cf2-a9f2-e205dd6e3a45","system_id":"levelo_inurba_marseille","lat":43.28404,"lon":5.37523,"is_reserved":false,"is_disabled":false,"rental_uris":{"android":"levelo://app?vid=47a665de-85a6-4cf2-a9f2-e205dd6e3a45","ios":"levelo://app?vid=47a665de-85a6-4cf2-a9f2-e205dd6e3a45"},"vehicle_type_id":"4","last_reported":1738350442,"current_range_meters":8800,"station_id":"ce4bh412rcd13ifvqds0","pricing_plan_id":"cebpf4jnsgd1na2vs0mg"},{"bike_id":"68124c8b-4eb9-4c96-af02-173092cd96c0","system_id":"levelo_inurba_marseille","lat":43.29421,"lon":5.38625,"is_reserved":false,"is_disabled":false,"rental_uris":{"android":"levelo://app?vid=68124c8b-4eb9-4c96-af02-173092cd96c0","ios":"levelo://app?vid=68124c8b-4eb9-4c96-af02-173092cd96c0"},"vehicle_type_id":"4","last_reported":1738350442,"current_range_meters":16000,"station_id":"ce4bh2h2rcd13ifvqdh0","pricing_plan_id":"cebpf4jnsgd1na2vs0mg"},{"bike_id":"6a86154e-7bb5-4710-aa37-12fad77c7577","system_id":"levelo_inurba_marseille","lat":43.26495,"lon":5.39551,"is_reserved":false,"is_disabled":false,"rental_uris":{"android":"levelo://app?vid=6a86154e-7bb5-4710-aa37-12fad77c7577","ios":"levelo://app?vid=6a86154e-7bb5-4710-aa37-12fad77c7577"},"vehicle_type_id":"4","last_reported":1738350442,"current_range_meters":36000,"station_id":"ce4bhi12rcd13ifvqfq0","pricing_plan_id":"cebpf4jnsgd1na2vs0mg"},{"bike_id":"7247902a-635d-4f06-9cf7-f11e089c2d38","system_id":"levelo_inurba_marseille","lat":43.26939,"lon":5.40262,"is_reserved":false,"is_disabled":false,"rental_uris":{"android":"levelo://app?vid=7247902a-635d-4f06-9cf7-f11e089c2d38","ios":"levelo://app?vid=7247902a-635d-4f06-9cf7-f11e089c2d38"},"vehicle_type_id":"4","last_reported":1738350442,"current_range_meters":36800,"station_id":"cjm6bp8fraef2m0cb0m0","pricing_plan_id":"cebpf4jnsgd1na2vs0mg"},{"bike_id":"b9dfdd12-ed8d-4873-9fc8-0a1849f2020b","system_id":"levelo_inurba_marseille","lat":43.26807,"lon":5.40262,"is_reserved":false,"is_disabled":false,"rental_uris":{"android":"levelo://app?vid=b9dfdd12-ed8d-4873-9fc8-0a1849f2020b","ios":"levelo://app?vid=b9dfdd12-ed8d-4873-9fc8-0a1849f2020b"},"vehicle_type_id":"4","last_reported":1738350442,"current_range_meters":38000,"station_id":"ce501612rcd8frsf0b60","pricing_plan_id":"cebpf4jnsgd1na2vs0mg"},{"bike_id":"5e3b520f-d62c-4b62-8a56-6e20bab6654b","system_id":"levelo_inurba_marseille","lat":43.27811,"lon":5.40712,"is_reserved":false,"is_disabled":false,"rental_uris":{"android":"levelo://app?vid=5e3b520f-d62c-4b62-8a56-6e20bab6654b","ios":"levelo://app?vid=5e3b520f-d62c-4b62-8a56-6e20bab6654b"},"vehicle_type_id":"4","last_reported":1738350442,"current_range_meters":25200,"station_id":"ce4bhnh2rcd13ifvqgtg","pricing_plan_id":"cebpf4jnsgd1na2vs0mg"},{"bike_id":"32802d31-82e5-49aa-928e-45336ddb5e58","system_id":"levelo_inurba_marseille","lat":43.250034,"lon":5.38928,"is_reserved":false,"is_disabled":false,"rental_uris":{"android":"levelo://app?vid=32802d31-82e5-49aa-928e-45336ddb5e58","ios":"levelo://app?vid=32802d31-82e5-49aa-928e-45336ddb5e58"},"vehicle_type_id":"4","last_reported":1738350442,"current_range_meters":38800,"station_id":"ce4bhgp2rcd13ifvqfd0","pricing_plan_id":"cebpf4jnsgd1na2vs0mg"},{"bike_id":"d06240a3-8895-42e8-9212-5c068d44e9d2","system_id":"levelo_inurba_marseille","lat":43.2862,"lon":5.35119,"is_reserved":false,"is_disabled":false,"rental_uris":{"android":"levelo://app?vid=d06240a3-8895-42e8-9212-5c068d44e9d2","ios":"levelo://app?vid=d06240a3-8895-42e8-9212-5c068d44e9d2"},"vehicle_type_id":"4","last_reported":1738350442,"current_range_meters":25600,"station_id":"ce4bhch2rcd13ifvqeug","pricing_plan_id":"cebpf4jnsgd1na2vs0mg"},{"bike_id":"0a16e438-c121-4648-b565-5c50fb20c37c","system_id":"levelo_inurba_marseille","lat":43.28926,"lon":5.38392,"is_reserved":false,"is_disabled":false,"rental_uris":{"android":"levelo://app?vid=0a16e438-c121-4648-b565-5c50fb20c37c","ios":"levelo://app?vid=0a16e438-c121-4648-b565-5c50fb20c37c"},"vehicle_type_id":"4","last_reported":1738350442,"current_range_meters":4400,"station_id":"ce4bh612rcd13ifvqe6g","pricing_plan_id":"cebpf4jnsgd1na2vs0mg"},{"bike_id":"c6ad9228-2f33-41f3-a929-9e0a226fedef","system_id":"levelo_inurba_marseille","lat":43.24555,"lon":5.39522,"is_reserved":false,"is_disabled":false,"rental_uris":{"android":"levelo://app?vid=c6ad9228-2f33-41f3-a929-9e0a226fedef","ios":"levelo://app?vid=c6ad9228-2f33-41f3-a929-9e0a226fedef"},"vehicle_type_id":"4","last_reported":1738350442,"current_range_meters":39200,"station_id":"ce4bhlp2rcd13ifvqgjg","pricing_plan_id":"cebpf4jnsgd1na2vs0mg"},{"bike_id":"a7e1bb12-c60b-445a-9547-4b41c03d5f68","system_id":"levelo_inurba_marseille","lat":43.28173,"lon":5.42673,"is_reserved":false,"is_disabled":false,"rental_uris":{"android":"levelo://app?vid=a7e1bb12-c60b-445a-9547-4b41c03d5f68","ios":"levelo://app?vid=a7e1bb12-c60b-445a-9547-4b41c03d5f68"},"vehicle_type_id":"4","last_reported":1738350442,"current_range_meters":38800,"station_id":"ce4bhnh2rcd13ifvqgug","pricing_plan_id":"cebpf4jnsgd1na2vs0mg"},{"bike_id":"ea1e66c3-6227-4144-a1bb-9e31d35e38d9","system_id":"levelo_inurba_marseille","lat":43.29292,"lon":5.37157,"is_reserved":false,"is_disabled":false,"rental_uris":{"android":"levelo://app?vid=ea1e66c3-6227-4144-a1bb-9e31d35e38d9","ios":"levelo://app?vid=ea1e66c3-6227-4144-a1bb-9e31d35e38d9"},"vehicle_type_id":"4","last_reported":1738350442,"current_range_meters":38800,"station_id":"ce4bgh92rcd13ifvqb40","pricing_plan_id":"cebpf4jnsgd1na2vs0mg"},{"bike_id":"9d274864-f14c-4740-b266-5748a4fdd10e","system_id":"levelo_inurba_marseille","lat":43.30298,"lon":5.36892,"is_reserved":false,"is_disabled":false,"rental_uris":{"android":"levelo://app?vid=9d274864-f14c-4740-b266-5748a4fdd10e","ios":"levelo://app?vid=9d274864-f14c-4740-b266-5748a4fdd10e"},"vehicle_type_id":"4","last_reported":1738350442,"current_range_meters":24000,"station_id":"ce4bgqh2rcd13ifvqc5g","pricing_plan_id":"cebpf4jnsgd1na2vs0mg"},{"bike_id":"e30ef50d-892f-4fe0-938d-57369caf2166","system_id":"levelo_inurba_marseille","lat":43.22924,"lon":5.35384,"is_reserved":false,"is_disabled":false,"rental_uris":{"android":"levelo://app?vid=e30ef50d-892f-4fe0-938d-57369caf2166","ios":"levelo://app?vid=e30ef50d-892f-4fe0-938d-57369caf2166"},"vehicle_type_id":"4","last_reported":1738350442,"current_range_meters":18800,"station_id":"cpo3532slgdg3j2ikp40","pricing_plan_id":"cebpf4jnsgd1na2vs0mg"},{"bike_id":"f0d2a1e7-017a-4664-ae4e-69b94748bc9f","system_id":"levelo_inurba_marseille","lat":43.28264,"lon":5.35061,"is_reserved":false,"is_disabled":false,"rental_uris":{"android":"levelo://app?vid=f0d2a1e7-017a-4664-ae4e-69b94748bc9f","ios":"levelo://app?vid=f0d2a1e7-017a-4664-ae4e-69b94748bc9f"},"vehicle_type_id":"4","last_reported":1738350442,"current_range_meters":26800,"station_id":"ce4bhbp2rcd13ifvqerg","pricing_plan_id":"cebpf4jnsgd1na2vs0mg"},{"bike_id":"9838cc78-2b53-49d3-ae13-82df62c4fd64","system_id":"levelo_inurba_marseille","lat":43.28412,"lon":5.40934,"is_reserved":false,"is_disabled":true,"rental_uris":{"android":"levelo://app?vid=9838cc78-2b53-49d3-ae13-82df62c4fd64","ios":"levelo://app?vid=9838cc78-2b53-49d3-ae13-82df62c4fd64"},"vehicle_type_id":"4","last_reported":1738350442,"current_range_meters":0,"station_id":"","pricing_plan_id":"cebpf4jnsgd1na2vs0mg"},{"bike_id":"117bd253-dbbb-4afe-bc2f-02cf3154a421","system_id":"levelo_inurba_marseille","lat":43.301427,"lon":5.38064,"is_reserved":false,"is_disabled":false,"rental_uris":{"android":"levelo://app?vid=117bd253-dbbb-4afe-bc2f-02cf3154a421","ios":"levelo://app?vid=117bd253-dbbb-4afe-bc2f-02cf3154a421"},"vehicle_type_id":"4","last_reported":1738350442,"current_range_meters":32800,"station_id":"ce4bgjp2rcd13ifvqbh0","pricing_plan_id":"cebpf4jnsgd1na2vs0mg"},{"bike_id":"7263b244-c488-4a98-b264-4ca2fd7528c4","system_id":"levelo_inurba_marseille","lat":43.2552,"lon":5.3763,"is_reserved":false,"is_disabled":false,"rental_uris":{"android":"levelo://app?vid=7263b244-c488-4a98-b264-4ca2fd7528c4","ios":"levelo://app?vid=7263b244-c488-4a98-b264-4ca2fd7528c4"},"vehicle_type_id":"4","last_reported":1738350442,"current_range_meters":38800,"station_id":"ce4bhh12rcd13ifvqff0","pricing_plan_id":"cebpf4jnsgd1na2vs0mg"},{"bike_id":"06977de7-ec00-4430-96f6-8e5173f30305","system_id":"levelo_inurba_marseille","lat":43.31078,"lon":5.42427,"is_reserved":false,"is_disabled":false,"rental_uris":{"android":"levelo://app?vid=06977de7-ec00-4430-96f6-8e5173f30305","ios":"levelo://app?vid=06977de7-ec00-4430-96f6-8e5173f30305"},"vehicle_type_id":"4","last_reported":1738350442,"current_range_meters":34000,"station_id":"ce4bhp92rcd13ifvqhag","pricing_plan_id":"cebpf4jnsgd1na2vs0mg"},{"bike_id":"78b43ac5-e91a-459f-a654-a1d5375a0672","system_id":"levelo_inurba_marseille","lat":43.29883,"lon":5.43688,"is_reserved":false,"is_disabled":false,"rental_uris":{"android":"levelo://app?vid=78b43ac5-e91a-459f-a654-a1d5375a0672","ios":"levelo://app?vid=78b43ac5-e91a-459f-a654-a1d5375a0672"},"vehicle_type_id":"4","last_reported":1738350442,"current_range_meters":11600,"station_id":"ce4bhpp2rcd13ifvqhfg","pricing_plan_id":"cebpf4jnsgd1na2vs0mg"},{"bike_id":"471c74b1-ee56-488e-a2bb-4b047e8b2688","system_id":"levelo_inurba_marseille","lat":43.28355,"lon":5.38113,"is_reserved":false,"is_disabled":false,"rental_uris":{"android":"levelo://app?vid=471c74b1-ee56-488e-a2bb-4b047e8b2688","ios":"levelo://app?vid=471c74b1-ee56-488e-a2bb-4b047e8b2688"},"vehicle_type_id":"4","last_reported":1738350442,"current_range_meters":28000,"station_id":"ce4bh412rcd13ifvqdr0","pricing_plan_id":"cebpf4jnsgd1na2vs0mg"},{"bike_id":"9e77960e-362d-43d8-9419-d7d54ca0da4b","system_id":"levelo_inurba_marseille","lat":43.24542,"lon":5.3953,"is_reserved":false,"is_disabled":false,"rental_uris":{"android":"levelo://app?vid=9e77960e-362d-43d8-9419-d7d54ca0da4b","ios":"levelo://app?vid=9e77960e-362d-43d8-9419-d7d54ca0da4b"},"vehicle_type_id":"4","last_reported":1738350442,"current_range_meters":38800,"station_id":"ce4bhlp2rcd13ifvqgjg","pricing_plan_id":"cebpf4jnsgd1na2vs0mg"},{"bike_id":"3d3683d0-6fa2-4625-8b79-882bbb185c30","system_id":"levelo_inurba_marseille","lat":43.32273,"lon":5.3829,"is_reserved":false,"is_disabled":false,"rental_uris":{"android":"levelo://app?vid=3d3683d0-6fa2-4625-8b79-882bbb185c30","ios":"levelo://app?vid=3d3683d0-6fa2-4625-8b79-882bbb185c30"},"vehicle_type_id":"4","last_reported":1738350442,"current_range_meters":27200,"station_id":"ce4bhr12rcd13ifvqhqg","pricing_plan_id":"cebpf4jnsgd1na2vs0mg"},{"bike_id":"f7724904-e6a0-475a-94dc-eb5a2aaba110","system_id":"levelo_inurba_marseille","lat":43.27986,"lon":5.40026,"is_reserved":false,"is_disabled":false,"rental_uris":{"android":"levelo://app?vid=f7724904-e6a0-475a-94dc-eb5a2aaba110","ios":"levelo://app?vid=f7724904-e6a0-475a-94dc-eb5a2aaba110"},"vehicle_type_id":"4","last_reported":1738350442,"current_range_meters":38800,"station_id":"ce4bho92rcd13ifvqh4g","pricing_plan_id":"cebpf4jnsgd1na2vs0mg"},{"bike_id":"e2c49145-d80d-4c68-8184-02b30e52c755","system_id":"levelo_inurba_marseille","lat":43.30793,"lon":5.43532,"is_reserved":false,"is_disabled":false,"rental_uris":{"android":"levelo://app?vid=e2c49145-d80d-4c68-8184-02b30e52c755","ios":"levelo://app?vid=e2c49145-d80d-4c68-8184-02b30e52c755"},"vehicle_type_id":"4","last_reported":1738350442,"current_range_meters":28000,"station_id":"ce4bhph2rcd13ifvqheg","pricing_plan_id":"cebpf4jnsgd1na2vs0mg"},{"bike_id":"0804db4b-9ab0-430d-b3f4-33f31f764f9e","system_id":"levelo_inurba_marseille","lat":43.25088,"lon":5.39523,"is_reserved":false,"is_disabled":false,"rental_uris":{"android":"levelo://app?vid=0804db4b-9ab0-430d-b3f4-33f31f764f9e","ios":"levelo://app?vid=0804db4b-9ab0-430d-b3f4-33f31f764f9e"},"vehicle_type_id":"4","last_reported":1738350442,"current_range_meters":16000,"station_id":"ce4bhm12rcd13ifvqgkg","pricing_plan_id":"cebpf4jnsgd1na2vs0mg"},{"bike_id":"d979d8d2-ec65-47af-9229-e4270aab279a","system_id":"levelo_inurba_marseille","lat":43.23058,"lon":5.35498,"is_reserved":false,"is_disabled":false,"rental_uris":{"android":"levelo://app?vid=d979d8d2-ec65-47af-9229-e4270aab279a","ios":"levelo://app?vid=d979d8d2-ec65-47af-9229-e4270aab279a"},"vehicle_type_id":"4","last_reported":1738350442,"current_range_meters":8400,"station_id":"cpo3342slgdg3j2ifvpg","pricing_plan_id":"cebpf4jnsgd1na2vs0mg"},{"bike_id":"d98563e5-2f34-48e4-8a4a-f5b9ec72e6d9","system_id":"levelo_inurba_marseille","lat":43.27996,"lon":5.39999,"is_reserved":false,"is_disabled":false,"rental_uris":{"android":"levelo://app?vid=d98563e5-2f34-48e4-8a4a-f5b9ec72e6d9","ios":"levelo://app?vid=d98563e5-2f34-48e4-8a4a-f5b9ec72e6d9"},"vehicle_type_id":"4","last_reported":1738350442,"current_range_meters":26000,"station_id":"ce4bho92rcd13ifvqh4g","pricing_plan_id":"cebpf4jnsgd1na2vs0mg"},{"bike_id":"f10d9b40-8520-41ee-b039-cd6e7d066065","system_id":"levelo_inurba_marseille","lat":43.26216,"lon":5.37454,"is_reserved":false,"is_disabled":false,"rental_uris":{"android":"levelo://app?vid=f10d9b40-8520-41ee-b039-cd6e7d066065","ios":"levelo://app?vid=f10d9b40-8520-41ee-b039-cd6e7d066065"},"vehicle_type_id":"4","last_reported":1738350442,"current_range_meters":32000,"station_id":"ce4bhgp2rcd13ifvqfc0","pricing_plan_id":"cebpf4jnsgd1na2vs0mg"},{"bike_id":"155b07cc-89ff-485f-804f-56f0eb9a50de","system_id":"levelo_inurba_marseille","lat":43.29263,"lon":5.38444,"is_reserved":false,"is_disabled":false,"rental_uris":{"android":"levelo://app?vid=155b07cc-89ff-485f-804f-56f0eb9a50de","ios":"levelo://app?vid=155b07cc-89ff-485f-804f-56f0eb9a50de"},"vehicle_type_id":"4","last_reported":1738350442,"current_range_meters":38800,"station_id":"ce4bh692rcd13ifvqea0","pricing_plan_id":"cebpf4jnsgd1na2vs0mg"},{"bike_id":"6ecc241c-5cad-4e2b-838c-e651ff39e749","system_id":"levelo_inurba_marseille","lat":43.32342,"lon":5.40604,"is_reserved":false,"is_disabled":false,"rental_uris":{"android":"levelo://app?vid=6ecc241c-5cad-4e2b-838c-e651ff39e749","ios":"levelo://app?vid=6ecc241c-5cad-4e2b-838c-e651ff39e749"},"vehicle_type_id":"4","last_reported":1738350442,"current_range_meters":20400,"station_id":"ce4bhq92rcd13ifvqhjg","pricing_plan_id":"cebpf4jnsgd1na2vs0mg"},{"bike_id":"742224f3-d234-405d-9c6f-1de4311ba456","system_id":"levelo_inurba_marseille","lat":43.26939,"lon":5.40248,"is_reserved":false,"is_disabled":false,"rental_uris":{"android":"levelo://app?vid=742224f3-d234-405d-9c6f-1de4311ba456","ios":"levelo://app?vid=742224f3-d234-405d-9c6f-1de4311ba456"},"vehicle_type_id":"4","last_reported":1738350442,"current_range_meters":14400,"station_id":"cjm6bp8fraef2m0cb0m0","pricing_plan_id":"cebpf4jnsgd1na2vs0mg"},{"bike_id":"6951eebc-7f6d-4e4a-9f3f-5b0ee979e759","system_id":"levelo_inurba_marseille","lat":43.2983,"lon":5.43609,"is_reserved":false,"is_disabled":false,"rental_uris":{"android":"levelo://app?vid=6951eebc-7f6d-4e4a-9f3f-5b0ee979e759","ios":"levelo://app?vid=6951eebc-7f6d-4e4a-9f3f-5b0ee979e759"},"vehicle_type_id":"4","last_reported":1738350442,"current_range_meters":8800,"station_id":"ce4bhpp2rcd13ifvqhfg","pricing_plan_id":"cebpf4jnsgd1na2vs0mg"},{"bike_id":"7d6260ec-6d8c-4d5b-8950-1a493871014c","system_id":"levelo_inurba_marseille","lat":43.29897,"lon":5.43632,"is_reserved":false,"is_disabled":false,"rental_uris":{"android":"levelo://app?vid=7d6260ec-6d8c-4d5b-8950-1a493871014c","ios":"levelo://app?vid=7d6260ec-6d8c-4d5b-8950-1a493871014c"},"vehicle_type_id":"4","last_reported":1738350442,"current_range_meters":28800,"station_id":"ce4bhpp2rcd13ifvqhfg","pricing_plan_id":"cebpf4jnsgd1na2vs0mg"},{"bike_id":"8fb87a43-4f30-4949-ae1e-488e0b8d4739","system_id":"levelo_inurba_marseille","lat":43.29421,"lon":5.38627,"is_reserved":false,"is_disabled":true,"rental_uris":{"android":"levelo://app?vid=8fb87a43-4f30-4949-ae1e-488e0b8d4739","ios":"levelo://app?vid=8fb87a43-4f30-4949-ae1e-488e0b8d4739"},"vehicle_type_id":"4","last_reported":1738350442,"current_range_meters":0,"station_id":"ce4bh2h2rcd13ifvqdh0","pricing_plan_id":"cebpf4jnsgd1na2vs0mg"},{"bike_id":"d1f63a56-0785-4338-a045-3368781b9441","system_id":"levelo_inurba_marseille","lat":43.27987,"lon":5.40019,"is_reserved":false,"is_disabled":false,"rental_uris":{"android":"levelo://app?vid=d1f63a56-0785-4338-a045-3368781b9441","ios":"levelo://app?vid=d1f63a56-0785-4338-a045-3368781b9441"},"vehicle_type_id":"4","last_reported":1738350442,"current_range_meters":25600,"station_id":"ce4bho92rcd13ifvqh4g","pricing_plan_id":"cebpf4jnsgd1na2vs0mg"},{"bike_id":"f99e91c4-2330-4795-bfe7-3495ca9ba92c","system_id":"levelo_inurba_marseille","lat":43.2894,"lon":5.36637,"is_reserved":false,"is_disabled":true,"rental_uris":{"android":"levelo://app?vid=f99e91c4-2330-4795-bfe7-3495ca9ba92c","ios":"levelo://app?vid=f99e91c4-2330-4795-bfe7-3495ca9ba92c"},"vehicle_type_id":"4","last_reported":1738350442,"current_range_meters":36400,"station_id":"ce4bhap2rcd13ifvqek0","pricing_plan_id":"cebpf4jnsgd1na2vs0mg"},{"bike_id":"682a9e54-ecb8-495c-88d2-a74ee011243f","system_id":"levelo_inurba_marseille","lat":43.23193,"lon":5.35541,"is_reserved":false,"is_disabled":false,"rental_uris":{"android":"levelo://app?vid=682a9e54-ecb8-495c-88d2-a74ee011243f","ios":"levelo://app?vid=682a9e54-ecb8-495c-88d2-a74ee011243f"},"vehicle_type_id":"4","last_reported":1738350442,"current_range_meters":36800,"station_id":"ce4bhu92rcd13ifvqi70","pricing_plan_id":"cebpf4jnsgd1na2vs0mg"},{"bike_id":"396d2bf0-6b5f-403b-bacf-9deaab552e51","system_id":"levelo_inurba_marseille","lat":43.2396,"lon":5.36627,"is_reserved":false,"is_disabled":false,"rental_uris":{"android":"levelo://app?vid=396d2bf0-6b5f-403b-bacf-9deaab552e51","ios":"levelo://app?vid=396d2bf0-6b5f-403b-bacf-9deaab552e51"},"vehicle_type_id":"4","last_reported":1738350442,"current_range_meters":11600,"station_id":"ce4bhi12rcd13ifvqfp0","pricing_plan_id":"cebpf4jnsgd1na2vs0mg"},{"bike_id":"d8b1c3f9-ff6e-4179-8423-4ba0d2a2af0e","system_id":"levelo_inurba_marseille","lat":43.33739,"lon":5.3918,"is_reserved":false,"is_disabled":false,"rental_uris":{"android":"levelo://app?vid=d8b1c3f9-ff6e-4179-8423-4ba0d2a2af0e","ios":"levelo://app?vid=d8b1c3f9-ff6e-4179-8423-4ba0d2a2af0e"},"vehicle_type_id":"4","last_reported":1738350442,"current_range_meters":38800,"station_id":"ce4bhr92rcd13ifvqhsg","pricing_plan_id":"cebpf4jnsgd1na2vs0mg"},{"bike_id":"31ad3d64-ea79-401e-948b-020b7bc6adc3","system_id":"levelo_inurba_marseille","lat":43.29269,"lon":5.40902,"is_reserved":false,"is_disabled":false,"rental_uris":{"android":"levelo://app?vid=31ad3d64-ea79-401e-948b-020b7bc6adc3","ios":"levelo://app?vid=31ad3d64-ea79-401e-948b-020b7bc6adc3"},"vehicle_type_id":"4","last_reported":1738350442,"current_range_meters":20800,"station_id":"ce4bh192rcd13ifvqdc0","pricing_plan_id":"cebpf4jnsgd1na2vs0mg"},{"bike_id":"acc2caf7-ee60-4ef9-96fe-3f7bbad788b6","system_id":"levelo_inurba_marseille","lat":43.23191,"lon":5.39977,"is_reserved":false,"is_disabled":false,"rental_uris":{"android":"levelo://app?vid=acc2caf7-ee60-4ef9-96fe-3f7bbad788b6","ios":"levelo://app?vid=acc2caf7-ee60-4ef9-96fe-3f7bbad788b6"},"vehicle_type_id":"4","last_reported":1738350442,"current_range_meters":32800,"station_id":"ce4bhn12rcd13ifvqgqg","pricing_plan_id":"cebpf4jnsgd1na2vs0mg"},{"bike_id":"37a316fb-b3fd-47c4-b337-ae3ed2613770","system_id":"levelo_inurba_marseille","lat":43.25858,"lon":5.39926,"is_reserved":false,"is_disabled":false,"rental_uris":{"android":"levelo://app?vid=37a316fb-b3fd-47c4-b337-ae3ed2613770","ios":"levelo://app?vid=37a316fb-b3fd-47c4-b337-ae3ed2613770"},"vehicle_type_id":"4","last_reported":1738350442,"current_range_meters":38400,"station_id":"ce4bhl92rcd13ifvqghg","pricing_plan_id":"cebpf4jnsgd1na2vs0mg"},{"bike_id":"f086b070-9af2-4a12-baa6-4f5148d2f614","system_id":"levelo_inurba_marseille","lat":43.27815,"lon":5.4071,"is_reserved":false,"is_disabled":false,"rental_uris":{"android":"levelo://app?vid=f086b070-9af2-4a12-baa6-4f5148d2f614","ios":"levelo://app?vid=f086b070-9af2-4a12-baa6-4f5148d2f614"},"vehicle_type_id":"4","last_reported":1738350442,"current_range_meters":18800,"station_id":"ce4bhnh2rcd13ifvqgtg","pricing_plan_id":"cebpf4jnsgd1na2vs0mg"},{"bike_id":"f1531728-b8ea-45f6-b10e-94dd52db4db3","system_id":"levelo_inurba_marseille","lat":43.31325,"lon":5.39719,"is_reserved":false,"is_disabled":false,"rental_uris":{"android":"levelo://app?vid=f1531728-b8ea-45f6-b10e-94dd52db4db3","ios":"levelo://app?vid=f1531728-b8ea-45f6-b10e-94dd52db4db3"},"vehicle_type_id":"4","last_reported":1738350442,"current_range_meters":38800,"station_id":"ce4bgvp2rcd13ifvqcu0","pricing_plan_id":"cebpf4jnsgd1na2vs0mg"},{"bike_id":"44a9a6a5-0ed0-47d0-9cc9-1749f106287d","system_id":"levelo_inurba_marseille","lat":43.27992,"lon":5.40016,"is_reserved":false,"is_disabled":false,"rental_uris":{"android":"levelo://app?vid=44a9a6a5-0ed0-47d0-9cc9-1749f106287d","ios":"levelo://app?vid=44a9a6a5-0ed0-47d0-9cc9-1749f106287d"},"vehicle_type_id":"4","last_reported":1738350442,"current_range_meters":9600,"station_id":"ce4bho92rcd13ifvqh4g","pricing_plan_id":"cebpf4jnsgd1na2vs0mg"},{"bike_id":"8abe3673-7e2e-4cbe-a62f-ade4f7ff6e78","system_id":"levelo_inurba_marseille","lat":43.29038,"lon":5.35912,"is_reserved":false,"is_disabled":false,"rental_uris":{"android":"levelo://app?vid=8abe3673-7e2e-4cbe-a62f-ade4f7ff6e78","ios":"levelo://app?vid=8abe3673-7e2e-4cbe-a62f-ade4f7ff6e78"},"vehicle_type_id":"4","last_reported":1738350442,"current_range_meters":38800,"station_id":"ce4bha92rcd13ifvqeg0","pricing_plan_id":"cebpf4jnsgd1na2vs0mg"},{"bike_id":"bff992ad-b2cb-4dea-89a2-1c1ff4d2b655","system_id":"levelo_inurba_marseille","lat":43.27991,"lon":5.40017,"is_reserved":false,"is_disabled":false,"rental_uris":{"android":"levelo://app?vid=bff992ad-b2cb-4dea-89a2-1c1ff4d2b655","ios":"levelo://app?vid=bff992ad-b2cb-4dea-89a2-1c1ff4d2b655"},"vehicle_type_id":"4","last_reported":1738350442,"current_range_meters":28000,"station_id":"ce4bho92rcd13ifvqh4g","pricing_plan_id":"cebpf4jnsgd1na2vs0mg"},{"bike_id":"2047e938-57e3-4375-958a-69a4e97a2c7d","system_id":"levelo_inurba_marseille","lat":43.23199,"lon":5.39964,"is_reserved":false,"is_disabled":false,"rental_uris":{"android":"levelo://app?vid=2047e938-57e3-4375-958a-69a4e97a2c7d","ios":"levelo://app?vid=2047e938-57e3-4375-958a-69a4e97a2c7d"},"vehicle_type_id":"4","last_reported":1738350442,"current_range_meters":12000,"station_id":"ce4bhn12rcd13ifvqgqg","pricing_plan_id":"cebpf4jnsgd1na2vs0mg"},{"bike_id":"013bfe64-6314-4103-8753-ed1e453c4bb8","system_id":"levelo_inurba_marseille","lat":43.28034,"lon":5.36941,"is_reserved":false,"is_disabled":false,"rental_uris":{"android":"levelo://app?vid=013bfe64-6314-4103-8753-ed1e453c4bb8","ios":"levelo://app?vid=013bfe64-6314-4103-8753-ed1e453c4bb8"},"vehicle_type_id":"4","last_reported":1738350442,"current_range_meters":38800,"station_id":"ce4bha12rcd13ifvqef0","pricing_plan_id":"cebpf4jnsgd1na2vs0mg"},{"bike_id":"fe370f5d-cdf6-49b3-ad91-3adc6040dec7","system_id":"levelo_inurba_marseille","lat":43.3248,"lon":5.36562,"is_reserved":false,"is_disabled":false,"rental_uris":{"android":"levelo://app?vid=fe370f5d-cdf6-49b3-ad91-3adc6040dec7","ios":"levelo://app?vid=fe370f5d-cdf6-49b3-ad91-3adc6040dec7"},"vehicle_type_id":"4","last_reported":1738350442,"current_range_meters":33600,"station_id":"ce4bhs12rcd13ifvqhvg","pricing_plan_id":"cebpf4jnsgd1na2vs0mg"},{"bike_id":"84092c01-502f-4324-b503-b39b88c1d336","system_id":"levelo_inurba_marseille","lat":43.29309,"lon":5.37186,"is_reserved":false,"is_disabled":false,"rental_uris":{"android":"levelo://app?vid=84092c01-502f-4324-b503-b39b88c1d336","ios":"levelo://app?vid=84092c01-502f-4324-b503-b39b88c1d336"},"vehicle_type_id":"4","last_reported":1738350442,"current_range_meters":19200,"station_id":"ce4bgh92rcd13ifvqb40","pricing_plan_id":"cebpf4jnsgd1na2vs0mg"},{"bike_id":"1c5f32a5-3fae-4ceb-8b01-7113aed4134b","system_id":"levelo_inurba_marseille","lat":43.25582,"lon":5.3823,"is_reserved":false,"is_disabled":false,"rental_uris":{"android":"levelo://app?vid=1c5f32a5-3fae-4ceb-8b01-7113aed4134b","ios":"levelo://app?vid=1c5f32a5-3fae-4ceb-8b01-7113aed4134b"},"vehicle_type_id":"4","last_reported":1738350442,"current_range_meters":10000,"station_id":"ce4bhih2rcd13ifvqfs0","pricing_plan_id":"cebpf4jnsgd1na2vs0mg"},{"bike_id":"fe62d850-1039-44bc-8978-312a707acb18","system_id":"levelo_inurba_marseille","lat":43.27041,"lon":5.40288,"is_reserved":false,"is_disabled":false,"rental_uris":{"android":"levelo://app?vid=fe62d850-1039-44bc-8978-312a707acb18","ios":"levelo://app?vid=fe62d850-1039-44bc-8978-312a707acb18"},"vehicle_type_id":"4","last_reported":1738350442,"current_range_meters":6800,"station_id":"ce4bhk92rcd13ifvqgc0","pricing_plan_id":"cebpf4jnsgd1na2vs0mg"},{"bike_id":"fa007fe0-3dc1-405c-9d10-9879e2200643","system_id":"levelo_inurba_marseille","lat":43.32329,"lon":5.4062,"is_reserved":false,"is_disabled":false,"rental_uris":{"android":"levelo://app?vid=fa007fe0-3dc1-405c-9d10-9879e2200643","ios":"levelo://app?vid=fa007fe0-3dc1-405c-9d10-9879e2200643"},"vehicle_type_id":"4","last_reported":1738350442,"current_range_meters":23200,"station_id":"ce4bhq92rcd13ifvqhjg","pricing_plan_id":"cebpf4jnsgd1na2vs0mg"},{"bike_id":"220143ae-4642-4efa-98c2-ad308a1a9de7","system_id":"levelo_inurba_marseille","lat":43.29278,"lon":5.38436,"is_reserved":false,"is_disabled":false,"rental_uris":{"android":"levelo://app?vid=220143ae-4642-4efa-98c2-ad308a1a9de7","ios":"levelo://app?vid=220143ae-4642-4efa-98c2-ad308a1a9de7"},"vehicle_type_id":"4","last_reported":1738350442,"current_range_meters":2800,"station_id":"ce4bh692rcd13ifvqea0","pricing_plan_id":"cebpf4jnsgd1na2vs0mg"},{"bike_id":"e88eb1f3-8ae0-45d5-b478-7fa0e88e8228","system_id":"levelo_inurba_marseille","lat":43.32293,"lon":5.38246,"is_reserved":false,"is_disabled":false,"rental_uris":{"android":"levelo://app?vid=e88eb1f3-8ae0-45d5-b478-7fa0e88e8228","ios":"levelo://app?vid=e88eb1f3-8ae0-45d5-b478-7fa0e88e8228"},"vehicle_type_id":"4","last_reported":1738350442,"current_range_meters":36800,"station_id":"ce4bhr12rcd13ifvqhqg","pricing_plan_id":"cebpf4jnsgd1na2vs0mg"},{"bike_id":"ea8d3c0c-adb0-4133-9cbe-887f2199de61","system_id":"levelo_inurba_marseille","lat":43.27987,"lon":5.40033,"is_reserved":false,"is_disabled":false,"rental_uris":{"android":"levelo://app?vid=ea8d3c0c-adb0-4133-9cbe-887f2199de61","ios":"levelo://app?vid=ea8d3c0c-adb0-4133-9cbe-887f2199de61"},"vehicle_type_id":"4","last_reported":1738350442,"current_range_meters":14400,"station_id":"ce4bho92rcd13ifvqh4g","pricing_plan_id":"cebpf4jnsgd1na2vs0mg"},{"bike_id":"0fc8ef95-5e15-4825-b91c-cf0a986a3e9e","system_id":"levelo_inurba_marseille","lat":43.23189,"lon":5.4003,"is_reserved":false,"is_disabled":false,"rental_uris":{"android":"levelo://app?vid=0fc8ef95-5e15-4825-b91c-cf0a986a3e9e","ios":"levelo://app?vid=0fc8ef95-5e15-4825-b91c-cf0a986a3e9e"},"vehicle_type_id":"4","last_reported":1738350442,"current_range_meters":24400,"station_id":"ce4bhn12rcd13ifvqgqg","pricing_plan_id":"cebpf4jnsgd1na2vs0mg"},{"bike_id":"fe11ec81-8e43-46aa-9848-81a5bac57eb7","system_id":"levelo_inurba_marseille","lat":43.31069,"lon":5.38345,"is_reserved":false,"is_disabled":false,"rental_uris":{"android":"levelo://app?vid=fe11ec81-8e43-46aa-9848-81a5bac57eb7","ios":"levelo://app?vid=fe11ec81-8e43-46aa-9848-81a5bac57eb7"},"vehicle_type_id":"4","last_reported":1738350442,"current_range_meters":10000,"station_id":"ce4bgv92rcd13ifvqcr0","pricing_plan_id":"cebpf4jnsgd1na2vs0mg"},{"bike_id":"a03e0e46-4a35-4eb1-a054-637780a283f8","system_id":"levelo_inurba_marseille","lat":43.29708,"lon":5.366,"is_reserved":false,"is_disabled":false,"rental_uris":{"android":"levelo://app?vid=a03e0e46-4a35-4eb1-a054-637780a283f8","ios":"levelo://app?vid=a03e0e46-4a35-4eb1-a054-637780a283f8"},"vehicle_type_id":"4","last_reported":1738350442,"current_range_meters":10000,"station_id":"ce4bgn12rcd13ifvqbt0","pricing_plan_id":"cebpf4jnsgd1na2vs0mg"},{"bike_id":"021fce12-ccb6-40f5-815b-8297c4620c5a","system_id":"levelo_inurba_marseille","lat":43.27987,"lon":5.40011,"is_reserved":false,"is_disabled":false,"rental_uris":{"android":"levelo://app?vid=021fce12-ccb6-40f5-815b-8297c4620c5a","ios":"levelo://app?vid=021fce12-ccb6-40f5-815b-8297c4620c5a"},"vehicle_type_id":"4","last_reported":1738350442,"current_range_meters":31200,"station_id":"ce4bho92rcd13ifvqh4g","pricing_plan_id":"cebpf4jnsgd1na2vs0mg"},{"bike_id":"3346a419-be0e-4728-b7ad-e82cc807d372","system_id":"levelo_inurba_marseille","lat":43.29493,"lon":5.38541,"is_reserved":false,"is_disabled":false,"rental_uris":{"android":"levelo://app?vid=3346a419-be0e-4728-b7ad-e82cc807d372","ios":"levelo://app?vid=3346a419-be0e-4728-b7ad-e82cc807d372"},"vehicle_type_id":"4","last_reported":1738350442,"current_range_meters":38400,"station_id":"ce4bgih2rcd13ifvqba0","pricing_plan_id":"cebpf4jnsgd1na2vs0mg"},{"bike_id":"d2a12a34-fbcc-4a5f-8f03-775bddfcb125","system_id":"levelo_inurba_marseille","lat":43.25735,"lon":5.41075,"is_reserved":false,"is_disabled":false,"rental_uris":{"android":"levelo://app?vid=d2a12a34-fbcc-4a5f-8f03-775bddfcb125","ios":"levelo://app?vid=d2a12a34-fbcc-4a5f-8f03-775bddfcb125"},"vehicle_type_id":"4","last_reported":1738350442,"current_range_meters":38800,"station_id":"ce4bhkp2rcd13ifvqgd0","pricing_plan_id":"cebpf4jnsgd1na2vs0mg"},{"bike_id":"39c5a16d-0c0c-4cb6-8b0d-712e14d9d25d","system_id":"levelo_inurba_marseille","lat":43.29266,"lon":5.36856,"is_reserved":false,"is_disabled":false,"rental_uris":{"android":"levelo://app?vid=39c5a16d-0c0c-4cb6-8b0d-712e14d9d25d","ios":"levelo://app?vid=39c5a16d-0c0c-4cb6-8b0d-712e14d9d25d"},"vehicle_type_id":"4","last_reported":1738350442,"current_range_meters":38800,"station_id":"ce4bhbp2rcd13ifvqesg","pricing_plan_id":"cebpf4jnsgd1na2vs0mg"},{"bike_id":"57a07c77-11d5-46f2-8f03-dc94358ee252","system_id":"levelo_inurba_marseille","lat":43.28712,"lon":5.36075,"is_reserved":false,"is_disabled":false,"rental_uris":{"android":"levelo://app?vid=57a07c77-11d5-46f2-8f03-dc94358ee252","ios":"levelo://app?vid=57a07c77-11d5-46f2-8f03-dc94358ee252"},"vehicle_type_id":"4","last_reported":1738350442,"current_range_meters":38400,"station_id":"cki0cbj6b192h4jlfktg","pricing_plan_id":"cebpf4jnsgd1na2vs0mg"},{"bike_id":"df992793-2c1e-4a77-bff3-45b59f606f19","system_id":"levelo_inurba_marseille","lat":43.30915,"lon":5.3718,"is_reserved":false,"is_disabled":true,"rental_uris":{"android":"levelo://app?vid=df992793-2c1e-4a77-bff3-45b59f606f19","ios":"levelo://app?vid=df992793-2c1e-4a77-bff3-45b59f606f19"},"vehicle_type_id":"4","last_reported":1738350442,"current_range_meters":38000,"station_id":"ce4bguh2rcd13ifvqckg","pricing_plan_id":"cebpf4jnsgd1na2vs0mg"},{"bike_id":"e76772ad-4d7b-4743-aa72-133535f3d9df","system_id":"levelo_inurba_marseille","lat":43.296239,"lon":5.377045,"is_reserved":false,"is_disabled":true,"rental_uris":{"android":"levelo://app?vid=e76772ad-4d7b-4743-aa72-133535f3d9df","ios":"levelo://app?vid=e76772ad-4d7b-4743-aa72-133535f3d9df"},"vehicle_type_id":"4","last_reported":1738350442,"current_range_meters":0,"station_id":"","pricing_plan_id":"cebpf4jnsgd1na2vs0mg"},{"bike_id":"efdf5bbc-d74a-4987-ad35-436b5258801e","system_id":"levelo_inurba_marseille","lat":43.29282,"lon":5.40116,"is_reserved":false,"is_disabled":false,"rental_uris":{"android":"levelo://app?vid=efdf5bbc-d74a-4987-ad35-436b5258801e","ios":"levelo://app?vid=efdf5bbc-d74a-4987-ad35-436b5258801e"},"vehicle_type_id":"4","last_reported":1738350442,"current_range_meters":38800,"station_id":"ce4bh312rcd13ifvqdk0","pricing_plan_id":"cebpf4jnsgd1na2vs0mg"},{"bike_id":"ab2c796a-c23b-4a3a-9534-777b873d6a05","system_id":"levelo_inurba_marseille","lat":43.24174,"lon":5.36397,"is_reserved":false,"is_disabled":false,"rental_uris":{"android":"levelo://app?vid=ab2c796a-c23b-4a3a-9534-777b873d6a05","ios":"levelo://app?vid=ab2c796a-c23b-4a3a-9534-777b873d6a05"},"vehicle_type_id":"4","last_reported":1738350442,"current_range_meters":36400,"station_id":"cpo36qri1sfpv3e86is0","pricing_plan_id":"cebpf4jnsgd1na2vs0mg"},{"bike_id":"1b857ce7-a20c-4770-9790-7268dce5d355","system_id":"levelo_inurba_marseille","lat":43.28471,"lon":5.38428,"is_reserved":false,"is_disabled":true,"rental_uris":{"android":"levelo://app?vid=1b857ce7-a20c-4770-9790-7268dce5d355","ios":"levelo://app?vid=1b857ce7-a20c-4770-9790-7268dce5d355"},"vehicle_type_id":"4","last_reported":1738350442,"current_range_meters":0,"station_id":"ce4bh512rcd13ifvqe3g","pricing_plan_id":"cebpf4jnsgd1na2vs0mg"},{"bike_id":"5c025787-61ba-44f2-98a7-225c99b3b061","system_id":"levelo_inurba_marseille","lat":43.26208,"lon":5.37441,"is_reserved":false,"is_disabled":false,"rental_uris":{"android":"levelo://app?vid=5c025787-61ba-44f2-98a7-225c99b3b061","ios":"levelo://app?vid=5c025787-61ba-44f2-98a7-225c99b3b061"},"vehicle_type_id":"4","last_reported":1738350442,"current_range_meters":18000,"station_id":"ce4bhgp2rcd13ifvqfc0","pricing_plan_id":"cebpf4jnsgd1na2vs0mg"},{"bike_id":"58feef8f-17b5-470d-8151-c7a13f0dbe24","system_id":"levelo_inurba_marseille","lat":43.28412,"lon":5.37539,"is_reserved":false,"is_disabled":true,"rental_uris":{"android":"levelo://app?vid=58feef8f-17b5-470d-8151-c7a13f0dbe24","ios":"levelo://app?vid=58feef8f-17b5-470d-8151-c7a13f0dbe24"},"vehicle_type_id":"4","last_reported":1738350442,"current_range_meters":0,"station_id":"ce4bh412rcd13ifvqds0","pricing_plan_id":"cebpf4jnsgd1na2vs0mg"},{"bike_id":"6bbb4df2-5e2d-443c-8fc0-a17f75ca32a1","system_id":"levelo_inurba_marseille","lat":43.28348,"lon":5.38115,"is_reserved":false,"is_disabled":false,"rental_uris":{"android":"levelo://app?vid=6bbb4df2-5e2d-443c-8fc0-a17f75ca32a1","ios":"levelo://app?vid=6bbb4df2-5e2d-443c-8fc0-a17f75ca32a1"},"vehicle_type_id":"4","last_reported":1738350442,"current_range_meters":39200,"station_id":"ce4bh412rcd13ifvqdr0","pricing_plan_id":"cebpf4jnsgd1na2vs0mg"},{"bike_id":"7b1972b5-4724-4ee7-8ef3-3d52a3645f58","system_id":"levelo_inurba_marseille","lat":43.28148,"lon":5.42642,"is_reserved":false,"is_disabled":false,"rental_uris":{"android":"levelo://app?vid=7b1972b5-4724-4ee7-8ef3-3d52a3645f58","ios":"levelo://app?vid=7b1972b5-4724-4ee7-8ef3-3d52a3645f58"},"vehicle_type_id":"4","last_reported":1738350442,"current_range_meters":34000,"station_id":"ce4bhnh2rcd13ifvqgug","pricing_plan_id":"cebpf4jnsgd1na2vs0mg"},{"bike_id":"ad32a59b-42d2-49f0-b9b7-56ae6911b8df","system_id":"levelo_inurba_marseille","lat":43.29258,"lon":5.38436,"is_reserved":false,"is_disabled":false,"rental_uris":{"android":"levelo://app?vid=ad32a59b-42d2-49f0-b9b7-56ae6911b8df","ios":"levelo://app?vid=ad32a59b-42d2-49f0-b9b7-56ae6911b8df"},"vehicle_type_id":"4","last_reported":1738350442,"current_range_meters":33200,"station_id":"ce4bh692rcd13ifvqea0","pricing_plan_id":"cebpf4jnsgd1na2vs0mg"},{"bike_id":"4f13d5e8-cc52-496c-94e9-dbe2280a4f56","system_id":"levelo_inurba_marseille","lat":43.29276,"lon":5.38445,"is_reserved":false,"is_disabled":false,"rental_uris":{"android":"levelo://app?vid=4f13d5e8-cc52-496c-94e9-dbe2280a4f56","ios":"levelo://app?vid=4f13d5e8-cc52-496c-94e9-dbe2280a4f56"},"vehicle_type_id":"4","last_reported":1738350442,"current_range_meters":32400,"station_id":"ce4bh692rcd13ifvqea0","pricing_plan_id":"cebpf4jnsgd1na2vs0mg"},{"bike_id":"3756559a-a7d3-4a43-beb0-74f82626ccce","system_id":"levelo_inurba_marseille","lat":43.23968,"lon":5.3662,"is_reserved":false,"is_disabled":false,"rental_uris":{"android":"levelo://app?vid=3756559a-a7d3-4a43-beb0-74f82626ccce","ios":"levelo://app?vid=3756559a-a7d3-4a43-beb0-74f82626ccce"},"vehicle_type_id":"4","last_reported":1738350442,"current_range_meters":29600,"station_id":"ce4bhi12rcd13ifvqfp0","pricing_plan_id":"cebpf4jnsgd1na2vs0mg"},{"bike_id":"04cb4598-585a-41ee-b804-1673e3f675e7","system_id":"levelo_inurba_marseille","lat":43.28999,"lon":5.35611,"is_reserved":false,"is_disabled":false,"rental_uris":{"android":"levelo://app?vid=04cb4598-585a-41ee-b804-1673e3f675e7","ios":"levelo://app?vid=04cb4598-585a-41ee-b804-1673e3f675e7"},"vehicle_type_id":"4","last_reported":1738350442,"current_range_meters":28400,"station_id":"ce4bhb92rcd13ifvqen0","pricing_plan_id":"cebpf4jnsgd1na2vs0mg"},{"bike_id":"e1b31333-6406-4e07-8486-4e0b5ea5a099","system_id":"levelo_inurba_marseille","lat":43.2655,"lon":5.37289,"is_reserved":false,"is_disabled":false,"rental_uris":{"android":"levelo://app?vid=e1b31333-6406-4e07-8486-4e0b5ea5a099","ios":"levelo://app?vid=e1b31333-6406-4e07-8486-4e0b5ea5a099"},"vehicle_type_id":"4","last_reported":1738350442,"current_range_meters":12000,"station_id":"ce4bhg12rcd13ifvqf70","pricing_plan_id":"cebpf4jnsgd1na2vs0mg"},{"bike_id":"2cde3acc-d66b-4ac2-a264-38e68e999ea4","system_id":"levelo_inurba_marseille","lat":43.29533,"lon":5.37494,"is_reserved":false,"is_disabled":false,"rental_uris":{"android":"levelo://app?vid=2cde3acc-d66b-4ac2-a264-38e68e999ea4","ios":"levelo://app?vid=2cde3acc-d66b-4ac2-a264-38e68e999ea4"},"vehicle_type_id":"4","last_reported":1738350442,"current_range_meters":16000,"station_id":"ce4bgkp2rcd13ifvqbmg","pricing_plan_id":"cebpf4jnsgd1na2vs0mg"},{"bike_id":"808e14b4-fd74-47ba-b4df-bdbdfaaddf1d","system_id":"levelo_inurba_marseille","lat":43.29311,"lon":5.37456,"is_reserved":false,"is_disabled":false,"rental_uris":{"android":"levelo://app?vid=808e14b4-fd74-47ba-b4df-bdbdfaaddf1d","ios":"levelo://app?vid=808e14b4-fd74-47ba-b4df-bdbdfaaddf1d"},"vehicle_type_id":"4","last_reported":1738350442,"current_range_meters":31200,"station_id":"ce4bgi12rcd13ifvqb70","pricing_plan_id":"cebpf4jnsgd1na2vs0mg"},{"bike_id":"f5192a48-f127-416f-ac25-5dcd6cb43014","system_id":"levelo_inurba_marseille","lat":43.31078,"lon":5.42421,"is_reserved":false,"is_disabled":true,"rental_uris":{"android":"levelo://app?vid=f5192a48-f127-416f-ac25-5dcd6cb43014","ios":"levelo://app?vid=f5192a48-f127-416f-ac25-5dcd6cb43014"},"vehicle_type_id":"4","last_reported":1738350442,"current_range_meters":0,"station_id":"ce4bhp92rcd13ifvqhag","pricing_plan_id":"cebpf4jnsgd1na2vs0mg"},{"bike_id":"e8e1f7c6-d773-4c38-bfcc-4a6d773355ce","system_id":"levelo_inurba_marseille","lat":43.22943,"lon":5.35374,"is_reserved":false,"is_disabled":false,"rental_uris":{"android":"levelo://app?vid=e8e1f7c6-d773-4c38-bfcc-4a6d773355ce","ios":"levelo://app?vid=e8e1f7c6-d773-4c38-bfcc-4a6d773355ce"},"vehicle_type_id":"4","last_reported":1738350442,"current_range_meters":38800,"station_id":"cpo3532slgdg3j2ikp40","pricing_plan_id":"cebpf4jnsgd1na2vs0mg"},{"bike_id":"99c279ec-caff-4b56-b1ed-2826f234635b","system_id":"levelo_inurba_marseille","lat":43.29282,"lon":5.3845,"is_reserved":false,"is_disabled":false,"rental_uris":{"android":"levelo://app?vid=99c279ec-caff-4b56-b1ed-2826f234635b","ios":"levelo://app?vid=99c279ec-caff-4b56-b1ed-2826f234635b"},"vehicle_type_id":"4","last_reported":1738350442,"current_range_meters":16800,"station_id":"ce4bh692rcd13ifvqea0","pricing_plan_id":"cebpf4jnsgd1na2vs0mg"},{"bike_id":"d85a6e09-0217-43ff-9dc5-94ff68be4e98","system_id":"levelo_inurba_marseille","lat":43.27374,"lon":5.36257,"is_reserved":false,"is_disabled":true,"rental_uris":{"android":"levelo://app?vid=d85a6e09-0217-43ff-9dc5-94ff68be4e98","ios":"levelo://app?vid=d85a6e09-0217-43ff-9dc5-94ff68be4e98"},"vehicle_type_id":"4","last_reported":1738350442,"current_range_meters":0,"station_id":"ce4bhbh2rcd13ifvqeo0","pricing_plan_id":"cebpf4jnsgd1na2vs0mg"},{"bike_id":"2ae6fba3-bbb8-4f7f-b6b1-7940618109d6","system_id":"levelo_inurba_marseille","lat":43.29046,"lon":5.39964,"is_reserved":false,"is_disabled":false,"rental_uris":{"android":"levelo://app?vid=2ae6fba3-bbb8-4f7f-b6b1-7940618109d6","ios":"levelo://app?vid=2ae6fba3-bbb8-4f7f-b6b1-7940618109d6"},"vehicle_type_id":"4","last_reported":1738350442,"current_range_meters":36800,"station_id":"ce4bh392rcd13ifvqdm0","pricing_plan_id":"cebpf4jnsgd1na2vs0mg"},{"bike_id":"c8c689bb-2ae1-4506-84df-a14d4cabcf2e","system_id":"levelo_inurba_marseille","lat":43.24803,"lon":5.3746,"is_reserved":false,"is_disabled":false,"rental_uris":{"android":"levelo://app?vid=c8c689bb-2ae1-4506-84df-a14d4cabcf2e","ios":"levelo://app?vid=c8c689bb-2ae1-4506-84df-a14d4cabcf2e"},"vehicle_type_id":"4","last_reported":1738350442,"current_range_meters":9600,"station_id":"ce4bhgh2rcd13ifvqfb0","pricing_plan_id":"cebpf4jnsgd1na2vs0mg"},{"bike_id":"59aae4db-1c07-44b7-8db1-4c95279c96e1","system_id":"levelo_inurba_marseille","lat":43.2799,"lon":5.39998,"is_reserved":false,"is_disabled":false,"rental_uris":{"android":"levelo://app?vid=59aae4db-1c07-44b7-8db1-4c95279c96e1","ios":"levelo://app?vid=59aae4db-1c07-44b7-8db1-4c95279c96e1"},"vehicle_type_id":"4","last_reported":1738350442,"current_range_meters":30000,"station_id":"ce4bho92rcd13ifvqh4g","pricing_plan_id":"cebpf4jnsgd1na2vs0mg"},{"bike_id":"e3d8a223-fb6b-449d-8e45-ad3295748cda","system_id":"levelo_inurba_marseille","lat":43.2958,"lon":5.3814,"is_reserved":false,"is_disabled":false,"rental_uris":{"android":"levelo://app?vid=e3d8a223-fb6b-449d-8e45-ad3295748cda","ios":"levelo://app?vid=e3d8a223-fb6b-449d-8e45-ad3295748cda"},"vehicle_type_id":"4","last_reported":1738350442,"current_range_meters":32400,"station_id":"ce4bgl12rcd13ifvqbo0","pricing_plan_id":"cebpf4jnsgd1na2vs0mg"},{"bike_id":"7809da70-f126-4051-91a5-6c9c71a8c274","system_id":"levelo_inurba_marseille","lat":43.29019,"lon":5.38642,"is_reserved":false,"is_disabled":false,"rental_uris":{"android":"levelo://app?vid=7809da70-f126-4051-91a5-6c9c71a8c274","ios":"levelo://app?vid=7809da70-f126-4051-91a5-6c9c71a8c274"},"vehicle_type_id":"4","last_reported":1738350442,"current_range_meters":2800,"station_id":"ce4bh4p2rcd13ifvqe0g","pricing_plan_id":"cebpf4jnsgd1na2vs0mg"},{"bike_id":"446cfbd8-380d-483d-82ba-61ff47e31d05","system_id":"levelo_inurba_marseille","lat":43.29258,"lon":5.38426,"is_reserved":false,"is_disabled":true,"rental_uris":{"android":"levelo://app?vid=446cfbd8-380d-483d-82ba-61ff47e31d05","ios":"levelo://app?vid=446cfbd8-380d-483d-82ba-61ff47e31d05"},"vehicle_type_id":"4","last_reported":1738350442,"current_range_meters":3200,"station_id":"ce4bh692rcd13ifvqea0","pricing_plan_id":"cebpf4jnsgd1na2vs0mg"},{"bike_id":"60335d1b-4a92-46bd-8eca-dffb02768c78","system_id":"levelo_inurba_marseille","lat":43.24996,"lon":5.38945,"is_reserved":false,"is_disabled":false,"rental_uris":{"android":"levelo://app?vid=60335d1b-4a92-46bd-8eca-dffb02768c78","ios":"levelo://app?vid=60335d1b-4a92-46bd-8eca-dffb02768c78"},"vehicle_type_id":"4","last_reported":1738350442,"current_range_meters":14000,"station_id":"ce4bhgp2rcd13ifvqfd0","pricing_plan_id":"cebpf4jnsgd1na2vs0mg"},{"bike_id":"60911234-26e8-4f42-acbb-88b4c360ca2e","system_id":"levelo_inurba_marseille","lat":43.24996,"lon":5.3893,"is_reserved":false,"is_disabled":false,"rental_uris":{"android":"levelo://app?vid=60911234-26e8-4f42-acbb-88b4c360ca2e","ios":"levelo://app?vid=60911234-26e8-4f42-acbb-88b4c360ca2e"},"vehicle_type_id":"4","last_reported":1738350442,"current_range_meters":30000,"station_id":"ce4bhgp2rcd13ifvqfd0","pricing_plan_id":"cebpf4jnsgd1na2vs0mg"},{"bike_id":"cda419b4-5b6f-4216-b2cf-6bf8b00f4340","system_id":"levelo_inurba_marseille","lat":43.23189,"lon":5.39981,"is_reserved":false,"is_disabled":false,"rental_uris":{"android":"levelo://app?vid=cda419b4-5b6f-4216-b2cf-6bf8b00f4340","ios":"levelo://app?vid=cda419b4-5b6f-4216-b2cf-6bf8b00f4340"},"vehicle_type_id":"4","last_reported":1738350442,"current_range_meters":39200,"station_id":"ce4bhn12rcd13ifvqgqg","pricing_plan_id":"cebpf4jnsgd1na2vs0mg"},{"bike_id":"0a13b4dc-5af9-498e-a6eb-f4bde643bf18","system_id":"levelo_inurba_marseille","lat":43.31325,"lon":5.39702,"is_reserved":false,"is_disabled":false,"rental_uris":{"android":"levelo://app?vid=0a13b4dc-5af9-498e-a6eb-f4bde643bf18","ios":"levelo://app?vid=0a13b4dc-5af9-498e-a6eb-f4bde643bf18"},"vehicle_type_id":"4","last_reported":1738350442,"current_range_meters":30800,"station_id":"ce4bgvp2rcd13ifvqcu0","pricing_plan_id":"cebpf4jnsgd1na2vs0mg"},{"bike_id":"71f34f72-d3b7-46a5-9bd4-1fe057b3152f","system_id":"levelo_inurba_marseille","lat":43.22921,"lon":5.35362,"is_reserved":false,"is_disabled":false,"rental_uris":{"android":"levelo://app?vid=71f34f72-d3b7-46a5-9bd4-1fe057b3152f","ios":"levelo://app?vid=71f34f72-d3b7-46a5-9bd4-1fe057b3152f"},"vehicle_type_id":"4","last_reported":1738350442,"current_range_meters":38800,"station_id":"cpo3532slgdg3j2ikp40","pricing_plan_id":"cebpf4jnsgd1na2vs0mg"},{"bike_id":"20029bdd-9f9c-4ff9-86e4-5ba6ed30f46a","system_id":"levelo_inurba_marseille","lat":43.23148,"lon":5.43705,"is_reserved":false,"is_disabled":true,"rental_uris":{"android":"levelo://app?vid=20029bdd-9f9c-4ff9-86e4-5ba6ed30f46a","ios":"levelo://app?vid=20029bdd-9f9c-4ff9-86e4-5ba6ed30f46a"},"vehicle_type_id":"4","last_reported":1738350442,"current_range_meters":0,"station_id":"ce4bhmp2rcd13ifvqgog","pricing_plan_id":"cebpf4jnsgd1na2vs0mg"},{"bike_id":"9a420f87-7d7e-4781-b326-9c09400ca210","system_id":"levelo_inurba_marseille","lat":43.26223,"lon":5.3745,"is_reserved":false,"is_disabled":false,"rental_uris":{"android":"levelo://app?vid=9a420f87-7d7e-4781-b326-9c09400ca210","ios":"levelo://app?vid=9a420f87-7d7e-4781-b326-9c09400ca210"},"vehicle_type_id":"4","last_reported":1738350442,"current_range_meters":39200,"station_id":"ce4bhgp2rcd13ifvqfc0","pricing_plan_id":"cebpf4jnsgd1na2vs0mg"},{"bike_id":"3d4b3e0a-4326-4344-bb72-09251a157a11","system_id":"levelo_inurba_marseille","lat":43.30543,"lon":5.36544,"is_reserved":false,"is_disabled":true,"rental_uris":{"android":"levelo://app?vid=3d4b3e0a-4326-4344-bb72-09251a157a11","ios":"levelo://app?vid=3d4b3e0a-4326-4344-bb72-09251a157a11"},"vehicle_type_id":"4","last_reported":1738350442,"current_range_meters":32000,"station_id":"ce4bgs12rcd13ifvqcag","pricing_plan_id":"cebpf4jnsgd1na2vs0mg"},{"bike_id":"9bdbd848-9ef2-485f-ae00-8ac70ab1745f","system_id":"levelo_inurba_marseille","lat":43.29609,"lon":5.37171,"is_reserved":false,"is_disabled":true,"rental_uris":{"android":"levelo://app?vid=9bdbd848-9ef2-485f-ae00-8ac70ab1745f","ios":"levelo://app?vid=9bdbd848-9ef2-485f-ae00-8ac70ab1745f"},"vehicle_type_id":"4","last_reported":1738350442,"current_range_meters":1200,"station_id":"ce4bgnh2rcd13ifvqc0g","pricing_plan_id":"cebpf4jnsgd1na2vs0mg"},{"bike_id":"ac755b07-9030-443e-9722-768aa6c0d1c3","system_id":"levelo_inurba_marseille","lat":43.31486,"lon":5.37306,"is_reserved":false,"is_disabled":false,"rental_uris":{"android":"levelo://app?vid=ac755b07-9030-443e-9722-768aa6c0d1c3","ios":"levelo://app?vid=ac755b07-9030-443e-9722-768aa6c0d1c3"},"vehicle_type_id":"4","last_reported":1738350442,"current_range_meters":31200,"station_id":"ce4bgt12rcd13ifvqcd0","pricing_plan_id":"cebpf4jnsgd1na2vs0mg"},{"bike_id":"72e15efb-57c2-4708-8d01-89db86237810","system_id":"levelo_inurba_marseille","lat":43.28944,"lon":5.36638,"is_reserved":false,"is_disabled":false,"rental_uris":{"android":"levelo://app?vid=72e15efb-57c2-4708-8d01-89db86237810","ios":"levelo://app?vid=72e15efb-57c2-4708-8d01-89db86237810"},"vehicle_type_id":"4","last_reported":1738350442,"current_range_meters":16400,"station_id":"ce4bhap2rcd13ifvqek0","pricing_plan_id":"cebpf4jnsgd1na2vs0mg"},{"bike_id":"8c7e226e-f762-411d-9908-399a15ae0ab3","system_id":"levelo_inurba_marseille","lat":43.31688,"lon":5.40478,"is_reserved":false,"is_disabled":false,"rental_uris":{"android":"levelo://app?vid=8c7e226e-f762-411d-9908-399a15ae0ab3","ios":"levelo://app?vid=8c7e226e-f762-411d-9908-399a15ae0ab3"},"vehicle_type_id":"4","last_reported":1738350442,"current_range_meters":29600,"station_id":"ce4bh012rcd13ifvqd00","pricing_plan_id":"cebpf4jnsgd1na2vs0mg"},{"bike_id":"39296b41-744d-45af-a92f-d1175e5a1845","system_id":"levelo_inurba_marseille","lat":43.29273,"lon":5.36846,"is_reserved":false,"is_disabled":false,"rental_uris":{"android":"levelo://app?vid=39296b41-744d-45af-a92f-d1175e5a1845","ios":"levelo://app?vid=39296b41-744d-45af-a92f-d1175e5a1845"},"vehicle_type_id":"4","last_reported":1738350442,"current_range_meters":24000,"station_id":"ce4bhbp2rcd13ifvqesg","pricing_plan_id":"cebpf4jnsgd1na2vs0mg"},{"bike_id":"491407c5-a175-44f0-86fc-0f4ccadf82e3","system_id":"levelo_inurba_marseille","lat":43.337444,"lon":5.374475,"is_reserved":false,"is_disabled":true,"rental_uris":{"android":"levelo://app?vid=491407c5-a175-44f0-86fc-0f4ccadf82e3","ios":"levelo://app?vid=491407c5-a175-44f0-86fc-0f4ccadf82e3"},"vehicle_type_id":"4","last_reported":1738350442,"current_range_meters":0,"station_id":"","pricing_plan_id":"cebpf4jnsgd1na2vs0mg"},{"bike_id":"ce7e4316-25a0-41be-9671-330b181493fd","system_id":"levelo_inurba_marseille","lat":43.2678,"lon":5.40302,"is_reserved":false,"is_disabled":false,"rental_uris":{"android":"levelo://app?vid=ce7e4316-25a0-41be-9671-330b181493fd","ios":"levelo://app?vid=ce7e4316-25a0-41be-9671-330b181493fd"},"vehicle_type_id":"4","last_reported":1738350442,"current_range_meters":35600,"station_id":"ce501612rcd8frsf0b60","pricing_plan_id":"cebpf4jnsgd1na2vs0mg"},{"bike_id":"a0f811ae-97f1-4b35-8a13-04948e82bfd3","system_id":"levelo_inurba_marseille","lat":43.33024,"lon":5.3904,"is_reserved":false,"is_disabled":false,"rental_uris":{"android":"levelo://app?vid=a0f811ae-97f1-4b35-8a13-04948e82bfd3","ios":"levelo://app?vid=a0f811ae-97f1-4b35-8a13-04948e82bfd3"},"vehicle_type_id":"4","last_reported":1738350442,"current_range_meters":28400,"station_id":"ce4bhr92rcd13ifvqhrg","pricing_plan_id":"cebpf4jnsgd1na2vs0mg"},{"bike_id":"b28d7184-1266-4471-abe6-13723f5fd964","system_id":"levelo_inurba_marseille","lat":43.32707,"lon":5.39272,"is_reserved":false,"is_disabled":false,"rental_uris":{"android":"levelo://app?vid=b28d7184-1266-4471-abe6-13723f5fd964","ios":"levelo://app?vid=b28d7184-1266-4471-abe6-13723f5fd964"},"vehicle_type_id":"4","last_reported":1738350442,"current_range_meters":5600,"station_id":"","pricing_plan_id":"cebpf4jnsgd1na2vs0mg"},{"bike_id":"4a74fb23-32cf-4380-a48b-35d2df80b302","system_id":"levelo_inurba_marseille","lat":43.29599,"lon":5.36745,"is_reserved":false,"is_disabled":false,"rental_uris":{"android":"levelo://app?vid=4a74fb23-32cf-4380-a48b-35d2df80b302","ios":"levelo://app?vid=4a74fb23-32cf-4380-a48b-35d2df80b302"},"vehicle_type_id":"4","last_reported":1738350442,"current_range_meters":38800,"station_id":"ce4bgph2rcd13ifvqc2g","pricing_plan_id":"cebpf4jnsgd1na2vs0mg"},{"bike_id":"584bfd92-62b5-44ff-a6a2-f5c35e7f6c23","system_id":"levelo_inurba_marseille","lat":43.29525,"lon":5.38543,"is_reserved":false,"is_disabled":false,"rental_uris":{"android":"levelo://app?vid=584bfd92-62b5-44ff-a6a2-f5c35e7f6c23","ios":"levelo://app?vid=584bfd92-62b5-44ff-a6a2-f5c35e7f6c23"},"vehicle_type_id":"4","last_reported":1738350442,"current_range_meters":38800,"station_id":"ce4bgih2rcd13ifvqba0","pricing_plan_id":"cebpf4jnsgd1na2vs0mg"},{"bike_id":"95aee25f-5c57-4ea4-ae9b-fd75ffb2acea","system_id":"levelo_inurba_marseille","lat":43.23192,"lon":5.4,"is_reserved":false,"is_disabled":false,"rental_uris":{"android":"levelo://app?vid=95aee25f-5c57-4ea4-ae9b-fd75ffb2acea","ios":"levelo://app?vid=95aee25f-5c57-4ea4-ae9b-fd75ffb2acea"},"vehicle_type_id":"4","last_reported":1738350442,"current_range_meters":27600,"station_id":"ce4bhn12rcd13ifvqgqg","pricing_plan_id":"cebpf4jnsgd1na2vs0mg"},{"bike_id":"9756b272-03b5-4471-bc18-52f9b42aa28d","system_id":"levelo_inurba_marseille","lat":43.29091,"lon":5.38159,"is_reserved":false,"is_disabled":false,"rental_uris":{"android":"levelo://app?vid=9756b272-03b5-4471-bc18-52f9b42aa28d","ios":"levelo://app?vid=9756b272-03b5-4471-bc18-52f9b42aa28d"},"vehicle_type_id":"4","last_reported":1738350442,"current_range_meters":21600,"station_id":"ce4bh512rcd13ifvqe2g","pricing_plan_id":"cebpf4jnsgd1na2vs0mg"},{"bike_id":"528fe304-774b-4f5e-99b0-3a6df52f7bd5","system_id":"levelo_inurba_marseille","lat":43.26956,"lon":5.40251,"is_reserved":false,"is_disabled":false,"rental_uris":{"android":"levelo://app?vid=528fe304-774b-4f5e-99b0-3a6df52f7bd5","ios":"levelo://app?vid=528fe304-774b-4f5e-99b0-3a6df52f7bd5"},"vehicle_type_id":"4","last_reported":1738350442,"current_range_meters":24400,"station_id":"cjm6bp8fraef2m0cb0m0","pricing_plan_id":"cebpf4jnsgd1na2vs0mg"},{"bike_id":"79007731-40b9-4886-bf24-3a38eed6be0d","system_id":"levelo_inurba_marseille","lat":43.29273,"lon":5.38431,"is_reserved":false,"is_disabled":false,"rental_uris":{"android":"levelo://app?vid=79007731-40b9-4886-bf24-3a38eed6be0d","ios":"levelo://app?vid=79007731-40b9-4886-bf24-3a38eed6be0d"},"vehicle_type_id":"4","last_reported":1738350442,"current_range_meters":24800,"station_id":"ce4bh692rcd13ifvqea0","pricing_plan_id":"cebpf4jnsgd1na2vs0mg"},{"bike_id":"a23174e5-49d0-49d8-8ab5-c4b69d1c022f","system_id":"levelo_inurba_marseille","lat":43.27961,"lon":5.38742,"is_reserved":false,"is_disabled":false,"rental_uris":{"android":"levelo://app?vid=a23174e5-49d0-49d8-8ab5-c4b69d1c022f","ios":"levelo://app?vid=a23174e5-49d0-49d8-8ab5-c4b69d1c022f"},"vehicle_type_id":"4","last_reported":1738350442,"current_range_meters":36400,"station_id":"ce4bhg12rcd13ifvqf80","pricing_plan_id":"cebpf4jnsgd1na2vs0mg"},{"bike_id":"d21f4eb1-35d3-4c05-975d-4acb646fe622","system_id":"levelo_inurba_marseille","lat":43.29175,"lon":5.37162,"is_reserved":false,"is_disabled":false,"rental_uris":{"android":"levelo://app?vid=d21f4eb1-35d3-4c05-975d-4acb646fe622","ios":"levelo://app?vid=d21f4eb1-35d3-4c05-975d-4acb646fe622"},"vehicle_type_id":"4","last_reported":1738350442,"current_range_meters":20000,"station_id":"ce4bha92rcd13ifvqeh0","pricing_plan_id":"cebpf4jnsgd1na2vs0mg"},{"bike_id":"247c366a-5c83-4c6c-85e7-3ac5c6d09933","system_id":"levelo_inurba_marseille","lat":43.30539,"lon":5.36547,"is_reserved":false,"is_disabled":false,"rental_uris":{"android":"levelo://app?vid=247c366a-5c83-4c6c-85e7-3ac5c6d09933","ios":"levelo://app?vid=247c366a-5c83-4c6c-85e7-3ac5c6d09933"},"vehicle_type_id":"4","last_reported":1738350442,"current_range_meters":11600,"station_id":"ce4bgs12rcd13ifvqcag","pricing_plan_id":"cebpf4jnsgd1na2vs0mg"},{"bike_id":"c5bc8319-ffb7-4125-9e65-642650b2ee6d","system_id":"levelo_inurba_marseille","lat":43.28,"lon":5.40005,"is_reserved":false,"is_disabled":true,"rental_uris":{"android":"levelo://app?vid=c5bc8319-ffb7-4125-9e65-642650b2ee6d","ios":"levelo://app?vid=c5bc8319-ffb7-4125-9e65-642650b2ee6d"},"vehicle_type_id":"4","last_reported":1738350442,"current_range_meters":0,"station_id":"ce4bho92rcd13ifvqh4g","pricing_plan_id":"cebpf4jnsgd1na2vs0mg"},{"bike_id":"199631c1-294a-46e7-bafd-25c6a7bae0b4","system_id":"levelo_inurba_marseille","lat":43.267957,"lon":5.3842,"is_reserved":false,"is_disabled":false,"rental_uris":{"android":"levelo://app?vid=199631c1-294a-46e7-bafd-25c6a7bae0b4","ios":"levelo://app?vid=199631c1-294a-46e7-bafd-25c6a7bae0b4"},"vehicle_type_id":"4","last_reported":1738350442,"current_range_meters":4800,"station_id":"ce4bhg92rcd13ifvqf90","pricing_plan_id":"cebpf4jnsgd1na2vs0mg"},{"bike_id":"6725a974-636a-4cad-bf4d-273395199ad4","system_id":"levelo_inurba_marseille","lat":43.33718,"lon":5.39176,"is_reserved":false,"is_disabled":false,"rental_uris":{"android":"levelo://app?vid=6725a974-636a-4cad-bf4d-273395199ad4","ios":"levelo://app?vid=6725a974-636a-4cad-bf4d-273395199ad4"},"vehicle_type_id":"4","last_reported":1738350442,"current_range_meters":21600,"station_id":"ce4bhr92rcd13ifvqhsg","pricing_plan_id":"cebpf4jnsgd1na2vs0mg"},{"bike_id":"8d8545fe-b565-43ee-a059-fa0dcd94d7c0","system_id":"levelo_inurba_marseille","lat":43.2396,"lon":5.36636,"is_reserved":false,"is_disabled":false,"rental_uris":{"android":"levelo://app?vid=8d8545fe-b565-43ee-a059-fa0dcd94d7c0","ios":"levelo://app?vid=8d8545fe-b565-43ee-a059-fa0dcd94d7c0"},"vehicle_type_id":"4","last_reported":1738350442,"current_range_meters":18800,"station_id":"ce4bhi12rcd13ifvqfp0","pricing_plan_id":"cebpf4jnsgd1na2vs0mg"},{"bike_id":"bd8a828d-e634-4034-9cac-55889d5bbfa5","system_id":"levelo_inurba_marseille","lat":43.28162,"lon":5.42648,"is_reserved":false,"is_disabled":false,"rental_uris":{"android":"levelo://app?vid=bd8a828d-e634-4034-9cac-55889d5bbfa5","ios":"levelo://app?vid=bd8a828d-e634-4034-9cac-55889d5bbfa5"},"vehicle_type_id":"4","last_reported":1738350442,"current_range_meters":25200,"station_id":"ce4bhnh2rcd13ifvqgug","pricing_plan_id":"cebpf4jnsgd1na2vs0mg"},{"bike_id":"25bb9a7a-12ad-467c-a077-ab6fde9d7601","system_id":"levelo_inurba_marseille","lat":43.29531,"lon":5.38538,"is_reserved":false,"is_disabled":false,"rental_uris":{"android":"levelo://app?vid=25bb9a7a-12ad-467c-a077-ab6fde9d7601","ios":"levelo://app?vid=25bb9a7a-12ad-467c-a077-ab6fde9d7601"},"vehicle_type_id":"4","last_reported":1738350442,"current_range_meters":32000,"station_id":"ce4bgih2rcd13ifvqba0","pricing_plan_id":"cebpf4jnsgd1na2vs0mg"},{"bike_id":"cefc2fae-b9d1-4b5b-a1bd-83e121ca8958","system_id":"levelo_inurba_marseille","lat":43.30082,"lon":5.39071,"is_reserved":false,"is_disabled":false,"rental_uris":{"android":"levelo://app?vid=cefc2fae-b9d1-4b5b-a1bd-83e121ca8958","ios":"levelo://app?vid=cefc2fae-b9d1-4b5b-a1bd-83e121ca8958"},"vehicle_type_id":"4","last_reported":1738350442,"current_range_meters":27600,"station_id":"ce4bh192rcd13ifvqdb0","pricing_plan_id":"cebpf4jnsgd1na2vs0mg"},{"bike_id":"f9d35a32-65b2-4842-bd83-8cbe10324274","system_id":"levelo_inurba_marseille","lat":43.28631,"lon":5.3511,"is_reserved":false,"is_disabled":false,"rental_uris":{"android":"levelo://app?vid=f9d35a32-65b2-4842-bd83-8cbe10324274","ios":"levelo://app?vid=f9d35a32-65b2-4842-bd83-8cbe10324274"},"vehicle_type_id":"4","last_reported":1738350442,"current_range_meters":11200,"station_id":"ce4bhch2rcd13ifvqeug","pricing_plan_id":"cebpf4jnsgd1na2vs0mg"},{"bike_id":"e737d6b4-980a-4244-b0b6-85b0751595d1","system_id":"levelo_inurba_marseille","lat":43.32048,"lon":5.41524,"is_reserved":false,"is_disabled":false,"rental_uris":{"android":"levelo://app?vid=e737d6b4-980a-4244-b0b6-85b0751595d1","ios":"levelo://app?vid=e737d6b4-980a-4244-b0b6-85b0751595d1"},"vehicle_type_id":"4","last_reported":1738350442,"current_range_meters":37600,"station_id":"ce4bhq92rcd13ifvqhkg","pricing_plan_id":"cebpf4jnsgd1na2vs0mg"},{"bike_id":"2e2f669d-d921-4563-953e-55f8d6bdf4eb","system_id":"levelo_inurba_marseille","lat":43.31708,"lon":5.37748,"is_reserved":false,"is_disabled":false,"rental_uris":{"android":"levelo://app?vid=2e2f669d-d921-4563-953e-55f8d6bdf4eb","ios":"levelo://app?vid=2e2f669d-d921-4563-953e-55f8d6bdf4eb"},"vehicle_type_id":"4","last_reported":1738350442,"current_range_meters":17600,"station_id":"ce4bgth2rcd13ifvqch0","pricing_plan_id":"cebpf4jnsgd1na2vs0mg"},{"bike_id":"9135f31a-f34d-47d3-befb-b0ccb93abe31","system_id":"levelo_inurba_marseille","lat":43.26209,"lon":5.37438,"is_reserved":false,"is_disabled":false,"rental_uris":{"android":"levelo://app?vid=9135f31a-f34d-47d3-befb-b0ccb93abe31","ios":"levelo://app?vid=9135f31a-f34d-47d3-befb-b0ccb93abe31"},"vehicle_type_id":"4","last_reported":1738350442,"current_range_meters":38400,"station_id":"ce4bhgp2rcd13ifvqfc0","pricing_plan_id":"cebpf4jnsgd1na2vs0mg"},{"bike_id":"04507cab-e055-4f4d-bd41-920db9df1237","system_id":"levelo_inurba_marseille","lat":43.279325,"lon":5.41046,"is_reserved":false,"is_disabled":false,"rental_uris":{"android":"levelo://app?vid=04507cab-e055-4f4d-bd41-920db9df1237","ios":"levelo://app?vid=04507cab-e055-4f4d-bd41-920db9df1237"},"vehicle_type_id":"4","last_reported":1738350442,"current_range_meters":38800,"station_id":"ce4bhnp2rcd13ifvqh0g","pricing_plan_id":"cebpf4jnsgd1na2vs0mg"},{"bike_id":"46b43093-b875-4b52-a6ea-76dd9dc96ba1","system_id":"levelo_inurba_marseille","lat":43.3051,"lon":5.3653,"is_reserved":false,"is_disabled":true,"rental_uris":{"android":"levelo://app?vid=46b43093-b875-4b52-a6ea-76dd9dc96ba1","ios":"levelo://app?vid=46b43093-b875-4b52-a6ea-76dd9dc96ba1"},"vehicle_type_id":"4","last_reported":1738350442,"current_range_meters":2800,"station_id":"ce4bgs12rcd13ifvqcag","pricing_plan_id":"cebpf4jnsgd1na2vs0mg"},{"bike_id":"56d6b97f-30a2-4c2a-8be6-a12a9fc19507","system_id":"levelo_inurba_marseille","lat":43.31746,"lon":5.39029,"is_reserved":false,"is_disabled":false,"rental_uris":{"android":"levelo://app?vid=56d6b97f-30a2-4c2a-8be6-a12a9fc19507","ios":"levelo://app?vid=56d6b97f-30a2-4c2a-8be6-a12a9fc19507"},"vehicle_type_id":"4","last_reported":1738350442,"current_range_meters":12400,"station_id":"ce4bhqp2rcd13ifvqhng","pricing_plan_id":"cebpf4jnsgd1na2vs0mg"},{"bike_id":"d2a61873-58f7-4bc8-abeb-3ce8c1c55c8d","system_id":"levelo_inurba_marseille","lat":43.27208,"lon":5.40984,"is_reserved":false,"is_disabled":false,"rental_uris":{"android":"levelo://app?vid=d2a61873-58f7-4bc8-abeb-3ce8c1c55c8d","ios":"levelo://app?vid=d2a61873-58f7-4bc8-abeb-3ce8c1c55c8d"},"vehicle_type_id":"4","last_reported":1738350442,"current_range_meters":11600,"station_id":"ce4bhl12rcd13ifvqgf0","pricing_plan_id":"cebpf4jnsgd1na2vs0mg"},{"bike_id":"b366b5d2-c30a-4dd4-8d76-470d493b83c7","system_id":"levelo_inurba_marseille","lat":43.29224,"lon":5.36067,"is_reserved":false,"is_disabled":false,"rental_uris":{"android":"levelo://app?vid=b366b5d2-c30a-4dd4-8d76-470d493b83c7","ios":"levelo://app?vid=b366b5d2-c30a-4dd4-8d76-470d493b83c7"},"vehicle_type_id":"4","last_reported":1738350442,"current_range_meters":27200,"station_id":"ce4bhbh2rcd13ifvqeqg","pricing_plan_id":"cebpf4jnsgd1na2vs0mg"},{"bike_id":"f0fc0587-c4ca-446e-89ea-9495e306cea7","system_id":"levelo_inurba_marseille","lat":43.29426,"lon":5.38624,"is_reserved":false,"is_disabled":false,"rental_uris":{"android":"levelo://app?vid=f0fc0587-c4ca-446e-89ea-9495e306cea7","ios":"levelo://app?vid=f0fc0587-c4ca-446e-89ea-9495e306cea7"},"vehicle_type_id":"4","last_reported":1738350442,"current_range_meters":25600,"station_id":"ce4bh2h2rcd13ifvqdh0","pricing_plan_id":"cebpf4jnsgd1na2vs0mg"},{"bike_id":"1db9d821-3d1d-4b08-9074-7c724c8d153d","system_id":"levelo_inurba_marseille","lat":43.29165,"lon":5.37154,"is_reserved":false,"is_disabled":false,"rental_uris":{"android":"levelo://app?vid=1db9d821-3d1d-4b08-9074-7c724c8d153d","ios":"levelo://app?vid=1db9d821-3d1d-4b08-9074-7c724c8d153d"},"vehicle_type_id":"4","last_reported":1738350442,"current_range_meters":29600,"station_id":"ce4bha92rcd13ifvqeh0","pricing_plan_id":"cebpf4jnsgd1na2vs0mg"},{"bike_id":"9a181533-f0a4-4630-9917-524a4067b82d","system_id":"levelo_inurba_marseille","lat":43.28333,"lon":5.38623,"is_reserved":false,"is_disabled":false,"rental_uris":{"android":"levelo://app?vid=9a181533-f0a4-4630-9917-524a4067b82d","ios":"levelo://app?vid=9a181533-f0a4-4630-9917-524a4067b82d"},"vehicle_type_id":"4","last_reported":1738350442,"current_range_meters":8800,"station_id":"ce4bh492rcd13ifvqdvg","pricing_plan_id":"cebpf4jnsgd1na2vs0mg"},{"bike_id":"5b27fdcb-f519-4527-81fd-b4bf9380e39a","system_id":"levelo_inurba_marseille","lat":43.29911,"lon":5.38134,"is_reserved":false,"is_disabled":false,"rental_uris":{"android":"levelo://app?vid=5b27fdcb-f519-4527-81fd-b4bf9380e39a","ios":"levelo://app?vid=5b27fdcb-f519-4527-81fd-b4bf9380e39a"},"vehicle_type_id":"4","last_reported":1738350442,"current_range_meters":36800,"station_id":"ce4bgj12rcd13ifvqbc0","pricing_plan_id":"cebpf4jnsgd1na2vs0mg"},{"bike_id":"eb9246db-eb2e-4199-bf54-c5b17d9f10ce","system_id":"levelo_inurba_marseille","lat":43.29253,"lon":5.38431,"is_reserved":false,"is_disabled":false,"rental_uris":{"android":"levelo://app?vid=eb9246db-eb2e-4199-bf54-c5b17d9f10ce","ios":"levelo://app?vid=eb9246db-eb2e-4199-bf54-c5b17d9f10ce"},"vehicle_type_id":"4","last_reported":1738350442,"current_range_meters":31200,"station_id":"ce4bh692rcd13ifvqea0","pricing_plan_id":"cebpf4jnsgd1na2vs0mg"},{"bike_id":"72cedc5f-5543-4a34-ace1-884e06d88ed8","system_id":"levelo_inurba_marseille","lat":43.2895,"lon":5.36401,"is_reserved":false,"is_disabled":false,"rental_uris":{"android":"levelo://app?vid=72cedc5f-5543-4a34-ace1-884e06d88ed8","ios":"levelo://app?vid=72cedc5f-5543-4a34-ace1-884e06d88ed8"},"vehicle_type_id":"4","last_reported":1738350442,"current_range_meters":26000,"station_id":"ce4bhc92rcd13ifvqetg","pricing_plan_id":"cebpf4jnsgd1na2vs0mg"},{"bike_id":"8949aaa9-8c9b-4225-a8e6-9ae66077d0d6","system_id":"levelo_inurba_marseille","lat":43.287,"lon":5.3739,"is_reserved":false,"is_disabled":false,"rental_uris":{"android":"levelo://app?vid=8949aaa9-8c9b-4225-a8e6-9ae66077d0d6","ios":"levelo://app?vid=8949aaa9-8c9b-4225-a8e6-9ae66077d0d6"},"vehicle_type_id":"4","last_reported":1738350442,"current_range_meters":18800,"station_id":"ce4bh3p2rcd13ifvqdq0","pricing_plan_id":"cebpf4jnsgd1na2vs0mg"},{"bike_id":"41b554f2-cf43-4588-8a5c-534c1fc216d3","system_id":"levelo_inurba_marseille","lat":43.2958,"lon":5.36745,"is_reserved":false,"is_disabled":false,"rental_uris":{"android":"levelo://app?vid=41b554f2-cf43-4588-8a5c-534c1fc216d3","ios":"levelo://app?vid=41b554f2-cf43-4588-8a5c-534c1fc216d3"},"vehicle_type_id":"4","last_reported":1738350442,"current_range_meters":38000,"station_id":"ce4bgph2rcd13ifvqc2g","pricing_plan_id":"cebpf4jnsgd1na2vs0mg"},{"bike_id":"99439bf7-ff60-4ca8-a508-a1c01e77d327","system_id":"levelo_inurba_marseille","lat":43.2572,"lon":5.41122,"is_reserved":false,"is_disabled":false,"rental_uris":{"android":"levelo://app?vid=99439bf7-ff60-4ca8-a508-a1c01e77d327","ios":"levelo://app?vid=99439bf7-ff60-4ca8-a508-a1c01e77d327"},"vehicle_type_id":"4","last_reported":1738350442,"current_range_meters":29600,"station_id":"ce4bhkp2rcd13ifvqgd0","pricing_plan_id":"cebpf4jnsgd1na2vs0mg"},{"bike_id":"32d9a329-7366-4eb8-8d55-73b5c99c70c3","system_id":"levelo_inurba_marseille","lat":43.23192,"lon":5.3555,"is_reserved":false,"is_disabled":false,"rental_uris":{"android":"levelo://app?vid=32d9a329-7366-4eb8-8d55-73b5c99c70c3","ios":"levelo://app?vid=32d9a329-7366-4eb8-8d55-73b5c99c70c3"},"vehicle_type_id":"4","last_reported":1738350442,"current_range_meters":38800,"station_id":"ce4bhu92rcd13ifvqi70","pricing_plan_id":"cebpf4jnsgd1na2vs0mg"},{"bike_id":"ac1113cd-cfaf-40b6-8ac0-3eb89a50baf7","system_id":"levelo_inurba_marseille","lat":43.31455,"lon":5.37286,"is_reserved":false,"is_disabled":true,"rental_uris":{"android":"levelo://app?vid=ac1113cd-cfaf-40b6-8ac0-3eb89a50baf7","ios":"levelo://app?vid=ac1113cd-cfaf-40b6-8ac0-3eb89a50baf7"},"vehicle_type_id":"4","last_reported":1738350442,"current_range_meters":800,"station_id":"ce4bgt12rcd13ifvqcd0","pricing_plan_id":"cebpf4jnsgd1na2vs0mg"},{"bike_id":"e21a7987-4d7b-4189-bbf2-8f09bad879d5","system_id":"levelo_inurba_marseille","lat":43.29541,"lon":5.3855,"is_reserved":false,"is_disabled":false,"rental_uris":{"android":"levelo://app?vid=e21a7987-4d7b-4189-bbf2-8f09bad879d5","ios":"levelo://app?vid=e21a7987-4d7b-4189-bbf2-8f09bad879d5"},"vehicle_type_id":"4","last_reported":1738350442,"current_range_meters":12800,"station_id":"ce4bgih2rcd13ifvqba0","pricing_plan_id":"cebpf4jnsgd1na2vs0mg"},{"bike_id":"0a2fd205-d616-4064-aa75-d4d529957d90","system_id":"levelo_inurba_marseille","lat":43.23067,"lon":5.35484,"is_reserved":false,"is_disabled":false,"rental_uris":{"android":"levelo://app?vid=0a2fd205-d616-4064-aa75-d4d529957d90","ios":"levelo://app?vid=0a2fd205-d616-4064-aa75-d4d529957d90"},"vehicle_type_id":"4","last_reported":1738350442,"current_range_meters":19600,"station_id":"cpo3342slgdg3j2ifvpg","pricing_plan_id":"cebpf4jnsgd1na2vs0mg"},{"bike_id":"3f5e4e01-da65-4c7d-a747-491f37561c5e","system_id":"levelo_inurba_marseille","lat":43.29323,"lon":5.37177,"is_reserved":false,"is_disabled":false,"rental_uris":{"android":"levelo://app?vid=3f5e4e01-da65-4c7d-a747-491f37561c5e","ios":"levelo://app?vid=3f5e4e01-da65-4c7d-a747-491f37561c5e"},"vehicle_type_id":"4","last_reported":1738350442,"current_range_meters":38400,"station_id":"ce4bgh92rcd13ifvqb40","pricing_plan_id":"cebpf4jnsgd1na2vs0mg"},{"bike_id":"0d1047b6-03c7-48d2-962a-3dff01240ef6","system_id":"levelo_inurba_marseille","lat":43.31528,"lon":5.38037,"is_reserved":false,"is_disabled":false,"rental_uris":{"android":"levelo://app?vid=0d1047b6-03c7-48d2-962a-3dff01240ef6","ios":"levelo://app?vid=0d1047b6-03c7-48d2-962a-3dff01240ef6"},"vehicle_type_id":"4","last_reported":1738350442,"current_range_meters":38000,"station_id":"ce4bhsp2rcd13ifvqi50","pricing_plan_id":"cebpf4jnsgd1na2vs0mg"},{"bike_id":"c12814ba-0171-4dbd-8b32-1b073a8f3441","system_id":"levelo_inurba_marseille","lat":43.294241,"lon":5.386231,"is_reserved":false,"is_disabled":false,"rental_uris":{"android":"levelo://app?vid=c12814ba-0171-4dbd-8b32-1b073a8f3441","ios":"levelo://app?vid=c12814ba-0171-4dbd-8b32-1b073a8f3441"},"vehicle_type_id":"4","last_reported":1738350442,"current_range_meters":14400,"station_id":"ce4bh2h2rcd13ifvqdh0","pricing_plan_id":"cebpf4jnsgd1na2vs0mg"},{"bike_id":"36e3a682-dd00-4474-89d9-bbaf36706a41","system_id":"levelo_inurba_marseille","lat":43.2799,"lon":5.40066,"is_reserved":false,"is_disabled":false,"rental_uris":{"android":"levelo://app?vid=36e3a682-dd00-4474-89d9-bbaf36706a41","ios":"levelo://app?vid=36e3a682-dd00-4474-89d9-bbaf36706a41"},"vehicle_type_id":"4","last_reported":1738350442,"current_range_meters":38800,"station_id":"ce4bho92rcd13ifvqh4g","pricing_plan_id":"cebpf4jnsgd1na2vs0mg"},{"bike_id":"ba30f655-e366-4cff-a262-69d9d294d0c8","system_id":"levelo_inurba_marseille","lat":43.303,"lon":5.3688,"is_reserved":false,"is_disabled":false,"rental_uris":{"android":"levelo://app?vid=ba30f655-e366-4cff-a262-69d9d294d0c8","ios":"levelo://app?vid=ba30f655-e366-4cff-a262-69d9d294d0c8"},"vehicle_type_id":"4","last_reported":1738350442,"current_range_meters":30000,"station_id":"ce4bgqh2rcd13ifvqc5g","pricing_plan_id":"cebpf4jnsgd1na2vs0mg"},{"bike_id":"1a336764-d735-4d55-8cfc-765bd887ff74","system_id":"levelo_inurba_marseille","lat":43.31077,"lon":5.38351,"is_reserved":false,"is_disabled":false,"rental_uris":{"android":"levelo://app?vid=1a336764-d735-4d55-8cfc-765bd887ff74","ios":"levelo://app?vid=1a336764-d735-4d55-8cfc-765bd887ff74"},"vehicle_type_id":"4","last_reported":1738350442,"current_range_meters":28000,"station_id":"ce4bgv92rcd13ifvqcr0","pricing_plan_id":"cebpf4jnsgd1na2vs0mg"},{"bike_id":"c170e454-abc9-490f-b2fd-841eed439663","system_id":"levelo_inurba_marseille","lat":43.2693,"lon":5.38924,"is_reserved":false,"is_disabled":false,"rental_uris":{"android":"levelo://app?vid=c170e454-abc9-490f-b2fd-841eed439663","ios":"levelo://app?vid=c170e454-abc9-490f-b2fd-841eed439663"},"vehicle_type_id":"4","last_reported":1738350442,"current_range_meters":38800,"station_id":"ce4bhhh2rcd13ifvqfl0","pricing_plan_id":"cebpf4jnsgd1na2vs0mg"},{"bike_id":"803e03d8-7d2e-4feb-ac46-774902d16dee","system_id":"levelo_inurba_marseille","lat":43.33759,"lon":5.37451,"is_reserved":false,"is_disabled":true,"rental_uris":{"android":"levelo://app?vid=803e03d8-7d2e-4feb-ac46-774902d16dee","ios":"levelo://app?vid=803e03d8-7d2e-4feb-ac46-774902d16dee"},"vehicle_type_id":"4","last_reported":1738350442,"current_range_meters":36400,"station_id":"","pricing_plan_id":"cebpf4jnsgd1na2vs0mg"},{"bike_id":"90ec68d9-f1e9-4cfa-8e90-35c17ab03bc3","system_id":"levelo_inurba_marseille","lat":43.29514,"lon":5.39397,"is_reserved":false,"is_disabled":true,"rental_uris":{"android":"levelo://app?vid=90ec68d9-f1e9-4cfa-8e90-35c17ab03bc3","ios":"levelo://app?vid=90ec68d9-f1e9-4cfa-8e90-35c17ab03bc3"},"vehicle_type_id":"4","last_reported":1738350442,"current_range_meters":11600,"station_id":"ce4bh292rcd13ifvqdf0","pricing_plan_id":"cebpf4jnsgd1na2vs0mg"},{"bike_id":"71383ff9-6e87-4d30-90a6-8c6d09e9366a","system_id":"levelo_inurba_marseille","lat":43.29298,"lon":5.37179,"is_reserved":false,"is_disabled":false,"rental_uris":{"android":"levelo://app?vid=71383ff9-6e87-4d30-90a6-8c6d09e9366a","ios":"levelo://app?vid=71383ff9-6e87-4d30-90a6-8c6d09e9366a"},"vehicle_type_id":"4","last_reported":1738350442,"current_range_meters":35600,"station_id":"ce4bgh92rcd13ifvqb40","pricing_plan_id":"cebpf4jnsgd1na2vs0mg"},{"bike_id":"7c53007d-3209-4f88-9146-2a9e2d8e60b6","system_id":"levelo_inurba_marseille","lat":43.27352,"lon":5.39085,"is_reserved":false,"is_disabled":false,"rental_uris":{"android":"levelo://app?vid=7c53007d-3209-4f88-9146-2a9e2d8e60b6","ios":"levelo://app?vid=7c53007d-3209-4f88-9146-2a9e2d8e60b6"},"vehicle_type_id":"4","last_reported":1738350442,"current_range_meters":16000,"station_id":"ce4bhgp2rcd13ifvqfe0","pricing_plan_id":"cebpf4jnsgd1na2vs0mg"},{"bike_id":"f0014efe-59be-4c6a-b455-e28e23b4487f","system_id":"levelo_inurba_marseille","lat":43.27803,"lon":5.40748,"is_reserved":false,"is_disabled":false,"rental_uris":{"android":"levelo://app?vid=f0014efe-59be-4c6a-b455-e28e23b4487f","ios":"levelo://app?vid=f0014efe-59be-4c6a-b455-e28e23b4487f"},"vehicle_type_id":"4","last_reported":1738350442,"current_range_meters":28800,"station_id":"ce4bhnh2rcd13ifvqgtg","pricing_plan_id":"cebpf4jnsgd1na2vs0mg"},{"bike_id":"1f3960cd-eea7-4117-a4b8-926e34aacb5c","system_id":"levelo_inurba_marseille","lat":43.28607,"lon":5.3706,"is_reserved":false,"is_disabled":true,"rental_uris":{"android":"levelo://app?vid=1f3960cd-eea7-4117-a4b8-926e34aacb5c","ios":"levelo://app?vid=1f3960cd-eea7-4117-a4b8-926e34aacb5c"},"vehicle_type_id":"4","last_reported":1738350442,"current_range_meters":18000,"station_id":"ce4bht12rcd13ifvqi60","pricing_plan_id":"cebpf4jnsgd1na2vs0mg"},{"bike_id":"6337d338-3511-4993-ada0-12102998e834","system_id":"levelo_inurba_marseille","lat":43.23062,"lon":5.35499,"is_reserved":false,"is_disabled":false,"rental_uris":{"android":"levelo://app?vid=6337d338-3511-4993-ada0-12102998e834","ios":"levelo://app?vid=6337d338-3511-4993-ada0-12102998e834"},"vehicle_type_id":"4","last_reported":1738350442,"current_range_meters":13600,"station_id":"cpo3342slgdg3j2ifvpg","pricing_plan_id":"cebpf4jnsgd1na2vs0mg"},{"bike_id":"fe003c8d-49c9-48fb-b04d-8f90aac5a3e9","system_id":"levelo_inurba_marseille","lat":43.25024,"lon":5.38942,"is_reserved":false,"is_disabled":false,"rental_uris":{"android":"levelo://app?vid=fe003c8d-49c9-48fb-b04d-8f90aac5a3e9","ios":"levelo://app?vid=fe003c8d-49c9-48fb-b04d-8f90aac5a3e9"},"vehicle_type_id":"4","last_reported":1738350442,"current_range_meters":33200,"station_id":"ce4bhgp2rcd13ifvqfd0","pricing_plan_id":"cebpf4jnsgd1na2vs0mg"},{"bike_id":"390af985-5234-4482-bc3d-40169765f997","system_id":"levelo_inurba_marseille","lat":43.31725,"lon":5.42401,"is_reserved":false,"is_disabled":false,"rental_uris":{"android":"levelo://app?vid=390af985-5234-4482-bc3d-40169765f997","ios":"levelo://app?vid=390af985-5234-4482-bc3d-40169765f997"},"vehicle_type_id":"4","last_reported":1738350442,"current_range_meters":39200,"station_id":"ce4bhp92rcd13ifvqhbg","pricing_plan_id":"cebpf4jnsgd1na2vs0mg"},{"bike_id":"9698feea-16ac-4dc0-ae29-d75388b3a8d9","system_id":"levelo_inurba_marseille","lat":43.28003,"lon":5.40003,"is_reserved":false,"is_disabled":false,"rental_uris":{"android":"levelo://app?vid=9698feea-16ac-4dc0-ae29-d75388b3a8d9","ios":"levelo://app?vid=9698feea-16ac-4dc0-ae29-d75388b3a8d9"},"vehicle_type_id":"4","last_reported":1738350442,"current_range_meters":32000,"station_id":"ce4bho92rcd13ifvqh4g","pricing_plan_id":"cebpf4jnsgd1na2vs0mg"},{"bike_id":"3e06e3df-52c1-4111-856b-f1a8184ab824","system_id":"levelo_inurba_marseille","lat":43.27801,"lon":5.40727,"is_reserved":false,"is_disabled":false,"rental_uris":{"android":"levelo://app?vid=3e06e3df-52c1-4111-856b-f1a8184ab824","ios":"levelo://app?vid=3e06e3df-52c1-4111-856b-f1a8184ab824"},"vehicle_type_id":"4","last_reported":1738350442,"current_range_meters":27200,"station_id":"ce4bhnh2rcd13ifvqgtg","pricing_plan_id":"cebpf4jnsgd1na2vs0mg"},{"bike_id":"d994d4a0-0318-4f4e-9986-d94426f50c25","system_id":"levelo_inurba_marseille","lat":43.26235,"lon":5.37436,"is_reserved":false,"is_disabled":false,"rental_uris":{"android":"levelo://app?vid=d994d4a0-0318-4f4e-9986-d94426f50c25","ios":"levelo://app?vid=d994d4a0-0318-4f4e-9986-d94426f50c25"},"vehicle_type_id":"4","last_reported":1738350442,"current_range_meters":38800,"station_id":"ce4bhgp2rcd13ifvqfc0","pricing_plan_id":"cebpf4jnsgd1na2vs0mg"},{"bike_id":"98840af9-4585-4a79-b62b-69a5b9955a74","system_id":"levelo_inurba_marseille","lat":43.29839,"lon":5.3627,"is_reserved":false,"is_disabled":false,"rental_uris":{"android":"levelo://app?vid=98840af9-4585-4a79-b62b-69a5b9955a74","ios":"levelo://app?vid=98840af9-4585-4a79-b62b-69a5b9955a74"},"vehicle_type_id":"4","last_reported":1738350442,"current_range_meters":38800,"station_id":"ce4bgpp2rcd13ifvqc3g","pricing_plan_id":"cebpf4jnsgd1na2vs0mg"},{"bike_id":"9900f1a4-6fec-4768-9689-365d0e3a621d","system_id":"levelo_inurba_marseille","lat":43.232,"lon":5.39958,"is_reserved":false,"is_disabled":false,"rental_uris":{"android":"levelo://app?vid=9900f1a4-6fec-4768-9689-365d0e3a621d","ios":"levelo://app?vid=9900f1a4-6fec-4768-9689-365d0e3a621d"},"vehicle_type_id":"4","last_reported":1738350442,"current_range_meters":38800,"station_id":"ce4bhn12rcd13ifvqgqg","pricing_plan_id":"cebpf4jnsgd1na2vs0mg"},{"bike_id":"81ac7e63-099c-4c08-9548-b8a4a9a4caed","system_id":"levelo_inurba_marseille","lat":43.29273,"lon":5.40133,"is_reserved":false,"is_disabled":false,"rental_uris":{"android":"levelo://app?vid=81ac7e63-099c-4c08-9548-b8a4a9a4caed","ios":"levelo://app?vid=81ac7e63-099c-4c08-9548-b8a4a9a4caed"},"vehicle_type_id":"4","last_reported":1738350442,"current_range_meters":33600,"station_id":"ce4bh312rcd13ifvqdk0","pricing_plan_id":"cebpf4jnsgd1na2vs0mg"},{"bike_id":"6630ca91-ca35-4e81-9c54-578b49e543d0","system_id":"levelo_inurba_marseille","lat":43.27794,"lon":5.40737,"is_reserved":false,"is_disabled":false,"rental_uris":{"android":"levelo://app?vid=6630ca91-ca35-4e81-9c54-578b49e543d0","ios":"levelo://app?vid=6630ca91-ca35-4e81-9c54-578b49e543d0"},"vehicle_type_id":"4","last_reported":1738350442,"current_range_meters":34800,"station_id":"ce4bhnh2rcd13ifvqgtg","pricing_plan_id":"cebpf4jnsgd1na2vs0mg"},