{"last_updated":1732713679,"ttl":60,"version":"2.2","data":{"bikes":[{"bike_id":"c6a7d785-3704-497f-a4a1-3b79a59f06ec","system_id":"levelo_inurba_marseille","lat":43.25724,"lon":5.41114,"is_reserved":false,"is_disabled":false,"rental_uris":{"android":"levelo://app?vid=c6a7d785-3704-497f-a4a1-3b79a59f06ec","ios":"levelo://app?vid=c6a7d785-3704-497f-a4a1-3b79a59f06ec"},"vehicle_type_id":"4","last_reported":1732713679,"current_range_meters":39200,"station_id":"ce4bhkp2rcd13ifvqgd0","pricing_plan_id":"cebpf4jnsgd1na2vs0mg"},{"bike_id":"bf2cd157-98d0-4e6e-818c-0734b30a6a82","system_id":"levelo_inurba_marseille","lat":43.27812,"lon":5.40717,"is_reserved":false,"is_disabled":false,"rental_uris":{"android":"levelo://app?vid=bf2cd157-98d0-4e6e-818c-0734b30a6a82","ios":"levelo://app?vid=bf2cd157-98d0-4e6e-818c-0734b30a6a82"},"vehicle_type_id":"4","last_reported":1732713679,"current_range_meters":38800,"station_id":"ce4bhnh2rcd13ifvqgtg","pricing_plan_id":"cebpf4jnsgd1na2vs0mg"},{"bike_id":"588b13ba-316c-4927-a0c6-d0e9a781a85d","system_id":"levelo_inurba_marseille","lat":43.2315,"lon":5.43704,"is_reserved":false,"is_disabled":false,"rental_uris":{"android":"levelo://app?vid=588b13ba-316c-4927-a0c6-d0e9a781a85d","ios":"levelo://app?vid=588b13ba-316c-4927-a0c6-d0e9a781a85d"},"vehicle_type_id":"4","last_reported":1732713679,"current_range_meters":3200,"station_id":"ce4bhmp2rcd13ifvqgog","pricing_plan_id":"cebpf4jnsgd1na2vs0mg"},{"bike_id":"b856c8b4-412d-4c25-bdd4-e6b29aed04cb","system_id":"levelo_inurba_marseille","lat":43.22939,"lon":5.35375,"is_reserved":false,"is_disabled":false,"rental_uris":{"android":"levelo://app?vid=b856c8b4-412d-4c25-bdd4-e6b29aed04cb","ios":"levelo://app?vid=b856c8b4-412d-4c25-bdd4-e6b29aed04cb"},"vehicle_type_id":"4","last_reported":1732713679,"current_range_meters":38800,"station_id":"cpo3532slgdg3j2ikp40","pricing_plan_id":"cebpf4jnsgd1na2vs0mg"},{"bike_id":"d19060f2-5727-4f42-a768-018e4f5bdd8f","system_id":"levelo_inurba_marseille","lat":43.32472,"lon":5.36598,"is_reserved":false,"is_disabled":false,"rental_uris":{"android":"levelo://app?vid=d19060f2-5727-4f42-a768-018e4f5bdd8f","ios":"levelo://app?vid=d19060f2-5727-4f42-a768-018e4f5bdd8f"},"vehicle_type_id":"4","last_reported":1732713679,"current_range_meters":8400,"station_id":"ce4bhs12rcd13ifvqhvg","pricing_plan_id":"cebpf4jnsgd1na2vs0mg"},{"bike_id":"57719a15-c0de-443e-8985-911de65c9e44","system_id":"levelo_inurba_marseille","lat":43.3053,"lon":5.36713,"is_reserved":false,"is_disabled":false,"rental_uris":{"android":"levelo://app?vid=57719a15-c0de-443e-8985-911de65c9e44","ios":"levelo://app?vid=57719a15-c0de-443e-8985-911de65c9e44"},"vehicle_type_id":"4","last_reported":1732713679,"current_range_meters":33600,"station_id":"ce4bgrp2rcd13ifvqc9g","pricing_plan_id":"cebpf4jnsgd1na2vs0mg"},{"bike_id":"a2acd307-89dc-4391-ab35-feefe78bbe68","system_id":"levelo_inurba_marseille","lat":43.30544,"lon":5.36713,"is_reserved":false,"is_disabled":false,"rental_uris":{"android":"levelo://app?vid=a2acd307-89dc-4391-ab35-feefe78bbe68","ios":"levelo://app?vid=a2acd307-89dc-4391-ab35-feefe78bbe68"},"vehicle_type_id":"4","last_reported":1732713679,"current_range_meters":4000,"station_id":"ce4bgrp2rcd13ifvqc9g","pricing_plan_id":"cebpf4jnsgd1na2vs0mg"},{"bike_id":"d2cf7a78-7eb1-4d32-aa77-ae8ed51e3e3f","system_id":"levelo_inurba_marseille","lat":43.33743,"lon":5.37447,"is_reserved":false,"is_disabled":false,"rental_uris":{"android":"levelo://app?vid=d2cf7a78-7eb1-4d32-aa77-ae8ed51e3e3f","ios":"levelo://app?vid=d2cf7a78-7eb1-4d32-aa77-ae8ed51e3e3f"},"vehicle_type_id":"4","last_reported":1732713679,"current_range_meters":18000,"station_id":"","pricing_plan_id":"cebpf4jnsgd1na2vs0mg"},{"bike_id":"6c5b3a32-97af-4baf-ba4b-895d1e1f1600","system_id":"levelo_inurba_marseille","lat":43.23186,"lon":5.39987,"is_reserved":false,"is_disabled":false,"rental_uris":{"android":"levelo://app?vid=6c5b3a32-97af-4baf-ba4b-895d1e1f1600","ios":"levelo://app?vid=6c5b3a32-97af-4baf-ba4b-895d1e1f1600"},"vehicle_type_id":"4","last_reported":1732713679,"current_range_meters":28000,"station_id":"ce4bhn12rcd13ifvqgqg","pricing_plan_id":"cebpf4jnsgd1na2vs0mg"},{"bike_id":"5fd478f2-f656-4047-8a6c-ac129d9ea60a","system_id":"levelo_inurba_marseille","lat":43.31115,"lon":5.3777,"is_reserved":false,"is_disabled":false,"rental_uris":{"android":"levelo://app?vid=5fd478f2-f656-4047-8a6c-ac129d9ea60a","ios":"levelo://app?vid=5fd478f2-f656-4047-8a6c-ac129d9ea60a"},"vehicle_type_id":"4","last_reported":1732713679,"current_range_meters":25600,"station_id":"ce4bgt92rcd13ifvqcg0","pricing_plan_id":"cebpf4jnsgd1na2vs0mg"},{"bike_id":"b6e55909-b606-4892-b79b-8a3ade1e1d9a","system_id":"levelo_inurba_marseille","lat":43.30038,"lon":5.39963,"is_reserved":false,"is_disabled":false,"rental_uris":{"android":"levelo://app?vid=b6e55909-b606-4892-b79b-8a3ade1e1d9a","ios":"levelo://app?vid=b6e55909-b606-4892-b79b-8a3ade1e1d9a"},"vehicle_type_id":"4","last_reported":1732713679,"current_range_meters":36400,"station_id":"","pricing_plan_id":"cebpf4jnsgd1na2vs0mg"},{"bike_id":"f8eb9aa2-2b8a-4ea9-811f-ba7dffa5189c","system_id":"levelo_inurba_marseille","lat":43.29006,"lon":5.38158,"is_reserved":false,"is_disabled":false,"rental_uris":{"android":"levelo://app?vid=f8eb9aa2-2b8a-4ea9-811f-ba7dffa5189c","ios":"levelo://app?vid=f8eb9aa2-2b8a-4ea9-811f-ba7dffa5189c"},"vehicle_type_id":"4","last_reported":1732713679,"current_range_meters":16800,"station_id":"ce4bh4p2rcd13ifvqe1g","pricing_plan_id":"cebpf4jnsgd1na2vs0mg"},{"bike_id":"394c9d8a-fd21-4a2d-81e8-17b9e380c882","system_id":"levelo_inurba_marseille","lat":43.26498,"lon":5.39542,"is_reserved":false,"is_disabled":false,"rental_uris":{"android":"levelo://app?vid=394c9d8a-fd21-4a2d-81e8-17b9e380c882","ios":"levelo://app?vid=394c9d8a-fd21-4a2d-81e8-17b9e380c882"},"vehicle_type_id":"4","last_reported":1732713679,"current_range_meters":34800,"station_id":"ce4bhi12rcd13ifvqfq0","pricing_plan_id":"cebpf4jnsgd1na2vs0mg"},{"bike_id":"ec684136-a295-40d3-811e-7ae67285a272","system_id":"levelo_inurba_marseille","lat":43.24805,"lon":5.37455,"is_reserved":false,"is_disabled":false,"rental_uris":{"android":"levelo://app?vid=ec684136-a295-40d3-811e-7ae67285a272","ios":"levelo://app?vid=ec684136-a295-40d3-811e-7ae67285a272"},"vehicle_type_id":"4","last_reported":1732713679,"current_range_meters":38800,"station_id":"ce4bhgh2rcd13ifvqfb0","pricing_plan_id":"cebpf4jnsgd1na2vs0mg"},{"bike_id":"e116ae66-ae66-4b96-84da-2e00bc4e833e","system_id":"levelo_inurba_marseille","lat":43.31361,"lon":5.36709,"is_reserved":false,"is_disabled":false,"rental_uris":{"android":"levelo://app?vid=e116ae66-ae66-4b96-84da-2e00bc4e833e","ios":"levelo://app?vid=e116ae66-ae66-4b96-84da-2e00bc4e833e"},"vehicle_type_id":"4","last_reported":1732713679,"current_range_meters":9600,"station_id":"ce4bgr92rcd13ifvqc6g","pricing_plan_id":"cebpf4jnsgd1na2vs0mg"},{"bike_id":"4125a969-51a0-4141-9cb5-32753dc8d270","system_id":"levelo_inurba_marseille","lat":43.26548,"lon":5.3729,"is_reserved":false,"is_disabled":false,"rental_uris":{"android":"levelo://app?vid=4125a969-51a0-4141-9cb5-32753dc8d270","ios":"levelo://app?vid=4125a969-51a0-4141-9cb5-32753dc8d270"},"vehicle_type_id":"4","last_reported":1732713679,"current_range_meters":20800,"station_id":"ce4bhg12rcd13ifvqf70","pricing_plan_id":"cebpf4jnsgd1na2vs0mg"},{"bike_id":"9e3c2876-bcf1-44df-af3d-438021449c44","system_id":"levelo_inurba_marseille","lat":43.30948,"lon":5.39033,"is_reserved":false,"is_disabled":false,"rental_uris":{"android":"levelo://app?vid=9e3c2876-bcf1-44df-af3d-438021449c44","ios":"levelo://app?vid=9e3c2876-bcf1-44df-af3d-438021449c44"},"vehicle_type_id":"4","last_reported":1732713679,"current_range_meters":22000,"station_id":"ce4bgup2rcd13ifvqco0","pricing_plan_id":"cebpf4jnsgd1na2vs0mg"},{"bike_id":"ce15a521-8a1d-47b7-92c8-091ca367d00e","system_id":"levelo_inurba_marseille","lat":43.33753,"lon":5.37447,"is_reserved":false,"is_disabled":false,"rental_uris":{"android":"levelo://app?vid=ce15a521-8a1d-47b7-92c8-091ca367d00e","ios":"levelo://app?vid=ce15a521-8a1d-47b7-92c8-091ca367d00e"},"vehicle_type_id":"4","last_reported":1732713679,"current_range_meters":38800,"station_id":"","pricing_plan_id":"cebpf4jnsgd1na2vs0mg"},{"bike_id":"04eefef5-6e7b-4152-baff-09d7961f031b","system_id":"levelo_inurba_marseille","lat":43.29181,"lon":5.35804,"is_reserved":false,"is_disabled":true,"rental_uris":{"android":"levelo://app?vid=04eefef5-6e7b-4152-baff-09d7961f031b","ios":"levelo://app?vid=04eefef5-6e7b-4152-baff-09d7961f031b"},"vehicle_type_id":"4","last_reported":1732713679,"current_range_meters":0,"station_id":"ce4bhb12rcd13ifvqel0","pricing_plan_id":"cebpf4jnsgd1na2vs0mg"},{"bike_id":"0680144a-f56d-4008-ae28-2e3969a72ddc","system_id":"levelo_inurba_marseille","lat":43.25498,"lon":5.37652,"is_reserved":false,"is_disabled":false,"rental_uris":{"android":"levelo://app?vid=0680144a-f56d-4008-ae28-2e3969a72ddc","ios":"levelo://app?vid=0680144a-f56d-4008-ae28-2e3969a72ddc"},"vehicle_type_id":"4","last_reported":1732713679,"current_range_meters":19200,"station_id":"ce4bhh12rcd13ifvqff0","pricing_plan_id":"cebpf4jnsgd1na2vs0mg"},{"bike_id":"0ee15fb6-a30a-4976-b676-dd8cc8f45df7","system_id":"levelo_inurba_marseille","lat":43.29709,"lon":5.37696,"is_reserved":false,"is_disabled":false,"rental_uris":{"android":"levelo://app?vid=0ee15fb6-a30a-4976-b676-dd8cc8f45df7","ios":"levelo://app?vid=0ee15fb6-a30a-4976-b676-dd8cc8f45df7"},"vehicle_type_id":"4","last_reported":1732713679,"current_range_meters":8800,"station_id":"ce4bgkh2rcd13ifvqbl0","pricing_plan_id":"cebpf4jnsgd1na2vs0mg"},{"bike_id":"1a29b0d7-d35e-4186-9c6a-528f56e25fa6","system_id":"levelo_inurba_marseille","lat":43.25814,"lon":5.39424,"is_reserved":false,"is_disabled":false,"rental_uris":{"android":"levelo://app?vid=1a29b0d7-d35e-4186-9c6a-528f56e25fa6","ios":"levelo://app?vid=1a29b0d7-d35e-4186-9c6a-528f56e25fa6"},"vehicle_type_id":"4","last_reported":1732713679,"current_range_meters":40000,"station_id":"ce4bhip2rcd13ifvqft0","pricing_plan_id":"cebpf4jnsgd1na2vs0mg"},{"bike_id":"dd4d37fd-527d-4c39-afdd-3d019c17cebf","system_id":"levelo_inurba_marseille","lat":43.28592,"lon":5.37063,"is_reserved":false,"is_disabled":false,"rental_uris":{"android":"levelo://app?vid=dd4d37fd-527d-4c39-afdd-3d019c17cebf","ios":"levelo://app?vid=dd4d37fd-527d-4c39-afdd-3d019c17cebf"},"vehicle_type_id":"4","last_reported":1732713679,"current_range_meters":32800,"station_id":"ce4bht12rcd13ifvqi60","pricing_plan_id":"cebpf4jnsgd1na2vs0mg"},{"bike_id":"06a5f958-bb59-43f5-ba72-490eb65aa2eb","system_id":"levelo_inurba_marseille","lat":43.25086,"lon":5.39518,"is_reserved":false,"is_disabled":false,"rental_uris":{"android":"levelo://app?vid=06a5f958-bb59-43f5-ba72-490eb65aa2eb","ios":"levelo://app?vid=06a5f958-bb59-43f5-ba72-490eb65aa2eb"},"vehicle_type_id":"4","last_reported":1732713679,"current_range_meters":25600,"station_id":"ce4bhm12rcd13ifvqgkg","pricing_plan_id":"cebpf4jnsgd1na2vs0mg"},{"bike_id":"6f7949e1-de87-4a49-8620-fec27e04447f","system_id":"levelo_inurba_marseille","lat":43.33707,"lon":5.3922,"is_reserved":false,"is_disabled":false,"rental_uris":{"android":"levelo://app?vid=6f7949e1-de87-4a49-8620-fec27e04447f","ios":"levelo://app?vid=6f7949e1-de87-4a49-8620-fec27e04447f"},"vehicle_type_id":"4","last_reported":1732713679,"current_range_meters":38400,"station_id":"ce4bhr92rcd13ifvqhsg","pricing_plan_id":"cebpf4jnsgd1na2vs0mg"},{"bike_id":"ea5cb896-562d-4353-9beb-af95ca62ad6a","system_id":"levelo_inurba_marseille","lat":43.29931,"lon":5.36556,"is_reserved":false,"is_disabled":false,"rental_uris":{"android":"levelo://app?vid=ea5cb896-562d-4353-9beb-af95ca62ad6a","ios":"levelo://app?vid=ea5cb896-562d-4353-9beb-af95ca62ad6a"},"vehicle_type_id":"4","last_reported":1732713679,"current_range_meters":17600,"station_id":"ce4bgm92rcd13ifvqbr0","pricing_plan_id":"cebpf4jnsgd1na2vs0mg"},{"bike_id":"03014b66-763d-4717-83da-b37770dba3f2","system_id":"levelo_inurba_marseille","lat":43.26024,"lon":5.37549,"is_reserved":false,"is_disabled":false,"rental_uris":{"android":"levelo://app?vid=03014b66-763d-4717-83da-b37770dba3f2","ios":"levelo://app?vid=03014b66-763d-4717-83da-b37770dba3f2"},"vehicle_type_id":"4","last_reported":1732713679,"current_range_meters":38400,"station_id":"ce4bhgh2rcd13ifvqfa0","pricing_plan_id":"cebpf4jnsgd1na2vs0mg"},{"bike_id":"fbc253e6-6832-49a7-9379-6282d96a0df0","system_id":"levelo_inurba_marseille","lat":43.31219,"lon":5.36862,"is_reserved":false,"is_disabled":false,"rental_uris":{"android":"levelo://app?vid=fbc253e6-6832-49a7-9379-6282d96a0df0","ios":"levelo://app?vid=fbc253e6-6832-49a7-9379-6282d96a0df0"},"vehicle_type_id":"4","last_reported":1732713679,"current_range_meters":35200,"station_id":"ce4bgl92rcd13ifvqbq0","pricing_plan_id":"cebpf4jnsgd1na2vs0mg"},{"bike_id":"88c0a23c-decf-469d-95fc-e70f9cd8eb3b","system_id":"levelo_inurba_marseille","lat":43.33756,"lon":5.37451,"is_reserved":false,"is_disabled":false,"rental_uris":{"android":"levelo://app?vid=88c0a23c-decf-469d-95fc-e70f9cd8eb3b","ios":"levelo://app?vid=88c0a23c-decf-469d-95fc-e70f9cd8eb3b"},"vehicle_type_id":"4","last_reported":1732713679,"current_range_meters":36000,"station_id":"","pricing_plan_id":"cebpf4jnsgd1na2vs0mg"},{"bike_id":"05ad44e5-d7ad-40e4-b78e-31a67af522c0","system_id":"levelo_inurba_marseille","lat":43.25713,"lon":5.41111,"is_reserved":false,"is_disabled":false,"rental_uris":{"android":"levelo://app?vid=05ad44e5-d7ad-40e4-b78e-31a67af522c0","ios":"levelo://app?vid=05ad44e5-d7ad-40e4-b78e-31a67af522c0"},"vehicle_type_id":"4","last_reported":1732713679,"current_range_meters":35600,"station_id":"ce4bhkp2rcd13ifvqgd0","pricing_plan_id":"cebpf4jnsgd1na2vs0mg"},{"bike_id":"d93067c3-4848-4450-992d-7925dfe41b1d","system_id":"levelo_inurba_marseille","lat":43.25577,"lon":5.38233,"is_reserved":false,"is_disabled":true,"rental_uris":{"android":"levelo://app?vid=d93067c3-4848-4450-992d-7925dfe41b1d","ios":"levelo://app?vid=d93067c3-4848-4450-992d-7925dfe41b1d"},"vehicle_type_id":"4","last_reported":1732713679,"current_range_meters":0,"station_id":"ce4bhih2rcd13ifvqfs0","pricing_plan_id":"cebpf4jnsgd1na2vs0mg"},{"bike_id":"e08d4f82-0901-45f6-b731-13e71fa11eaf","system_id":"levelo_inurba_marseille","lat":43.28263,"lon":5.35061,"is_reserved":false,"is_disabled":false,"rental_uris":{"android":"levelo://app?vid=e08d4f82-0901-45f6-b731-13e71fa11eaf","ios":"levelo://app?vid=e08d4f82-0901-45f6-b731-13e71fa11eaf"},"vehicle_type_id":"4","last_reported":1732713679,"current_range_meters":15200,"station_id":"ce4bhbp2rcd13ifvqerg","pricing_plan_id":"cebpf4jnsgd1na2vs0mg"},{"bike_id":"d256551e-abd7-4dc9-a198-73aeced95730","system_id":"levelo_inurba_marseille","lat":43.24649,"lon":5.38895,"is_reserved":false,"is_disabled":false,"rental_uris":{"android":"levelo://app?vid=d256551e-abd7-4dc9-a198-73aeced95730","ios":"levelo://app?vid=d256551e-abd7-4dc9-a198-73aeced95730"},"vehicle_type_id":"4","last_reported":1732713679,"current_range_meters":28000,"station_id":"ce4bhg12rcd13ifvqf60","pricing_plan_id":"cebpf4jnsgd1na2vs0mg"},{"bike_id":"7e5f524d-1eaf-452c-89c8-0e4ff19c8c99","system_id":"levelo_inurba_marseille","lat":43.26784,"lon":5.39412,"is_reserved":false,"is_disabled":false,"rental_uris":{"android":"levelo://app?vid=7e5f524d-1eaf-452c-89c8-0e4ff19c8c99","ios":"levelo://app?vid=7e5f524d-1eaf-452c-89c8-0e4ff19c8c99"},"vehicle_type_id":"4","last_reported":1732713679,"current_range_meters":18000,"station_id":"ce4bhh12rcd13ifvqfg0","pricing_plan_id":"cebpf4jnsgd1na2vs0mg"},{"bike_id":"59798445-8d70-4aa0-82ea-c70c3f2d0df4","system_id":"levelo_inurba_marseille","lat":43.24646,"lon":5.38894,"is_reserved":false,"is_disabled":false,"rental_uris":{"android":"levelo://app?vid=59798445-8d70-4aa0-82ea-c70c3f2d0df4","ios":"levelo://app?vid=59798445-8d70-4aa0-82ea-c70c3f2d0df4"},"vehicle_type_id":"4","last_reported":1732713679,"current_range_meters":37600,"station_id":"ce4bhg12rcd13ifvqf60","pricing_plan_id":"cebpf4jnsgd1na2vs0mg"},{"bike_id":"4195d232-17bc-4fd4-ba59-31e116f6e38b","system_id":"levelo_inurba_marseille","lat":43.30414,"lon":5.4128,"is_reserved":false,"is_disabled":false,"rental_uris":{"android":"levelo://app?vid=4195d232-17bc-4fd4-ba59-31e116f6e38b","ios":"levelo://app?vid=4195d232-17bc-4fd4-ba59-31e116f6e38b"},"vehicle_type_id":"4","last_reported":1732713679,"current_range_meters":40000,"station_id":"ce4bhop2rcd13ifvqh8g","pricing_plan_id":"cebpf4jnsgd1na2vs0mg"},{"bike_id":"9919ce8e-7b54-435c-8ea8-63d1689efac3","system_id":"levelo_inurba_marseille","lat":43.24992,"lon":5.38938,"is_reserved":false,"is_disabled":false,"rental_uris":{"android":"levelo://app?vid=9919ce8e-7b54-435c-8ea8-63d1689efac3","ios":"levelo://app?vid=9919ce8e-7b54-435c-8ea8-63d1689efac3"},"vehicle_type_id":"4","last_reported":1732713679,"current_range_meters":6800,"station_id":"ce4bhgp2rcd13ifvqfd0","pricing_plan_id":"cebpf4jnsgd1na2vs0mg"},{"bike_id":"f65a73cd-64d0-4424-8c33-569459282668","system_id":"levelo_inurba_marseille","lat":43.29845,"lon":5.36269,"is_reserved":false,"is_disabled":false,"rental_uris":{"android":"levelo://app?vid=f65a73cd-64d0-4424-8c33-569459282668","ios":"levelo://app?vid=f65a73cd-64d0-4424-8c33-569459282668"},"vehicle_type_id":"4","last_reported":1732713679,"current_range_meters":38800,"station_id":"ce4bgpp2rcd13ifvqc3g","pricing_plan_id":"cebpf4jnsgd1na2vs0mg"},{"bike_id":"71b78d7b-dda5-4267-b684-532542b7b394","system_id":"levelo_inurba_marseille","lat":43.28406,"lon":5.34986,"is_reserved":false,"is_disabled":false,"rental_uris":{"android":"levelo://app?vid=71b78d7b-dda5-4267-b684-532542b7b394","ios":"levelo://app?vid=71b78d7b-dda5-4267-b684-532542b7b394"},"vehicle_type_id":"4","last_reported":1732713679,"current_range_meters":38000,"station_id":"ce4bhbh2rcd13ifvqepg","pricing_plan_id":"cebpf4jnsgd1na2vs0mg"},{"bike_id":"9f495fb6-a313-4fc5-81d8-0a7894225cfe","system_id":"levelo_inurba_marseille","lat":43.2957,"lon":5.39965,"is_reserved":false,"is_disabled":true,"rental_uris":{"android":"levelo://app?vid=9f495fb6-a313-4fc5-81d8-0a7894225cfe","ios":"levelo://app?vid=9f495fb6-a313-4fc5-81d8-0a7894225cfe"},"vehicle_type_id":"4","last_reported":1732713679,"current_range_meters":29600,"station_id":"ce4bh312rcd13ifvqdj0","pricing_plan_id":"cebpf4jnsgd1na2vs0mg"},{"bike_id":"72bc9643-0a43-4cd6-bfd9-c972d8175eda","system_id":"levelo_inurba_marseille","lat":43.299615,"lon":5.371945,"is_reserved":false,"is_disabled":true,"rental_uris":{"android":"levelo://app?vid=72bc9643-0a43-4cd6-bfd9-c972d8175eda","ios":"levelo://app?vid=72bc9643-0a43-4cd6-bfd9-c972d8175eda"},"vehicle_type_id":"4","last_reported":1732713679,"current_range_meters":400,"station_id":"ce4bgr92rcd13ifvqc7g","pricing_plan_id":"cebpf4jnsgd1na2vs0mg"},{"bike_id":"7a31f12e-73b0-489e-bd75-ca0bd6bf7134","system_id":"levelo_inurba_marseille","lat":43.33603,"lon":5.41035,"is_reserved":false,"is_disabled":true,"rental_uris":{"android":"levelo://app?vid=7a31f12e-73b0-489e-bd75-ca0bd6bf7134","ios":"levelo://app?vid=7a31f12e-73b0-489e-bd75-ca0bd6bf7134"},"vehicle_type_id":"4","last_reported":1732713679,"current_range_meters":800,"station_id":"ce4bhqh2rcd13ifvqhmg","pricing_plan_id":"cebpf4jnsgd1na2vs0mg"},{"bike_id":"a04ad84c-0274-457e-a2a3-807c11604d95","system_id":"levelo_inurba_marseille","lat":43.30534,"lon":5.36715,"is_reserved":false,"is_disabled":false,"rental_uris":{"android":"levelo://app?vid=a04ad84c-0274-457e-a2a3-807c11604d95","ios":"levelo://app?vid=a04ad84c-0274-457e-a2a3-807c11604d95"},"vehicle_type_id":"4","last_reported":1732713679,"current_range_meters":18800,"station_id":"ce4bgrp2rcd13ifvqc9g","pricing_plan_id":"cebpf4jnsgd1na2vs0mg"},{"bike_id":"dfdeb01e-ef6a-465a-a618-b7cd0e6721ad","system_id":"levelo_inurba_marseille","lat":43.28662,"lon":5.36352,"is_reserved":false,"is_disabled":false,"rental_uris":{"android":"levelo://app?vid=dfdeb01e-ef6a-465a-a618-b7cd0e6721ad","ios":"levelo://app?vid=dfdeb01e-ef6a-465a-a618-b7cd0e6721ad"},"vehicle_type_id":"4","last_reported":1732713679,"current_range_meters":11600,"station_id":"ce4bhah2rcd13ifvqej0","pricing_plan_id":"cebpf4jnsgd1na2vs0mg"},{"bike_id":"60805424-f6d9-425f-a22a-0ed30bcd92d3","system_id":"levelo_inurba_marseille","lat":43.28152,"lon":5.4264,"is_reserved":false,"is_disabled":false,"rental_uris":{"android":"levelo://app?vid=60805424-f6d9-425f-a22a-0ed30bcd92d3","ios":"levelo://app?vid=60805424-f6d9-425f-a22a-0ed30bcd92d3"},"vehicle_type_id":"4","last_reported":1732713679,"current_range_meters":32000,"station_id":"ce4bhnh2rcd13ifvqgug","pricing_plan_id":"cebpf4jnsgd1na2vs0mg"},{"bike_id":"a4f5ec09-594b-4d89-bf3e-08aaf07da9b6","system_id":"levelo_inurba_marseille","lat":43.3014,"lon":5.38091,"is_reserved":false,"is_disabled":false,"rental_uris":{"android":"levelo://app?vid=a4f5ec09-594b-4d89-bf3e-08aaf07da9b6","ios":"levelo://app?vid=a4f5ec09-594b-4d89-bf3e-08aaf07da9b6"},"vehicle_type_id":"4","last_reported":1732713679,"current_range_meters":36800,"station_id":"ce4bgjp2rcd13ifvqbh0","pricing_plan_id":"cebpf4jnsgd1na2vs0mg"},{"bike_id":"8224e7bd-d3e4-457f-927f-68e2a6f2b030","system_id":"levelo_inurba_marseille","lat":43.24805,"lon":5.3746,"is_reserved":false,"is_disabled":false,"rental_uris":{"android":"levelo://app?vid=8224e7bd-d3e4-457f-927f-68e2a6f2b030","ios":"levelo://app?vid=8224e7bd-d3e4-457f-927f-68e2a6f2b030"},"vehicle_type_id":"4","last_reported":1732713679,"current_range_meters":10000,"station_id":"ce4bhgh2rcd13ifvqfb0","pricing_plan_id":"cebpf4jnsgd1na2vs0mg"},{"bike_id":"ec25b052-f7e8-4a7c-9264-ee534ad72629","system_id":"levelo_inurba_marseille","lat":43.24542,"lon":5.39526,"is_reserved":false,"is_disabled":false,"rental_uris":{"android":"levelo://app?vid=ec25b052-f7e8-4a7c-9264-ee534ad72629","ios":"levelo://app?vid=ec25b052-f7e8-4a7c-9264-ee534ad72629"},"vehicle_type_id":"4","last_reported":1732713679,"current_range_meters":5600,"station_id":"ce4bhlp2rcd13ifvqgjg","pricing_plan_id":"cebpf4jnsgd1na2vs0mg"},{"bike_id":"4e46fbdd-6a1c-4d9b-89d9-acc8c72e5d32","system_id":"levelo_inurba_marseille","lat":43.29761,"lon":5.39339,"is_reserved":false,"is_disabled":false,"rental_uris":{"android":"levelo://app?vid=4e46fbdd-6a1c-4d9b-89d9-acc8c72e5d32","ios":"levelo://app?vid=4e46fbdd-6a1c-4d9b-89d9-acc8c72e5d32"},"vehicle_type_id":"4","last_reported":1732713679,"current_range_meters":4400,"station_id":"chh1huq6cuj3fo74tm60","pricing_plan_id":"cebpf4jnsgd1na2vs0mg"},{"bike_id":"9819bdd7-72bb-4f80-8e4b-fb5e09271bef","system_id":"levelo_inurba_marseille","lat":43.28938,"lon":5.36417,"is_reserved":false,"is_disabled":false,"rental_uris":{"android":"levelo://app?vid=9819bdd7-72bb-4f80-8e4b-fb5e09271bef","ios":"levelo://app?vid=9819bdd7-72bb-4f80-8e4b-fb5e09271bef"},"vehicle_type_id":"4","last_reported":1732713679,"current_range_meters":28400,"station_id":"ce4bhc92rcd13ifvqetg","pricing_plan_id":"cebpf4jnsgd1na2vs0mg"},{"bike_id":"f4e71e84-6b62-43c5-929e-1700bd71a68b","system_id":"levelo_inurba_marseille","lat":43.30091,"lon":5.39073,"is_reserved":false,"is_disabled":false,"rental_uris":{"android":"levelo://app?vid=f4e71e84-6b62-43c5-929e-1700bd71a68b","ios":"levelo://app?vid=f4e71e84-6b62-43c5-929e-1700bd71a68b"},"vehicle_type_id":"4","last_reported":1732713679,"current_range_meters":38800,"station_id":"ce4bh192rcd13ifvqdb0","pricing_plan_id":"cebpf4jnsgd1na2vs0mg"},{"bike_id":"4d4c884f-6933-49c0-8899-f9856d90f44d","system_id":"levelo_inurba_marseille","lat":43.2975,"lon":5.37982,"is_reserved":false,"is_disabled":true,"rental_uris":{"android":"levelo://app?vid=4d4c884f-6933-49c0-8899-f9856d90f44d","ios":"levelo://app?vid=4d4c884f-6933-49c0-8899-f9856d90f44d"},"vehicle_type_id":"4","last_reported":1732713679,"current_range_meters":0,"station_id":"","pricing_plan_id":"cebpf4jnsgd1na2vs0mg"},{"bike_id":"c15fb8c5-ffd3-4c94-b5e6-5a8379c5881c","system_id":"levelo_inurba_marseille","lat":43.30466,"lon":5.37909,"is_reserved":false,"is_disabled":false,"rental_uris":{"android":"levelo://app?vid=c15fb8c5-ffd3-4c94-b5e6-5a8379c5881c","ios":"levelo://app?vid=c15fb8c5-ffd3-4c94-b5e6-5a8379c5881c"},"vehicle_type_id":"4","last_reported":1732713679,"current_range_meters":31200,"station_id":"ce4bgup2rcd13ifvqcn0","pricing_plan_id":"cebpf4jnsgd1na2vs0mg"},{"bike_id":"2ac61c25-49e6-4f37-ac8c-8b2e88ab0b5e","system_id":"levelo_inurba_marseille","lat":43.29199,"lon":5.36053,"is_reserved":false,"is_disabled":false,"rental_uris":{"android":"levelo://app?vid=2ac61c25-49e6-4f37-ac8c-8b2e88ab0b5e","ios":"levelo://app?vid=2ac61c25-49e6-4f37-ac8c-8b2e88ab0b5e"},"vehicle_type_id":"4","last_reported":1732713679,"current_range_meters":30000,"station_id":"ce4bhbh2rcd13ifvqeqg","pricing_plan_id":"cebpf4jnsgd1na2vs0mg"},{"bike_id":"bb90541a-6ebc-4cf8-b008-fc97e9421f62","system_id":"levelo_inurba_marseille","lat":43.24543,"lon":5.37329,"is_reserved":false,"is_disabled":false,"rental_uris":{"android":"levelo://app?vid=bb90541a-6ebc-4cf8-b008-fc97e9421f62","ios":"levelo://app?vid=bb90541a-6ebc-4cf8-b008-fc97e9421f62"},"vehicle_type_id":"4","last_reported":1732713679,"current_range_meters":6800,"station_id":"","pricing_plan_id":"cebpf4jnsgd1na2vs0mg"},{"bike_id":"9009be37-c6b1-406b-b0a8-fbab355f715e","system_id":"levelo_inurba_marseille","lat":43.33761,"lon":5.37497,"is_reserved":false,"is_disabled":false,"rental_uris":{"android":"levelo://app?vid=9009be37-c6b1-406b-b0a8-fbab355f715e","ios":"levelo://app?vid=9009be37-c6b1-406b-b0a8-fbab355f715e"},"vehicle_type_id":"4","last_reported":1732713679,"current_range_meters":38800,"station_id":"","pricing_plan_id":"cebpf4jnsgd1na2vs0mg"},{"bike_id":"4b6c8169-508b-47c1-82e9-8739bb115d3a","system_id":"levelo_inurba_marseille","lat":43.28416,"lon":5.34979,"is_reserved":false,"is_disabled":false,"rental_uris":{"android":"levelo://app?vid=4b6c8169-508b-47c1-82e9-8739bb115d3a","ios":"levelo://app?vid=4b6c8169-508b-47c1-82e9-8739bb115d3a"},"vehicle_type_id":"4","last_reported":1732713679,"current_range_meters":25200,"station_id":"ce4bhbh2rcd13ifvqepg","pricing_plan_id":"cebpf4jnsgd1na2vs0mg"},{"bike_id":"79e0b48c-a0ec-44c8-b7cc-20d7d7adc530","system_id":"levelo_inurba_marseille","lat":43.31985,"lon":5.38139,"is_reserved":false,"is_disabled":false,"rental_uris":{"android":"levelo://app?vid=79e0b48c-a0ec-44c8-b7cc-20d7d7adc530","ios":"levelo://app?vid=79e0b48c-a0ec-44c8-b7cc-20d7d7adc530"},"vehicle_type_id":"4","last_reported":1732713679,"current_range_meters":16400,"station_id":"ce4bhr12rcd13ifvqhpg","pricing_plan_id":"cebpf4jnsgd1na2vs0mg"},{"bike_id":"787da3e5-5eaa-466d-a942-f9510f3bbd6d","system_id":"levelo_inurba_marseille","lat":43.27914,"lon":5.39589,"is_reserved":false,"is_disabled":true,"rental_uris":{"android":"levelo://app?vid=787da3e5-5eaa-466d-a942-f9510f3bbd6d","ios":"levelo://app?vid=787da3e5-5eaa-466d-a942-f9510f3bbd6d"},"vehicle_type_id":"4","last_reported":1732713679,"current_range_meters":0,"station_id":"ce4bhf92rcd13ifvqf40","pricing_plan_id":"cebpf4jnsgd1na2vs0mg"},{"bike_id":"9b6997d0-a97e-44f2-8c44-8034e5a6e7cc","system_id":"levelo_inurba_marseille","lat":43.2315,"lon":5.43714,"is_reserved":false,"is_disabled":false,"rental_uris":{"android":"levelo://app?vid=9b6997d0-a97e-44f2-8c44-8034e5a6e7cc","ios":"levelo://app?vid=9b6997d0-a97e-44f2-8c44-8034e5a6e7cc"},"vehicle_type_id":"4","last_reported":1732713679,"current_range_meters":35600,"station_id":"ce4bhmp2rcd13ifvqgog","pricing_plan_id":"cebpf4jnsgd1na2vs0mg"},{"bike_id":"a995e3f6-ebcc-4122-809f-949615cc251d","system_id":"levelo_inurba_marseille","lat":43.27829,"lon":5.39211,"is_reserved":false,"is_disabled":false,"rental_uris":{"android":"levelo://app?vid=a995e3f6-ebcc-4122-809f-949615cc251d","ios":"levelo://app?vid=a995e3f6-ebcc-4122-809f-949615cc251d"},"vehicle_type_id":"4","last_reported":1732713679,"current_range_meters":24800,"station_id":"ce4bhjp2rcd13ifvqga0","pricing_plan_id":"cebpf4jnsgd1na2vs0mg"},{"bike_id":"f9676c04-9169-4afb-88f6-a605c0c0e024","system_id":"levelo_inurba_marseille","lat":43.28038,"lon":5.36943,"is_reserved":false,"is_disabled":false,"rental_uris":{"android":"levelo://app?vid=f9676c04-9169-4afb-88f6-a605c0c0e024","ios":"levelo://app?vid=f9676c04-9169-4afb-88f6-a605c0c0e024"},"vehicle_type_id":"4","last_reported":1732713679,"current_range_meters":34000,"station_id":"ce4bha12rcd13ifvqef0","pricing_plan_id":"cebpf4jnsgd1na2vs0mg"},{"bike_id":"88e20be9-6029-4caa-ae75-dd582668bdd6","system_id":"levelo_inurba_marseille","lat":43.2957,"lon":5.37506,"is_reserved":false,"is_disabled":true,"rental_uris":{"android":"levelo://app?vid=88e20be9-6029-4caa-ae75-dd582668bdd6","ios":"levelo://app?vid=88e20be9-6029-4caa-ae75-dd582668bdd6"},"vehicle_type_id":"4","last_reported":1732713679,"current_range_meters":11600,"station_id":"ce4bgh92rcd13ifvqb50","pricing_plan_id":"cebpf4jnsgd1na2vs0mg"},{"bike_id":"299f58fd-6e29-4e06-a65a-1ba6949f2bdc","system_id":"levelo_inurba_marseille","lat":43.33786,"lon":5.37392,"is_reserved":false,"is_disabled":false,"rental_uris":{"android":"levelo://app?vid=299f58fd-6e29-4e06-a65a-1ba6949f2bdc","ios":"levelo://app?vid=299f58fd-6e29-4e06-a65a-1ba6949f2bdc"},"vehicle_type_id":"4","last_reported":1732713679,"current_range_meters":36400,"station_id":"","pricing_plan_id":"cebpf4jnsgd1na2vs0mg"},{"bike_id":"4d809776-4d2b-4bf5-8aa6-666b5b1fd18f","system_id":"levelo_inurba_marseille","lat":43.33706,"lon":5.392,"is_reserved":false,"is_disabled":false,"rental_uris":{"android":"levelo://app?vid=4d809776-4d2b-4bf5-8aa6-666b5b1fd18f","ios":"levelo://app?vid=4d809776-4d2b-4bf5-8aa6-666b5b1fd18f"},"vehicle_type_id":"4","last_reported":1732713679,"current_range_meters":38000,"station_id":"ce4bhr92rcd13ifvqhsg","pricing_plan_id":"cebpf4jnsgd1na2vs0mg"},{"bike_id":"7c861cf2-ec53-412c-a5bc-ae5eef3cbf7a","system_id":"levelo_inurba_marseille","lat":43.29964,"lon":5.37176,"is_reserved":false,"is_disabled":false,"rental_uris":{"android":"levelo://app?vid=7c861cf2-ec53-412c-a5bc-ae5eef3cbf7a","ios":"levelo://app?vid=7c861cf2-ec53-412c-a5bc-ae5eef3cbf7a"},"vehicle_type_id":"4","last_reported":1732713679,"current_range_meters":32400,"station_id":"ce4bgr92rcd13ifvqc7g","pricing_plan_id":"cebpf4jnsgd1na2vs0mg"},{"bike_id":"92ede9da-e468-411e-8d5b-f4408a5021cd","system_id":"levelo_inurba_marseille","lat":43.27993,"lon":5.40023,"is_reserved":false,"is_disabled":false,"rental_uris":{"android":"levelo://app?vid=92ede9da-e468-411e-8d5b-f4408a5021cd","ios":"levelo://app?vid=92ede9da-e468-411e-8d5b-f4408a5021cd"},"vehicle_type_id":"4","last_reported":1732713679,"current_range_meters":36800,"station_id":"ce4bho92rcd13ifvqh4g","pricing_plan_id":"cebpf4jnsgd1na2vs0mg"},{"bike_id":"0a15e951-cad7-4da3-a5d2-03c7c46f289e","system_id":"levelo_inurba_marseille","lat":43.29681,"lon":5.37297,"is_reserved":false,"is_disabled":false,"rental_uris":{"android":"levelo://app?vid=0a15e951-cad7-4da3-a5d2-03c7c46f289e","ios":"levelo://app?vid=0a15e951-cad7-4da3-a5d2-03c7c46f289e"},"vehicle_type_id":"4","last_reported":1732713679,"current_range_meters":39200,"station_id":"ce4bgk12rcd13ifvqbj0","pricing_plan_id":"cebpf4jnsgd1na2vs0mg"},{"bike_id":"7dccca16-9c81-46ba-8ec7-8ac114550316","system_id":"levelo_inurba_marseille","lat":43.337444,"lon":5.374475,"is_reserved":false,"is_disabled":false,"rental_uris":{"android":"levelo://app?vid=7dccca16-9c81-46ba-8ec7-8ac114550316","ios":"levelo://app?vid=7dccca16-9c81-46ba-8ec7-8ac114550316"},"vehicle_type_id":"4","last_reported":1732713679,"current_range_meters":37600,"station_id":"","pricing_plan_id":"cebpf4jnsgd1na2vs0mg"},{"bike_id":"ae17ba9d-f5bf-4152-af70-7d285ea8b1a7","system_id":"levelo_inurba_marseille","lat":43.30133,"lon":5.38782,"is_reserved":false,"is_disabled":false,"rental_uris":{"android":"levelo://app?vid=ae17ba9d-f5bf-4152-af70-7d285ea8b1a7","ios":"levelo://app?vid=ae17ba9d-f5bf-4152-af70-7d285ea8b1a7"},"vehicle_type_id":"4","last_reported":1732713679,"current_range_meters":25600,"station_id":"ce4bghh2rcd13ifvqb60","pricing_plan_id":"cebpf4jnsgd1na2vs0mg"},{"bike_id":"acfcabf3-bf85-42a1-88db-81ebfed1dc6c","system_id":"levelo_inurba_marseille","lat":43.28613,"lon":5.35108,"is_reserved":false,"is_disabled":false,"rental_uris":{"android":"levelo://app?vid=acfcabf3-bf85-42a1-88db-81ebfed1dc6c","ios":"levelo://app?vid=acfcabf3-bf85-42a1-88db-81ebfed1dc6c"},"vehicle_type_id":"4","last_reported":1732713679,"current_range_meters":20000,"station_id":"ce4bhch2rcd13ifvqeug","pricing_plan_id":"cebpf4jnsgd1na2vs0mg"},{"bike_id":"9f908490-3dd9-4552-8995-3fc4aee46baa","system_id":"levelo_inurba_marseille","lat":43.28468,"lon":5.38426,"is_reserved":false,"is_disabled":false,"rental_uris":{"android":"levelo://app?vid=9f908490-3dd9-4552-8995-3fc4aee46baa","ios":"levelo://app?vid=9f908490-3dd9-4552-8995-3fc4aee46baa"},"vehicle_type_id":"4","last_reported":1732713679,"current_range_meters":14000,"station_id":"ce4bh512rcd13ifvqe3g","pricing_plan_id":"cebpf4jnsgd1na2vs0mg"},{"bike_id":"8b466bc1-35bc-402b-942a-25464cceb927","system_id":"levelo_inurba_marseille","lat":43.23186,"lon":5.39983,"is_reserved":false,"is_disabled":false,"rental_uris":{"android":"levelo://app?vid=8b466bc1-35bc-402b-942a-25464cceb927","ios":"levelo://app?vid=8b466bc1-35bc-402b-942a-25464cceb927"},"vehicle_type_id":"4","last_reported":1732713679,"current_range_meters":26800,"station_id":"ce4bhn12rcd13ifvqgqg","pricing_plan_id":"cebpf4jnsgd1na2vs0mg"},{"bike_id":"7b45e0d0-86a8-47b5-8420-74a05761af04","system_id":"levelo_inurba_marseille","lat":43.27918,"lon":5.39572,"is_reserved":false,"is_disabled":true,"rental_uris":{"android":"levelo://app?vid=7b45e0d0-86a8-47b5-8420-74a05761af04","ios":"levelo://app?vid=7b45e0d0-86a8-47b5-8420-74a05761af04"},"vehicle_type_id":"4","last_reported":1732713679,"current_range_meters":400,"station_id":"ce4bhf92rcd13ifvqf40","pricing_plan_id":"cebpf4jnsgd1na2vs0mg"},{"bike_id":"1c8807d0-9279-453e-9f75-5ab4de304fcc","system_id":"levelo_inurba_marseille","lat":43.278987,"lon":5.380077,"is_reserved":false,"is_disabled":false,"rental_uris":{"android":"levelo://app?vid=1c8807d0-9279-453e-9f75-5ab4de304fcc","ios":"levelo://app?vid=1c8807d0-9279-453e-9f75-5ab4de304fcc"},"vehicle_type_id":"4","last_reported":1732713679,"current_range_meters":30000,"station_id":"ce4bhf92rcd13ifvqf50","pricing_plan_id":"cebpf4jnsgd1na2vs0mg"},{"bike_id":"6ba0edf5-25f5-4b3c-a1d8-2ceb16037499","system_id":"levelo_inurba_marseille","lat":43.29531,"lon":5.3911,"is_reserved":false,"is_disabled":false,"rental_uris":{"android":"levelo://app?vid=6ba0edf5-25f5-4b3c-a1d8-2ceb16037499","ios":"levelo://app?vid=6ba0edf5-25f5-4b3c-a1d8-2ceb16037499"},"vehicle_type_id":"4","last_reported":1732713679,"current_range_meters":7200,"station_id":"ce4bh3h2rcd13ifvqdo0","pricing_plan_id":"cebpf4jnsgd1na2vs0mg"},{"bike_id":"f9f94ebe-9769-4e6b-9e53-54408c4164fa","system_id":"levelo_inurba_marseille","lat":43.29859,"lon":5.3976,"is_reserved":false,"is_disabled":true,"rental_uris":{"android":"levelo://app?vid=f9f94ebe-9769-4e6b-9e53-54408c4164fa","ios":"levelo://app?vid=f9f94ebe-9769-4e6b-9e53-54408c4164fa"},"vehicle_type_id":"4","last_reported":1732713679,"current_range_meters":0,"station_id":"ce4bh0h2rcd13ifvqd50","pricing_plan_id":"cebpf4jnsgd1na2vs0mg"},{"bike_id":"c1d4c091-46b7-4f2e-aeb5-6518b8354ca5","system_id":"levelo_inurba_marseille","lat":43.27172,"lon":5.40991,"is_reserved":false,"is_disabled":false,"rental_uris":{"android":"levelo://app?vid=c1d4c091-46b7-4f2e-aeb5-6518b8354ca5","ios":"levelo://app?vid=c1d4c091-46b7-4f2e-aeb5-6518b8354ca5"},"vehicle_type_id":"4","last_reported":1732713679,"current_range_meters":39200,"station_id":"ce4bhl12rcd13ifvqgf0","pricing_plan_id":"cebpf4jnsgd1na2vs0mg"},{"bike_id":"6a243988-d267-4e1e-bafc-c091870de6a8","system_id":"levelo_inurba_marseille","lat":43.24164,"lon":5.36414,"is_reserved":false,"is_disabled":false,"rental_uris":{"android":"levelo://app?vid=6a243988-d267-4e1e-bafc-c091870de6a8","ios":"levelo://app?vid=6a243988-d267-4e1e-bafc-c091870de6a8"},"vehicle_type_id":"4","last_reported":1732713679,"current_range_meters":35200,"station_id":"cpo36qri1sfpv3e86is0","pricing_plan_id":"cebpf4jnsgd1na2vs0mg"},{"bike_id":"9f829615-a360-47bc-872a-f61471d53cab","system_id":"levelo_inurba_marseille","lat":43.24998,"lon":5.38921,"is_reserved":false,"is_disabled":false,"rental_uris":{"android":"levelo://app?vid=9f829615-a360-47bc-872a-f61471d53cab","ios":"levelo://app?vid=9f829615-a360-47bc-872a-f61471d53cab"},"vehicle_type_id":"4","last_reported":1732713679,"current_range_meters":31200,"station_id":"ce4bhgp2rcd13ifvqfd0","pricing_plan_id":"cebpf4jnsgd1na2vs0mg"},{"bike_id":"6c6a93bf-e171-448f-8ea9-1241abd089a1","system_id":"levelo_inurba_marseille","lat":43.2781,"lon":5.40719,"is_reserved":false,"is_disabled":true,"rental_uris":{"android":"levelo://app?vid=6c6a93bf-e171-448f-8ea9-1241abd089a1","ios":"levelo://app?vid=6c6a93bf-e171-448f-8ea9-1241abd089a1"},"vehicle_type_id":"4","last_reported":1732713679,"current_range_meters":0,"station_id":"ce4bhnh2rcd13ifvqgtg","pricing_plan_id":"cebpf4jnsgd1na2vs0mg"},{"bike_id":"36fabadd-22ef-4732-814f-3bef1ba0d97e","system_id":"levelo_inurba_marseille","lat":43.29337,"lon":5.38856,"is_reserved":false,"is_disabled":false,"rental_uris":{"android":"levelo://app?vid=36fabadd-22ef-4732-814f-3bef1ba0d97e","ios":"levelo://app?vid=36fabadd-22ef-4732-814f-3bef1ba0d97e"},"vehicle_type_id":"4","last_reported":1732713679,"current_range_meters":12800,"station_id":"ce4bh192rcd13ifvqdd0","pricing_plan_id":"cebpf4jnsgd1na2vs0mg"},{"bike_id":"39b04c21-6a6a-40a7-a489-741c2b67c9bd","system_id":"levelo_inurba_marseille","lat":43.33721,"lon":5.39194,"is_reserved":false,"is_disabled":false,"rental_uris":{"android":"levelo://app?vid=39b04c21-6a6a-40a7-a489-741c2b67c9bd","ios":"levelo://app?vid=39b04c21-6a6a-40a7-a489-741c2b67c9bd"},"vehicle_type_id":"4","last_reported":1732713679,"current_range_meters":10800,"station_id":"ce4bhr92rcd13ifvqhsg","pricing_plan_id":"cebpf4jnsgd1na2vs0mg"},{"bike_id":"e465c5d0-0923-4e47-9eed-14fbda58d8e8","system_id":"levelo_inurba_marseille","lat":43.26203,"lon":5.37929,"is_reserved":false,"is_disabled":false,"rental_uris":{"android":"levelo://app?vid=e465c5d0-0923-4e47-9eed-14fbda58d8e8","ios":"levelo://app?vid=e465c5d0-0923-4e47-9eed-14fbda58d8e8"},"vehicle_type_id":"4","last_reported":1732713679,"current_range_meters":38800,"station_id":"ce4bhjp2rcd13ifvqg90","pricing_plan_id":"cebpf4jnsgd1na2vs0mg"},{"bike_id":"e7feaae6-3e6c-4966-a627-4f4f616a6bcb","system_id":"levelo_inurba_marseille","lat":43.26677,"lon":5.38271,"is_reserved":false,"is_disabled":false,"rental_uris":{"android":"levelo://app?vid=e7feaae6-3e6c-4966-a627-4f4f616a6bcb","ios":"levelo://app?vid=e7feaae6-3e6c-4966-a627-4f4f616a6bcb"},"vehicle_type_id":"4","last_reported":1732713679,"current_range_meters":17200,"station_id":"ce4bhg92rcd13ifvqf90","pricing_plan_id":"cebpf4jnsgd1na2vs0mg"},{"bike_id":"ea98197c-3dc8-453d-a0ca-976bbb27b1e4","system_id":"levelo_inurba_marseille","lat":43.30135,"lon":5.37422,"is_reserved":false,"is_disabled":false,"rental_uris":{"android":"levelo://app?vid=ea98197c-3dc8-453d-a0ca-976bbb27b1e4","ios":"levelo://app?vid=ea98197c-3dc8-453d-a0ca-976bbb27b1e4"},"vehicle_type_id":"4","last_reported":1732713679,"current_range_meters":17600,"station_id":"ce4bgs92rcd13ifvqcc0","pricing_plan_id":"cebpf4jnsgd1na2vs0mg"},{"bike_id":"5a74dde8-dae9-4dfc-b29a-0a5254808ef3","system_id":"levelo_inurba_marseille","lat":43.24169,"lon":5.364,"is_reserved":false,"is_disabled":false,"rental_uris":{"android":"levelo://app?vid=5a74dde8-dae9-4dfc-b29a-0a5254808ef3","ios":"levelo://app?vid=5a74dde8-dae9-4dfc-b29a-0a5254808ef3"},"vehicle_type_id":"4","last_reported":1732713679,"current_range_meters":23200,"station_id":"cpo36qri1sfpv3e86is0","pricing_plan_id":"cebpf4jnsgd1na2vs0mg"},{"bike_id":"e3116009-843e-41a2-9add-5528d8edf865","system_id":"levelo_inurba_marseille","lat":43.26027,"lon":5.37549,"is_reserved":false,"is_disabled":false,"rental_uris":{"android":"levelo://app?vid=e3116009-843e-41a2-9add-5528d8edf865","ios":"levelo://app?vid=e3116009-843e-41a2-9add-5528d8edf865"},"vehicle_type_id":"4","last_reported":1732713679,"current_range_meters":38800,"station_id":"ce4bhgh2rcd13ifvqfa0","pricing_plan_id":"cebpf4jnsgd1na2vs0mg"},{"bike_id":"5cb6e33f-fa1e-4d08-ac4e-646794b0f617","system_id":"levelo_inurba_marseille","lat":43.2922,"lon":5.36073,"is_reserved":false,"is_disabled":true,"rental_uris":{"android":"levelo://app?vid=5cb6e33f-fa1e-4d08-ac4e-646794b0f617","ios":"levelo://app?vid=5cb6e33f-fa1e-4d08-ac4e-646794b0f617"},"vehicle_type_id":"4","last_reported":1732713679,"current_range_meters":0,"station_id":"ce4bhbh2rcd13ifvqeqg","pricing_plan_id":"cebpf4jnsgd1na2vs0mg"},{"bike_id":"34cbec49-eeaf-411d-80f2-b68e724f1d2f","system_id":"levelo_inurba_marseille","lat":43.29,"lon":5.35615,"is_reserved":false,"is_disabled":true,"rental_uris":{"android":"levelo://app?vid=34cbec49-eeaf-411d-80f2-b68e724f1d2f","ios":"levelo://app?vid=34cbec49-eeaf-411d-80f2-b68e724f1d2f"},"vehicle_type_id":"4","last_reported":1732713679,"current_range_meters":33600,"station_id":"ce4bhb92rcd13ifvqen0","pricing_plan_id":"cebpf4jnsgd1na2vs0mg"},{"bike_id":"ce8b69aa-646d-403b-bb63-faa242fb22a8","system_id":"levelo_inurba_marseille","lat":43.29555,"lon":5.42284,"is_reserved":false,"is_disabled":true,"rental_uris":{"android":"levelo://app?vid=ce8b69aa-646d-403b-bb63-faa242fb22a8","ios":"levelo://app?vid=ce8b69aa-646d-403b-bb63-faa242fb22a8"},"vehicle_type_id":"4","last_reported":1732713679,"current_range_meters":1600,"station_id":"ce4bhph2rcd13ifvqhdg","pricing_plan_id":"cebpf4jnsgd1na2vs0mg"},{"bike_id":"f3b2cf9b-41cc-4bae-8991-d9221e0e0cfc","system_id":"levelo_inurba_marseille","lat":43.28276,"lon":5.35089,"is_reserved":false,"is_disabled":true,"rental_uris":{"android":"levelo://app?vid=f3b2cf9b-41cc-4bae-8991-d9221e0e0cfc","ios":"levelo://app?vid=f3b2cf9b-41cc-4bae-8991-d9221e0e0cfc"},"vehicle_type_id":"4","last_reported":1732713679,"current_range_meters":39200,"station_id":"ce4bhbp2rcd13ifvqerg","pricing_plan_id":"cebpf4jnsgd1na2vs0mg"},{"bike_id":"36296f5c-0176-4be0-97c8-7930cda9c369","system_id":"levelo_inurba_marseille","lat":43.32105,"lon":5.3678,"is_reserved":false,"is_disabled":false,"rental_uris":{"android":"levelo://app?vid=36296f5c-0176-4be0-97c8-7930cda9c369","ios":"levelo://app?vid=36296f5c-0176-4be0-97c8-7930cda9c369"},"vehicle_type_id":"4","last_reported":1732713679,"current_range_meters":16400,"station_id":"ce4bhrh2rcd13ifvqhug","pricing_plan_id":"cebpf4jnsgd1na2vs0mg"},{"bike_id":"ad3a700f-a034-42d0-afc0-ee59a9cbce99","system_id":"levelo_inurba_marseille","lat":43.32365,"lon":5.3889,"is_reserved":false,"is_disabled":false,"rental_uris":{"android":"levelo://app?vid=ad3a700f-a034-42d0-afc0-ee59a9cbce99","ios":"levelo://app?vid=ad3a700f-a034-42d0-afc0-ee59a9cbce99"},"vehicle_type_id":"4","last_reported":1732713679,"current_range_meters":35200,"station_id":"ce4bhqp2rcd13ifvqhog","pricing_plan_id":"cebpf4jnsgd1na2vs0mg"},{"bike_id":"24280832-ccad-49e4-8062-6ef0033482a6","system_id":"levelo_inurba_marseille","lat":43.313413,"lon":5.367173,"is_reserved":false,"is_disabled":false,"rental_uris":{"android":"levelo://app?vid=24280832-ccad-49e4-8062-6ef0033482a6","ios":"levelo://app?vid=24280832-ccad-49e4-8062-6ef0033482a6"},"vehicle_type_id":"4","last_reported":1732713679,"current_range_meters":24800,"station_id":"ce4bgr92rcd13ifvqc6g","pricing_plan_id":"cebpf4jnsgd1na2vs0mg"},{"bike_id":"418555ea-a55d-4dcc-88b3-4949353f6853","system_id":"levelo_inurba_marseille","lat":43.3171,"lon":5.43708,"is_reserved":false,"is_disabled":false,"rental_uris":{"android":"levelo://app?vid=418555ea-a55d-4dcc-88b3-4949353f6853","ios":"levelo://app?vid=418555ea-a55d-4dcc-88b3-4949353f6853"},"vehicle_type_id":"4","last_reported":1732713679,"current_range_meters":14000,"station_id":"ce4bhp92rcd13ifvqhcg","pricing_plan_id":"cebpf4jnsgd1na2vs0mg"},{"bike_id":"a0a8b6b5-d49b-4d20-88e8-d1bdc63bba6f","system_id":"levelo_inurba_marseille","lat":43.287,"lon":5.35191,"is_reserved":false,"is_disabled":false,"rental_uris":{"android":"levelo://app?vid=a0a8b6b5-d49b-4d20-88e8-d1bdc63bba6f","ios":"levelo://app?vid=a0a8b6b5-d49b-4d20-88e8-d1bdc63bba6f"},"vehicle_type_id":"4","last_reported":1732713679,"current_range_meters":22000,"station_id":"ce4bhbh2rcd13ifvqepg","pricing_plan_id":"cebpf4jnsgd1na2vs0mg"},{"bike_id":"374e6c41-7d95-43f7-adc6-08ffe5731c13","system_id":"levelo_inurba_marseille","lat":43.2572,"lon":5.41111,"is_reserved":false,"is_disabled":false,"rental_uris":{"android":"levelo://app?vid=374e6c41-7d95-43f7-adc6-08ffe5731c13","ios":"levelo://app?vid=374e6c41-7d95-43f7-adc6-08ffe5731c13"},"vehicle_type_id":"4","last_reported":1732713679,"current_range_meters":19200,"station_id":"ce4bhkp2rcd13ifvqgd0","pricing_plan_id":"cebpf4jnsgd1na2vs0mg"},{"bike_id":"0ecf6078-88b1-4ece-ba12-f5250e2dd9e0","system_id":"levelo_inurba_marseille","lat":43.25115,"lon":5.40325,"is_reserved":false,"is_disabled":false,"rental_uris":{"android":"levelo://app?vid=0ecf6078-88b1-4ece-ba12-f5250e2dd9e0","ios":"levelo://app?vid=0ecf6078-88b1-4ece-ba12-f5250e2dd9e0"},"vehicle_type_id":"4","last_reported":1732713679,"current_range_meters":17600,"station_id":"ce4bhlh2rcd13ifvqgig","pricing_plan_id":"cebpf4jnsgd1na2vs0mg"},{"bike_id":"c702349e-4b56-47dc-acbe-351fc10b832b","system_id":"levelo_inurba_marseille","lat":43.33617,"lon":5.41036,"is_reserved":false,"is_disabled":false,"rental_uris":{"android":"levelo://app?vid=c702349e-4b56-47dc-acbe-351fc10b832b","ios":"levelo://app?vid=c702349e-4b56-47dc-acbe-351fc10b832b"},"vehicle_type_id":"4","last_reported":1732713679,"current_range_meters":38400,"station_id":"ce4bhqh2rcd13ifvqhmg","pricing_plan_id":"cebpf4jnsgd1na2vs0mg"},{"bike_id":"d06aaab7-4a56-4e9c-b023-2a6fced4e218","system_id":"levelo_inurba_marseille","lat":43.23152,"lon":5.43706,"is_reserved":false,"is_disabled":true,"rental_uris":{"android":"levelo://app?vid=d06aaab7-4a56-4e9c-b023-2a6fced4e218","ios":"levelo://app?vid=d06aaab7-4a56-4e9c-b023-2a6fced4e218"},"vehicle_type_id":"4","last_reported":1732713679,"current_range_meters":0,"station_id":"ce4bhmp2rcd13ifvqgog","pricing_plan_id":"cebpf4jnsgd1na2vs0mg"},{"bike_id":"19d451e2-e55b-45f9-b19e-4347e99a037a","system_id":"levelo_inurba_marseille","lat":43.27675,"lon":5.3888,"is_reserved":false,"is_disabled":false,"rental_uris":{"android":"levelo://app?vid=19d451e2-e55b-45f9-b19e-4347e99a037a","ios":"levelo://app?vid=19d451e2-e55b-45f9-b19e-4347e99a037a"},"vehicle_type_id":"4","last_reported":1732713679,"current_range_meters":38000,"station_id":"ce4bhi12rcd13ifvqfo0","pricing_plan_id":"cebpf4jnsgd1na2vs0mg"},{"bike_id":"604dd96f-5e5b-41a0-9904-5b7d85d376d6","system_id":"levelo_inurba_marseille","lat":43.29563,"lon":5.37512,"is_reserved":false,"is_disabled":true,"rental_uris":{"android":"levelo://app?vid=604dd96f-5e5b-41a0-9904-5b7d85d376d6","ios":"levelo://app?vid=604dd96f-5e5b-41a0-9904-5b7d85d376d6"},"vehicle_type_id":"4","last_reported":1732713679,"current_range_meters":8400,"station_id":"ce4bgh92rcd13ifvqb50","pricing_plan_id":"cebpf4jnsgd1na2vs0mg"},{"bike_id":"1dba4451-7799-4f5d-aa8f-1e9b05e7a46c","system_id":"levelo_inurba_marseille","lat":43.24648,"lon":5.38897,"is_reserved":false,"is_disabled":false,"rental_uris":{"android":"levelo://app?vid=1dba4451-7799-4f5d-aa8f-1e9b05e7a46c","ios":"levelo://app?vid=1dba4451-7799-4f5d-aa8f-1e9b05e7a46c"},"vehicle_type_id":"4","last_reported":1732713679,"current_range_meters":28000,"station_id":"ce4bhg12rcd13ifvqf60","pricing_plan_id":"cebpf4jnsgd1na2vs0mg"},{"bike_id":"1cd78e3c-eca2-430e-a00b-3450b52eb373","system_id":"levelo_inurba_marseille","lat":43.22928,"lon":5.3538,"is_reserved":false,"is_disabled":false,"rental_uris":{"android":"levelo://app?vid=1cd78e3c-eca2-430e-a00b-3450b52eb373","ios":"levelo://app?vid=1cd78e3c-eca2-430e-a00b-3450b52eb373"},"vehicle_type_id":"4","last_reported":1732713679,"current_range_meters":37600,"station_id":"cpo3532slgdg3j2ikp40","pricing_plan_id":"cebpf4jnsgd1na2vs0mg"},{"bike_id":"4ebfdac3-2f5d-452e-8023-38e3d3b20cdb","system_id":"levelo_inurba_marseille","lat":43.28977,"lon":5.37832,"is_reserved":false,"is_disabled":false,"rental_uris":{"android":"levelo://app?vid=4ebfdac3-2f5d-452e-8023-38e3d3b20cdb","ios":"levelo://app?vid=4ebfdac3-2f5d-452e-8023-38e3d3b20cdb"},"vehicle_type_id":"4","last_reported":1732713679,"current_range_meters":7200,"station_id":"ce4bh9p2rcd13ifvqed0","pricing_plan_id":"cebpf4jnsgd1na2vs0mg"},{"bike_id":"681460a9-806c-471b-88e8-ce403c82f10b","system_id":"levelo_inurba_marseille","lat":43.29521,"lon":5.37494,"is_reserved":false,"is_disabled":false,"rental_uris":{"android":"levelo://app?vid=681460a9-806c-471b-88e8-ce403c82f10b","ios":"levelo://app?vid=681460a9-806c-471b-88e8-ce403c82f10b"},"vehicle_type_id":"4","last_reported":1732713679,"current_range_meters":16800,"station_id":"","pricing_plan_id":"cebpf4jnsgd1na2vs0mg"},{"bike_id":"28915062-1464-41e4-bc41-88c2d611d1e3","system_id":"levelo_inurba_marseille","lat":43.2799,"lon":5.40019,"is_reserved":false,"is_disabled":false,"rental_uris":{"android":"levelo://app?vid=28915062-1464-41e4-bc41-88c2d611d1e3","ios":"levelo://app?vid=28915062-1464-41e4-bc41-88c2d611d1e3"},"vehicle_type_id":"4","last_reported":1732713679,"current_range_meters":37600,"station_id":"ce4bho92rcd13ifvqh4g","pricing_plan_id":"cebpf4jnsgd1na2vs0mg"},{"bike_id":"32c906b5-644c-47de-a479-80edd2958d65","system_id":"levelo_inurba_marseille","lat":43.28616,"lon":5.35102,"is_reserved":false,"is_disabled":false,"rental_uris":{"android":"levelo://app?vid=32c906b5-644c-47de-a479-80edd2958d65","ios":"levelo://app?vid=32c906b5-644c-47de-a479-80edd2958d65"},"vehicle_type_id":"4","last_reported":1732713679,"current_range_meters":24000,"station_id":"ce4bhch2rcd13ifvqeug","pricing_plan_id":"cebpf4jnsgd1na2vs0mg"},{"bike_id":"9f36bab7-6ca0-4a67-9b69-e820dd2dd980","system_id":"levelo_inurba_marseille","lat":43.2927,"lon":5.36846,"is_reserved":false,"is_disabled":true,"rental_uris":{"android":"levelo://app?vid=9f36bab7-6ca0-4a67-9b69-e820dd2dd980","ios":"levelo://app?vid=9f36bab7-6ca0-4a67-9b69-e820dd2dd980"},"vehicle_type_id":"4","last_reported":1732713679,"current_range_meters":35200,"station_id":"ce4bhbp2rcd13ifvqesg","pricing_plan_id":"cebpf4jnsgd1na2vs0mg"},{"bike_id":"c1f3a133-feac-4321-aa98-d75866b42056","system_id":"levelo_inurba_marseille","lat":43.25924,"lon":5.408855,"is_reserved":false,"is_disabled":false,"rental_uris":{"android":"levelo://app?vid=c1f3a133-feac-4321-aa98-d75866b42056","ios":"levelo://app?vid=c1f3a133-feac-4321-aa98-d75866b42056"},"vehicle_type_id":"4","last_reported":1732713679,"current_range_meters":7200,"station_id":"ce4bhm92rcd13ifvqglg","pricing_plan_id":"cebpf4jnsgd1na2vs0mg"},{"bike_id":"146859be-050c-4fa7-9473-10d8176aeefd","system_id":"levelo_inurba_marseille","lat":43.259115,"lon":5.409805,"is_reserved":false,"is_disabled":true,"rental_uris":{"android":"levelo://app?vid=146859be-050c-4fa7-9473-10d8176aeefd","ios":"levelo://app?vid=146859be-050c-4fa7-9473-10d8176aeefd"},"vehicle_type_id":"4","last_reported":1732713679,"current_range_meters":0,"station_id":"ce4bhm92rcd13ifvqglg","pricing_plan_id":"cebpf4jnsgd1na2vs0mg"},{"bike_id":"807b8862-9f18-47f9-9985-19f11559badb","system_id":"levelo_inurba_marseille","lat":43.33613,"lon":5.41034,"is_reserved":false,"is_disabled":false,"rental_uris":{"android":"levelo://app?vid=807b8862-9f18-47f9-9985-19f11559badb","ios":"levelo://app?vid=807b8862-9f18-47f9-9985-19f11559badb"},"vehicle_type_id":"4","last_reported":1732713679,"current_range_meters":35200,"station_id":"ce4bhqh2rcd13ifvqhmg","pricing_plan_id":"cebpf4jnsgd1na2vs0mg"},{"bike_id":"23ec46d2-63f9-4f62-bae8-093d6665931e","system_id":"levelo_inurba_marseille","lat":43.3055,"lon":5.36534,"is_reserved":false,"is_disabled":false,"rental_uris":{"android":"levelo://app?vid=23ec46d2-63f9-4f62-bae8-093d6665931e","ios":"levelo://app?vid=23ec46d2-63f9-4f62-bae8-093d6665931e"},"vehicle_type_id":"4","last_reported":1732713679,"current_range_meters":12800,"station_id":"ce4bgs12rcd13ifvqcag","pricing_plan_id":"cebpf4jnsgd1na2vs0mg"},{"bike_id":"2e95a691-d7d8-426b-8dba-47b6b56c6a41","system_id":"levelo_inurba_marseille","lat":43.28154,"lon":5.42639,"is_reserved":false,"is_disabled":true,"rental_uris":{"android":"levelo://app?vid=2e95a691-d7d8-426b-8dba-47b6b56c6a41","ios":"levelo://app?vid=2e95a691-d7d8-426b-8dba-47b6b56c6a41"},"vehicle_type_id":"4","last_reported":1732713679,"current_range_meters":1600,"station_id":"ce4bhnh2rcd13ifvqgug","pricing_plan_id":"cebpf4jnsgd1na2vs0mg"},{"bike_id":"d9aac17f-5c86-4428-b3e4-bc62eba8b8f3","system_id":"levelo_inurba_marseille","lat":43.32365,"lon":5.38882,"is_reserved":false,"is_disabled":false,"rental_uris":{"android":"levelo://app?vid=d9aac17f-5c86-4428-b3e4-bc62eba8b8f3","ios":"levelo://app?vid=d9aac17f-5c86-4428-b3e4-bc62eba8b8f3"},"vehicle_type_id":"4","last_reported":1732713679,"current_range_meters":14000,"station_id":"ce4bhqp2rcd13ifvqhog","pricing_plan_id":"cebpf4jnsgd1na2vs0mg"},{"bike_id":"df6c6a29-f41c-4989-9cd4-de3077da49b5","system_id":"levelo_inurba_marseille","lat":43.29566,"lon":5.39979,"is_reserved":false,"is_disabled":false,"rental_uris":{"android":"levelo://app?vid=df6c6a29-f41c-4989-9cd4-de3077da49b5","ios":"levelo://app?vid=df6c6a29-f41c-4989-9cd4-de3077da49b5"},"vehicle_type_id":"4","last_reported":1732713679,"current_range_meters":14800,"station_id":"ce4bh312rcd13ifvqdj0","pricing_plan_id":"cebpf4jnsgd1na2vs0mg"},{"bike_id":"fba1ceb6-3cef-4b3a-8f1d-cb2909f800c4","system_id":"levelo_inurba_marseille","lat":43.31344,"lon":5.36718,"is_reserved":false,"is_disabled":false,"rental_uris":{"android":"levelo://app?vid=fba1ceb6-3cef-4b3a-8f1d-cb2909f800c4","ios":"levelo://app?vid=fba1ceb6-3cef-4b3a-8f1d-cb2909f800c4"},"vehicle_type_id":"4","last_reported":1732713679,"current_range_meters":39200,"station_id":"ce4bgr92rcd13ifvqc6g","pricing_plan_id":"cebpf4jnsgd1na2vs0mg"},{"bike_id":"a5848fc1-9c38-4c0f-8cd3-7a1f74903e08","system_id":"levelo_inurba_marseille","lat":43.23186,"lon":5.39984,"is_reserved":false,"is_disabled":false,"rental_uris":{"android":"levelo://app?vid=a5848fc1-9c38-4c0f-8cd3-7a1f74903e08","ios":"levelo://app?vid=a5848fc1-9c38-4c0f-8cd3-7a1f74903e08"},"vehicle_type_id":"4","last_reported":1732713679,"current_range_meters":38800,"station_id":"ce4bhn12rcd13ifvqgqg","pricing_plan_id":"cebpf4jnsgd1na2vs0mg"},{"bike_id":"bf85c0ae-48e0-4e50-a503-48187d5c9650","system_id":"levelo_inurba_marseille","lat":43.30137,"lon":5.37418,"is_reserved":false,"is_disabled":false,"rental_uris":{"android":"levelo://app?vid=bf85c0ae-48e0-4e50-a503-48187d5c9650","ios":"levelo://app?vid=bf85c0ae-48e0-4e50-a503-48187d5c9650"},"vehicle_type_id":"4","last_reported":1732713679,"current_range_meters":38800,"station_id":"ce4bgs92rcd13ifvqcc0","pricing_plan_id":"cebpf4jnsgd1na2vs0mg"},{"bike_id":"16ad57bb-ba2e-4d25-96f6-bb956c61e82c","system_id":"levelo_inurba_marseille","lat":43.23153,"lon":5.43704,"is_reserved":false,"is_disabled":false,"rental_uris":{"android":"levelo://app?vid=16ad57bb-ba2e-4d25-96f6-bb956c61e82c","ios":"levelo://app?vid=16ad57bb-ba2e-4d25-96f6-bb956c61e82c"},"vehicle_type_id":"4","last_reported":1732713679,"current_range_meters":37600,"station_id":"ce4bhmp2rcd13ifvqgog","pricing_plan_id":"cebpf4jnsgd1na2vs0mg"},{"bike_id":"1606c510-b735-4fc8-8ac9-1879292672fd","system_id":"levelo_inurba_marseille","lat":43.25867,"lon":5.39905,"is_reserved":false,"is_disabled":false,"rental_uris":{"android":"levelo://app?vid=1606c510-b735-4fc8-8ac9-1879292672fd","ios":"levelo://app?vid=1606c510-b735-4fc8-8ac9-1879292672fd"},"vehicle_type_id":"4","last_reported":1732713679,"current_range_meters":6800,"station_id":"ce4bhl92rcd13ifvqghg","pricing_plan_id":"cebpf4jnsgd1na2vs0mg"},{"bike_id":"858b65e1-94fc-4151-a71e-8b168cb19dcb","system_id":"levelo_inurba_marseille","lat":43.32249,"lon":5.39241,"is_reserved":false,"is_disabled":true,"rental_uris":{"android":"levelo://app?vid=858b65e1-94fc-4151-a71e-8b168cb19dcb","ios":"levelo://app?vid=858b65e1-94fc-4151-a71e-8b168cb19dcb"},"vehicle_type_id":"4","last_reported":1732713679,"current_range_meters":0,"station_id":"","pricing_plan_id":"cebpf4jnsgd1na2vs0mg"},{"bike_id":"e51b2acb-d883-446b-9ce9-347608453ece","system_id":"levelo_inurba_marseille","lat":43.2293,"lon":5.35372,"is_reserved":false,"is_disabled":false,"rental_uris":{"android":"levelo://app?vid=e51b2acb-d883-446b-9ce9-347608453ece","ios":"levelo://app?vid=e51b2acb-d883-446b-9ce9-347608453ece"},"vehicle_type_id":"4","last_reported":1732713679,"current_range_meters":36800,"station_id":"cpo3532slgdg3j2ikp40","pricing_plan_id":"cebpf4jnsgd1na2vs0mg"},{"bike_id":"844ec8e9-1291-4e83-a299-880eb52e8b86","system_id":"levelo_inurba_marseille","lat":43.28077,"lon":5.39659,"is_reserved":false,"is_disabled":true,"rental_uris":{"android":"levelo://app?vid=844ec8e9-1291-4e83-a299-880eb52e8b86","ios":"levelo://app?vid=844ec8e9-1291-4e83-a299-880eb52e8b86"},"vehicle_type_id":"4","last_reported":1732713679,"current_range_meters":0,"station_id":"ce4bho12rcd13ifvqh2g","pricing_plan_id":"cebpf4jnsgd1na2vs0mg"},{"bike_id":"bd6b8863-4811-46d4-a371-f5db2c7dc319","system_id":"levelo_inurba_marseille","lat":43.25816,"lon":5.39429,"is_reserved":false,"is_disabled":false,"rental_uris":{"android":"levelo://app?vid=bd6b8863-4811-46d4-a371-f5db2c7dc319","ios":"levelo://app?vid=bd6b8863-4811-46d4-a371-f5db2c7dc319"},"vehicle_type_id":"4","last_reported":1732713679,"current_range_meters":28400,"station_id":"ce4bhip2rcd13ifvqft0","pricing_plan_id":"cebpf4jnsgd1na2vs0mg"},{"bike_id":"e2fe7ac1-9a72-4f92-8068-6f3be595e2ec","system_id":"levelo_inurba_marseille","lat":43.30122,"lon":5.39865,"is_reserved":false,"is_disabled":false,"rental_uris":{"android":"levelo://app?vid=e2fe7ac1-9a72-4f92-8068-6f3be595e2ec","ios":"levelo://app?vid=e2fe7ac1-9a72-4f92-8068-6f3be595e2ec"},"vehicle_type_id":"4","last_reported":1732713679,"current_range_meters":18800,"station_id":"ce4bh0h2rcd13ifvqd40","pricing_plan_id":"cebpf4jnsgd1na2vs0mg"},{"bike_id":"6a84fe5c-81fa-4ede-b74d-0690303fc0a8","system_id":"levelo_inurba_marseille","lat":43.30541,"lon":5.36521,"is_reserved":false,"is_disabled":false,"rental_uris":{"android":"levelo://app?vid=6a84fe5c-81fa-4ede-b74d-0690303fc0a8","ios":"levelo://app?vid=6a84fe5c-81fa-4ede-b74d-0690303fc0a8"},"vehicle_type_id":"4","last_reported":1732713679,"current_range_meters":38800,"station_id":"ce4bgs12rcd13ifvqcag","pricing_plan_id":"cebpf4jnsgd1na2vs0mg"},{"bike_id":"f7f3756c-1ec7-4782-9c87-6273f87b6774","system_id":"levelo_inurba_marseille","lat":43.337444,"lon":5.374475,"is_reserved":false,"is_disabled":true,"rental_uris":{"android":"levelo://app?vid=f7f3756c-1ec7-4782-9c87-6273f87b6774","ios":"levelo://app?vid=f7f3756c-1ec7-4782-9c87-6273f87b6774"},"vehicle_type_id":"4","last_reported":1732713679,"current_range_meters":14800,"station_id":"","pricing_plan_id":"cebpf4jnsgd1na2vs0mg"},{"bike_id":"9a7fc65c-a473-4df1-8da8-b97e38cbdb89","system_id":"levelo_inurba_marseille","lat":43.2315,"lon":5.4371,"is_reserved":false,"is_disabled":false,"rental_uris":{"android":"levelo://app?vid=9a7fc65c-a473-4df1-8da8-b97e38cbdb89","ios":"levelo://app?vid=9a7fc65c-a473-4df1-8da8-b97e38cbdb89"},"vehicle_type_id":"4","last_reported":1732713679,"current_range_meters":38800,"station_id":"ce4bhmp2rcd13ifvqgog","pricing_plan_id":"cebpf4jnsgd1na2vs0mg"},{"bike_id":"5ad94f11-d0cb-4d81-815c-d14c511fb2a1","system_id":"levelo_inurba_marseille","lat":43.24168,"lon":5.39726,"is_reserved":false,"is_disabled":false,"rental_uris":{"android":"levelo://app?vid=5ad94f11-d0cb-4d81-815c-d14c511fb2a1","ios":"levelo://app?vid=5ad94f11-d0cb-4d81-815c-d14c511fb2a1"},"vehicle_type_id":"4","last_reported":1732713679,"current_range_meters":2000,"station_id":"ce4bhn12rcd13ifvqgpg","pricing_plan_id":"cebpf4jnsgd1na2vs0mg"},{"bike_id":"5ac84619-8500-415b-9629-5dc640523aaa","system_id":"levelo_inurba_marseille","lat":43.29519,"lon":5.37509,"is_reserved":false,"is_disabled":true,"rental_uris":{"android":"levelo://app?vid=5ac84619-8500-415b-9629-5dc640523aaa","ios":"levelo://app?vid=5ac84619-8500-415b-9629-5dc640523aaa"},"vehicle_type_id":"4","last_reported":1732713679,"current_range_meters":11200,"station_id":"ce4bgkp2rcd13ifvqbmg","pricing_plan_id":"cebpf4jnsgd1na2vs0mg"},{"bike_id":"79248b71-e381-4425-958e-44a988ca2b76","system_id":"levelo_inurba_marseille","lat":43.23151,"lon":5.43717,"is_reserved":false,"is_disabled":false,"rental_uris":{"android":"levelo://app?vid=79248b71-e381-4425-958e-44a988ca2b76","ios":"levelo://app?vid=79248b71-e381-4425-958e-44a988ca2b76"},"vehicle_type_id":"4","last_reported":1732713679,"current_range_meters":38800,"station_id":"ce4bhmp2rcd13ifvqgog","pricing_plan_id":"cebpf4jnsgd1na2vs0mg"},{"bike_id":"20dee0f8-372f-4688-a836-489e2eff217d","system_id":"levelo_inurba_marseille","lat":43.30142,"lon":5.37421,"is_reserved":false,"is_disabled":false,"rental_uris":{"android":"levelo://app?vid=20dee0f8-372f-4688-a836-489e2eff217d","ios":"levelo://app?vid=20dee0f8-372f-4688-a836-489e2eff217d"},"vehicle_type_id":"4","last_reported":1732713679,"current_range_meters":27600,"station_id":"ce4bgs92rcd13ifvqcc0","pricing_plan_id":"cebpf4jnsgd1na2vs0mg"},{"bike_id":"9bacc442-6740-4ee0-83d5-29cd0097fc26","system_id":"levelo_inurba_marseille","lat":43.26784,"lon":5.39415,"is_reserved":false,"is_disabled":false,"rental_uris":{"android":"levelo://app?vid=9bacc442-6740-4ee0-83d5-29cd0097fc26","ios":"levelo://app?vid=9bacc442-6740-4ee0-83d5-29cd0097fc26"},"vehicle_type_id":"4","last_reported":1732713679,"current_range_meters":19600,"station_id":"ce4bhh12rcd13ifvqfg0","pricing_plan_id":"cebpf4jnsgd1na2vs0mg"},{"bike_id":"5beeafd9-fc35-4444-8f38-3d5aae2d23a8","system_id":"levelo_inurba_marseille","lat":43.32473,"lon":5.36565,"is_reserved":false,"is_disabled":false,"rental_uris":{"android":"levelo://app?vid=5beeafd9-fc35-4444-8f38-3d5aae2d23a8","ios":"levelo://app?vid=5beeafd9-fc35-4444-8f38-3d5aae2d23a8"},"vehicle_type_id":"4","last_reported":1732713679,"current_range_meters":13600,"station_id":"ce4bhs12rcd13ifvqhvg","pricing_plan_id":"cebpf4jnsgd1na2vs0mg"},{"bike_id":"2178bc4c-c16d-4580-adf6-0680b3b2a887","system_id":"levelo_inurba_marseille","lat":43.24997,"lon":5.38928,"is_reserved":false,"is_disabled":false,"rental_uris":{"android":"levelo://app?vid=2178bc4c-c16d-4580-adf6-0680b3b2a887","ios":"levelo://app?vid=2178bc4c-c16d-4580-adf6-0680b3b2a887"},"vehicle_type_id":"4","last_reported":1732713679,"current_range_meters":26800,"station_id":"ce4bhgp2rcd13ifvqfd0","pricing_plan_id":"cebpf4jnsgd1na2vs0mg"},{"bike_id":"b50e75d4-512b-4841-acaa-2bfeea75bcc7","system_id":"levelo_inurba_marseille","lat":43.24808,"lon":5.37463,"is_reserved":false,"is_disabled":false,"rental_uris":{"android":"levelo://app?vid=b50e75d4-512b-4841-acaa-2bfeea75bcc7","ios":"levelo://app?vid=b50e75d4-512b-4841-acaa-2bfeea75bcc7"},"vehicle_type_id":"4","last_reported":1732713679,"current_range_meters":2000,"station_id":"ce4bhgh2rcd13ifvqfb0","pricing_plan_id":"cebpf4jnsgd1na2vs0mg"},{"bike_id":"3ac3288a-d6ee-40e8-95a8-c64da0b8ec16","system_id":"levelo_inurba_marseille","lat":43.28669,"lon":5.38662,"is_reserved":false,"is_disabled":false,"rental_uris":{"android":"levelo://app?vid=3ac3288a-d6ee-40e8-95a8-c64da0b8ec16","ios":"levelo://app?vid=3ac3288a-d6ee-40e8-95a8-c64da0b8ec16"},"vehicle_type_id":"4","last_reported":1732713679,"current_range_meters":7200,"station_id":"ce4bh492rcd13ifvqdug","pricing_plan_id":"cebpf4jnsgd1na2vs0mg"},{"bike_id":"d1c39243-ad1c-4981-83de-336b10a98054","system_id":"levelo_inurba_marseille","lat":43.29433,"lon":5.39759,"is_reserved":false,"is_disabled":false,"rental_uris":{"android":"levelo://app?vid=d1c39243-ad1c-4981-83de-336b10a98054","ios":"levelo://app?vid=d1c39243-ad1c-4981-83de-336b10a98054"},"vehicle_type_id":"4","last_reported":1732713679,"current_range_meters":2800,"station_id":"ce4bh3h2rcd13ifvqdo0","pricing_plan_id":"cebpf4jnsgd1na2vs0mg"},{"bike_id":"c9fe4c77-ed2c-41bd-93c3-273c631862d6","system_id":"levelo_inurba_marseille","lat":43.25865,"lon":5.39917,"is_reserved":false,"is_disabled":false,"rental_uris":{"android":"levelo://app?vid=c9fe4c77-ed2c-41bd-93c3-273c631862d6","ios":"levelo://app?vid=c9fe4c77-ed2c-41bd-93c3-273c631862d6"},"vehicle_type_id":"4","last_reported":1732713679,"current_range_meters":8800,"station_id":"ce4bhl92rcd13ifvqghg","pricing_plan_id":"cebpf4jnsgd1na2vs0mg"},{"bike_id":"5dc83a56-847a-458a-9543-cea4c78ee3d0","system_id":"levelo_inurba_marseille","lat":43.29595,"lon":5.37728,"is_reserved":false,"is_disabled":false,"rental_uris":{"android":"levelo://app?vid=5dc83a56-847a-458a-9543-cea4c78ee3d0","ios":"levelo://app?vid=5dc83a56-847a-458a-9543-cea4c78ee3d0"},"vehicle_type_id":"4","last_reported":1732713679,"current_range_meters":14400,"station_id":"ce4bgi92rcd13ifvqb90","pricing_plan_id":"cebpf4jnsgd1na2vs0mg"},{"bike_id":"a5909545-3e09-4859-9fda-9ffe4e6e4883","system_id":"levelo_inurba_marseille","lat":43.23065,"lon":5.35491,"is_reserved":false,"is_disabled":false,"rental_uris":{"android":"levelo://app?vid=a5909545-3e09-4859-9fda-9ffe4e6e4883","ios":"levelo://app?vid=a5909545-3e09-4859-9fda-9ffe4e6e4883"},"vehicle_type_id":"4","last_reported":1732713679,"current_range_meters":27600,"station_id":"cpo3342slgdg3j2ifvpg","pricing_plan_id":"cebpf4jnsgd1na2vs0mg"},{"bike_id":"bc7a2600-0174-4543-af4e-f88ccd3f3945","system_id":"levelo_inurba_marseille","lat":43.32992,"lon":5.39046,"is_reserved":false,"is_disabled":false,"rental_uris":{"android":"levelo://app?vid=bc7a2600-0174-4543-af4e-f88ccd3f3945","ios":"levelo://app?vid=bc7a2600-0174-4543-af4e-f88ccd3f3945"},"vehicle_type_id":"4","last_reported":1732713679,"current_range_meters":8000,"station_id":"ce4bhr92rcd13ifvqhrg","pricing_plan_id":"cebpf4jnsgd1na2vs0mg"},{"bike_id":"5be1675a-51c4-474f-8f58-627231db95d5","system_id":"levelo_inurba_marseille","lat":43.32108,"lon":5.36794,"is_reserved":false,"is_disabled":false,"rental_uris":{"android":"levelo://app?vid=5be1675a-51c4-474f-8f58-627231db95d5","ios":"levelo://app?vid=5be1675a-51c4-474f-8f58-627231db95d5"},"vehicle_type_id":"4","last_reported":1732713679,"current_range_meters":25200,"station_id":"ce4bhrh2rcd13ifvqhug","pricing_plan_id":"cebpf4jnsgd1na2vs0mg"},{"bike_id":"945df11d-ba9a-4aab-a3f2-fbf39aa3c1d6","system_id":"levelo_inurba_marseille","lat":43.23185,"lon":5.39983,"is_reserved":false,"is_disabled":false,"rental_uris":{"android":"levelo://app?vid=945df11d-ba9a-4aab-a3f2-fbf39aa3c1d6","ios":"levelo://app?vid=945df11d-ba9a-4aab-a3f2-fbf39aa3c1d6"},"vehicle_type_id":"4","last_reported":1732713679,"current_range_meters":11600,"station_id":"ce4bhn12rcd13ifvqgqg","pricing_plan_id":"cebpf4jnsgd1na2vs0mg"},{"bike_id":"93bdad9f-a064-4262-bf56-1c371419210f","system_id":"levelo_inurba_marseille","lat":43.29933,"lon":5.36548,"is_reserved":false,"is_disabled":false,"rental_uris":{"android":"levelo://app?vid=93bdad9f-a064-4262-bf56-1c371419210f","ios":"levelo://app?vid=93bdad9f-a064-4262-bf56-1c371419210f"},"vehicle_type_id":"4","last_reported":1732713679,"current_range_meters":28000,"station_id":"ce4bgm92rcd13ifvqbr0","pricing_plan_id":"cebpf4jnsgd1na2vs0mg"},{"bike_id":"e5951ee3-4a5a-4ebb-b469-096c5188dfa3","system_id":"levelo_inurba_marseille","lat":43.23185,"lon":5.35563,"is_reserved":false,"is_disabled":false,"rental_uris":{"android":"levelo://app?vid=e5951ee3-4a5a-4ebb-b469-096c5188dfa3","ios":"levelo://app?vid=e5951ee3-4a5a-4ebb-b469-096c5188dfa3"},"vehicle_type_id":"4","last_reported":1732713679,"current_range_meters":32000,"station_id":"ce4bhu92rcd13ifvqi70","pricing_plan_id":"cebpf4jnsgd1na2vs0mg"},{"bike_id":"e5b991b9-8014-43b8-9238-281125e947ed","system_id":"levelo_inurba_marseille","lat":43.314854,"lon":5.373115,"is_reserved":false,"is_disabled":false,"rental_uris":{"android":"levelo://app?vid=e5b991b9-8014-43b8-9238-281125e947ed","ios":"levelo://app?vid=e5b991b9-8014-43b8-9238-281125e947ed"},"vehicle_type_id":"4","last_reported":1732713679,"current_range_meters":9200,"station_id":"ce4bgt12rcd13ifvqcd0","pricing_plan_id":"cebpf4jnsgd1na2vs0mg"},{"bike_id":"87fade64-0951-40b0-9ce0-ce2738a7d524","system_id":"levelo_inurba_marseille","lat":43.30304,"lon":5.36885,"is_reserved":false,"is_disabled":true,"rental_uris":{"android":"levelo://app?vid=87fade64-0951-40b0-9ce0-ce2738a7d524","ios":"levelo://app?vid=87fade64-0951-40b0-9ce0-ce2738a7d524"},"vehicle_type_id":"4","last_reported":1732713679,"current_range_meters":1600,"station_id":"ce4bgqh2rcd13ifvqc5g","pricing_plan_id":"cebpf4jnsgd1na2vs0mg"},{"bike_id":"6c948e9c-d5b3-4fe5-a918-1bd2f7c83b02","system_id":"levelo_inurba_marseille","lat":43.32112,"lon":5.36771,"is_reserved":false,"is_disabled":false,"rental_uris":{"android":"levelo://app?vid=6c948e9c-d5b3-4fe5-a918-1bd2f7c83b02","ios":"levelo://app?vid=6c948e9c-d5b3-4fe5-a918-1bd2f7c83b02"},"vehicle_type_id":"4","last_reported":1732713679,"current_range_meters":12400,"station_id":"ce4bhrh2rcd13ifvqhug","pricing_plan_id":"cebpf4jnsgd1na2vs0mg"},{"bike_id":"f5b8d831-5bdc-407d-b182-2c18b16d320a","system_id":"levelo_inurba_marseille","lat":43.297991,"lon":5.381034,"is_reserved":false,"is_disabled":true,"rental_uris":{"android":"levelo://app?vid=f5b8d831-5bdc-407d-b182-2c18b16d320a","ios":"levelo://app?vid=f5b8d831-5bdc-407d-b182-2c18b16d320a"},"vehicle_type_id":"4","last_reported":1732713679,"current_range_meters":39200,"station_id":"ce4bgip2rcd13ifvqbb0","pricing_plan_id":"cebpf4jnsgd1na2vs0mg"},{"bike_id":"bd37240e-6278-4e3b-83ca-b64091122f68","system_id":"levelo_inurba_marseille","lat":43.24802,"lon":5.37469,"is_reserved":false,"is_disabled":false,"rental_uris":{"android":"levelo://app?vid=bd37240e-6278-4e3b-83ca-b64091122f68","ios":"levelo://app?vid=bd37240e-6278-4e3b-83ca-b64091122f68"},"vehicle_type_id":"4","last_reported":1732713679,"current_range_meters":28800,"station_id":"ce4bhgh2rcd13ifvqfb0","pricing_plan_id":"cebpf4jnsgd1na2vs0mg"},{"bike_id":"319db8f6-ad1c-4b46-ad57-5033d5ed25eb","system_id":"levelo_inurba_marseille","lat":43.25716,"lon":5.41105,"is_reserved":false,"is_disabled":false,"rental_uris":{"android":"levelo://app?vid=319db8f6-ad1c-4b46-ad57-5033d5ed25eb","ios":"levelo://app?vid=319db8f6-ad1c-4b46-ad57-5033d5ed25eb"},"vehicle_type_id":"4","last_reported":1732713679,"current_range_meters":18800,"station_id":"ce4bhkp2rcd13ifvqgd0","pricing_plan_id":"cebpf4jnsgd1na2vs0mg"},{"bike_id":"5c53cfbd-2547-413a-b79a-f8cc3b1ca992","system_id":"levelo_inurba_marseille","lat":43.32114,"lon":5.3677,"is_reserved":false,"is_disabled":false,"rental_uris":{"android":"levelo://app?vid=5c53cfbd-2547-413a-b79a-f8cc3b1ca992","ios":"levelo://app?vid=5c53cfbd-2547-413a-b79a-f8cc3b1ca992"},"vehicle_type_id":"4","last_reported":1732713679,"current_range_meters":28000,"station_id":"ce4bhrh2rcd13ifvqhug","pricing_plan_id":"cebpf4jnsgd1na2vs0mg"},{"bike_id":"1ab7eff9-ce5b-49dc-83e3-392ac2cf75fb","system_id":"levelo_inurba_marseille","lat":43.25856,"lon":5.39903,"is_reserved":false,"is_disabled":false,"rental_uris":{"android":"levelo://app?vid=1ab7eff9-ce5b-49dc-83e3-392ac2cf75fb","ios":"levelo://app?vid=1ab7eff9-ce5b-49dc-83e3-392ac2cf75fb"},"vehicle_type_id":"4","last_reported":1732713679,"current_range_meters":36400,"station_id":"ce4bhl92rcd13ifvqghg","pricing_plan_id":"cebpf4jnsgd1na2vs0mg"},{"bike_id":"fb270e8d-41be-4f6a-aa67-3213668ac662","system_id":"levelo_inurba_marseille","lat":43.26548,"lon":5.37295,"is_reserved":false,"is_disabled":false,"rental_uris":{"android":"levelo://app?vid=fb270e8d-41be-4f6a-aa67-3213668ac662","ios":"levelo://app?vid=fb270e8d-41be-4f6a-aa67-3213668ac662"},"vehicle_type_id":"4","last_reported":1732713679,"current_range_meters":35600,"station_id":"ce4bhg12rcd13ifvqf70","pricing_plan_id":"cebpf4jnsgd1na2vs0mg"},{"bike_id":"66567c58-1a76-45db-aa96-f86d72cf1da3","system_id":"levelo_inurba_marseille","lat":43.30452,"lon":5.37907,"is_reserved":false,"is_disabled":false,"rental_uris":{"android":"levelo://app?vid=66567c58-1a76-45db-aa96-f86d72cf1da3","ios":"levelo://app?vid=66567c58-1a76-45db-aa96-f86d72cf1da3"},"vehicle_type_id":"4","last_reported":1732713679,"current_range_meters":25600,"station_id":"ce4bgup2rcd13ifvqcn0","pricing_plan_id":"cebpf4jnsgd1na2vs0mg"},{"bike_id":"bf39c46e-128c-40e0-a7c3-0a0e66714d8f","system_id":"levelo_inurba_marseille","lat":43.31327,"lon":5.39699,"is_reserved":false,"is_disabled":true,"rental_uris":{"android":"levelo://app?vid=bf39c46e-128c-40e0-a7c3-0a0e66714d8f","ios":"levelo://app?vid=bf39c46e-128c-40e0-a7c3-0a0e66714d8f"},"vehicle_type_id":"4","last_reported":1732713679,"current_range_meters":800,"station_id":"ce4bgvp2rcd13ifvqcu0","pricing_plan_id":"cebpf4jnsgd1na2vs0mg"},{"bike_id":"b91329c5-4df8-4f40-9312-63b341d8a3c3","system_id":"levelo_inurba_marseille","lat":43.29551,"lon":5.42289,"is_reserved":false,"is_disabled":false,"rental_uris":{"android":"levelo://app?vid=b91329c5-4df8-4f40-9312-63b341d8a3c3","ios":"levelo://app?vid=b91329c5-4df8-4f40-9312-63b341d8a3c3"},"vehicle_type_id":"4","last_reported":1732713679,"current_range_meters":20800,"station_id":"ce4bhph2rcd13ifvqhdg","pricing_plan_id":"cebpf4jnsgd1na2vs0mg"},{"bike_id":"c32aafd8-8905-4559-a1d0-f74aa7efcf0e","system_id":"levelo_inurba_marseille","lat":43.338,"lon":5.37474,"is_reserved":false,"is_disabled":false,"rental_uris":{"android":"levelo://app?vid=c32aafd8-8905-4559-a1d0-f74aa7efcf0e","ios":"levelo://app?vid=c32aafd8-8905-4559-a1d0-f74aa7efcf0e"},"vehicle_type_id":"4","last_reported":1732713679,"current_range_meters":38000,"station_id":"","pricing_plan_id":"cebpf4jnsgd1na2vs0mg"},{"bike_id":"b5c0ef2f-8e54-409c-bd93-9f4b7a14e4bc","system_id":"levelo_inurba_marseille","lat":43.30176,"lon":5.36612,"is_reserved":false,"is_disabled":false,"rental_uris":{"android":"levelo://app?vid=b5c0ef2f-8e54-409c-bd93-9f4b7a14e4bc","ios":"levelo://app?vid=b5c0ef2f-8e54-409c-bd93-9f4b7a14e4bc"},"vehicle_type_id":"4","last_reported":1732713679,"current_range_meters":34000,"station_id":"ce4bgrh2rcd13ifvqc8g","pricing_plan_id":"cebpf4jnsgd1na2vs0mg"},{"bike_id":"2967b0ca-4e1a-4783-9987-d7bd5da13dd8","system_id":"levelo_inurba_marseille","lat":43.31484,"lon":5.37307,"is_reserved":false,"is_disabled":false,"rental_uris":{"android":"levelo://app?vid=2967b0ca-4e1a-4783-9987-d7bd5da13dd8","ios":"levelo://app?vid=2967b0ca-4e1a-4783-9987-d7bd5da13dd8"},"vehicle_type_id":"4","last_reported":1732713679,"current_range_meters":9600,"station_id":"ce4bgt12rcd13ifvqcd0","pricing_plan_id":"cebpf4jnsgd1na2vs0mg"},{"bike_id":"0dbf4a25-0b81-4076-980f-2de46488ffa7","system_id":"levelo_inurba_marseille","lat":43.28614,"lon":5.35101,"is_reserved":false,"is_disabled":true,"rental_uris":{"android":"levelo://app?vid=0dbf4a25-0b81-4076-980f-2de46488ffa7","ios":"levelo://app?vid=0dbf4a25-0b81-4076-980f-2de46488ffa7"},"vehicle_type_id":"4","last_reported":1732713679,"current_range_meters":13600,"station_id":"ce4bhch2rcd13ifvqeug","pricing_plan_id":"cebpf4jnsgd1na2vs0mg"},{"bike_id":"b0532d77-a652-43de-8ae1-079cd29bfc13","system_id":"levelo_inurba_marseille","lat":43.32362,"lon":5.38885,"is_reserved":false,"is_disabled":false,"rental_uris":{"android":"levelo://app?vid=b0532d77-a652-43de-8ae1-079cd29bfc13","ios":"levelo://app?vid=b0532d77-a652-43de-8ae1-079cd29bfc13"},"vehicle_type_id":"4","last_reported":1732713679,"current_range_meters":20000,"station_id":"ce4bhqp2rcd13ifvqhog","pricing_plan_id":"cebpf4jnsgd1na2vs0mg"},{"bike_id":"43746d86-8a13-4845-9faf-ae69b548d714","system_id":"levelo_inurba_marseille","lat":43.29459,"lon":5.37917,"is_reserved":false,"is_disabled":true,"rental_uris":{"android":"levelo://app?vid=43746d86-8a13-4845-9faf-ae69b548d714","ios":"levelo://app?vid=43746d86-8a13-4845-9faf-ae69b548d714"},"vehicle_type_id":"4","last_reported":1732713679,"current_range_meters":0,"station_id":"","pricing_plan_id":"cebpf4jnsgd1na2vs0mg"},{"bike_id":"c4a7e894-f878-4bab-a8aa-1db498e677c5","system_id":"levelo_inurba_marseille","lat":43.26801,"lon":5.40268,"is_reserved":false,"is_disabled":true,"rental_uris":{"android":"levelo://app?vid=c4a7e894-f878-4bab-a8aa-1db498e677c5","ios":"levelo://app?vid=c4a7e894-f878-4bab-a8aa-1db498e677c5"},"vehicle_type_id":"4","last_reported":1732713679,"current_range_meters":0,"station_id":"ce501612rcd8frsf0b60","pricing_plan_id":"cebpf4jnsgd1na2vs0mg"},{"bike_id":"df76b7bf-b879-4e94-9796-439ee296ef0a","system_id":"levelo_inurba_marseille","lat":43.22925,"lon":5.35381,"is_reserved":false,"is_disabled":false,"rental_uris":{"android":"levelo://app?vid=df76b7bf-b879-4e94-9796-439ee296ef0a","ios":"levelo://app?vid=df76b7bf-b879-4e94-9796-439ee296ef0a"},"vehicle_type_id":"4","last_reported":1732713679,"current_range_meters":37600,"station_id":"cpo3532slgdg3j2ikp40","pricing_plan_id":"cebpf4jnsgd1na2vs0mg"},{"bike_id":"89e7d47b-ea83-4fb8-afc8-deb3c341932a","system_id":"levelo_inurba_marseille","lat":43.30454,"lon":5.37911,"is_reserved":false,"is_disabled":false,"rental_uris":{"android":"levelo://app?vid=89e7d47b-ea83-4fb8-afc8-deb3c341932a","ios":"levelo://app?vid=89e7d47b-ea83-4fb8-afc8-deb3c341932a"},"vehicle_type_id":"4","last_reported":1732713679,"current_range_meters":29600,"station_id":"ce4bgup2rcd13ifvqcn0","pricing_plan_id":"cebpf4jnsgd1na2vs0mg"},{"bike_id":"37f04e0d-7fd2-40a9-9589-db4de90a2f1a","system_id":"levelo_inurba_marseille","lat":43.25863,"lon":5.39896,"is_reserved":false,"is_disabled":false,"rental_uris":{"android":"levelo://app?vid=37f04e0d-7fd2-40a9-9589-db4de90a2f1a","ios":"levelo://app?vid=37f04e0d-7fd2-40a9-9589-db4de90a2f1a"},"vehicle_type_id":"4","last_reported":1732713679,"current_range_meters":38800,"station_id":"ce4bhl92rcd13ifvqghg","pricing_plan_id":"cebpf4jnsgd1na2vs0mg"},{"bike_id":"c38bafd9-d2ff-4d8a-8bf3-f36a7e655c1d","system_id":"levelo_inurba_marseille","lat":43.24651,"lon":5.38899,"is_reserved":false,"is_disabled":false,"rental_uris":{"android":"levelo://app?vid=c38bafd9-d2ff-4d8a-8bf3-f36a7e655c1d","ios":"levelo://app?vid=c38bafd9-d2ff-4d8a-8bf3-f36a7e655c1d"},"vehicle_type_id":"4","last_reported":1732713679,"current_range_meters":28000,"station_id":"ce4bhg12rcd13ifvqf60","pricing_plan_id":"cebpf4jnsgd1na2vs0mg"},{"bike_id":"925d9d68-1b01-45a4-af19-d1a58d7476b9","system_id":"levelo_inurba_marseille","lat":43.312042,"lon":5.367348,"is_reserved":false,"is_disabled":true,"rental_uris":{"android":"levelo://app?vid=925d9d68-1b01-45a4-af19-d1a58d7476b9","ios":"levelo://app?vid=925d9d68-1b01-45a4-af19-d1a58d7476b9"},"vehicle_type_id":"4","last_reported":1732713679,"current_range_meters":0,"station_id":"","pricing_plan_id":"cebpf4jnsgd1na2vs0mg"},{"bike_id":"cf298d8c-a0c9-4883-b341-ff4459ca7832","system_id":"levelo_inurba_marseille","lat":43.22932,"lon":5.35378,"is_reserved":false,"is_disabled":false,"rental_uris":{"android":"levelo://app?vid=cf298d8c-a0c9-4883-b341-ff4459ca7832","ios":"levelo://app?vid=cf298d8c-a0c9-4883-b341-ff4459ca7832"},"vehicle_type_id":"4","last_reported":1732713679,"current_range_meters":38000,"station_id":"cpo3532slgdg3j2ikp40","pricing_plan_id":"cebpf4jnsgd1na2vs0mg"},{"bike_id":"bce13c83-77f2-43e1-bca7-50afe3af9417","system_id":"levelo_inurba_marseille","lat":43.26491,"lon":5.39552,"is_reserved":false,"is_disabled":false,"rental_uris":{"android":"levelo://app?vid=bce13c83-77f2-43e1-bca7-50afe3af9417","ios":"levelo://app?vid=bce13c83-77f2-43e1-bca7-50afe3af9417"},"vehicle_type_id":"4","last_reported":1732713679,"current_range_meters":14400,"station_id":"ce4bhi12rcd13ifvqfq0","pricing_plan_id":"cebpf4jnsgd1na2vs0mg"},{"bike_id":"8d7a490f-aa91-41ca-9566-ced6dfbcffad","system_id":"levelo_inurba_marseille","lat":43.29023,"lon":5.38645,"is_reserved":false,"is_disabled":true,"rental_uris":{"android":"levelo://app?vid=8d7a490f-aa91-41ca-9566-ced6dfbcffad","ios":"levelo://app?vid=8d7a490f-aa91-41ca-9566-ced6dfbcffad"},"vehicle_type_id":"4","last_reported":1732713679,"current_range_meters":0,"station_id":"ce4bh4p2rcd13ifvqe0g","pricing_plan_id":"cebpf4jnsgd1na2vs0mg"},{"bike_id":"d9ef5ed5-65f4-4a4b-8dbb-274b0e908852","system_id":"levelo_inurba_marseille","lat":43.2417,"lon":5.36392,"is_reserved":false,"is_disabled":false,"rental_uris":{"android":"levelo://app?vid=d9ef5ed5-65f4-4a4b-8dbb-274b0e908852","ios":"levelo://app?vid=d9ef5ed5-65f4-4a4b-8dbb-274b0e908852"},"vehicle_type_id":"4","last_reported":1732713679,"current_range_meters":24800,"station_id":"cpo36qri1sfpv3e86is0","pricing_plan_id":"cebpf4jnsgd1na2vs0mg"},{"bike_id":"c88f8730-1176-4717-97e2-17c27b15274f","system_id":"levelo_inurba_marseille","lat":43.23194,"lon":5.35553,"is_reserved":false,"is_disabled":true,"rental_uris":{"android":"levelo://app?vid=c88f8730-1176-4717-97e2-17c27b15274f","ios":"levelo://app?vid=c88f8730-1176-4717-97e2-17c27b15274f"},"vehicle_type_id":"4","last_reported":1732713679,"current_range_meters":800,"station_id":"ce4bhu92rcd13ifvqi70","pricing_plan_id":"cebpf4jnsgd1na2vs0mg"},{"bike_id":"563aa268-c879-46ad-a46b-b792f1384d71","system_id":"levelo_inurba_marseille","lat":43.30944,"lon":5.39031,"is_reserved":false,"is_disabled":false,"rental_uris":{"android":"levelo://app?vid=563aa268-c879-46ad-a46b-b792f1384d71","ios":"levelo://app?vid=563aa268-c879-46ad-a46b-b792f1384d71"},"vehicle_type_id":"4","last_reported":1732713679,"current_range_meters":4400,"station_id":"ce4bgup2rcd13ifvqco0","pricing_plan_id":"cebpf4jnsgd1na2vs0mg"},{"bike_id":"45cc0129-d320-4c4f-95cc-6b85bf99203c","system_id":"levelo_inurba_marseille","lat":43.32291,"lon":5.3828,"is_reserved":false,"is_disabled":false,"rental_uris":{"android":"levelo://app?vid=45cc0129-d320-4c4f-95cc-6b85bf99203c","ios":"levelo://app?vid=45cc0129-d320-4c4f-95cc-6b85bf99203c"},"vehicle_type_id":"4","last_reported":1732713679,"current_range_meters":25200,"station_id":"ce4bhr12rcd13ifvqhqg","pricing_plan_id":"cebpf4jnsgd1na2vs0mg"},{"bike_id":"1d491570-34a1-4266-9dd8-096aad79ce71","system_id":"levelo_inurba_marseille","lat":43.28425,"lon":5.34982,"is_reserved":false,"is_disabled":false,"rental_uris":{"android":"levelo://app?vid=1d491570-34a1-4266-9dd8-096aad79ce71","ios":"levelo://app?vid=1d491570-34a1-4266-9dd8-096aad79ce71"},"vehicle_type_id":"4","last_reported":1732713679,"current_range_meters":39200,"station_id":"ce4bhbh2rcd13ifvqepg","pricing_plan_id":"cebpf4jnsgd1na2vs0mg"},{"bike_id":"57708479-11f2-43d8-90bb-6817d97d5b5a","system_id":"levelo_inurba_marseille","lat":43.27995,"lon":5.41662,"is_reserved":false,"is_disabled":false,"rental_uris":{"android":"levelo://app?vid=57708479-11f2-43d8-90bb-6817d97d5b5a","ios":"levelo://app?vid=57708479-11f2-43d8-90bb-6817d97d5b5a"},"vehicle_type_id":"4","last_reported":1732713679,"current_range_meters":36800,"station_id":"ce4bho12rcd13ifvqh1g","pricing_plan_id":"cebpf4jnsgd1na2vs0mg"},{"bike_id":"a53f9114-9795-4006-9fde-e66fbbe29373","system_id":"levelo_inurba_marseille","lat":43.27918,"lon":5.39586,"is_reserved":false,"is_disabled":false,"rental_uris":{"android":"levelo://app?vid=a53f9114-9795-4006-9fde-e66fbbe29373","ios":"levelo://app?vid=a53f9114-9795-4006-9fde-e66fbbe29373"},"vehicle_type_id":"4","last_reported":1732713679,"current_range_meters":28000,"station_id":"ce4bhf92rcd13ifvqf40","pricing_plan_id":"cebpf4jnsgd1na2vs0mg"},{"bike_id":"cddc412b-c0aa-4133-b04d-0765eb555db5","system_id":"levelo_inurba_marseille","lat":43.29215,"lon":5.36065,"is_reserved":false,"is_disabled":false,"rental_uris":{"android":"levelo://app?vid=cddc412b-c0aa-4133-b04d-0765eb555db5","ios":"levelo://app?vid=cddc412b-c0aa-4133-b04d-0765eb555db5"},"vehicle_type_id":"4","last_reported":1732713679,"current_range_meters":38800,"station_id":"ce4bhbh2rcd13ifvqeqg","pricing_plan_id":"cebpf4jnsgd1na2vs0mg"},{"bike_id":"1614e2a5-eff6-4651-9d69-3a3985cf0ea9","system_id":"levelo_inurba_marseille","lat":43.28227,"lon":5.39846,"is_reserved":false,"is_disabled":false,"rental_uris":{"android":"levelo://app?vid=1614e2a5-eff6-4651-9d69-3a3985cf0ea9","ios":"levelo://app?vid=1614e2a5-eff6-4651-9d69-3a3985cf0ea9"},"vehicle_type_id":"4","last_reported":1732713679,"current_range_meters":10000,"station_id":"","pricing_plan_id":"cebpf4jnsgd1na2vs0mg"},{"bike_id":"018d1789-ac79-4584-bb14-e2348ca5d0f3","system_id":"levelo_inurba_marseille","lat":43.25498,"lon":5.37656,"is_reserved":false,"is_disabled":false,"rental_uris":{"android":"levelo://app?vid=018d1789-ac79-4584-bb14-e2348ca5d0f3","ios":"levelo://app?vid=018d1789-ac79-4584-bb14-e2348ca5d0f3"},"vehicle_type_id":"4","last_reported":1732713679,"current_range_meters":20000,"station_id":"ce4bhh12rcd13ifvqff0","pricing_plan_id":"cebpf4jnsgd1na2vs0mg"},{"bike_id":"07166161-57d3-4ee1-aa7a-80001a63ee93","system_id":"levelo_inurba_marseille","lat":43.23179,"lon":5.39983,"is_reserved":false,"is_disabled":false,"rental_uris":{"android":"levelo://app?vid=07166161-57d3-4ee1-aa7a-80001a63ee93","ios":"levelo://app?vid=07166161-57d3-4ee1-aa7a-80001a63ee93"},"vehicle_type_id":"4","last_reported":1732713679,"current_range_meters":40000,"station_id":"ce4bhn12rcd13ifvqgqg","pricing_plan_id":"cebpf4jnsgd1na2vs0mg"},{"bike_id":"9cff0f21-ab59-48fd-b4fc-1b94e8b79a41","system_id":"levelo_inurba_marseille","lat":43.29545,"lon":5.42284,"is_reserved":false,"is_disabled":false,"rental_uris":{"android":"levelo://app?vid=9cff0f21-ab59-48fd-b4fc-1b94e8b79a41","ios":"levelo://app?vid=9cff0f21-ab59-48fd-b4fc-1b94e8b79a41"},"vehicle_type_id":"4","last_reported":1732713679,"current_range_meters":38400,"station_id":"ce4bhph2rcd13ifvqhdg","pricing_plan_id":"cebpf4jnsgd1na2vs0mg"},{"bike_id":"89d8c829-8f1b-4feb-abb2-fcdd7c10c329","system_id":"levelo_inurba_marseille","lat":43.336,"lon":5.41033,"is_reserved":false,"is_disabled":false,"rental_uris":{"android":"levelo://app?vid=89d8c829-8f1b-4feb-abb2-fcdd7c10c329","ios":"levelo://app?vid=89d8c829-8f1b-4feb-abb2-fcdd7c10c329"},"vehicle_type_id":"4","last_reported":1732713679,"current_range_meters":20000,"station_id":"ce4bhqh2rcd13ifvqhmg","pricing_plan_id":"cebpf4jnsgd1na2vs0mg"},{"bike_id":"d4d6d87f-0c96-4b65-9009-b3a1a8b1ed69","system_id":"levelo_inurba_marseille","lat":43.30274,"lon":5.37701,"is_reserved":false,"is_disabled":true,"rental_uris":{"android":"levelo://app?vid=d4d6d87f-0c96-4b65-9009-b3a1a8b1ed69","ios":"levelo://app?vid=d4d6d87f-0c96-4b65-9009-b3a1a8b1ed69"},"vehicle_type_id":"4","last_reported":1732713679,"current_range_meters":1200,"station_id":"ce4bguh2rcd13ifvqcj0","pricing_plan_id":"cebpf4jnsgd1na2vs0mg"},{"bike_id":"e9c17faa-0a50-4311-9b95-9e8911926bd0","system_id":"levelo_inurba_marseille","lat":43.30535,"lon":5.36707,"is_reserved":false,"is_disabled":false,"rental_uris":{"android":"levelo://app?vid=e9c17faa-0a50-4311-9b95-9e8911926bd0","ios":"levelo://app?vid=e9c17faa-0a50-4311-9b95-9e8911926bd0"},"vehicle_type_id":"4","last_reported":1732713679,"current_range_meters":14800,"station_id":"ce4bgrp2rcd13ifvqc9g","pricing_plan_id":"cebpf4jnsgd1na2vs0mg"},{"bike_id":"4a445ccf-e3b1-4a1c-a0e9-6f268ed34cc4","system_id":"levelo_inurba_marseille","lat":43.32335,"lon":5.41407,"is_reserved":false,"is_disabled":false,"rental_uris":{"android":"levelo://app?vid=4a445ccf-e3b1-4a1c-a0e9-6f268ed34cc4","ios":"levelo://app?vid=4a445ccf-e3b1-4a1c-a0e9-6f268ed34cc4"},"vehicle_type_id":"4","last_reported":1732713679,"current_range_meters":10000,"station_id":"ce4bhq12rcd13ifvqhhg","pricing_plan_id":"cebpf4jnsgd1na2vs0mg"},{"bike_id":"0c988664-3d36-4703-ac3a-126f756dbab5","system_id":"levelo_inurba_marseille","lat":43.311279,"lon":5.396127,"is_reserved":false,"is_disabled":false,"rental_uris":{"android":"levelo://app?vid=0c988664-3d36-4703-ac3a-126f756dbab5","ios":"levelo://app?vid=0c988664-3d36-4703-ac3a-126f756dbab5"},"vehicle_type_id":"4","last_reported":1732713679,"current_range_meters":18800,"station_id":"ce4bgvp2rcd13ifvqcu0","pricing_plan_id":"cebpf4jnsgd1na2vs0mg"},{"bike_id":"65c5b7a0-2741-4674-9e62-324f44553665","system_id":"levelo_inurba_marseille","lat":43.27962,"lon":5.3872,"is_reserved":false,"is_disabled":true,"rental_uris":{"android":"levelo://app?vid=65c5b7a0-2741-4674-9e62-324f44553665","ios":"levelo://app?vid=65c5b7a0-2741-4674-9e62-324f44553665"},"vehicle_type_id":"4","last_reported":1732713679,"current_range_meters":0,"station_id":"ce4bhg12rcd13ifvqf80","pricing_plan_id":"cebpf4jnsgd1na2vs0mg"},{"bike_id":"46149dd2-98af-448e-91cc-d101af8b1a2c","system_id":"levelo_inurba_marseille","lat":43.25716,"lon":5.41113,"is_reserved":false,"is_disabled":false,"rental_uris":{"android":"levelo://app?vid=46149dd2-98af-448e-91cc-d101af8b1a2c","ios":"levelo://app?vid=46149dd2-98af-448e-91cc-d101af8b1a2c"},"vehicle_type_id":"4","last_reported":1732713679,"current_range_meters":38000,"station_id":"ce4bhkp2rcd13ifvqgd0","pricing_plan_id":"cebpf4jnsgd1na2vs0mg"},{"bike_id":"7949ac1b-0784-440f-aff1-656075d155c5","system_id":"levelo_inurba_marseille","lat":43.313461,"lon":5.367093,"is_reserved":false,"is_disabled":false,"rental_uris":{"android":"levelo://app?vid=7949ac1b-0784-440f-aff1-656075d155c5","ios":"levelo://app?vid=7949ac1b-0784-440f-aff1-656075d155c5"},"vehicle_type_id":"4","last_reported":1732713679,"current_range_meters":39200,"station_id":"ce4bgr92rcd13ifvqc6g","pricing_plan_id":"cebpf4jnsgd1na2vs0mg"},{"bike_id":"9cf75bf2-2262-4f89-94c0-550f2f8c8309","system_id":"levelo_inurba_marseille","lat":43.33616,"lon":5.41031,"is_reserved":false,"is_disabled":false,"rental_uris":{"android":"levelo://app?vid=9cf75bf2-2262-4f89-94c0-550f2f8c8309","ios":"levelo://app?vid=9cf75bf2-2262-4f89-94c0-550f2f8c8309"},"vehicle_type_id":"4","last_reported":1732713679,"current_range_meters":22000,"station_id":"ce4bhqh2rcd13ifvqhmg","pricing_plan_id":"cebpf4jnsgd1na2vs0mg"},{"bike_id":"0cf60c25-64bc-4c70-8ec2-2b58483ea88e","system_id":"levelo_inurba_marseille","lat":43.28922,"lon":5.36625,"is_reserved":false,"is_disabled":false,"rental_uris":{"android":"levelo://app?vid=0cf60c25-64bc-4c70-8ec2-2b58483ea88e","ios":"levelo://app?vid=0cf60c25-64bc-4c70-8ec2-2b58483ea88e"},"vehicle_type_id":"4","last_reported":1732713679,"current_range_meters":38800,"station_id":"ce4bhap2rcd13ifvqek0","pricing_plan_id":"cebpf4jnsgd1na2vs0mg"},{"bike_id":"562a76b4-6ab9-4ff0-9faf-2020d86f5e9a","system_id":"levelo_inurba_marseille","lat":43.24191,"lon":5.39744,"is_reserved":false,"is_disabled":true,"rental_uris":{"android":"levelo://app?vid=562a76b4-6ab9-4ff0-9faf-2020d86f5e9a","ios":"levelo://app?vid=562a76b4-6ab9-4ff0-9faf-2020d86f5e9a"},"vehicle_type_id":"4","last_reported":1732713679,"current_range_meters":0,"station_id":"ce4bhn12rcd13ifvqgpg","pricing_plan_id":"cebpf4jnsgd1na2vs0mg"},{"bike_id":"4528ff39-40a8-4a13-b7fd-51c01ae212f7","system_id":"levelo_inurba_marseille","lat":43.29965,"lon":5.38471,"is_reserved":false,"is_disabled":false,"rental_uris":{"android":"levelo://app?vid=4528ff39-40a8-4a13-b7fd-51c01ae212f7","ios":"levelo://app?vid=4528ff39-40a8-4a13-b7fd-51c01ae212f7"},"vehicle_type_id":"4","last_reported":1732713679,"current_range_meters":25200,"station_id":"ce4bgj92rcd13ifvqbd0","pricing_plan_id":"cebpf4jnsgd1na2vs0mg"},{"bike_id":"abcc3c82-6c01-4f46-ad93-c1d25b42613e","system_id":"levelo_inurba_marseille","lat":43.324833,"lon":5.365694,"is_reserved":false,"is_disabled":false,"rental_uris":{"android":"levelo://app?vid=abcc3c82-6c01-4f46-ad93-c1d25b42613e","ios":"levelo://app?vid=abcc3c82-6c01-4f46-ad93-c1d25b42613e"},"vehicle_type_id":"4","last_reported":1732713679,"current_range_meters":14800,"station_id":"ce4bhs12rcd13ifvqhvg","pricing_plan_id":"cebpf4jnsgd1na2vs0mg"},{"bike_id":"0b6fd622-0a97-4fbe-a987-f23968795d13","system_id":"levelo_inurba_marseille","lat":43.30306,"lon":5.36911,"is_reserved":false,"is_disabled":true,"rental_uris":{"android":"levelo://app?vid=0b6fd622-0a97-4fbe-a987-f23968795d13","ios":"levelo://app?vid=0b6fd622-0a97-4fbe-a987-f23968795d13"},"vehicle_type_id":"4","last_reported":1732713679,"current_range_meters":16400,"station_id":"ce4bgqh2rcd13ifvqc5g","pricing_plan_id":"cebpf4jnsgd1na2vs0mg"},{"bike_id":"bdd51559-1c46-46e3-81da-d8886117bb3d","system_id":"levelo_inurba_marseille","lat":43.25936,"lon":5.40903,"is_reserved":false,"is_disabled":false,"rental_uris":{"android":"levelo://app?vid=bdd51559-1c46-46e3-81da-d8886117bb3d","ios":"levelo://app?vid=bdd51559-1c46-46e3-81da-d8886117bb3d"},"vehicle_type_id":"4","last_reported":1732713679,"current_range_meters":31200,"station_id":"ce4bhm92rcd13ifvqglg","pricing_plan_id":"cebpf4jnsgd1na2vs0mg"},{"bike_id":"e8c3745d-4b9e-400a-bc7a-0764243f0800","system_id":"levelo_inurba_marseille","lat":43.26557,"lon":5.37281,"is_reserved":false,"is_disabled":false,"rental_uris":{"android":"levelo://app?vid=e8c3745d-4b9e-400a-bc7a-0764243f0800","ios":"levelo://app?vid=e8c3745d-4b9e-400a-bc7a-0764243f0800"},"vehicle_type_id":"4","last_reported":1732713679,"current_range_meters":38400,"station_id":"ce4bhg12rcd13ifvqf70","pricing_plan_id":"cebpf4jnsgd1na2vs0mg"},{"bike_id":"9e944db9-d48e-4848-b5fa-4af701aee80b","system_id":"levelo_inurba_marseille","lat":48.80792,"lon":2.40166,"is_reserved":false,"is_disabled":true,"rental_uris":{"android":"levelo://app?vid=9e944db9-d48e-4848-b5fa-4af701aee80b","ios":"levelo://app?vid=9e944db9-d48e-4848-b5fa-4af701aee80b"},"vehicle_type_id":"4","last_reported":1732713679,"current_range_meters":29600,"station_id":"","pricing_plan_id":"cebpf4jnsgd1na2vs0mg"},{"bike_id":"1c904766-d668-43ef-b46c-8a8c67c87660","system_id":"levelo_inurba_marseille","lat":43.23194,"lon":5.35556,"is_reserved":false,"is_disabled":false,"rental_uris":{"android":"levelo://app?vid=1c904766-d668-43ef-b46c-8a8c67c87660","ios":"levelo://app?vid=1c904766-d668-43ef-b46c-8a8c67c87660"},"vehicle_type_id":"4","last_reported":1732713679,"current_range_meters":40000,"station_id":"ce4bhu92rcd13ifvqi70","pricing_plan_id":"cebpf4jnsgd1na2vs0mg"},{"bike_id":"01c3041a-b944-4a6c-a946-1e6e3cd2fe5c","system_id":"levelo_inurba_marseille","lat":43.28033,"lon":5.36953,"is_reserved":false,"is_disabled":false,"rental_uris":{"android":"levelo://app?vid=01c3041a-b944-4a6c-a946-1e6e3cd2fe5c","ios":"levelo://app?vid=01c3041a-b944-4a6c-a946-1e6e3cd2fe5c"},"vehicle_type_id":"4","last_reported":1732713679,"current_range_meters":29600,"station_id":"ce4bha12rcd13ifvqef0","pricing_plan_id":"cebpf4jnsgd1na2vs0mg"},{"bike_id":"8adb64fd-678a-4fae-9151-e67de55498ee","system_id":"levelo_inurba_marseille","lat":43.30142,"lon":5.3808,"is_reserved":false,"is_disabled":false,"rental_uris":{"android":"levelo://app?vid=8adb64fd-678a-4fae-9151-e67de55498ee","ios":"levelo://app?vid=8adb64fd-678a-4fae-9151-e67de55498ee"},"vehicle_type_id":"4","last_reported":1732713679,"current_range_meters":26000,"station_id":"ce4bgjp2rcd13ifvqbh0","pricing_plan_id":"cebpf4jnsgd1na2vs0mg"},{"bike_id":"e3d66b5c-46e4-4c5e-98b6-96884b272ccf","system_id":"levelo_inurba_marseille","lat":43.28265,"lon":5.35062,"is_reserved":false,"is_disabled":false,"rental_uris":{"android":"levelo://app?vid=e3d66b5c-46e4-4c5e-98b6-96884b272ccf","ios":"levelo://app?vid=e3d66b5c-46e4-4c5e-98b6-96884b272ccf"},"vehicle_type_id":"4","last_reported":1732713679,"current_range_meters":14000,"station_id":"ce4bhbp2rcd13ifvqerg","pricing_plan_id":"cebpf4jnsgd1na2vs0mg"},{"bike_id":"85c6807d-adb2-4c55-89d5-379a914608be","system_id":"levelo_inurba_marseille","lat":43.337444,"lon":5.374475,"is_reserved":false,"is_disabled":false,"rental_uris":{"android":"levelo://app?vid=85c6807d-adb2-4c55-89d5-379a914608be","ios":"levelo://app?vid=85c6807d-adb2-4c55-89d5-379a914608be"},"vehicle_type_id":"4","last_reported":1732713679,"current_range_meters":37600,"station_id":"","pricing_plan_id":"cebpf4jnsgd1na2vs0mg"},{"bike_id":"a9f5db62-899a-4b16-8f85-e469804573fa","system_id":"levelo_inurba_marseille","lat":43.30661,"lon":5.400801,"is_reserved":false,"is_disabled":false,"rental_uris":{"android":"levelo://app?vid=a9f5db62-899a-4b16-8f85-e469804573fa","ios":"levelo://app?vid=a9f5db62-899a-4b16-8f85-e469804573fa"},"vehicle_type_id":"4","last_reported":1732713679,"current_range_meters":13600,"station_id":"ce4bh112rcd13ifvqda0","pricing_plan_id":"cebpf4jnsgd1na2vs0mg"},{"bike_id":"85a5cfde-3b61-40b5-8fda-a1acde978b80","system_id":"levelo_inurba_marseille","lat":43.2306,"lon":5.35496,"is_reserved":false,"is_disabled":false,"rental_uris":{"android":"levelo://app?vid=85a5cfde-3b61-40b5-8fda-a1acde978b80","ios":"levelo://app?vid=85a5cfde-3b61-40b5-8fda-a1acde978b80"},"vehicle_type_id":"4","last_reported":1732713679,"current_range_meters":37600,"station_id":"cpo3342slgdg3j2ifvpg","pricing_plan_id":"cebpf4jnsgd1na2vs0mg"},{"bike_id":"efa5ad5a-1722-4fb2-b3ce-26aeaa51a88e","system_id":"levelo_inurba_marseille","lat":43.33599,"lon":5.41036,"is_reserved":false,"is_disabled":false,"rental_uris":{"android":"levelo://app?vid=efa5ad5a-1722-4fb2-b3ce-26aeaa51a88e","ios":"levelo://app?vid=efa5ad5a-1722-4fb2-b3ce-26aeaa51a88e"},"vehicle_type_id":"4","last_reported":1732713679,"current_range_meters":32000,"station_id":"ce4bhqh2rcd13ifvqhmg","pricing_plan_id":"cebpf4jnsgd1na2vs0mg"},{"bike_id":"6ee15eab-303d-4146-a703-589cc13bf7d1","system_id":"levelo_inurba_marseille","lat":43.29553,"lon":5.42284,"is_reserved":false,"is_disabled":true,"rental_uris":{"android":"levelo://app?vid=6ee15eab-303d-4146-a703-589cc13bf7d1","ios":"levelo://app?vid=6ee15eab-303d-4146-a703-589cc13bf7d1"},"vehicle_type_id":"4","last_reported":1732713679,"current_range_meters":0,"station_id":"ce4bhph2rcd13ifvqhdg","pricing_plan_id":"cebpf4jnsgd1na2vs0mg"},{"bike_id":"e90518ef-5cf2-4e67-9525-b8f5e2b9c3a2","system_id":"levelo_inurba_marseille","lat":43.27378,"lon":5.36266,"is_reserved":false,"is_disabled":true,"rental_uris":{"android":"levelo://app?vid=e90518ef-5cf2-4e67-9525-b8f5e2b9c3a2","ios":"levelo://app?vid=e90518ef-5cf2-4e67-9525-b8f5e2b9c3a2"},"vehicle_type_id":"4","last_reported":1732713679,"current_range_meters":800,"station_id":"ce4bhbh2rcd13ifvqeo0","pricing_plan_id":"cebpf4jnsgd1na2vs0mg"},{"bike_id":"f9f9a0c2-9ece-4506-91d8-1ce22486cba6","system_id":"levelo_inurba_marseille","lat":43.2718,"lon":5.40991,"is_reserved":false,"is_disabled":false,"rental_uris":{"android":"levelo://app?vid=f9f9a0c2-9ece-4506-91d8-1ce22486cba6","ios":"levelo://app?vid=f9f9a0c2-9ece-4506-91d8-1ce22486cba6"},"vehicle_type_id":"4","last_reported":1732713679,"current_range_meters":32000,"station_id":"ce4bhl12rcd13ifvqgf0","pricing_plan_id":"cebpf4jnsgd1na2vs0mg"},{"bike_id":"e03877c2-c2c0-499d-837f-f63464b39f16","system_id":"levelo_inurba_marseille","lat":43.293182,"lon":5.404614,"is_reserved":false,"is_disabled":true,"rental_uris":{"android":"levelo://app?vid=e03877c2-c2c0-499d-837f-f63464b39f16","ios":"levelo://app?vid=e03877c2-c2c0-499d-837f-f63464b39f16"},"vehicle_type_id":"4","last_reported":1732713679,"current_range_meters":30800,"station_id":"","pricing_plan_id":"cebpf4jnsgd1na2vs0mg"},{"bike_id":"7bfc460d-f9c0-4f8b-9596-52875809ad85","system_id":"levelo_inurba_marseille","lat":43.31261,"lon":5.40161,"is_reserved":false,"is_disabled":false,"rental_uris":{"android":"levelo://app?vid=7bfc460d-f9c0-4f8b-9596-52875809ad85","ios":"levelo://app?vid=7bfc460d-f9c0-4f8b-9596-52875809ad85"},"vehicle_type_id":"4","last_reported":1732713679,"current_range_meters":37600,"station_id":"ce4bh092rcd13ifvqd30","pricing_plan_id":"cebpf4jnsgd1na2vs0mg"},{"bike_id":"c9ae6c93-dc82-4dad-b059-a5bf1c71b705","system_id":"levelo_inurba_marseille","lat":43.2396,"lon":5.36632,"is_reserved":false,"is_disabled":false,"rental_uris":{"android":"levelo://app?vid=c9ae6c93-dc82-4dad-b059-a5bf1c71b705","ios":"levelo://app?vid=c9ae6c93-dc82-4dad-b059-a5bf1c71b705"},"vehicle_type_id":"4","last_reported":1732713679,"current_range_meters":10000,"station_id":"ce4bhi12rcd13ifvqfp0","pricing_plan_id":"cebpf4jnsgd1na2vs0mg"},{"bike_id":"a7cbc1dc-f0f8-4875-bbb5-195f6fbe1dd8","system_id":"levelo_inurba_marseille","lat":43.33771,"lon":5.37457,"is_reserved":false,"is_disabled":false,"rental_uris":{"android":"levelo://app?vid=a7cbc1dc-f0f8-4875-bbb5-195f6fbe1dd8","ios":"levelo://app?vid=a7cbc1dc-f0f8-4875-bbb5-195f6fbe1dd8"},"vehicle_type_id":"4","last_reported":1732713679,"current_range_meters":35200,"station_id":"","pricing_plan_id":"cebpf4jnsgd1na2vs0mg"},{"bike_id":"1d53b8a4-d427-47ed-a67e-5baca0b22496","system_id":"levelo_inurba_marseille","lat":43.2952,"lon":5.37503,"is_reserved":false,"is_disabled":true,"rental_uris":{"android":"levelo://app?vid=1d53b8a4-d427-47ed-a67e-5baca0b22496","ios":"levelo://app?vid=1d53b8a4-d427-47ed-a67e-5baca0b22496"},