{"last_updated":1745007068,"ttl":60,"version":"2.2","data":{"bikes":[{"bike_id":"b4843c49-65b4-4b2d-af48-462760601d3c","system_id":"levelo_inurba_marseille","lat":43.27836,"lon":5.40757,"is_reserved":false,"is_disabled":true,"rental_uris":{"android":"levelo://app?vid=b4843c49-65b4-4b2d-af48-462760601d3c","ios":"levelo://app?vid=b4843c49-65b4-4b2d-af48-462760601d3c"},"vehicle_type_id":"4","last_reported":1745007068,"current_range_meters":2800,"station_id":"ce4bhnh2rcd13ifvqgtg","pricing_plan_id":"cebpf4jnsgd1na2vs0mg"},{"bike_id":"693b23a2-97ba-48a8-ba94-c8489411b09e","system_id":"levelo_inurba_marseille","lat":43.28453,"lon":5.3589,"is_reserved":false,"is_disabled":false,"rental_uris":{"android":"levelo://app?vid=693b23a2-97ba-48a8-ba94-c8489411b09e","ios":"levelo://app?vid=693b23a2-97ba-48a8-ba94-c8489411b09e"},"vehicle_type_id":"4","last_reported":1745007068,"current_range_meters":2800,"station_id":"ce4bhah2rcd13ifvqei0","pricing_plan_id":"cebpf4jnsgd1na2vs0mg"},{"bike_id":"208a8069-b7ea-42ee-8dec-ad30f2e44046","system_id":"levelo_inurba_marseille","lat":43.29745,"lon":5.4095,"is_reserved":false,"is_disabled":false,"rental_uris":{"android":"levelo://app?vid=208a8069-b7ea-42ee-8dec-ad30f2e44046","ios":"levelo://app?vid=208a8069-b7ea-42ee-8dec-ad30f2e44046"},"vehicle_type_id":"4","last_reported":1745007068,"current_range_meters":3200,"station_id":"","pricing_plan_id":"cebpf4jnsgd1na2vs0mg"},{"bike_id":"0815d0bc-f227-420e-8f73-82e0ea8c983f","system_id":"levelo_inurba_marseille","lat":43.25823,"lon":5.39431,"is_reserved":false,"is_disabled":false,"rental_uris":{"android":"levelo://app?vid=0815d0bc-f227-420e-8f73-82e0ea8c983f","ios":"levelo://app?vid=0815d0bc-f227-420e-8f73-82e0ea8c983f"},"vehicle_type_id":"4","last_reported":1745007068,"current_range_meters":2800,"station_id":"ce4bhip2rcd13ifvqft0","pricing_plan_id":"cebpf4jnsgd1na2vs0mg"},{"bike_id":"4f3523a2-05ae-404d-959d-787efc4b6901","system_id":"levelo_inurba_marseille","lat":43.29362,"lon":5.3784,"is_reserved":false,"is_disabled":false,"rental_uris":{"android":"levelo://app?vid=4f3523a2-05ae-404d-959d-787efc4b6901","ios":"levelo://app?vid=4f3523a2-05ae-404d-959d-787efc4b6901"},"vehicle_type_id":"4","last_reported":1745007068,"current_range_meters":3200,"station_id":"ce4bgjh2rcd13ifvqbf0","pricing_plan_id":"cebpf4jnsgd1na2vs0mg"},{"bike_id":"4293c7e6-cabd-4cb9-bc92-224063d62d37","system_id":"levelo_inurba_marseille","lat":43.31123,"lon":5.37761,"is_reserved":false,"is_disabled":false,"rental_uris":{"android":"levelo://app?vid=4293c7e6-cabd-4cb9-bc92-224063d62d37","ios":"levelo://app?vid=4293c7e6-cabd-4cb9-bc92-224063d62d37"},"vehicle_type_id":"4","last_reported":1745007068,"current_range_meters":3600,"station_id":"ce4bgt92rcd13ifvqcg0","pricing_plan_id":"cebpf4jnsgd1na2vs0mg"},{"bike_id":"faaece45-65cd-4495-8c6e-881c362a64fa","system_id":"levelo_inurba_marseille","lat":43.29168,"lon":5.38287,"is_reserved":false,"is_disabled":false,"rental_uris":{"android":"levelo://app?vid=faaece45-65cd-4495-8c6e-881c362a64fa","ios":"levelo://app?vid=faaece45-65cd-4495-8c6e-881c362a64fa"},"vehicle_type_id":"4","last_reported":1745007068,"current_range_meters":3600,"station_id":"","pricing_plan_id":"cebpf4jnsgd1na2vs0mg"},{"bike_id":"485d684d-42df-4a2e-8109-9d270a199df0","system_id":"levelo_inurba_marseille","lat":43.29417,"lon":5.38611,"is_reserved":false,"is_disabled":false,"rental_uris":{"android":"levelo://app?vid=485d684d-42df-4a2e-8109-9d270a199df0","ios":"levelo://app?vid=485d684d-42df-4a2e-8109-9d270a199df0"},"vehicle_type_id":"4","last_reported":1745007068,"current_range_meters":3600,"station_id":"ce4bh2h2rcd13ifvqdh0","pricing_plan_id":"cebpf4jnsgd1na2vs0mg"},{"bike_id":"5a332681-e479-4aef-8c79-e5ffefc9a099","system_id":"levelo_inurba_marseille","lat":43.30365,"lon":5.42492,"is_reserved":false,"is_disabled":false,"rental_uris":{"android":"levelo://app?vid=5a332681-e479-4aef-8c79-e5ffefc9a099","ios":"levelo://app?vid=5a332681-e479-4aef-8c79-e5ffefc9a099"},"vehicle_type_id":"4","last_reported":1745007068,"current_range_meters":3600,"station_id":"ce4bhoh2rcd13ifvqh6g","pricing_plan_id":"cebpf4jnsgd1na2vs0mg"},{"bike_id":"0cd7448c-170a-48be-bc79-f10bcaf69806","system_id":"levelo_inurba_marseille","lat":43.2306,"lon":5.35475,"is_reserved":false,"is_disabled":true,"rental_uris":{"android":"levelo://app?vid=0cd7448c-170a-48be-bc79-f10bcaf69806","ios":"levelo://app?vid=0cd7448c-170a-48be-bc79-f10bcaf69806"},"vehicle_type_id":"4","last_reported":1745007068,"current_range_meters":4000,"station_id":"cpo3342slgdg3j2ifvpg","pricing_plan_id":"cebpf4jnsgd1na2vs0mg"},{"bike_id":"58bdf34e-beb3-4e8c-9123-e9697369b32f","system_id":"levelo_inurba_marseille","lat":43.29807,"lon":5.38067,"is_reserved":false,"is_disabled":false,"rental_uris":{"android":"levelo://app?vid=58bdf34e-beb3-4e8c-9123-e9697369b32f","ios":"levelo://app?vid=58bdf34e-beb3-4e8c-9123-e9697369b32f"},"vehicle_type_id":"4","last_reported":1745007068,"current_range_meters":4000,"station_id":"ce4bgip2rcd13ifvqbb0","pricing_plan_id":"cebpf4jnsgd1na2vs0mg"},{"bike_id":"809a5fd7-2b93-499a-a99b-df9df04456f9","system_id":"levelo_inurba_marseille","lat":43.29258,"lon":5.38447,"is_reserved":false,"is_disabled":false,"rental_uris":{"android":"levelo://app?vid=809a5fd7-2b93-499a-a99b-df9df04456f9","ios":"levelo://app?vid=809a5fd7-2b93-499a-a99b-df9df04456f9"},"vehicle_type_id":"4","last_reported":1745007068,"current_range_meters":4400,"station_id":"ce4bh692rcd13ifvqea0","pricing_plan_id":"cebpf4jnsgd1na2vs0mg"},{"bike_id":"2df22311-bac1-4b8f-abff-11893969de63","system_id":"levelo_inurba_marseille","lat":43.31069,"lon":5.37837,"is_reserved":false,"is_disabled":false,"rental_uris":{"android":"levelo://app?vid=2df22311-bac1-4b8f-abff-11893969de63","ios":"levelo://app?vid=2df22311-bac1-4b8f-abff-11893969de63"},"vehicle_type_id":"4","last_reported":1745007068,"current_range_meters":4400,"station_id":"","pricing_plan_id":"cebpf4jnsgd1na2vs0mg"},{"bike_id":"b15e27ad-de07-4803-9d00-be655444ee0a","system_id":"levelo_inurba_marseille","lat":43.29529,"lon":5.38545,"is_reserved":false,"is_disabled":false,"rental_uris":{"android":"levelo://app?vid=b15e27ad-de07-4803-9d00-be655444ee0a","ios":"levelo://app?vid=b15e27ad-de07-4803-9d00-be655444ee0a"},"vehicle_type_id":"4","last_reported":1745007068,"current_range_meters":4400,"station_id":"ce4bgih2rcd13ifvqba0","pricing_plan_id":"cebpf4jnsgd1na2vs0mg"},{"bike_id":"782da538-2223-4ccd-8232-244cda12462d","system_id":"levelo_inurba_marseille","lat":43.23182,"lon":5.39988,"is_reserved":false,"is_disabled":false,"rental_uris":{"android":"levelo://app?vid=782da538-2223-4ccd-8232-244cda12462d","ios":"levelo://app?vid=782da538-2223-4ccd-8232-244cda12462d"},"vehicle_type_id":"4","last_reported":1745007068,"current_range_meters":4400,"station_id":"ce4bhn12rcd13ifvqgqg","pricing_plan_id":"cebpf4jnsgd1na2vs0mg"},{"bike_id":"84e49312-ac99-4ef9-99d2-031114a019a8","system_id":"levelo_inurba_marseille","lat":43.32111,"lon":5.36777,"is_reserved":false,"is_disabled":false,"rental_uris":{"android":"levelo://app?vid=84e49312-ac99-4ef9-99d2-031114a019a8","ios":"levelo://app?vid=84e49312-ac99-4ef9-99d2-031114a019a8"},"vehicle_type_id":"4","last_reported":1745007068,"current_range_meters":4800,"station_id":"ce4bhrh2rcd13ifvqhug","pricing_plan_id":"cebpf4jnsgd1na2vs0mg"},{"bike_id":"2a297b53-e6c9-4a44-8832-a1535085da75","system_id":"levelo_inurba_marseille","lat":43.3199,"lon":5.38147,"is_reserved":false,"is_disabled":true,"rental_uris":{"android":"levelo://app?vid=2a297b53-e6c9-4a44-8832-a1535085da75","ios":"levelo://app?vid=2a297b53-e6c9-4a44-8832-a1535085da75"},"vehicle_type_id":"4","last_reported":1745007068,"current_range_meters":4800,"station_id":"ce4bhr12rcd13ifvqhpg","pricing_plan_id":"cebpf4jnsgd1na2vs0mg"},{"bike_id":"683727aa-af5c-4a30-b620-923da0da034b","system_id":"levelo_inurba_marseille","lat":43.26856,"lon":5.40466,"is_reserved":false,"is_disabled":false,"rental_uris":{"android":"levelo://app?vid=683727aa-af5c-4a30-b620-923da0da034b","ios":"levelo://app?vid=683727aa-af5c-4a30-b620-923da0da034b"},"vehicle_type_id":"4","last_reported":1745007068,"current_range_meters":4800,"station_id":"cjm6bp8fraef2m0cb0m0","pricing_plan_id":"cebpf4jnsgd1na2vs0mg"},{"bike_id":"16680fd2-411c-4d9b-bc51-6c2899ac321f","system_id":"levelo_inurba_marseille","lat":43.30128,"lon":5.37426,"is_reserved":false,"is_disabled":false,"rental_uris":{"android":"levelo://app?vid=16680fd2-411c-4d9b-bc51-6c2899ac321f","ios":"levelo://app?vid=16680fd2-411c-4d9b-bc51-6c2899ac321f"},"vehicle_type_id":"4","last_reported":1745007068,"current_range_meters":4800,"station_id":"ce4bgs92rcd13ifvqcc0","pricing_plan_id":"cebpf4jnsgd1na2vs0mg"},{"bike_id":"2803a011-9568-4f0c-b2bf-69e03d0f4a28","system_id":"levelo_inurba_marseille","lat":43.29797,"lon":5.38092,"is_reserved":false,"is_disabled":false,"rental_uris":{"android":"levelo://app?vid=2803a011-9568-4f0c-b2bf-69e03d0f4a28","ios":"levelo://app?vid=2803a011-9568-4f0c-b2bf-69e03d0f4a28"},"vehicle_type_id":"4","last_reported":1745007068,"current_range_meters":4800,"station_id":"ce4bgip2rcd13ifvqbb0","pricing_plan_id":"cebpf4jnsgd1na2vs0mg"},{"bike_id":"917da96d-9e33-4ab2-9b3e-ae35fab5f8ac","system_id":"levelo_inurba_marseille","lat":43.29263,"lon":5.38445,"is_reserved":false,"is_disabled":false,"rental_uris":{"android":"levelo://app?vid=917da96d-9e33-4ab2-9b3e-ae35fab5f8ac","ios":"levelo://app?vid=917da96d-9e33-4ab2-9b3e-ae35fab5f8ac"},"vehicle_type_id":"4","last_reported":1745007068,"current_range_meters":5600,"station_id":"ce4bh692rcd13ifvqea0","pricing_plan_id":"cebpf4jnsgd1na2vs0mg"},{"bike_id":"8349eb76-cc13-43e6-9059-fb99773605bb","system_id":"levelo_inurba_marseille","lat":43.292627,"lon":5.384465,"is_reserved":false,"is_disabled":false,"rental_uris":{"android":"levelo://app?vid=8349eb76-cc13-43e6-9059-fb99773605bb","ios":"levelo://app?vid=8349eb76-cc13-43e6-9059-fb99773605bb"},"vehicle_type_id":"4","last_reported":1745007068,"current_range_meters":5600,"station_id":"ce4bh692rcd13ifvqea0","pricing_plan_id":"cebpf4jnsgd1na2vs0mg"},{"bike_id":"b710fbb1-b765-492e-8cff-58a86822a607","system_id":"levelo_inurba_marseille","lat":43.23199,"lon":5.35551,"is_reserved":false,"is_disabled":true,"rental_uris":{"android":"levelo://app?vid=b710fbb1-b765-492e-8cff-58a86822a607","ios":"levelo://app?vid=b710fbb1-b765-492e-8cff-58a86822a607"},"vehicle_type_id":"4","last_reported":1745007068,"current_range_meters":5600,"station_id":"ce4bhu92rcd13ifvqi70","pricing_plan_id":"cebpf4jnsgd1na2vs0mg"},{"bike_id":"d447e9dd-ca51-4b4b-a8ce-edd45a2d6459","system_id":"levelo_inurba_marseille","lat":43.29793,"lon":5.38103,"is_reserved":false,"is_disabled":false,"rental_uris":{"android":"levelo://app?vid=d447e9dd-ca51-4b4b-a8ce-edd45a2d6459","ios":"levelo://app?vid=d447e9dd-ca51-4b4b-a8ce-edd45a2d6459"},"vehicle_type_id":"4","last_reported":1745007068,"current_range_meters":6000,"station_id":"ce4bgip2rcd13ifvqbb0","pricing_plan_id":"cebpf4jnsgd1na2vs0mg"},{"bike_id":"50753838-bb78-4e1f-b87a-7f5f5098d56d","system_id":"levelo_inurba_marseille","lat":43.29268,"lon":5.38421,"is_reserved":false,"is_disabled":true,"rental_uris":{"android":"levelo://app?vid=50753838-bb78-4e1f-b87a-7f5f5098d56d","ios":"levelo://app?vid=50753838-bb78-4e1f-b87a-7f5f5098d56d"},"vehicle_type_id":"4","last_reported":1745007068,"current_range_meters":6000,"station_id":"ce4bh692rcd13ifvqea0","pricing_plan_id":"cebpf4jnsgd1na2vs0mg"},{"bike_id":"fdd74033-c2ba-4a3a-934f-0e19dff7aa49","system_id":"levelo_inurba_marseille","lat":43.30538,"lon":5.36527,"is_reserved":false,"is_disabled":false,"rental_uris":{"android":"levelo://app?vid=fdd74033-c2ba-4a3a-934f-0e19dff7aa49","ios":"levelo://app?vid=fdd74033-c2ba-4a3a-934f-0e19dff7aa49"},"vehicle_type_id":"4","last_reported":1745007068,"current_range_meters":6000,"station_id":"ce4bgs12rcd13ifvqcag","pricing_plan_id":"cebpf4jnsgd1na2vs0mg"},{"bike_id":"ac69262a-2f55-4aad-a57c-d0db252097ac","system_id":"levelo_inurba_marseille","lat":43.3107,"lon":5.38362,"is_reserved":false,"is_disabled":false,"rental_uris":{"android":"levelo://app?vid=ac69262a-2f55-4aad-a57c-d0db252097ac","ios":"levelo://app?vid=ac69262a-2f55-4aad-a57c-d0db252097ac"},"vehicle_type_id":"4","last_reported":1745007068,"current_range_meters":6000,"station_id":"ce4bgv92rcd13ifvqcr0","pricing_plan_id":"cebpf4jnsgd1na2vs0mg"},{"bike_id":"9fd3415b-62ce-45bf-ae34-04ceaf451dc5","system_id":"levelo_inurba_marseille","lat":43.29594,"lon":5.38103,"is_reserved":false,"is_disabled":false,"rental_uris":{"android":"levelo://app?vid=9fd3415b-62ce-45bf-ae34-04ceaf451dc5","ios":"levelo://app?vid=9fd3415b-62ce-45bf-ae34-04ceaf451dc5"},"vehicle_type_id":"4","last_reported":1745007068,"current_range_meters":6000,"station_id":"ce4bgl12rcd13ifvqbo0","pricing_plan_id":"cebpf4jnsgd1na2vs0mg"},{"bike_id":"e05a84d2-de86-4bb0-bca3-76dc6f508bf2","system_id":"levelo_inurba_marseille","lat":43.30129,"lon":5.38786,"is_reserved":false,"is_disabled":false,"rental_uris":{"android":"levelo://app?vid=e05a84d2-de86-4bb0-bca3-76dc6f508bf2","ios":"levelo://app?vid=e05a84d2-de86-4bb0-bca3-76dc6f508bf2"},"vehicle_type_id":"4","last_reported":1745007068,"current_range_meters":6000,"station_id":"ce4bghh2rcd13ifvqb60","pricing_plan_id":"cebpf4jnsgd1na2vs0mg"},{"bike_id":"5fbf6376-e2e2-4283-b0c1-858d9b2b1f85","system_id":"levelo_inurba_marseille","lat":43.296092,"lon":5.381236,"is_reserved":false,"is_disabled":false,"rental_uris":{"android":"levelo://app?vid=5fbf6376-e2e2-4283-b0c1-858d9b2b1f85","ios":"levelo://app?vid=5fbf6376-e2e2-4283-b0c1-858d9b2b1f85"},"vehicle_type_id":"4","last_reported":1745007068,"current_range_meters":6400,"station_id":"ce4bgl12rcd13ifvqbo0","pricing_plan_id":"cebpf4jnsgd1na2vs0mg"},{"bike_id":"a6c38e49-4c9c-4757-aafc-7450a606b9cc","system_id":"levelo_inurba_marseille","lat":43.2657,"lon":5.39014,"is_reserved":false,"is_disabled":false,"rental_uris":{"android":"levelo://app?vid=a6c38e49-4c9c-4757-aafc-7450a606b9cc","ios":"levelo://app?vid=a6c38e49-4c9c-4757-aafc-7450a606b9cc"},"vehicle_type_id":"4","last_reported":1745007068,"current_range_meters":6400,"station_id":"ce4bhe12rcd13ifvqf30","pricing_plan_id":"cebpf4jnsgd1na2vs0mg"},{"bike_id":"a5247bbb-c264-4162-84a6-aefb68749355","system_id":"levelo_inurba_marseille","lat":43.24805,"lon":5.37458,"is_reserved":false,"is_disabled":false,"rental_uris":{"android":"levelo://app?vid=a5247bbb-c264-4162-84a6-aefb68749355","ios":"levelo://app?vid=a5247bbb-c264-4162-84a6-aefb68749355"},"vehicle_type_id":"4","last_reported":1745007068,"current_range_meters":6400,"station_id":"ce4bhgh2rcd13ifvqfb0","pricing_plan_id":"cebpf4jnsgd1na2vs0mg"},{"bike_id":"b347b4dd-1254-4cb4-8f76-700e512b769f","system_id":"levelo_inurba_marseille","lat":43.30602,"lon":5.37241,"is_reserved":false,"is_disabled":false,"rental_uris":{"android":"levelo://app?vid=b347b4dd-1254-4cb4-8f76-700e512b769f","ios":"levelo://app?vid=b347b4dd-1254-4cb4-8f76-700e512b769f"},"vehicle_type_id":"4","last_reported":1745007068,"current_range_meters":6400,"station_id":"ce4bgqh2rcd13ifvqc4g","pricing_plan_id":"cebpf4jnsgd1na2vs0mg"},{"bike_id":"7488c7bb-6329-421c-9c66-efe6e92f1cd8","system_id":"levelo_inurba_marseille","lat":43.28654,"lon":5.38661,"is_reserved":false,"is_disabled":false,"rental_uris":{"android":"levelo://app?vid=7488c7bb-6329-421c-9c66-efe6e92f1cd8","ios":"levelo://app?vid=7488c7bb-6329-421c-9c66-efe6e92f1cd8"},"vehicle_type_id":"4","last_reported":1745007068,"current_range_meters":6400,"station_id":"ce4bh492rcd13ifvqdug","pricing_plan_id":"cebpf4jnsgd1na2vs0mg"},{"bike_id":"75410b06-f40d-4b7b-b49c-b58373d5adc7","system_id":"levelo_inurba_marseille","lat":43.28944,"lon":5.36613,"is_reserved":false,"is_disabled":false,"rental_uris":{"android":"levelo://app?vid=75410b06-f40d-4b7b-b49c-b58373d5adc7","ios":"levelo://app?vid=75410b06-f40d-4b7b-b49c-b58373d5adc7"},"vehicle_type_id":"4","last_reported":1745007068,"current_range_meters":6400,"station_id":"ce4bhap2rcd13ifvqek0","pricing_plan_id":"cebpf4jnsgd1na2vs0mg"},{"bike_id":"7b2b2cef-c022-4d24-b49c-8c1952b4364c","system_id":"levelo_inurba_marseille","lat":43.23197,"lon":5.35555,"is_reserved":false,"is_disabled":false,"rental_uris":{"android":"levelo://app?vid=7b2b2cef-c022-4d24-b49c-8c1952b4364c","ios":"levelo://app?vid=7b2b2cef-c022-4d24-b49c-8c1952b4364c"},"vehicle_type_id":"4","last_reported":1745007068,"current_range_meters":6400,"station_id":"ce4bhu92rcd13ifvqi70","pricing_plan_id":"cebpf4jnsgd1na2vs0mg"},{"bike_id":"b2d629f5-6713-4a69-a650-5cf758307764","system_id":"levelo_inurba_marseille","lat":43.31072,"lon":5.38355,"is_reserved":false,"is_disabled":false,"rental_uris":{"android":"levelo://app?vid=b2d629f5-6713-4a69-a650-5cf758307764","ios":"levelo://app?vid=b2d629f5-6713-4a69-a650-5cf758307764"},"vehicle_type_id":"4","last_reported":1745007068,"current_range_meters":6400,"station_id":"ce4bgv92rcd13ifvqcr0","pricing_plan_id":"cebpf4jnsgd1na2vs0mg"},{"bike_id":"6563c5c2-3d06-4701-b393-63bb69f5fe55","system_id":"levelo_inurba_marseille","lat":43.2867,"lon":5.38656,"is_reserved":false,"is_disabled":false,"rental_uris":{"android":"levelo://app?vid=6563c5c2-3d06-4701-b393-63bb69f5fe55","ios":"levelo://app?vid=6563c5c2-3d06-4701-b393-63bb69f5fe55"},"vehicle_type_id":"4","last_reported":1745007068,"current_range_meters":6800,"station_id":"ce4bh492rcd13ifvqdug","pricing_plan_id":"cebpf4jnsgd1na2vs0mg"},{"bike_id":"81a0eb99-909e-41aa-8279-94fd6b9e1838","system_id":"levelo_inurba_marseille","lat":43.29968,"lon":5.37172,"is_reserved":false,"is_disabled":false,"rental_uris":{"android":"levelo://app?vid=81a0eb99-909e-41aa-8279-94fd6b9e1838","ios":"levelo://app?vid=81a0eb99-909e-41aa-8279-94fd6b9e1838"},"vehicle_type_id":"4","last_reported":1745007068,"current_range_meters":6800,"station_id":"ce4bgr92rcd13ifvqc7g","pricing_plan_id":"cebpf4jnsgd1na2vs0mg"},{"bike_id":"6f514754-0a3a-4bf5-90fa-cfd190577e46","system_id":"levelo_inurba_marseille","lat":43.27611,"lon":5.36117,"is_reserved":false,"is_disabled":false,"rental_uris":{"android":"levelo://app?vid=6f514754-0a3a-4bf5-90fa-cfd190577e46","ios":"levelo://app?vid=6f514754-0a3a-4bf5-90fa-cfd190577e46"},"vehicle_type_id":"4","last_reported":1745007068,"current_range_meters":6800,"station_id":"ce4bgj92rcd13ifvqbe0","pricing_plan_id":"cebpf4jnsgd1na2vs0mg"},{"bike_id":"9261d6d0-f018-4de8-abfe-64c6727086ce","system_id":"levelo_inurba_marseille","lat":43.25119,"lon":5.40353,"is_reserved":false,"is_disabled":false,"rental_uris":{"android":"levelo://app?vid=9261d6d0-f018-4de8-abfe-64c6727086ce","ios":"levelo://app?vid=9261d6d0-f018-4de8-abfe-64c6727086ce"},"vehicle_type_id":"4","last_reported":1745007068,"current_range_meters":6800,"station_id":"ce4bhlh2rcd13ifvqgig","pricing_plan_id":"cebpf4jnsgd1na2vs0mg"},{"bike_id":"a9eb962f-7d8b-4c1e-8c65-8047073e3592","system_id":"levelo_inurba_marseille","lat":43.24184,"lon":5.36387,"is_reserved":false,"is_disabled":false,"rental_uris":{"android":"levelo://app?vid=a9eb962f-7d8b-4c1e-8c65-8047073e3592","ios":"levelo://app?vid=a9eb962f-7d8b-4c1e-8c65-8047073e3592"},"vehicle_type_id":"4","last_reported":1745007068,"current_range_meters":6800,"station_id":"cpo36qri1sfpv3e86is0","pricing_plan_id":"cebpf4jnsgd1na2vs0mg"},{"bike_id":"fafbc126-9ff2-4d92-b0d8-a131448d3834","system_id":"levelo_inurba_marseille","lat":43.3236,"lon":5.3889,"is_reserved":false,"is_disabled":false,"rental_uris":{"android":"levelo://app?vid=fafbc126-9ff2-4d92-b0d8-a131448d3834","ios":"levelo://app?vid=fafbc126-9ff2-4d92-b0d8-a131448d3834"},"vehicle_type_id":"4","last_reported":1745007068,"current_range_meters":6800,"station_id":"ce4bhqp2rcd13ifvqhog","pricing_plan_id":"cebpf4jnsgd1na2vs0mg"},{"bike_id":"1c337317-c5e8-49ef-8044-37b9d669d506","system_id":"levelo_inurba_marseille","lat":43.294134,"lon":5.386267,"is_reserved":false,"is_disabled":false,"rental_uris":{"android":"levelo://app?vid=1c337317-c5e8-49ef-8044-37b9d669d506","ios":"levelo://app?vid=1c337317-c5e8-49ef-8044-37b9d669d506"},"vehicle_type_id":"4","last_reported":1745007068,"current_range_meters":6800,"station_id":"ce4bh2h2rcd13ifvqdh0","pricing_plan_id":"cebpf4jnsgd1na2vs0mg"},{"bike_id":"abc780b5-67a9-43ab-8ddf-8dce752b0df8","system_id":"levelo_inurba_marseille","lat":43.296,"lon":5.38104,"is_reserved":false,"is_disabled":false,"rental_uris":{"android":"levelo://app?vid=abc780b5-67a9-43ab-8ddf-8dce752b0df8","ios":"levelo://app?vid=abc780b5-67a9-43ab-8ddf-8dce752b0df8"},"vehicle_type_id":"4","last_reported":1745007068,"current_range_meters":6800,"station_id":"ce4bgl12rcd13ifvqbo0","pricing_plan_id":"cebpf4jnsgd1na2vs0mg"},{"bike_id":"06a3d917-bf24-4f80-8e41-5e4f9d74f51b","system_id":"levelo_inurba_marseille","lat":43.29521,"lon":5.38546,"is_reserved":false,"is_disabled":false,"rental_uris":{"android":"levelo://app?vid=06a3d917-bf24-4f80-8e41-5e4f9d74f51b","ios":"levelo://app?vid=06a3d917-bf24-4f80-8e41-5e4f9d74f51b"},"vehicle_type_id":"4","last_reported":1745007068,"current_range_meters":7200,"station_id":"ce4bgih2rcd13ifvqba0","pricing_plan_id":"cebpf4jnsgd1na2vs0mg"},{"bike_id":"42f41982-3faf-441a-8494-c7e022e6f803","system_id":"levelo_inurba_marseille","lat":43.24405,"lon":5.37056,"is_reserved":false,"is_disabled":false,"rental_uris":{"android":"levelo://app?vid=42f41982-3faf-441a-8494-c7e022e6f803","ios":"levelo://app?vid=42f41982-3faf-441a-8494-c7e022e6f803"},"vehicle_type_id":"4","last_reported":1745007068,"current_range_meters":7200,"station_id":"ce4bhhh2rcd13ifvqfk0","pricing_plan_id":"cebpf4jnsgd1na2vs0mg"},{"bike_id":"ab079c4b-5811-43df-8338-85dffefc67d0","system_id":"levelo_inurba_marseille","lat":43.30093,"lon":5.39075,"is_reserved":false,"is_disabled":false,"rental_uris":{"android":"levelo://app?vid=ab079c4b-5811-43df-8338-85dffefc67d0","ios":"levelo://app?vid=ab079c4b-5811-43df-8338-85dffefc67d0"},"vehicle_type_id":"4","last_reported":1745007068,"current_range_meters":7200,"station_id":"ce4bh192rcd13ifvqdb0","pricing_plan_id":"cebpf4jnsgd1na2vs0mg"},{"bike_id":"1b842487-0bb1-4758-8a8e-3c0b73c39488","system_id":"levelo_inurba_marseille","lat":43.294,"lon":5.38646,"is_reserved":false,"is_disabled":false,"rental_uris":{"android":"levelo://app?vid=1b842487-0bb1-4758-8a8e-3c0b73c39488","ios":"levelo://app?vid=1b842487-0bb1-4758-8a8e-3c0b73c39488"},"vehicle_type_id":"4","last_reported":1745007068,"current_range_meters":7200,"station_id":"ce4bh2h2rcd13ifvqdh0","pricing_plan_id":"cebpf4jnsgd1na2vs0mg"},{"bike_id":"f595148f-64dc-4151-8271-d77fc20fa894","system_id":"levelo_inurba_marseille","lat":43.29886,"lon":5.38906,"is_reserved":false,"is_disabled":false,"rental_uris":{"android":"levelo://app?vid=f595148f-64dc-4151-8271-d77fc20fa894","ios":"levelo://app?vid=f595148f-64dc-4151-8271-d77fc20fa894"},"vehicle_type_id":"4","last_reported":1745007068,"current_range_meters":7200,"station_id":"ce4bh392rcd13ifvqdl0","pricing_plan_id":"cebpf4jnsgd1na2vs0mg"},{"bike_id":"12e61b61-a165-4320-af5e-d9d6c29090fc","system_id":"levelo_inurba_marseille","lat":43.22932,"lon":5.3538,"is_reserved":false,"is_disabled":false,"rental_uris":{"android":"levelo://app?vid=12e61b61-a165-4320-af5e-d9d6c29090fc","ios":"levelo://app?vid=12e61b61-a165-4320-af5e-d9d6c29090fc"},"vehicle_type_id":"4","last_reported":1745007068,"current_range_meters":7200,"station_id":"cpo3532slgdg3j2ikp40","pricing_plan_id":"cebpf4jnsgd1na2vs0mg"},{"bike_id":"5583a1cb-ef8e-4930-b38d-8d47fac1b289","system_id":"levelo_inurba_marseille","lat":43.27818,"lon":5.40718,"is_reserved":false,"is_disabled":true,"rental_uris":{"android":"levelo://app?vid=5583a1cb-ef8e-4930-b38d-8d47fac1b289","ios":"levelo://app?vid=5583a1cb-ef8e-4930-b38d-8d47fac1b289"},"vehicle_type_id":"4","last_reported":1745007068,"current_range_meters":7200,"station_id":"ce4bhnh2rcd13ifvqgtg","pricing_plan_id":"cebpf4jnsgd1na2vs0mg"},{"bike_id":"9416f458-ef32-4593-b496-5da308ec7a0f","system_id":"levelo_inurba_marseille","lat":43.30596,"lon":5.37216,"is_reserved":false,"is_disabled":false,"rental_uris":{"android":"levelo://app?vid=9416f458-ef32-4593-b496-5da308ec7a0f","ios":"levelo://app?vid=9416f458-ef32-4593-b496-5da308ec7a0f"},"vehicle_type_id":"4","last_reported":1745007068,"current_range_meters":8000,"station_id":"ce4bgqh2rcd13ifvqc4g","pricing_plan_id":"cebpf4jnsgd1na2vs0mg"},{"bike_id":"c415b972-8ead-4e78-8d80-7a091746c0aa","system_id":"levelo_inurba_marseille","lat":43.24404,"lon":5.37055,"is_reserved":false,"is_disabled":false,"rental_uris":{"android":"levelo://app?vid=c415b972-8ead-4e78-8d80-7a091746c0aa","ios":"levelo://app?vid=c415b972-8ead-4e78-8d80-7a091746c0aa"},"vehicle_type_id":"4","last_reported":1745007068,"current_range_meters":8000,"station_id":"ce4bhhh2rcd13ifvqfk0","pricing_plan_id":"cebpf4jnsgd1na2vs0mg"},{"bike_id":"0af77c92-149b-43d9-9513-08be3c078200","system_id":"levelo_inurba_marseille","lat":43.29431,"lon":5.3861,"is_reserved":false,"is_disabled":false,"rental_uris":{"android":"levelo://app?vid=0af77c92-149b-43d9-9513-08be3c078200","ios":"levelo://app?vid=0af77c92-149b-43d9-9513-08be3c078200"},"vehicle_type_id":"4","last_reported":1745007068,"current_range_meters":8000,"station_id":"ce4bh2h2rcd13ifvqdh0","pricing_plan_id":"cebpf4jnsgd1na2vs0mg"},{"bike_id":"78c61dc2-93e0-4d9f-9dc2-b672cba306ce","system_id":"levelo_inurba_marseille","lat":43.29427,"lon":5.38617,"is_reserved":false,"is_disabled":false,"rental_uris":{"android":"levelo://app?vid=78c61dc2-93e0-4d9f-9dc2-b672cba306ce","ios":"levelo://app?vid=78c61dc2-93e0-4d9f-9dc2-b672cba306ce"},"vehicle_type_id":"4","last_reported":1745007068,"current_range_meters":8000,"station_id":"ce4bh2h2rcd13ifvqdh0","pricing_plan_id":"cebpf4jnsgd1na2vs0mg"},{"bike_id":"2774cd11-b448-48c9-b8bb-a258897de624","system_id":"levelo_inurba_marseille","lat":43.29431,"lon":5.38615,"is_reserved":false,"is_disabled":false,"rental_uris":{"android":"levelo://app?vid=2774cd11-b448-48c9-b8bb-a258897de624","ios":"levelo://app?vid=2774cd11-b448-48c9-b8bb-a258897de624"},"vehicle_type_id":"4","last_reported":1745007068,"current_range_meters":8000,"station_id":"ce4bh2h2rcd13ifvqdh0","pricing_plan_id":"cebpf4jnsgd1na2vs0mg"},{"bike_id":"2adc63fd-f304-44b8-8143-5a0fa8b3bb60","system_id":"levelo_inurba_marseille","lat":43.294159,"lon":5.386222,"is_reserved":false,"is_disabled":false,"rental_uris":{"android":"levelo://app?vid=2adc63fd-f304-44b8-8143-5a0fa8b3bb60","ios":"levelo://app?vid=2adc63fd-f304-44b8-8143-5a0fa8b3bb60"},"vehicle_type_id":"4","last_reported":1745007068,"current_range_meters":8000,"station_id":"","pricing_plan_id":"cebpf4jnsgd1na2vs0mg"},{"bike_id":"228b64c9-e1c3-4d05-9868-93902dd0f9dc","system_id":"levelo_inurba_marseille","lat":43.29597,"lon":5.38108,"is_reserved":false,"is_disabled":false,"rental_uris":{"android":"levelo://app?vid=228b64c9-e1c3-4d05-9868-93902dd0f9dc","ios":"levelo://app?vid=228b64c9-e1c3-4d05-9868-93902dd0f9dc"},"vehicle_type_id":"4","last_reported":1745007068,"current_range_meters":8000,"station_id":"ce4bgl12rcd13ifvqbo0","pricing_plan_id":"cebpf4jnsgd1na2vs0mg"},{"bike_id":"3287305e-dc20-444a-9949-00d7352f401a","system_id":"levelo_inurba_marseille","lat":43.24178,"lon":5.36391,"is_reserved":false,"is_disabled":false,"rental_uris":{"android":"levelo://app?vid=3287305e-dc20-444a-9949-00d7352f401a","ios":"levelo://app?vid=3287305e-dc20-444a-9949-00d7352f401a"},"vehicle_type_id":"4","last_reported":1745007068,"current_range_meters":8000,"station_id":"cpo36qri1sfpv3e86is0","pricing_plan_id":"cebpf4jnsgd1na2vs0mg"},{"bike_id":"d2dde653-8149-4424-97ad-d12f3549d176","system_id":"levelo_inurba_marseille","lat":43.30526,"lon":5.36727,"is_reserved":false,"is_disabled":false,"rental_uris":{"android":"levelo://app?vid=d2dde653-8149-4424-97ad-d12f3549d176","ios":"levelo://app?vid=d2dde653-8149-4424-97ad-d12f3549d176"},"vehicle_type_id":"4","last_reported":1745007068,"current_range_meters":8000,"station_id":"ce4bgrp2rcd13ifvqc9g","pricing_plan_id":"cebpf4jnsgd1na2vs0mg"},{"bike_id":"2ee45dc8-6632-4c7d-854d-7faf30a7c206","system_id":"levelo_inurba_marseille","lat":43.29214,"lon":5.38455,"is_reserved":false,"is_disabled":false,"rental_uris":{"android":"levelo://app?vid=2ee45dc8-6632-4c7d-854d-7faf30a7c206","ios":"levelo://app?vid=2ee45dc8-6632-4c7d-854d-7faf30a7c206"},"vehicle_type_id":"4","last_reported":1745007068,"current_range_meters":8000,"station_id":"ce4bh692rcd13ifvqea0","pricing_plan_id":"cebpf4jnsgd1na2vs0mg"},{"bike_id":"0bb46e80-7c02-42ae-8ca3-ed108eda5529","system_id":"levelo_inurba_marseille","lat":43.29424,"lon":5.38626,"is_reserved":false,"is_disabled":false,"rental_uris":{"android":"levelo://app?vid=0bb46e80-7c02-42ae-8ca3-ed108eda5529","ios":"levelo://app?vid=0bb46e80-7c02-42ae-8ca3-ed108eda5529"},"vehicle_type_id":"4","last_reported":1745007068,"current_range_meters":8000,"station_id":"ce4bh2h2rcd13ifvqdh0","pricing_plan_id":"cebpf4jnsgd1na2vs0mg"},{"bike_id":"a65bff60-15d9-45ea-adbf-6c4c44601a01","system_id":"levelo_inurba_marseille","lat":43.29426,"lon":5.38623,"is_reserved":false,"is_disabled":false,"rental_uris":{"android":"levelo://app?vid=a65bff60-15d9-45ea-adbf-6c4c44601a01","ios":"levelo://app?vid=a65bff60-15d9-45ea-adbf-6c4c44601a01"},"vehicle_type_id":"4","last_reported":1745007068,"current_range_meters":8000,"station_id":"ce4bh2h2rcd13ifvqdh0","pricing_plan_id":"cebpf4jnsgd1na2vs0mg"},{"bike_id":"7d16229d-7a03-4b78-9de6-ce0352620c48","system_id":"levelo_inurba_marseille","lat":43.294199,"lon":5.386112,"is_reserved":false,"is_disabled":false,"rental_uris":{"android":"levelo://app?vid=7d16229d-7a03-4b78-9de6-ce0352620c48","ios":"levelo://app?vid=7d16229d-7a03-4b78-9de6-ce0352620c48"},"vehicle_type_id":"4","last_reported":1745007068,"current_range_meters":8000,"station_id":"ce4bh2h2rcd13ifvqdh0","pricing_plan_id":"cebpf4jnsgd1na2vs0mg"},{"bike_id":"c2d0de24-419d-4213-b201-1ce65fa1d791","system_id":"levelo_inurba_marseille","lat":43.29263,"lon":5.38433,"is_reserved":false,"is_disabled":false,"rental_uris":{"android":"levelo://app?vid=c2d0de24-419d-4213-b201-1ce65fa1d791","ios":"levelo://app?vid=c2d0de24-419d-4213-b201-1ce65fa1d791"},"vehicle_type_id":"4","last_reported":1745007068,"current_range_meters":8400,"station_id":"ce4bh692rcd13ifvqea0","pricing_plan_id":"cebpf4jnsgd1na2vs0mg"},{"bike_id":"36028acb-1986-4460-84fe-b2aca491647c","system_id":"levelo_inurba_marseille","lat":43.26787,"lon":5.39416,"is_reserved":false,"is_disabled":true,"rental_uris":{"android":"levelo://app?vid=36028acb-1986-4460-84fe-b2aca491647c","ios":"levelo://app?vid=36028acb-1986-4460-84fe-b2aca491647c"},"vehicle_type_id":"4","last_reported":1745007068,"current_range_meters":8400,"station_id":"ce4bhh12rcd13ifvqfg0","pricing_plan_id":"cebpf4jnsgd1na2vs0mg"},{"bike_id":"e63a514e-275c-49a7-822a-270e45aadd76","system_id":"levelo_inurba_marseille","lat":43.29521,"lon":5.38551,"is_reserved":false,"is_disabled":false,"rental_uris":{"android":"levelo://app?vid=e63a514e-275c-49a7-822a-270e45aadd76","ios":"levelo://app?vid=e63a514e-275c-49a7-822a-270e45aadd76"},"vehicle_type_id":"4","last_reported":1745007068,"current_range_meters":8400,"station_id":"ce4bgih2rcd13ifvqba0","pricing_plan_id":"cebpf4jnsgd1na2vs0mg"},{"bike_id":"9b29d7c1-fe06-4fe4-910e-79bca8b0b91f","system_id":"levelo_inurba_marseille","lat":43.29031,"lon":5.38652,"is_reserved":false,"is_disabled":false,"rental_uris":{"android":"levelo://app?vid=9b29d7c1-fe06-4fe4-910e-79bca8b0b91f","ios":"levelo://app?vid=9b29d7c1-fe06-4fe4-910e-79bca8b0b91f"},"vehicle_type_id":"4","last_reported":1745007068,"current_range_meters":8400,"station_id":"ce4bh4p2rcd13ifvqe0g","pricing_plan_id":"cebpf4jnsgd1na2vs0mg"},{"bike_id":"22209dda-afa5-4a31-9c25-a5d94a331926","system_id":"levelo_inurba_marseille","lat":43.24086,"lon":5.37747,"is_reserved":false,"is_disabled":true,"rental_uris":{"android":"levelo://app?vid=22209dda-afa5-4a31-9c25-a5d94a331926","ios":"levelo://app?vid=22209dda-afa5-4a31-9c25-a5d94a331926"},"vehicle_type_id":"4","last_reported":1745007068,"current_range_meters":8400,"station_id":"ce4bhnp2rcd13ifvqgvg","pricing_plan_id":"cebpf4jnsgd1na2vs0mg"},{"bike_id":"fc47be8a-a798-4edf-8ece-33cf12f4764a","system_id":"levelo_inurba_marseille","lat":43.29263,"lon":5.3845,"is_reserved":false,"is_disabled":false,"rental_uris":{"android":"levelo://app?vid=fc47be8a-a798-4edf-8ece-33cf12f4764a","ios":"levelo://app?vid=fc47be8a-a798-4edf-8ece-33cf12f4764a"},"vehicle_type_id":"4","last_reported":1745007068,"current_range_meters":8400,"station_id":"ce4bh692rcd13ifvqea0","pricing_plan_id":"cebpf4jnsgd1na2vs0mg"},{"bike_id":"70b6b133-6705-4dfd-b4a7-6e88067904e8","system_id":"levelo_inurba_marseille","lat":43.24175,"lon":5.36402,"is_reserved":false,"is_disabled":false,"rental_uris":{"android":"levelo://app?vid=70b6b133-6705-4dfd-b4a7-6e88067904e8","ios":"levelo://app?vid=70b6b133-6705-4dfd-b4a7-6e88067904e8"},"vehicle_type_id":"4","last_reported":1745007068,"current_range_meters":8400,"station_id":"cpo36qri1sfpv3e86is0","pricing_plan_id":"cebpf4jnsgd1na2vs0mg"},{"bike_id":"61cae8bc-19bf-4855-a2cd-e8c27ed277ba","system_id":"levelo_inurba_marseille","lat":43.29418,"lon":5.38645,"is_reserved":false,"is_disabled":false,"rental_uris":{"android":"levelo://app?vid=61cae8bc-19bf-4855-a2cd-e8c27ed277ba","ios":"levelo://app?vid=61cae8bc-19bf-4855-a2cd-e8c27ed277ba"},"vehicle_type_id":"4","last_reported":1745007068,"current_range_meters":8400,"station_id":"ce4bh2h2rcd13ifvqdh0","pricing_plan_id":"cebpf4jnsgd1na2vs0mg"},{"bike_id":"b603a7b9-29f6-4ca5-b728-a653169ecd8c","system_id":"levelo_inurba_marseille","lat":43.27817,"lon":5.40715,"is_reserved":false,"is_disabled":false,"rental_uris":{"android":"levelo://app?vid=b603a7b9-29f6-4ca5-b728-a653169ecd8c","ios":"levelo://app?vid=b603a7b9-29f6-4ca5-b728-a653169ecd8c"},"vehicle_type_id":"4","last_reported":1745007068,"current_range_meters":8400,"station_id":"ce4bhnh2rcd13ifvqgtg","pricing_plan_id":"cebpf4jnsgd1na2vs0mg"},{"bike_id":"271c8c79-7ca6-4367-80fb-8a0efc84181c","system_id":"levelo_inurba_marseille","lat":43.23192,"lon":5.35576,"is_reserved":false,"is_disabled":false,"rental_uris":{"android":"levelo://app?vid=271c8c79-7ca6-4367-80fb-8a0efc84181c","ios":"levelo://app?vid=271c8c79-7ca6-4367-80fb-8a0efc84181c"},"vehicle_type_id":"4","last_reported":1745007068,"current_range_meters":8400,"station_id":"ce4bhu92rcd13ifvqi70","pricing_plan_id":"cebpf4jnsgd1na2vs0mg"},{"bike_id":"cb2f1f75-375f-40b0-b3cd-b322bda26812","system_id":"levelo_inurba_marseille","lat":43.30329,"lon":5.40441,"is_reserved":false,"is_disabled":false,"rental_uris":{"android":"levelo://app?vid=cb2f1f75-375f-40b0-b3cd-b322bda26812","ios":"levelo://app?vid=cb2f1f75-375f-40b0-b3cd-b322bda26812"},"vehicle_type_id":"4","last_reported":1745007068,"current_range_meters":8800,"station_id":"ce4bh012rcd13ifvqd10","pricing_plan_id":"cebpf4jnsgd1na2vs0mg"},{"bike_id":"d0693017-3219-4f2c-9252-be27486404d3","system_id":"levelo_inurba_marseille","lat":43.2467,"lon":5.38148,"is_reserved":false,"is_disabled":false,"rental_uris":{"android":"levelo://app?vid=d0693017-3219-4f2c-9252-be27486404d3","ios":"levelo://app?vid=d0693017-3219-4f2c-9252-be27486404d3"},"vehicle_type_id":"4","last_reported":1745007068,"current_range_meters":8800,"station_id":"ce4bhih2rcd13ifvqfr0","pricing_plan_id":"cebpf4jnsgd1na2vs0mg"},{"bike_id":"cf4db056-d3f7-4001-aa54-c43d57090a49","system_id":"levelo_inurba_marseille","lat":43.23185,"lon":5.3556,"is_reserved":false,"is_disabled":false,"rental_uris":{"android":"levelo://app?vid=cf4db056-d3f7-4001-aa54-c43d57090a49","ios":"levelo://app?vid=cf4db056-d3f7-4001-aa54-c43d57090a49"},"vehicle_type_id":"4","last_reported":1745007068,"current_range_meters":8800,"station_id":"ce4bhu92rcd13ifvqi70","pricing_plan_id":"cebpf4jnsgd1na2vs0mg"},{"bike_id":"df224932-a439-4999-94a0-8c9221a4961b","system_id":"levelo_inurba_marseille","lat":43.2993,"lon":5.36555,"is_reserved":false,"is_disabled":false,"rental_uris":{"android":"levelo://app?vid=df224932-a439-4999-94a0-8c9221a4961b","ios":"levelo://app?vid=df224932-a439-4999-94a0-8c9221a4961b"},"vehicle_type_id":"4","last_reported":1745007068,"current_range_meters":8800,"station_id":"ce4bgm92rcd13ifvqbr0","pricing_plan_id":"cebpf4jnsgd1na2vs0mg"},{"bike_id":"2c4b2067-81c1-4522-a06a-550561ab2a58","system_id":"levelo_inurba_marseille","lat":43.26509,"lon":5.39527,"is_reserved":false,"is_disabled":false,"rental_uris":{"android":"levelo://app?vid=2c4b2067-81c1-4522-a06a-550561ab2a58","ios":"levelo://app?vid=2c4b2067-81c1-4522-a06a-550561ab2a58"},"vehicle_type_id":"4","last_reported":1745007068,"current_range_meters":8800,"station_id":"ce4bhi12rcd13ifvqfq0","pricing_plan_id":"cebpf4jnsgd1na2vs0mg"},{"bike_id":"4621f686-7ac6-4092-8323-61072c52d6dd","system_id":"levelo_inurba_marseille","lat":43.2901,"lon":5.38673,"is_reserved":false,"is_disabled":false,"rental_uris":{"android":"levelo://app?vid=4621f686-7ac6-4092-8323-61072c52d6dd","ios":"levelo://app?vid=4621f686-7ac6-4092-8323-61072c52d6dd"},"vehicle_type_id":"4","last_reported":1745007068,"current_range_meters":8800,"station_id":"ce4bh4p2rcd13ifvqe0g","pricing_plan_id":"cebpf4jnsgd1na2vs0mg"},{"bike_id":"38d71541-39fa-44bc-b9fa-dad7cbdc7434","system_id":"levelo_inurba_marseille","lat":43.28748,"lon":5.38646,"is_reserved":false,"is_disabled":false,"rental_uris":{"android":"levelo://app?vid=38d71541-39fa-44bc-b9fa-dad7cbdc7434","ios":"levelo://app?vid=38d71541-39fa-44bc-b9fa-dad7cbdc7434"},"vehicle_type_id":"4","last_reported":1745007068,"current_range_meters":8800,"station_id":"","pricing_plan_id":"cebpf4jnsgd1na2vs0mg"},{"bike_id":"f2d09a49-02ca-41b9-870e-fdff640473d6","system_id":"levelo_inurba_marseille","lat":43.24157,"lon":5.36402,"is_reserved":false,"is_disabled":false,"rental_uris":{"android":"levelo://app?vid=f2d09a49-02ca-41b9-870e-fdff640473d6","ios":"levelo://app?vid=f2d09a49-02ca-41b9-870e-fdff640473d6"},"vehicle_type_id":"4","last_reported":1745007068,"current_range_meters":9200,"station_id":"cpo36qri1sfpv3e86is0","pricing_plan_id":"cebpf4jnsgd1na2vs0mg"},{"bike_id":"9988dcfd-9842-423b-82ea-4e787002a30a","system_id":"levelo_inurba_marseille","lat":43.29594,"lon":5.38106,"is_reserved":false,"is_disabled":false,"rental_uris":{"android":"levelo://app?vid=9988dcfd-9842-423b-82ea-4e787002a30a","ios":"levelo://app?vid=9988dcfd-9842-423b-82ea-4e787002a30a"},"vehicle_type_id":"4","last_reported":1745007068,"current_range_meters":9200,"station_id":"ce4bgl12rcd13ifvqbo0","pricing_plan_id":"cebpf4jnsgd1na2vs0mg"},{"bike_id":"862fe7a2-b3bf-49d2-a3be-31619ee662c1","system_id":"levelo_inurba_marseille","lat":43.28928,"lon":5.38396,"is_reserved":false,"is_disabled":false,"rental_uris":{"android":"levelo://app?vid=862fe7a2-b3bf-49d2-a3be-31619ee662c1","ios":"levelo://app?vid=862fe7a2-b3bf-49d2-a3be-31619ee662c1"},"vehicle_type_id":"4","last_reported":1745007068,"current_range_meters":9200,"station_id":"ce4bh612rcd13ifvqe6g","pricing_plan_id":"cebpf4jnsgd1na2vs0mg"},{"bike_id":"b52c1d55-76b9-44dc-831f-6c49ca05055c","system_id":"levelo_inurba_marseille","lat":43.30122,"lon":5.39879,"is_reserved":false,"is_disabled":false,"rental_uris":{"android":"levelo://app?vid=b52c1d55-76b9-44dc-831f-6c49ca05055c","ios":"levelo://app?vid=b52c1d55-76b9-44dc-831f-6c49ca05055c"},"vehicle_type_id":"4","last_reported":1745007068,"current_range_meters":8800,"station_id":"ce4bh0h2rcd13ifvqd40","pricing_plan_id":"cebpf4jnsgd1na2vs0mg"},{"bike_id":"f9ca6a4d-bd46-472b-9e76-cb0f86073571","system_id":"levelo_inurba_marseille","lat":43.25406,"lon":5.41904,"is_reserved":false,"is_disabled":false,"rental_uris":{"android":"levelo://app?vid=f9ca6a4d-bd46-472b-9e76-cb0f86073571","ios":"levelo://app?vid=f9ca6a4d-bd46-472b-9e76-cb0f86073571"},"vehicle_type_id":"4","last_reported":1745007068,"current_range_meters":9200,"station_id":"","pricing_plan_id":"cebpf4jnsgd1na2vs0mg"},{"bike_id":"92ef9b57-ef0f-4670-96c3-49db45d89c4e","system_id":"levelo_inurba_marseille","lat":43.29425,"lon":5.38611,"is_reserved":false,"is_disabled":false,"rental_uris":{"android":"levelo://app?vid=92ef9b57-ef0f-4670-96c3-49db45d89c4e","ios":"levelo://app?vid=92ef9b57-ef0f-4670-96c3-49db45d89c4e"},"vehicle_type_id":"4","last_reported":1745007068,"current_range_meters":9200,"station_id":"ce4bh2h2rcd13ifvqdh0","pricing_plan_id":"cebpf4jnsgd1na2vs0mg"},{"bike_id":"6e49f3a5-adf3-4bc1-b902-420ef7f7ea92","system_id":"levelo_inurba_marseille","lat":43.301468,"lon":5.380829,"is_reserved":false,"is_disabled":false,"rental_uris":{"android":"levelo://app?vid=6e49f3a5-adf3-4bc1-b902-420ef7f7ea92","ios":"levelo://app?vid=6e49f3a5-adf3-4bc1-b902-420ef7f7ea92"},"vehicle_type_id":"4","last_reported":1745007068,"current_range_meters":9200,"station_id":"ce4bhb92rcd13ifvqen0","pricing_plan_id":"cebpf4jnsgd1na2vs0mg"},{"bike_id":"5548ffe0-cb1a-45d9-bdce-46f85b3c1ba3","system_id":"levelo_inurba_marseille","lat":43.28168,"lon":5.42576,"is_reserved":false,"is_disabled":false,"rental_uris":{"android":"levelo://app?vid=5548ffe0-cb1a-45d9-bdce-46f85b3c1ba3","ios":"levelo://app?vid=5548ffe0-cb1a-45d9-bdce-46f85b3c1ba3"},"vehicle_type_id":"4","last_reported":1745007068,"current_range_meters":9200,"station_id":"ce4bhnh2rcd13ifvqgug","pricing_plan_id":"cebpf4jnsgd1na2vs0mg"},{"bike_id":"0f0c2c9d-c11a-480f-8137-c5315e4ded3a","system_id":"levelo_inurba_marseille","lat":43.2319,"lon":5.35559,"is_reserved":false,"is_disabled":false,"rental_uris":{"android":"levelo://app?vid=0f0c2c9d-c11a-480f-8137-c5315e4ded3a","ios":"levelo://app?vid=0f0c2c9d-c11a-480f-8137-c5315e4ded3a"},"vehicle_type_id":"4","last_reported":1745007068,"current_range_meters":9200,"station_id":"ce4bhu92rcd13ifvqi70","pricing_plan_id":"cebpf4jnsgd1na2vs0mg"},{"bike_id":"7f174117-e5d9-4e09-9d71-4a11ef6882f7","system_id":"levelo_inurba_marseille","lat":43.24664,"lon":5.38141,"is_reserved":false,"is_disabled":false,"rental_uris":{"android":"levelo://app?vid=7f174117-e5d9-4e09-9d71-4a11ef6882f7","ios":"levelo://app?vid=7f174117-e5d9-4e09-9d71-4a11ef6882f7"},"vehicle_type_id":"4","last_reported":1745007068,"current_range_meters":9200,"station_id":"ce4bhih2rcd13ifvqfr0","pricing_plan_id":"cebpf4jnsgd1na2vs0mg"},{"bike_id":"f618927d-ce9c-46c0-903d-66203089bbee","system_id":"levelo_inurba_marseille","lat":43.254974,"lon":5.376497,"is_reserved":false,"is_disabled":false,"rental_uris":{"android":"levelo://app?vid=f618927d-ce9c-46c0-903d-66203089bbee","ios":"levelo://app?vid=f618927d-ce9c-46c0-903d-66203089bbee"},"vehicle_type_id":"4","last_reported":1745007068,"current_range_meters":9200,"station_id":"ce4bhh12rcd13ifvqff0","pricing_plan_id":"cebpf4jnsgd1na2vs0mg"},{"bike_id":"496ae8c2-e96d-40eb-bbc5-0247e90a1b25","system_id":"levelo_inurba_marseille","lat":43.29408,"lon":5.38639,"is_reserved":false,"is_disabled":false,"rental_uris":{"android":"levelo://app?vid=496ae8c2-e96d-40eb-bbc5-0247e90a1b25","ios":"levelo://app?vid=496ae8c2-e96d-40eb-bbc5-0247e90a1b25"},"vehicle_type_id":"4","last_reported":1745007068,"current_range_meters":9200,"station_id":"ce4bh2h2rcd13ifvqdh0","pricing_plan_id":"cebpf4jnsgd1na2vs0mg"},{"bike_id":"18f35c7e-e2f0-4fb5-af01-54d1c0b2323b","system_id":"levelo_inurba_marseille","lat":43.29529,"lon":5.385365,"is_reserved":false,"is_disabled":false,"rental_uris":{"android":"levelo://app?vid=18f35c7e-e2f0-4fb5-af01-54d1c0b2323b","ios":"levelo://app?vid=18f35c7e-e2f0-4fb5-af01-54d1c0b2323b"},"vehicle_type_id":"4","last_reported":1745007068,"current_range_meters":9200,"station_id":"ce4bgih2rcd13ifvqba0","pricing_plan_id":"cebpf4jnsgd1na2vs0mg"},{"bike_id":"50dc23ed-5e19-46ee-92cf-f2ca4c445852","system_id":"levelo_inurba_marseille","lat":43.33729,"lon":5.391829,"is_reserved":false,"is_disabled":false,"rental_uris":{"android":"levelo://app?vid=50dc23ed-5e19-46ee-92cf-f2ca4c445852","ios":"levelo://app?vid=50dc23ed-5e19-46ee-92cf-f2ca4c445852"},"vehicle_type_id":"4","last_reported":1745007068,"current_range_meters":9200,"station_id":"ce4bhr92rcd13ifvqhsg","pricing_plan_id":"cebpf4jnsgd1na2vs0mg"},{"bike_id":"28654726-25ec-4f0a-9a9c-d2417671d9dc","system_id":"levelo_inurba_marseille","lat":43.29412,"lon":5.38638,"is_reserved":false,"is_disabled":false,"rental_uris":{"android":"levelo://app?vid=28654726-25ec-4f0a-9a9c-d2417671d9dc","ios":"levelo://app?vid=28654726-25ec-4f0a-9a9c-d2417671d9dc"},"vehicle_type_id":"4","last_reported":1745007068,"current_range_meters":9600,"station_id":"ce4bh2h2rcd13ifvqdh0","pricing_plan_id":"cebpf4jnsgd1na2vs0mg"},{"bike_id":"dca3c3a3-eb9b-4c38-a5cd-470f0e3d113c","system_id":"levelo_inurba_marseille","lat":43.295253,"lon":5.375056,"is_reserved":false,"is_disabled":false,"rental_uris":{"android":"levelo://app?vid=dca3c3a3-eb9b-4c38-a5cd-470f0e3d113c","ios":"levelo://app?vid=dca3c3a3-eb9b-4c38-a5cd-470f0e3d113c"},"vehicle_type_id":"4","last_reported":1745007068,"current_range_meters":9600,"station_id":"ce4bgkp2rcd13ifvqbmg","pricing_plan_id":"cebpf4jnsgd1na2vs0mg"},{"bike_id":"1210dc72-37b8-49f7-b249-6faa54daba28","system_id":"levelo_inurba_marseille","lat":43.323823,"lon":5.367613,"is_reserved":false,"is_disabled":false,"rental_uris":{"android":"levelo://app?vid=1210dc72-37b8-49f7-b249-6faa54daba28","ios":"levelo://app?vid=1210dc72-37b8-49f7-b249-6faa54daba28"},"vehicle_type_id":"4","last_reported":1745007068,"current_range_meters":9600,"station_id":"ce4bhsh2rcd13ifvqi2g","pricing_plan_id":"cebpf4jnsgd1na2vs0mg"},{"bike_id":"89982c27-1886-4646-a545-9aa0b8796a4e","system_id":"levelo_inurba_marseille","lat":43.30901,"lon":5.36843,"is_reserved":false,"is_disabled":false,"rental_uris":{"android":"levelo://app?vid=89982c27-1886-4646-a545-9aa0b8796a4e","ios":"levelo://app?vid=89982c27-1886-4646-a545-9aa0b8796a4e"},"vehicle_type_id":"4","last_reported":1745007068,"current_range_meters":9200,"station_id":"ce4bgn92rcd13ifvqbvg","pricing_plan_id":"cebpf4jnsgd1na2vs0mg"},{"bike_id":"cb4dc159-25b5-4648-9734-8c2f107781cd","system_id":"levelo_inurba_marseille","lat":43.28666,"lon":5.38684,"is_reserved":false,"is_disabled":false,"rental_uris":{"android":"levelo://app?vid=cb4dc159-25b5-4648-9734-8c2f107781cd","ios":"levelo://app?vid=cb4dc159-25b5-4648-9734-8c2f107781cd"},"vehicle_type_id":"4","last_reported":1745007068,"current_range_meters":9600,"station_id":"ce4bh492rcd13ifvqdug","pricing_plan_id":"cebpf4jnsgd1na2vs0mg"},{"bike_id":"0387d6ed-0201-4465-a83e-d9f20733156b","system_id":"levelo_inurba_marseille","lat":43.28928,"lon":5.3839,"is_reserved":false,"is_disabled":false,"rental_uris":{"android":"levelo://app?vid=0387d6ed-0201-4465-a83e-d9f20733156b","ios":"levelo://app?vid=0387d6ed-0201-4465-a83e-d9f20733156b"},"vehicle_type_id":"4","last_reported":1745007068,"current_range_meters":9600,"station_id":"ce4bh612rcd13ifvqe6g","pricing_plan_id":"cebpf4jnsgd1na2vs0mg"},{"bike_id":"b84c17ee-9585-4db5-a4b0-c4e55529f57c","system_id":"levelo_inurba_marseille","lat":43.2953,"lon":5.38538,"is_reserved":false,"is_disabled":false,"rental_uris":{"android":"levelo://app?vid=b84c17ee-9585-4db5-a4b0-c4e55529f57c","ios":"levelo://app?vid=b84c17ee-9585-4db5-a4b0-c4e55529f57c"},"vehicle_type_id":"4","last_reported":1745007068,"current_range_meters":9600,"station_id":"ce4bgih2rcd13ifvqba0","pricing_plan_id":"cebpf4jnsgd1na2vs0mg"},{"bike_id":"f18fe013-592a-4d45-bf2d-3673ff3d117d","system_id":"levelo_inurba_marseille","lat":43.26563,"lon":5.39011,"is_reserved":false,"is_disabled":false,"rental_uris":{"android":"levelo://app?vid=f18fe013-592a-4d45-bf2d-3673ff3d117d","ios":"levelo://app?vid=f18fe013-592a-4d45-bf2d-3673ff3d117d"},"vehicle_type_id":"4","last_reported":1745007068,"current_range_meters":9600,"station_id":"ce4bhe12rcd13ifvqf30","pricing_plan_id":"cebpf4jnsgd1na2vs0mg"},{"bike_id":"17642069-7989-4aab-a602-6ec6914a863c","system_id":"levelo_inurba_marseille","lat":43.29434,"lon":5.38611,"is_reserved":false,"is_disabled":false,"rental_uris":{"android":"levelo://app?vid=17642069-7989-4aab-a602-6ec6914a863c","ios":"levelo://app?vid=17642069-7989-4aab-a602-6ec6914a863c"},"vehicle_type_id":"4","last_reported":1745007068,"current_range_meters":9600,"station_id":"ce4bh2h2rcd13ifvqdh0","pricing_plan_id":"cebpf4jnsgd1na2vs0mg"},{"bike_id":"703bdfca-d6dd-4177-9b5d-13b15ae9e71e","system_id":"levelo_inurba_marseille","lat":43.28709,"lon":5.37953,"is_reserved":false,"is_disabled":false,"rental_uris":{"android":"levelo://app?vid=703bdfca-d6dd-4177-9b5d-13b15ae9e71e","ios":"levelo://app?vid=703bdfca-d6dd-4177-9b5d-13b15ae9e71e"},"vehicle_type_id":"4","last_reported":1745007068,"current_range_meters":10000,"station_id":"ce4bh9p2rcd13ifvqec0","pricing_plan_id":"cebpf4jnsgd1na2vs0mg"},{"bike_id":"91b0f96d-1a6e-4e28-98b9-2c86f2485aee","system_id":"levelo_inurba_marseille","lat":43.32416,"lon":5.39048,"is_reserved":false,"is_disabled":false,"rental_uris":{"android":"levelo://app?vid=91b0f96d-1a6e-4e28-98b9-2c86f2485aee","ios":"levelo://app?vid=91b0f96d-1a6e-4e28-98b9-2c86f2485aee"},"vehicle_type_id":"4","last_reported":1745007068,"current_range_meters":10000,"station_id":"","pricing_plan_id":"cebpf4jnsgd1na2vs0mg"},{"bike_id":"5942e936-0638-49c0-b5b4-ad5358ca064f","system_id":"levelo_inurba_marseille","lat":43.29269,"lon":5.38434,"is_reserved":false,"is_disabled":false,"rental_uris":{"android":"levelo://app?vid=5942e936-0638-49c0-b5b4-ad5358ca064f","ios":"levelo://app?vid=5942e936-0638-49c0-b5b4-ad5358ca064f"},"vehicle_type_id":"4","last_reported":1745007068,"current_range_meters":10000,"station_id":"ce4bh692rcd13ifvqea0","pricing_plan_id":"cebpf4jnsgd1na2vs0mg"},{"bike_id":"82e4da7d-b91e-4616-b45d-d573b48cabbf","system_id":"levelo_inurba_marseille","lat":43.31882,"lon":5.4074,"is_reserved":false,"is_disabled":false,"rental_uris":{"android":"levelo://app?vid=82e4da7d-b91e-4616-b45d-d573b48cabbf","ios":"levelo://app?vid=82e4da7d-b91e-4616-b45d-d573b48cabbf"},"vehicle_type_id":"4","last_reported":1745007068,"current_range_meters":10000,"station_id":"ce4bhq12rcd13ifvqhig","pricing_plan_id":"cebpf4jnsgd1na2vs0mg"},{"bike_id":"4cd53476-67ac-4128-b155-1bdcceee2e72","system_id":"levelo_inurba_marseille","lat":43.29016,"lon":5.38649,"is_reserved":false,"is_disabled":false,"rental_uris":{"android":"levelo://app?vid=4cd53476-67ac-4128-b155-1bdcceee2e72","ios":"levelo://app?vid=4cd53476-67ac-4128-b155-1bdcceee2e72"},"vehicle_type_id":"4","last_reported":1745007068,"current_range_meters":10000,"station_id":"ce4bh4p2rcd13ifvqe0g","pricing_plan_id":"cebpf4jnsgd1na2vs0mg"},{"bike_id":"db683e79-1939-434e-b081-b9990fd856fe","system_id":"levelo_inurba_marseille","lat":43.22893,"lon":5.35299,"is_reserved":false,"is_disabled":false,"rental_uris":{"android":"levelo://app?vid=db683e79-1939-434e-b081-b9990fd856fe","ios":"levelo://app?vid=db683e79-1939-434e-b081-b9990fd856fe"},"vehicle_type_id":"4","last_reported":1745007068,"current_range_meters":10000,"station_id":"cpo3532slgdg3j2ikp40","pricing_plan_id":"cebpf4jnsgd1na2vs0mg"},{"bike_id":"8cb5ae9a-337d-4af9-b537-0816c19267e7","system_id":"levelo_inurba_marseille","lat":43.28858,"lon":5.39319,"is_reserved":false,"is_disabled":false,"rental_uris":{"android":"levelo://app?vid=8cb5ae9a-337d-4af9-b537-0816c19267e7","ios":"levelo://app?vid=8cb5ae9a-337d-4af9-b537-0816c19267e7"},"vehicle_type_id":"4","last_reported":1745007068,"current_range_meters":10000,"station_id":"ce4bh2p2rcd13ifvqdi0","pricing_plan_id":"cebpf4jnsgd1na2vs0mg"},{"bike_id":"cff69856-04ff-4a2b-8ae9-354d32591735","system_id":"levelo_inurba_marseille","lat":43.29436,"lon":5.38623,"is_reserved":false,"is_disabled":false,"rental_uris":{"android":"levelo://app?vid=cff69856-04ff-4a2b-8ae9-354d32591735","ios":"levelo://app?vid=cff69856-04ff-4a2b-8ae9-354d32591735"},"vehicle_type_id":"4","last_reported":1745007068,"current_range_meters":10000,"station_id":"ce4bh2h2rcd13ifvqdh0","pricing_plan_id":"cebpf4jnsgd1na2vs0mg"},{"bike_id":"9b4d5e07-bf1a-4418-b544-e78b0d83a1c0","system_id":"levelo_inurba_marseille","lat":43.26219,"lon":5.40443,"is_reserved":false,"is_disabled":false,"rental_uris":{"android":"levelo://app?vid=9b4d5e07-bf1a-4418-b544-e78b0d83a1c0","ios":"levelo://app?vid=9b4d5e07-bf1a-4418-b544-e78b0d83a1c0"},"vehicle_type_id":"4","last_reported":1745007068,"current_range_meters":10000,"station_id":"ce4bhmh2rcd13ifvqgmg","pricing_plan_id":"cebpf4jnsgd1na2vs0mg"},{"bike_id":"824db3d0-fbc1-4960-940a-c38721d8e36e","system_id":"levelo_inurba_marseille","lat":43.28992,"lon":5.37835,"is_reserved":false,"is_disabled":false,"rental_uris":{"android":"levelo://app?vid=824db3d0-fbc1-4960-940a-c38721d8e36e","ios":"levelo://app?vid=824db3d0-fbc1-4960-940a-c38721d8e36e"},"vehicle_type_id":"4","last_reported":1745007068,"current_range_meters":10000,"station_id":"ce4bh9p2rcd13ifvqed0","pricing_plan_id":"cebpf4jnsgd1na2vs0mg"},{"bike_id":"5ab4a80e-364b-48b0-a070-906bb9e16755","system_id":"levelo_inurba_marseille","lat":43.31985,"lon":5.3814,"is_reserved":false,"is_disabled":false,"rental_uris":{"android":"levelo://app?vid=5ab4a80e-364b-48b0-a070-906bb9e16755","ios":"levelo://app?vid=5ab4a80e-364b-48b0-a070-906bb9e16755"},"vehicle_type_id":"4","last_reported":1745007068,"current_range_meters":10800,"station_id":"ce4bhr12rcd13ifvqhpg","pricing_plan_id":"cebpf4jnsgd1na2vs0mg"},{"bike_id":"4bcaca61-be58-49cf-89c9-274b98e3c699","system_id":"levelo_inurba_marseille","lat":43.32002,"lon":5.38153,"is_reserved":false,"is_disabled":true,"rental_uris":{"android":"levelo://app?vid=4bcaca61-be58-49cf-89c9-274b98e3c699","ios":"levelo://app?vid=4bcaca61-be58-49cf-89c9-274b98e3c699"},"vehicle_type_id":"4","last_reported":1745007068,"current_range_meters":10800,"station_id":"ce4bhr12rcd13ifvqhpg","pricing_plan_id":"cebpf4jnsgd1na2vs0mg"},{"bike_id":"36ed5a67-0f48-4180-8190-b0eca2975deb","system_id":"levelo_inurba_marseille","lat":43.29252,"lon":5.38435,"is_reserved":false,"is_disabled":false,"rental_uris":{"android":"levelo://app?vid=36ed5a67-0f48-4180-8190-b0eca2975deb","ios":"levelo://app?vid=36ed5a67-0f48-4180-8190-b0eca2975deb"},"vehicle_type_id":"4","last_reported":1745007068,"current_range_meters":10800,"station_id":"ce4bh692rcd13ifvqea0","pricing_plan_id":"cebpf4jnsgd1na2vs0mg"},{"bike_id":"3fb00f12-f422-4c57-93cf-c85631c66627","system_id":"levelo_inurba_marseille","lat":43.289335,"lon":5.395705,"is_reserved":false,"is_disabled":false,"rental_uris":{"android":"levelo://app?vid=3fb00f12-f422-4c57-93cf-c85631c66627","ios":"levelo://app?vid=3fb00f12-f422-4c57-93cf-c85631c66627"},"vehicle_type_id":"4","last_reported":1745007068,"current_range_meters":10800,"station_id":"","pricing_plan_id":"cebpf4jnsgd1na2vs0mg"},{"bike_id":"2f5246c7-afc3-43b2-aa5f-a6cae5990eb5","system_id":"levelo_inurba_marseille","lat":43.31073,"lon":5.3835,"is_reserved":false,"is_disabled":false,"rental_uris":{"android":"levelo://app?vid=2f5246c7-afc3-43b2-aa5f-a6cae5990eb5","ios":"levelo://app?vid=2f5246c7-afc3-43b2-aa5f-a6cae5990eb5"},"vehicle_type_id":"4","last_reported":1745007068,"current_range_meters":10800,"station_id":"ce4bgv92rcd13ifvqcr0","pricing_plan_id":"cebpf4jnsgd1na2vs0mg"},{"bike_id":"32069509-e17b-40f9-915a-fef3327bf994","system_id":"levelo_inurba_marseille","lat":43.29418,"lon":5.38625,"is_reserved":false,"is_disabled":false,"rental_uris":{"android":"levelo://app?vid=32069509-e17b-40f9-915a-fef3327bf994","ios":"levelo://app?vid=32069509-e17b-40f9-915a-fef3327bf994"},"vehicle_type_id":"4","last_reported":1745007068,"current_range_meters":10800,"station_id":"ce4bh2h2rcd13ifvqdh0","pricing_plan_id":"cebpf4jnsgd1na2vs0mg"},{"bike_id":"ab61782c-cb10-4dda-acee-b506f63baea8","system_id":"levelo_inurba_marseille","lat":43.29424,"lon":5.38614,"is_reserved":false,"is_disabled":false,"rental_uris":{"android":"levelo://app?vid=ab61782c-cb10-4dda-acee-b506f63baea8","ios":"levelo://app?vid=ab61782c-cb10-4dda-acee-b506f63baea8"},"vehicle_type_id":"4","last_reported":1745007068,"current_range_meters":10800,"station_id":"ce4bh2h2rcd13ifvqdh0","pricing_plan_id":"cebpf4jnsgd1na2vs0mg"},{"bike_id":"65a8c467-2326-4d6c-a345-fed0be6feffe","system_id":"levelo_inurba_marseille","lat":43.24994,"lon":5.38934,"is_reserved":false,"is_disabled":false,"rental_uris":{"android":"levelo://app?vid=65a8c467-2326-4d6c-a345-fed0be6feffe","ios":"levelo://app?vid=65a8c467-2326-4d6c-a345-fed0be6feffe"},"vehicle_type_id":"4","last_reported":1745007068,"current_range_meters":10800,"station_id":"ce4bhgp2rcd13ifvqfd0","pricing_plan_id":"cebpf4jnsgd1na2vs0mg"},{"bike_id":"934a8fc0-98f8-4aaf-a145-d485dee937c7","system_id":"levelo_inurba_marseille","lat":43.32366,"lon":5.36745,"is_reserved":false,"is_disabled":false,"rental_uris":{"android":"levelo://app?vid=934a8fc0-98f8-4aaf-a145-d485dee937c7","ios":"levelo://app?vid=934a8fc0-98f8-4aaf-a145-d485dee937c7"},"vehicle_type_id":"4","last_reported":1745007068,"current_range_meters":10800,"station_id":"ce4bhsh2rcd13ifvqi2g","pricing_plan_id":"cebpf4jnsgd1na2vs0mg"},{"bike_id":"99d17a75-602f-455b-a41c-560e0f41ce39","system_id":"levelo_inurba_marseille","lat":43.2953,"lon":5.38546,"is_reserved":false,"is_disabled":false,"rental_uris":{"android":"levelo://app?vid=99d17a75-602f-455b-a41c-560e0f41ce39","ios":"levelo://app?vid=99d17a75-602f-455b-a41c-560e0f41ce39"},"vehicle_type_id":"4","last_reported":1745007068,"current_range_meters":11200,"station_id":"ce4bgih2rcd13ifvqba0","pricing_plan_id":"cebpf4jnsgd1na2vs0mg"},{"bike_id":"b5dabcf1-91c7-49c0-81da-b74ca5aebd3f","system_id":"levelo_inurba_marseille","lat":43.29977,"lon":5.3716,"is_reserved":false,"is_disabled":false,"rental_uris":{"android":"levelo://app?vid=b5dabcf1-91c7-49c0-81da-b74ca5aebd3f","ios":"levelo://app?vid=b5dabcf1-91c7-49c0-81da-b74ca5aebd3f"},"vehicle_type_id":"4","last_reported":1745007068,"current_range_meters":11200,"station_id":"ce4bgr92rcd13ifvqc7g","pricing_plan_id":"cebpf4jnsgd1na2vs0mg"},{"bike_id":"d7488ed2-0dca-4a18-bf83-c830acee64ca","system_id":"levelo_inurba_marseille","lat":43.29257,"lon":5.3844,"is_reserved":false,"is_disabled":false,"rental_uris":{"android":"levelo://app?vid=d7488ed2-0dca-4a18-bf83-c830acee64ca","ios":"levelo://app?vid=d7488ed2-0dca-4a18-bf83-c830acee64ca"},"vehicle_type_id":"4","last_reported":1745007068,"current_range_meters":11200,"station_id":"ce4bh692rcd13ifvqea0","pricing_plan_id":"cebpf4jnsgd1na2vs0mg"},{"bike_id":"d6f7fb32-f248-47b9-8b03-7ce977c39244","system_id":"levelo_inurba_marseille","lat":43.29411,"lon":5.38631,"is_reserved":false,"is_disabled":false,"rental_uris":{"android":"levelo://app?vid=d6f7fb32-f248-47b9-8b03-7ce977c39244","ios":"levelo://app?vid=d6f7fb32-f248-47b9-8b03-7ce977c39244"},"vehicle_type_id":"4","last_reported":1745007068,"current_range_meters":11200,"station_id":"ce4bh2h2rcd13ifvqdh0","pricing_plan_id":"cebpf4jnsgd1na2vs0mg"},{"bike_id":"8acc9e92-089c-4d92-a192-c9507cd624c6","system_id":"levelo_inurba_marseille","lat":43.2941,"lon":5.38622,"is_reserved":false,"is_disabled":false,"rental_uris":{"android":"levelo://app?vid=8acc9e92-089c-4d92-a192-c9507cd624c6","ios":"levelo://app?vid=8acc9e92-089c-4d92-a192-c9507cd624c6"},"vehicle_type_id":"4","last_reported":1745007068,"current_range_meters":11200,"station_id":"ce4bh2h2rcd13ifvqdh0","pricing_plan_id":"cebpf4jnsgd1na2vs0mg"},{"bike_id":"657f0301-49ca-40e5-b5d1-08a1faca3fc1","system_id":"levelo_inurba_marseille","lat":43.2955,"lon":5.42292,"is_reserved":false,"is_disabled":false,"rental_uris":{"android":"levelo://app?vid=657f0301-49ca-40e5-b5d1-08a1faca3fc1","ios":"levelo://app?vid=657f0301-49ca-40e5-b5d1-08a1faca3fc1"},"vehicle_type_id":"4","last_reported":1745007068,"current_range_meters":11200,"station_id":"ce4bhph2rcd13ifvqhdg","pricing_plan_id":"cebpf4jnsgd1na2vs0mg"},{"bike_id":"1b64792f-21f4-460e-a9cd-429e0da41292","system_id":"levelo_inurba_marseille","lat":43.29421,"lon":5.38631,"is_reserved":false,"is_disabled":false,"rental_uris":{"android":"levelo://app?vid=1b64792f-21f4-460e-a9cd-429e0da41292","ios":"levelo://app?vid=1b64792f-21f4-460e-a9cd-429e0da41292"},"vehicle_type_id":"4","last_reported":1745007068,"current_range_meters":11600,"station_id":"ce4bh2h2rcd13ifvqdh0","pricing_plan_id":"cebpf4jnsgd1na2vs0mg"},{"bike_id":"b548ebe5-1c23-4158-a043-5345beee3847","system_id":"levelo_inurba_marseille","lat":43.29427,"lon":5.38627,"is_reserved":false,"is_disabled":false,"rental_uris":{"android":"levelo://app?vid=b548ebe5-1c23-4158-a043-5345beee3847","ios":"levelo://app?vid=b548ebe5-1c23-4158-a043-5345beee3847"},"vehicle_type_id":"4","last_reported":1745007068,"current_range_meters":11600,"station_id":"ce4bh2h2rcd13ifvqdh0","pricing_plan_id":"cebpf4jnsgd1na2vs0mg"},{"bike_id":"69085267-76d4-493a-a756-a7cd25a24e74","system_id":"levelo_inurba_marseille","lat":43.29525,"lon":5.38538,"is_reserved":false,"is_disabled":false,"rental_uris":{"android":"levelo://app?vid=69085267-76d4-493a-a756-a7cd25a24e74","ios":"levelo://app?vid=69085267-76d4-493a-a756-a7cd25a24e74"},"vehicle_type_id":"4","last_reported":1745007068,"current_range_meters":11600,"station_id":"ce4bgih2rcd13ifvqba0","pricing_plan_id":"cebpf4jnsgd1na2vs0mg"},{"bike_id":"7c9d0069-215b-40b5-8aaf-d3d3120b20d7","system_id":"levelo_inurba_marseille","lat":43.25096,"lon":5.40328,"is_reserved":false,"is_disabled":false,"rental_uris":{"android":"levelo://app?vid=7c9d0069-215b-40b5-8aaf-d3d3120b20d7","ios":"levelo://app?vid=7c9d0069-215b-40b5-8aaf-d3d3120b20d7"},"vehicle_type_id":"4","last_reported":1745007068,"current_range_meters":11600,"station_id":"ce4bhlh2rcd13ifvqgig","pricing_plan_id":"cebpf4jnsgd1na2vs0mg"},{"bike_id":"78e7b76e-dc56-425a-a71e-c2b8c6afcbe0","system_id":"levelo_inurba_marseille","lat":43.29607,"lon":5.37715,"is_reserved":false,"is_disabled":false,"rental_uris":{"android":"levelo://app?vid=78e7b76e-dc56-425a-a71e-c2b8c6afcbe0","ios":"levelo://app?vid=78e7b76e-dc56-425a-a71e-c2b8c6afcbe0"},"vehicle_type_id":"4","last_reported":1745007068,"current_range_meters":11600,"station_id":"ce4bgi92rcd13ifvqb90","pricing_plan_id":"cebpf4jnsgd1na2vs0mg"},{"bike_id":"6ee5700e-f659-40d4-8f2a-0fef7c95069a","system_id":"levelo_inurba_marseille","lat":43.29093,"lon":5.38126,"is_reserved":false,"is_disabled":false,"rental_uris":{"android":"levelo://app?vid=6ee5700e-f659-40d4-8f2a-0fef7c95069a","ios":"levelo://app?vid=6ee5700e-f659-40d4-8f2a-0fef7c95069a"},"vehicle_type_id":"4","last_reported":1745007068,"current_range_meters":11600,"station_id":"ce4bh512rcd13ifvqe2g","pricing_plan_id":"cebpf4jnsgd1na2vs0mg"},{"bike_id":"06186247-b79d-4519-9b3d-ab0cb1e44a12","system_id":"levelo_inurba_marseille","lat":43.32482,"lon":5.36568,"is_reserved":false,"is_disabled":false,"rental_uris":{"android":"levelo://app?vid=06186247-b79d-4519-9b3d-ab0cb1e44a12","ios":"levelo://app?vid=06186247-b79d-4519-9b3d-ab0cb1e44a12"},"vehicle_type_id":"4","last_reported":1745007068,"current_range_meters":11600,"station_id":"ce4bhs12rcd13ifvqhvg","pricing_plan_id":"cebpf4jnsgd1na2vs0mg"},{"bike_id":"0412a1ca-4def-4ac7-bfaa-effc8cbb5510","system_id":"levelo_inurba_marseille","lat":43.22951,"lon":5.35367,"is_reserved":false,"is_disabled":false,"rental_uris":{"android":"levelo://app?vid=0412a1ca-4def-4ac7-bfaa-effc8cbb5510","ios":"levelo://app?vid=0412a1ca-4def-4ac7-bfaa-effc8cbb5510"},"vehicle_type_id":"4","last_reported":1745007068,"current_range_meters":11600,"station_id":"cpo3532slgdg3j2ikp40","pricing_plan_id":"cebpf4jnsgd1na2vs0mg"},{"bike_id":"a0ddb0a5-f7f0-4281-aa27-9e82747cc573","system_id":"levelo_inurba_marseille","lat":43.33754,"lon":5.37491,"is_reserved":false,"is_disabled":false,"rental_uris":{"android":"levelo://app?vid=a0ddb0a5-f7f0-4281-aa27-9e82747cc573","ios":"levelo://app?vid=a0ddb0a5-f7f0-4281-aa27-9e82747cc573"},"vehicle_type_id":"4","last_reported":1745007068,"current_range_meters":11600,"station_id":"","pricing_plan_id":"cebpf4jnsgd1na2vs0mg"},{"bike_id":"796c9a49-2363-4a93-aaec-2f602eff33c2","system_id":"levelo_inurba_marseille","lat":43.31706,"lon":5.43708,"is_reserved":false,"is_disabled":false,"rental_uris":{"android":"levelo://app?vid=796c9a49-2363-4a93-aaec-2f602eff33c2","ios":"levelo://app?vid=796c9a49-2363-4a93-aaec-2f602eff33c2"},"vehicle_type_id":"4","last_reported":1745007068,"current_range_meters":12000,"station_id":"ce4bhp92rcd13ifvqhcg","pricing_plan_id":"cebpf4jnsgd1na2vs0mg"},{"bike_id":"c09b1ff6-1e1f-4cd6-9ee9-4e1b23955bbc","system_id":"levelo_inurba_marseille","lat":43.231965,"lon":5.355517,"is_reserved":false,"is_disabled":true,"rental_uris":{"android":"levelo://app?vid=c09b1ff6-1e1f-4cd6-9ee9-4e1b23955bbc","ios":"levelo://app?vid=c09b1ff6-1e1f-4cd6-9ee9-4e1b23955bbc"},"vehicle_type_id":"4","last_reported":1745007068,"current_range_meters":12000,"station_id":"ce4bhu92rcd13ifvqi70","pricing_plan_id":"cebpf4jnsgd1na2vs0mg"},{"bike_id":"3954e22a-12b2-4ed5-831c-c559ee6c75bc","system_id":"levelo_inurba_marseille","lat":43.28941,"lon":5.36643,"is_reserved":false,"is_disabled":false,"rental_uris":{"android":"levelo://app?vid=3954e22a-12b2-4ed5-831c-c559ee6c75bc","ios":"levelo://app?vid=3954e22a-12b2-4ed5-831c-c559ee6c75bc"},"vehicle_type_id":"4","last_reported":1745007068,"current_range_meters":12000,"station_id":"ce4bhap2rcd13ifvqek0","pricing_plan_id":"cebpf4jnsgd1na2vs0mg"},{"bike_id":"cfde33ff-e6f4-413d-9693-4774caf8c1d7","system_id":"levelo_inurba_marseille","lat":43.28934,"lon":5.38395,"is_reserved":false,"is_disabled":false,"rental_uris":{"android":"levelo://app?vid=cfde33ff-e6f4-413d-9693-4774caf8c1d7","ios":"levelo://app?vid=cfde33ff-e6f4-413d-9693-4774caf8c1d7"},"vehicle_type_id":"4","last_reported":1745007068,"current_range_meters":12000,"station_id":"ce4bh612rcd13ifvqe6g","pricing_plan_id":"cebpf4jnsgd1na2vs0mg"},{"bike_id":"14bfc94c-bac0-4c65-8a8f-04cdd164cd0e","system_id":"levelo_inurba_marseille","lat":43.29434,"lon":5.38639,"is_reserved":false,"is_disabled":false,"rental_uris":{"android":"levelo://app?vid=14bfc94c-bac0-4c65-8a8f-04cdd164cd0e","ios":"levelo://app?vid=14bfc94c-bac0-4c65-8a8f-04cdd164cd0e"},"vehicle_type_id":"4","last_reported":1745007068,"current_range_meters":12000,"station_id":"ce4bh2h2rcd13ifvqdh0","pricing_plan_id":"cebpf4jnsgd1na2vs0mg"},{"bike_id":"33efbe4e-e642-4271-be29-4926b421ca5b","system_id":"levelo_inurba_marseille","lat":43.24178,"lon":5.36387,"is_reserved":false,"is_disabled":false,"rental_uris":{"android":"levelo://app?vid=33efbe4e-e642-4271-be29-4926b421ca5b","ios":"levelo://app?vid=33efbe4e-e642-4271-be29-4926b421ca5b"},"vehicle_type_id":"4","last_reported":1745007068,"current_range_meters":12000,"station_id":"cpo36qri1sfpv3e86is0","pricing_plan_id":"cebpf4jnsgd1na2vs0mg"},{"bike_id":"2521a350-ef67-406e-97dd-8e229ac28a69","system_id":"levelo_inurba_marseille","lat":43.28934,"lon":5.36648,"is_reserved":false,"is_disabled":false,"rental_uris":{"android":"levelo://app?vid=2521a350-ef67-406e-97dd-8e229ac28a69","ios":"levelo://app?vid=2521a350-ef67-406e-97dd-8e229ac28a69"},"vehicle_type_id":"4","last_reported":1745007068,"current_range_meters":12400,"station_id":"ce4bhap2rcd13ifvqek0","pricing_plan_id":"cebpf4jnsgd1na2vs0mg"},{"bike_id":"773e4f31-1b77-4aad-b330-03d6c76954fb","system_id":"levelo_inurba_marseille","lat":43.29422,"lon":5.38671,"is_reserved":false,"is_disabled":false,"rental_uris":{"android":"levelo://app?vid=773e4f31-1b77-4aad-b330-03d6c76954fb","ios":"levelo://app?vid=773e4f31-1b77-4aad-b330-03d6c76954fb"},"vehicle_type_id":"4","last_reported":1745007068,"current_range_meters":12400,"station_id":"ce4bh2h2rcd13ifvqdh0","pricing_plan_id":"cebpf4jnsgd1na2vs0mg"},{"bike_id":"2a261f88-3764-4cba-8208-7dface0e9631","system_id":"levelo_inurba_marseille","lat":43.28943,"lon":5.36639,"is_reserved":false,"is_disabled":false,"rental_uris":{"android":"levelo://app?vid=2a261f88-3764-4cba-8208-7dface0e9631","ios":"levelo://app?vid=2a261f88-3764-4cba-8208-7dface0e9631"},"vehicle_type_id":"4","last_reported":1745007068,"current_range_meters":12400,"station_id":"ce4bhap2rcd13ifvqek0","pricing_plan_id":"cebpf4jnsgd1na2vs0mg"},{"bike_id":"a28a3f8c-38fc-4308-b382-75c9a725c27e","system_id":"levelo_inurba_marseille","lat":43.29422,"lon":5.38589,"is_reserved":false,"is_disabled":false,"rental_uris":{"android":"levelo://app?vid=a28a3f8c-38fc-4308-b382-75c9a725c27e","ios":"levelo://app?vid=a28a3f8c-38fc-4308-b382-75c9a725c27e"},"vehicle_type_id":"4","last_reported":1745007068,"current_range_meters":12400,"station_id":"ce4bh2h2rcd13ifvqdh0","pricing_plan_id":"cebpf4jnsgd1na2vs0mg"},{"bike_id":"fd6c0775-647e-4c13-82d8-0fca40552e82","system_id":"levelo_inurba_marseille","lat":43.2908,"lon":5.3814,"is_reserved":false,"is_disabled":false,"rental_uris":{"android":"levelo://app?vid=fd6c0775-647e-4c13-82d8-0fca40552e82","ios":"levelo://app?vid=fd6c0775-647e-4c13-82d8-0fca40552e82"},"vehicle_type_id":"4","last_reported":1745007068,"current_range_meters":12800,"station_id":"ce4bh512rcd13ifvqe2g","pricing_plan_id":"cebpf4jnsgd1na2vs0mg"},{"bike_id":"e60b8b06-f4fb-4308-9a64-8e0dd4f09968","system_id":"levelo_inurba_marseille","lat":43.294,"lon":5.38647,"is_reserved":false,"is_disabled":false,"rental_uris":{"android":"levelo://app?vid=e60b8b06-f4fb-4308-9a64-8e0dd4f09968","ios":"levelo://app?vid=e60b8b06-f4fb-4308-9a64-8e0dd4f09968"},"vehicle_type_id":"4","last_reported":1745007068,"current_range_meters":12800,"station_id":"ce4bh2h2rcd13ifvqdh0","pricing_plan_id":"cebpf4jnsgd1na2vs0mg"},{"bike_id":"68342d9f-f0b6-47e7-b690-b27078e67a77","system_id":"levelo_inurba_marseille","lat":43.2417,"lon":5.36396,"is_reserved":false,"is_disabled":false,"rental_uris":{"android":"levelo://app?vid=68342d9f-f0b6-47e7-b690-b27078e67a77","ios":"levelo://app?vid=68342d9f-f0b6-47e7-b690-b27078e67a77"},"vehicle_type_id":"4","last_reported":1745007068,"current_range_meters":12800,"station_id":"cpo36qri1sfpv3e86is0","pricing_plan_id":"cebpf4jnsgd1na2vs0mg"},{"bike_id":"b6807616-0f85-4734-bc9f-4a9e16bf84c8","system_id":"levelo_inurba_marseille","lat":43.29407,"lon":5.3866,"is_reserved":false,"is_disabled":false,"rental_uris":{"android":"levelo://app?vid=b6807616-0f85-4734-bc9f-4a9e16bf84c8","ios":"levelo://app?vid=b6807616-0f85-4734-bc9f-4a9e16bf84c8"},"vehicle_type_id":"4","last_reported":1745007068,"current_range_meters":12800,"station_id":"ce4bh2h2rcd13ifvqdh0","pricing_plan_id":"cebpf4jnsgd1na2vs0mg"},{"bike_id":"18e745c3-947b-4834-85a0-69f7ba15084a","system_id":"levelo_inurba_marseille","lat":43.28921,"lon":5.38402,"is_reserved":false,"is_disabled":false,"rental_uris":{"android":"levelo://app?vid=18e745c3-947b-4834-85a0-69f7ba15084a","ios":"levelo://app?vid=18e745c3-947b-4834-85a0-69f7ba15084a"},"vehicle_type_id":"4","last_reported":1745007068,"current_range_meters":12800,"station_id":"ce4bh612rcd13ifvqe6g","pricing_plan_id":"cebpf4jnsgd1na2vs0mg"},{"bike_id":"6f523da1-5f60-475c-93df-7a5b709bcac9","system_id":"levelo_inurba_marseille","lat":43.23193,"lon":5.35524,"is_reserved":false,"is_disabled":false,"rental_uris":{"android":"levelo://app?vid=6f523da1-5f60-475c-93df-7a5b709bcac9","ios":"levelo://app?vid=6f523da1-5f60-475c-93df-7a5b709bcac9"},"vehicle_type_id":"4","last_reported":1745007068,"current_range_meters":12800,"station_id":"ce4bhu92rcd13ifvqi70","pricing_plan_id":"cebpf4jnsgd1na2vs0mg"},{"bike_id":"ef6e9c6f-8f69-4fcf-9727-b556a001e5bc","system_id":"levelo_inurba_marseille","lat":43.2956,"lon":5.42293,"is_reserved":false,"is_disabled":false,"rental_uris":{"android":"levelo://app?vid=ef6e9c6f-8f69-4fcf-9727-b556a001e5bc","ios":"levelo://app?vid=ef6e9c6f-8f69-4fcf-9727-b556a001e5bc"},"vehicle_type_id":"4","last_reported":1745007068,"current_range_meters":12800,"station_id":"ce4bhph2rcd13ifvqhdg","pricing_plan_id":"cebpf4jnsgd1na2vs0mg"},{"bike_id":"49f36bbf-f51d-495d-9f89-c878c55e747c","system_id":"levelo_inurba_marseille","lat":43.29416,"lon":5.38633,"is_reserved":false,"is_disabled":false,"rental_uris":{"android":"levelo://app?vid=49f36bbf-f51d-495d-9f89-c878c55e747c","ios":"levelo://app?vid=49f36bbf-f51d-495d-9f89-c878c55e747c"},"vehicle_type_id":"4","last_reported":1745007068,"current_range_meters":12800,"station_id":"ce4bh2h2rcd13ifvqdh0","pricing_plan_id":"cebpf4jnsgd1na2vs0mg"},{"bike_id":"0c59f414-6974-425a-a8ec-93f47c534e75","system_id":"levelo_inurba_marseille","lat":43.29439,"lon":5.39741,"is_reserved":false,"is_disabled":false,"rental_uris":{"android":"levelo://app?vid=0c59f414-6974-425a-a8ec-93f47c534e75","ios":"levelo://app?vid=0c59f414-6974-425a-a8ec-93f47c534e75"},"vehicle_type_id":"4","last_reported":1745007068,"current_range_meters":12800,"station_id":"ce4bh3h2rcd13ifvqdo0","pricing_plan_id":"cebpf4jnsgd1na2vs0mg"},{"bike_id":"57638ae8-ed9a-44a3-8aab-35b9406ac653","system_id":"levelo_inurba_marseille","lat":43.29407,"lon":5.38637,"is_reserved":false,"is_disabled":false,"rental_uris":{"android":"levelo://app?vid=57638ae8-ed9a-44a3-8aab-35b9406ac653","ios":"levelo://app?vid=57638ae8-ed9a-44a3-8aab-35b9406ac653"},"vehicle_type_id":"4","last_reported":1745007068,"current_range_meters":12800,"station_id":"ce4bh2h2rcd13ifvqdh0","pricing_plan_id":"cebpf4jnsgd1na2vs0mg"},{"bike_id":"6cd98a68-dfc0-4aef-a25d-03e1f7826476","system_id":"levelo_inurba_marseille","lat":43.23673,"lon":5.37776,"is_reserved":false,"is_disabled":false,"rental_uris":{"android":"levelo://app?vid=6cd98a68-dfc0-4aef-a25d-03e1f7826476","ios":"levelo://app?vid=6cd98a68-dfc0-4aef-a25d-03e1f7826476"},"vehicle_type_id":"4","last_reported":1745007068,"current_range_meters":13600,"station_id":"","pricing_plan_id":"cebpf4jnsgd1na2vs0mg"},{"bike_id":"709594ef-4d5a-43e4-8bb0-c482c9fa12f8","system_id":"levelo_inurba_marseille","lat":43.30885,"lon":5.39635,"is_reserved":false,"is_disabled":true,"rental_uris":{"android":"levelo://app?vid=709594ef-4d5a-43e4-8bb0-c482c9fa12f8","ios":"levelo://app?vid=709594ef-4d5a-43e4-8bb0-c482c9fa12f8"},"vehicle_type_id":"4","last_reported":1745007068,"current_range_meters":13600,"station_id":"ce4bh012rcd13ifvqcv0","pricing_plan_id":"cebpf4jnsgd1na2vs0mg"},{"bike_id":"ef871c8e-2013-4622-a683-0ab17a74d870","system_id":"levelo_inurba_marseille","lat":43.23188,"lon":5.35563,"is_reserved":false,"is_disabled":true,"rental_uris":{"android":"levelo://app?vid=ef871c8e-2013-4622-a683-0ab17a74d870","ios":"levelo://app?vid=ef871c8e-2013-4622-a683-0ab17a74d870"},"vehicle_type_id":"4","last_reported":1745007068,"current_range_meters":13600,"station_id":"ce4bhu92rcd13ifvqi70","pricing_plan_id":"cebpf4jnsgd1na2vs0mg"},{"bike_id":"34e88830-8153-43e1-9d52-d07b6e9a12ae","system_id":"levelo_inurba_marseille","lat":43.31077,"lon":5.38361,"is_reserved":false,"is_disabled":false,"rental_uris":{"android":"levelo://app?vid=34e88830-8153-43e1-9d52-d07b6e9a12ae","ios":"levelo://app?vid=34e88830-8153-43e1-9d52-d07b6e9a12ae"},"vehicle_type_id":"4","last_reported":1745007068,"current_range_meters":13600,"station_id":"ce4bgv92rcd13ifvqcr0","pricing_plan_id":"cebpf4jnsgd1na2vs0mg"},{"bike_id":"9d6855f4-744b-4d2a-b46d-2cbc8063dd80","system_id":"levelo_inurba_marseille","lat":43.27965,"lon":5.38749,"is_reserved":false,"is_disabled":false,"rental_uris":{"android":"levelo://app?vid=9d6855f4-744b-4d2a-b46d-2cbc8063dd80","ios":"levelo://app?vid=9d6855f4-744b-4d2a-b46d-2cbc8063dd80"},"vehicle_type_id":"4","last_reported":1745007068,"current_range_meters":13600,"station_id":"ce4bhg12rcd13ifvqf80","pricing_plan_id":"cebpf4jnsgd1na2vs0mg"},{"bike_id":"3b33ab09-06ad-40c7-af0f-1edf7e8000ab","system_id":"levelo_inurba_marseille","lat":43.23195,"lon":5.35553,"is_reserved":false,"is_disabled":false,"rental_uris":{"android":"levelo://app?vid=3b33ab09-06ad-40c7-af0f-1edf7e8000ab","ios":"levelo://app?vid=3b33ab09-06ad-40c7-af0f-1edf7e8000ab"},"vehicle_type_id":"4","last_reported":1745007068,"current_range_meters":12800,"station_id":"ce4bhu92rcd13ifvqi70","pricing_plan_id":"cebpf4jnsgd1na2vs0mg"},{"bike_id":"c27907fa-ce59-490f-b173-9a23082d604e","system_id":"levelo_inurba_marseille","lat":43.27918,"lon":5.39577,"is_reserved":false,"is_disabled":false,"rental_uris":{"android":"levelo://app?vid=c27907fa-ce59-490f-b173-9a23082d604e","ios":"levelo://app?vid=c27907fa-ce59-490f-b173-9a23082d604e"},"vehicle_type_id":"4","last_reported":1745007068,"current_range_meters":13600,"station_id":"ce4bhf92rcd13ifvqf40","pricing_plan_id":"cebpf4jnsgd1na2vs0mg"},{"bike_id":"7eb8853e-3665-40f5-8308-1299f0674652","system_id":"levelo_inurba_marseille","lat":43.30367,"lon":5.42473,"is_reserved":false,"is_disabled":false,"rental_uris":{"android":"levelo://app?vid=7eb8853e-3665-40f5-8308-1299f0674652","ios":"levelo://app?vid=7eb8853e-3665-40f5-8308-1299f0674652"},"vehicle_type_id":"4","last_reported":1745007068,"current_range_meters":13600,"station_id":"ce4bhoh2rcd13ifvqh6g","pricing_plan_id":"cebpf4jnsgd1na2vs0mg"},{"bike_id":"84479aba-7dcf-4ed5-859b-fd33aa9ad312","system_id":"levelo_inurba_marseille","lat":43.29238,"lon":5.38451,"is_reserved":false,"is_disabled":false,"rental_uris":{"android":"levelo://app?vid=84479aba-7dcf-4ed5-859b-fd33aa9ad312","ios":"levelo://app?vid=84479aba-7dcf-4ed5-859b-fd33aa9ad312"},"vehicle_type_id":"4","last_reported":1745007068,"current_range_meters":13600,"station_id":"ce4bh692rcd13ifvqea0","pricing_plan_id":"cebpf4jnsgd1na2vs0mg"},{"bike_id":"110c4abb-ffb8-4fd0-ba35-0e68e73379e5","system_id":"levelo_inurba_marseille","lat":43.229344,"lon":5.353842,"is_reserved":false,"is_disabled":false,"rental_uris":{"android":"levelo://app?vid=110c4abb-ffb8-4fd0-ba35-0e68e73379e5","ios":"levelo://app?vid=110c4abb-ffb8-4fd0-ba35-0e68e73379e5"},"vehicle_type_id":"4","last_reported":1745007068,"current_range_meters":13600,"station_id":"cpo3532slgdg3j2ikp40","pricing_plan_id":"cebpf4jnsgd1na2vs0mg"},{"bike_id":"e6dd6ae1-3bcb-4010-8c4f-946f95c5cd66","system_id":"levelo_inurba_marseille","lat":43.28846,"lon":5.35839,"is_reserved":false,"is_disabled":true,"rental_uris":{"android":"levelo://app?vid=e6dd6ae1-3bcb-4010-8c4f-946f95c5cd66","ios":"levelo://app?vid=e6dd6ae1-3bcb-4010-8c4f-946f95c5cd66"},"vehicle_type_id":"4","last_reported":1745007068,"current_range_meters":14000,"station_id":"ce4bhb12rcd13ifvqem0","pricing_plan_id":"cebpf4jnsgd1na2vs0mg"},{"bike_id":"09e2e1ec-98f6-4512-926a-5b3441e9a189","system_id":"levelo_inurba_marseille","lat":43.30313,"lon":5.3692,"is_reserved":false,"is_disabled":false,"rental_uris":{"android":"levelo://app?vid=09e2e1ec-98f6-4512-926a-5b3441e9a189","ios":"levelo://app?vid=09e2e1ec-98f6-4512-926a-5b3441e9a189"},"vehicle_type_id":"4","last_reported":1745007068,"current_range_meters":13600,"station_id":"ce4bgqh2rcd13ifvqc5g","pricing_plan_id":"cebpf4jnsgd1na2vs0mg"},{"bike_id":"1eaca8f5-0017-418a-9bfc-52185bf67513","system_id":"levelo_inurba_marseille","lat":43.33722,"lon":5.39185,"is_reserved":false,"is_disabled":false,"rental_uris":{"android":"levelo://app?vid=1eaca8f5-0017-418a-9bfc-52185bf67513","ios":"levelo://app?vid=1eaca8f5-0017-418a-9bfc-52185bf67513"},"vehicle_type_id":"4","last_reported":1745007068,"current_range_meters":14000,"station_id":"ce4bhr92rcd13ifvqhsg","pricing_plan_id":"cebpf4jnsgd1na2vs0mg"},{"bike_id":"186380b9-3dab-457b-b648-71d123fa0368","system_id":"levelo_inurba_marseille","lat":43.25114,"lon":5.40312,"is_reserved":false,"is_disabled":true,"rental_uris":{"android":"levelo://app?vid=186380b9-3dab-457b-b648-71d123fa0368","ios":"levelo://app?vid=186380b9-3dab-457b-b648-71d123fa0368"},"vehicle_type_id":"4","last_reported":1745007068,"current_range_meters":14000,"station_id":"ce4bhlh2rcd13ifvqgig","pricing_plan_id":"cebpf4jnsgd1na2vs0mg"},{"bike_id":"356f3f14-6a16-465c-9a2c-5b313475e431","system_id":"levelo_inurba_marseille","lat":43.29798,"lon":5.40401,"is_reserved":false,"is_disabled":false,"rental_uris":{"android":"levelo://app?vid=356f3f14-6a16-465c-9a2c-5b313475e431","ios":"levelo://app?vid=356f3f14-6a16-465c-9a2c-5b313475e431"},"vehicle_type_id":"4","last_reported":1745007068,"current_range_meters":14000,"station_id":"ce4bh112rcd13ifvqd90","pricing_plan_id":"cebpf4jnsgd1na2vs0mg"},{"bike_id":"1bb7039b-1ff3-40d5-9434-19afb5933c6f","system_id":"levelo_inurba_marseille","lat":43.29526,"lon":5.38551,"is_reserved":false,"is_disabled":false,"rental_uris":{"android":"levelo://app?vid=1bb7039b-1ff3-40d5-9434-19afb5933c6f","ios":"levelo://app?vid=1bb7039b-1ff3-40d5-9434-19afb5933c6f"},"vehicle_type_id":"4","last_reported":1745007068,"current_range_meters":14400,"station_id":"ce4bgih2rcd13ifvqba0","pricing_plan_id":"cebpf4jnsgd1na2vs0mg"},{"bike_id":"2b1ea31b-f29c-4572-bb75-8752f9960ecd","system_id":"levelo_inurba_marseille","lat":43.30154,"lon":5.38782,"is_reserved":false,"is_disabled":false,"rental_uris":{"android":"levelo://app?vid=2b1ea31b-f29c-4572-bb75-8752f9960ecd","ios":"levelo://app?vid=2b1ea31b-f29c-4572-bb75-8752f9960ecd"},"vehicle_type_id":"4","last_reported":1745007068,"current_range_meters":14400,"station_id":"ce4bghh2rcd13ifvqb60","pricing_plan_id":"cebpf4jnsgd1na2vs0mg"},{"bike_id":"63ea7073-28fc-44a7-bbc2-5ff0877db960","system_id":"levelo_inurba_marseille","lat":43.29022,"lon":5.37185,"is_reserved":false,"is_disabled":false,"rental_uris":{"android":"levelo://app?vid=63ea7073-28fc-44a7-bbc2-5ff0877db960","ios":"levelo://app?vid=63ea7073-28fc-44a7-bbc2-5ff0877db960"},"vehicle_type_id":"4","last_reported":1745007068,"current_range_meters":14400,"station_id":"","pricing_plan_id":"cebpf4jnsgd1na2vs0mg"},{"bike_id":"6ecdfdf5-e55b-449d-b3ef-3adbda23bd5a","system_id":"levelo_inurba_marseille","lat":43.29912,"lon":5.37478,"is_reserved":false,"is_disabled":false,"rental_uris":{"android":"levelo://app?vid=6ecdfdf5-e55b-449d-b3ef-3adbda23bd5a","ios":"levelo://app?vid=6ecdfdf5-e55b-449d-b3ef-3adbda23bd5a"},"vehicle_type_id":"4","last_reported":1745007068,"current_range_meters":14400,"station_id":"ce4bgjh2rcd13ifvqbg0","pricing_plan_id":"cebpf4jnsgd1na2vs0mg"},{"bike_id":"81d07084-66a1-44dc-ae08-3b708e7b5eb3","system_id":"levelo_inurba_marseille","lat":43.250083,"lon":5.389251,"is_reserved":false,"is_disabled":false,"rental_uris":{"android":"levelo://app?vid=81d07084-66a1-44dc-ae08-3b708e7b5eb3","ios":"levelo://app?vid=81d07084-66a1-44dc-ae08-3b708e7b5eb3"},"vehicle_type_id":"4","last_reported":1745007068,"current_range_meters":14800,"station_id":"ce4bhgp2rcd13ifvqfd0","pricing_plan_id":"cebpf4jnsgd1na2vs0mg"},{"bike_id":"49f5d333-54bf-475d-8c25-f538119ecd21","system_id":"levelo_inurba_marseille","lat":43.294214,"lon":5.386274,"is_reserved":false,"is_disabled":false,"rental_uris":{"android":"levelo://app?vid=49f5d333-54bf-475d-8c25-f538119ecd21","ios":"levelo://app?vid=49f5d333-54bf-475d-8c25-f538119ecd21"},"vehicle_type_id":"4","last_reported":1745007068,"current_range_meters":14400,"station_id":"ce4bh2h2rcd13ifvqdh0","pricing_plan_id":"cebpf4jnsgd1na2vs0mg"},{"bike_id":"0b314e9d-ad0e-47c9-b94c-d5ddaeb12a56","system_id":"levelo_inurba_marseille","lat":43.30921,"lon":5.36844,"is_reserved":false,"is_disabled":false,"rental_uris":{"android":"levelo://app?vid=0b314e9d-ad0e-47c9-b94c-d5ddaeb12a56","ios":"levelo://app?vid=0b314e9d-ad0e-47c9-b94c-d5ddaeb12a56"},"vehicle_type_id":"4","last_reported":1745007068,"current_range_meters":14000,"station_id":"ce4bgn92rcd13ifvqbvg","pricing_plan_id":"cebpf4jnsgd1na2vs0mg"},{"bike_id":"5c4ead29-1e5e-49af-829a-7868c3cf014f","system_id":"levelo_inurba_marseille","lat":43.25104,"lon":5.4033,"is_reserved":false,"is_disabled":false,"rental_uris":{"android":"levelo://app?vid=5c4ead29-1e5e-49af-829a-7868c3cf014f","ios":"levelo://app?vid=5c4ead29-1e5e-49af-829a-7868c3cf014f"},"vehicle_type_id":"4","last_reported":1745007068,"current_range_meters":14400,"station_id":"ce4bhlh2rcd13ifvqgig","pricing_plan_id":"cebpf4jnsgd1na2vs0mg"},{"bike_id":"5d4c9cc0-56a3-468c-9bfd-437b9498da8b","system_id":"levelo_inurba_marseille","lat":43.283472,"lon":5.381162,"is_reserved":false,"is_disabled":false,"rental_uris":{"android":"levelo://app?vid=5d4c9cc0-56a3-468c-9bfd-437b9498da8b","ios":"levelo://app?vid=5d4c9cc0-56a3-468c-9bfd-437b9498da8b"},"vehicle_type_id":"4","last_reported":1745007068,"current_range_meters":14400,"station_id":"ce4bh412rcd13ifvqdr0","pricing_plan_id":"cebpf4jnsgd1na2vs0mg"},{"bike_id":"507b9f26-d576-41c6-b541-3a32c90329db","system_id":"levelo_inurba_marseille","lat":43.2465,"lon":5.38896,"is_reserved":false,"is_disabled":false,"rental_uris":{"android":"levelo://app?vid=507b9f26-d576-41c6-b541-3a32c90329db","ios":"levelo://app?vid=507b9f26-d576-41c6-b541-3a32c90329db"},"vehicle_type_id":"4","last_reported":1745007068,"current_range_meters":14000,"station_id":"ce4bhg12rcd13ifvqf60","pricing_plan_id":"cebpf4jnsgd1na2vs0mg"},{"bike_id":"331be414-ada1-42d4-a7d8-c8c412d62ca8","system_id":"levelo_inurba_marseille","lat":43.29026,"lon":5.38636,"is_reserved":false,"is_disabled":false,"rental_uris":{"android":"levelo://app?vid=331be414-ada1-42d4-a7d8-c8c412d62ca8","ios":"levelo://app?vid=331be414-ada1-42d4-a7d8-c8c412d62ca8"},"vehicle_type_id":"4","last_reported":1745007068,"current_range_meters":14400,"station_id":"ce4bh4p2rcd13ifvqe0g","pricing_plan_id":"cebpf4jnsgd1na2vs0mg"},{"bike_id":"2e467d9c-beb5-49f4-b462-1279553cbf7f","system_id":"levelo_inurba_marseille","lat":43.30538,"lon":5.36546,"is_reserved":false,"is_disabled":false,"rental_uris":{"android":"levelo://app?vid=2e467d9c-beb5-49f4-b462-1279553cbf7f","ios":"levelo://app?vid=2e467d9c-beb5-49f4-b462-1279553cbf7f"},"vehicle_type_id":"4","last_reported":1745007068,"current_range_meters":14800,"station_id":"ce4bgs12rcd13ifvqcag","pricing_plan_id":"cebpf4jnsgd1na2vs0mg"},{"bike_id":"3e089d80-138c-4772-b338-332841136b45","system_id":"levelo_inurba_marseille","lat":43.301392,"lon":5.387834,"is_reserved":false,"is_disabled":false,"rental_uris":{"android":"levelo://app?vid=3e089d80-138c-4772-b338-332841136b45","ios":"levelo://app?vid=3e089d80-138c-4772-b338-332841136b45"},"vehicle_type_id":"4","last_reported":1745007068,"current_range_meters":14800,"station_id":"ce4bghh2rcd13ifvqb60","pricing_plan_id":"cebpf4jnsgd1na2vs0mg"},{"bike_id":"47afc246-34fe-47d6-8ba6-e100bfd1c302","system_id":"levelo_inurba_marseille","lat":43.27833,"lon":5.39207,"is_reserved":false,"is_disabled":false,"rental_uris":{"android":"levelo://app?vid=47afc246-34fe-47d6-8ba6-e100bfd1c302","ios":"levelo://app?vid=47afc246-34fe-47d6-8ba6-e100bfd1c302"},"vehicle_type_id":"4","last_reported":1745007068,"current_range_meters":14800,"station_id":"ce4bhjp2rcd13ifvqga0","pricing_plan_id":"cebpf4jnsgd1na2vs0mg"},{"bike_id":"9cfa0569-f4ce-413e-a964-cac35f2f3a97","system_id":"levelo_inurba_marseille","lat":43.30156,"lon":5.3877,"is_reserved":false,"is_disabled":false,"rental_uris":{"android":"levelo://app?vid=9cfa0569-f4ce-413e-a964-cac35f2f3a97","ios":"levelo://app?vid=9cfa0569-f4ce-413e-a964-cac35f2f3a97"},"vehicle_type_id":"4","last_reported":1745007068,"current_range_meters":14800,"station_id":"ce4bghh2rcd13ifvqb60","pricing_plan_id":"cebpf4jnsgd1na2vs0mg"},{"bike_id":"42380231-def3-476d-af50-7af7ee866142","system_id":"levelo_inurba_marseille","lat":43.29415,"lon":5.38643,"is_reserved":false,"is_disabled":false,"rental_uris":{"android":"levelo://app?vid=42380231-def3-476d-af50-7af7ee866142","ios":"levelo://app?vid=42380231-def3-476d-af50-7af7ee866142"},"vehicle_type_id":"4","last_reported":1745007068,"current_range_meters":14800,"station_id":"ce4bh2h2rcd13ifvqdh0","pricing_plan_id":"cebpf4jnsgd1na2vs0mg"},{"bike_id":"4fe31a1a-47e1-4300-81c1-36feeb12404e","system_id":"levelo_inurba_marseille","lat":43.29249,"lon":5.3844,"is_reserved":false,"is_disabled":false,"rental_uris":{"android":"levelo://app?vid=4fe31a1a-47e1-4300-81c1-36feeb12404e","ios":"levelo://app?vid=4fe31a1a-47e1-4300-81c1-36feeb12404e"},"vehicle_type_id":"4","last_reported":1745007068,"current_range_meters":14800,"station_id":"ce4bh692rcd13ifvqea0","pricing_plan_id":"cebpf4jnsgd1na2vs0mg"},{"bike_id":"f45a6616-094e-4cb8-b278-2272df5925f1","system_id":"levelo_inurba_marseille","lat":43.26225,"lon":5.40453,"is_reserved":false,"is_disabled":false,"rental_uris":{"android":"levelo://app?vid=f45a6616-094e-4cb8-b278-2272df5925f1","ios":"levelo://app?vid=f45a6616-094e-4cb8-b278-2272df5925f1"},"vehicle_type_id":"4","last_reported":1745007068,"current_range_meters":14800,"station_id":"ce4bhmh2rcd13ifvqgmg","pricing_plan_id":"cebpf4jnsgd1na2vs0mg"},{"bike_id":"97e50bb0-9a70-481b-b370-e509345e710a","system_id":"levelo_inurba_marseille","lat":43.28028,"lon":5.36938,"is_reserved":false,"is_disabled":true,"rental_uris":{"android":"levelo://app?vid=97e50bb0-9a70-481b-b370-e509345e710a","ios":"levelo://app?vid=97e50bb0-9a70-481b-b370-e509345e710a"},"vehicle_type_id":"4","last_reported":1745007068,"current_range_meters":15200,"station_id":"ce4bha12rcd13ifvqef0","pricing_plan_id":"cebpf4jnsgd1na2vs0mg"},{"bike_id":"789c3822-56ca-4769-bcd4-8845bdea2fda","system_id":"levelo_inurba_marseille","lat":43.24182,"lon":5.36392,"is_reserved":false,"is_disabled":false,"rental_uris":{"android":"levelo://app?vid=789c3822-56ca-4769-bcd4-8845bdea2fda","ios":"levelo://app?vid=789c3822-56ca-4769-bcd4-8845bdea2fda"},"vehicle_type_id":"4","last_reported":1745007068,"current_range_meters":15200,"station_id":"cpo36qri1sfpv3e86is0","pricing_plan_id":"cebpf4jnsgd1na2vs0mg"},{"bike_id":"b6821e5f-2b42-4cde-8784-0fb0fe3fb2be","system_id":"levelo_inurba_marseille","lat":43.24667,"lon":5.38147,"is_reserved":false,"is_disabled":false,"rental_uris":{"android":"levelo://app?vid=b6821e5f-2b42-4cde-8784-0fb0fe3fb2be","ios":"levelo://app?vid=b6821e5f-2b42-4cde-8784-0fb0fe3fb2be"},"vehicle_type_id":"4","last_reported":1745007068,"current_range_meters":15200,"station_id":"ce4bhih2rcd13ifvqfr0","pricing_plan_id":"cebpf4jnsgd1na2vs0mg"},{"bike_id":"26277edd-362a-40e2-be81-122d264bb4c5","system_id":"levelo_inurba_marseille","lat":43.2943,"lon":5.38613,"is_reserved":false,"is_disabled":false,"rental_uris":{"android":"levelo://app?vid=26277edd-362a-40e2-be81-122d264bb4c5","ios":"levelo://app?vid=26277edd-362a-40e2-be81-122d264bb4c5"},"vehicle_type_id":"4","last_reported":1745007068,"current_range_meters":15200,"station_id":"ce4bh2h2rcd13ifvqdh0","pricing_plan_id":"cebpf4jnsgd1na2vs0mg"},{"bike_id":"5dafd871-e8b4-4733-ba0f-848e38174d77","system_id":"levelo_inurba_marseille","lat":43.29258,"lon":5.409,"is_reserved":false,"is_disabled":false,"rental_uris":{"android":"levelo://app?vid=5dafd871-e8b4-4733-ba0f-848e38174d77","ios":"levelo://app?vid=5dafd871-e8b4-4733-ba0f-848e38174d77"},"vehicle_type_id":"4","last_reported":1745007068,"current_range_meters":15200,"station_id":"ce4bh192rcd13ifvqdc0","pricing_plan_id":"cebpf4jnsgd1na2vs0mg"},{"bike_id":"81c2c66c-6a66-440c-823f-ef40a461aff9","system_id":"levelo_inurba_marseille","lat":43.251067,"lon":5.4033,"is_reserved":false,"is_disabled":false,"rental_uris":{"android":"levelo://app?vid=81c2c66c-6a66-440c-823f-ef40a461aff9","ios":"levelo://app?vid=81c2c66c-6a66-440c-823f-ef40a461aff9"},"vehicle_type_id":"4","last_reported":1745007068,"current_range_meters":15200,"station_id":"ce4bhlh2rcd13ifvqgig","pricing_plan_id":"cebpf4jnsgd1na2vs0mg"},{"bike_id":"33302dfc-2d96-4dc3-97f3-23a6e00fbb6b","system_id":"levelo_inurba_marseille","lat":43.29419,"lon":5.38638,"is_reserved":false,"is_disabled":false,"rental_uris":{"android":"levelo://app?vid=33302dfc-2d96-4dc3-97f3-23a6e00fbb6b","ios":"levelo://app?vid=33302dfc-2d96-4dc3-97f3-23a6e00fbb6b"},"vehicle_type_id":"4","last_reported":1745007068,"current_range_meters":16000,"station_id":"ce4bh2h2rcd13ifvqdh0","pricing_plan_id":"cebpf4jnsgd1na2vs0mg"},{"bike_id":"10750f8d-2c15-4e4e-bad5-e3acf86b7303","system_id":"levelo_inurba_marseille","lat":43.29432,"lon":5.38592,"is_reserved":false,"is_disabled":false,"rental_uris":{"android":"levelo://app?vid=10750f8d-2c15-4e4e-bad5-e3acf86b7303","ios":"levelo://app?vid=10750f8d-2c15-4e4e-bad5-e3acf86b7303"},"vehicle_type_id":"4","last_reported":1745007068,"current_range_meters":16000,"station_id":"ce4bh2h2rcd13ifvqdh0","pricing_plan_id":"cebpf4jnsgd1na2vs0mg"},{"bike_id":"6c367d62-dcab-4497-99df-1c6f89556fe8","system_id":"levelo_inurba_marseille","lat":43.23183,"lon":5.39997,"is_reserved":false,"is_disabled":false,"rental_uris":{"android":"levelo://app?vid=6c367d62-dcab-4497-99df-1c6f89556fe8","ios":"levelo://app?vid=6c367d62-dcab-4497-99df-1c6f89556fe8"},"vehicle_type_id":"4","last_reported":1745007068,"current_range_meters":16000,"station_id":"ce4bhn12rcd13ifvqgqg","pricing_plan_id":"cebpf4jnsgd1na2vs0mg"},{"bike_id":"b6c3499a-415c-4534-9db3-37550ecba7e2","system_id":"levelo_inurba_marseille","lat":43.24172,"lon":5.36405,"is_reserved":false,"is_disabled":false,"rental_uris":{"android":"levelo://app?vid=b6c3499a-415c-4534-9db3-37550ecba7e2","ios":"levelo://app?vid=b6c3499a-415c-4534-9db3-37550ecba7e2"},"vehicle_type_id":"4","last_reported":1745007068,"current_range_meters":16000,"station_id":"cpo36qri1sfpv3e86is0","pricing_plan_id":"cebpf4jnsgd1na2vs0mg"},{"bike_id":"7ecb74f0-1b60-499f-a9b5-a9a623c1b5d2","system_id":"levelo_inurba_marseille","lat":43.2926,"lon":5.38438,"is_reserved":false,"is_disabled":false,"rental_uris":{"android":"levelo://app?vid=7ecb74f0-1b60-499f-a9b5-a9a623c1b5d2","ios":"levelo://app?vid=7ecb74f0-1b60-499f-a9b5-a9a623c1b5d2"},"vehicle_type_id":"4","last_reported":1745007068,"current_range_meters":16000,"station_id":"ce4bh692rcd13ifvqea0","pricing_plan_id":"cebpf4jnsgd1na2vs0mg"},{"bike_id":"fdcf8461-9126-45cd-96d4-f0f9a7c23549","system_id":"levelo_inurba_marseille","lat":43.29413,"lon":5.38643,"is_reserved":false,"is_disabled":false,"rental_uris":{"android":"levelo://app?vid=fdcf8461-9126-45cd-96d4-f0f9a7c23549","ios":"levelo://app?vid=fdcf8461-9126-45cd-96d4-f0f9a7c23549"},"vehicle_type_id":"4","last_reported":1745007068,"current_range_meters":16000,"station_id":"ce4bh2h2rcd13ifvqdh0","pricing_plan_id":"cebpf4jnsgd1na2vs0mg"},{"bike_id":"745eb328-cde3-4e08-9f6c-067dede7c586","system_id":"levelo_inurba_marseille","lat":43.29157,"lon":5.37971,"is_reserved":false,"is_disabled":false,"rental_uris":{"android":"levelo://app?vid=745eb328-cde3-4e08-9f6c-067dede7c586","ios":"levelo://app?vid=745eb328-cde3-4e08-9f6c-067dede7c586"},"vehicle_type_id":"4","last_reported":1745007068,"current_range_meters":16000,"station_id":"","pricing_plan_id":"cebpf4jnsgd1na2vs0mg"},{"bike_id":"7efb1774-894c-4d01-bc98-14c023ebd38a","system_id":"levelo_inurba_marseille","lat":43.300972,"lon":5.390811,"is_reserved":false,"is_disabled":false,"rental_uris":{"android":"levelo://app?vid=7efb1774-894c-4d01-bc98-14c023ebd38a","ios":"levelo://app?vid=7efb1774-894c-4d01-bc98-14c023ebd38a"},"vehicle_type_id":"4","last_reported":1745007068,"current_range_meters":16000,"station_id":"ce4bh192rcd13ifvqdb0","pricing_plan_id":"cebpf4jnsgd1na2vs0mg"},{"bike_id":"2ca1a0d2-de2f-4ac9-80f2-106cbc875413","system_id":"levelo_inurba_marseille","lat":43.32375,"lon":5.38875,"is_reserved":false,"is_disabled":false,"rental_uris":{"android":"levelo://app?vid=2ca1a0d2-de2f-4ac9-80f2-106cbc875413","ios":"levelo://app?vid=2ca1a0d2-de2f-4ac9-80f2-106cbc875413"},"vehicle_type_id":"4","last_reported":1745007068,"current_range_meters":16000,"station_id":"ce4bhqp2rcd13ifvqhog","pricing_plan_id":"cebpf4jnsgd1na2vs0mg"},{"bike_id":"e2104665-0928-4d65-a1ba-6d0d513bf18a","system_id":"levelo_inurba_marseille","lat":43.281559,"lon":5.426394,"is_reserved":false,"is_disabled":false,"rental_uris":{"android":"levelo://app?vid=e2104665-0928-4d65-a1ba-6d0d513bf18a","ios":"levelo://app?vid=e2104665-0928-4d65-a1ba-6d0d513bf18a"},"vehicle_type_id":"4","last_reported":1745007068,"current_range_meters":16000,"station_id":"ce4bhnh2rcd13ifvqgug","pricing_plan_id":"cebpf4jnsgd1na2vs0mg"},{"bike_id":"3312825d-3b66-4b2f-ab38-f7c8d3bfad42","system_id":"levelo_inurba_marseille","lat":43.29418,"lon":5.38637,"is_reserved":false,"is_disabled":false,"rental_uris":{"android":"levelo://app?vid=3312825d-3b66-4b2f-ab38-f7c8d3bfad42","ios":"levelo://app?vid=3312825d-3b66-4b2f-ab38-f7c8d3bfad42"},"vehicle_type_id":"4","last_reported":1745007068,"current_range_meters":16000,"station_id":"ce4bh2h2rcd13ifvqdh0","pricing_plan_id":"cebpf4jnsgd1na2vs0mg"},{"bike_id":"657042ad-ed32-4518-aaf9-93c39f8afd69","system_id":"levelo_inurba_marseille","lat":43.29419,"lon":5.38623,"is_reserved":false,"is_disabled":false,"rental_uris":{"android":"levelo://app?vid=657042ad-ed32-4518-aaf9-93c39f8afd69","ios":"levelo://app?vid=657042ad-ed32-4518-aaf9-93c39f8afd69"},"vehicle_type_id":"4","last_reported":1745007068,"current_range_meters":16000,"station_id":"ce4bh2h2rcd13ifvqdh0","pricing_plan_id":"cebpf4jnsgd1na2vs0mg"},{"bike_id":"c8db4898-7a08-4cf5-9f2a-5e806af18e24","system_id":"levelo_inurba_marseille","lat":43.29418,"lon":5.38627,"is_reserved":false,"is_disabled":false,"rental_uris":{"android":"levelo://app?vid=c8db4898-7a08-4cf5-9f2a-5e806af18e24","ios":"levelo://app?vid=c8db4898-7a08-4cf5-9f2a-5e806af18e24"},"vehicle_type_id":"4","last_reported":1745007068,"current_range_meters":16000,"station_id":"ce4bh2h2rcd13ifvqdh0","pricing_plan_id":"cebpf4jnsgd1na2vs0mg"},{"bike_id":"15041d59-eae0-4cb4-b75b-3f6e9765e574","system_id":"levelo_inurba_marseille","lat":43.30291,"lon":5.36904,"is_reserved":false,"is_disabled":false,"rental_uris":{"android":"levelo://app?vid=15041d59-eae0-4cb4-b75b-3f6e9765e574","ios":"levelo://app?vid=15041d59-eae0-4cb4-b75b-3f6e9765e574"},"vehicle_type_id":"4","last_reported":1745007068,"current_range_meters":16400,"station_id":"ce4bgqh2rcd13ifvqc5g","pricing_plan_id":"cebpf4jnsgd1na2vs0mg"},{"bike_id":"ce3fee90-b321-4105-971f-27349ec005fb","system_id":"levelo_inurba_marseille","lat":43.22961,"lon":5.35378,"is_reserved":false,"is_disabled":false,"rental_uris":{"android":"levelo://app?vid=ce3fee90-b321-4105-971f-27349ec005fb","ios":"levelo://app?vid=ce3fee90-b321-4105-971f-27349ec005fb"},"vehicle_type_id":"4","last_reported":1745007068,"current_range_meters":16400,"station_id":"cpo3532slgdg3j2ikp40","pricing_plan_id":"cebpf4jnsgd1na2vs0mg"},{"bike_id":"bf71340b-9e94-492b-85ca-b4453004b630","system_id":"levelo_inurba_marseille","lat":43.29256,"lon":5.3844,"is_reserved":false,"is_disabled":false,"rental_uris":{"android":"levelo://app?vid=bf71340b-9e94-492b-85ca-b4453004b630","ios":"levelo://app?vid=bf71340b-9e94-492b-85ca-b4453004b630"},"vehicle_type_id":"4","last_reported":1745007068,"current_range_meters":16400,"station_id":"ce4bh692rcd13ifvqea0","pricing_plan_id":"cebpf4jnsgd1na2vs0mg"},{"bike_id":"73e4ce8d-df8d-4498-814b-884d5f79b34d","system_id":"levelo_inurba_marseille","lat":43.29274,"lon":5.40114,"is_reserved":false,"is_disabled":false,"rental_uris":{"android":"levelo://app?vid=73e4ce8d-df8d-4498-814b-884d5f79b34d","ios":"levelo://app?vid=73e4ce8d-df8d-4498-814b-884d5f79b34d"},"vehicle_type_id":"4","last_reported":1745007068,"current_range_meters":16400,"station_id":"ce4bh312rcd13ifvqdk0","pricing_plan_id":"cebpf4jnsgd1na2vs0mg"},{"bike_id":"0f0af146-8cfe-44e0-aff9-f53210040b9b","system_id":"levelo_inurba_marseille","lat":43.30304,"lon":5.36889,"is_reserved":false,"is_disabled":false,"rental_uris":{"android":"levelo://app?vid=0f0af146-8cfe-44e0-aff9-f53210040b9b","ios":"levelo://app?vid=0f0af146-8cfe-44e0-aff9-f53210040b9b"},"vehicle_type_id":"4","last_reported":1745007068,"current_range_meters":16400,"station_id":"ce4bgqh2rcd13ifvqc5g","pricing_plan_id":"cebpf4jnsgd1na2vs0mg"},{"bike_id":"5b156d38-269f-4793-99d9-a688f2a62462","system_id":"levelo_inurba_marseille","lat":43.29261,"lon":5.37629,"is_reserved":false,"is_disabled":false,"rental_uris":{"android":"levelo://app?vid=5b156d38-269f-4793-99d9-a688f2a62462","ios":"levelo://app?vid=5b156d38-269f-4793-99d9-a688f2a62462"},"vehicle_type_id":"4","last_reported":1745007068,"current_range_meters":16400,"station_id":"ce4bgi12rcd13ifvqb80","pricing_plan_id":"cebpf4jnsgd1na2vs0mg"},{"bike_id":"b91b1fba-b95d-48a3-8bdd-ad86ec5c7b06","system_id":"levelo_inurba_marseille","lat":43.29421,"lon":5.38637,"is_reserved":false,"is_disabled":false,"rental_uris":{"android":"levelo://app?vid=b91b1fba-b95d-48a3-8bdd-ad86ec5c7b06","ios":"levelo://app?vid=b91b1fba-b95d-48a3-8bdd-ad86ec5c7b06"},"vehicle_type_id":"4","last_reported":1745007068,"current_range_meters":16400,"station_id":"ce4bh2h2rcd13ifvqdh0","pricing_plan_id":"cebpf4jnsgd1na2vs0mg"},{"bike_id":"0d0b36c5-1e05-4fc6-b15b-9ba8bfdd4e84","system_id":"levelo_inurba_marseille","lat":43.2988,"lon":5.38903,"is_reserved":false,"is_disabled":false,"rental_uris":{"android":"levelo://app?vid=0d0b36c5-1e05-4fc6-b15b-9ba8bfdd4e84","ios":"levelo://app?vid=0d0b36c5-1e05-4fc6-b15b-9ba8bfdd4e84"},"vehicle_type_id":"4","last_reported":1745007068,"current_range_meters":16400,"station_id":"ce4bh392rcd13ifvqdl0","pricing_plan_id":"cebpf4jnsgd1na2vs0mg"},