{"last_updated":1744452559,"ttl":60,"version":"2.2","data":{"bikes":[{"bike_id":"aaf0bea2-a073-4f6c-a7b6-3956f84fd9d6","system_id":"levelo_inurba_marseille","lat":43.3017,"lon":5.36773,"is_reserved":false,"is_disabled":false,"rental_uris":{"android":"levelo://app?vid=aaf0bea2-a073-4f6c-a7b6-3956f84fd9d6","ios":"levelo://app?vid=aaf0bea2-a073-4f6c-a7b6-3956f84fd9d6"},"vehicle_type_id":"4","last_reported":1744452559,"current_range_meters":2800,"station_id":"","pricing_plan_id":"cebpf4jnsgd1na2vs0mg"},{"bike_id":"c365b0d4-f2e2-454a-ab18-80ee22dfeb41","system_id":"levelo_inurba_marseille","lat":43.22936,"lon":5.35375,"is_reserved":false,"is_disabled":false,"rental_uris":{"android":"levelo://app?vid=c365b0d4-f2e2-454a-ab18-80ee22dfeb41","ios":"levelo://app?vid=c365b0d4-f2e2-454a-ab18-80ee22dfeb41"},"vehicle_type_id":"4","last_reported":1744452559,"current_range_meters":3200,"station_id":"cpo3532slgdg3j2ikp40","pricing_plan_id":"cebpf4jnsgd1na2vs0mg"},{"bike_id":"ea628b22-b6a7-44f1-a072-501247a5d1a1","system_id":"levelo_inurba_marseille","lat":43.29901,"lon":5.43668,"is_reserved":false,"is_disabled":false,"rental_uris":{"android":"levelo://app?vid=ea628b22-b6a7-44f1-a072-501247a5d1a1","ios":"levelo://app?vid=ea628b22-b6a7-44f1-a072-501247a5d1a1"},"vehicle_type_id":"4","last_reported":1744452559,"current_range_meters":3200,"station_id":"ce4bhpp2rcd13ifvqhfg","pricing_plan_id":"cebpf4jnsgd1na2vs0mg"},{"bike_id":"cc469b23-8a12-438b-a3d8-d55a8efe2f1d","system_id":"levelo_inurba_marseille","lat":43.24393,"lon":5.37054,"is_reserved":false,"is_disabled":false,"rental_uris":{"android":"levelo://app?vid=cc469b23-8a12-438b-a3d8-d55a8efe2f1d","ios":"levelo://app?vid=cc469b23-8a12-438b-a3d8-d55a8efe2f1d"},"vehicle_type_id":"4","last_reported":1744452559,"current_range_meters":3600,"station_id":"ce4bhhh2rcd13ifvqfk0","pricing_plan_id":"cebpf4jnsgd1na2vs0mg"},{"bike_id":"7e908695-382f-4712-9d56-e944a426cc84","system_id":"levelo_inurba_marseille","lat":43.29303,"lon":5.37172,"is_reserved":false,"is_disabled":false,"rental_uris":{"android":"levelo://app?vid=7e908695-382f-4712-9d56-e944a426cc84","ios":"levelo://app?vid=7e908695-382f-4712-9d56-e944a426cc84"},"vehicle_type_id":"4","last_reported":1744452559,"current_range_meters":3600,"station_id":"ce4bgh92rcd13ifvqb40","pricing_plan_id":"cebpf4jnsgd1na2vs0mg"},{"bike_id":"a7b22e2e-0c80-4693-ad23-d6caf4917341","system_id":"levelo_inurba_marseille","lat":43.3087,"lon":5.3734,"is_reserved":false,"is_disabled":false,"rental_uris":{"android":"levelo://app?vid=a7b22e2e-0c80-4693-ad23-d6caf4917341","ios":"levelo://app?vid=a7b22e2e-0c80-4693-ad23-d6caf4917341"},"vehicle_type_id":"4","last_reported":1744452559,"current_range_meters":3600,"station_id":"","pricing_plan_id":"cebpf4jnsgd1na2vs0mg"},{"bike_id":"d0b18bd4-bc95-4209-9ec1-962389636723","system_id":"levelo_inurba_marseille","lat":43.25569,"lon":5.38233,"is_reserved":false,"is_disabled":false,"rental_uris":{"android":"levelo://app?vid=d0b18bd4-bc95-4209-9ec1-962389636723","ios":"levelo://app?vid=d0b18bd4-bc95-4209-9ec1-962389636723"},"vehicle_type_id":"4","last_reported":1744452559,"current_range_meters":3600,"station_id":"ce4bhih2rcd13ifvqfs0","pricing_plan_id":"cebpf4jnsgd1na2vs0mg"},{"bike_id":"62c1f836-7b45-44f7-9721-a260943a8081","system_id":"levelo_inurba_marseille","lat":43.274931,"lon":5.424655,"is_reserved":false,"is_disabled":false,"rental_uris":{"android":"levelo://app?vid=62c1f836-7b45-44f7-9721-a260943a8081","ios":"levelo://app?vid=62c1f836-7b45-44f7-9721-a260943a8081"},"vehicle_type_id":"4","last_reported":1744452559,"current_range_meters":4000,"station_id":"ce4bhn92rcd13ifvqgrg","pricing_plan_id":"cebpf4jnsgd1na2vs0mg"},{"bike_id":"7bd9729e-0f42-40fa-a285-562b5b6c898b","system_id":"levelo_inurba_marseille","lat":43.21188,"lon":5.35075,"is_reserved":false,"is_disabled":false,"rental_uris":{"android":"levelo://app?vid=7bd9729e-0f42-40fa-a285-562b5b6c898b","ios":"levelo://app?vid=7bd9729e-0f42-40fa-a285-562b5b6c898b"},"vehicle_type_id":"4","last_reported":1744452559,"current_range_meters":4400,"station_id":"st_cvj6sg6p6f1abm77japg","pricing_plan_id":"cebpf4jnsgd1na2vs0mg"},{"bike_id":"8ee58055-72b1-4d18-93a4-2e01bf83fc60","system_id":"levelo_inurba_marseille","lat":43.26212,"lon":5.37439,"is_reserved":false,"is_disabled":false,"rental_uris":{"android":"levelo://app?vid=8ee58055-72b1-4d18-93a4-2e01bf83fc60","ios":"levelo://app?vid=8ee58055-72b1-4d18-93a4-2e01bf83fc60"},"vehicle_type_id":"4","last_reported":1744452559,"current_range_meters":4800,"station_id":"ce4bhgp2rcd13ifvqfc0","pricing_plan_id":"cebpf4jnsgd1na2vs0mg"},{"bike_id":"5fdd3298-d376-47aa-b5b3-d838ecbf8db4","system_id":"levelo_inurba_marseille","lat":43.279937,"lon":5.40035,"is_reserved":false,"is_disabled":false,"rental_uris":{"android":"levelo://app?vid=5fdd3298-d376-47aa-b5b3-d838ecbf8db4","ios":"levelo://app?vid=5fdd3298-d376-47aa-b5b3-d838ecbf8db4"},"vehicle_type_id":"4","last_reported":1744452559,"current_range_meters":4800,"station_id":"ce4bho92rcd13ifvqh4g","pricing_plan_id":"cebpf4jnsgd1na2vs0mg"},{"bike_id":"0650729a-cac1-4818-93d8-8ab80fcef31f","system_id":"levelo_inurba_marseille","lat":43.30793,"lon":5.37645,"is_reserved":false,"is_disabled":false,"rental_uris":{"android":"levelo://app?vid=0650729a-cac1-4818-93d8-8ab80fcef31f","ios":"levelo://app?vid=0650729a-cac1-4818-93d8-8ab80fcef31f"},"vehicle_type_id":"4","last_reported":1744452559,"current_range_meters":4800,"station_id":"ce4bgv92rcd13ifvqcq0","pricing_plan_id":"cebpf4jnsgd1na2vs0mg"},{"bike_id":"984bb2aa-d82a-4281-90f1-1529bbc61000","system_id":"levelo_inurba_marseille","lat":43.29917,"lon":5.39262,"is_reserved":false,"is_disabled":false,"rental_uris":{"android":"levelo://app?vid=984bb2aa-d82a-4281-90f1-1529bbc61000","ios":"levelo://app?vid=984bb2aa-d82a-4281-90f1-1529bbc61000"},"vehicle_type_id":"4","last_reported":1744452559,"current_range_meters":4800,"station_id":"","pricing_plan_id":"cebpf4jnsgd1na2vs0mg"},{"bike_id":"457be3cf-e1e1-4d11-8d7c-377dc0cb03e9","system_id":"levelo_inurba_marseille","lat":43.30882,"lon":5.36832,"is_reserved":false,"is_disabled":false,"rental_uris":{"android":"levelo://app?vid=457be3cf-e1e1-4d11-8d7c-377dc0cb03e9","ios":"levelo://app?vid=457be3cf-e1e1-4d11-8d7c-377dc0cb03e9"},"vehicle_type_id":"4","last_reported":1744452559,"current_range_meters":4800,"station_id":"ce4bgn92rcd13ifvqbvg","pricing_plan_id":"cebpf4jnsgd1na2vs0mg"},{"bike_id":"da0b2f54-1479-46c8-bead-95c5ff4f40f6","system_id":"levelo_inurba_marseille","lat":43.2841,"lon":5.34979,"is_reserved":false,"is_disabled":false,"rental_uris":{"android":"levelo://app?vid=da0b2f54-1479-46c8-bead-95c5ff4f40f6","ios":"levelo://app?vid=da0b2f54-1479-46c8-bead-95c5ff4f40f6"},"vehicle_type_id":"4","last_reported":1744452559,"current_range_meters":4800,"station_id":"ce4bhbh2rcd13ifvqepg","pricing_plan_id":"cebpf4jnsgd1na2vs0mg"},{"bike_id":"a9f344a9-b5c4-4c6f-adc4-6177f6c8159a","system_id":"levelo_inurba_marseille","lat":43.32831,"lon":5.39761,"is_reserved":false,"is_disabled":false,"rental_uris":{"android":"levelo://app?vid=a9f344a9-b5c4-4c6f-adc4-6177f6c8159a","ios":"levelo://app?vid=a9f344a9-b5c4-4c6f-adc4-6177f6c8159a"},"vehicle_type_id":"4","last_reported":1744452559,"current_range_meters":5600,"station_id":"","pricing_plan_id":"cebpf4jnsgd1na2vs0mg"},{"bike_id":"eab6cbfa-cb8e-47d7-b0d6-226ab7facec7","system_id":"levelo_inurba_marseille","lat":43.3172,"lon":5.42399,"is_reserved":false,"is_disabled":true,"rental_uris":{"android":"levelo://app?vid=eab6cbfa-cb8e-47d7-b0d6-226ab7facec7","ios":"levelo://app?vid=eab6cbfa-cb8e-47d7-b0d6-226ab7facec7"},"vehicle_type_id":"4","last_reported":1744452559,"current_range_meters":5600,"station_id":"ce4bhp92rcd13ifvqhbg","pricing_plan_id":"cebpf4jnsgd1na2vs0mg"},{"bike_id":"03b45e11-3b8d-4214-a166-8cb06f138146","system_id":"levelo_inurba_marseille","lat":43.2318,"lon":5.39989,"is_reserved":false,"is_disabled":false,"rental_uris":{"android":"levelo://app?vid=03b45e11-3b8d-4214-a166-8cb06f138146","ios":"levelo://app?vid=03b45e11-3b8d-4214-a166-8cb06f138146"},"vehicle_type_id":"4","last_reported":1744452559,"current_range_meters":6000,"station_id":"ce4bhn12rcd13ifvqgqg","pricing_plan_id":"cebpf4jnsgd1na2vs0mg"},{"bike_id":"d167bbc4-6425-4ba1-ae21-afaabfa4cfc1","system_id":"levelo_inurba_marseille","lat":43.2953,"lon":5.38539,"is_reserved":false,"is_disabled":false,"rental_uris":{"android":"levelo://app?vid=d167bbc4-6425-4ba1-ae21-afaabfa4cfc1","ios":"levelo://app?vid=d167bbc4-6425-4ba1-ae21-afaabfa4cfc1"},"vehicle_type_id":"4","last_reported":1744452559,"current_range_meters":6000,"station_id":"ce4bgih2rcd13ifvqba0","pricing_plan_id":"cebpf4jnsgd1na2vs0mg"},{"bike_id":"a5becb92-263b-45ce-91a9-29d6ac7446fc","system_id":"levelo_inurba_marseille","lat":43.32356,"lon":5.40605,"is_reserved":false,"is_disabled":false,"rental_uris":{"android":"levelo://app?vid=a5becb92-263b-45ce-91a9-29d6ac7446fc","ios":"levelo://app?vid=a5becb92-263b-45ce-91a9-29d6ac7446fc"},"vehicle_type_id":"4","last_reported":1744452559,"current_range_meters":6000,"station_id":"ce4bhq92rcd13ifvqhjg","pricing_plan_id":"cebpf4jnsgd1na2vs0mg"},{"bike_id":"926fb0a7-820c-4f62-bd23-584e294815aa","system_id":"levelo_inurba_marseille","lat":43.24172,"lon":5.3974,"is_reserved":false,"is_disabled":false,"rental_uris":{"android":"levelo://app?vid=926fb0a7-820c-4f62-bd23-584e294815aa","ios":"levelo://app?vid=926fb0a7-820c-4f62-bd23-584e294815aa"},"vehicle_type_id":"4","last_reported":1744452559,"current_range_meters":6000,"station_id":"ce4bhn12rcd13ifvqgpg","pricing_plan_id":"cebpf4jnsgd1na2vs0mg"},{"bike_id":"b04f1536-b3a6-4ea1-8de9-10a4a27b0d36","system_id":"levelo_inurba_marseille","lat":43.30642,"lon":5.40098,"is_reserved":false,"is_disabled":false,"rental_uris":{"android":"levelo://app?vid=b04f1536-b3a6-4ea1-8de9-10a4a27b0d36","ios":"levelo://app?vid=b04f1536-b3a6-4ea1-8de9-10a4a27b0d36"},"vehicle_type_id":"4","last_reported":1744452559,"current_range_meters":6400,"station_id":"ce4bh112rcd13ifvqda0","pricing_plan_id":"cebpf4jnsgd1na2vs0mg"},{"bike_id":"dee958f8-d40c-446d-a76e-03c7e8652123","system_id":"levelo_inurba_marseille","lat":43.253349,"lon":5.380594,"is_reserved":false,"is_disabled":false,"rental_uris":{"android":"levelo://app?vid=dee958f8-d40c-446d-a76e-03c7e8652123","ios":"levelo://app?vid=dee958f8-d40c-446d-a76e-03c7e8652123"},"vehicle_type_id":"4","last_reported":1744452559,"current_range_meters":6800,"station_id":"ce4bhbp2rcd13ifvqerg","pricing_plan_id":"cebpf4jnsgd1na2vs0mg"},{"bike_id":"f4d0fd3a-2338-477f-ad15-0dbf3cd4b897","system_id":"levelo_inurba_marseille","lat":43.28616,"lon":5.35102,"is_reserved":false,"is_disabled":false,"rental_uris":{"android":"levelo://app?vid=f4d0fd3a-2338-477f-ad15-0dbf3cd4b897","ios":"levelo://app?vid=f4d0fd3a-2338-477f-ad15-0dbf3cd4b897"},"vehicle_type_id":"4","last_reported":1744452559,"current_range_meters":6800,"station_id":"ce4bhch2rcd13ifvqeug","pricing_plan_id":"cebpf4jnsgd1na2vs0mg"},{"bike_id":"5b837dda-fd54-4a7c-a881-61ff9f966908","system_id":"levelo_inurba_marseille","lat":43.29195,"lon":5.39317,"is_reserved":false,"is_disabled":false,"rental_uris":{"android":"levelo://app?vid=5b837dda-fd54-4a7c-a881-61ff9f966908","ios":"levelo://app?vid=5b837dda-fd54-4a7c-a881-61ff9f966908"},"vehicle_type_id":"4","last_reported":1744452559,"current_range_meters":6800,"station_id":"ce4bh192rcd13ifvqdd0","pricing_plan_id":"cebpf4jnsgd1na2vs0mg"},{"bike_id":"9211da60-90d5-47a8-b429-7d9858f63e00","system_id":"levelo_inurba_marseille","lat":43.251229,"lon":5.403303,"is_reserved":false,"is_disabled":false,"rental_uris":{"android":"levelo://app?vid=9211da60-90d5-47a8-b429-7d9858f63e00","ios":"levelo://app?vid=9211da60-90d5-47a8-b429-7d9858f63e00"},"vehicle_type_id":"4","last_reported":1744452559,"current_range_meters":6800,"station_id":"ce4bhlh2rcd13ifvqgig","pricing_plan_id":"cebpf4jnsgd1na2vs0mg"},{"bike_id":"e20a4492-6da4-4ef9-bb7d-c728a3fa14d8","system_id":"levelo_inurba_marseille","lat":43.27425,"lon":5.39417,"is_reserved":false,"is_disabled":false,"rental_uris":{"android":"levelo://app?vid=e20a4492-6da4-4ef9-bb7d-c728a3fa14d8","ios":"levelo://app?vid=e20a4492-6da4-4ef9-bb7d-c728a3fa14d8"},"vehicle_type_id":"4","last_reported":1744452559,"current_range_meters":6800,"station_id":"ce4bhdp2rcd13ifvqf20","pricing_plan_id":"cebpf4jnsgd1na2vs0mg"},{"bike_id":"660789cf-9835-4c97-94c7-680fb3aa2807","system_id":"levelo_inurba_marseille","lat":43.30648,"lon":5.40065,"is_reserved":false,"is_disabled":false,"rental_uris":{"android":"levelo://app?vid=660789cf-9835-4c97-94c7-680fb3aa2807","ios":"levelo://app?vid=660789cf-9835-4c97-94c7-680fb3aa2807"},"vehicle_type_id":"4","last_reported":1744452559,"current_range_meters":6800,"station_id":"ce4bh112rcd13ifvqda0","pricing_plan_id":"cebpf4jnsgd1na2vs0mg"},{"bike_id":"5cff7f8e-346b-403b-b53d-5967f5792985","system_id":"levelo_inurba_marseille","lat":43.284434,"lon":5.392056,"is_reserved":false,"is_disabled":false,"rental_uris":{"android":"levelo://app?vid=5cff7f8e-346b-403b-b53d-5967f5792985","ios":"levelo://app?vid=5cff7f8e-346b-403b-b53d-5967f5792985"},"vehicle_type_id":"4","last_reported":1744452559,"current_range_meters":6800,"station_id":"ce4bhoh2rcd13ifvqh5g","pricing_plan_id":"cebpf4jnsgd1na2vs0mg"},{"bike_id":"820eae00-4001-4b93-98cd-bfbd5fc6ebfe","system_id":"levelo_inurba_marseille","lat":43.26814,"lon":5.40234,"is_reserved":false,"is_disabled":false,"rental_uris":{"android":"levelo://app?vid=820eae00-4001-4b93-98cd-bfbd5fc6ebfe","ios":"levelo://app?vid=820eae00-4001-4b93-98cd-bfbd5fc6ebfe"},"vehicle_type_id":"4","last_reported":1744452559,"current_range_meters":6800,"station_id":"ce501612rcd8frsf0b60","pricing_plan_id":"cebpf4jnsgd1na2vs0mg"},{"bike_id":"b89d9cc0-efb2-42cb-90af-7e273a7f798f","system_id":"levelo_inurba_marseille","lat":43.2737,"lon":5.36253,"is_reserved":false,"is_disabled":false,"rental_uris":{"android":"levelo://app?vid=b89d9cc0-efb2-42cb-90af-7e273a7f798f","ios":"levelo://app?vid=b89d9cc0-efb2-42cb-90af-7e273a7f798f"},"vehicle_type_id":"4","last_reported":1744452559,"current_range_meters":6800,"station_id":"ce4bhbh2rcd13ifvqeo0","pricing_plan_id":"cebpf4jnsgd1na2vs0mg"},{"bike_id":"8b4c8d12-5212-410c-bdd4-63122234f668","system_id":"levelo_inurba_marseille","lat":43.22934,"lon":5.35374,"is_reserved":false,"is_disabled":false,"rental_uris":{"android":"levelo://app?vid=8b4c8d12-5212-410c-bdd4-63122234f668","ios":"levelo://app?vid=8b4c8d12-5212-410c-bdd4-63122234f668"},"vehicle_type_id":"4","last_reported":1744452559,"current_range_meters":7200,"station_id":"cpo3532slgdg3j2ikp40","pricing_plan_id":"cebpf4jnsgd1na2vs0mg"},{"bike_id":"6d1f80b1-80e0-4012-99d1-3f8172cadb63","system_id":"levelo_inurba_marseille","lat":43.2417,"lon":5.36407,"is_reserved":false,"is_disabled":false,"rental_uris":{"android":"levelo://app?vid=6d1f80b1-80e0-4012-99d1-3f8172cadb63","ios":"levelo://app?vid=6d1f80b1-80e0-4012-99d1-3f8172cadb63"},"vehicle_type_id":"4","last_reported":1744452559,"current_range_meters":7200,"station_id":"cpo36qri1sfpv3e86is0","pricing_plan_id":"cebpf4jnsgd1na2vs0mg"},{"bike_id":"2f71840e-b975-402c-b655-ced05316aafc","system_id":"levelo_inurba_marseille","lat":43.24802,"lon":5.37453,"is_reserved":false,"is_disabled":false,"rental_uris":{"android":"levelo://app?vid=2f71840e-b975-402c-b655-ced05316aafc","ios":"levelo://app?vid=2f71840e-b975-402c-b655-ced05316aafc"},"vehicle_type_id":"4","last_reported":1744452559,"current_range_meters":8000,"station_id":"ce4bhgh2rcd13ifvqfb0","pricing_plan_id":"cebpf4jnsgd1na2vs0mg"},{"bike_id":"e5dae428-a06a-4439-95ed-a919eee0300d","system_id":"levelo_inurba_marseille","lat":43.25498,"lon":5.37645,"is_reserved":false,"is_disabled":false,"rental_uris":{"android":"levelo://app?vid=e5dae428-a06a-4439-95ed-a919eee0300d","ios":"levelo://app?vid=e5dae428-a06a-4439-95ed-a919eee0300d"},"vehicle_type_id":"4","last_reported":1744452559,"current_range_meters":8000,"station_id":"ce4bhh12rcd13ifvqff0","pricing_plan_id":"cebpf4jnsgd1na2vs0mg"},{"bike_id":"94455896-0f19-4fae-bd72-9879f01fcd6e","system_id":"levelo_inurba_marseille","lat":43.29563,"lon":5.42269,"is_reserved":false,"is_disabled":true,"rental_uris":{"android":"levelo://app?vid=94455896-0f19-4fae-bd72-9879f01fcd6e","ios":"levelo://app?vid=94455896-0f19-4fae-bd72-9879f01fcd6e"},"vehicle_type_id":"4","last_reported":1744452559,"current_range_meters":8000,"station_id":"ce4bhph2rcd13ifvqhdg","pricing_plan_id":"cebpf4jnsgd1na2vs0mg"},{"bike_id":"7e287c76-4f19-4b6c-bb36-ea54c2b11237","system_id":"levelo_inurba_marseille","lat":43.32343,"lon":5.406157,"is_reserved":false,"is_disabled":false,"rental_uris":{"android":"levelo://app?vid=7e287c76-4f19-4b6c-bb36-ea54c2b11237","ios":"levelo://app?vid=7e287c76-4f19-4b6c-bb36-ea54c2b11237"},"vehicle_type_id":"4","last_reported":1744452559,"current_range_meters":8400,"station_id":"ce4bhq92rcd13ifvqhjg","pricing_plan_id":"cebpf4jnsgd1na2vs0mg"},{"bike_id":"b3134959-953f-452d-9fe5-d87502231946","system_id":"levelo_inurba_marseille","lat":43.231563,"lon":5.43712,"is_reserved":false,"is_disabled":false,"rental_uris":{"android":"levelo://app?vid=b3134959-953f-452d-9fe5-d87502231946","ios":"levelo://app?vid=b3134959-953f-452d-9fe5-d87502231946"},"vehicle_type_id":"4","last_reported":1744452559,"current_range_meters":8400,"station_id":"ce4bhmp2rcd13ifvqgog","pricing_plan_id":"cebpf4jnsgd1na2vs0mg"},{"bike_id":"cc83a7aa-57a1-4769-9137-8531613b4691","system_id":"levelo_inurba_marseille","lat":43.31252,"lon":5.37291,"is_reserved":false,"is_disabled":false,"rental_uris":{"android":"levelo://app?vid=cc83a7aa-57a1-4769-9137-8531613b4691","ios":"levelo://app?vid=cc83a7aa-57a1-4769-9137-8531613b4691"},"vehicle_type_id":"4","last_reported":1744452559,"current_range_meters":8400,"station_id":"","pricing_plan_id":"cebpf4jnsgd1na2vs0mg"},{"bike_id":"3ac73e63-1619-4c1b-a7d0-7311424e94ef","system_id":"levelo_inurba_marseille","lat":43.2898,"lon":5.37641,"is_reserved":false,"is_disabled":false,"rental_uris":{"android":"levelo://app?vid=3ac73e63-1619-4c1b-a7d0-7311424e94ef","ios":"levelo://app?vid=3ac73e63-1619-4c1b-a7d0-7311424e94ef"},"vehicle_type_id":"4","last_reported":1744452559,"current_range_meters":8400,"station_id":"","pricing_plan_id":"cebpf4jnsgd1na2vs0mg"},{"bike_id":"20eb53d5-dc7b-4fbe-a6da-7e0a348438c0","system_id":"levelo_inurba_marseille","lat":43.27912,"lon":5.39586,"is_reserved":false,"is_disabled":true,"rental_uris":{"android":"levelo://app?vid=20eb53d5-dc7b-4fbe-a6da-7e0a348438c0","ios":"levelo://app?vid=20eb53d5-dc7b-4fbe-a6da-7e0a348438c0"},"vehicle_type_id":"4","last_reported":1744452559,"current_range_meters":8400,"station_id":"ce4bhf92rcd13ifvqf40","pricing_plan_id":"cebpf4jnsgd1na2vs0mg"},{"bike_id":"3f08cc69-711e-4264-b923-68891203ffa4","system_id":"levelo_inurba_marseille","lat":43.32285,"lon":5.38243,"is_reserved":false,"is_disabled":false,"rental_uris":{"android":"levelo://app?vid=3f08cc69-711e-4264-b923-68891203ffa4","ios":"levelo://app?vid=3f08cc69-711e-4264-b923-68891203ffa4"},"vehicle_type_id":"4","last_reported":1744452559,"current_range_meters":8400,"station_id":"ce4bhr12rcd13ifvqhqg","pricing_plan_id":"cebpf4jnsgd1na2vs0mg"},{"bike_id":"e0487cbb-6aa7-4fe8-9aa7-7b771d7aec2a","system_id":"levelo_inurba_marseille","lat":43.26207,"lon":5.40398,"is_reserved":false,"is_disabled":false,"rental_uris":{"android":"levelo://app?vid=e0487cbb-6aa7-4fe8-9aa7-7b771d7aec2a","ios":"levelo://app?vid=e0487cbb-6aa7-4fe8-9aa7-7b771d7aec2a"},"vehicle_type_id":"4","last_reported":1744452559,"current_range_meters":8400,"station_id":"ce4bhmh2rcd13ifvqgmg","pricing_plan_id":"cebpf4jnsgd1na2vs0mg"},{"bike_id":"9221d150-2b7c-49b1-921d-0cd476018673","system_id":"levelo_inurba_marseille","lat":43.30094,"lon":5.37083,"is_reserved":false,"is_disabled":false,"rental_uris":{"android":"levelo://app?vid=9221d150-2b7c-49b1-921d-0cd476018673","ios":"levelo://app?vid=9221d150-2b7c-49b1-921d-0cd476018673"},"vehicle_type_id":"4","last_reported":1744452559,"current_range_meters":8400,"station_id":"","pricing_plan_id":"cebpf4jnsgd1na2vs0mg"},{"bike_id":"4614ddd5-5aac-42b1-b3d4-905343369df1","system_id":"levelo_inurba_marseille","lat":43.27951,"lon":5.41042,"is_reserved":false,"is_disabled":false,"rental_uris":{"android":"levelo://app?vid=4614ddd5-5aac-42b1-b3d4-905343369df1","ios":"levelo://app?vid=4614ddd5-5aac-42b1-b3d4-905343369df1"},"vehicle_type_id":"4","last_reported":1744452559,"current_range_meters":8400,"station_id":"ce4bhnp2rcd13ifvqh0g","pricing_plan_id":"cebpf4jnsgd1na2vs0mg"},{"bike_id":"1ac19b6a-4c6f-4d4d-901c-dd1716ba1b48","system_id":"levelo_inurba_marseille","lat":43.30972,"lon":5.40487,"is_reserved":false,"is_disabled":false,"rental_uris":{"android":"levelo://app?vid=1ac19b6a-4c6f-4d4d-901c-dd1716ba1b48","ios":"levelo://app?vid=1ac19b6a-4c6f-4d4d-901c-dd1716ba1b48"},"vehicle_type_id":"4","last_reported":1744452559,"current_range_meters":8800,"station_id":"","pricing_plan_id":"cebpf4jnsgd1na2vs0mg"},{"bike_id":"d6c423ad-693a-42e8-bcad-89087df9e68f","system_id":"levelo_inurba_marseille","lat":43.24183,"lon":5.39732,"is_reserved":false,"is_disabled":false,"rental_uris":{"android":"levelo://app?vid=d6c423ad-693a-42e8-bcad-89087df9e68f","ios":"levelo://app?vid=d6c423ad-693a-42e8-bcad-89087df9e68f"},"vehicle_type_id":"4","last_reported":1744452559,"current_range_meters":8800,"station_id":"ce4bhn12rcd13ifvqgpg","pricing_plan_id":"cebpf4jnsgd1na2vs0mg"},{"bike_id":"1b611bfd-b766-440f-b903-26b542e31024","system_id":"levelo_inurba_marseille","lat":43.28158,"lon":5.42641,"is_reserved":false,"is_disabled":false,"rental_uris":{"android":"levelo://app?vid=1b611bfd-b766-440f-b903-26b542e31024","ios":"levelo://app?vid=1b611bfd-b766-440f-b903-26b542e31024"},"vehicle_type_id":"4","last_reported":1744452559,"current_range_meters":8400,"station_id":"ce4bhnh2rcd13ifvqgug","pricing_plan_id":"cebpf4jnsgd1na2vs0mg"},{"bike_id":"173bc9a4-de98-43a8-b692-4fbb90439da0","system_id":"levelo_inurba_marseille","lat":43.32,"lon":5.38125,"is_reserved":false,"is_disabled":false,"rental_uris":{"android":"levelo://app?vid=173bc9a4-de98-43a8-b692-4fbb90439da0","ios":"levelo://app?vid=173bc9a4-de98-43a8-b692-4fbb90439da0"},"vehicle_type_id":"4","last_reported":1744452559,"current_range_meters":8800,"station_id":"ce4bhr12rcd13ifvqhpg","pricing_plan_id":"cebpf4jnsgd1na2vs0mg"},{"bike_id":"6d29fbbf-a174-4239-9f6f-94581947ee4c","system_id":"levelo_inurba_marseille","lat":43.29572,"lon":5.3998,"is_reserved":false,"is_disabled":false,"rental_uris":{"android":"levelo://app?vid=6d29fbbf-a174-4239-9f6f-94581947ee4c","ios":"levelo://app?vid=6d29fbbf-a174-4239-9f6f-94581947ee4c"},"vehicle_type_id":"4","last_reported":1744452559,"current_range_meters":8800,"station_id":"ce4bh312rcd13ifvqdj0","pricing_plan_id":"cebpf4jnsgd1na2vs0mg"},{"bike_id":"7df9962f-10ad-42e8-94ee-de85a0fdc308","system_id":"levelo_inurba_marseille","lat":43.31066,"lon":5.38352,"is_reserved":false,"is_disabled":false,"rental_uris":{"android":"levelo://app?vid=7df9962f-10ad-42e8-94ee-de85a0fdc308","ios":"levelo://app?vid=7df9962f-10ad-42e8-94ee-de85a0fdc308"},"vehicle_type_id":"4","last_reported":1744452559,"current_range_meters":8800,"station_id":"ce4bgv92rcd13ifvqcr0","pricing_plan_id":"cebpf4jnsgd1na2vs0mg"},{"bike_id":"80f5992c-b183-460d-8d1b-4c42a2b4d72f","system_id":"levelo_inurba_marseille","lat":43.2418,"lon":5.39736,"is_reserved":false,"is_disabled":false,"rental_uris":{"android":"levelo://app?vid=80f5992c-b183-460d-8d1b-4c42a2b4d72f","ios":"levelo://app?vid=80f5992c-b183-460d-8d1b-4c42a2b4d72f"},"vehicle_type_id":"4","last_reported":1744452559,"current_range_meters":9200,"station_id":"ce4bhn12rcd13ifvqgpg","pricing_plan_id":"cebpf4jnsgd1na2vs0mg"},{"bike_id":"49815a2a-260e-4cfc-8823-51f23577d634","system_id":"levelo_inurba_marseille","lat":43.21182,"lon":5.35078,"is_reserved":false,"is_disabled":false,"rental_uris":{"android":"levelo://app?vid=49815a2a-260e-4cfc-8823-51f23577d634","ios":"levelo://app?vid=49815a2a-260e-4cfc-8823-51f23577d634"},"vehicle_type_id":"4","last_reported":1744452559,"current_range_meters":9200,"station_id":"st_cvj6sg6p6f1abm77japg","pricing_plan_id":"cebpf4jnsgd1na2vs0mg"},{"bike_id":"091029a8-8989-4018-b3db-1765c6585e71","system_id":"levelo_inurba_marseille","lat":43.29197,"lon":5.3932,"is_reserved":false,"is_disabled":false,"rental_uris":{"android":"levelo://app?vid=091029a8-8989-4018-b3db-1765c6585e71","ios":"levelo://app?vid=091029a8-8989-4018-b3db-1765c6585e71"},"vehicle_type_id":"4","last_reported":1744452559,"current_range_meters":9200,"station_id":"ce4bh192rcd13ifvqdd0","pricing_plan_id":"cebpf4jnsgd1na2vs0mg"},{"bike_id":"93249cbc-3248-4727-a2eb-f7f18abd3407","system_id":"levelo_inurba_marseille","lat":43.28617,"lon":5.35114,"is_reserved":false,"is_disabled":false,"rental_uris":{"android":"levelo://app?vid=93249cbc-3248-4727-a2eb-f7f18abd3407","ios":"levelo://app?vid=93249cbc-3248-4727-a2eb-f7f18abd3407"},"vehicle_type_id":"4","last_reported":1744452559,"current_range_meters":9200,"station_id":"ce4bhch2rcd13ifvqeug","pricing_plan_id":"cebpf4jnsgd1na2vs0mg"},{"bike_id":"b105010c-b749-48b7-8743-e65c5024e2fe","system_id":"levelo_inurba_marseille","lat":43.25113,"lon":5.40313,"is_reserved":false,"is_disabled":false,"rental_uris":{"android":"levelo://app?vid=b105010c-b749-48b7-8743-e65c5024e2fe","ios":"levelo://app?vid=b105010c-b749-48b7-8743-e65c5024e2fe"},"vehicle_type_id":"4","last_reported":1744452559,"current_range_meters":9200,"station_id":"ce4bhlh2rcd13ifvqgig","pricing_plan_id":"cebpf4jnsgd1na2vs0mg"},{"bike_id":"72adaa87-94dc-4774-aca0-5147bc57bd16","system_id":"levelo_inurba_marseille","lat":43.26014,"lon":5.41729,"is_reserved":false,"is_disabled":false,"rental_uris":{"android":"levelo://app?vid=72adaa87-94dc-4774-aca0-5147bc57bd16","ios":"levelo://app?vid=72adaa87-94dc-4774-aca0-5147bc57bd16"},"vehicle_type_id":"4","last_reported":1744452559,"current_range_meters":9200,"station_id":"","pricing_plan_id":"cebpf4jnsgd1na2vs0mg"},{"bike_id":"8609ec5b-db31-4682-89f6-95794d251c5e","system_id":"levelo_inurba_marseille","lat":43.30133,"lon":5.387668,"is_reserved":false,"is_disabled":false,"rental_uris":{"android":"levelo://app?vid=8609ec5b-db31-4682-89f6-95794d251c5e","ios":"levelo://app?vid=8609ec5b-db31-4682-89f6-95794d251c5e"},"vehicle_type_id":"4","last_reported":1744452559,"current_range_meters":9200,"station_id":"ce4bhmp2rcd13ifvqgog","pricing_plan_id":"cebpf4jnsgd1na2vs0mg"},{"bike_id":"de28f02b-966c-41ad-9536-726d2f94f953","system_id":"levelo_inurba_marseille","lat":43.2407,"lon":5.37762,"is_reserved":false,"is_disabled":false,"rental_uris":{"android":"levelo://app?vid=de28f02b-966c-41ad-9536-726d2f94f953","ios":"levelo://app?vid=de28f02b-966c-41ad-9536-726d2f94f953"},"vehicle_type_id":"4","last_reported":1744452559,"current_range_meters":9600,"station_id":"ce4bhnp2rcd13ifvqgvg","pricing_plan_id":"cebpf4jnsgd1na2vs0mg"},{"bike_id":"c7c22dfb-0071-4903-8117-d7fa0f025f4c","system_id":"levelo_inurba_marseille","lat":43.2706,"lon":5.4026,"is_reserved":false,"is_disabled":false,"rental_uris":{"android":"levelo://app?vid=c7c22dfb-0071-4903-8117-d7fa0f025f4c","ios":"levelo://app?vid=c7c22dfb-0071-4903-8117-d7fa0f025f4c"},"vehicle_type_id":"4","last_reported":1744452559,"current_range_meters":9600,"station_id":"ce4bhk92rcd13ifvqgc0","pricing_plan_id":"cebpf4jnsgd1na2vs0mg"},{"bike_id":"411f282c-b696-41a4-888f-752e1134c529","system_id":"levelo_inurba_marseille","lat":43.26194,"lon":5.37466,"is_reserved":false,"is_disabled":false,"rental_uris":{"android":"levelo://app?vid=411f282c-b696-41a4-888f-752e1134c529","ios":"levelo://app?vid=411f282c-b696-41a4-888f-752e1134c529"},"vehicle_type_id":"4","last_reported":1744452559,"current_range_meters":9600,"station_id":"ce4bhgp2rcd13ifvqfc0","pricing_plan_id":"cebpf4jnsgd1na2vs0mg"},{"bike_id":"55475846-4826-4e39-aef5-c665d76d0159","system_id":"levelo_inurba_marseille","lat":43.32111,"lon":5.36766,"is_reserved":false,"is_disabled":false,"rental_uris":{"android":"levelo://app?vid=55475846-4826-4e39-aef5-c665d76d0159","ios":"levelo://app?vid=55475846-4826-4e39-aef5-c665d76d0159"},"vehicle_type_id":"4","last_reported":1744452559,"current_range_meters":9600,"station_id":"ce4bhrh2rcd13ifvqhug","pricing_plan_id":"cebpf4jnsgd1na2vs0mg"},{"bike_id":"f4e06c67-0686-4d88-ada5-4f3edc0570f3","system_id":"levelo_inurba_marseille","lat":43.29093,"lon":5.38129,"is_reserved":false,"is_disabled":false,"rental_uris":{"android":"levelo://app?vid=f4e06c67-0686-4d88-ada5-4f3edc0570f3","ios":"levelo://app?vid=f4e06c67-0686-4d88-ada5-4f3edc0570f3"},"vehicle_type_id":"4","last_reported":1744452559,"current_range_meters":9600,"station_id":"ce4bh512rcd13ifvqe2g","pricing_plan_id":"cebpf4jnsgd1na2vs0mg"},{"bike_id":"6b86aa1d-80cf-4e84-b068-c94b25843c15","system_id":"levelo_inurba_marseille","lat":43.22934,"lon":5.35371,"is_reserved":false,"is_disabled":false,"rental_uris":{"android":"levelo://app?vid=6b86aa1d-80cf-4e84-b068-c94b25843c15","ios":"levelo://app?vid=6b86aa1d-80cf-4e84-b068-c94b25843c15"},"vehicle_type_id":"4","last_reported":1744452559,"current_range_meters":9600,"station_id":"cpo3532slgdg3j2ikp40","pricing_plan_id":"cebpf4jnsgd1na2vs0mg"},{"bike_id":"51ae49fe-93e7-484b-b925-a3fee3cec470","system_id":"levelo_inurba_marseille","lat":43.23068,"lon":5.3549,"is_reserved":false,"is_disabled":false,"rental_uris":{"android":"levelo://app?vid=51ae49fe-93e7-484b-b925-a3fee3cec470","ios":"levelo://app?vid=51ae49fe-93e7-484b-b925-a3fee3cec470"},"vehicle_type_id":"4","last_reported":1744452559,"current_range_meters":9600,"station_id":"cpo3342slgdg3j2ifvpg","pricing_plan_id":"cebpf4jnsgd1na2vs0mg"},{"bike_id":"37864421-51e4-4d5e-801c-7ac32e01e722","system_id":"levelo_inurba_marseille","lat":43.31284,"lon":5.37757,"is_reserved":false,"is_disabled":false,"rental_uris":{"android":"levelo://app?vid=37864421-51e4-4d5e-801c-7ac32e01e722","ios":"levelo://app?vid=37864421-51e4-4d5e-801c-7ac32e01e722"},"vehicle_type_id":"4","last_reported":1744452559,"current_range_meters":9600,"station_id":"","pricing_plan_id":"cebpf4jnsgd1na2vs0mg"},{"bike_id":"9a048efe-3f5b-45ef-bee6-80524b1147f3","system_id":"levelo_inurba_marseille","lat":43.33071,"lon":5.40788,"is_reserved":false,"is_disabled":false,"rental_uris":{"android":"levelo://app?vid=9a048efe-3f5b-45ef-bee6-80524b1147f3","ios":"levelo://app?vid=9a048efe-3f5b-45ef-bee6-80524b1147f3"},"vehicle_type_id":"4","last_reported":1744452559,"current_range_meters":10000,"station_id":"","pricing_plan_id":"cebpf4jnsgd1na2vs0mg"},{"bike_id":"d941936c-9a22-41cb-ab62-35715ba949fc","system_id":"levelo_inurba_marseille","lat":43.30481,"lon":5.37832,"is_reserved":false,"is_disabled":false,"rental_uris":{"android":"levelo://app?vid=d941936c-9a22-41cb-ab62-35715ba949fc","ios":"levelo://app?vid=d941936c-9a22-41cb-ab62-35715ba949fc"},"vehicle_type_id":"4","last_reported":1744452559,"current_range_meters":10000,"station_id":"","pricing_plan_id":"cebpf4jnsgd1na2vs0mg"},{"bike_id":"f21cce43-7e86-42c4-8a4d-3c922080ab5c","system_id":"levelo_inurba_marseille","lat":43.28936,"lon":5.36629,"is_reserved":false,"is_disabled":false,"rental_uris":{"android":"levelo://app?vid=f21cce43-7e86-42c4-8a4d-3c922080ab5c","ios":"levelo://app?vid=f21cce43-7e86-42c4-8a4d-3c922080ab5c"},"vehicle_type_id":"4","last_reported":1744452559,"current_range_meters":10000,"station_id":"ce4bhap2rcd13ifvqek0","pricing_plan_id":"cebpf4jnsgd1na2vs0mg"},{"bike_id":"4c893399-b4ed-40ed-a49f-713da320f269","system_id":"levelo_inurba_marseille","lat":43.29861,"lon":5.37841,"is_reserved":false,"is_disabled":false,"rental_uris":{"android":"levelo://app?vid=4c893399-b4ed-40ed-a49f-713da320f269","ios":"levelo://app?vid=4c893399-b4ed-40ed-a49f-713da320f269"},"vehicle_type_id":"4","last_reported":1744452559,"current_range_meters":10000,"station_id":"","pricing_plan_id":"cebpf4jnsgd1na2vs0mg"},{"bike_id":"a51f1eb3-b406-48c3-be2c-295696d223bc","system_id":"levelo_inurba_marseille","lat":43.30147,"lon":5.3808,"is_reserved":false,"is_disabled":false,"rental_uris":{"android":"levelo://app?vid=a51f1eb3-b406-48c3-be2c-295696d223bc","ios":"levelo://app?vid=a51f1eb3-b406-48c3-be2c-295696d223bc"},"vehicle_type_id":"4","last_reported":1744452559,"current_range_meters":10000,"station_id":"ce4bgjp2rcd13ifvqbh0","pricing_plan_id":"cebpf4jnsgd1na2vs0mg"},{"bike_id":"4651fc10-fe57-460e-89c6-9ba891098581","system_id":"levelo_inurba_marseille","lat":43.29251,"lon":5.38473,"is_reserved":false,"is_disabled":false,"rental_uris":{"android":"levelo://app?vid=4651fc10-fe57-460e-89c6-9ba891098581","ios":"levelo://app?vid=4651fc10-fe57-460e-89c6-9ba891098581"},"vehicle_type_id":"4","last_reported":1744452559,"current_range_meters":10000,"station_id":"","pricing_plan_id":"cebpf4jnsgd1na2vs0mg"},{"bike_id":"8c58f2fa-99e1-41f8-bf90-9c1648b679b1","system_id":"levelo_inurba_marseille","lat":43.27316,"lon":5.41452,"is_reserved":false,"is_disabled":false,"rental_uris":{"android":"levelo://app?vid=8c58f2fa-99e1-41f8-bf90-9c1648b679b1","ios":"levelo://app?vid=8c58f2fa-99e1-41f8-bf90-9c1648b679b1"},"vehicle_type_id":"4","last_reported":1744452559,"current_range_meters":10000,"station_id":"","pricing_plan_id":"cebpf4jnsgd1na2vs0mg"},{"bike_id":"869ede4d-0687-4835-9bf7-58fbf56cbb3c","system_id":"levelo_inurba_marseille","lat":43.25501,"lon":5.37652,"is_reserved":false,"is_disabled":false,"rental_uris":{"android":"levelo://app?vid=869ede4d-0687-4835-9bf7-58fbf56cbb3c","ios":"levelo://app?vid=869ede4d-0687-4835-9bf7-58fbf56cbb3c"},"vehicle_type_id":"4","last_reported":1744452559,"current_range_meters":10800,"station_id":"ce4bhh12rcd13ifvqff0","pricing_plan_id":"cebpf4jnsgd1na2vs0mg"},{"bike_id":"d2eff889-fce6-4dfa-bdc3-6a9578bc8f71","system_id":"levelo_inurba_marseille","lat":43.30355,"lon":5.42506,"is_reserved":false,"is_disabled":false,"rental_uris":{"android":"levelo://app?vid=d2eff889-fce6-4dfa-bdc3-6a9578bc8f71","ios":"levelo://app?vid=d2eff889-fce6-4dfa-bdc3-6a9578bc8f71"},"vehicle_type_id":"4","last_reported":1744452559,"current_range_meters":10800,"station_id":"ce4bhoh2rcd13ifvqh6g","pricing_plan_id":"cebpf4jnsgd1na2vs0mg"},{"bike_id":"1cb849f5-4018-4c76-a075-268f516482d1","system_id":"levelo_inurba_marseille","lat":43.29278,"lon":5.4012,"is_reserved":false,"is_disabled":false,"rental_uris":{"android":"levelo://app?vid=1cb849f5-4018-4c76-a075-268f516482d1","ios":"levelo://app?vid=1cb849f5-4018-4c76-a075-268f516482d1"},"vehicle_type_id":"4","last_reported":1744452559,"current_range_meters":10800,"station_id":"ce4bh312rcd13ifvqdk0","pricing_plan_id":"cebpf4jnsgd1na2vs0mg"},{"bike_id":"4a0973b0-92a0-41e8-9b0d-a99e944bafe0","system_id":"levelo_inurba_marseille","lat":43.34454,"lon":5.41212,"is_reserved":false,"is_disabled":false,"rental_uris":{"android":"levelo://app?vid=4a0973b0-92a0-41e8-9b0d-a99e944bafe0","ios":"levelo://app?vid=4a0973b0-92a0-41e8-9b0d-a99e944bafe0"},"vehicle_type_id":"4","last_reported":1744452559,"current_range_meters":10800,"station_id":"","pricing_plan_id":"cebpf4jnsgd1na2vs0mg"},{"bike_id":"157461d8-0a7e-4fde-82ca-ff4c7e9c49f4","system_id":"levelo_inurba_marseille","lat":43.25498,"lon":5.37646,"is_reserved":false,"is_disabled":false,"rental_uris":{"android":"levelo://app?vid=157461d8-0a7e-4fde-82ca-ff4c7e9c49f4","ios":"levelo://app?vid=157461d8-0a7e-4fde-82ca-ff4c7e9c49f4"},"vehicle_type_id":"4","last_reported":1744452559,"current_range_meters":10800,"station_id":"ce4bhh12rcd13ifvqff0","pricing_plan_id":"cebpf4jnsgd1na2vs0mg"},{"bike_id":"db1a6d9e-fa12-40d7-a883-53c6276fe41b","system_id":"levelo_inurba_marseille","lat":43.29525,"lon":5.38541,"is_reserved":false,"is_disabled":false,"rental_uris":{"android":"levelo://app?vid=db1a6d9e-fa12-40d7-a883-53c6276fe41b","ios":"levelo://app?vid=db1a6d9e-fa12-40d7-a883-53c6276fe41b"},"vehicle_type_id":"4","last_reported":1744452559,"current_range_meters":10800,"station_id":"ce4bgih2rcd13ifvqba0","pricing_plan_id":"cebpf4jnsgd1na2vs0mg"},{"bike_id":"f68a1051-67d0-4a88-8953-29bf1876f0a5","system_id":"levelo_inurba_marseille","lat":43.21172,"lon":5.35054,"is_reserved":false,"is_disabled":false,"rental_uris":{"android":"levelo://app?vid=f68a1051-67d0-4a88-8953-29bf1876f0a5","ios":"levelo://app?vid=f68a1051-67d0-4a88-8953-29bf1876f0a5"},"vehicle_type_id":"4","last_reported":1744452559,"current_range_meters":10800,"station_id":"st_cvj6sg6p6f1abm77japg","pricing_plan_id":"cebpf4jnsgd1na2vs0mg"},{"bike_id":"16fd30b1-cad6-4fc5-9de5-c7170be035f0","system_id":"levelo_inurba_marseille","lat":43.25726,"lon":5.41098,"is_reserved":false,"is_disabled":false,"rental_uris":{"android":"levelo://app?vid=16fd30b1-cad6-4fc5-9de5-c7170be035f0","ios":"levelo://app?vid=16fd30b1-cad6-4fc5-9de5-c7170be035f0"},"vehicle_type_id":"4","last_reported":1744452559,"current_range_meters":10800,"station_id":"ce4bhkp2rcd13ifvqgd0","pricing_plan_id":"cebpf4jnsgd1na2vs0mg"},{"bike_id":"21c009e4-596e-4d4c-bed0-56d4e9ab67d4","system_id":"levelo_inurba_marseille","lat":43.307183,"lon":5.375393,"is_reserved":false,"is_disabled":false,"rental_uris":{"android":"levelo://app?vid=21c009e4-596e-4d4c-bed0-56d4e9ab67d4","ios":"levelo://app?vid=21c009e4-596e-4d4c-bed0-56d4e9ab67d4"},"vehicle_type_id":"4","last_reported":1744452559,"current_range_meters":11200,"station_id":"ce4bgv92rcd13ifvqcq0","pricing_plan_id":"cebpf4jnsgd1na2vs0mg"},{"bike_id":"c013d600-5e08-48f0-830e-8c965978436b","system_id":"levelo_inurba_marseille","lat":43.30437,"lon":5.38908,"is_reserved":false,"is_disabled":true,"rental_uris":{"android":"levelo://app?vid=c013d600-5e08-48f0-830e-8c965978436b","ios":"levelo://app?vid=c013d600-5e08-48f0-830e-8c965978436b"},"vehicle_type_id":"4","last_reported":1744452559,"current_range_meters":11200,"station_id":"ce4bgk12rcd13ifvqbi0","pricing_plan_id":"cebpf4jnsgd1na2vs0mg"},{"bike_id":"15f8c481-5ec3-42a7-b25f-f4089fa537c4","system_id":"levelo_inurba_marseille","lat":43.24188,"lon":5.39715,"is_reserved":false,"is_disabled":false,"rental_uris":{"android":"levelo://app?vid=15f8c481-5ec3-42a7-b25f-f4089fa537c4","ios":"levelo://app?vid=15f8c481-5ec3-42a7-b25f-f4089fa537c4"},"vehicle_type_id":"4","last_reported":1744452559,"current_range_meters":11200,"station_id":"ce4bhn12rcd13ifvqgpg","pricing_plan_id":"cebpf4jnsgd1na2vs0mg"},{"bike_id":"af342568-2dc3-4c99-8b19-b197c23eae20","system_id":"levelo_inurba_marseille","lat":43.28357,"lon":5.38638,"is_reserved":false,"is_disabled":false,"rental_uris":{"android":"levelo://app?vid=af342568-2dc3-4c99-8b19-b197c23eae20","ios":"levelo://app?vid=af342568-2dc3-4c99-8b19-b197c23eae20"},"vehicle_type_id":"4","last_reported":1744452559,"current_range_meters":11200,"station_id":"ce4bh492rcd13ifvqdvg","pricing_plan_id":"cebpf4jnsgd1na2vs0mg"},{"bike_id":"78c5819c-a520-4ec4-9c69-46bea1652348","system_id":"levelo_inurba_marseille","lat":43.3073,"lon":5.424318,"is_reserved":false,"is_disabled":false,"rental_uris":{"android":"levelo://app?vid=78c5819c-a520-4ec4-9c69-46bea1652348","ios":"levelo://app?vid=78c5819c-a520-4ec4-9c69-46bea1652348"},"vehicle_type_id":"4","last_reported":1744452559,"current_range_meters":11200,"station_id":"st_cvj6ca6bvosntc0bfgr0","pricing_plan_id":"cebpf4jnsgd1na2vs0mg"},{"bike_id":"47df54fa-9868-413c-a07b-a88614eb280e","system_id":"levelo_inurba_marseille","lat":43.27055,"lon":5.4027,"is_reserved":false,"is_disabled":false,"rental_uris":{"android":"levelo://app?vid=47df54fa-9868-413c-a07b-a88614eb280e","ios":"levelo://app?vid=47df54fa-9868-413c-a07b-a88614eb280e"},"vehicle_type_id":"4","last_reported":1744452559,"current_range_meters":11200,"station_id":"ce4bhk92rcd13ifvqgc0","pricing_plan_id":"cebpf4jnsgd1na2vs0mg"},{"bike_id":"dfc8a6eb-770d-47e4-bb6b-d3152687026f","system_id":"levelo_inurba_marseille","lat":43.23964,"lon":5.36626,"is_reserved":false,"is_disabled":false,"rental_uris":{"android":"levelo://app?vid=dfc8a6eb-770d-47e4-bb6b-d3152687026f","ios":"levelo://app?vid=dfc8a6eb-770d-47e4-bb6b-d3152687026f"},"vehicle_type_id":"4","last_reported":1744452559,"current_range_meters":11200,"station_id":"ce4bhi12rcd13ifvqfp0","pricing_plan_id":"cebpf4jnsgd1na2vs0mg"},{"bike_id":"29fd9406-b872-4408-b90c-f1d9e5190468","system_id":"levelo_inurba_marseille","lat":43.23134,"lon":5.43726,"is_reserved":false,"is_disabled":false,"rental_uris":{"android":"levelo://app?vid=29fd9406-b872-4408-b90c-f1d9e5190468","ios":"levelo://app?vid=29fd9406-b872-4408-b90c-f1d9e5190468"},"vehicle_type_id":"4","last_reported":1744452559,"current_range_meters":11200,"station_id":"ce4bhmp2rcd13ifvqgog","pricing_plan_id":"cebpf4jnsgd1na2vs0mg"},{"bike_id":"08ec94c3-de31-4f12-8f8c-2b03ff9d73e0","system_id":"levelo_inurba_marseille","lat":43.29001,"lon":5.35604,"is_reserved":false,"is_disabled":false,"rental_uris":{"android":"levelo://app?vid=08ec94c3-de31-4f12-8f8c-2b03ff9d73e0","ios":"levelo://app?vid=08ec94c3-de31-4f12-8f8c-2b03ff9d73e0"},"vehicle_type_id":"4","last_reported":1744452559,"current_range_meters":11200,"station_id":"ce4bhb92rcd13ifvqen0","pricing_plan_id":"cebpf4jnsgd1na2vs0mg"},{"bike_id":"83e4c345-5a97-4da5-ad41-852af125c0a3","system_id":"levelo_inurba_marseille","lat":43.30408,"lon":5.41298,"is_reserved":false,"is_disabled":false,"rental_uris":{"android":"levelo://app?vid=83e4c345-5a97-4da5-ad41-852af125c0a3","ios":"levelo://app?vid=83e4c345-5a97-4da5-ad41-852af125c0a3"},"vehicle_type_id":"4","last_reported":1744452559,"current_range_meters":11200,"station_id":"ce4bhop2rcd13ifvqh8g","pricing_plan_id":"cebpf4jnsgd1na2vs0mg"},{"bike_id":"4f6bfdc0-6d12-4cbd-b365-1400442a823f","system_id":"levelo_inurba_marseille","lat":43.27312,"lon":5.39082,"is_reserved":false,"is_disabled":false,"rental_uris":{"android":"levelo://app?vid=4f6bfdc0-6d12-4cbd-b365-1400442a823f","ios":"levelo://app?vid=4f6bfdc0-6d12-4cbd-b365-1400442a823f"},"vehicle_type_id":"4","last_reported":1744452559,"current_range_meters":11600,"station_id":"ce4bhgp2rcd13ifvqfe0","pricing_plan_id":"cebpf4jnsgd1na2vs0mg"},{"bike_id":"b29140c1-9e8b-44c1-911a-ea8cdc213bf2","system_id":"levelo_inurba_marseille","lat":43.30899,"lon":5.396268,"is_reserved":false,"is_disabled":false,"rental_uris":{"android":"levelo://app?vid=b29140c1-9e8b-44c1-911a-ea8cdc213bf2","ios":"levelo://app?vid=b29140c1-9e8b-44c1-911a-ea8cdc213bf2"},"vehicle_type_id":"4","last_reported":1744452559,"current_range_meters":11600,"station_id":"ce4bh012rcd13ifvqcv0","pricing_plan_id":"cebpf4jnsgd1na2vs0mg"},{"bike_id":"ef291804-1477-432e-b153-82ea15725418","system_id":"levelo_inurba_marseille","lat":43.33742,"lon":5.37454,"is_reserved":false,"is_disabled":false,"rental_uris":{"android":"levelo://app?vid=ef291804-1477-432e-b153-82ea15725418","ios":"levelo://app?vid=ef291804-1477-432e-b153-82ea15725418"},"vehicle_type_id":"4","last_reported":1744452559,"current_range_meters":11600,"station_id":"","pricing_plan_id":"cebpf4jnsgd1na2vs0mg"},{"bike_id":"ab56d6e8-e9bd-43bc-b4d5-9ae221bbed26","system_id":"levelo_inurba_marseille","lat":43.29544,"lon":5.37525,"is_reserved":false,"is_disabled":false,"rental_uris":{"android":"levelo://app?vid=ab56d6e8-e9bd-43bc-b4d5-9ae221bbed26","ios":"levelo://app?vid=ab56d6e8-e9bd-43bc-b4d5-9ae221bbed26"},"vehicle_type_id":"4","last_reported":1744452559,"current_range_meters":11600,"station_id":"ce4bgkp2rcd13ifvqbmg","pricing_plan_id":"cebpf4jnsgd1na2vs0mg"},{"bike_id":"0e74c723-13a6-4ed7-b2e4-611de82d670d","system_id":"levelo_inurba_marseille","lat":43.2827,"lon":5.3507,"is_reserved":false,"is_disabled":false,"rental_uris":{"android":"levelo://app?vid=0e74c723-13a6-4ed7-b2e4-611de82d670d","ios":"levelo://app?vid=0e74c723-13a6-4ed7-b2e4-611de82d670d"},"vehicle_type_id":"4","last_reported":1744452559,"current_range_meters":12000,"station_id":"ce4bhbp2rcd13ifvqerg","pricing_plan_id":"cebpf4jnsgd1na2vs0mg"},{"bike_id":"d51a8c93-4a62-49ae-82cb-4bd383d80bde","system_id":"levelo_inurba_marseille","lat":43.28153,"lon":5.42631,"is_reserved":false,"is_disabled":false,"rental_uris":{"android":"levelo://app?vid=d51a8c93-4a62-49ae-82cb-4bd383d80bde","ios":"levelo://app?vid=d51a8c93-4a62-49ae-82cb-4bd383d80bde"},"vehicle_type_id":"4","last_reported":1744452559,"current_range_meters":12000,"station_id":"ce4bhnh2rcd13ifvqgug","pricing_plan_id":"cebpf4jnsgd1na2vs0mg"},{"bike_id":"d38e0e5e-1441-423a-9774-3196b1a1cb17","system_id":"levelo_inurba_marseille","lat":43.30026,"lon":5.40007,"is_reserved":false,"is_disabled":false,"rental_uris":{"android":"levelo://app?vid=d38e0e5e-1441-423a-9774-3196b1a1cb17","ios":"levelo://app?vid=d38e0e5e-1441-423a-9774-3196b1a1cb17"},"vehicle_type_id":"4","last_reported":1744452559,"current_range_meters":12000,"station_id":"","pricing_plan_id":"cebpf4jnsgd1na2vs0mg"},{"bike_id":"b2021495-70ec-4cd1-8393-4b4fc242daff","system_id":"levelo_inurba_marseille","lat":43.29183,"lon":5.35796,"is_reserved":false,"is_disabled":false,"rental_uris":{"android":"levelo://app?vid=b2021495-70ec-4cd1-8393-4b4fc242daff","ios":"levelo://app?vid=b2021495-70ec-4cd1-8393-4b4fc242daff"},"vehicle_type_id":"4","last_reported":1744452559,"current_range_meters":12000,"station_id":"ce4bhb12rcd13ifvqel0","pricing_plan_id":"cebpf4jnsgd1na2vs0mg"},{"bike_id":"18826e5e-0c2c-42d8-8429-10b13284b9cb","system_id":"levelo_inurba_marseille","lat":43.30593,"lon":5.393623,"is_reserved":false,"is_disabled":false,"rental_uris":{"android":"levelo://app?vid=18826e5e-0c2c-42d8-8429-10b13284b9cb","ios":"levelo://app?vid=18826e5e-0c2c-42d8-8429-10b13284b9cb"},"vehicle_type_id":"4","last_reported":1744452559,"current_range_meters":12400,"station_id":"ce4bh0p2rcd13ifvqd80","pricing_plan_id":"cebpf4jnsgd1na2vs0mg"},{"bike_id":"c9aa49b6-dfff-45a5-aada-a9b66a79c5ac","system_id":"levelo_inurba_marseille","lat":43.24639,"lon":5.38072,"is_reserved":false,"is_disabled":false,"rental_uris":{"android":"levelo://app?vid=c9aa49b6-dfff-45a5-aada-a9b66a79c5ac","ios":"levelo://app?vid=c9aa49b6-dfff-45a5-aada-a9b66a79c5ac"},"vehicle_type_id":"4","last_reported":1744452559,"current_range_meters":12400,"station_id":"","pricing_plan_id":"cebpf4jnsgd1na2vs0mg"},{"bike_id":"f05a7008-4423-4da1-a76c-29c33c452714","system_id":"levelo_inurba_marseille","lat":43.29975,"lon":5.37179,"is_reserved":false,"is_disabled":false,"rental_uris":{"android":"levelo://app?vid=f05a7008-4423-4da1-a76c-29c33c452714","ios":"levelo://app?vid=f05a7008-4423-4da1-a76c-29c33c452714"},"vehicle_type_id":"4","last_reported":1744452559,"current_range_meters":12400,"station_id":"ce4bgr92rcd13ifvqc7g","pricing_plan_id":"cebpf4jnsgd1na2vs0mg"},{"bike_id":"f7d1eee0-1715-419d-beac-1b98ec9e62ed","system_id":"levelo_inurba_marseille","lat":43.30963,"lon":5.39034,"is_reserved":false,"is_disabled":true,"rental_uris":{"android":"levelo://app?vid=f7d1eee0-1715-419d-beac-1b98ec9e62ed","ios":"levelo://app?vid=f7d1eee0-1715-419d-beac-1b98ec9e62ed"},"vehicle_type_id":"4","last_reported":1744452559,"current_range_meters":12400,"station_id":"ce4bgup2rcd13ifvqco0","pricing_plan_id":"cebpf4jnsgd1na2vs0mg"},{"bike_id":"df314a9e-618f-48b5-85cc-4dba09b30338","system_id":"levelo_inurba_marseille","lat":43.31335,"lon":5.39686,"is_reserved":false,"is_disabled":false,"rental_uris":{"android":"levelo://app?vid=df314a9e-618f-48b5-85cc-4dba09b30338","ios":"levelo://app?vid=df314a9e-618f-48b5-85cc-4dba09b30338"},"vehicle_type_id":"4","last_reported":1744452559,"current_range_meters":12400,"station_id":"ce4bgvp2rcd13ifvqcu0","pricing_plan_id":"cebpf4jnsgd1na2vs0mg"},{"bike_id":"0e7bf4ae-5aed-4055-a1f8-96debbb9847e","system_id":"levelo_inurba_marseille","lat":43.24175,"lon":5.36391,"is_reserved":false,"is_disabled":false,"rental_uris":{"android":"levelo://app?vid=0e7bf4ae-5aed-4055-a1f8-96debbb9847e","ios":"levelo://app?vid=0e7bf4ae-5aed-4055-a1f8-96debbb9847e"},"vehicle_type_id":"4","last_reported":1744452559,"current_range_meters":12400,"station_id":"cpo36qri1sfpv3e86is0","pricing_plan_id":"cebpf4jnsgd1na2vs0mg"},{"bike_id":"d8f603cd-3b83-4148-bab8-3a185ad2a59f","system_id":"levelo_inurba_marseille","lat":43.32367,"lon":5.38888,"is_reserved":false,"is_disabled":false,"rental_uris":{"android":"levelo://app?vid=d8f603cd-3b83-4148-bab8-3a185ad2a59f","ios":"levelo://app?vid=d8f603cd-3b83-4148-bab8-3a185ad2a59f"},"vehicle_type_id":"4","last_reported":1744452559,"current_range_meters":12800,"station_id":"ce4bhqp2rcd13ifvqhog","pricing_plan_id":"cebpf4jnsgd1na2vs0mg"},{"bike_id":"5b77a833-8185-45c2-9fe3-07eb40df54ca","system_id":"levelo_inurba_marseille","lat":43.33995,"lon":5.38057,"is_reserved":false,"is_disabled":false,"rental_uris":{"android":"levelo://app?vid=5b77a833-8185-45c2-9fe3-07eb40df54ca","ios":"levelo://app?vid=5b77a833-8185-45c2-9fe3-07eb40df54ca"},"vehicle_type_id":"4","last_reported":1744452559,"current_range_meters":12800,"station_id":"","pricing_plan_id":"cebpf4jnsgd1na2vs0mg"},{"bike_id":"96609dea-246d-449d-bfba-212fadbe7075","system_id":"levelo_inurba_marseille","lat":43.292243,"lon":5.360635,"is_reserved":false,"is_disabled":false,"rental_uris":{"android":"levelo://app?vid=96609dea-246d-449d-bfba-212fadbe7075","ios":"levelo://app?vid=96609dea-246d-449d-bfba-212fadbe7075"},"vehicle_type_id":"4","last_reported":1744452559,"current_range_meters":13600,"station_id":"ce4bhbh2rcd13ifvqeqg","pricing_plan_id":"cebpf4jnsgd1na2vs0mg"},{"bike_id":"04034fd3-16ee-46d2-88d7-2730a2bb100d","system_id":"levelo_inurba_marseille","lat":43.29909,"lon":5.3815,"is_reserved":false,"is_disabled":false,"rental_uris":{"android":"levelo://app?vid=04034fd3-16ee-46d2-88d7-2730a2bb100d","ios":"levelo://app?vid=04034fd3-16ee-46d2-88d7-2730a2bb100d"},"vehicle_type_id":"4","last_reported":1744452559,"current_range_meters":13600,"station_id":"ce4bgj12rcd13ifvqbc0","pricing_plan_id":"cebpf4jnsgd1na2vs0mg"},{"bike_id":"1fafa723-2705-4f1f-b8de-d4bb683d3c2e","system_id":"levelo_inurba_marseille","lat":43.23188,"lon":5.39987,"is_reserved":false,"is_disabled":false,"rental_uris":{"android":"levelo://app?vid=1fafa723-2705-4f1f-b8de-d4bb683d3c2e","ios":"levelo://app?vid=1fafa723-2705-4f1f-b8de-d4bb683d3c2e"},"vehicle_type_id":"4","last_reported":1744452559,"current_range_meters":14000,"station_id":"ce4bhn12rcd13ifvqgqg","pricing_plan_id":"cebpf4jnsgd1na2vs0mg"},{"bike_id":"01985df7-fc6b-4bff-b786-5f5aa00296f7","system_id":"levelo_inurba_marseille","lat":43.29782,"lon":5.37099,"is_reserved":false,"is_disabled":false,"rental_uris":{"android":"levelo://app?vid=01985df7-fc6b-4bff-b786-5f5aa00296f7","ios":"levelo://app?vid=01985df7-fc6b-4bff-b786-5f5aa00296f7"},"vehicle_type_id":"4","last_reported":1744452559,"current_range_meters":14000,"station_id":"ce4bgop2rcd13ifvqc1g","pricing_plan_id":"cebpf4jnsgd1na2vs0mg"},{"bike_id":"493cde9e-7859-4c26-a2e6-f744ee5d8553","system_id":"levelo_inurba_marseille","lat":43.3177,"lon":5.3681,"is_reserved":false,"is_disabled":false,"rental_uris":{"android":"levelo://app?vid=493cde9e-7859-4c26-a2e6-f744ee5d8553","ios":"levelo://app?vid=493cde9e-7859-4c26-a2e6-f744ee5d8553"},"vehicle_type_id":"4","last_reported":1744452559,"current_range_meters":14000,"station_id":"","pricing_plan_id":"cebpf4jnsgd1na2vs0mg"},{"bike_id":"c086d596-98cd-46ef-8c12-e26205a2f1ec","system_id":"levelo_inurba_marseille","lat":43.28613,"lon":5.35104,"is_reserved":false,"is_disabled":false,"rental_uris":{"android":"levelo://app?vid=c086d596-98cd-46ef-8c12-e26205a2f1ec","ios":"levelo://app?vid=c086d596-98cd-46ef-8c12-e26205a2f1ec"},"vehicle_type_id":"4","last_reported":1744452559,"current_range_meters":14000,"station_id":"ce4bhch2rcd13ifvqeug","pricing_plan_id":"cebpf4jnsgd1na2vs0mg"},{"bike_id":"61bc6256-8380-4638-bd27-1e2c56ecc87d","system_id":"levelo_inurba_marseille","lat":43.29696,"lon":5.37656,"is_reserved":false,"is_disabled":false,"rental_uris":{"android":"levelo://app?vid=61bc6256-8380-4638-bd27-1e2c56ecc87d","ios":"levelo://app?vid=61bc6256-8380-4638-bd27-1e2c56ecc87d"},"vehicle_type_id":"4","last_reported":1744452559,"current_range_meters":14000,"station_id":"ce4bgkh2rcd13ifvqbl0","pricing_plan_id":"cebpf4jnsgd1na2vs0mg"},{"bike_id":"90cddebc-2506-42ee-9df1-36a6154dff75","system_id":"levelo_inurba_marseille","lat":43.24164,"lon":5.36389,"is_reserved":false,"is_disabled":false,"rental_uris":{"android":"levelo://app?vid=90cddebc-2506-42ee-9df1-36a6154dff75","ios":"levelo://app?vid=90cddebc-2506-42ee-9df1-36a6154dff75"},"vehicle_type_id":"4","last_reported":1744452559,"current_range_meters":14000,"station_id":"cpo36qri1sfpv3e86is0","pricing_plan_id":"cebpf4jnsgd1na2vs0mg"},{"bike_id":"f5978509-db06-47ea-8b21-850d320f3654","system_id":"levelo_inurba_marseille","lat":43.30417,"lon":5.41267,"is_reserved":false,"is_disabled":false,"rental_uris":{"android":"levelo://app?vid=f5978509-db06-47ea-8b21-850d320f3654","ios":"levelo://app?vid=f5978509-db06-47ea-8b21-850d320f3654"},"vehicle_type_id":"4","last_reported":1744452559,"current_range_meters":14400,"station_id":"ce4bhop2rcd13ifvqh8g","pricing_plan_id":"cebpf4jnsgd1na2vs0mg"},{"bike_id":"2f5bc015-0a98-4a0d-a50f-f7181e1d6abe","system_id":"levelo_inurba_marseille","lat":43.23383,"lon":5.41239,"is_reserved":false,"is_disabled":false,"rental_uris":{"android":"levelo://app?vid=2f5bc015-0a98-4a0d-a50f-f7181e1d6abe","ios":"levelo://app?vid=2f5bc015-0a98-4a0d-a50f-f7181e1d6abe"},"vehicle_type_id":"4","last_reported":1744452559,"current_range_meters":14400,"station_id":"","pricing_plan_id":"cebpf4jnsgd1na2vs0mg"},{"bike_id":"9558ab42-6550-49a2-97a5-cb16bd2fea1e","system_id":"levelo_inurba_marseille","lat":43.2791,"lon":5.39575,"is_reserved":false,"is_disabled":false,"rental_uris":{"android":"levelo://app?vid=9558ab42-6550-49a2-97a5-cb16bd2fea1e","ios":"levelo://app?vid=9558ab42-6550-49a2-97a5-cb16bd2fea1e"},"vehicle_type_id":"4","last_reported":1744452559,"current_range_meters":14400,"station_id":"ce4bhf92rcd13ifvqf40","pricing_plan_id":"cebpf4jnsgd1na2vs0mg"},{"bike_id":"8a32d4ad-d5b2-4c92-8103-fc94b3874f20","system_id":"levelo_inurba_marseille","lat":43.34132,"lon":5.40923,"is_reserved":false,"is_disabled":false,"rental_uris":{"android":"levelo://app?vid=8a32d4ad-d5b2-4c92-8103-fc94b3874f20","ios":"levelo://app?vid=8a32d4ad-d5b2-4c92-8103-fc94b3874f20"},"vehicle_type_id":"4","last_reported":1744452559,"current_range_meters":14400,"station_id":"ce4bhqh2rcd13ifvqhlg","pricing_plan_id":"cebpf4jnsgd1na2vs0mg"},{"bike_id":"3383469d-bf04-4b83-befe-8d91b97ef6f7","system_id":"levelo_inurba_marseille","lat":43.32127,"lon":5.37943,"is_reserved":false,"is_disabled":false,"rental_uris":{"android":"levelo://app?vid=3383469d-bf04-4b83-befe-8d91b97ef6f7","ios":"levelo://app?vid=3383469d-bf04-4b83-befe-8d91b97ef6f7"},"vehicle_type_id":"4","last_reported":1744452559,"current_range_meters":14400,"station_id":"","pricing_plan_id":"cebpf4jnsgd1na2vs0mg"},{"bike_id":"88749d90-8770-41b8-bdcd-6fbbf0b2e167","system_id":"levelo_inurba_marseille","lat":43.25897,"lon":5.40919,"is_reserved":false,"is_disabled":false,"rental_uris":{"android":"levelo://app?vid=88749d90-8770-41b8-bdcd-6fbbf0b2e167","ios":"levelo://app?vid=88749d90-8770-41b8-bdcd-6fbbf0b2e167"},"vehicle_type_id":"4","last_reported":1744452559,"current_range_meters":14800,"station_id":"ce4bhm92rcd13ifvqglg","pricing_plan_id":"cebpf4jnsgd1na2vs0mg"},{"bike_id":"e3b78f2a-a9f8-41b4-a867-efe510397ef8","system_id":"levelo_inurba_marseille","lat":43.30417,"lon":5.39744,"is_reserved":false,"is_disabled":false,"rental_uris":{"android":"levelo://app?vid=e3b78f2a-a9f8-41b4-a867-efe510397ef8","ios":"levelo://app?vid=e3b78f2a-a9f8-41b4-a867-efe510397ef8"},"vehicle_type_id":"4","last_reported":1744452559,"current_range_meters":14800,"station_id":"ce4bh092rcd13ifvqd20","pricing_plan_id":"cebpf4jnsgd1na2vs0mg"},{"bike_id":"659e2ffb-f90b-447d-839b-048281fae967","system_id":"levelo_inurba_marseille","lat":43.2757,"lon":5.3842,"is_reserved":false,"is_disabled":false,"rental_uris":{"android":"levelo://app?vid=659e2ffb-f90b-447d-839b-048281fae967","ios":"levelo://app?vid=659e2ffb-f90b-447d-839b-048281fae967"},"vehicle_type_id":"4","last_reported":1744452559,"current_range_meters":14800,"station_id":"ce4bhh92rcd13ifvqfi0","pricing_plan_id":"cebpf4jnsgd1na2vs0mg"},{"bike_id":"f7843f46-58aa-4cf6-a1d0-1b94b16f71c2","system_id":"levelo_inurba_marseille","lat":43.29855,"lon":5.39673,"is_reserved":false,"is_disabled":false,"rental_uris":{"android":"levelo://app?vid=f7843f46-58aa-4cf6-a1d0-1b94b16f71c2","ios":"levelo://app?vid=f7843f46-58aa-4cf6-a1d0-1b94b16f71c2"},"vehicle_type_id":"4","last_reported":1744452559,"current_range_meters":15200,"station_id":"ce4bh0h2rcd13ifvqd50","pricing_plan_id":"cebpf4jnsgd1na2vs0mg"},{"bike_id":"99941cc7-5163-4c4d-a1d2-debcdde82514","system_id":"levelo_inurba_marseille","lat":43.21194,"lon":5.35069,"is_reserved":false,"is_disabled":false,"rental_uris":{"android":"levelo://app?vid=99941cc7-5163-4c4d-a1d2-debcdde82514","ios":"levelo://app?vid=99941cc7-5163-4c4d-a1d2-debcdde82514"},"vehicle_type_id":"4","last_reported":1744452559,"current_range_meters":15200,"station_id":"st_cvj6sg6p6f1abm77japg","pricing_plan_id":"cebpf4jnsgd1na2vs0mg"},{"bike_id":"1ef3fe72-09c6-4c12-b174-48ed31711d8c","system_id":"levelo_inurba_marseille","lat":43.29302,"lon":5.37467,"is_reserved":false,"is_disabled":false,"rental_uris":{"android":"levelo://app?vid=1ef3fe72-09c6-4c12-b174-48ed31711d8c","ios":"levelo://app?vid=1ef3fe72-09c6-4c12-b174-48ed31711d8c"},"vehicle_type_id":"4","last_reported":1744452559,"current_range_meters":15200,"station_id":"ce4bgi12rcd13ifvqb70","pricing_plan_id":"cebpf4jnsgd1na2vs0mg"},{"bike_id":"2012e422-7e75-4b23-9356-9f2d015b6e92","system_id":"levelo_inurba_marseille","lat":43.31329,"lon":5.39692,"is_reserved":false,"is_disabled":false,"rental_uris":{"android":"levelo://app?vid=2012e422-7e75-4b23-9356-9f2d015b6e92","ios":"levelo://app?vid=2012e422-7e75-4b23-9356-9f2d015b6e92"},"vehicle_type_id":"4","last_reported":1744452559,"current_range_meters":15200,"station_id":"ce4bgvp2rcd13ifvqcu0","pricing_plan_id":"cebpf4jnsgd1na2vs0mg"},{"bike_id":"b249fd88-c89c-44c6-85b4-e205c9efa6e3","system_id":"levelo_inurba_marseille","lat":43.29683,"lon":5.37297,"is_reserved":false,"is_disabled":false,"rental_uris":{"android":"levelo://app?vid=b249fd88-c89c-44c6-85b4-e205c9efa6e3","ios":"levelo://app?vid=b249fd88-c89c-44c6-85b4-e205c9efa6e3"},"vehicle_type_id":"4","last_reported":1744452559,"current_range_meters":15200,"station_id":"ce4bgk12rcd13ifvqbj0","pricing_plan_id":"cebpf4jnsgd1na2vs0mg"},{"bike_id":"ab49b8f8-1108-4290-b69a-c856fbb4958c","system_id":"levelo_inurba_marseille","lat":43.29685,"lon":5.37297,"is_reserved":false,"is_disabled":false,"rental_uris":{"android":"levelo://app?vid=ab49b8f8-1108-4290-b69a-c856fbb4958c","ios":"levelo://app?vid=ab49b8f8-1108-4290-b69a-c856fbb4958c"},"vehicle_type_id":"4","last_reported":1744452559,"current_range_meters":16000,"station_id":"ce4bgk12rcd13ifvqbj0","pricing_plan_id":"cebpf4jnsgd1na2vs0mg"},{"bike_id":"d971b588-6fb0-4832-b556-4b8d64610e8b","system_id":"levelo_inurba_marseille","lat":43.24388,"lon":5.3706,"is_reserved":false,"is_disabled":false,"rental_uris":{"android":"levelo://app?vid=d971b588-6fb0-4832-b556-4b8d64610e8b","ios":"levelo://app?vid=d971b588-6fb0-4832-b556-4b8d64610e8b"},"vehicle_type_id":"4","last_reported":1744452559,"current_range_meters":16000,"station_id":"ce4bhhh2rcd13ifvqfk0","pricing_plan_id":"cebpf4jnsgd1na2vs0mg"},{"bike_id":"9c2e56bd-2b20-4e10-bdad-a43b3a4c4d78","system_id":"levelo_inurba_marseille","lat":43.27953,"lon":5.41045,"is_reserved":false,"is_disabled":false,"rental_uris":{"android":"levelo://app?vid=9c2e56bd-2b20-4e10-bdad-a43b3a4c4d78","ios":"levelo://app?vid=9c2e56bd-2b20-4e10-bdad-a43b3a4c4d78"},"vehicle_type_id":"4","last_reported":1744452559,"current_range_meters":16000,"station_id":"ce4bhnp2rcd13ifvqh0g","pricing_plan_id":"cebpf4jnsgd1na2vs0mg"},{"bike_id":"eb1d4b7d-30fc-495b-a6a7-af63f85b9171","system_id":"levelo_inurba_marseille","lat":43.30099,"lon":5.39076,"is_reserved":false,"is_disabled":false,"rental_uris":{"android":"levelo://app?vid=eb1d4b7d-30fc-495b-a6a7-af63f85b9171","ios":"levelo://app?vid=eb1d4b7d-30fc-495b-a6a7-af63f85b9171"},"vehicle_type_id":"4","last_reported":1744452559,"current_range_meters":16000,"station_id":"ce4bh192rcd13ifvqdb0","pricing_plan_id":"cebpf4jnsgd1na2vs0mg"},{"bike_id":"f1a81939-e24e-4b4d-bb9f-d960ee871735","system_id":"levelo_inurba_marseille","lat":43.24179,"lon":5.39735,"is_reserved":false,"is_disabled":false,"rental_uris":{"android":"levelo://app?vid=f1a81939-e24e-4b4d-bb9f-d960ee871735","ios":"levelo://app?vid=f1a81939-e24e-4b4d-bb9f-d960ee871735"},"vehicle_type_id":"4","last_reported":1744452559,"current_range_meters":16000,"station_id":"ce4bhn12rcd13ifvqgpg","pricing_plan_id":"cebpf4jnsgd1na2vs0mg"},{"bike_id":"8043ed93-c0e0-4b20-a22a-1ce703744524","system_id":"levelo_inurba_marseille","lat":43.28939,"lon":5.36628,"is_reserved":false,"is_disabled":true,"rental_uris":{"android":"levelo://app?vid=8043ed93-c0e0-4b20-a22a-1ce703744524","ios":"levelo://app?vid=8043ed93-c0e0-4b20-a22a-1ce703744524"},"vehicle_type_id":"4","last_reported":1744452559,"current_range_meters":16000,"station_id":"ce4bhap2rcd13ifvqek0","pricing_plan_id":"cebpf4jnsgd1na2vs0mg"},{"bike_id":"4f2c4b29-8924-4f53-b37a-57ddec36ab0d","system_id":"levelo_inurba_marseille","lat":43.30219,"lon":5.39465,"is_reserved":false,"is_disabled":false,"rental_uris":{"android":"levelo://app?vid=4f2c4b29-8924-4f53-b37a-57ddec36ab0d","ios":"levelo://app?vid=4f2c4b29-8924-4f53-b37a-57ddec36ab0d"},"vehicle_type_id":"4","last_reported":1744452559,"current_range_meters":16400,"station_id":"ce4bh0p2rcd13ifvqd70","pricing_plan_id":"cebpf4jnsgd1na2vs0mg"},{"bike_id":"073f07c1-2207-4f4e-95a5-1a4c8bf3a4ea","system_id":"levelo_inurba_marseille","lat":43.26218,"lon":5.40458,"is_reserved":false,"is_disabled":false,"rental_uris":{"android":"levelo://app?vid=073f07c1-2207-4f4e-95a5-1a4c8bf3a4ea","ios":"levelo://app?vid=073f07c1-2207-4f4e-95a5-1a4c8bf3a4ea"},"vehicle_type_id":"4","last_reported":1744452559,"current_range_meters":16400,"station_id":"ce4bhmh2rcd13ifvqgmg","pricing_plan_id":"cebpf4jnsgd1na2vs0mg"},{"bike_id":"61a3d5d1-9d16-4507-a934-21de523ba06e","system_id":"levelo_inurba_marseille","lat":43.2967,"lon":5.36699,"is_reserved":false,"is_disabled":false,"rental_uris":{"android":"levelo://app?vid=61a3d5d1-9d16-4507-a934-21de523ba06e","ios":"levelo://app?vid=61a3d5d1-9d16-4507-a934-21de523ba06e"},"vehicle_type_id":"4","last_reported":1744452559,"current_range_meters":16400,"station_id":"","pricing_plan_id":"cebpf4jnsgd1na2vs0mg"},{"bike_id":"048de837-7464-4706-a095-e4bff09b9116","system_id":"levelo_inurba_marseille","lat":43.32339,"lon":5.4061,"is_reserved":false,"is_disabled":false,"rental_uris":{"android":"levelo://app?vid=048de837-7464-4706-a095-e4bff09b9116","ios":"levelo://app?vid=048de837-7464-4706-a095-e4bff09b9116"},"vehicle_type_id":"4","last_reported":1744452559,"current_range_meters":16400,"station_id":"ce4bhq92rcd13ifvqhjg","pricing_plan_id":"cebpf4jnsgd1na2vs0mg"},{"bike_id":"534b5b81-01fb-48e1-8332-0d13dec35f23","system_id":"levelo_inurba_marseille","lat":43.32353,"lon":5.40598,"is_reserved":false,"is_disabled":false,"rental_uris":{"android":"levelo://app?vid=534b5b81-01fb-48e1-8332-0d13dec35f23","ios":"levelo://app?vid=534b5b81-01fb-48e1-8332-0d13dec35f23"},"vehicle_type_id":"4","last_reported":1744452559,"current_range_meters":16800,"station_id":"ce4bhq92rcd13ifvqhjg","pricing_plan_id":"cebpf4jnsgd1na2vs0mg"},{"bike_id":"54706ea3-ecd9-4054-8466-975399fa40a8","system_id":"levelo_inurba_marseille","lat":43.30884,"lon":5.39658,"is_reserved":false,"is_disabled":false,"rental_uris":{"android":"levelo://app?vid=54706ea3-ecd9-4054-8466-975399fa40a8","ios":"levelo://app?vid=54706ea3-ecd9-4054-8466-975399fa40a8"},"vehicle_type_id":"4","last_reported":1744452559,"current_range_meters":16800,"station_id":"ce4bh012rcd13ifvqcv0","pricing_plan_id":"cebpf4jnsgd1na2vs0mg"},{"bike_id":"dc0fc37b-245c-4040-8686-f32b8a543409","system_id":"levelo_inurba_marseille","lat":43.24418,"lon":5.37052,"is_reserved":false,"is_disabled":false,"rental_uris":{"android":"levelo://app?vid=dc0fc37b-245c-4040-8686-f32b8a543409","ios":"levelo://app?vid=dc0fc37b-245c-4040-8686-f32b8a543409"},"vehicle_type_id":"4","last_reported":1744452559,"current_range_meters":16800,"station_id":"ce4bhhh2rcd13ifvqfk0","pricing_plan_id":"cebpf4jnsgd1na2vs0mg"},{"bike_id":"0663e361-5ecb-4ca0-bfaa-c01a2f66fe21","system_id":"levelo_inurba_marseille","lat":43.32002,"lon":5.38139,"is_reserved":false,"is_disabled":false,"rental_uris":{"android":"levelo://app?vid=0663e361-5ecb-4ca0-bfaa-c01a2f66fe21","ios":"levelo://app?vid=0663e361-5ecb-4ca0-bfaa-c01a2f66fe21"},"vehicle_type_id":"4","last_reported":1744452559,"current_range_meters":16800,"station_id":"ce4bhr12rcd13ifvqhpg","pricing_plan_id":"cebpf4jnsgd1na2vs0mg"},{"bike_id":"cbd077b7-792f-43f2-b760-f4d40dbf06b5","system_id":"levelo_inurba_marseille","lat":43.29927,"lon":5.36518,"is_reserved":false,"is_disabled":false,"rental_uris":{"android":"levelo://app?vid=cbd077b7-792f-43f2-b760-f4d40dbf06b5","ios":"levelo://app?vid=cbd077b7-792f-43f2-b760-f4d40dbf06b5"},"vehicle_type_id":"4","last_reported":1744452559,"current_range_meters":16800,"station_id":"ce4bgm92rcd13ifvqbr0","pricing_plan_id":"cebpf4jnsgd1na2vs0mg"},{"bike_id":"8a8a48df-1fae-40dc-817a-265d8491cc57","system_id":"levelo_inurba_marseille","lat":43.30131,"lon":5.37404,"is_reserved":false,"is_disabled":false,"rental_uris":{"android":"levelo://app?vid=8a8a48df-1fae-40dc-817a-265d8491cc57","ios":"levelo://app?vid=8a8a48df-1fae-40dc-817a-265d8491cc57"},"vehicle_type_id":"4","last_reported":1744452559,"current_range_meters":16800,"station_id":"ce4bgs92rcd13ifvqcc0","pricing_plan_id":"cebpf4jnsgd1na2vs0mg"},{"bike_id":"d856fe42-f15d-4285-8170-8c314490ece9","system_id":"levelo_inurba_marseille","lat":43.28153,"lon":5.42641,"is_reserved":false,"is_disabled":false,"rental_uris":{"android":"levelo://app?vid=d856fe42-f15d-4285-8170-8c314490ece9","ios":"levelo://app?vid=d856fe42-f15d-4285-8170-8c314490ece9"},"vehicle_type_id":"4","last_reported":1744452559,"current_range_meters":16800,"station_id":"ce4bhnh2rcd13ifvqgug","pricing_plan_id":"cebpf4jnsgd1na2vs0mg"},{"bike_id":"50a87c49-884f-47a4-b11a-fe032a5286af","system_id":"levelo_inurba_marseille","lat":43.30147,"lon":5.38088,"is_reserved":false,"is_disabled":false,"rental_uris":{"android":"levelo://app?vid=50a87c49-884f-47a4-b11a-fe032a5286af","ios":"levelo://app?vid=50a87c49-884f-47a4-b11a-fe032a5286af"},"vehicle_type_id":"4","last_reported":1744452559,"current_range_meters":16800,"station_id":"ce4bgjp2rcd13ifvqbh0","pricing_plan_id":"cebpf4jnsgd1na2vs0mg"},{"bike_id":"d0462533-5b8b-434b-a73b-ff6b138a013c","system_id":"levelo_inurba_marseille","lat":43.29301,"lon":5.37465,"is_reserved":false,"is_disabled":false,"rental_uris":{"android":"levelo://app?vid=d0462533-5b8b-434b-a73b-ff6b138a013c","ios":"levelo://app?vid=d0462533-5b8b-434b-a73b-ff6b138a013c"},"vehicle_type_id":"4","last_reported":1744452559,"current_range_meters":16800,"station_id":"ce4bgi12rcd13ifvqb70","pricing_plan_id":"cebpf4jnsgd1na2vs0mg"},{"bike_id":"7751a79b-6be7-42eb-a65f-e5e2ddbad316","system_id":"levelo_inurba_marseille","lat":43.290843,"lon":5.371579,"is_reserved":false,"is_disabled":false,"rental_uris":{"android":"levelo://app?vid=7751a79b-6be7-42eb-a65f-e5e2ddbad316","ios":"levelo://app?vid=7751a79b-6be7-42eb-a65f-e5e2ddbad316"},"vehicle_type_id":"4","last_reported":1744452559,"current_range_meters":17200,"station_id":"ce4bh5p2rcd13ifvqe4g","pricing_plan_id":"cebpf4jnsgd1na2vs0mg"},{"bike_id":"ec13aa36-feb8-4fc6-a26e-70419bb84a9c","system_id":"levelo_inurba_marseille","lat":43.29281,"lon":5.40114,"is_reserved":false,"is_disabled":false,"rental_uris":{"android":"levelo://app?vid=ec13aa36-feb8-4fc6-a26e-70419bb84a9c","ios":"levelo://app?vid=ec13aa36-feb8-4fc6-a26e-70419bb84a9c"},"vehicle_type_id":"4","last_reported":1744452559,"current_range_meters":17200,"station_id":"ce4bh312rcd13ifvqdk0","pricing_plan_id":"cebpf4jnsgd1na2vs0mg"},{"bike_id":"020e9999-d552-48d0-ae5f-b725af0dbea2","system_id":"levelo_inurba_marseille","lat":43.29907,"lon":5.43765,"is_reserved":false,"is_disabled":false,"rental_uris":{"android":"levelo://app?vid=020e9999-d552-48d0-ae5f-b725af0dbea2","ios":"levelo://app?vid=020e9999-d552-48d0-ae5f-b725af0dbea2"},"vehicle_type_id":"4","last_reported":1744452559,"current_range_meters":17200,"station_id":"","pricing_plan_id":"cebpf4jnsgd1na2vs0mg"},{"bike_id":"b16e7a55-d9c7-4d3a-a1b3-e7f53e079e40","system_id":"levelo_inurba_marseille","lat":43.280375,"lon":5.369463,"is_reserved":false,"is_disabled":false,"rental_uris":{"android":"levelo://app?vid=b16e7a55-d9c7-4d3a-a1b3-e7f53e079e40","ios":"levelo://app?vid=b16e7a55-d9c7-4d3a-a1b3-e7f53e079e40"},"vehicle_type_id":"4","last_reported":1744452559,"current_range_meters":17200,"station_id":"ce4bha12rcd13ifvqef0","pricing_plan_id":"cebpf4jnsgd1na2vs0mg"},{"bike_id":"469d7df9-253b-4e92-aa13-40bf8ef53df8","system_id":"levelo_inurba_marseille","lat":43.23964,"lon":5.36629,"is_reserved":false,"is_disabled":false,"rental_uris":{"android":"levelo://app?vid=469d7df9-253b-4e92-aa13-40bf8ef53df8","ios":"levelo://app?vid=469d7df9-253b-4e92-aa13-40bf8ef53df8"},"vehicle_type_id":"4","last_reported":1744452559,"current_range_meters":17200,"station_id":"ce4bhi12rcd13ifvqfp0","pricing_plan_id":"cebpf4jnsgd1na2vs0mg"},{"bike_id":"4acf4117-f6f2-4fd5-bf9d-d23c45ec3604","system_id":"levelo_inurba_marseille","lat":43.29713,"lon":5.37691,"is_reserved":false,"is_disabled":false,"rental_uris":{"android":"levelo://app?vid=4acf4117-f6f2-4fd5-bf9d-d23c45ec3604","ios":"levelo://app?vid=4acf4117-f6f2-4fd5-bf9d-d23c45ec3604"},"vehicle_type_id":"4","last_reported":1744452559,"current_range_meters":17200,"station_id":"ce4bgkh2rcd13ifvqbl0","pricing_plan_id":"cebpf4jnsgd1na2vs0mg"},{"bike_id":"b55dd5e7-54b2-4035-b945-7b626dd7afc7","system_id":"levelo_inurba_marseille","lat":43.27534,"lon":5.40923,"is_reserved":false,"is_disabled":false,"rental_uris":{"android":"levelo://app?vid=b55dd5e7-54b2-4035-b945-7b626dd7afc7","ios":"levelo://app?vid=b55dd5e7-54b2-4035-b945-7b626dd7afc7"},"vehicle_type_id":"4","last_reported":1744452559,"current_range_meters":17600,"station_id":"","pricing_plan_id":"cebpf4jnsgd1na2vs0mg"},{"bike_id":"982bb1bc-457f-43d7-ae21-85035c856353","system_id":"levelo_inurba_marseille","lat":43.22491,"lon":5.34779,"is_reserved":false,"is_disabled":false,"rental_uris":{"android":"levelo://app?vid=982bb1bc-457f-43d7-ae21-85035c856353","ios":"levelo://app?vid=982bb1bc-457f-43d7-ae21-85035c856353"},"vehicle_type_id":"4","last_reported":1744452559,"current_range_meters":17600,"station_id":"st_cvj5dfep6f1abm77gieg","pricing_plan_id":"cebpf4jnsgd1na2vs0mg"},{"bike_id":"0a33731b-72e0-489b-91d8-2fd1f1259876","system_id":"levelo_inurba_marseille","lat":43.23195,"lon":5.39981,"is_reserved":false,"is_disabled":false,"rental_uris":{"android":"levelo://app?vid=0a33731b-72e0-489b-91d8-2fd1f1259876","ios":"levelo://app?vid=0a33731b-72e0-489b-91d8-2fd1f1259876"},"vehicle_type_id":"4","last_reported":1744452559,"current_range_meters":17600,"station_id":"ce4bhn12rcd13ifvqgqg","pricing_plan_id":"cebpf4jnsgd1na2vs0mg"},{"bike_id":"db9cdcec-b5ee-409b-adf3-2fb9b83088c4","system_id":"levelo_inurba_marseille","lat":43.30945,"lon":5.37369,"is_reserved":false,"is_disabled":false,"rental_uris":{"android":"levelo://app?vid=db9cdcec-b5ee-409b-adf3-2fb9b83088c4","ios":"levelo://app?vid=db9cdcec-b5ee-409b-adf3-2fb9b83088c4"},"vehicle_type_id":"4","last_reported":1744452559,"current_range_meters":17600,"station_id":"","pricing_plan_id":"cebpf4jnsgd1na2vs0mg"},{"bike_id":"d8b9884b-4022-4710-9f87-50e0dbfd421d","system_id":"levelo_inurba_marseille","lat":43.24167,"lon":5.36393,"is_reserved":false,"is_disabled":false,"rental_uris":{"android":"levelo://app?vid=d8b9884b-4022-4710-9f87-50e0dbfd421d","ios":"levelo://app?vid=d8b9884b-4022-4710-9f87-50e0dbfd421d"},"vehicle_type_id":"4","last_reported":1744452559,"current_range_meters":17600,"station_id":"cpo36qri1sfpv3e86is0","pricing_plan_id":"cebpf4jnsgd1na2vs0mg"},{"bike_id":"1670579b-d1f5-4e40-8c9f-59433bdb84f2","system_id":"levelo_inurba_marseille","lat":43.255,"lon":5.37649,"is_reserved":false,"is_disabled":false,"rental_uris":{"android":"levelo://app?vid=1670579b-d1f5-4e40-8c9f-59433bdb84f2","ios":"levelo://app?vid=1670579b-d1f5-4e40-8c9f-59433bdb84f2"},"vehicle_type_id":"4","last_reported":1744452559,"current_range_meters":17600,"station_id":"ce4bhh12rcd13ifvqff0","pricing_plan_id":"cebpf4jnsgd1na2vs0mg"},{"bike_id":"3de99220-b861-4c71-9e3f-612760824faa","system_id":"levelo_inurba_marseille","lat":43.21187,"lon":5.35078,"is_reserved":false,"is_disabled":false,"rental_uris":{"android":"levelo://app?vid=3de99220-b861-4c71-9e3f-612760824faa","ios":"levelo://app?vid=3de99220-b861-4c71-9e3f-612760824faa"},"vehicle_type_id":"4","last_reported":1744452559,"current_range_meters":17600,"station_id":"st_cvj6sg6p6f1abm77japg","pricing_plan_id":"cebpf4jnsgd1na2vs0mg"},{"bike_id":"3e7f4934-e375-4381-93a5-cb6e2b214d8c","system_id":"levelo_inurba_marseille","lat":43.283936,"lon":5.384537,"is_reserved":false,"is_disabled":false,"rental_uris":{"android":"levelo://app?vid=3e7f4934-e375-4381-93a5-cb6e2b214d8c","ios":"levelo://app?vid=3e7f4934-e375-4381-93a5-cb6e2b214d8c"},"vehicle_type_id":"4","last_reported":1744452559,"current_range_meters":17600,"station_id":"ce4bhjp2rcd13ifvqg90","pricing_plan_id":"cebpf4jnsgd1na2vs0mg"},{"bike_id":"1f726f50-ffb2-45e3-bf8e-2079c081b710","system_id":"levelo_inurba_marseille","lat":43.23181,"lon":5.39992,"is_reserved":false,"is_disabled":false,"rental_uris":{"android":"levelo://app?vid=1f726f50-ffb2-45e3-bf8e-2079c081b710","ios":"levelo://app?vid=1f726f50-ffb2-45e3-bf8e-2079c081b710"},"vehicle_type_id":"4","last_reported":1744452559,"current_range_meters":18000,"station_id":"ce4bhn12rcd13ifvqgqg","pricing_plan_id":"cebpf4jnsgd1na2vs0mg"},{"bike_id":"f5e85801-9ad6-48c0-8047-77b813aff1e4","system_id":"levelo_inurba_marseille","lat":43.30244,"lon":5.40053,"is_reserved":false,"is_disabled":false,"rental_uris":{"android":"levelo://app?vid=f5e85801-9ad6-48c0-8047-77b813aff1e4","ios":"levelo://app?vid=f5e85801-9ad6-48c0-8047-77b813aff1e4"},"vehicle_type_id":"4","last_reported":1744452559,"current_range_meters":18000,"station_id":"ce4bgvh2rcd13ifvqcs0","pricing_plan_id":"cebpf4jnsgd1na2vs0mg"},{"bike_id":"95e59f1f-4d59-4266-8b3f-582f63a06ec8","system_id":"levelo_inurba_marseille","lat":43.261216,"lon":5.415028,"is_reserved":false,"is_disabled":false,"rental_uris":{"android":"levelo://app?vid=95e59f1f-4d59-4266-8b3f-582f63a06ec8","ios":"levelo://app?vid=95e59f1f-4d59-4266-8b3f-582f63a06ec8"},"vehicle_type_id":"4","last_reported":1744452559,"current_range_meters":18000,"station_id":"","pricing_plan_id":"cebpf4jnsgd1na2vs0mg"},{"bike_id":"21127257-eff7-474d-8ad8-e3337a0a4ddf","system_id":"levelo_inurba_marseille","lat":43.29832,"lon":5.36119,"is_reserved":false,"is_disabled":false,"rental_uris":{"android":"levelo://app?vid=21127257-eff7-474d-8ad8-e3337a0a4ddf","ios":"levelo://app?vid=21127257-eff7-474d-8ad8-e3337a0a4ddf"},"vehicle_type_id":"4","last_reported":1744452559,"current_range_meters":18000,"station_id":"","pricing_plan_id":"cebpf4jnsgd1na2vs0mg"},{"bike_id":"ab5f815b-268f-4742-9b0b-6bc0ca89b3fc","system_id":"levelo_inurba_marseille","lat":43.3074,"lon":5.4246,"is_reserved":false,"is_disabled":false,"rental_uris":{"android":"levelo://app?vid=ab5f815b-268f-4742-9b0b-6bc0ca89b3fc","ios":"levelo://app?vid=ab5f815b-268f-4742-9b0b-6bc0ca89b3fc"},"vehicle_type_id":"4","last_reported":1744452559,"current_range_meters":18000,"station_id":"st_cvj6ca6bvosntc0bfgr0","pricing_plan_id":"cebpf4jnsgd1na2vs0mg"},{"bike_id":"5591936e-ca63-41c7-89f3-9c9493c86f89","system_id":"levelo_inurba_marseille","lat":43.24169,"lon":5.36372,"is_reserved":false,"is_disabled":false,"rental_uris":{"android":"levelo://app?vid=5591936e-ca63-41c7-89f3-9c9493c86f89","ios":"levelo://app?vid=5591936e-ca63-41c7-89f3-9c9493c86f89"},"vehicle_type_id":"4","last_reported":1744452559,"current_range_meters":18000,"station_id":"cpo36qri1sfpv3e86is0","pricing_plan_id":"cebpf4jnsgd1na2vs0mg"},{"bike_id":"be249a31-3d82-447d-a7c2-4e2de469c5a0","system_id":"levelo_inurba_marseille","lat":43.29621,"lon":5.37719,"is_reserved":false,"is_disabled":false,"rental_uris":{"android":"levelo://app?vid=be249a31-3d82-447d-a7c2-4e2de469c5a0","ios":"levelo://app?vid=be249a31-3d82-447d-a7c2-4e2de469c5a0"},"vehicle_type_id":"4","last_reported":1744452559,"current_range_meters":18000,"station_id":"ce4bgi92rcd13ifvqb90","pricing_plan_id":"cebpf4jnsgd1na2vs0mg"},{"bike_id":"bddafd3e-68ea-403d-9c3a-6a28a1272ec6","system_id":"levelo_inurba_marseille","lat":43.32321,"lon":5.40645,"is_reserved":false,"is_disabled":false,"rental_uris":{"android":"levelo://app?vid=bddafd3e-68ea-403d-9c3a-6a28a1272ec6","ios":"levelo://app?vid=bddafd3e-68ea-403d-9c3a-6a28a1272ec6"},"vehicle_type_id":"4","last_reported":1744452559,"current_range_meters":18800,"station_id":"ce4bhq92rcd13ifvqhjg","pricing_plan_id":"cebpf4jnsgd1na2vs0mg"},{"bike_id":"c458e2f5-a382-4fc0-92a0-d62503ae08c1","system_id":"levelo_inurba_marseille","lat":43.29005,"lon":5.35605,"is_reserved":false,"is_disabled":false,"rental_uris":{"android":"levelo://app?vid=c458e2f5-a382-4fc0-92a0-d62503ae08c1","ios":"levelo://app?vid=c458e2f5-a382-4fc0-92a0-d62503ae08c1"},"vehicle_type_id":"4","last_reported":1744452559,"current_range_meters":18800,"station_id":"ce4bhb92rcd13ifvqen0","pricing_plan_id":"cebpf4jnsgd1na2vs0mg"},{"bike_id":"09400a9a-dd14-418b-b26a-1e2b480a0634","system_id":"levelo_inurba_marseille","lat":43.29594,"lon":5.37736,"is_reserved":false,"is_disabled":false,"rental_uris":{"android":"levelo://app?vid=09400a9a-dd14-418b-b26a-1e2b480a0634","ios":"levelo://app?vid=09400a9a-dd14-418b-b26a-1e2b480a0634"},"vehicle_type_id":"4","last_reported":1744452559,"current_range_meters":18800,"station_id":"ce4bgi92rcd13ifvqb90","pricing_plan_id":"cebpf4jnsgd1na2vs0mg"},{"bike_id":"943734dc-bdcd-48e2-a066-3a73a88fb311","system_id":"levelo_inurba_marseille","lat":43.31331,"lon":5.39689,"is_reserved":false,"is_disabled":false,"rental_uris":{"android":"levelo://app?vid=943734dc-bdcd-48e2-a066-3a73a88fb311","ios":"levelo://app?vid=943734dc-bdcd-48e2-a066-3a73a88fb311"},"vehicle_type_id":"4","last_reported":1744452559,"current_range_meters":18800,"station_id":"ce4bgvp2rcd13ifvqcu0","pricing_plan_id":"cebpf4jnsgd1na2vs0mg"},{"bike_id":"239b457a-7da8-49b2-9197-3c47133b2b7d","system_id":"levelo_inurba_marseille","lat":43.29048,"lon":5.39955,"is_reserved":false,"is_disabled":true,"rental_uris":{"android":"levelo://app?vid=239b457a-7da8-49b2-9197-3c47133b2b7d","ios":"levelo://app?vid=239b457a-7da8-49b2-9197-3c47133b2b7d"},"vehicle_type_id":"4","last_reported":1744452559,"current_range_meters":18800,"station_id":"ce4bh392rcd13ifvqdm0","pricing_plan_id":"cebpf4jnsgd1na2vs0mg"},{"bike_id":"6d01f060-55b8-4ea7-b17e-6c464ffb58e2","system_id":"levelo_inurba_marseille","lat":43.2783,"lon":5.40693,"is_reserved":false,"is_disabled":false,"rental_uris":{"android":"levelo://app?vid=6d01f060-55b8-4ea7-b17e-6c464ffb58e2","ios":"levelo://app?vid=6d01f060-55b8-4ea7-b17e-6c464ffb58e2"},"vehicle_type_id":"4","last_reported":1744452559,"current_range_meters":18800,"station_id":"ce4bhnh2rcd13ifvqgtg","pricing_plan_id":"cebpf4jnsgd1na2vs0mg"},{"bike_id":"38cb3a38-466f-4ebe-9b3b-d084f4b8d92b","system_id":"levelo_inurba_marseille","lat":43.28421,"lon":5.34984,"is_reserved":false,"is_disabled":false,"rental_uris":{"android":"levelo://app?vid=38cb3a38-466f-4ebe-9b3b-d084f4b8d92b","ios":"levelo://app?vid=38cb3a38-466f-4ebe-9b3b-d084f4b8d92b"},"vehicle_type_id":"4","last_reported":1744452559,"current_range_meters":19200,"station_id":"ce4bhbh2rcd13ifvqepg","pricing_plan_id":"cebpf4jnsgd1na2vs0mg"},{"bike_id":"0f3bc570-5c9b-4f01-8e4f-fdc32a28aa0a","system_id":"levelo_inurba_marseille","lat":43.30591,"lon":5.37222,"is_reserved":false,"is_disabled":false,"rental_uris":{"android":"levelo://app?vid=0f3bc570-5c9b-4f01-8e4f-fdc32a28aa0a","ios":"levelo://app?vid=0f3bc570-5c9b-4f01-8e4f-fdc32a28aa0a"},"vehicle_type_id":"4","last_reported":1744452559,"current_range_meters":19200,"station_id":"ce4bgqh2rcd13ifvqc4g","pricing_plan_id":"cebpf4jnsgd1na2vs0mg"},{"bike_id":"bc81dc9b-4bd7-4f93-95fa-078f47ed1cd9","system_id":"levelo_inurba_marseille","lat":43.29515,"lon":5.37509,"is_reserved":false,"is_disabled":false,"rental_uris":{"android":"levelo://app?vid=bc81dc9b-4bd7-4f93-95fa-078f47ed1cd9","ios":"levelo://app?vid=bc81dc9b-4bd7-4f93-95fa-078f47ed1cd9"},"vehicle_type_id":"4","last_reported":1744452559,"current_range_meters":19200,"station_id":"ce4bgkp2rcd13ifvqbmg","pricing_plan_id":"cebpf4jnsgd1na2vs0mg"},{"bike_id":"ae868823-f658-40b6-b00f-1c4526bcbfcd","system_id":"levelo_inurba_marseille","lat":43.23088,"lon":5.35465,"is_reserved":false,"is_disabled":false,"rental_uris":{"android":"levelo://app?vid=ae868823-f658-40b6-b00f-1c4526bcbfcd","ios":"levelo://app?vid=ae868823-f658-40b6-b00f-1c4526bcbfcd"},"vehicle_type_id":"4","last_reported":1744452559,"current_range_meters":19200,"station_id":"cpo3342slgdg3j2ifvpg","pricing_plan_id":"cebpf4jnsgd1na2vs0mg"},{"bike_id":"d95f3d6f-4396-42d9-ba50-a4b5ed65d19a","system_id":"levelo_inurba_marseille","lat":43.25583,"lon":5.38231,"is_reserved":false,"is_disabled":false,"rental_uris":{"android":"levelo://app?vid=d95f3d6f-4396-42d9-ba50-a4b5ed65d19a","ios":"levelo://app?vid=d95f3d6f-4396-42d9-ba50-a4b5ed65d19a"},"vehicle_type_id":"4","last_reported":1744452559,"current_range_meters":19200,"station_id":"ce4bhih2rcd13ifvqfs0","pricing_plan_id":"cebpf4jnsgd1na2vs0mg"},{"bike_id":"cdca5bf1-fc31-4f90-bc6c-61591fbcb03a","system_id":"levelo_inurba_marseille","lat":43.26782,"lon":5.3942,"is_reserved":false,"is_disabled":false,"rental_uris":{"android":"levelo://app?vid=cdca5bf1-fc31-4f90-bc6c-61591fbcb03a","ios":"levelo://app?vid=cdca5bf1-fc31-4f90-bc6c-61591fbcb03a"},"vehicle_type_id":"4","last_reported":1744452559,"current_range_meters":19200,"station_id":"ce4bhh12rcd13ifvqfg0","pricing_plan_id":"cebpf4jnsgd1na2vs0mg"},{"bike_id":"7ca07f45-dfd4-40ba-a516-f49a8443bbe9","system_id":"levelo_inurba_marseille","lat":43.23185,"lon":5.39989,"is_reserved":false,"is_disabled":false,"rental_uris":{"android":"levelo://app?vid=7ca07f45-dfd4-40ba-a516-f49a8443bbe9","ios":"levelo://app?vid=7ca07f45-dfd4-40ba-a516-f49a8443bbe9"},"vehicle_type_id":"4","last_reported":1744452559,"current_range_meters":19600,"station_id":"ce4bhn12rcd13ifvqgqg","pricing_plan_id":"cebpf4jnsgd1na2vs0mg"},{"bike_id":"75a2db82-fca6-4f82-a401-bc31c5462866","system_id":"levelo_inurba_marseille","lat":43.2963,"lon":5.40599,"is_reserved":false,"is_disabled":false,"rental_uris":{"android":"levelo://app?vid=75a2db82-fca6-4f82-a401-bc31c5462866","ios":"levelo://app?vid=75a2db82-fca6-4f82-a401-bc31c5462866"},"vehicle_type_id":"4","last_reported":1744452559,"current_range_meters":19600,"station_id":"ce4bh0h2rcd13ifvqd60","pricing_plan_id":"cebpf4jnsgd1na2vs0mg"},{"bike_id":"18606129-1f46-4387-94fd-b9b77f87f6a9","system_id":"levelo_inurba_marseille","lat":43.2318,"lon":5.39986,"is_reserved":false,"is_disabled":false,"rental_uris":{"android":"levelo://app?vid=18606129-1f46-4387-94fd-b9b77f87f6a9","ios":"levelo://app?vid=18606129-1f46-4387-94fd-b9b77f87f6a9"},"vehicle_type_id":"4","last_reported":1744452559,"current_range_meters":19600,"station_id":"ce4bhn12rcd13ifvqgqg","pricing_plan_id":"cebpf4jnsgd1na2vs0mg"},{"bike_id":"5cc06bbf-a485-4f45-9373-a8c27feeb240","system_id":"levelo_inurba_marseille","lat":43.276154,"lon":5.361136,"is_reserved":false,"is_disabled":false,"rental_uris":{"android":"levelo://app?vid=5cc06bbf-a485-4f45-9373-a8c27feeb240","ios":"levelo://app?vid=5cc06bbf-a485-4f45-9373-a8c27feeb240"},"vehicle_type_id":"4","last_reported":1744452559,"current_range_meters":20000,"station_id":"ce4bgj92rcd13ifvqbe0","pricing_plan_id":"cebpf4jnsgd1na2vs0mg"},{"bike_id":"ea438c7b-9e82-4c86-8a05-02931e5619ce","system_id":"levelo_inurba_marseille","lat":43.28926,"lon":5.38394,"is_reserved":false,"is_disabled":true,"rental_uris":{"android":"levelo://app?vid=ea438c7b-9e82-4c86-8a05-02931e5619ce","ios":"levelo://app?vid=ea438c7b-9e82-4c86-8a05-02931e5619ce"},"vehicle_type_id":"4","last_reported":1744452559,"current_range_meters":20000,"station_id":"ce4bh612rcd13ifvqe6g","pricing_plan_id":"cebpf4jnsgd1na2vs0mg"},{"bike_id":"5be95cb3-4c8c-4c50-933f-e11c60500d67","system_id":"levelo_inurba_marseille","lat":43.27187,"lon":5.40949,"is_reserved":false,"is_disabled":false,"rental_uris":{"android":"levelo://app?vid=5be95cb3-4c8c-4c50-933f-e11c60500d67","ios":"levelo://app?vid=5be95cb3-4c8c-4c50-933f-e11c60500d67"},"vehicle_type_id":"4","last_reported":1744452559,"current_range_meters":20000,"station_id":"ce4bhl12rcd13ifvqgf0","pricing_plan_id":"cebpf4jnsgd1na2vs0mg"},{"bike_id":"8984c804-0076-4451-97e5-bcde503ab1f2","system_id":"levelo_inurba_marseille","lat":43.276154,"lon":5.361019,"is_reserved":false,"is_disabled":false,"rental_uris":{"android":"levelo://app?vid=8984c804-0076-4451-97e5-bcde503ab1f2","ios":"levelo://app?vid=8984c804-0076-4451-97e5-bcde503ab1f2"},"vehicle_type_id":"4","last_reported":1744452559,"current_range_meters":20000,"station_id":"ce4bgj92rcd13ifvqbe0","pricing_plan_id":"cebpf4jnsgd1na2vs0mg"},{"bike_id":"205a676e-388e-4b5d-b5d4-92bca6b76c07","system_id":"levelo_inurba_marseille","lat":43.30892,"lon":5.37418,"is_reserved":false,"is_disabled":false,"rental_uris":{"android":"levelo://app?vid=205a676e-388e-4b5d-b5d4-92bca6b76c07","ios":"levelo://app?vid=205a676e-388e-4b5d-b5d4-92bca6b76c07"},"vehicle_type_id":"4","last_reported":1744452559,"current_range_meters":20000,"station_id":"","pricing_plan_id":"cebpf4jnsgd1na2vs0mg"},{"bike_id":"65041457-5b35-4c47-a162-9668153efc3e","system_id":"levelo_inurba_marseille","lat":43.23194,"lon":5.39986,"is_reserved":false,"is_disabled":false,"rental_uris":{"android":"levelo://app?vid=65041457-5b35-4c47-a162-9668153efc3e","ios":"levelo://app?vid=65041457-5b35-4c47-a162-9668153efc3e"},"vehicle_type_id":"4","last_reported":1744452559,"current_range_meters":20400,"station_id":"ce4bhn12rcd13ifvqgqg","pricing_plan_id":"cebpf4jnsgd1na2vs0mg"},{"bike_id":"8aadab16-8cf0-4f57-8ee2-b28b85cff218","system_id":"levelo_inurba_marseille","lat":43.23179,"lon":5.39986,"is_reserved":false,"is_disabled":false,"rental_uris":{"android":"levelo://app?vid=8aadab16-8cf0-4f57-8ee2-b28b85cff218","ios":"levelo://app?vid=8aadab16-8cf0-4f57-8ee2-b28b85cff218"},"vehicle_type_id":"4","last_reported":1744452559,"current_range_meters":20800,"station_id":"ce4bhn12rcd13ifvqgqg","pricing_plan_id":"cebpf4jnsgd1na2vs0mg"},{"bike_id":"94b913a1-f050-4f92-917f-b7b0e36f3e3e","system_id":"levelo_inurba_marseille","lat":43.272003,"lon":5.391597,"is_reserved":false,"is_disabled":false,"rental_uris":{"android":"levelo://app?vid=94b913a1-f050-4f92-917f-b7b0e36f3e3e","ios":"levelo://app?vid=94b913a1-f050-4f92-917f-b7b0e36f3e3e"},"vehicle_type_id":"4","last_reported":1744452559,"current_range_meters":20800,"station_id":"ce4bhih2rcd13ifvqfs0","pricing_plan_id":"cebpf4jnsgd1na2vs0mg"},{"bike_id":"f373f086-3439-42c6-8e87-fe80eaa95b9d","system_id":"levelo_inurba_marseille","lat":43.28922,"lon":5.36274,"is_reserved":false,"is_disabled":false,"rental_uris":{"android":"levelo://app?vid=f373f086-3439-42c6-8e87-fe80eaa95b9d","ios":"levelo://app?vid=f373f086-3439-42c6-8e87-fe80eaa95b9d"},"vehicle_type_id":"4","last_reported":1744452559,"current_range_meters":20800,"station_id":"","pricing_plan_id":"cebpf4jnsgd1na2vs0mg"},{"bike_id":"795410c7-604c-4bf1-8e5a-02109e3a85c5","system_id":"levelo_inurba_marseille","lat":43.29297,"lon":5.37463,"is_reserved":false,"is_disabled":false,"rental_uris":{"android":"levelo://app?vid=795410c7-604c-4bf1-8e5a-02109e3a85c5","ios":"levelo://app?vid=795410c7-604c-4bf1-8e5a-02109e3a85c5"},"vehicle_type_id":"4","last_reported":1744452559,"current_range_meters":20800,"station_id":"ce4bgi12rcd13ifvqb70","pricing_plan_id":"cebpf4jnsgd1na2vs0mg"},{"bike_id":"ff6da1e2-a6bb-46e9-9e77-6b7f5913b880","system_id":"levelo_inurba_marseille","lat":43.29514,"lon":5.37501,"is_reserved":false,"is_disabled":false,"rental_uris":{"android":"levelo://app?vid=ff6da1e2-a6bb-46e9-9e77-6b7f5913b880","ios":"levelo://app?vid=ff6da1e2-a6bb-46e9-9e77-6b7f5913b880"},"vehicle_type_id":"4","last_reported":1744452559,"current_range_meters":20800,"station_id":"ce4bgkp2rcd13ifvqbmg","pricing_plan_id":"cebpf4jnsgd1na2vs0mg"},{"bike_id":"e806c25b-5d21-4a54-8ba8-a894af27cc8d","system_id":"levelo_inurba_marseille","lat":43.27838,"lon":5.39196,"is_reserved":false,"is_disabled":true,"rental_uris":{"android":"levelo://app?vid=e806c25b-5d21-4a54-8ba8-a894af27cc8d","ios":"levelo://app?vid=e806c25b-5d21-4a54-8ba8-a894af27cc8d"},"vehicle_type_id":"4","last_reported":1744452559,"current_range_meters":20800,"station_id":"ce4bhjp2rcd13ifvqga0","pricing_plan_id":"cebpf4jnsgd1na2vs0mg"},{"bike_id":"f709065b-39c7-4faf-bca4-1310fa1d4692","system_id":"levelo_inurba_marseille","lat":43.30144,"lon":5.38073,"is_reserved":false,"is_disabled":false,"rental_uris":{"android":"levelo://app?vid=f709065b-39c7-4faf-bca4-1310fa1d4692","ios":"levelo://app?vid=f709065b-39c7-4faf-bca4-1310fa1d4692"},"vehicle_type_id":"4","last_reported":1744452559,"current_range_meters":20800,"station_id":"ce4bgjp2rcd13ifvqbh0","pricing_plan_id":"cebpf4jnsgd1na2vs0mg"},{"bike_id":"43b5ce93-8128-479d-b4d5-7d5237b82a20","system_id":"levelo_inurba_marseille","lat":43.24166,"lon":5.39725,"is_reserved":false,"is_disabled":false,"rental_uris":{"android":"levelo://app?vid=43b5ce93-8128-479d-b4d5-7d5237b82a20","ios":"levelo://app?vid=43b5ce93-8128-479d-b4d5-7d5237b82a20"},"vehicle_type_id":"4","last_reported":1744452559,"current_range_meters":20800,"station_id":"ce4bhn12rcd13ifvqgpg","pricing_plan_id":"cebpf4jnsgd1na2vs0mg"},{"bike_id":"89d9dd25-9958-497e-8ecd-ec9c250c59f6","system_id":"levelo_inurba_marseille","lat":43.24391,"lon":5.3706,"is_reserved":false,"is_disabled":false,"rental_uris":{"android":"levelo://app?vid=89d9dd25-9958-497e-8ecd-ec9c250c59f6","ios":"levelo://app?vid=89d9dd25-9958-497e-8ecd-ec9c250c59f6"},"vehicle_type_id":"4","last_reported":1744452559,"current_range_meters":20800,"station_id":"ce4bhhh2rcd13ifvqfk0","pricing_plan_id":"cebpf4jnsgd1na2vs0mg"},{"bike_id":"940644f0-3401-499c-8ed7-9da9fa58c4cf","system_id":"levelo_inurba_marseille","lat":43.307881,"lon":5.373604,"is_reserved":false,"is_disabled":false,"rental_uris":{"android":"levelo://app?vid=940644f0-3401-499c-8ed7-9da9fa58c4cf","ios":"levelo://app?vid=940644f0-3401-499c-8ed7-9da9fa58c4cf"},"vehicle_type_id":"4","last_reported":1744452559,"current_range_meters":20400,"station_id":"ce4bhr92rcd13ifvqhsg","pricing_plan_id":"cebpf4jnsgd1na2vs0mg"},{"bike_id":"2a768501-9320-4bc9-a417-15b58706b922","system_id":"levelo_inurba_marseille","lat":43.27571,"lon":5.38426,"is_reserved":false,"is_disabled":false,"rental_uris":{"android":"levelo://app?vid=2a768501-9320-4bc9-a417-15b58706b922","ios":"levelo://app?vid=2a768501-9320-4bc9-a417-15b58706b922"},"vehicle_type_id":"4","last_reported":1744452559,"current_range_meters":20800,"station_id":"ce4bhh92rcd13ifvqfi0","pricing_plan_id":"cebpf4jnsgd1na2vs0mg"},{"bike_id":"38682804-f3e9-4669-b2ec-4efeb899e65b","system_id":"levelo_inurba_marseille","lat":43.27371,"lon":5.36246,"is_reserved":false,"is_disabled":false,"rental_uris":{"android":"levelo://app?vid=38682804-f3e9-4669-b2ec-4efeb899e65b","ios":"levelo://app?vid=38682804-f3e9-4669-b2ec-4efeb899e65b"},"vehicle_type_id":"4","last_reported":1744452559,"current_range_meters":21600,"station_id":"ce4bhbh2rcd13ifvqeo0","pricing_plan_id":"cebpf4jnsgd1na2vs0mg"},{"bike_id":"a42c7d06-1bbe-4453-8a5d-da220cb23e80","system_id":"levelo_inurba_marseille","lat":43.23185,"lon":5.39988,"is_reserved":false,"is_disabled":false,"rental_uris":{"android":"levelo://app?vid=a42c7d06-1bbe-4453-8a5d-da220cb23e80","ios":"levelo://app?vid=a42c7d06-1bbe-4453-8a5d-da220cb23e80"},"vehicle_type_id":"4","last_reported":1744452559,"current_range_meters":21600,"station_id":"ce4bhn12rcd13ifvqgqg","pricing_plan_id":"cebpf4jnsgd1na2vs0mg"},{"bike_id":"c5ece6cb-1ed6-4267-8db9-552e5f3fb828","system_id":"levelo_inurba_marseille","lat":43.21191,"lon":5.35073,"is_reserved":false,"is_disabled":false,"rental_uris":{"android":"levelo://app?vid=c5ece6cb-1ed6-4267-8db9-552e5f3fb828","ios":"levelo://app?vid=c5ece6cb-1ed6-4267-8db9-552e5f3fb828"},"vehicle_type_id":"4","last_reported":1744452559,"current_range_meters":21600,"station_id":"st_cvj6sg6p6f1abm77japg","pricing_plan_id":"cebpf4jnsgd1na2vs0mg"},{"bike_id":"c815cbe2-66b1-4f47-81f7-59bc24bc971a","system_id":"levelo_inurba_marseille","lat":43.28612,"lon":5.35107,"is_reserved":false,"is_disabled":false,"rental_uris":{"android":"levelo://app?vid=c815cbe2-66b1-4f47-81f7-59bc24bc971a","ios":"levelo://app?vid=c815cbe2-66b1-4f47-81f7-59bc24bc971a"},"vehicle_type_id":"4","last_reported":1744452559,"current_range_meters":21600,"station_id":"ce4bhch2rcd13ifvqeug","pricing_plan_id":"cebpf4jnsgd1na2vs0mg"},{"bike_id":"407a54c4-ce42-4e1a-bc9b-9b8f2ef8a27a","system_id":"levelo_inurba_marseille","lat":43.32371,"lon":5.38881,"is_reserved":false,"is_disabled":false,"rental_uris":{"android":"levelo://app?vid=407a54c4-ce42-4e1a-bc9b-9b8f2ef8a27a","ios":"levelo://app?vid=407a54c4-ce42-4e1a-bc9b-9b8f2ef8a27a"},"vehicle_type_id":"4","last_reported":1744452559,"current_range_meters":21600,"station_id":"ce4bhqp2rcd13ifvqhog","pricing_plan_id":"cebpf4jnsgd1na2vs0mg"},{"bike_id":"4fe626ec-ac9e-49d9-953d-0367ffe45ba4","system_id":"levelo_inurba_marseille","lat":43.2828,"lon":5.35069,"is_reserved":false,"is_disabled":false,"rental_uris":{"android":"levelo://app?vid=4fe626ec-ac9e-49d9-953d-0367ffe45ba4","ios":"levelo://app?vid=4fe626ec-ac9e-49d9-953d-0367ffe45ba4"},"vehicle_type_id":"4","last_reported":1744452559,"current_range_meters":20800,"station_id":"ce4bhbp2rcd13ifvqerg","pricing_plan_id":"cebpf4jnsgd1na2vs0mg"},{"bike_id":"ffcdc766-edaf-4199-bef7-f1742abe7eb7","system_id":"levelo_inurba_marseille","lat":43.29282,"lon":5.40124,"is_reserved":false,"is_disabled":false,"rental_uris":{"android":"levelo://app?vid=ffcdc766-edaf-4199-bef7-f1742abe7eb7","ios":"levelo://app?vid=ffcdc766-edaf-4199-bef7-f1742abe7eb7"},"vehicle_type_id":"4","last_reported":1744452559,"current_range_meters":21600,"station_id":"ce4bh312rcd13ifvqdk0","pricing_plan_id":"cebpf4jnsgd1na2vs0mg"},{"bike_id":"e617923d-5e38-4ab5-9f0a-d006b9dcc88d","system_id":"levelo_inurba_marseille","lat":43.29538,"lon":5.3854,"is_reserved":false,"is_disabled":true,"rental_uris":{"android":"levelo://app?vid=e617923d-5e38-4ab5-9f0a-d006b9dcc88d","ios":"levelo://app?vid=e617923d-5e38-4ab5-9f0a-d006b9dcc88d"},"vehicle_type_id":"4","last_reported":1744452559,"current_range_meters":21600,"station_id":"ce4bgih2rcd13ifvqba0","pricing_plan_id":"cebpf4jnsgd1na2vs0mg"},{"bike_id":"f9f6e2cf-115b-4183-9cc3-745fae0fc5d7","system_id":"levelo_inurba_marseille","lat":43.29425,"lon":5.3856,"is_reserved":false,"is_disabled":false,"rental_uris":{"android":"levelo://app?vid=f9f6e2cf-115b-4183-9cc3-745fae0fc5d7","ios":"levelo://app?vid=f9f6e2cf-115b-4183-9cc3-745fae0fc5d7"},"vehicle_type_id":"4","last_reported":1744452559,"current_range_meters":21600,"station_id":"","pricing_plan_id":"cebpf4jnsgd1na2vs0mg"},{"bike_id":"b60e9a9b-68ed-47f2-98f1-77aaced3a01b","system_id":"levelo_inurba_marseille","lat":43.26801,"lon":5.4025,"is_reserved":false,"is_disabled":false,"rental_uris":{"android":"levelo://app?vid=b60e9a9b-68ed-47f2-98f1-77aaced3a01b","ios":"levelo://app?vid=b60e9a9b-68ed-47f2-98f1-77aaced3a01b"},"vehicle_type_id":"4","last_reported":1744452559,"current_range_meters":21600,"station_id":"ce501612rcd8frsf0b60","pricing_plan_id":"cebpf4jnsgd1na2vs0mg"},{"bike_id":"7be5c1a5-cb5d-4830-8000-5db238d87c51","system_id":"levelo_inurba_marseille","lat":43.23152,"lon":5.43709,"is_reserved":false,"is_disabled":false,"rental_uris":{"android":"levelo://app?vid=7be5c1a5-cb5d-4830-8000-5db238d87c51","ios":"levelo://app?vid=7be5c1a5-cb5d-4830-8000-5db238d87c51"},"vehicle_type_id":"4","last_reported":1744452559,"current_range_meters":21600,"station_id":"ce4bhmp2rcd13ifvqgog","pricing_plan_id":"cebpf4jnsgd1na2vs0mg"},{"bike_id":"621f3b64-720d-4a47-8fde-0fcede6ac6b8","system_id":"levelo_inurba_marseille","lat":43.30559,"lon":5.36534,"is_reserved":false,"is_disabled":false,"rental_uris":{"android":"levelo://app?vid=621f3b64-720d-4a47-8fde-0fcede6ac6b8","ios":"levelo://app?vid=621f3b64-720d-4a47-8fde-0fcede6ac6b8"},"vehicle_type_id":"4","last_reported":1744452559,"current_range_meters":21600,"station_id":"ce4bgs12rcd13ifvqcag","pricing_plan_id":"cebpf4jnsgd1na2vs0mg"},{"bike_id":"b519da54-ef40-4b3b-b91d-15f98a61daa7","system_id":"levelo_inurba_marseille","lat":43.29632,"lon":5.40587,"is_reserved":false,"is_disabled":false,"rental_uris":{"android":"levelo://app?vid=b519da54-ef40-4b3b-b91d-15f98a61daa7","ios":"levelo://app?vid=b519da54-ef40-4b3b-b91d-15f98a61daa7"},"vehicle_type_id":"4","last_reported":1744452559,"current_range_meters":21600,"station_id":"ce4bh0h2rcd13ifvqd60","pricing_plan_id":"cebpf4jnsgd1na2vs0mg"},{"bike_id":"0a5a42d3-6d0b-46a5-bca7-b066453611e2","system_id":"levelo_inurba_marseille","lat":43.292285,"lon":5.360641,"is_reserved":false,"is_disabled":false,"rental_uris":{"android":"levelo://app?vid=0a5a42d3-6d0b-46a5-bca7-b066453611e2","ios":"levelo://app?vid=0a5a42d3-6d0b-46a5-bca7-b066453611e2"},"vehicle_type_id":"4","last_reported":1744452559,"current_range_meters":22000,"station_id":"ce4bgjp2rcd13ifvqbh0","pricing_plan_id":"cebpf4jnsgd1na2vs0mg"},{"bike_id":"4472aff9-c9b8-4f1f-bf52-2651fd248d39","system_id":"levelo_inurba_marseille","lat":43.26224,"lon":5.40449,"is_reserved":false,"is_disabled":false,"rental_uris":{"android":"levelo://app?vid=4472aff9-c9b8-4f1f-bf52-2651fd248d39","ios":"levelo://app?vid=4472aff9-c9b8-4f1f-bf52-2651fd248d39"},"vehicle_type_id":"4","last_reported":1744452559,"current_range_meters":22000,"station_id":"ce4bhmh2rcd13ifvqgmg","pricing_plan_id":"cebpf4jnsgd1na2vs0mg"},{"bike_id":"2535ef12-ae7e-412b-86c9-dfa1f3cb2843","system_id":"levelo_inurba_marseille","lat":43.22507,"lon":5.34785,"is_reserved":false,"is_disabled":false,"rental_uris":{"android":"levelo://app?vid=2535ef12-ae7e-412b-86c9-dfa1f3cb2843","ios":"levelo://app?vid=2535ef12-ae7e-412b-86c9-dfa1f3cb2843"},"vehicle_type_id":"4","last_reported":1744452559,"current_range_meters":22000,"station_id":"","pricing_plan_id":"cebpf4jnsgd1na2vs0mg"},{"bike_id":"d46d273e-b69b-4a2b-84a8-cabecea87601","system_id":"levelo_inurba_marseille","lat":43.294292,"lon":5.374616,"is_reserved":false,"is_disabled":false,"rental_uris":{"android":"levelo://app?vid=d46d273e-b69b-4a2b-84a8-cabecea87601","ios":"levelo://app?vid=d46d273e-b69b-4a2b-84a8-cabecea87601"},"vehicle_type_id":"4","last_reported":1744452559,"current_range_meters":22000,"station_id":"","pricing_plan_id":"cebpf4jnsgd1na2vs0mg"},{"bike_id":"0181b634-bebb-48d6-9071-1a0aa5710a14","system_id":"levelo_inurba_marseille","lat":43.31446,"lon":5.36902,"is_reserved":false,"is_disabled":false,"rental_uris":{"android":"levelo://app?vid=0181b634-bebb-48d6-9071-1a0aa5710a14","ios":"levelo://app?vid=0181b634-bebb-48d6-9071-1a0aa5710a14"},"vehicle_type_id":"4","last_reported":1744452559,"current_range_meters":22000,"station_id":"","pricing_plan_id":"cebpf4jnsgd1na2vs0mg"},{"bike_id":"88ba96e8-51c5-4ecf-8d28-751cfd83ed05","system_id":"levelo_inurba_marseille","lat":43.23151,"lon":5.4371,"is_reserved":false,"is_disabled":false,"rental_uris":{"android":"levelo://app?vid=88ba96e8-51c5-4ecf-8d28-751cfd83ed05","ios":"levelo://app?vid=88ba96e8-51c5-4ecf-8d28-751cfd83ed05"},"vehicle_type_id":"4","last_reported":1744452559,"current_range_meters":22400,"station_id":"ce4bhmp2rcd13ifvqgog","pricing_plan_id":"cebpf4jnsgd1na2vs0mg"},{"bike_id":"f49abec9-b1a5-4f21-bf4b-8297f6382557","system_id":"levelo_inurba_marseille","lat":43.25501,"lon":5.37653,"is_reserved":false,"is_disabled":false,"rental_uris":{"android":"levelo://app?vid=f49abec9-b1a5-4f21-bf4b-8297f6382557","ios":"levelo://app?vid=f49abec9-b1a5-4f21-bf4b-8297f6382557"},"vehicle_type_id":"4","last_reported":1744452559,"current_range_meters":22400,"station_id":"ce4bhh12rcd13ifvqff0","pricing_plan_id":"cebpf4jnsgd1na2vs0mg"},