{"last_updated":1712866036,"ttl":30,"version":"2.2","data":{"bikes":[{"bike_id":"df2cbebd-f5b2-465d-9608-ebfc9c85dcf5","system_id":"levelo_inurba_marseille","lat":43.312239,"lon":5.368562,"is_reserved":false,"is_disabled":false,"rental_uris":{"android":"levelo://app?vid=df2cbebd-f5b2-465d-9608-ebfc9c85dcf5","ios":"levelo://app?vid=df2cbebd-f5b2-465d-9608-ebfc9c85dcf5"},"vehicle_type_id":"4","last_reported":1712866036,"current_range_meters":4800,"station_id":"ce4bgl92rcd13ifvqbq0","pricing_plan_id":"cebpf4jnsgd1na2vs0mg"},{"bike_id":"3f8e4bb5-9085-4641-b9c1-33297adb32c8","system_id":"levelo_inurba_marseille","lat":43.312239,"lon":5.368562,"is_reserved":false,"is_disabled":false,"rental_uris":{"android":"levelo://app?vid=3f8e4bb5-9085-4641-b9c1-33297adb32c8","ios":"levelo://app?vid=3f8e4bb5-9085-4641-b9c1-33297adb32c8"},"vehicle_type_id":"4","last_reported":1712866036,"current_range_meters":4800,"station_id":"ce4bgl92rcd13ifvqbq0","pricing_plan_id":"cebpf4jnsgd1na2vs0mg"},{"bike_id":"fb4d0607-7b20-497c-9d30-4026c7abffa0","system_id":"levelo_inurba_marseille","lat":43.312239,"lon":5.368562,"is_reserved":false,"is_disabled":false,"rental_uris":{"android":"levelo://app?vid=fb4d0607-7b20-497c-9d30-4026c7abffa0","ios":"levelo://app?vid=fb4d0607-7b20-497c-9d30-4026c7abffa0"},"vehicle_type_id":"4","last_reported":1712866036,"current_range_meters":12400,"station_id":"ce4bgl92rcd13ifvqbq0","pricing_plan_id":"cebpf4jnsgd1na2vs0mg"},{"bike_id":"86399dea-3775-4341-a115-a49a8b6ac06d","system_id":"levelo_inurba_marseille","lat":43.309076,"lon":5.368465,"is_reserved":false,"is_disabled":false,"rental_uris":{"android":"levelo://app?vid=86399dea-3775-4341-a115-a49a8b6ac06d","ios":"levelo://app?vid=86399dea-3775-4341-a115-a49a8b6ac06d"},"vehicle_type_id":"4","last_reported":1712866036,"current_range_meters":20400,"station_id":"ce4bgn92rcd13ifvqbvg","pricing_plan_id":"cebpf4jnsgd1na2vs0mg"},{"bike_id":"8652bb03-f809-4bcc-b0b6-edfdec4cb83d","system_id":"levelo_inurba_marseille","lat":43.309076,"lon":5.368465,"is_reserved":false,"is_disabled":false,"rental_uris":{"android":"levelo://app?vid=8652bb03-f809-4bcc-b0b6-edfdec4cb83d","ios":"levelo://app?vid=8652bb03-f809-4bcc-b0b6-edfdec4cb83d"},"vehicle_type_id":"4","last_reported":1712866036,"current_range_meters":2400,"station_id":"ce4bgn92rcd13ifvqbvg","pricing_plan_id":"cebpf4jnsgd1na2vs0mg"},{"bike_id":"97c305c5-8435-4b15-ae4a-fad64f5206a4","system_id":"levelo_inurba_marseille","lat":43.309076,"lon":5.368465,"is_reserved":false,"is_disabled":false,"rental_uris":{"android":"levelo://app?vid=97c305c5-8435-4b15-ae4a-fad64f5206a4","ios":"levelo://app?vid=97c305c5-8435-4b15-ae4a-fad64f5206a4"},"vehicle_type_id":"4","last_reported":1712866036,"current_range_meters":0,"station_id":"ce4bgn92rcd13ifvqbvg","pricing_plan_id":"cebpf4jnsgd1na2vs0mg"},{"bike_id":"63823603-436b-478d-bedb-828144dd5c98","system_id":"levelo_inurba_marseille","lat":43.314811,"lon":5.373103,"is_reserved":false,"is_disabled":false,"rental_uris":{"android":"levelo://app?vid=63823603-436b-478d-bedb-828144dd5c98","ios":"levelo://app?vid=63823603-436b-478d-bedb-828144dd5c98"},"vehicle_type_id":"4","last_reported":1712866036,"current_range_meters":3200,"station_id":"ce4bgt12rcd13ifvqcd0","pricing_plan_id":"cebpf4jnsgd1na2vs0mg"},{"bike_id":"c9c11600-f5f9-427d-8ac8-48903e4e5cd0","system_id":"levelo_inurba_marseille","lat":43.314811,"lon":5.373103,"is_reserved":false,"is_disabled":false,"rental_uris":{"android":"levelo://app?vid=c9c11600-f5f9-427d-8ac8-48903e4e5cd0","ios":"levelo://app?vid=c9c11600-f5f9-427d-8ac8-48903e4e5cd0"},"vehicle_type_id":"4","last_reported":1712866036,"current_range_meters":400,"station_id":"ce4bgt12rcd13ifvqcd0","pricing_plan_id":"cebpf4jnsgd1na2vs0mg"},{"bike_id":"11c42ba0-4710-431e-b7c1-b3f1116c4449","system_id":"levelo_inurba_marseille","lat":43.314811,"lon":5.373103,"is_reserved":false,"is_disabled":false,"rental_uris":{"android":"levelo://app?vid=11c42ba0-4710-431e-b7c1-b3f1116c4449","ios":"levelo://app?vid=11c42ba0-4710-431e-b7c1-b3f1116c4449"},"vehicle_type_id":"4","last_reported":1712866036,"current_range_meters":15600,"station_id":"ce4bgt12rcd13ifvqcd0","pricing_plan_id":"cebpf4jnsgd1na2vs0mg"},{"bike_id":"627914f8-31ab-479c-ae87-0214947914f4","system_id":"levelo_inurba_marseille","lat":43.314811,"lon":5.373104,"is_reserved":false,"is_disabled":false,"rental_uris":{"android":"levelo://app?vid=627914f8-31ab-479c-ae87-0214947914f4","ios":"levelo://app?vid=627914f8-31ab-479c-ae87-0214947914f4"},"vehicle_type_id":"4","last_reported":1712866036,"current_range_meters":27200,"station_id":"ce4bgt12rcd13ifvqcd0","pricing_plan_id":"cebpf4jnsgd1na2vs0mg"},{"bike_id":"14181a96-a381-46a3-bf8e-9275e5d5f84a","system_id":"levelo_inurba_marseille","lat":43.314811,"lon":5.373103,"is_reserved":false,"is_disabled":false,"rental_uris":{"android":"levelo://app?vid=14181a96-a381-46a3-bf8e-9275e5d5f84a","ios":"levelo://app?vid=14181a96-a381-46a3-bf8e-9275e5d5f84a"},"vehicle_type_id":"4","last_reported":1712866036,"current_range_meters":14400,"station_id":"ce4bgt12rcd13ifvqcd0","pricing_plan_id":"cebpf4jnsgd1na2vs0mg"},{"bike_id":"72aba998-ecec-4dd4-8a1f-d9e2f9c6ee44","system_id":"levelo_inurba_marseille","lat":43.314811,"lon":5.373103,"is_reserved":false,"is_disabled":false,"rental_uris":{"android":"levelo://app?vid=72aba998-ecec-4dd4-8a1f-d9e2f9c6ee44","ios":"levelo://app?vid=72aba998-ecec-4dd4-8a1f-d9e2f9c6ee44"},"vehicle_type_id":"4","last_reported":1712866036,"current_range_meters":5200,"station_id":"ce4bgt12rcd13ifvqcd0","pricing_plan_id":"cebpf4jnsgd1na2vs0mg"},{"bike_id":"8b1a9228-1737-44fa-813d-3dafcd0c252d","system_id":"levelo_inurba_marseille","lat":43.314811,"lon":5.373103,"is_reserved":false,"is_disabled":false,"rental_uris":{"android":"levelo://app?vid=8b1a9228-1737-44fa-813d-3dafcd0c252d","ios":"levelo://app?vid=8b1a9228-1737-44fa-813d-3dafcd0c252d"},"vehicle_type_id":"4","last_reported":1712866036,"current_range_meters":12800,"station_id":"ce4bgt12rcd13ifvqcd0","pricing_plan_id":"cebpf4jnsgd1na2vs0mg"},{"bike_id":"074900de-e605-458e-85ed-26dd1af25a10","system_id":"levelo_inurba_marseille","lat":43.309034,"lon":5.371783,"is_reserved":false,"is_disabled":false,"rental_uris":{"android":"levelo://app?vid=074900de-e605-458e-85ed-26dd1af25a10","ios":"levelo://app?vid=074900de-e605-458e-85ed-26dd1af25a10"},"vehicle_type_id":"4","last_reported":1712866036,"current_range_meters":19600,"station_id":"ce4bguh2rcd13ifvqckg","pricing_plan_id":"cebpf4jnsgd1na2vs0mg"},{"bike_id":"54b4375c-0eec-4038-8b45-e7e8ce27a697","system_id":"levelo_inurba_marseille","lat":43.309039,"lon":5.371797,"is_reserved":false,"is_disabled":false,"rental_uris":{"android":"levelo://app?vid=54b4375c-0eec-4038-8b45-e7e8ce27a697","ios":"levelo://app?vid=54b4375c-0eec-4038-8b45-e7e8ce27a697"},"vehicle_type_id":"4","last_reported":1712866036,"current_range_meters":6000,"station_id":"ce4bguh2rcd13ifvqckg","pricing_plan_id":"cebpf4jnsgd1na2vs0mg"},{"bike_id":"3db4ce2b-1fcd-4ff2-9b80-ccb0f487c6ee","system_id":"levelo_inurba_marseille","lat":43.305712,"lon":5.365641,"is_reserved":false,"is_disabled":false,"rental_uris":{"android":"levelo://app?vid=3db4ce2b-1fcd-4ff2-9b80-ccb0f487c6ee","ios":"levelo://app?vid=3db4ce2b-1fcd-4ff2-9b80-ccb0f487c6ee"},"vehicle_type_id":"4","last_reported":1712866036,"current_range_meters":0,"station_id":"ce4bgs12rcd13ifvqcag","pricing_plan_id":"cebpf4jnsgd1na2vs0mg"},{"bike_id":"150a577b-d3eb-4be1-b3d6-278f581c7d71","system_id":"levelo_inurba_marseille","lat":43.30547,"lon":5.36557,"is_reserved":false,"is_disabled":false,"rental_uris":{"android":"levelo://app?vid=150a577b-d3eb-4be1-b3d6-278f581c7d71","ios":"levelo://app?vid=150a577b-d3eb-4be1-b3d6-278f581c7d71"},"vehicle_type_id":"4","last_reported":1712866036,"current_range_meters":0,"station_id":"ce4bgs12rcd13ifvqcag","pricing_plan_id":"cebpf4jnsgd1na2vs0mg"},{"bike_id":"1706376d-5de7-422a-956e-8fcdbec7abe9","system_id":"levelo_inurba_marseille","lat":43.307213,"lon":5.373773,"is_reserved":false,"is_disabled":false,"rental_uris":{"android":"levelo://app?vid=1706376d-5de7-422a-956e-8fcdbec7abe9","ios":"levelo://app?vid=1706376d-5de7-422a-956e-8fcdbec7abe9"},"vehicle_type_id":"4","last_reported":1712866036,"current_range_meters":0,"station_id":"","pricing_plan_id":"cebpf4jnsgd1na2vs0mg"},{"bike_id":"a23d0065-845d-4eea-b407-01a5985dab9b","system_id":"levelo_inurba_marseille","lat":43.307945,"lon":5.376487,"is_reserved":false,"is_disabled":false,"rental_uris":{"android":"levelo://app?vid=a23d0065-845d-4eea-b407-01a5985dab9b","ios":"levelo://app?vid=a23d0065-845d-4eea-b407-01a5985dab9b"},"vehicle_type_id":"4","last_reported":1712866036,"current_range_meters":5600,"station_id":"ce4bgv92rcd13ifvqcq0","pricing_plan_id":"cebpf4jnsgd1na2vs0mg"},{"bike_id":"12e9943e-6efe-4bf7-82f2-d905fa6e2968","system_id":"levelo_inurba_marseille","lat":43.305989,"lon":5.37225,"is_reserved":false,"is_disabled":false,"rental_uris":{"android":"levelo://app?vid=12e9943e-6efe-4bf7-82f2-d905fa6e2968","ios":"levelo://app?vid=12e9943e-6efe-4bf7-82f2-d905fa6e2968"},"vehicle_type_id":"4","last_reported":1712866036,"current_range_meters":27600,"station_id":"ce4bgqh2rcd13ifvqc4g","pricing_plan_id":"cebpf4jnsgd1na2vs0mg"},{"bike_id":"d780cd53-d8d9-4437-983e-da91a114f75f","system_id":"levelo_inurba_marseille","lat":43.305989,"lon":5.37225,"is_reserved":false,"is_disabled":false,"rental_uris":{"android":"levelo://app?vid=d780cd53-d8d9-4437-983e-da91a114f75f","ios":"levelo://app?vid=d780cd53-d8d9-4437-983e-da91a114f75f"},"vehicle_type_id":"4","last_reported":1712866036,"current_range_meters":24400,"station_id":"ce4bgqh2rcd13ifvqc4g","pricing_plan_id":"cebpf4jnsgd1na2vs0mg"},{"bike_id":"06ac18bb-e176-4d5f-b9d9-8b2d1f561538","system_id":"levelo_inurba_marseille","lat":43.309076,"lon":5.368465,"is_reserved":false,"is_disabled":false,"rental_uris":{"android":"levelo://app?vid=06ac18bb-e176-4d5f-b9d9-8b2d1f561538","ios":"levelo://app?vid=06ac18bb-e176-4d5f-b9d9-8b2d1f561538"},"vehicle_type_id":"4","last_reported":1712866036,"current_range_meters":1600,"station_id":"ce4bgn92rcd13ifvqbvg","pricing_plan_id":"cebpf4jnsgd1na2vs0mg"},{"bike_id":"d86c5d88-8f1e-42f6-acf2-5ef0166d00df","system_id":"levelo_inurba_marseille","lat":43.30597,"lon":5.372267,"is_reserved":false,"is_disabled":false,"rental_uris":{"android":"levelo://app?vid=d86c5d88-8f1e-42f6-acf2-5ef0166d00df","ios":"levelo://app?vid=d86c5d88-8f1e-42f6-acf2-5ef0166d00df"},"vehicle_type_id":"4","last_reported":1712866036,"current_range_meters":0,"station_id":"ce4bgqh2rcd13ifvqc4g","pricing_plan_id":"cebpf4jnsgd1na2vs0mg"},{"bike_id":"af6e7429-d46c-449a-bdf7-55a417200be6","system_id":"levelo_inurba_marseille","lat":43.305989,"lon":5.37225,"is_reserved":false,"is_disabled":false,"rental_uris":{"android":"levelo://app?vid=af6e7429-d46c-449a-bdf7-55a417200be6","ios":"levelo://app?vid=af6e7429-d46c-449a-bdf7-55a417200be6"},"vehicle_type_id":"4","last_reported":1712866036,"current_range_meters":5200,"station_id":"ce4bgqh2rcd13ifvqc4g","pricing_plan_id":"cebpf4jnsgd1na2vs0mg"},{"bike_id":"18b6f759-3cb1-41ed-b872-2d4c06bb4be3","system_id":"levelo_inurba_marseille","lat":43.307945,"lon":5.376487,"is_reserved":false,"is_disabled":false,"rental_uris":{"android":"levelo://app?vid=18b6f759-3cb1-41ed-b872-2d4c06bb4be3","ios":"levelo://app?vid=18b6f759-3cb1-41ed-b872-2d4c06bb4be3"},"vehicle_type_id":"4","last_reported":1712866036,"current_range_meters":17600,"station_id":"ce4bgv92rcd13ifvqcq0","pricing_plan_id":"cebpf4jnsgd1na2vs0mg"},{"bike_id":"e0e62251-90ff-4014-b33e-4ab0f51b8199","system_id":"levelo_inurba_marseille","lat":43.307945,"lon":5.376487,"is_reserved":false,"is_disabled":false,"rental_uris":{"android":"levelo://app?vid=e0e62251-90ff-4014-b33e-4ab0f51b8199","ios":"levelo://app?vid=e0e62251-90ff-4014-b33e-4ab0f51b8199"},"vehicle_type_id":"4","last_reported":1712866036,"current_range_meters":3200,"station_id":"ce4bgv92rcd13ifvqcq0","pricing_plan_id":"cebpf4jnsgd1na2vs0mg"},{"bike_id":"9a4b4ec2-88e8-4bd3-91a8-c4a7b41d1af0","system_id":"levelo_inurba_marseille","lat":43.307945,"lon":5.376487,"is_reserved":false,"is_disabled":false,"rental_uris":{"android":"levelo://app?vid=9a4b4ec2-88e8-4bd3-91a8-c4a7b41d1af0","ios":"levelo://app?vid=9a4b4ec2-88e8-4bd3-91a8-c4a7b41d1af0"},"vehicle_type_id":"4","last_reported":1712866036,"current_range_meters":10800,"station_id":"ce4bgv92rcd13ifvqcq0","pricing_plan_id":"cebpf4jnsgd1na2vs0mg"},{"bike_id":"b464a47c-be07-4068-b9bd-bcbb93a43e5f","system_id":"levelo_inurba_marseille","lat":43.307945,"lon":5.376487,"is_reserved":false,"is_disabled":false,"rental_uris":{"android":"levelo://app?vid=b464a47c-be07-4068-b9bd-bcbb93a43e5f","ios":"levelo://app?vid=b464a47c-be07-4068-b9bd-bcbb93a43e5f"},"vehicle_type_id":"4","last_reported":1712866036,"current_range_meters":1600,"station_id":"ce4bgv92rcd13ifvqcq0","pricing_plan_id":"cebpf4jnsgd1na2vs0mg"},{"bike_id":"13d78e9d-2ec2-49f6-966a-c876fb74f3f1","system_id":"levelo_inurba_marseille","lat":43.307945,"lon":5.376487,"is_reserved":false,"is_disabled":false,"rental_uris":{"android":"levelo://app?vid=13d78e9d-2ec2-49f6-966a-c876fb74f3f1","ios":"levelo://app?vid=13d78e9d-2ec2-49f6-966a-c876fb74f3f1"},"vehicle_type_id":"4","last_reported":1712866036,"current_range_meters":2800,"station_id":"ce4bgv92rcd13ifvqcq0","pricing_plan_id":"cebpf4jnsgd1na2vs0mg"},{"bike_id":"5ac17b3b-d013-4c28-813c-e2e714055aa6","system_id":"levelo_inurba_marseille","lat":43.305256,"lon":5.372716,"is_reserved":false,"is_disabled":false,"rental_uris":{"android":"levelo://app?vid=5ac17b3b-d013-4c28-813c-e2e714055aa6","ios":"levelo://app?vid=5ac17b3b-d013-4c28-813c-e2e714055aa6"},"vehicle_type_id":"4","last_reported":1712866036,"current_range_meters":0,"station_id":"","pricing_plan_id":"cebpf4jnsgd1na2vs0mg"},{"bike_id":"288bea26-d9ac-42f5-a283-82dab66d1b48","system_id":"levelo_inurba_marseille","lat":43.301939,"lon":5.366286,"is_reserved":false,"is_disabled":false,"rental_uris":{"android":"levelo://app?vid=288bea26-d9ac-42f5-a283-82dab66d1b48","ios":"levelo://app?vid=288bea26-d9ac-42f5-a283-82dab66d1b48"},"vehicle_type_id":"4","last_reported":1712866036,"current_range_meters":21600,"station_id":"ce4bgrh2rcd13ifvqc8g","pricing_plan_id":"cebpf4jnsgd1na2vs0mg"},{"bike_id":"595bdbb3-3352-49d4-9bcb-48c0a80be858","system_id":"levelo_inurba_marseille","lat":43.303046,"lon":5.368981,"is_reserved":false,"is_disabled":false,"rental_uris":{"android":"levelo://app?vid=595bdbb3-3352-49d4-9bcb-48c0a80be858","ios":"levelo://app?vid=595bdbb3-3352-49d4-9bcb-48c0a80be858"},"vehicle_type_id":"4","last_reported":1712866036,"current_range_meters":0,"station_id":"ce4bgqh2rcd13ifvqc5g","pricing_plan_id":"cebpf4jnsgd1na2vs0mg"},{"bike_id":"255501e2-7311-49de-a2a8-070a143bc069","system_id":"levelo_inurba_marseille","lat":43.303086,"lon":5.368968,"is_reserved":false,"is_disabled":false,"rental_uris":{"android":"levelo://app?vid=255501e2-7311-49de-a2a8-070a143bc069","ios":"levelo://app?vid=255501e2-7311-49de-a2a8-070a143bc069"},"vehicle_type_id":"4","last_reported":1712866036,"current_range_meters":5600,"station_id":"ce4bgqh2rcd13ifvqc5g","pricing_plan_id":"cebpf4jnsgd1na2vs0mg"},{"bike_id":"f40ee2f4-b0d0-4afb-b9db-0b2b6222c0b6","system_id":"levelo_inurba_marseille","lat":43.299724,"lon":5.371829,"is_reserved":false,"is_disabled":false,"rental_uris":{"android":"levelo://app?vid=f40ee2f4-b0d0-4afb-b9db-0b2b6222c0b6","ios":"levelo://app?vid=f40ee2f4-b0d0-4afb-b9db-0b2b6222c0b6"},"vehicle_type_id":"4","last_reported":1712866036,"current_range_meters":3600,"station_id":"ce4bgr92rcd13ifvqc7g","pricing_plan_id":"cebpf4jnsgd1na2vs0mg"},{"bike_id":"4bf3e8e1-ad0e-4232-97ee-7ec98c8f7b1a","system_id":"levelo_inurba_marseille","lat":43.31536,"lon":5.38023,"is_reserved":false,"is_disabled":false,"rental_uris":{"android":"levelo://app?vid=4bf3e8e1-ad0e-4232-97ee-7ec98c8f7b1a","ios":"levelo://app?vid=4bf3e8e1-ad0e-4232-97ee-7ec98c8f7b1a"},"vehicle_type_id":"4","last_reported":1712866036,"current_range_meters":0,"station_id":"ce4bhsp2rcd13ifvqi50","pricing_plan_id":"cebpf4jnsgd1na2vs0mg"},{"bike_id":"ce62469d-08a8-463e-ac9c-61aa6dc490b2","system_id":"levelo_inurba_marseille","lat":43.315293,"lon":5.380349,"is_reserved":false,"is_disabled":false,"rental_uris":{"android":"levelo://app?vid=ce62469d-08a8-463e-ac9c-61aa6dc490b2","ios":"levelo://app?vid=ce62469d-08a8-463e-ac9c-61aa6dc490b2"},"vehicle_type_id":"4","last_reported":1712866036,"current_range_meters":9200,"station_id":"ce4bhsp2rcd13ifvqi50","pricing_plan_id":"cebpf4jnsgd1na2vs0mg"},{"bike_id":"603fa77f-0eba-4a52-b353-54050b497b03","system_id":"levelo_inurba_marseille","lat":43.30193,"lon":5.36616,"is_reserved":false,"is_disabled":false,"rental_uris":{"android":"levelo://app?vid=603fa77f-0eba-4a52-b353-54050b497b03","ios":"levelo://app?vid=603fa77f-0eba-4a52-b353-54050b497b03"},"vehicle_type_id":"4","last_reported":1712866036,"current_range_meters":0,"station_id":"ce4bgrh2rcd13ifvqc8g","pricing_plan_id":"cebpf4jnsgd1na2vs0mg"},{"bike_id":"48881315-77c9-4033-9aa8-8ab2e6776b8e","system_id":"levelo_inurba_marseille","lat":43.301939,"lon":5.366286,"is_reserved":false,"is_disabled":false,"rental_uris":{"android":"levelo://app?vid=48881315-77c9-4033-9aa8-8ab2e6776b8e","ios":"levelo://app?vid=48881315-77c9-4033-9aa8-8ab2e6776b8e"},"vehicle_type_id":"4","last_reported":1712866036,"current_range_meters":11200,"station_id":"ce4bgrh2rcd13ifvqc8g","pricing_plan_id":"cebpf4jnsgd1na2vs0mg"},{"bike_id":"30280cfd-f111-481b-bd4b-19dbe9f73377","system_id":"levelo_inurba_marseille","lat":43.301939,"lon":5.366286,"is_reserved":false,"is_disabled":false,"rental_uris":{"android":"levelo://app?vid=30280cfd-f111-481b-bd4b-19dbe9f73377","ios":"levelo://app?vid=30280cfd-f111-481b-bd4b-19dbe9f73377"},"vehicle_type_id":"4","last_reported":1712866036,"current_range_meters":9600,"station_id":"ce4bgrh2rcd13ifvqc8g","pricing_plan_id":"cebpf4jnsgd1na2vs0mg"},{"bike_id":"5815b918-3bb1-4bb0-88b2-5a6ea6c7e642","system_id":"levelo_inurba_marseille","lat":43.308012,"lon":5.381511,"is_reserved":false,"is_disabled":false,"rental_uris":{"android":"levelo://app?vid=5815b918-3bb1-4bb0-88b2-5a6ea6c7e642","ios":"levelo://app?vid=5815b918-3bb1-4bb0-88b2-5a6ea6c7e642"},"vehicle_type_id":"4","last_reported":1712866036,"current_range_meters":8400,"station_id":"ce4bgt12rcd13ifvqce0","pricing_plan_id":"cebpf4jnsgd1na2vs0mg"},{"bike_id":"b59f41db-90cd-4558-b47a-5af60abec512","system_id":"levelo_inurba_marseille","lat":43.30434,"lon":5.37809,"is_reserved":false,"is_disabled":false,"rental_uris":{"android":"levelo://app?vid=b59f41db-90cd-4558-b47a-5af60abec512","ios":"levelo://app?vid=b59f41db-90cd-4558-b47a-5af60abec512"},"vehicle_type_id":"4","last_reported":1712866036,"current_range_meters":0,"station_id":"","pricing_plan_id":"cebpf4jnsgd1na2vs0mg"},{"bike_id":"eb94f5a6-5336-4049-908a-5f49848fb475","system_id":"levelo_inurba_marseille","lat":43.308012,"lon":5.381511,"is_reserved":false,"is_disabled":false,"rental_uris":{"android":"levelo://app?vid=eb94f5a6-5336-4049-908a-5f49848fb475","ios":"levelo://app?vid=eb94f5a6-5336-4049-908a-5f49848fb475"},"vehicle_type_id":"4","last_reported":1712866036,"current_range_meters":400,"station_id":"ce4bgt12rcd13ifvqce0","pricing_plan_id":"cebpf4jnsgd1na2vs0mg"},{"bike_id":"0bcab156-022b-455d-bd1c-c90721e44f5d","system_id":"levelo_inurba_marseille","lat":43.324771,"lon":5.36557,"is_reserved":false,"is_disabled":false,"rental_uris":{"android":"levelo://app?vid=0bcab156-022b-455d-bd1c-c90721e44f5d","ios":"levelo://app?vid=0bcab156-022b-455d-bd1c-c90721e44f5d"},"vehicle_type_id":"4","last_reported":1712866036,"current_range_meters":3600,"station_id":"ce4bhs12rcd13ifvqhvg","pricing_plan_id":"cebpf4jnsgd1na2vs0mg"},{"bike_id":"c92ff043-d5a7-42bc-835b-987cc7ba50fc","system_id":"levelo_inurba_marseille","lat":43.324771,"lon":5.36557,"is_reserved":false,"is_disabled":false,"rental_uris":{"android":"levelo://app?vid=c92ff043-d5a7-42bc-835b-987cc7ba50fc","ios":"levelo://app?vid=c92ff043-d5a7-42bc-835b-987cc7ba50fc"},"vehicle_type_id":"4","last_reported":1712866036,"current_range_meters":0,"station_id":"ce4bhs12rcd13ifvqhvg","pricing_plan_id":"cebpf4jnsgd1na2vs0mg"},{"bike_id":"d0779fdc-d0e8-4eed-9974-19a43374d165","system_id":"levelo_inurba_marseille","lat":43.324771,"lon":5.36557,"is_reserved":false,"is_disabled":false,"rental_uris":{"android":"levelo://app?vid=d0779fdc-d0e8-4eed-9974-19a43374d165","ios":"levelo://app?vid=d0779fdc-d0e8-4eed-9974-19a43374d165"},"vehicle_type_id":"4","last_reported":1712866036,"current_range_meters":4000,"station_id":"ce4bhs12rcd13ifvqhvg","pricing_plan_id":"cebpf4jnsgd1na2vs0mg"},{"bike_id":"4001667e-2a4e-43ce-84d2-2dd044675a28","system_id":"levelo_inurba_marseille","lat":43.324771,"lon":5.36557,"is_reserved":false,"is_disabled":false,"rental_uris":{"android":"levelo://app?vid=4001667e-2a4e-43ce-84d2-2dd044675a28","ios":"levelo://app?vid=4001667e-2a4e-43ce-84d2-2dd044675a28"},"vehicle_type_id":"4","last_reported":1712866036,"current_range_meters":0,"station_id":"ce4bhs12rcd13ifvqhvg","pricing_plan_id":"cebpf4jnsgd1na2vs0mg"},{"bike_id":"2d60e52a-fed1-41e1-bff5-bcbd3cd74431","system_id":"levelo_inurba_marseille","lat":43.31075,"lon":5.38367,"is_reserved":false,"is_disabled":false,"rental_uris":{"android":"levelo://app?vid=2d60e52a-fed1-41e1-bff5-bcbd3cd74431","ios":"levelo://app?vid=2d60e52a-fed1-41e1-bff5-bcbd3cd74431"},"vehicle_type_id":"4","last_reported":1712866036,"current_range_meters":0,"station_id":"ce4bgv92rcd13ifvqcr0","pricing_plan_id":"cebpf4jnsgd1na2vs0mg"},{"bike_id":"689804b0-6821-4d98-9685-9f55e6cbf693","system_id":"levelo_inurba_marseille","lat":43.30144,"lon":5.37413,"is_reserved":false,"is_disabled":false,"rental_uris":{"android":"levelo://app?vid=689804b0-6821-4d98-9685-9f55e6cbf693","ios":"levelo://app?vid=689804b0-6821-4d98-9685-9f55e6cbf693"},"vehicle_type_id":"4","last_reported":1712866036,"current_range_meters":0,"station_id":"ce4bgs92rcd13ifvqcc0","pricing_plan_id":"cebpf4jnsgd1na2vs0mg"},{"bike_id":"0353eeb9-ab99-444b-89b1-127978c70357","system_id":"levelo_inurba_marseille","lat":43.30147,"lon":5.37425,"is_reserved":false,"is_disabled":false,"rental_uris":{"android":"levelo://app?vid=0353eeb9-ab99-444b-89b1-127978c70357","ios":"levelo://app?vid=0353eeb9-ab99-444b-89b1-127978c70357"},"vehicle_type_id":"4","last_reported":1712866036,"current_range_meters":0,"station_id":"ce4bgs92rcd13ifvqcc0","pricing_plan_id":"cebpf4jnsgd1na2vs0mg"},{"bike_id":"d7fb1669-a866-400a-80a1-4b70613a845a","system_id":"levelo_inurba_marseille","lat":43.30143,"lon":5.37413,"is_reserved":false,"is_disabled":false,"rental_uris":{"android":"levelo://app?vid=d7fb1669-a866-400a-80a1-4b70613a845a","ios":"levelo://app?vid=d7fb1669-a866-400a-80a1-4b70613a845a"},"vehicle_type_id":"4","last_reported":1712866036,"current_range_meters":11200,"station_id":"ce4bgs92rcd13ifvqcc0","pricing_plan_id":"cebpf4jnsgd1na2vs0mg"},{"bike_id":"2cff9093-d1ab-4d1e-816e-36d18748eeac","system_id":"levelo_inurba_marseille","lat":43.32,"lon":5.38141,"is_reserved":false,"is_disabled":false,"rental_uris":{"android":"levelo://app?vid=2cff9093-d1ab-4d1e-816e-36d18748eeac","ios":"levelo://app?vid=2cff9093-d1ab-4d1e-816e-36d18748eeac"},"vehicle_type_id":"4","last_reported":1712866036,"current_range_meters":0,"station_id":"ce4bhr12rcd13ifvqhpg","pricing_plan_id":"cebpf4jnsgd1na2vs0mg"},{"bike_id":"55e39ee5-ccc8-4659-b011-2a6fa20dfadf","system_id":"levelo_inurba_marseille","lat":43.319935,"lon":5.381699,"is_reserved":false,"is_disabled":false,"rental_uris":{"android":"levelo://app?vid=55e39ee5-ccc8-4659-b011-2a6fa20dfadf","ios":"levelo://app?vid=55e39ee5-ccc8-4659-b011-2a6fa20dfadf"},"vehicle_type_id":"4","last_reported":1712866036,"current_range_meters":400,"station_id":"ce4bhr12rcd13ifvqhpg","pricing_plan_id":"cebpf4jnsgd1na2vs0mg"},{"bike_id":"ea3394c5-4b21-4ca4-a63d-39e54eff6e7c","system_id":"levelo_inurba_marseille","lat":43.31996,"lon":5.38162,"is_reserved":false,"is_disabled":false,"rental_uris":{"android":"levelo://app?vid=ea3394c5-4b21-4ca4-a63d-39e54eff6e7c","ios":"levelo://app?vid=ea3394c5-4b21-4ca4-a63d-39e54eff6e7c"},"vehicle_type_id":"4","last_reported":1712866036,"current_range_meters":1200,"station_id":"ce4bhr12rcd13ifvqhpg","pricing_plan_id":"cebpf4jnsgd1na2vs0mg"},{"bike_id":"3e1813a8-f05b-4b00-b13c-da64846d3302","system_id":"levelo_inurba_marseille","lat":43.313571,"lon":5.384829,"is_reserved":false,"is_disabled":false,"rental_uris":{"android":"levelo://app?vid=3e1813a8-f05b-4b00-b13c-da64846d3302","ios":"levelo://app?vid=3e1813a8-f05b-4b00-b13c-da64846d3302"},"vehicle_type_id":"4","last_reported":1712866036,"current_range_meters":26800,"station_id":"ce4bgt92rcd13ifvqcf0","pricing_plan_id":"cebpf4jnsgd1na2vs0mg"},{"bike_id":"48b57d22-4f6d-4cb6-b627-5a5a80aeaecd","system_id":"levelo_inurba_marseille","lat":43.313571,"lon":5.384829,"is_reserved":false,"is_disabled":false,"rental_uris":{"android":"levelo://app?vid=48b57d22-4f6d-4cb6-b627-5a5a80aeaecd","ios":"levelo://app?vid=48b57d22-4f6d-4cb6-b627-5a5a80aeaecd"},"vehicle_type_id":"4","last_reported":1712866036,"current_range_meters":0,"station_id":"ce4bgt92rcd13ifvqcf0","pricing_plan_id":"cebpf4jnsgd1na2vs0mg"},{"bike_id":"fed516fa-a190-4020-af22-e4b2cfacad6e","system_id":"levelo_inurba_marseille","lat":43.313571,"lon":5.384829,"is_reserved":false,"is_disabled":false,"rental_uris":{"android":"levelo://app?vid=fed516fa-a190-4020-af22-e4b2cfacad6e","ios":"levelo://app?vid=fed516fa-a190-4020-af22-e4b2cfacad6e"},"vehicle_type_id":"4","last_reported":1712866036,"current_range_meters":0,"station_id":"ce4bgt92rcd13ifvqcf0","pricing_plan_id":"cebpf4jnsgd1na2vs0mg"},{"bike_id":"27efb912-9644-43ca-a8e8-fae29214289d","system_id":"levelo_inurba_marseille","lat":43.299724,"lon":5.371829,"is_reserved":false,"is_disabled":false,"rental_uris":{"android":"levelo://app?vid=27efb912-9644-43ca-a8e8-fae29214289d","ios":"levelo://app?vid=27efb912-9644-43ca-a8e8-fae29214289d"},"vehicle_type_id":"4","last_reported":1712866036,"current_range_meters":11600,"station_id":"ce4bgr92rcd13ifvqc7g","pricing_plan_id":"cebpf4jnsgd1na2vs0mg"},{"bike_id":"61070cdd-412c-4075-b15e-3c42430c64c4","system_id":"levelo_inurba_marseille","lat":43.29946,"lon":5.3653,"is_reserved":false,"is_disabled":false,"rental_uris":{"android":"levelo://app?vid=61070cdd-412c-4075-b15e-3c42430c64c4","ios":"levelo://app?vid=61070cdd-412c-4075-b15e-3c42430c64c4"},"vehicle_type_id":"4","last_reported":1712866036,"current_range_meters":0,"station_id":"","pricing_plan_id":"cebpf4jnsgd1na2vs0mg"},{"bike_id":"67180b8c-1655-48f8-aab1-4c95031265ac","system_id":"levelo_inurba_marseille","lat":43.299222,"lon":5.365554,"is_reserved":false,"is_disabled":false,"rental_uris":{"android":"levelo://app?vid=67180b8c-1655-48f8-aab1-4c95031265ac","ios":"levelo://app?vid=67180b8c-1655-48f8-aab1-4c95031265ac"},"vehicle_type_id":"4","last_reported":1712866036,"current_range_meters":0,"station_id":"ce4bgm92rcd13ifvqbr0","pricing_plan_id":"cebpf4jnsgd1na2vs0mg"},{"bike_id":"107df3dc-3067-42db-ae81-5a3ed728bdf2","system_id":"levelo_inurba_marseille","lat":43.299724,"lon":5.371829,"is_reserved":false,"is_disabled":false,"rental_uris":{"android":"levelo://app?vid=107df3dc-3067-42db-ae81-5a3ed728bdf2","ios":"levelo://app?vid=107df3dc-3067-42db-ae81-5a3ed728bdf2"},"vehicle_type_id":"4","last_reported":1712866036,"current_range_meters":0,"station_id":"ce4bgr92rcd13ifvqc7g","pricing_plan_id":"cebpf4jnsgd1na2vs0mg"},{"bike_id":"8e3234a3-0727-4f2d-a4ee-ce8329683ede","system_id":"levelo_inurba_marseille","lat":43.299724,"lon":5.371829,"is_reserved":false,"is_disabled":false,"rental_uris":{"android":"levelo://app?vid=8e3234a3-0727-4f2d-a4ee-ce8329683ede","ios":"levelo://app?vid=8e3234a3-0727-4f2d-a4ee-ce8329683ede"},"vehicle_type_id":"4","last_reported":1712866036,"current_range_meters":13200,"station_id":"ce4bgr92rcd13ifvqc7g","pricing_plan_id":"cebpf4jnsgd1na2vs0mg"},{"bike_id":"81518f69-d51c-4a82-a348-6005f74f69e6","system_id":"levelo_inurba_marseille","lat":43.299724,"lon":5.371829,"is_reserved":false,"is_disabled":false,"rental_uris":{"android":"levelo://app?vid=81518f69-d51c-4a82-a348-6005f74f69e6","ios":"levelo://app?vid=81518f69-d51c-4a82-a348-6005f74f69e6"},"vehicle_type_id":"4","last_reported":1712866036,"current_range_meters":9200,"station_id":"ce4bgr92rcd13ifvqc7g","pricing_plan_id":"cebpf4jnsgd1na2vs0mg"},{"bike_id":"66197c38-c8df-457a-98b4-35665970eca2","system_id":"levelo_inurba_marseille","lat":43.299724,"lon":5.371829,"is_reserved":false,"is_disabled":false,"rental_uris":{"android":"levelo://app?vid=66197c38-c8df-457a-98b4-35665970eca2","ios":"levelo://app?vid=66197c38-c8df-457a-98b4-35665970eca2"},"vehicle_type_id":"4","last_reported":1712866036,"current_range_meters":0,"station_id":"ce4bgr92rcd13ifvqc7g","pricing_plan_id":"cebpf4jnsgd1na2vs0mg"},{"bike_id":"4c950486-5289-4e0a-9066-60c00d120359","system_id":"levelo_inurba_marseille","lat":43.29959,"lon":5.37134,"is_reserved":false,"is_disabled":false,"rental_uris":{"android":"levelo://app?vid=4c950486-5289-4e0a-9066-60c00d120359","ios":"levelo://app?vid=4c950486-5289-4e0a-9066-60c00d120359"},"vehicle_type_id":"4","last_reported":1712866036,"current_range_meters":0,"station_id":"ce4bgr92rcd13ifvqc7g","pricing_plan_id":"cebpf4jnsgd1na2vs0mg"},{"bike_id":"bba3f5b7-93b8-48f9-a4e8-812a3a643acc","system_id":"levelo_inurba_marseille","lat":43.3,"lon":5.37613,"is_reserved":false,"is_disabled":false,"rental_uris":{"android":"levelo://app?vid=bba3f5b7-93b8-48f9-a4e8-812a3a643acc","ios":"levelo://app?vid=bba3f5b7-93b8-48f9-a4e8-812a3a643acc"},"vehicle_type_id":"4","last_reported":1712866036,"current_range_meters":2800,"station_id":"","pricing_plan_id":"cebpf4jnsgd1na2vs0mg"},{"bike_id":"2b5cb94f-3ab6-4a68-a382-2821f6e01859","system_id":"levelo_inurba_marseille","lat":43.29852,"lon":5.36285,"is_reserved":false,"is_disabled":false,"rental_uris":{"android":"levelo://app?vid=2b5cb94f-3ab6-4a68-a382-2821f6e01859","ios":"levelo://app?vid=2b5cb94f-3ab6-4a68-a382-2821f6e01859"},"vehicle_type_id":"4","last_reported":1712866036,"current_range_meters":0,"station_id":"ce4bgpp2rcd13ifvqc3g","pricing_plan_id":"cebpf4jnsgd1na2vs0mg"},{"bike_id":"5cd1ec53-8806-403f-99be-e1f3dacbdb6e","system_id":"levelo_inurba_marseille","lat":43.305364,"lon":5.384119,"is_reserved":false,"is_disabled":false,"rental_uris":{"android":"levelo://app?vid=5cd1ec53-8806-403f-99be-e1f3dacbdb6e","ios":"levelo://app?vid=5cd1ec53-8806-403f-99be-e1f3dacbdb6e"},"vehicle_type_id":"4","last_reported":1712866036,"current_range_meters":2000,"station_id":"ce4bgg92rcd13ifvqb30","pricing_plan_id":"cebpf4jnsgd1na2vs0mg"},{"bike_id":"ef3ab50b-9525-4293-b0a7-dbdc05a7c639","system_id":"levelo_inurba_marseille","lat":43.311722,"lon":5.387247,"is_reserved":false,"is_disabled":false,"rental_uris":{"android":"levelo://app?vid=ef3ab50b-9525-4293-b0a7-dbdc05a7c639","ios":"levelo://app?vid=ef3ab50b-9525-4293-b0a7-dbdc05a7c639"},"vehicle_type_id":"4","last_reported":1712866036,"current_range_meters":14000,"station_id":"ce4bgv12rcd13ifvqcp0","pricing_plan_id":"cebpf4jnsgd1na2vs0mg"},{"bike_id":"902351cd-616b-487e-a065-a34f8ba0e215","system_id":"levelo_inurba_marseille","lat":43.311722,"lon":5.387247,"is_reserved":false,"is_disabled":false,"rental_uris":{"android":"levelo://app?vid=902351cd-616b-487e-a065-a34f8ba0e215","ios":"levelo://app?vid=902351cd-616b-487e-a065-a34f8ba0e215"},"vehicle_type_id":"4","last_reported":1712866036,"current_range_meters":15200,"station_id":"ce4bgv12rcd13ifvqcp0","pricing_plan_id":"cebpf4jnsgd1na2vs0mg"},{"bike_id":"22cda53f-70f2-40a7-ae8d-233ce7d710a1","system_id":"levelo_inurba_marseille","lat":43.299243,"lon":5.37481,"is_reserved":false,"is_disabled":false,"rental_uris":{"android":"levelo://app?vid=22cda53f-70f2-40a7-ae8d-233ce7d710a1","ios":"levelo://app?vid=22cda53f-70f2-40a7-ae8d-233ce7d710a1"},"vehicle_type_id":"4","last_reported":1712866036,"current_range_meters":0,"station_id":"ce4bgjh2rcd13ifvqbg0","pricing_plan_id":"cebpf4jnsgd1na2vs0mg"},{"bike_id":"accf836f-4e5c-4832-9536-384dbc4054a2","system_id":"levelo_inurba_marseille","lat":43.311722,"lon":5.387247,"is_reserved":false,"is_disabled":false,"rental_uris":{"android":"levelo://app?vid=accf836f-4e5c-4832-9536-384dbc4054a2","ios":"levelo://app?vid=accf836f-4e5c-4832-9536-384dbc4054a2"},"vehicle_type_id":"4","last_reported":1712866036,"current_range_meters":17200,"station_id":"ce4bgv12rcd13ifvqcp0","pricing_plan_id":"cebpf4jnsgd1na2vs0mg"},{"bike_id":"419ecc75-d9b1-411a-8326-108c7f7dc838","system_id":"levelo_inurba_marseille","lat":43.3229,"lon":5.38262,"is_reserved":false,"is_disabled":false,"rental_uris":{"android":"levelo://app?vid=419ecc75-d9b1-411a-8326-108c7f7dc838","ios":"levelo://app?vid=419ecc75-d9b1-411a-8326-108c7f7dc838"},"vehicle_type_id":"4","last_reported":1712866036,"current_range_meters":27600,"station_id":"ce4bhr12rcd13ifvqhqg","pricing_plan_id":"cebpf4jnsgd1na2vs0mg"},{"bike_id":"df83776a-bfc5-47e7-9b22-6f070ff90bc4","system_id":"levelo_inurba_marseille","lat":43.322872,"lon":5.382756,"is_reserved":false,"is_disabled":false,"rental_uris":{"android":"levelo://app?vid=df83776a-bfc5-47e7-9b22-6f070ff90bc4","ios":"levelo://app?vid=df83776a-bfc5-47e7-9b22-6f070ff90bc4"},"vehicle_type_id":"4","last_reported":1712866036,"current_range_meters":31200,"station_id":"ce4bhr12rcd13ifvqhqg","pricing_plan_id":"cebpf4jnsgd1na2vs0mg"},{"bike_id":"622889ea-8ffc-4dcb-8d4f-a257ac52e57c","system_id":"levelo_inurba_marseille","lat":43.322872,"lon":5.382756,"is_reserved":false,"is_disabled":false,"rental_uris":{"android":"levelo://app?vid=622889ea-8ffc-4dcb-8d4f-a257ac52e57c","ios":"levelo://app?vid=622889ea-8ffc-4dcb-8d4f-a257ac52e57c"},"vehicle_type_id":"4","last_reported":1712866036,"current_range_meters":6800,"station_id":"ce4bhr12rcd13ifvqhqg","pricing_plan_id":"cebpf4jnsgd1na2vs0mg"},{"bike_id":"0e73c717-7d72-4151-8b9a-6405cfc2f068","system_id":"levelo_inurba_marseille","lat":43.322872,"lon":5.382756,"is_reserved":false,"is_disabled":false,"rental_uris":{"android":"levelo://app?vid=0e73c717-7d72-4151-8b9a-6405cfc2f068","ios":"levelo://app?vid=0e73c717-7d72-4151-8b9a-6405cfc2f068"},"vehicle_type_id":"4","last_reported":1712866036,"current_range_meters":27200,"station_id":"ce4bhr12rcd13ifvqhqg","pricing_plan_id":"cebpf4jnsgd1na2vs0mg"},{"bike_id":"d0797568-160f-4103-bc8b-b49425a45daa","system_id":"levelo_inurba_marseille","lat":43.322872,"lon":5.382756,"is_reserved":false,"is_disabled":false,"rental_uris":{"android":"levelo://app?vid=d0797568-160f-4103-bc8b-b49425a45daa","ios":"levelo://app?vid=d0797568-160f-4103-bc8b-b49425a45daa"},"vehicle_type_id":"4","last_reported":1712866036,"current_range_meters":10400,"station_id":"ce4bhr12rcd13ifvqhqg","pricing_plan_id":"cebpf4jnsgd1na2vs0mg"},{"bike_id":"9424f6dd-ede3-47a3-af09-99d281b159c7","system_id":"levelo_inurba_marseille","lat":43.317558,"lon":5.388231,"is_reserved":false,"is_disabled":false,"rental_uris":{"android":"levelo://app?vid=9424f6dd-ede3-47a3-af09-99d281b159c7","ios":"levelo://app?vid=9424f6dd-ede3-47a3-af09-99d281b159c7"},"vehicle_type_id":"4","last_reported":1712866036,"current_range_meters":30000,"station_id":"","pricing_plan_id":"cebpf4jnsgd1na2vs0mg"},{"bike_id":"357f3a12-2321-4175-891e-d27ddb12539b","system_id":"levelo_inurba_marseille","lat":43.296131,"lon":5.370791,"is_reserved":false,"is_disabled":false,"rental_uris":{"android":"levelo://app?vid=357f3a12-2321-4175-891e-d27ddb12539b","ios":"levelo://app?vid=357f3a12-2321-4175-891e-d27ddb12539b"},"vehicle_type_id":"4","last_reported":1712866036,"current_range_meters":31200,"station_id":"ce4bgnh2rcd13ifvqc0g","pricing_plan_id":"cebpf4jnsgd1na2vs0mg"},{"bike_id":"8dc3d13b-def9-475a-9d8f-ad6b4f5e3cd0","system_id":"levelo_inurba_marseille","lat":43.29573,"lon":5.367355,"is_reserved":false,"is_disabled":false,"rental_uris":{"android":"levelo://app?vid=8dc3d13b-def9-475a-9d8f-ad6b4f5e3cd0","ios":"levelo://app?vid=8dc3d13b-def9-475a-9d8f-ad6b4f5e3cd0"},"vehicle_type_id":"4","last_reported":1712866036,"current_range_meters":800,"station_id":"ce4bgph2rcd13ifvqc2g","pricing_plan_id":"cebpf4jnsgd1na2vs0mg"},{"bike_id":"c1cedd02-a4b9-4d67-a4c9-3f381e3d22a1","system_id":"levelo_inurba_marseille","lat":43.31757,"lon":5.38939,"is_reserved":false,"is_disabled":false,"rental_uris":{"android":"levelo://app?vid=c1cedd02-a4b9-4d67-a4c9-3f381e3d22a1","ios":"levelo://app?vid=c1cedd02-a4b9-4d67-a4c9-3f381e3d22a1"},"vehicle_type_id":"4","last_reported":1712866036,"current_range_meters":6000,"station_id":"ce4bhqp2rcd13ifvqhng","pricing_plan_id":"cebpf4jnsgd1na2vs0mg"},{"bike_id":"afe42556-cef0-4e3d-a5b2-6271a3ad3ff5","system_id":"levelo_inurba_marseille","lat":43.30951,"lon":5.39024,"is_reserved":false,"is_disabled":false,"rental_uris":{"android":"levelo://app?vid=afe42556-cef0-4e3d-a5b2-6271a3ad3ff5","ios":"levelo://app?vid=afe42556-cef0-4e3d-a5b2-6271a3ad3ff5"},"vehicle_type_id":"4","last_reported":1712866036,"current_range_meters":0,"station_id":"ce4bgup2rcd13ifvqco0","pricing_plan_id":"cebpf4jnsgd1na2vs0mg"},{"bike_id":"2fd96e2a-2851-45da-9529-66f4301a3a79","system_id":"levelo_inurba_marseille","lat":43.309589,"lon":5.390258,"is_reserved":false,"is_disabled":false,"rental_uris":{"android":"levelo://app?vid=2fd96e2a-2851-45da-9529-66f4301a3a79","ios":"levelo://app?vid=2fd96e2a-2851-45da-9529-66f4301a3a79"},"vehicle_type_id":"4","last_reported":1712866036,"current_range_meters":400,"station_id":"ce4bgup2rcd13ifvqco0","pricing_plan_id":"cebpf4jnsgd1na2vs0mg"},{"bike_id":"1427ae72-236e-4bb4-8764-0cfcd9da051b","system_id":"levelo_inurba_marseille","lat":43.296921,"lon":5.376579,"is_reserved":false,"is_disabled":false,"rental_uris":{"android":"levelo://app?vid=1427ae72-236e-4bb4-8764-0cfcd9da051b","ios":"levelo://app?vid=1427ae72-236e-4bb4-8764-0cfcd9da051b"},"vehicle_type_id":"4","last_reported":1712866036,"current_range_meters":13600,"station_id":"ce4bgkh2rcd13ifvqbl0","pricing_plan_id":"cebpf4jnsgd1na2vs0mg"},{"bike_id":"fb016c6b-cc7b-45b9-8385-ec5557b791da","system_id":"levelo_inurba_marseille","lat":43.296921,"lon":5.376579,"is_reserved":false,"is_disabled":false,"rental_uris":{"android":"levelo://app?vid=fb016c6b-cc7b-45b9-8385-ec5557b791da","ios":"levelo://app?vid=fb016c6b-cc7b-45b9-8385-ec5557b791da"},"vehicle_type_id":"4","last_reported":1712866036,"current_range_meters":2400,"station_id":"ce4bgkh2rcd13ifvqbl0","pricing_plan_id":"cebpf4jnsgd1na2vs0mg"},{"bike_id":"1bdd5170-5354-43ac-8922-42eb1e441f6a","system_id":"levelo_inurba_marseille","lat":43.309589,"lon":5.390258,"is_reserved":false,"is_disabled":false,"rental_uris":{"android":"levelo://app?vid=1bdd5170-5354-43ac-8922-42eb1e441f6a","ios":"levelo://app?vid=1bdd5170-5354-43ac-8922-42eb1e441f6a"},"vehicle_type_id":"4","last_reported":1712866036,"current_range_meters":3600,"station_id":"ce4bgup2rcd13ifvqco0","pricing_plan_id":"cebpf4jnsgd1na2vs0mg"},{"bike_id":"7fee823b-f451-4dd9-89d2-ef11e12aef1d","system_id":"levelo_inurba_marseille","lat":43.31754,"lon":5.39008,"is_reserved":false,"is_disabled":false,"rental_uris":{"android":"levelo://app?vid=7fee823b-f451-4dd9-89d2-ef11e12aef1d","ios":"levelo://app?vid=7fee823b-f451-4dd9-89d2-ef11e12aef1d"},"vehicle_type_id":"4","last_reported":1712866036,"current_range_meters":0,"station_id":"ce4bhqp2rcd13ifvqhng","pricing_plan_id":"cebpf4jnsgd1na2vs0mg"},{"bike_id":"bb171d16-60fe-47a4-a636-0b4cacea4cb6","system_id":"levelo_inurba_marseille","lat":43.31758,"lon":5.39013,"is_reserved":false,"is_disabled":false,"rental_uris":{"android":"levelo://app?vid=bb171d16-60fe-47a4-a636-0b4cacea4cb6","ios":"levelo://app?vid=bb171d16-60fe-47a4-a636-0b4cacea4cb6"},"vehicle_type_id":"4","last_reported":1712866036,"current_range_meters":9200,"station_id":"ce4bhqp2rcd13ifvqhng","pricing_plan_id":"cebpf4jnsgd1na2vs0mg"},{"bike_id":"c6a2a7e8-4a54-4733-bbcb-47a85a127b51","system_id":"levelo_inurba_marseille","lat":43.31759,"lon":5.39013,"is_reserved":false,"is_disabled":false,"rental_uris":{"android":"levelo://app?vid=c6a2a7e8-4a54-4733-bbcb-47a85a127b51","ios":"levelo://app?vid=c6a2a7e8-4a54-4733-bbcb-47a85a127b51"},"vehicle_type_id":"4","last_reported":1712866036,"current_range_meters":22800,"station_id":"ce4bhqp2rcd13ifvqhng","pricing_plan_id":"cebpf4jnsgd1na2vs0mg"},{"bike_id":"4c3d7472-024c-4c22-b3d2-4bd4ac3cdeb8","system_id":"levelo_inurba_marseille","lat":43.3176,"lon":5.39015,"is_reserved":false,"is_disabled":false,"rental_uris":{"android":"levelo://app?vid=4c3d7472-024c-4c22-b3d2-4bd4ac3cdeb8","ios":"levelo://app?vid=4c3d7472-024c-4c22-b3d2-4bd4ac3cdeb8"},"vehicle_type_id":"4","last_reported":1712866036,"current_range_meters":17600,"station_id":"ce4bhqp2rcd13ifvqhng","pricing_plan_id":"cebpf4jnsgd1na2vs0mg"},{"bike_id":"43cc7bad-ac8c-4a78-b1f0-1265d17d32a8","system_id":"levelo_inurba_marseille","lat":43.297875,"lon":5.380833,"is_reserved":false,"is_disabled":false,"rental_uris":{"android":"levelo://app?vid=43cc7bad-ac8c-4a78-b1f0-1265d17d32a8","ios":"levelo://app?vid=43cc7bad-ac8c-4a78-b1f0-1265d17d32a8"},"vehicle_type_id":"4","last_reported":1712866036,"current_range_meters":0,"station_id":"ce4bgip2rcd13ifvqbb0","pricing_plan_id":"cebpf4jnsgd1na2vs0mg"},{"bike_id":"9431d4c5-89ca-4ee3-ba2e-cdae09eba656","system_id":"levelo_inurba_marseille","lat":43.313571,"lon":5.384829,"is_reserved":false,"is_disabled":false,"rental_uris":{"android":"levelo://app?vid=9431d4c5-89ca-4ee3-ba2e-cdae09eba656","ios":"levelo://app?vid=9431d4c5-89ca-4ee3-ba2e-cdae09eba656"},"vehicle_type_id":"4","last_reported":1712866036,"current_range_meters":800,"station_id":"ce4bgt92rcd13ifvqcf0","pricing_plan_id":"cebpf4jnsgd1na2vs0mg"},{"bike_id":"250bc681-b8cc-420e-a9f6-5f786bae0adb","system_id":"levelo_inurba_marseille","lat":43.304278,"lon":5.388868,"is_reserved":false,"is_disabled":false,"rental_uris":{"android":"levelo://app?vid=250bc681-b8cc-420e-a9f6-5f786bae0adb","ios":"levelo://app?vid=250bc681-b8cc-420e-a9f6-5f786bae0adb"},"vehicle_type_id":"4","last_reported":1712866036,"current_range_meters":800,"station_id":"ce4bgk12rcd13ifvqbi0","pricing_plan_id":"cebpf4jnsgd1na2vs0mg"},{"bike_id":"f60fc650-2af9-47fd-abd8-bfc249620ef2","system_id":"levelo_inurba_marseille","lat":43.295748,"lon":5.37522,"is_reserved":false,"is_disabled":false,"rental_uris":{"android":"levelo://app?vid=f60fc650-2af9-47fd-abd8-bfc249620ef2","ios":"levelo://app?vid=f60fc650-2af9-47fd-abd8-bfc249620ef2"},"vehicle_type_id":"4","last_reported":1712866036,"current_range_meters":0,"station_id":"ce4bgh92rcd13ifvqb50","pricing_plan_id":"cebpf4jnsgd1na2vs0mg"},{"bike_id":"d5ec14ea-dae7-4841-96e3-230bb7d03894","system_id":"levelo_inurba_marseille","lat":43.304278,"lon":5.388868,"is_reserved":false,"is_disabled":false,"rental_uris":{"android":"levelo://app?vid=d5ec14ea-dae7-4841-96e3-230bb7d03894","ios":"levelo://app?vid=d5ec14ea-dae7-4841-96e3-230bb7d03894"},"vehicle_type_id":"4","last_reported":1712866036,"current_range_meters":1600,"station_id":"ce4bgk12rcd13ifvqbi0","pricing_plan_id":"cebpf4jnsgd1na2vs0mg"},{"bike_id":"4e15dbef-a013-4377-8d9f-549847c889f4","system_id":"levelo_inurba_marseille","lat":43.304298,"lon":5.388846,"is_reserved":false,"is_disabled":false,"rental_uris":{"android":"levelo://app?vid=4e15dbef-a013-4377-8d9f-549847c889f4","ios":"levelo://app?vid=4e15dbef-a013-4377-8d9f-549847c889f4"},"vehicle_type_id":"4","last_reported":1712866036,"current_range_meters":0,"station_id":"ce4bgk12rcd13ifvqbi0","pricing_plan_id":"cebpf4jnsgd1na2vs0mg"},{"bike_id":"e20c3a7e-b506-4b59-93fc-e6481e8f8d67","system_id":"levelo_inurba_marseille","lat":43.304278,"lon":5.388868,"is_reserved":false,"is_disabled":false,"rental_uris":{"android":"levelo://app?vid=e20c3a7e-b506-4b59-93fc-e6481e8f8d67","ios":"levelo://app?vid=e20c3a7e-b506-4b59-93fc-e6481e8f8d67"},"vehicle_type_id":"4","last_reported":1712866036,"current_range_meters":4000,"station_id":"ce4bgk12rcd13ifvqbi0","pricing_plan_id":"cebpf4jnsgd1na2vs0mg"},{"bike_id":"cca97756-844e-4461-ad0f-23a321f9de7b","system_id":"levelo_inurba_marseille","lat":43.295748,"lon":5.37522,"is_reserved":false,"is_disabled":false,"rental_uris":{"android":"levelo://app?vid=cca97756-844e-4461-ad0f-23a321f9de7b","ios":"levelo://app?vid=cca97756-844e-4461-ad0f-23a321f9de7b"},"vehicle_type_id":"4","last_reported":1712866036,"current_range_meters":3200,"station_id":"ce4bgh92rcd13ifvqb50","pricing_plan_id":"cebpf4jnsgd1na2vs0mg"},{"bike_id":"38ef1ecf-68a3-44dc-9802-885deae9ca5f","system_id":"levelo_inurba_marseille","lat":43.304278,"lon":5.388868,"is_reserved":false,"is_disabled":false,"rental_uris":{"android":"levelo://app?vid=38ef1ecf-68a3-44dc-9802-885deae9ca5f","ios":"levelo://app?vid=38ef1ecf-68a3-44dc-9802-885deae9ca5f"},"vehicle_type_id":"4","last_reported":1712866036,"current_range_meters":14800,"station_id":"ce4bgk12rcd13ifvqbi0","pricing_plan_id":"cebpf4jnsgd1na2vs0mg"},{"bike_id":"781bc16c-ff4d-49dc-818b-e3197832a265","system_id":"levelo_inurba_marseille","lat":43.29974,"lon":5.3848,"is_reserved":false,"is_disabled":false,"rental_uris":{"android":"levelo://app?vid=781bc16c-ff4d-49dc-818b-e3197832a265","ios":"levelo://app?vid=781bc16c-ff4d-49dc-818b-e3197832a265"},"vehicle_type_id":"4","last_reported":1712866036,"current_range_meters":0,"station_id":"ce4bgj92rcd13ifvqbd0","pricing_plan_id":"cebpf4jnsgd1na2vs0mg"},{"bike_id":"3efd4f10-68a7-485e-8df5-ebc651ae6273","system_id":"levelo_inurba_marseille","lat":43.295279,"lon":5.375048,"is_reserved":false,"is_disabled":false,"rental_uris":{"android":"levelo://app?vid=3efd4f10-68a7-485e-8df5-ebc651ae6273","ios":"levelo://app?vid=3efd4f10-68a7-485e-8df5-ebc651ae6273"},"vehicle_type_id":"4","last_reported":1712866036,"current_range_meters":0,"station_id":"ce4bgkp2rcd13ifvqbmg","pricing_plan_id":"cebpf4jnsgd1na2vs0mg"},{"bike_id":"14f5b203-fef9-4079-b685-4831a0c6ae2c","system_id":"levelo_inurba_marseille","lat":43.295279,"lon":5.375048,"is_reserved":false,"is_disabled":false,"rental_uris":{"android":"levelo://app?vid=14f5b203-fef9-4079-b685-4831a0c6ae2c","ios":"levelo://app?vid=14f5b203-fef9-4079-b685-4831a0c6ae2c"},"vehicle_type_id":"4","last_reported":1712866036,"current_range_meters":6000,"station_id":"ce4bgkp2rcd13ifvqbmg","pricing_plan_id":"cebpf4jnsgd1na2vs0mg"},{"bike_id":"4b077fae-140a-4a46-97bb-b68d291617c0","system_id":"levelo_inurba_marseille","lat":43.295279,"lon":5.375048,"is_reserved":false,"is_disabled":false,"rental_uris":{"android":"levelo://app?vid=4b077fae-140a-4a46-97bb-b68d291617c0","ios":"levelo://app?vid=4b077fae-140a-4a46-97bb-b68d291617c0"},"vehicle_type_id":"4","last_reported":1712866036,"current_range_meters":1200,"station_id":"ce4bgkp2rcd13ifvqbmg","pricing_plan_id":"cebpf4jnsgd1na2vs0mg"},{"bike_id":"0e301c03-8acc-4090-a435-daf090b7a333","system_id":"levelo_inurba_marseille","lat":43.29973,"lon":5.38486,"is_reserved":false,"is_disabled":false,"rental_uris":{"android":"levelo://app?vid=0e301c03-8acc-4090-a435-daf090b7a333","ios":"levelo://app?vid=0e301c03-8acc-4090-a435-daf090b7a333"},"vehicle_type_id":"4","last_reported":1712866036,"current_range_meters":0,"station_id":"ce4bgj92rcd13ifvqbd0","pricing_plan_id":"cebpf4jnsgd1na2vs0mg"},{"bike_id":"03b3eaae-325c-4b79-a1f3-98ea2f06578a","system_id":"levelo_inurba_marseille","lat":43.29969,"lon":5.384806,"is_reserved":false,"is_disabled":false,"rental_uris":{"android":"levelo://app?vid=03b3eaae-325c-4b79-a1f3-98ea2f06578a","ios":"levelo://app?vid=03b3eaae-325c-4b79-a1f3-98ea2f06578a"},"vehicle_type_id":"4","last_reported":1712866036,"current_range_meters":0,"station_id":"ce4bgj92rcd13ifvqbd0","pricing_plan_id":"cebpf4jnsgd1na2vs0mg"},{"bike_id":"932917b6-430f-46d5-be25-58b94a660858","system_id":"levelo_inurba_marseille","lat":43.29524,"lon":5.3749,"is_reserved":false,"is_disabled":false,"rental_uris":{"android":"levelo://app?vid=932917b6-430f-46d5-be25-58b94a660858","ios":"levelo://app?vid=932917b6-430f-46d5-be25-58b94a660858"},"vehicle_type_id":"4","last_reported":1712866036,"current_range_meters":0,"station_id":"ce4bgkp2rcd13ifvqbmg","pricing_plan_id":"cebpf4jnsgd1na2vs0mg"},{"bike_id":"05628d94-a629-48c4-8005-499a40ca07fa","system_id":"levelo_inurba_marseille","lat":43.299707,"lon":5.384859,"is_reserved":false,"is_disabled":false,"rental_uris":{"android":"levelo://app?vid=05628d94-a629-48c4-8005-499a40ca07fa","ios":"levelo://app?vid=05628d94-a629-48c4-8005-499a40ca07fa"},"vehicle_type_id":"4","last_reported":1712866036,"current_range_meters":17600,"station_id":"ce4bgj92rcd13ifvqbd0","pricing_plan_id":"cebpf4jnsgd1na2vs0mg"},{"bike_id":"afe57054-1ff1-4cba-82d3-1ec5632bce5e","system_id":"levelo_inurba_marseille","lat":43.299663,"lon":5.384907,"is_reserved":false,"is_disabled":false,"rental_uris":{"android":"levelo://app?vid=afe57054-1ff1-4cba-82d3-1ec5632bce5e","ios":"levelo://app?vid=afe57054-1ff1-4cba-82d3-1ec5632bce5e"},"vehicle_type_id":"4","last_reported":1712866036,"current_range_meters":0,"station_id":"ce4bgj92rcd13ifvqbd0","pricing_plan_id":"cebpf4jnsgd1na2vs0mg"},{"bike_id":"b9444509-31ff-4163-bb5d-5361d1664db3","system_id":"levelo_inurba_marseille","lat":43.295279,"lon":5.375048,"is_reserved":false,"is_disabled":false,"rental_uris":{"android":"levelo://app?vid=b9444509-31ff-4163-bb5d-5361d1664db3","ios":"levelo://app?vid=b9444509-31ff-4163-bb5d-5361d1664db3"},"vehicle_type_id":"4","last_reported":1712866036,"current_range_meters":0,"station_id":"ce4bgkp2rcd13ifvqbmg","pricing_plan_id":"cebpf4jnsgd1na2vs0mg"},{"bike_id":"98e807a8-704a-490a-bcef-6fa26b070069","system_id":"levelo_inurba_marseille","lat":43.299717,"lon":5.384845,"is_reserved":false,"is_disabled":false,"rental_uris":{"android":"levelo://app?vid=98e807a8-704a-490a-bcef-6fa26b070069","ios":"levelo://app?vid=98e807a8-704a-490a-bcef-6fa26b070069"},"vehicle_type_id":"4","last_reported":1712866036,"current_range_meters":0,"station_id":"ce4bgj92rcd13ifvqbd0","pricing_plan_id":"cebpf4jnsgd1na2vs0mg"},{"bike_id":"3d3e66fb-0409-4f9a-9246-50570fceddd0","system_id":"levelo_inurba_marseille","lat":43.299717,"lon":5.384845,"is_reserved":false,"is_disabled":false,"rental_uris":{"android":"levelo://app?vid=3d3e66fb-0409-4f9a-9246-50570fceddd0","ios":"levelo://app?vid=3d3e66fb-0409-4f9a-9246-50570fceddd0"},"vehicle_type_id":"4","last_reported":1712866036,"current_range_meters":400,"station_id":"ce4bgj92rcd13ifvqbd0","pricing_plan_id":"cebpf4jnsgd1na2vs0mg"},{"bike_id":"7b640736-9eea-40aa-9f8a-14725f5b19e4","system_id":"levelo_inurba_marseille","lat":43.302759,"lon":5.400793,"is_reserved":false,"is_disabled":false,"rental_uris":{"android":"levelo://app?vid=7b640736-9eea-40aa-9f8a-14725f5b19e4","ios":"levelo://app?vid=7b640736-9eea-40aa-9f8a-14725f5b19e4"},"vehicle_type_id":"4","last_reported":1712866036,"current_range_meters":5200,"station_id":"ce4bgvh2rcd13ifvqcs0","pricing_plan_id":"cebpf4jnsgd1na2vs0mg"},{"bike_id":"a9194924-de5e-4238-8a99-85b46d3b5ec8","system_id":"levelo_inurba_marseille","lat":43.299717,"lon":5.384845,"is_reserved":false,"is_disabled":false,"rental_uris":{"android":"levelo://app?vid=a9194924-de5e-4238-8a99-85b46d3b5ec8","ios":"levelo://app?vid=a9194924-de5e-4238-8a99-85b46d3b5ec8"},"vehicle_type_id":"4","last_reported":1712866036,"current_range_meters":0,"station_id":"ce4bgj92rcd13ifvqbd0","pricing_plan_id":"cebpf4jnsgd1na2vs0mg"},{"bike_id":"1d5a3237-552f-4176-a474-2cfb55f167c7","system_id":"levelo_inurba_marseille","lat":43.32367,"lon":5.38868,"is_reserved":false,"is_disabled":false,"rental_uris":{"android":"levelo://app?vid=1d5a3237-552f-4176-a474-2cfb55f167c7","ios":"levelo://app?vid=1d5a3237-552f-4176-a474-2cfb55f167c7"},"vehicle_type_id":"4","last_reported":1712866036,"current_range_meters":0,"station_id":"ce4bhqp2rcd13ifvqhog","pricing_plan_id":"cebpf4jnsgd1na2vs0mg"},{"bike_id":"d38449fc-bc1f-4d55-81c1-82379281d6a7","system_id":"levelo_inurba_marseille","lat":43.32367,"lon":5.38874,"is_reserved":false,"is_disabled":false,"rental_uris":{"android":"levelo://app?vid=d38449fc-bc1f-4d55-81c1-82379281d6a7","ios":"levelo://app?vid=d38449fc-bc1f-4d55-81c1-82379281d6a7"},"vehicle_type_id":"4","last_reported":1712866036,"current_range_meters":0,"station_id":"ce4bhqp2rcd13ifvqhog","pricing_plan_id":"cebpf4jnsgd1na2vs0mg"},{"bike_id":"fc5cbf16-ea4c-49c2-a365-cbd103ca1040","system_id":"levelo_inurba_marseille","lat":43.32367,"lon":5.38877,"is_reserved":false,"is_disabled":false,"rental_uris":{"android":"levelo://app?vid=fc5cbf16-ea4c-49c2-a365-cbd103ca1040","ios":"levelo://app?vid=fc5cbf16-ea4c-49c2-a365-cbd103ca1040"},"vehicle_type_id":"4","last_reported":1712866036,"current_range_meters":6400,"station_id":"ce4bhqp2rcd13ifvqhog","pricing_plan_id":"cebpf4jnsgd1na2vs0mg"},{"bike_id":"4ecca596-7e76-4381-968e-fa8e6b1737ca","system_id":"levelo_inurba_marseille","lat":43.32364,"lon":5.38884,"is_reserved":false,"is_disabled":false,"rental_uris":{"android":"levelo://app?vid=4ecca596-7e76-4381-968e-fa8e6b1737ca","ios":"levelo://app?vid=4ecca596-7e76-4381-968e-fa8e6b1737ca"},"vehicle_type_id":"4","last_reported":1712866036,"current_range_meters":0,"station_id":"ce4bhqp2rcd13ifvqhog","pricing_plan_id":"cebpf4jnsgd1na2vs0mg"},{"bike_id":"5628f1e9-00d6-47d8-a13a-69b7bee1a078","system_id":"levelo_inurba_marseille","lat":43.32367,"lon":5.388836,"is_reserved":false,"is_disabled":false,"rental_uris":{"android":"levelo://app?vid=5628f1e9-00d6-47d8-a13a-69b7bee1a078","ios":"levelo://app?vid=5628f1e9-00d6-47d8-a13a-69b7bee1a078"},"vehicle_type_id":"4","last_reported":1712866036,"current_range_meters":13600,"station_id":"ce4bhqp2rcd13ifvqhog","pricing_plan_id":"cebpf4jnsgd1na2vs0mg"},{"bike_id":"80442433-8126-474a-954b-db6709f3d1da","system_id":"levelo_inurba_marseille","lat":43.32367,"lon":5.388836,"is_reserved":false,"is_disabled":false,"rental_uris":{"android":"levelo://app?vid=80442433-8126-474a-954b-db6709f3d1da","ios":"levelo://app?vid=80442433-8126-474a-954b-db6709f3d1da"},"vehicle_type_id":"4","last_reported":1712866036,"current_range_meters":1600,"station_id":"ce4bhqp2rcd13ifvqhog","pricing_plan_id":"cebpf4jnsgd1na2vs0mg"},{"bike_id":"0031ce53-b770-4bde-b8fc-835eff80d941","system_id":"levelo_inurba_marseille","lat":43.32366,"lon":5.3889,"is_reserved":false,"is_disabled":false,"rental_uris":{"android":"levelo://app?vid=0031ce53-b770-4bde-b8fc-835eff80d941","ios":"levelo://app?vid=0031ce53-b770-4bde-b8fc-835eff80d941"},"vehicle_type_id":"4","last_reported":1712866036,"current_range_meters":7600,"station_id":"ce4bhqp2rcd13ifvqhog","pricing_plan_id":"cebpf4jnsgd1na2vs0mg"},{"bike_id":"f4111c77-06a3-4494-818c-995adc7c2c3d","system_id":"levelo_inurba_marseille","lat":43.32367,"lon":5.388836,"is_reserved":false,"is_disabled":false,"rental_uris":{"android":"levelo://app?vid=f4111c77-06a3-4494-818c-995adc7c2c3d","ios":"levelo://app?vid=f4111c77-06a3-4494-818c-995adc7c2c3d"},"vehicle_type_id":"4","last_reported":1712866036,"current_range_meters":400,"station_id":"ce4bhqp2rcd13ifvqhog","pricing_plan_id":"cebpf4jnsgd1na2vs0mg"},{"bike_id":"0f2aeea3-9210-4511-80ac-1dcc0305f327","system_id":"levelo_inurba_marseille","lat":43.29605,"lon":5.38096,"is_reserved":false,"is_disabled":false,"rental_uris":{"android":"levelo://app?vid=0f2aeea3-9210-4511-80ac-1dcc0305f327","ios":"levelo://app?vid=0f2aeea3-9210-4511-80ac-1dcc0305f327"},"vehicle_type_id":"4","last_reported":1712866036,"current_range_meters":8800,"station_id":"ce4bgl12rcd13ifvqbo0","pricing_plan_id":"cebpf4jnsgd1na2vs0mg"},{"bike_id":"4c715fd4-5cb4-407f-8be0-77fe5d81d225","system_id":"levelo_inurba_marseille","lat":43.297163,"lon":5.365866,"is_reserved":false,"is_disabled":false,"rental_uris":{"android":"levelo://app?vid=4c715fd4-5cb4-407f-8be0-77fe5d81d225","ios":"levelo://app?vid=4c715fd4-5cb4-407f-8be0-77fe5d81d225"},"vehicle_type_id":"4","last_reported":1712866036,"current_range_meters":24000,"station_id":"ce4bgn12rcd13ifvqbt0","pricing_plan_id":"cebpf4jnsgd1na2vs0mg"},{"bike_id":"de8d27e9-792f-4f27-91d6-43c32fe8ab9f","system_id":"levelo_inurba_marseille","lat":43.293259,"lon":5.371586,"is_reserved":false,"is_disabled":false,"rental_uris":{"android":"levelo://app?vid=de8d27e9-792f-4f27-91d6-43c32fe8ab9f","ios":"levelo://app?vid=de8d27e9-792f-4f27-91d6-43c32fe8ab9f"},"vehicle_type_id":"4","last_reported":1712866036,"current_range_meters":26800,"station_id":"ce4bgh92rcd13ifvqb40","pricing_plan_id":"cebpf4jnsgd1na2vs0mg"},{"bike_id":"f11e9879-5252-48c3-9fa1-bf4dda1451ed","system_id":"levelo_inurba_marseille","lat":43.292749,"lon":5.368398,"is_reserved":false,"is_disabled":false,"rental_uris":{"android":"levelo://app?vid=f11e9879-5252-48c3-9fa1-bf4dda1451ed","ios":"levelo://app?vid=f11e9879-5252-48c3-9fa1-bf4dda1451ed"},"vehicle_type_id":"4","last_reported":1712866036,"current_range_meters":3200,"station_id":"ce4bhbp2rcd13ifvqesg","pricing_plan_id":"cebpf4jnsgd1na2vs0mg"},{"bike_id":"7f875cbd-00f7-4e1f-8a4b-3e21ef0eff05","system_id":"levelo_inurba_marseille","lat":43.29305,"lon":5.37184,"is_reserved":false,"is_disabled":false,"rental_uris":{"android":"levelo://app?vid=7f875cbd-00f7-4e1f-8a4b-3e21ef0eff05","ios":"levelo://app?vid=7f875cbd-00f7-4e1f-8a4b-3e21ef0eff05"},"vehicle_type_id":"4","last_reported":1712866036,"current_range_meters":0,"station_id":"ce4bgh92rcd13ifvqb40","pricing_plan_id":"cebpf4jnsgd1na2vs0mg"},{"bike_id":"59fb4d7f-baa9-41fa-ad19-6403b251b051","system_id":"levelo_inurba_marseille","lat":43.309589,"lon":5.390258,"is_reserved":false,"is_disabled":false,"rental_uris":{"android":"levelo://app?vid=59fb4d7f-baa9-41fa-ad19-6403b251b051","ios":"levelo://app?vid=59fb4d7f-baa9-41fa-ad19-6403b251b051"},"vehicle_type_id":"4","last_reported":1712866036,"current_range_meters":10000,"station_id":"ce4bgup2rcd13ifvqco0","pricing_plan_id":"cebpf4jnsgd1na2vs0mg"},{"bike_id":"29e8bcf0-f32f-4ff4-bcbb-af0bb952b574","system_id":"levelo_inurba_marseille","lat":43.292749,"lon":5.368402,"is_reserved":false,"is_disabled":false,"rental_uris":{"android":"levelo://app?vid=29e8bcf0-f32f-4ff4-bcbb-af0bb952b574","ios":"levelo://app?vid=29e8bcf0-f32f-4ff4-bcbb-af0bb952b574"},"vehicle_type_id":"4","last_reported":1712866036,"current_range_meters":22400,"station_id":"ce4bhbp2rcd13ifvqesg","pricing_plan_id":"cebpf4jnsgd1na2vs0mg"},{"bike_id":"641396cf-2b71-43fa-b0cc-129a76cd6beb","system_id":"levelo_inurba_marseille","lat":43.292749,"lon":5.368398,"is_reserved":false,"is_disabled":false,"rental_uris":{"android":"levelo://app?vid=641396cf-2b71-43fa-b0cc-129a76cd6beb","ios":"levelo://app?vid=641396cf-2b71-43fa-b0cc-129a76cd6beb"},"vehicle_type_id":"4","last_reported":1712866036,"current_range_meters":0,"station_id":"ce4bhbp2rcd13ifvqesg","pricing_plan_id":"cebpf4jnsgd1na2vs0mg"},{"bike_id":"5cfe6278-1034-45a5-b462-ec08fe3a241c","system_id":"levelo_inurba_marseille","lat":43.295447,"lon":5.38145,"is_reserved":false,"is_disabled":false,"rental_uris":{"android":"levelo://app?vid=5cfe6278-1034-45a5-b462-ec08fe3a241c","ios":"levelo://app?vid=5cfe6278-1034-45a5-b462-ec08fe3a241c"},"vehicle_type_id":"4","last_reported":1712866036,"current_range_meters":0,"station_id":"","pricing_plan_id":"cebpf4jnsgd1na2vs0mg"},{"bike_id":"8a35fa1b-7f2b-4834-bcbc-ca570b13c49c","system_id":"levelo_inurba_marseille","lat":43.29232,"lon":5.36445,"is_reserved":false,"is_disabled":false,"rental_uris":{"android":"levelo://app?vid=8a35fa1b-7f2b-4834-bcbc-ca570b13c49c","ios":"levelo://app?vid=8a35fa1b-7f2b-4834-bcbc-ca570b13c49c"},"vehicle_type_id":"4","last_reported":1712866036,"current_range_meters":0,"station_id":"","pricing_plan_id":"cebpf4jnsgd1na2vs0mg"},{"bike_id":"9215cbca-7b7a-4947-8c6d-267eb5cd364c","system_id":"levelo_inurba_marseille","lat":43.293009,"lon":5.374584,"is_reserved":false,"is_disabled":false,"rental_uris":{"android":"levelo://app?vid=9215cbca-7b7a-4947-8c6d-267eb5cd364c","ios":"levelo://app?vid=9215cbca-7b7a-4947-8c6d-267eb5cd364c"},"vehicle_type_id":"4","last_reported":1712866036,"current_range_meters":0,"station_id":"ce4bgi12rcd13ifvqb70","pricing_plan_id":"cebpf4jnsgd1na2vs0mg"},{"bike_id":"78f02a41-d904-48fc-a30b-63887596804e","system_id":"levelo_inurba_marseille","lat":43.288497,"lon":5.393089,"is_reserved":false,"is_disabled":false,"rental_uris":{"android":"levelo://app?vid=78f02a41-d904-48fc-a30b-63887596804e","ios":"levelo://app?vid=78f02a41-d904-48fc-a30b-63887596804e"},"vehicle_type_id":"4","last_reported":1712866036,"current_range_meters":10000,"station_id":"ce4bh2p2rcd13ifvqdi0","pricing_plan_id":"cebpf4jnsgd1na2vs0mg"},{"bike_id":"60ba29af-b303-41ea-8fb7-9e46312623ec","system_id":"levelo_inurba_marseille","lat":43.302992,"lon":5.392136,"is_reserved":false,"is_disabled":false,"rental_uris":{"android":"levelo://app?vid=60ba29af-b303-41ea-8fb7-9e46312623ec","ios":"levelo://app?vid=60ba29af-b303-41ea-8fb7-9e46312623ec"},"vehicle_type_id":"4","last_reported":1712866036,"current_range_meters":0,"station_id":"ce4bgkh2rcd13ifvqbk0","pricing_plan_id":"cebpf4jnsgd1na2vs0mg"},{"bike_id":"0ee98a7c-97cb-481c-be95-1f8d986b7332","system_id":"levelo_inurba_marseille","lat":43.303002,"lon":5.392142,"is_reserved":false,"is_disabled":false,"rental_uris":{"android":"levelo://app?vid=0ee98a7c-97cb-481c-be95-1f8d986b7332","ios":"levelo://app?vid=0ee98a7c-97cb-481c-be95-1f8d986b7332"},"vehicle_type_id":"4","last_reported":1712866036,"current_range_meters":0,"station_id":"ce4bgkh2rcd13ifvqbk0","pricing_plan_id":"cebpf4jnsgd1na2vs0mg"},{"bike_id":"1fa40973-bee1-414c-acb5-08a45b803319","system_id":"levelo_inurba_marseille","lat":43.302968,"lon":5.392039,"is_reserved":false,"is_disabled":false,"rental_uris":{"android":"levelo://app?vid=1fa40973-bee1-414c-acb5-08a45b803319","ios":"levelo://app?vid=1fa40973-bee1-414c-acb5-08a45b803319"},"vehicle_type_id":"4","last_reported":1712866036,"current_range_meters":4400,"station_id":"ce4bgkh2rcd13ifvqbk0","pricing_plan_id":"cebpf4jnsgd1na2vs0mg"},{"bike_id":"c3acbe85-7481-46b8-bb85-3191128cb3fc","system_id":"levelo_inurba_marseille","lat":43.30289,"lon":5.39199,"is_reserved":false,"is_disabled":false,"rental_uris":{"android":"levelo://app?vid=c3acbe85-7481-46b8-bb85-3191128cb3fc","ios":"levelo://app?vid=c3acbe85-7481-46b8-bb85-3191128cb3fc"},"vehicle_type_id":"4","last_reported":1712866036,"current_range_meters":2000,"station_id":"ce4bgkh2rcd13ifvqbk0","pricing_plan_id":"cebpf4jnsgd1na2vs0mg"},{"bike_id":"c9ffcdcd-e83a-48e7-b4cd-0fcfeed19592","system_id":"levelo_inurba_marseille","lat":43.30301,"lon":5.39212,"is_reserved":false,"is_disabled":false,"rental_uris":{"android":"levelo://app?vid=c9ffcdcd-e83a-48e7-b4cd-0fcfeed19592","ios":"levelo://app?vid=c9ffcdcd-e83a-48e7-b4cd-0fcfeed19592"},"vehicle_type_id":"4","last_reported":1712866036,"current_range_meters":0,"station_id":"ce4bgkh2rcd13ifvqbk0","pricing_plan_id":"cebpf4jnsgd1na2vs0mg"},{"bike_id":"eb07bfa5-3b06-4716-83d5-30ba1b31e921","system_id":"levelo_inurba_marseille","lat":43.30298,"lon":5.39221,"is_reserved":false,"is_disabled":false,"rental_uris":{"android":"levelo://app?vid=eb07bfa5-3b06-4716-83d5-30ba1b31e921","ios":"levelo://app?vid=eb07bfa5-3b06-4716-83d5-30ba1b31e921"},"vehicle_type_id":"4","last_reported":1712866036,"current_range_meters":0,"station_id":"ce4bgkh2rcd13ifvqbk0","pricing_plan_id":"cebpf4jnsgd1na2vs0mg"},{"bike_id":"a3529b6a-57f1-404d-8ef5-6d39b08893dc","system_id":"levelo_inurba_marseille","lat":43.292311,"lon":5.360731,"is_reserved":false,"is_disabled":false,"rental_uris":{"android":"levelo://app?vid=a3529b6a-57f1-404d-8ef5-6d39b08893dc","ios":"levelo://app?vid=a3529b6a-57f1-404d-8ef5-6d39b08893dc"},"vehicle_type_id":"4","last_reported":1712866036,"current_range_meters":2400,"station_id":"ce4bhbh2rcd13ifvqeqg","pricing_plan_id":"cebpf4jnsgd1na2vs0mg"},{"bike_id":"8d195de5-d68c-4724-858f-141c9f16deac","system_id":"levelo_inurba_marseille","lat":43.313291,"lon":5.396838,"is_reserved":false,"is_disabled":false,"rental_uris":{"android":"levelo://app?vid=8d195de5-d68c-4724-858f-141c9f16deac","ios":"levelo://app?vid=8d195de5-d68c-4724-858f-141c9f16deac"},"vehicle_type_id":"4","last_reported":1712866036,"current_range_meters":800,"station_id":"ce4bgvp2rcd13ifvqcu0","pricing_plan_id":"cebpf4jnsgd1na2vs0mg"},{"bike_id":"730e201d-df9f-4422-88f5-2c0cf2145e32","system_id":"levelo_inurba_marseille","lat":43.298764,"lon":5.388973,"is_reserved":false,"is_disabled":false,"rental_uris":{"android":"levelo://app?vid=730e201d-df9f-4422-88f5-2c0cf2145e32","ios":"levelo://app?vid=730e201d-df9f-4422-88f5-2c0cf2145e32"},"vehicle_type_id":"4","last_reported":1712866036,"current_range_meters":28000,"station_id":"ce4bh392rcd13ifvqdl0","pricing_plan_id":"cebpf4jnsgd1na2vs0mg"},{"bike_id":"2024eed6-687d-4956-9d74-09bb76457a72","system_id":"levelo_inurba_marseille","lat":43.298764,"lon":5.388973,"is_reserved":false,"is_disabled":false,"rental_uris":{"android":"levelo://app?vid=2024eed6-687d-4956-9d74-09bb76457a72","ios":"levelo://app?vid=2024eed6-687d-4956-9d74-09bb76457a72"},"vehicle_type_id":"4","last_reported":1712866036,"current_range_meters":24400,"station_id":"ce4bh392rcd13ifvqdl0","pricing_plan_id":"cebpf4jnsgd1na2vs0mg"},{"bike_id":"e4f57154-483e-4692-9fe3-52c400679fef","system_id":"levelo_inurba_marseille","lat":43.298793,"lon":5.389093,"is_reserved":false,"is_disabled":false,"rental_uris":{"android":"levelo://app?vid=e4f57154-483e-4692-9fe3-52c400679fef","ios":"levelo://app?vid=e4f57154-483e-4692-9fe3-52c400679fef"},"vehicle_type_id":"4","last_reported":1712866036,"current_range_meters":0,"station_id":"ce4bh392rcd13ifvqdl0","pricing_plan_id":"cebpf4jnsgd1na2vs0mg"},{"bike_id":"a126dd57-7c2b-48d1-b4d7-c7056b73d39b","system_id":"levelo_inurba_marseille","lat":43.291671,"lon":5.371575,"is_reserved":false,"is_disabled":false,"rental_uris":{"android":"levelo://app?vid=a126dd57-7c2b-48d1-b4d7-c7056b73d39b","ios":"levelo://app?vid=a126dd57-7c2b-48d1-b4d7-c7056b73d39b"},"vehicle_type_id":"4","last_reported":1712866036,"current_range_meters":3200,"station_id":"ce4bha92rcd13ifvqeh0","pricing_plan_id":"cebpf4jnsgd1na2vs0mg"},{"bike_id":"30b41681-dac5-4b7e-81fc-98f3284890b9","system_id":"levelo_inurba_marseille","lat":43.291671,"lon":5.371575,"is_reserved":false,"is_disabled":false,"rental_uris":{"android":"levelo://app?vid=30b41681-dac5-4b7e-81fc-98f3284890b9","ios":"levelo://app?vid=30b41681-dac5-4b7e-81fc-98f3284890b9"},"vehicle_type_id":"4","last_reported":1712866036,"current_range_meters":23600,"station_id":"ce4bha92rcd13ifvqeh0","pricing_plan_id":"cebpf4jnsgd1na2vs0mg"},{"bike_id":"64abe3ab-eb4f-4aa7-a407-081340158b12","system_id":"levelo_inurba_marseille","lat":43.308947,"lon":5.396353,"is_reserved":false,"is_disabled":false,"rental_uris":{"android":"levelo://app?vid=64abe3ab-eb4f-4aa7-a407-081340158b12","ios":"levelo://app?vid=64abe3ab-eb4f-4aa7-a407-081340158b12"},"vehicle_type_id":"4","last_reported":1712866036,"current_range_meters":0,"station_id":"ce4bh012rcd13ifvqcv0","pricing_plan_id":"cebpf4jnsgd1na2vs0mg"},{"bike_id":"0bd8c01a-8230-41e5-b70a-335765607524","system_id":"levelo_inurba_marseille","lat":43.291994,"lon":5.357886,"is_reserved":false,"is_disabled":false,"rental_uris":{"android":"levelo://app?vid=0bd8c01a-8230-41e5-b70a-335765607524","ios":"levelo://app?vid=0bd8c01a-8230-41e5-b70a-335765607524"},"vehicle_type_id":"4","last_reported":1712866036,"current_range_meters":400,"station_id":"ce4bhb12rcd13ifvqel0","pricing_plan_id":"cebpf4jnsgd1na2vs0mg"},{"bike_id":"fb4868a4-1358-45bc-b6aa-10cc91e4d5ee","system_id":"levelo_inurba_marseille","lat":43.31331,"lon":5.39686,"is_reserved":false,"is_disabled":false,"rental_uris":{"android":"levelo://app?vid=fb4868a4-1358-45bc-b6aa-10cc91e4d5ee","ios":"levelo://app?vid=fb4868a4-1358-45bc-b6aa-10cc91e4d5ee"},"vehicle_type_id":"4","last_reported":1712866036,"current_range_meters":15200,"station_id":"ce4bgvp2rcd13ifvqcu0","pricing_plan_id":"cebpf4jnsgd1na2vs0mg"},{"bike_id":"89d414b4-199b-4bd5-b561-666b564a98ab","system_id":"levelo_inurba_marseille","lat":43.313291,"lon":5.396838,"is_reserved":false,"is_disabled":false,"rental_uris":{"android":"levelo://app?vid=89d414b4-199b-4bd5-b561-666b564a98ab","ios":"levelo://app?vid=89d414b4-199b-4bd5-b561-666b564a98ab"},"vehicle_type_id":"4","last_reported":1712866036,"current_range_meters":13600,"station_id":"ce4bgvp2rcd13ifvqcu0","pricing_plan_id":"cebpf4jnsgd1na2vs0mg"},{"bike_id":"025580c1-4405-45a4-84e1-a36489cd0461","system_id":"levelo_inurba_marseille","lat":43.313291,"lon":5.396838,"is_reserved":false,"is_disabled":false,"rental_uris":{"android":"levelo://app?vid=025580c1-4405-45a4-84e1-a36489cd0461","ios":"levelo://app?vid=025580c1-4405-45a4-84e1-a36489cd0461"},"vehicle_type_id":"4","last_reported":1712866036,"current_range_meters":0,"station_id":"ce4bgvp2rcd13ifvqcu0","pricing_plan_id":"cebpf4jnsgd1na2vs0mg"},{"bike_id":"5fc9c94c-9182-4b1e-b158-19f7280b4025","system_id":"levelo_inurba_marseille","lat":43.313291,"lon":5.396838,"is_reserved":false,"is_disabled":false,"rental_uris":{"android":"levelo://app?vid=5fc9c94c-9182-4b1e-b158-19f7280b4025","ios":"levelo://app?vid=5fc9c94c-9182-4b1e-b158-19f7280b4025"},"vehicle_type_id":"4","last_reported":1712866036,"current_range_meters":21600,"station_id":"ce4bgvp2rcd13ifvqcu0","pricing_plan_id":"cebpf4jnsgd1na2vs0mg"},{"bike_id":"6c9f87ab-0517-42f7-968f-3b64a8f1232a","system_id":"levelo_inurba_marseille","lat":43.313291,"lon":5.396838,"is_reserved":false,"is_disabled":false,"rental_uris":{"android":"levelo://app?vid=6c9f87ab-0517-42f7-968f-3b64a8f1232a","ios":"levelo://app?vid=6c9f87ab-0517-42f7-968f-3b64a8f1232a"},"vehicle_type_id":"4","last_reported":1712866036,"current_range_meters":0,"station_id":"ce4bgvp2rcd13ifvqcu0","pricing_plan_id":"cebpf4jnsgd1na2vs0mg"},{"bike_id":"66bde97c-e4ca-4090-a541-b62a937fddc0","system_id":"levelo_inurba_marseille","lat":43.313291,"lon":5.396838,"is_reserved":false,"is_disabled":false,"rental_uris":{"android":"levelo://app?vid=66bde97c-e4ca-4090-a541-b62a937fddc0","ios":"levelo://app?vid=66bde97c-e4ca-4090-a541-b62a937fddc0"},"vehicle_type_id":"4","last_reported":1712866036,"current_range_meters":1600,"station_id":"ce4bgvp2rcd13ifvqcu0","pricing_plan_id":"cebpf4jnsgd1na2vs0mg"},{"bike_id":"a8a727ce-b77f-48fe-8e2b-df2391838983","system_id":"levelo_inurba_marseille","lat":43.29529,"lon":5.385581,"is_reserved":false,"is_disabled":false,"rental_uris":{"android":"levelo://app?vid=a8a727ce-b77f-48fe-8e2b-df2391838983","ios":"levelo://app?vid=a8a727ce-b77f-48fe-8e2b-df2391838983"},"vehicle_type_id":"4","last_reported":1712866036,"current_range_meters":0,"station_id":"ce4bgih2rcd13ifvqba0","pricing_plan_id":"cebpf4jnsgd1na2vs0mg"},{"bike_id":"5776435d-0860-4590-94bd-cc3e4f090b7a","system_id":"levelo_inurba_marseille","lat":43.29529,"lon":5.385581,"is_reserved":false,"is_disabled":false,"rental_uris":{"android":"levelo://app?vid=5776435d-0860-4590-94bd-cc3e4f090b7a","ios":"levelo://app?vid=5776435d-0860-4590-94bd-cc3e4f090b7a"},"vehicle_type_id":"4","last_reported":1712866036,"current_range_meters":2400,"station_id":"ce4bgih2rcd13ifvqba0","pricing_plan_id":"cebpf4jnsgd1na2vs0mg"},{"bike_id":"9475cdc1-8361-4128-9912-eff02fde7169","system_id":"levelo_inurba_marseille","lat":43.2954,"lon":5.38547,"is_reserved":false,"is_disabled":false,"rental_uris":{"android":"levelo://app?vid=9475cdc1-8361-4128-9912-eff02fde7169","ios":"levelo://app?vid=9475cdc1-8361-4128-9912-eff02fde7169"},"vehicle_type_id":"4","last_reported":1712866036,"current_range_meters":2400,"station_id":"ce4bgih2rcd13ifvqba0","pricing_plan_id":"cebpf4jnsgd1na2vs0mg"},{"bike_id":"899c62b1-90f8-4e1c-9965-7434ccd0ef16","system_id":"levelo_inurba_marseille","lat":43.29529,"lon":5.385581,"is_reserved":false,"is_disabled":false,"rental_uris":{"android":"levelo://app?vid=899c62b1-90f8-4e1c-9965-7434ccd0ef16","ios":"levelo://app?vid=899c62b1-90f8-4e1c-9965-7434ccd0ef16"},"vehicle_type_id":"4","last_reported":1712866036,"current_range_meters":16400,"station_id":"ce4bgih2rcd13ifvqba0","pricing_plan_id":"cebpf4jnsgd1na2vs0mg"},{"bike_id":"bba34456-e37e-4723-97c1-9c205a9fd73d","system_id":"levelo_inurba_marseille","lat":43.29538,"lon":5.38547,"is_reserved":false,"is_disabled":false,"rental_uris":{"android":"levelo://app?vid=bba34456-e37e-4723-97c1-9c205a9fd73d","ios":"levelo://app?vid=bba34456-e37e-4723-97c1-9c205a9fd73d"},"vehicle_type_id":"4","last_reported":1712866036,"current_range_meters":0,"station_id":"ce4bgih2rcd13ifvqba0","pricing_plan_id":"cebpf4jnsgd1na2vs0mg"},{"bike_id":"13901437-8493-4ebe-b826-f1dfe73314df","system_id":"levelo_inurba_marseille","lat":43.29529,"lon":5.385581,"is_reserved":false,"is_disabled":false,"rental_uris":{"android":"levelo://app?vid=13901437-8493-4ebe-b826-f1dfe73314df","ios":"levelo://app?vid=13901437-8493-4ebe-b826-f1dfe73314df"},"vehicle_type_id":"4","last_reported":1712866036,"current_range_meters":0,"station_id":"ce4bgih2rcd13ifvqba0","pricing_plan_id":"cebpf4jnsgd1na2vs0mg"},{"bike_id":"7c8bcf28-0a2b-4938-9d77-d5f04c451ff7","system_id":"levelo_inurba_marseille","lat":43.29529,"lon":5.385581,"is_reserved":false,"is_disabled":false,"rental_uris":{"android":"levelo://app?vid=7c8bcf28-0a2b-4938-9d77-d5f04c451ff7","ios":"levelo://app?vid=7c8bcf28-0a2b-4938-9d77-d5f04c451ff7"},"vehicle_type_id":"4","last_reported":1712866036,"current_range_meters":15200,"station_id":"ce4bgih2rcd13ifvqba0","pricing_plan_id":"cebpf4jnsgd1na2vs0mg"},{"bike_id":"acd2d180-2426-4e6c-a6f7-ef9e5032407c","system_id":"levelo_inurba_marseille","lat":43.29529,"lon":5.385581,"is_reserved":false,"is_disabled":false,"rental_uris":{"android":"levelo://app?vid=acd2d180-2426-4e6c-a6f7-ef9e5032407c","ios":"levelo://app?vid=acd2d180-2426-4e6c-a6f7-ef9e5032407c"},"vehicle_type_id":"4","last_reported":1712866036,"current_range_meters":20400,"station_id":"ce4bgih2rcd13ifvqba0","pricing_plan_id":"cebpf4jnsgd1na2vs0mg"},{"bike_id":"34e4f819-02fe-43a8-886a-715fd02260f6","system_id":"levelo_inurba_marseille","lat":43.29529,"lon":5.385581,"is_reserved":false,"is_disabled":false,"rental_uris":{"android":"levelo://app?vid=34e4f819-02fe-43a8-886a-715fd02260f6","ios":"levelo://app?vid=34e4f819-02fe-43a8-886a-715fd02260f6"},"vehicle_type_id":"4","last_reported":1712866036,"current_range_meters":7200,"station_id":"ce4bgih2rcd13ifvqba0","pricing_plan_id":"cebpf4jnsgd1na2vs0mg"},{"bike_id":"b82f5e8f-a955-48c6-8992-693c880ecdc1","system_id":"levelo_inurba_marseille","lat":43.2953,"lon":5.38538,"is_reserved":false,"is_disabled":false,"rental_uris":{"android":"levelo://app?vid=b82f5e8f-a955-48c6-8992-693c880ecdc1","ios":"levelo://app?vid=b82f5e8f-a955-48c6-8992-693c880ecdc1"},"vehicle_type_id":"4","last_reported":1712866036,"current_range_meters":0,"station_id":"ce4bgih2rcd13ifvqba0","pricing_plan_id":"cebpf4jnsgd1na2vs0mg"},{"bike_id":"240c4127-8aab-4ed0-9ea4-8a055e55f0ec","system_id":"levelo_inurba_marseille","lat":43.29529,"lon":5.385581,"is_reserved":false,"is_disabled":false,"rental_uris":{"android":"levelo://app?vid=240c4127-8aab-4ed0-9ea4-8a055e55f0ec","ios":"levelo://app?vid=240c4127-8aab-4ed0-9ea4-8a055e55f0ec"},"vehicle_type_id":"4","last_reported":1712866036,"current_range_meters":7600,"station_id":"ce4bgih2rcd13ifvqba0","pricing_plan_id":"cebpf4jnsgd1na2vs0mg"},{"bike_id":"beaf7c00-7e62-4992-970f-afc9f377bb98","system_id":"levelo_inurba_marseille","lat":43.29529,"lon":5.385581,"is_reserved":false,"is_disabled":false,"rental_uris":{"android":"levelo://app?vid=beaf7c00-7e62-4992-970f-afc9f377bb98","ios":"levelo://app?vid=beaf7c00-7e62-4992-970f-afc9f377bb98"},"vehicle_type_id":"4","last_reported":1712866036,"current_range_meters":2000,"station_id":"ce4bgih2rcd13ifvqba0","pricing_plan_id":"cebpf4jnsgd1na2vs0mg"},{"bike_id":"00c1ab39-0908-44fd-874e-a0ad2353f8b0","system_id":"levelo_inurba_marseille","lat":43.29529,"lon":5.385581,"is_reserved":false,"is_disabled":false,"rental_uris":{"android":"levelo://app?vid=00c1ab39-0908-44fd-874e-a0ad2353f8b0","ios":"levelo://app?vid=00c1ab39-0908-44fd-874e-a0ad2353f8b0"},"vehicle_type_id":"4","last_reported":1712866036,"current_range_meters":5200,"station_id":"ce4bgih2rcd13ifvqba0","pricing_plan_id":"cebpf4jnsgd1na2vs0mg"},{"bike_id":"d073a2ca-0a92-45c3-a131-ea4e0767f15d","system_id":"levelo_inurba_marseille","lat":43.288501,"lon":5.393087,"is_reserved":false,"is_disabled":false,"rental_uris":{"android":"levelo://app?vid=d073a2ca-0a92-45c3-a131-ea4e0767f15d","ios":"levelo://app?vid=d073a2ca-0a92-45c3-a131-ea4e0767f15d"},"vehicle_type_id":"4","last_reported":1712866036,"current_range_meters":8000,"station_id":"ce4bh2p2rcd13ifvqdi0","pricing_plan_id":"cebpf4jnsgd1na2vs0mg"},{"bike_id":"3cb3e1fe-c811-411a-829a-740f746c26e3","system_id":"levelo_inurba_marseille","lat":43.29529,"lon":5.385581,"is_reserved":false,"is_disabled":false,"rental_uris":{"android":"levelo://app?vid=3cb3e1fe-c811-411a-829a-740f746c26e3","ios":"levelo://app?vid=3cb3e1fe-c811-411a-829a-740f746c26e3"},"vehicle_type_id":"4","last_reported":1712866036,"current_range_meters":3600,"station_id":"ce4bgih2rcd13ifvqba0","pricing_plan_id":"cebpf4jnsgd1na2vs0mg"},{"bike_id":"774140e0-f26b-4179-9693-49e38024f55a","system_id":"levelo_inurba_marseille","lat":43.29529,"lon":5.385581,"is_reserved":false,"is_disabled":false,"rental_uris":{"android":"levelo://app?vid=774140e0-f26b-4179-9693-49e38024f55a","ios":"levelo://app?vid=774140e0-f26b-4179-9693-49e38024f55a"},"vehicle_type_id":"4","last_reported":1712866036,"current_range_meters":6400,"station_id":"ce4bgih2rcd13ifvqba0","pricing_plan_id":"cebpf4jnsgd1na2vs0mg"},{"bike_id":"a7bb70f3-3579-46c5-87cd-59c712d14019","system_id":"levelo_inurba_marseille","lat":43.29529,"lon":5.385581,"is_reserved":false,"is_disabled":false,"rental_uris":{"android":"levelo://app?vid=a7bb70f3-3579-46c5-87cd-59c712d14019","ios":"levelo://app?vid=a7bb70f3-3579-46c5-87cd-59c712d14019"},"vehicle_type_id":"4","last_reported":1712866036,"current_range_meters":10000,"station_id":"ce4bgih2rcd13ifvqba0","pricing_plan_id":"cebpf4jnsgd1na2vs0mg"},{"bike_id":"da6e3f46-f081-4ab9-a1ba-60b9c64cbe35","system_id":"levelo_inurba_marseille","lat":43.29534,"lon":5.385493,"is_reserved":false,"is_disabled":false,"rental_uris":{"android":"levelo://app?vid=da6e3f46-f081-4ab9-a1ba-60b9c64cbe35","ios":"levelo://app?vid=da6e3f46-f081-4ab9-a1ba-60b9c64cbe35"},"vehicle_type_id":"4","last_reported":1712866036,"current_range_meters":4400,"station_id":"ce4bgih2rcd13ifvqba0","pricing_plan_id":"cebpf4jnsgd1na2vs0mg"},{"bike_id":"a5dd6103-8ca2-4e74-bc5b-2240a3357e28","system_id":"levelo_inurba_marseille","lat":43.29529,"lon":5.385581,"is_reserved":false,"is_disabled":false,"rental_uris":{"android":"levelo://app?vid=a5dd6103-8ca2-4e74-bc5b-2240a3357e28","ios":"levelo://app?vid=a5dd6103-8ca2-4e74-bc5b-2240a3357e28"},"vehicle_type_id":"4","last_reported":1712866036,"current_range_meters":5200,"station_id":"ce4bgih2rcd13ifvqba0","pricing_plan_id":"cebpf4jnsgd1na2vs0mg"},{"bike_id":"40289d88-f10a-497d-9b8d-1ce81b3b88b2","system_id":"levelo_inurba_marseille","lat":43.29529,"lon":5.385581,"is_reserved":false,"is_disabled":false,"rental_uris":{"android":"levelo://app?vid=40289d88-f10a-497d-9b8d-1ce81b3b88b2","ios":"levelo://app?vid=40289d88-f10a-497d-9b8d-1ce81b3b88b2"},"vehicle_type_id":"4","last_reported":1712866036,"current_range_meters":7600,"station_id":"ce4bgih2rcd13ifvqba0","pricing_plan_id":"cebpf4jnsgd1na2vs0mg"},{"bike_id":"8799c22c-fa9d-436b-b997-c46829124033","system_id":"levelo_inurba_marseille","lat":43.29529,"lon":5.385581,"is_reserved":false,"is_disabled":false,"rental_uris":{"android":"levelo://app?vid=8799c22c-fa9d-436b-b997-c46829124033","ios":"levelo://app?vid=8799c22c-fa9d-436b-b997-c46829124033"},"vehicle_type_id":"4","last_reported":1712866036,"current_range_meters":10000,"station_id":"ce4bgih2rcd13ifvqba0","pricing_plan_id":"cebpf4jnsgd1na2vs0mg"},{"bike_id":"3badb82d-4cc2-4e4d-a9fa-60caacfe1e4d","system_id":"levelo_inurba_marseille","lat":43.29529,"lon":5.385581,"is_reserved":false,"is_disabled":false,"rental_uris":{"android":"levelo://app?vid=3badb82d-4cc2-4e4d-a9fa-60caacfe1e4d","ios":"levelo://app?vid=3badb82d-4cc2-4e4d-a9fa-60caacfe1e4d"},"vehicle_type_id":"4","last_reported":1712866036,"current_range_meters":2800,"station_id":"ce4bgih2rcd13ifvqba0","pricing_plan_id":"cebpf4jnsgd1na2vs0mg"},{"bike_id":"56c9b7d7-6323-42e6-937e-d62a46a4e5e2","system_id":"levelo_inurba_marseille","lat":43.29529,"lon":5.385581,"is_reserved":false,"is_disabled":false,"rental_uris":{"android":"levelo://app?vid=56c9b7d7-6323-42e6-937e-d62a46a4e5e2","ios":"levelo://app?vid=56c9b7d7-6323-42e6-937e-d62a46a4e5e2"},"vehicle_type_id":"4","last_reported":1712866036,"current_range_meters":16800,"station_id":"ce4bgih2rcd13ifvqba0","pricing_plan_id":"cebpf4jnsgd1na2vs0mg"},{"bike_id":"a0ec61cc-71e1-4bda-9660-0636290ba6b0","system_id":"levelo_inurba_marseille","lat":43.29529,"lon":5.385581,"is_reserved":false,"is_disabled":false,"rental_uris":{"android":"levelo://app?vid=a0ec61cc-71e1-4bda-9660-0636290ba6b0","ios":"levelo://app?vid=a0ec61cc-71e1-4bda-9660-0636290ba6b0"},"vehicle_type_id":"4","last_reported":1712866036,"current_range_meters":13600,"station_id":"ce4bgih2rcd13ifvqba0","pricing_plan_id":"cebpf4jnsgd1na2vs0mg"},{"bike_id":"9388ad48-ce4a-4732-a8ff-f40100949b82","system_id":"levelo_inurba_marseille","lat":43.29529,"lon":5.385581,"is_reserved":false,"is_disabled":false,"rental_uris":{"android":"levelo://app?vid=9388ad48-ce4a-4732-a8ff-f40100949b82","ios":"levelo://app?vid=9388ad48-ce4a-4732-a8ff-f40100949b82"},"vehicle_type_id":"4","last_reported":1712866036,"current_range_meters":9600,"station_id":"ce4bgih2rcd13ifvqba0","pricing_plan_id":"cebpf4jnsgd1na2vs0mg"},{"bike_id":"a1d1efd4-f528-42b1-a52c-8b1c18e707ea","system_id":"levelo_inurba_marseille","lat":43.29529,"lon":5.385581,"is_reserved":false,"is_disabled":false,"rental_uris":{"android":"levelo://app?vid=a1d1efd4-f528-42b1-a52c-8b1c18e707ea","ios":"levelo://app?vid=a1d1efd4-f528-42b1-a52c-8b1c18e707ea"},"vehicle_type_id":"4","last_reported":1712866036,"current_range_meters":12800,"station_id":"ce4bgih2rcd13ifvqba0","pricing_plan_id":"cebpf4jnsgd1na2vs0mg"},{"bike_id":"d021dd34-5dd6-48c0-b1a0-e2a8b4d14c17","system_id":"levelo_inurba_marseille","lat":43.29531,"lon":5.38557,"is_reserved":false,"is_disabled":false,"rental_uris":{"android":"levelo://app?vid=d021dd34-5dd6-48c0-b1a0-e2a8b4d14c17","ios":"levelo://app?vid=d021dd34-5dd6-48c0-b1a0-e2a8b4d14c17"},"vehicle_type_id":"4","last_reported":1712866036,"current_range_meters":6000,"station_id":"ce4bgih2rcd13ifvqba0","pricing_plan_id":"cebpf4jnsgd1na2vs0mg"},{"bike_id":"16390f04-c062-40cd-9eca-2528790b8d2c","system_id":"levelo_inurba_marseille","lat":43.290779,"lon":5.371482,"is_reserved":false,"is_disabled":false,"rental_uris":{"android":"levelo://app?vid=16390f04-c062-40cd-9eca-2528790b8d2c","ios":"levelo://app?vid=16390f04-c062-40cd-9eca-2528790b8d2c"},"vehicle_type_id":"4","last_reported":1712866036,"current_range_meters":14000,"station_id":"ce4bh5p2rcd13ifvqe4g","pricing_plan_id":"cebpf4jnsgd1na2vs0mg"},{"bike_id":"ed4d4d26-f1d5-454f-96fa-c86b416ae61b","system_id":"levelo_inurba_marseille","lat":43.290779,"lon":5.371482,"is_reserved":false,"is_disabled":false,"rental_uris":{"android":"levelo://app?vid=ed4d4d26-f1d5-454f-96fa-c86b416ae61b","ios":"levelo://app?vid=ed4d4d26-f1d5-454f-96fa-c86b416ae61b"},"vehicle_type_id":"4","last_reported":1712866036,"current_range_meters":24400,"station_id":"ce4bh5p2rcd13ifvqe4g","pricing_plan_id":"cebpf4jnsgd1na2vs0mg"},{"bike_id":"e0fd8d38-312b-4b46-90e0-5dae5e00c3a5","system_id":"levelo_inurba_marseille","lat":43.290661,"lon":5.37155,"is_reserved":false,"is_disabled":false,"rental_uris":{"android":"levelo://app?vid=e0fd8d38-312b-4b46-90e0-5dae5e00c3a5","ios":"levelo://app?vid=e0fd8d38-312b-4b46-90e0-5dae5e00c3a5"},"vehicle_type_id":"4","last_reported":1712866036,"current_range_meters":0,"station_id":"ce4bh5p2rcd13ifvqe4g","pricing_plan_id":"cebpf4jnsgd1na2vs0mg"},{"bike_id":"2039b54f-cf47-4ef1-9cbd-145ffcade34b","system_id":"levelo_inurba_marseille","lat":43.290779,"lon":5.371482,"is_reserved":false,"is_disabled":false,"rental_uris":{"android":"levelo://app?vid=2039b54f-cf47-4ef1-9cbd-145ffcade34b","ios":"levelo://app?vid=2039b54f-cf47-4ef1-9cbd-145ffcade34b"},"vehicle_type_id":"4","last_reported":1712866036,"current_range_meters":4000,"station_id":"ce4bh5p2rcd13ifvqe4g","pricing_plan_id":"cebpf4jnsgd1na2vs0mg"},{"bike_id":"d46d89b9-7726-4c37-8efb-baacd128f4d5","system_id":"levelo_inurba_marseille","lat":43.290779,"lon":5.371482,"is_reserved":false,"is_disabled":false,"rental_uris":{"android":"levelo://app?vid=d46d89b9-7726-4c37-8efb-baacd128f4d5","ios":"levelo://app?vid=d46d89b9-7726-4c37-8efb-baacd128f4d5"},"vehicle_type_id":"4","last_reported":1712866036,"current_range_meters":0,"station_id":"ce4bh5p2rcd13ifvqe4g","pricing_plan_id":"cebpf4jnsgd1na2vs0mg"},{"bike_id":"1c082c1e-7aaa-42ec-861b-2d1e351a0acb","system_id":"levelo_inurba_marseille","lat":43.294872,"lon":5.385958,"is_reserved":false,"is_disabled":false,"rental_uris":{"android":"levelo://app?vid=1c082c1e-7aaa-42ec-861b-2d1e351a0acb","ios":"levelo://app?vid=1c082c1e-7aaa-42ec-861b-2d1e351a0acb"},"vehicle_type_id":"4","last_reported":1712866036,"current_range_meters":0,"station_id":"ce4bh2h2rcd13ifvqdh0","pricing_plan_id":"cebpf4jnsgd1na2vs0mg"},{"bike_id":"156418ca-8eee-43d4-9395-7c393a8b3b2d","system_id":"levelo_inurba_marseille","lat":43.302181,"lon":5.39465,"is_reserved":false,"is_disabled":false,"rental_uris":{"android":"levelo://app?vid=156418ca-8eee-43d4-9395-7c393a8b3b2d","ios":"levelo://app?vid=156418ca-8eee-43d4-9395-7c393a8b3b2d"},"vehicle_type_id":"4","last_reported":1712866036,"current_range_meters":0,"station_id":"ce4bh0p2rcd13ifvqd70","pricing_plan_id":"cebpf4jnsgd1na2vs0mg"},{"bike_id":"74a48b87-22dc-4ff8-bbcd-2135c02906bd","system_id":"levelo_inurba_marseille","lat":43.293314,"lon":5.383588,"is_reserved":false,"is_disabled":false,"rental_uris":{"android":"levelo://app?vid=74a48b87-22dc-4ff8-bbcd-2135c02906bd","ios":"levelo://app?vid=74a48b87-22dc-4ff8-bbcd-2135c02906bd"},"vehicle_type_id":"4","last_reported":1712866036,"current_range_meters":25600,"station_id":"ce4bh692rcd13ifvqea0","pricing_plan_id":"cebpf4jnsgd1na2vs0mg"},{"bike_id":"e217bcc0-3371-4ca7-887c-32db526caa15","system_id":"levelo_inurba_marseille","lat":43.29418,"lon":5.38607,"is_reserved":false,"is_disabled":false,"rental_uris":{"android":"levelo://app?vid=e217bcc0-3371-4ca7-887c-32db526caa15","ios":"levelo://app?vid=e217bcc0-3371-4ca7-887c-32db526caa15"},"vehicle_type_id":"4","last_reported":1712866036,"current_range_meters":25600,"station_id":"ce4bh2h2rcd13ifvqdh0","pricing_plan_id":"cebpf4jnsgd1na2vs0mg"},{"bike_id":"0e0fe91a-7170-4dc0-8bbd-51cc7e8a3737","system_id":"levelo_inurba_marseille","lat":43.29422,"lon":5.38617,"is_reserved":false,"is_disabled":false,"rental_uris":{"android":"levelo://app?vid=0e0fe91a-7170-4dc0-8bbd-51cc7e8a3737","ios":"levelo://app?vid=0e0fe91a-7170-4dc0-8bbd-51cc7e8a3737"},"vehicle_type_id":"4","last_reported":1712866036,"current_range_meters":20000,"station_id":"ce4bh2h2rcd13ifvqdh0","pricing_plan_id":"cebpf4jnsgd1na2vs0mg"},{"bike_id":"c6fb9ec6-44db-4fa8-8e5a-886e0e69e1de","system_id":"levelo_inurba_marseille","lat":43.29422,"lon":5.38619,"is_reserved":false,"is_disabled":false,"rental_uris":{"android":"levelo://app?vid=c6fb9ec6-44db-4fa8-8e5a-886e0e69e1de","ios":"levelo://app?vid=c6fb9ec6-44db-4fa8-8e5a-886e0e69e1de"},"vehicle_type_id":"4","last_reported":1712866036,"current_range_meters":14400,"station_id":"ce4bh2h2rcd13ifvqdh0","pricing_plan_id":"cebpf4jnsgd1na2vs0mg"},{"bike_id":"a888e49a-c89d-488f-b91d-df873d03aed2","system_id":"levelo_inurba_marseille","lat":43.29421,"lon":5.38618,"is_reserved":false,"is_disabled":false,"rental_uris":{"android":"levelo://app?vid=a888e49a-c89d-488f-b91d-df873d03aed2","ios":"levelo://app?vid=a888e49a-c89d-488f-b91d-df873d03aed2"},"vehicle_type_id":"4","last_reported":1712866036,"current_range_meters":29200,"station_id":"ce4bh2h2rcd13ifvqdh0","pricing_plan_id":"cebpf4jnsgd1na2vs0mg"},{"bike_id":"7f650142-0e4c-4d52-a88d-6d901bde7d65","system_id":"levelo_inurba_marseille","lat":43.29422,"lon":5.3862,"is_reserved":false,"is_disabled":false,"rental_uris":{"android":"levelo://app?vid=7f650142-0e4c-4d52-a88d-6d901bde7d65","ios":"levelo://app?vid=7f650142-0e4c-4d52-a88d-6d901bde7d65"},"vehicle_type_id":"4","last_reported":1712866036,"current_range_meters":11600,"station_id":"ce4bh2h2rcd13ifvqdh0","pricing_plan_id":"cebpf4jnsgd1na2vs0mg"},{"bike_id":"6c2a04ab-290e-445c-aaf5-38ae005a476f","system_id":"levelo_inurba_marseille","lat":43.29419,"lon":5.38617,"is_reserved":false,"is_disabled":false,"rental_uris":{"android":"levelo://app?vid=6c2a04ab-290e-445c-aaf5-38ae005a476f","ios":"levelo://app?vid=6c2a04ab-290e-445c-aaf5-38ae005a476f"},"vehicle_type_id":"4","last_reported":1712866036,"current_range_meters":13200,"station_id":"ce4bh2h2rcd13ifvqdh0","pricing_plan_id":"cebpf4jnsgd1na2vs0mg"},{"bike_id":"ce4b76fc-cae0-4549-8e29-11f6febaca65","system_id":"levelo_inurba_marseille","lat":43.29423,"lon":5.38625,"is_reserved":false,"is_disabled":false,"rental_uris":{"android":"levelo://app?vid=ce4b76fc-cae0-4549-8e29-11f6febaca65","ios":"levelo://app?vid=ce4b76fc-cae0-4549-8e29-11f6febaca65"},"vehicle_type_id":"4","last_reported":1712866036,"current_range_meters":5600,"station_id":"ce4bh2h2rcd13ifvqdh0","pricing_plan_id":"cebpf4jnsgd1na2vs0mg"},{"bike_id":"d56a2497-9ddd-4f1a-b32d-d6420a322897","system_id":"levelo_inurba_marseille","lat":43.299724,"lon":5.371829,"is_reserved":false,"is_disabled":false,"rental_uris":{"android":"levelo://app?vid=d56a2497-9ddd-4f1a-b32d-d6420a322897","ios":"levelo://app?vid=d56a2497-9ddd-4f1a-b32d-d6420a322897"},"vehicle_type_id":"4","last_reported":1712866036,"current_range_meters":24800,"station_id":"ce4bgr92rcd13ifvqc7g","pricing_plan_id":"cebpf4jnsgd1na2vs0mg"},{"bike_id":"e52bf693-c2a7-4985-80a7-8a7e2325b52e","system_id":"levelo_inurba_marseille","lat":43.29423,"lon":5.38626,"is_reserved":false,"is_disabled":false,"rental_uris":{"android":"levelo://app?vid=e52bf693-c2a7-4985-80a7-8a7e2325b52e","ios":"levelo://app?vid=e52bf693-c2a7-4985-80a7-8a7e2325b52e"},"vehicle_type_id":"4","last_reported":1712866036,"current_range_meters":2400,"station_id":"ce4bh2h2rcd13ifvqdh0","pricing_plan_id":"cebpf4jnsgd1na2vs0mg"},{"bike_id":"9ad509e2-e81e-4ae1-b67a-8dbf5f283fc0","system_id":"levelo_inurba_marseille","lat":43.29421,"lon":5.38624,"is_reserved":false,"is_disabled":false,"rental_uris":{"android":"levelo://app?vid=9ad509e2-e81e-4ae1-b67a-8dbf5f283fc0","ios":"levelo://app?vid=9ad509e2-e81e-4ae1-b67a-8dbf5f283fc0"},"vehicle_type_id":"4","last_reported":1712866036,"current_range_meters":20800,"station_id":"ce4bh2h2rcd13ifvqdh0","pricing_plan_id":"cebpf4jnsgd1na2vs0mg"},{"bike_id":"379f0e03-9dcc-42e0-8dc4-d31f74bd2dff","system_id":"levelo_inurba_marseille","lat":43.29419,"lon":5.38621,"is_reserved":false,"is_disabled":false,"rental_uris":{"android":"levelo://app?vid=379f0e03-9dcc-42e0-8dc4-d31f74bd2dff","ios":"levelo://app?vid=379f0e03-9dcc-42e0-8dc4-d31f74bd2dff"},"vehicle_type_id":"4","last_reported":1712866036,"current_range_meters":7600,"station_id":"ce4bh2h2rcd13ifvqdh0","pricing_plan_id":"cebpf4jnsgd1na2vs0mg"},{"bike_id":"b39ef848-23b5-4339-a39b-28b7ca2d96a7","system_id":"levelo_inurba_marseille","lat":43.294153,"lon":5.386305,"is_reserved":false,"is_disabled":false,"rental_uris":{"android":"levelo://app?vid=b39ef848-23b5-4339-a39b-28b7ca2d96a7","ios":"levelo://app?vid=b39ef848-23b5-4339-a39b-28b7ca2d96a7"},"vehicle_type_id":"4","last_reported":1712866036,"current_range_meters":17200,"station_id":"ce4bh2h2rcd13ifvqdh0","pricing_plan_id":"cebpf4jnsgd1na2vs0mg"},{"bike_id":"3a93ee1c-f91e-4e10-837e-825096cf0e60","system_id":"levelo_inurba_marseille","lat":43.29035,"lon":5.37563,"is_reserved":false,"is_disabled":false,"rental_uris":{"android":"levelo://app?vid=3a93ee1c-f91e-4e10-837e-825096cf0e60","ios":"levelo://app?vid=3a93ee1c-f91e-4e10-837e-825096cf0e60"},"vehicle_type_id":"4","last_reported":1712866036,"current_range_meters":0,"station_id":"ce4bh692rcd13ifvqe90","pricing_plan_id":"cebpf4jnsgd1na2vs0mg"},{"bike_id":"897febb3-45be-4803-bd62-be48e572c3b1","system_id":"levelo_inurba_marseille","lat":43.298037,"lon":5.381066,"is_reserved":false,"is_disabled":false,"rental_uris":{"android":"levelo://app?vid=897febb3-45be-4803-bd62-be48e572c3b1","ios":"levelo://app?vid=897febb3-45be-4803-bd62-be48e572c3b1"},"vehicle_type_id":"4","last_reported":1712866036,"current_range_meters":1600,"station_id":"ce4bgip2rcd13ifvqbb0","pricing_plan_id":"cebpf4jnsgd1na2vs0mg"},{"bike_id":"12acd6e7-0519-48e7-998d-e400db480af8","system_id":"levelo_inurba_marseille","lat":43.29427,"lon":5.38638,"is_reserved":false,"is_disabled":false,"rental_uris":{"android":"levelo://app?vid=12acd6e7-0519-48e7-998d-e400db480af8","ios":"levelo://app?vid=12acd6e7-0519-48e7-998d-e400db480af8"},"vehicle_type_id":"4","last_reported":1712866036,"current_range_meters":19600,"station_id":"ce4bh2h2rcd13ifvqdh0","pricing_plan_id":"cebpf4jnsgd1na2vs0mg"},{"bike_id":"7ffa6386-1499-49cb-89e1-201437953b79","system_id":"levelo_inurba_marseille","lat":43.29417,"lon":5.3862,"is_reserved":false,"is_disabled":false,"rental_uris":{"android":"levelo://app?vid=7ffa6386-1499-49cb-89e1-201437953b79","ios":"levelo://app?vid=7ffa6386-1499-49cb-89e1-201437953b79"},"vehicle_type_id":"4","last_reported":1712866036,"current_range_meters":16400,"station_id":"ce4bh2h2rcd13ifvqdh0","pricing_plan_id":"cebpf4jnsgd1na2vs0mg"},{"bike_id":"a5a856f9-f5dd-4380-ab02-4e9f73d99f11","system_id":"levelo_inurba_marseille","lat":43.29419,"lon":5.38624,"is_reserved":false,"is_disabled":false,"rental_uris":{"android":"levelo://app?vid=a5a856f9-f5dd-4380-ab02-4e9f73d99f11","ios":"levelo://app?vid=a5a856f9-f5dd-4380-ab02-4e9f73d99f11"},"vehicle_type_id":"4","last_reported":1712866036,"current_range_meters":10400,"station_id":"ce4bh2h2rcd13ifvqdh0","pricing_plan_id":"cebpf4jnsgd1na2vs0mg"},{"bike_id":"61ed11b8-c583-4e35-9904-b66a236c4aba","system_id":"levelo_inurba_marseille","lat":43.29419,"lon":5.38625,"is_reserved":false,"is_disabled":false,"rental_uris":{"android":"levelo://app?vid=61ed11b8-c583-4e35-9904-b66a236c4aba","ios":"levelo://app?vid=61ed11b8-c583-4e35-9904-b66a236c4aba"},"vehicle_type_id":"4","last_reported":1712866036,"current_range_meters":5600,"station_id":"ce4bh2h2rcd13ifvqdh0","pricing_plan_id":"cebpf4jnsgd1na2vs0mg"},{"bike_id":"fb2b0c56-2c00-48f0-b803-7ed3b97cd612","system_id":"levelo_inurba_marseille","lat":43.294163,"lon":5.386213,"is_reserved":false,"is_disabled":false,"rental_uris":{"android":"levelo://app?vid=fb2b0c56-2c00-48f0-b803-7ed3b97cd612","ios":"levelo://app?vid=fb2b0c56-2c00-48f0-b803-7ed3b97cd612"},"vehicle_type_id":"4","last_reported":1712866036,"current_range_meters":10400,"station_id":"ce4bh2h2rcd13ifvqdh0","pricing_plan_id":"cebpf4jnsgd1na2vs0mg"},{"bike_id":"1514d39c-9b8a-4481-8019-c302af59af61","system_id":"levelo_inurba_marseille","lat":43.29418,"lon":5.38625,"is_reserved":false,"is_disabled":false,"rental_uris":{"android":"levelo://app?vid=1514d39c-9b8a-4481-8019-c302af59af61","ios":"levelo://app?vid=1514d39c-9b8a-4481-8019-c302af59af61"},"vehicle_type_id":"4","last_reported":1712866036,"current_range_meters":13200,"station_id":"ce4bh2h2rcd13ifvqdh0","pricing_plan_id":"cebpf4jnsgd1na2vs0mg"},{"bike_id":"138bc6d1-e6ed-4aad-9493-bdd8a5aafe48","system_id":"levelo_inurba_marseille","lat":43.29418,"lon":5.38625,"is_reserved":false,"is_disabled":false,"rental_uris":{"android":"levelo://app?vid=138bc6d1-e6ed-4aad-9493-bdd8a5aafe48","ios":"levelo://app?vid=138bc6d1-e6ed-4aad-9493-bdd8a5aafe48"},"vehicle_type_id":"4","last_reported":1712866036,"current_range_meters":16000,"station_id":"ce4bh2h2rcd13ifvqdh0","pricing_plan_id":"cebpf4jnsgd1na2vs0mg"},{"bike_id":"297b5d24-0cf0-4f16-aeb2-5a4280c1b837","system_id":"levelo_inurba_marseille","lat":43.29417,"lon":5.38624,"is_reserved":false,"is_disabled":false,"rental_uris":{"android":"levelo://app?vid=297b5d24-0cf0-4f16-aeb2-5a4280c1b837","ios":"levelo://app?vid=297b5d24-0cf0-4f16-aeb2-5a4280c1b837"},"vehicle_type_id":"4","last_reported":1712866036,"current_range_meters":0,"station_id":"ce4bh2h2rcd13ifvqdh0","pricing_plan_id":"cebpf4jnsgd1na2vs0mg"},{"bike_id":"7f1cfb57-6199-4bed-85a1-93c2f4bc9636","system_id":"levelo_inurba_marseille","lat":43.29419,"lon":5.38628,"is_reserved":false,"is_disabled":false,"rental_uris":{"android":"levelo://app?vid=7f1cfb57-6199-4bed-85a1-93c2f4bc9636","ios":"levelo://app?vid=7f1cfb57-6199-4bed-85a1-93c2f4bc9636"},"vehicle_type_id":"4","last_reported":1712866036,"current_range_meters":13200,"station_id":"ce4bh2h2rcd13ifvqdh0","pricing_plan_id":"cebpf4jnsgd1na2vs0mg"},{"bike_id":"c199feba-aaca-45b3-9aa1-58a6960de7a1","system_id":"levelo_inurba_marseille","lat":43.289184,"lon":5.366408,"is_reserved":false,"is_disabled":false,"rental_uris":{"android":"levelo://app?vid=c199feba-aaca-45b3-9aa1-58a6960de7a1","ios":"levelo://app?vid=c199feba-aaca-45b3-9aa1-58a6960de7a1"},"vehicle_type_id":"4","last_reported":1712866036,"current_range_meters":7200,"station_id":"ce4bhap2rcd13ifvqek0","pricing_plan_id":"cebpf4jnsgd1na2vs0mg"},{"bike_id":"e7b1659b-e7c8-42e7-819a-e8ff9946d7c9","system_id":"levelo_inurba_marseille","lat":43.29414,"lon":5.3862,"is_reserved":false,"is_disabled":false,"rental_uris":{"android":"levelo://app?vid=e7b1659b-e7c8-42e7-819a-e8ff9946d7c9","ios":"levelo://app?vid=e7b1659b-e7c8-42e7-819a-e8ff9946d7c9"},"vehicle_type_id":"4","last_reported":1712866036,"current_range_meters":7600,"station_id":"ce4bh2h2rcd13ifvqdh0","pricing_plan_id":"cebpf4jnsgd1na2vs0mg"},{"bike_id":"45ef9339-8544-4920-9390-20e692573e61","system_id":"levelo_inurba_marseille","lat":43.305994,"lon":5.393687,"is_reserved":false,"is_disabled":false,"rental_uris":{"android":"levelo://app?vid=45ef9339-8544-4920-9390-20e692573e61","ios":"levelo://app?vid=45ef9339-8544-4920-9390-20e692573e61"},"vehicle_type_id":"4","last_reported":1712866036,"current_range_meters":24000,"station_id":"ce4bh0p2rcd13ifvqd80","pricing_plan_id":"cebpf4jnsgd1na2vs0mg"},{"bike_id":"d9a8e0f9-a4d1-44a6-bc47-96433daa8c86","system_id":"levelo_inurba_marseille","lat":43.29413,"lon":5.38619,"is_reserved":false,"is_disabled":false,"rental_uris":{"android":"levelo://app?vid=d9a8e0f9-a4d1-44a6-bc47-96433daa8c86","ios":"levelo://app?vid=d9a8e0f9-a4d1-44a6-bc47-96433daa8c86"},"vehicle_type_id":"4","last_reported":1712866036,"current_range_meters":2400,"station_id":"ce4bh2h2rcd13ifvqdh0","pricing_plan_id":"cebpf4jnsgd1na2vs0mg"},{"bike_id":"4e8c8df9-17a6-40d1-9ed1-a4490046ed65","system_id":"levelo_inurba_marseille","lat":43.29416,"lon":5.38626,"is_reserved":false,"is_disabled":false,"rental_uris":{"android":"levelo://app?vid=4e8c8df9-17a6-40d1-9ed1-a4490046ed65","ios":"levelo://app?vid=4e8c8df9-17a6-40d1-9ed1-a4490046ed65"},"vehicle_type_id":"4","last_reported":1712866036,"current_range_meters":0,"station_id":"ce4bh2h2rcd13ifvqdh0","pricing_plan_id":"cebpf4jnsgd1na2vs0mg"},{"bike_id":"7b665136-55b8-4399-a951-d5c9dc438791","system_id":"levelo_inurba_marseille","lat":43.29414,"lon":5.38624,"is_reserved":false,"is_disabled":false,"rental_uris":{"android":"levelo://app?vid=7b665136-55b8-4399-a951-d5c9dc438791","ios":"levelo://app?vid=7b665136-55b8-4399-a951-d5c9dc438791"},"vehicle_type_id":"4","last_reported":1712866036,"current_range_meters":24800,"station_id":"ce4bh2h2rcd13ifvqdh0","pricing_plan_id":"cebpf4jnsgd1na2vs0mg"},{"bike_id":"276923c0-8aa5-4bcd-a3ad-d407ed5fd908","system_id":"levelo_inurba_marseille","lat":43.29415,"lon":5.38626,"is_reserved":false,"is_disabled":false,"rental_uris":{"android":"levelo://app?vid=276923c0-8aa5-4bcd-a3ad-d407ed5fd908","ios":"levelo://app?vid=276923c0-8aa5-4bcd-a3ad-d407ed5fd908"},"vehicle_type_id":"4","last_reported":1712866036,"current_range_meters":18000,"station_id":"ce4bh2h2rcd13ifvqdh0","pricing_plan_id":"cebpf4jnsgd1na2vs0mg"},{"bike_id":"7624670a-dc0e-45ce-9efa-6dac9e5640e9","system_id":"levelo_inurba_marseille","lat":43.29415,"lon":5.38626,"is_reserved":false,"is_disabled":false,"rental_uris":{"android":"levelo://app?vid=7624670a-dc0e-45ce-9efa-6dac9e5640e9","ios":"levelo://app?vid=7624670a-dc0e-45ce-9efa-6dac9e5640e9"},"vehicle_type_id":"4","last_reported":1712866036,"current_range_meters":10000,"station_id":"ce4bh2h2rcd13ifvqdh0","pricing_plan_id":"cebpf4jnsgd1na2vs0mg"},