{"last_updated":1747663822,"ttl":60,"version":"2.2","data":{"bikes":[{"bike_id":"e4c56a2d-43a4-498c-ac0a-9a46bce7c25c","system_id":"levelo_inurba_marseille","lat":43.292293,"lon":5.360617,"is_reserved":false,"is_disabled":false,"rental_uris":{"android":"levelo://app?vid=e4c56a2d-43a4-498c-ac0a-9a46bce7c25c","ios":"levelo://app?vid=e4c56a2d-43a4-498c-ac0a-9a46bce7c25c"},"vehicle_type_id":"4","last_reported":1747663823,"current_range_meters":2000,"station_id":"ce4bhbh2rcd13ifvqeqg","pricing_plan_id":"cebpf4jnsgd1na2vs0mg"},{"bike_id":"9403d312-35ad-4ae6-9833-5ed6d26ae0d7","system_id":"levelo_inurba_marseille","lat":43.24806,"lon":5.37461,"is_reserved":false,"is_disabled":false,"rental_uris":{"android":"levelo://app?vid=9403d312-35ad-4ae6-9833-5ed6d26ae0d7","ios":"levelo://app?vid=9403d312-35ad-4ae6-9833-5ed6d26ae0d7"},"vehicle_type_id":"4","last_reported":1747663823,"current_range_meters":2800,"station_id":"ce4bhgh2rcd13ifvqfb0","pricing_plan_id":"cebpf4jnsgd1na2vs0mg"},{"bike_id":"585d3bba-dfd4-4645-8e40-642d03de10b5","system_id":"levelo_inurba_marseille","lat":43.30149,"lon":5.39864,"is_reserved":false,"is_disabled":false,"rental_uris":{"android":"levelo://app?vid=585d3bba-dfd4-4645-8e40-642d03de10b5","ios":"levelo://app?vid=585d3bba-dfd4-4645-8e40-642d03de10b5"},"vehicle_type_id":"4","last_reported":1747663823,"current_range_meters":2800,"station_id":"ce4bh0h2rcd13ifvqd40","pricing_plan_id":"cebpf4jnsgd1na2vs0mg"},{"bike_id":"051666f4-6375-4a2b-8914-272c873304b8","system_id":"levelo_inurba_marseille","lat":43.27571,"lon":5.38424,"is_reserved":false,"is_disabled":false,"rental_uris":{"android":"levelo://app?vid=051666f4-6375-4a2b-8914-272c873304b8","ios":"levelo://app?vid=051666f4-6375-4a2b-8914-272c873304b8"},"vehicle_type_id":"4","last_reported":1747663823,"current_range_meters":3200,"station_id":"ce4bhh92rcd13ifvqfi0","pricing_plan_id":"cebpf4jnsgd1na2vs0mg"},{"bike_id":"801aae25-9158-42cc-af08-0da7bce8c0a4","system_id":"levelo_inurba_marseille","lat":43.28461,"lon":5.39167,"is_reserved":false,"is_disabled":false,"rental_uris":{"android":"levelo://app?vid=801aae25-9158-42cc-af08-0da7bce8c0a4","ios":"levelo://app?vid=801aae25-9158-42cc-af08-0da7bce8c0a4"},"vehicle_type_id":"4","last_reported":1747663823,"current_range_meters":3200,"station_id":"ce4bhoh2rcd13ifvqh5g","pricing_plan_id":"cebpf4jnsgd1na2vs0mg"},{"bike_id":"5e1d99c1-8fa0-466a-825c-7fbac11c8e49","system_id":"levelo_inurba_marseille","lat":43.28448,"lon":5.39203,"is_reserved":false,"is_disabled":false,"rental_uris":{"android":"levelo://app?vid=5e1d99c1-8fa0-466a-825c-7fbac11c8e49","ios":"levelo://app?vid=5e1d99c1-8fa0-466a-825c-7fbac11c8e49"},"vehicle_type_id":"4","last_reported":1747663823,"current_range_meters":3200,"station_id":"ce4bhoh2rcd13ifvqh5g","pricing_plan_id":"cebpf4jnsgd1na2vs0mg"},{"bike_id":"ad25ebae-3afa-4070-a771-044edb1dc622","system_id":"levelo_inurba_marseille","lat":43.255,"lon":5.37648,"is_reserved":false,"is_disabled":false,"rental_uris":{"android":"levelo://app?vid=ad25ebae-3afa-4070-a771-044edb1dc622","ios":"levelo://app?vid=ad25ebae-3afa-4070-a771-044edb1dc622"},"vehicle_type_id":"4","last_reported":1747663823,"current_range_meters":3600,"station_id":"ce4bhh12rcd13ifvqff0","pricing_plan_id":"cebpf4jnsgd1na2vs0mg"},{"bike_id":"c0db4030-ef30-480b-a735-af5435a471ed","system_id":"levelo_inurba_marseille","lat":43.27749,"lon":5.42704,"is_reserved":false,"is_disabled":false,"rental_uris":{"android":"levelo://app?vid=c0db4030-ef30-480b-a735-af5435a471ed","ios":"levelo://app?vid=c0db4030-ef30-480b-a735-af5435a471ed"},"vehicle_type_id":"4","last_reported":1747663823,"current_range_meters":3600,"station_id":"","pricing_plan_id":"cebpf4jnsgd1na2vs0mg"},{"bike_id":"fedfdd29-b061-46b7-b060-dbcccc2c4d10","system_id":"levelo_inurba_marseille","lat":43.265579,"lon":5.372802,"is_reserved":false,"is_disabled":false,"rental_uris":{"android":"levelo://app?vid=fedfdd29-b061-46b7-b060-dbcccc2c4d10","ios":"levelo://app?vid=fedfdd29-b061-46b7-b060-dbcccc2c4d10"},"vehicle_type_id":"4","last_reported":1747663823,"current_range_meters":3600,"station_id":"ce4bhg12rcd13ifvqf70","pricing_plan_id":"cebpf4jnsgd1na2vs0mg"},{"bike_id":"fdcb0a7a-9a92-4ff0-baf6-4b66074cf83a","system_id":"levelo_inurba_marseille","lat":43.24662,"lon":5.38166,"is_reserved":false,"is_disabled":false,"rental_uris":{"android":"levelo://app?vid=fdcb0a7a-9a92-4ff0-baf6-4b66074cf83a","ios":"levelo://app?vid=fdcb0a7a-9a92-4ff0-baf6-4b66074cf83a"},"vehicle_type_id":"4","last_reported":1747663823,"current_range_meters":3600,"station_id":"ce4bhih2rcd13ifvqfr0","pricing_plan_id":"cebpf4jnsgd1na2vs0mg"},{"bike_id":"7d83594c-9da4-4168-84f3-07a8271ab8d7","system_id":"levelo_inurba_marseille","lat":43.26939,"lon":5.40253,"is_reserved":false,"is_disabled":false,"rental_uris":{"android":"levelo://app?vid=7d83594c-9da4-4168-84f3-07a8271ab8d7","ios":"levelo://app?vid=7d83594c-9da4-4168-84f3-07a8271ab8d7"},"vehicle_type_id":"4","last_reported":1747663823,"current_range_meters":3600,"station_id":"cjm6bp8fraef2m0cb0m0","pricing_plan_id":"cebpf4jnsgd1na2vs0mg"},{"bike_id":"99c0f1e6-23fc-4f86-97fd-12309951ad66","system_id":"levelo_inurba_marseille","lat":43.21747,"lon":5.34606,"is_reserved":false,"is_disabled":false,"rental_uris":{"android":"levelo://app?vid=99c0f1e6-23fc-4f86-97fd-12309951ad66","ios":"levelo://app?vid=99c0f1e6-23fc-4f86-97fd-12309951ad66"},"vehicle_type_id":"4","last_reported":1747663823,"current_range_meters":4000,"station_id":"st_cvj6r9ubvosntc0bgbag","pricing_plan_id":"cebpf4jnsgd1na2vs0mg"},{"bike_id":"a63b38b4-cfc1-42e6-a185-b9c04d9aaad3","system_id":"levelo_inurba_marseille","lat":43.31332,"lon":5.39694,"is_reserved":false,"is_disabled":false,"rental_uris":{"android":"levelo://app?vid=a63b38b4-cfc1-42e6-a185-b9c04d9aaad3","ios":"levelo://app?vid=a63b38b4-cfc1-42e6-a185-b9c04d9aaad3"},"vehicle_type_id":"4","last_reported":1747663823,"current_range_meters":4000,"station_id":"ce4bgvp2rcd13ifvqcu0","pricing_plan_id":"cebpf4jnsgd1na2vs0mg"},{"bike_id":"4c752abc-fc3a-44e0-bf4b-5dd5bf45f94c","system_id":"levelo_inurba_marseille","lat":43.28614,"lon":5.35108,"is_reserved":false,"is_disabled":false,"rental_uris":{"android":"levelo://app?vid=4c752abc-fc3a-44e0-bf4b-5dd5bf45f94c","ios":"levelo://app?vid=4c752abc-fc3a-44e0-bf4b-5dd5bf45f94c"},"vehicle_type_id":"4","last_reported":1747663823,"current_range_meters":4000,"station_id":"ce4bhch2rcd13ifvqeug","pricing_plan_id":"cebpf4jnsgd1na2vs0mg"},{"bike_id":"af123cd5-748f-45ad-8266-8c9ac1edae13","system_id":"levelo_inurba_marseille","lat":43.25718,"lon":5.41124,"is_reserved":false,"is_disabled":false,"rental_uris":{"android":"levelo://app?vid=af123cd5-748f-45ad-8266-8c9ac1edae13","ios":"levelo://app?vid=af123cd5-748f-45ad-8266-8c9ac1edae13"},"vehicle_type_id":"4","last_reported":1747663823,"current_range_meters":4000,"station_id":"ce4bhkp2rcd13ifvqgd0","pricing_plan_id":"cebpf4jnsgd1na2vs0mg"},{"bike_id":"d0658014-ae79-4072-ab98-5fe628ae2900","system_id":"levelo_inurba_marseille","lat":43.27379,"lon":5.36254,"is_reserved":false,"is_disabled":false,"rental_uris":{"android":"levelo://app?vid=d0658014-ae79-4072-ab98-5fe628ae2900","ios":"levelo://app?vid=d0658014-ae79-4072-ab98-5fe628ae2900"},"vehicle_type_id":"4","last_reported":1747663823,"current_range_meters":4000,"station_id":"ce4bhbh2rcd13ifvqeo0","pricing_plan_id":"cebpf4jnsgd1na2vs0mg"},{"bike_id":"ca45e4d9-1c76-4371-8e09-46aeebe3b5cf","system_id":"levelo_inurba_marseille","lat":43.29611,"lon":5.3774,"is_reserved":false,"is_disabled":false,"rental_uris":{"android":"levelo://app?vid=ca45e4d9-1c76-4371-8e09-46aeebe3b5cf","ios":"levelo://app?vid=ca45e4d9-1c76-4371-8e09-46aeebe3b5cf"},"vehicle_type_id":"4","last_reported":1747663823,"current_range_meters":3600,"station_id":"ce4bgi92rcd13ifvqb90","pricing_plan_id":"cebpf4jnsgd1na2vs0mg"},{"bike_id":"e12f3fd7-34e2-4c14-bf2b-74637874e6dd","system_id":"levelo_inurba_marseille","lat":43.24182,"lon":5.39737,"is_reserved":false,"is_disabled":false,"rental_uris":{"android":"levelo://app?vid=e12f3fd7-34e2-4c14-bf2b-74637874e6dd","ios":"levelo://app?vid=e12f3fd7-34e2-4c14-bf2b-74637874e6dd"},"vehicle_type_id":"4","last_reported":1747663823,"current_range_meters":4400,"station_id":"ce4bhn12rcd13ifvqgpg","pricing_plan_id":"cebpf4jnsgd1na2vs0mg"},{"bike_id":"0fb02880-5c6e-4026-9e4a-07529c572b44","system_id":"levelo_inurba_marseille","lat":43.25505,"lon":5.37419,"is_reserved":false,"is_disabled":false,"rental_uris":{"android":"levelo://app?vid=0fb02880-5c6e-4026-9e4a-07529c572b44","ios":"levelo://app?vid=0fb02880-5c6e-4026-9e4a-07529c572b44"},"vehicle_type_id":"4","last_reported":1747663823,"current_range_meters":4800,"station_id":"","pricing_plan_id":"cebpf4jnsgd1na2vs0mg"},{"bike_id":"0a80dab0-019f-412e-9426-7c721bdddfca","system_id":"levelo_inurba_marseille","lat":43.2467,"lon":5.38168,"is_reserved":false,"is_disabled":false,"rental_uris":{"android":"levelo://app?vid=0a80dab0-019f-412e-9426-7c721bdddfca","ios":"levelo://app?vid=0a80dab0-019f-412e-9426-7c721bdddfca"},"vehicle_type_id":"4","last_reported":1747663823,"current_range_meters":4800,"station_id":"ce4bhih2rcd13ifvqfr0","pricing_plan_id":"cebpf4jnsgd1na2vs0mg"},{"bike_id":"7cd7083b-f77f-4b16-a00e-f23331419c8d","system_id":"levelo_inurba_marseille","lat":43.27179,"lon":5.40994,"is_reserved":false,"is_disabled":false,"rental_uris":{"android":"levelo://app?vid=7cd7083b-f77f-4b16-a00e-f23331419c8d","ios":"levelo://app?vid=7cd7083b-f77f-4b16-a00e-f23331419c8d"},"vehicle_type_id":"4","last_reported":1747663823,"current_range_meters":4800,"station_id":"ce4bhl12rcd13ifvqgf0","pricing_plan_id":"cebpf4jnsgd1na2vs0mg"},{"bike_id":"e3e128ef-5c6e-481f-b65c-b09c8bfc5df1","system_id":"levelo_inurba_marseille","lat":43.29007,"lon":5.35607,"is_reserved":false,"is_disabled":false,"rental_uris":{"android":"levelo://app?vid=e3e128ef-5c6e-481f-b65c-b09c8bfc5df1","ios":"levelo://app?vid=e3e128ef-5c6e-481f-b65c-b09c8bfc5df1"},"vehicle_type_id":"4","last_reported":1747663823,"current_range_meters":4800,"station_id":"ce4bhb92rcd13ifvqen0","pricing_plan_id":"cebpf4jnsgd1na2vs0mg"},{"bike_id":"cc4b27b8-848a-4e58-9c60-13735182b6f4","system_id":"levelo_inurba_marseille","lat":43.28856,"lon":5.39302,"is_reserved":false,"is_disabled":false,"rental_uris":{"android":"levelo://app?vid=cc4b27b8-848a-4e58-9c60-13735182b6f4","ios":"levelo://app?vid=cc4b27b8-848a-4e58-9c60-13735182b6f4"},"vehicle_type_id":"4","last_reported":1747663823,"current_range_meters":4800,"station_id":"","pricing_plan_id":"cebpf4jnsgd1na2vs0mg"},{"bike_id":"14603e41-b2dd-4757-a53c-2e366aa4f983","system_id":"levelo_inurba_marseille","lat":43.26996,"lon":5.42828,"is_reserved":false,"is_disabled":false,"rental_uris":{"android":"levelo://app?vid=14603e41-b2dd-4757-a53c-2e366aa4f983","ios":"levelo://app?vid=14603e41-b2dd-4757-a53c-2e366aa4f983"},"vehicle_type_id":"4","last_reported":1747663823,"current_range_meters":4800,"station_id":"","pricing_plan_id":"cebpf4jnsgd1na2vs0mg"},{"bike_id":"73cf2597-6c24-47f2-a66b-5fe4f0de2470","system_id":"levelo_inurba_marseille","lat":43.29773,"lon":5.37131,"is_reserved":false,"is_disabled":false,"rental_uris":{"android":"levelo://app?vid=73cf2597-6c24-47f2-a66b-5fe4f0de2470","ios":"levelo://app?vid=73cf2597-6c24-47f2-a66b-5fe4f0de2470"},"vehicle_type_id":"4","last_reported":1747663823,"current_range_meters":8800,"station_id":"ce4bgop2rcd13ifvqc1g","pricing_plan_id":"cebpf4jnsgd1na2vs0mg"},{"bike_id":"fd8a6d42-bf9f-472b-8a72-4c85fdad07c6","system_id":"levelo_inurba_marseille","lat":43.28722,"lon":5.37938,"is_reserved":false,"is_disabled":false,"rental_uris":{"android":"levelo://app?vid=fd8a6d42-bf9f-472b-8a72-4c85fdad07c6","ios":"levelo://app?vid=fd8a6d42-bf9f-472b-8a72-4c85fdad07c6"},"vehicle_type_id":"4","last_reported":1747663823,"current_range_meters":0,"station_id":"ce4bh9p2rcd13ifvqec0","pricing_plan_id":"cebpf4jnsgd1na2vs0mg"},{"bike_id":"eb5102c5-1213-472a-9a72-15519bb0f220","system_id":"levelo_inurba_marseille","lat":43.27374,"lon":5.3626,"is_reserved":false,"is_disabled":false,"rental_uris":{"android":"levelo://app?vid=eb5102c5-1213-472a-9a72-15519bb0f220","ios":"levelo://app?vid=eb5102c5-1213-472a-9a72-15519bb0f220"},"vehicle_type_id":"4","last_reported":1747663823,"current_range_meters":5600,"station_id":"ce4bhbh2rcd13ifvqeo0","pricing_plan_id":"cebpf4jnsgd1na2vs0mg"},{"bike_id":"0552e7f5-65e9-4147-bbe2-5c6025ab769e","system_id":"levelo_inurba_marseille","lat":43.23153,"lon":5.43708,"is_reserved":false,"is_disabled":false,"rental_uris":{"android":"levelo://app?vid=0552e7f5-65e9-4147-bbe2-5c6025ab769e","ios":"levelo://app?vid=0552e7f5-65e9-4147-bbe2-5c6025ab769e"},"vehicle_type_id":"4","last_reported":1747663823,"current_range_meters":6000,"station_id":"ce4bhmp2rcd13ifvqgog","pricing_plan_id":"cebpf4jnsgd1na2vs0mg"},{"bike_id":"93adb21e-0831-48f3-8e4e-6045d2a8de73","system_id":"levelo_inurba_marseille","lat":43.246677,"lon":5.381513,"is_reserved":false,"is_disabled":false,"rental_uris":{"android":"levelo://app?vid=93adb21e-0831-48f3-8e4e-6045d2a8de73","ios":"levelo://app?vid=93adb21e-0831-48f3-8e4e-6045d2a8de73"},"vehicle_type_id":"4","last_reported":1747663823,"current_range_meters":6000,"station_id":"ce4bhih2rcd13ifvqfr0","pricing_plan_id":"cebpf4jnsgd1na2vs0mg"},{"bike_id":"2eab994d-a378-4391-894b-b62d11a34041","system_id":"levelo_inurba_marseille","lat":43.23124,"lon":5.43766,"is_reserved":false,"is_disabled":true,"rental_uris":{"android":"levelo://app?vid=2eab994d-a378-4391-894b-b62d11a34041","ios":"levelo://app?vid=2eab994d-a378-4391-894b-b62d11a34041"},"vehicle_type_id":"4","last_reported":1747663823,"current_range_meters":6000,"station_id":"","pricing_plan_id":"cebpf4jnsgd1na2vs0mg"},{"bike_id":"0bb145b3-0fd0-442f-aef9-cb2d044f2a6e","system_id":"levelo_inurba_marseille","lat":43.28351,"lon":5.38098,"is_reserved":false,"is_disabled":false,"rental_uris":{"android":"levelo://app?vid=0bb145b3-0fd0-442f-aef9-cb2d044f2a6e","ios":"levelo://app?vid=0bb145b3-0fd0-442f-aef9-cb2d044f2a6e"},"vehicle_type_id":"4","last_reported":1747663823,"current_range_meters":6000,"station_id":"ce4bh412rcd13ifvqdr0","pricing_plan_id":"cebpf4jnsgd1na2vs0mg"},{"bike_id":"249aad63-7130-49fb-856d-188047e2e8b2","system_id":"levelo_inurba_marseille","lat":43.27496,"lon":5.4245,"is_reserved":false,"is_disabled":false,"rental_uris":{"android":"levelo://app?vid=249aad63-7130-49fb-856d-188047e2e8b2","ios":"levelo://app?vid=249aad63-7130-49fb-856d-188047e2e8b2"},"vehicle_type_id":"4","last_reported":1747663823,"current_range_meters":6000,"station_id":"ce4bhn92rcd13ifvqgrg","pricing_plan_id":"cebpf4jnsgd1na2vs0mg"},{"bike_id":"68e67fc4-b6c2-40b3-992b-9905e6eda0c2","system_id":"levelo_inurba_marseille","lat":43.26562,"lon":5.3902,"is_reserved":false,"is_disabled":false,"rental_uris":{"android":"levelo://app?vid=68e67fc4-b6c2-40b3-992b-9905e6eda0c2","ios":"levelo://app?vid=68e67fc4-b6c2-40b3-992b-9905e6eda0c2"},"vehicle_type_id":"4","last_reported":1747663823,"current_range_meters":6400,"station_id":"ce4bhe12rcd13ifvqf30","pricing_plan_id":"cebpf4jnsgd1na2vs0mg"},{"bike_id":"12146428-9815-4f8a-a46c-669dfafb0149","system_id":"levelo_inurba_marseille","lat":43.24647,"lon":5.38893,"is_reserved":false,"is_disabled":false,"rental_uris":{"android":"levelo://app?vid=12146428-9815-4f8a-a46c-669dfafb0149","ios":"levelo://app?vid=12146428-9815-4f8a-a46c-669dfafb0149"},"vehicle_type_id":"4","last_reported":1747663823,"current_range_meters":6400,"station_id":"ce4bhg12rcd13ifvqf60","pricing_plan_id":"cebpf4jnsgd1na2vs0mg"},{"bike_id":"6849f32b-f468-4410-ab7b-8a5981922d5e","system_id":"levelo_inurba_marseille","lat":43.29629,"lon":5.37724,"is_reserved":false,"is_disabled":false,"rental_uris":{"android":"levelo://app?vid=6849f32b-f468-4410-ab7b-8a5981922d5e","ios":"levelo://app?vid=6849f32b-f468-4410-ab7b-8a5981922d5e"},"vehicle_type_id":"4","last_reported":1747663823,"current_range_meters":6400,"station_id":"ce4bgi92rcd13ifvqb90","pricing_plan_id":"cebpf4jnsgd1na2vs0mg"},{"bike_id":"28fd0fc3-5e6e-4912-9402-fd8cc5b9e262","system_id":"levelo_inurba_marseille","lat":43.29794,"lon":5.3809,"is_reserved":false,"is_disabled":false,"rental_uris":{"android":"levelo://app?vid=28fd0fc3-5e6e-4912-9402-fd8cc5b9e262","ios":"levelo://app?vid=28fd0fc3-5e6e-4912-9402-fd8cc5b9e262"},"vehicle_type_id":"4","last_reported":1747663823,"current_range_meters":6400,"station_id":"ce4bgip2rcd13ifvqbb0","pricing_plan_id":"cebpf4jnsgd1na2vs0mg"},{"bike_id":"6460d2bb-5b78-4833-898e-2ed814abc9cd","system_id":"levelo_inurba_marseille","lat":43.30139,"lon":5.38767,"is_reserved":false,"is_disabled":false,"rental_uris":{"android":"levelo://app?vid=6460d2bb-5b78-4833-898e-2ed814abc9cd","ios":"levelo://app?vid=6460d2bb-5b78-4833-898e-2ed814abc9cd"},"vehicle_type_id":"4","last_reported":1747663823,"current_range_meters":6800,"station_id":"ce4bghh2rcd13ifvqb60","pricing_plan_id":"cebpf4jnsgd1na2vs0mg"},{"bike_id":"ddf71d11-ced3-459e-8090-230d5190759a","system_id":"levelo_inurba_marseille","lat":43.259229,"lon":5.408834,"is_reserved":false,"is_disabled":false,"rental_uris":{"android":"levelo://app?vid=ddf71d11-ced3-459e-8090-230d5190759a","ios":"levelo://app?vid=ddf71d11-ced3-459e-8090-230d5190759a"},"vehicle_type_id":"4","last_reported":1747663823,"current_range_meters":6800,"station_id":"ce4bhm92rcd13ifvqglg","pricing_plan_id":"cebpf4jnsgd1na2vs0mg"},{"bike_id":"3dfcd1ad-7f58-4fce-9af4-94edb91155a5","system_id":"levelo_inurba_marseille","lat":43.25722,"lon":5.41116,"is_reserved":false,"is_disabled":false,"rental_uris":{"android":"levelo://app?vid=3dfcd1ad-7f58-4fce-9af4-94edb91155a5","ios":"levelo://app?vid=3dfcd1ad-7f58-4fce-9af4-94edb91155a5"},"vehicle_type_id":"4","last_reported":1747663823,"current_range_meters":6800,"station_id":"ce4bhkp2rcd13ifvqgd0","pricing_plan_id":"cebpf4jnsgd1na2vs0mg"},{"bike_id":"9d2fd260-accb-4169-b46a-79fa91fbece8","system_id":"levelo_inurba_marseille","lat":43.30903,"lon":5.368455,"is_reserved":false,"is_disabled":true,"rental_uris":{"android":"levelo://app?vid=9d2fd260-accb-4169-b46a-79fa91fbece8","ios":"levelo://app?vid=9d2fd260-accb-4169-b46a-79fa91fbece8"},"vehicle_type_id":"4","last_reported":1747663823,"current_range_meters":6800,"station_id":"ce4bgn92rcd13ifvqbvg","pricing_plan_id":"cebpf4jnsgd1na2vs0mg"},{"bike_id":"52731862-309c-4c4a-aa6f-5969f38825db","system_id":"levelo_inurba_marseille","lat":43.2621,"lon":5.3746,"is_reserved":false,"is_disabled":false,"rental_uris":{"android":"levelo://app?vid=52731862-309c-4c4a-aa6f-5969f38825db","ios":"levelo://app?vid=52731862-309c-4c4a-aa6f-5969f38825db"},"vehicle_type_id":"4","last_reported":1747663823,"current_range_meters":6800,"station_id":"ce4bhgp2rcd13ifvqfc0","pricing_plan_id":"cebpf4jnsgd1na2vs0mg"},{"bike_id":"cca6ab68-0e77-4554-927d-e05ca1ccbcd2","system_id":"levelo_inurba_marseille","lat":43.24668,"lon":5.38168,"is_reserved":false,"is_disabled":false,"rental_uris":{"android":"levelo://app?vid=cca6ab68-0e77-4554-927d-e05ca1ccbcd2","ios":"levelo://app?vid=cca6ab68-0e77-4554-927d-e05ca1ccbcd2"},"vehicle_type_id":"4","last_reported":1747663823,"current_range_meters":7200,"station_id":"ce4bhih2rcd13ifvqfr0","pricing_plan_id":"cebpf4jnsgd1na2vs0mg"},{"bike_id":"7c2f31a5-29a4-4b38-92a3-a37e6e9acbd5","system_id":"levelo_inurba_marseille","lat":43.25725,"lon":5.41101,"is_reserved":false,"is_disabled":false,"rental_uris":{"android":"levelo://app?vid=7c2f31a5-29a4-4b38-92a3-a37e6e9acbd5","ios":"levelo://app?vid=7c2f31a5-29a4-4b38-92a3-a37e6e9acbd5"},"vehicle_type_id":"4","last_reported":1747663823,"current_range_meters":7200,"station_id":"ce4bhkp2rcd13ifvqgd0","pricing_plan_id":"cebpf4jnsgd1na2vs0mg"},{"bike_id":"5c7e3309-a1c7-4799-84ee-52dff8c9bcfe","system_id":"levelo_inurba_marseille","lat":43.28083,"lon":5.39662,"is_reserved":false,"is_disabled":false,"rental_uris":{"android":"levelo://app?vid=5c7e3309-a1c7-4799-84ee-52dff8c9bcfe","ios":"levelo://app?vid=5c7e3309-a1c7-4799-84ee-52dff8c9bcfe"},"vehicle_type_id":"4","last_reported":1747663823,"current_range_meters":7200,"station_id":"ce4bho12rcd13ifvqh2g","pricing_plan_id":"cebpf4jnsgd1na2vs0mg"},{"bike_id":"9e9bf122-002d-4b2b-80cf-72cefc9e6351","system_id":"levelo_inurba_marseille","lat":43.25923,"lon":5.40879,"is_reserved":false,"is_disabled":false,"rental_uris":{"android":"levelo://app?vid=9e9bf122-002d-4b2b-80cf-72cefc9e6351","ios":"levelo://app?vid=9e9bf122-002d-4b2b-80cf-72cefc9e6351"},"vehicle_type_id":"4","last_reported":1747663823,"current_range_meters":7200,"station_id":"ce4bhm92rcd13ifvqglg","pricing_plan_id":"cebpf4jnsgd1na2vs0mg"},{"bike_id":"480261e0-873c-47f0-bbc2-4d052a3d26d6","system_id":"levelo_inurba_marseille","lat":43.25724,"lon":5.41116,"is_reserved":false,"is_disabled":false,"rental_uris":{"android":"levelo://app?vid=480261e0-873c-47f0-bbc2-4d052a3d26d6","ios":"levelo://app?vid=480261e0-873c-47f0-bbc2-4d052a3d26d6"},"vehicle_type_id":"4","last_reported":1747663823,"current_range_meters":7200,"station_id":"ce4bhkp2rcd13ifvqgd0","pricing_plan_id":"cebpf4jnsgd1na2vs0mg"},{"bike_id":"9cb60737-2093-43d0-9b83-f6de604d3fda","system_id":"levelo_inurba_marseille","lat":43.3061,"lon":5.37226,"is_reserved":false,"is_disabled":false,"rental_uris":{"android":"levelo://app?vid=9cb60737-2093-43d0-9b83-f6de604d3fda","ios":"levelo://app?vid=9cb60737-2093-43d0-9b83-f6de604d3fda"},"vehicle_type_id":"4","last_reported":1747663823,"current_range_meters":10800,"station_id":"ce4bgqh2rcd13ifvqc4g","pricing_plan_id":"cebpf4jnsgd1na2vs0mg"},{"bike_id":"6d3d26bf-86d9-4e7a-8b39-6cbfd5b00bfa","system_id":"levelo_inurba_marseille","lat":43.29926,"lon":5.3747,"is_reserved":false,"is_disabled":false,"rental_uris":{"android":"levelo://app?vid=6d3d26bf-86d9-4e7a-8b39-6cbfd5b00bfa","ios":"levelo://app?vid=6d3d26bf-86d9-4e7a-8b39-6cbfd5b00bfa"},"vehicle_type_id":"4","last_reported":1747663823,"current_range_meters":7200,"station_id":"ce4bgjh2rcd13ifvqbg0","pricing_plan_id":"cebpf4jnsgd1na2vs0mg"},{"bike_id":"dd45f96f-139e-4166-bf4c-2e693e1e5611","system_id":"levelo_inurba_marseille","lat":43.297068,"lon":5.376911,"is_reserved":false,"is_disabled":false,"rental_uris":{"android":"levelo://app?vid=dd45f96f-139e-4166-bf4c-2e693e1e5611","ios":"levelo://app?vid=dd45f96f-139e-4166-bf4c-2e693e1e5611"},"vehicle_type_id":"4","last_reported":1747663823,"current_range_meters":7200,"station_id":"ce4bgkh2rcd13ifvqbl0","pricing_plan_id":"cebpf4jnsgd1na2vs0mg"},{"bike_id":"2e68e997-6311-4229-a825-25836df505ad","system_id":"levelo_inurba_marseille","lat":43.3053,"lon":5.36563,"is_reserved":false,"is_disabled":false,"rental_uris":{"android":"levelo://app?vid=2e68e997-6311-4229-a825-25836df505ad","ios":"levelo://app?vid=2e68e997-6311-4229-a825-25836df505ad"},"vehicle_type_id":"4","last_reported":1747663823,"current_range_meters":7200,"station_id":"ce4bgs12rcd13ifvqcag","pricing_plan_id":"cebpf4jnsgd1na2vs0mg"},{"bike_id":"d4373fca-374f-42bc-8a87-a539fec3480b","system_id":"levelo_inurba_marseille","lat":43.270593,"lon":5.402558,"is_reserved":false,"is_disabled":false,"rental_uris":{"android":"levelo://app?vid=d4373fca-374f-42bc-8a87-a539fec3480b","ios":"levelo://app?vid=d4373fca-374f-42bc-8a87-a539fec3480b"},"vehicle_type_id":"4","last_reported":1747663823,"current_range_meters":8000,"station_id":"","pricing_plan_id":"cebpf4jnsgd1na2vs0mg"},{"bike_id":"138efd0e-f712-4d55-a504-261022078e91","system_id":"levelo_inurba_marseille","lat":43.25709,"lon":5.41139,"is_reserved":false,"is_disabled":false,"rental_uris":{"android":"levelo://app?vid=138efd0e-f712-4d55-a504-261022078e91","ios":"levelo://app?vid=138efd0e-f712-4d55-a504-261022078e91"},"vehicle_type_id":"4","last_reported":1747663823,"current_range_meters":8000,"station_id":"ce4bhkp2rcd13ifvqgd0","pricing_plan_id":"cebpf4jnsgd1na2vs0mg"},{"bike_id":"cde7e66e-ce29-42a6-9356-65ed12e539a7","system_id":"levelo_inurba_marseille","lat":43.2738,"lon":5.36257,"is_reserved":false,"is_disabled":false,"rental_uris":{"android":"levelo://app?vid=cde7e66e-ce29-42a6-9356-65ed12e539a7","ios":"levelo://app?vid=cde7e66e-ce29-42a6-9356-65ed12e539a7"},"vehicle_type_id":"4","last_reported":1747663823,"current_range_meters":8000,"station_id":"ce4bhbh2rcd13ifvqeo0","pricing_plan_id":"cebpf4jnsgd1na2vs0mg"},{"bike_id":"496bbd09-265c-476d-b538-d4e37143cd57","system_id":"levelo_inurba_marseille","lat":43.27801,"lon":5.40745,"is_reserved":false,"is_disabled":false,"rental_uris":{"android":"levelo://app?vid=496bbd09-265c-476d-b538-d4e37143cd57","ios":"levelo://app?vid=496bbd09-265c-476d-b538-d4e37143cd57"},"vehicle_type_id":"4","last_reported":1747663823,"current_range_meters":8000,"station_id":"ce4bhnh2rcd13ifvqgtg","pricing_plan_id":"cebpf4jnsgd1na2vs0mg"},{"bike_id":"0e4be12c-830a-4cbe-bc0c-dbe3be483ab7","system_id":"levelo_inurba_marseille","lat":43.32049,"lon":5.36869,"is_reserved":false,"is_disabled":false,"rental_uris":{"android":"levelo://app?vid=0e4be12c-830a-4cbe-bc0c-dbe3be483ab7","ios":"levelo://app?vid=0e4be12c-830a-4cbe-bc0c-dbe3be483ab7"},"vehicle_type_id":"4","last_reported":1747663823,"current_range_meters":8000,"station_id":"ce4bhrh2rcd13ifvqhug","pricing_plan_id":"cebpf4jnsgd1na2vs0mg"},{"bike_id":"0f9d6bdf-1d4f-466e-aa63-557c75d3adc2","system_id":"levelo_inurba_marseille","lat":43.28039,"lon":5.36949,"is_reserved":false,"is_disabled":false,"rental_uris":{"android":"levelo://app?vid=0f9d6bdf-1d4f-466e-aa63-557c75d3adc2","ios":"levelo://app?vid=0f9d6bdf-1d4f-466e-aa63-557c75d3adc2"},"vehicle_type_id":"4","last_reported":1747663823,"current_range_meters":8400,"station_id":"ce4bha12rcd13ifvqef0","pricing_plan_id":"cebpf4jnsgd1na2vs0mg"},{"bike_id":"97b70cf9-8044-48ed-93a1-0d759ff32bc0","system_id":"levelo_inurba_marseille","lat":43.26549,"lon":5.37284,"is_reserved":false,"is_disabled":false,"rental_uris":{"android":"levelo://app?vid=97b70cf9-8044-48ed-93a1-0d759ff32bc0","ios":"levelo://app?vid=97b70cf9-8044-48ed-93a1-0d759ff32bc0"},"vehicle_type_id":"4","last_reported":1747663823,"current_range_meters":8400,"station_id":"ce4bhg12rcd13ifvqf70","pricing_plan_id":"cebpf4jnsgd1na2vs0mg"},{"bike_id":"92239cf2-48db-4e53-bec0-b1a90058e322","system_id":"levelo_inurba_marseille","lat":43.23193,"lon":5.39986,"is_reserved":false,"is_disabled":false,"rental_uris":{"android":"levelo://app?vid=92239cf2-48db-4e53-bec0-b1a90058e322","ios":"levelo://app?vid=92239cf2-48db-4e53-bec0-b1a90058e322"},"vehicle_type_id":"4","last_reported":1747663823,"current_range_meters":8400,"station_id":"ce4bhn12rcd13ifvqgqg","pricing_plan_id":"cebpf4jnsgd1na2vs0mg"},{"bike_id":"66e3cc7f-c39b-49ab-937c-c2b2180bcc81","system_id":"levelo_inurba_marseille","lat":43.30151,"lon":5.37418,"is_reserved":false,"is_disabled":false,"rental_uris":{"android":"levelo://app?vid=66e3cc7f-c39b-49ab-937c-c2b2180bcc81","ios":"levelo://app?vid=66e3cc7f-c39b-49ab-937c-c2b2180bcc81"},"vehicle_type_id":"4","last_reported":1747663823,"current_range_meters":8800,"station_id":"ce4bgs92rcd13ifvqcc0","pricing_plan_id":"cebpf4jnsgd1na2vs0mg"},{"bike_id":"622faf03-ab3b-497f-ab27-b33cddaa8ca5","system_id":"levelo_inurba_marseille","lat":43.28003,"lon":5.41665,"is_reserved":false,"is_disabled":false,"rental_uris":{"android":"levelo://app?vid=622faf03-ab3b-497f-ab27-b33cddaa8ca5","ios":"levelo://app?vid=622faf03-ab3b-497f-ab27-b33cddaa8ca5"},"vehicle_type_id":"4","last_reported":1747663823,"current_range_meters":8800,"station_id":"ce4bho12rcd13ifvqh1g","pricing_plan_id":"cebpf4jnsgd1na2vs0mg"},{"bike_id":"d9090cda-5b81-447f-829a-dd86382e9b77","system_id":"levelo_inurba_marseille","lat":43.27376,"lon":5.36264,"is_reserved":false,"is_disabled":false,"rental_uris":{"android":"levelo://app?vid=d9090cda-5b81-447f-829a-dd86382e9b77","ios":"levelo://app?vid=d9090cda-5b81-447f-829a-dd86382e9b77"},"vehicle_type_id":"4","last_reported":1747663823,"current_range_meters":8800,"station_id":"ce4bhbh2rcd13ifvqeo0","pricing_plan_id":"cebpf4jnsgd1na2vs0mg"},{"bike_id":"a3a920aa-37ae-4f36-99e8-415e5c929461","system_id":"levelo_inurba_marseille","lat":43.2842,"lon":5.35002,"is_reserved":false,"is_disabled":false,"rental_uris":{"android":"levelo://app?vid=a3a920aa-37ae-4f36-99e8-415e5c929461","ios":"levelo://app?vid=a3a920aa-37ae-4f36-99e8-415e5c929461"},"vehicle_type_id":"4","last_reported":1747663823,"current_range_meters":9200,"station_id":"ce4bhbh2rcd13ifvqepg","pricing_plan_id":"cebpf4jnsgd1na2vs0mg"},{"bike_id":"57d868ee-ea14-4118-8093-254181b25d01","system_id":"levelo_inurba_marseille","lat":43.2737,"lon":5.36259,"is_reserved":false,"is_disabled":false,"rental_uris":{"android":"levelo://app?vid=57d868ee-ea14-4118-8093-254181b25d01","ios":"levelo://app?vid=57d868ee-ea14-4118-8093-254181b25d01"},"vehicle_type_id":"4","last_reported":1747663823,"current_range_meters":9200,"station_id":"ce4bhbh2rcd13ifvqeo0","pricing_plan_id":"cebpf4jnsgd1na2vs0mg"},{"bike_id":"faf131ab-4341-4f76-bd17-85aaf1a23e25","system_id":"levelo_inurba_marseille","lat":43.2717,"lon":5.41011,"is_reserved":false,"is_disabled":false,"rental_uris":{"android":"levelo://app?vid=faf131ab-4341-4f76-bd17-85aaf1a23e25","ios":"levelo://app?vid=faf131ab-4341-4f76-bd17-85aaf1a23e25"},"vehicle_type_id":"4","last_reported":1747663823,"current_range_meters":9200,"station_id":"ce4bhl12rcd13ifvqgf0","pricing_plan_id":"cebpf4jnsgd1na2vs0mg"},{"bike_id":"cfea6a2f-a6d2-4b54-aed6-eadb3d4fe1fa","system_id":"levelo_inurba_marseille","lat":43.30149,"lon":5.37427,"is_reserved":false,"is_disabled":false,"rental_uris":{"android":"levelo://app?vid=cfea6a2f-a6d2-4b54-aed6-eadb3d4fe1fa","ios":"levelo://app?vid=cfea6a2f-a6d2-4b54-aed6-eadb3d4fe1fa"},"vehicle_type_id":"4","last_reported":1747663823,"current_range_meters":9200,"station_id":"ce4bgs92rcd13ifvqcc0","pricing_plan_id":"cebpf4jnsgd1na2vs0mg"},{"bike_id":"b2548f10-ca19-4715-8ec4-ba2ad9caa0ec","system_id":"levelo_inurba_marseille","lat":43.27178,"lon":5.40998,"is_reserved":false,"is_disabled":false,"rental_uris":{"android":"levelo://app?vid=b2548f10-ca19-4715-8ec4-ba2ad9caa0ec","ios":"levelo://app?vid=b2548f10-ca19-4715-8ec4-ba2ad9caa0ec"},"vehicle_type_id":"4","last_reported":1747663823,"current_range_meters":9200,"station_id":"ce4bhl12rcd13ifvqgf0","pricing_plan_id":"cebpf4jnsgd1na2vs0mg"},{"bike_id":"814e2930-a412-47af-849d-26da2abc07f6","system_id":"levelo_inurba_marseille","lat":43.27822,"lon":5.40734,"is_reserved":false,"is_disabled":true,"rental_uris":{"android":"levelo://app?vid=814e2930-a412-47af-849d-26da2abc07f6","ios":"levelo://app?vid=814e2930-a412-47af-849d-26da2abc07f6"},"vehicle_type_id":"4","last_reported":1747663823,"current_range_meters":9200,"station_id":"ce4bhnh2rcd13ifvqgtg","pricing_plan_id":"cebpf4jnsgd1na2vs0mg"},{"bike_id":"06e452b4-00bd-4194-8cf0-97e51cbae02e","system_id":"levelo_inurba_marseille","lat":43.23189,"lon":5.39982,"is_reserved":false,"is_disabled":false,"rental_uris":{"android":"levelo://app?vid=06e452b4-00bd-4194-8cf0-97e51cbae02e","ios":"levelo://app?vid=06e452b4-00bd-4194-8cf0-97e51cbae02e"},"vehicle_type_id":"4","last_reported":1747663823,"current_range_meters":9600,"station_id":"ce4bhn12rcd13ifvqgqg","pricing_plan_id":"cebpf4jnsgd1na2vs0mg"},{"bike_id":"d233ed6c-21ce-435c-adcc-f392b8338a44","system_id":"levelo_inurba_marseille","lat":43.30596,"lon":5.3719,"is_reserved":false,"is_disabled":false,"rental_uris":{"android":"levelo://app?vid=d233ed6c-21ce-435c-adcc-f392b8338a44","ios":"levelo://app?vid=d233ed6c-21ce-435c-adcc-f392b8338a44"},"vehicle_type_id":"4","last_reported":1747663823,"current_range_meters":9600,"station_id":"ce4bgqh2rcd13ifvqc4g","pricing_plan_id":"cebpf4jnsgd1na2vs0mg"},{"bike_id":"1251f3e6-f78a-418d-9e0a-7474b2b1d8ac","system_id":"levelo_inurba_marseille","lat":43.2593,"lon":5.40922,"is_reserved":false,"is_disabled":false,"rental_uris":{"android":"levelo://app?vid=1251f3e6-f78a-418d-9e0a-7474b2b1d8ac","ios":"levelo://app?vid=1251f3e6-f78a-418d-9e0a-7474b2b1d8ac"},"vehicle_type_id":"4","last_reported":1747663823,"current_range_meters":9600,"station_id":"ce4bhm92rcd13ifvqglg","pricing_plan_id":"cebpf4jnsgd1na2vs0mg"},{"bike_id":"12c4d802-2c6a-4c71-888e-000ffe312a3f","system_id":"levelo_inurba_marseille","lat":43.32373,"lon":5.36768,"is_reserved":false,"is_disabled":false,"rental_uris":{"android":"levelo://app?vid=12c4d802-2c6a-4c71-888e-000ffe312a3f","ios":"levelo://app?vid=12c4d802-2c6a-4c71-888e-000ffe312a3f"},"vehicle_type_id":"4","last_reported":1747663823,"current_range_meters":9600,"station_id":"ce4bhsh2rcd13ifvqi2g","pricing_plan_id":"cebpf4jnsgd1na2vs0mg"},{"bike_id":"35ca5ae1-ccde-4bf7-9030-37bfff7d0b04","system_id":"levelo_inurba_marseille","lat":43.30808,"lon":5.43518,"is_reserved":false,"is_disabled":false,"rental_uris":{"android":"levelo://app?vid=35ca5ae1-ccde-4bf7-9030-37bfff7d0b04","ios":"levelo://app?vid=35ca5ae1-ccde-4bf7-9030-37bfff7d0b04"},"vehicle_type_id":"4","last_reported":1747663823,"current_range_meters":9200,"station_id":"ce4bhph2rcd13ifvqheg","pricing_plan_id":"cebpf4jnsgd1na2vs0mg"},{"bike_id":"b2d8cb22-bb08-445b-9edd-971005f2f520","system_id":"levelo_inurba_marseille","lat":43.30542,"lon":5.367,"is_reserved":false,"is_disabled":false,"rental_uris":{"android":"levelo://app?vid=b2d8cb22-bb08-445b-9edd-971005f2f520","ios":"levelo://app?vid=b2d8cb22-bb08-445b-9edd-971005f2f520"},"vehicle_type_id":"4","last_reported":1747663823,"current_range_meters":9600,"station_id":"ce4bgrp2rcd13ifvqc9g","pricing_plan_id":"cebpf4jnsgd1na2vs0mg"},{"bike_id":"b77cec08-6f45-401b-8a0c-ded83a057bee","system_id":"levelo_inurba_marseille","lat":43.28451,"lon":5.39192,"is_reserved":false,"is_disabled":false,"rental_uris":{"android":"levelo://app?vid=b77cec08-6f45-401b-8a0c-ded83a057bee","ios":"levelo://app?vid=b77cec08-6f45-401b-8a0c-ded83a057bee"},"vehicle_type_id":"4","last_reported":1747663823,"current_range_meters":9600,"station_id":"ce4bhoh2rcd13ifvqh5g","pricing_plan_id":"cebpf4jnsgd1na2vs0mg"},{"bike_id":"894bcd11-16b4-4de7-af3e-a11c57495d29","system_id":"levelo_inurba_marseille","lat":43.28269,"lon":5.35069,"is_reserved":false,"is_disabled":false,"rental_uris":{"android":"levelo://app?vid=894bcd11-16b4-4de7-af3e-a11c57495d29","ios":"levelo://app?vid=894bcd11-16b4-4de7-af3e-a11c57495d29"},"vehicle_type_id":"4","last_reported":1747663823,"current_range_meters":9600,"station_id":"ce4bhbp2rcd13ifvqerg","pricing_plan_id":"cebpf4jnsgd1na2vs0mg"},{"bike_id":"546165a1-0c4f-44d0-ac91-53f1eaf7de3c","system_id":"levelo_inurba_marseille","lat":43.26217,"lon":5.37438,"is_reserved":false,"is_disabled":false,"rental_uris":{"android":"levelo://app?vid=546165a1-0c4f-44d0-ac91-53f1eaf7de3c","ios":"levelo://app?vid=546165a1-0c4f-44d0-ac91-53f1eaf7de3c"},"vehicle_type_id":"4","last_reported":1747663823,"current_range_meters":9600,"station_id":"ce4bhgp2rcd13ifvqfc0","pricing_plan_id":"cebpf4jnsgd1na2vs0mg"},{"bike_id":"57d49cee-197d-434e-8012-8c8b17132997","system_id":"levelo_inurba_marseille","lat":43.32346,"lon":5.40616,"is_reserved":false,"is_disabled":false,"rental_uris":{"android":"levelo://app?vid=57d49cee-197d-434e-8012-8c8b17132997","ios":"levelo://app?vid=57d49cee-197d-434e-8012-8c8b17132997"},"vehicle_type_id":"4","last_reported":1747663823,"current_range_meters":10000,"station_id":"ce4bhq92rcd13ifvqhjg","pricing_plan_id":"cebpf4jnsgd1na2vs0mg"},{"bike_id":"572c97ee-0da0-4be5-a2ce-28eff65f3ef1","system_id":"levelo_inurba_marseille","lat":43.33749,"lon":5.37451,"is_reserved":false,"is_disabled":false,"rental_uris":{"android":"levelo://app?vid=572c97ee-0da0-4be5-a2ce-28eff65f3ef1","ios":"levelo://app?vid=572c97ee-0da0-4be5-a2ce-28eff65f3ef1"},"vehicle_type_id":"4","last_reported":1747663823,"current_range_meters":10000,"station_id":"","pricing_plan_id":"cebpf4jnsgd1na2vs0mg"},{"bike_id":"09a65003-eb7b-4267-a24e-f59127989144","system_id":"levelo_inurba_marseille","lat":43.258522,"lon":5.394165,"is_reserved":false,"is_disabled":false,"rental_uris":{"android":"levelo://app?vid=09a65003-eb7b-4267-a24e-f59127989144","ios":"levelo://app?vid=09a65003-eb7b-4267-a24e-f59127989144"},"vehicle_type_id":"4","last_reported":1747663823,"current_range_meters":9600,"station_id":"ce4bhip2rcd13ifvqft0","pricing_plan_id":"cebpf4jnsgd1na2vs0mg"},{"bike_id":"201476c2-6270-46bd-a5f5-e47f4ad7efa4","system_id":"levelo_inurba_marseille","lat":43.23154,"lon":5.43714,"is_reserved":false,"is_disabled":false,"rental_uris":{"android":"levelo://app?vid=201476c2-6270-46bd-a5f5-e47f4ad7efa4","ios":"levelo://app?vid=201476c2-6270-46bd-a5f5-e47f4ad7efa4"},"vehicle_type_id":"4","last_reported":1747663823,"current_range_meters":10000,"station_id":"ce4bhmp2rcd13ifvqgog","pricing_plan_id":"cebpf4jnsgd1na2vs0mg"},{"bike_id":"2df28901-da48-49ab-9be2-e7a7d2f1d7b0","system_id":"levelo_inurba_marseille","lat":43.29952,"lon":5.41309,"is_reserved":false,"is_disabled":false,"rental_uris":{"android":"levelo://app?vid=2df28901-da48-49ab-9be2-e7a7d2f1d7b0","ios":"levelo://app?vid=2df28901-da48-49ab-9be2-e7a7d2f1d7b0"},"vehicle_type_id":"4","last_reported":1747663823,"current_range_meters":10000,"station_id":"ce4bhp12rcd13ifvqh9g","pricing_plan_id":"cebpf4jnsgd1na2vs0mg"},{"bike_id":"e87402f7-239f-43e8-a940-f3c3675560f7","system_id":"levelo_inurba_marseille","lat":43.29888,"lon":5.38898,"is_reserved":false,"is_disabled":false,"rental_uris":{"android":"levelo://app?vid=e87402f7-239f-43e8-a940-f3c3675560f7","ios":"levelo://app?vid=e87402f7-239f-43e8-a940-f3c3675560f7"},"vehicle_type_id":"4","last_reported":1747663823,"current_range_meters":11200,"station_id":"ce4bh392rcd13ifvqdl0","pricing_plan_id":"cebpf4jnsgd1na2vs0mg"},{"bike_id":"0c9b5e98-ea35-49c7-8593-7e9888542d33","system_id":"levelo_inurba_marseille","lat":43.30147,"lon":5.3987,"is_reserved":false,"is_disabled":false,"rental_uris":{"android":"levelo://app?vid=0c9b5e98-ea35-49c7-8593-7e9888542d33","ios":"levelo://app?vid=0c9b5e98-ea35-49c7-8593-7e9888542d33"},"vehicle_type_id":"4","last_reported":1747663823,"current_range_meters":10800,"station_id":"ce4bh0h2rcd13ifvqd40","pricing_plan_id":"cebpf4jnsgd1na2vs0mg"},{"bike_id":"dbf8222a-eea0-42f0-80c2-a4791ac4ed58","system_id":"levelo_inurba_marseille","lat":43.249934,"lon":5.388738,"is_reserved":false,"is_disabled":false,"rental_uris":{"android":"levelo://app?vid=dbf8222a-eea0-42f0-80c2-a4791ac4ed58","ios":"levelo://app?vid=dbf8222a-eea0-42f0-80c2-a4791ac4ed58"},"vehicle_type_id":"4","last_reported":1747663823,"current_range_meters":10800,"station_id":"ce4bhgp2rcd13ifvqfd0","pricing_plan_id":"cebpf4jnsgd1na2vs0mg"},{"bike_id":"41d6d43b-cdd6-43a9-a37f-11682e05448d","system_id":"levelo_inurba_marseille","lat":43.26805,"lon":5.40258,"is_reserved":false,"is_disabled":false,"rental_uris":{"android":"levelo://app?vid=41d6d43b-cdd6-43a9-a37f-11682e05448d","ios":"levelo://app?vid=41d6d43b-cdd6-43a9-a37f-11682e05448d"},"vehicle_type_id":"4","last_reported":1747663823,"current_range_meters":10800,"station_id":"ce501612rcd8frsf0b60","pricing_plan_id":"cebpf4jnsgd1na2vs0mg"},{"bike_id":"e2483e33-e22f-4969-8812-f7cdcc75c59a","system_id":"levelo_inurba_marseille","lat":43.323639,"lon":5.367634,"is_reserved":false,"is_disabled":false,"rental_uris":{"android":"levelo://app?vid=e2483e33-e22f-4969-8812-f7cdcc75c59a","ios":"levelo://app?vid=e2483e33-e22f-4969-8812-f7cdcc75c59a"},"vehicle_type_id":"4","last_reported":1747663823,"current_range_meters":10800,"station_id":"ce4bhsh2rcd13ifvqi2g","pricing_plan_id":"cebpf4jnsgd1na2vs0mg"},{"bike_id":"f11f792d-3462-414a-b452-8d274fbe2cd4","system_id":"levelo_inurba_marseille","lat":43.246853,"lon":5.38189,"is_reserved":false,"is_disabled":false,"rental_uris":{"android":"levelo://app?vid=f11f792d-3462-414a-b452-8d274fbe2cd4","ios":"levelo://app?vid=f11f792d-3462-414a-b452-8d274fbe2cd4"},"vehicle_type_id":"4","last_reported":1747663823,"current_range_meters":10800,"station_id":"ce4bhih2rcd13ifvqfr0","pricing_plan_id":"cebpf4jnsgd1na2vs0mg"},{"bike_id":"226af5a0-7194-44a1-9ad6-7280ba3e680c","system_id":"levelo_inurba_marseille","lat":43.29259,"lon":5.40897,"is_reserved":false,"is_disabled":false,"rental_uris":{"android":"levelo://app?vid=226af5a0-7194-44a1-9ad6-7280ba3e680c","ios":"levelo://app?vid=226af5a0-7194-44a1-9ad6-7280ba3e680c"},"vehicle_type_id":"4","last_reported":1747663823,"current_range_meters":10800,"station_id":"ce4bh192rcd13ifvqdc0","pricing_plan_id":"cebpf4jnsgd1na2vs0mg"},{"bike_id":"aba237c4-2b28-4e33-baaa-5fde8911bcfc","system_id":"levelo_inurba_marseille","lat":43.27195,"lon":5.41023,"is_reserved":false,"is_disabled":false,"rental_uris":{"android":"levelo://app?vid=aba237c4-2b28-4e33-baaa-5fde8911bcfc","ios":"levelo://app?vid=aba237c4-2b28-4e33-baaa-5fde8911bcfc"},"vehicle_type_id":"4","last_reported":1747663823,"current_range_meters":11200,"station_id":"ce4bhl12rcd13ifvqgf0","pricing_plan_id":"cebpf4jnsgd1na2vs0mg"},{"bike_id":"1304491c-9598-4f85-b166-545686317b13","system_id":"levelo_inurba_marseille","lat":43.23147,"lon":5.43719,"is_reserved":false,"is_disabled":false,"rental_uris":{"android":"levelo://app?vid=1304491c-9598-4f85-b166-545686317b13","ios":"levelo://app?vid=1304491c-9598-4f85-b166-545686317b13"},"vehicle_type_id":"4","last_reported":1747663823,"current_range_meters":11200,"station_id":"ce4bhmp2rcd13ifvqgog","pricing_plan_id":"cebpf4jnsgd1na2vs0mg"},{"bike_id":"bcbdbd69-7be8-42f8-a855-a4358565de8f","system_id":"levelo_inurba_marseille","lat":43.277297,"lon":5.413892,"is_reserved":false,"is_disabled":false,"rental_uris":{"android":"levelo://app?vid=bcbdbd69-7be8-42f8-a855-a4358565de8f","ios":"levelo://app?vid=bcbdbd69-7be8-42f8-a855-a4358565de8f"},"vehicle_type_id":"4","last_reported":1747663823,"current_range_meters":11200,"station_id":"","pricing_plan_id":"cebpf4jnsgd1na2vs0mg"},{"bike_id":"cee238b9-97ef-4b89-8946-fc4ad2398a41","system_id":"levelo_inurba_marseille","lat":43.30509,"lon":5.36537,"is_reserved":false,"is_disabled":false,"rental_uris":{"android":"levelo://app?vid=cee238b9-97ef-4b89-8946-fc4ad2398a41","ios":"levelo://app?vid=cee238b9-97ef-4b89-8946-fc4ad2398a41"},"vehicle_type_id":"4","last_reported":1747663823,"current_range_meters":11200,"station_id":"ce4bgs12rcd13ifvqcag","pricing_plan_id":"cebpf4jnsgd1na2vs0mg"},{"bike_id":"c777c977-32ec-498a-9f40-360a72d78e18","system_id":"levelo_inurba_marseille","lat":43.23966,"lon":5.36626,"is_reserved":false,"is_disabled":false,"rental_uris":{"android":"levelo://app?vid=c777c977-32ec-498a-9f40-360a72d78e18","ios":"levelo://app?vid=c777c977-32ec-498a-9f40-360a72d78e18"},"vehicle_type_id":"4","last_reported":1747663823,"current_range_meters":10800,"station_id":"ce4bhi12rcd13ifvqfp0","pricing_plan_id":"cebpf4jnsgd1na2vs0mg"},{"bike_id":"a0ef91e8-eab4-4e92-9764-f8b59bed148c","system_id":"levelo_inurba_marseille","lat":43.31361,"lon":5.38493,"is_reserved":false,"is_disabled":false,"rental_uris":{"android":"levelo://app?vid=a0ef91e8-eab4-4e92-9764-f8b59bed148c","ios":"levelo://app?vid=a0ef91e8-eab4-4e92-9764-f8b59bed148c"},"vehicle_type_id":"4","last_reported":1747663823,"current_range_meters":11200,"station_id":"ce4bgt92rcd13ifvqcf0","pricing_plan_id":"cebpf4jnsgd1na2vs0mg"},{"bike_id":"1781678f-9f63-4862-9053-a58939843977","system_id":"levelo_inurba_marseille","lat":43.2738,"lon":5.36261,"is_reserved":false,"is_disabled":false,"rental_uris":{"android":"levelo://app?vid=1781678f-9f63-4862-9053-a58939843977","ios":"levelo://app?vid=1781678f-9f63-4862-9053-a58939843977"},"vehicle_type_id":"4","last_reported":1747663823,"current_range_meters":11200,"station_id":"ce4bhbh2rcd13ifvqeo0","pricing_plan_id":"cebpf4jnsgd1na2vs0mg"},{"bike_id":"142867a9-9c2a-4f2b-bea8-bffaf3ba87f4","system_id":"levelo_inurba_marseille","lat":43.28101,"lon":5.37838,"is_reserved":false,"is_disabled":false,"rental_uris":{"android":"levelo://app?vid=142867a9-9c2a-4f2b-bea8-bffaf3ba87f4","ios":"levelo://app?vid=142867a9-9c2a-4f2b-bea8-bffaf3ba87f4"},"vehicle_type_id":"4","last_reported":1747663823,"current_range_meters":11200,"station_id":"ce4bha12rcd13ifvqee0","pricing_plan_id":"cebpf4jnsgd1na2vs0mg"},{"bike_id":"6c0481be-1d38-46a6-983f-2cb6a293456d","system_id":"levelo_inurba_marseille","lat":43.3015,"lon":5.37417,"is_reserved":false,"is_disabled":false,"rental_uris":{"android":"levelo://app?vid=6c0481be-1d38-46a6-983f-2cb6a293456d","ios":"levelo://app?vid=6c0481be-1d38-46a6-983f-2cb6a293456d"},"vehicle_type_id":"4","last_reported":1747663823,"current_range_meters":11600,"station_id":"ce4bgs92rcd13ifvqcc0","pricing_plan_id":"cebpf4jnsgd1na2vs0mg"},{"bike_id":"779d8437-6ee8-4a01-8e1c-9ee77ee987ce","system_id":"levelo_inurba_marseille","lat":43.32289,"lon":5.38275,"is_reserved":false,"is_disabled":false,"rental_uris":{"android":"levelo://app?vid=779d8437-6ee8-4a01-8e1c-9ee77ee987ce","ios":"levelo://app?vid=779d8437-6ee8-4a01-8e1c-9ee77ee987ce"},"vehicle_type_id":"4","last_reported":1747663823,"current_range_meters":9600,"station_id":"ce4bhr12rcd13ifvqhqg","pricing_plan_id":"cebpf4jnsgd1na2vs0mg"},{"bike_id":"a1f1ad64-ec94-4818-ac6d-736c561f385f","system_id":"levelo_inurba_marseille","lat":43.28665,"lon":5.36349,"is_reserved":false,"is_disabled":false,"rental_uris":{"android":"levelo://app?vid=a1f1ad64-ec94-4818-ac6d-736c561f385f","ios":"levelo://app?vid=a1f1ad64-ec94-4818-ac6d-736c561f385f"},"vehicle_type_id":"4","last_reported":1747663823,"current_range_meters":11600,"station_id":"ce4bhah2rcd13ifvqej0","pricing_plan_id":"cebpf4jnsgd1na2vs0mg"},{"bike_id":"dd716423-e959-4fcf-ad4b-a11c97766549","system_id":"levelo_inurba_marseille","lat":43.27151,"lon":5.41002,"is_reserved":false,"is_disabled":false,"rental_uris":{"android":"levelo://app?vid=dd716423-e959-4fcf-ad4b-a11c97766549","ios":"levelo://app?vid=dd716423-e959-4fcf-ad4b-a11c97766549"},"vehicle_type_id":"4","last_reported":1747663823,"current_range_meters":12000,"station_id":"ce4bhl12rcd13ifvqgf0","pricing_plan_id":"cebpf4jnsgd1na2vs0mg"},{"bike_id":"34634a05-f3bf-47b8-9fe3-aa3061eac03f","system_id":"levelo_inurba_marseille","lat":43.29252,"lon":5.37629,"is_reserved":false,"is_disabled":false,"rental_uris":{"android":"levelo://app?vid=34634a05-f3bf-47b8-9fe3-aa3061eac03f","ios":"levelo://app?vid=34634a05-f3bf-47b8-9fe3-aa3061eac03f"},"vehicle_type_id":"4","last_reported":1747663823,"current_range_meters":12000,"station_id":"ce4bgi12rcd13ifvqb80","pricing_plan_id":"cebpf4jnsgd1na2vs0mg"},{"bike_id":"0de6769f-687d-4303-ade7-7e449184f800","system_id":"levelo_inurba_marseille","lat":43.29375,"lon":5.37849,"is_reserved":false,"is_disabled":false,"rental_uris":{"android":"levelo://app?vid=0de6769f-687d-4303-ade7-7e449184f800","ios":"levelo://app?vid=0de6769f-687d-4303-ade7-7e449184f800"},"vehicle_type_id":"4","last_reported":1747663823,"current_range_meters":12000,"station_id":"ce4bgjh2rcd13ifvqbf0","pricing_plan_id":"cebpf4jnsgd1na2vs0mg"},{"bike_id":"b63a23fc-5c86-4ed5-87e7-8863c0318802","system_id":"levelo_inurba_marseille","lat":43.27839,"lon":5.39214,"is_reserved":false,"is_disabled":false,"rental_uris":{"android":"levelo://app?vid=b63a23fc-5c86-4ed5-87e7-8863c0318802","ios":"levelo://app?vid=b63a23fc-5c86-4ed5-87e7-8863c0318802"},"vehicle_type_id":"4","last_reported":1747663823,"current_range_meters":12000,"station_id":"ce4bhjp2rcd13ifvqga0","pricing_plan_id":"cebpf4jnsgd1na2vs0mg"},{"bike_id":"a39d193a-b85f-4476-8ce6-006596e4c210","system_id":"levelo_inurba_marseille","lat":43.337444,"lon":5.374475,"is_reserved":false,"is_disabled":false,"rental_uris":{"android":"levelo://app?vid=a39d193a-b85f-4476-8ce6-006596e4c210","ios":"levelo://app?vid=a39d193a-b85f-4476-8ce6-006596e4c210"},"vehicle_type_id":"4","last_reported":1747663823,"current_range_meters":12000,"station_id":"","pricing_plan_id":"cebpf4jnsgd1na2vs0mg"},{"bike_id":"66b4961d-3373-4990-87d8-ac92c7cf49b3","system_id":"levelo_inurba_marseille","lat":43.30149,"lon":5.37423,"is_reserved":false,"is_disabled":false,"rental_uris":{"android":"levelo://app?vid=66b4961d-3373-4990-87d8-ac92c7cf49b3","ios":"levelo://app?vid=66b4961d-3373-4990-87d8-ac92c7cf49b3"},"vehicle_type_id":"4","last_reported":1747663823,"current_range_meters":12000,"station_id":"ce4bgs92rcd13ifvqcc0","pricing_plan_id":"cebpf4jnsgd1na2vs0mg"},{"bike_id":"4c9e17ad-7948-4833-ac19-6a76128fb75b","system_id":"levelo_inurba_marseille","lat":43.26489,"lon":5.39547,"is_reserved":false,"is_disabled":false,"rental_uris":{"android":"levelo://app?vid=4c9e17ad-7948-4833-ac19-6a76128fb75b","ios":"levelo://app?vid=4c9e17ad-7948-4833-ac19-6a76128fb75b"},"vehicle_type_id":"4","last_reported":1747663823,"current_range_meters":12000,"station_id":"ce4bhi12rcd13ifvqfq0","pricing_plan_id":"cebpf4jnsgd1na2vs0mg"},{"bike_id":"f2ad7ac1-8963-4e9e-a695-7750d3c23d81","system_id":"levelo_inurba_marseille","lat":43.29976,"lon":5.37177,"is_reserved":false,"is_disabled":false,"rental_uris":{"android":"levelo://app?vid=f2ad7ac1-8963-4e9e-a695-7750d3c23d81","ios":"levelo://app?vid=f2ad7ac1-8963-4e9e-a695-7750d3c23d81"},"vehicle_type_id":"4","last_reported":1747663823,"current_range_meters":12400,"station_id":"ce4bgr92rcd13ifvqc7g","pricing_plan_id":"cebpf4jnsgd1na2vs0mg"},{"bike_id":"03f21bdd-a8af-4686-a838-18b21e1abeb7","system_id":"levelo_inurba_marseille","lat":43.28461,"lon":5.3589,"is_reserved":false,"is_disabled":false,"rental_uris":{"android":"levelo://app?vid=03f21bdd-a8af-4686-a838-18b21e1abeb7","ios":"levelo://app?vid=03f21bdd-a8af-4686-a838-18b21e1abeb7"},"vehicle_type_id":"4","last_reported":1747663823,"current_range_meters":12400,"station_id":"ce4bhah2rcd13ifvqei0","pricing_plan_id":"cebpf4jnsgd1na2vs0mg"},{"bike_id":"51a51bf4-150e-4966-a492-95e2e756ece4","system_id":"levelo_inurba_marseille","lat":43.29571,"lon":5.3752,"is_reserved":false,"is_disabled":false,"rental_uris":{"android":"levelo://app?vid=51a51bf4-150e-4966-a492-95e2e756ece4","ios":"levelo://app?vid=51a51bf4-150e-4966-a492-95e2e756ece4"},"vehicle_type_id":"4","last_reported":1747663823,"current_range_meters":12400,"station_id":"ce4bgh92rcd13ifvqb50","pricing_plan_id":"cebpf4jnsgd1na2vs0mg"},{"bike_id":"f4ba9c6e-bcad-41c7-8d4e-bca01364d190","system_id":"levelo_inurba_marseille","lat":43.25923,"lon":5.40888,"is_reserved":false,"is_disabled":false,"rental_uris":{"android":"levelo://app?vid=f4ba9c6e-bcad-41c7-8d4e-bca01364d190","ios":"levelo://app?vid=f4ba9c6e-bcad-41c7-8d4e-bca01364d190"},"vehicle_type_id":"4","last_reported":1747663823,"current_range_meters":12800,"station_id":"ce4bhm92rcd13ifvqglg","pricing_plan_id":"cebpf4jnsgd1na2vs0mg"},{"bike_id":"d49062f1-2aa4-45a7-89de-65f7f814a8f3","system_id":"levelo_inurba_marseille","lat":43.28419,"lon":5.34982,"is_reserved":false,"is_disabled":false,"rental_uris":{"android":"levelo://app?vid=d49062f1-2aa4-45a7-89de-65f7f814a8f3","ios":"levelo://app?vid=d49062f1-2aa4-45a7-89de-65f7f814a8f3"},"vehicle_type_id":"4","last_reported":1747663823,"current_range_meters":12800,"station_id":"ce4bhbh2rcd13ifvqepg","pricing_plan_id":"cebpf4jnsgd1na2vs0mg"},{"bike_id":"ae809d91-7143-4245-bca9-ff590d353ab9","system_id":"levelo_inurba_marseille","lat":43.29985,"lon":5.37186,"is_reserved":false,"is_disabled":false,"rental_uris":{"android":"levelo://app?vid=ae809d91-7143-4245-bca9-ff590d353ab9","ios":"levelo://app?vid=ae809d91-7143-4245-bca9-ff590d353ab9"},"vehicle_type_id":"4","last_reported":1747663823,"current_range_meters":12800,"station_id":"ce4bgr92rcd13ifvqc7g","pricing_plan_id":"cebpf4jnsgd1na2vs0mg"},{"bike_id":"f0be192c-ae4f-446a-8b5a-34019ce7051f","system_id":"levelo_inurba_marseille","lat":43.29836,"lon":5.36267,"is_reserved":false,"is_disabled":false,"rental_uris":{"android":"levelo://app?vid=f0be192c-ae4f-446a-8b5a-34019ce7051f","ios":"levelo://app?vid=f0be192c-ae4f-446a-8b5a-34019ce7051f"},"vehicle_type_id":"4","last_reported":1747663823,"current_range_meters":12800,"station_id":"ce4bgpp2rcd13ifvqc3g","pricing_plan_id":"cebpf4jnsgd1na2vs0mg"},{"bike_id":"8438f04a-f589-46ed-9f8d-f4b148a5b6df","system_id":"levelo_inurba_marseille","lat":43.286181,"lon":5.384226,"is_reserved":false,"is_disabled":false,"rental_uris":{"android":"levelo://app?vid=8438f04a-f589-46ed-9f8d-f4b148a5b6df","ios":"levelo://app?vid=8438f04a-f589-46ed-9f8d-f4b148a5b6df"},"vehicle_type_id":"4","last_reported":1747663823,"current_range_meters":12800,"station_id":"ce4bh392rcd13ifvqdl0","pricing_plan_id":"cebpf4jnsgd1na2vs0mg"},{"bike_id":"da02c547-6414-4425-b05a-de14e85b8f38","system_id":"levelo_inurba_marseille","lat":43.28579,"lon":5.39487,"is_reserved":false,"is_disabled":false,"rental_uris":{"android":"levelo://app?vid=da02c547-6414-4425-b05a-de14e85b8f38","ios":"levelo://app?vid=da02c547-6414-4425-b05a-de14e85b8f38"},"vehicle_type_id":"4","last_reported":1747663823,"current_range_meters":12800,"station_id":"ce4bh292rcd13ifvqdg0","pricing_plan_id":"cebpf4jnsgd1na2vs0mg"},{"bike_id":"330f30c4-f99e-40fb-864d-8d6b6e8d7857","system_id":"levelo_inurba_marseille","lat":43.27378,"lon":5.36249,"is_reserved":false,"is_disabled":false,"rental_uris":{"android":"levelo://app?vid=330f30c4-f99e-40fb-864d-8d6b6e8d7857","ios":"levelo://app?vid=330f30c4-f99e-40fb-864d-8d6b6e8d7857"},"vehicle_type_id":"4","last_reported":1747663823,"current_range_meters":12800,"station_id":"ce4bhbh2rcd13ifvqeo0","pricing_plan_id":"cebpf4jnsgd1na2vs0mg"},{"bike_id":"0bea6123-d88d-43a1-85b7-34809b98460f","system_id":"levelo_inurba_marseille","lat":43.2737,"lon":5.42459,"is_reserved":false,"is_disabled":false,"rental_uris":{"android":"levelo://app?vid=0bea6123-d88d-43a1-85b7-34809b98460f","ios":"levelo://app?vid=0bea6123-d88d-43a1-85b7-34809b98460f"},"vehicle_type_id":"4","last_reported":1747663823,"current_range_meters":13600,"station_id":"","pricing_plan_id":"cebpf4jnsgd1na2vs0mg"},{"bike_id":"a486c409-50e3-4319-942b-256cc6c595ab","system_id":"levelo_inurba_marseille","lat":43.3122,"lon":5.36897,"is_reserved":false,"is_disabled":false,"rental_uris":{"android":"levelo://app?vid=a486c409-50e3-4319-942b-256cc6c595ab","ios":"levelo://app?vid=a486c409-50e3-4319-942b-256cc6c595ab"},"vehicle_type_id":"4","last_reported":1747663823,"current_range_meters":13600,"station_id":"ce4bgl92rcd13ifvqbq0","pricing_plan_id":"cebpf4jnsgd1na2vs0mg"},{"bike_id":"4d84e95c-d2af-4324-b46f-888d9bc5478f","system_id":"levelo_inurba_marseille","lat":43.31233,"lon":5.36855,"is_reserved":false,"is_disabled":false,"rental_uris":{"android":"levelo://app?vid=4d84e95c-d2af-4324-b46f-888d9bc5478f","ios":"levelo://app?vid=4d84e95c-d2af-4324-b46f-888d9bc5478f"},"vehicle_type_id":"4","last_reported":1747663823,"current_range_meters":13600,"station_id":"ce4bgl92rcd13ifvqbq0","pricing_plan_id":"cebpf4jnsgd1na2vs0mg"},{"bike_id":"978614f8-b3f5-4aa0-8b7c-d162896926b9","system_id":"levelo_inurba_marseille","lat":43.29899,"lon":5.43662,"is_reserved":false,"is_disabled":false,"rental_uris":{"android":"levelo://app?vid=978614f8-b3f5-4aa0-8b7c-d162896926b9","ios":"levelo://app?vid=978614f8-b3f5-4aa0-8b7c-d162896926b9"},"vehicle_type_id":"4","last_reported":1747663823,"current_range_meters":13600,"station_id":"ce4bhpp2rcd13ifvqhfg","pricing_plan_id":"cebpf4jnsgd1na2vs0mg"},{"bike_id":"bffbaf88-357a-4e87-a68c-a9a27a6e01e6","system_id":"levelo_inurba_marseille","lat":43.26226,"lon":5.42118,"is_reserved":false,"is_disabled":false,"rental_uris":{"android":"levelo://app?vid=bffbaf88-357a-4e87-a68c-a9a27a6e01e6","ios":"levelo://app?vid=bffbaf88-357a-4e87-a68c-a9a27a6e01e6"},"vehicle_type_id":"4","last_reported":1747663823,"current_range_meters":13600,"station_id":"","pricing_plan_id":"cebpf4jnsgd1na2vs0mg"},{"bike_id":"fca86a55-22f2-4b7a-b972-9f8946fa6983","system_id":"levelo_inurba_marseille","lat":43.303043,"lon":5.392074,"is_reserved":false,"is_disabled":true,"rental_uris":{"android":"levelo://app?vid=fca86a55-22f2-4b7a-b972-9f8946fa6983","ios":"levelo://app?vid=fca86a55-22f2-4b7a-b972-9f8946fa6983"},"vehicle_type_id":"4","last_reported":1747663823,"current_range_meters":13600,"station_id":"ce4bgkh2rcd13ifvqbk0","pricing_plan_id":"cebpf4jnsgd1na2vs0mg"},{"bike_id":"d39cae16-34b5-4b82-8fc6-cac28c889070","system_id":"levelo_inurba_marseille","lat":43.29441,"lon":5.38664,"is_reserved":false,"is_disabled":true,"rental_uris":{"android":"levelo://app?vid=d39cae16-34b5-4b82-8fc6-cac28c889070","ios":"levelo://app?vid=d39cae16-34b5-4b82-8fc6-cac28c889070"},"vehicle_type_id":"4","last_reported":1747663823,"current_range_meters":13600,"station_id":"ce4bh2h2rcd13ifvqdh0","pricing_plan_id":"cebpf4jnsgd1na2vs0mg"},{"bike_id":"027e1fb9-8ab2-4245-a791-27e9dcd17185","system_id":"levelo_inurba_marseille","lat":43.29554,"lon":5.42287,"is_reserved":false,"is_disabled":false,"rental_uris":{"android":"levelo://app?vid=027e1fb9-8ab2-4245-a791-27e9dcd17185","ios":"levelo://app?vid=027e1fb9-8ab2-4245-a791-27e9dcd17185"},"vehicle_type_id":"4","last_reported":1747663823,"current_range_meters":13600,"station_id":"ce4bhph2rcd13ifvqhdg","pricing_plan_id":"cebpf4jnsgd1na2vs0mg"},{"bike_id":"ce0098ff-57ba-46ae-af56-4b628536eb66","system_id":"levelo_inurba_marseille","lat":43.23195,"lon":5.3999,"is_reserved":false,"is_disabled":false,"rental_uris":{"android":"levelo://app?vid=ce0098ff-57ba-46ae-af56-4b628536eb66","ios":"levelo://app?vid=ce0098ff-57ba-46ae-af56-4b628536eb66"},"vehicle_type_id":"4","last_reported":1747663823,"current_range_meters":13600,"station_id":"ce4bhn12rcd13ifvqgqg","pricing_plan_id":"cebpf4jnsgd1na2vs0mg"},{"bike_id":"c14d73f5-63cc-472d-8022-f19a13e28fa6","system_id":"levelo_inurba_marseille","lat":43.26561,"lon":5.37281,"is_reserved":false,"is_disabled":false,"rental_uris":{"android":"levelo://app?vid=c14d73f5-63cc-472d-8022-f19a13e28fa6","ios":"levelo://app?vid=c14d73f5-63cc-472d-8022-f19a13e28fa6"},"vehicle_type_id":"4","last_reported":1747663823,"current_range_meters":14000,"station_id":"ce4bhg12rcd13ifvqf70","pricing_plan_id":"cebpf4jnsgd1na2vs0mg"},{"bike_id":"9b0a9e58-48c1-4800-88b1-e86859e043e6","system_id":"levelo_inurba_marseille","lat":43.29829,"lon":5.36265,"is_reserved":false,"is_disabled":false,"rental_uris":{"android":"levelo://app?vid=9b0a9e58-48c1-4800-88b1-e86859e043e6","ios":"levelo://app?vid=9b0a9e58-48c1-4800-88b1-e86859e043e6"},"vehicle_type_id":"4","last_reported":1747663823,"current_range_meters":14000,"station_id":"ce4bgpp2rcd13ifvqc3g","pricing_plan_id":"cebpf4jnsgd1na2vs0mg"},{"bike_id":"38b5c13c-ecfe-476a-abb0-33b1528de2bb","system_id":"levelo_inurba_marseille","lat":43.29962,"lon":5.41322,"is_reserved":false,"is_disabled":false,"rental_uris":{"android":"levelo://app?vid=38b5c13c-ecfe-476a-abb0-33b1528de2bb","ios":"levelo://app?vid=38b5c13c-ecfe-476a-abb0-33b1528de2bb"},"vehicle_type_id":"4","last_reported":1747663823,"current_range_meters":14000,"station_id":"ce4bhp12rcd13ifvqh9g","pricing_plan_id":"cebpf4jnsgd1na2vs0mg"},{"bike_id":"a947cb2c-9948-448f-9ada-622d2cdc441f","system_id":"levelo_inurba_marseille","lat":43.2455,"lon":5.39525,"is_reserved":false,"is_disabled":false,"rental_uris":{"android":"levelo://app?vid=a947cb2c-9948-448f-9ada-622d2cdc441f","ios":"levelo://app?vid=a947cb2c-9948-448f-9ada-622d2cdc441f"},"vehicle_type_id":"4","last_reported":1747663823,"current_range_meters":13600,"station_id":"ce4bhlp2rcd13ifvqgjg","pricing_plan_id":"cebpf4jnsgd1na2vs0mg"},{"bike_id":"147f0919-b4f4-4da5-a06b-5f70c1438bc0","system_id":"levelo_inurba_marseille","lat":43.25934,"lon":5.40904,"is_reserved":false,"is_disabled":false,"rental_uris":{"android":"levelo://app?vid=147f0919-b4f4-4da5-a06b-5f70c1438bc0","ios":"levelo://app?vid=147f0919-b4f4-4da5-a06b-5f70c1438bc0"},"vehicle_type_id":"4","last_reported":1747663823,"current_range_meters":14400,"station_id":"ce4bhm92rcd13ifvqglg","pricing_plan_id":"cebpf4jnsgd1na2vs0mg"},{"bike_id":"02fc1184-206c-48c4-a5e6-80d0158ace74","system_id":"levelo_inurba_marseille","lat":43.303246,"lon":5.369299,"is_reserved":false,"is_disabled":true,"rental_uris":{"android":"levelo://app?vid=02fc1184-206c-48c4-a5e6-80d0158ace74","ios":"levelo://app?vid=02fc1184-206c-48c4-a5e6-80d0158ace74"},"vehicle_type_id":"4","last_reported":1747663823,"current_range_meters":14400,"station_id":"ce4bgqh2rcd13ifvqc5g","pricing_plan_id":"cebpf4jnsgd1na2vs0mg"},{"bike_id":"56b0ed36-22a3-4ab7-9131-57c87683a9a9","system_id":"levelo_inurba_marseille","lat":43.25004,"lon":5.38941,"is_reserved":false,"is_disabled":false,"rental_uris":{"android":"levelo://app?vid=56b0ed36-22a3-4ab7-9131-57c87683a9a9","ios":"levelo://app?vid=56b0ed36-22a3-4ab7-9131-57c87683a9a9"},"vehicle_type_id":"4","last_reported":1747663823,"current_range_meters":14400,"station_id":"ce4bhgp2rcd13ifvqfd0","pricing_plan_id":"cebpf4jnsgd1na2vs0mg"},{"bike_id":"5cce472a-fa27-465d-b87c-2c422b77bc1f","system_id":"levelo_inurba_marseille","lat":43.317219,"lon":5.436772,"is_reserved":false,"is_disabled":false,"rental_uris":{"android":"levelo://app?vid=5cce472a-fa27-465d-b87c-2c422b77bc1f","ios":"levelo://app?vid=5cce472a-fa27-465d-b87c-2c422b77bc1f"},"vehicle_type_id":"4","last_reported":1747663823,"current_range_meters":14000,"station_id":"ce4bhp92rcd13ifvqhcg","pricing_plan_id":"cebpf4jnsgd1na2vs0mg"},{"bike_id":"42fdc09d-5504-40b0-bead-80cc35d99410","system_id":"levelo_inurba_marseille","lat":43.2956,"lon":5.42292,"is_reserved":false,"is_disabled":false,"rental_uris":{"android":"levelo://app?vid=42fdc09d-5504-40b0-bead-80cc35d99410","ios":"levelo://app?vid=42fdc09d-5504-40b0-bead-80cc35d99410"},"vehicle_type_id":"4","last_reported":1747663823,"current_range_meters":14400,"station_id":"ce4bhph2rcd13ifvqhdg","pricing_plan_id":"cebpf4jnsgd1na2vs0mg"},{"bike_id":"08129706-0840-4cc7-a7e9-4dbc2d7407ba","system_id":"levelo_inurba_marseille","lat":43.23192,"lon":5.40002,"is_reserved":false,"is_disabled":false,"rental_uris":{"android":"levelo://app?vid=08129706-0840-4cc7-a7e9-4dbc2d7407ba","ios":"levelo://app?vid=08129706-0840-4cc7-a7e9-4dbc2d7407ba"},"vehicle_type_id":"4","last_reported":1747663823,"current_range_meters":14400,"station_id":"ce4bhn12rcd13ifvqgqg","pricing_plan_id":"cebpf4jnsgd1na2vs0mg"},{"bike_id":"47e833c7-b34c-476b-bfe7-81bdb4db04e4","system_id":"levelo_inurba_marseille","lat":43.2594,"lon":5.40896,"is_reserved":false,"is_disabled":false,"rental_uris":{"android":"levelo://app?vid=47e833c7-b34c-476b-bfe7-81bdb4db04e4","ios":"levelo://app?vid=47e833c7-b34c-476b-bfe7-81bdb4db04e4"},"vehicle_type_id":"4","last_reported":1747663823,"current_range_meters":14800,"station_id":"ce4bhm92rcd13ifvqglg","pricing_plan_id":"cebpf4jnsgd1na2vs0mg"},{"bike_id":"bbb73f92-5a79-41c5-88f3-f92bbcb6c04f","system_id":"levelo_inurba_marseille","lat":43.295717,"lon":5.375252,"is_reserved":false,"is_disabled":false,"rental_uris":{"android":"levelo://app?vid=bbb73f92-5a79-41c5-88f3-f92bbcb6c04f","ios":"levelo://app?vid=bbb73f92-5a79-41c5-88f3-f92bbcb6c04f"},"vehicle_type_id":"4","last_reported":1747663823,"current_range_meters":14800,"station_id":"ce4bgh92rcd13ifvqb50","pricing_plan_id":"cebpf4jnsgd1na2vs0mg"},{"bike_id":"79703b61-4f59-4128-9bcd-e1def9c49c3a","system_id":"levelo_inurba_marseille","lat":43.28163,"lon":5.42642,"is_reserved":false,"is_disabled":false,"rental_uris":{"android":"levelo://app?vid=79703b61-4f59-4128-9bcd-e1def9c49c3a","ios":"levelo://app?vid=79703b61-4f59-4128-9bcd-e1def9c49c3a"},"vehicle_type_id":"4","last_reported":1747663823,"current_range_meters":15200,"station_id":"ce4bhnh2rcd13ifvqgug","pricing_plan_id":"cebpf4jnsgd1na2vs0mg"},{"bike_id":"431436ad-f8cb-499b-ae6d-02c2c9c76f6b","system_id":"levelo_inurba_marseille","lat":43.31707,"lon":5.37765,"is_reserved":false,"is_disabled":false,"rental_uris":{"android":"levelo://app?vid=431436ad-f8cb-499b-ae6d-02c2c9c76f6b","ios":"levelo://app?vid=431436ad-f8cb-499b-ae6d-02c2c9c76f6b"},"vehicle_type_id":"4","last_reported":1747663823,"current_range_meters":14800,"station_id":"ce4bgth2rcd13ifvqch0","pricing_plan_id":"cebpf4jnsgd1na2vs0mg"},{"bike_id":"d463d1e0-de12-4645-b4dc-436e721920a9","system_id":"levelo_inurba_marseille","lat":43.27377,"lon":5.36253,"is_reserved":false,"is_disabled":false,"rental_uris":{"android":"levelo://app?vid=d463d1e0-de12-4645-b4dc-436e721920a9","ios":"levelo://app?vid=d463d1e0-de12-4645-b4dc-436e721920a9"},"vehicle_type_id":"4","last_reported":1747663823,"current_range_meters":15200,"station_id":"ce4bhbh2rcd13ifvqeo0","pricing_plan_id":"cebpf4jnsgd1na2vs0mg"},{"bike_id":"e96510a7-8fe1-419a-be1d-19890ccce0d0","system_id":"levelo_inurba_marseille","lat":43.27498,"lon":5.42458,"is_reserved":false,"is_disabled":false,"rental_uris":{"android":"levelo://app?vid=e96510a7-8fe1-419a-be1d-19890ccce0d0","ios":"levelo://app?vid=e96510a7-8fe1-419a-be1d-19890ccce0d0"},"vehicle_type_id":"4","last_reported":1747663823,"current_range_meters":15200,"station_id":"ce4bhn92rcd13ifvqgrg","pricing_plan_id":"cebpf4jnsgd1na2vs0mg"},{"bike_id":"2d38604a-0662-4568-b9d8-de4d6697f522","system_id":"levelo_inurba_marseille","lat":43.29589,"lon":5.36738,"is_reserved":false,"is_disabled":false,"rental_uris":{"android":"levelo://app?vid=2d38604a-0662-4568-b9d8-de4d6697f522","ios":"levelo://app?vid=2d38604a-0662-4568-b9d8-de4d6697f522"},"vehicle_type_id":"4","last_reported":1747663823,"current_range_meters":15200,"station_id":"ce4bgph2rcd13ifvqc2g","pricing_plan_id":"cebpf4jnsgd1na2vs0mg"},{"bike_id":"a29d28d6-c3f8-4ce7-a26d-6a24837c628c","system_id":"levelo_inurba_marseille","lat":43.30909,"lon":5.36879,"is_reserved":false,"is_disabled":false,"rental_uris":{"android":"levelo://app?vid=a29d28d6-c3f8-4ce7-a26d-6a24837c628c","ios":"levelo://app?vid=a29d28d6-c3f8-4ce7-a26d-6a24837c628c"},"vehicle_type_id":"4","last_reported":1747663823,"current_range_meters":15200,"station_id":"ce4bgn92rcd13ifvqbvg","pricing_plan_id":"cebpf4jnsgd1na2vs0mg"},{"bike_id":"268ca442-71ef-4962-a323-69469723594b","system_id":"levelo_inurba_marseille","lat":43.299114,"lon":5.381261,"is_reserved":false,"is_disabled":false,"rental_uris":{"android":"levelo://app?vid=268ca442-71ef-4962-a323-69469723594b","ios":"levelo://app?vid=268ca442-71ef-4962-a323-69469723594b"},"vehicle_type_id":"4","last_reported":1747663823,"current_range_meters":15200,"station_id":"","pricing_plan_id":"cebpf4jnsgd1na2vs0mg"},{"bike_id":"764a8284-8e77-4767-b101-e00180185c37","system_id":"levelo_inurba_marseille","lat":43.268723,"lon":5.388847,"is_reserved":false,"is_disabled":false,"rental_uris":{"android":"levelo://app?vid=764a8284-8e77-4767-b101-e00180185c37","ios":"levelo://app?vid=764a8284-8e77-4767-b101-e00180185c37"},"vehicle_type_id":"4","last_reported":1747663823,"current_range_meters":15200,"station_id":"ce4bha12rcd13ifvqee0","pricing_plan_id":"cebpf4jnsgd1na2vs0mg"},{"bike_id":"2b242c3d-b7e9-4f68-9034-9c6427a3626c","system_id":"levelo_inurba_marseille","lat":43.23969,"lon":5.36644,"is_reserved":false,"is_disabled":false,"rental_uris":{"android":"levelo://app?vid=2b242c3d-b7e9-4f68-9034-9c6427a3626c","ios":"levelo://app?vid=2b242c3d-b7e9-4f68-9034-9c6427a3626c"},"vehicle_type_id":"4","last_reported":1747663823,"current_range_meters":16000,"station_id":"ce4bhi12rcd13ifvqfp0","pricing_plan_id":"cebpf4jnsgd1na2vs0mg"},{"bike_id":"e8162579-a5ad-485f-ad83-fec8a2ebe7e1","system_id":"levelo_inurba_marseille","lat":43.26826,"lon":5.39099,"is_reserved":false,"is_disabled":false,"rental_uris":{"android":"levelo://app?vid=e8162579-a5ad-485f-ad83-fec8a2ebe7e1","ios":"levelo://app?vid=e8162579-a5ad-485f-ad83-fec8a2ebe7e1"},"vehicle_type_id":"4","last_reported":1747663823,"current_range_meters":16000,"station_id":"","pricing_plan_id":"cebpf4jnsgd1na2vs0mg"},{"bike_id":"52796ed3-b18c-42a7-a3ad-ff630cded0f6","system_id":"levelo_inurba_marseille","lat":43.2956,"lon":5.42289,"is_reserved":false,"is_disabled":false,"rental_uris":{"android":"levelo://app?vid=52796ed3-b18c-42a7-a3ad-ff630cded0f6","ios":"levelo://app?vid=52796ed3-b18c-42a7-a3ad-ff630cded0f6"},"vehicle_type_id":"4","last_reported":1747663823,"current_range_meters":16000,"station_id":"ce4bhph2rcd13ifvqhdg","pricing_plan_id":"cebpf4jnsgd1na2vs0mg"},{"bike_id":"a9df3068-bb4b-43a3-9ce5-b9fa2576cca3","system_id":"levelo_inurba_marseille","lat":43.2959,"lon":5.36742,"is_reserved":false,"is_disabled":false,"rental_uris":{"android":"levelo://app?vid=a9df3068-bb4b-43a3-9ce5-b9fa2576cca3","ios":"levelo://app?vid=a9df3068-bb4b-43a3-9ce5-b9fa2576cca3"},"vehicle_type_id":"4","last_reported":1747663823,"current_range_meters":16400,"station_id":"ce4bgph2rcd13ifvqc2g","pricing_plan_id":"cebpf4jnsgd1na2vs0mg"},{"bike_id":"2e9b61d5-222f-4492-a78b-258409c69bfa","system_id":"levelo_inurba_marseille","lat":43.325463,"lon":5.414313,"is_reserved":false,"is_disabled":false,"rental_uris":{"android":"levelo://app?vid=2e9b61d5-222f-4492-a78b-258409c69bfa","ios":"levelo://app?vid=2e9b61d5-222f-4492-a78b-258409c69bfa"},"vehicle_type_id":"4","last_reported":1747663823,"current_range_meters":16000,"station_id":"ce4bhq12rcd13ifvqhhg","pricing_plan_id":"cebpf4jnsgd1na2vs0mg"},{"bike_id":"715c6846-9f9b-4693-bb59-08d2813f6774","system_id":"levelo_inurba_marseille","lat":43.31481,"lon":5.3731,"is_reserved":false,"is_disabled":false,"rental_uris":{"android":"levelo://app?vid=715c6846-9f9b-4693-bb59-08d2813f6774","ios":"levelo://app?vid=715c6846-9f9b-4693-bb59-08d2813f6774"},"vehicle_type_id":"4","last_reported":1747663823,"current_range_meters":16000,"station_id":"ce4bgt12rcd13ifvqcd0","pricing_plan_id":"cebpf4jnsgd1na2vs0mg"},{"bike_id":"fabe6c80-2ea0-4be6-a66f-7cfbd6003bfb","system_id":"levelo_inurba_marseille","lat":43.2455,"lon":5.39521,"is_reserved":false,"is_disabled":false,"rental_uris":{"android":"levelo://app?vid=fabe6c80-2ea0-4be6-a66f-7cfbd6003bfb","ios":"levelo://app?vid=fabe6c80-2ea0-4be6-a66f-7cfbd6003bfb"},"vehicle_type_id":"4","last_reported":1747663823,"current_range_meters":15200,"station_id":"ce4bhlp2rcd13ifvqgjg","pricing_plan_id":"cebpf4jnsgd1na2vs0mg"},{"bike_id":"23a033cd-f075-4229-96d7-af803a8e2195","system_id":"levelo_inurba_marseille","lat":43.29536,"lon":5.38542,"is_reserved":false,"is_disabled":false,"rental_uris":{"android":"levelo://app?vid=23a033cd-f075-4229-96d7-af803a8e2195","ios":"levelo://app?vid=23a033cd-f075-4229-96d7-af803a8e2195"},"vehicle_type_id":"4","last_reported":1747663823,"current_range_meters":15200,"station_id":"ce4bgih2rcd13ifvqba0","pricing_plan_id":"cebpf4jnsgd1na2vs0mg"},{"bike_id":"8b734d57-56a6-44b8-b9ef-3f4912321ac3","system_id":"levelo_inurba_marseille","lat":43.28155,"lon":5.42649,"is_reserved":false,"is_disabled":false,"rental_uris":{"android":"levelo://app?vid=8b734d57-56a6-44b8-b9ef-3f4912321ac3","ios":"levelo://app?vid=8b734d57-56a6-44b8-b9ef-3f4912321ac3"},"vehicle_type_id":"4","last_reported":1747663823,"current_range_meters":16000,"station_id":"ce4bhnh2rcd13ifvqgug","pricing_plan_id":"cebpf4jnsgd1na2vs0mg"},{"bike_id":"58edc354-c183-4da4-b527-1ba0f2d395e0","system_id":"levelo_inurba_marseille","lat":43.27673,"lon":5.35769,"is_reserved":false,"is_disabled":false,"rental_uris":{"android":"levelo://app?vid=58edc354-c183-4da4-b527-1ba0f2d395e0","ios":"levelo://app?vid=58edc354-c183-4da4-b527-1ba0f2d395e0"},"vehicle_type_id":"4","last_reported":1747663823,"current_range_meters":16400,"station_id":"","pricing_plan_id":"cebpf4jnsgd1na2vs0mg"},{"bike_id":"a5fbda63-723d-4a0f-968f-b97363a065d3","system_id":"levelo_inurba_marseille","lat":43.282715,"lon":5.350457,"is_reserved":false,"is_disabled":false,"rental_uris":{"android":"levelo://app?vid=a5fbda63-723d-4a0f-968f-b97363a065d3","ios":"levelo://app?vid=a5fbda63-723d-4a0f-968f-b97363a065d3"},"vehicle_type_id":"4","last_reported":1747663823,"current_range_meters":16400,"station_id":"ce4bhbp2rcd13ifvqerg","pricing_plan_id":"cebpf4jnsgd1na2vs0mg"},{"bike_id":"98804e99-9bed-4363-a5ff-1489de79ae3d","system_id":"levelo_inurba_marseille","lat":43.28154,"lon":5.42639,"is_reserved":false,"is_disabled":true,"rental_uris":{"android":"levelo://app?vid=98804e99-9bed-4363-a5ff-1489de79ae3d","ios":"levelo://app?vid=98804e99-9bed-4363-a5ff-1489de79ae3d"},"vehicle_type_id":"4","last_reported":1747663823,"current_range_meters":16400,"station_id":"ce4bhnh2rcd13ifvqgug","pricing_plan_id":"cebpf4jnsgd1na2vs0mg"},{"bike_id":"28f45564-465a-406a-9f7f-ac04ecf5329b","system_id":"levelo_inurba_marseille","lat":43.32483,"lon":5.36577,"is_reserved":false,"is_disabled":false,"rental_uris":{"android":"levelo://app?vid=28f45564-465a-406a-9f7f-ac04ecf5329b","ios":"levelo://app?vid=28f45564-465a-406a-9f7f-ac04ecf5329b"},"vehicle_type_id":"4","last_reported":1747663823,"current_range_meters":16400,"station_id":"ce4bhs12rcd13ifvqhvg","pricing_plan_id":"cebpf4jnsgd1na2vs0mg"},{"bike_id":"53882ed9-e061-4498-98dc-917b66609f40","system_id":"levelo_inurba_marseille","lat":43.2593,"lon":5.40885,"is_reserved":false,"is_disabled":false,"rental_uris":{"android":"levelo://app?vid=53882ed9-e061-4498-98dc-917b66609f40","ios":"levelo://app?vid=53882ed9-e061-4498-98dc-917b66609f40"},"vehicle_type_id":"4","last_reported":1747663823,"current_range_meters":16400,"station_id":"ce4bhm92rcd13ifvqglg","pricing_plan_id":"cebpf4jnsgd1na2vs0mg"},{"bike_id":"3b249cff-6452-4183-9a75-52a7c6f17d36","system_id":"levelo_inurba_marseille","lat":43.29087,"lon":5.3815,"is_reserved":false,"is_disabled":false,"rental_uris":{"android":"levelo://app?vid=3b249cff-6452-4183-9a75-52a7c6f17d36","ios":"levelo://app?vid=3b249cff-6452-4183-9a75-52a7c6f17d36"},"vehicle_type_id":"4","last_reported":1747663823,"current_range_meters":16400,"station_id":"ce4bh512rcd13ifvqe2g","pricing_plan_id":"cebpf4jnsgd1na2vs0mg"},{"bike_id":"e2e3a6f6-0f08-4185-b27b-75bc9500a96d","system_id":"levelo_inurba_marseille","lat":43.211916,"lon":5.350692,"is_reserved":false,"is_disabled":false,"rental_uris":{"android":"levelo://app?vid=e2e3a6f6-0f08-4185-b27b-75bc9500a96d","ios":"levelo://app?vid=e2e3a6f6-0f08-4185-b27b-75bc9500a96d"},"vehicle_type_id":"4","last_reported":1747663823,"current_range_meters":16800,"station_id":"st_cvj6sg6p6f1abm77japg","pricing_plan_id":"cebpf4jnsgd1na2vs0mg"},{"bike_id":"d25ff01b-f337-4ffd-a3af-af3590f9fcc4","system_id":"levelo_inurba_marseille","lat":43.2571,"lon":5.41116,"is_reserved":false,"is_disabled":false,"rental_uris":{"android":"levelo://app?vid=d25ff01b-f337-4ffd-a3af-af3590f9fcc4","ios":"levelo://app?vid=d25ff01b-f337-4ffd-a3af-af3590f9fcc4"},"vehicle_type_id":"4","last_reported":1747663823,"current_range_meters":16800,"station_id":"ce4bhkp2rcd13ifvqgd0","pricing_plan_id":"cebpf4jnsgd1na2vs0mg"},{"bike_id":"a1b3e0a7-9c8a-4a59-9a24-ee07af0902a7","system_id":"levelo_inurba_marseille","lat":43.24388,"lon":5.37051,"is_reserved":false,"is_disabled":false,"rental_uris":{"android":"levelo://app?vid=a1b3e0a7-9c8a-4a59-9a24-ee07af0902a7","ios":"levelo://app?vid=a1b3e0a7-9c8a-4a59-9a24-ee07af0902a7"},"vehicle_type_id":"4","last_reported":1747663823,"current_range_meters":16800,"station_id":"ce4bhhh2rcd13ifvqfk0","pricing_plan_id":"cebpf4jnsgd1na2vs0mg"},{"bike_id":"0307b560-e740-480e-80ed-9eeb21b55ad6","system_id":"levelo_inurba_marseille","lat":43.30529,"lon":5.36542,"is_reserved":false,"is_disabled":false,"rental_uris":{"android":"levelo://app?vid=0307b560-e740-480e-80ed-9eeb21b55ad6","ios":"levelo://app?vid=0307b560-e740-480e-80ed-9eeb21b55ad6"},"vehicle_type_id":"4","last_reported":1747663823,"current_range_meters":16800,"station_id":"ce4bgs12rcd13ifvqcag","pricing_plan_id":"cebpf4jnsgd1na2vs0mg"},{"bike_id":"f168bbca-a8cc-4bae-b7cb-ad49c0b75d79","system_id":"levelo_inurba_marseille","lat":43.24153,"lon":5.39738,"is_reserved":false,"is_disabled":false,"rental_uris":{"android":"levelo://app?vid=f168bbca-a8cc-4bae-b7cb-ad49c0b75d79","ios":"levelo://app?vid=f168bbca-a8cc-4bae-b7cb-ad49c0b75d79"},"vehicle_type_id":"4","last_reported":1747663823,"current_range_meters":16800,"station_id":"ce4bhn12rcd13ifvqgpg","pricing_plan_id":"cebpf4jnsgd1na2vs0mg"},{"bike_id":"c3c11b11-8507-45b4-bd48-1e3bdd46fbbe","system_id":"levelo_inurba_marseille","lat":43.231921,"lon":5.399731,"is_reserved":false,"is_disabled":false,"rental_uris":{"android":"levelo://app?vid=c3c11b11-8507-45b4-bd48-1e3bdd46fbbe","ios":"levelo://app?vid=c3c11b11-8507-45b4-bd48-1e3bdd46fbbe"},"vehicle_type_id":"4","last_reported":1747663823,"current_range_meters":16800,"station_id":"ce4bhn12rcd13ifvqgqg","pricing_plan_id":"cebpf4jnsgd1na2vs0mg"},{"bike_id":"050b0fd2-977b-4835-bbd8-94a0fa62ed3a","system_id":"levelo_inurba_marseille","lat":43.27905,"lon":5.39591,"is_reserved":false,"is_disabled":false,"rental_uris":{"android":"levelo://app?vid=050b0fd2-977b-4835-bbd8-94a0fa62ed3a","ios":"levelo://app?vid=050b0fd2-977b-4835-bbd8-94a0fa62ed3a"},"vehicle_type_id":"4","last_reported":1747663823,"current_range_meters":17200,"station_id":"ce4bhf92rcd13ifvqf40","pricing_plan_id":"cebpf4jnsgd1na2vs0mg"},{"bike_id":"366d72c8-1851-4eb6-b189-b0e565c04321","system_id":"levelo_inurba_marseille","lat":43.29257,"lon":5.37622,"is_reserved":false,"is_disabled":false,"rental_uris":{"android":"levelo://app?vid=366d72c8-1851-4eb6-b189-b0e565c04321","ios":"levelo://app?vid=366d72c8-1851-4eb6-b189-b0e565c04321"},"vehicle_type_id":"4","last_reported":1747663823,"current_range_meters":17200,"station_id":"ce4bgi12rcd13ifvqb80","pricing_plan_id":"cebpf4jnsgd1na2vs0mg"},{"bike_id":"b41eaff7-94e4-465d-9c86-86b065106cec","system_id":"levelo_inurba_marseille","lat":43.24815,"lon":5.37454,"is_reserved":false,"is_disabled":false,"rental_uris":{"android":"levelo://app?vid=b41eaff7-94e4-465d-9c86-86b065106cec","ios":"levelo://app?vid=b41eaff7-94e4-465d-9c86-86b065106cec"},"vehicle_type_id":"4","last_reported":1747663823,"current_range_meters":17200,"station_id":"ce4bhgh2rcd13ifvqfb0","pricing_plan_id":"cebpf4jnsgd1na2vs0mg"},{"bike_id":"9c8038dc-1156-4130-8a24-62a9599816af","system_id":"levelo_inurba_marseille","lat":43.32369,"lon":5.36741,"is_reserved":false,"is_disabled":false,"rental_uris":{"android":"levelo://app?vid=9c8038dc-1156-4130-8a24-62a9599816af","ios":"levelo://app?vid=9c8038dc-1156-4130-8a24-62a9599816af"},"vehicle_type_id":"4","last_reported":1747663823,"current_range_meters":17200,"station_id":"ce4bhsh2rcd13ifvqi2g","pricing_plan_id":"cebpf4jnsgd1na2vs0mg"},{"bike_id":"8dbe363c-8315-481e-8f86-fb9293261bb9","system_id":"levelo_inurba_marseille","lat":43.29855,"lon":5.36253,"is_reserved":false,"is_disabled":false,"rental_uris":{"android":"levelo://app?vid=8dbe363c-8315-481e-8f86-fb9293261bb9","ios":"levelo://app?vid=8dbe363c-8315-481e-8f86-fb9293261bb9"},"vehicle_type_id":"4","last_reported":1747663823,"current_range_meters":17200,"station_id":"ce4bgpp2rcd13ifvqc3g","pricing_plan_id":"cebpf4jnsgd1na2vs0mg"},{"bike_id":"2c0c4537-4f8f-4ae7-95e5-a44de8b80f27","system_id":"levelo_inurba_marseille","lat":43.32663,"lon":5.40995,"is_reserved":false,"is_disabled":false,"rental_uris":{"android":"levelo://app?vid=2c0c4537-4f8f-4ae7-95e5-a44de8b80f27","ios":"levelo://app?vid=2c0c4537-4f8f-4ae7-95e5-a44de8b80f27"},"vehicle_type_id":"4","last_reported":1747663823,"current_range_meters":17200,"station_id":"ce4bhpp2rcd13ifvqhgg","pricing_plan_id":"cebpf4jnsgd1na2vs0mg"},{"bike_id":"b4092363-ce05-481e-b8a5-74f257327df5","system_id":"levelo_inurba_marseille","lat":43.250869,"lon":5.395242,"is_reserved":false,"is_disabled":false,"rental_uris":{"android":"levelo://app?vid=b4092363-ce05-481e-b8a5-74f257327df5","ios":"levelo://app?vid=b4092363-ce05-481e-b8a5-74f257327df5"},"vehicle_type_id":"4","last_reported":1747663823,"current_range_meters":17200,"station_id":"ce4bhm12rcd13ifvqgkg","pricing_plan_id":"cebpf4jnsgd1na2vs0mg"},{"bike_id":"3552fbf2-b43a-446f-93f5-d695fc251b73","system_id":"levelo_inurba_marseille","lat":43.251725,"lon":5.375223,"is_reserved":false,"is_disabled":false,"rental_uris":{"android":"levelo://app?vid=3552fbf2-b43a-446f-93f5-d695fc251b73","ios":"levelo://app?vid=3552fbf2-b43a-446f-93f5-d695fc251b73"},"vehicle_type_id":"4","last_reported":1747663823,"current_range_meters":17200,"station_id":"","pricing_plan_id":"cebpf4jnsgd1na2vs0mg"},{"bike_id":"a77299a9-0afc-4000-817b-f97ca1eaadca","system_id":"levelo_inurba_marseille","lat":43.28848,"lon":5.45929,"is_reserved":false,"is_disabled":false,"rental_uris":{"android":"levelo://app?vid=a77299a9-0afc-4000-817b-f97ca1eaadca","ios":"levelo://app?vid=a77299a9-0afc-4000-817b-f97ca1eaadca"},"vehicle_type_id":"4","last_reported":1747663823,"current_range_meters":17600,"station_id":"","pricing_plan_id":"cebpf4jnsgd1na2vs0mg"},{"bike_id":"901d18ec-442b-4311-be09-c99faa5dda47","system_id":"levelo_inurba_marseille","lat":43.30006,"lon":5.37166,"is_reserved":false,"is_disabled":true,"rental_uris":{"android":"levelo://app?vid=901d18ec-442b-4311-be09-c99faa5dda47","ios":"levelo://app?vid=901d18ec-442b-4311-be09-c99faa5dda47"},"vehicle_type_id":"4","last_reported":1747663823,"current_range_meters":17600,"station_id":"ce4bgr92rcd13ifvqc7g","pricing_plan_id":"cebpf4jnsgd1na2vs0mg"},{"bike_id":"ad776429-de0f-4211-9f8a-dea1475a77b5","system_id":"levelo_inurba_marseille","lat":43.34144,"lon":5.40903,"is_reserved":false,"is_disabled":false,"rental_uris":{"android":"levelo://app?vid=ad776429-de0f-4211-9f8a-dea1475a77b5","ios":"levelo://app?vid=ad776429-de0f-4211-9f8a-dea1475a77b5"},"vehicle_type_id":"4","last_reported":1747663823,"current_range_meters":17600,"station_id":"ce4bhqh2rcd13ifvqhlg","pricing_plan_id":"cebpf4jnsgd1na2vs0mg"},{"bike_id":"85d0eee4-7023-4816-8341-7b198d182543","system_id":"levelo_inurba_marseille","lat":43.25938,"lon":5.40902,"is_reserved":false,"is_disabled":false,"rental_uris":{"android":"levelo://app?vid=85d0eee4-7023-4816-8341-7b198d182543","ios":"levelo://app?vid=85d0eee4-7023-4816-8341-7b198d182543"},"vehicle_type_id":"4","last_reported":1747663823,"current_range_meters":17600,"station_id":"ce4bhm92rcd13ifvqglg","pricing_plan_id":"cebpf4jnsgd1na2vs0mg"},{"bike_id":"6386b301-5c5b-41dc-9be6-064d845d26a2","system_id":"levelo_inurba_marseille","lat":43.2864,"lon":5.4066,"is_reserved":false,"is_disabled":false,"rental_uris":{"android":"levelo://app?vid=6386b301-5c5b-41dc-9be6-064d845d26a2","ios":"levelo://app?vid=6386b301-5c5b-41dc-9be6-064d845d26a2"},"vehicle_type_id":"4","last_reported":1747663823,"current_range_meters":17600,"station_id":"","pricing_plan_id":"cebpf4jnsgd1na2vs0mg"},{"bike_id":"74caece3-0366-45d1-ad29-c4f1a1a87b31","system_id":"levelo_inurba_marseille","lat":43.2176,"lon":5.34608,"is_reserved":false,"is_disabled":false,"rental_uris":{"android":"levelo://app?vid=74caece3-0366-45d1-ad29-c4f1a1a87b31","ios":"levelo://app?vid=74caece3-0366-45d1-ad29-c4f1a1a87b31"},"vehicle_type_id":"4","last_reported":1747663823,"current_range_meters":18000,"station_id":"st_cvj6r9ubvosntc0bgbag","pricing_plan_id":"cebpf4jnsgd1na2vs0mg"},{"bike_id":"8675cc91-343d-4f04-a5ab-d440461b07f3","system_id":"levelo_inurba_marseille","lat":43.2593,"lon":5.40886,"is_reserved":false,"is_disabled":false,"rental_uris":{"android":"levelo://app?vid=8675cc91-343d-4f04-a5ab-d440461b07f3","ios":"levelo://app?vid=8675cc91-343d-4f04-a5ab-d440461b07f3"},"vehicle_type_id":"4","last_reported":1747663823,"current_range_meters":18000,"station_id":"ce4bhm92rcd13ifvqglg","pricing_plan_id":"cebpf4jnsgd1na2vs0mg"},{"bike_id":"0c75e290-2f49-4428-9202-02a35670787a","system_id":"levelo_inurba_marseille","lat":43.23181,"lon":5.39983,"is_reserved":false,"is_disabled":false,"rental_uris":{"android":"levelo://app?vid=0c75e290-2f49-4428-9202-02a35670787a","ios":"levelo://app?vid=0c75e290-2f49-4428-9202-02a35670787a"},"vehicle_type_id":"4","last_reported":1747663823,"current_range_meters":18000,"station_id":"ce4bhn12rcd13ifvqgqg","pricing_plan_id":"cebpf4jnsgd1na2vs0mg"},{"bike_id":"f539d123-0518-4f25-ad03-89d615b6727e","system_id":"levelo_inurba_marseille","lat":43.29626,"lon":5.37169,"is_reserved":false,"is_disabled":false,"rental_uris":{"android":"levelo://app?vid=f539d123-0518-4f25-ad03-89d615b6727e","ios":"levelo://app?vid=f539d123-0518-4f25-ad03-89d615b6727e"},"vehicle_type_id":"4","last_reported":1747663823,"current_range_meters":18000,"station_id":"ce4bgnh2rcd13ifvqc0g","pricing_plan_id":"cebpf4jnsgd1na2vs0mg"},{"bike_id":"8003f1f1-aabc-4a95-af5a-f8124d5a7728","system_id":"levelo_inurba_marseille","lat":43.23186,"lon":5.39969,"is_reserved":false,"is_disabled":false,"rental_uris":{"android":"levelo://app?vid=8003f1f1-aabc-4a95-af5a-f8124d5a7728","ios":"levelo://app?vid=8003f1f1-aabc-4a95-af5a-f8124d5a7728"},"vehicle_type_id":"4","last_reported":1747663823,"current_range_meters":18800,"station_id":"ce4bhn12rcd13ifvqgqg","pricing_plan_id":"cebpf4jnsgd1na2vs0mg"},{"bike_id":"800b18d5-afe7-4aab-9e9d-52557b959315","system_id":"levelo_inurba_marseille","lat":43.29847,"lon":5.36269,"is_reserved":false,"is_disabled":false,"rental_uris":{"android":"levelo://app?vid=800b18d5-afe7-4aab-9e9d-52557b959315","ios":"levelo://app?vid=800b18d5-afe7-4aab-9e9d-52557b959315"},"vehicle_type_id":"4","last_reported":1747663823,"current_range_meters":18800,"station_id":"ce4bgpp2rcd13ifvqc3g","pricing_plan_id":"cebpf4jnsgd1na2vs0mg"},{"bike_id":"304ada11-478c-4555-a4ff-ffd0361c93be","system_id":"levelo_inurba_marseille","lat":43.24074,"lon":5.37762,"is_reserved":false,"is_disabled":false,"rental_uris":{"android":"levelo://app?vid=304ada11-478c-4555-a4ff-ffd0361c93be","ios":"levelo://app?vid=304ada11-478c-4555-a4ff-ffd0361c93be"},"vehicle_type_id":"4","last_reported":1747663823,"current_range_meters":18800,"station_id":"ce4bhnp2rcd13ifvqgvg","pricing_plan_id":"cebpf4jnsgd1na2vs0mg"},{"bike_id":"f10a0e20-a2f8-494e-84d0-f3bc5087ddc6","system_id":"levelo_inurba_marseille","lat":43.29025,"lon":5.38139,"is_reserved":false,"is_disabled":false,"rental_uris":{"android":"levelo://app?vid=f10a0e20-a2f8-494e-84d0-f3bc5087ddc6","ios":"levelo://app?vid=f10a0e20-a2f8-494e-84d0-f3bc5087ddc6"},"vehicle_type_id":"4","last_reported":1747663823,"current_range_meters":18800,"station_id":"ce4bh4p2rcd13ifvqe1g","pricing_plan_id":"cebpf4jnsgd1na2vs0mg"},{"bike_id":"b54285fd-f53d-465c-9cd7-a8ae5effa6a0","system_id":"levelo_inurba_marseille","lat":43.30327,"lon":5.40441,"is_reserved":false,"is_disabled":false,"rental_uris":{"android":"levelo://app?vid=b54285fd-f53d-465c-9cd7-a8ae5effa6a0","ios":"levelo://app?vid=b54285fd-f53d-465c-9cd7-a8ae5effa6a0"},"vehicle_type_id":"4","last_reported":1747663823,"current_range_meters":18800,"station_id":"ce4bh012rcd13ifvqd10","pricing_plan_id":"cebpf4jnsgd1na2vs0mg"},{"bike_id":"6ded755e-382e-489e-be8e-389077c90407","system_id":"levelo_inurba_marseille","lat":43.33762,"lon":5.37445,"is_reserved":false,"is_disabled":false,"rental_uris":{"android":"levelo://app?vid=6ded755e-382e-489e-be8e-389077c90407","ios":"levelo://app?vid=6ded755e-382e-489e-be8e-389077c90407"},"vehicle_type_id":"4","last_reported":1747663823,"current_range_meters":18800,"station_id":"ce4bgup2rcd13ifvqcn0","pricing_plan_id":"cebpf4jnsgd1na2vs0mg"},{"bike_id":"906fe159-989f-40af-8692-9d1d39f4da90","system_id":"levelo_inurba_marseille","lat":43.29845,"lon":5.36268,"is_reserved":false,"is_disabled":false,"rental_uris":{"android":"levelo://app?vid=906fe159-989f-40af-8692-9d1d39f4da90","ios":"levelo://app?vid=906fe159-989f-40af-8692-9d1d39f4da90"},"vehicle_type_id":"4","last_reported":1747663823,"current_range_meters":18800,"station_id":"ce4bgpp2rcd13ifvqc3g","pricing_plan_id":"cebpf4jnsgd1na2vs0mg"},{"bike_id":"f2429f4b-b45c-48a9-8215-26bf73dcd012","system_id":"levelo_inurba_marseille","lat":43.30134,"lon":5.39858,"is_reserved":false,"is_disabled":false,"rental_uris":{"android":"levelo://app?vid=f2429f4b-b45c-48a9-8215-26bf73dcd012","ios":"levelo://app?vid=f2429f4b-b45c-48a9-8215-26bf73dcd012"},"vehicle_type_id":"4","last_reported":1747663823,"current_range_meters":18800,"station_id":"ce4bh0h2rcd13ifvqd40","pricing_plan_id":"cebpf4jnsgd1na2vs0mg"},{"bike_id":"da47498f-4571-48b7-baef-356237345b0d","system_id":"levelo_inurba_marseille","lat":43.259324,"lon":5.409102,"is_reserved":false,"is_disabled":false,"rental_uris":{"android":"levelo://app?vid=da47498f-4571-48b7-baef-356237345b0d","ios":"levelo://app?vid=da47498f-4571-48b7-baef-356237345b0d"},"vehicle_type_id":"4","last_reported":1747663823,"current_range_meters":19200,"station_id":"ce4bhm92rcd13ifvqglg","pricing_plan_id":"cebpf4jnsgd1na2vs0mg"},{"bike_id":"23cb2d1c-2ce6-4a86-92a1-817addf26bca","system_id":"levelo_inurba_marseille","lat":43.26498,"lon":5.39534,"is_reserved":false,"is_disabled":false,"rental_uris":{"android":"levelo://app?vid=23cb2d1c-2ce6-4a86-92a1-817addf26bca","ios":"levelo://app?vid=23cb2d1c-2ce6-4a86-92a1-817addf26bca"},"vehicle_type_id":"4","last_reported":1747663823,"current_range_meters":19200,"station_id":"ce4bhi12rcd13ifvqfq0","pricing_plan_id":"cebpf4jnsgd1na2vs0mg"},{"bike_id":"f5d903da-1fe6-42de-b785-2dd7a92d6da0","system_id":"levelo_inurba_marseille","lat":43.2827,"lon":5.35077,"is_reserved":false,"is_disabled":false,"rental_uris":{"android":"levelo://app?vid=f5d903da-1fe6-42de-b785-2dd7a92d6da0","ios":"levelo://app?vid=f5d903da-1fe6-42de-b785-2dd7a92d6da0"},"vehicle_type_id":"4","last_reported":1747663823,"current_range_meters":19200,"station_id":"ce4bhbp2rcd13ifvqerg","pricing_plan_id":"cebpf4jnsgd1na2vs0mg"},{"bike_id":"6c6eb918-90be-448e-a329-1649e5190c2a","system_id":"levelo_inurba_marseille","lat":43.25584,"lon":5.38221,"is_reserved":false,"is_disabled":false,"rental_uris":{"android":"levelo://app?vid=6c6eb918-90be-448e-a329-1649e5190c2a","ios":"levelo://app?vid=6c6eb918-90be-448e-a329-1649e5190c2a"},"vehicle_type_id":"4","last_reported":1747663823,"current_range_meters":19200,"station_id":"ce4bhih2rcd13ifvqfs0","pricing_plan_id":"cebpf4jnsgd1na2vs0mg"},{"bike_id":"e2b22b5b-655d-4392-b80a-88e38cf82a07","system_id":"levelo_inurba_marseille","lat":43.27209,"lon":5.39188,"is_reserved":false,"is_disabled":false,"rental_uris":{"android":"levelo://app?vid=e2b22b5b-655d-4392-b80a-88e38cf82a07","ios":"levelo://app?vid=e2b22b5b-655d-4392-b80a-88e38cf82a07"},"vehicle_type_id":"4","last_reported":1747663823,"current_range_meters":19600,"station_id":"ce4bhhp2rcd13ifvqfm0","pricing_plan_id":"cebpf4jnsgd1na2vs0mg"},{"bike_id":"f8d2ca9a-5dbe-4b9c-9f30-be06acd948ab","system_id":"levelo_inurba_marseille","lat":43.289221,"lon":5.38389,"is_reserved":false,"is_disabled":false,"rental_uris":{"android":"levelo://app?vid=f8d2ca9a-5dbe-4b9c-9f30-be06acd948ab","ios":"levelo://app?vid=f8d2ca9a-5dbe-4b9c-9f30-be06acd948ab"},"vehicle_type_id":"4","last_reported":1747663823,"current_range_meters":19200,"station_id":"ce4bh612rcd13ifvqe6g","pricing_plan_id":"cebpf4jnsgd1na2vs0mg"},{"bike_id":"859eca47-6b10-40fc-847c-0a2d70614c33","system_id":"levelo_inurba_marseille","lat":43.27576,"lon":5.3841,"is_reserved":false,"is_disabled":false,"rental_uris":{"android":"levelo://app?vid=859eca47-6b10-40fc-847c-0a2d70614c33","ios":"levelo://app?vid=859eca47-6b10-40fc-847c-0a2d70614c33"},"vehicle_type_id":"4","last_reported":1747663823,"current_range_meters":19200,"station_id":"ce4bhh92rcd13ifvqfi0","pricing_plan_id":"cebpf4jnsgd1na2vs0mg"},{"bike_id":"9b6fa3d9-768f-44cd-a843-4e49089e01ec","system_id":"levelo_inurba_marseille","lat":43.29712,"lon":5.36603,"is_reserved":false,"is_disabled":false,"rental_uris":{"android":"levelo://app?vid=9b6fa3d9-768f-44cd-a843-4e49089e01ec","ios":"levelo://app?vid=9b6fa3d9-768f-44cd-a843-4e49089e01ec"},"vehicle_type_id":"4","last_reported":1747663823,"current_range_meters":19200,"station_id":"ce4bgn12rcd13ifvqbt0","pricing_plan_id":"cebpf4jnsgd1na2vs0mg"},{"bike_id":"93990334-3992-4495-9a5c-06796af2c954","system_id":"levelo_inurba_marseille","lat":43.29,"lon":5.35603,"is_reserved":false,"is_disabled":false,"rental_uris":{"android":"levelo://app?vid=93990334-3992-4495-9a5c-06796af2c954","ios":"levelo://app?vid=93990334-3992-4495-9a5c-06796af2c954"},"vehicle_type_id":"4","last_reported":1747663823,"current_range_meters":19200,"station_id":"ce4bhb92rcd13ifvqen0","pricing_plan_id":"cebpf4jnsgd1na2vs0mg"},{"bike_id":"b58ea393-ffc8-48b5-9c74-00d303747133","system_id":"levelo_inurba_marseille","lat":43.27075,"lon":5.42283,"is_reserved":false,"is_disabled":false,"rental_uris":{"android":"levelo://app?vid=b58ea393-ffc8-48b5-9c74-00d303747133","ios":"levelo://app?vid=b58ea393-ffc8-48b5-9c74-00d303747133"},"vehicle_type_id":"4","last_reported":1747663823,"current_range_meters":19600,"station_id":"ce4bhk92rcd13ifvqgb0","pricing_plan_id":"cebpf4jnsgd1na2vs0mg"},{"bike_id":"f4f0a48a-ccef-443d-979c-a5d9940f7bd4","system_id":"levelo_inurba_marseille","lat":43.243851,"lon":5.370553,"is_reserved":false,"is_disabled":false,"rental_uris":{"android":"levelo://app?vid=f4f0a48a-ccef-443d-979c-a5d9940f7bd4","ios":"levelo://app?vid=f4f0a48a-ccef-443d-979c-a5d9940f7bd4"},"vehicle_type_id":"4","last_reported":1747663823,"current_range_meters":19600,"station_id":"ce4bhhh2rcd13ifvqfk0","pricing_plan_id":"cebpf4jnsgd1na2vs0mg"},{"bike_id":"f612d9aa-0239-4d02-9a2f-3ba5682b9718","system_id":"levelo_inurba_marseille","lat":43.29013,"lon":5.35611,"is_reserved":false,"is_disabled":false,"rental_uris":{"android":"levelo://app?vid=f612d9aa-0239-4d02-9a2f-3ba5682b9718","ios":"levelo://app?vid=f612d9aa-0239-4d02-9a2f-3ba5682b9718"},"vehicle_type_id":"4","last_reported":1747663823,"current_range_meters":19600,"station_id":"ce4bhb92rcd13ifvqen0","pricing_plan_id":"cebpf4jnsgd1na2vs0mg"},{"bike_id":"bbae9470-c4e6-406c-8e2e-0ffe5e843b63","system_id":"levelo_inurba_marseille","lat":43.21745,"lon":5.34614,"is_reserved":false,"is_disabled":false,"rental_uris":{"android":"levelo://app?vid=bbae9470-c4e6-406c-8e2e-0ffe5e843b63","ios":"levelo://app?vid=bbae9470-c4e6-406c-8e2e-0ffe5e843b63"},"vehicle_type_id":"4","last_reported":1747663823,"current_range_meters":19600,"station_id":"st_cvj6r9ubvosntc0bgbag","pricing_plan_id":"cebpf4jnsgd1na2vs0mg"},{"bike_id":"704ea015-f11e-4ad9-8dcb-3aa820a9c231","system_id":"levelo_inurba_marseille","lat":43.305476,"lon":5.365291,"is_reserved":false,"is_disabled":false,"rental_uris":{"android":"levelo://app?vid=704ea015-f11e-4ad9-8dcb-3aa820a9c231","ios":"levelo://app?vid=704ea015-f11e-4ad9-8dcb-3aa820a9c231"},"vehicle_type_id":"4","last_reported":1747663823,"current_range_meters":19600,"station_id":"ce4bgs12rcd13ifvqcag","pricing_plan_id":"cebpf4jnsgd1na2vs0mg"},{"bike_id":"225f3cea-db27-4174-a5ef-9d9d69f7434c","system_id":"levelo_inurba_marseille","lat":43.298416,"lon":5.362671,"is_reserved":false,"is_disabled":false,"rental_uris":{"android":"levelo://app?vid=225f3cea-db27-4174-a5ef-9d9d69f7434c","ios":"levelo://app?vid=225f3cea-db27-4174-a5ef-9d9d69f7434c"},"vehicle_type_id":"4","last_reported":1747663823,"current_range_meters":19600,"station_id":"ce4bgpp2rcd13ifvqc3g","pricing_plan_id":"cebpf4jnsgd1na2vs0mg"},{"bike_id":"97a86dc9-cdbb-4884-892e-ffc3c535da38","system_id":"levelo_inurba_marseille","lat":43.24077,"lon":5.38155,"is_reserved":false,"is_disabled":false,"rental_uris":{"android":"levelo://app?vid=97a86dc9-cdbb-4884-892e-ffc3c535da38","ios":"levelo://app?vid=97a86dc9-cdbb-4884-892e-ffc3c535da38"},"vehicle_type_id":"4","last_reported":1747663823,"current_range_meters":20000,"station_id":"","pricing_plan_id":"cebpf4jnsgd1na2vs0mg"},{"bike_id":"c7fa045b-8abd-4bd8-ac58-69864d07dca7","system_id":"levelo_inurba_marseille","lat":43.3212,"lon":5.36794,"is_reserved":false,"is_disabled":false,"rental_uris":{"android":"levelo://app?vid=c7fa045b-8abd-4bd8-ac58-69864d07dca7","ios":"levelo://app?vid=c7fa045b-8abd-4bd8-ac58-69864d07dca7"},"vehicle_type_id":"4","last_reported":1747663823,"current_range_meters":20000,"station_id":"ce4bhrh2rcd13ifvqhug","pricing_plan_id":"cebpf4jnsgd1na2vs0mg"},{"bike_id":"52cd8468-5e21-4141-ac30-cf4a8a0dce31","system_id":"levelo_inurba_marseille","lat":43.27059,"lon":5.40271,"is_reserved":false,"is_disabled":false,"rental_uris":{"android":"levelo://app?vid=52cd8468-5e21-4141-ac30-cf4a8a0dce31","ios":"levelo://app?vid=52cd8468-5e21-4141-ac30-cf4a8a0dce31"},"vehicle_type_id":"4","last_reported":1747663823,"current_range_meters":20000,"station_id":"ce4bhk92rcd13ifvqgc0","pricing_plan_id":"cebpf4jnsgd1na2vs0mg"},{"bike_id":"8ecf5366-11ce-4434-be71-ce4dde9d1cb4","system_id":"levelo_inurba_marseille","lat":43.29786,"lon":5.38096,"is_reserved":false,"is_disabled":false,"rental_uris":{"android":"levelo://app?vid=8ecf5366-11ce-4434-be71-ce4dde9d1cb4","ios":"levelo://app?vid=8ecf5366-11ce-4434-be71-ce4dde9d1cb4"},"vehicle_type_id":"4","last_reported":1747663823,"current_range_meters":20000,"station_id":"ce4bgip2rcd13ifvqbb0","pricing_plan_id":"cebpf4jnsgd1na2vs0mg"},{"bike_id":"7a1e01fb-ef6d-4e38-a2e7-e5553a5cccdd","system_id":"levelo_inurba_marseille","lat":43.23152,"lon":5.43723,"is_reserved":false,"is_disabled":false,"rental_uris":{"android":"levelo://app?vid=7a1e01fb-ef6d-4e38-a2e7-e5553a5cccdd","ios":"levelo://app?vid=7a1e01fb-ef6d-4e38-a2e7-e5553a5cccdd"},"vehicle_type_id":"4","last_reported":1747663823,"current_range_meters":17600,"station_id":"ce4bhmp2rcd13ifvqgog","pricing_plan_id":"cebpf4jnsgd1na2vs0mg"},{"bike_id":"95571b4c-8895-4b92-b2c3-90f8e0d19a2c","system_id":"levelo_inurba_marseille","lat":43.2681,"lon":5.4027,"is_reserved":false,"is_disabled":false,"rental_uris":{"android":"levelo://app?vid=95571b4c-8895-4b92-b2c3-90f8e0d19a2c","ios":"levelo://app?vid=95571b4c-8895-4b92-b2c3-90f8e0d19a2c"},"vehicle_type_id":"4","last_reported":1747663823,"current_range_meters":20000,"station_id":"ce501612rcd8frsf0b60","pricing_plan_id":"cebpf4jnsgd1na2vs0mg"},{"bike_id":"3a4d4d5c-85a5-447c-a965-2c9423f6fd09","system_id":"levelo_inurba_marseille","lat":43.21757,"lon":5.34637,"is_reserved":false,"is_disabled":false,"rental_uris":{"android":"levelo://app?vid=3a4d4d5c-85a5-447c-a965-2c9423f6fd09","ios":"levelo://app?vid=3a4d4d5c-85a5-447c-a965-2c9423f6fd09"},"vehicle_type_id":"4","last_reported":1747663823,"current_range_meters":20000,"station_id":"st_cvj6r9ubvosntc0bgbag","pricing_plan_id":"cebpf4jnsgd1na2vs0mg"},{"bike_id":"f156e448-b30d-497e-8e54-925f74439b23","system_id":"levelo_inurba_marseille","lat":43.30149,"lon":5.38078,"is_reserved":false,"is_disabled":false,"rental_uris":{"android":"levelo://app?vid=f156e448-b30d-497e-8e54-925f74439b23","ios":"levelo://app?vid=f156e448-b30d-497e-8e54-925f74439b23"},"vehicle_type_id":"4","last_reported":1747663823,"current_range_meters":20000,"station_id":"ce4bgjp2rcd13ifvqbh0","pricing_plan_id":"cebpf4jnsgd1na2vs0mg"},{"bike_id":"46dedc2f-120b-4832-ba6f-5793ec84d02c","system_id":"levelo_inurba_marseille","lat":43.27052,"lon":5.40262,"is_reserved":false,"is_disabled":false,"rental_uris":{"android":"levelo://app?vid=46dedc2f-120b-4832-ba6f-5793ec84d02c","ios":"levelo://app?vid=46dedc2f-120b-4832-ba6f-5793ec84d02c"},"vehicle_type_id":"4","last_reported":1747663823,"current_range_meters":20400,"station_id":"ce4bhk92rcd13ifvqgc0","pricing_plan_id":"cebpf4jnsgd1na2vs0mg"},{"bike_id":"f82f63ae-b6bc-483a-9fa2-1128b45cfab4","system_id":"levelo_inurba_marseille","lat":43.24168,"lon":5.36395,"is_reserved":false,"is_disabled":false,"rental_uris":{"android":"levelo://app?vid=f82f63ae-b6bc-483a-9fa2-1128b45cfab4","ios":"levelo://app?vid=f82f63ae-b6bc-483a-9fa2-1128b45cfab4"},"vehicle_type_id":"4","last_reported":1747663823,"current_range_meters":20400,"station_id":"cpo36qri1sfpv3e86is0","pricing_plan_id":"cebpf4jnsgd1na2vs0mg"},{"bike_id":"55fee4c8-5df3-4b38-bbb8-92fff5906ef7","system_id":"levelo_inurba_marseille","lat":43.28269,"lon":5.35062,"is_reserved":false,"is_disabled":false,"rental_uris":{"android":"levelo://app?vid=55fee4c8-5df3-4b38-bbb8-92fff5906ef7","ios":"levelo://app?vid=55fee4c8-5df3-4b38-bbb8-92fff5906ef7"},"vehicle_type_id":"4","last_reported":1747663823,"current_range_meters":20400,"station_id":"ce4bhbp2rcd13ifvqerg","pricing_plan_id":"cebpf4jnsgd1na2vs0mg"},{"bike_id":"c33d5a71-9258-48c8-abad-9f509db8849c","system_id":"levelo_inurba_marseille","lat":43.29789,"lon":5.37102,"is_reserved":false,"is_disabled":false,"rental_uris":{"android":"levelo://app?vid=c33d5a71-9258-48c8-abad-9f509db8849c","ios":"levelo://app?vid=c33d5a71-9258-48c8-abad-9f509db8849c"},"vehicle_type_id":"4","last_reported":1747663823,"current_range_meters":20800,"station_id":"ce4bgop2rcd13ifvqc1g","pricing_plan_id":"cebpf4jnsgd1na2vs0mg"},{"bike_id":"4f78b147-0846-4726-8f50-2c3194ab8a46","system_id":"levelo_inurba_marseille","lat":43.23178,"lon":5.39989,"is_reserved":false,"is_disabled":false,"rental_uris":{"android":"levelo://app?vid=4f78b147-0846-4726-8f50-2c3194ab8a46","ios":"levelo://app?vid=4f78b147-0846-4726-8f50-2c3194ab8a46"},"vehicle_type_id":"4","last_reported":1747663823,"current_range_meters":20800,"station_id":"ce4bhn12rcd13ifvqgqg","pricing_plan_id":"cebpf4jnsgd1na2vs0mg"},