{"last_updated":1726643317,"ttl":30,"version":"2.2","data":{"bikes":[{"bike_id":"322e1fc7-477e-479f-b0df-9ee6bb7c3f34","system_id":"levelo_inurba_marseille","lat":43.32539,"lon":5.41488,"is_reserved":false,"is_disabled":false,"rental_uris":{"android":"levelo://app?vid=322e1fc7-477e-479f-b0df-9ee6bb7c3f34","ios":"levelo://app?vid=322e1fc7-477e-479f-b0df-9ee6bb7c3f34"},"vehicle_type_id":"4","last_reported":1726643317,"current_range_meters":33200,"station_id":"ce4bhq12rcd13ifvqhhg","pricing_plan_id":"cebpf4jnsgd1na2vs0mg"},{"bike_id":"d8a7bbae-3d0e-457c-8e82-e6128d956f4d","system_id":"levelo_inurba_marseille","lat":43.2749,"lon":5.42472,"is_reserved":false,"is_disabled":false,"rental_uris":{"android":"levelo://app?vid=d8a7bbae-3d0e-457c-8e82-e6128d956f4d","ios":"levelo://app?vid=d8a7bbae-3d0e-457c-8e82-e6128d956f4d"},"vehicle_type_id":"4","last_reported":1726643317,"current_range_meters":8400,"station_id":"ce4bhn92rcd13ifvqgrg","pricing_plan_id":"cebpf4jnsgd1na2vs0mg"},{"bike_id":"005b4cb7-40ef-46da-b28a-c870673d83f3","system_id":"levelo_inurba_marseille","lat":43.26949,"lon":5.38619,"is_reserved":false,"is_disabled":false,"rental_uris":{"android":"levelo://app?vid=005b4cb7-40ef-46da-b28a-c870673d83f3","ios":"levelo://app?vid=005b4cb7-40ef-46da-b28a-c870673d83f3"},"vehicle_type_id":"4","last_reported":1726643317,"current_range_meters":33200,"station_id":"ce4bhh92rcd13ifvqfh0","pricing_plan_id":"cebpf4jnsgd1na2vs0mg"},{"bike_id":"1b2eb3bf-704f-4ec9-b5bf-79bc64acc587","system_id":"levelo_inurba_marseille","lat":43.27311,"lon":5.39117,"is_reserved":false,"is_disabled":false,"rental_uris":{"android":"levelo://app?vid=1b2eb3bf-704f-4ec9-b5bf-79bc64acc587","ios":"levelo://app?vid=1b2eb3bf-704f-4ec9-b5bf-79bc64acc587"},"vehicle_type_id":"4","last_reported":1726643317,"current_range_meters":18000,"station_id":"ce4bhgp2rcd13ifvqfe0","pricing_plan_id":"cebpf4jnsgd1na2vs0mg"},{"bike_id":"43176770-eaee-4996-86c7-d408161e4ce6","system_id":"levelo_inurba_marseille","lat":43.29896,"lon":5.43665,"is_reserved":false,"is_disabled":false,"rental_uris":{"android":"levelo://app?vid=43176770-eaee-4996-86c7-d408161e4ce6","ios":"levelo://app?vid=43176770-eaee-4996-86c7-d408161e4ce6"},"vehicle_type_id":"4","last_reported":1726643317,"current_range_meters":37600,"station_id":"ce4bhpp2rcd13ifvqhfg","pricing_plan_id":"cebpf4jnsgd1na2vs0mg"},{"bike_id":"05976b69-d4de-44ef-87b1-8bce8cd5521e","system_id":"levelo_inurba_marseille","lat":43.24078,"lon":5.37749,"is_reserved":false,"is_disabled":false,"rental_uris":{"android":"levelo://app?vid=05976b69-d4de-44ef-87b1-8bce8cd5521e","ios":"levelo://app?vid=05976b69-d4de-44ef-87b1-8bce8cd5521e"},"vehicle_type_id":"4","last_reported":1726643317,"current_range_meters":36800,"station_id":"ce4bhnp2rcd13ifvqgvg","pricing_plan_id":"cebpf4jnsgd1na2vs0mg"},{"bike_id":"017ad941-2bc7-4c23-aa10-a9af1a423d28","system_id":"levelo_inurba_marseille","lat":43.33003,"lon":5.39031,"is_reserved":false,"is_disabled":false,"rental_uris":{"android":"levelo://app?vid=017ad941-2bc7-4c23-aa10-a9af1a423d28","ios":"levelo://app?vid=017ad941-2bc7-4c23-aa10-a9af1a423d28"},"vehicle_type_id":"4","last_reported":1726643317,"current_range_meters":10800,"station_id":"ce4bhr92rcd13ifvqhrg","pricing_plan_id":"cebpf4jnsgd1na2vs0mg"},{"bike_id":"f85ce8c6-1f53-41f6-90ea-c0a37e5934f8","system_id":"levelo_inurba_marseille","lat":43.27075,"lon":5.42282,"is_reserved":false,"is_disabled":false,"rental_uris":{"android":"levelo://app?vid=f85ce8c6-1f53-41f6-90ea-c0a37e5934f8","ios":"levelo://app?vid=f85ce8c6-1f53-41f6-90ea-c0a37e5934f8"},"vehicle_type_id":"4","last_reported":1726643317,"current_range_meters":30800,"station_id":"ce4bhk92rcd13ifvqgb0","pricing_plan_id":"cebpf4jnsgd1na2vs0mg"},{"bike_id":"a6862d6c-bcdb-4c5e-854a-506954e7f8c0","system_id":"levelo_inurba_marseille","lat":43.25937,"lon":5.40905,"is_reserved":false,"is_disabled":false,"rental_uris":{"android":"levelo://app?vid=a6862d6c-bcdb-4c5e-854a-506954e7f8c0","ios":"levelo://app?vid=a6862d6c-bcdb-4c5e-854a-506954e7f8c0"},"vehicle_type_id":"4","last_reported":1726643317,"current_range_meters":9200,"station_id":"ce4bhm92rcd13ifvqglg","pricing_plan_id":"cebpf4jnsgd1na2vs0mg"},{"bike_id":"16a6f96a-5cb2-461f-a294-02ee9ebc6764","system_id":"levelo_inurba_marseille","lat":43.313469,"lon":5.367391,"is_reserved":false,"is_disabled":false,"rental_uris":{"android":"levelo://app?vid=16a6f96a-5cb2-461f-a294-02ee9ebc6764","ios":"levelo://app?vid=16a6f96a-5cb2-461f-a294-02ee9ebc6764"},"vehicle_type_id":"4","last_reported":1726643317,"current_range_meters":28000,"station_id":"ce4bgr92rcd13ifvqc6g","pricing_plan_id":"cebpf4jnsgd1na2vs0mg"},{"bike_id":"b592e2f2-3b3c-4b97-abca-4d0c4bf54e79","system_id":"levelo_inurba_marseille","lat":43.29939,"lon":5.40376,"is_reserved":false,"is_disabled":false,"rental_uris":{"android":"levelo://app?vid=b592e2f2-3b3c-4b97-abca-4d0c4bf54e79","ios":"levelo://app?vid=b592e2f2-3b3c-4b97-abca-4d0c4bf54e79"},"vehicle_type_id":"4","last_reported":1726643317,"current_range_meters":34800,"station_id":"","pricing_plan_id":"cebpf4jnsgd1na2vs0mg"},{"bike_id":"fcc5e721-57ee-421b-9e00-41ac3b0c21d0","system_id":"levelo_inurba_marseille","lat":43.2582,"lon":5.39436,"is_reserved":false,"is_disabled":false,"rental_uris":{"android":"levelo://app?vid=fcc5e721-57ee-421b-9e00-41ac3b0c21d0","ios":"levelo://app?vid=fcc5e721-57ee-421b-9e00-41ac3b0c21d0"},"vehicle_type_id":"4","last_reported":1726643317,"current_range_meters":31200,"station_id":"ce4bhip2rcd13ifvqft0","pricing_plan_id":"cebpf4jnsgd1na2vs0mg"},{"bike_id":"b5890725-bfd6-4476-9287-9e093cd096fb","system_id":"levelo_inurba_marseille","lat":43.33022,"lon":5.39039,"is_reserved":false,"is_disabled":false,"rental_uris":{"android":"levelo://app?vid=b5890725-bfd6-4476-9287-9e093cd096fb","ios":"levelo://app?vid=b5890725-bfd6-4476-9287-9e093cd096fb"},"vehicle_type_id":"4","last_reported":1726643317,"current_range_meters":6000,"station_id":"ce4bhr92rcd13ifvqhrg","pricing_plan_id":"cebpf4jnsgd1na2vs0mg"},{"bike_id":"de672d3e-6631-4f79-a15a-ca2546ba213b","system_id":"levelo_inurba_marseille","lat":43.24074,"lon":5.37758,"is_reserved":false,"is_disabled":false,"rental_uris":{"android":"levelo://app?vid=de672d3e-6631-4f79-a15a-ca2546ba213b","ios":"levelo://app?vid=de672d3e-6631-4f79-a15a-ca2546ba213b"},"vehicle_type_id":"4","last_reported":1726643317,"current_range_meters":11200,"station_id":"ce4bhnp2rcd13ifvqgvg","pricing_plan_id":"cebpf4jnsgd1na2vs0mg"},{"bike_id":"553a82d5-e222-4603-9da6-f2b592b1881b","system_id":"levelo_inurba_marseille","lat":43.3047,"lon":5.37903,"is_reserved":false,"is_disabled":false,"rental_uris":{"android":"levelo://app?vid=553a82d5-e222-4603-9da6-f2b592b1881b","ios":"levelo://app?vid=553a82d5-e222-4603-9da6-f2b592b1881b"},"vehicle_type_id":"4","last_reported":1726643317,"current_range_meters":15200,"station_id":"ce4bgup2rcd13ifvqcn0","pricing_plan_id":"cebpf4jnsgd1na2vs0mg"},{"bike_id":"5309d39c-1795-43e9-bfff-4830328841b6","system_id":"levelo_inurba_marseille","lat":43.23151,"lon":5.43719,"is_reserved":false,"is_disabled":false,"rental_uris":{"android":"levelo://app?vid=5309d39c-1795-43e9-bfff-4830328841b6","ios":"levelo://app?vid=5309d39c-1795-43e9-bfff-4830328841b6"},"vehicle_type_id":"4","last_reported":1726643317,"current_range_meters":27600,"station_id":"ce4bhmp2rcd13ifvqgog","pricing_plan_id":"cebpf4jnsgd1na2vs0mg"},{"bike_id":"667cfaa1-2a4d-4f1c-be1e-d27714f57903","system_id":"levelo_inurba_marseille","lat":43.308014,"lon":5.381487,"is_reserved":false,"is_disabled":false,"rental_uris":{"android":"levelo://app?vid=667cfaa1-2a4d-4f1c-be1e-d27714f57903","ios":"levelo://app?vid=667cfaa1-2a4d-4f1c-be1e-d27714f57903"},"vehicle_type_id":"4","last_reported":1726643317,"current_range_meters":31200,"station_id":"ce4bgt12rcd13ifvqce0","pricing_plan_id":"cebpf4jnsgd1na2vs0mg"},{"bike_id":"d443656d-5e71-4310-b7b5-67345aa62a49","system_id":"levelo_inurba_marseille","lat":43.29513,"lon":5.37518,"is_reserved":false,"is_disabled":false,"rental_uris":{"android":"levelo://app?vid=d443656d-5e71-4310-b7b5-67345aa62a49","ios":"levelo://app?vid=d443656d-5e71-4310-b7b5-67345aa62a49"},"vehicle_type_id":"4","last_reported":1726643317,"current_range_meters":27600,"station_id":"ce4bgkp2rcd13ifvqbmg","pricing_plan_id":"cebpf4jnsgd1na2vs0mg"},{"bike_id":"4b38b0b0-80be-4045-801d-3d59d6cf4b4e","system_id":"levelo_inurba_marseille","lat":43.23152,"lon":5.43715,"is_reserved":false,"is_disabled":false,"rental_uris":{"android":"levelo://app?vid=4b38b0b0-80be-4045-801d-3d59d6cf4b4e","ios":"levelo://app?vid=4b38b0b0-80be-4045-801d-3d59d6cf4b4e"},"vehicle_type_id":"4","last_reported":1726643317,"current_range_meters":11600,"station_id":"ce4bhmp2rcd13ifvqgog","pricing_plan_id":"cebpf4jnsgd1na2vs0mg"},{"bike_id":"c3c364f4-0fa8-4b51-8626-4a339baace73","system_id":"levelo_inurba_marseille","lat":43.24077,"lon":5.37752,"is_reserved":false,"is_disabled":false,"rental_uris":{"android":"levelo://app?vid=c3c364f4-0fa8-4b51-8626-4a339baace73","ios":"levelo://app?vid=c3c364f4-0fa8-4b51-8626-4a339baace73"},"vehicle_type_id":"4","last_reported":1726643317,"current_range_meters":21600,"station_id":"ce4bhnp2rcd13ifvqgvg","pricing_plan_id":"cebpf4jnsgd1na2vs0mg"},{"bike_id":"0e46c20d-3c11-4efb-8849-71cd32185d09","system_id":"levelo_inurba_marseille","lat":43.2973,"lon":5.37675,"is_reserved":false,"is_disabled":false,"rental_uris":{"android":"levelo://app?vid=0e46c20d-3c11-4efb-8849-71cd32185d09","ios":"levelo://app?vid=0e46c20d-3c11-4efb-8849-71cd32185d09"},"vehicle_type_id":"4","last_reported":1726643317,"current_range_meters":32400,"station_id":"ce4bgkh2rcd13ifvqbl0","pricing_plan_id":"cebpf4jnsgd1na2vs0mg"},{"bike_id":"94306d42-ea71-4ff6-9cf4-02f2bfbb1144","system_id":"levelo_inurba_marseille","lat":43.28904,"lon":5.36397,"is_reserved":false,"is_disabled":false,"rental_uris":{"android":"levelo://app?vid=94306d42-ea71-4ff6-9cf4-02f2bfbb1144","ios":"levelo://app?vid=94306d42-ea71-4ff6-9cf4-02f2bfbb1144"},"vehicle_type_id":"4","last_reported":1726643317,"current_range_meters":38800,"station_id":"ce4bhc92rcd13ifvqetg","pricing_plan_id":"cebpf4jnsgd1na2vs0mg"},{"bike_id":"103a716b-dbc7-4e49-a7f2-16e378e92b85","system_id":"levelo_inurba_marseille","lat":43.22927,"lon":5.35373,"is_reserved":false,"is_disabled":false,"rental_uris":{"android":"levelo://app?vid=103a716b-dbc7-4e49-a7f2-16e378e92b85","ios":"levelo://app?vid=103a716b-dbc7-4e49-a7f2-16e378e92b85"},"vehicle_type_id":"4","last_reported":1726643317,"current_range_meters":26800,"station_id":"cpo3532slgdg3j2ikp40","pricing_plan_id":"cebpf4jnsgd1na2vs0mg"},{"bike_id":"06bfb82b-72f8-467a-abe6-3935f8a7f2de","system_id":"levelo_inurba_marseille","lat":43.2782,"lon":5.40714,"is_reserved":false,"is_disabled":false,"rental_uris":{"android":"levelo://app?vid=06bfb82b-72f8-467a-abe6-3935f8a7f2de","ios":"levelo://app?vid=06bfb82b-72f8-467a-abe6-3935f8a7f2de"},"vehicle_type_id":"4","last_reported":1726643317,"current_range_meters":26800,"station_id":"ce4bhnh2rcd13ifvqgtg","pricing_plan_id":"cebpf4jnsgd1na2vs0mg"},{"bike_id":"7affc5c7-b1b3-4f2c-af16-dca461f78215","system_id":"levelo_inurba_marseille","lat":43.28977,"lon":5.39994,"is_reserved":false,"is_disabled":false,"rental_uris":{"android":"levelo://app?vid=7affc5c7-b1b3-4f2c-af16-dca461f78215","ios":"levelo://app?vid=7affc5c7-b1b3-4f2c-af16-dca461f78215"},"vehicle_type_id":"4","last_reported":1726643317,"current_range_meters":33200,"station_id":"ce4bgr92rcd13ifvqc6g","pricing_plan_id":"cebpf4jnsgd1na2vs0mg"},{"bike_id":"9d3e0994-7291-4fa8-b920-e0297ab61683","system_id":"levelo_inurba_marseille","lat":43.31344,"lon":5.36727,"is_reserved":false,"is_disabled":false,"rental_uris":{"android":"levelo://app?vid=9d3e0994-7291-4fa8-b920-e0297ab61683","ios":"levelo://app?vid=9d3e0994-7291-4fa8-b920-e0297ab61683"},"vehicle_type_id":"4","last_reported":1726643317,"current_range_meters":22400,"station_id":"ce4bgr92rcd13ifvqc6g","pricing_plan_id":"cebpf4jnsgd1na2vs0mg"},{"bike_id":"e58860e6-4822-4e2e-ac0a-7482b63d0eea","system_id":"levelo_inurba_marseille","lat":43.29039,"lon":5.39964,"is_reserved":false,"is_disabled":false,"rental_uris":{"android":"levelo://app?vid=e58860e6-4822-4e2e-ac0a-7482b63d0eea","ios":"levelo://app?vid=e58860e6-4822-4e2e-ac0a-7482b63d0eea"},"vehicle_type_id":"4","last_reported":1726643317,"current_range_meters":38000,"station_id":"ce4bh392rcd13ifvqdm0","pricing_plan_id":"cebpf4jnsgd1na2vs0mg"},{"bike_id":"a02531e7-e816-40db-83bd-a99a7ebc00d2","system_id":"levelo_inurba_marseille","lat":43.30472,"lon":5.37904,"is_reserved":false,"is_disabled":false,"rental_uris":{"android":"levelo://app?vid=a02531e7-e816-40db-83bd-a99a7ebc00d2","ios":"levelo://app?vid=a02531e7-e816-40db-83bd-a99a7ebc00d2"},"vehicle_type_id":"4","last_reported":1726643317,"current_range_meters":35200,"station_id":"ce4bgup2rcd13ifvqcn0","pricing_plan_id":"cebpf4jnsgd1na2vs0mg"},{"bike_id":"86ed3f1f-3283-4776-9c43-a8bb74233353","system_id":"levelo_inurba_marseille","lat":43.29038,"lon":5.39944,"is_reserved":false,"is_disabled":false,"rental_uris":{"android":"levelo://app?vid=86ed3f1f-3283-4776-9c43-a8bb74233353","ios":"levelo://app?vid=86ed3f1f-3283-4776-9c43-a8bb74233353"},"vehicle_type_id":"4","last_reported":1726643317,"current_range_meters":38800,"station_id":"ce4bh392rcd13ifvqdm0","pricing_plan_id":"cebpf4jnsgd1na2vs0mg"},{"bike_id":"ec71e079-6b2a-4947-9aff-591dc5a1a1d0","system_id":"levelo_inurba_marseille","lat":43.293047,"lon":5.371814,"is_reserved":false,"is_disabled":false,"rental_uris":{"android":"levelo://app?vid=ec71e079-6b2a-4947-9aff-591dc5a1a1d0","ios":"levelo://app?vid=ec71e079-6b2a-4947-9aff-591dc5a1a1d0"},"vehicle_type_id":"4","last_reported":1726643317,"current_range_meters":38000,"station_id":"ce4bgh92rcd13ifvqb40","pricing_plan_id":"cebpf4jnsgd1na2vs0mg"},{"bike_id":"3865a787-eeae-426d-8d42-5d04bb282598","system_id":"levelo_inurba_marseille","lat":43.28934,"lon":5.36393,"is_reserved":false,"is_disabled":false,"rental_uris":{"android":"levelo://app?vid=3865a787-eeae-426d-8d42-5d04bb282598","ios":"levelo://app?vid=3865a787-eeae-426d-8d42-5d04bb282598"},"vehicle_type_id":"4","last_reported":1726643317,"current_range_meters":19600,"station_id":"ce4bhc92rcd13ifvqetg","pricing_plan_id":"cebpf4jnsgd1na2vs0mg"},{"bike_id":"d9b62648-6378-4dbb-9f13-09848203a4fd","system_id":"levelo_inurba_marseille","lat":43.282806,"lon":5.385076,"is_reserved":false,"is_disabled":false,"rental_uris":{"android":"levelo://app?vid=d9b62648-6378-4dbb-9f13-09848203a4fd","ios":"levelo://app?vid=d9b62648-6378-4dbb-9f13-09848203a4fd"},"vehicle_type_id":"4","last_reported":1726643317,"current_range_meters":38000,"station_id":"ce4bhg92rcd13ifvqf90","pricing_plan_id":"cebpf4jnsgd1na2vs0mg"},{"bike_id":"d897a00a-b494-4acd-a7b3-c8cdab149c92","system_id":"levelo_inurba_marseille","lat":43.25574,"lon":5.3823,"is_reserved":false,"is_disabled":false,"rental_uris":{"android":"levelo://app?vid=d897a00a-b494-4acd-a7b3-c8cdab149c92","ios":"levelo://app?vid=d897a00a-b494-4acd-a7b3-c8cdab149c92"},"vehicle_type_id":"4","last_reported":1726643317,"current_range_meters":37600,"station_id":"ce4bhih2rcd13ifvqfs0","pricing_plan_id":"cebpf4jnsgd1na2vs0mg"},{"bike_id":"2a5808e5-1612-4dc1-a62b-b9c71459256c","system_id":"levelo_inurba_marseille","lat":43.34089,"lon":5.39103,"is_reserved":false,"is_disabled":false,"rental_uris":{"android":"levelo://app?vid=2a5808e5-1612-4dc1-a62b-b9c71459256c","ios":"levelo://app?vid=2a5808e5-1612-4dc1-a62b-b9c71459256c"},"vehicle_type_id":"4","last_reported":1726643317,"current_range_meters":6400,"station_id":"","pricing_plan_id":"cebpf4jnsgd1na2vs0mg"},{"bike_id":"cdf82ab7-5b21-42a8-b62b-7c9153e0b3ec","system_id":"levelo_inurba_marseille","lat":43.27495,"lon":5.4245,"is_reserved":false,"is_disabled":false,"rental_uris":{"android":"levelo://app?vid=cdf82ab7-5b21-42a8-b62b-7c9153e0b3ec","ios":"levelo://app?vid=cdf82ab7-5b21-42a8-b62b-7c9153e0b3ec"},"vehicle_type_id":"4","last_reported":1726643317,"current_range_meters":32800,"station_id":"ce4bhn92rcd13ifvqgrg","pricing_plan_id":"cebpf4jnsgd1na2vs0mg"},{"bike_id":"8149c504-65ae-49c7-ae97-a0adfb5da01c","system_id":"levelo_inurba_marseille","lat":43.284925,"lon":5.38534,"is_reserved":false,"is_disabled":false,"rental_uris":{"android":"levelo://app?vid=8149c504-65ae-49c7-ae97-a0adfb5da01c","ios":"levelo://app?vid=8149c504-65ae-49c7-ae97-a0adfb5da01c"},"vehicle_type_id":"4","last_reported":1726643317,"current_range_meters":32400,"station_id":"ce4bh8p2rcd13ifvqeb0","pricing_plan_id":"cebpf4jnsgd1na2vs0mg"},{"bike_id":"6444b746-3e51-4ea8-932e-7fcd12c8d71c","system_id":"levelo_inurba_marseille","lat":43.26064,"lon":5.39395,"is_reserved":false,"is_disabled":false,"rental_uris":{"android":"levelo://app?vid=6444b746-3e51-4ea8-932e-7fcd12c8d71c","ios":"levelo://app?vid=6444b746-3e51-4ea8-932e-7fcd12c8d71c"},"vehicle_type_id":"4","last_reported":1726643317,"current_range_meters":33200,"station_id":"ce4bhh92rcd13ifvqfj0","pricing_plan_id":"cebpf4jnsgd1na2vs0mg"},{"bike_id":"65eaf48d-8e15-4c50-a81a-08d7b23a7362","system_id":"levelo_inurba_marseille","lat":43.31079,"lon":5.42433,"is_reserved":false,"is_disabled":false,"rental_uris":{"android":"levelo://app?vid=65eaf48d-8e15-4c50-a81a-08d7b23a7362","ios":"levelo://app?vid=65eaf48d-8e15-4c50-a81a-08d7b23a7362"},"vehicle_type_id":"4","last_reported":1726643317,"current_range_meters":32400,"station_id":"ce4bhp92rcd13ifvqhag","pricing_plan_id":"cebpf4jnsgd1na2vs0mg"},{"bike_id":"b4450704-51e1-4ff8-a772-08322cc70eb7","system_id":"levelo_inurba_marseille","lat":43.23189,"lon":5.35566,"is_reserved":false,"is_disabled":false,"rental_uris":{"android":"levelo://app?vid=b4450704-51e1-4ff8-a772-08322cc70eb7","ios":"levelo://app?vid=b4450704-51e1-4ff8-a772-08322cc70eb7"},"vehicle_type_id":"4","last_reported":1726643317,"current_range_meters":36400,"station_id":"ce4bhu92rcd13ifvqi70","pricing_plan_id":"cebpf4jnsgd1na2vs0mg"},{"bike_id":"30294502-e765-463a-9ed5-c4caba98194b","system_id":"levelo_inurba_marseille","lat":43.28939,"lon":5.3662,"is_reserved":false,"is_disabled":false,"rental_uris":{"android":"levelo://app?vid=30294502-e765-463a-9ed5-c4caba98194b","ios":"levelo://app?vid=30294502-e765-463a-9ed5-c4caba98194b"},"vehicle_type_id":"4","last_reported":1726643317,"current_range_meters":27600,"station_id":"ce4bhap2rcd13ifvqek0","pricing_plan_id":"cebpf4jnsgd1na2vs0mg"},{"bike_id":"f884c139-5e70-4b5c-839d-930bc641f4ea","system_id":"levelo_inurba_marseille","lat":43.25004,"lon":5.38924,"is_reserved":false,"is_disabled":false,"rental_uris":{"android":"levelo://app?vid=f884c139-5e70-4b5c-839d-930bc641f4ea","ios":"levelo://app?vid=f884c139-5e70-4b5c-839d-930bc641f4ea"},"vehicle_type_id":"4","last_reported":1726643317,"current_range_meters":39200,"station_id":"ce4bhgp2rcd13ifvqfd0","pricing_plan_id":"cebpf4jnsgd1na2vs0mg"},{"bike_id":"c2667222-5d26-4d9c-a938-761c480fe584","system_id":"levelo_inurba_marseille","lat":43.33023,"lon":5.39048,"is_reserved":false,"is_disabled":false,"rental_uris":{"android":"levelo://app?vid=c2667222-5d26-4d9c-a938-761c480fe584","ios":"levelo://app?vid=c2667222-5d26-4d9c-a938-761c480fe584"},"vehicle_type_id":"4","last_reported":1726643317,"current_range_meters":11600,"station_id":"ce4bhr92rcd13ifvqhrg","pricing_plan_id":"cebpf4jnsgd1na2vs0mg"},{"bike_id":"d2648441-8611-4e86-b6a3-95e5dd6d09df","system_id":"levelo_inurba_marseille","lat":43.26011,"lon":5.37521,"is_reserved":false,"is_disabled":false,"rental_uris":{"android":"levelo://app?vid=d2648441-8611-4e86-b6a3-95e5dd6d09df","ios":"levelo://app?vid=d2648441-8611-4e86-b6a3-95e5dd6d09df"},"vehicle_type_id":"4","last_reported":1726643317,"current_range_meters":27200,"station_id":"ce4bhg12rcd13ifvqf60","pricing_plan_id":"cebpf4jnsgd1na2vs0mg"},{"bike_id":"442c5059-0433-4ca9-94c3-1cf6dbafc57d","system_id":"levelo_inurba_marseille","lat":43.30158,"lon":5.38088,"is_reserved":false,"is_disabled":false,"rental_uris":{"android":"levelo://app?vid=442c5059-0433-4ca9-94c3-1cf6dbafc57d","ios":"levelo://app?vid=442c5059-0433-4ca9-94c3-1cf6dbafc57d"},"vehicle_type_id":"4","last_reported":1726643317,"current_range_meters":33600,"station_id":"ce4bgjp2rcd13ifvqbh0","pricing_plan_id":"cebpf4jnsgd1na2vs0mg"},{"bike_id":"ec3f636a-f5ea-4ad3-b5fb-a36413f34fbf","system_id":"levelo_inurba_marseille","lat":43.27492,"lon":5.42455,"is_reserved":false,"is_disabled":false,"rental_uris":{"android":"levelo://app?vid=ec3f636a-f5ea-4ad3-b5fb-a36413f34fbf","ios":"levelo://app?vid=ec3f636a-f5ea-4ad3-b5fb-a36413f34fbf"},"vehicle_type_id":"4","last_reported":1726643317,"current_range_meters":16400,"station_id":"ce4bhn92rcd13ifvqgrg","pricing_plan_id":"cebpf4jnsgd1na2vs0mg"},{"bike_id":"1a92da30-1c72-4983-a9c3-88cd457d0d5e","system_id":"levelo_inurba_marseille","lat":43.29783,"lon":5.39334,"is_reserved":false,"is_disabled":false,"rental_uris":{"android":"levelo://app?vid=1a92da30-1c72-4983-a9c3-88cd457d0d5e","ios":"levelo://app?vid=1a92da30-1c72-4983-a9c3-88cd457d0d5e"},"vehicle_type_id":"4","last_reported":1726643317,"current_range_meters":36400,"station_id":"chh1huq6cuj3fo74tm60","pricing_plan_id":"cebpf4jnsgd1na2vs0mg"},{"bike_id":"adc3d03c-1a26-4c6b-978d-4c30cce189a2","system_id":"levelo_inurba_marseille","lat":43.25498,"lon":5.37655,"is_reserved":false,"is_disabled":false,"rental_uris":{"android":"levelo://app?vid=adc3d03c-1a26-4c6b-978d-4c30cce189a2","ios":"levelo://app?vid=adc3d03c-1a26-4c6b-978d-4c30cce189a2"},"vehicle_type_id":"4","last_reported":1726643317,"current_range_meters":32000,"station_id":"ce4bhh12rcd13ifvqff0","pricing_plan_id":"cebpf4jnsgd1na2vs0mg"},{"bike_id":"e1077f43-dc03-4cf5-ab40-102aac39b472","system_id":"levelo_inurba_marseille","lat":43.24995,"lon":5.3893,"is_reserved":false,"is_disabled":false,"rental_uris":{"android":"levelo://app?vid=e1077f43-dc03-4cf5-ab40-102aac39b472","ios":"levelo://app?vid=e1077f43-dc03-4cf5-ab40-102aac39b472"},"vehicle_type_id":"4","last_reported":1726643317,"current_range_meters":8800,"station_id":"ce4bhgp2rcd13ifvqfd0","pricing_plan_id":"cebpf4jnsgd1na2vs0mg"},{"bike_id":"1c3a530e-b0e4-4d7e-965f-e38992d27024","system_id":"levelo_inurba_marseille","lat":43.24082,"lon":5.3775,"is_reserved":false,"is_disabled":false,"rental_uris":{"android":"levelo://app?vid=1c3a530e-b0e4-4d7e-965f-e38992d27024","ios":"levelo://app?vid=1c3a530e-b0e4-4d7e-965f-e38992d27024"},"vehicle_type_id":"4","last_reported":1726643317,"current_range_meters":19600,"station_id":"ce4bhnp2rcd13ifvqgvg","pricing_plan_id":"cebpf4jnsgd1na2vs0mg"},{"bike_id":"d9cd8e64-f0e8-4451-863f-a14224a06409","system_id":"levelo_inurba_marseille","lat":43.32546,"lon":5.41439,"is_reserved":false,"is_disabled":false,"rental_uris":{"android":"levelo://app?vid=d9cd8e64-f0e8-4451-863f-a14224a06409","ios":"levelo://app?vid=d9cd8e64-f0e8-4451-863f-a14224a06409"},"vehicle_type_id":"4","last_reported":1726643317,"current_range_meters":33200,"station_id":"ce4bhq12rcd13ifvqhhg","pricing_plan_id":"cebpf4jnsgd1na2vs0mg"},{"bike_id":"9ec75349-5981-4540-9c85-67e247bba546","system_id":"levelo_inurba_marseille","lat":43.31699,"lon":5.40463,"is_reserved":false,"is_disabled":false,"rental_uris":{"android":"levelo://app?vid=9ec75349-5981-4540-9c85-67e247bba546","ios":"levelo://app?vid=9ec75349-5981-4540-9c85-67e247bba546"},"vehicle_type_id":"4","last_reported":1726643317,"current_range_meters":37600,"station_id":"ce4bh012rcd13ifvqd00","pricing_plan_id":"cebpf4jnsgd1na2vs0mg"},{"bike_id":"85accb8b-04bf-4b10-bd64-d66dfa393f45","system_id":"levelo_inurba_marseille","lat":43.26556,"lon":5.37284,"is_reserved":false,"is_disabled":false,"rental_uris":{"android":"levelo://app?vid=85accb8b-04bf-4b10-bd64-d66dfa393f45","ios":"levelo://app?vid=85accb8b-04bf-4b10-bd64-d66dfa393f45"},"vehicle_type_id":"4","last_reported":1726643317,"current_range_meters":24400,"station_id":"ce4bhg12rcd13ifvqf70","pricing_plan_id":"cebpf4jnsgd1na2vs0mg"},{"bike_id":"66127129-8160-4ecf-b52d-2134894b1647","system_id":"levelo_inurba_marseille","lat":43.28609,"lon":5.37065,"is_reserved":false,"is_disabled":false,"rental_uris":{"android":"levelo://app?vid=66127129-8160-4ecf-b52d-2134894b1647","ios":"levelo://app?vid=66127129-8160-4ecf-b52d-2134894b1647"},"vehicle_type_id":"4","last_reported":1726643317,"current_range_meters":20800,"station_id":"ce4bht12rcd13ifvqi60","pricing_plan_id":"cebpf4jnsgd1na2vs0mg"},{"bike_id":"95ba945e-2bec-4e52-8a36-5e7ee871c308","system_id":"levelo_inurba_marseille","lat":43.27309,"lon":5.39082,"is_reserved":false,"is_disabled":false,"rental_uris":{"android":"levelo://app?vid=95ba945e-2bec-4e52-8a36-5e7ee871c308","ios":"levelo://app?vid=95ba945e-2bec-4e52-8a36-5e7ee871c308"},"vehicle_type_id":"4","last_reported":1726643317,"current_range_meters":27600,"station_id":"ce4bhgp2rcd13ifvqfe0","pricing_plan_id":"cebpf4jnsgd1na2vs0mg"},{"bike_id":"5de1e2f6-3486-4fd6-97db-340fd9b94594","system_id":"levelo_inurba_marseille","lat":43.27968,"lon":5.38744,"is_reserved":false,"is_disabled":false,"rental_uris":{"android":"levelo://app?vid=5de1e2f6-3486-4fd6-97db-340fd9b94594","ios":"levelo://app?vid=5de1e2f6-3486-4fd6-97db-340fd9b94594"},"vehicle_type_id":"4","last_reported":1726643317,"current_range_meters":38000,"station_id":"ce4bhg12rcd13ifvqf80","pricing_plan_id":"cebpf4jnsgd1na2vs0mg"},{"bike_id":"e2ee6c47-636c-428c-bca5-9b48d7bfa727","system_id":"levelo_inurba_marseille","lat":43.28922,"lon":5.36394,"is_reserved":false,"is_disabled":false,"rental_uris":{"android":"levelo://app?vid=e2ee6c47-636c-428c-bca5-9b48d7bfa727","ios":"levelo://app?vid=e2ee6c47-636c-428c-bca5-9b48d7bfa727"},"vehicle_type_id":"4","last_reported":1726643317,"current_range_meters":32400,"station_id":"ce4bhc92rcd13ifvqetg","pricing_plan_id":"cebpf4jnsgd1na2vs0mg"},{"bike_id":"0ebcd190-7ecf-4d7b-8e91-8b7ecea9804c","system_id":"levelo_inurba_marseille","lat":43.258178,"lon":5.394405,"is_reserved":false,"is_disabled":false,"rental_uris":{"android":"levelo://app?vid=0ebcd190-7ecf-4d7b-8e91-8b7ecea9804c","ios":"levelo://app?vid=0ebcd190-7ecf-4d7b-8e91-8b7ecea9804c"},"vehicle_type_id":"4","last_reported":1726643317,"current_range_meters":27600,"station_id":"ce4bgvh2rcd13ifvqcs0","pricing_plan_id":"cebpf4jnsgd1na2vs0mg"},{"bike_id":"33e9f8d9-651e-4a7d-ac22-752ef0de0c1f","system_id":"levelo_inurba_marseille","lat":43.28938,"lon":5.39631,"is_reserved":false,"is_disabled":false,"rental_uris":{"android":"levelo://app?vid=33e9f8d9-651e-4a7d-ac22-752ef0de0c1f","ios":"levelo://app?vid=33e9f8d9-651e-4a7d-ac22-752ef0de0c1f"},"vehicle_type_id":"4","last_reported":1726643317,"current_range_meters":34000,"station_id":"ce4bh3h2rcd13ifvqdn0","pricing_plan_id":"cebpf4jnsgd1na2vs0mg"},{"bike_id":"c9a88f41-9958-41b8-b42f-ce004cf3a8e3","system_id":"levelo_inurba_marseille","lat":43.26789,"lon":5.39413,"is_reserved":false,"is_disabled":false,"rental_uris":{"android":"levelo://app?vid=c9a88f41-9958-41b8-b42f-ce004cf3a8e3","ios":"levelo://app?vid=c9a88f41-9958-41b8-b42f-ce004cf3a8e3"},"vehicle_type_id":"4","last_reported":1726643317,"current_range_meters":31200,"station_id":"ce4bhh12rcd13ifvqfg0","pricing_plan_id":"cebpf4jnsgd1na2vs0mg"},{"bike_id":"70ce3a79-6e57-48cf-ae26-bc1ac4de3616","system_id":"levelo_inurba_marseille","lat":43.29599,"lon":5.381047,"is_reserved":false,"is_disabled":false,"rental_uris":{"android":"levelo://app?vid=70ce3a79-6e57-48cf-ae26-bc1ac4de3616","ios":"levelo://app?vid=70ce3a79-6e57-48cf-ae26-bc1ac4de3616"},"vehicle_type_id":"4","last_reported":1726643317,"current_range_meters":35200,"station_id":"ce4bgrp2rcd13ifvqc9g","pricing_plan_id":"cebpf4jnsgd1na2vs0mg"},{"bike_id":"0c18f7de-b7f3-4589-a11a-fa026d3b54c3","system_id":"levelo_inurba_marseille","lat":43.28154,"lon":5.42656,"is_reserved":false,"is_disabled":false,"rental_uris":{"android":"levelo://app?vid=0c18f7de-b7f3-4589-a11a-fa026d3b54c3","ios":"levelo://app?vid=0c18f7de-b7f3-4589-a11a-fa026d3b54c3"},"vehicle_type_id":"4","last_reported":1726643317,"current_range_meters":19600,"station_id":"ce4bhnh2rcd13ifvqgug","pricing_plan_id":"cebpf4jnsgd1na2vs0mg"},{"bike_id":"ee7cab51-ac41-4df2-a570-0b8afed077f6","system_id":"levelo_inurba_marseille","lat":43.33019,"lon":5.39038,"is_reserved":false,"is_disabled":false,"rental_uris":{"android":"levelo://app?vid=ee7cab51-ac41-4df2-a570-0b8afed077f6","ios":"levelo://app?vid=ee7cab51-ac41-4df2-a570-0b8afed077f6"},"vehicle_type_id":"4","last_reported":1726643317,"current_range_meters":26800,"station_id":"ce4bhr92rcd13ifvqhrg","pricing_plan_id":"cebpf4jnsgd1na2vs0mg"},{"bike_id":"c7f93bf2-2b30-4c5c-aa72-447b3f4a28ea","system_id":"levelo_inurba_marseille","lat":43.29895,"lon":5.43659,"is_reserved":false,"is_disabled":false,"rental_uris":{"android":"levelo://app?vid=c7f93bf2-2b30-4c5c-aa72-447b3f4a28ea","ios":"levelo://app?vid=c7f93bf2-2b30-4c5c-aa72-447b3f4a28ea"},"vehicle_type_id":"4","last_reported":1726643317,"current_range_meters":5600,"station_id":"ce4bhpp2rcd13ifvqhfg","pricing_plan_id":"cebpf4jnsgd1na2vs0mg"},{"bike_id":"594a2ea7-8dc4-452b-bcad-bade00d8c721","system_id":"levelo_inurba_marseille","lat":43.272113,"lon":5.391829,"is_reserved":false,"is_disabled":false,"rental_uris":{"android":"levelo://app?vid=594a2ea7-8dc4-452b-bcad-bade00d8c721","ios":"levelo://app?vid=594a2ea7-8dc4-452b-bcad-bade00d8c721"},"vehicle_type_id":"4","last_reported":1726643317,"current_range_meters":17200,"station_id":"ce4bhhp2rcd13ifvqfm0","pricing_plan_id":"cebpf4jnsgd1na2vs0mg"},{"bike_id":"6d30b219-6c7a-4590-972b-4d207df7fb9b","system_id":"levelo_inurba_marseille","lat":43.24666,"lon":5.38166,"is_reserved":false,"is_disabled":false,"rental_uris":{"android":"levelo://app?vid=6d30b219-6c7a-4590-972b-4d207df7fb9b","ios":"levelo://app?vid=6d30b219-6c7a-4590-972b-4d207df7fb9b"},"vehicle_type_id":"4","last_reported":1726643317,"current_range_meters":28400,"station_id":"ce4bhih2rcd13ifvqfr0","pricing_plan_id":"cebpf4jnsgd1na2vs0mg"},{"bike_id":"9d7979ee-6109-4f33-a1fb-6a8eefd1632d","system_id":"levelo_inurba_marseille","lat":43.26957,"lon":5.38632,"is_reserved":false,"is_disabled":false,"rental_uris":{"android":"levelo://app?vid=9d7979ee-6109-4f33-a1fb-6a8eefd1632d","ios":"levelo://app?vid=9d7979ee-6109-4f33-a1fb-6a8eefd1632d"},"vehicle_type_id":"4","last_reported":1726643317,"current_range_meters":17600,"station_id":"ce4bhh92rcd13ifvqfh0","pricing_plan_id":"cebpf4jnsgd1na2vs0mg"},{"bike_id":"8979f834-c522-4b42-8539-71985fcf8b55","system_id":"levelo_inurba_marseille","lat":43.28355,"lon":5.38095,"is_reserved":false,"is_disabled":false,"rental_uris":{"android":"levelo://app?vid=8979f834-c522-4b42-8539-71985fcf8b55","ios":"levelo://app?vid=8979f834-c522-4b42-8539-71985fcf8b55"},"vehicle_type_id":"4","last_reported":1726643317,"current_range_meters":35600,"station_id":"ce4bh412rcd13ifvqdr0","pricing_plan_id":"cebpf4jnsgd1na2vs0mg"},{"bike_id":"1b5a3615-4988-4982-8b62-9226ed5a66a6","system_id":"levelo_inurba_marseille","lat":43.31347,"lon":5.38312,"is_reserved":false,"is_disabled":false,"rental_uris":{"android":"levelo://app?vid=1b5a3615-4988-4982-8b62-9226ed5a66a6","ios":"levelo://app?vid=1b5a3615-4988-4982-8b62-9226ed5a66a6"},"vehicle_type_id":"4","last_reported":1726643317,"current_range_meters":4000,"station_id":"","pricing_plan_id":"cebpf4jnsgd1na2vs0mg"},{"bike_id":"c1d4b523-b299-4ac4-9ba2-f512deedb451","system_id":"levelo_inurba_marseille","lat":43.29365,"lon":5.37832,"is_reserved":false,"is_disabled":false,"rental_uris":{"android":"levelo://app?vid=c1d4b523-b299-4ac4-9ba2-f512deedb451","ios":"levelo://app?vid=c1d4b523-b299-4ac4-9ba2-f512deedb451"},"vehicle_type_id":"4","last_reported":1726643317,"current_range_meters":8000,"station_id":"ce4bgjh2rcd13ifvqbf0","pricing_plan_id":"cebpf4jnsgd1na2vs0mg"},{"bike_id":"80d1eb54-6334-4c2f-a160-7e4b5cb79537","system_id":"levelo_inurba_marseille","lat":43.2996,"lon":5.41344,"is_reserved":false,"is_disabled":false,"rental_uris":{"android":"levelo://app?vid=80d1eb54-6334-4c2f-a160-7e4b5cb79537","ios":"levelo://app?vid=80d1eb54-6334-4c2f-a160-7e4b5cb79537"},"vehicle_type_id":"4","last_reported":1726643317,"current_range_meters":36400,"station_id":"ce4bhp12rcd13ifvqh9g","pricing_plan_id":"cebpf4jnsgd1na2vs0mg"},{"bike_id":"a2a043c3-49a8-4369-9092-6b94896be5f4","system_id":"levelo_inurba_marseille","lat":43.27322,"lon":5.39075,"is_reserved":false,"is_disabled":false,"rental_uris":{"android":"levelo://app?vid=a2a043c3-49a8-4369-9092-6b94896be5f4","ios":"levelo://app?vid=a2a043c3-49a8-4369-9092-6b94896be5f4"},"vehicle_type_id":"4","last_reported":1726643317,"current_range_meters":38400,"station_id":"ce4bhgp2rcd13ifvqfe0","pricing_plan_id":"cebpf4jnsgd1na2vs0mg"},{"bike_id":"45963cdd-07f1-4377-a421-7d7c58efd5ca","system_id":"levelo_inurba_marseille","lat":43.311165,"lon":5.377646,"is_reserved":false,"is_disabled":false,"rental_uris":{"android":"levelo://app?vid=45963cdd-07f1-4377-a421-7d7c58efd5ca","ios":"levelo://app?vid=45963cdd-07f1-4377-a421-7d7c58efd5ca"},"vehicle_type_id":"4","last_reported":1726643317,"current_range_meters":10000,"station_id":"ce4bgt92rcd13ifvqcg0","pricing_plan_id":"cebpf4jnsgd1na2vs0mg"},{"bike_id":"d3eff263-db1e-4010-a9f0-348495e9297c","system_id":"levelo_inurba_marseille","lat":43.25502,"lon":5.37649,"is_reserved":false,"is_disabled":false,"rental_uris":{"android":"levelo://app?vid=d3eff263-db1e-4010-a9f0-348495e9297c","ios":"levelo://app?vid=d3eff263-db1e-4010-a9f0-348495e9297c"},"vehicle_type_id":"4","last_reported":1726643317,"current_range_meters":32800,"station_id":"ce4bhh12rcd13ifvqff0","pricing_plan_id":"cebpf4jnsgd1na2vs0mg"},{"bike_id":"a61689aa-5c1a-4413-8538-941f73ca00b9","system_id":"levelo_inurba_marseille","lat":43.26191,"lon":5.37455,"is_reserved":false,"is_disabled":false,"rental_uris":{"android":"levelo://app?vid=a61689aa-5c1a-4413-8538-941f73ca00b9","ios":"levelo://app?vid=a61689aa-5c1a-4413-8538-941f73ca00b9"},"vehicle_type_id":"4","last_reported":1726643317,"current_range_meters":36800,"station_id":"ce4bhgp2rcd13ifvqfc0","pricing_plan_id":"cebpf4jnsgd1na2vs0mg"},{"bike_id":"b88d8bac-711e-49d2-9eee-8f0f2fcec434","system_id":"levelo_inurba_marseille","lat":43.33025,"lon":5.39046,"is_reserved":false,"is_disabled":false,"rental_uris":{"android":"levelo://app?vid=b88d8bac-711e-49d2-9eee-8f0f2fcec434","ios":"levelo://app?vid=b88d8bac-711e-49d2-9eee-8f0f2fcec434"},"vehicle_type_id":"4","last_reported":1726643317,"current_range_meters":26000,"station_id":"ce4bhr92rcd13ifvqhrg","pricing_plan_id":"cebpf4jnsgd1na2vs0mg"},{"bike_id":"51c8f926-dd42-4188-8ae9-9d5cbb2f7e71","system_id":"levelo_inurba_marseille","lat":43.24177,"lon":5.39735,"is_reserved":false,"is_disabled":false,"rental_uris":{"android":"levelo://app?vid=51c8f926-dd42-4188-8ae9-9d5cbb2f7e71","ios":"levelo://app?vid=51c8f926-dd42-4188-8ae9-9d5cbb2f7e71"},"vehicle_type_id":"4","last_reported":1726643317,"current_range_meters":20400,"station_id":"ce4bhn12rcd13ifvqgpg","pricing_plan_id":"cebpf4jnsgd1na2vs0mg"},{"bike_id":"2189c212-ccd8-46f4-bde9-9d5f8bd683d8","system_id":"levelo_inurba_marseille","lat":43.26569,"lon":5.39006,"is_reserved":false,"is_disabled":false,"rental_uris":{"android":"levelo://app?vid=2189c212-ccd8-46f4-bde9-9d5f8bd683d8","ios":"levelo://app?vid=2189c212-ccd8-46f4-bde9-9d5f8bd683d8"},"vehicle_type_id":"4","last_reported":1726643317,"current_range_meters":30800,"station_id":"ce4bhe12rcd13ifvqf30","pricing_plan_id":"cebpf4jnsgd1na2vs0mg"},{"bike_id":"2e2254f6-d3ed-4277-af5f-ee204e464f40","system_id":"levelo_inurba_marseille","lat":43.29938,"lon":5.41324,"is_reserved":false,"is_disabled":false,"rental_uris":{"android":"levelo://app?vid=2e2254f6-d3ed-4277-af5f-ee204e464f40","ios":"levelo://app?vid=2e2254f6-d3ed-4277-af5f-ee204e464f40"},"vehicle_type_id":"4","last_reported":1726643317,"current_range_meters":36400,"station_id":"ce4bhp12rcd13ifvqh9g","pricing_plan_id":"cebpf4jnsgd1na2vs0mg"},{"bike_id":"7ffa0a34-2412-4cf6-a653-08d8c8ef67dd","system_id":"levelo_inurba_marseille","lat":43.31978,"lon":5.43838,"is_reserved":false,"is_disabled":false,"rental_uris":{"android":"levelo://app?vid=7ffa0a34-2412-4cf6-a653-08d8c8ef67dd","ios":"levelo://app?vid=7ffa0a34-2412-4cf6-a653-08d8c8ef67dd"},"vehicle_type_id":"4","last_reported":1726643317,"current_range_meters":13600,"station_id":"","pricing_plan_id":"cebpf4jnsgd1na2vs0mg"},{"bike_id":"f2cc5877-7adb-4f4a-9f11-20ee9f72e78a","system_id":"levelo_inurba_marseille","lat":43.26953,"lon":5.38623,"is_reserved":false,"is_disabled":false,"rental_uris":{"android":"levelo://app?vid=f2cc5877-7adb-4f4a-9f11-20ee9f72e78a","ios":"levelo://app?vid=f2cc5877-7adb-4f4a-9f11-20ee9f72e78a"},"vehicle_type_id":"4","last_reported":1726643317,"current_range_meters":12800,"station_id":"ce4bhh92rcd13ifvqfh0","pricing_plan_id":"cebpf4jnsgd1na2vs0mg"},{"bike_id":"8cb592d9-f82f-4171-894f-8d7ffa6525e5","system_id":"levelo_inurba_marseille","lat":43.23196,"lon":5.35549,"is_reserved":false,"is_disabled":false,"rental_uris":{"android":"levelo://app?vid=8cb592d9-f82f-4171-894f-8d7ffa6525e5","ios":"levelo://app?vid=8cb592d9-f82f-4171-894f-8d7ffa6525e5"},"vehicle_type_id":"4","last_reported":1726643317,"current_range_meters":14800,"station_id":"ce4bhu92rcd13ifvqi70","pricing_plan_id":"cebpf4jnsgd1na2vs0mg"},{"bike_id":"79cad5b6-9cb0-4262-b39c-374cdf1c25d1","system_id":"levelo_inurba_marseille","lat":43.32487,"lon":5.36566,"is_reserved":false,"is_disabled":false,"rental_uris":{"android":"levelo://app?vid=79cad5b6-9cb0-4262-b39c-374cdf1c25d1","ios":"levelo://app?vid=79cad5b6-9cb0-4262-b39c-374cdf1c25d1"},"vehicle_type_id":"4","last_reported":1726643317,"current_range_meters":38800,"station_id":"ce4bhs12rcd13ifvqhvg","pricing_plan_id":"cebpf4jnsgd1na2vs0mg"},{"bike_id":"699d09b8-17ae-4b5a-81a4-f0906a954e6d","system_id":"levelo_inurba_marseille","lat":43.3229,"lon":5.38268,"is_reserved":false,"is_disabled":false,"rental_uris":{"android":"levelo://app?vid=699d09b8-17ae-4b5a-81a4-f0906a954e6d","ios":"levelo://app?vid=699d09b8-17ae-4b5a-81a4-f0906a954e6d"},"vehicle_type_id":"4","last_reported":1726643317,"current_range_meters":10800,"station_id":"ce4bhr12rcd13ifvqhqg","pricing_plan_id":"cebpf4jnsgd1na2vs0mg"},{"bike_id":"9cd2158d-f3f3-4a97-a884-99e19ad4bcb7","system_id":"levelo_inurba_marseille","lat":43.23155,"lon":5.43709,"is_reserved":false,"is_disabled":false,"rental_uris":{"android":"levelo://app?vid=9cd2158d-f3f3-4a97-a884-99e19ad4bcb7","ios":"levelo://app?vid=9cd2158d-f3f3-4a97-a884-99e19ad4bcb7"},"vehicle_type_id":"4","last_reported":1726643317,"current_range_meters":30000,"station_id":"ce4bhmp2rcd13ifvqgog","pricing_plan_id":"cebpf4jnsgd1na2vs0mg"},{"bike_id":"c3bcca86-6294-4639-9d07-9722d40f464e","system_id":"levelo_inurba_marseille","lat":43.29899,"lon":5.43669,"is_reserved":false,"is_disabled":false,"rental_uris":{"android":"levelo://app?vid=c3bcca86-6294-4639-9d07-9722d40f464e","ios":"levelo://app?vid=c3bcca86-6294-4639-9d07-9722d40f464e"},"vehicle_type_id":"4","last_reported":1726643317,"current_range_meters":25600,"station_id":"ce4bhpp2rcd13ifvqhfg","pricing_plan_id":"cebpf4jnsgd1na2vs0mg"},{"bike_id":"9242cf14-e007-46a6-bf57-3daf8a7e8d69","system_id":"levelo_inurba_marseille","lat":43.28344,"lon":5.38099,"is_reserved":false,"is_disabled":false,"rental_uris":{"android":"levelo://app?vid=9242cf14-e007-46a6-bf57-3daf8a7e8d69","ios":"levelo://app?vid=9242cf14-e007-46a6-bf57-3daf8a7e8d69"},"vehicle_type_id":"4","last_reported":1726643317,"current_range_meters":30000,"station_id":"ce4bh412rcd13ifvqdr0","pricing_plan_id":"cebpf4jnsgd1na2vs0mg"},{"bike_id":"464b765a-5bcf-418f-9058-526dab1b44f9","system_id":"levelo_inurba_marseille","lat":43.32287,"lon":5.3827,"is_reserved":false,"is_disabled":false,"rental_uris":{"android":"levelo://app?vid=464b765a-5bcf-418f-9058-526dab1b44f9","ios":"levelo://app?vid=464b765a-5bcf-418f-9058-526dab1b44f9"},"vehicle_type_id":"4","last_reported":1726643317,"current_range_meters":20400,"station_id":"ce4bhr12rcd13ifvqhqg","pricing_plan_id":"cebpf4jnsgd1na2vs0mg"},{"bike_id":"edfb28d5-b66c-4090-b4b8-2607f3c4f6ab","system_id":"levelo_inurba_marseille","lat":43.32551,"lon":5.41442,"is_reserved":false,"is_disabled":false,"rental_uris":{"android":"levelo://app?vid=edfb28d5-b66c-4090-b4b8-2607f3c4f6ab","ios":"levelo://app?vid=edfb28d5-b66c-4090-b4b8-2607f3c4f6ab"},"vehicle_type_id":"4","last_reported":1726643317,"current_range_meters":38400,"station_id":"ce4bhq12rcd13ifvqhhg","pricing_plan_id":"cebpf4jnsgd1na2vs0mg"},{"bike_id":"6899203a-960a-4d98-8684-2b85d0bc1d54","system_id":"levelo_inurba_marseille","lat":43.34032,"lon":5.40973,"is_reserved":false,"is_disabled":false,"rental_uris":{"android":"levelo://app?vid=6899203a-960a-4d98-8684-2b85d0bc1d54","ios":"levelo://app?vid=6899203a-960a-4d98-8684-2b85d0bc1d54"},"vehicle_type_id":"4","last_reported":1726643317,"current_range_meters":22800,"station_id":"","pricing_plan_id":"cebpf4jnsgd1na2vs0mg"},{"bike_id":"8e3c84db-879d-4669-8d43-f74eed3d4c1b","system_id":"levelo_inurba_marseille","lat":43.27372,"lon":5.36258,"is_reserved":false,"is_disabled":false,"rental_uris":{"android":"levelo://app?vid=8e3c84db-879d-4669-8d43-f74eed3d4c1b","ios":"levelo://app?vid=8e3c84db-879d-4669-8d43-f74eed3d4c1b"},"vehicle_type_id":"4","last_reported":1726643317,"current_range_meters":39200,"station_id":"ce4bhbh2rcd13ifvqeo0","pricing_plan_id":"cebpf4jnsgd1na2vs0mg"},{"bike_id":"2f0e506d-69bb-46ee-8f71-e278d04f0c3f","system_id":"levelo_inurba_marseille","lat":43.25936,"lon":5.40906,"is_reserved":false,"is_disabled":false,"rental_uris":{"android":"levelo://app?vid=2f0e506d-69bb-46ee-8f71-e278d04f0c3f","ios":"levelo://app?vid=2f0e506d-69bb-46ee-8f71-e278d04f0c3f"},"vehicle_type_id":"4","last_reported":1726643317,"current_range_meters":33600,"station_id":"ce4bhm92rcd13ifvqglg","pricing_plan_id":"cebpf4jnsgd1na2vs0mg"},{"bike_id":"00e75aa4-679c-42d6-be48-906ec2eca445","system_id":"levelo_inurba_marseille","lat":43.30535,"lon":5.36551,"is_reserved":false,"is_disabled":false,"rental_uris":{"android":"levelo://app?vid=00e75aa4-679c-42d6-be48-906ec2eca445","ios":"levelo://app?vid=00e75aa4-679c-42d6-be48-906ec2eca445"},"vehicle_type_id":"4","last_reported":1726643317,"current_range_meters":33200,"station_id":"ce4bgs12rcd13ifvqcag","pricing_plan_id":"cebpf4jnsgd1na2vs0mg"},{"bike_id":"b1db6496-7d7b-4acc-a88c-e5406d38e100","system_id":"levelo_inurba_marseille","lat":43.23195,"lon":5.35546,"is_reserved":false,"is_disabled":false,"rental_uris":{"android":"levelo://app?vid=b1db6496-7d7b-4acc-a88c-e5406d38e100","ios":"levelo://app?vid=b1db6496-7d7b-4acc-a88c-e5406d38e100"},"vehicle_type_id":"4","last_reported":1726643317,"current_range_meters":24000,"station_id":"ce4bhu92rcd13ifvqi70","pricing_plan_id":"cebpf4jnsgd1na2vs0mg"},{"bike_id":"d2e41afa-cdb1-4281-adbb-7f02b04acc69","system_id":"levelo_inurba_marseille","lat":43.24079,"lon":5.37753,"is_reserved":false,"is_disabled":false,"rental_uris":{"android":"levelo://app?vid=d2e41afa-cdb1-4281-adbb-7f02b04acc69","ios":"levelo://app?vid=d2e41afa-cdb1-4281-adbb-7f02b04acc69"},"vehicle_type_id":"4","last_reported":1726643317,"current_range_meters":28800,"station_id":"ce4bhnp2rcd13ifvqgvg","pricing_plan_id":"cebpf4jnsgd1na2vs0mg"},{"bike_id":"c5dd8dba-78b0-4c14-9935-8388ca880159","system_id":"levelo_inurba_marseille","lat":43.28353,"lon":5.38094,"is_reserved":false,"is_disabled":false,"rental_uris":{"android":"levelo://app?vid=c5dd8dba-78b0-4c14-9935-8388ca880159","ios":"levelo://app?vid=c5dd8dba-78b0-4c14-9935-8388ca880159"},"vehicle_type_id":"4","last_reported":1726643317,"current_range_meters":38800,"station_id":"ce4bh412rcd13ifvqdr0","pricing_plan_id":"cebpf4jnsgd1na2vs0mg"},{"bike_id":"f9327c09-e397-41d3-8923-d1e3214e6d11","system_id":"levelo_inurba_marseille","lat":43.292814,"lon":5.401198,"is_reserved":false,"is_disabled":false,"rental_uris":{"android":"levelo://app?vid=f9327c09-e397-41d3-8923-d1e3214e6d11","ios":"levelo://app?vid=f9327c09-e397-41d3-8923-d1e3214e6d11"},"vehicle_type_id":"4","last_reported":1726643317,"current_range_meters":28800,"station_id":"ce4bhap2rcd13ifvqek0","pricing_plan_id":"cebpf4jnsgd1na2vs0mg"},{"bike_id":"7a1aefa5-3f47-4fb6-b298-3120a02f47d7","system_id":"levelo_inurba_marseille","lat":43.32475,"lon":5.36577,"is_reserved":false,"is_disabled":false,"rental_uris":{"android":"levelo://app?vid=7a1aefa5-3f47-4fb6-b298-3120a02f47d7","ios":"levelo://app?vid=7a1aefa5-3f47-4fb6-b298-3120a02f47d7"},"vehicle_type_id":"4","last_reported":1726643317,"current_range_meters":36800,"station_id":"ce4bhs12rcd13ifvqhvg","pricing_plan_id":"cebpf4jnsgd1na2vs0mg"},{"bike_id":"586b389c-8df2-4427-88c1-cfb40fb755dc","system_id":"levelo_inurba_marseille","lat":43.30545,"lon":5.36535,"is_reserved":false,"is_disabled":false,"rental_uris":{"android":"levelo://app?vid=586b389c-8df2-4427-88c1-cfb40fb755dc","ios":"levelo://app?vid=586b389c-8df2-4427-88c1-cfb40fb755dc"},"vehicle_type_id":"4","last_reported":1726643317,"current_range_meters":37600,"station_id":"ce4bgs12rcd13ifvqcag","pricing_plan_id":"cebpf4jnsgd1na2vs0mg"},{"bike_id":"7bbeb921-c3ac-43bb-939d-175bfa14bedc","system_id":"levelo_inurba_marseille","lat":43.25008,"lon":5.38912,"is_reserved":false,"is_disabled":false,"rental_uris":{"android":"levelo://app?vid=7bbeb921-c3ac-43bb-939d-175bfa14bedc","ios":"levelo://app?vid=7bbeb921-c3ac-43bb-939d-175bfa14bedc"},"vehicle_type_id":"4","last_reported":1726643317,"current_range_meters":37600,"station_id":"ce4bhgp2rcd13ifvqfd0","pricing_plan_id":"cebpf4jnsgd1na2vs0mg"},{"bike_id":"1e490c7b-e360-427f-bee4-a08e58a98640","system_id":"levelo_inurba_marseille","lat":43.24076,"lon":5.37754,"is_reserved":false,"is_disabled":false,"rental_uris":{"android":"levelo://app?vid=1e490c7b-e360-427f-bee4-a08e58a98640","ios":"levelo://app?vid=1e490c7b-e360-427f-bee4-a08e58a98640"},"vehicle_type_id":"4","last_reported":1726643317,"current_range_meters":28400,"station_id":"ce4bhnp2rcd13ifvqgvg","pricing_plan_id":"cebpf4jnsgd1na2vs0mg"},{"bike_id":"806cac2a-bfa5-4b02-a061-2bb66ffe7b7a","system_id":"levelo_inurba_marseille","lat":43.30598,"lon":5.39345,"is_reserved":false,"is_disabled":false,"rental_uris":{"android":"levelo://app?vid=806cac2a-bfa5-4b02-a061-2bb66ffe7b7a","ios":"levelo://app?vid=806cac2a-bfa5-4b02-a061-2bb66ffe7b7a"},"vehicle_type_id":"4","last_reported":1726643317,"current_range_meters":39200,"station_id":"ce4bh0p2rcd13ifvqd80","pricing_plan_id":"cebpf4jnsgd1na2vs0mg"},{"bike_id":"7efadcb6-f988-4793-9d14-f592bf1672c1","system_id":"levelo_inurba_marseille","lat":43.26571,"lon":5.38999,"is_reserved":false,"is_disabled":false,"rental_uris":{"android":"levelo://app?vid=7efadcb6-f988-4793-9d14-f592bf1672c1","ios":"levelo://app?vid=7efadcb6-f988-4793-9d14-f592bf1672c1"},"vehicle_type_id":"4","last_reported":1726643317,"current_range_meters":38000,"station_id":"ce4bhe12rcd13ifvqf30","pricing_plan_id":"cebpf4jnsgd1na2vs0mg"},{"bike_id":"b645ac77-0d58-4fa9-8ad3-947af8bdb1d9","system_id":"levelo_inurba_marseille","lat":43.29892,"lon":5.43655,"is_reserved":false,"is_disabled":false,"rental_uris":{"android":"levelo://app?vid=b645ac77-0d58-4fa9-8ad3-947af8bdb1d9","ios":"levelo://app?vid=b645ac77-0d58-4fa9-8ad3-947af8bdb1d9"},"vehicle_type_id":"4","last_reported":1726643317,"current_range_meters":20000,"station_id":"ce4bhpp2rcd13ifvqhfg","pricing_plan_id":"cebpf4jnsgd1na2vs0mg"},{"bike_id":"c7d1a113-4a43-47c2-b222-3c1de571ba36","system_id":"levelo_inurba_marseille","lat":43.29281,"lon":5.37476,"is_reserved":false,"is_disabled":false,"rental_uris":{"android":"levelo://app?vid=c7d1a113-4a43-47c2-b222-3c1de571ba36","ios":"levelo://app?vid=c7d1a113-4a43-47c2-b222-3c1de571ba36"},"vehicle_type_id":"4","last_reported":1726643317,"current_range_meters":19600,"station_id":"ce4bgi12rcd13ifvqb70","pricing_plan_id":"cebpf4jnsgd1na2vs0mg"},{"bike_id":"c70646b5-0ed7-4f41-b696-bc25c65851c4","system_id":"levelo_inurba_marseille","lat":43.25933,"lon":5.40913,"is_reserved":false,"is_disabled":false,"rental_uris":{"android":"levelo://app?vid=c70646b5-0ed7-4f41-b696-bc25c65851c4","ios":"levelo://app?vid=c70646b5-0ed7-4f41-b696-bc25c65851c4"},"vehicle_type_id":"4","last_reported":1726643317,"current_range_meters":8400,"station_id":"ce4bhm92rcd13ifvqglg","pricing_plan_id":"cebpf4jnsgd1na2vs0mg"},{"bike_id":"80309080-224d-4802-807c-89cffe1685bc","system_id":"levelo_inurba_marseille","lat":43.28351,"lon":5.38109,"is_reserved":false,"is_disabled":false,"rental_uris":{"android":"levelo://app?vid=80309080-224d-4802-807c-89cffe1685bc","ios":"levelo://app?vid=80309080-224d-4802-807c-89cffe1685bc"},"vehicle_type_id":"4","last_reported":1726643317,"current_range_meters":20000,"station_id":"ce4bh412rcd13ifvqdr0","pricing_plan_id":"cebpf4jnsgd1na2vs0mg"},{"bike_id":"ab927be6-8eda-4b1e-8888-f5462fc7dbdd","system_id":"levelo_inurba_marseille","lat":43.31349,"lon":5.36723,"is_reserved":false,"is_disabled":false,"rental_uris":{"android":"levelo://app?vid=ab927be6-8eda-4b1e-8888-f5462fc7dbdd","ios":"levelo://app?vid=ab927be6-8eda-4b1e-8888-f5462fc7dbdd"},"vehicle_type_id":"4","last_reported":1726643317,"current_range_meters":19200,"station_id":"ce4bgr92rcd13ifvqc6g","pricing_plan_id":"cebpf4jnsgd1na2vs0mg"},{"bike_id":"2821bd5e-f2cc-464c-a98c-3e36c986cc0e","system_id":"levelo_inurba_marseille","lat":43.25934,"lon":5.4091,"is_reserved":false,"is_disabled":false,"rental_uris":{"android":"levelo://app?vid=2821bd5e-f2cc-464c-a98c-3e36c986cc0e","ios":"levelo://app?vid=2821bd5e-f2cc-464c-a98c-3e36c986cc0e"},"vehicle_type_id":"4","last_reported":1726643317,"current_range_meters":36400,"station_id":"ce4bhm92rcd13ifvqglg","pricing_plan_id":"cebpf4jnsgd1na2vs0mg"},{"bike_id":"e712a7cb-d76a-4dcd-b3a5-9055e5eca858","system_id":"levelo_inurba_marseille","lat":43.30471,"lon":5.37893,"is_reserved":false,"is_disabled":false,"rental_uris":{"android":"levelo://app?vid=e712a7cb-d76a-4dcd-b3a5-9055e5eca858","ios":"levelo://app?vid=e712a7cb-d76a-4dcd-b3a5-9055e5eca858"},"vehicle_type_id":"4","last_reported":1726643317,"current_range_meters":38400,"station_id":"ce4bgup2rcd13ifvqcn0","pricing_plan_id":"cebpf4jnsgd1na2vs0mg"},{"bike_id":"8ceb5aea-b40e-4dad-98b0-1dcabb72c74a","system_id":"levelo_inurba_marseille","lat":43.32286,"lon":5.38268,"is_reserved":false,"is_disabled":false,"rental_uris":{"android":"levelo://app?vid=8ceb5aea-b40e-4dad-98b0-1dcabb72c74a","ios":"levelo://app?vid=8ceb5aea-b40e-4dad-98b0-1dcabb72c74a"},"vehicle_type_id":"4","last_reported":1726643317,"current_range_meters":27200,"station_id":"ce4bhr12rcd13ifvqhqg","pricing_plan_id":"cebpf4jnsgd1na2vs0mg"},{"bike_id":"1433a10c-9f4f-46c9-9fb4-2c8ee9ba7ffa","system_id":"levelo_inurba_marseille","lat":43.23151,"lon":5.43715,"is_reserved":false,"is_disabled":false,"rental_uris":{"android":"levelo://app?vid=1433a10c-9f4f-46c9-9fb4-2c8ee9ba7ffa","ios":"levelo://app?vid=1433a10c-9f4f-46c9-9fb4-2c8ee9ba7ffa"},"vehicle_type_id":"4","last_reported":1726643317,"current_range_meters":10800,"station_id":"ce4bhmp2rcd13ifvqgog","pricing_plan_id":"cebpf4jnsgd1na2vs0mg"},{"bike_id":"35f6569d-8dcd-4ab5-a8c1-26d92b7ae670","system_id":"levelo_inurba_marseille","lat":43.29368,"lon":5.37874,"is_reserved":false,"is_disabled":false,"rental_uris":{"android":"levelo://app?vid=35f6569d-8dcd-4ab5-a8c1-26d92b7ae670","ios":"levelo://app?vid=35f6569d-8dcd-4ab5-a8c1-26d92b7ae670"},"vehicle_type_id":"4","last_reported":1726643317,"current_range_meters":38400,"station_id":"ce4bgjh2rcd13ifvqbf0","pricing_plan_id":"cebpf4jnsgd1na2vs0mg"},{"bike_id":"677498c9-746b-4650-9a8e-2c7479635944","system_id":"levelo_inurba_marseille","lat":43.33023,"lon":5.3905,"is_reserved":false,"is_disabled":false,"rental_uris":{"android":"levelo://app?vid=677498c9-746b-4650-9a8e-2c7479635944","ios":"levelo://app?vid=677498c9-746b-4650-9a8e-2c7479635944"},"vehicle_type_id":"4","last_reported":1726643317,"current_range_meters":16800,"station_id":"ce4bhr92rcd13ifvqhrg","pricing_plan_id":"cebpf4jnsgd1na2vs0mg"},{"bike_id":"f1d5fd6f-187c-422a-b9c6-ecbfebc9a134","system_id":"levelo_inurba_marseille","lat":43.2418,"lon":5.39732,"is_reserved":false,"is_disabled":false,"rental_uris":{"android":"levelo://app?vid=f1d5fd6f-187c-422a-b9c6-ecbfebc9a134","ios":"levelo://app?vid=f1d5fd6f-187c-422a-b9c6-ecbfebc9a134"},"vehicle_type_id":"4","last_reported":1726643317,"current_range_meters":4000,"station_id":"ce4bhn12rcd13ifvqgpg","pricing_plan_id":"cebpf4jnsgd1na2vs0mg"},{"bike_id":"2b6686af-adcb-4f0c-b71f-73fe9b9a5c36","system_id":"levelo_inurba_marseille","lat":43.3415,"lon":5.40897,"is_reserved":false,"is_disabled":false,"rental_uris":{"android":"levelo://app?vid=2b6686af-adcb-4f0c-b71f-73fe9b9a5c36","ios":"levelo://app?vid=2b6686af-adcb-4f0c-b71f-73fe9b9a5c36"},"vehicle_type_id":"4","last_reported":1726643317,"current_range_meters":38400,"station_id":"ce4bhqh2rcd13ifvqhlg","pricing_plan_id":"cebpf4jnsgd1na2vs0mg"},{"bike_id":"1d0e82e0-c627-46a9-9900-72456a2e4f58","system_id":"levelo_inurba_marseille","lat":43.24076,"lon":5.37759,"is_reserved":false,"is_disabled":false,"rental_uris":{"android":"levelo://app?vid=1d0e82e0-c627-46a9-9900-72456a2e4f58","ios":"levelo://app?vid=1d0e82e0-c627-46a9-9900-72456a2e4f58"},"vehicle_type_id":"4","last_reported":1726643317,"current_range_meters":36800,"station_id":"ce4bhnp2rcd13ifvqgvg","pricing_plan_id":"cebpf4jnsgd1na2vs0mg"},{"bike_id":"0a90983e-e0da-4a21-b2b5-e81e1d512719","system_id":"levelo_inurba_marseille","lat":43.32364,"lon":5.38877,"is_reserved":false,"is_disabled":false,"rental_uris":{"android":"levelo://app?vid=0a90983e-e0da-4a21-b2b5-e81e1d512719","ios":"levelo://app?vid=0a90983e-e0da-4a21-b2b5-e81e1d512719"},"vehicle_type_id":"4","last_reported":1726643317,"current_range_meters":20000,"station_id":"ce4bhqp2rcd13ifvqhog","pricing_plan_id":"cebpf4jnsgd1na2vs0mg"},{"bike_id":"1e93cb79-1aaf-4438-84c7-042ca661621c","system_id":"levelo_inurba_marseille","lat":43.31535,"lon":5.38025,"is_reserved":false,"is_disabled":false,"rental_uris":{"android":"levelo://app?vid=1e93cb79-1aaf-4438-84c7-042ca661621c","ios":"levelo://app?vid=1e93cb79-1aaf-4438-84c7-042ca661621c"},"vehicle_type_id":"4","last_reported":1726643317,"current_range_meters":10800,"station_id":"ce4bhsp2rcd13ifvqi50","pricing_plan_id":"cebpf4jnsgd1na2vs0mg"},{"bike_id":"f6c738da-8313-4c11-b9e7-c1d7fc004296","system_id":"levelo_inurba_marseille","lat":43.26024,"lon":5.3755,"is_reserved":false,"is_disabled":false,"rental_uris":{"android":"levelo://app?vid=f6c738da-8313-4c11-b9e7-c1d7fc004296","ios":"levelo://app?vid=f6c738da-8313-4c11-b9e7-c1d7fc004296"},"vehicle_type_id":"4","last_reported":1726643317,"current_range_meters":36800,"station_id":"ce4bhgh2rcd13ifvqfa0","pricing_plan_id":"cebpf4jnsgd1na2vs0mg"},{"bike_id":"edcb7831-5f93-4381-9cdb-bf2cddba3298","system_id":"levelo_inurba_marseille","lat":43.26682,"lon":5.38264,"is_reserved":false,"is_disabled":false,"rental_uris":{"android":"levelo://app?vid=edcb7831-5f93-4381-9cdb-bf2cddba3298","ios":"levelo://app?vid=edcb7831-5f93-4381-9cdb-bf2cddba3298"},"vehicle_type_id":"4","last_reported":1726643317,"current_range_meters":28000,"station_id":"ce4bhg92rcd13ifvqf90","pricing_plan_id":"cebpf4jnsgd1na2vs0mg"},{"bike_id":"bcb33083-1a8a-4e5d-a272-19b5e582fe86","system_id":"levelo_inurba_marseille","lat":43.29605,"lon":5.37725,"is_reserved":false,"is_disabled":false,"rental_uris":{"android":"levelo://app?vid=bcb33083-1a8a-4e5d-a272-19b5e582fe86","ios":"levelo://app?vid=bcb33083-1a8a-4e5d-a272-19b5e582fe86"},"vehicle_type_id":"4","last_reported":1726643317,"current_range_meters":38800,"station_id":"ce4bgi92rcd13ifvqb90","pricing_plan_id":"cebpf4jnsgd1na2vs0mg"},{"bike_id":"fd35cf2e-3b78-417d-ae61-fa4063a3900a","system_id":"levelo_inurba_marseille","lat":43.30909,"lon":5.36846,"is_reserved":false,"is_disabled":false,"rental_uris":{"android":"levelo://app?vid=fd35cf2e-3b78-417d-ae61-fa4063a3900a","ios":"levelo://app?vid=fd35cf2e-3b78-417d-ae61-fa4063a3900a"},"vehicle_type_id":"4","last_reported":1726643317,"current_range_meters":18000,"station_id":"ce4bgn92rcd13ifvqbvg","pricing_plan_id":"cebpf4jnsgd1na2vs0mg"},{"bike_id":"1db933e7-2ca6-4628-b7bb-c85d76d77ba6","system_id":"levelo_inurba_marseille","lat":43.26955,"lon":5.38632,"is_reserved":false,"is_disabled":false,"rental_uris":{"android":"levelo://app?vid=1db933e7-2ca6-4628-b7bb-c85d76d77ba6","ios":"levelo://app?vid=1db933e7-2ca6-4628-b7bb-c85d76d77ba6"},"vehicle_type_id":"4","last_reported":1726643317,"current_range_meters":38000,"station_id":"ce4bhh92rcd13ifvqfh0","pricing_plan_id":"cebpf4jnsgd1na2vs0mg"},{"bike_id":"8746bc86-84bc-469d-bc9c-452476199d12","system_id":"levelo_inurba_marseille","lat":43.26957,"lon":5.38619,"is_reserved":false,"is_disabled":false,"rental_uris":{"android":"levelo://app?vid=8746bc86-84bc-469d-bc9c-452476199d12","ios":"levelo://app?vid=8746bc86-84bc-469d-bc9c-452476199d12"},"vehicle_type_id":"4","last_reported":1726643317,"current_range_meters":38000,"station_id":"ce4bhh92rcd13ifvqfh0","pricing_plan_id":"cebpf4jnsgd1na2vs0mg"},{"bike_id":"3f0f49b2-7b9f-4f81-9b92-02cf815ca1d4","system_id":"levelo_inurba_marseille","lat":43.30471,"lon":5.37901,"is_reserved":false,"is_disabled":false,"rental_uris":{"android":"levelo://app?vid=3f0f49b2-7b9f-4f81-9b92-02cf815ca1d4","ios":"levelo://app?vid=3f0f49b2-7b9f-4f81-9b92-02cf815ca1d4"},"vehicle_type_id":"4","last_reported":1726643317,"current_range_meters":37600,"station_id":"ce4bgup2rcd13ifvqcn0","pricing_plan_id":"cebpf4jnsgd1na2vs0mg"},{"bike_id":"f99a26d4-ce77-4c99-a12c-213f1654df1a","system_id":"levelo_inurba_marseille","lat":43.25004,"lon":5.38923,"is_reserved":false,"is_disabled":false,"rental_uris":{"android":"levelo://app?vid=f99a26d4-ce77-4c99-a12c-213f1654df1a","ios":"levelo://app?vid=f99a26d4-ce77-4c99-a12c-213f1654df1a"},"vehicle_type_id":"4","last_reported":1726643317,"current_range_meters":2800,"station_id":"ce4bhgp2rcd13ifvqfd0","pricing_plan_id":"cebpf4jnsgd1na2vs0mg"},{"bike_id":"f7f3e2a5-0c68-4eb6-bd2e-bcd5fb09951d","system_id":"levelo_inurba_marseille","lat":43.32548,"lon":5.41482,"is_reserved":false,"is_disabled":false,"rental_uris":{"android":"levelo://app?vid=f7f3e2a5-0c68-4eb6-bd2e-bcd5fb09951d","ios":"levelo://app?vid=f7f3e2a5-0c68-4eb6-bd2e-bcd5fb09951d"},"vehicle_type_id":"4","last_reported":1726643317,"current_range_meters":26800,"station_id":"ce4bhq12rcd13ifvqhhg","pricing_plan_id":"cebpf4jnsgd1na2vs0mg"},{"bike_id":"27d26bc0-3372-4d24-875d-c5a8176529bb","system_id":"levelo_inurba_marseille","lat":43.314816,"lon":5.373157,"is_reserved":false,"is_disabled":false,"rental_uris":{"android":"levelo://app?vid=27d26bc0-3372-4d24-875d-c5a8176529bb","ios":"levelo://app?vid=27d26bc0-3372-4d24-875d-c5a8176529bb"},"vehicle_type_id":"4","last_reported":1726643317,"current_range_meters":2800,"station_id":"ce4bgt12rcd13ifvqcd0","pricing_plan_id":"cebpf4jnsgd1na2vs0mg"},{"bike_id":"aa09c77d-abbe-478f-bfc6-6304c22e8bd5","system_id":"levelo_inurba_marseille","lat":43.29366,"lon":5.3784,"is_reserved":false,"is_disabled":false,"rental_uris":{"android":"levelo://app?vid=aa09c77d-abbe-478f-bfc6-6304c22e8bd5","ios":"levelo://app?vid=aa09c77d-abbe-478f-bfc6-6304c22e8bd5"},"vehicle_type_id":"4","last_reported":1726643317,"current_range_meters":35600,"station_id":"ce4bgjh2rcd13ifvqbf0","pricing_plan_id":"cebpf4jnsgd1na2vs0mg"},{"bike_id":"8b19c6f3-79be-43b7-87ad-122a67033fdc","system_id":"levelo_inurba_marseille","lat":43.30467,"lon":5.37904,"is_reserved":false,"is_disabled":false,"rental_uris":{"android":"levelo://app?vid=8b19c6f3-79be-43b7-87ad-122a67033fdc","ios":"levelo://app?vid=8b19c6f3-79be-43b7-87ad-122a67033fdc"},"vehicle_type_id":"4","last_reported":1726643317,"current_range_meters":32400,"station_id":"ce4bgup2rcd13ifvqcn0","pricing_plan_id":"cebpf4jnsgd1na2vs0mg"},{"bike_id":"9dbc1275-dff3-4f6f-ac47-2da20b7eaced","system_id":"levelo_inurba_marseille","lat":43.24076,"lon":5.37753,"is_reserved":false,"is_disabled":false,"rental_uris":{"android":"levelo://app?vid=9dbc1275-dff3-4f6f-ac47-2da20b7eaced","ios":"levelo://app?vid=9dbc1275-dff3-4f6f-ac47-2da20b7eaced"},"vehicle_type_id":"4","last_reported":1726643317,"current_range_meters":37600,"station_id":"ce4bhnp2rcd13ifvqgvg","pricing_plan_id":"cebpf4jnsgd1na2vs0mg"},{"bike_id":"af15b34b-0a1b-4f05-9975-d29c112ecf5a","system_id":"levelo_inurba_marseille","lat":43.26549,"lon":5.37287,"is_reserved":false,"is_disabled":false,"rental_uris":{"android":"levelo://app?vid=af15b34b-0a1b-4f05-9975-d29c112ecf5a","ios":"levelo://app?vid=af15b34b-0a1b-4f05-9975-d29c112ecf5a"},"vehicle_type_id":"4","last_reported":1726643317,"current_range_meters":35200,"station_id":"ce4bhg12rcd13ifvqf70","pricing_plan_id":"cebpf4jnsgd1na2vs0mg"},{"bike_id":"99684f50-b398-427b-a4e9-7ca0a0382c79","system_id":"levelo_inurba_marseille","lat":43.23195,"lon":5.35552,"is_reserved":false,"is_disabled":false,"rental_uris":{"android":"levelo://app?vid=99684f50-b398-427b-a4e9-7ca0a0382c79","ios":"levelo://app?vid=99684f50-b398-427b-a4e9-7ca0a0382c79"},"vehicle_type_id":"4","last_reported":1726643317,"current_range_meters":39200,"station_id":"ce4bhu92rcd13ifvqi70","pricing_plan_id":"cebpf4jnsgd1na2vs0mg"},{"bike_id":"004161ea-2444-4d2f-bb89-87c083836a64","system_id":"levelo_inurba_marseille","lat":43.25933,"lon":5.40906,"is_reserved":false,"is_disabled":false,"rental_uris":{"android":"levelo://app?vid=004161ea-2444-4d2f-bb89-87c083836a64","ios":"levelo://app?vid=004161ea-2444-4d2f-bb89-87c083836a64"},"vehicle_type_id":"4","last_reported":1726643317,"current_range_meters":33200,"station_id":"ce4bhm92rcd13ifvqglg","pricing_plan_id":"cebpf4jnsgd1na2vs0mg"},{"bike_id":"d782c430-b2c7-45ce-aaaf-78dc9a80ca97","system_id":"levelo_inurba_marseille","lat":43.33028,"lon":5.39045,"is_reserved":false,"is_disabled":false,"rental_uris":{"android":"levelo://app?vid=d782c430-b2c7-45ce-aaaf-78dc9a80ca97","ios":"levelo://app?vid=d782c430-b2c7-45ce-aaaf-78dc9a80ca97"},"vehicle_type_id":"4","last_reported":1726643317,"current_range_meters":25600,"station_id":"ce4bhr92rcd13ifvqhrg","pricing_plan_id":"cebpf4jnsgd1na2vs0mg"},{"bike_id":"0eeaef0e-62e6-41dc-9054-d7f222173449","system_id":"levelo_inurba_marseille","lat":43.32539,"lon":5.41436,"is_reserved":false,"is_disabled":false,"rental_uris":{"android":"levelo://app?vid=0eeaef0e-62e6-41dc-9054-d7f222173449","ios":"levelo://app?vid=0eeaef0e-62e6-41dc-9054-d7f222173449"},"vehicle_type_id":"4","last_reported":1726643317,"current_range_meters":16800,"station_id":"ce4bhq12rcd13ifvqhhg","pricing_plan_id":"cebpf4jnsgd1na2vs0mg"},{"bike_id":"10e661a4-1b9c-45dd-a5c1-0e2e4d980a7e","system_id":"levelo_inurba_marseille","lat":43.31897,"lon":5.40716,"is_reserved":false,"is_disabled":false,"rental_uris":{"android":"levelo://app?vid=10e661a4-1b9c-45dd-a5c1-0e2e4d980a7e","ios":"levelo://app?vid=10e661a4-1b9c-45dd-a5c1-0e2e4d980a7e"},"vehicle_type_id":"4","last_reported":1726643317,"current_range_meters":33600,"station_id":"ce4bhq12rcd13ifvqhig","pricing_plan_id":"cebpf4jnsgd1na2vs0mg"},{"bike_id":"8903f4ef-48ce-46af-9247-c84df1839bc1","system_id":"levelo_inurba_marseille","lat":43.30478,"lon":5.37905,"is_reserved":false,"is_disabled":false,"rental_uris":{"android":"levelo://app?vid=8903f4ef-48ce-46af-9247-c84df1839bc1","ios":"levelo://app?vid=8903f4ef-48ce-46af-9247-c84df1839bc1"},"vehicle_type_id":"4","last_reported":1726643317,"current_range_meters":34800,"station_id":"ce4bgup2rcd13ifvqcn0","pricing_plan_id":"cebpf4jnsgd1na2vs0mg"},{"bike_id":"2b714e73-49f8-4f26-bb6d-7d72ce23aabc","system_id":"levelo_inurba_marseille","lat":43.23052,"lon":5.3549,"is_reserved":false,"is_disabled":false,"rental_uris":{"android":"levelo://app?vid=2b714e73-49f8-4f26-bb6d-7d72ce23aabc","ios":"levelo://app?vid=2b714e73-49f8-4f26-bb6d-7d72ce23aabc"},"vehicle_type_id":"4","last_reported":1726643317,"current_range_meters":8800,"station_id":"cpo3342slgdg3j2ifvpg","pricing_plan_id":"cebpf4jnsgd1na2vs0mg"},{"bike_id":"08517893-63cf-43d9-88aa-3c89b83ce921","system_id":"levelo_inurba_marseille","lat":43.32476,"lon":5.36544,"is_reserved":false,"is_disabled":false,"rental_uris":{"android":"levelo://app?vid=08517893-63cf-43d9-88aa-3c89b83ce921","ios":"levelo://app?vid=08517893-63cf-43d9-88aa-3c89b83ce921"},"vehicle_type_id":"4","last_reported":1726643317,"current_range_meters":39200,"station_id":"ce4bhs12rcd13ifvqhvg","pricing_plan_id":"cebpf4jnsgd1na2vs0mg"},{"bike_id":"23b661e7-91d5-4597-9542-7d849264e4ee","system_id":"levelo_inurba_marseille","lat":43.29985,"lon":5.37191,"is_reserved":false,"is_disabled":false,"rental_uris":{"android":"levelo://app?vid=23b661e7-91d5-4597-9542-7d849264e4ee","ios":"levelo://app?vid=23b661e7-91d5-4597-9542-7d849264e4ee"},"vehicle_type_id":"4","last_reported":1726643317,"current_range_meters":32800,"station_id":"ce4bgr92rcd13ifvqc7g","pricing_plan_id":"cebpf4jnsgd1na2vs0mg"},{"bike_id":"254be443-d968-4d66-9923-e7b0733a451f","system_id":"levelo_inurba_marseille","lat":43.30558,"lon":5.36688,"is_reserved":false,"is_disabled":false,"rental_uris":{"android":"levelo://app?vid=254be443-d968-4d66-9923-e7b0733a451f","ios":"levelo://app?vid=254be443-d968-4d66-9923-e7b0733a451f"},"vehicle_type_id":"4","last_reported":1726643317,"current_range_meters":39200,"station_id":"ce4bgrp2rcd13ifvqc9g","pricing_plan_id":"cebpf4jnsgd1na2vs0mg"},{"bike_id":"459391a2-7378-4a0b-9a46-bad263ec195c","system_id":"levelo_inurba_marseille","lat":43.31535,"lon":5.38023,"is_reserved":false,"is_disabled":false,"rental_uris":{"android":"levelo://app?vid=459391a2-7378-4a0b-9a46-bad263ec195c","ios":"levelo://app?vid=459391a2-7378-4a0b-9a46-bad263ec195c"},"vehicle_type_id":"4","last_reported":1726643317,"current_range_meters":37600,"station_id":"ce4bhsp2rcd13ifvqi50","pricing_plan_id":"cebpf4jnsgd1na2vs0mg"},{"bike_id":"8b9810ec-eb8f-4062-84f1-d58c3b0311fa","system_id":"levelo_inurba_marseille","lat":43.30479,"lon":5.37909,"is_reserved":false,"is_disabled":false,"rental_uris":{"android":"levelo://app?vid=8b9810ec-eb8f-4062-84f1-d58c3b0311fa","ios":"levelo://app?vid=8b9810ec-eb8f-4062-84f1-d58c3b0311fa"},"vehicle_type_id":"4","last_reported":1726643317,"current_range_meters":12800,"station_id":"ce4bgup2rcd13ifvqcn0","pricing_plan_id":"cebpf4jnsgd1na2vs0mg"},{"bike_id":"3fd74174-16c9-4c30-b4c8-3922b7c6cbc8","system_id":"levelo_inurba_marseille","lat":43.24071,"lon":5.37761,"is_reserved":false,"is_disabled":false,"rental_uris":{"android":"levelo://app?vid=3fd74174-16c9-4c30-b4c8-3922b7c6cbc8","ios":"levelo://app?vid=3fd74174-16c9-4c30-b4c8-3922b7c6cbc8"},"vehicle_type_id":"4","last_reported":1726643317,"current_range_meters":7200,"station_id":"ce4bhnp2rcd13ifvqgvg","pricing_plan_id":"cebpf4jnsgd1na2vs0mg"},{"bike_id":"33f69f3f-8823-49c1-90ed-ec30bb04d814","system_id":"levelo_inurba_marseille","lat":43.24073,"lon":5.37758,"is_reserved":false,"is_disabled":false,"rental_uris":{"android":"levelo://app?vid=33f69f3f-8823-49c1-90ed-ec30bb04d814","ios":"levelo://app?vid=33f69f3f-8823-49c1-90ed-ec30bb04d814"},"vehicle_type_id":"4","last_reported":1726643317,"current_range_meters":37600,"station_id":"ce4bhnp2rcd13ifvqgvg","pricing_plan_id":"cebpf4jnsgd1na2vs0mg"},{"bike_id":"76d439c6-f9f7-40ab-a273-41f85ec9da3c","system_id":"levelo_inurba_marseille","lat":43.27987,"lon":5.41658,"is_reserved":false,"is_disabled":false,"rental_uris":{"android":"levelo://app?vid=76d439c6-f9f7-40ab-a273-41f85ec9da3c","ios":"levelo://app?vid=76d439c6-f9f7-40ab-a273-41f85ec9da3c"},"vehicle_type_id":"4","last_reported":1726643317,"current_range_meters":22800,"station_id":"ce4bho12rcd13ifvqh1g","pricing_plan_id":"cebpf4jnsgd1na2vs0mg"},{"bike_id":"e8befb56-1303-484d-9ed5-cb1654ca2bd2","system_id":"levelo_inurba_marseille","lat":43.2396,"lon":5.3663,"is_reserved":false,"is_disabled":false,"rental_uris":{"android":"levelo://app?vid=e8befb56-1303-484d-9ed5-cb1654ca2bd2","ios":"levelo://app?vid=e8befb56-1303-484d-9ed5-cb1654ca2bd2"},"vehicle_type_id":"4","last_reported":1726643317,"current_range_meters":37600,"station_id":"ce4bhi12rcd13ifvqfp0","pricing_plan_id":"cebpf4jnsgd1na2vs0mg"},{"bike_id":"2e4c0d1a-a4a2-40d5-9c70-26993c46a5f6","system_id":"levelo_inurba_marseille","lat":43.23214,"lon":5.35579,"is_reserved":false,"is_disabled":false,"rental_uris":{"android":"levelo://app?vid=2e4c0d1a-a4a2-40d5-9c70-26993c46a5f6","ios":"levelo://app?vid=2e4c0d1a-a4a2-40d5-9c70-26993c46a5f6"},"vehicle_type_id":"4","last_reported":1726643317,"current_range_meters":37600,"station_id":"ce4bhu92rcd13ifvqi70","pricing_plan_id":"cebpf4jnsgd1na2vs0mg"},{"bike_id":"958449e7-c04e-436e-8df1-ce8f4b95ef8f","system_id":"levelo_inurba_marseille","lat":43.29552,"lon":5.42298,"is_reserved":false,"is_disabled":false,"rental_uris":{"android":"levelo://app?vid=958449e7-c04e-436e-8df1-ce8f4b95ef8f","ios":"levelo://app?vid=958449e7-c04e-436e-8df1-ce8f4b95ef8f"},"vehicle_type_id":"4","last_reported":1726643317,"current_range_meters":14800,"station_id":"ce4bhph2rcd13ifvqhdg","pricing_plan_id":"cebpf4jnsgd1na2vs0mg"},{"bike_id":"03194731-c663-4f08-8359-4624ba26913a","system_id":"levelo_inurba_marseille","lat":43.31344,"lon":5.36717,"is_reserved":false,"is_disabled":false,"rental_uris":{"android":"levelo://app?vid=03194731-c663-4f08-8359-4624ba26913a","ios":"levelo://app?vid=03194731-c663-4f08-8359-4624ba26913a"},"vehicle_type_id":"4","last_reported":1726643317,"current_range_meters":33600,"station_id":"ce4bgr92rcd13ifvqc6g","pricing_plan_id":"cebpf4jnsgd1na2vs0mg"},{"bike_id":"21084f93-3279-4437-98bc-21d82c8332a5","system_id":"levelo_inurba_marseille","lat":43.30913,"lon":5.36852,"is_reserved":false,"is_disabled":false,"rental_uris":{"android":"levelo://app?vid=21084f93-3279-4437-98bc-21d82c8332a5","ios":"levelo://app?vid=21084f93-3279-4437-98bc-21d82c8332a5"},"vehicle_type_id":"4","last_reported":1726643317,"current_range_meters":24400,"station_id":"ce4bgn92rcd13ifvqbvg","pricing_plan_id":"cebpf4jnsgd1na2vs0mg"},{"bike_id":"2f37ef94-5409-4742-b1ed-093f576892e3","system_id":"levelo_inurba_marseille","lat":43.28353,"lon":5.38634,"is_reserved":false,"is_disabled":false,"rental_uris":{"android":"levelo://app?vid=2f37ef94-5409-4742-b1ed-093f576892e3","ios":"levelo://app?vid=2f37ef94-5409-4742-b1ed-093f576892e3"},"vehicle_type_id":"4","last_reported":1726643317,"current_range_meters":29600,"station_id":"ce4bh492rcd13ifvqdvg","pricing_plan_id":"cebpf4jnsgd1na2vs0mg"},{"bike_id":"60f77d8c-b647-4452-a0e2-2c5b42e24646","system_id":"levelo_inurba_marseille","lat":43.25938,"lon":5.40903,"is_reserved":false,"is_disabled":false,"rental_uris":{"android":"levelo://app?vid=60f77d8c-b647-4452-a0e2-2c5b42e24646","ios":"levelo://app?vid=60f77d8c-b647-4452-a0e2-2c5b42e24646"},"vehicle_type_id":"4","last_reported":1726643317,"current_range_meters":32400,"station_id":"ce4bhm92rcd13ifvqglg","pricing_plan_id":"cebpf4jnsgd1na2vs0mg"},{"bike_id":"4e2c2699-3b3a-4d93-8b4c-cf2922b45c99","system_id":"levelo_inurba_marseille","lat":43.24078,"lon":5.3775,"is_reserved":false,"is_disabled":false,"rental_uris":{"android":"levelo://app?vid=4e2c2699-3b3a-4d93-8b4c-cf2922b45c99","ios":"levelo://app?vid=4e2c2699-3b3a-4d93-8b4c-cf2922b45c99"},"vehicle_type_id":"4","last_reported":1726643317,"current_range_meters":29600,"station_id":"ce4bhnp2rcd13ifvqgvg","pricing_plan_id":"cebpf4jnsgd1na2vs0mg"},{"bike_id":"11844f37-ec33-42cb-8263-5f2bde8f61a0","system_id":"levelo_inurba_marseille","lat":43.31704,"lon":5.40462,"is_reserved":false,"is_disabled":false,"rental_uris":{"android":"levelo://app?vid=11844f37-ec33-42cb-8263-5f2bde8f61a0","ios":"levelo://app?vid=11844f37-ec33-42cb-8263-5f2bde8f61a0"},"vehicle_type_id":"4","last_reported":1726643317,"current_range_meters":12400,"station_id":"ce4bh012rcd13ifvqd00","pricing_plan_id":"cebpf4jnsgd1na2vs0mg"},{"bike_id":"c3c66152-4cc7-4227-88b4-4aaa5885cbf1","system_id":"levelo_inurba_marseille","lat":43.30468,"lon":5.37905,"is_reserved":false,"is_disabled":false,"rental_uris":{"android":"levelo://app?vid=c3c66152-4cc7-4227-88b4-4aaa5885cbf1","ios":"levelo://app?vid=c3c66152-4cc7-4227-88b4-4aaa5885cbf1"},"vehicle_type_id":"4","last_reported":1726643317,"current_range_meters":38000,"station_id":"ce4bgup2rcd13ifvqcn0","pricing_plan_id":"cebpf4jnsgd1na2vs0mg"},{"bike_id":"2d0868ea-7d73-47b4-9f65-41ad570bd40a","system_id":"levelo_inurba_marseille","lat":43.30148,"lon":5.3808,"is_reserved":false,"is_disabled":false,"rental_uris":{"android":"levelo://app?vid=2d0868ea-7d73-47b4-9f65-41ad570bd40a","ios":"levelo://app?vid=2d0868ea-7d73-47b4-9f65-41ad570bd40a"},"vehicle_type_id":"4","last_reported":1726643317,"current_range_meters":24000,"station_id":"ce4bgjp2rcd13ifvqbh0","pricing_plan_id":"cebpf4jnsgd1na2vs0mg"},{"bike_id":"d452f3de-fa85-4886-ba1d-f7b4ee934383","system_id":"levelo_inurba_marseille","lat":43.28103,"lon":5.37835,"is_reserved":false,"is_disabled":false,"rental_uris":{"android":"levelo://app?vid=d452f3de-fa85-4886-ba1d-f7b4ee934383","ios":"levelo://app?vid=d452f3de-fa85-4886-ba1d-f7b4ee934383"},"vehicle_type_id":"4","last_reported":1726643317,"current_range_meters":22400,"station_id":"ce4bha12rcd13ifvqee0","pricing_plan_id":"cebpf4jnsgd1na2vs0mg"},{"bike_id":"255def12-1a7e-4787-b2e4-a6a54888a394","system_id":"levelo_inurba_marseille","lat":43.32472,"lon":5.366,"is_reserved":false,"is_disabled":false,"rental_uris":{"android":"levelo://app?vid=255def12-1a7e-4787-b2e4-a6a54888a394","ios":"levelo://app?vid=255def12-1a7e-4787-b2e4-a6a54888a394"},"vehicle_type_id":"4","last_reported":1726643317,"current_range_meters":39200,"station_id":"ce4bhs12rcd13ifvqhvg","pricing_plan_id":"cebpf4jnsgd1na2vs0mg"},{"bike_id":"6dd17a2f-59bb-4453-859d-2c09ab795824","system_id":"levelo_inurba_marseille","lat":43.33026,"lon":5.39049,"is_reserved":false,"is_disabled":false,"rental_uris":{"android":"levelo://app?vid=6dd17a2f-59bb-4453-859d-2c09ab795824","ios":"levelo://app?vid=6dd17a2f-59bb-4453-859d-2c09ab795824"},"vehicle_type_id":"4","last_reported":1726643317,"current_range_meters":26800,"station_id":"ce4bhr92rcd13ifvqhrg","pricing_plan_id":"cebpf4jnsgd1na2vs0mg"},{"bike_id":"db3fc979-9333-49eb-869c-0b4dd335ac12","system_id":"levelo_inurba_marseille","lat":43.30476,"lon":5.379,"is_reserved":false,"is_disabled":false,"rental_uris":{"android":"levelo://app?vid=db3fc979-9333-49eb-869c-0b4dd335ac12","ios":"levelo://app?vid=db3fc979-9333-49eb-869c-0b4dd335ac12"},"vehicle_type_id":"4","last_reported":1726643317,"current_range_meters":38800,"station_id":"ce4bgup2rcd13ifvqcn0","pricing_plan_id":"cebpf4jnsgd1na2vs0mg"},{"bike_id":"333c7ce2-2d18-462f-9262-1bd6f056d7eb","system_id":"levelo_inurba_marseille","lat":43.30556,"lon":5.36537,"is_reserved":false,"is_disabled":false,"rental_uris":{"android":"levelo://app?vid=333c7ce2-2d18-462f-9262-1bd6f056d7eb","ios":"levelo://app?vid=333c7ce2-2d18-462f-9262-1bd6f056d7eb"},"vehicle_type_id":"4","last_reported":1726643317,"current_range_meters":38800,"station_id":"ce4bgs12rcd13ifvqcag","pricing_plan_id":"cebpf4jnsgd1na2vs0mg"},{"bike_id":"35977f31-cfb3-425f-987d-b6042a4e6aae","system_id":"levelo_inurba_marseille","lat":43.259399,"lon":5.409039,"is_reserved":false,"is_disabled":false,"rental_uris":{"android":"levelo://app?vid=35977f31-cfb3-425f-987d-b6042a4e6aae","ios":"levelo://app?vid=35977f31-cfb3-425f-987d-b6042a4e6aae"},"vehicle_type_id":"4","last_reported":1726643317,"current_range_meters":25200,"station_id":"ce4bhm92rcd13ifvqglg","pricing_plan_id":"cebpf4jnsgd1na2vs0mg"},{"bike_id":"24db7547-bf92-42c1-b115-69e2d82692f7","system_id":"levelo_inurba_marseille","lat":43.31214,"lon":5.36859,"is_reserved":false,"is_disabled":false,"rental_uris":{"android":"levelo://app?vid=24db7547-bf92-42c1-b115-69e2d82692f7","ios":"levelo://app?vid=24db7547-bf92-42c1-b115-69e2d82692f7"},"vehicle_type_id":"4","last_reported":1726643317,"current_range_meters":37600,"station_id":"ce4bgl92rcd13ifvqbq0","pricing_plan_id":"cebpf4jnsgd1na2vs0mg"},{"bike_id":"64fd5105-3845-4cfa-b329-1df8a6d8bed2","system_id":"levelo_inurba_marseille","lat":43.29031,"lon":5.37551,"is_reserved":false,"is_disabled":false,"rental_uris":{"android":"levelo://app?vid=64fd5105-3845-4cfa-b329-1df8a6d8bed2","ios":"levelo://app?vid=64fd5105-3845-4cfa-b329-1df8a6d8bed2"},"vehicle_type_id":"4","last_reported":1726643317,"current_range_meters":17600,"station_id":"ce4bh692rcd13ifvqe90","pricing_plan_id":"cebpf4jnsgd1na2vs0mg"},{"bike_id":"c5483938-683f-4dd8-a9d6-ebf3c734472a","system_id":"levelo_inurba_marseille","lat":43.272098,"lon":5.391819,"is_reserved":false,"is_disabled":false,"rental_uris":{"android":"levelo://app?vid=c5483938-683f-4dd8-a9d6-ebf3c734472a","ios":"levelo://app?vid=c5483938-683f-4dd8-a9d6-ebf3c734472a"},"vehicle_type_id":"4","last_reported":1726643317,"current_range_meters":36000,"station_id":"ce4bhg92rcd13ifvqf90","pricing_plan_id":"cebpf4jnsgd1na2vs0mg"},{"bike_id":"d1aafa03-562e-4084-a007-ce284996d1a9","system_id":"levelo_inurba_marseille","lat":43.33764,"lon":5.37435,"is_reserved":false,"is_disabled":false,"rental_uris":{"android":"levelo://app?vid=d1aafa03-562e-4084-a007-ce284996d1a9","ios":"levelo://app?vid=d1aafa03-562e-4084-a007-ce284996d1a9"},"vehicle_type_id":"4","last_reported":1726643317,"current_range_meters":20000,"station_id":"","pricing_plan_id":"cebpf4jnsgd1na2vs0mg"},{"bike_id":"41e6c322-5ad0-4aee-87e8-f7c73e21197f","system_id":"levelo_inurba_marseille","lat":43.26781,"lon":5.39416,"is_reserved":false,"is_disabled":false,"rental_uris":{"android":"levelo://app?vid=41e6c322-5ad0-4aee-87e8-f7c73e21197f","ios":"levelo://app?vid=41e6c322-5ad0-4aee-87e8-f7c73e21197f"},"vehicle_type_id":"4","last_reported":1726643317,"current_range_meters":34000,"station_id":"ce4bhh12rcd13ifvqfg0","pricing_plan_id":"cebpf4jnsgd1na2vs0mg"},{"bike_id":"551007eb-0d19-4212-aaad-40cf20c93b6d","system_id":"levelo_inurba_marseille","lat":43.30545,"lon":5.365568,"is_reserved":false,"is_disabled":false,"rental_uris":{"android":"levelo://app?vid=551007eb-0d19-4212-aaad-40cf20c93b6d","ios":"levelo://app?vid=551007eb-0d19-4212-aaad-40cf20c93b6d"},"vehicle_type_id":"4","last_reported":1726643317,"current_range_meters":32400,"station_id":"ce4bgs12rcd13ifvqcag","pricing_plan_id":"cebpf4jnsgd1na2vs0mg"},{"bike_id":"70fc7e83-326c-4da5-9b44-70451b78b4c2","system_id":"levelo_inurba_marseille","lat":43.32481,"lon":5.36562,"is_reserved":false,"is_disabled":false,"rental_uris":{"android":"levelo://app?vid=70fc7e83-326c-4da5-9b44-70451b78b4c2","ios":"levelo://app?vid=70fc7e83-326c-4da5-9b44-70451b78b4c2"},"vehicle_type_id":"4","last_reported":1726643317,"current_range_meters":11200,"station_id":"ce4bhs12rcd13ifvqhvg","pricing_plan_id":"cebpf4jnsgd1na2vs0mg"},{"bike_id":"7a8f5728-ecc2-4d73-9713-52f30567b5d1","system_id":"levelo_inurba_marseille","lat":43.305946,"lon":5.393612,"is_reserved":false,"is_disabled":false,"rental_uris":{"android":"levelo://app?vid=7a8f5728-ecc2-4d73-9713-52f30567b5d1","ios":"levelo://app?vid=7a8f5728-ecc2-4d73-9713-52f30567b5d1"},"vehicle_type_id":"4","last_reported":1726643317,"current_range_meters":4000,"station_id":"ce4bh0p2rcd13ifvqd80","pricing_plan_id":"cebpf4jnsgd1na2vs0mg"},{"bike_id":"d1b0f718-a844-4768-b3b3-4f5290ad0f1c","system_id":"levelo_inurba_marseille","lat":43.28347,"lon":5.381,"is_reserved":false,"is_disabled":false,"rental_uris":{"android":"levelo://app?vid=d1b0f718-a844-4768-b3b3-4f5290ad0f1c","ios":"levelo://app?vid=d1b0f718-a844-4768-b3b3-4f5290ad0f1c"},"vehicle_type_id":"4","last_reported":1726643317,"current_range_meters":2800,"station_id":"ce4bh412rcd13ifvqdr0","pricing_plan_id":"cebpf4jnsgd1na2vs0mg"},{"bike_id":"d51458f5-7695-4e6e-b2eb-f41ee3c9152c","system_id":"levelo_inurba_marseille","lat":43.30472,"lon":5.37898,"is_reserved":false,"is_disabled":false,"rental_uris":{"android":"levelo://app?vid=d51458f5-7695-4e6e-b2eb-f41ee3c9152c","ios":"levelo://app?vid=d51458f5-7695-4e6e-b2eb-f41ee3c9152c"},"vehicle_type_id":"4","last_reported":1726643317,"current_range_meters":16400,"station_id":"ce4bgup2rcd13ifvqcn0","pricing_plan_id":"cebpf4jnsgd1na2vs0mg"},{"bike_id":"40d0c5de-eabf-450c-a5c9-3e08f97f4ed3","system_id":"levelo_inurba_marseille","lat":43.26788,"lon":5.39418,"is_reserved":false,"is_disabled":false,"rental_uris":{"android":"levelo://app?vid=40d0c5de-eabf-450c-a5c9-3e08f97f4ed3","ios":"levelo://app?vid=40d0c5de-eabf-450c-a5c9-3e08f97f4ed3"},"vehicle_type_id":"4","last_reported":1726643317,"current_range_meters":24400,"station_id":"ce4bhh12rcd13ifvqfg0","pricing_plan_id":"cebpf4jnsgd1na2vs0mg"},{"bike_id":"3d8d9941-50d8-419b-82cd-e12c9b088927","system_id":"levelo_inurba_marseille","lat":43.305066,"lon":5.367223,"is_reserved":false,"is_disabled":false,"rental_uris":{"android":"levelo://app?vid=3d8d9941-50d8-419b-82cd-e12c9b088927","ios":"levelo://app?vid=3d8d9941-50d8-419b-82cd-e12c9b088927"},"vehicle_type_id":"4","last_reported":1726643317,"current_range_meters":35200,"station_id":"ce4bgrp2rcd13ifvqc9g","pricing_plan_id":"cebpf4jnsgd1na2vs0mg"},{"bike_id":"e72a53a0-f5c5-466b-a43e-c8794bf3c33c","system_id":"levelo_inurba_marseille","lat":43.25934,"lon":5.40909,"is_reserved":false,"is_disabled":false,"rental_uris":{"android":"levelo://app?vid=e72a53a0-f5c5-466b-a43e-c8794bf3c33c","ios":"levelo://app?vid=e72a53a0-f5c5-466b-a43e-c8794bf3c33c"},"vehicle_type_id":"4","last_reported":1726643317,"current_range_meters":12800,"station_id":"ce4bhm92rcd13ifvqglg","pricing_plan_id":"cebpf4jnsgd1na2vs0mg"},{"bike_id":"446b2bff-a89e-45e8-a0b9-5ba39ecd2ea0","system_id":"levelo_inurba_marseille","lat":43.27371,"lon":5.3626,"is_reserved":false,"is_disabled":false,"rental_uris":{"android":"levelo://app?vid=446b2bff-a89e-45e8-a0b9-5ba39ecd2ea0","ios":"levelo://app?vid=446b2bff-a89e-45e8-a0b9-5ba39ecd2ea0"},"vehicle_type_id":"4","last_reported":1726643317,"current_range_meters":26000,"station_id":"ce4bhbh2rcd13ifvqeo0","pricing_plan_id":"cebpf4jnsgd1na2vs0mg"},{"bike_id":"eedf8c35-9262-497b-9685-7aae28d24cfb","system_id":"levelo_inurba_marseille","lat":43.2408,"lon":5.37752,"is_reserved":false,"is_disabled":false,"rental_uris":{"android":"levelo://app?vid=eedf8c35-9262-497b-9685-7aae28d24cfb","ios":"levelo://app?vid=eedf8c35-9262-497b-9685-7aae28d24cfb"},"vehicle_type_id":"4","last_reported":1726643317,"current_range_meters":30000,"station_id":"ce4bhnp2rcd13ifvqgvg","pricing_plan_id":"cebpf4jnsgd1na2vs0mg"},{"bike_id":"71f23e23-620f-40ab-9e00-743166c16fbf","system_id":"levelo_inurba_marseille","lat":43.26956,"lon":5.38629,"is_reserved":false,"is_disabled":false,"rental_uris":{"android":"levelo://app?vid=71f23e23-620f-40ab-9e00-743166c16fbf","ios":"levelo://app?vid=71f23e23-620f-40ab-9e00-743166c16fbf"},"vehicle_type_id":"4","last_reported":1726643317,"current_range_meters":28400,"station_id":"ce4bhh92rcd13ifvqfh0","pricing_plan_id":"cebpf4jnsgd1na2vs0mg"},{"bike_id":"a42c6ce8-5aa6-4166-b2b5-cc8b756eb556","system_id":"levelo_inurba_marseille","lat":43.28862,"lon":5.35859,"is_reserved":false,"is_disabled":false,"rental_uris":{"android":"levelo://app?vid=a42c6ce8-5aa6-4166-b2b5-cc8b756eb556","ios":"levelo://app?vid=a42c6ce8-5aa6-4166-b2b5-cc8b756eb556"},"vehicle_type_id":"4","last_reported":1726643317,"current_range_meters":36000,"station_id":"ce4bhb12rcd13ifvqem0","pricing_plan_id":"cebpf4jnsgd1na2vs0mg"},{"bike_id":"06801d7b-9249-4402-afab-1b36b5fb0e79","system_id":"levelo_inurba_marseille","lat":43.288757,"lon":5.353879,"is_reserved":false,"is_disabled":false,"rental_uris":{"android":"levelo://app?vid=06801d7b-9249-4402-afab-1b36b5fb0e79","ios":"levelo://app?vid=06801d7b-9249-4402-afab-1b36b5fb0e79"},"vehicle_type_id":"4","last_reported":1726643317,"current_range_meters":28000,"station_id":"ce4bgs92rcd13ifvqcc0","pricing_plan_id":"cebpf4jnsgd1na2vs0mg"},{"bike_id":"85f35905-070a-4a43-b69b-19cfcf5195a8","system_id":"levelo_inurba_marseille","lat":43.2955,"lon":5.4228,"is_reserved":false,"is_disabled":false,"rental_uris":{"android":"levelo://app?vid=85f35905-070a-4a43-b69b-19cfcf5195a8","ios":"levelo://app?vid=85f35905-070a-4a43-b69b-19cfcf5195a8"},"vehicle_type_id":"4","last_reported":1726643317,"current_range_meters":39200,"station_id":"ce4bhph2rcd13ifvqhdg","pricing_plan_id":"cebpf4jnsgd1na2vs0mg"},{"bike_id":"5ad76090-8691-48ec-9040-016e70c34f7b","system_id":"levelo_inurba_marseille","lat":43.28034,"lon":5.36942,"is_reserved":false,"is_disabled":false,"rental_uris":{"android":"levelo://app?vid=5ad76090-8691-48ec-9040-016e70c34f7b","ios":"levelo://app?vid=5ad76090-8691-48ec-9040-016e70c34f7b"},"vehicle_type_id":"4","last_reported":1726643317,"current_range_meters":28400,"station_id":"ce4bha12rcd13ifvqef0","pricing_plan_id":"cebpf4jnsgd1na2vs0mg"},{"bike_id":"54c25936-0917-4d26-b1d6-5f1b310d5d09","system_id":"levelo_inurba_marseille","lat":43.26061,"lon":5.39396,"is_reserved":false,"is_disabled":false,"rental_uris":{"android":"levelo://app?vid=54c25936-0917-4d26-b1d6-5f1b310d5d09","ios":"levelo://app?vid=54c25936-0917-4d26-b1d6-5f1b310d5d09"},"vehicle_type_id":"4","last_reported":1726643317,"current_range_meters":38800,"station_id":"ce4bhh92rcd13ifvqfj0","pricing_plan_id":"cebpf4jnsgd1na2vs0mg"},{"bike_id":"e33aa517-b9ec-4dff-8468-e5ca5678c1d2","system_id":"levelo_inurba_marseille","lat":43.28725,"lon":5.3794,"is_reserved":false,"is_disabled":false,"rental_uris":{"android":"levelo://app?vid=e33aa517-b9ec-4dff-8468-e5ca5678c1d2","ios":"levelo://app?vid=e33aa517-b9ec-4dff-8468-e5ca5678c1d2"},"vehicle_type_id":"4","last_reported":1726643317,"current_range_meters":25200,"station_id":"ce4bh9p2rcd13ifvqec0","pricing_plan_id":"cebpf4jnsgd1na2vs0mg"},{"bike_id":"7231c74c-5278-429f-90a8-a50ab6504eee","system_id":"levelo_inurba_marseille","lat":43.32486,"lon":5.36565,"is_reserved":false,"is_disabled":false,"rental_uris":{"android":"levelo://app?vid=7231c74c-5278-429f-90a8-a50ab6504eee","ios":"levelo://app?vid=7231c74c-5278-429f-90a8-a50ab6504eee"},"vehicle_type_id":"4","last_reported":1726643317,"current_range_meters":29600,"station_id":"ce4bhs12rcd13ifvqhvg","pricing_plan_id":"cebpf4jnsgd1na2vs0mg"},{"bike_id":"680be1dc-3a23-4c18-ae00-e69e8dd741b2","system_id":"levelo_inurba_marseille","lat":43.29304,"lon":5.37183,"is_reserved":false,"is_disabled":false,"rental_uris":{"android":"levelo://app?vid=680be1dc-3a23-4c18-ae00-e69e8dd741b2","ios":"levelo://app?vid=680be1dc-3a23-4c18-ae00-e69e8dd741b2"},"vehicle_type_id":"4","last_reported":1726643317,"current_range_meters":32000,"station_id":"ce4bgh92rcd13ifvqb40","pricing_plan_id":"cebpf4jnsgd1na2vs0mg"},{"bike_id":"ab24a954-34a3-48ed-808a-51904da89fe4","system_id":"levelo_inurba_marseille","lat":43.28091,"lon":5.39658,"is_reserved":false,"is_disabled":false,"rental_uris":{"android":"levelo://app?vid=ab24a954-34a3-48ed-808a-51904da89fe4","ios":"levelo://app?vid=ab24a954-34a3-48ed-808a-51904da89fe4"},"vehicle_type_id":"4","last_reported":1726643317,"current_range_meters":35200,"station_id":"ce4bho12rcd13ifvqh2g","pricing_plan_id":"cebpf4jnsgd1na2vs0mg"},{"bike_id":"8e41cc4c-2cbd-40c3-ade1-7adedce84308","system_id":"levelo_inurba_marseille","lat":43.3032,"lon":5.36895,"is_reserved":false,"is_disabled":false,"rental_uris":{"android":"levelo://app?vid=8e41cc4c-2cbd-40c3-ade1-7adedce84308","ios":"levelo://app?vid=8e41cc4c-2cbd-40c3-ade1-7adedce84308"},"vehicle_type_id":"4","last_reported":1726643317,"current_range_meters":38000,"station_id":"ce4bgqh2rcd13ifvqc5g","pricing_plan_id":"cebpf4jnsgd1na2vs0mg"},{"bike_id":"b187b778-7dcb-4c55-aada-f63bc08ef26d","system_id":"levelo_inurba_marseille","lat":43.33022,"lon":5.39043,"is_reserved":false,"is_disabled":false,"rental_uris":{"android":"levelo://app?vid=b187b778-7dcb-4c55-aada-f63bc08ef26d","ios":"levelo://app?vid=b187b778-7dcb-4c55-aada-f63bc08ef26d"},"vehicle_type_id":"4","last_reported":1726643317,"current_range_meters":35600,"station_id":"ce4bhr92rcd13ifvqhrg","pricing_plan_id":"cebpf4jnsgd1na2vs0mg"},{"bike_id":"da9c9168-7b55-42e9-a52b-901d22fd5e38","system_id":"levelo_inurba_marseille","lat":43.296203,"lon":5.37717,"is_reserved":false,"is_disabled":false,"rental_uris":{"android":"levelo://app?vid=da9c9168-7b55-42e9-a52b-901d22fd5e38","ios":"levelo://app?vid=da9c9168-7b55-42e9-a52b-901d22fd5e38"},"vehicle_type_id":"4","last_reported":1726643317,"current_range_meters":26800,"station_id":"ce4bgi92rcd13ifvqb90","pricing_plan_id":"cebpf4jnsgd1na2vs0mg"},{"bike_id":"a13b8302-4ea2-4c29-8731-e0e42e68149a","system_id":"levelo_inurba_marseille","lat":43.32293,"lon":5.38265,"is_reserved":false,"is_disabled":false,"rental_uris":{"android":"levelo://app?vid=a13b8302-4ea2-4c29-8731-e0e42e68149a","ios":"levelo://app?vid=a13b8302-4ea2-4c29-8731-e0e42e68149a"},"vehicle_type_id":"4","last_reported":1726643317,"current_range_meters":39200,"station_id":"ce4bhr12rcd13ifvqhqg","pricing_plan_id":"cebpf4jnsgd1na2vs0mg"},{"bike_id":"7cf0aca7-3775-4ec1-a097-421d6caa6ac7","system_id":"levelo_inurba_marseille","lat":43.311658,"lon":5.368759,"is_reserved":false,"is_disabled":false,"rental_uris":{"android":"levelo://app?vid=7cf0aca7-3775-4ec1-a097-421d6caa6ac7","ios":"levelo://app?vid=7cf0aca7-3775-4ec1-a097-421d6caa6ac7"},"vehicle_type_id":"4","last_reported":1726643317,"current_range_meters":32800,"station_id":"ce4bgl92rcd13ifvqbq0","pricing_plan_id":"cebpf4jnsgd1na2vs0mg"},{"bike_id":"179e486b-5897-42bb-a98a-c5c0fc4ff751","system_id":"levelo_inurba_marseille","lat":43.30127,"lon":5.387806,"is_reserved":false,"is_disabled":false,"rental_uris":{"android":"levelo://app?vid=179e486b-5897-42bb-a98a-c5c0fc4ff751","ios":"levelo://app?vid=179e486b-5897-42bb-a98a-c5c0fc4ff751"},"vehicle_type_id":"4","last_reported":1726643317,"current_range_meters":16400,"station_id":"ce4bghh2rcd13ifvqb60","pricing_plan_id":"cebpf4jnsgd1na2vs0mg"},{"bike_id":"957b3947-bb33-485a-8989-bcedec72ebb0","system_id":"levelo_inurba_marseille","lat":43.290222,"lon":5.38656,"is_reserved":false,"is_disabled":false,"rental_uris":{"android":"levelo://app?vid=957b3947-bb33-485a-8989-bcedec72ebb0","ios":"levelo://app?vid=957b3947-bb33-485a-8989-bcedec72ebb0"},"vehicle_type_id":"4","last_reported":1726643317,"current_range_meters":25600,"station_id":"ce4bh4p2rcd13ifvqe0g","pricing_plan_id":"cebpf4jnsgd1na2vs0mg"},{"bike_id":"ba18b907-3678-4cbf-b957-7c6dc3cf3b56","system_id":"levelo_inurba_marseille","lat":43.27498,"lon":5.42453,"is_reserved":false,"is_disabled":false,"rental_uris":{"android":"levelo://app?vid=ba18b907-3678-4cbf-b957-7c6dc3cf3b56","ios":"levelo://app?vid=ba18b907-3678-4cbf-b957-7c6dc3cf3b56"},"vehicle_type_id":"4","last_reported":1726643317,"current_range_meters":4000,"station_id":"ce4bhn92rcd13ifvqgrg","pricing_plan_id":"cebpf4jnsgd1na2vs0mg"},{"bike_id":"6bd9ded0-3c8c-45da-99b3-18d0a913781c","system_id":"levelo_inurba_marseille","lat":43.2621,"lon":5.37923,"is_reserved":false,"is_disabled":false,"rental_uris":{"android":"levelo://app?vid=6bd9ded0-3c8c-45da-99b3-18d0a913781c","ios":"levelo://app?vid=6bd9ded0-3c8c-45da-99b3-18d0a913781c"},"vehicle_type_id":"4","last_reported":1726643317,"current_range_meters":38400,"station_id":"ce4bhjp2rcd13ifvqg90","pricing_plan_id":"cebpf4jnsgd1na2vs0mg"},{"bike_id":"05cb0619-24ae-46f7-9b9a-80260989f72c","system_id":"levelo_inurba_marseille","lat":43.28148,"lon":5.42634,"is_reserved":false,"is_disabled":false,"rental_uris":{"android":"levelo://app?vid=05cb0619-24ae-46f7-9b9a-80260989f72c","ios":"levelo://app?vid=05cb0619-24ae-46f7-9b9a-80260989f72c"},"vehicle_type_id":"4","last_reported":1726643317,"current_range_meters":38000,"station_id":"ce4bhnh2rcd13ifvqgug","pricing_plan_id":"cebpf4jnsgd1na2vs0mg"},{"bike_id":"efa3886b-a904-40c6-9959-1fe389379af0","system_id":"levelo_inurba_marseille","lat":43.30429,"lon":5.38891,"is_reserved":false,"is_disabled":false,"rental_uris":{"android":"levelo://app?vid=efa3886b-a904-40c6-9959-1fe389379af0","ios":"levelo://app?vid=efa3886b-a904-40c6-9959-1fe389379af0"},"vehicle_type_id":"4","last_reported":1726643317,"current_range_meters":9200,"station_id":"ce4bgk12rcd13ifvqbi0","pricing_plan_id":"cebpf4jnsgd1na2vs0mg"},{"bike_id":"0d4f4d36-7eb2-45af-8c4c-48c3cb8876d8","system_id":"levelo_inurba_marseille","lat":43.29363,"lon":5.37845,"is_reserved":false,"is_disabled":false,"rental_uris":{"android":"levelo://app?vid=0d4f4d36-7eb2-45af-8c4c-48c3cb8876d8","ios":"levelo://app?vid=0d4f4d36-7eb2-45af-8c4c-48c3cb8876d8"},"vehicle_type_id":"4","last_reported":1726643317,"current_range_meters":38800,"station_id":"ce4bgjh2rcd13ifvqbf0","pricing_plan_id":"cebpf4jnsgd1na2vs0mg"},{"bike_id":"7de8f2f1-e9a3-4eac-8a18-b7f26e55c42f","system_id":"levelo_inurba_marseille","lat":43.290344,"lon":5.399627,"is_reserved":false,"is_disabled":false,"rental_uris":{"android":"levelo://app?vid=7de8f2f1-e9a3-4eac-8a18-b7f26e55c42f","ios":"levelo://app?vid=7de8f2f1-e9a3-4eac-8a18-b7f26e55c42f"},"vehicle_type_id":"4","last_reported":1726643317,"current_range_meters":27200,"station_id":"cjm6bp8fraef2m0cb0m0","pricing_plan_id":"cebpf4jnsgd1na2vs0mg"},{"bike_id":"cbaf03bf-0340-4293-a424-18d0ef0b595f","system_id":"levelo_inurba_marseille","lat":43.299,"lon":5.43651,"is_reserved":false,"is_disabled":false,"rental_uris":{"android":"levelo://app?vid=cbaf03bf-0340-4293-a424-18d0ef0b595f","ios":"levelo://app?vid=cbaf03bf-0340-4293-a424-18d0ef0b595f"},"vehicle_type_id":"4","last_reported":1726643317,"current_range_meters":16800,"station_id":"ce4bhpp2rcd13ifvqhfg","pricing_plan_id":"cebpf4jnsgd1na2vs0mg"},{"bike_id":"bcd57de9-d46c-427e-94ee-4889338f80c0","system_id":"levelo_inurba_marseille","lat":43.26492,"lon":5.39548,"is_reserved":false,"is_disabled":false,"rental_uris":{"android":"levelo://app?vid=bcd57de9-d46c-427e-94ee-4889338f80c0","ios":"levelo://app?vid=bcd57de9-d46c-427e-94ee-4889338f80c0"},"vehicle_type_id":"4","last_reported":1726643317,"current_range_meters":38800,"station_id":"ce4bhi12rcd13ifvqfq0","pricing_plan_id":"cebpf4jnsgd1na2vs0mg"},{"bike_id":"7b658259-df67-42c8-a0c3-d096cc6551d8","system_id":"levelo_inurba_marseille","lat":43.3055,"lon":5.36535,"is_reserved":false,"is_disabled":false,"rental_uris":{"android":"levelo://app?vid=7b658259-df67-42c8-a0c3-d096cc6551d8","ios":"levelo://app?vid=7b658259-df67-42c8-a0c3-d096cc6551d8"},"vehicle_type_id":"4","last_reported":1726643317,"current_range_meters":29600,"station_id":"ce4bgs12rcd13ifvqcag","pricing_plan_id":"cebpf4jnsgd1na2vs0mg"},{"bike_id":"bbc79cb4-4676-417f-b577-5eb7912639d9","system_id":"levelo_inurba_marseille","lat":43.31352,"lon":5.36706,"is_reserved":false,"is_disabled":false,"rental_uris":{"android":"levelo://app?vid=bbc79cb4-4676-417f-b577-5eb7912639d9","ios":"levelo://app?vid=bbc79cb4-4676-417f-b577-5eb7912639d9"},"vehicle_type_id":"4","last_reported":1726643317,"current_range_meters":31200,"station_id":"ce4bgr92rcd13ifvqc6g","pricing_plan_id":"cebpf4jnsgd1na2vs0mg"},{"bike_id":"54eccf0a-626a-4c3e-a34b-2d2d03cdb4eb","system_id":"levelo_inurba_marseille","lat":43.28093,"lon":5.3966,"is_reserved":false,"is_disabled":false,"rental_uris":{"android":"levelo://app?vid=54eccf0a-626a-4c3e-a34b-2d2d03cdb4eb","ios":"levelo://app?vid=54eccf0a-626a-4c3e-a34b-2d2d03cdb4eb"},"vehicle_type_id":"4","last_reported":1726643317,"current_range_meters":6400,"station_id":"ce4bho12rcd13ifvqh2g","pricing_plan_id":"cebpf4jnsgd1na2vs0mg"},{"bike_id":"d8e751ce-68d8-4843-af31-f29be99d953d","system_id":"levelo_inurba_marseille","lat":43.2396,"lon":5.36634,"is_reserved":false,"is_disabled":false,"rental_uris":{"android":"levelo://app?vid=d8e751ce-68d8-4843-af31-f29be99d953d","ios":"levelo://app?vid=d8e751ce-68d8-4843-af31-f29be99d953d"},"vehicle_type_id":"4","last_reported":1726643317,"current_range_meters":8800,"station_id":"ce4bhi12rcd13ifvqfp0","pricing_plan_id":"cebpf4jnsgd1na2vs0mg"},{"bike_id":"29fb8db0-bc72-45e8-9718-014b21f653e2","system_id":"levelo_inurba_marseille","lat":43.30517,"lon":5.36561,"is_reserved":false,"is_disabled":false,"rental_uris":{"android":"levelo://app?vid=29fb8db0-bc72-45e8-9718-014b21f653e2","ios":"levelo://app?vid=29fb8db0-bc72-45e8-9718-014b21f653e2"},"vehicle_type_id":"4","last_reported":1726643317,"current_range_meters":36800,"station_id":"ce4bgs12rcd13ifvqcag","pricing_plan_id":"cebpf4jnsgd1na2vs0mg"},{"bike_id":"a28e2668-aa90-4c07-9a87-9b12806dcc1d","system_id":"levelo_inurba_marseille","lat":43.287061,"lon":5.39991,"is_reserved":false,"is_disabled":false,"rental_uris":{"android":"levelo://app?vid=a28e2668-aa90-4c07-9a87-9b12806dcc1d","ios":"levelo://app?vid=a28e2668-aa90-4c07-9a87-9b12806dcc1d"},"vehicle_type_id":"4","last_reported":1726643317,"current_range_meters":33200,"station_id":"ce4bgn92rcd13ifvqbvg","pricing_plan_id":"cebpf4jnsgd1na2vs0mg"},{"bike_id":"a2ca0bde-e17e-484e-96c2-c1c239140fa8","system_id":"levelo_inurba_marseille","lat":43.2927,"lon":5.36838,"is_reserved":false,"is_disabled":false,"rental_uris":{"android":"levelo://app?vid=a2ca0bde-e17e-484e-96c2-c1c239140fa8","ios":"levelo://app?vid=a2ca0bde-e17e-484e-96c2-c1c239140fa8"},"vehicle_type_id":"4","last_reported":1726643317,"current_range_meters":29600,"station_id":"ce4bhbp2rcd13ifvqesg","pricing_plan_id":"cebpf4jnsgd1na2vs0mg"},{"bike_id":"c58b33a0-2e42-4f1a-853f-2589818eb46d","system_id":"levelo_inurba_marseille","lat":43.32546,"lon":5.41444,"is_reserved":false,"is_disabled":false,"rental_uris":{"android":"levelo://app?vid=c58b33a0-2e42-4f1a-853f-2589818eb46d","ios":"levelo://app?vid=c58b33a0-2e42-4f1a-853f-2589818eb46d"},"vehicle_type_id":"4","last_reported":1726643317,"current_range_meters":30000,"station_id":"ce4bhq12rcd13ifvqhhg","pricing_plan_id":"cebpf4jnsgd1na2vs0mg"},{"bike_id":"3609da38-3d01-4f21-8142-b619ff7108db","system_id":"levelo_inurba_marseille","lat":43.31688,"lon":5.40474,"is_reserved":false,"is_disabled":false,"rental_uris":{"android":"levelo://app?vid=3609da38-3d01-4f21-8142-b619ff7108db","ios":"levelo://app?vid=3609da38-3d01-4f21-8142-b619ff7108db"},"vehicle_type_id":"4","last_reported":1726643317,"current_range_meters":24800,"station_id":"ce4bh012rcd13ifvqd00","pricing_plan_id":"cebpf4jnsgd1na2vs0mg"},{"bike_id":"3ab041e0-646e-42ef-8899-5e08bcee92f8","system_id":"levelo_inurba_marseille","lat":43.26779,"lon":5.3942,"is_reserved":false,"is_disabled":false,"rental_uris":{"android":"levelo://app?vid=3ab041e0-646e-42ef-8899-5e08bcee92f8","ios":"levelo://app?vid=3ab041e0-646e-42ef-8899-5e08bcee92f8"},"vehicle_type_id":"4","last_reported":1726643317,"current_range_meters":3600,"station_id":"ce4bhh12rcd13ifvqfg0","pricing_plan_id":"cebpf4jnsgd1na2vs0mg"},{"bike_id":"a225e308-9f3b-4239-997c-85b47c044156","system_id":"levelo_inurba_marseille","lat":43.25935,"lon":5.40906,"is_reserved":false,"is_disabled":false,"rental_uris":{"android":"levelo://app?vid=a225e308-9f3b-4239-997c-85b47c044156","ios":"levelo://app?vid=a225e308-9f3b-4239-997c-85b47c044156"},"vehicle_type_id":"4","last_reported":1726643317,"current_range_meters":30400,"station_id":"ce4bhm92rcd13ifvqglg","pricing_plan_id":"cebpf4jnsgd1na2vs0mg"},{"bike_id":"2627c787-5dd5-4606-9b27-c6eddf762743","system_id":"levelo_inurba_marseille","lat":43.30471,"lon":5.379,"is_reserved":false,"is_disabled":false,"rental_uris":{"android":"levelo://app?vid=2627c787-5dd5-4606-9b27-c6eddf762743","ios":"levelo://app?vid=2627c787-5dd5-4606-9b27-c6eddf762743"},"vehicle_type_id":"4","last_reported":1726643317,"current_range_meters":39200,"station_id":"ce4bgup2rcd13ifvqcn0","pricing_plan_id":"cebpf4jnsgd1na2vs0mg"},{"bike_id":"90dc9334-37c5-4c26-929b-eb58f91e7366","system_id":"levelo_inurba_marseille","lat":43.24075,"lon":5.37753,"is_reserved":false,"is_disabled":false,"rental_uris":{"android":"levelo://app?vid=90dc9334-37c5-4c26-929b-eb58f91e7366","ios":"levelo://app?vid=90dc9334-37c5-4c26-929b-eb58f91e7366"},"vehicle_type_id":"4","last_reported":1726643317,"current_range_meters":30000,"station_id":"ce4bhnp2rcd13ifvqgvg","pricing_plan_id":"cebpf4jnsgd1na2vs0mg"},{"bike_id":"c82d7f3c-afe2-4dff-9dcb-16ae1a7b7ae3","system_id":"levelo_inurba_marseille","lat":43.32285,"lon":5.38259,"is_reserved":false,"is_disabled":false,"rental_uris":{"android":"levelo://app?vid=c82d7f3c-afe2-4dff-9dcb-16ae1a7b7ae3","ios":"levelo://app?vid=c82d7f3c-afe2-4dff-9dcb-16ae1a7b7ae3"},"vehicle_type_id":"4","last_reported":1726643317,"current_range_meters":6800,"station_id":"ce4bhr12rcd13ifvqhqg","pricing_plan_id":"cebpf4jnsgd1na2vs0mg"},{"bike_id":"fddf8d6f-2fb9-4786-a6fb-e8f5aa39a9ce","system_id":"levelo_inurba_marseille","lat":43.27049,"lon":5.40265,"is_reserved":false,"is_disabled":false,"rental_uris":{"android":"levelo://app?vid=fddf8d6f-2fb9-4786-a6fb-e8f5aa39a9ce","ios":"levelo://app?vid=fddf8d6f-2fb9-4786-a6fb-e8f5aa39a9ce"},