{"last_updated":1759252117,"ttl":60,"version":"2.2","data":{"bikes":[{"bike_id":"a180971b-73b2-4389-a7d9-a777c50d03b2","system_id":"levelo_inurba_marseille","lat":43.29197,"lon":5.39364,"is_reserved":false,"is_disabled":false,"rental_uris":{"android":"levelo://app?vid=a180971b-73b2-4389-a7d9-a777c50d03b2","ios":"levelo://app?vid=a180971b-73b2-4389-a7d9-a777c50d03b2"},"vehicle_type_id":"4","last_reported":1759252117,"current_range_meters":2800,"station_id":"","pricing_plan_id":"cebpf4jnsgd1na2vs0mg"},{"bike_id":"b49629d5-8075-4127-b438-07d84b875728","system_id":"levelo_inurba_marseille","lat":43.269552,"lon":5.386269,"is_reserved":false,"is_disabled":false,"rental_uris":{"android":"levelo://app?vid=b49629d5-8075-4127-b438-07d84b875728","ios":"levelo://app?vid=b49629d5-8075-4127-b438-07d84b875728"},"vehicle_type_id":"4","last_reported":1759252117,"current_range_meters":2800,"station_id":"ce4bhh92rcd13ifvqfh0","pricing_plan_id":"cebpf4jnsgd1na2vs0mg"},{"bike_id":"8a4a8404-2223-404b-b9d6-fda388efd3eb","system_id":"levelo_inurba_marseille","lat":43.225399,"lon":5.348524,"is_reserved":false,"is_disabled":false,"rental_uris":{"android":"levelo://app?vid=8a4a8404-2223-404b-b9d6-fda388efd3eb","ios":"levelo://app?vid=8a4a8404-2223-404b-b9d6-fda388efd3eb"},"vehicle_type_id":"4","last_reported":1759252117,"current_range_meters":2800,"station_id":"","pricing_plan_id":"cebpf4jnsgd1na2vs0mg"},{"bike_id":"258ab053-1083-4ca9-a32a-1e85f085fc22","system_id":"levelo_inurba_marseille","lat":43.337444,"lon":5.374475,"is_reserved":false,"is_disabled":false,"rental_uris":{"android":"levelo://app?vid=258ab053-1083-4ca9-a32a-1e85f085fc22","ios":"levelo://app?vid=258ab053-1083-4ca9-a32a-1e85f085fc22"},"vehicle_type_id":"4","last_reported":1759252117,"current_range_meters":2800,"station_id":"","pricing_plan_id":"cebpf4jnsgd1na2vs0mg"},{"bike_id":"df725511-8a5d-43d4-b25a-a4b2f13492c7","system_id":"levelo_inurba_marseille","lat":43.24629,"lon":5.43147,"is_reserved":false,"is_disabled":false,"rental_uris":{"android":"levelo://app?vid=df725511-8a5d-43d4-b25a-a4b2f13492c7","ios":"levelo://app?vid=df725511-8a5d-43d4-b25a-a4b2f13492c7"},"vehicle_type_id":"4","last_reported":1759252117,"current_range_meters":3200,"station_id":"st_d2m6c4gdas8pm72e190g","pricing_plan_id":"cebpf4jnsgd1na2vs0mg"},{"bike_id":"000db73f-2096-47c5-b17b-e8e5ff10b10a","system_id":"levelo_inurba_marseille","lat":43.30255,"lon":5.40074,"is_reserved":false,"is_disabled":false,"rental_uris":{"android":"levelo://app?vid=000db73f-2096-47c5-b17b-e8e5ff10b10a","ios":"levelo://app?vid=000db73f-2096-47c5-b17b-e8e5ff10b10a"},"vehicle_type_id":"4","last_reported":1759252117,"current_range_meters":3200,"station_id":"ce4bgvh2rcd13ifvqcs0","pricing_plan_id":"cebpf4jnsgd1na2vs0mg"},{"bike_id":"62baa537-0468-4f28-9f00-26b89c63eb61","system_id":"levelo_inurba_marseille","lat":43.27576,"lon":5.38436,"is_reserved":false,"is_disabled":false,"rental_uris":{"android":"levelo://app?vid=62baa537-0468-4f28-9f00-26b89c63eb61","ios":"levelo://app?vid=62baa537-0468-4f28-9f00-26b89c63eb61"},"vehicle_type_id":"4","last_reported":1759252117,"current_range_meters":2800,"station_id":"ce4bhh92rcd13ifvqfi0","pricing_plan_id":"cebpf4jnsgd1na2vs0mg"},{"bike_id":"9b731d9d-592f-4c4b-8fd4-f02b62e5e8cd","system_id":"levelo_inurba_marseille","lat":43.27917,"lon":5.41099,"is_reserved":false,"is_disabled":false,"rental_uris":{"android":"levelo://app?vid=9b731d9d-592f-4c4b-8fd4-f02b62e5e8cd","ios":"levelo://app?vid=9b731d9d-592f-4c4b-8fd4-f02b62e5e8cd"},"vehicle_type_id":"4","last_reported":1759252117,"current_range_meters":3200,"station_id":"ce4bhnp2rcd13ifvqh0g","pricing_plan_id":"cebpf4jnsgd1na2vs0mg"},{"bike_id":"c9de5114-6430-42c2-a443-049853b5215d","system_id":"levelo_inurba_marseille","lat":43.24678,"lon":5.3813,"is_reserved":false,"is_disabled":false,"rental_uris":{"android":"levelo://app?vid=c9de5114-6430-42c2-a443-049853b5215d","ios":"levelo://app?vid=c9de5114-6430-42c2-a443-049853b5215d"},"vehicle_type_id":"4","last_reported":1759252117,"current_range_meters":3200,"station_id":"ce4bhih2rcd13ifvqfr0","pricing_plan_id":"cebpf4jnsgd1na2vs0mg"},{"bike_id":"79874b03-90b6-4eba-8938-8a8cb5905e7c","system_id":"levelo_inurba_marseille","lat":43.255988,"lon":5.382324,"is_reserved":false,"is_disabled":false,"rental_uris":{"android":"levelo://app?vid=79874b03-90b6-4eba-8938-8a8cb5905e7c","ios":"levelo://app?vid=79874b03-90b6-4eba-8938-8a8cb5905e7c"},"vehicle_type_id":"4","last_reported":1759252117,"current_range_meters":3200,"station_id":"ce4bhih2rcd13ifvqfs0","pricing_plan_id":"cebpf4jnsgd1na2vs0mg"},{"bike_id":"0bd01125-64fb-4bc2-8559-295a34ba2603","system_id":"levelo_inurba_marseille","lat":43.25579,"lon":5.38227,"is_reserved":false,"is_disabled":false,"rental_uris":{"android":"levelo://app?vid=0bd01125-64fb-4bc2-8559-295a34ba2603","ios":"levelo://app?vid=0bd01125-64fb-4bc2-8559-295a34ba2603"},"vehicle_type_id":"4","last_reported":1759252117,"current_range_meters":3200,"station_id":"ce4bhih2rcd13ifvqfs0","pricing_plan_id":"cebpf4jnsgd1na2vs0mg"},{"bike_id":"8b353c9e-13c5-42ee-a76f-ccbd6269a3dc","system_id":"levelo_inurba_marseille","lat":43.30444,"lon":5.36689,"is_reserved":false,"is_disabled":false,"rental_uris":{"android":"levelo://app?vid=8b353c9e-13c5-42ee-a76f-ccbd6269a3dc","ios":"levelo://app?vid=8b353c9e-13c5-42ee-a76f-ccbd6269a3dc"},"vehicle_type_id":"4","last_reported":1759252117,"current_range_meters":3600,"station_id":"","pricing_plan_id":"cebpf4jnsgd1na2vs0mg"},{"bike_id":"9a5fd531-117c-4eb7-8b00-9e659ae3bcd9","system_id":"levelo_inurba_marseille","lat":43.2656,"lon":5.37286,"is_reserved":false,"is_disabled":false,"rental_uris":{"android":"levelo://app?vid=9a5fd531-117c-4eb7-8b00-9e659ae3bcd9","ios":"levelo://app?vid=9a5fd531-117c-4eb7-8b00-9e659ae3bcd9"},"vehicle_type_id":"4","last_reported":1759252117,"current_range_meters":3600,"station_id":"ce4bhg12rcd13ifvqf70","pricing_plan_id":"cebpf4jnsgd1na2vs0mg"},{"bike_id":"2c6518be-b3f0-42d2-93c9-c1de9e54885f","system_id":"levelo_inurba_marseille","lat":43.29227,"lon":5.38219,"is_reserved":false,"is_disabled":false,"rental_uris":{"android":"levelo://app?vid=2c6518be-b3f0-42d2-93c9-c1de9e54885f","ios":"levelo://app?vid=2c6518be-b3f0-42d2-93c9-c1de9e54885f"},"vehicle_type_id":"4","last_reported":1759252117,"current_range_meters":3600,"station_id":"","pricing_plan_id":"cebpf4jnsgd1na2vs0mg"},{"bike_id":"4e078bae-7e4a-4947-96a5-267394856ae8","system_id":"levelo_inurba_marseille","lat":43.29015,"lon":5.35591,"is_reserved":false,"is_disabled":false,"rental_uris":{"android":"levelo://app?vid=4e078bae-7e4a-4947-96a5-267394856ae8","ios":"levelo://app?vid=4e078bae-7e4a-4947-96a5-267394856ae8"},"vehicle_type_id":"4","last_reported":1759252117,"current_range_meters":3600,"station_id":"ce4bhb92rcd13ifvqen0","pricing_plan_id":"cebpf4jnsgd1na2vs0mg"},{"bike_id":"3eb4d9a8-165d-463c-9d1d-40f4d200f52a","system_id":"levelo_inurba_marseille","lat":43.29593,"lon":5.38103,"is_reserved":false,"is_disabled":false,"rental_uris":{"android":"levelo://app?vid=3eb4d9a8-165d-463c-9d1d-40f4d200f52a","ios":"levelo://app?vid=3eb4d9a8-165d-463c-9d1d-40f4d200f52a"},"vehicle_type_id":"4","last_reported":1759252117,"current_range_meters":3600,"station_id":"ce4bgl12rcd13ifvqbo0","pricing_plan_id":"cebpf4jnsgd1na2vs0mg"},{"bike_id":"a599d1b2-b269-4a47-a41b-8fef4d790dea","system_id":"levelo_inurba_marseille","lat":43.29372,"lon":5.4325,"is_reserved":false,"is_disabled":false,"rental_uris":{"android":"levelo://app?vid=a599d1b2-b269-4a47-a41b-8fef4d790dea","ios":"levelo://app?vid=a599d1b2-b269-4a47-a41b-8fef4d790dea"},"vehicle_type_id":"4","last_reported":1759252117,"current_range_meters":3600,"station_id":"","pricing_plan_id":"cebpf4jnsgd1na2vs0mg"},{"bike_id":"1dad2113-89e2-44fc-a0b6-ddd6a09baff1","system_id":"levelo_inurba_marseille","lat":43.337444,"lon":5.374475,"is_reserved":false,"is_disabled":false,"rental_uris":{"android":"levelo://app?vid=1dad2113-89e2-44fc-a0b6-ddd6a09baff1","ios":"levelo://app?vid=1dad2113-89e2-44fc-a0b6-ddd6a09baff1"},"vehicle_type_id":"4","last_reported":1759252117,"current_range_meters":3600,"station_id":"","pricing_plan_id":"cebpf4jnsgd1na2vs0mg"},{"bike_id":"c86935d6-cb23-49c0-9e43-fc8a3ea59fda","system_id":"levelo_inurba_marseille","lat":43.31105,"lon":5.38588,"is_reserved":false,"is_disabled":false,"rental_uris":{"android":"levelo://app?vid=c86935d6-cb23-49c0-9e43-fc8a3ea59fda","ios":"levelo://app?vid=c86935d6-cb23-49c0-9e43-fc8a3ea59fda"},"vehicle_type_id":"4","last_reported":1759252117,"current_range_meters":4000,"station_id":"","pricing_plan_id":"cebpf4jnsgd1na2vs0mg"},{"bike_id":"6259dfb0-09cd-49f7-8dbc-a5f0c7633f3d","system_id":"levelo_inurba_marseille","lat":43.28154,"lon":5.42645,"is_reserved":false,"is_disabled":false,"rental_uris":{"android":"levelo://app?vid=6259dfb0-09cd-49f7-8dbc-a5f0c7633f3d","ios":"levelo://app?vid=6259dfb0-09cd-49f7-8dbc-a5f0c7633f3d"},"vehicle_type_id":"4","last_reported":1759252117,"current_range_meters":3600,"station_id":"ce4bhnh2rcd13ifvqgug","pricing_plan_id":"cebpf4jnsgd1na2vs0mg"},{"bike_id":"ca660db5-13a2-4b17-89f6-c4a43f402701","system_id":"levelo_inurba_marseille","lat":43.31854,"lon":5.37064,"is_reserved":false,"is_disabled":false,"rental_uris":{"android":"levelo://app?vid=ca660db5-13a2-4b17-89f6-c4a43f402701","ios":"levelo://app?vid=ca660db5-13a2-4b17-89f6-c4a43f402701"},"vehicle_type_id":"4","last_reported":1759252117,"current_range_meters":4000,"station_id":"","pricing_plan_id":"cebpf4jnsgd1na2vs0mg"},{"bike_id":"03dbce53-a0c5-4b5f-b0c9-1aa55fbc2708","system_id":"levelo_inurba_marseille","lat":43.24546,"lon":5.39522,"is_reserved":false,"is_disabled":true,"rental_uris":{"android":"levelo://app?vid=03dbce53-a0c5-4b5f-b0c9-1aa55fbc2708","ios":"levelo://app?vid=03dbce53-a0c5-4b5f-b0c9-1aa55fbc2708"},"vehicle_type_id":"4","last_reported":1759252117,"current_range_meters":4000,"station_id":"ce4bhlp2rcd13ifvqgjg","pricing_plan_id":"cebpf4jnsgd1na2vs0mg"},{"bike_id":"6514a317-2120-45b0-8206-12b35ee9c46e","system_id":"levelo_inurba_marseille","lat":43.29569,"lon":5.39981,"is_reserved":false,"is_disabled":false,"rental_uris":{"android":"levelo://app?vid=6514a317-2120-45b0-8206-12b35ee9c46e","ios":"levelo://app?vid=6514a317-2120-45b0-8206-12b35ee9c46e"},"vehicle_type_id":"4","last_reported":1759252117,"current_range_meters":4000,"station_id":"ce4bh312rcd13ifvqdj0","pricing_plan_id":"cebpf4jnsgd1na2vs0mg"},{"bike_id":"19dffac5-8a1f-4383-9690-5bb19eb32640","system_id":"levelo_inurba_marseille","lat":43.310794,"lon":5.383413,"is_reserved":false,"is_disabled":true,"rental_uris":{"android":"levelo://app?vid=19dffac5-8a1f-4383-9690-5bb19eb32640","ios":"levelo://app?vid=19dffac5-8a1f-4383-9690-5bb19eb32640"},"vehicle_type_id":"4","last_reported":1759252117,"current_range_meters":4000,"station_id":"ce4bgih2rcd13ifvqba0","pricing_plan_id":"cebpf4jnsgd1na2vs0mg"},{"bike_id":"ebae34f3-ce35-4d51-8610-5092e93b81f5","system_id":"levelo_inurba_marseille","lat":43.32035,"lon":5.4158,"is_reserved":false,"is_disabled":false,"rental_uris":{"android":"levelo://app?vid=ebae34f3-ce35-4d51-8610-5092e93b81f5","ios":"levelo://app?vid=ebae34f3-ce35-4d51-8610-5092e93b81f5"},"vehicle_type_id":"4","last_reported":1759252117,"current_range_meters":4000,"station_id":"ce4bhq92rcd13ifvqhkg","pricing_plan_id":"cebpf4jnsgd1na2vs0mg"},{"bike_id":"1415c291-e2b8-4841-8729-3aa27cba8802","system_id":"levelo_inurba_marseille","lat":43.30115,"lon":5.39941,"is_reserved":false,"is_disabled":false,"rental_uris":{"android":"levelo://app?vid=1415c291-e2b8-4841-8729-3aa27cba8802","ios":"levelo://app?vid=1415c291-e2b8-4841-8729-3aa27cba8802"},"vehicle_type_id":"4","last_reported":1759252117,"current_range_meters":4000,"station_id":"","pricing_plan_id":"cebpf4jnsgd1na2vs0mg"},{"bike_id":"640660d9-785c-4c49-be92-9833c1eac732","system_id":"levelo_inurba_marseille","lat":43.29036,"lon":5.38648,"is_reserved":false,"is_disabled":false,"rental_uris":{"android":"levelo://app?vid=640660d9-785c-4c49-be92-9833c1eac732","ios":"levelo://app?vid=640660d9-785c-4c49-be92-9833c1eac732"},"vehicle_type_id":"4","last_reported":1759252117,"current_range_meters":4400,"station_id":"ce4bh4p2rcd13ifvqe0g","pricing_plan_id":"cebpf4jnsgd1na2vs0mg"},{"bike_id":"5db1ed4a-3f2a-43f4-918e-4a787899f0e5","system_id":"levelo_inurba_marseille","lat":43.26497,"lon":5.39541,"is_reserved":false,"is_disabled":false,"rental_uris":{"android":"levelo://app?vid=5db1ed4a-3f2a-43f4-918e-4a787899f0e5","ios":"levelo://app?vid=5db1ed4a-3f2a-43f4-918e-4a787899f0e5"},"vehicle_type_id":"4","last_reported":1759252117,"current_range_meters":4000,"station_id":"ce4bhi12rcd13ifvqfq0","pricing_plan_id":"cebpf4jnsgd1na2vs0mg"},{"bike_id":"4b6c5812-0e8c-4571-a6c7-754dcfe07d11","system_id":"levelo_inurba_marseille","lat":43.29224,"lon":5.36069,"is_reserved":false,"is_disabled":false,"rental_uris":{"android":"levelo://app?vid=4b6c5812-0e8c-4571-a6c7-754dcfe07d11","ios":"levelo://app?vid=4b6c5812-0e8c-4571-a6c7-754dcfe07d11"},"vehicle_type_id":"4","last_reported":1759252117,"current_range_meters":4400,"station_id":"ce4bhbh2rcd13ifvqeqg","pricing_plan_id":"cebpf4jnsgd1na2vs0mg"},{"bike_id":"8253fb63-599d-4004-b4be-3493111d1761","system_id":"levelo_inurba_marseille","lat":43.23186,"lon":5.35553,"is_reserved":false,"is_disabled":false,"rental_uris":{"android":"levelo://app?vid=8253fb63-599d-4004-b4be-3493111d1761","ios":"levelo://app?vid=8253fb63-599d-4004-b4be-3493111d1761"},"vehicle_type_id":"4","last_reported":1759252117,"current_range_meters":4400,"station_id":"ce4bhu92rcd13ifvqi70","pricing_plan_id":"cebpf4jnsgd1na2vs0mg"},{"bike_id":"ff4f42ff-e7e1-4099-b70f-7ced277baf4c","system_id":"levelo_inurba_marseille","lat":43.28731,"lon":5.37939,"is_reserved":false,"is_disabled":false,"rental_uris":{"android":"levelo://app?vid=ff4f42ff-e7e1-4099-b70f-7ced277baf4c","ios":"levelo://app?vid=ff4f42ff-e7e1-4099-b70f-7ced277baf4c"},"vehicle_type_id":"4","last_reported":1759252117,"current_range_meters":4400,"station_id":"ce4bh9p2rcd13ifvqec0","pricing_plan_id":"cebpf4jnsgd1na2vs0mg"},{"bike_id":"e480aaca-8fad-41ca-9d12-769cdb2fd267","system_id":"levelo_inurba_marseille","lat":43.27434,"lon":5.39415,"is_reserved":false,"is_disabled":false,"rental_uris":{"android":"levelo://app?vid=e480aaca-8fad-41ca-9d12-769cdb2fd267","ios":"levelo://app?vid=e480aaca-8fad-41ca-9d12-769cdb2fd267"},"vehicle_type_id":"4","last_reported":1759252117,"current_range_meters":4800,"station_id":"ce4bhdp2rcd13ifvqf20","pricing_plan_id":"cebpf4jnsgd1na2vs0mg"},{"bike_id":"ba6c61a2-82b6-4cc1-9474-7a6a63b2c0c4","system_id":"levelo_inurba_marseille","lat":43.26199,"lon":5.37939,"is_reserved":false,"is_disabled":false,"rental_uris":{"android":"levelo://app?vid=ba6c61a2-82b6-4cc1-9474-7a6a63b2c0c4","ios":"levelo://app?vid=ba6c61a2-82b6-4cc1-9474-7a6a63b2c0c4"},"vehicle_type_id":"4","last_reported":1759252117,"current_range_meters":4400,"station_id":"ce4bhjp2rcd13ifvqg90","pricing_plan_id":"cebpf4jnsgd1na2vs0mg"},{"bike_id":"b4e5d137-7e78-4d95-ae02-cb5a8b9e3272","system_id":"levelo_inurba_marseille","lat":43.28619,"lon":5.35109,"is_reserved":false,"is_disabled":false,"rental_uris":{"android":"levelo://app?vid=b4e5d137-7e78-4d95-ae02-cb5a8b9e3272","ios":"levelo://app?vid=b4e5d137-7e78-4d95-ae02-cb5a8b9e3272"},"vehicle_type_id":"4","last_reported":1759252117,"current_range_meters":4800,"station_id":"ce4bhch2rcd13ifvqeug","pricing_plan_id":"cebpf4jnsgd1na2vs0mg"},{"bike_id":"e0f375dd-a66f-4890-94f7-5a75b2b1aec2","system_id":"levelo_inurba_marseille","lat":43.29708,"lon":5.36567,"is_reserved":false,"is_disabled":false,"rental_uris":{"android":"levelo://app?vid=e0f375dd-a66f-4890-94f7-5a75b2b1aec2","ios":"levelo://app?vid=e0f375dd-a66f-4890-94f7-5a75b2b1aec2"},"vehicle_type_id":"4","last_reported":1759252117,"current_range_meters":4800,"station_id":"ce4bgn12rcd13ifvqbt0","pricing_plan_id":"cebpf4jnsgd1na2vs0mg"},{"bike_id":"35e8f722-b82a-4247-beb8-7e2827829ce6","system_id":"levelo_inurba_marseille","lat":43.32405,"lon":5.3911,"is_reserved":false,"is_disabled":false,"rental_uris":{"android":"levelo://app?vid=35e8f722-b82a-4247-beb8-7e2827829ce6","ios":"levelo://app?vid=35e8f722-b82a-4247-beb8-7e2827829ce6"},"vehicle_type_id":"4","last_reported":1759252117,"current_range_meters":4800,"station_id":"","pricing_plan_id":"cebpf4jnsgd1na2vs0mg"},{"bike_id":"de5078e7-9e6f-4980-ad87-459e322f4cf1","system_id":"levelo_inurba_marseille","lat":43.318914,"lon":5.407333,"is_reserved":false,"is_disabled":false,"rental_uris":{"android":"levelo://app?vid=de5078e7-9e6f-4980-ad87-459e322f4cf1","ios":"levelo://app?vid=de5078e7-9e6f-4980-ad87-459e322f4cf1"},"vehicle_type_id":"4","last_reported":1759252117,"current_range_meters":4400,"station_id":"ce4bhq12rcd13ifvqhig","pricing_plan_id":"cebpf4jnsgd1na2vs0mg"},{"bike_id":"e5378695-fba9-432a-9cfb-3b5b05e40fec","system_id":"levelo_inurba_marseille","lat":43.337986,"lon":5.374304,"is_reserved":false,"is_disabled":false,"rental_uris":{"android":"levelo://app?vid=e5378695-fba9-432a-9cfb-3b5b05e40fec","ios":"levelo://app?vid=e5378695-fba9-432a-9cfb-3b5b05e40fec"},"vehicle_type_id":"4","last_reported":1759252117,"current_range_meters":4800,"station_id":"","pricing_plan_id":"cebpf4jnsgd1na2vs0mg"},{"bike_id":"aae0fff4-79c4-4eff-a901-ce6dfad9d0e7","system_id":"levelo_inurba_marseille","lat":43.28073,"lon":5.38671,"is_reserved":false,"is_disabled":true,"rental_uris":{"android":"levelo://app?vid=aae0fff4-79c4-4eff-a901-ce6dfad9d0e7","ios":"levelo://app?vid=aae0fff4-79c4-4eff-a901-ce6dfad9d0e7"},"vehicle_type_id":"4","last_reported":1759252117,"current_range_meters":5600,"station_id":"","pricing_plan_id":"cebpf4jnsgd1na2vs0mg"},{"bike_id":"639fe4fe-e179-4887-a084-8c2fef9a58c6","system_id":"levelo_inurba_marseille","lat":43.3091,"lon":5.36844,"is_reserved":false,"is_disabled":false,"rental_uris":{"android":"levelo://app?vid=639fe4fe-e179-4887-a084-8c2fef9a58c6","ios":"levelo://app?vid=639fe4fe-e179-4887-a084-8c2fef9a58c6"},"vehicle_type_id":"4","last_reported":1759252117,"current_range_meters":4800,"station_id":"ce4bgn92rcd13ifvqbvg","pricing_plan_id":"cebpf4jnsgd1na2vs0mg"},{"bike_id":"d501e6b3-a923-4b56-80d2-4b77a88f8367","system_id":"levelo_inurba_marseille","lat":43.30901,"lon":5.37216,"is_reserved":false,"is_disabled":false,"rental_uris":{"android":"levelo://app?vid=d501e6b3-a923-4b56-80d2-4b77a88f8367","ios":"levelo://app?vid=d501e6b3-a923-4b56-80d2-4b77a88f8367"},"vehicle_type_id":"4","last_reported":1759252117,"current_range_meters":5600,"station_id":"ce4bguh2rcd13ifvqckg","pricing_plan_id":"cebpf4jnsgd1na2vs0mg"},{"bike_id":"e0a3f118-7b21-4f13-91ed-245b811427d5","system_id":"levelo_inurba_marseille","lat":43.30929,"lon":5.40134,"is_reserved":false,"is_disabled":false,"rental_uris":{"android":"levelo://app?vid=e0a3f118-7b21-4f13-91ed-245b811427d5","ios":"levelo://app?vid=e0a3f118-7b21-4f13-91ed-245b811427d5"},"vehicle_type_id":"4","last_reported":1759252117,"current_range_meters":5600,"station_id":"ce4bgvp2rcd13ifvqct0","pricing_plan_id":"cebpf4jnsgd1na2vs0mg"},{"bike_id":"fa9fde9d-1eaf-4976-a010-3b96a649d4d9","system_id":"levelo_inurba_marseille","lat":43.29201,"lon":5.3931,"is_reserved":false,"is_disabled":false,"rental_uris":{"android":"levelo://app?vid=fa9fde9d-1eaf-4976-a010-3b96a649d4d9","ios":"levelo://app?vid=fa9fde9d-1eaf-4976-a010-3b96a649d4d9"},"vehicle_type_id":"4","last_reported":1759252117,"current_range_meters":4800,"station_id":"ce4bh192rcd13ifvqdd0","pricing_plan_id":"cebpf4jnsgd1na2vs0mg"},{"bike_id":"8eba698c-1343-4776-a7ef-1194c9c853da","system_id":"levelo_inurba_marseille","lat":43.26602,"lon":5.39385,"is_reserved":false,"is_disabled":false,"rental_uris":{"android":"levelo://app?vid=8eba698c-1343-4776-a7ef-1194c9c853da","ios":"levelo://app?vid=8eba698c-1343-4776-a7ef-1194c9c853da"},"vehicle_type_id":"4","last_reported":1759252117,"current_range_meters":6000,"station_id":"","pricing_plan_id":"cebpf4jnsgd1na2vs0mg"},{"bike_id":"1e026299-09d4-4fc0-9119-eb32342ebb8c","system_id":"levelo_inurba_marseille","lat":43.29278,"lon":5.36847,"is_reserved":false,"is_disabled":false,"rental_uris":{"android":"levelo://app?vid=1e026299-09d4-4fc0-9119-eb32342ebb8c","ios":"levelo://app?vid=1e026299-09d4-4fc0-9119-eb32342ebb8c"},"vehicle_type_id":"4","last_reported":1759252117,"current_range_meters":6000,"station_id":"ce4bhbp2rcd13ifvqesg","pricing_plan_id":"cebpf4jnsgd1na2vs0mg"},{"bike_id":"00e255bf-6b5d-494f-a6e8-4d585bb055f4","system_id":"levelo_inurba_marseille","lat":43.301462,"lon":5.380748,"is_reserved":false,"is_disabled":false,"rental_uris":{"android":"levelo://app?vid=00e255bf-6b5d-494f-a6e8-4d585bb055f4","ios":"levelo://app?vid=00e255bf-6b5d-494f-a6e8-4d585bb055f4"},"vehicle_type_id":"4","last_reported":1759252117,"current_range_meters":6000,"station_id":"ce4bgjp2rcd13ifvqbh0","pricing_plan_id":"cebpf4jnsgd1na2vs0mg"},{"bike_id":"aa123961-c527-4db0-9350-7d548f67905a","system_id":"levelo_inurba_marseille","lat":43.26357,"lon":5.39732,"is_reserved":false,"is_disabled":false,"rental_uris":{"android":"levelo://app?vid=aa123961-c527-4db0-9350-7d548f67905a","ios":"levelo://app?vid=aa123961-c527-4db0-9350-7d548f67905a"},"vehicle_type_id":"4","last_reported":1759252117,"current_range_meters":6000,"station_id":"","pricing_plan_id":"cebpf4jnsgd1na2vs0mg"},{"bike_id":"fe7fc2f6-6839-4dbe-9729-c38d799fab4b","system_id":"levelo_inurba_marseille","lat":43.28071,"lon":5.39655,"is_reserved":false,"is_disabled":false,"rental_uris":{"android":"levelo://app?vid=fe7fc2f6-6839-4dbe-9729-c38d799fab4b","ios":"levelo://app?vid=fe7fc2f6-6839-4dbe-9729-c38d799fab4b"},"vehicle_type_id":"4","last_reported":1759252117,"current_range_meters":6000,"station_id":"ce4bho12rcd13ifvqh2g","pricing_plan_id":"cebpf4jnsgd1na2vs0mg"},{"bike_id":"95480a17-f737-4a63-a71d-f70cd50c21fe","system_id":"levelo_inurba_marseille","lat":43.26806,"lon":5.40268,"is_reserved":false,"is_disabled":false,"rental_uris":{"android":"levelo://app?vid=95480a17-f737-4a63-a71d-f70cd50c21fe","ios":"levelo://app?vid=95480a17-f737-4a63-a71d-f70cd50c21fe"},"vehicle_type_id":"4","last_reported":1759252117,"current_range_meters":5600,"station_id":"ce501612rcd8frsf0b60","pricing_plan_id":"cebpf4jnsgd1na2vs0mg"},{"bike_id":"7e71bf40-0115-4ae7-adef-90c41b99073a","system_id":"levelo_inurba_marseille","lat":43.30418,"lon":5.412881,"is_reserved":false,"is_disabled":false,"rental_uris":{"android":"levelo://app?vid=7e71bf40-0115-4ae7-adef-90c41b99073a","ios":"levelo://app?vid=7e71bf40-0115-4ae7-adef-90c41b99073a"},"vehicle_type_id":"4","last_reported":1759252117,"current_range_meters":5600,"station_id":"ce4bhop2rcd13ifvqh8g","pricing_plan_id":"cebpf4jnsgd1na2vs0mg"},{"bike_id":"5a5f0890-1d3b-4da9-8863-5a0f4e6253ef","system_id":"levelo_inurba_marseille","lat":43.33025,"lon":5.39034,"is_reserved":false,"is_disabled":false,"rental_uris":{"android":"levelo://app?vid=5a5f0890-1d3b-4da9-8863-5a0f4e6253ef","ios":"levelo://app?vid=5a5f0890-1d3b-4da9-8863-5a0f4e6253ef"},"vehicle_type_id":"4","last_reported":1759252117,"current_range_meters":6000,"station_id":"ce4bhr92rcd13ifvqhrg","pricing_plan_id":"cebpf4jnsgd1na2vs0mg"},{"bike_id":"f213749f-7565-4d3f-82ac-87e9762b0873","system_id":"levelo_inurba_marseille","lat":43.292295,"lon":5.36066,"is_reserved":false,"is_disabled":false,"rental_uris":{"android":"levelo://app?vid=f213749f-7565-4d3f-82ac-87e9762b0873","ios":"levelo://app?vid=f213749f-7565-4d3f-82ac-87e9762b0873"},"vehicle_type_id":"4","last_reported":1759252117,"current_range_meters":6000,"station_id":"ce4bhbh2rcd13ifvqeqg","pricing_plan_id":"cebpf4jnsgd1na2vs0mg"},{"bike_id":"6ed62af2-d48e-4653-93a0-aebb70b75daa","system_id":"levelo_inurba_marseille","lat":43.29962,"lon":5.38506,"is_reserved":false,"is_disabled":false,"rental_uris":{"android":"levelo://app?vid=6ed62af2-d48e-4653-93a0-aebb70b75daa","ios":"levelo://app?vid=6ed62af2-d48e-4653-93a0-aebb70b75daa"},"vehicle_type_id":"4","last_reported":1759252117,"current_range_meters":6400,"station_id":"ce4bgj92rcd13ifvqbd0","pricing_plan_id":"cebpf4jnsgd1na2vs0mg"},{"bike_id":"29fb0313-96d0-4699-a2b9-d9bfae768dba","system_id":"levelo_inurba_marseille","lat":43.28161,"lon":5.42655,"is_reserved":false,"is_disabled":true,"rental_uris":{"android":"levelo://app?vid=29fb0313-96d0-4699-a2b9-d9bfae768dba","ios":"levelo://app?vid=29fb0313-96d0-4699-a2b9-d9bfae768dba"},"vehicle_type_id":"4","last_reported":1759252117,"current_range_meters":6400,"station_id":"ce4bhnh2rcd13ifvqgug","pricing_plan_id":"cebpf4jnsgd1na2vs0mg"},{"bike_id":"478b6ef2-1b57-43b8-94d3-4bb66843144b","system_id":"levelo_inurba_marseille","lat":43.28705,"lon":5.37927,"is_reserved":false,"is_disabled":false,"rental_uris":{"android":"levelo://app?vid=478b6ef2-1b57-43b8-94d3-4bb66843144b","ios":"levelo://app?vid=478b6ef2-1b57-43b8-94d3-4bb66843144b"},"vehicle_type_id":"4","last_reported":1759252117,"current_range_meters":6400,"station_id":"ce4bh9p2rcd13ifvqec0","pricing_plan_id":"cebpf4jnsgd1na2vs0mg"},{"bike_id":"cc6f264e-f016-47b9-9227-961de4c1f8b6","system_id":"levelo_inurba_marseille","lat":43.27569,"lon":5.38434,"is_reserved":false,"is_disabled":false,"rental_uris":{"android":"levelo://app?vid=cc6f264e-f016-47b9-9227-961de4c1f8b6","ios":"levelo://app?vid=cc6f264e-f016-47b9-9227-961de4c1f8b6"},"vehicle_type_id":"4","last_reported":1759252117,"current_range_meters":6400,"station_id":"ce4bhh92rcd13ifvqfi0","pricing_plan_id":"cebpf4jnsgd1na2vs0mg"},{"bike_id":"9dcbe79a-3457-4612-ba38-e3ad3a43d1b0","system_id":"levelo_inurba_marseille","lat":43.27428,"lon":5.39416,"is_reserved":false,"is_disabled":false,"rental_uris":{"android":"levelo://app?vid=9dcbe79a-3457-4612-ba38-e3ad3a43d1b0","ios":"levelo://app?vid=9dcbe79a-3457-4612-ba38-e3ad3a43d1b0"},"vehicle_type_id":"4","last_reported":1759252117,"current_range_meters":6400,"station_id":"ce4bhdp2rcd13ifvqf20","pricing_plan_id":"cebpf4jnsgd1na2vs0mg"},{"bike_id":"c902c176-f72b-4261-896c-0af6e2447681","system_id":"levelo_inurba_marseille","lat":43.29198,"lon":5.35805,"is_reserved":false,"is_disabled":false,"rental_uris":{"android":"levelo://app?vid=c902c176-f72b-4261-896c-0af6e2447681","ios":"levelo://app?vid=c902c176-f72b-4261-896c-0af6e2447681"},"vehicle_type_id":"4","last_reported":1759252117,"current_range_meters":6400,"station_id":"ce4bhb12rcd13ifvqel0","pricing_plan_id":"cebpf4jnsgd1na2vs0mg"},{"bike_id":"da9a94f9-08c9-4860-92b2-920e08001d67","system_id":"levelo_inurba_marseille","lat":43.27305,"lon":5.3909,"is_reserved":false,"is_disabled":false,"rental_uris":{"android":"levelo://app?vid=da9a94f9-08c9-4860-92b2-920e08001d67","ios":"levelo://app?vid=da9a94f9-08c9-4860-92b2-920e08001d67"},"vehicle_type_id":"4","last_reported":1759252117,"current_range_meters":6400,"station_id":"ce4bhgp2rcd13ifvqfe0","pricing_plan_id":"cebpf4jnsgd1na2vs0mg"},{"bike_id":"f0dcea08-dd5f-4ecd-b10c-e63844faca7d","system_id":"levelo_inurba_marseille","lat":43.30414,"lon":5.41292,"is_reserved":false,"is_disabled":false,"rental_uris":{"android":"levelo://app?vid=f0dcea08-dd5f-4ecd-b10c-e63844faca7d","ios":"levelo://app?vid=f0dcea08-dd5f-4ecd-b10c-e63844faca7d"},"vehicle_type_id":"4","last_reported":1759252117,"current_range_meters":6800,"station_id":"ce4bhop2rcd13ifvqh8g","pricing_plan_id":"cebpf4jnsgd1na2vs0mg"},{"bike_id":"66d804a5-1cf7-4072-906e-3b4d4b298fab","system_id":"levelo_inurba_marseille","lat":43.29117,"lon":5.37558,"is_reserved":false,"is_disabled":false,"rental_uris":{"android":"levelo://app?vid=66d804a5-1cf7-4072-906e-3b4d4b298fab","ios":"levelo://app?vid=66d804a5-1cf7-4072-906e-3b4d4b298fab"},"vehicle_type_id":"4","last_reported":1759252117,"current_range_meters":6800,"station_id":"","pricing_plan_id":"cebpf4jnsgd1na2vs0mg"},{"bike_id":"ee96a502-9b76-492e-840a-498b02aefe72","system_id":"levelo_inurba_marseille","lat":43.32358,"lon":5.39224,"is_reserved":false,"is_disabled":false,"rental_uris":{"android":"levelo://app?vid=ee96a502-9b76-492e-840a-498b02aefe72","ios":"levelo://app?vid=ee96a502-9b76-492e-840a-498b02aefe72"},"vehicle_type_id":"4","last_reported":1759252117,"current_range_meters":6800,"station_id":"","pricing_plan_id":"cebpf4jnsgd1na2vs0mg"},{"bike_id":"ea59b303-6900-42ad-9e79-5b0f95bedd6c","system_id":"levelo_inurba_marseille","lat":43.30442,"lon":5.36883,"is_reserved":false,"is_disabled":false,"rental_uris":{"android":"levelo://app?vid=ea59b303-6900-42ad-9e79-5b0f95bedd6c","ios":"levelo://app?vid=ea59b303-6900-42ad-9e79-5b0f95bedd6c"},"vehicle_type_id":"4","last_reported":1759252117,"current_range_meters":6800,"station_id":"","pricing_plan_id":"cebpf4jnsgd1na2vs0mg"},{"bike_id":"ce5e157e-4ef2-4c41-9b3b-54d3eecbfa45","system_id":"levelo_inurba_marseille","lat":43.2251,"lon":5.34839,"is_reserved":false,"is_disabled":false,"rental_uris":{"android":"levelo://app?vid=ce5e157e-4ef2-4c41-9b3b-54d3eecbfa45","ios":"levelo://app?vid=ce5e157e-4ef2-4c41-9b3b-54d3eecbfa45"},"vehicle_type_id":"4","last_reported":1759252117,"current_range_meters":6800,"station_id":"","pricing_plan_id":"cebpf4jnsgd1na2vs0mg"},{"bike_id":"da701dd3-f09f-47c0-942f-cd812f642af1","system_id":"levelo_inurba_marseille","lat":43.30428,"lon":5.39758,"is_reserved":false,"is_disabled":false,"rental_uris":{"android":"levelo://app?vid=da701dd3-f09f-47c0-942f-cd812f642af1","ios":"levelo://app?vid=da701dd3-f09f-47c0-942f-cd812f642af1"},"vehicle_type_id":"4","last_reported":1759252117,"current_range_meters":7200,"station_id":"ce4bh092rcd13ifvqd20","pricing_plan_id":"cebpf4jnsgd1na2vs0mg"},{"bike_id":"84596125-005d-4e45-9f54-d166dd34afb5","system_id":"levelo_inurba_marseille","lat":43.270573,"lon":5.402532,"is_reserved":false,"is_disabled":false,"rental_uris":{"android":"levelo://app?vid=84596125-005d-4e45-9f54-d166dd34afb5","ios":"levelo://app?vid=84596125-005d-4e45-9f54-d166dd34afb5"},"vehicle_type_id":"4","last_reported":1759252117,"current_range_meters":7200,"station_id":"","pricing_plan_id":"cebpf4jnsgd1na2vs0mg"},{"bike_id":"957297ae-b096-4deb-8ae7-3a95bcb39cf1","system_id":"levelo_inurba_marseille","lat":43.27948,"lon":5.41049,"is_reserved":false,"is_disabled":false,"rental_uris":{"android":"levelo://app?vid=957297ae-b096-4deb-8ae7-3a95bcb39cf1","ios":"levelo://app?vid=957297ae-b096-4deb-8ae7-3a95bcb39cf1"},"vehicle_type_id":"4","last_reported":1759252117,"current_range_meters":7200,"station_id":"ce4bhnp2rcd13ifvqh0g","pricing_plan_id":"cebpf4jnsgd1na2vs0mg"},{"bike_id":"73e15125-8380-4117-8e2f-985459ee9eb6","system_id":"levelo_inurba_marseille","lat":43.24946,"lon":5.40494,"is_reserved":false,"is_disabled":false,"rental_uris":{"android":"levelo://app?vid=73e15125-8380-4117-8e2f-985459ee9eb6","ios":"levelo://app?vid=73e15125-8380-4117-8e2f-985459ee9eb6"},"vehicle_type_id":"4","last_reported":1759252117,"current_range_meters":7200,"station_id":"st_d2ngiaodas8pm72gd1h0","pricing_plan_id":"cebpf4jnsgd1na2vs0mg"},{"bike_id":"9c4235da-d3d0-4056-aa6b-c6aa6e8e7367","system_id":"levelo_inurba_marseille","lat":43.30671,"lon":5.37516,"is_reserved":false,"is_disabled":false,"rental_uris":{"android":"levelo://app?vid=9c4235da-d3d0-4056-aa6b-c6aa6e8e7367","ios":"levelo://app?vid=9c4235da-d3d0-4056-aa6b-c6aa6e8e7367"},"vehicle_type_id":"4","last_reported":1759252117,"current_range_meters":7200,"station_id":"","pricing_plan_id":"cebpf4jnsgd1na2vs0mg"},{"bike_id":"6679979c-8ecd-4aec-9372-fc40347a0bb9","system_id":"levelo_inurba_marseille","lat":43.31711,"lon":5.43698,"is_reserved":false,"is_disabled":false,"rental_uris":{"android":"levelo://app?vid=6679979c-8ecd-4aec-9372-fc40347a0bb9","ios":"levelo://app?vid=6679979c-8ecd-4aec-9372-fc40347a0bb9"},"vehicle_type_id":"4","last_reported":1759252117,"current_range_meters":2000,"station_id":"ce4bhp92rcd13ifvqhcg","pricing_plan_id":"cebpf4jnsgd1na2vs0mg"},{"bike_id":"c20f5df3-00f9-4637-9b22-fcc5ef0c49f1","system_id":"levelo_inurba_marseille","lat":43.30325,"lon":5.40435,"is_reserved":false,"is_disabled":false,"rental_uris":{"android":"levelo://app?vid=c20f5df3-00f9-4637-9b22-fcc5ef0c49f1","ios":"levelo://app?vid=c20f5df3-00f9-4637-9b22-fcc5ef0c49f1"},"vehicle_type_id":"4","last_reported":1759252117,"current_range_meters":7200,"station_id":"ce4bh012rcd13ifvqd10","pricing_plan_id":"cebpf4jnsgd1na2vs0mg"},{"bike_id":"dd5e8987-9f51-4f50-bdd1-4945b8c8a574","system_id":"levelo_inurba_marseille","lat":43.25573,"lon":5.38257,"is_reserved":false,"is_disabled":true,"rental_uris":{"android":"levelo://app?vid=dd5e8987-9f51-4f50-bdd1-4945b8c8a574","ios":"levelo://app?vid=dd5e8987-9f51-4f50-bdd1-4945b8c8a574"},"vehicle_type_id":"4","last_reported":1759252117,"current_range_meters":8000,"station_id":"ce4bhih2rcd13ifvqfs0","pricing_plan_id":"cebpf4jnsgd1na2vs0mg"},{"bike_id":"c9f7c894-4df2-4643-ac68-955fcc67beeb","system_id":"levelo_inurba_marseille","lat":43.279978,"lon":5.416615,"is_reserved":false,"is_disabled":true,"rental_uris":{"android":"levelo://app?vid=c9f7c894-4df2-4643-ac68-955fcc67beeb","ios":"levelo://app?vid=c9f7c894-4df2-4643-ac68-955fcc67beeb"},"vehicle_type_id":"4","last_reported":1759252117,"current_range_meters":8000,"station_id":"ce4bho12rcd13ifvqh1g","pricing_plan_id":"cebpf4jnsgd1na2vs0mg"},{"bike_id":"9a9f9e55-6434-487e-8512-cf6d2377e692","system_id":"levelo_inurba_marseille","lat":43.29257,"lon":5.40151,"is_reserved":false,"is_disabled":false,"rental_uris":{"android":"levelo://app?vid=9a9f9e55-6434-487e-8512-cf6d2377e692","ios":"levelo://app?vid=9a9f9e55-6434-487e-8512-cf6d2377e692"},"vehicle_type_id":"4","last_reported":1759252117,"current_range_meters":8000,"station_id":"ce4bh312rcd13ifvqdk0","pricing_plan_id":"cebpf4jnsgd1na2vs0mg"},{"bike_id":"ccf279c8-edbd-4fd4-b165-062c84d8ec3d","system_id":"levelo_inurba_marseille","lat":43.267781,"lon":5.394179,"is_reserved":false,"is_disabled":false,"rental_uris":{"android":"levelo://app?vid=ccf279c8-edbd-4fd4-b165-062c84d8ec3d","ios":"levelo://app?vid=ccf279c8-edbd-4fd4-b165-062c84d8ec3d"},"vehicle_type_id":"4","last_reported":1759252117,"current_range_meters":8000,"station_id":"ce4bhh12rcd13ifvqfg0","pricing_plan_id":"cebpf4jnsgd1na2vs0mg"},{"bike_id":"6734c476-4598-422c-9549-b4dfcd11231a","system_id":"levelo_inurba_marseille","lat":43.29408,"lon":5.43252,"is_reserved":false,"is_disabled":false,"rental_uris":{"android":"levelo://app?vid=6734c476-4598-422c-9549-b4dfcd11231a","ios":"levelo://app?vid=6734c476-4598-422c-9549-b4dfcd11231a"},"vehicle_type_id":"4","last_reported":1759252117,"current_range_meters":8000,"station_id":"","pricing_plan_id":"cebpf4jnsgd1na2vs0mg"},{"bike_id":"cd436e85-6ef0-4653-89b6-86d425addbe8","system_id":"levelo_inurba_marseille","lat":43.30903,"lon":5.37186,"is_reserved":false,"is_disabled":false,"rental_uris":{"android":"levelo://app?vid=cd436e85-6ef0-4653-89b6-86d425addbe8","ios":"levelo://app?vid=cd436e85-6ef0-4653-89b6-86d425addbe8"},"vehicle_type_id":"4","last_reported":1759252117,"current_range_meters":8000,"station_id":"ce4bguh2rcd13ifvqckg","pricing_plan_id":"cebpf4jnsgd1na2vs0mg"},{"bike_id":"a07a513e-e5a9-4481-8592-d991379bc662","system_id":"levelo_inurba_marseille","lat":43.33735,"lon":5.37481,"is_reserved":false,"is_disabled":false,"rental_uris":{"android":"levelo://app?vid=a07a513e-e5a9-4481-8592-d991379bc662","ios":"levelo://app?vid=a07a513e-e5a9-4481-8592-d991379bc662"},"vehicle_type_id":"4","last_reported":1759252117,"current_range_meters":8000,"station_id":"","pricing_plan_id":"cebpf4jnsgd1na2vs0mg"},{"bike_id":"8654f01a-6bed-4670-b810-403164e5bb79","system_id":"levelo_inurba_marseille","lat":43.29005,"lon":5.35617,"is_reserved":false,"is_disabled":false,"rental_uris":{"android":"levelo://app?vid=8654f01a-6bed-4670-b810-403164e5bb79","ios":"levelo://app?vid=8654f01a-6bed-4670-b810-403164e5bb79"},"vehicle_type_id":"4","last_reported":1759252117,"current_range_meters":8400,"station_id":"ce4bhb92rcd13ifvqen0","pricing_plan_id":"cebpf4jnsgd1na2vs0mg"},{"bike_id":"321eedbc-0e15-426d-99bd-5561c80fcce6","system_id":"levelo_inurba_marseille","lat":43.292678,"lon":5.384447,"is_reserved":false,"is_disabled":false,"rental_uris":{"android":"levelo://app?vid=321eedbc-0e15-426d-99bd-5561c80fcce6","ios":"levelo://app?vid=321eedbc-0e15-426d-99bd-5561c80fcce6"},"vehicle_type_id":"4","last_reported":1759252117,"current_range_meters":8400,"station_id":"ce4bh692rcd13ifvqea0","pricing_plan_id":"cebpf4jnsgd1na2vs0mg"},{"bike_id":"3b36e7ec-11e3-4006-a448-22e949a7a19d","system_id":"levelo_inurba_marseille","lat":43.22929,"lon":5.3538,"is_reserved":false,"is_disabled":false,"rental_uris":{"android":"levelo://app?vid=3b36e7ec-11e3-4006-a448-22e949a7a19d","ios":"levelo://app?vid=3b36e7ec-11e3-4006-a448-22e949a7a19d"},"vehicle_type_id":"4","last_reported":1759252117,"current_range_meters":8400,"station_id":"cpo3532slgdg3j2ikp40","pricing_plan_id":"cebpf4jnsgd1na2vs0mg"},{"bike_id":"12d4dcdf-fc4c-4345-8953-6b0aed27bb63","system_id":"levelo_inurba_marseille","lat":43.291626,"lon":5.388526,"is_reserved":false,"is_disabled":false,"rental_uris":{"android":"levelo://app?vid=12d4dcdf-fc4c-4345-8953-6b0aed27bb63","ios":"levelo://app?vid=12d4dcdf-fc4c-4345-8953-6b0aed27bb63"},"vehicle_type_id":"4","last_reported":1759252117,"current_range_meters":8400,"station_id":"","pricing_plan_id":"cebpf4jnsgd1na2vs0mg"},{"bike_id":"1824d1a5-6abf-47b2-ac81-0e442779e954","system_id":"levelo_inurba_marseille","lat":43.28037,"lon":5.36939,"is_reserved":false,"is_disabled":true,"rental_uris":{"android":"levelo://app?vid=1824d1a5-6abf-47b2-ac81-0e442779e954","ios":"levelo://app?vid=1824d1a5-6abf-47b2-ac81-0e442779e954"},"vehicle_type_id":"4","last_reported":1759252117,"current_range_meters":8400,"station_id":"ce4bha12rcd13ifvqef0","pricing_plan_id":"cebpf4jnsgd1na2vs0mg"},{"bike_id":"c627b34a-8e81-4438-af3b-4fd0aab1c160","system_id":"levelo_inurba_marseille","lat":43.29672,"lon":5.36044,"is_reserved":false,"is_disabled":false,"rental_uris":{"android":"levelo://app?vid=c627b34a-8e81-4438-af3b-4fd0aab1c160","ios":"levelo://app?vid=c627b34a-8e81-4438-af3b-4fd0aab1c160"},"vehicle_type_id":"4","last_reported":1759252117,"current_range_meters":8400,"station_id":"","pricing_plan_id":"cebpf4jnsgd1na2vs0mg"},{"bike_id":"a2b889f9-ffe3-4f56-ba50-e39614151ce6","system_id":"levelo_inurba_marseille","lat":43.29851,"lon":5.3629,"is_reserved":false,"is_disabled":true,"rental_uris":{"android":"levelo://app?vid=a2b889f9-ffe3-4f56-ba50-e39614151ce6","ios":"levelo://app?vid=a2b889f9-ffe3-4f56-ba50-e39614151ce6"},"vehicle_type_id":"4","last_reported":1759252117,"current_range_meters":8400,"station_id":"ce4bgpp2rcd13ifvqc3g","pricing_plan_id":"cebpf4jnsgd1na2vs0mg"},{"bike_id":"3debc07e-b99d-4fab-941c-151ff1373afa","system_id":"levelo_inurba_marseille","lat":43.29957,"lon":5.3853,"is_reserved":false,"is_disabled":false,"rental_uris":{"android":"levelo://app?vid=3debc07e-b99d-4fab-941c-151ff1373afa","ios":"levelo://app?vid=3debc07e-b99d-4fab-941c-151ff1373afa"},"vehicle_type_id":"4","last_reported":1759252117,"current_range_meters":8400,"station_id":"ce4bgj92rcd13ifvqbd0","pricing_plan_id":"cebpf4jnsgd1na2vs0mg"},{"bike_id":"960064d6-b260-4044-9375-192826b637cd","system_id":"levelo_inurba_marseille","lat":43.29704,"lon":5.36602,"is_reserved":false,"is_disabled":false,"rental_uris":{"android":"levelo://app?vid=960064d6-b260-4044-9375-192826b637cd","ios":"levelo://app?vid=960064d6-b260-4044-9375-192826b637cd"},"vehicle_type_id":"4","last_reported":1759252117,"current_range_meters":8000,"station_id":"ce4bgn12rcd13ifvqbt0","pricing_plan_id":"cebpf4jnsgd1na2vs0mg"},{"bike_id":"a8cf37d7-d6b2-46bd-989d-e56c7a1384a3","system_id":"levelo_inurba_marseille","lat":43.29705,"lon":5.37284,"is_reserved":false,"is_disabled":false,"rental_uris":{"android":"levelo://app?vid=a8cf37d7-d6b2-46bd-989d-e56c7a1384a3","ios":"levelo://app?vid=a8cf37d7-d6b2-46bd-989d-e56c7a1384a3"},"vehicle_type_id":"4","last_reported":1759252117,"current_range_meters":8400,"station_id":"ce4bgk12rcd13ifvqbj0","pricing_plan_id":"cebpf4jnsgd1na2vs0mg"},{"bike_id":"d1321ee8-92cf-49db-8cde-72aa0bdc4590","system_id":"levelo_inurba_marseille","lat":43.2718,"lon":5.40997,"is_reserved":false,"is_disabled":false,"rental_uris":{"android":"levelo://app?vid=d1321ee8-92cf-49db-8cde-72aa0bdc4590","ios":"levelo://app?vid=d1321ee8-92cf-49db-8cde-72aa0bdc4590"},"vehicle_type_id":"4","last_reported":1759252117,"current_range_meters":8400,"station_id":"ce4bhl12rcd13ifvqgf0","pricing_plan_id":"cebpf4jnsgd1na2vs0mg"},{"bike_id":"77868db6-652c-46c4-9e42-489a63b61e28","system_id":"levelo_inurba_marseille","lat":43.2606,"lon":5.39398,"is_reserved":false,"is_disabled":false,"rental_uris":{"android":"levelo://app?vid=77868db6-652c-46c4-9e42-489a63b61e28","ios":"levelo://app?vid=77868db6-652c-46c4-9e42-489a63b61e28"},"vehicle_type_id":"4","last_reported":1759252117,"current_range_meters":8800,"station_id":"ce4bhh92rcd13ifvqfj0","pricing_plan_id":"cebpf4jnsgd1na2vs0mg"},{"bike_id":"fa7b8d5d-cda7-4720-9ca3-21b0406e462a","system_id":"levelo_inurba_marseille","lat":43.295248,"lon":5.37505,"is_reserved":false,"is_disabled":false,"rental_uris":{"android":"levelo://app?vid=fa7b8d5d-cda7-4720-9ca3-21b0406e462a","ios":"levelo://app?vid=fa7b8d5d-cda7-4720-9ca3-21b0406e462a"},"vehicle_type_id":"4","last_reported":1759252117,"current_range_meters":8800,"station_id":"","pricing_plan_id":"cebpf4jnsgd1na2vs0mg"},{"bike_id":"498de633-1978-409b-aa35-b617d56ba506","system_id":"levelo_inurba_marseille","lat":43.289401,"lon":5.366452,"is_reserved":false,"is_disabled":false,"rental_uris":{"android":"levelo://app?vid=498de633-1978-409b-aa35-b617d56ba506","ios":"levelo://app?vid=498de633-1978-409b-aa35-b617d56ba506"},"vehicle_type_id":"4","last_reported":1759252117,"current_range_meters":8800,"station_id":"ce4bhap2rcd13ifvqek0","pricing_plan_id":"cebpf4jnsgd1na2vs0mg"},{"bike_id":"5b588158-7cf7-4419-ba0d-ab5a99390655","system_id":"levelo_inurba_marseille","lat":43.29812,"lon":5.40395,"is_reserved":false,"is_disabled":false,"rental_uris":{"android":"levelo://app?vid=5b588158-7cf7-4419-ba0d-ab5a99390655","ios":"levelo://app?vid=5b588158-7cf7-4419-ba0d-ab5a99390655"},"vehicle_type_id":"4","last_reported":1759252117,"current_range_meters":8400,"station_id":"ce4bh112rcd13ifvqd90","pricing_plan_id":"cebpf4jnsgd1na2vs0mg"},{"bike_id":"b3aac7b4-0ed6-4ddc-9d19-ef755d070cd4","system_id":"levelo_inurba_marseille","lat":43.308026,"lon":5.435257,"is_reserved":false,"is_disabled":false,"rental_uris":{"android":"levelo://app?vid=b3aac7b4-0ed6-4ddc-9d19-ef755d070cd4","ios":"levelo://app?vid=b3aac7b4-0ed6-4ddc-9d19-ef755d070cd4"},"vehicle_type_id":"4","last_reported":1759252117,"current_range_meters":8800,"station_id":"ce4bhph2rcd13ifvqheg","pricing_plan_id":"cebpf4jnsgd1na2vs0mg"},{"bike_id":"caf89327-8797-4540-a739-26032b1d8eea","system_id":"levelo_inurba_marseille","lat":43.289699,"lon":5.363452,"is_reserved":false,"is_disabled":false,"rental_uris":{"android":"levelo://app?vid=caf89327-8797-4540-a739-26032b1d8eea","ios":"levelo://app?vid=caf89327-8797-4540-a739-26032b1d8eea"},"vehicle_type_id":"4","last_reported":1759252117,"current_range_meters":9200,"station_id":"ce4bhc92rcd13ifvqetg","pricing_plan_id":"cebpf4jnsgd1na2vs0mg"},{"bike_id":"0662e5ec-17b3-4da7-8ffc-903097426f9d","system_id":"levelo_inurba_marseille","lat":43.31713,"lon":5.43714,"is_reserved":false,"is_disabled":false,"rental_uris":{"android":"levelo://app?vid=0662e5ec-17b3-4da7-8ffc-903097426f9d","ios":"levelo://app?vid=0662e5ec-17b3-4da7-8ffc-903097426f9d"},"vehicle_type_id":"4","last_reported":1759252117,"current_range_meters":9200,"station_id":"ce4bhp92rcd13ifvqhcg","pricing_plan_id":"cebpf4jnsgd1na2vs0mg"},{"bike_id":"3941c868-ba2c-4f2d-a0fc-a2c352a499e1","system_id":"levelo_inurba_marseille","lat":43.27259,"lon":5.39139,"is_reserved":false,"is_disabled":false,"rental_uris":{"android":"levelo://app?vid=3941c868-ba2c-4f2d-a0fc-a2c352a499e1","ios":"levelo://app?vid=3941c868-ba2c-4f2d-a0fc-a2c352a499e1"},"vehicle_type_id":"4","last_reported":1759252117,"current_range_meters":9200,"station_id":"","pricing_plan_id":"cebpf4jnsgd1na2vs0mg"},{"bike_id":"a81dfd6a-2465-46b1-949e-4ab8ce9fceeb","system_id":"levelo_inurba_marseille","lat":43.32368,"lon":5.3888,"is_reserved":false,"is_disabled":false,"rental_uris":{"android":"levelo://app?vid=a81dfd6a-2465-46b1-949e-4ab8ce9fceeb","ios":"levelo://app?vid=a81dfd6a-2465-46b1-949e-4ab8ce9fceeb"},"vehicle_type_id":"4","last_reported":1759252117,"current_range_meters":9200,"station_id":"ce4bhqp2rcd13ifvqhog","pricing_plan_id":"cebpf4jnsgd1na2vs0mg"},{"bike_id":"aebf0e68-ba27-412a-9ce2-11cc42127dee","system_id":"levelo_inurba_marseille","lat":43.337444,"lon":5.374475,"is_reserved":false,"is_disabled":false,"rental_uris":{"android":"levelo://app?vid=aebf0e68-ba27-412a-9ce2-11cc42127dee","ios":"levelo://app?vid=aebf0e68-ba27-412a-9ce2-11cc42127dee"},"vehicle_type_id":"4","last_reported":1759252117,"current_range_meters":9200,"station_id":"","pricing_plan_id":"cebpf4jnsgd1na2vs0mg"},{"bike_id":"5f8245c1-d6d3-4e20-af8e-6d792fdc04ce","system_id":"levelo_inurba_marseille","lat":43.29882,"lon":5.45594,"is_reserved":false,"is_disabled":false,"rental_uris":{"android":"levelo://app?vid=5f8245c1-d6d3-4e20-af8e-6d792fdc04ce","ios":"levelo://app?vid=5f8245c1-d6d3-4e20-af8e-6d792fdc04ce"},"vehicle_type_id":"4","last_reported":1759252117,"current_range_meters":9600,"station_id":"","pricing_plan_id":"cebpf4jnsgd1na2vs0mg"},{"bike_id":"ea8d3c42-8a80-4017-9843-7f4319432d39","system_id":"levelo_inurba_marseille","lat":43.31525,"lon":5.38034,"is_reserved":false,"is_disabled":false,"rental_uris":{"android":"levelo://app?vid=ea8d3c42-8a80-4017-9843-7f4319432d39","ios":"levelo://app?vid=ea8d3c42-8a80-4017-9843-7f4319432d39"},"vehicle_type_id":"4","last_reported":1759252117,"current_range_meters":9200,"station_id":"ce4bhsp2rcd13ifvqi50","pricing_plan_id":"cebpf4jnsgd1na2vs0mg"},{"bike_id":"b6136ad6-7d5f-47f2-809a-ba59d3d80ca8","system_id":"levelo_inurba_marseille","lat":43.29792,"lon":5.38109,"is_reserved":false,"is_disabled":false,"rental_uris":{"android":"levelo://app?vid=b6136ad6-7d5f-47f2-809a-ba59d3d80ca8","ios":"levelo://app?vid=b6136ad6-7d5f-47f2-809a-ba59d3d80ca8"},"vehicle_type_id":"4","last_reported":1759252117,"current_range_meters":9600,"station_id":"ce4bgip2rcd13ifvqbb0","pricing_plan_id":"cebpf4jnsgd1na2vs0mg"},{"bike_id":"56d6a008-a903-4bd5-8ee3-1cec5d05c634","system_id":"levelo_inurba_marseille","lat":43.31749,"lon":5.39024,"is_reserved":false,"is_disabled":true,"rental_uris":{"android":"levelo://app?vid=56d6a008-a903-4bd5-8ee3-1cec5d05c634","ios":"levelo://app?vid=56d6a008-a903-4bd5-8ee3-1cec5d05c634"},"vehicle_type_id":"4","last_reported":1759252117,"current_range_meters":9600,"station_id":"ce4bhqp2rcd13ifvqhng","pricing_plan_id":"cebpf4jnsgd1na2vs0mg"},{"bike_id":"8a0f78b7-a18c-4458-8341-93555dbadb82","system_id":"levelo_inurba_marseille","lat":43.24681,"lon":5.38145,"is_reserved":false,"is_disabled":false,"rental_uris":{"android":"levelo://app?vid=8a0f78b7-a18c-4458-8341-93555dbadb82","ios":"levelo://app?vid=8a0f78b7-a18c-4458-8341-93555dbadb82"},"vehicle_type_id":"4","last_reported":1759252117,"current_range_meters":9600,"station_id":"ce4bhih2rcd13ifvqfr0","pricing_plan_id":"cebpf4jnsgd1na2vs0mg"},{"bike_id":"400a13d3-2dcc-4b4f-91a1-3b839b24ea7d","system_id":"levelo_inurba_marseille","lat":43.28597,"lon":5.39175,"is_reserved":false,"is_disabled":false,"rental_uris":{"android":"levelo://app?vid=400a13d3-2dcc-4b4f-91a1-3b839b24ea7d","ios":"levelo://app?vid=400a13d3-2dcc-4b4f-91a1-3b839b24ea7d"},"vehicle_type_id":"4","last_reported":1759252117,"current_range_meters":10000,"station_id":"","pricing_plan_id":"cebpf4jnsgd1na2vs0mg"},{"bike_id":"b22a8665-e350-45ae-a4a9-b05d5f128635","system_id":"levelo_inurba_marseille","lat":43.282256,"lon":5.39069,"is_reserved":false,"is_disabled":false,"rental_uris":{"android":"levelo://app?vid=b22a8665-e350-45ae-a4a9-b05d5f128635","ios":"levelo://app?vid=b22a8665-e350-45ae-a4a9-b05d5f128635"},"vehicle_type_id":"4","last_reported":1759252117,"current_range_meters":10000,"station_id":"ce4bhn92rcd13ifvqgsg","pricing_plan_id":"cebpf4jnsgd1na2vs0mg"},{"bike_id":"16ebf84b-c860-4b9f-ba73-b9f19442924a","system_id":"levelo_inurba_marseille","lat":43.31886,"lon":5.40747,"is_reserved":false,"is_disabled":false,"rental_uris":{"android":"levelo://app?vid=16ebf84b-c860-4b9f-ba73-b9f19442924a","ios":"levelo://app?vid=16ebf84b-c860-4b9f-ba73-b9f19442924a"},"vehicle_type_id":"4","last_reported":1759252117,"current_range_meters":10000,"station_id":"ce4bhq12rcd13ifvqhig","pricing_plan_id":"cebpf4jnsgd1na2vs0mg"},{"bike_id":"340a84a9-8a69-4dfa-b1ad-1dfcdd217b02","system_id":"levelo_inurba_marseille","lat":43.27888,"lon":5.38013,"is_reserved":false,"is_disabled":false,"rental_uris":{"android":"levelo://app?vid=340a84a9-8a69-4dfa-b1ad-1dfcdd217b02","ios":"levelo://app?vid=340a84a9-8a69-4dfa-b1ad-1dfcdd217b02"},"vehicle_type_id":"4","last_reported":1759252117,"current_range_meters":9600,"station_id":"ce4bhf92rcd13ifvqf50","pricing_plan_id":"cebpf4jnsgd1na2vs0mg"},{"bike_id":"8cbcf5e7-b804-4925-bbed-5f57e8580ccf","system_id":"levelo_inurba_marseille","lat":43.31519,"lon":5.36803,"is_reserved":false,"is_disabled":false,"rental_uris":{"android":"levelo://app?vid=8cbcf5e7-b804-4925-bbed-5f57e8580ccf","ios":"levelo://app?vid=8cbcf5e7-b804-4925-bbed-5f57e8580ccf"},"vehicle_type_id":"4","last_reported":1759252117,"current_range_meters":10000,"station_id":"","pricing_plan_id":"cebpf4jnsgd1na2vs0mg"},{"bike_id":"3b5c329f-a551-4466-9838-3a636fb24d93","system_id":"levelo_inurba_marseille","lat":43.25416,"lon":5.41859,"is_reserved":false,"is_disabled":false,"rental_uris":{"android":"levelo://app?vid=3b5c329f-a551-4466-9838-3a636fb24d93","ios":"levelo://app?vid=3b5c329f-a551-4466-9838-3a636fb24d93"},"vehicle_type_id":"4","last_reported":1759252117,"current_range_meters":10000,"station_id":"","pricing_plan_id":"cebpf4jnsgd1na2vs0mg"},{"bike_id":"414613e0-ff11-48e7-a8f6-7feee15ccc5c","system_id":"levelo_inurba_marseille","lat":43.29537,"lon":5.38548,"is_reserved":false,"is_disabled":false,"rental_uris":{"android":"levelo://app?vid=414613e0-ff11-48e7-a8f6-7feee15ccc5c","ios":"levelo://app?vid=414613e0-ff11-48e7-a8f6-7feee15ccc5c"},"vehicle_type_id":"4","last_reported":1759252117,"current_range_meters":10000,"station_id":"ce4bgih2rcd13ifvqba0","pricing_plan_id":"cebpf4jnsgd1na2vs0mg"},{"bike_id":"99ce2063-5dfb-4ed3-a4a6-8fc3a54c4890","system_id":"levelo_inurba_marseille","lat":43.337444,"lon":5.374475,"is_reserved":false,"is_disabled":false,"rental_uris":{"android":"levelo://app?vid=99ce2063-5dfb-4ed3-a4a6-8fc3a54c4890","ios":"levelo://app?vid=99ce2063-5dfb-4ed3-a4a6-8fc3a54c4890"},"vehicle_type_id":"4","last_reported":1759252117,"current_range_meters":10000,"station_id":"","pricing_plan_id":"cebpf4jnsgd1na2vs0mg"},{"bike_id":"8634580f-2f96-4841-aa01-be9c2bef4f4a","system_id":"levelo_inurba_marseille","lat":43.23192,"lon":5.35546,"is_reserved":false,"is_disabled":false,"rental_uris":{"android":"levelo://app?vid=8634580f-2f96-4841-aa01-be9c2bef4f4a","ios":"levelo://app?vid=8634580f-2f96-4841-aa01-be9c2bef4f4a"},"vehicle_type_id":"4","last_reported":1759252117,"current_range_meters":10800,"station_id":"ce4bhu92rcd13ifvqi70","pricing_plan_id":"cebpf4jnsgd1na2vs0mg"},{"bike_id":"a5495814-8e91-4930-9d50-e701be75ed52","system_id":"levelo_inurba_marseille","lat":43.2953,"lon":5.38546,"is_reserved":false,"is_disabled":false,"rental_uris":{"android":"levelo://app?vid=a5495814-8e91-4930-9d50-e701be75ed52","ios":"levelo://app?vid=a5495814-8e91-4930-9d50-e701be75ed52"},"vehicle_type_id":"4","last_reported":1759252117,"current_range_meters":10800,"station_id":"ce4bgih2rcd13ifvqba0","pricing_plan_id":"cebpf4jnsgd1na2vs0mg"},{"bike_id":"13e561e4-4e22-4737-b384-728a655f08bd","system_id":"levelo_inurba_marseille","lat":43.29035,"lon":5.37565,"is_reserved":false,"is_disabled":false,"rental_uris":{"android":"levelo://app?vid=13e561e4-4e22-4737-b384-728a655f08bd","ios":"levelo://app?vid=13e561e4-4e22-4737-b384-728a655f08bd"},"vehicle_type_id":"4","last_reported":1759252117,"current_range_meters":10000,"station_id":"ce4bh692rcd13ifvqe90","pricing_plan_id":"cebpf4jnsgd1na2vs0mg"},{"bike_id":"8b8aa30c-85b4-4229-a8de-1cb6a8102fb0","system_id":"levelo_inurba_marseille","lat":43.28039,"lon":5.36951,"is_reserved":false,"is_disabled":false,"rental_uris":{"android":"levelo://app?vid=8b8aa30c-85b4-4229-a8de-1cb6a8102fb0","ios":"levelo://app?vid=8b8aa30c-85b4-4229-a8de-1cb6a8102fb0"},"vehicle_type_id":"4","last_reported":1759252117,"current_range_meters":10800,"station_id":"ce4bha12rcd13ifvqef0","pricing_plan_id":"cebpf4jnsgd1na2vs0mg"},{"bike_id":"1f7e7023-0ead-4e0b-ac5c-dd9ff6c8f96c","system_id":"levelo_inurba_marseille","lat":43.30433,"lon":5.38884,"is_reserved":false,"is_disabled":false,"rental_uris":{"android":"levelo://app?vid=1f7e7023-0ead-4e0b-ac5c-dd9ff6c8f96c","ios":"levelo://app?vid=1f7e7023-0ead-4e0b-ac5c-dd9ff6c8f96c"},"vehicle_type_id":"4","last_reported":1759252117,"current_range_meters":10800,"station_id":"ce4bgk12rcd13ifvqbi0","pricing_plan_id":"cebpf4jnsgd1na2vs0mg"},{"bike_id":"a5f0a530-e565-4d6f-9f86-5c1f33e50827","system_id":"levelo_inurba_marseille","lat":43.29044,"lon":5.35918,"is_reserved":false,"is_disabled":false,"rental_uris":{"android":"levelo://app?vid=a5f0a530-e565-4d6f-9f86-5c1f33e50827","ios":"levelo://app?vid=a5f0a530-e565-4d6f-9f86-5c1f33e50827"},"vehicle_type_id":"4","last_reported":1759252117,"current_range_meters":10800,"station_id":"ce4bha92rcd13ifvqeg0","pricing_plan_id":"cebpf4jnsgd1na2vs0mg"},{"bike_id":"cb40128e-3310-4528-835c-7d54c2a6c6c3","system_id":"levelo_inurba_marseille","lat":43.257932,"lon":5.410882,"is_reserved":false,"is_disabled":false,"rental_uris":{"android":"levelo://app?vid=cb40128e-3310-4528-835c-7d54c2a6c6c3","ios":"levelo://app?vid=cb40128e-3310-4528-835c-7d54c2a6c6c3"},"vehicle_type_id":"4","last_reported":1759252117,"current_range_meters":10800,"station_id":"ce4bhkp2rcd13ifvqgd0","pricing_plan_id":"cebpf4jnsgd1na2vs0mg"},{"bike_id":"92662833-c6ac-4b02-b7df-1638b54b1972","system_id":"levelo_inurba_marseille","lat":43.33742,"lon":5.37449,"is_reserved":false,"is_disabled":false,"rental_uris":{"android":"levelo://app?vid=92662833-c6ac-4b02-b7df-1638b54b1972","ios":"levelo://app?vid=92662833-c6ac-4b02-b7df-1638b54b1972"},"vehicle_type_id":"4","last_reported":1759252117,"current_range_meters":10800,"station_id":"","pricing_plan_id":"cebpf4jnsgd1na2vs0mg"},{"bike_id":"f8d78e5f-60e1-4623-939f-49e76ff16505","system_id":"levelo_inurba_marseille","lat":43.33742,"lon":5.37448,"is_reserved":false,"is_disabled":false,"rental_uris":{"android":"levelo://app?vid=f8d78e5f-60e1-4623-939f-49e76ff16505","ios":"levelo://app?vid=f8d78e5f-60e1-4623-939f-49e76ff16505"},"vehicle_type_id":"4","last_reported":1759252117,"current_range_meters":10800,"station_id":"","pricing_plan_id":"cebpf4jnsgd1na2vs0mg"},{"bike_id":"7438ab62-a559-4f84-8240-504383cf978d","system_id":"levelo_inurba_marseille","lat":43.25721,"lon":5.41055,"is_reserved":false,"is_disabled":false,"rental_uris":{"android":"levelo://app?vid=7438ab62-a559-4f84-8240-504383cf978d","ios":"levelo://app?vid=7438ab62-a559-4f84-8240-504383cf978d"},"vehicle_type_id":"4","last_reported":1759252117,"current_range_meters":11200,"station_id":"ce4bhkp2rcd13ifvqgd0","pricing_plan_id":"cebpf4jnsgd1na2vs0mg"},{"bike_id":"b8d29e52-447e-4f76-ac99-c547abdfe7c7","system_id":"levelo_inurba_marseille","lat":43.26779,"lon":5.39418,"is_reserved":false,"is_disabled":false,"rental_uris":{"android":"levelo://app?vid=b8d29e52-447e-4f76-ac99-c547abdfe7c7","ios":"levelo://app?vid=b8d29e52-447e-4f76-ac99-c547abdfe7c7"},"vehicle_type_id":"4","last_reported":1759252117,"current_range_meters":11200,"station_id":"ce4bhh12rcd13ifvqfg0","pricing_plan_id":"cebpf4jnsgd1na2vs0mg"},{"bike_id":"1fd7c6f7-fd04-4cc2-a640-9cb5b690010f","system_id":"levelo_inurba_marseille","lat":43.27902,"lon":5.38018,"is_reserved":false,"is_disabled":false,"rental_uris":{"android":"levelo://app?vid=1fd7c6f7-fd04-4cc2-a640-9cb5b690010f","ios":"levelo://app?vid=1fd7c6f7-fd04-4cc2-a640-9cb5b690010f"},"vehicle_type_id":"4","last_reported":1759252117,"current_range_meters":10800,"station_id":"ce4bhf92rcd13ifvqf50","pricing_plan_id":"cebpf4jnsgd1na2vs0mg"},{"bike_id":"a9af3cc9-96dd-4c6c-b3ea-db35d941d557","system_id":"levelo_inurba_marseille","lat":43.2657,"lon":5.39019,"is_reserved":false,"is_disabled":false,"rental_uris":{"android":"levelo://app?vid=a9af3cc9-96dd-4c6c-b3ea-db35d941d557","ios":"levelo://app?vid=a9af3cc9-96dd-4c6c-b3ea-db35d941d557"},"vehicle_type_id":"4","last_reported":1759252117,"current_range_meters":11200,"station_id":"ce4bhe12rcd13ifvqf30","pricing_plan_id":"cebpf4jnsgd1na2vs0mg"},{"bike_id":"56ca0258-bee9-4eb2-b3c5-63b5cd0b9e67","system_id":"levelo_inurba_marseille","lat":43.33737,"lon":5.37445,"is_reserved":false,"is_disabled":false,"rental_uris":{"android":"levelo://app?vid=56ca0258-bee9-4eb2-b3c5-63b5cd0b9e67","ios":"levelo://app?vid=56ca0258-bee9-4eb2-b3c5-63b5cd0b9e67"},"vehicle_type_id":"4","last_reported":1759252117,"current_range_meters":11200,"station_id":"","pricing_plan_id":"cebpf4jnsgd1na2vs0mg"},{"bike_id":"84ebcd11-1124-45a8-b548-64f08413c385","system_id":"levelo_inurba_marseille","lat":43.28263,"lon":5.35084,"is_reserved":false,"is_disabled":false,"rental_uris":{"android":"levelo://app?vid=84ebcd11-1124-45a8-b548-64f08413c385","ios":"levelo://app?vid=84ebcd11-1124-45a8-b548-64f08413c385"},"vehicle_type_id":"4","last_reported":1759252117,"current_range_meters":11600,"station_id":"ce4bhbp2rcd13ifvqerg","pricing_plan_id":"cebpf4jnsgd1na2vs0mg"},{"bike_id":"2009811b-f301-41bb-ad88-70a6b0454eb7","system_id":"levelo_inurba_marseille","lat":43.2903,"lon":5.38144,"is_reserved":false,"is_disabled":false,"rental_uris":{"android":"levelo://app?vid=2009811b-f301-41bb-ad88-70a6b0454eb7","ios":"levelo://app?vid=2009811b-f301-41bb-ad88-70a6b0454eb7"},"vehicle_type_id":"4","last_reported":1759252117,"current_range_meters":11600,"station_id":"ce4bh4p2rcd13ifvqe1g","pricing_plan_id":"cebpf4jnsgd1na2vs0mg"},{"bike_id":"4c5fe284-92fa-4e9a-8223-96d15ee97918","system_id":"levelo_inurba_marseille","lat":43.31326,"lon":5.3969,"is_reserved":false,"is_disabled":false,"rental_uris":{"android":"levelo://app?vid=4c5fe284-92fa-4e9a-8223-96d15ee97918","ios":"levelo://app?vid=4c5fe284-92fa-4e9a-8223-96d15ee97918"},"vehicle_type_id":"4","last_reported":1759252117,"current_range_meters":11600,"station_id":"ce4bgvp2rcd13ifvqcu0","pricing_plan_id":"cebpf4jnsgd1na2vs0mg"},{"bike_id":"f56fc89b-3991-4048-8193-27cf7b6ee891","system_id":"levelo_inurba_marseille","lat":43.24171,"lon":5.36401,"is_reserved":false,"is_disabled":false,"rental_uris":{"android":"levelo://app?vid=f56fc89b-3991-4048-8193-27cf7b6ee891","ios":"levelo://app?vid=f56fc89b-3991-4048-8193-27cf7b6ee891"},"vehicle_type_id":"4","last_reported":1759252117,"current_range_meters":11600,"station_id":"cpo36qri1sfpv3e86is0","pricing_plan_id":"cebpf4jnsgd1na2vs0mg"},{"bike_id":"aef1f5db-2a86-462c-b7d6-aa5676d9ae8f","system_id":"levelo_inurba_marseille","lat":43.30881,"lon":5.39656,"is_reserved":false,"is_disabled":false,"rental_uris":{"android":"levelo://app?vid=aef1f5db-2a86-462c-b7d6-aa5676d9ae8f","ios":"levelo://app?vid=aef1f5db-2a86-462c-b7d6-aa5676d9ae8f"},"vehicle_type_id":"4","last_reported":1759252117,"current_range_meters":11200,"station_id":"ce4bh012rcd13ifvqcv0","pricing_plan_id":"cebpf4jnsgd1na2vs0mg"},{"bike_id":"3a2db986-3f57-4716-92dd-75d31b1866ed","system_id":"levelo_inurba_marseille","lat":43.28861,"lon":5.42516,"is_reserved":false,"is_disabled":false,"rental_uris":{"android":"levelo://app?vid=3a2db986-3f57-4716-92dd-75d31b1866ed","ios":"levelo://app?vid=3a2db986-3f57-4716-92dd-75d31b1866ed"},"vehicle_type_id":"4","last_reported":1759252117,"current_range_meters":12000,"station_id":"st_d3b462108ojc7389ooeg","pricing_plan_id":"cebpf4jnsgd1na2vs0mg"},{"bike_id":"df6f73c9-19b5-4c29-8789-4d0270326a50","system_id":"levelo_inurba_marseille","lat":43.29854,"lon":5.41298,"is_reserved":false,"is_disabled":false,"rental_uris":{"android":"levelo://app?vid=df6f73c9-19b5-4c29-8789-4d0270326a50","ios":"levelo://app?vid=df6f73c9-19b5-4c29-8789-4d0270326a50"},"vehicle_type_id":"4","last_reported":1759252117,"current_range_meters":12000,"station_id":"","pricing_plan_id":"cebpf4jnsgd1na2vs0mg"},{"bike_id":"0aba4fe3-5dca-4d79-8b9d-2fc77d6e7d70","system_id":"levelo_inurba_marseille","lat":43.28418,"lon":5.349815,"is_reserved":false,"is_disabled":false,"rental_uris":{"android":"levelo://app?vid=0aba4fe3-5dca-4d79-8b9d-2fc77d6e7d70","ios":"levelo://app?vid=0aba4fe3-5dca-4d79-8b9d-2fc77d6e7d70"},"vehicle_type_id":"4","last_reported":1759252117,"current_range_meters":12000,"station_id":"","pricing_plan_id":"cebpf4jnsgd1na2vs0mg"},{"bike_id":"f75ec2c7-65d1-4cd9-8bd9-aa57e970f7d7","system_id":"levelo_inurba_marseille","lat":43.21754,"lon":5.34612,"is_reserved":false,"is_disabled":false,"rental_uris":{"android":"levelo://app?vid=f75ec2c7-65d1-4cd9-8bd9-aa57e970f7d7","ios":"levelo://app?vid=f75ec2c7-65d1-4cd9-8bd9-aa57e970f7d7"},"vehicle_type_id":"4","last_reported":1759252117,"current_range_meters":12000,"station_id":"st_cvj6r9ubvosntc0bgbag","pricing_plan_id":"cebpf4jnsgd1na2vs0mg"},{"bike_id":"8c889c5e-dbff-42f9-9e9a-56a3d0500fe9","system_id":"levelo_inurba_marseille","lat":43.30296,"lon":5.36973,"is_reserved":false,"is_disabled":false,"rental_uris":{"android":"levelo://app?vid=8c889c5e-dbff-42f9-9e9a-56a3d0500fe9","ios":"levelo://app?vid=8c889c5e-dbff-42f9-9e9a-56a3d0500fe9"},"vehicle_type_id":"4","last_reported":1759252117,"current_range_meters":12000,"station_id":"","pricing_plan_id":"cebpf4jnsgd1na2vs0mg"},{"bike_id":"d1006041-1b0e-4625-8f88-6e7b5cdcf3b3","system_id":"levelo_inurba_marseille","lat":43.30427,"lon":5.39756,"is_reserved":false,"is_disabled":false,"rental_uris":{"android":"levelo://app?vid=d1006041-1b0e-4625-8f88-6e7b5cdcf3b3","ios":"levelo://app?vid=d1006041-1b0e-4625-8f88-6e7b5cdcf3b3"},"vehicle_type_id":"4","last_reported":1759252117,"current_range_meters":12000,"station_id":"ce4bh092rcd13ifvqd20","pricing_plan_id":"cebpf4jnsgd1na2vs0mg"},{"bike_id":"59a87f71-7d08-4446-86e8-7a97c4d99277","system_id":"levelo_inurba_marseille","lat":43.27995,"lon":5.40023,"is_reserved":false,"is_disabled":false,"rental_uris":{"android":"levelo://app?vid=59a87f71-7d08-4446-86e8-7a97c4d99277","ios":"levelo://app?vid=59a87f71-7d08-4446-86e8-7a97c4d99277"},"vehicle_type_id":"4","last_reported":1759252117,"current_range_meters":11600,"station_id":"ce4bho92rcd13ifvqh4g","pricing_plan_id":"cebpf4jnsgd1na2vs0mg"},{"bike_id":"74d62a67-a470-4bfe-8011-7ef3da281e5c","system_id":"levelo_inurba_marseille","lat":43.31679,"lon":5.40483,"is_reserved":false,"is_disabled":false,"rental_uris":{"android":"levelo://app?vid=74d62a67-a470-4bfe-8011-7ef3da281e5c","ios":"levelo://app?vid=74d62a67-a470-4bfe-8011-7ef3da281e5c"},"vehicle_type_id":"4","last_reported":1759252117,"current_range_meters":12000,"station_id":"ce4bh012rcd13ifvqd00","pricing_plan_id":"cebpf4jnsgd1na2vs0mg"},{"bike_id":"1adf72d4-f2e2-443a-bd81-e3e77d2b1f3e","system_id":"levelo_inurba_marseille","lat":43.26678,"lon":5.40225,"is_reserved":false,"is_disabled":false,"rental_uris":{"android":"levelo://app?vid=1adf72d4-f2e2-443a-bd81-e3e77d2b1f3e","ios":"levelo://app?vid=1adf72d4-f2e2-443a-bd81-e3e77d2b1f3e"},"vehicle_type_id":"4","last_reported":1759252117,"current_range_meters":12000,"station_id":"","pricing_plan_id":"cebpf4jnsgd1na2vs0mg"},{"bike_id":"b865677a-75cb-4fce-9a33-b910a68bb2f1","system_id":"levelo_inurba_marseille","lat":43.22933,"lon":5.35376,"is_reserved":false,"is_disabled":false,"rental_uris":{"android":"levelo://app?vid=b865677a-75cb-4fce-9a33-b910a68bb2f1","ios":"levelo://app?vid=b865677a-75cb-4fce-9a33-b910a68bb2f1"},"vehicle_type_id":"4","last_reported":1759252117,"current_range_meters":12000,"station_id":"cpo3532slgdg3j2ikp40","pricing_plan_id":"cebpf4jnsgd1na2vs0mg"},{"bike_id":"67fd0b08-9b33-47e1-b41f-6e5b9e295e0f","system_id":"levelo_inurba_marseille","lat":43.291953,"lon":5.393232,"is_reserved":false,"is_disabled":false,"rental_uris":{"android":"levelo://app?vid=67fd0b08-9b33-47e1-b41f-6e5b9e295e0f","ios":"levelo://app?vid=67fd0b08-9b33-47e1-b41f-6e5b9e295e0f"},"vehicle_type_id":"4","last_reported":1759252117,"current_range_meters":12000,"station_id":"ce4bh192rcd13ifvqdd0","pricing_plan_id":"cebpf4jnsgd1na2vs0mg"},{"bike_id":"35750caf-9b66-4a89-9f74-7b424527d069","system_id":"levelo_inurba_marseille","lat":43.29841,"lon":5.36281,"is_reserved":false,"is_disabled":false,"rental_uris":{"android":"levelo://app?vid=35750caf-9b66-4a89-9f74-7b424527d069","ios":"levelo://app?vid=35750caf-9b66-4a89-9f74-7b424527d069"},"vehicle_type_id":"4","last_reported":1759252117,"current_range_meters":12400,"station_id":"ce4bgpp2rcd13ifvqc3g","pricing_plan_id":"cebpf4jnsgd1na2vs0mg"},{"bike_id":"0b3807e2-db0f-4fcc-a3aa-03d29aedc3f3","system_id":"levelo_inurba_marseille","lat":43.31226,"lon":5.36869,"is_reserved":false,"is_disabled":false,"rental_uris":{"android":"levelo://app?vid=0b3807e2-db0f-4fcc-a3aa-03d29aedc3f3","ios":"levelo://app?vid=0b3807e2-db0f-4fcc-a3aa-03d29aedc3f3"},"vehicle_type_id":"4","last_reported":1759252117,"current_range_meters":12400,"station_id":"ce4bgl92rcd13ifvqbq0","pricing_plan_id":"cebpf4jnsgd1na2vs0mg"},{"bike_id":"c1476236-c8f0-4812-94e5-3f00d488ab7e","system_id":"levelo_inurba_marseille","lat":43.280011,"lon":5.416649,"is_reserved":false,"is_disabled":false,"rental_uris":{"android":"levelo://app?vid=c1476236-c8f0-4812-94e5-3f00d488ab7e","ios":"levelo://app?vid=c1476236-c8f0-4812-94e5-3f00d488ab7e"},"vehicle_type_id":"4","last_reported":1759252117,"current_range_meters":12400,"station_id":"","pricing_plan_id":"cebpf4jnsgd1na2vs0mg"},{"bike_id":"06b79c4d-ffe7-4eb9-80dc-10dff1d9d6c2","system_id":"levelo_inurba_marseille","lat":43.320994,"lon":5.367696,"is_reserved":false,"is_disabled":false,"rental_uris":{"android":"levelo://app?vid=06b79c4d-ffe7-4eb9-80dc-10dff1d9d6c2","ios":"levelo://app?vid=06b79c4d-ffe7-4eb9-80dc-10dff1d9d6c2"},"vehicle_type_id":"4","last_reported":1759252117,"current_range_meters":12400,"station_id":"ce4bhrh2rcd13ifvqhug","pricing_plan_id":"cebpf4jnsgd1na2vs0mg"},{"bike_id":"19bb257f-89cb-4aba-9b46-c153159e1501","system_id":"levelo_inurba_marseille","lat":43.28632,"lon":5.35095,"is_reserved":false,"is_disabled":false,"rental_uris":{"android":"levelo://app?vid=19bb257f-89cb-4aba-9b46-c153159e1501","ios":"levelo://app?vid=19bb257f-89cb-4aba-9b46-c153159e1501"},"vehicle_type_id":"4","last_reported":1759252117,"current_range_meters":12400,"station_id":"ce4bhch2rcd13ifvqeug","pricing_plan_id":"cebpf4jnsgd1na2vs0mg"},{"bike_id":"d2f46c9e-a53c-42a7-ad54-fd7c896f4565","system_id":"levelo_inurba_marseille","lat":43.33797,"lon":5.37428,"is_reserved":false,"is_disabled":false,"rental_uris":{"android":"levelo://app?vid=d2f46c9e-a53c-42a7-ad54-fd7c896f4565","ios":"levelo://app?vid=d2f46c9e-a53c-42a7-ad54-fd7c896f4565"},"vehicle_type_id":"4","last_reported":1759252117,"current_range_meters":12400,"station_id":"","pricing_plan_id":"cebpf4jnsgd1na2vs0mg"},{"bike_id":"adfbe18b-7ca7-424a-9090-23d85cce22c6","system_id":"levelo_inurba_marseille","lat":43.30024,"lon":5.40936,"is_reserved":false,"is_disabled":false,"rental_uris":{"android":"levelo://app?vid=adfbe18b-7ca7-424a-9090-23d85cce22c6","ios":"levelo://app?vid=adfbe18b-7ca7-424a-9090-23d85cce22c6"},"vehicle_type_id":"4","last_reported":1759252117,"current_range_meters":12800,"station_id":"","pricing_plan_id":"cebpf4jnsgd1na2vs0mg"},{"bike_id":"259eb790-7c9f-4508-b0a8-75180661d85f","system_id":"levelo_inurba_marseille","lat":43.24068,"lon":5.37756,"is_reserved":false,"is_disabled":false,"rental_uris":{"android":"levelo://app?vid=259eb790-7c9f-4508-b0a8-75180661d85f","ios":"levelo://app?vid=259eb790-7c9f-4508-b0a8-75180661d85f"},"vehicle_type_id":"4","last_reported":1759252117,"current_range_meters":12800,"station_id":"","pricing_plan_id":"cebpf4jnsgd1na2vs0mg"},{"bike_id":"956b666e-e480-4b45-9711-c8ab842da93a","system_id":"levelo_inurba_marseille","lat":43.304322,"lon":5.39735,"is_reserved":false,"is_disabled":false,"rental_uris":{"android":"levelo://app?vid=956b666e-e480-4b45-9711-c8ab842da93a","ios":"levelo://app?vid=956b666e-e480-4b45-9711-c8ab842da93a"},"vehicle_type_id":"4","last_reported":1759252117,"current_range_meters":12400,"station_id":"ce4bh092rcd13ifvqd20","pricing_plan_id":"cebpf4jnsgd1na2vs0mg"},{"bike_id":"7f309be8-e61f-4ea7-8a6c-3b15240bcaa8","system_id":"levelo_inurba_marseille","lat":43.27297,"lon":5.39102,"is_reserved":false,"is_disabled":false,"rental_uris":{"android":"levelo://app?vid=7f309be8-e61f-4ea7-8a6c-3b15240bcaa8","ios":"levelo://app?vid=7f309be8-e61f-4ea7-8a6c-3b15240bcaa8"},"vehicle_type_id":"4","last_reported":1759252117,"current_range_meters":12800,"station_id":"ce4bhgp2rcd13ifvqfe0","pricing_plan_id":"cebpf4jnsgd1na2vs0mg"},{"bike_id":"7f5d7a65-e65c-4c63-bf84-2cf4968c9e14","system_id":"levelo_inurba_marseille","lat":43.23068,"lon":5.35491,"is_reserved":false,"is_disabled":false,"rental_uris":{"android":"levelo://app?vid=7f5d7a65-e65c-4c63-bf84-2cf4968c9e14","ios":"levelo://app?vid=7f5d7a65-e65c-4c63-bf84-2cf4968c9e14"},"vehicle_type_id":"4","last_reported":1759252117,"current_range_meters":12400,"station_id":"cpo3342slgdg3j2ifvpg","pricing_plan_id":"cebpf4jnsgd1na2vs0mg"},{"bike_id":"30cbf9c0-d8c9-49e3-afe2-ea0d70b63a10","system_id":"levelo_inurba_marseille","lat":43.28363,"lon":5.3865,"is_reserved":false,"is_disabled":true,"rental_uris":{"android":"levelo://app?vid=30cbf9c0-d8c9-49e3-afe2-ea0d70b63a10","ios":"levelo://app?vid=30cbf9c0-d8c9-49e3-afe2-ea0d70b63a10"},"vehicle_type_id":"4","last_reported":1759252117,"current_range_meters":12800,"station_id":"ce4bh492rcd13ifvqdvg","pricing_plan_id":"cebpf4jnsgd1na2vs0mg"},{"bike_id":"b11b62e1-e97e-4b70-b7f7-db5326eee99f","system_id":"levelo_inurba_marseille","lat":43.243908,"lon":5.370589,"is_reserved":false,"is_disabled":false,"rental_uris":{"android":"levelo://app?vid=b11b62e1-e97e-4b70-b7f7-db5326eee99f","ios":"levelo://app?vid=b11b62e1-e97e-4b70-b7f7-db5326eee99f"},"vehicle_type_id":"4","last_reported":1759252117,"current_range_meters":12800,"station_id":"ce4bhhh2rcd13ifvqfk0","pricing_plan_id":"cebpf4jnsgd1na2vs0mg"},{"bike_id":"123c396e-6690-41cc-9123-b7d785a48750","system_id":"levelo_inurba_marseille","lat":43.29001,"lon":5.35608,"is_reserved":false,"is_disabled":false,"rental_uris":{"android":"levelo://app?vid=123c396e-6690-41cc-9123-b7d785a48750","ios":"levelo://app?vid=123c396e-6690-41cc-9123-b7d785a48750"},"vehicle_type_id":"4","last_reported":1759252117,"current_range_meters":17600,"station_id":"ce4bhb92rcd13ifvqen0","pricing_plan_id":"cebpf4jnsgd1na2vs0mg"},{"bike_id":"5c703bd5-6076-4691-8e86-e1cad46d77e2","system_id":"levelo_inurba_marseille","lat":43.282446,"lon":5.350715,"is_reserved":false,"is_disabled":false,"rental_uris":{"android":"levelo://app?vid=5c703bd5-6076-4691-8e86-e1cad46d77e2","ios":"levelo://app?vid=5c703bd5-6076-4691-8e86-e1cad46d77e2"},"vehicle_type_id":"4","last_reported":1759252117,"current_range_meters":12800,"station_id":"ce4bhbp2rcd13ifvqerg","pricing_plan_id":"cebpf4jnsgd1na2vs0mg"},{"bike_id":"36fbe936-bf4c-4bfc-adda-7fb4157a665d","system_id":"levelo_inurba_marseille","lat":43.30255,"lon":5.40069,"is_reserved":false,"is_disabled":false,"rental_uris":{"android":"levelo://app?vid=36fbe936-bf4c-4bfc-adda-7fb4157a665d","ios":"levelo://app?vid=36fbe936-bf4c-4bfc-adda-7fb4157a665d"},"vehicle_type_id":"4","last_reported":1759252117,"current_range_meters":13600,"station_id":"ce4bgvh2rcd13ifvqcs0","pricing_plan_id":"cebpf4jnsgd1na2vs0mg"},{"bike_id":"9044a141-1dbd-49e2-bc0e-7c092ecaeeeb","system_id":"levelo_inurba_marseille","lat":43.283417,"lon":5.38095,"is_reserved":false,"is_disabled":false,"rental_uris":{"android":"levelo://app?vid=9044a141-1dbd-49e2-bc0e-7c092ecaeeeb","ios":"levelo://app?vid=9044a141-1dbd-49e2-bc0e-7c092ecaeeeb"},"vehicle_type_id":"4","last_reported":1759252117,"current_range_meters":13600,"station_id":"ce4bh412rcd13ifvqdr0","pricing_plan_id":"cebpf4jnsgd1na2vs0mg"},{"bike_id":"d15fbb95-dad9-4fe0-852a-3ce658746273","system_id":"levelo_inurba_marseille","lat":43.2795,"lon":5.41051,"is_reserved":false,"is_disabled":false,"rental_uris":{"android":"levelo://app?vid=d15fbb95-dad9-4fe0-852a-3ce658746273","ios":"levelo://app?vid=d15fbb95-dad9-4fe0-852a-3ce658746273"},"vehicle_type_id":"4","last_reported":1759252117,"current_range_meters":13600,"station_id":"ce4bhnp2rcd13ifvqh0g","pricing_plan_id":"cebpf4jnsgd1na2vs0mg"},{"bike_id":"cb312947-4bcc-409d-ac75-43780873b337","system_id":"levelo_inurba_marseille","lat":43.26196,"lon":5.37451,"is_reserved":false,"is_disabled":false,"rental_uris":{"android":"levelo://app?vid=cb312947-4bcc-409d-ac75-43780873b337","ios":"levelo://app?vid=cb312947-4bcc-409d-ac75-43780873b337"},"vehicle_type_id":"4","last_reported":1759252117,"current_range_meters":13600,"station_id":"ce4bhgp2rcd13ifvqfc0","pricing_plan_id":"cebpf4jnsgd1na2vs0mg"},{"bike_id":"6bf7d261-356d-49f0-a5c0-79461d4bbff4","system_id":"levelo_inurba_marseille","lat":43.28705,"lon":5.37411,"is_reserved":false,"is_disabled":false,"rental_uris":{"android":"levelo://app?vid=6bf7d261-356d-49f0-a5c0-79461d4bbff4","ios":"levelo://app?vid=6bf7d261-356d-49f0-a5c0-79461d4bbff4"},"vehicle_type_id":"4","last_reported":1759252117,"current_range_meters":13600,"station_id":"ce4bh3p2rcd13ifvqdq0","pricing_plan_id":"cebpf4jnsgd1na2vs0mg"},{"bike_id":"372b7e3f-9bb2-4844-8bd7-1f28d23a6946","system_id":"levelo_inurba_marseille","lat":43.232261,"lon":5.403068,"is_reserved":false,"is_disabled":false,"rental_uris":{"android":"levelo://app?vid=372b7e3f-9bb2-4844-8bd7-1f28d23a6946","ios":"levelo://app?vid=372b7e3f-9bb2-4844-8bd7-1f28d23a6946"},"vehicle_type_id":"4","last_reported":1759252117,"current_range_meters":14000,"station_id":"ce4bhn12rcd13ifvqgqg","pricing_plan_id":"cebpf4jnsgd1na2vs0mg"},{"bike_id":"4cc320ee-f96b-4071-8ba0-6304bc6d3f42","system_id":"levelo_inurba_marseille","lat":43.301,"lon":5.39085,"is_reserved":false,"is_disabled":false,"rental_uris":{"android":"levelo://app?vid=4cc320ee-f96b-4071-8ba0-6304bc6d3f42","ios":"levelo://app?vid=4cc320ee-f96b-4071-8ba0-6304bc6d3f42"},"vehicle_type_id":"4","last_reported":1759252117,"current_range_meters":14400,"station_id":"ce4bh192rcd13ifvqdb0","pricing_plan_id":"cebpf4jnsgd1na2vs0mg"},{"bike_id":"85a61bd7-74be-4f7b-9a06-24e91302562f","system_id":"levelo_inurba_marseille","lat":43.31527,"lon":5.38037,"is_reserved":false,"is_disabled":false,"rental_uris":{"android":"levelo://app?vid=85a61bd7-74be-4f7b-9a06-24e91302562f","ios":"levelo://app?vid=85a61bd7-74be-4f7b-9a06-24e91302562f"},"vehicle_type_id":"4","last_reported":1759252117,"current_range_meters":14000,"station_id":"ce4bhsp2rcd13ifvqi50","pricing_plan_id":"cebpf4jnsgd1na2vs0mg"},{"bike_id":"dec9446c-a40f-4d64-8476-2f4372230baf","system_id":"levelo_inurba_marseille","lat":43.30257,"lon":5.38152,"is_reserved":false,"is_disabled":false,"rental_uris":{"android":"levelo://app?vid=dec9446c-a40f-4d64-8476-2f4372230baf","ios":"levelo://app?vid=dec9446c-a40f-4d64-8476-2f4372230baf"},"vehicle_type_id":"4","last_reported":1759252117,"current_range_meters":14400,"station_id":"","pricing_plan_id":"cebpf4jnsgd1na2vs0mg"},{"bike_id":"764de750-5fb7-4e27-8b13-309ff690c488","system_id":"levelo_inurba_marseille","lat":43.265724,"lon":5.390051,"is_reserved":false,"is_disabled":false,"rental_uris":{"android":"levelo://app?vid=764de750-5fb7-4e27-8b13-309ff690c488","ios":"levelo://app?vid=764de750-5fb7-4e27-8b13-309ff690c488"},"vehicle_type_id":"4","last_reported":1759252117,"current_range_meters":14400,"station_id":"ce4bhe12rcd13ifvqf30","pricing_plan_id":"cebpf4jnsgd1na2vs0mg"},{"bike_id":"51bac004-14d8-4d06-913f-5dfa8727c423","system_id":"levelo_inurba_marseille","lat":43.25869,"lon":5.39894,"is_reserved":false,"is_disabled":false,"rental_uris":{"android":"levelo://app?vid=51bac004-14d8-4d06-913f-5dfa8727c423","ios":"levelo://app?vid=51bac004-14d8-4d06-913f-5dfa8727c423"},"vehicle_type_id":"4","last_reported":1759252117,"current_range_meters":14400,"station_id":"ce4bhl92rcd13ifvqghg","pricing_plan_id":"cebpf4jnsgd1na2vs0mg"},{"bike_id":"0e69e515-3e33-455a-bcba-f2b0d25e3eb0","system_id":"levelo_inurba_marseille","lat":43.24813,"lon":5.37449,"is_reserved":false,"is_disabled":false,"rental_uris":{"android":"levelo://app?vid=0e69e515-3e33-455a-bcba-f2b0d25e3eb0","ios":"levelo://app?vid=0e69e515-3e33-455a-bcba-f2b0d25e3eb0"},"vehicle_type_id":"4","last_reported":1759252117,"current_range_meters":14400,"station_id":"ce4bhgh2rcd13ifvqfb0","pricing_plan_id":"cebpf4jnsgd1na2vs0mg"},{"bike_id":"7decd18b-f43a-4a23-b63c-0a00746f6cd1","system_id":"levelo_inurba_marseille","lat":43.24079,"lon":5.37753,"is_reserved":false,"is_disabled":false,"rental_uris":{"android":"levelo://app?vid=7decd18b-f43a-4a23-b63c-0a00746f6cd1","ios":"levelo://app?vid=7decd18b-f43a-4a23-b63c-0a00746f6cd1"},"vehicle_type_id":"4","last_reported":1759252117,"current_range_meters":14400,"station_id":"ce4bhnp2rcd13ifvqgvg","pricing_plan_id":"cebpf4jnsgd1na2vs0mg"},{"bike_id":"a850760d-f890-4818-860e-321d70e97b11","system_id":"levelo_inurba_marseille","lat":43.32352,"lon":5.36761,"is_reserved":false,"is_disabled":false,"rental_uris":{"android":"levelo://app?vid=a850760d-f890-4818-860e-321d70e97b11","ios":"levelo://app?vid=a850760d-f890-4818-860e-321d70e97b11"},"vehicle_type_id":"4","last_reported":1759252117,"current_range_meters":14800,"station_id":"ce4bhsh2rcd13ifvqi2g","pricing_plan_id":"cebpf4jnsgd1na2vs0mg"},{"bike_id":"f752559e-e357-41d0-b0e1-06afd32411be","system_id":"levelo_inurba_marseille","lat":43.27469,"lon":5.40809,"is_reserved":false,"is_disabled":false,"rental_uris":{"android":"levelo://app?vid=f752559e-e357-41d0-b0e1-06afd32411be","ios":"levelo://app?vid=f752559e-e357-41d0-b0e1-06afd32411be"},"vehicle_type_id":"4","last_reported":1759252117,"current_range_meters":14800,"station_id":"","pricing_plan_id":"cebpf4jnsgd1na2vs0mg"},{"bike_id":"b0049c5a-1eea-46ad-9dda-75d6d24a0e9d","system_id":"levelo_inurba_marseille","lat":43.24159,"lon":5.36394,"is_reserved":false,"is_disabled":false,"rental_uris":{"android":"levelo://app?vid=b0049c5a-1eea-46ad-9dda-75d6d24a0e9d","ios":"levelo://app?vid=b0049c5a-1eea-46ad-9dda-75d6d24a0e9d"},"vehicle_type_id":"4","last_reported":1759252117,"current_range_meters":14800,"station_id":"cpo36qri1sfpv3e86is0","pricing_plan_id":"cebpf4jnsgd1na2vs0mg"},{"bike_id":"44050f58-45ea-495d-99e2-32cde845c8fb","system_id":"levelo_inurba_marseille","lat":43.24652,"lon":5.389,"is_reserved":false,"is_disabled":false,"rental_uris":{"android":"levelo://app?vid=44050f58-45ea-495d-99e2-32cde845c8fb","ios":"levelo://app?vid=44050f58-45ea-495d-99e2-32cde845c8fb"},"vehicle_type_id":"4","last_reported":1759252117,"current_range_meters":14800,"station_id":"ce4bhg12rcd13ifvqf60","pricing_plan_id":"cebpf4jnsgd1na2vs0mg"},{"bike_id":"805731f5-6911-4fc8-9eed-f07fded70f5b","system_id":"levelo_inurba_marseille","lat":43.31744,"lon":5.42394,"is_reserved":false,"is_disabled":false,"rental_uris":{"android":"levelo://app?vid=805731f5-6911-4fc8-9eed-f07fded70f5b","ios":"levelo://app?vid=805731f5-6911-4fc8-9eed-f07fded70f5b"},"vehicle_type_id":"4","last_reported":1759252117,"current_range_meters":14800,"station_id":"ce4bhp92rcd13ifvqhbg","pricing_plan_id":"cebpf4jnsgd1na2vs0mg"},{"bike_id":"0e39ba31-93d4-4574-a5b9-c64786bcebce","system_id":"levelo_inurba_marseille","lat":43.278,"lon":5.37734,"is_reserved":false,"is_disabled":false,"rental_uris":{"android":"levelo://app?vid=0e39ba31-93d4-4574-a5b9-c64786bcebce","ios":"levelo://app?vid=0e39ba31-93d4-4574-a5b9-c64786bcebce"},"vehicle_type_id":"4","last_reported":1759252117,"current_range_meters":14800,"station_id":"","pricing_plan_id":"cebpf4jnsgd1na2vs0mg"},{"bike_id":"ed7d28f4-4737-4c42-ad0a-4764073c54bd","system_id":"levelo_inurba_marseille","lat":43.27932,"lon":5.41052,"is_reserved":false,"is_disabled":false,"rental_uris":{"android":"levelo://app?vid=ed7d28f4-4737-4c42-ad0a-4764073c54bd","ios":"levelo://app?vid=ed7d28f4-4737-4c42-ad0a-4764073c54bd"},"vehicle_type_id":"4","last_reported":1759252117,"current_range_meters":14800,"station_id":"ce4bhnp2rcd13ifvqh0g","pricing_plan_id":"cebpf4jnsgd1na2vs0mg"},{"bike_id":"627f0009-c086-4f8a-8406-c08f3975bb85","system_id":"levelo_inurba_marseille","lat":43.337914,"lon":5.374267,"is_reserved":false,"is_disabled":false,"rental_uris":{"android":"levelo://app?vid=627f0009-c086-4f8a-8406-c08f3975bb85","ios":"levelo://app?vid=627f0009-c086-4f8a-8406-c08f3975bb85"},"vehicle_type_id":"4","last_reported":1759252117,"current_range_meters":14800,"station_id":"","pricing_plan_id":"cebpf4jnsgd1na2vs0mg"},{"bike_id":"c4cebf86-433c-450a-9c61-8ab697810b9a","system_id":"levelo_inurba_marseille","lat":43.29895,"lon":5.43656,"is_reserved":false,"is_disabled":false,"rental_uris":{"android":"levelo://app?vid=c4cebf86-433c-450a-9c61-8ab697810b9a","ios":"levelo://app?vid=c4cebf86-433c-450a-9c61-8ab697810b9a"},"vehicle_type_id":"4","last_reported":1759252117,"current_range_meters":15200,"station_id":"ce4bhpp2rcd13ifvqhfg","pricing_plan_id":"cebpf4jnsgd1na2vs0mg"},{"bike_id":"2106a2bf-5c30-44f7-a55b-f5826140ca08","system_id":"levelo_inurba_marseille","lat":43.28152,"lon":5.42651,"is_reserved":false,"is_disabled":false,"rental_uris":{"android":"levelo://app?vid=2106a2bf-5c30-44f7-a55b-f5826140ca08","ios":"levelo://app?vid=2106a2bf-5c30-44f7-a55b-f5826140ca08"},"vehicle_type_id":"4","last_reported":1759252117,"current_range_meters":15200,"station_id":"ce4bhnh2rcd13ifvqgug","pricing_plan_id":"cebpf4jnsgd1na2vs0mg"},{"bike_id":"9259d079-29af-4c38-99e0-f25e4d514b98","system_id":"levelo_inurba_marseille","lat":43.28417,"lon":5.35012,"is_reserved":false,"is_disabled":false,"rental_uris":{"android":"levelo://app?vid=9259d079-29af-4c38-99e0-f25e4d514b98","ios":"levelo://app?vid=9259d079-29af-4c38-99e0-f25e4d514b98"},"vehicle_type_id":"4","last_reported":1759252117,"current_range_meters":15200,"station_id":"ce4bhbh2rcd13ifvqepg","pricing_plan_id":"cebpf4jnsgd1na2vs0mg"},{"bike_id":"4355e290-9f87-42a2-8cb7-6a5688dad3c4","system_id":"levelo_inurba_marseille","lat":43.28073,"lon":5.3966,"is_reserved":false,"is_disabled":false,"rental_uris":{"android":"levelo://app?vid=4355e290-9f87-42a2-8cb7-6a5688dad3c4","ios":"levelo://app?vid=4355e290-9f87-42a2-8cb7-6a5688dad3c4"},"vehicle_type_id":"4","last_reported":1759252117,"current_range_meters":14800,"station_id":"ce4bho12rcd13ifvqh2g","pricing_plan_id":"cebpf4jnsgd1na2vs0mg"},{"bike_id":"57ec9c92-219a-41cd-bed2-297ebe33dde9","system_id":"levelo_inurba_marseille","lat":43.29535,"lon":5.38542,"is_reserved":false,"is_disabled":false,"rental_uris":{"android":"levelo://app?vid=57ec9c92-219a-41cd-bed2-297ebe33dde9","ios":"levelo://app?vid=57ec9c92-219a-41cd-bed2-297ebe33dde9"},"vehicle_type_id":"4","last_reported":1759252117,"current_range_meters":15200,"station_id":"ce4bgih2rcd13ifvqba0","pricing_plan_id":"cebpf4jnsgd1na2vs0mg"},{"bike_id":"941be8ec-8ec1-463d-8b29-e2a9374be99a","system_id":"levelo_inurba_marseille","lat":43.33032,"lon":5.39031,"is_reserved":false,"is_disabled":false,"rental_uris":{"android":"levelo://app?vid=941be8ec-8ec1-463d-8b29-e2a9374be99a","ios":"levelo://app?vid=941be8ec-8ec1-463d-8b29-e2a9374be99a"},"vehicle_type_id":"4","last_reported":1759252117,"current_range_meters":15200,"station_id":"ce4bhr92rcd13ifvqhrg","pricing_plan_id":"cebpf4jnsgd1na2vs0mg"},{"bike_id":"fa3e6782-c198-4993-bfc8-ba4949faaf19","system_id":"levelo_inurba_marseille","lat":43.21175,"lon":5.35092,"is_reserved":false,"is_disabled":true,"rental_uris":{"android":"levelo://app?vid=fa3e6782-c198-4993-bfc8-ba4949faaf19","ios":"levelo://app?vid=fa3e6782-c198-4993-bfc8-ba4949faaf19"},"vehicle_type_id":"4","last_reported":1759252117,"current_range_meters":16000,"station_id":"","pricing_plan_id":"cebpf4jnsgd1na2vs0mg"},{"bike_id":"d7d00b41-fa0e-4cf7-a1ff-9b2103dd07cc","system_id":"levelo_inurba_marseille","lat":43.28934,"lon":5.36626,"is_reserved":false,"is_disabled":false,"rental_uris":{"android":"levelo://app?vid=d7d00b41-fa0e-4cf7-a1ff-9b2103dd07cc","ios":"levelo://app?vid=d7d00b41-fa0e-4cf7-a1ff-9b2103dd07cc"},"vehicle_type_id":"4","last_reported":1759252117,"current_range_meters":15200,"station_id":"ce4bhap2rcd13ifvqek0","pricing_plan_id":"cebpf4jnsgd1na2vs0mg"},{"bike_id":"ee94eda5-f40b-4168-a57a-bf8989940e9c","system_id":"levelo_inurba_marseille","lat":43.3249,"lon":5.36571,"is_reserved":false,"is_disabled":false,"rental_uris":{"android":"levelo://app?vid=ee94eda5-f40b-4168-a57a-bf8989940e9c","ios":"levelo://app?vid=ee94eda5-f40b-4168-a57a-bf8989940e9c"},"vehicle_type_id":"4","last_reported":1759252117,"current_range_meters":16000,"station_id":"ce4bhs12rcd13ifvqhvg","pricing_plan_id":"cebpf4jnsgd1na2vs0mg"},{"bike_id":"617dca4b-4508-4d52-9e62-d583d919ac44","system_id":"levelo_inurba_marseille","lat":43.2973,"lon":5.3713,"is_reserved":false,"is_disabled":false,"rental_uris":{"android":"levelo://app?vid=617dca4b-4508-4d52-9e62-d583d919ac44","ios":"levelo://app?vid=617dca4b-4508-4d52-9e62-d583d919ac44"},"vehicle_type_id":"4","last_reported":1759252117,"current_range_meters":16000,"station_id":"","pricing_plan_id":"cebpf4jnsgd1na2vs0mg"},{"bike_id":"1f1aff0c-203f-4537-b639-22fca6b50e46","system_id":"levelo_inurba_marseille","lat":43.24168,"lon":5.36389,"is_reserved":false,"is_disabled":false,"rental_uris":{"android":"levelo://app?vid=1f1aff0c-203f-4537-b639-22fca6b50e46","ios":"levelo://app?vid=1f1aff0c-203f-4537-b639-22fca6b50e46"},"vehicle_type_id":"4","last_reported":1759252117,"current_range_meters":16000,"station_id":"cpo36qri1sfpv3e86is0","pricing_plan_id":"cebpf4jnsgd1na2vs0mg"},{"bike_id":"709a02d8-cbb2-400f-8286-4393f5a304cb","system_id":"levelo_inurba_marseille","lat":43.3138,"lon":5.38495,"is_reserved":false,"is_disabled":false,"rental_uris":{"android":"levelo://app?vid=709a02d8-cbb2-400f-8286-4393f5a304cb","ios":"levelo://app?vid=709a02d8-cbb2-400f-8286-4393f5a304cb"},"vehicle_type_id":"4","last_reported":1759252117,"current_range_meters":16000,"station_id":"ce4bgt92rcd13ifvqcf0","pricing_plan_id":"cebpf4jnsgd1na2vs0mg"},{"bike_id":"d88e0d03-a71d-4d69-bfe0-f7906e10eef6","system_id":"levelo_inurba_marseille","lat":43.22891,"lon":5.35441,"is_reserved":false,"is_disabled":false,"rental_uris":{"android":"levelo://app?vid=d88e0d03-a71d-4d69-bfe0-f7906e10eef6","ios":"levelo://app?vid=d88e0d03-a71d-4d69-bfe0-f7906e10eef6"},"vehicle_type_id":"4","last_reported":1759252117,"current_range_meters":16000,"station_id":"","pricing_plan_id":"cebpf4jnsgd1na2vs0mg"},{"bike_id":"cfcdde54-e945-4e61-af90-8e38f63e0941","system_id":"levelo_inurba_marseille","lat":43.262034,"lon":5.379339,"is_reserved":false,"is_disabled":false,"rental_uris":{"android":"levelo://app?vid=cfcdde54-e945-4e61-af90-8e38f63e0941","ios":"levelo://app?vid=cfcdde54-e945-4e61-af90-8e38f63e0941"},"vehicle_type_id":"4","last_reported":1759252117,"current_range_meters":16000,"station_id":"ce4bhjp2rcd13ifvqg90","pricing_plan_id":"cebpf4jnsgd1na2vs0mg"},{"bike_id":"50a6d9be-879d-4d99-9855-abb98fbce5b8","system_id":"levelo_inurba_marseille","lat":43.337851,"lon":5.374298,"is_reserved":false,"is_disabled":false,"rental_uris":{"android":"levelo://app?vid=50a6d9be-879d-4d99-9855-abb98fbce5b8","ios":"levelo://app?vid=50a6d9be-879d-4d99-9855-abb98fbce5b8"},"vehicle_type_id":"4","last_reported":1759252117,"current_range_meters":16000,"station_id":"","pricing_plan_id":"cebpf4jnsgd1na2vs0mg"},{"bike_id":"f389964a-c6b6-4af1-95ba-d2e996bf344e","system_id":"levelo_inurba_marseille","lat":43.28429,"lon":5.34991,"is_reserved":false,"is_disabled":false,"rental_uris":{"android":"levelo://app?vid=f389964a-c6b6-4af1-95ba-d2e996bf344e","ios":"levelo://app?vid=f389964a-c6b6-4af1-95ba-d2e996bf344e"},"vehicle_type_id":"4","last_reported":1759252117,"current_range_meters":16400,"station_id":"ce4bhbh2rcd13ifvqepg","pricing_plan_id":"cebpf4jnsgd1na2vs0mg"},{"bike_id":"a44ea322-6a9d-45d2-8fad-2a1e8d51dd2a","system_id":"levelo_inurba_marseille","lat":43.31731,"lon":5.424,"is_reserved":false,"is_disabled":false,"rental_uris":{"android":"levelo://app?vid=a44ea322-6a9d-45d2-8fad-2a1e8d51dd2a","ios":"levelo://app?vid=a44ea322-6a9d-45d2-8fad-2a1e8d51dd2a"},"vehicle_type_id":"4","last_reported":1759252117,"current_range_meters":16000,"station_id":"ce4bhp92rcd13ifvqhbg","pricing_plan_id":"cebpf4jnsgd1na2vs0mg"},{"bike_id":"ff8d2205-edd5-40b1-9e41-044ef6fcd005","system_id":"levelo_inurba_marseille","lat":43.29685,"lon":5.37272,"is_reserved":false,"is_disabled":false,"rental_uris":{"android":"levelo://app?vid=ff8d2205-edd5-40b1-9e41-044ef6fcd005","ios":"levelo://app?vid=ff8d2205-edd5-40b1-9e41-044ef6fcd005"},"vehicle_type_id":"4","last_reported":1759252117,"current_range_meters":16000,"station_id":"ce4bgk12rcd13ifvqbj0","pricing_plan_id":"cebpf4jnsgd1na2vs0mg"},{"bike_id":"780ea42f-1b94-406e-aa71-504f817fbd4b","system_id":"levelo_inurba_marseille","lat":43.279823,"lon":5.387541,"is_reserved":false,"is_disabled":false,"rental_uris":{"android":"levelo://app?vid=780ea42f-1b94-406e-aa71-504f817fbd4b","ios":"levelo://app?vid=780ea42f-1b94-406e-aa71-504f817fbd4b"},"vehicle_type_id":"4","last_reported":1759252117,"current_range_meters":16400,"station_id":"ce4bhdp2rcd13ifvqf20","pricing_plan_id":"cebpf4jnsgd1na2vs0mg"},{"bike_id":"a58a4c94-7754-46be-b35a-a0b84fc468a5","system_id":"levelo_inurba_marseille","lat":43.29978,"lon":5.37355,"is_reserved":false,"is_disabled":false,"rental_uris":{"android":"levelo://app?vid=a58a4c94-7754-46be-b35a-a0b84fc468a5","ios":"levelo://app?vid=a58a4c94-7754-46be-b35a-a0b84fc468a5"},"vehicle_type_id":"4","last_reported":1759252117,"current_range_meters":16400,"station_id":"","pricing_plan_id":"cebpf4jnsgd1na2vs0mg"},{"bike_id":"9efbdaf3-d5d8-433f-8c8e-c566a0665f71","system_id":"levelo_inurba_marseille","lat":43.292,"lon":5.39325,"is_reserved":false,"is_disabled":false,"rental_uris":{"android":"levelo://app?vid=9efbdaf3-d5d8-433f-8c8e-c566a0665f71","ios":"levelo://app?vid=9efbdaf3-d5d8-433f-8c8e-c566a0665f71"},"vehicle_type_id":"4","last_reported":1759252117,"current_range_meters":16000,"station_id":"ce4bh192rcd13ifvqdd0","pricing_plan_id":"cebpf4jnsgd1na2vs0mg"},{"bike_id":"c5ace63f-0a81-4941-a62b-8221cd9ad454","system_id":"levelo_inurba_marseille","lat":43.26065,"lon":5.39399,"is_reserved":false,"is_disabled":false,"rental_uris":{"android":"levelo://app?vid=c5ace63f-0a81-4941-a62b-8221cd9ad454","ios":"levelo://app?vid=c5ace63f-0a81-4941-a62b-8221cd9ad454"},"vehicle_type_id":"4","last_reported":1759252117,"current_range_meters":16400,"station_id":"ce4bhh92rcd13ifvqfj0","pricing_plan_id":"cebpf4jnsgd1na2vs0mg"},{"bike_id":"37e655bb-011c-4bb3-8113-e9740e415712","system_id":"levelo_inurba_marseille","lat":43.2953,"lon":5.38549,"is_reserved":false,"is_disabled":false,"rental_uris":{"android":"levelo://app?vid=37e655bb-011c-4bb3-8113-e9740e415712","ios":"levelo://app?vid=37e655bb-011c-4bb3-8113-e9740e415712"},"vehicle_type_id":"4","last_reported":1759252117,"current_range_meters":16400,"station_id":"ce4bgih2rcd13ifvqba0","pricing_plan_id":"cebpf4jnsgd1na2vs0mg"},{"bike_id":"0415c27e-fc19-4a58-9519-2a0e366a4705","system_id":"levelo_inurba_marseille","lat":43.3112,"lon":5.3776,"is_reserved":false,"is_disabled":false,"rental_uris":{"android":"levelo://app?vid=0415c27e-fc19-4a58-9519-2a0e366a4705","ios":"levelo://app?vid=0415c27e-fc19-4a58-9519-2a0e366a4705"},"vehicle_type_id":"4","last_reported":1759252117,"current_range_meters":16400,"station_id":"ce4bgt92rcd13ifvqcg0","pricing_plan_id":"cebpf4jnsgd1na2vs0mg"},{"bike_id":"0e22ced9-197b-4339-bd33-e5a8f131c1c2","system_id":"levelo_inurba_marseille","lat":43.23196,"lon":5.35557,"is_reserved":false,"is_disabled":false,"rental_uris":{"android":"levelo://app?vid=0e22ced9-197b-4339-bd33-e5a8f131c1c2","ios":"levelo://app?vid=0e22ced9-197b-4339-bd33-e5a8f131c1c2"},"vehicle_type_id":"4","last_reported":1759252117,"current_range_meters":16400,"station_id":"ce4bhu92rcd13ifvqi70","pricing_plan_id":"cebpf4jnsgd1na2vs0mg"},{"bike_id":"53e8790d-118b-4487-8bfe-2c87d9f7ee53","system_id":"levelo_inurba_marseille","lat":43.23176,"lon":5.35567,"is_reserved":false,"is_disabled":false,"rental_uris":{"android":"levelo://app?vid=53e8790d-118b-4487-8bfe-2c87d9f7ee53","ios":"levelo://app?vid=53e8790d-118b-4487-8bfe-2c87d9f7ee53"},"vehicle_type_id":"4","last_reported":1759252117,"current_range_meters":16400,"station_id":"ce4bhu92rcd13ifvqi70","pricing_plan_id":"cebpf4jnsgd1na2vs0mg"},{"bike_id":"0257a59e-6c4a-4591-a4c0-5c6cc2e525fb","system_id":"levelo_inurba_marseille","lat":43.29288,"lon":5.40124,"is_reserved":false,"is_disabled":false,"rental_uris":{"android":"levelo://app?vid=0257a59e-6c4a-4591-a4c0-5c6cc2e525fb","ios":"levelo://app?vid=0257a59e-6c4a-4591-a4c0-5c6cc2e525fb"},"vehicle_type_id":"4","last_reported":1759252117,"current_range_meters":16400,"station_id":"ce4bh312rcd13ifvqdk0","pricing_plan_id":"cebpf4jnsgd1na2vs0mg"},{"bike_id":"6e35eb3a-244d-446e-ba2c-c58465f51251","system_id":"levelo_inurba_marseille","lat":43.32117,"lon":5.36779,"is_reserved":false,"is_disabled":false,"rental_uris":{"android":"levelo://app?vid=6e35eb3a-244d-446e-ba2c-c58465f51251","ios":"levelo://app?vid=6e35eb3a-244d-446e-ba2c-c58465f51251"},"vehicle_type_id":"4","last_reported":1759252117,"current_range_meters":16800,"station_id":"ce4bhrh2rcd13ifvqhug","pricing_plan_id":"cebpf4jnsgd1na2vs0mg"},{"bike_id":"2410b542-4dbb-4ba2-8de7-3b722fc9a69f","system_id":"levelo_inurba_marseille","lat":43.2846,"lon":5.35891,"is_reserved":false,"is_disabled":true,"rental_uris":{"android":"levelo://app?vid=2410b542-4dbb-4ba2-8de7-3b722fc9a69f","ios":"levelo://app?vid=2410b542-4dbb-4ba2-8de7-3b722fc9a69f"},"vehicle_type_id":"4","last_reported":1759252117,"current_range_meters":16800,"station_id":"ce4bhah2rcd13ifvqei0","pricing_plan_id":"cebpf4jnsgd1na2vs0mg"},{"bike_id":"066d26e0-554c-47c4-9b3c-e65f7f9123b8","system_id":"levelo_inurba_marseille","lat":43.26803,"lon":5.40269,"is_reserved":false,"is_disabled":false,"rental_uris":{"android":"levelo://app?vid=066d26e0-554c-47c4-9b3c-e65f7f9123b8","ios":"levelo://app?vid=066d26e0-554c-47c4-9b3c-e65f7f9123b8"},"vehicle_type_id":"4","last_reported":1759252117,"current_range_meters":16800,"station_id":"ce501612rcd8frsf0b60","pricing_plan_id":"cebpf4jnsgd1na2vs0mg"},{"bike_id":"db3a202b-6514-4a53-892d-e953fc1e9d26","system_id":"levelo_inurba_marseille","lat":43.225369,"lon":5.348573,"is_reserved":false,"is_disabled":false,"rental_uris":{"android":"levelo://app?vid=db3a202b-6514-4a53-892d-e953fc1e9d26","ios":"levelo://app?vid=db3a202b-6514-4a53-892d-e953fc1e9d26"},"vehicle_type_id":"4","last_reported":1759252117,"current_range_meters":16800,"station_id":"","pricing_plan_id":"cebpf4jnsgd1na2vs0mg"},{"bike_id":"700e2971-7ce2-46cc-996b-6959d72691c7","system_id":"levelo_inurba_marseille","lat":43.22568,"lon":5.41642,"is_reserved":false,"is_disabled":false,"rental_uris":{"android":"levelo://app?vid=700e2971-7ce2-46cc-996b-6959d72691c7","ios":"levelo://app?vid=700e2971-7ce2-46cc-996b-6959d72691c7"},"vehicle_type_id":"4","last_reported":1759252117,"current_range_meters":17200,"station_id":"st_d2o4gvlbi1j2169b742g","pricing_plan_id":"cebpf4jnsgd1na2vs0mg"},{"bike_id":"79f51367-5a8e-4c43-ab24-a418bab70523","system_id":"levelo_inurba_marseille","lat":43.2602,"lon":5.41742,"is_reserved":false,"is_disabled":false,"rental_uris":{"android":"levelo://app?vid=79f51367-5a8e-4c43-ab24-a418bab70523","ios":"levelo://app?vid=79f51367-5a8e-4c43-ab24-a418bab70523"},"vehicle_type_id":"4","last_reported":1759252117,"current_range_meters":16800,"station_id":"","pricing_plan_id":"cebpf4jnsgd1na2vs0mg"},{"bike_id":"123e055a-692b-459b-9c4f-970a83ad75be","system_id":"levelo_inurba_marseille","lat":43.32362,"lon":5.36755,"is_reserved":false,"is_disabled":true,"rental_uris":{"android":"levelo://app?vid=123e055a-692b-459b-9c4f-970a83ad75be","ios":"levelo://app?vid=123e055a-692b-459b-9c4f-970a83ad75be"},"vehicle_type_id":"4","last_reported":1759252117,"current_range_meters":16800,"station_id":"ce4bhsh2rcd13ifvqi2g","pricing_plan_id":"cebpf4jnsgd1na2vs0mg"},{"bike_id":"511c6f45-d0fa-4b6e-9e84-80cc194a9370","system_id":"levelo_inurba_marseille","lat":43.31085,"lon":5.42444,"is_reserved":false,"is_disabled":false,"rental_uris":{"android":"levelo://app?vid=511c6f45-d0fa-4b6e-9e84-80cc194a9370","ios":"levelo://app?vid=511c6f45-d0fa-4b6e-9e84-80cc194a9370"},"vehicle_type_id":"4","last_reported":1759252117,"current_range_meters":17200,"station_id":"ce4bhp92rcd13ifvqhag","pricing_plan_id":"cebpf4jnsgd1na2vs0mg"},{"bike_id":"3f8a7425-65dd-467a-bda8-36ede2e6a269","system_id":"levelo_inurba_marseille","lat":43.26926,"lon":5.4102,"is_reserved":false,"is_disabled":false,"rental_uris":{"android":"levelo://app?vid=3f8a7425-65dd-467a-bda8-36ede2e6a269","ios":"levelo://app?vid=3f8a7425-65dd-467a-bda8-36ede2e6a269"},"vehicle_type_id":"4","last_reported":1759252117,"current_range_meters":17200,"station_id":"","pricing_plan_id":"cebpf4jnsgd1na2vs0mg"},{"bike_id":"902561a4-d118-4de2-a70c-f6181c7156c7","system_id":"levelo_inurba_marseille","lat":43.28253,"lon":5.35088,"is_reserved":false,"is_disabled":false,"rental_uris":{"android":"levelo://app?vid=902561a4-d118-4de2-a70c-f6181c7156c7","ios":"levelo://app?vid=902561a4-d118-4de2-a70c-f6181c7156c7"},"vehicle_type_id":"4","last_reported":1759252117,"current_range_meters":17200,"station_id":"ce4bhbp2rcd13ifvqerg","pricing_plan_id":"cebpf4jnsgd1na2vs0mg"},{"bike_id":"73e22ed6-f150-4bd5-a7c9-af939e7a8ce9","system_id":"levelo_inurba_marseille","lat":43.290507,"lon":5.419421,"is_reserved":false,"is_disabled":false,"rental_uris":{"android":"levelo://app?vid=73e22ed6-f150-4bd5-a7c9-af939e7a8ce9","ios":"levelo://app?vid=73e22ed6-f150-4bd5-a7c9-af939e7a8ce9"},"vehicle_type_id":"4","last_reported":1759252117,"current_range_meters":17200,"station_id":"","pricing_plan_id":"cebpf4jnsgd1na2vs0mg"},{"bike_id":"a05dda5d-5db7-4fec-af6b-c52896c04383","system_id":"levelo_inurba_marseille","lat":43.28155,"lon":5.42648,"is_reserved":false,"is_disabled":false,"rental_uris":{"android":"levelo://app?vid=a05dda5d-5db7-4fec-af6b-c52896c04383","ios":"levelo://app?vid=a05dda5d-5db7-4fec-af6b-c52896c04383"},"vehicle_type_id":"4","last_reported":1759252117,"current_range_meters":17200,"station_id":"ce4bhnh2rcd13ifvqgug","pricing_plan_id":"cebpf4jnsgd1na2vs0mg"},{"bike_id":"e8a6d609-d965-4c72-b22f-83ffb60a3d29","system_id":"levelo_inurba_marseille","lat":43.2841,"lon":5.35002,"is_reserved":false,"is_disabled":false,"rental_uris":{"android":"levelo://app?vid=e8a6d609-d965-4c72-b22f-83ffb60a3d29","ios":"levelo://app?vid=e8a6d609-d965-4c72-b22f-83ffb60a3d29"},"vehicle_type_id":"4","last_reported":1759252117,"current_range_meters":17200,"station_id":"ce4bhbh2rcd13ifvqepg","pricing_plan_id":"cebpf4jnsgd1na2vs0mg"},{"bike_id":"5e32fc55-69dd-4daa-a78e-ed8559cd2676","system_id":"levelo_inurba_marseille","lat":43.290079,"lon":5.381072,"is_reserved":false,"is_disabled":false,"rental_uris":{"android":"levelo://app?vid=5e32fc55-69dd-4daa-a78e-ed8559cd2676","ios":"levelo://app?vid=5e32fc55-69dd-4daa-a78e-ed8559cd2676"},"vehicle_type_id":"4","last_reported":1759252117,"current_range_meters":17200,"station_id":"ce4bh4p2rcd13ifvqe1g","pricing_plan_id":"cebpf4jnsgd1na2vs0mg"},{"bike_id":"a391ca59-5324-4d98-be71-1057c44f2f7f","system_id":"levelo_inurba_marseille","lat":43.30199,"lon":5.37339,"is_reserved":false,"is_disabled":false,"rental_uris":{"android":"levelo://app?vid=a391ca59-5324-4d98-be71-1057c44f2f7f","ios":"levelo://app?vid=a391ca59-5324-4d98-be71-1057c44f2f7f"},"vehicle_type_id":"4","last_reported":1759252117,"current_range_meters":17200,"station_id":"","pricing_plan_id":"cebpf4jnsgd1na2vs0mg"},{"bike_id":"2d7fe2c5-bdc9-4421-b478-e9b4e9591984","system_id":"levelo_inurba_marseille","lat":43.26786,"lon":5.3941,"is_reserved":false,"is_disabled":false,"rental_uris":{"android":"levelo://app?vid=2d7fe2c5-bdc9-4421-b478-e9b4e9591984","ios":"levelo://app?vid=2d7fe2c5-bdc9-4421-b478-e9b4e9591984"},"vehicle_type_id":"4","last_reported":1759252117,"current_range_meters":17200,"station_id":"ce4bhh12rcd13ifvqfg0","pricing_plan_id":"cebpf4jnsgd1na2vs0mg"},