{"last_updated":1720105675,"ttl":30,"version":"2.2","data":{"bikes":[{"bike_id":"703f4625-79df-46aa-b07d-f45018fa210f","system_id":"levelo_inurba_marseille","lat":43.31336,"lon":5.36712,"is_reserved":false,"is_disabled":false,"rental_uris":{"android":"levelo://app?vid=703f4625-79df-46aa-b07d-f45018fa210f","ios":"levelo://app?vid=703f4625-79df-46aa-b07d-f45018fa210f"},"vehicle_type_id":"4","last_reported":1720105676,"current_range_meters":16800,"station_id":"ce4bgr92rcd13ifvqc6g","pricing_plan_id":"cebpf4jnsgd1na2vs0mg"},{"bike_id":"e8bee858-c181-4af7-9e4e-e93cdba6fc14","system_id":"levelo_inurba_marseille","lat":43.312239,"lon":5.368562,"is_reserved":false,"is_disabled":false,"rental_uris":{"android":"levelo://app?vid=e8bee858-c181-4af7-9e4e-e93cdba6fc14","ios":"levelo://app?vid=e8bee858-c181-4af7-9e4e-e93cdba6fc14"},"vehicle_type_id":"4","last_reported":1720105676,"current_range_meters":28800,"station_id":"ce4bgl92rcd13ifvqbq0","pricing_plan_id":"cebpf4jnsgd1na2vs0mg"},{"bike_id":"e3159b01-eda4-478d-b684-9672308abf82","system_id":"levelo_inurba_marseille","lat":43.312239,"lon":5.368562,"is_reserved":false,"is_disabled":false,"rental_uris":{"android":"levelo://app?vid=e3159b01-eda4-478d-b684-9672308abf82","ios":"levelo://app?vid=e3159b01-eda4-478d-b684-9672308abf82"},"vehicle_type_id":"4","last_reported":1720105676,"current_range_meters":30800,"station_id":"ce4bgl92rcd13ifvqbq0","pricing_plan_id":"cebpf4jnsgd1na2vs0mg"},{"bike_id":"5e363f54-7470-49ea-b2b4-48940ab7fb8c","system_id":"levelo_inurba_marseille","lat":43.312239,"lon":5.368562,"is_reserved":false,"is_disabled":false,"rental_uris":{"android":"levelo://app?vid=5e363f54-7470-49ea-b2b4-48940ab7fb8c","ios":"levelo://app?vid=5e363f54-7470-49ea-b2b4-48940ab7fb8c"},"vehicle_type_id":"4","last_reported":1720105676,"current_range_meters":2000,"station_id":"ce4bgl92rcd13ifvqbq0","pricing_plan_id":"cebpf4jnsgd1na2vs0mg"},{"bike_id":"08fdede8-9642-4565-88b4-50120d68e966","system_id":"levelo_inurba_marseille","lat":43.312239,"lon":5.368562,"is_reserved":false,"is_disabled":false,"rental_uris":{"android":"levelo://app?vid=08fdede8-9642-4565-88b4-50120d68e966","ios":"levelo://app?vid=08fdede8-9642-4565-88b4-50120d68e966"},"vehicle_type_id":"4","last_reported":1720105676,"current_range_meters":22000,"station_id":"ce4bgl92rcd13ifvqbq0","pricing_plan_id":"cebpf4jnsgd1na2vs0mg"},{"bike_id":"0bad28c1-4421-4158-b19f-55ff3f3b2ead","system_id":"levelo_inurba_marseille","lat":43.312239,"lon":5.368562,"is_reserved":false,"is_disabled":false,"rental_uris":{"android":"levelo://app?vid=0bad28c1-4421-4158-b19f-55ff3f3b2ead","ios":"levelo://app?vid=0bad28c1-4421-4158-b19f-55ff3f3b2ead"},"vehicle_type_id":"4","last_reported":1720105676,"current_range_meters":31600,"station_id":"ce4bgl92rcd13ifvqbq0","pricing_plan_id":"cebpf4jnsgd1na2vs0mg"},{"bike_id":"fecd32c5-eabc-435d-a50e-5691eae26309","system_id":"levelo_inurba_marseille","lat":43.312239,"lon":5.368562,"is_reserved":false,"is_disabled":false,"rental_uris":{"android":"levelo://app?vid=fecd32c5-eabc-435d-a50e-5691eae26309","ios":"levelo://app?vid=fecd32c5-eabc-435d-a50e-5691eae26309"},"vehicle_type_id":"4","last_reported":1720105676,"current_range_meters":31600,"station_id":"ce4bgl92rcd13ifvqbq0","pricing_plan_id":"cebpf4jnsgd1na2vs0mg"},{"bike_id":"3a66fb1a-3c24-4e68-ab6e-14c5a74571b1","system_id":"levelo_inurba_marseille","lat":43.312239,"lon":5.368562,"is_reserved":false,"is_disabled":false,"rental_uris":{"android":"levelo://app?vid=3a66fb1a-3c24-4e68-ab6e-14c5a74571b1","ios":"levelo://app?vid=3a66fb1a-3c24-4e68-ab6e-14c5a74571b1"},"vehicle_type_id":"4","last_reported":1720105676,"current_range_meters":30000,"station_id":"ce4bgl92rcd13ifvqbq0","pricing_plan_id":"cebpf4jnsgd1na2vs0mg"},{"bike_id":"a97bb69d-1057-42bb-8a58-4d9f1d88e612","system_id":"levelo_inurba_marseille","lat":43.312239,"lon":5.368562,"is_reserved":false,"is_disabled":false,"rental_uris":{"android":"levelo://app?vid=a97bb69d-1057-42bb-8a58-4d9f1d88e612","ios":"levelo://app?vid=a97bb69d-1057-42bb-8a58-4d9f1d88e612"},"vehicle_type_id":"4","last_reported":1720105676,"current_range_meters":2000,"station_id":"ce4bgl92rcd13ifvqbq0","pricing_plan_id":"cebpf4jnsgd1na2vs0mg"},{"bike_id":"98c4fc10-24c3-4a50-addb-777e7dea90de","system_id":"levelo_inurba_marseille","lat":43.31223,"lon":5.36869,"is_reserved":false,"is_disabled":false,"rental_uris":{"android":"levelo://app?vid=98c4fc10-24c3-4a50-addb-777e7dea90de","ios":"levelo://app?vid=98c4fc10-24c3-4a50-addb-777e7dea90de"},"vehicle_type_id":"4","last_reported":1720105676,"current_range_meters":800,"station_id":"ce4bgl92rcd13ifvqbq0","pricing_plan_id":"cebpf4jnsgd1na2vs0mg"},{"bike_id":"6e72d60f-174e-4b5b-8592-ab57345525ed","system_id":"levelo_inurba_marseille","lat":43.312239,"lon":5.368562,"is_reserved":false,"is_disabled":false,"rental_uris":{"android":"levelo://app?vid=6e72d60f-174e-4b5b-8592-ab57345525ed","ios":"levelo://app?vid=6e72d60f-174e-4b5b-8592-ab57345525ed"},"vehicle_type_id":"4","last_reported":1720105676,"current_range_meters":20000,"station_id":"ce4bgl92rcd13ifvqbq0","pricing_plan_id":"cebpf4jnsgd1na2vs0mg"},{"bike_id":"3bde5352-2c3b-4b24-81af-669de63cf5e6","system_id":"levelo_inurba_marseille","lat":43.31324,"lon":5.36871,"is_reserved":false,"is_disabled":false,"rental_uris":{"android":"levelo://app?vid=3bde5352-2c3b-4b24-81af-669de63cf5e6","ios":"levelo://app?vid=3bde5352-2c3b-4b24-81af-669de63cf5e6"},"vehicle_type_id":"4","last_reported":1720105676,"current_range_meters":20800,"station_id":"","pricing_plan_id":"cebpf4jnsgd1na2vs0mg"},{"bike_id":"3630c2f0-053b-48d5-b253-44bef2eacc23","system_id":"levelo_inurba_marseille","lat":43.312239,"lon":5.368562,"is_reserved":false,"is_disabled":false,"rental_uris":{"android":"levelo://app?vid=3630c2f0-053b-48d5-b253-44bef2eacc23","ios":"levelo://app?vid=3630c2f0-053b-48d5-b253-44bef2eacc23"},"vehicle_type_id":"4","last_reported":1720105676,"current_range_meters":11600,"station_id":"ce4bgl92rcd13ifvqbq0","pricing_plan_id":"cebpf4jnsgd1na2vs0mg"},{"bike_id":"e1611334-0fa6-43ca-a0f8-4a826bb255ee","system_id":"levelo_inurba_marseille","lat":43.314811,"lon":5.373103,"is_reserved":false,"is_disabled":false,"rental_uris":{"android":"levelo://app?vid=e1611334-0fa6-43ca-a0f8-4a826bb255ee","ios":"levelo://app?vid=e1611334-0fa6-43ca-a0f8-4a826bb255ee"},"vehicle_type_id":"4","last_reported":1720105676,"current_range_meters":18800,"station_id":"ce4bgt12rcd13ifvqcd0","pricing_plan_id":"cebpf4jnsgd1na2vs0mg"},{"bike_id":"77330f77-96c4-45da-90ab-a9b4ae11c06c","system_id":"levelo_inurba_marseille","lat":43.309039,"lon":5.371797,"is_reserved":false,"is_disabled":false,"rental_uris":{"android":"levelo://app?vid=77330f77-96c4-45da-90ab-a9b4ae11c06c","ios":"levelo://app?vid=77330f77-96c4-45da-90ab-a9b4ae11c06c"},"vehicle_type_id":"4","last_reported":1720105676,"current_range_meters":24800,"station_id":"ce4bguh2rcd13ifvqckg","pricing_plan_id":"cebpf4jnsgd1na2vs0mg"},{"bike_id":"f9536595-9885-4461-ba4e-8d3d49437ce6","system_id":"levelo_inurba_marseille","lat":43.309039,"lon":5.371797,"is_reserved":false,"is_disabled":false,"rental_uris":{"android":"levelo://app?vid=f9536595-9885-4461-ba4e-8d3d49437ce6","ios":"levelo://app?vid=f9536595-9885-4461-ba4e-8d3d49437ce6"},"vehicle_type_id":"4","last_reported":1720105676,"current_range_meters":23200,"station_id":"ce4bguh2rcd13ifvqckg","pricing_plan_id":"cebpf4jnsgd1na2vs0mg"},{"bike_id":"40a89caf-f3fd-43ac-8ed5-47f863ea47c8","system_id":"levelo_inurba_marseille","lat":43.309034,"lon":5.371783,"is_reserved":false,"is_disabled":false,"rental_uris":{"android":"levelo://app?vid=40a89caf-f3fd-43ac-8ed5-47f863ea47c8","ios":"levelo://app?vid=40a89caf-f3fd-43ac-8ed5-47f863ea47c8"},"vehicle_type_id":"4","last_reported":1720105676,"current_range_meters":1200,"station_id":"ce4bguh2rcd13ifvqckg","pricing_plan_id":"cebpf4jnsgd1na2vs0mg"},{"bike_id":"c4d4a0aa-b991-4ded-acc9-f42feaec89e5","system_id":"levelo_inurba_marseille","lat":43.30861,"lon":5.37209,"is_reserved":false,"is_disabled":false,"rental_uris":{"android":"levelo://app?vid=c4d4a0aa-b991-4ded-acc9-f42feaec89e5","ios":"levelo://app?vid=c4d4a0aa-b991-4ded-acc9-f42feaec89e5"},"vehicle_type_id":"4","last_reported":1720105676,"current_range_meters":26800,"station_id":"","pricing_plan_id":"cebpf4jnsgd1na2vs0mg"},{"bike_id":"d5719a71-5cc7-44a0-8258-f97688e3467c","system_id":"levelo_inurba_marseille","lat":43.309039,"lon":5.371797,"is_reserved":false,"is_disabled":false,"rental_uris":{"android":"levelo://app?vid=d5719a71-5cc7-44a0-8258-f97688e3467c","ios":"levelo://app?vid=d5719a71-5cc7-44a0-8258-f97688e3467c"},"vehicle_type_id":"4","last_reported":1720105676,"current_range_meters":28800,"station_id":"ce4bguh2rcd13ifvqckg","pricing_plan_id":"cebpf4jnsgd1na2vs0mg"},{"bike_id":"0acb4a3d-593c-4eda-a8ab-3eea7af0cc04","system_id":"levelo_inurba_marseille","lat":43.305712,"lon":5.365641,"is_reserved":false,"is_disabled":false,"rental_uris":{"android":"levelo://app?vid=0acb4a3d-593c-4eda-a8ab-3eea7af0cc04","ios":"levelo://app?vid=0acb4a3d-593c-4eda-a8ab-3eea7af0cc04"},"vehicle_type_id":"4","last_reported":1720105676,"current_range_meters":0,"station_id":"ce4bgs12rcd13ifvqcag","pricing_plan_id":"cebpf4jnsgd1na2vs0mg"},{"bike_id":"680354a0-47dd-4515-9af6-2f5bab6d1594","system_id":"levelo_inurba_marseille","lat":43.30546,"lon":5.36656,"is_reserved":false,"is_disabled":false,"rental_uris":{"android":"levelo://app?vid=680354a0-47dd-4515-9af6-2f5bab6d1594","ios":"levelo://app?vid=680354a0-47dd-4515-9af6-2f5bab6d1594"},"vehicle_type_id":"4","last_reported":1720105676,"current_range_meters":2400,"station_id":"","pricing_plan_id":"cebpf4jnsgd1na2vs0mg"},{"bike_id":"6d31556d-c7d9-4325-a6ab-6e11ea31c17b","system_id":"levelo_inurba_marseille","lat":43.305528,"lon":5.365326,"is_reserved":false,"is_disabled":false,"rental_uris":{"android":"levelo://app?vid=6d31556d-c7d9-4325-a6ab-6e11ea31c17b","ios":"levelo://app?vid=6d31556d-c7d9-4325-a6ab-6e11ea31c17b"},"vehicle_type_id":"4","last_reported":1720105676,"current_range_meters":24400,"station_id":"ce4bgs12rcd13ifvqcag","pricing_plan_id":"cebpf4jnsgd1na2vs0mg"},{"bike_id":"b9d79c83-4adc-4231-aad4-e5bb89dc180e","system_id":"levelo_inurba_marseille","lat":43.30547,"lon":5.36541,"is_reserved":false,"is_disabled":false,"rental_uris":{"android":"levelo://app?vid=b9d79c83-4adc-4231-aad4-e5bb89dc180e","ios":"levelo://app?vid=b9d79c83-4adc-4231-aad4-e5bb89dc180e"},"vehicle_type_id":"4","last_reported":1720105676,"current_range_meters":10800,"station_id":"ce4bgs12rcd13ifvqcag","pricing_plan_id":"cebpf4jnsgd1na2vs0mg"},{"bike_id":"3febb025-ffd7-4034-bbd6-a54755b6d54e","system_id":"levelo_inurba_marseille","lat":43.305714,"lon":5.365633,"is_reserved":false,"is_disabled":false,"rental_uris":{"android":"levelo://app?vid=3febb025-ffd7-4034-bbd6-a54755b6d54e","ios":"levelo://app?vid=3febb025-ffd7-4034-bbd6-a54755b6d54e"},"vehicle_type_id":"4","last_reported":1720105676,"current_range_meters":7600,"station_id":"ce4bgs12rcd13ifvqcag","pricing_plan_id":"cebpf4jnsgd1na2vs0mg"},{"bike_id":"687904f4-2092-4f71-b8d7-406c6c006dbe","system_id":"levelo_inurba_marseille","lat":43.30537,"lon":5.367345,"is_reserved":false,"is_disabled":false,"rental_uris":{"android":"levelo://app?vid=687904f4-2092-4f71-b8d7-406c6c006dbe","ios":"levelo://app?vid=687904f4-2092-4f71-b8d7-406c6c006dbe"},"vehicle_type_id":"4","last_reported":1720105676,"current_range_meters":30000,"station_id":"ce4bgrp2rcd13ifvqc9g","pricing_plan_id":"cebpf4jnsgd1na2vs0mg"},{"bike_id":"10cfb842-e535-4b06-848a-f5e64c99dee3","system_id":"levelo_inurba_marseille","lat":43.305714,"lon":5.365633,"is_reserved":false,"is_disabled":false,"rental_uris":{"android":"levelo://app?vid=10cfb842-e535-4b06-848a-f5e64c99dee3","ios":"levelo://app?vid=10cfb842-e535-4b06-848a-f5e64c99dee3"},"vehicle_type_id":"4","last_reported":1720105676,"current_range_meters":31200,"station_id":"ce4bgs12rcd13ifvqcag","pricing_plan_id":"cebpf4jnsgd1na2vs0mg"},{"bike_id":"6ddad6d9-e531-4460-94da-66d43cd379db","system_id":"levelo_inurba_marseille","lat":43.305714,"lon":5.365633,"is_reserved":false,"is_disabled":false,"rental_uris":{"android":"levelo://app?vid=6ddad6d9-e531-4460-94da-66d43cd379db","ios":"levelo://app?vid=6ddad6d9-e531-4460-94da-66d43cd379db"},"vehicle_type_id":"4","last_reported":1720105676,"current_range_meters":29600,"station_id":"ce4bgs12rcd13ifvqcag","pricing_plan_id":"cebpf4jnsgd1na2vs0mg"},{"bike_id":"c069d55d-ed93-416c-9574-e2672363831f","system_id":"levelo_inurba_marseille","lat":43.305714,"lon":5.365633,"is_reserved":false,"is_disabled":false,"rental_uris":{"android":"levelo://app?vid=c069d55d-ed93-416c-9574-e2672363831f","ios":"levelo://app?vid=c069d55d-ed93-416c-9574-e2672363831f"},"vehicle_type_id":"4","last_reported":1720105676,"current_range_meters":30000,"station_id":"ce4bgs12rcd13ifvqcag","pricing_plan_id":"cebpf4jnsgd1na2vs0mg"},{"bike_id":"a6e2be4b-e0ef-47dc-b574-9cca82c2899e","system_id":"levelo_inurba_marseille","lat":43.305714,"lon":5.365633,"is_reserved":false,"is_disabled":false,"rental_uris":{"android":"levelo://app?vid=a6e2be4b-e0ef-47dc-b574-9cca82c2899e","ios":"levelo://app?vid=a6e2be4b-e0ef-47dc-b574-9cca82c2899e"},"vehicle_type_id":"4","last_reported":1720105676,"current_range_meters":15200,"station_id":"ce4bgs12rcd13ifvqcag","pricing_plan_id":"cebpf4jnsgd1na2vs0mg"},{"bike_id":"abcaf4ee-220f-4310-b094-5f0f3c0f0de4","system_id":"levelo_inurba_marseille","lat":43.305714,"lon":5.365633,"is_reserved":false,"is_disabled":false,"rental_uris":{"android":"levelo://app?vid=abcaf4ee-220f-4310-b094-5f0f3c0f0de4","ios":"levelo://app?vid=abcaf4ee-220f-4310-b094-5f0f3c0f0de4"},"vehicle_type_id":"4","last_reported":1720105676,"current_range_meters":31600,"station_id":"ce4bgs12rcd13ifvqcag","pricing_plan_id":"cebpf4jnsgd1na2vs0mg"},{"bike_id":"c5448ed0-e2d8-4b51-ad29-297930ea2a9f","system_id":"levelo_inurba_marseille","lat":43.305714,"lon":5.365633,"is_reserved":false,"is_disabled":false,"rental_uris":{"android":"levelo://app?vid=c5448ed0-e2d8-4b51-ad29-297930ea2a9f","ios":"levelo://app?vid=c5448ed0-e2d8-4b51-ad29-297930ea2a9f"},"vehicle_type_id":"4","last_reported":1720105676,"current_range_meters":31600,"station_id":"ce4bgs12rcd13ifvqcag","pricing_plan_id":"cebpf4jnsgd1na2vs0mg"},{"bike_id":"a6ebe4ec-6ec7-498f-a07a-f20d8342582a","system_id":"levelo_inurba_marseille","lat":43.30537,"lon":5.36559,"is_reserved":false,"is_disabled":false,"rental_uris":{"android":"levelo://app?vid=a6ebe4ec-6ec7-498f-a07a-f20d8342582a","ios":"levelo://app?vid=a6ebe4ec-6ec7-498f-a07a-f20d8342582a"},"vehicle_type_id":"4","last_reported":1720105676,"current_range_meters":5200,"station_id":"ce4bgs12rcd13ifvqcag","pricing_plan_id":"cebpf4jnsgd1na2vs0mg"},{"bike_id":"0533ea13-dde3-4ba8-b5e8-705dc1e12762","system_id":"levelo_inurba_marseille","lat":43.305714,"lon":5.365633,"is_reserved":false,"is_disabled":false,"rental_uris":{"android":"levelo://app?vid=0533ea13-dde3-4ba8-b5e8-705dc1e12762","ios":"levelo://app?vid=0533ea13-dde3-4ba8-b5e8-705dc1e12762"},"vehicle_type_id":"4","last_reported":1720105676,"current_range_meters":31600,"station_id":"ce4bgs12rcd13ifvqcag","pricing_plan_id":"cebpf4jnsgd1na2vs0mg"},{"bike_id":"17b33548-2ace-4994-a8fd-f648d9a6909c","system_id":"levelo_inurba_marseille","lat":43.305706,"lon":5.365654,"is_reserved":false,"is_disabled":false,"rental_uris":{"android":"levelo://app?vid=17b33548-2ace-4994-a8fd-f648d9a6909c","ios":"levelo://app?vid=17b33548-2ace-4994-a8fd-f648d9a6909c"},"vehicle_type_id":"4","last_reported":1720105676,"current_range_meters":31600,"station_id":"ce4bgs12rcd13ifvqcag","pricing_plan_id":"cebpf4jnsgd1na2vs0mg"},{"bike_id":"cef4913f-0b2b-4d06-af27-0c3025ef0066","system_id":"levelo_inurba_marseille","lat":43.30533,"lon":5.365517,"is_reserved":false,"is_disabled":false,"rental_uris":{"android":"levelo://app?vid=cef4913f-0b2b-4d06-af27-0c3025ef0066","ios":"levelo://app?vid=cef4913f-0b2b-4d06-af27-0c3025ef0066"},"vehicle_type_id":"4","last_reported":1720105676,"current_range_meters":6400,"station_id":"ce4bgs12rcd13ifvqcag","pricing_plan_id":"cebpf4jnsgd1na2vs0mg"},{"bike_id":"9dfa50e8-4551-48f2-a57d-529640553d61","system_id":"levelo_inurba_marseille","lat":43.305706,"lon":5.365654,"is_reserved":false,"is_disabled":false,"rental_uris":{"android":"levelo://app?vid=9dfa50e8-4551-48f2-a57d-529640553d61","ios":"levelo://app?vid=9dfa50e8-4551-48f2-a57d-529640553d61"},"vehicle_type_id":"4","last_reported":1720105676,"current_range_meters":31600,"station_id":"ce4bgs12rcd13ifvqcag","pricing_plan_id":"cebpf4jnsgd1na2vs0mg"},{"bike_id":"d66f938d-e1ac-488f-a6e5-e3861bacadbb","system_id":"levelo_inurba_marseille","lat":43.307945,"lon":5.376487,"is_reserved":false,"is_disabled":false,"rental_uris":{"android":"levelo://app?vid=d66f938d-e1ac-488f-a6e5-e3861bacadbb","ios":"levelo://app?vid=d66f938d-e1ac-488f-a6e5-e3861bacadbb"},"vehicle_type_id":"4","last_reported":1720105676,"current_range_meters":28400,"station_id":"ce4bgv92rcd13ifvqcq0","pricing_plan_id":"cebpf4jnsgd1na2vs0mg"},{"bike_id":"dc1ef4d4-f25a-4f4b-921b-dd11e3fda8a1","system_id":"levelo_inurba_marseille","lat":43.303046,"lon":5.368981,"is_reserved":false,"is_disabled":false,"rental_uris":{"android":"levelo://app?vid=dc1ef4d4-f25a-4f4b-921b-dd11e3fda8a1","ios":"levelo://app?vid=dc1ef4d4-f25a-4f4b-921b-dd11e3fda8a1"},"vehicle_type_id":"4","last_reported":1720105676,"current_range_meters":28800,"station_id":"ce4bgqh2rcd13ifvqc5g","pricing_plan_id":"cebpf4jnsgd1na2vs0mg"},{"bike_id":"9489934d-0547-4468-a1c7-83b4fb9b8e0e","system_id":"levelo_inurba_marseille","lat":43.30304,"lon":5.368987,"is_reserved":false,"is_disabled":false,"rental_uris":{"android":"levelo://app?vid=9489934d-0547-4468-a1c7-83b4fb9b8e0e","ios":"levelo://app?vid=9489934d-0547-4468-a1c7-83b4fb9b8e0e"},"vehicle_type_id":"4","last_reported":1720105676,"current_range_meters":30800,"station_id":"ce4bgqh2rcd13ifvqc5g","pricing_plan_id":"cebpf4jnsgd1na2vs0mg"},{"bike_id":"5bb67ffb-779f-4cbe-9ff5-911e04992d50","system_id":"levelo_inurba_marseille","lat":43.315289,"lon":5.380349,"is_reserved":false,"is_disabled":false,"rental_uris":{"android":"levelo://app?vid=5bb67ffb-779f-4cbe-9ff5-911e04992d50","ios":"levelo://app?vid=5bb67ffb-779f-4cbe-9ff5-911e04992d50"},"vehicle_type_id":"4","last_reported":1720105676,"current_range_meters":28400,"station_id":"ce4bhsp2rcd13ifvqi50","pricing_plan_id":"cebpf4jnsgd1na2vs0mg"},{"bike_id":"94de72f7-31fd-48ce-8e29-bc5dcd06167f","system_id":"levelo_inurba_marseille","lat":43.315289,"lon":5.380349,"is_reserved":false,"is_disabled":false,"rental_uris":{"android":"levelo://app?vid=94de72f7-31fd-48ce-8e29-bc5dcd06167f","ios":"levelo://app?vid=94de72f7-31fd-48ce-8e29-bc5dcd06167f"},"vehicle_type_id":"4","last_reported":1720105676,"current_range_meters":16000,"station_id":"ce4bhsp2rcd13ifvqi50","pricing_plan_id":"cebpf4jnsgd1na2vs0mg"},{"bike_id":"fa084d70-bb6d-43af-ae4b-16db686eedeb","system_id":"levelo_inurba_marseille","lat":43.315289,"lon":5.380349,"is_reserved":false,"is_disabled":false,"rental_uris":{"android":"levelo://app?vid=fa084d70-bb6d-43af-ae4b-16db686eedeb","ios":"levelo://app?vid=fa084d70-bb6d-43af-ae4b-16db686eedeb"},"vehicle_type_id":"4","last_reported":1720105676,"current_range_meters":4000,"station_id":"ce4bhsp2rcd13ifvqi50","pricing_plan_id":"cebpf4jnsgd1na2vs0mg"},{"bike_id":"5db19ec8-14e3-4cae-bd78-38cc5e7ac88b","system_id":"levelo_inurba_marseille","lat":43.301939,"lon":5.366286,"is_reserved":false,"is_disabled":false,"rental_uris":{"android":"levelo://app?vid=5db19ec8-14e3-4cae-bd78-38cc5e7ac88b","ios":"levelo://app?vid=5db19ec8-14e3-4cae-bd78-38cc5e7ac88b"},"vehicle_type_id":"4","last_reported":1720105676,"current_range_meters":24000,"station_id":"ce4bgrh2rcd13ifvqc8g","pricing_plan_id":"cebpf4jnsgd1na2vs0mg"},{"bike_id":"af298cd2-ef30-41aa-9117-4a117be1e533","system_id":"levelo_inurba_marseille","lat":43.30188,"lon":5.36611,"is_reserved":false,"is_disabled":false,"rental_uris":{"android":"levelo://app?vid=af298cd2-ef30-41aa-9117-4a117be1e533","ios":"levelo://app?vid=af298cd2-ef30-41aa-9117-4a117be1e533"},"vehicle_type_id":"4","last_reported":1720105676,"current_range_meters":13600,"station_id":"ce4bgrh2rcd13ifvqc8g","pricing_plan_id":"cebpf4jnsgd1na2vs0mg"},{"bike_id":"ee30d768-22f6-4e84-ba10-16ce13bb3086","system_id":"levelo_inurba_marseille","lat":43.301939,"lon":5.366286,"is_reserved":false,"is_disabled":false,"rental_uris":{"android":"levelo://app?vid=ee30d768-22f6-4e84-ba10-16ce13bb3086","ios":"levelo://app?vid=ee30d768-22f6-4e84-ba10-16ce13bb3086"},"vehicle_type_id":"4","last_reported":1720105676,"current_range_meters":24000,"station_id":"ce4bgrh2rcd13ifvqc8g","pricing_plan_id":"cebpf4jnsgd1na2vs0mg"},{"bike_id":"fdff3db2-13d8-4881-937b-1a6558774737","system_id":"levelo_inurba_marseille","lat":43.301939,"lon":5.366286,"is_reserved":false,"is_disabled":false,"rental_uris":{"android":"levelo://app?vid=fdff3db2-13d8-4881-937b-1a6558774737","ios":"levelo://app?vid=fdff3db2-13d8-4881-937b-1a6558774737"},"vehicle_type_id":"4","last_reported":1720105676,"current_range_meters":22800,"station_id":"ce4bgrh2rcd13ifvqc8g","pricing_plan_id":"cebpf4jnsgd1na2vs0mg"},{"bike_id":"d11bcf88-11bc-4695-9e26-b741f0df40e1","system_id":"levelo_inurba_marseille","lat":43.301939,"lon":5.366286,"is_reserved":false,"is_disabled":false,"rental_uris":{"android":"levelo://app?vid=d11bcf88-11bc-4695-9e26-b741f0df40e1","ios":"levelo://app?vid=d11bcf88-11bc-4695-9e26-b741f0df40e1"},"vehicle_type_id":"4","last_reported":1720105676,"current_range_meters":5600,"station_id":"ce4bgrh2rcd13ifvqc8g","pricing_plan_id":"cebpf4jnsgd1na2vs0mg"},{"bike_id":"5780f780-8afd-4250-ae63-cc70ef94c876","system_id":"levelo_inurba_marseille","lat":43.30176,"lon":5.36612,"is_reserved":false,"is_disabled":false,"rental_uris":{"android":"levelo://app?vid=5780f780-8afd-4250-ae63-cc70ef94c876","ios":"levelo://app?vid=5780f780-8afd-4250-ae63-cc70ef94c876"},"vehicle_type_id":"4","last_reported":1720105676,"current_range_meters":24800,"station_id":"ce4bgrh2rcd13ifvqc8g","pricing_plan_id":"cebpf4jnsgd1na2vs0mg"},{"bike_id":"ef8f6dce-184c-4a90-8380-e5760f16830e","system_id":"levelo_inurba_marseille","lat":43.308012,"lon":5.381511,"is_reserved":false,"is_disabled":false,"rental_uris":{"android":"levelo://app?vid=ef8f6dce-184c-4a90-8380-e5760f16830e","ios":"levelo://app?vid=ef8f6dce-184c-4a90-8380-e5760f16830e"},"vehicle_type_id":"4","last_reported":1720105676,"current_range_meters":22000,"station_id":"ce4bgt12rcd13ifvqce0","pricing_plan_id":"cebpf4jnsgd1na2vs0mg"},{"bike_id":"8a599181-5e8b-43c1-a816-3be551d991ae","system_id":"levelo_inurba_marseille","lat":43.30796,"lon":5.381596,"is_reserved":false,"is_disabled":false,"rental_uris":{"android":"levelo://app?vid=8a599181-5e8b-43c1-a816-3be551d991ae","ios":"levelo://app?vid=8a599181-5e8b-43c1-a816-3be551d991ae"},"vehicle_type_id":"4","last_reported":1720105676,"current_range_meters":23200,"station_id":"ce4bgt12rcd13ifvqce0","pricing_plan_id":"cebpf4jnsgd1na2vs0mg"},{"bike_id":"8a4c0250-068d-40ce-8dbd-0ad35ae02c57","system_id":"levelo_inurba_marseille","lat":43.308012,"lon":5.381511,"is_reserved":false,"is_disabled":false,"rental_uris":{"android":"levelo://app?vid=8a4c0250-068d-40ce-8dbd-0ad35ae02c57","ios":"levelo://app?vid=8a4c0250-068d-40ce-8dbd-0ad35ae02c57"},"vehicle_type_id":"4","last_reported":1720105676,"current_range_meters":1200,"station_id":"ce4bgt12rcd13ifvqce0","pricing_plan_id":"cebpf4jnsgd1na2vs0mg"},{"bike_id":"e79632db-116d-4d34-8a89-117f3632dcbf","system_id":"levelo_inurba_marseille","lat":43.308012,"lon":5.381511,"is_reserved":false,"is_disabled":false,"rental_uris":{"android":"levelo://app?vid=e79632db-116d-4d34-8a89-117f3632dcbf","ios":"levelo://app?vid=e79632db-116d-4d34-8a89-117f3632dcbf"},"vehicle_type_id":"4","last_reported":1720105676,"current_range_meters":2000,"station_id":"ce4bgt12rcd13ifvqce0","pricing_plan_id":"cebpf4jnsgd1na2vs0mg"},{"bike_id":"77d72a6e-091a-44ba-a08b-79eca99cd768","system_id":"levelo_inurba_marseille","lat":43.304606,"lon":5.379026,"is_reserved":false,"is_disabled":false,"rental_uris":{"android":"levelo://app?vid=77d72a6e-091a-44ba-a08b-79eca99cd768","ios":"levelo://app?vid=77d72a6e-091a-44ba-a08b-79eca99cd768"},"vehicle_type_id":"4","last_reported":1720105676,"current_range_meters":21600,"station_id":"ce4bgup2rcd13ifvqcn0","pricing_plan_id":"cebpf4jnsgd1na2vs0mg"},{"bike_id":"7c8719cd-e1b6-4655-bd1f-4f78f5088c6c","system_id":"levelo_inurba_marseille","lat":43.30194,"lon":5.37426,"is_reserved":false,"is_disabled":false,"rental_uris":{"android":"levelo://app?vid=7c8719cd-e1b6-4655-bd1f-4f78f5088c6c","ios":"levelo://app?vid=7c8719cd-e1b6-4655-bd1f-4f78f5088c6c"},"vehicle_type_id":"4","last_reported":1720105676,"current_range_meters":27600,"station_id":"","pricing_plan_id":"cebpf4jnsgd1na2vs0mg"},{"bike_id":"21b33335-e0f5-4edb-ba33-d241839266fe","system_id":"levelo_inurba_marseille","lat":43.324771,"lon":5.36557,"is_reserved":false,"is_disabled":false,"rental_uris":{"android":"levelo://app?vid=21b33335-e0f5-4edb-ba33-d241839266fe","ios":"levelo://app?vid=21b33335-e0f5-4edb-ba33-d241839266fe"},"vehicle_type_id":"4","last_reported":1720105676,"current_range_meters":0,"station_id":"ce4bhs12rcd13ifvqhvg","pricing_plan_id":"cebpf4jnsgd1na2vs0mg"},{"bike_id":"607acada-7151-4a74-8e53-a7647282b51f","system_id":"levelo_inurba_marseille","lat":43.310804,"lon":5.38359,"is_reserved":false,"is_disabled":false,"rental_uris":{"android":"levelo://app?vid=607acada-7151-4a74-8e53-a7647282b51f","ios":"levelo://app?vid=607acada-7151-4a74-8e53-a7647282b51f"},"vehicle_type_id":"4","last_reported":1720105676,"current_range_meters":24800,"station_id":"ce4bgv92rcd13ifvqcr0","pricing_plan_id":"cebpf4jnsgd1na2vs0mg"},{"bike_id":"7e4f4fe6-0239-4fc2-9f5d-e89c0a235d82","system_id":"levelo_inurba_marseille","lat":43.302784,"lon":5.377158,"is_reserved":false,"is_disabled":false,"rental_uris":{"android":"levelo://app?vid=7e4f4fe6-0239-4fc2-9f5d-e89c0a235d82","ios":"levelo://app?vid=7e4f4fe6-0239-4fc2-9f5d-e89c0a235d82"},"vehicle_type_id":"4","last_reported":1720105676,"current_range_meters":26400,"station_id":"ce4bguh2rcd13ifvqcj0","pricing_plan_id":"cebpf4jnsgd1na2vs0mg"},{"bike_id":"47207fb9-9c6c-4706-a244-df5b511e2bf7","system_id":"levelo_inurba_marseille","lat":43.302784,"lon":5.377158,"is_reserved":false,"is_disabled":false,"rental_uris":{"android":"levelo://app?vid=47207fb9-9c6c-4706-a244-df5b511e2bf7","ios":"levelo://app?vid=47207fb9-9c6c-4706-a244-df5b511e2bf7"},"vehicle_type_id":"4","last_reported":1720105676,"current_range_meters":15200,"station_id":"ce4bguh2rcd13ifvqcj0","pricing_plan_id":"cebpf4jnsgd1na2vs0mg"},{"bike_id":"f2a12fd7-bece-4095-84ef-ae1c1fd88a0f","system_id":"levelo_inurba_marseille","lat":43.302784,"lon":5.377158,"is_reserved":false,"is_disabled":false,"rental_uris":{"android":"levelo://app?vid=f2a12fd7-bece-4095-84ef-ae1c1fd88a0f","ios":"levelo://app?vid=f2a12fd7-bece-4095-84ef-ae1c1fd88a0f"},"vehicle_type_id":"4","last_reported":1720105676,"current_range_meters":6400,"station_id":"ce4bguh2rcd13ifvqcj0","pricing_plan_id":"cebpf4jnsgd1na2vs0mg"},{"bike_id":"b32f7fe3-bedc-4b39-a22f-6a1d9f46edb7","system_id":"levelo_inurba_marseille","lat":43.319935,"lon":5.381699,"is_reserved":false,"is_disabled":false,"rental_uris":{"android":"levelo://app?vid=b32f7fe3-bedc-4b39-a22f-6a1d9f46edb7","ios":"levelo://app?vid=b32f7fe3-bedc-4b39-a22f-6a1d9f46edb7"},"vehicle_type_id":"4","last_reported":1720105676,"current_range_meters":27600,"station_id":"ce4bhr12rcd13ifvqhpg","pricing_plan_id":"cebpf4jnsgd1na2vs0mg"},{"bike_id":"a5729268-b5ea-4984-b45f-28a3c313dfc5","system_id":"levelo_inurba_marseille","lat":43.319935,"lon":5.381699,"is_reserved":false,"is_disabled":false,"rental_uris":{"android":"levelo://app?vid=a5729268-b5ea-4984-b45f-28a3c313dfc5","ios":"levelo://app?vid=a5729268-b5ea-4984-b45f-28a3c313dfc5"},"vehicle_type_id":"4","last_reported":1720105676,"current_range_meters":9200,"station_id":"ce4bhr12rcd13ifvqhpg","pricing_plan_id":"cebpf4jnsgd1na2vs0mg"},{"bike_id":"fb784225-4dd2-4714-a6df-68e25ad6f644","system_id":"levelo_inurba_marseille","lat":43.319935,"lon":5.381699,"is_reserved":false,"is_disabled":false,"rental_uris":{"android":"levelo://app?vid=fb784225-4dd2-4714-a6df-68e25ad6f644","ios":"levelo://app?vid=fb784225-4dd2-4714-a6df-68e25ad6f644"},"vehicle_type_id":"4","last_reported":1720105676,"current_range_meters":17600,"station_id":"ce4bhr12rcd13ifvqhpg","pricing_plan_id":"cebpf4jnsgd1na2vs0mg"},{"bike_id":"55f29928-de3c-493d-b799-244c32dfd243","system_id":"levelo_inurba_marseille","lat":43.319935,"lon":5.381699,"is_reserved":false,"is_disabled":false,"rental_uris":{"android":"levelo://app?vid=55f29928-de3c-493d-b799-244c32dfd243","ios":"levelo://app?vid=55f29928-de3c-493d-b799-244c32dfd243"},"vehicle_type_id":"4","last_reported":1720105676,"current_range_meters":0,"station_id":"ce4bhr12rcd13ifvqhpg","pricing_plan_id":"cebpf4jnsgd1na2vs0mg"},{"bike_id":"268ecab6-4cf3-4f3d-9d98-ea25b8e3f7bd","system_id":"levelo_inurba_marseille","lat":43.319935,"lon":5.381699,"is_reserved":false,"is_disabled":false,"rental_uris":{"android":"levelo://app?vid=268ecab6-4cf3-4f3d-9d98-ea25b8e3f7bd","ios":"levelo://app?vid=268ecab6-4cf3-4f3d-9d98-ea25b8e3f7bd"},"vehicle_type_id":"4","last_reported":1720105676,"current_range_meters":28000,"station_id":"ce4bhr12rcd13ifvqhpg","pricing_plan_id":"cebpf4jnsgd1na2vs0mg"},{"bike_id":"c8865c33-da4d-44a8-8eeb-085eed8ffc42","system_id":"levelo_inurba_marseille","lat":43.32002,"lon":5.3815,"is_reserved":false,"is_disabled":false,"rental_uris":{"android":"levelo://app?vid=c8865c33-da4d-44a8-8eeb-085eed8ffc42","ios":"levelo://app?vid=c8865c33-da4d-44a8-8eeb-085eed8ffc42"},"vehicle_type_id":"4","last_reported":1720105676,"current_range_meters":5600,"station_id":"ce4bgi12rcd13ifvqb70","pricing_plan_id":"cebpf4jnsgd1na2vs0mg"},{"bike_id":"c3d44354-26ec-432b-be30-3649046f3937","system_id":"levelo_inurba_marseille","lat":43.319935,"lon":5.381699,"is_reserved":false,"is_disabled":false,"rental_uris":{"android":"levelo://app?vid=c3d44354-26ec-432b-be30-3649046f3937","ios":"levelo://app?vid=c3d44354-26ec-432b-be30-3649046f3937"},"vehicle_type_id":"4","last_reported":1720105676,"current_range_meters":22000,"station_id":"ce4bhr12rcd13ifvqhpg","pricing_plan_id":"cebpf4jnsgd1na2vs0mg"},{"bike_id":"bd806262-9e3f-4dd7-a0be-788c3f7af95a","system_id":"levelo_inurba_marseille","lat":43.319935,"lon":5.381699,"is_reserved":false,"is_disabled":false,"rental_uris":{"android":"levelo://app?vid=bd806262-9e3f-4dd7-a0be-788c3f7af95a","ios":"levelo://app?vid=bd806262-9e3f-4dd7-a0be-788c3f7af95a"},"vehicle_type_id":"4","last_reported":1720105676,"current_range_meters":20800,"station_id":"ce4bhr12rcd13ifvqhpg","pricing_plan_id":"cebpf4jnsgd1na2vs0mg"},{"bike_id":"d2f13cc5-3fd8-4cce-9dc6-0d90d6f78447","system_id":"levelo_inurba_marseille","lat":43.313571,"lon":5.384829,"is_reserved":false,"is_disabled":false,"rental_uris":{"android":"levelo://app?vid=d2f13cc5-3fd8-4cce-9dc6-0d90d6f78447","ios":"levelo://app?vid=d2f13cc5-3fd8-4cce-9dc6-0d90d6f78447"},"vehicle_type_id":"4","last_reported":1720105676,"current_range_meters":25200,"station_id":"ce4bgt92rcd13ifvqcf0","pricing_plan_id":"cebpf4jnsgd1na2vs0mg"},{"bike_id":"cbdac02c-d3c8-4208-9e4a-d022a3272d7b","system_id":"levelo_inurba_marseille","lat":43.313571,"lon":5.384829,"is_reserved":false,"is_disabled":false,"rental_uris":{"android":"levelo://app?vid=cbdac02c-d3c8-4208-9e4a-d022a3272d7b","ios":"levelo://app?vid=cbdac02c-d3c8-4208-9e4a-d022a3272d7b"},"vehicle_type_id":"4","last_reported":1720105676,"current_range_meters":8400,"station_id":"ce4bgt92rcd13ifvqcf0","pricing_plan_id":"cebpf4jnsgd1na2vs0mg"},{"bike_id":"7aea6009-4d9f-4f74-acbb-b505f7269136","system_id":"levelo_inurba_marseille","lat":43.3136,"lon":5.3849,"is_reserved":false,"is_disabled":false,"rental_uris":{"android":"levelo://app?vid=7aea6009-4d9f-4f74-acbb-b505f7269136","ios":"levelo://app?vid=7aea6009-4d9f-4f74-acbb-b505f7269136"},"vehicle_type_id":"4","last_reported":1720105676,"current_range_meters":20400,"station_id":"ce4bgt92rcd13ifvqcf0","pricing_plan_id":"cebpf4jnsgd1na2vs0mg"},{"bike_id":"d77f187b-f86c-4e10-bf56-2ae13f477e80","system_id":"levelo_inurba_marseille","lat":43.313571,"lon":5.384829,"is_reserved":false,"is_disabled":false,"rental_uris":{"android":"levelo://app?vid=d77f187b-f86c-4e10-bf56-2ae13f477e80","ios":"levelo://app?vid=d77f187b-f86c-4e10-bf56-2ae13f477e80"},"vehicle_type_id":"4","last_reported":1720105676,"current_range_meters":14800,"station_id":"ce4bgt92rcd13ifvqcf0","pricing_plan_id":"cebpf4jnsgd1na2vs0mg"},{"bike_id":"66de92cb-03ba-4848-8b0e-999485f4fca5","system_id":"levelo_inurba_marseille","lat":43.313571,"lon":5.384829,"is_reserved":false,"is_disabled":false,"rental_uris":{"android":"levelo://app?vid=66de92cb-03ba-4848-8b0e-999485f4fca5","ios":"levelo://app?vid=66de92cb-03ba-4848-8b0e-999485f4fca5"},"vehicle_type_id":"4","last_reported":1720105676,"current_range_meters":30400,"station_id":"ce4bgt92rcd13ifvqcf0","pricing_plan_id":"cebpf4jnsgd1na2vs0mg"},{"bike_id":"96e8c4cb-5cfd-4618-a23d-daa789c8c8e0","system_id":"levelo_inurba_marseille","lat":43.299222,"lon":5.365554,"is_reserved":false,"is_disabled":false,"rental_uris":{"android":"levelo://app?vid=96e8c4cb-5cfd-4618-a23d-daa789c8c8e0","ios":"levelo://app?vid=96e8c4cb-5cfd-4618-a23d-daa789c8c8e0"},"vehicle_type_id":"4","last_reported":1720105676,"current_range_meters":19600,"station_id":"ce4bgm92rcd13ifvqbr0","pricing_plan_id":"cebpf4jnsgd1na2vs0mg"},{"bike_id":"6155f9de-cc68-481f-81df-dfdc0d775888","system_id":"levelo_inurba_marseille","lat":43.299724,"lon":5.371829,"is_reserved":false,"is_disabled":false,"rental_uris":{"android":"levelo://app?vid=6155f9de-cc68-481f-81df-dfdc0d775888","ios":"levelo://app?vid=6155f9de-cc68-481f-81df-dfdc0d775888"},"vehicle_type_id":"4","last_reported":1720105676,"current_range_meters":27200,"station_id":"ce4bgr92rcd13ifvqc7g","pricing_plan_id":"cebpf4jnsgd1na2vs0mg"},{"bike_id":"3845b65e-8e18-4504-b7d4-e45154794695","system_id":"levelo_inurba_marseille","lat":43.299222,"lon":5.365554,"is_reserved":false,"is_disabled":false,"rental_uris":{"android":"levelo://app?vid=3845b65e-8e18-4504-b7d4-e45154794695","ios":"levelo://app?vid=3845b65e-8e18-4504-b7d4-e45154794695"},"vehicle_type_id":"4","last_reported":1720105676,"current_range_meters":29600,"station_id":"ce4bgm92rcd13ifvqbr0","pricing_plan_id":"cebpf4jnsgd1na2vs0mg"},{"bike_id":"cf82b289-ffc6-41d8-bbf0-fa8ab5b27432","system_id":"levelo_inurba_marseille","lat":43.299724,"lon":5.371829,"is_reserved":false,"is_disabled":false,"rental_uris":{"android":"levelo://app?vid=cf82b289-ffc6-41d8-bbf0-fa8ab5b27432","ios":"levelo://app?vid=cf82b289-ffc6-41d8-bbf0-fa8ab5b27432"},"vehicle_type_id":"4","last_reported":1720105676,"current_range_meters":0,"station_id":"ce4bgr92rcd13ifvqc7g","pricing_plan_id":"cebpf4jnsgd1na2vs0mg"},{"bike_id":"987e408e-6e83-401f-9efb-7596f19af6ee","system_id":"levelo_inurba_marseille","lat":43.299222,"lon":5.365554,"is_reserved":false,"is_disabled":false,"rental_uris":{"android":"levelo://app?vid=987e408e-6e83-401f-9efb-7596f19af6ee","ios":"levelo://app?vid=987e408e-6e83-401f-9efb-7596f19af6ee"},"vehicle_type_id":"4","last_reported":1720105676,"current_range_meters":8400,"station_id":"ce4bgm92rcd13ifvqbr0","pricing_plan_id":"cebpf4jnsgd1na2vs0mg"},{"bike_id":"583fcee3-8cfc-47ec-a0cb-25aa6631d502","system_id":"levelo_inurba_marseille","lat":43.299222,"lon":5.365554,"is_reserved":false,"is_disabled":false,"rental_uris":{"android":"levelo://app?vid=583fcee3-8cfc-47ec-a0cb-25aa6631d502","ios":"levelo://app?vid=583fcee3-8cfc-47ec-a0cb-25aa6631d502"},"vehicle_type_id":"4","last_reported":1720105676,"current_range_meters":11600,"station_id":"ce4bgm92rcd13ifvqbr0","pricing_plan_id":"cebpf4jnsgd1na2vs0mg"},{"bike_id":"1e8b3fe6-7233-4613-aca2-5db4681719b3","system_id":"levelo_inurba_marseille","lat":43.299222,"lon":5.365554,"is_reserved":false,"is_disabled":false,"rental_uris":{"android":"levelo://app?vid=1e8b3fe6-7233-4613-aca2-5db4681719b3","ios":"levelo://app?vid=1e8b3fe6-7233-4613-aca2-5db4681719b3"},"vehicle_type_id":"4","last_reported":1720105676,"current_range_meters":15200,"station_id":"ce4bgm92rcd13ifvqbr0","pricing_plan_id":"cebpf4jnsgd1na2vs0mg"},{"bike_id":"2bf19610-f09d-4ca0-baa5-e3bde6e4a33e","system_id":"levelo_inurba_marseille","lat":43.299724,"lon":5.371829,"is_reserved":false,"is_disabled":false,"rental_uris":{"android":"levelo://app?vid=2bf19610-f09d-4ca0-baa5-e3bde6e4a33e","ios":"levelo://app?vid=2bf19610-f09d-4ca0-baa5-e3bde6e4a33e"},"vehicle_type_id":"4","last_reported":1720105676,"current_range_meters":12400,"station_id":"ce4bgr92rcd13ifvqc7g","pricing_plan_id":"cebpf4jnsgd1na2vs0mg"},{"bike_id":"dc2a87d9-cb95-4654-8246-7e57aef3a3db","system_id":"levelo_inurba_marseille","lat":43.299222,"lon":5.365554,"is_reserved":false,"is_disabled":false,"rental_uris":{"android":"levelo://app?vid=dc2a87d9-cb95-4654-8246-7e57aef3a3db","ios":"levelo://app?vid=dc2a87d9-cb95-4654-8246-7e57aef3a3db"},"vehicle_type_id":"4","last_reported":1720105676,"current_range_meters":30400,"station_id":"ce4bgm92rcd13ifvqbr0","pricing_plan_id":"cebpf4jnsgd1na2vs0mg"},{"bike_id":"3f598b75-4375-4b82-9c27-58b50599a0d4","system_id":"levelo_inurba_marseille","lat":43.299222,"lon":5.365554,"is_reserved":false,"is_disabled":false,"rental_uris":{"android":"levelo://app?vid=3f598b75-4375-4b82-9c27-58b50599a0d4","ios":"levelo://app?vid=3f598b75-4375-4b82-9c27-58b50599a0d4"},"vehicle_type_id":"4","last_reported":1720105676,"current_range_meters":21600,"station_id":"ce4bgm92rcd13ifvqbr0","pricing_plan_id":"cebpf4jnsgd1na2vs0mg"},{"bike_id":"bc38f47c-0a37-464f-99bf-705f1cc6f473","system_id":"levelo_inurba_marseille","lat":43.29867,"lon":5.36448,"is_reserved":false,"is_disabled":false,"rental_uris":{"android":"levelo://app?vid=bc38f47c-0a37-464f-99bf-705f1cc6f473","ios":"levelo://app?vid=bc38f47c-0a37-464f-99bf-705f1cc6f473"},"vehicle_type_id":"4","last_reported":1720105676,"current_range_meters":30000,"station_id":"","pricing_plan_id":"cebpf4jnsgd1na2vs0mg"},{"bike_id":"bee528ef-bfc9-4b7b-b54c-21f519fd41b1","system_id":"levelo_inurba_marseille","lat":43.31154,"lon":5.38663,"is_reserved":false,"is_disabled":false,"rental_uris":{"android":"levelo://app?vid=bee528ef-bfc9-4b7b-b54c-21f519fd41b1","ios":"levelo://app?vid=bee528ef-bfc9-4b7b-b54c-21f519fd41b1"},"vehicle_type_id":"4","last_reported":1720105676,"current_range_meters":21200,"station_id":"","pricing_plan_id":"cebpf4jnsgd1na2vs0mg"},{"bike_id":"ee50c11f-6252-470d-bab7-e45460eb40e9","system_id":"levelo_inurba_marseille","lat":43.3023,"lon":5.38077,"is_reserved":false,"is_disabled":false,"rental_uris":{"android":"levelo://app?vid=ee50c11f-6252-470d-bab7-e45460eb40e9","ios":"levelo://app?vid=ee50c11f-6252-470d-bab7-e45460eb40e9"},"vehicle_type_id":"4","last_reported":1720105676,"current_range_meters":10800,"station_id":"","pricing_plan_id":"cebpf4jnsgd1na2vs0mg"},{"bike_id":"6d1f6f95-ed39-4ec9-a878-3a510bbc0ce8","system_id":"levelo_inurba_marseille","lat":43.29852,"lon":5.36292,"is_reserved":false,"is_disabled":false,"rental_uris":{"android":"levelo://app?vid=6d1f6f95-ed39-4ec9-a878-3a510bbc0ce8","ios":"levelo://app?vid=6d1f6f95-ed39-4ec9-a878-3a510bbc0ce8"},"vehicle_type_id":"4","last_reported":1720105676,"current_range_meters":9600,"station_id":"ce4bgpp2rcd13ifvqc3g","pricing_plan_id":"cebpf4jnsgd1na2vs0mg"},{"bike_id":"2bc938a3-957e-4c59-9cb5-61af55748cc1","system_id":"levelo_inurba_marseille","lat":43.298433,"lon":5.362774,"is_reserved":false,"is_disabled":false,"rental_uris":{"android":"levelo://app?vid=2bc938a3-957e-4c59-9cb5-61af55748cc1","ios":"levelo://app?vid=2bc938a3-957e-4c59-9cb5-61af55748cc1"},"vehicle_type_id":"4","last_reported":1720105676,"current_range_meters":29200,"station_id":"ce4bgpp2rcd13ifvqc3g","pricing_plan_id":"cebpf4jnsgd1na2vs0mg"},{"bike_id":"d335f569-2bae-4f60-8e87-52f5cf54e4a4","system_id":"levelo_inurba_marseille","lat":43.2985,"lon":5.36288,"is_reserved":false,"is_disabled":false,"rental_uris":{"android":"levelo://app?vid=d335f569-2bae-4f60-8e87-52f5cf54e4a4","ios":"levelo://app?vid=d335f569-2bae-4f60-8e87-52f5cf54e4a4"},"vehicle_type_id":"4","last_reported":1720105676,"current_range_meters":15600,"station_id":"ce4bgpp2rcd13ifvqc3g","pricing_plan_id":"cebpf4jnsgd1na2vs0mg"},{"bike_id":"be6a237f-6c57-431c-b82c-2e7c465a2c47","system_id":"levelo_inurba_marseille","lat":43.298433,"lon":5.362774,"is_reserved":false,"is_disabled":false,"rental_uris":{"android":"levelo://app?vid=be6a237f-6c57-431c-b82c-2e7c465a2c47","ios":"levelo://app?vid=be6a237f-6c57-431c-b82c-2e7c465a2c47"},"vehicle_type_id":"4","last_reported":1720105676,"current_range_meters":1200,"station_id":"ce4bgpp2rcd13ifvqc3g","pricing_plan_id":"cebpf4jnsgd1na2vs0mg"},{"bike_id":"dd33dd02-3b7f-45da-8ab4-427d21a913d2","system_id":"levelo_inurba_marseille","lat":43.29847,"lon":5.36276,"is_reserved":false,"is_disabled":false,"rental_uris":{"android":"levelo://app?vid=dd33dd02-3b7f-45da-8ab4-427d21a913d2","ios":"levelo://app?vid=dd33dd02-3b7f-45da-8ab4-427d21a913d2"},"vehicle_type_id":"4","last_reported":1720105676,"current_range_meters":13600,"station_id":"","pricing_plan_id":"cebpf4jnsgd1na2vs0mg"},{"bike_id":"5f482cbd-8a14-49c4-8741-f46186c5f9b0","system_id":"levelo_inurba_marseille","lat":43.29844,"lon":5.36282,"is_reserved":false,"is_disabled":false,"rental_uris":{"android":"levelo://app?vid=5f482cbd-8a14-49c4-8741-f46186c5f9b0","ios":"levelo://app?vid=5f482cbd-8a14-49c4-8741-f46186c5f9b0"},"vehicle_type_id":"4","last_reported":1720105676,"current_range_meters":11200,"station_id":"ce4bgpp2rcd13ifvqc3g","pricing_plan_id":"cebpf4jnsgd1na2vs0mg"},{"bike_id":"30be6ef2-0d76-4f3c-b95d-41ed3df47654","system_id":"levelo_inurba_marseille","lat":43.298433,"lon":5.362774,"is_reserved":false,"is_disabled":false,"rental_uris":{"android":"levelo://app?vid=30be6ef2-0d76-4f3c-b95d-41ed3df47654","ios":"levelo://app?vid=30be6ef2-0d76-4f3c-b95d-41ed3df47654"},"vehicle_type_id":"4","last_reported":1720105676,"current_range_meters":25600,"station_id":"ce4bgpp2rcd13ifvqc3g","pricing_plan_id":"cebpf4jnsgd1na2vs0mg"},{"bike_id":"b779ce2c-b11e-4135-ad93-a8b6007ce92c","system_id":"levelo_inurba_marseille","lat":43.29843,"lon":5.36275,"is_reserved":false,"is_disabled":false,"rental_uris":{"android":"levelo://app?vid=b779ce2c-b11e-4135-ad93-a8b6007ce92c","ios":"levelo://app?vid=b779ce2c-b11e-4135-ad93-a8b6007ce92c"},"vehicle_type_id":"4","last_reported":1720105676,"current_range_meters":13600,"station_id":"ce4bgpp2rcd13ifvqc3g","pricing_plan_id":"cebpf4jnsgd1na2vs0mg"},{"bike_id":"009718c7-420a-4497-80c7-cd368e67d2b8","system_id":"levelo_inurba_marseille","lat":43.29842,"lon":5.36273,"is_reserved":false,"is_disabled":false,"rental_uris":{"android":"levelo://app?vid=009718c7-420a-4497-80c7-cd368e67d2b8","ios":"levelo://app?vid=009718c7-420a-4497-80c7-cd368e67d2b8"},"vehicle_type_id":"4","last_reported":1720105676,"current_range_meters":23200,"station_id":"ce4bgpp2rcd13ifvqc3g","pricing_plan_id":"cebpf4jnsgd1na2vs0mg"},{"bike_id":"7722d2c8-b7d2-4d75-bd25-783a5ce26c61","system_id":"levelo_inurba_marseille","lat":43.299243,"lon":5.374807,"is_reserved":false,"is_disabled":false,"rental_uris":{"android":"levelo://app?vid=7722d2c8-b7d2-4d75-bd25-783a5ce26c61","ios":"levelo://app?vid=7722d2c8-b7d2-4d75-bd25-783a5ce26c61"},"vehicle_type_id":"4","last_reported":1720105676,"current_range_meters":18000,"station_id":"ce4bgjh2rcd13ifvqbg0","pricing_plan_id":"cebpf4jnsgd1na2vs0mg"},{"bike_id":"c665549c-c15e-4c8e-9448-8754616b24ef","system_id":"levelo_inurba_marseille","lat":43.299243,"lon":5.37481,"is_reserved":false,"is_disabled":false,"rental_uris":{"android":"levelo://app?vid=c665549c-c15e-4c8e-9448-8754616b24ef","ios":"levelo://app?vid=c665549c-c15e-4c8e-9448-8754616b24ef"},"vehicle_type_id":"4","last_reported":1720105676,"current_range_meters":7200,"station_id":"ce4bgjh2rcd13ifvqbg0","pricing_plan_id":"cebpf4jnsgd1na2vs0mg"},{"bike_id":"35aed2e4-d423-4263-9ce5-9441c8a3f376","system_id":"levelo_inurba_marseille","lat":43.299243,"lon":5.37481,"is_reserved":false,"is_disabled":false,"rental_uris":{"android":"levelo://app?vid=35aed2e4-d423-4263-9ce5-9441c8a3f376","ios":"levelo://app?vid=35aed2e4-d423-4263-9ce5-9441c8a3f376"},"vehicle_type_id":"4","last_reported":1720105676,"current_range_meters":3200,"station_id":"ce4bgjh2rcd13ifvqbg0","pricing_plan_id":"cebpf4jnsgd1na2vs0mg"},{"bike_id":"394a0cd1-c972-4dd5-b280-2fee9960753a","system_id":"levelo_inurba_marseille","lat":43.299243,"lon":5.37481,"is_reserved":false,"is_disabled":false,"rental_uris":{"android":"levelo://app?vid=394a0cd1-c972-4dd5-b280-2fee9960753a","ios":"levelo://app?vid=394a0cd1-c972-4dd5-b280-2fee9960753a"},"vehicle_type_id":"4","last_reported":1720105676,"current_range_meters":17600,"station_id":"ce4bgjh2rcd13ifvqbg0","pricing_plan_id":"cebpf4jnsgd1na2vs0mg"},{"bike_id":"0e8dd76d-158c-41d2-8360-e1dade4792f6","system_id":"levelo_inurba_marseille","lat":43.297774,"lon":5.370875,"is_reserved":false,"is_disabled":false,"rental_uris":{"android":"levelo://app?vid=0e8dd76d-158c-41d2-8360-e1dade4792f6","ios":"levelo://app?vid=0e8dd76d-158c-41d2-8360-e1dade4792f6"},"vehicle_type_id":"4","last_reported":1720105676,"current_range_meters":800,"station_id":"ce4bgop2rcd13ifvqc1g","pricing_plan_id":"cebpf4jnsgd1na2vs0mg"},{"bike_id":"27a6bef8-9fa2-4c7c-a852-ef52da7f4c34","system_id":"levelo_inurba_marseille","lat":43.32293,"lon":5.38266,"is_reserved":false,"is_disabled":false,"rental_uris":{"android":"levelo://app?vid=27a6bef8-9fa2-4c7c-a852-ef52da7f4c34","ios":"levelo://app?vid=27a6bef8-9fa2-4c7c-a852-ef52da7f4c34"},"vehicle_type_id":"4","last_reported":1720105676,"current_range_meters":28000,"station_id":"ce4bhr12rcd13ifvqhqg","pricing_plan_id":"cebpf4jnsgd1na2vs0mg"},{"bike_id":"3c5a47f4-4176-4a52-952c-b5fa92ef7323","system_id":"levelo_inurba_marseille","lat":43.322872,"lon":5.382756,"is_reserved":false,"is_disabled":false,"rental_uris":{"android":"levelo://app?vid=3c5a47f4-4176-4a52-952c-b5fa92ef7323","ios":"levelo://app?vid=3c5a47f4-4176-4a52-952c-b5fa92ef7323"},"vehicle_type_id":"4","last_reported":1720105676,"current_range_meters":20800,"station_id":"ce4bhr12rcd13ifvqhqg","pricing_plan_id":"cebpf4jnsgd1na2vs0mg"},{"bike_id":"c3772872-f245-45a3-a433-0b269abb7b6f","system_id":"levelo_inurba_marseille","lat":43.297163,"lon":5.365866,"is_reserved":false,"is_disabled":false,"rental_uris":{"android":"levelo://app?vid=c3772872-f245-45a3-a433-0b269abb7b6f","ios":"levelo://app?vid=c3772872-f245-45a3-a433-0b269abb7b6f"},"vehicle_type_id":"4","last_reported":1720105676,"current_range_meters":20000,"station_id":"ce4bgn12rcd13ifvqbt0","pricing_plan_id":"cebpf4jnsgd1na2vs0mg"},{"bike_id":"42ab451d-58a0-4f61-8fcf-c058a4621ece","system_id":"levelo_inurba_marseille","lat":43.297163,"lon":5.365866,"is_reserved":false,"is_disabled":false,"rental_uris":{"android":"levelo://app?vid=42ab451d-58a0-4f61-8fcf-c058a4621ece","ios":"levelo://app?vid=42ab451d-58a0-4f61-8fcf-c058a4621ece"},"vehicle_type_id":"4","last_reported":1720105676,"current_range_meters":31200,"station_id":"ce4bgn12rcd13ifvqbt0","pricing_plan_id":"cebpf4jnsgd1na2vs0mg"},{"bike_id":"0c845e77-91f9-4f53-b4c0-9cd585c05b3e","system_id":"levelo_inurba_marseille","lat":43.29663,"lon":5.36162,"is_reserved":false,"is_disabled":false,"rental_uris":{"android":"levelo://app?vid=0c845e77-91f9-4f53-b4c0-9cd585c05b3e","ios":"levelo://app?vid=0c845e77-91f9-4f53-b4c0-9cd585c05b3e"},"vehicle_type_id":"4","last_reported":1720105676,"current_range_meters":0,"station_id":"","pricing_plan_id":"cebpf4jnsgd1na2vs0mg"},{"bike_id":"5c89d665-eb18-4dac-9d14-bbd073c64583","system_id":"levelo_inurba_marseille","lat":43.296131,"lon":5.370791,"is_reserved":false,"is_disabled":false,"rental_uris":{"android":"levelo://app?vid=5c89d665-eb18-4dac-9d14-bbd073c64583","ios":"levelo://app?vid=5c89d665-eb18-4dac-9d14-bbd073c64583"},"vehicle_type_id":"4","last_reported":1720105676,"current_range_meters":12400,"station_id":"ce4bgnh2rcd13ifvqc0g","pricing_plan_id":"cebpf4jnsgd1na2vs0mg"},{"bike_id":"8256dfe4-0f2c-4cbf-9d0e-72a34e263242","system_id":"levelo_inurba_marseille","lat":43.29573,"lon":5.367355,"is_reserved":false,"is_disabled":false,"rental_uris":{"android":"levelo://app?vid=8256dfe4-0f2c-4cbf-9d0e-72a34e263242","ios":"levelo://app?vid=8256dfe4-0f2c-4cbf-9d0e-72a34e263242"},"vehicle_type_id":"4","last_reported":1720105676,"current_range_meters":7600,"station_id":"ce4bgph2rcd13ifvqc2g","pricing_plan_id":"cebpf4jnsgd1na2vs0mg"},{"bike_id":"003e6a49-483c-4580-a168-d5feb1d514ed","system_id":"levelo_inurba_marseille","lat":43.296935,"lon":5.376544,"is_reserved":false,"is_disabled":false,"rental_uris":{"android":"levelo://app?vid=003e6a49-483c-4580-a168-d5feb1d514ed","ios":"levelo://app?vid=003e6a49-483c-4580-a168-d5feb1d514ed"},"vehicle_type_id":"4","last_reported":1720105676,"current_range_meters":4000,"station_id":"ce4bgkh2rcd13ifvqbl0","pricing_plan_id":"cebpf4jnsgd1na2vs0mg"},{"bike_id":"febc60ba-9762-43e4-83ed-9cedbaafd971","system_id":"levelo_inurba_marseille","lat":43.299028,"lon":5.381509,"is_reserved":false,"is_disabled":false,"rental_uris":{"android":"levelo://app?vid=febc60ba-9762-43e4-83ed-9cedbaafd971","ios":"levelo://app?vid=febc60ba-9762-43e4-83ed-9cedbaafd971"},"vehicle_type_id":"4","last_reported":1720105676,"current_range_meters":15600,"station_id":"ce4bgj12rcd13ifvqbc0","pricing_plan_id":"cebpf4jnsgd1na2vs0mg"},{"bike_id":"6be38da1-a8e4-4f73-8103-58c50fb03448","system_id":"levelo_inurba_marseille","lat":43.3176,"lon":5.390143,"is_reserved":false,"is_disabled":false,"rental_uris":{"android":"levelo://app?vid=6be38da1-a8e4-4f73-8103-58c50fb03448","ios":"levelo://app?vid=6be38da1-a8e4-4f73-8103-58c50fb03448"},"vehicle_type_id":"4","last_reported":1720105676,"current_range_meters":10400,"station_id":"ce4bhqp2rcd13ifvqhng","pricing_plan_id":"cebpf4jnsgd1na2vs0mg"},{"bike_id":"0fe43404-e946-472f-b707-4bfe82383c4b","system_id":"levelo_inurba_marseille","lat":43.295748,"lon":5.37522,"is_reserved":false,"is_disabled":false,"rental_uris":{"android":"levelo://app?vid=0fe43404-e946-472f-b707-4bfe82383c4b","ios":"levelo://app?vid=0fe43404-e946-472f-b707-4bfe82383c4b"},"vehicle_type_id":"4","last_reported":1720105676,"current_range_meters":21600,"station_id":"ce4bgh92rcd13ifvqb50","pricing_plan_id":"cebpf4jnsgd1na2vs0mg"},{"bike_id":"7ab8630f-c650-4fee-be59-0339abea3cae","system_id":"levelo_inurba_marseille","lat":43.298037,"lon":5.381066,"is_reserved":false,"is_disabled":false,"rental_uris":{"android":"levelo://app?vid=7ab8630f-c650-4fee-be59-0339abea3cae","ios":"levelo://app?vid=7ab8630f-c650-4fee-be59-0339abea3cae"},"vehicle_type_id":"4","last_reported":1720105676,"current_range_meters":21600,"station_id":"ce4bgip2rcd13ifvqbb0","pricing_plan_id":"cebpf4jnsgd1na2vs0mg"},{"bike_id":"ec8cc34b-7fcf-4b23-9e2f-8f9ae1cf14f7","system_id":"levelo_inurba_marseille","lat":43.295748,"lon":5.37522,"is_reserved":false,"is_disabled":false,"rental_uris":{"android":"levelo://app?vid=ec8cc34b-7fcf-4b23-9e2f-8f9ae1cf14f7","ios":"levelo://app?vid=ec8cc34b-7fcf-4b23-9e2f-8f9ae1cf14f7"},"vehicle_type_id":"4","last_reported":1720105676,"current_range_meters":27200,"station_id":"ce4bgh92rcd13ifvqb50","pricing_plan_id":"cebpf4jnsgd1na2vs0mg"},{"bike_id":"552dbc68-9264-4ac8-bbab-528b56e5c273","system_id":"levelo_inurba_marseille","lat":43.295748,"lon":5.37522,"is_reserved":false,"is_disabled":false,"rental_uris":{"android":"levelo://app?vid=552dbc68-9264-4ac8-bbab-528b56e5c273","ios":"levelo://app?vid=552dbc68-9264-4ac8-bbab-528b56e5c273"},"vehicle_type_id":"4","last_reported":1720105676,"current_range_meters":800,"station_id":"ce4bgh92rcd13ifvqb50","pricing_plan_id":"cebpf4jnsgd1na2vs0mg"},{"bike_id":"9d115943-cfce-4564-aa60-98211c46b3d4","system_id":"levelo_inurba_marseille","lat":43.296263,"lon":5.377094,"is_reserved":false,"is_disabled":false,"rental_uris":{"android":"levelo://app?vid=9d115943-cfce-4564-aa60-98211c46b3d4","ios":"levelo://app?vid=9d115943-cfce-4564-aa60-98211c46b3d4"},"vehicle_type_id":"4","last_reported":1720105676,"current_range_meters":0,"station_id":"ce4bgi92rcd13ifvqb90","pricing_plan_id":"cebpf4jnsgd1na2vs0mg"},{"bike_id":"7285be5b-b793-4989-9eb3-fc8200721613","system_id":"levelo_inurba_marseille","lat":43.296263,"lon":5.377094,"is_reserved":false,"is_disabled":false,"rental_uris":{"android":"levelo://app?vid=7285be5b-b793-4989-9eb3-fc8200721613","ios":"levelo://app?vid=7285be5b-b793-4989-9eb3-fc8200721613"},"vehicle_type_id":"4","last_reported":1720105676,"current_range_meters":28800,"station_id":"ce4bgi92rcd13ifvqb90","pricing_plan_id":"cebpf4jnsgd1na2vs0mg"},{"bike_id":"302fe845-e906-4f97-bbf1-6610ebc43b71","system_id":"levelo_inurba_marseille","lat":43.296263,"lon":5.377094,"is_reserved":false,"is_disabled":false,"rental_uris":{"android":"levelo://app?vid=302fe845-e906-4f97-bbf1-6610ebc43b71","ios":"levelo://app?vid=302fe845-e906-4f97-bbf1-6610ebc43b71"},"vehicle_type_id":"4","last_reported":1720105676,"current_range_meters":0,"station_id":"ce4bgi92rcd13ifvqb90","pricing_plan_id":"cebpf4jnsgd1na2vs0mg"},{"bike_id":"2572067c-bed3-4e83-8c9f-ae5d5eecafa5","system_id":"levelo_inurba_marseille","lat":43.296263,"lon":5.377094,"is_reserved":false,"is_disabled":false,"rental_uris":{"android":"levelo://app?vid=2572067c-bed3-4e83-8c9f-ae5d5eecafa5","ios":"levelo://app?vid=2572067c-bed3-4e83-8c9f-ae5d5eecafa5"},"vehicle_type_id":"4","last_reported":1720105676,"current_range_meters":21200,"station_id":"ce4bgi92rcd13ifvqb90","pricing_plan_id":"cebpf4jnsgd1na2vs0mg"},{"bike_id":"99b5372c-2a94-4b0d-8041-d4ee5ca90344","system_id":"levelo_inurba_marseille","lat":43.29969,"lon":5.38485,"is_reserved":false,"is_disabled":false,"rental_uris":{"android":"levelo://app?vid=99b5372c-2a94-4b0d-8041-d4ee5ca90344","ios":"levelo://app?vid=99b5372c-2a94-4b0d-8041-d4ee5ca90344"},"vehicle_type_id":"4","last_reported":1720105676,"current_range_meters":26000,"station_id":"ce4bgj92rcd13ifvqbd0","pricing_plan_id":"cebpf4jnsgd1na2vs0mg"},{"bike_id":"51a675b3-a0b7-4027-9636-f2eef8bd3737","system_id":"levelo_inurba_marseille","lat":43.299707,"lon":5.384859,"is_reserved":false,"is_disabled":false,"rental_uris":{"android":"levelo://app?vid=51a675b3-a0b7-4027-9636-f2eef8bd3737","ios":"levelo://app?vid=51a675b3-a0b7-4027-9636-f2eef8bd3737"},"vehicle_type_id":"4","last_reported":1720105676,"current_range_meters":23200,"station_id":"ce4bgj92rcd13ifvqbd0","pricing_plan_id":"cebpf4jnsgd1na2vs0mg"},{"bike_id":"b69e13ca-0ee7-4f43-8a5f-6ca78086b295","system_id":"levelo_inurba_marseille","lat":43.2997,"lon":5.38494,"is_reserved":false,"is_disabled":false,"rental_uris":{"android":"levelo://app?vid=b69e13ca-0ee7-4f43-8a5f-6ca78086b295","ios":"levelo://app?vid=b69e13ca-0ee7-4f43-8a5f-6ca78086b295"},"vehicle_type_id":"4","last_reported":1720105676,"current_range_meters":22000,"station_id":"ce4bgj92rcd13ifvqbd0","pricing_plan_id":"cebpf4jnsgd1na2vs0mg"},{"bike_id":"6b1123c2-38bc-4847-99d0-800c6a5c3e30","system_id":"levelo_inurba_marseille","lat":43.299717,"lon":5.384845,"is_reserved":false,"is_disabled":false,"rental_uris":{"android":"levelo://app?vid=6b1123c2-38bc-4847-99d0-800c6a5c3e30","ios":"levelo://app?vid=6b1123c2-38bc-4847-99d0-800c6a5c3e30"},"vehicle_type_id":"4","last_reported":1720105676,"current_range_meters":30800,"station_id":"ce4bgj92rcd13ifvqbd0","pricing_plan_id":"cebpf4jnsgd1na2vs0mg"},{"bike_id":"16f10ee2-5188-464a-a7a5-736e0ba062d2","system_id":"levelo_inurba_marseille","lat":43.299724,"lon":5.384848,"is_reserved":false,"is_disabled":false,"rental_uris":{"android":"levelo://app?vid=16f10ee2-5188-464a-a7a5-736e0ba062d2","ios":"levelo://app?vid=16f10ee2-5188-464a-a7a5-736e0ba062d2"},"vehicle_type_id":"4","last_reported":1720105676,"current_range_meters":8800,"station_id":"ce4bgj92rcd13ifvqbd0","pricing_plan_id":"cebpf4jnsgd1na2vs0mg"},{"bike_id":"be5b9cb1-3fe3-485a-bd58-2fe1dd72cec0","system_id":"levelo_inurba_marseille","lat":43.305994,"lon":5.393687,"is_reserved":false,"is_disabled":false,"rental_uris":{"android":"levelo://app?vid=be5b9cb1-3fe3-485a-bd58-2fe1dd72cec0","ios":"levelo://app?vid=be5b9cb1-3fe3-485a-bd58-2fe1dd72cec0"},"vehicle_type_id":"4","last_reported":1720105676,"current_range_meters":6400,"station_id":"ce4bh0p2rcd13ifvqd80","pricing_plan_id":"cebpf4jnsgd1na2vs0mg"},{"bike_id":"5bec7df3-5f21-4d8a-b49c-c5ec6c924941","system_id":"levelo_inurba_marseille","lat":43.32367,"lon":5.388836,"is_reserved":false,"is_disabled":false,"rental_uris":{"android":"levelo://app?vid=5bec7df3-5f21-4d8a-b49c-c5ec6c924941","ios":"levelo://app?vid=5bec7df3-5f21-4d8a-b49c-c5ec6c924941"},"vehicle_type_id":"4","last_reported":1720105676,"current_range_meters":23600,"station_id":"ce4bhqp2rcd13ifvqhog","pricing_plan_id":"cebpf4jnsgd1na2vs0mg"},{"bike_id":"c6980aaa-48d1-4f1f-94d6-a1f9a912647d","system_id":"levelo_inurba_marseille","lat":43.32367,"lon":5.388836,"is_reserved":false,"is_disabled":false,"rental_uris":{"android":"levelo://app?vid=c6980aaa-48d1-4f1f-94d6-a1f9a912647d","ios":"levelo://app?vid=c6980aaa-48d1-4f1f-94d6-a1f9a912647d"},"vehicle_type_id":"4","last_reported":1720105676,"current_range_meters":10400,"station_id":"ce4bhqp2rcd13ifvqhog","pricing_plan_id":"cebpf4jnsgd1na2vs0mg"},{"bike_id":"d8e7f33b-381e-4f74-b9b3-8f67138ce4a6","system_id":"levelo_inurba_marseille","lat":43.32367,"lon":5.388836,"is_reserved":false,"is_disabled":false,"rental_uris":{"android":"levelo://app?vid=d8e7f33b-381e-4f74-b9b3-8f67138ce4a6","ios":"levelo://app?vid=d8e7f33b-381e-4f74-b9b3-8f67138ce4a6"},"vehicle_type_id":"4","last_reported":1720105676,"current_range_meters":2000,"station_id":"ce4bhqp2rcd13ifvqhog","pricing_plan_id":"cebpf4jnsgd1na2vs0mg"},{"bike_id":"9248f2a8-52e0-4d7d-8efb-dbcb1a657ede","system_id":"levelo_inurba_marseille","lat":43.32367,"lon":5.388836,"is_reserved":false,"is_disabled":false,"rental_uris":{"android":"levelo://app?vid=9248f2a8-52e0-4d7d-8efb-dbcb1a657ede","ios":"levelo://app?vid=9248f2a8-52e0-4d7d-8efb-dbcb1a657ede"},"vehicle_type_id":"4","last_reported":1720105676,"current_range_meters":16800,"station_id":"ce4bhqp2rcd13ifvqhog","pricing_plan_id":"cebpf4jnsgd1na2vs0mg"},{"bike_id":"34ffdd75-b338-412b-9ebb-a60f05946e85","system_id":"levelo_inurba_marseille","lat":43.32367,"lon":5.388836,"is_reserved":false,"is_disabled":false,"rental_uris":{"android":"levelo://app?vid=34ffdd75-b338-412b-9ebb-a60f05946e85","ios":"levelo://app?vid=34ffdd75-b338-412b-9ebb-a60f05946e85"},"vehicle_type_id":"4","last_reported":1720105676,"current_range_meters":11200,"station_id":"ce4bhqp2rcd13ifvqhog","pricing_plan_id":"cebpf4jnsgd1na2vs0mg"},{"bike_id":"0f78c392-6cf5-4c10-af4e-68aae9909d61","system_id":"levelo_inurba_marseille","lat":43.32367,"lon":5.388836,"is_reserved":false,"is_disabled":false,"rental_uris":{"android":"levelo://app?vid=0f78c392-6cf5-4c10-af4e-68aae9909d61","ios":"levelo://app?vid=0f78c392-6cf5-4c10-af4e-68aae9909d61"},"vehicle_type_id":"4","last_reported":1720105676,"current_range_meters":9200,"station_id":"ce4bhqp2rcd13ifvqhog","pricing_plan_id":"cebpf4jnsgd1na2vs0mg"},{"bike_id":"c11eb258-ea8c-4af2-8a24-e07c2f3f57c8","system_id":"levelo_inurba_marseille","lat":43.29602,"lon":5.381084,"is_reserved":false,"is_disabled":false,"rental_uris":{"android":"levelo://app?vid=c11eb258-ea8c-4af2-8a24-e07c2f3f57c8","ios":"levelo://app?vid=c11eb258-ea8c-4af2-8a24-e07c2f3f57c8"},"vehicle_type_id":"4","last_reported":1720105676,"current_range_meters":14000,"station_id":"ce4bgl12rcd13ifvqbo0","pricing_plan_id":"cebpf4jnsgd1na2vs0mg"},{"bike_id":"b0d6e6bd-40fa-40f3-aea1-aa298587d6de","system_id":"levelo_inurba_marseille","lat":43.29326,"lon":5.371466,"is_reserved":false,"is_disabled":false,"rental_uris":{"android":"levelo://app?vid=b0d6e6bd-40fa-40f3-aea1-aa298587d6de","ios":"levelo://app?vid=b0d6e6bd-40fa-40f3-aea1-aa298587d6de"},"vehicle_type_id":"4","last_reported":1720105676,"current_range_meters":11600,"station_id":"ce4bgh92rcd13ifvqb40","pricing_plan_id":"cebpf4jnsgd1na2vs0mg"},{"bike_id":"fe95d141-62df-4639-80e7-031868aa61f6","system_id":"levelo_inurba_marseille","lat":43.292749,"lon":5.368402,"is_reserved":false,"is_disabled":false,"rental_uris":{"android":"levelo://app?vid=fe95d141-62df-4639-80e7-031868aa61f6","ios":"levelo://app?vid=fe95d141-62df-4639-80e7-031868aa61f6"},"vehicle_type_id":"4","last_reported":1720105676,"current_range_meters":28400,"station_id":"ce4bhbp2rcd13ifvqesg","pricing_plan_id":"cebpf4jnsgd1na2vs0mg"},{"bike_id":"d468f685-ad82-4eea-9cd2-8090f909e9ad","system_id":"levelo_inurba_marseille","lat":43.29266,"lon":5.3684,"is_reserved":false,"is_disabled":false,"rental_uris":{"android":"levelo://app?vid=d468f685-ad82-4eea-9cd2-8090f909e9ad","ios":"levelo://app?vid=d468f685-ad82-4eea-9cd2-8090f909e9ad"},"vehicle_type_id":"4","last_reported":1720105676,"current_range_meters":23600,"station_id":"ce4bhbp2rcd13ifvqesg","pricing_plan_id":"cebpf4jnsgd1na2vs0mg"},{"bike_id":"9d5d9ca4-8ff3-406f-9dab-a8b3c443cd20","system_id":"levelo_inurba_marseille","lat":43.324771,"lon":5.36557,"is_reserved":false,"is_disabled":false,"rental_uris":{"android":"levelo://app?vid=9d5d9ca4-8ff3-406f-9dab-a8b3c443cd20","ios":"levelo://app?vid=9d5d9ca4-8ff3-406f-9dab-a8b3c443cd20"},"vehicle_type_id":"4","last_reported":1720105676,"current_range_meters":3600,"station_id":"ce4bhs12rcd13ifvqhvg","pricing_plan_id":"cebpf4jnsgd1na2vs0mg"},{"bike_id":"3cd07f70-b840-48b8-8060-eb230dd9403c","system_id":"levelo_inurba_marseille","lat":43.2936,"lon":5.37835,"is_reserved":false,"is_disabled":false,"rental_uris":{"android":"levelo://app?vid=3cd07f70-b840-48b8-8060-eb230dd9403c","ios":"levelo://app?vid=3cd07f70-b840-48b8-8060-eb230dd9403c"},"vehicle_type_id":"4","last_reported":1720105676,"current_range_meters":13600,"station_id":"ce4bgjh2rcd13ifvqbf0","pricing_plan_id":"cebpf4jnsgd1na2vs0mg"},{"bike_id":"f19744a1-b985-42fd-be5c-92cadf8fe87f","system_id":"levelo_inurba_marseille","lat":43.303002,"lon":5.392142,"is_reserved":false,"is_disabled":false,"rental_uris":{"android":"levelo://app?vid=f19744a1-b985-42fd-be5c-92cadf8fe87f","ios":"levelo://app?vid=f19744a1-b985-42fd-be5c-92cadf8fe87f"},"vehicle_type_id":"4","last_reported":1720105676,"current_range_meters":0,"station_id":"ce4bgkh2rcd13ifvqbk0","pricing_plan_id":"cebpf4jnsgd1na2vs0mg"},{"bike_id":"97233481-852d-4552-8d96-992d4d697099","system_id":"levelo_inurba_marseille","lat":43.302992,"lon":5.392136,"is_reserved":false,"is_disabled":false,"rental_uris":{"android":"levelo://app?vid=97233481-852d-4552-8d96-992d4d697099","ios":"levelo://app?vid=97233481-852d-4552-8d96-992d4d697099"},"vehicle_type_id":"4","last_reported":1720105676,"current_range_meters":0,"station_id":"ce4bgkh2rcd13ifvqbk0","pricing_plan_id":"cebpf4jnsgd1na2vs0mg"},{"bike_id":"9d1f105f-eb4e-4a41-9638-6878e938efa7","system_id":"levelo_inurba_marseille","lat":43.303002,"lon":5.392142,"is_reserved":false,"is_disabled":false,"rental_uris":{"android":"levelo://app?vid=9d1f105f-eb4e-4a41-9638-6878e938efa7","ios":"levelo://app?vid=9d1f105f-eb4e-4a41-9638-6878e938efa7"},"vehicle_type_id":"4","last_reported":1720105676,"current_range_meters":17600,"station_id":"ce4bgkh2rcd13ifvqbk0","pricing_plan_id":"cebpf4jnsgd1na2vs0mg"},{"bike_id":"8026716f-d3e4-49eb-8f17-a58a00c5d014","system_id":"levelo_inurba_marseille","lat":43.2936,"lon":5.37835,"is_reserved":false,"is_disabled":false,"rental_uris":{"android":"levelo://app?vid=8026716f-d3e4-49eb-8f17-a58a00c5d014","ios":"levelo://app?vid=8026716f-d3e4-49eb-8f17-a58a00c5d014"},"vehicle_type_id":"4","last_reported":1720105676,"current_range_meters":25200,"station_id":"ce4bgjh2rcd13ifvqbf0","pricing_plan_id":"cebpf4jnsgd1na2vs0mg"},{"bike_id":"bead4330-53ea-42e0-b740-2c92a4db1ccc","system_id":"levelo_inurba_marseille","lat":43.292311,"lon":5.360731,"is_reserved":false,"is_disabled":false,"rental_uris":{"android":"levelo://app?vid=bead4330-53ea-42e0-b740-2c92a4db1ccc","ios":"levelo://app?vid=bead4330-53ea-42e0-b740-2c92a4db1ccc"},"vehicle_type_id":"4","last_reported":1720105676,"current_range_meters":0,"station_id":"ce4bhbh2rcd13ifvqeqg","pricing_plan_id":"cebpf4jnsgd1na2vs0mg"},{"bike_id":"eff74425-784c-4c5f-b979-acfb5f51f244","system_id":"levelo_inurba_marseille","lat":43.30085,"lon":5.390856,"is_reserved":false,"is_disabled":false,"rental_uris":{"android":"levelo://app?vid=eff74425-784c-4c5f-b979-acfb5f51f244","ios":"levelo://app?vid=eff74425-784c-4c5f-b979-acfb5f51f244"},"vehicle_type_id":"4","last_reported":1720105676,"current_range_meters":16000,"station_id":"ce4bh192rcd13ifvqdb0","pricing_plan_id":"cebpf4jnsgd1na2vs0mg"},{"bike_id":"862730e2-ba1d-4ff1-8527-e0993ea2f7b0","system_id":"levelo_inurba_marseille","lat":43.290779,"lon":5.371482,"is_reserved":false,"is_disabled":false,"rental_uris":{"android":"levelo://app?vid=862730e2-ba1d-4ff1-8527-e0993ea2f7b0","ios":"levelo://app?vid=862730e2-ba1d-4ff1-8527-e0993ea2f7b0"},"vehicle_type_id":"4","last_reported":1720105676,"current_range_meters":400,"station_id":"ce4bh5p2rcd13ifvqe4g","pricing_plan_id":"cebpf4jnsgd1na2vs0mg"},{"bike_id":"07eaf148-2690-42d3-b4aa-6f2752f4e45f","system_id":"levelo_inurba_marseille","lat":43.302008,"lon":5.394694,"is_reserved":false,"is_disabled":false,"rental_uris":{"android":"levelo://app?vid=07eaf148-2690-42d3-b4aa-6f2752f4e45f","ios":"levelo://app?vid=07eaf148-2690-42d3-b4aa-6f2752f4e45f"},"vehicle_type_id":"4","last_reported":1720105676,"current_range_meters":19600,"station_id":"ce4bh0p2rcd13ifvqd70","pricing_plan_id":"cebpf4jnsgd1na2vs0mg"},{"bike_id":"ebd83b9e-9feb-4328-86ab-2a1326eafe92","system_id":"levelo_inurba_marseille","lat":43.290631,"lon":5.359244,"is_reserved":false,"is_disabled":false,"rental_uris":{"android":"levelo://app?vid=ebd83b9e-9feb-4328-86ab-2a1326eafe92","ios":"levelo://app?vid=ebd83b9e-9feb-4328-86ab-2a1326eafe92"},"vehicle_type_id":"4","last_reported":1720105676,"current_range_meters":6000,"station_id":"ce4bha92rcd13ifvqeg0","pricing_plan_id":"cebpf4jnsgd1na2vs0mg"},{"bike_id":"c6234ce9-0ace-492f-b110-28a3b7dc3766","system_id":"levelo_inurba_marseille","lat":43.294153,"lon":5.386305,"is_reserved":false,"is_disabled":false,"rental_uris":{"android":"levelo://app?vid=c6234ce9-0ace-492f-b110-28a3b7dc3766","ios":"levelo://app?vid=c6234ce9-0ace-492f-b110-28a3b7dc3766"},"vehicle_type_id":"4","last_reported":1720105676,"current_range_meters":21200,"station_id":"ce4bh2h2rcd13ifvqdh0","pricing_plan_id":"cebpf4jnsgd1na2vs0mg"},{"bike_id":"d4cc2586-a281-4653-be3f-2bfe629356bf","system_id":"levelo_inurba_marseille","lat":43.290319,"lon":5.375732,"is_reserved":false,"is_disabled":false,"rental_uris":{"android":"levelo://app?vid=d4cc2586-a281-4653-be3f-2bfe629356bf","ios":"levelo://app?vid=d4cc2586-a281-4653-be3f-2bfe629356bf"},"vehicle_type_id":"4","last_reported":1720105676,"current_range_meters":31200,"station_id":"ce4bh692rcd13ifvqe90","pricing_plan_id":"cebpf4jnsgd1na2vs0mg"},{"bike_id":"c0f9621d-7afa-471f-b501-22830b6a1c0d","system_id":"levelo_inurba_marseille","lat":43.294162,"lon":5.386292,"is_reserved":false,"is_disabled":false,"rental_uris":{"android":"levelo://app?vid=c0f9621d-7afa-471f-b501-22830b6a1c0d","ios":"levelo://app?vid=c0f9621d-7afa-471f-b501-22830b6a1c0d"},"vehicle_type_id":"4","last_reported":1720105676,"current_range_meters":14400,"station_id":"ce4bh2h2rcd13ifvqdh0","pricing_plan_id":"cebpf4jnsgd1na2vs0mg"},{"bike_id":"d7902eb5-08d1-4153-aa33-83c6731e8c5e","system_id":"levelo_inurba_marseille","lat":43.302008,"lon":5.394694,"is_reserved":false,"is_disabled":false,"rental_uris":{"android":"levelo://app?vid=d7902eb5-08d1-4153-aa33-83c6731e8c5e","ios":"levelo://app?vid=d7902eb5-08d1-4153-aa33-83c6731e8c5e"},"vehicle_type_id":"4","last_reported":1720105676,"current_range_meters":11200,"station_id":"ce4bh0p2rcd13ifvqd70","pricing_plan_id":"cebpf4jnsgd1na2vs0mg"},{"bike_id":"8b4a32bf-1c90-4fd6-aca6-680516d273fd","system_id":"levelo_inurba_marseille","lat":43.292644,"lon":5.384257,"is_reserved":false,"is_disabled":false,"rental_uris":{"android":"levelo://app?vid=8b4a32bf-1c90-4fd6-aca6-680516d273fd","ios":"levelo://app?vid=8b4a32bf-1c90-4fd6-aca6-680516d273fd"},"vehicle_type_id":"4","last_reported":1720105676,"current_range_meters":2000,"station_id":"ce4bh692rcd13ifvqea0","pricing_plan_id":"cebpf4jnsgd1na2vs0mg"},{"bike_id":"07f0c079-2bdb-4400-bb48-0395edfdb32c","system_id":"levelo_inurba_marseille","lat":43.292642,"lon":5.384254,"is_reserved":false,"is_disabled":false,"rental_uris":{"android":"levelo://app?vid=07f0c079-2bdb-4400-bb48-0395edfdb32c","ios":"levelo://app?vid=07f0c079-2bdb-4400-bb48-0395edfdb32c"},"vehicle_type_id":"4","last_reported":1720105676,"current_range_meters":0,"station_id":"ce4bh692rcd13ifvqea0","pricing_plan_id":"cebpf4jnsgd1na2vs0mg"},{"bike_id":"85997c48-7c4f-4c82-9e00-08b5c296029c","system_id":"levelo_inurba_marseille","lat":43.292642,"lon":5.384254,"is_reserved":false,"is_disabled":false,"rental_uris":{"android":"levelo://app?vid=85997c48-7c4f-4c82-9e00-08b5c296029c","ios":"levelo://app?vid=85997c48-7c4f-4c82-9e00-08b5c296029c"},"vehicle_type_id":"4","last_reported":1720105676,"current_range_meters":2000,"station_id":"ce4bh692rcd13ifvqea0","pricing_plan_id":"cebpf4jnsgd1na2vs0mg"},{"bike_id":"12b606ba-6471-419c-8809-3b8110fe5541","system_id":"levelo_inurba_marseille","lat":43.290133,"lon":5.356093,"is_reserved":false,"is_disabled":false,"rental_uris":{"android":"levelo://app?vid=12b606ba-6471-419c-8809-3b8110fe5541","ios":"levelo://app?vid=12b606ba-6471-419c-8809-3b8110fe5541"},"vehicle_type_id":"4","last_reported":1720105676,"current_range_meters":0,"station_id":"ce4bhb92rcd13ifvqen0","pricing_plan_id":"cebpf4jnsgd1na2vs0mg"},{"bike_id":"521692a2-9d29-4da7-b959-ee869542c03e","system_id":"levelo_inurba_marseille","lat":43.290103,"lon":5.356114,"is_reserved":false,"is_disabled":false,"rental_uris":{"android":"levelo://app?vid=521692a2-9d29-4da7-b959-ee869542c03e","ios":"levelo://app?vid=521692a2-9d29-4da7-b959-ee869542c03e"},"vehicle_type_id":"4","last_reported":1720105676,"current_range_meters":0,"station_id":"ce4bhb92rcd13ifvqen0","pricing_plan_id":"cebpf4jnsgd1na2vs0mg"},{"bike_id":"2ddc6cfd-e7f8-41c1-924f-723350eea0f6","system_id":"levelo_inurba_marseille","lat":43.290103,"lon":5.356114,"is_reserved":false,"is_disabled":false,"rental_uris":{"android":"levelo://app?vid=2ddc6cfd-e7f8-41c1-924f-723350eea0f6","ios":"levelo://app?vid=2ddc6cfd-e7f8-41c1-924f-723350eea0f6"},"vehicle_type_id":"4","last_reported":1720105676,"current_range_meters":800,"station_id":"ce4bhb92rcd13ifvqen0","pricing_plan_id":"cebpf4jnsgd1na2vs0mg"},{"bike_id":"f82bdfb2-7a74-4b20-b6d4-3559cee87645","system_id":"levelo_inurba_marseille","lat":43.295169,"lon":5.390426,"is_reserved":false,"is_disabled":false,"rental_uris":{"android":"levelo://app?vid=f82bdfb2-7a74-4b20-b6d4-3559cee87645","ios":"levelo://app?vid=f82bdfb2-7a74-4b20-b6d4-3559cee87645"},"vehicle_type_id":"4","last_reported":1720105676,"current_range_meters":800,"station_id":"ce4bh3p2rcd13ifvqdp0","pricing_plan_id":"cebpf4jnsgd1na2vs0mg"},{"bike_id":"aa0ba36b-055b-48df-a89d-22660d6c72dd","system_id":"levelo_inurba_marseille","lat":43.295169,"lon":5.390426,"is_reserved":false,"is_disabled":false,"rental_uris":{"android":"levelo://app?vid=aa0ba36b-055b-48df-a89d-22660d6c72dd","ios":"levelo://app?vid=aa0ba36b-055b-48df-a89d-22660d6c72dd"},"vehicle_type_id":"4","last_reported":1720105676,"current_range_meters":14800,"station_id":"ce4bh3p2rcd13ifvqdp0","pricing_plan_id":"cebpf4jnsgd1na2vs0mg"},{"bike_id":"704ce6d7-16cc-4e15-84fe-8370a75a0603","system_id":"levelo_inurba_marseille","lat":43.295169,"lon":5.390426,"is_reserved":false,"is_disabled":false,"rental_uris":{"android":"levelo://app?vid=704ce6d7-16cc-4e15-84fe-8370a75a0603","ios":"levelo://app?vid=704ce6d7-16cc-4e15-84fe-8370a75a0603"},"vehicle_type_id":"4","last_reported":1720105676,"current_range_meters":10800,"station_id":"ce4bh3p2rcd13ifvqdp0","pricing_plan_id":"cebpf4jnsgd1na2vs0mg"},{"bike_id":"e007f38a-e1d3-4e70-8ba4-81d0b2146e76","system_id":"levelo_inurba_marseille","lat":43.289373,"lon":5.35566,"is_reserved":false,"is_disabled":false,"rental_uris":{"android":"levelo://app?vid=e007f38a-e1d3-4e70-8ba4-81d0b2146e76","ios":"levelo://app?vid=e007f38a-e1d3-4e70-8ba4-81d0b2146e76"},"vehicle_type_id":"4","last_reported":1720105676,"current_range_meters":6400,"station_id":"ce4bhbh2rcd13ifvqepg","pricing_plan_id":"cebpf4jnsgd1na2vs0mg"},{"bike_id":"ee195c43-6b1d-4337-ba36-236ff4e46955","system_id":"levelo_inurba_marseille","lat":43.28857,"lon":5.35842,"is_reserved":false,"is_disabled":false,"rental_uris":{"android":"levelo://app?vid=ee195c43-6b1d-4337-ba36-236ff4e46955","ios":"levelo://app?vid=ee195c43-6b1d-4337-ba36-236ff4e46955"},"vehicle_type_id":"4","last_reported":1720105676,"current_range_meters":2400,"station_id":"ce4bhb12rcd13ifvqem0","pricing_plan_id":"cebpf4jnsgd1na2vs0mg"},{"bike_id":"55a49443-b25a-4af8-a916-c544bf65b30e","system_id":"levelo_inurba_marseille","lat":43.28856,"lon":5.358371,"is_reserved":false,"is_disabled":false,"rental_uris":{"android":"levelo://app?vid=55a49443-b25a-4af8-a916-c544bf65b30e","ios":"levelo://app?vid=55a49443-b25a-4af8-a916-c544bf65b30e"},"vehicle_type_id":"4","last_reported":1720105676,"current_range_meters":800,"station_id":"ce4bhb12rcd13ifvqem0","pricing_plan_id":"cebpf4jnsgd1na2vs0mg"},{"bike_id":"4b24d1ae-8a91-47b2-b598-329bba849998","system_id":"levelo_inurba_marseille","lat":43.312609,"lon":5.401662,"is_reserved":false,"is_disabled":false,"rental_uris":{"android":"levelo://app?vid=4b24d1ae-8a91-47b2-b598-329bba849998","ios":"levelo://app?vid=4b24d1ae-8a91-47b2-b598-329bba849998"},"vehicle_type_id":"4","last_reported":1720105676,"current_range_meters":2800,"station_id":"ce4bh092rcd13ifvqd30","pricing_plan_id":"cebpf4jnsgd1na2vs0mg"},{"bike_id":"006f5ba0-c94d-4854-909a-3042824453e8","system_id":"levelo_inurba_marseille","lat":43.312609,"lon":5.401662,"is_reserved":false,"is_disabled":false,"rental_uris":{"android":"levelo://app?vid=006f5ba0-c94d-4854-909a-3042824453e8","ios":"levelo://app?vid=006f5ba0-c94d-4854-909a-3042824453e8"},"vehicle_type_id":"4","last_reported":1720105676,"current_range_meters":8800,"station_id":"ce4bh092rcd13ifvqd30","pricing_plan_id":"cebpf4jnsgd1na2vs0mg"},{"bike_id":"6e07fc5f-6aa5-4044-9486-231d335ae1fe","system_id":"levelo_inurba_marseille","lat":43.312609,"lon":5.401662,"is_reserved":false,"is_disabled":false,"rental_uris":{"android":"levelo://app?vid=6e07fc5f-6aa5-4044-9486-231d335ae1fe","ios":"levelo://app?vid=6e07fc5f-6aa5-4044-9486-231d335ae1fe"},"vehicle_type_id":"4","last_reported":1720105676,"current_range_meters":13600,"station_id":"ce4bh092rcd13ifvqd30","pricing_plan_id":"cebpf4jnsgd1na2vs0mg"},{"bike_id":"668b6270-367b-4f6c-b750-d67dec44cb4f","system_id":"levelo_inurba_marseille","lat":43.337436,"lon":5.374544,"is_reserved":false,"is_disabled":false,"rental_uris":{"android":"levelo://app?vid=668b6270-367b-4f6c-b750-d67dec44cb4f","ios":"levelo://app?vid=668b6270-367b-4f6c-b750-d67dec44cb4f"},"vehicle_type_id":"4","last_reported":1720105676,"current_range_meters":25200,"station_id":"","pricing_plan_id":"cebpf4jnsgd1na2vs0mg"},{"bike_id":"baf65989-44a1-4201-83ad-766facdc013d","system_id":"levelo_inurba_marseille","lat":43.309371,"lon":5.401449,"is_reserved":false,"is_disabled":false,"rental_uris":{"android":"levelo://app?vid=baf65989-44a1-4201-83ad-766facdc013d","ios":"levelo://app?vid=baf65989-44a1-4201-83ad-766facdc013d"},"vehicle_type_id":"4","last_reported":1720105676,"current_range_meters":10800,"station_id":"ce4bgvp2rcd13ifvqct0","pricing_plan_id":"cebpf4jnsgd1na2vs0mg"},{"bike_id":"ebfdf3d5-683f-4c4f-9f1e-b26367b38c43","system_id":"levelo_inurba_marseille","lat":43.309371,"lon":5.401449,"is_reserved":false,"is_disabled":false,"rental_uris":{"android":"levelo://app?vid=ebfdf3d5-683f-4c4f-9f1e-b26367b38c43","ios":"levelo://app?vid=ebfdf3d5-683f-4c4f-9f1e-b26367b38c43"},"vehicle_type_id":"4","last_reported":1720105676,"current_range_meters":27200,"station_id":"ce4bgvp2rcd13ifvqct0","pricing_plan_id":"cebpf4jnsgd1na2vs0mg"},{"bike_id":"fdd4be0b-c591-450d-ac9e-0293fe4f2c41","system_id":"levelo_inurba_marseille","lat":43.301117,"lon":5.398795,"is_reserved":false,"is_disabled":false,"rental_uris":{"android":"levelo://app?vid=fdd4be0b-c591-450d-ac9e-0293fe4f2c41","ios":"levelo://app?vid=fdd4be0b-c591-450d-ac9e-0293fe4f2c41"},"vehicle_type_id":"4","last_reported":1720105676,"current_range_meters":7200,"station_id":"ce4bh0h2rcd13ifvqd40","pricing_plan_id":"cebpf4jnsgd1na2vs0mg"},{"bike_id":"a55999e4-02b2-43c3-9384-e46075705a1e","system_id":"levelo_inurba_marseille","lat":43.33798,"lon":5.3743,"is_reserved":false,"is_disabled":false,"rental_uris":{"android":"levelo://app?vid=a55999e4-02b2-43c3-9384-e46075705a1e","ios":"levelo://app?vid=a55999e4-02b2-43c3-9384-e46075705a1e"},"vehicle_type_id":"4","last_reported":1720105676,"current_range_meters":29200,"station_id":"","pricing_plan_id":"cebpf4jnsgd1na2vs0mg"},{"bike_id":"7d80746a-fee7-4c9e-aed9-d549b69cbbbc","system_id":"levelo_inurba_marseille","lat":43.298681,"lon":5.397225,"is_reserved":false,"is_disabled":false,"rental_uris":{"android":"levelo://app?vid=7d80746a-fee7-4c9e-aed9-d549b69cbbbc","ios":"levelo://app?vid=7d80746a-fee7-4c9e-aed9-d549b69cbbbc"},"vehicle_type_id":"4","last_reported":1720105676,"current_range_meters":13600,"station_id":"ce4bh0h2rcd13ifvqd50","pricing_plan_id":"cebpf4jnsgd1na2vs0mg"},{"bike_id":"7a4c5a10-b9a4-465f-83e4-a57794a9a75b","system_id":"levelo_inurba_marseille","lat":43.298681,"lon":5.397225,"is_reserved":false,"is_disabled":false,"rental_uris":{"android":"levelo://app?vid=7a4c5a10-b9a4-465f-83e4-a57794a9a75b","ios":"levelo://app?vid=7a4c5a10-b9a4-465f-83e4-a57794a9a75b"},"vehicle_type_id":"4","last_reported":1720105676,"current_range_meters":8000,"station_id":"ce4bh0h2rcd13ifvqd50","pricing_plan_id":"cebpf4jnsgd1na2vs0mg"},{"bike_id":"910fde98-ffea-48ec-882d-c266641b5702","system_id":"levelo_inurba_marseille","lat":43.286593,"lon":5.363346,"is_reserved":false,"is_disabled":false,"rental_uris":{"android":"levelo://app?vid=910fde98-ffea-48ec-882d-c266641b5702","ios":"levelo://app?vid=910fde98-ffea-48ec-882d-c266641b5702"},"vehicle_type_id":"4","last_reported":1720105676,"current_range_meters":21200,"station_id":"ce4bhah2rcd13ifvqej0","pricing_plan_id":"cebpf4jnsgd1na2vs0mg"},{"bike_id":"225e36ce-629f-46a3-a15f-ca5f8d6755e5","system_id":"levelo_inurba_marseille","lat":43.286591,"lon":5.363346,"is_reserved":false,"is_disabled":false,"rental_uris":{"android":"levelo://app?vid=225e36ce-629f-46a3-a15f-ca5f8d6755e5","ios":"levelo://app?vid=225e36ce-629f-46a3-a15f-ca5f8d6755e5"},"vehicle_type_id":"4","last_reported":1720105676,"current_range_meters":20000,"station_id":"ce4bhah2rcd13ifvqej0","pricing_plan_id":"cebpf4jnsgd1na2vs0mg"},{"bike_id":"07e661e3-efd4-42cb-ba45-eaa9262e684f","system_id":"levelo_inurba_marseille","lat":43.286982,"lon":5.373923,"is_reserved":false,"is_disabled":false,"rental_uris":{"android":"levelo://app?vid=07e661e3-efd4-42cb-ba45-eaa9262e684f","ios":"levelo://app?vid=07e661e3-efd4-42cb-ba45-eaa9262e684f"},"vehicle_type_id":"4","last_reported":1720105676,"current_range_meters":0,"station_id":"ce4bh3p2rcd13ifvqdq0","pricing_plan_id":"cebpf4jnsgd1na2vs0mg"},{"bike_id":"10eaee3c-820b-48ea-a96a-0060ab3cdb44","system_id":"levelo_inurba_marseille","lat":43.286593,"lon":5.363346,"is_reserved":false,"is_disabled":false,"rental_uris":{"android":"levelo://app?vid=10eaee3c-820b-48ea-a96a-0060ab3cdb44","ios":"levelo://app?vid=10eaee3c-820b-48ea-a96a-0060ab3cdb44"},"vehicle_type_id":"4","last_reported":1720105676,"current_range_meters":14800,"station_id":"ce4bhah2rcd13ifvqej0","pricing_plan_id":"cebpf4jnsgd1na2vs0mg"},{"bike_id":"1da559e2-91bb-4014-9b56-2cce5e799d7a","system_id":"levelo_inurba_marseille","lat":43.286961,"lon":5.373785,"is_reserved":false,"is_disabled":false,"rental_uris":{"android":"levelo://app?vid=1da559e2-91bb-4014-9b56-2cce5e799d7a","ios":"levelo://app?vid=1da559e2-91bb-4014-9b56-2cce5e799d7a"},"vehicle_type_id":"4","last_reported":1720105676,"current_range_meters":29200,"station_id":"ce4bh3p2rcd13ifvqdq0","pricing_plan_id":"cebpf4jnsgd1na2vs0mg"},{"bike_id":"0d5072fb-6258-4bc5-9542-1fc392bf312b","system_id":"levelo_inurba_marseille","lat":43.295213,"lon":5.393983,"is_reserved":false,"is_disabled":false,"rental_uris":{"android":"levelo://app?vid=0d5072fb-6258-4bc5-9542-1fc392bf312b","ios":"levelo://app?vid=0d5072fb-6258-4bc5-9542-1fc392bf312b"},"vehicle_type_id":"4","last_reported":1720105676,"current_range_meters":0,"station_id":"ce4bh292rcd13ifvqdf0","pricing_plan_id":"cebpf4jnsgd1na2vs0mg"},{"bike_id":"d2d4f4e1-23de-49fb-a08f-186f599962b9","system_id":"levelo_inurba_marseille","lat":43.302759,"lon":5.400793,"is_reserved":false,"is_disabled":false,"rental_uris":{"android":"levelo://app?vid=d2d4f4e1-23de-49fb-a08f-186f599962b9","ios":"levelo://app?vid=d2d4f4e1-23de-49fb-a08f-186f599962b9"},"vehicle_type_id":"4","last_reported":1720105676,"current_range_meters":11200,"station_id":"ce4bgvh2rcd13ifvqcs0","pricing_plan_id":"cebpf4jnsgd1na2vs0mg"},{"bike_id":"b98f1159-19ea-4874-b003-cdc1681a5e68","system_id":"levelo_inurba_marseille","lat":43.2903,"lon":5.38647,"is_reserved":false,"is_disabled":false,"rental_uris":{"android":"levelo://app?vid=b98f1159-19ea-4874-b003-cdc1681a5e68","ios":"levelo://app?vid=b98f1159-19ea-4874-b003-cdc1681a5e68"},"vehicle_type_id":"4","last_reported":1720105676,"current_range_meters":0,"station_id":"ce4bh4p2rcd13ifvqe0g","pricing_plan_id":"cebpf4jnsgd1na2vs0mg"},{"bike_id":"7f9eefe1-b4b6-4859-b763-bf6ab5d0f3a0","system_id":"levelo_inurba_marseille","lat":43.289307,"lon":5.38406,"is_reserved":false,"is_disabled":false,"rental_uris":{"android":"levelo://app?vid=7f9eefe1-b4b6-4859-b763-bf6ab5d0f3a0","ios":"levelo://app?vid=7f9eefe1-b4b6-4859-b763-bf6ab5d0f3a0"},"vehicle_type_id":"4","last_reported":1720105676,"current_range_meters":0,"station_id":"ce4bh612rcd13ifvqe6g","pricing_plan_id":"cebpf4jnsgd1na2vs0mg"},{"bike_id":"fb299ab7-8426-4d2e-b809-3442dfb9a52f","system_id":"levelo_inurba_marseille","lat":43.302759,"lon":5.400793,"is_reserved":false,"is_disabled":false,"rental_uris":{"android":"levelo://app?vid=fb299ab7-8426-4d2e-b809-3442dfb9a52f","ios":"levelo://app?vid=fb299ab7-8426-4d2e-b809-3442dfb9a52f"},"vehicle_type_id":"4","last_reported":1720105676,"current_range_meters":22400,"station_id":"ce4bgvh2rcd13ifvqcs0","pricing_plan_id":"cebpf4jnsgd1na2vs0mg"},{"bike_id":"11d2a799-40cf-43b2-ac40-8e9a3dee65f3","system_id":"levelo_inurba_marseille","lat":43.286039,"lon":5.370679,"is_reserved":false,"is_disabled":false,"rental_uris":{"android":"levelo://app?vid=11d2a799-40cf-43b2-ac40-8e9a3dee65f3","ios":"levelo://app?vid=11d2a799-40cf-43b2-ac40-8e9a3dee65f3"},"vehicle_type_id":"4","last_reported":1720105676,"current_range_meters":24800,"station_id":"ce4bht12rcd13ifvqi60","pricing_plan_id":"cebpf4jnsgd1na2vs0mg"},{"bike_id":"da482234-6062-45b9-b292-0daa8cf703b7","system_id":"levelo_inurba_marseille","lat":43.286039,"lon":5.370679,"is_reserved":false,"is_disabled":false,"rental_uris":{"android":"levelo://app?vid=da482234-6062-45b9-b292-0daa8cf703b7","ios":"levelo://app?vid=da482234-6062-45b9-b292-0daa8cf703b7"},"vehicle_type_id":"4","last_reported":1720105676,"current_range_meters":16400,"station_id":"ce4bht12rcd13ifvqi60","pricing_plan_id":"cebpf4jnsgd1na2vs0mg"},{"bike_id":"ddc00904-28b3-4796-9399-6a2c38770fca","system_id":"levelo_inurba_marseille","lat":43.286039,"lon":5.370681,"is_reserved":false,"is_disabled":false,"rental_uris":{"android":"levelo://app?vid=ddc00904-28b3-4796-9399-6a2c38770fca","ios":"levelo://app?vid=ddc00904-28b3-4796-9399-6a2c38770fca"},"vehicle_type_id":"4","last_reported":1720105676,"current_range_meters":6400,"station_id":"ce4bht12rcd13ifvqi60","pricing_plan_id":"cebpf4jnsgd1na2vs0mg"},{"bike_id":"fbaad1d9-569b-4b2a-b583-5493f053f027","system_id":"levelo_inurba_marseille","lat":43.287185,"lon":5.379373,"is_reserved":false,"is_disabled":false,"rental_uris":{"android":"levelo://app?vid=fbaad1d9-569b-4b2a-b583-5493f053f027","ios":"levelo://app?vid=fbaad1d9-569b-4b2a-b583-5493f053f027"},"vehicle_type_id":"4","last_reported":1720105676,"current_range_meters":6000,"station_id":"ce4bh9p2rcd13ifvqec0","pricing_plan_id":"cebpf4jnsgd1na2vs0mg"},{"bike_id":"767e1c3e-01f3-497a-806f-0e720b407718","system_id":"levelo_inurba_marseille","lat":43.31715,"lon":5.40479,"is_reserved":false,"is_disabled":false,"rental_uris":{"android":"levelo://app?vid=767e1c3e-01f3-497a-806f-0e720b407718","ios":"levelo://app?vid=767e1c3e-01f3-497a-806f-0e720b407718"},"vehicle_type_id":"4","last_reported":1720105676,"current_range_meters":2400,"station_id":"ce4bh012rcd13ifvqd00","pricing_plan_id":"cebpf4jnsgd1na2vs0mg"},{"bike_id":"dc0f859a-388c-4e9c-8207-93e1d1bcefe2","system_id":"levelo_inurba_marseille","lat":43.29199,"lon":5.39314,"is_reserved":false,"is_disabled":false,"rental_uris":{"android":"levelo://app?vid=dc0f859a-388c-4e9c-8207-93e1d1bcefe2","ios":"levelo://app?vid=dc0f859a-388c-4e9c-8207-93e1d1bcefe2"},"vehicle_type_id":"4","last_reported":1720105676,"current_range_meters":0,"station_id":"ce4bh192rcd13ifvqdd0","pricing_plan_id":"cebpf4jnsgd1na2vs0mg"},{"bike_id":"fcc7f82e-3f8e-4483-8485-ebf42c9e10c3","system_id":"levelo_inurba_marseille","lat":43.291994,"lon":5.392907,"is_reserved":false,"is_disabled":false,"rental_uris":{"android":"levelo://app?vid=fcc7f82e-3f8e-4483-8485-ebf42c9e10c3","ios":"levelo://app?vid=fcc7f82e-3f8e-4483-8485-ebf42c9e10c3"},"vehicle_type_id":"4","last_reported":1720105676,"current_range_meters":0,"station_id":"ce4bh192rcd13ifvqdd0","pricing_plan_id":"cebpf4jnsgd1na2vs0mg"},{"bike_id":"44c2a650-e47a-4518-83a3-39a241f22f42","system_id":"levelo_inurba_marseille","lat":43.284534,"lon":5.358662,"is_reserved":false,"is_disabled":false,"rental_uris":{"android":"levelo://app?vid=44c2a650-e47a-4518-83a3-39a241f22f42","ios":"levelo://app?vid=44c2a650-e47a-4518-83a3-39a241f22f42"},"vehicle_type_id":"4","last_reported":1720105676,"current_range_meters":0,"station_id":"ce4bhah2rcd13ifvqei0","pricing_plan_id":"cebpf4jnsgd1na2vs0mg"},{"bike_id":"0a979b7d-994f-4202-889e-15606ac42e10","system_id":"levelo_inurba_marseille","lat":43.284538,"lon":5.358657,"is_reserved":false,"is_disabled":false,"rental_uris":{"android":"levelo://app?vid=0a979b7d-994f-4202-889e-15606ac42e10","ios":"levelo://app?vid=0a979b7d-994f-4202-889e-15606ac42e10"},"vehicle_type_id":"4","last_reported":1720105676,"current_range_meters":2400,"station_id":"ce4bhah2rcd13ifvqei0","pricing_plan_id":"cebpf4jnsgd1na2vs0mg"},{"bike_id":"b1b18383-d278-4454-b5cb-1b0d4ea3a201","system_id":"levelo_inurba_marseille","lat":43.284538,"lon":5.358657,"is_reserved":false,"is_disabled":false,"rental_uris":{"android":"levelo://app?vid=b1b18383-d278-4454-b5cb-1b0d4ea3a201","ios":"levelo://app?vid=b1b18383-d278-4454-b5cb-1b0d4ea3a201"},"vehicle_type_id":"4","last_reported":1720105676,"current_range_meters":19600,"station_id":"ce4bhah2rcd13ifvqei0","pricing_plan_id":"cebpf4jnsgd1na2vs0mg"},{"bike_id":"6c44a619-f6ab-40a1-bf1e-ab1eef7b90b5","system_id":"levelo_inurba_marseille","lat":43.294314,"lon":5.397498,"is_reserved":false,"is_disabled":false,"rental_uris":{"android":"levelo://app?vid=6c44a619-f6ab-40a1-bf1e-ab1eef7b90b5","ios":"levelo://app?vid=6c44a619-f6ab-40a1-bf1e-ab1eef7b90b5"},"vehicle_type_id":"4","last_reported":1720105676,"current_range_meters":18800,"station_id":"ce4bh3h2rcd13ifvqdo0","pricing_plan_id":"cebpf4jnsgd1na2vs0mg"},{"bike_id":"035cd8ef-fd58-4e64-95a1-3402a7ff3f6f","system_id":"levelo_inurba_marseille","lat":43.284538,"lon":5.358657,"is_reserved":false,"is_disabled":false,"rental_uris":{"android":"levelo://app?vid=035cd8ef-fd58-4e64-95a1-3402a7ff3f6f","ios":"levelo://app?vid=035cd8ef-fd58-4e64-95a1-3402a7ff3f6f"},"vehicle_type_id":"4","last_reported":1720105676,"current_range_meters":0,"station_id":"ce4bhah2rcd13ifvqei0","pricing_plan_id":"cebpf4jnsgd1na2vs0mg"},{"bike_id":"ca59202c-0172-48ed-b728-43e44c4606bc","system_id":"levelo_inurba_marseille","lat":43.285848,"lon":5.350787,"is_reserved":false,"is_disabled":false,"rental_uris":{"android":"levelo://app?vid=ca59202c-0172-48ed-b728-43e44c4606bc","ios":"levelo://app?vid=ca59202c-0172-48ed-b728-43e44c4606bc"},"vehicle_type_id":"4","last_reported":1720105676,"current_range_meters":9600,"station_id":"ce4bhch2rcd13ifvqeug","pricing_plan_id":"cebpf4jnsgd1na2vs0mg"},{"bike_id":"29123b6a-bef9-47fb-9e6a-a5410c2e5865","system_id":"levelo_inurba_marseille","lat":43.294314,"lon":5.397498,"is_reserved":false,"is_disabled":false,"rental_uris":{"android":"levelo://app?vid=29123b6a-bef9-47fb-9e6a-a5410c2e5865","ios":"levelo://app?vid=29123b6a-bef9-47fb-9e6a-a5410c2e5865"},"vehicle_type_id":"4","last_reported":1720105676,"current_range_meters":19600,"station_id":"ce4bh3h2rcd13ifvqdo0","pricing_plan_id":"cebpf4jnsgd1na2vs0mg"},{"bike_id":"d9a304db-8f53-4afd-a499-a495198991b9","system_id":"levelo_inurba_marseille","lat":43.28616,"lon":5.35108,"is_reserved":false,"is_disabled":false,"rental_uris":{"android":"levelo://app?vid=d9a304db-8f53-4afd-a499-a495198991b9","ios":"levelo://app?vid=d9a304db-8f53-4afd-a499-a495198991b9"},"vehicle_type_id":"4","last_reported":1720105676,"current_range_meters":31200,"station_id":"ce4bhch2rcd13ifvqeug","pricing_plan_id":"cebpf4jnsgd1na2vs0mg"},{"bike_id":"d60e0a9a-4faf-4d3f-ab0e-b2a4e41c5d77","system_id":"levelo_inurba_marseille","lat":43.285856,"lon":5.350771,"is_reserved":false,"is_disabled":false,"rental_uris":{"android":"levelo://app?vid=d60e0a9a-4faf-4d3f-ab0e-b2a4e41c5d77","ios":"levelo://app?vid=d60e0a9a-4faf-4d3f-ab0e-b2a4e41c5d77"},"vehicle_type_id":"4","last_reported":1720105676,"current_range_meters":4400,"station_id":"ce4bhch2rcd13ifvqeug","pricing_plan_id":"cebpf4jnsgd1na2vs0mg"},{"bike_id":"94db6fca-9368-49d4-9c1d-6f1362d9ff27","system_id":"levelo_inurba_marseille","lat":43.285856,"lon":5.350771,"is_reserved":false,"is_disabled":false,"rental_uris":{"android":"levelo://app?vid=94db6fca-9368-49d4-9c1d-6f1362d9ff27","ios":"levelo://app?vid=94db6fca-9368-49d4-9c1d-6f1362d9ff27"},"vehicle_type_id":"4","last_reported":1720105676,"current_range_meters":0,"station_id":"ce4bhch2rcd13ifvqeug","pricing_plan_id":"cebpf4jnsgd1na2vs0mg"},{"bike_id":"cc96fb27-b0e5-4cfb-98d6-a6553c7c4cd6","system_id":"levelo_inurba_marseille","lat":43.28619,"lon":5.35096,"is_reserved":false,"is_disabled":false,"rental_uris":{"android":"levelo://app?vid=cc96fb27-b0e5-4cfb-98d6-a6553c7c4cd6","ios":"levelo://app?vid=cc96fb27-b0e5-4cfb-98d6-a6553c7c4cd6"},"vehicle_type_id":"4","last_reported":1720105676,"current_range_meters":6800,"station_id":"ce4bhch2rcd13ifvqeug","pricing_plan_id":"cebpf4jnsgd1na2vs0mg"},{"bike_id":"6629d206-269e-4e7c-a16f-cc5e402ccfc0","system_id":"levelo_inurba_marseille","lat":43.285856,"lon":5.350771,"is_reserved":false,"is_disabled":false,"rental_uris":{"android":"levelo://app?vid=6629d206-269e-4e7c-a16f-cc5e402ccfc0","ios":"levelo://app?vid=6629d206-269e-4e7c-a16f-cc5e402ccfc0"},"vehicle_type_id":"4","last_reported":1720105676,"current_range_meters":27200,"station_id":"ce4bhch2rcd13ifvqeug","pricing_plan_id":"cebpf4jnsgd1na2vs0mg"},{"bike_id":"dedf263e-00a2-4c92-b07c-61b6802435b5","system_id":"levelo_inurba_marseille","lat":43.28615,"lon":5.35108,"is_reserved":false,"is_disabled":false,"rental_uris":{"android":"levelo://app?vid=dedf263e-00a2-4c92-b07c-61b6802435b5","ios":"levelo://app?vid=dedf263e-00a2-4c92-b07c-61b6802435b5"},"vehicle_type_id":"4","last_reported":1720105676,"current_range_meters":7200,"station_id":"ce4bhch2rcd13ifvqeug","pricing_plan_id":"cebpf4jnsgd1na2vs0mg"},{"bike_id":"61738de4-f259-41e8-99b2-ad8a600cd99d","system_id":"levelo_inurba_marseille","lat":43.28615,"lon":5.35107,"is_reserved":false,"is_disabled":false,"rental_uris":{"android":"levelo://app?vid=61738de4-f259-41e8-99b2-ad8a600cd99d","ios":"levelo://app?vid=61738de4-f259-41e8-99b2-ad8a600cd99d"},"vehicle_type_id":"4","last_reported":1720105676,"current_range_meters":0,"station_id":"ce4bhch2rcd13ifvqeug","pricing_plan_id":"cebpf4jnsgd1na2vs0mg"},{"bike_id":"c505f625-e1b3-422e-afe5-5a3ccfa0c935","system_id":"levelo_inurba_marseille","lat":43.285856,"lon":5.350771,"is_reserved":false,"is_disabled":false,"rental_uris":{"android":"levelo://app?vid=c505f625-e1b3-422e-afe5-5a3ccfa0c935","ios":"levelo://app?vid=c505f625-e1b3-422e-afe5-5a3ccfa0c935"},"vehicle_type_id":"4","last_reported":1720105676,"current_range_meters":4800,"station_id":"ce4bhch2rcd13ifvqeug","pricing_plan_id":"cebpf4jnsgd1na2vs0mg"},{"bike_id":"ebbd582c-7d5c-421f-9229-3753837193f9","system_id":"levelo_inurba_marseille","lat":43.28615,"lon":5.35102,"is_reserved":false,"is_disabled":false,"rental_uris":{"android":"levelo://app?vid=ebbd582c-7d5c-421f-9229-3753837193f9","ios":"levelo://app?vid=ebbd582c-7d5c-421f-9229-3753837193f9"},"vehicle_type_id":"4","last_reported":1720105676,"current_range_meters":400,"station_id":"ce4bhch2rcd13ifvqeug","pricing_plan_id":"cebpf4jnsgd1na2vs0mg"},{"bike_id":"270514c4-1a2e-4b3f-b761-7a8394b5e0c4","system_id":"levelo_inurba_marseille","lat":43.28615,"lon":5.35102,"is_reserved":false,"is_disabled":false,"rental_uris":{"android":"levelo://app?vid=270514c4-1a2e-4b3f-b761-7a8394b5e0c4","ios":"levelo://app?vid=270514c4-1a2e-4b3f-b761-7a8394b5e0c4"},"vehicle_type_id":"4","last_reported":1720105676,"current_range_meters":31200,"station_id":"ce4bhch2rcd13ifvqeug","pricing_plan_id":"cebpf4jnsgd1na2vs0mg"},{"bike_id":"c69497b4-5389-4746-813f-da2f25d426a7","system_id":"levelo_inurba_marseille","lat":43.28613,"lon":5.35104,"is_reserved":false,"is_disabled":false,"rental_uris":{"android":"levelo://app?vid=c69497b4-5389-4746-813f-da2f25d426a7","ios":"levelo://app?vid=c69497b4-5389-4746-813f-da2f25d426a7"},"vehicle_type_id":"4","last_reported":1720105676,"current_range_meters":19200,"station_id":"ce4bhch2rcd13ifvqeug","pricing_plan_id":"cebpf4jnsgd1na2vs0mg"},{"bike_id":"08bf25b2-454e-4bb4-a59f-f764f4d9cf88","system_id":"levelo_inurba_marseille","lat":43.28615,"lon":5.35097,"is_reserved":false,"is_disabled":false,"rental_uris":{"android":"levelo://app?vid=08bf25b2-454e-4bb4-a59f-f764f4d9cf88","ios":"levelo://app?vid=08bf25b2-454e-4bb4-a59f-f764f4d9cf88"},"vehicle_type_id":"4","last_reported":1720105676,"current_range_meters":22400,"station_id":"ce4bhch2rcd13ifvqeug","pricing_plan_id":"cebpf4jnsgd1na2vs0mg"},{"bike_id":"a925d356-9da5-4fad-a4a5-0210b0b611c1","system_id":"levelo_inurba_marseille","lat":43.28614,"lon":5.351,"is_reserved":false,"is_disabled":false,"rental_uris":{"android":"levelo://app?vid=a925d356-9da5-4fad-a4a5-0210b0b611c1","ios":"levelo://app?vid=a925d356-9da5-4fad-a4a5-0210b0b611c1"},"vehicle_type_id":"4","last_reported":1720105676,"current_range_meters":11200,"station_id":"ce4bhch2rcd13ifvqeug","pricing_plan_id":"cebpf4jnsgd1na2vs0mg"},{"bike_id":"7c3025a5-19ad-4896-9378-a23cb1b5095b","system_id":"levelo_inurba_marseille","lat":43.28613,"lon":5.35099,"is_reserved":false,"is_disabled":false,"rental_uris":{"android":"levelo://app?vid=7c3025a5-19ad-4896-9378-a23cb1b5095b","ios":"levelo://app?vid=7c3025a5-19ad-4896-9378-a23cb1b5095b"},"vehicle_type_id":"4","last_reported":1720105676,"current_range_meters":24800,"station_id":"ce4bhch2rcd13ifvqeug","pricing_plan_id":"cebpf4jnsgd1na2vs0mg"},{"bike_id":"22a31301-2eb5-442f-97ac-2f7423f076a0","system_id":"levelo_inurba_marseille","lat":43.285856,"lon":5.350771,"is_reserved":false,"is_disabled":false,"rental_uris":{"android":"levelo://app?vid=22a31301-2eb5-442f-97ac-2f7423f076a0","ios":"levelo://app?vid=22a31301-2eb5-442f-97ac-2f7423f076a0"},"vehicle_type_id":"4","last_reported":1720105676,"current_range_meters":28000,"station_id":"ce4bhch2rcd13ifvqeug","pricing_plan_id":"cebpf4jnsgd1na2vs0mg"},{"bike_id":"0712bd5d-df86-4ebc-a865-a0e2b7e6691e","system_id":"levelo_inurba_marseille","lat":43.285856,"lon":5.350771,"is_reserved":false,"is_disabled":false,"rental_uris":{"android":"levelo://app?vid=0712bd5d-df86-4ebc-a865-a0e2b7e6691e","ios":"levelo://app?vid=0712bd5d-df86-4ebc-a865-a0e2b7e6691e"},"vehicle_type_id":"4","last_reported":1720105676,"current_range_meters":29200,"station_id":"ce4bhch2rcd13ifvqeug","pricing_plan_id":"cebpf4jnsgd1na2vs0mg"},{"bike_id":"3c695d40-a85a-4b70-aafc-0534dede8a34","system_id":"levelo_inurba_marseille","lat":43.286083,"lon":5.351075,"is_reserved":false,"is_disabled":false,"rental_uris":{"android":"levelo://app?vid=3c695d40-a85a-4b70-aafc-0534dede8a34","ios":"levelo://app?vid=3c695d40-a85a-4b70-aafc-0534dede8a34"},"vehicle_type_id":"4","last_reported":1720105676,"current_range_meters":17600,"station_id":"","pricing_plan_id":"cebpf4jnsgd1na2vs0mg"},{"bike_id":"e47bbcd2-e839-4eaf-ac52-a0cdb50fd1c6","system_id":"levelo_inurba_marseille","lat":43.2861,"lon":5.35097,"is_reserved":false,"is_disabled":false,"rental_uris":{"android":"levelo://app?vid=e47bbcd2-e839-4eaf-ac52-a0cdb50fd1c6","ios":"levelo://app?vid=e47bbcd2-e839-4eaf-ac52-a0cdb50fd1c6"},"vehicle_type_id":"4","last_reported":1720105676,"current_range_meters":15600,"station_id":"ce4bhch2rcd13ifvqeug","pricing_plan_id":"cebpf4jnsgd1na2vs0mg"},{"bike_id":"ea2be750-191f-4840-ab92-0e5462e3eea4","system_id":"levelo_inurba_marseille","lat":43.28408,"lon":5.37506,"is_reserved":false,"is_disabled":false,"rental_uris":{"android":"levelo://app?vid=ea2be750-191f-4840-ab92-0e5462e3eea4","ios":"levelo://app?vid=ea2be750-191f-4840-ab92-0e5462e3eea4"},"vehicle_type_id":"4","last_reported":1720105676,"current_range_meters":13200,"station_id":"","pricing_plan_id":"cebpf4jnsgd1na2vs0mg"},{"bike_id":"dc262e0a-5b41-405c-9fa5-77256a93ad64","system_id":"levelo_inurba_marseille","lat":43.283998,"lon":5.375062,"is_reserved":false,"is_disabled":false,"rental_uris":{"android":"levelo://app?vid=dc262e0a-5b41-405c-9fa5-77256a93ad64","ios":"levelo://app?vid=dc262e0a-5b41-405c-9fa5-77256a93ad64"},"vehicle_type_id":"4","last_reported":1720105676,"current_range_meters":20000,"station_id":"ce4bh412rcd13ifvqds0","pricing_plan_id":"cebpf4jnsgd1na2vs0mg"},{"bike_id":"21dacb5e-1b05-4641-9fa4-768223acb124","system_id":"levelo_inurba_marseille","lat":43.286595,"lon":5.386795,"is_reserved":false,"is_disabled":false,"rental_uris":{"android":"levelo://app?vid=21dacb5e-1b05-4641-9fa4-768223acb124","ios":"levelo://app?vid=21dacb5e-1b05-4641-9fa4-768223acb124"},"vehicle_type_id":"4","last_reported":1720105676,"current_range_meters":10400,"station_id":"ce4bh492rcd13ifvqdug","pricing_plan_id":"cebpf4jnsgd1na2vs0mg"},{"bike_id":"e6659e13-b345-4cc5-adc5-717a477241c5","system_id":"levelo_inurba_marseille","lat":43.286595,"lon":5.386795,"is_reserved":false,"is_disabled":false,"rental_uris":{"android":"levelo://app?vid=e6659e13-b345-4cc5-adc5-717a477241c5","ios":"levelo://app?vid=e6659e13-b345-4cc5-adc5-717a477241c5"},"vehicle_type_id":"4","last_reported":1720105676,"current_range_meters":4400,"station_id":"ce4bh492rcd13ifvqdug","pricing_plan_id":"cebpf4jnsgd1na2vs0mg"},{"bike_id":"6028abf8-640f-43b8-8652-da466d7b0556","system_id":"levelo_inurba_marseille","lat":43.28625,"lon":5.386388,"is_reserved":false,"is_disabled":false,"rental_uris":{"android":"levelo://app?vid=6028abf8-640f-43b8-8652-da466d7b0556","ios":"levelo://app?vid=6028abf8-640f-43b8-8652-da466d7b0556"},"vehicle_type_id":"4","last_reported":1720105676,"current_range_meters":20400,"station_id":"ce4bh492rcd13ifvqdug","pricing_plan_id":"cebpf4jnsgd1na2vs0mg"},{"bike_id":"b1d9c99a-fed7-4b7d-ae77-fc6a4a112db1","system_id":"levelo_inurba_marseille","lat":43.319179,"lon":5.407725,"is_reserved":false,"is_disabled":false,"rental_uris":{"android":"levelo://app?vid=b1d9c99a-fed7-4b7d-ae77-fc6a4a112db1","ios":"levelo://app?vid=b1d9c99a-fed7-4b7d-ae77-fc6a4a112db1"},"vehicle_type_id":"4","last_reported":1720105676,"current_range_meters":24400,"station_id":"ce4bhq12rcd13ifvqhig","pricing_plan_id":"cebpf4jnsgd1na2vs0mg"},{"bike_id":"85825fb8-7ed5-4501-a263-fc962f77906a","system_id":"levelo_inurba_marseille","lat":43.319179,"lon":5.407725,"is_reserved":false,"is_disabled":false,"rental_uris":{"android":"levelo://app?vid=85825fb8-7ed5-4501-a263-fc962f77906a","ios":"levelo://app?vid=85825fb8-7ed5-4501-a263-fc962f77906a"},