{"last_updated":1714111865,"ttl":30,"version":"2.2","data":{"bikes":[{"bike_id":"a67a5069-7c02-467d-a1be-a71c2a6aa00b","system_id":"levelo_inurba_marseille","lat":43.313391,"lon":5.36706,"is_reserved":false,"is_disabled":false,"rental_uris":{"android":"levelo://app?vid=a67a5069-7c02-467d-a1be-a71c2a6aa00b","ios":"levelo://app?vid=a67a5069-7c02-467d-a1be-a71c2a6aa00b"},"vehicle_type_id":"4","last_reported":1714111865,"current_range_meters":24000,"station_id":"ce4bgr92rcd13ifvqc6g","pricing_plan_id":"cebpf4jnsgd1na2vs0mg"},{"bike_id":"c5b2b07e-42ad-42f4-a5f5-6a7da4ed8477","system_id":"levelo_inurba_marseille","lat":43.313391,"lon":5.36706,"is_reserved":false,"is_disabled":false,"rental_uris":{"android":"levelo://app?vid=c5b2b07e-42ad-42f4-a5f5-6a7da4ed8477","ios":"levelo://app?vid=c5b2b07e-42ad-42f4-a5f5-6a7da4ed8477"},"vehicle_type_id":"4","last_reported":1714111865,"current_range_meters":5200,"station_id":"ce4bgr92rcd13ifvqc6g","pricing_plan_id":"cebpf4jnsgd1na2vs0mg"},{"bike_id":"617087f5-4641-4722-8b23-7eb79a712b17","system_id":"levelo_inurba_marseille","lat":43.292749,"lon":5.368402,"is_reserved":false,"is_disabled":false,"rental_uris":{"android":"levelo://app?vid=617087f5-4641-4722-8b23-7eb79a712b17","ios":"levelo://app?vid=617087f5-4641-4722-8b23-7eb79a712b17"},"vehicle_type_id":"4","last_reported":1714111865,"current_range_meters":21200,"station_id":"ce4bhbp2rcd13ifvqesg","pricing_plan_id":"cebpf4jnsgd1na2vs0mg"},{"bike_id":"0353a746-d212-421e-b0ed-2e4ffa745251","system_id":"levelo_inurba_marseille","lat":43.312239,"lon":5.368562,"is_reserved":false,"is_disabled":false,"rental_uris":{"android":"levelo://app?vid=0353a746-d212-421e-b0ed-2e4ffa745251","ios":"levelo://app?vid=0353a746-d212-421e-b0ed-2e4ffa745251"},"vehicle_type_id":"4","last_reported":1714111865,"current_range_meters":29200,"station_id":"ce4bgl92rcd13ifvqbq0","pricing_plan_id":"cebpf4jnsgd1na2vs0mg"},{"bike_id":"5e45f560-f1f1-4bf6-9631-2ec432b66c40","system_id":"levelo_inurba_marseille","lat":43.312239,"lon":5.368562,"is_reserved":false,"is_disabled":false,"rental_uris":{"android":"levelo://app?vid=5e45f560-f1f1-4bf6-9631-2ec432b66c40","ios":"levelo://app?vid=5e45f560-f1f1-4bf6-9631-2ec432b66c40"},"vehicle_type_id":"4","last_reported":1714111865,"current_range_meters":26400,"station_id":"ce4bgl92rcd13ifvqbq0","pricing_plan_id":"cebpf4jnsgd1na2vs0mg"},{"bike_id":"5d74a32c-dca2-46a9-a8dc-eb2ca54d0b19","system_id":"levelo_inurba_marseille","lat":43.309076,"lon":5.368465,"is_reserved":false,"is_disabled":false,"rental_uris":{"android":"levelo://app?vid=5d74a32c-dca2-46a9-a8dc-eb2ca54d0b19","ios":"levelo://app?vid=5d74a32c-dca2-46a9-a8dc-eb2ca54d0b19"},"vehicle_type_id":"4","last_reported":1714111865,"current_range_meters":25200,"station_id":"ce4bgn92rcd13ifvqbvg","pricing_plan_id":"cebpf4jnsgd1na2vs0mg"},{"bike_id":"d9d34568-e1d0-4f45-8fa1-4e08fb0259dd","system_id":"levelo_inurba_marseille","lat":43.309076,"lon":5.368465,"is_reserved":false,"is_disabled":false,"rental_uris":{"android":"levelo://app?vid=d9d34568-e1d0-4f45-8fa1-4e08fb0259dd","ios":"levelo://app?vid=d9d34568-e1d0-4f45-8fa1-4e08fb0259dd"},"vehicle_type_id":"4","last_reported":1714111865,"current_range_meters":8400,"station_id":"ce4bgn92rcd13ifvqbvg","pricing_plan_id":"cebpf4jnsgd1na2vs0mg"},{"bike_id":"d6075542-90b3-457d-8c70-687d8969a081","system_id":"levelo_inurba_marseille","lat":43.309076,"lon":5.368465,"is_reserved":false,"is_disabled":false,"rental_uris":{"android":"levelo://app?vid=d6075542-90b3-457d-8c70-687d8969a081","ios":"levelo://app?vid=d6075542-90b3-457d-8c70-687d8969a081"},"vehicle_type_id":"4","last_reported":1714111865,"current_range_meters":24800,"station_id":"ce4bgn92rcd13ifvqbvg","pricing_plan_id":"cebpf4jnsgd1na2vs0mg"},{"bike_id":"19be9bab-eee6-4c0b-abeb-32f65fe4b6fc","system_id":"levelo_inurba_marseille","lat":43.314811,"lon":5.373103,"is_reserved":false,"is_disabled":false,"rental_uris":{"android":"levelo://app?vid=19be9bab-eee6-4c0b-abeb-32f65fe4b6fc","ios":"levelo://app?vid=19be9bab-eee6-4c0b-abeb-32f65fe4b6fc"},"vehicle_type_id":"4","last_reported":1714111865,"current_range_meters":10000,"station_id":"ce4bgt12rcd13ifvqcd0","pricing_plan_id":"cebpf4jnsgd1na2vs0mg"},{"bike_id":"2b29146c-af14-410c-a928-edaff8c3d82d","system_id":"levelo_inurba_marseille","lat":43.314811,"lon":5.373103,"is_reserved":false,"is_disabled":false,"rental_uris":{"android":"levelo://app?vid=2b29146c-af14-410c-a928-edaff8c3d82d","ios":"levelo://app?vid=2b29146c-af14-410c-a928-edaff8c3d82d"},"vehicle_type_id":"4","last_reported":1714111865,"current_range_meters":31200,"station_id":"ce4bgt12rcd13ifvqcd0","pricing_plan_id":"cebpf4jnsgd1na2vs0mg"},{"bike_id":"c9c62c1c-fc1a-46db-8577-a9880b8496fb","system_id":"levelo_inurba_marseille","lat":43.314811,"lon":5.373103,"is_reserved":false,"is_disabled":false,"rental_uris":{"android":"levelo://app?vid=c9c62c1c-fc1a-46db-8577-a9880b8496fb","ios":"levelo://app?vid=c9c62c1c-fc1a-46db-8577-a9880b8496fb"},"vehicle_type_id":"4","last_reported":1714111865,"current_range_meters":24000,"station_id":"ce4bgt12rcd13ifvqcd0","pricing_plan_id":"cebpf4jnsgd1na2vs0mg"},{"bike_id":"3c2b8da4-e218-4428-b8a4-7bd9d8f135ac","system_id":"levelo_inurba_marseille","lat":43.314811,"lon":5.373103,"is_reserved":false,"is_disabled":false,"rental_uris":{"android":"levelo://app?vid=3c2b8da4-e218-4428-b8a4-7bd9d8f135ac","ios":"levelo://app?vid=3c2b8da4-e218-4428-b8a4-7bd9d8f135ac"},"vehicle_type_id":"4","last_reported":1714111865,"current_range_meters":27200,"station_id":"ce4bgt12rcd13ifvqcd0","pricing_plan_id":"cebpf4jnsgd1na2vs0mg"},{"bike_id":"1062ae9d-2df1-4c09-8834-f3e85dbf5b47","system_id":"levelo_inurba_marseille","lat":43.314811,"lon":5.373103,"is_reserved":false,"is_disabled":false,"rental_uris":{"android":"levelo://app?vid=1062ae9d-2df1-4c09-8834-f3e85dbf5b47","ios":"levelo://app?vid=1062ae9d-2df1-4c09-8834-f3e85dbf5b47"},"vehicle_type_id":"4","last_reported":1714111865,"current_range_meters":26800,"station_id":"ce4bgt12rcd13ifvqcd0","pricing_plan_id":"cebpf4jnsgd1na2vs0mg"},{"bike_id":"7c5874e9-d7f7-469f-8b78-b4e2c8c8818a","system_id":"levelo_inurba_marseille","lat":43.314811,"lon":5.373103,"is_reserved":false,"is_disabled":false,"rental_uris":{"android":"levelo://app?vid=7c5874e9-d7f7-469f-8b78-b4e2c8c8818a","ios":"levelo://app?vid=7c5874e9-d7f7-469f-8b78-b4e2c8c8818a"},"vehicle_type_id":"4","last_reported":1714111865,"current_range_meters":14800,"station_id":"ce4bgt12rcd13ifvqcd0","pricing_plan_id":"cebpf4jnsgd1na2vs0mg"},{"bike_id":"ff5bcc28-2f61-4407-8252-88a01bf9d650","system_id":"levelo_inurba_marseille","lat":43.314999,"lon":5.373095,"is_reserved":false,"is_disabled":false,"rental_uris":{"android":"levelo://app?vid=ff5bcc28-2f61-4407-8252-88a01bf9d650","ios":"levelo://app?vid=ff5bcc28-2f61-4407-8252-88a01bf9d650"},"vehicle_type_id":"4","last_reported":1714111865,"current_range_meters":30400,"station_id":"ce4bgt12rcd13ifvqcd0","pricing_plan_id":"cebpf4jnsgd1na2vs0mg"},{"bike_id":"7f0f07eb-e7f5-4bc2-9a1d-e8a0af71e347","system_id":"levelo_inurba_marseille","lat":43.309039,"lon":5.371797,"is_reserved":false,"is_disabled":false,"rental_uris":{"android":"levelo://app?vid=7f0f07eb-e7f5-4bc2-9a1d-e8a0af71e347","ios":"levelo://app?vid=7f0f07eb-e7f5-4bc2-9a1d-e8a0af71e347"},"vehicle_type_id":"4","last_reported":1714111865,"current_range_meters":21200,"station_id":"ce4bguh2rcd13ifvqckg","pricing_plan_id":"cebpf4jnsgd1na2vs0mg"},{"bike_id":"477f8daf-2f28-441e-9c17-587bcb8303ee","system_id":"levelo_inurba_marseille","lat":43.309039,"lon":5.371797,"is_reserved":false,"is_disabled":false,"rental_uris":{"android":"levelo://app?vid=477f8daf-2f28-441e-9c17-587bcb8303ee","ios":"levelo://app?vid=477f8daf-2f28-441e-9c17-587bcb8303ee"},"vehicle_type_id":"4","last_reported":1714111865,"current_range_meters":18800,"station_id":"ce4bguh2rcd13ifvqckg","pricing_plan_id":"cebpf4jnsgd1na2vs0mg"},{"bike_id":"d6c21676-7260-4bc3-a888-a15b7dabe0e3","system_id":"levelo_inurba_marseille","lat":43.309039,"lon":5.371797,"is_reserved":false,"is_disabled":false,"rental_uris":{"android":"levelo://app?vid=d6c21676-7260-4bc3-a888-a15b7dabe0e3","ios":"levelo://app?vid=d6c21676-7260-4bc3-a888-a15b7dabe0e3"},"vehicle_type_id":"4","last_reported":1714111865,"current_range_meters":20000,"station_id":"ce4bguh2rcd13ifvqckg","pricing_plan_id":"cebpf4jnsgd1na2vs0mg"},{"bike_id":"d8952286-4460-4834-abdb-a1355217eb37","system_id":"levelo_inurba_marseille","lat":43.309034,"lon":5.371783,"is_reserved":false,"is_disabled":false,"rental_uris":{"android":"levelo://app?vid=d8952286-4460-4834-abdb-a1355217eb37","ios":"levelo://app?vid=d8952286-4460-4834-abdb-a1355217eb37"},"vehicle_type_id":"4","last_reported":1714111865,"current_range_meters":24400,"station_id":"ce4bguh2rcd13ifvqckg","pricing_plan_id":"cebpf4jnsgd1na2vs0mg"},{"bike_id":"0051305e-43fa-4821-af88-89623a1ebf0c","system_id":"levelo_inurba_marseille","lat":43.309039,"lon":5.371797,"is_reserved":false,"is_disabled":false,"rental_uris":{"android":"levelo://app?vid=0051305e-43fa-4821-af88-89623a1ebf0c","ios":"levelo://app?vid=0051305e-43fa-4821-af88-89623a1ebf0c"},"vehicle_type_id":"4","last_reported":1714111865,"current_range_meters":32000,"station_id":"ce4bguh2rcd13ifvqckg","pricing_plan_id":"cebpf4jnsgd1na2vs0mg"},{"bike_id":"d8cb0325-d5d5-4843-b2dd-ed36d3f7ef8f","system_id":"levelo_inurba_marseille","lat":43.309039,"lon":5.371797,"is_reserved":false,"is_disabled":false,"rental_uris":{"android":"levelo://app?vid=d8cb0325-d5d5-4843-b2dd-ed36d3f7ef8f","ios":"levelo://app?vid=d8cb0325-d5d5-4843-b2dd-ed36d3f7ef8f"},"vehicle_type_id":"4","last_reported":1714111865,"current_range_meters":31600,"station_id":"ce4bguh2rcd13ifvqckg","pricing_plan_id":"cebpf4jnsgd1na2vs0mg"},{"bike_id":"888826fe-d8e1-41ce-b83b-39642fc51a51","system_id":"levelo_inurba_marseille","lat":43.309039,"lon":5.371797,"is_reserved":false,"is_disabled":false,"rental_uris":{"android":"levelo://app?vid=888826fe-d8e1-41ce-b83b-39642fc51a51","ios":"levelo://app?vid=888826fe-d8e1-41ce-b83b-39642fc51a51"},"vehicle_type_id":"4","last_reported":1714111865,"current_range_meters":19600,"station_id":"ce4bguh2rcd13ifvqckg","pricing_plan_id":"cebpf4jnsgd1na2vs0mg"},{"bike_id":"daebd7a8-c946-4e5d-9537-6796ff393b68","system_id":"levelo_inurba_marseille","lat":43.309034,"lon":5.371783,"is_reserved":false,"is_disabled":false,"rental_uris":{"android":"levelo://app?vid=daebd7a8-c946-4e5d-9537-6796ff393b68","ios":"levelo://app?vid=daebd7a8-c946-4e5d-9537-6796ff393b68"},"vehicle_type_id":"4","last_reported":1714111865,"current_range_meters":31600,"station_id":"ce4bguh2rcd13ifvqckg","pricing_plan_id":"cebpf4jnsgd1na2vs0mg"},{"bike_id":"6428d63f-b05d-4b4b-ae15-4f5a766770e8","system_id":"levelo_inurba_marseille","lat":43.309034,"lon":5.371783,"is_reserved":false,"is_disabled":false,"rental_uris":{"android":"levelo://app?vid=6428d63f-b05d-4b4b-ae15-4f5a766770e8","ios":"levelo://app?vid=6428d63f-b05d-4b4b-ae15-4f5a766770e8"},"vehicle_type_id":"4","last_reported":1714111865,"current_range_meters":16800,"station_id":"ce4bguh2rcd13ifvqckg","pricing_plan_id":"cebpf4jnsgd1na2vs0mg"},{"bike_id":"4e51f6bf-8de3-4d19-bccf-43d6d201bf51","system_id":"levelo_inurba_marseille","lat":43.31331,"lon":5.374705,"is_reserved":false,"is_disabled":false,"rental_uris":{"android":"levelo://app?vid=4e51f6bf-8de3-4d19-bccf-43d6d201bf51","ios":"levelo://app?vid=4e51f6bf-8de3-4d19-bccf-43d6d201bf51"},"vehicle_type_id":"4","last_reported":1714111865,"current_range_meters":10800,"station_id":"","pricing_plan_id":"cebpf4jnsgd1na2vs0mg"},{"bike_id":"b9eb5a9d-25e8-4d96-972a-0a23e4122c7a","system_id":"levelo_inurba_marseille","lat":43.30537,"lon":5.367345,"is_reserved":false,"is_disabled":false,"rental_uris":{"android":"levelo://app?vid=b9eb5a9d-25e8-4d96-972a-0a23e4122c7a","ios":"levelo://app?vid=b9eb5a9d-25e8-4d96-972a-0a23e4122c7a"},"vehicle_type_id":"4","last_reported":1714111865,"current_range_meters":0,"station_id":"ce4bgrp2rcd13ifvqc9g","pricing_plan_id":"cebpf4jnsgd1na2vs0mg"},{"bike_id":"f5b85bd0-c6f5-48f3-b4c9-16106e97d9dc","system_id":"levelo_inurba_marseille","lat":43.305565,"lon":5.365631,"is_reserved":false,"is_disabled":false,"rental_uris":{"android":"levelo://app?vid=f5b85bd0-c6f5-48f3-b4c9-16106e97d9dc","ios":"levelo://app?vid=f5b85bd0-c6f5-48f3-b4c9-16106e97d9dc"},"vehicle_type_id":"4","last_reported":1714111865,"current_range_meters":4400,"station_id":"ce4bgh92rcd13ifvqb40","pricing_plan_id":"cebpf4jnsgd1na2vs0mg"},{"bike_id":"03b2d6b8-2184-4c83-820d-65c73e7a598a","system_id":"levelo_inurba_marseille","lat":43.30537,"lon":5.367345,"is_reserved":false,"is_disabled":false,"rental_uris":{"android":"levelo://app?vid=03b2d6b8-2184-4c83-820d-65c73e7a598a","ios":"levelo://app?vid=03b2d6b8-2184-4c83-820d-65c73e7a598a"},"vehicle_type_id":"4","last_reported":1714111865,"current_range_meters":23200,"station_id":"ce4bgrp2rcd13ifvqc9g","pricing_plan_id":"cebpf4jnsgd1na2vs0mg"},{"bike_id":"8bffb1ed-d8d5-44f1-b821-28b1bae89453","system_id":"levelo_inurba_marseille","lat":43.305714,"lon":5.365633,"is_reserved":false,"is_disabled":false,"rental_uris":{"android":"levelo://app?vid=8bffb1ed-d8d5-44f1-b821-28b1bae89453","ios":"levelo://app?vid=8bffb1ed-d8d5-44f1-b821-28b1bae89453"},"vehicle_type_id":"4","last_reported":1714111865,"current_range_meters":21600,"station_id":"ce4bgs12rcd13ifvqcag","pricing_plan_id":"cebpf4jnsgd1na2vs0mg"},{"bike_id":"ac3a7947-9e3f-4ec4-88e1-405479112601","system_id":"levelo_inurba_marseille","lat":43.305714,"lon":5.365633,"is_reserved":false,"is_disabled":false,"rental_uris":{"android":"levelo://app?vid=ac3a7947-9e3f-4ec4-88e1-405479112601","ios":"levelo://app?vid=ac3a7947-9e3f-4ec4-88e1-405479112601"},"vehicle_type_id":"4","last_reported":1714111865,"current_range_meters":21200,"station_id":"ce4bgs12rcd13ifvqcag","pricing_plan_id":"cebpf4jnsgd1na2vs0mg"},{"bike_id":"88bf5c2f-4d0d-49af-b232-b36dc22ead8f","system_id":"levelo_inurba_marseille","lat":43.305368,"lon":5.367343,"is_reserved":false,"is_disabled":false,"rental_uris":{"android":"levelo://app?vid=88bf5c2f-4d0d-49af-b232-b36dc22ead8f","ios":"levelo://app?vid=88bf5c2f-4d0d-49af-b232-b36dc22ead8f"},"vehicle_type_id":"4","last_reported":1714111865,"current_range_meters":27600,"station_id":"ce4bgrp2rcd13ifvqc9g","pricing_plan_id":"cebpf4jnsgd1na2vs0mg"},{"bike_id":"4cca7ccd-201b-495f-9f80-ed08a7787830","system_id":"levelo_inurba_marseille","lat":43.305714,"lon":5.365633,"is_reserved":false,"is_disabled":false,"rental_uris":{"android":"levelo://app?vid=4cca7ccd-201b-495f-9f80-ed08a7787830","ios":"levelo://app?vid=4cca7ccd-201b-495f-9f80-ed08a7787830"},"vehicle_type_id":"4","last_reported":1714111865,"current_range_meters":24400,"station_id":"ce4bgs12rcd13ifvqcag","pricing_plan_id":"cebpf4jnsgd1na2vs0mg"},{"bike_id":"a4ecc6fd-6eff-4c15-80e2-e393dd2df09b","system_id":"levelo_inurba_marseille","lat":43.305368,"lon":5.367343,"is_reserved":false,"is_disabled":false,"rental_uris":{"android":"levelo://app?vid=a4ecc6fd-6eff-4c15-80e2-e393dd2df09b","ios":"levelo://app?vid=a4ecc6fd-6eff-4c15-80e2-e393dd2df09b"},"vehicle_type_id":"4","last_reported":1714111865,"current_range_meters":26000,"station_id":"ce4bgrp2rcd13ifvqc9g","pricing_plan_id":"cebpf4jnsgd1na2vs0mg"},{"bike_id":"ce93a9ee-8c49-4915-930e-7c36584edfe1","system_id":"levelo_inurba_marseille","lat":43.305989,"lon":5.37225,"is_reserved":false,"is_disabled":false,"rental_uris":{"android":"levelo://app?vid=ce93a9ee-8c49-4915-930e-7c36584edfe1","ios":"levelo://app?vid=ce93a9ee-8c49-4915-930e-7c36584edfe1"},"vehicle_type_id":"4","last_reported":1714111865,"current_range_meters":23200,"station_id":"ce4bgqh2rcd13ifvqc4g","pricing_plan_id":"cebpf4jnsgd1na2vs0mg"},{"bike_id":"35ec69cc-23ba-4334-99ab-e2a762cf9c11","system_id":"levelo_inurba_marseille","lat":43.305989,"lon":5.37225,"is_reserved":false,"is_disabled":false,"rental_uris":{"android":"levelo://app?vid=35ec69cc-23ba-4334-99ab-e2a762cf9c11","ios":"levelo://app?vid=35ec69cc-23ba-4334-99ab-e2a762cf9c11"},"vehicle_type_id":"4","last_reported":1714111865,"current_range_meters":30800,"station_id":"ce4bgqh2rcd13ifvqc4g","pricing_plan_id":"cebpf4jnsgd1na2vs0mg"},{"bike_id":"eca860a6-6af6-4714-b59a-8dc79da5c22e","system_id":"levelo_inurba_marseille","lat":43.305989,"lon":5.37225,"is_reserved":false,"is_disabled":false,"rental_uris":{"android":"levelo://app?vid=eca860a6-6af6-4714-b59a-8dc79da5c22e","ios":"levelo://app?vid=eca860a6-6af6-4714-b59a-8dc79da5c22e"},"vehicle_type_id":"4","last_reported":1714111865,"current_range_meters":31200,"station_id":"ce4bgqh2rcd13ifvqc4g","pricing_plan_id":"cebpf4jnsgd1na2vs0mg"},{"bike_id":"8b831ef5-8087-4db7-b66d-279382711313","system_id":"levelo_inurba_marseille","lat":43.305989,"lon":5.37225,"is_reserved":false,"is_disabled":false,"rental_uris":{"android":"levelo://app?vid=8b831ef5-8087-4db7-b66d-279382711313","ios":"levelo://app?vid=8b831ef5-8087-4db7-b66d-279382711313"},"vehicle_type_id":"4","last_reported":1714111865,"current_range_meters":26400,"station_id":"ce4bgqh2rcd13ifvqc4g","pricing_plan_id":"cebpf4jnsgd1na2vs0mg"},{"bike_id":"6c187701-dea1-4a65-a5f2-9802682726ee","system_id":"levelo_inurba_marseille","lat":43.311125,"lon":5.377624,"is_reserved":false,"is_disabled":false,"rental_uris":{"android":"levelo://app?vid=6c187701-dea1-4a65-a5f2-9802682726ee","ios":"levelo://app?vid=6c187701-dea1-4a65-a5f2-9802682726ee"},"vehicle_type_id":"4","last_reported":1714111865,"current_range_meters":31200,"station_id":"ce4bgt92rcd13ifvqcg0","pricing_plan_id":"cebpf4jnsgd1na2vs0mg"},{"bike_id":"c682e5e0-55af-45db-a0f3-09be2bb576ea","system_id":"levelo_inurba_marseille","lat":43.311125,"lon":5.377624,"is_reserved":false,"is_disabled":false,"rental_uris":{"android":"levelo://app?vid=c682e5e0-55af-45db-a0f3-09be2bb576ea","ios":"levelo://app?vid=c682e5e0-55af-45db-a0f3-09be2bb576ea"},"vehicle_type_id":"4","last_reported":1714111865,"current_range_meters":23200,"station_id":"ce4bgt92rcd13ifvqcg0","pricing_plan_id":"cebpf4jnsgd1na2vs0mg"},{"bike_id":"faef26ef-7272-49cf-b141-693a4cd0e63b","system_id":"levelo_inurba_marseille","lat":43.31123,"lon":5.37773,"is_reserved":false,"is_disabled":false,"rental_uris":{"android":"levelo://app?vid=faef26ef-7272-49cf-b141-693a4cd0e63b","ios":"levelo://app?vid=faef26ef-7272-49cf-b141-693a4cd0e63b"},"vehicle_type_id":"4","last_reported":1714111865,"current_range_meters":0,"station_id":"ce4bgt92rcd13ifvqcg0","pricing_plan_id":"cebpf4jnsgd1na2vs0mg"},{"bike_id":"7d9c855c-ea93-46a4-a0b6-87a8caf08e4b","system_id":"levelo_inurba_marseille","lat":43.311131,"lon":5.377651,"is_reserved":false,"is_disabled":false,"rental_uris":{"android":"levelo://app?vid=7d9c855c-ea93-46a4-a0b6-87a8caf08e4b","ios":"levelo://app?vid=7d9c855c-ea93-46a4-a0b6-87a8caf08e4b"},"vehicle_type_id":"4","last_reported":1714111865,"current_range_meters":23200,"station_id":"ce4bgt92rcd13ifvqcg0","pricing_plan_id":"cebpf4jnsgd1na2vs0mg"},{"bike_id":"49c202dd-c28a-470a-9289-3aea3222110a","system_id":"levelo_inurba_marseille","lat":43.311125,"lon":5.377624,"is_reserved":false,"is_disabled":false,"rental_uris":{"android":"levelo://app?vid=49c202dd-c28a-470a-9289-3aea3222110a","ios":"levelo://app?vid=49c202dd-c28a-470a-9289-3aea3222110a"},"vehicle_type_id":"4","last_reported":1714111865,"current_range_meters":25200,"station_id":"ce4bgt92rcd13ifvqcg0","pricing_plan_id":"cebpf4jnsgd1na2vs0mg"},{"bike_id":"5fe52d0c-8bea-4e5b-b9c1-9ea1301f9ba7","system_id":"levelo_inurba_marseille","lat":43.311125,"lon":5.377624,"is_reserved":false,"is_disabled":false,"rental_uris":{"android":"levelo://app?vid=5fe52d0c-8bea-4e5b-b9c1-9ea1301f9ba7","ios":"levelo://app?vid=5fe52d0c-8bea-4e5b-b9c1-9ea1301f9ba7"},"vehicle_type_id":"4","last_reported":1714111865,"current_range_meters":27200,"station_id":"ce4bgt92rcd13ifvqcg0","pricing_plan_id":"cebpf4jnsgd1na2vs0mg"},{"bike_id":"e30e8490-e526-4eff-8061-01c55acf5ec9","system_id":"levelo_inurba_marseille","lat":43.311131,"lon":5.377651,"is_reserved":false,"is_disabled":false,"rental_uris":{"android":"levelo://app?vid=e30e8490-e526-4eff-8061-01c55acf5ec9","ios":"levelo://app?vid=e30e8490-e526-4eff-8061-01c55acf5ec9"},"vehicle_type_id":"4","last_reported":1714111865,"current_range_meters":21600,"station_id":"ce4bgt92rcd13ifvqcg0","pricing_plan_id":"cebpf4jnsgd1na2vs0mg"},{"bike_id":"d1129191-22f4-4c7a-8c08-14635caea330","system_id":"levelo_inurba_marseille","lat":43.311125,"lon":5.377624,"is_reserved":false,"is_disabled":false,"rental_uris":{"android":"levelo://app?vid=d1129191-22f4-4c7a-8c08-14635caea330","ios":"levelo://app?vid=d1129191-22f4-4c7a-8c08-14635caea330"},"vehicle_type_id":"4","last_reported":1714111865,"current_range_meters":26400,"station_id":"ce4bgt92rcd13ifvqcg0","pricing_plan_id":"cebpf4jnsgd1na2vs0mg"},{"bike_id":"18382e17-6a6b-4a45-a3bc-0e5895473ddc","system_id":"levelo_inurba_marseille","lat":43.307819,"lon":5.376495,"is_reserved":false,"is_disabled":false,"rental_uris":{"android":"levelo://app?vid=18382e17-6a6b-4a45-a3bc-0e5895473ddc","ios":"levelo://app?vid=18382e17-6a6b-4a45-a3bc-0e5895473ddc"},"vehicle_type_id":"4","last_reported":1714111865,"current_range_meters":21600,"station_id":"ce4bgv92rcd13ifvqcq0","pricing_plan_id":"cebpf4jnsgd1na2vs0mg"},{"bike_id":"ef310f81-c05b-4c29-901b-7f543b7e9bdd","system_id":"levelo_inurba_marseille","lat":43.307797,"lon":5.376555,"is_reserved":false,"is_disabled":false,"rental_uris":{"android":"levelo://app?vid=ef310f81-c05b-4c29-901b-7f543b7e9bdd","ios":"levelo://app?vid=ef310f81-c05b-4c29-901b-7f543b7e9bdd"},"vehicle_type_id":"4","last_reported":1714111865,"current_range_meters":27600,"station_id":"ce4bgv92rcd13ifvqcq0","pricing_plan_id":"cebpf4jnsgd1na2vs0mg"},{"bike_id":"4384296e-0b0b-42c2-b297-d14615187f1e","system_id":"levelo_inurba_marseille","lat":43.317075,"lon":5.377367,"is_reserved":false,"is_disabled":false,"rental_uris":{"android":"levelo://app?vid=4384296e-0b0b-42c2-b297-d14615187f1e","ios":"levelo://app?vid=4384296e-0b0b-42c2-b297-d14615187f1e"},"vehicle_type_id":"4","last_reported":1714111865,"current_range_meters":13600,"station_id":"ce4bgth2rcd13ifvqch0","pricing_plan_id":"cebpf4jnsgd1na2vs0mg"},{"bike_id":"24368108-5f8f-4536-a496-15a05881a24e","system_id":"levelo_inurba_marseille","lat":43.317075,"lon":5.377367,"is_reserved":false,"is_disabled":false,"rental_uris":{"android":"levelo://app?vid=24368108-5f8f-4536-a496-15a05881a24e","ios":"levelo://app?vid=24368108-5f8f-4536-a496-15a05881a24e"},"vehicle_type_id":"4","last_reported":1714111865,"current_range_meters":16800,"station_id":"ce4bgth2rcd13ifvqch0","pricing_plan_id":"cebpf4jnsgd1na2vs0mg"},{"bike_id":"9e65e9ca-1e3a-4f43-8b51-42e13a41197f","system_id":"levelo_inurba_marseille","lat":43.317075,"lon":5.377367,"is_reserved":false,"is_disabled":false,"rental_uris":{"android":"levelo://app?vid=9e65e9ca-1e3a-4f43-8b51-42e13a41197f","ios":"levelo://app?vid=9e65e9ca-1e3a-4f43-8b51-42e13a41197f"},"vehicle_type_id":"4","last_reported":1714111865,"current_range_meters":24000,"station_id":"ce4bgth2rcd13ifvqch0","pricing_plan_id":"cebpf4jnsgd1na2vs0mg"},{"bike_id":"45a341f9-0f56-4604-9292-683fa66a8389","system_id":"levelo_inurba_marseille","lat":43.3091,"lon":5.378083,"is_reserved":false,"is_disabled":false,"rental_uris":{"android":"levelo://app?vid=45a341f9-0f56-4604-9292-683fa66a8389","ios":"levelo://app?vid=45a341f9-0f56-4604-9292-683fa66a8389"},"vehicle_type_id":"4","last_reported":1714111865,"current_range_meters":21600,"station_id":"ce4bgup2rcd13ifvqcn0","pricing_plan_id":"cebpf4jnsgd1na2vs0mg"},{"bike_id":"3d12519f-a155-42c3-bf43-bf2b631db335","system_id":"levelo_inurba_marseille","lat":43.317075,"lon":5.377367,"is_reserved":false,"is_disabled":false,"rental_uris":{"android":"levelo://app?vid=3d12519f-a155-42c3-bf43-bf2b631db335","ios":"levelo://app?vid=3d12519f-a155-42c3-bf43-bf2b631db335"},"vehicle_type_id":"4","last_reported":1714111865,"current_range_meters":17600,"station_id":"ce4bgth2rcd13ifvqch0","pricing_plan_id":"cebpf4jnsgd1na2vs0mg"},{"bike_id":"0d9adcb6-7438-4e20-9333-334467cd05e8","system_id":"levelo_inurba_marseille","lat":43.303046,"lon":5.368981,"is_reserved":false,"is_disabled":false,"rental_uris":{"android":"levelo://app?vid=0d9adcb6-7438-4e20-9333-334467cd05e8","ios":"levelo://app?vid=0d9adcb6-7438-4e20-9333-334467cd05e8"},"vehicle_type_id":"4","last_reported":1714111865,"current_range_meters":15200,"station_id":"ce4bgqh2rcd13ifvqc5g","pricing_plan_id":"cebpf4jnsgd1na2vs0mg"},{"bike_id":"9467876b-9b50-4b8f-ac67-5c460c43a9a0","system_id":"levelo_inurba_marseille","lat":43.303046,"lon":5.368981,"is_reserved":false,"is_disabled":false,"rental_uris":{"android":"levelo://app?vid=9467876b-9b50-4b8f-ac67-5c460c43a9a0","ios":"levelo://app?vid=9467876b-9b50-4b8f-ac67-5c460c43a9a0"},"vehicle_type_id":"4","last_reported":1714111865,"current_range_meters":3200,"station_id":"ce4bgqh2rcd13ifvqc5g","pricing_plan_id":"cebpf4jnsgd1na2vs0mg"},{"bike_id":"a7ccb866-9086-4c74-bc5d-013b9572c4c7","system_id":"levelo_inurba_marseille","lat":43.303046,"lon":5.368981,"is_reserved":false,"is_disabled":false,"rental_uris":{"android":"levelo://app?vid=a7ccb866-9086-4c74-bc5d-013b9572c4c7","ios":"levelo://app?vid=a7ccb866-9086-4c74-bc5d-013b9572c4c7"},"vehicle_type_id":"4","last_reported":1714111865,"current_range_meters":5600,"station_id":"ce4bgqh2rcd13ifvqc5g","pricing_plan_id":"cebpf4jnsgd1na2vs0mg"},{"bike_id":"13db1415-349e-4c58-928f-dd2a6a86812a","system_id":"levelo_inurba_marseille","lat":43.315289,"lon":5.380349,"is_reserved":false,"is_disabled":false,"rental_uris":{"android":"levelo://app?vid=13db1415-349e-4c58-928f-dd2a6a86812a","ios":"levelo://app?vid=13db1415-349e-4c58-928f-dd2a6a86812a"},"vehicle_type_id":"4","last_reported":1714111865,"current_range_meters":30400,"station_id":"ce4bhsp2rcd13ifvqi50","pricing_plan_id":"cebpf4jnsgd1na2vs0mg"},{"bike_id":"8dc6b1ea-2bd0-4db0-88a0-0ba0ca421eef","system_id":"levelo_inurba_marseille","lat":43.315377,"lon":5.380194,"is_reserved":false,"is_disabled":false,"rental_uris":{"android":"levelo://app?vid=8dc6b1ea-2bd0-4db0-88a0-0ba0ca421eef","ios":"levelo://app?vid=8dc6b1ea-2bd0-4db0-88a0-0ba0ca421eef"},"vehicle_type_id":"4","last_reported":1714111865,"current_range_meters":15200,"station_id":"ce4bhsp2rcd13ifvqi50","pricing_plan_id":"cebpf4jnsgd1na2vs0mg"},{"bike_id":"4b175e9e-5847-4a78-a904-f606d8b3f6ec","system_id":"levelo_inurba_marseille","lat":43.315363,"lon":5.380231,"is_reserved":false,"is_disabled":false,"rental_uris":{"android":"levelo://app?vid=4b175e9e-5847-4a78-a904-f606d8b3f6ec","ios":"levelo://app?vid=4b175e9e-5847-4a78-a904-f606d8b3f6ec"},"vehicle_type_id":"4","last_reported":1714111865,"current_range_meters":26000,"station_id":"ce4bhsp2rcd13ifvqi50","pricing_plan_id":"cebpf4jnsgd1na2vs0mg"},{"bike_id":"156179b0-d823-447e-953a-cfa2f55a0f85","system_id":"levelo_inurba_marseille","lat":43.315331,"lon":5.380279,"is_reserved":false,"is_disabled":false,"rental_uris":{"android":"levelo://app?vid=156179b0-d823-447e-953a-cfa2f55a0f85","ios":"levelo://app?vid=156179b0-d823-447e-953a-cfa2f55a0f85"},"vehicle_type_id":"4","last_reported":1714111865,"current_range_meters":21600,"station_id":"ce4bhsp2rcd13ifvqi50","pricing_plan_id":"cebpf4jnsgd1na2vs0mg"},{"bike_id":"e3beb465-25e3-4b64-bbcf-53f7b10986ad","system_id":"levelo_inurba_marseille","lat":43.31529,"lon":5.380363,"is_reserved":false,"is_disabled":false,"rental_uris":{"android":"levelo://app?vid=e3beb465-25e3-4b64-bbcf-53f7b10986ad","ios":"levelo://app?vid=e3beb465-25e3-4b64-bbcf-53f7b10986ad"},"vehicle_type_id":"4","last_reported":1714111865,"current_range_meters":13600,"station_id":"ce4bhsp2rcd13ifvqi50","pricing_plan_id":"cebpf4jnsgd1na2vs0mg"},{"bike_id":"b11a6b67-5f82-4888-8999-3289ba1db30b","system_id":"levelo_inurba_marseille","lat":43.30801,"lon":5.381414,"is_reserved":false,"is_disabled":false,"rental_uris":{"android":"levelo://app?vid=b11a6b67-5f82-4888-8999-3289ba1db30b","ios":"levelo://app?vid=b11a6b67-5f82-4888-8999-3289ba1db30b"},"vehicle_type_id":"4","last_reported":1714111865,"current_range_meters":29600,"station_id":"ce4bgt12rcd13ifvqce0","pricing_plan_id":"cebpf4jnsgd1na2vs0mg"},{"bike_id":"c8d788f2-5a07-41d5-a942-b376b6c5c2b5","system_id":"levelo_inurba_marseille","lat":43.308,"lon":5.38145,"is_reserved":false,"is_disabled":false,"rental_uris":{"android":"levelo://app?vid=c8d788f2-5a07-41d5-a942-b376b6c5c2b5","ios":"levelo://app?vid=c8d788f2-5a07-41d5-a942-b376b6c5c2b5"},"vehicle_type_id":"4","last_reported":1714111865,"current_range_meters":31200,"station_id":"ce4bgt12rcd13ifvqce0","pricing_plan_id":"cebpf4jnsgd1na2vs0mg"},{"bike_id":"60048c2b-e257-403e-b304-639c73da545c","system_id":"levelo_inurba_marseille","lat":43.30804,"lon":5.381487,"is_reserved":false,"is_disabled":false,"rental_uris":{"android":"levelo://app?vid=60048c2b-e257-403e-b304-639c73da545c","ios":"levelo://app?vid=60048c2b-e257-403e-b304-639c73da545c"},"vehicle_type_id":"4","last_reported":1714111865,"current_range_meters":25600,"station_id":"ce4bgt12rcd13ifvqce0","pricing_plan_id":"cebpf4jnsgd1na2vs0mg"},{"bike_id":"8ff394ea-b829-441c-aea6-3c2ff3ce396e","system_id":"levelo_inurba_marseille","lat":43.308,"lon":5.3815,"is_reserved":false,"is_disabled":false,"rental_uris":{"android":"levelo://app?vid=8ff394ea-b829-441c-aea6-3c2ff3ce396e","ios":"levelo://app?vid=8ff394ea-b829-441c-aea6-3c2ff3ce396e"},"vehicle_type_id":"4","last_reported":1714111865,"current_range_meters":31200,"station_id":"ce4bgt12rcd13ifvqce0","pricing_plan_id":"cebpf4jnsgd1na2vs0mg"},{"bike_id":"75dbf4fd-edf9-4e12-ac81-a6a231ae035a","system_id":"levelo_inurba_marseille","lat":43.308033,"lon":5.38152,"is_reserved":false,"is_disabled":false,"rental_uris":{"android":"levelo://app?vid=75dbf4fd-edf9-4e12-ac81-a6a231ae035a","ios":"levelo://app?vid=75dbf4fd-edf9-4e12-ac81-a6a231ae035a"},"vehicle_type_id":"4","last_reported":1714111865,"current_range_meters":25600,"station_id":"ce4bgt12rcd13ifvqce0","pricing_plan_id":"cebpf4jnsgd1na2vs0mg"},{"bike_id":"a46ae5c1-a95c-4d48-a715-db0f89ad0623","system_id":"levelo_inurba_marseille","lat":43.30809,"lon":5.38158,"is_reserved":false,"is_disabled":false,"rental_uris":{"android":"levelo://app?vid=a46ae5c1-a95c-4d48-a715-db0f89ad0623","ios":"levelo://app?vid=a46ae5c1-a95c-4d48-a715-db0f89ad0623"},"vehicle_type_id":"4","last_reported":1714111865,"current_range_meters":23600,"station_id":"ce4bgt12rcd13ifvqce0","pricing_plan_id":"cebpf4jnsgd1na2vs0mg"},{"bike_id":"d288de57-8b24-4e96-b362-e6151266b72a","system_id":"levelo_inurba_marseille","lat":43.308009,"lon":5.381588,"is_reserved":false,"is_disabled":false,"rental_uris":{"android":"levelo://app?vid=d288de57-8b24-4e96-b362-e6151266b72a","ios":"levelo://app?vid=d288de57-8b24-4e96-b362-e6151266b72a"},"vehicle_type_id":"4","last_reported":1714111865,"current_range_meters":25600,"station_id":"ce4bgt12rcd13ifvqce0","pricing_plan_id":"cebpf4jnsgd1na2vs0mg"},{"bike_id":"627cbdc6-ffed-4cd5-80e6-84e462e70f87","system_id":"levelo_inurba_marseille","lat":43.30798,"lon":5.38159,"is_reserved":false,"is_disabled":false,"rental_uris":{"android":"levelo://app?vid=627cbdc6-ffed-4cd5-80e6-84e462e70f87","ios":"levelo://app?vid=627cbdc6-ffed-4cd5-80e6-84e462e70f87"},"vehicle_type_id":"4","last_reported":1714111865,"current_range_meters":28000,"station_id":"ce4bgt12rcd13ifvqce0","pricing_plan_id":"cebpf4jnsgd1na2vs0mg"},{"bike_id":"f98f202d-65e7-4fe6-b5ea-162fca10ba74","system_id":"levelo_inurba_marseille","lat":43.307983,"lon":5.381613,"is_reserved":false,"is_disabled":false,"rental_uris":{"android":"levelo://app?vid=f98f202d-65e7-4fe6-b5ea-162fca10ba74","ios":"levelo://app?vid=f98f202d-65e7-4fe6-b5ea-162fca10ba74"},"vehicle_type_id":"4","last_reported":1714111865,"current_range_meters":21600,"station_id":"ce4bgt12rcd13ifvqce0","pricing_plan_id":"cebpf4jnsgd1na2vs0mg"},{"bike_id":"a1aeccde-ed7c-4cb1-bf6f-34e60e403e85","system_id":"levelo_inurba_marseille","lat":43.307964,"lon":5.381611,"is_reserved":false,"is_disabled":false,"rental_uris":{"android":"levelo://app?vid=a1aeccde-ed7c-4cb1-bf6f-34e60e403e85","ios":"levelo://app?vid=a1aeccde-ed7c-4cb1-bf6f-34e60e403e85"},"vehicle_type_id":"4","last_reported":1714111865,"current_range_meters":30800,"station_id":"ce4bgt12rcd13ifvqce0","pricing_plan_id":"cebpf4jnsgd1na2vs0mg"},{"bike_id":"7d2230e5-88d7-450e-8e12-74e4542e42a2","system_id":"levelo_inurba_marseille","lat":43.308024,"lon":5.381679,"is_reserved":false,"is_disabled":false,"rental_uris":{"android":"levelo://app?vid=7d2230e5-88d7-450e-8e12-74e4542e42a2","ios":"levelo://app?vid=7d2230e5-88d7-450e-8e12-74e4542e42a2"},"vehicle_type_id":"4","last_reported":1714111865,"current_range_meters":21200,"station_id":"ce4bgt12rcd13ifvqce0","pricing_plan_id":"cebpf4jnsgd1na2vs0mg"},{"bike_id":"5a4277db-10f1-490c-bd1c-30ecc5b9d4fa","system_id":"levelo_inurba_marseille","lat":43.304606,"lon":5.379026,"is_reserved":false,"is_disabled":false,"rental_uris":{"android":"levelo://app?vid=5a4277db-10f1-490c-bd1c-30ecc5b9d4fa","ios":"levelo://app?vid=5a4277db-10f1-490c-bd1c-30ecc5b9d4fa"},"vehicle_type_id":"4","last_reported":1714111865,"current_range_meters":23600,"station_id":"ce4bgup2rcd13ifvqcn0","pricing_plan_id":"cebpf4jnsgd1na2vs0mg"},{"bike_id":"00edfb63-8cbc-4bcc-88f2-0ca5cd784cb0","system_id":"levelo_inurba_marseille","lat":43.30465,"lon":5.37891,"is_reserved":false,"is_disabled":false,"rental_uris":{"android":"levelo://app?vid=00edfb63-8cbc-4bcc-88f2-0ca5cd784cb0","ios":"levelo://app?vid=00edfb63-8cbc-4bcc-88f2-0ca5cd784cb0"},"vehicle_type_id":"4","last_reported":1714111865,"current_range_meters":11600,"station_id":"ce4bgup2rcd13ifvqcn0","pricing_plan_id":"cebpf4jnsgd1na2vs0mg"},{"bike_id":"26116d1d-b4c8-4bb9-a8db-91f234f6e34b","system_id":"levelo_inurba_marseille","lat":43.304606,"lon":5.379026,"is_reserved":false,"is_disabled":false,"rental_uris":{"android":"levelo://app?vid=26116d1d-b4c8-4bb9-a8db-91f234f6e34b","ios":"levelo://app?vid=26116d1d-b4c8-4bb9-a8db-91f234f6e34b"},"vehicle_type_id":"4","last_reported":1714111865,"current_range_meters":32000,"station_id":"ce4bgup2rcd13ifvqcn0","pricing_plan_id":"cebpf4jnsgd1na2vs0mg"},{"bike_id":"394bfcb0-916d-4bcc-b0ae-1d323dd76713","system_id":"levelo_inurba_marseille","lat":43.30469,"lon":5.37901,"is_reserved":false,"is_disabled":false,"rental_uris":{"android":"levelo://app?vid=394bfcb0-916d-4bcc-b0ae-1d323dd76713","ios":"levelo://app?vid=394bfcb0-916d-4bcc-b0ae-1d323dd76713"},"vehicle_type_id":"4","last_reported":1714111865,"current_range_meters":14000,"station_id":"ce4bgup2rcd13ifvqcn0","pricing_plan_id":"cebpf4jnsgd1na2vs0mg"},{"bike_id":"45b910d9-6e03-4abe-b3dd-398207152350","system_id":"levelo_inurba_marseille","lat":43.30473,"lon":5.37912,"is_reserved":false,"is_disabled":false,"rental_uris":{"android":"levelo://app?vid=45b910d9-6e03-4abe-b3dd-398207152350","ios":"levelo://app?vid=45b910d9-6e03-4abe-b3dd-398207152350"},"vehicle_type_id":"4","last_reported":1714111865,"current_range_meters":22400,"station_id":"ce4bgup2rcd13ifvqcn0","pricing_plan_id":"cebpf4jnsgd1na2vs0mg"},{"bike_id":"4631360f-62ce-4950-9525-2f035ed8d647","system_id":"levelo_inurba_marseille","lat":43.304606,"lon":5.379026,"is_reserved":false,"is_disabled":false,"rental_uris":{"android":"levelo://app?vid=4631360f-62ce-4950-9525-2f035ed8d647","ios":"levelo://app?vid=4631360f-62ce-4950-9525-2f035ed8d647"},"vehicle_type_id":"4","last_reported":1714111865,"current_range_meters":18000,"station_id":"ce4bgup2rcd13ifvqcn0","pricing_plan_id":"cebpf4jnsgd1na2vs0mg"},{"bike_id":"f178e27f-7785-4bf2-a7af-ecd57ea169c1","system_id":"levelo_inurba_marseille","lat":43.304606,"lon":5.379026,"is_reserved":false,"is_disabled":false,"rental_uris":{"android":"levelo://app?vid=f178e27f-7785-4bf2-a7af-ecd57ea169c1","ios":"levelo://app?vid=f178e27f-7785-4bf2-a7af-ecd57ea169c1"},"vehicle_type_id":"4","last_reported":1714111865,"current_range_meters":2400,"station_id":"ce4bgup2rcd13ifvqcn0","pricing_plan_id":"cebpf4jnsgd1na2vs0mg"},{"bike_id":"fa2d8a00-e8a6-419b-90f4-ec4bfe5ec671","system_id":"levelo_inurba_marseille","lat":43.304606,"lon":5.379026,"is_reserved":false,"is_disabled":false,"rental_uris":{"android":"levelo://app?vid=fa2d8a00-e8a6-419b-90f4-ec4bfe5ec671","ios":"levelo://app?vid=fa2d8a00-e8a6-419b-90f4-ec4bfe5ec671"},"vehicle_type_id":"4","last_reported":1714111865,"current_range_meters":31200,"station_id":"ce4bgup2rcd13ifvqcn0","pricing_plan_id":"cebpf4jnsgd1na2vs0mg"},{"bike_id":"9b6e3748-6611-464d-ba7b-95e4ed02edd2","system_id":"levelo_inurba_marseille","lat":43.3047,"lon":5.3791,"is_reserved":false,"is_disabled":false,"rental_uris":{"android":"levelo://app?vid=9b6e3748-6611-464d-ba7b-95e4ed02edd2","ios":"levelo://app?vid=9b6e3748-6611-464d-ba7b-95e4ed02edd2"},"vehicle_type_id":"4","last_reported":1714111865,"current_range_meters":6800,"station_id":"ce4bgup2rcd13ifvqcn0","pricing_plan_id":"cebpf4jnsgd1na2vs0mg"},{"bike_id":"1666e862-202d-4793-bdd7-1a466b8b17c1","system_id":"levelo_inurba_marseille","lat":43.304606,"lon":5.379026,"is_reserved":false,"is_disabled":false,"rental_uris":{"android":"levelo://app?vid=1666e862-202d-4793-bdd7-1a466b8b17c1","ios":"levelo://app?vid=1666e862-202d-4793-bdd7-1a466b8b17c1"},"vehicle_type_id":"4","last_reported":1714111865,"current_range_meters":14000,"station_id":"ce4bgup2rcd13ifvqcn0","pricing_plan_id":"cebpf4jnsgd1na2vs0mg"},{"bike_id":"4a79995a-71bb-4103-95a8-2fa32bfbc5ce","system_id":"levelo_inurba_marseille","lat":43.304668,"lon":5.379076,"is_reserved":false,"is_disabled":false,"rental_uris":{"android":"levelo://app?vid=4a79995a-71bb-4103-95a8-2fa32bfbc5ce","ios":"levelo://app?vid=4a79995a-71bb-4103-95a8-2fa32bfbc5ce"},"vehicle_type_id":"4","last_reported":1714111865,"current_range_meters":28000,"station_id":"ce4bgup2rcd13ifvqcn0","pricing_plan_id":"cebpf4jnsgd1na2vs0mg"},{"bike_id":"b929f95d-9df5-466a-ada1-878518e2fe5d","system_id":"levelo_inurba_marseille","lat":43.30467,"lon":5.37908,"is_reserved":false,"is_disabled":false,"rental_uris":{"android":"levelo://app?vid=b929f95d-9df5-466a-ada1-878518e2fe5d","ios":"levelo://app?vid=b929f95d-9df5-466a-ada1-878518e2fe5d"},"vehicle_type_id":"4","last_reported":1714111865,"current_range_meters":27200,"station_id":"ce4bgup2rcd13ifvqcn0","pricing_plan_id":"cebpf4jnsgd1na2vs0mg"},{"bike_id":"0da43d52-0d0e-4fc1-8d32-7e516815f812","system_id":"levelo_inurba_marseille","lat":43.30467,"lon":5.37909,"is_reserved":false,"is_disabled":false,"rental_uris":{"android":"levelo://app?vid=0da43d52-0d0e-4fc1-8d32-7e516815f812","ios":"levelo://app?vid=0da43d52-0d0e-4fc1-8d32-7e516815f812"},"vehicle_type_id":"4","last_reported":1714111865,"current_range_meters":20000,"station_id":"ce4bgup2rcd13ifvqcn0","pricing_plan_id":"cebpf4jnsgd1na2vs0mg"},{"bike_id":"4681c5e0-4ec0-4185-803c-6c1c0d90ea36","system_id":"levelo_inurba_marseille","lat":43.3046,"lon":5.37901,"is_reserved":false,"is_disabled":false,"rental_uris":{"android":"levelo://app?vid=4681c5e0-4ec0-4185-803c-6c1c0d90ea36","ios":"levelo://app?vid=4681c5e0-4ec0-4185-803c-6c1c0d90ea36"},"vehicle_type_id":"4","last_reported":1714111865,"current_range_meters":24000,"station_id":"ce4bgup2rcd13ifvqcn0","pricing_plan_id":"cebpf4jnsgd1na2vs0mg"},{"bike_id":"18e420b4-787c-41e7-ac1e-ff172409713a","system_id":"levelo_inurba_marseille","lat":43.30467,"lon":5.3791,"is_reserved":false,"is_disabled":false,"rental_uris":{"android":"levelo://app?vid=18e420b4-787c-41e7-ac1e-ff172409713a","ios":"levelo://app?vid=18e420b4-787c-41e7-ac1e-ff172409713a"},"vehicle_type_id":"4","last_reported":1714111865,"current_range_meters":2800,"station_id":"ce4bgup2rcd13ifvqcn0","pricing_plan_id":"cebpf4jnsgd1na2vs0mg"},{"bike_id":"8f3c8e33-7fc8-4a11-9ecb-76e4f84fd042","system_id":"levelo_inurba_marseille","lat":43.304606,"lon":5.379026,"is_reserved":false,"is_disabled":false,"rental_uris":{"android":"levelo://app?vid=8f3c8e33-7fc8-4a11-9ecb-76e4f84fd042","ios":"levelo://app?vid=8f3c8e33-7fc8-4a11-9ecb-76e4f84fd042"},"vehicle_type_id":"4","last_reported":1714111865,"current_range_meters":15200,"station_id":"ce4bgup2rcd13ifvqcn0","pricing_plan_id":"cebpf4jnsgd1na2vs0mg"},{"bike_id":"36bef69b-6d76-4c93-9230-e7216d40bda7","system_id":"levelo_inurba_marseille","lat":43.304606,"lon":5.379026,"is_reserved":false,"is_disabled":false,"rental_uris":{"android":"levelo://app?vid=36bef69b-6d76-4c93-9230-e7216d40bda7","ios":"levelo://app?vid=36bef69b-6d76-4c93-9230-e7216d40bda7"},"vehicle_type_id":"4","last_reported":1714111865,"current_range_meters":14400,"station_id":"ce4bgup2rcd13ifvqcn0","pricing_plan_id":"cebpf4jnsgd1na2vs0mg"},{"bike_id":"9abb3ab9-ba7a-4136-a8b6-d74922db284e","system_id":"levelo_inurba_marseille","lat":43.304598,"lon":5.379019,"is_reserved":false,"is_disabled":false,"rental_uris":{"android":"levelo://app?vid=9abb3ab9-ba7a-4136-a8b6-d74922db284e","ios":"levelo://app?vid=9abb3ab9-ba7a-4136-a8b6-d74922db284e"},"vehicle_type_id":"4","last_reported":1714111865,"current_range_meters":20000,"station_id":"ce4bgup2rcd13ifvqcn0","pricing_plan_id":"cebpf4jnsgd1na2vs0mg"},{"bike_id":"043a102c-378a-44f9-a863-a31bd3e28e39","system_id":"levelo_inurba_marseille","lat":43.30463,"lon":5.37906,"is_reserved":false,"is_disabled":false,"rental_uris":{"android":"levelo://app?vid=043a102c-378a-44f9-a863-a31bd3e28e39","ios":"levelo://app?vid=043a102c-378a-44f9-a863-a31bd3e28e39"},"vehicle_type_id":"4","last_reported":1714111865,"current_range_meters":22000,"station_id":"ce4bgup2rcd13ifvqcn0","pricing_plan_id":"cebpf4jnsgd1na2vs0mg"},{"bike_id":"cfe9598e-7e8c-4aa6-baa4-6b554833cb3a","system_id":"levelo_inurba_marseille","lat":43.304606,"lon":5.379026,"is_reserved":false,"is_disabled":false,"rental_uris":{"android":"levelo://app?vid=cfe9598e-7e8c-4aa6-baa4-6b554833cb3a","ios":"levelo://app?vid=cfe9598e-7e8c-4aa6-baa4-6b554833cb3a"},"vehicle_type_id":"4","last_reported":1714111865,"current_range_meters":17600,"station_id":"ce4bgup2rcd13ifvqcn0","pricing_plan_id":"cebpf4jnsgd1na2vs0mg"},{"bike_id":"84793e46-2871-4587-92e3-1a2d894cd068","system_id":"levelo_inurba_marseille","lat":43.304655,"lon":5.379095,"is_reserved":false,"is_disabled":false,"rental_uris":{"android":"levelo://app?vid=84793e46-2871-4587-92e3-1a2d894cd068","ios":"levelo://app?vid=84793e46-2871-4587-92e3-1a2d894cd068"},"vehicle_type_id":"4","last_reported":1714111865,"current_range_meters":15200,"station_id":"ce4bgup2rcd13ifvqcn0","pricing_plan_id":"cebpf4jnsgd1na2vs0mg"},{"bike_id":"828b32dc-18a8-457a-8617-5743e3ed1455","system_id":"levelo_inurba_marseille","lat":43.304606,"lon":5.379026,"is_reserved":false,"is_disabled":false,"rental_uris":{"android":"levelo://app?vid=828b32dc-18a8-457a-8617-5743e3ed1455","ios":"levelo://app?vid=828b32dc-18a8-457a-8617-5743e3ed1455"},"vehicle_type_id":"4","last_reported":1714111865,"current_range_meters":21600,"station_id":"ce4bgup2rcd13ifvqcn0","pricing_plan_id":"cebpf4jnsgd1na2vs0mg"},{"bike_id":"71332c52-6aae-4ee4-89ee-b085856d3d4b","system_id":"levelo_inurba_marseille","lat":43.30468,"lon":5.37914,"is_reserved":false,"is_disabled":false,"rental_uris":{"android":"levelo://app?vid=71332c52-6aae-4ee4-89ee-b085856d3d4b","ios":"levelo://app?vid=71332c52-6aae-4ee4-89ee-b085856d3d4b"},"vehicle_type_id":"4","last_reported":1714111865,"current_range_meters":29200,"station_id":"ce4bgup2rcd13ifvqcn0","pricing_plan_id":"cebpf4jnsgd1na2vs0mg"},{"bike_id":"07315c66-64eb-4bf1-8c1b-7c123922b4fc","system_id":"levelo_inurba_marseille","lat":43.30464,"lon":5.37909,"is_reserved":false,"is_disabled":false,"rental_uris":{"android":"levelo://app?vid=07315c66-64eb-4bf1-8c1b-7c123922b4fc","ios":"levelo://app?vid=07315c66-64eb-4bf1-8c1b-7c123922b4fc"},"vehicle_type_id":"4","last_reported":1714111865,"current_range_meters":23600,"station_id":"ce4bgup2rcd13ifvqcn0","pricing_plan_id":"cebpf4jnsgd1na2vs0mg"},{"bike_id":"b021eeb6-d8af-4f3b-9ec1-125b8547dcf5","system_id":"levelo_inurba_marseille","lat":43.304606,"lon":5.379026,"is_reserved":false,"is_disabled":false,"rental_uris":{"android":"levelo://app?vid=b021eeb6-d8af-4f3b-9ec1-125b8547dcf5","ios":"levelo://app?vid=b021eeb6-d8af-4f3b-9ec1-125b8547dcf5"},"vehicle_type_id":"4","last_reported":1714111865,"current_range_meters":6400,"station_id":"ce4bgup2rcd13ifvqcn0","pricing_plan_id":"cebpf4jnsgd1na2vs0mg"},{"bike_id":"b0477677-9ebb-489f-b45f-a159d636501a","system_id":"levelo_inurba_marseille","lat":43.304606,"lon":5.379026,"is_reserved":false,"is_disabled":false,"rental_uris":{"android":"levelo://app?vid=b0477677-9ebb-489f-b45f-a159d636501a","ios":"levelo://app?vid=b0477677-9ebb-489f-b45f-a159d636501a"},"vehicle_type_id":"4","last_reported":1714111865,"current_range_meters":0,"station_id":"ce4bgup2rcd13ifvqcn0","pricing_plan_id":"cebpf4jnsgd1na2vs0mg"},{"bike_id":"1a2e769b-99d8-4e01-9f67-785ab93bd67f","system_id":"levelo_inurba_marseille","lat":43.304606,"lon":5.379026,"is_reserved":false,"is_disabled":false,"rental_uris":{"android":"levelo://app?vid=1a2e769b-99d8-4e01-9f67-785ab93bd67f","ios":"levelo://app?vid=1a2e769b-99d8-4e01-9f67-785ab93bd67f"},"vehicle_type_id":"4","last_reported":1714111865,"current_range_meters":32000,"station_id":"ce4bgup2rcd13ifvqcn0","pricing_plan_id":"cebpf4jnsgd1na2vs0mg"},{"bike_id":"9ebc8ee2-1e3a-4caf-b40d-7dafdb203cfb","system_id":"levelo_inurba_marseille","lat":43.30463,"lon":5.3791,"is_reserved":false,"is_disabled":false,"rental_uris":{"android":"levelo://app?vid=9ebc8ee2-1e3a-4caf-b40d-7dafdb203cfb","ios":"levelo://app?vid=9ebc8ee2-1e3a-4caf-b40d-7dafdb203cfb"},"vehicle_type_id":"4","last_reported":1714111865,"current_range_meters":0,"station_id":"ce4bgup2rcd13ifvqcn0","pricing_plan_id":"cebpf4jnsgd1na2vs0mg"},{"bike_id":"1cda4272-590e-40a2-b7ac-be6cedb3dcef","system_id":"levelo_inurba_marseille","lat":43.3046,"lon":5.3791,"is_reserved":false,"is_disabled":false,"rental_uris":{"android":"levelo://app?vid=1cda4272-590e-40a2-b7ac-be6cedb3dcef","ios":"levelo://app?vid=1cda4272-590e-40a2-b7ac-be6cedb3dcef"},"vehicle_type_id":"4","last_reported":1714111865,"current_range_meters":3200,"station_id":"ce4bgup2rcd13ifvqcn0","pricing_plan_id":"cebpf4jnsgd1na2vs0mg"},{"bike_id":"59086833-b1f7-4146-8425-9f148539be2a","system_id":"levelo_inurba_marseille","lat":43.30455,"lon":5.37904,"is_reserved":false,"is_disabled":false,"rental_uris":{"android":"levelo://app?vid=59086833-b1f7-4146-8425-9f148539be2a","ios":"levelo://app?vid=59086833-b1f7-4146-8425-9f148539be2a"},"vehicle_type_id":"4","last_reported":1714111865,"current_range_meters":22000,"station_id":"ce4bgup2rcd13ifvqcn0","pricing_plan_id":"cebpf4jnsgd1na2vs0mg"},{"bike_id":"d4ee49e1-9a0c-4969-b4c3-386d2adc7a1c","system_id":"levelo_inurba_marseille","lat":43.30463,"lon":5.37916,"is_reserved":false,"is_disabled":false,"rental_uris":{"android":"levelo://app?vid=d4ee49e1-9a0c-4969-b4c3-386d2adc7a1c","ios":"levelo://app?vid=d4ee49e1-9a0c-4969-b4c3-386d2adc7a1c"},"vehicle_type_id":"4","last_reported":1714111865,"current_range_meters":28400,"station_id":"ce4bgup2rcd13ifvqcn0","pricing_plan_id":"cebpf4jnsgd1na2vs0mg"},{"bike_id":"10ebc90d-dc0e-40ec-85e1-f1d356783882","system_id":"levelo_inurba_marseille","lat":43.304606,"lon":5.379026,"is_reserved":false,"is_disabled":false,"rental_uris":{"android":"levelo://app?vid=10ebc90d-dc0e-40ec-85e1-f1d356783882","ios":"levelo://app?vid=10ebc90d-dc0e-40ec-85e1-f1d356783882"},"vehicle_type_id":"4","last_reported":1714111865,"current_range_meters":8000,"station_id":"ce4bgup2rcd13ifvqcn0","pricing_plan_id":"cebpf4jnsgd1na2vs0mg"},{"bike_id":"0cb92dc3-ca0e-49f8-9882-dfb98fef8965","system_id":"levelo_inurba_marseille","lat":43.304606,"lon":5.379026,"is_reserved":false,"is_disabled":false,"rental_uris":{"android":"levelo://app?vid=0cb92dc3-ca0e-49f8-9882-dfb98fef8965","ios":"levelo://app?vid=0cb92dc3-ca0e-49f8-9882-dfb98fef8965"},"vehicle_type_id":"4","last_reported":1714111865,"current_range_meters":26000,"station_id":"ce4bgup2rcd13ifvqcn0","pricing_plan_id":"cebpf4jnsgd1na2vs0mg"},{"bike_id":"395a7ae1-ed8f-4fbc-a020-35b8556b867c","system_id":"levelo_inurba_marseille","lat":43.324771,"lon":5.36557,"is_reserved":false,"is_disabled":false,"rental_uris":{"android":"levelo://app?vid=395a7ae1-ed8f-4fbc-a020-35b8556b867c","ios":"levelo://app?vid=395a7ae1-ed8f-4fbc-a020-35b8556b867c"},"vehicle_type_id":"4","last_reported":1714111865,"current_range_meters":20800,"station_id":"ce4bhs12rcd13ifvqhvg","pricing_plan_id":"cebpf4jnsgd1na2vs0mg"},{"bike_id":"684ca32b-421d-46fc-85d1-dc2a176cabf5","system_id":"levelo_inurba_marseille","lat":43.3248,"lon":5.365716,"is_reserved":false,"is_disabled":false,"rental_uris":{"android":"levelo://app?vid=684ca32b-421d-46fc-85d1-dc2a176cabf5","ios":"levelo://app?vid=684ca32b-421d-46fc-85d1-dc2a176cabf5"},"vehicle_type_id":"4","last_reported":1714111865,"current_range_meters":23200,"station_id":"ce4bhs12rcd13ifvqhvg","pricing_plan_id":"cebpf4jnsgd1na2vs0mg"},{"bike_id":"ca4ca187-799d-46f4-a1d1-32619e2f58ca","system_id":"levelo_inurba_marseille","lat":43.324771,"lon":5.36557,"is_reserved":false,"is_disabled":false,"rental_uris":{"android":"levelo://app?vid=ca4ca187-799d-46f4-a1d1-32619e2f58ca","ios":"levelo://app?vid=ca4ca187-799d-46f4-a1d1-32619e2f58ca"},"vehicle_type_id":"4","last_reported":1714111865,"current_range_meters":26800,"station_id":"ce4bhs12rcd13ifvqhvg","pricing_plan_id":"cebpf4jnsgd1na2vs0mg"},{"bike_id":"9f67effd-7158-4680-aa26-41855f3aba3f","system_id":"levelo_inurba_marseille","lat":43.324771,"lon":5.36557,"is_reserved":false,"is_disabled":false,"rental_uris":{"android":"levelo://app?vid=9f67effd-7158-4680-aa26-41855f3aba3f","ios":"levelo://app?vid=9f67effd-7158-4680-aa26-41855f3aba3f"},"vehicle_type_id":"4","last_reported":1714111865,"current_range_meters":30800,"station_id":"ce4bhs12rcd13ifvqhvg","pricing_plan_id":"cebpf4jnsgd1na2vs0mg"},{"bike_id":"e7467c82-0d42-4813-a3e5-8b0fe2f5bd7b","system_id":"levelo_inurba_marseille","lat":43.324771,"lon":5.36557,"is_reserved":false,"is_disabled":false,"rental_uris":{"android":"levelo://app?vid=e7467c82-0d42-4813-a3e5-8b0fe2f5bd7b","ios":"levelo://app?vid=e7467c82-0d42-4813-a3e5-8b0fe2f5bd7b"},"vehicle_type_id":"4","last_reported":1714111865,"current_range_meters":18400,"station_id":"ce4bhs12rcd13ifvqhvg","pricing_plan_id":"cebpf4jnsgd1na2vs0mg"},{"bike_id":"327cc224-b7e4-4ef1-a3d0-a7cc12dace3a","system_id":"levelo_inurba_marseille","lat":43.324817,"lon":5.365704,"is_reserved":false,"is_disabled":false,"rental_uris":{"android":"levelo://app?vid=327cc224-b7e4-4ef1-a3d0-a7cc12dace3a","ios":"levelo://app?vid=327cc224-b7e4-4ef1-a3d0-a7cc12dace3a"},"vehicle_type_id":"4","last_reported":1714111865,"current_range_meters":27200,"station_id":"ce4bhs12rcd13ifvqhvg","pricing_plan_id":"cebpf4jnsgd1na2vs0mg"},{"bike_id":"8f88d152-971d-4d2c-8874-d58372618b70","system_id":"levelo_inurba_marseille","lat":43.324828,"lon":5.365648,"is_reserved":false,"is_disabled":false,"rental_uris":{"android":"levelo://app?vid=8f88d152-971d-4d2c-8874-d58372618b70","ios":"levelo://app?vid=8f88d152-971d-4d2c-8874-d58372618b70"},"vehicle_type_id":"4","last_reported":1714111865,"current_range_meters":26000,"station_id":"ce4bhs12rcd13ifvqhvg","pricing_plan_id":"cebpf4jnsgd1na2vs0mg"},{"bike_id":"f49a684d-610a-4500-a8c0-16dc58fc4d13","system_id":"levelo_inurba_marseille","lat":43.324771,"lon":5.36557,"is_reserved":false,"is_disabled":false,"rental_uris":{"android":"levelo://app?vid=f49a684d-610a-4500-a8c0-16dc58fc4d13","ios":"levelo://app?vid=f49a684d-610a-4500-a8c0-16dc58fc4d13"},"vehicle_type_id":"4","last_reported":1714111865,"current_range_meters":10400,"station_id":"ce4bhs12rcd13ifvqhvg","pricing_plan_id":"cebpf4jnsgd1na2vs0mg"},{"bike_id":"375b50fc-ac68-40dd-ad99-add96c82b6e9","system_id":"levelo_inurba_marseille","lat":43.324842,"lon":5.365539,"is_reserved":false,"is_disabled":false,"rental_uris":{"android":"levelo://app?vid=375b50fc-ac68-40dd-ad99-add96c82b6e9","ios":"levelo://app?vid=375b50fc-ac68-40dd-ad99-add96c82b6e9"},"vehicle_type_id":"4","last_reported":1714111865,"current_range_meters":4000,"station_id":"ce4bhs12rcd13ifvqhvg","pricing_plan_id":"cebpf4jnsgd1na2vs0mg"},{"bike_id":"6c4e726c-b26b-4f53-be64-3b2e6123366e","system_id":"levelo_inurba_marseille","lat":43.304606,"lon":5.379026,"is_reserved":false,"is_disabled":false,"rental_uris":{"android":"levelo://app?vid=6c4e726c-b26b-4f53-be64-3b2e6123366e","ios":"levelo://app?vid=6c4e726c-b26b-4f53-be64-3b2e6123366e"},"vehicle_type_id":"4","last_reported":1714111865,"current_range_meters":30800,"station_id":"ce4bgup2rcd13ifvqcn0","pricing_plan_id":"cebpf4jnsgd1na2vs0mg"},{"bike_id":"63ab2ed9-215c-4824-9f5e-02a5da79b041","system_id":"levelo_inurba_marseille","lat":43.292749,"lon":5.368402,"is_reserved":false,"is_disabled":false,"rental_uris":{"android":"levelo://app?vid=63ab2ed9-215c-4824-9f5e-02a5da79b041","ios":"levelo://app?vid=63ab2ed9-215c-4824-9f5e-02a5da79b041"},"vehicle_type_id":"4","last_reported":1714111865,"current_range_meters":0,"station_id":"ce4bhbp2rcd13ifvqesg","pricing_plan_id":"cebpf4jnsgd1na2vs0mg"},{"bike_id":"9a9ded84-a7c2-42de-87ff-5efa3598b87a","system_id":"levelo_inurba_marseille","lat":43.31069,"lon":5.383446,"is_reserved":false,"is_disabled":false,"rental_uris":{"android":"levelo://app?vid=9a9ded84-a7c2-42de-87ff-5efa3598b87a","ios":"levelo://app?vid=9a9ded84-a7c2-42de-87ff-5efa3598b87a"},"vehicle_type_id":"4","last_reported":1714111865,"current_range_meters":30800,"station_id":"ce4bgv92rcd13ifvqcr0","pricing_plan_id":"cebpf4jnsgd1na2vs0mg"},{"bike_id":"3b7b3feb-09b9-44bc-9646-c820c5dd160f","system_id":"levelo_inurba_marseille","lat":43.310698,"lon":5.38351,"is_reserved":false,"is_disabled":false,"rental_uris":{"android":"levelo://app?vid=3b7b3feb-09b9-44bc-9646-c820c5dd160f","ios":"levelo://app?vid=3b7b3feb-09b9-44bc-9646-c820c5dd160f"},"vehicle_type_id":"4","last_reported":1714111865,"current_range_meters":31200,"station_id":"ce4bgv92rcd13ifvqcr0","pricing_plan_id":"cebpf4jnsgd1na2vs0mg"},{"bike_id":"e32e3623-424f-442a-baff-7c1fda8f3a64","system_id":"levelo_inurba_marseille","lat":43.310695,"lon":5.38351,"is_reserved":false,"is_disabled":false,"rental_uris":{"android":"levelo://app?vid=e32e3623-424f-442a-baff-7c1fda8f3a64","ios":"levelo://app?vid=e32e3623-424f-442a-baff-7c1fda8f3a64"},"vehicle_type_id":"4","last_reported":1714111865,"current_range_meters":30800,"station_id":"ce4bgv92rcd13ifvqcr0","pricing_plan_id":"cebpf4jnsgd1na2vs0mg"},{"bike_id":"a8486839-3750-48ba-9549-14aa0e6b7c39","system_id":"levelo_inurba_marseille","lat":43.31066,"lon":5.383513,"is_reserved":false,"is_disabled":false,"rental_uris":{"android":"levelo://app?vid=a8486839-3750-48ba-9549-14aa0e6b7c39","ios":"levelo://app?vid=a8486839-3750-48ba-9549-14aa0e6b7c39"},"vehicle_type_id":"4","last_reported":1714111865,"current_range_meters":22000,"station_id":"ce4bgv92rcd13ifvqcr0","pricing_plan_id":"cebpf4jnsgd1na2vs0mg"},{"bike_id":"c23ff1fb-c5f3-41e9-a8a0-e48f9e682b14","system_id":"levelo_inurba_marseille","lat":43.310804,"lon":5.38359,"is_reserved":false,"is_disabled":false,"rental_uris":{"android":"levelo://app?vid=c23ff1fb-c5f3-41e9-a8a0-e48f9e682b14","ios":"levelo://app?vid=c23ff1fb-c5f3-41e9-a8a0-e48f9e682b14"},"vehicle_type_id":"4","last_reported":1714111865,"current_range_meters":23600,"station_id":"ce4bgv92rcd13ifvqcr0","pricing_plan_id":"cebpf4jnsgd1na2vs0mg"},{"bike_id":"26631cb1-0700-4d50-94f0-82f2458d0567","system_id":"levelo_inurba_marseille","lat":43.31068,"lon":5.38357,"is_reserved":false,"is_disabled":false,"rental_uris":{"android":"levelo://app?vid=26631cb1-0700-4d50-94f0-82f2458d0567","ios":"levelo://app?vid=26631cb1-0700-4d50-94f0-82f2458d0567"},"vehicle_type_id":"4","last_reported":1714111865,"current_range_meters":28800,"station_id":"ce4bgv92rcd13ifvqcr0","pricing_plan_id":"cebpf4jnsgd1na2vs0mg"},{"bike_id":"371ce480-326a-4569-8e56-9687cd2cf1f7","system_id":"levelo_inurba_marseille","lat":43.310804,"lon":5.38359,"is_reserved":false,"is_disabled":false,"rental_uris":{"android":"levelo://app?vid=371ce480-326a-4569-8e56-9687cd2cf1f7","ios":"levelo://app?vid=371ce480-326a-4569-8e56-9687cd2cf1f7"},"vehicle_type_id":"4","last_reported":1714111865,"current_range_meters":28800,"station_id":"ce4bgv92rcd13ifvqcr0","pricing_plan_id":"cebpf4jnsgd1na2vs0mg"},{"bike_id":"7c196fba-b052-4a83-82ea-fac70ada747d","system_id":"levelo_inurba_marseille","lat":43.31062,"lon":5.3836,"is_reserved":false,"is_disabled":false,"rental_uris":{"android":"levelo://app?vid=7c196fba-b052-4a83-82ea-fac70ada747d","ios":"levelo://app?vid=7c196fba-b052-4a83-82ea-fac70ada747d"},"vehicle_type_id":"4","last_reported":1714111865,"current_range_meters":27200,"station_id":"ce4bgv92rcd13ifvqcr0","pricing_plan_id":"cebpf4jnsgd1na2vs0mg"},{"bike_id":"e7147ef6-6bd6-4836-988d-5378eacbaebe","system_id":"levelo_inurba_marseille","lat":43.302784,"lon":5.377158,"is_reserved":false,"is_disabled":false,"rental_uris":{"android":"levelo://app?vid=e7147ef6-6bd6-4836-988d-5378eacbaebe","ios":"levelo://app?vid=e7147ef6-6bd6-4836-988d-5378eacbaebe"},"vehicle_type_id":"4","last_reported":1714111865,"current_range_meters":30000,"station_id":"ce4bguh2rcd13ifvqcj0","pricing_plan_id":"cebpf4jnsgd1na2vs0mg"},{"bike_id":"7d3d26d1-8046-4579-b617-a9b1b2f368c0","system_id":"levelo_inurba_marseille","lat":43.310804,"lon":5.38359,"is_reserved":false,"is_disabled":false,"rental_uris":{"android":"levelo://app?vid=7d3d26d1-8046-4579-b617-a9b1b2f368c0","ios":"levelo://app?vid=7d3d26d1-8046-4579-b617-a9b1b2f368c0"},"vehicle_type_id":"4","last_reported":1714111865,"current_range_meters":31200,"station_id":"ce4bgv92rcd13ifvqcr0","pricing_plan_id":"cebpf4jnsgd1na2vs0mg"},{"bike_id":"a7292b7c-9f76-48be-868b-e2643ec7cb42","system_id":"levelo_inurba_marseille","lat":43.302784,"lon":5.377158,"is_reserved":false,"is_disabled":false,"rental_uris":{"android":"levelo://app?vid=a7292b7c-9f76-48be-868b-e2643ec7cb42","ios":"levelo://app?vid=a7292b7c-9f76-48be-868b-e2643ec7cb42"},"vehicle_type_id":"4","last_reported":1714111865,"current_range_meters":28800,"station_id":"ce4bguh2rcd13ifvqcj0","pricing_plan_id":"cebpf4jnsgd1na2vs0mg"},{"bike_id":"01a72cb9-cf98-4b2c-9bb4-2af6f731b504","system_id":"levelo_inurba_marseille","lat":43.30143,"lon":5.37413,"is_reserved":false,"is_disabled":false,"rental_uris":{"android":"levelo://app?vid=01a72cb9-cf98-4b2c-9bb4-2af6f731b504","ios":"levelo://app?vid=01a72cb9-cf98-4b2c-9bb4-2af6f731b504"},"vehicle_type_id":"4","last_reported":1714111865,"current_range_meters":8400,"station_id":"ce4bgs92rcd13ifvqcc0","pricing_plan_id":"cebpf4jnsgd1na2vs0mg"},{"bike_id":"a08319c8-a8ad-4e4e-8ec5-565205abb636","system_id":"levelo_inurba_marseille","lat":43.30143,"lon":5.37413,"is_reserved":false,"is_disabled":false,"rental_uris":{"android":"levelo://app?vid=a08319c8-a8ad-4e4e-8ec5-565205abb636","ios":"levelo://app?vid=a08319c8-a8ad-4e4e-8ec5-565205abb636"},"vehicle_type_id":"4","last_reported":1714111865,"current_range_meters":29200,"station_id":"ce4bgs92rcd13ifvqcc0","pricing_plan_id":"cebpf4jnsgd1na2vs0mg"},{"bike_id":"26a47553-0386-4780-81b0-27e4d2f4e9d4","system_id":"levelo_inurba_marseille","lat":43.30143,"lon":5.37413,"is_reserved":false,"is_disabled":false,"rental_uris":{"android":"levelo://app?vid=26a47553-0386-4780-81b0-27e4d2f4e9d4","ios":"levelo://app?vid=26a47553-0386-4780-81b0-27e4d2f4e9d4"},"vehicle_type_id":"4","last_reported":1714111865,"current_range_meters":32000,"station_id":"ce4bgs92rcd13ifvqcc0","pricing_plan_id":"cebpf4jnsgd1na2vs0mg"},{"bike_id":"0af85abb-f5c8-4b71-a8ae-c68fe00270c3","system_id":"levelo_inurba_marseille","lat":43.301429,"lon":5.37413,"is_reserved":false,"is_disabled":false,"rental_uris":{"android":"levelo://app?vid=0af85abb-f5c8-4b71-a8ae-c68fe00270c3","ios":"levelo://app?vid=0af85abb-f5c8-4b71-a8ae-c68fe00270c3"},"vehicle_type_id":"4","last_reported":1714111865,"current_range_meters":27600,"station_id":"ce4bgs92rcd13ifvqcc0","pricing_plan_id":"cebpf4jnsgd1na2vs0mg"},{"bike_id":"7a76848b-e944-451c-b5d0-2cf12a6bc254","system_id":"levelo_inurba_marseille","lat":43.301429,"lon":5.37413,"is_reserved":false,"is_disabled":false,"rental_uris":{"android":"levelo://app?vid=7a76848b-e944-451c-b5d0-2cf12a6bc254","ios":"levelo://app?vid=7a76848b-e944-451c-b5d0-2cf12a6bc254"},"vehicle_type_id":"4","last_reported":1714111865,"current_range_meters":28000,"station_id":"ce4bgs92rcd13ifvqcc0","pricing_plan_id":"cebpf4jnsgd1na2vs0mg"},{"bike_id":"6ea5a91e-be92-483d-96a0-26a82cee1328","system_id":"levelo_inurba_marseille","lat":43.30143,"lon":5.37413,"is_reserved":false,"is_disabled":false,"rental_uris":{"android":"levelo://app?vid=6ea5a91e-be92-483d-96a0-26a82cee1328","ios":"levelo://app?vid=6ea5a91e-be92-483d-96a0-26a82cee1328"},"vehicle_type_id":"4","last_reported":1714111865,"current_range_meters":23600,"station_id":"ce4bgs92rcd13ifvqcc0","pricing_plan_id":"cebpf4jnsgd1na2vs0mg"},{"bike_id":"efb9a8fe-2b5c-4a68-98eb-425fbc1d8bc1","system_id":"levelo_inurba_marseille","lat":43.302784,"lon":5.377158,"is_reserved":false,"is_disabled":false,"rental_uris":{"android":"levelo://app?vid=efb9a8fe-2b5c-4a68-98eb-425fbc1d8bc1","ios":"levelo://app?vid=efb9a8fe-2b5c-4a68-98eb-425fbc1d8bc1"},"vehicle_type_id":"4","last_reported":1714111865,"current_range_meters":24000,"station_id":"ce4bguh2rcd13ifvqcj0","pricing_plan_id":"cebpf4jnsgd1na2vs0mg"},{"bike_id":"e2f040b5-ec1a-47cb-b378-68bff3c0f409","system_id":"levelo_inurba_marseille","lat":43.301939,"lon":5.366286,"is_reserved":false,"is_disabled":false,"rental_uris":{"android":"levelo://app?vid=e2f040b5-ec1a-47cb-b378-68bff3c0f409","ios":"levelo://app?vid=e2f040b5-ec1a-47cb-b378-68bff3c0f409"},"vehicle_type_id":"4","last_reported":1714111865,"current_range_meters":20400,"station_id":"ce4bgrh2rcd13ifvqc8g","pricing_plan_id":"cebpf4jnsgd1na2vs0mg"},{"bike_id":"e16b0f70-3afa-4cc0-ac55-4687767443dc","system_id":"levelo_inurba_marseille","lat":43.304606,"lon":5.379026,"is_reserved":false,"is_disabled":false,"rental_uris":{"android":"levelo://app?vid=e16b0f70-3afa-4cc0-ac55-4687767443dc","ios":"levelo://app?vid=e16b0f70-3afa-4cc0-ac55-4687767443dc"},"vehicle_type_id":"4","last_reported":1714111865,"current_range_meters":16800,"station_id":"ce4bgup2rcd13ifvqcn0","pricing_plan_id":"cebpf4jnsgd1na2vs0mg"},{"bike_id":"c392d2a5-7b30-4977-9da0-86522e68a790","system_id":"levelo_inurba_marseille","lat":43.319935,"lon":5.381699,"is_reserved":false,"is_disabled":false,"rental_uris":{"android":"levelo://app?vid=c392d2a5-7b30-4977-9da0-86522e68a790","ios":"levelo://app?vid=c392d2a5-7b30-4977-9da0-86522e68a790"},"vehicle_type_id":"4","last_reported":1714111865,"current_range_meters":7200,"station_id":"ce4bhr12rcd13ifvqhpg","pricing_plan_id":"cebpf4jnsgd1na2vs0mg"},{"bike_id":"020ea818-e1e9-4b98-9c11-85843b7a4c6b","system_id":"levelo_inurba_marseille","lat":43.313571,"lon":5.384829,"is_reserved":false,"is_disabled":false,"rental_uris":{"android":"levelo://app?vid=020ea818-e1e9-4b98-9c11-85843b7a4c6b","ios":"levelo://app?vid=020ea818-e1e9-4b98-9c11-85843b7a4c6b"},"vehicle_type_id":"4","last_reported":1714111865,"current_range_meters":22800,"station_id":"ce4bgt92rcd13ifvqcf0","pricing_plan_id":"cebpf4jnsgd1na2vs0mg"},{"bike_id":"06d05ac4-11f4-4372-a282-c5e7224b7558","system_id":"levelo_inurba_marseille","lat":43.313571,"lon":5.384829,"is_reserved":false,"is_disabled":false,"rental_uris":{"android":"levelo://app?vid=06d05ac4-11f4-4372-a282-c5e7224b7558","ios":"levelo://app?vid=06d05ac4-11f4-4372-a282-c5e7224b7558"},"vehicle_type_id":"4","last_reported":1714111865,"current_range_meters":25200,"station_id":"ce4bgt92rcd13ifvqcf0","pricing_plan_id":"cebpf4jnsgd1na2vs0mg"},{"bike_id":"02925292-817e-4a82-9af9-403e1e55a906","system_id":"levelo_inurba_marseille","lat":43.313571,"lon":5.384829,"is_reserved":false,"is_disabled":false,"rental_uris":{"android":"levelo://app?vid=02925292-817e-4a82-9af9-403e1e55a906","ios":"levelo://app?vid=02925292-817e-4a82-9af9-403e1e55a906"},"vehicle_type_id":"4","last_reported":1714111865,"current_range_meters":26000,"station_id":"ce4bgt92rcd13ifvqcf0","pricing_plan_id":"cebpf4jnsgd1na2vs0mg"},{"bike_id":"66126f5e-5ccd-4775-83eb-3d0f49294a17","system_id":"levelo_inurba_marseille","lat":43.313571,"lon":5.384829,"is_reserved":false,"is_disabled":false,"rental_uris":{"android":"levelo://app?vid=66126f5e-5ccd-4775-83eb-3d0f49294a17","ios":"levelo://app?vid=66126f5e-5ccd-4775-83eb-3d0f49294a17"},"vehicle_type_id":"4","last_reported":1714111865,"current_range_meters":16400,"station_id":"ce4bgt92rcd13ifvqcf0","pricing_plan_id":"cebpf4jnsgd1na2vs0mg"},{"bike_id":"488c5e75-2b06-45c3-9e10-ff61d00eb31e","system_id":"levelo_inurba_marseille","lat":43.313553,"lon":5.385051,"is_reserved":false,"is_disabled":false,"rental_uris":{"android":"levelo://app?vid=488c5e75-2b06-45c3-9e10-ff61d00eb31e","ios":"levelo://app?vid=488c5e75-2b06-45c3-9e10-ff61d00eb31e"},"vehicle_type_id":"4","last_reported":1714111865,"current_range_meters":0,"station_id":"ce4bgt92rcd13ifvqcf0","pricing_plan_id":"cebpf4jnsgd1na2vs0mg"},{"bike_id":"e6a749fa-0111-49e4-8192-0237b1dcadbe","system_id":"levelo_inurba_marseille","lat":43.305714,"lon":5.365633,"is_reserved":false,"is_disabled":false,"rental_uris":{"android":"levelo://app?vid=e6a749fa-0111-49e4-8192-0237b1dcadbe","ios":"levelo://app?vid=e6a749fa-0111-49e4-8192-0237b1dcadbe"},"vehicle_type_id":"4","last_reported":1714111865,"current_range_meters":22400,"station_id":"ce4bgs12rcd13ifvqcag","pricing_plan_id":"cebpf4jnsgd1na2vs0mg"},{"bike_id":"a59d303b-f503-4283-8767-e5efbb91c795","system_id":"levelo_inurba_marseille","lat":43.299222,"lon":5.365554,"is_reserved":false,"is_disabled":false,"rental_uris":{"android":"levelo://app?vid=a59d303b-f503-4283-8767-e5efbb91c795","ios":"levelo://app?vid=a59d303b-f503-4283-8767-e5efbb91c795"},"vehicle_type_id":"4","last_reported":1714111865,"current_range_meters":22000,"station_id":"ce4bgm92rcd13ifvqbr0","pricing_plan_id":"cebpf4jnsgd1na2vs0mg"},{"bike_id":"611b25c5-36d8-45f8-86e7-2cfbfef14812","system_id":"levelo_inurba_marseille","lat":43.299455,"lon":5.373729,"is_reserved":false,"is_disabled":false,"rental_uris":{"android":"levelo://app?vid=611b25c5-36d8-45f8-86e7-2cfbfef14812","ios":"levelo://app?vid=611b25c5-36d8-45f8-86e7-2cfbfef14812"},"vehicle_type_id":"4","last_reported":1714111865,"current_range_meters":18000,"station_id":"","pricing_plan_id":"cebpf4jnsgd1na2vs0mg"},{"bike_id":"1e312333-5fff-42b7-80e3-a530bfc2dc14","system_id":"levelo_inurba_marseille","lat":43.31114,"lon":5.3864,"is_reserved":false,"is_disabled":false,"rental_uris":{"android":"levelo://app?vid=1e312333-5fff-42b7-80e3-a530bfc2dc14","ios":"levelo://app?vid=1e312333-5fff-42b7-80e3-a530bfc2dc14"},"vehicle_type_id":"4","last_reported":1714111865,"current_range_meters":14400,"station_id":"","pricing_plan_id":"cebpf4jnsgd1na2vs0mg"},{"bike_id":"96cbc5e2-70a6-4d78-97fd-0778b45fb4f6","system_id":"levelo_inurba_marseille","lat":43.305364,"lon":5.384119,"is_reserved":false,"is_disabled":false,"rental_uris":{"android":"levelo://app?vid=96cbc5e2-70a6-4d78-97fd-0778b45fb4f6","ios":"levelo://app?vid=96cbc5e2-70a6-4d78-97fd-0778b45fb4f6"},"vehicle_type_id":"4","last_reported":1714111865,"current_range_meters":26800,"station_id":"ce4bgg92rcd13ifvqb30","pricing_plan_id":"cebpf4jnsgd1na2vs0mg"},{"bike_id":"ad724fd4-06bc-4665-9c6d-45be819e92d9","system_id":"levelo_inurba_marseille","lat":43.298433,"lon":5.362774,"is_reserved":false,"is_disabled":false,"rental_uris":{"android":"levelo://app?vid=ad724fd4-06bc-4665-9c6d-45be819e92d9","ios":"levelo://app?vid=ad724fd4-06bc-4665-9c6d-45be819e92d9"},"vehicle_type_id":"4","last_reported":1714111865,"current_range_meters":30400,"station_id":"ce4bgpp2rcd13ifvqc3g","pricing_plan_id":"cebpf4jnsgd1na2vs0mg"},{"bike_id":"a69eaaa8-9b62-4bb7-89ae-54663045ce22","system_id":"levelo_inurba_marseille","lat":43.305364,"lon":5.384119,"is_reserved":false,"is_disabled":false,"rental_uris":{"android":"levelo://app?vid=a69eaaa8-9b62-4bb7-89ae-54663045ce22","ios":"levelo://app?vid=a69eaaa8-9b62-4bb7-89ae-54663045ce22"},"vehicle_type_id":"4","last_reported":1714111865,"current_range_meters":27200,"station_id":"ce4bgg92rcd13ifvqb30","pricing_plan_id":"cebpf4jnsgd1na2vs0mg"},{"bike_id":"3b5284f9-aa65-4c0b-896a-a28bd607e07a","system_id":"levelo_inurba_marseille","lat":43.305364,"lon":5.384119,"is_reserved":false,"is_disabled":false,"rental_uris":{"android":"levelo://app?vid=3b5284f9-aa65-4c0b-896a-a28bd607e07a","ios":"levelo://app?vid=3b5284f9-aa65-4c0b-896a-a28bd607e07a"},"vehicle_type_id":"4","last_reported":1714111865,"current_range_meters":29200,"station_id":"ce4bgg92rcd13ifvqb30","pricing_plan_id":"cebpf4jnsgd1na2vs0mg"},{"bike_id":"5ac01999-7633-42a2-898c-0ffcce137c1e","system_id":"levelo_inurba_marseille","lat":43.305364,"lon":5.384119,"is_reserved":false,"is_disabled":false,"rental_uris":{"android":"levelo://app?vid=5ac01999-7633-42a2-898c-0ffcce137c1e","ios":"levelo://app?vid=5ac01999-7633-42a2-898c-0ffcce137c1e"},"vehicle_type_id":"4","last_reported":1714111865,"current_range_meters":31600,"station_id":"ce4bgg92rcd13ifvqb30","pricing_plan_id":"cebpf4jnsgd1na2vs0mg"},{"bike_id":"c6995b01-fccf-4029-a907-9008d0af8077","system_id":"levelo_inurba_marseille","lat":43.298433,"lon":5.362774,"is_reserved":false,"is_disabled":false,"rental_uris":{"android":"levelo://app?vid=c6995b01-fccf-4029-a907-9008d0af8077","ios":"levelo://app?vid=c6995b01-fccf-4029-a907-9008d0af8077"},"vehicle_type_id":"4","last_reported":1714111865,"current_range_meters":28400,"station_id":"ce4bgpp2rcd13ifvqc3g","pricing_plan_id":"cebpf4jnsgd1na2vs0mg"},{"bike_id":"a91c2454-fa7c-4d54-95f3-4cb5ffa34c8f","system_id":"levelo_inurba_marseille","lat":43.311722,"lon":5.387247,"is_reserved":false,"is_disabled":false,"rental_uris":{"android":"levelo://app?vid=a91c2454-fa7c-4d54-95f3-4cb5ffa34c8f","ios":"levelo://app?vid=a91c2454-fa7c-4d54-95f3-4cb5ffa34c8f"},"vehicle_type_id":"4","last_reported":1714111865,"current_range_meters":12400,"station_id":"ce4bgv12rcd13ifvqcp0","pricing_plan_id":"cebpf4jnsgd1na2vs0mg"},{"bike_id":"5b73b9a4-2b79-47b4-8f0a-53010f7d2e03","system_id":"levelo_inurba_marseille","lat":43.311722,"lon":5.387247,"is_reserved":false,"is_disabled":false,"rental_uris":{"android":"levelo://app?vid=5b73b9a4-2b79-47b4-8f0a-53010f7d2e03","ios":"levelo://app?vid=5b73b9a4-2b79-47b4-8f0a-53010f7d2e03"},"vehicle_type_id":"4","last_reported":1714111865,"current_range_meters":31600,"station_id":"ce4bgv12rcd13ifvqcp0","pricing_plan_id":"cebpf4jnsgd1na2vs0mg"},{"bike_id":"279c5b47-11fc-4e1a-9faf-d7a88a7a736e","system_id":"levelo_inurba_marseille","lat":43.311827,"lon":5.387099,"is_reserved":false,"is_disabled":false,"rental_uris":{"android":"levelo://app?vid=279c5b47-11fc-4e1a-9faf-d7a88a7a736e","ios":"levelo://app?vid=279c5b47-11fc-4e1a-9faf-d7a88a7a736e"},"vehicle_type_id":"4","last_reported":1714111865,"current_range_meters":31200,"station_id":"ce4bgv12rcd13ifvqcp0","pricing_plan_id":"cebpf4jnsgd1na2vs0mg"},{"bike_id":"7eb3c984-480a-489f-b56b-e39efae8b9a5","system_id":"levelo_inurba_marseille","lat":43.311714,"lon":5.387097,"is_reserved":false,"is_disabled":false,"rental_uris":{"android":"levelo://app?vid=7eb3c984-480a-489f-b56b-e39efae8b9a5","ios":"levelo://app?vid=7eb3c984-480a-489f-b56b-e39efae8b9a5"},"vehicle_type_id":"4","last_reported":1714111865,"current_range_meters":25600,"station_id":"ce4bgv12rcd13ifvqcp0","pricing_plan_id":"cebpf4jnsgd1na2vs0mg"},{"bike_id":"9c182342-6da1-49bc-8e1d-a2047ab01ff2","system_id":"levelo_inurba_marseille","lat":43.311722,"lon":5.387247,"is_reserved":false,"is_disabled":false,"rental_uris":{"android":"levelo://app?vid=9c182342-6da1-49bc-8e1d-a2047ab01ff2","ios":"levelo://app?vid=9c182342-6da1-49bc-8e1d-a2047ab01ff2"},"vehicle_type_id":"4","last_reported":1714111865,"current_range_meters":13600,"station_id":"ce4bgv12rcd13ifvqcp0","pricing_plan_id":"cebpf4jnsgd1na2vs0mg"},{"bike_id":"4d956d04-1cd5-48ba-ab38-7b06b9ad88dd","system_id":"levelo_inurba_marseille","lat":43.311694,"lon":5.387119,"is_reserved":false,"is_disabled":false,"rental_uris":{"android":"levelo://app?vid=4d956d04-1cd5-48ba-ab38-7b06b9ad88dd","ios":"levelo://app?vid=4d956d04-1cd5-48ba-ab38-7b06b9ad88dd"},"vehicle_type_id":"4","last_reported":1714111865,"current_range_meters":30800,"station_id":"ce4bgv12rcd13ifvqcp0","pricing_plan_id":"cebpf4jnsgd1na2vs0mg"},{"bike_id":"fad3418f-915e-4c70-b963-4bdbec516a29","system_id":"levelo_inurba_marseille","lat":43.311722,"lon":5.387247,"is_reserved":false,"is_disabled":false,"rental_uris":{"android":"levelo://app?vid=fad3418f-915e-4c70-b963-4bdbec516a29","ios":"levelo://app?vid=fad3418f-915e-4c70-b963-4bdbec516a29"},"vehicle_type_id":"4","last_reported":1714111865,"current_range_meters":17600,"station_id":"ce4bgv12rcd13ifvqcp0","pricing_plan_id":"cebpf4jnsgd1na2vs0mg"},{"bike_id":"d5886dc1-f26f-4b0d-a179-9daa4380f16c","system_id":"levelo_inurba_marseille","lat":43.299243,"lon":5.37481,"is_reserved":false,"is_disabled":false,"rental_uris":{"android":"levelo://app?vid=d5886dc1-f26f-4b0d-a179-9daa4380f16c","ios":"levelo://app?vid=d5886dc1-f26f-4b0d-a179-9daa4380f16c"},"vehicle_type_id":"4","last_reported":1714111865,"current_range_meters":25600,"station_id":"ce4bgjh2rcd13ifvqbg0","pricing_plan_id":"cebpf4jnsgd1na2vs0mg"},{"bike_id":"843a297e-a0db-4be7-ba17-bc343a3b325b","system_id":"levelo_inurba_marseille","lat":43.311722,"lon":5.387247,"is_reserved":false,"is_disabled":false,"rental_uris":{"android":"levelo://app?vid=843a297e-a0db-4be7-ba17-bc343a3b325b","ios":"levelo://app?vid=843a297e-a0db-4be7-ba17-bc343a3b325b"},"vehicle_type_id":"4","last_reported":1714111865,"current_range_meters":22400,"station_id":"ce4bgv12rcd13ifvqcp0","pricing_plan_id":"cebpf4jnsgd1na2vs0mg"},{"bike_id":"53f1b87e-8eac-41c2-ad76-f19fa21971b2","system_id":"levelo_inurba_marseille","lat":43.301536,"lon":5.38099,"is_reserved":false,"is_disabled":false,"rental_uris":{"android":"levelo://app?vid=53f1b87e-8eac-41c2-ad76-f19fa21971b2","ios":"levelo://app?vid=53f1b87e-8eac-41c2-ad76-f19fa21971b2"},"vehicle_type_id":"4","last_reported":1714111865,"current_range_meters":8000,"station_id":"","pricing_plan_id":"cebpf4jnsgd1na2vs0mg"},{"bike_id":"6c0cc272-40f5-431e-9c5d-257b9797736d","system_id":"levelo_inurba_marseille","lat":43.322872,"lon":5.382756,"is_reserved":false,"is_disabled":false,"rental_uris":{"android":"levelo://app?vid=6c0cc272-40f5-431e-9c5d-257b9797736d","ios":"levelo://app?vid=6c0cc272-40f5-431e-9c5d-257b9797736d"},"vehicle_type_id":"4","last_reported":1714111865,"current_range_meters":0,"station_id":"ce4bhr12rcd13ifvqhqg","pricing_plan_id":"cebpf4jnsgd1na2vs0mg"},{"bike_id":"e47fb431-2897-499a-958a-373a9ab19ebb","system_id":"levelo_inurba_marseille","lat":43.322872,"lon":5.382756,"is_reserved":false,"is_disabled":false,"rental_uris":{"android":"levelo://app?vid=e47fb431-2897-499a-958a-373a9ab19ebb","ios":"levelo://app?vid=e47fb431-2897-499a-958a-373a9ab19ebb"},"vehicle_type_id":"4","last_reported":1714111865,"current_range_meters":4800,"station_id":"ce4bhr12rcd13ifvqhqg","pricing_plan_id":"cebpf4jnsgd1na2vs0mg"},{"bike_id":"a8e2ca69-f699-47f0-8ae7-ac0a3630abe3","system_id":"levelo_inurba_marseille","lat":43.322872,"lon":5.382756,"is_reserved":false,"is_disabled":false,"rental_uris":{"android":"levelo://app?vid=a8e2ca69-f699-47f0-8ae7-ac0a3630abe3","ios":"levelo://app?vid=a8e2ca69-f699-47f0-8ae7-ac0a3630abe3"},"vehicle_type_id":"4","last_reported":1714111865,"current_range_meters":23200,"station_id":"ce4bhr12rcd13ifvqhqg","pricing_plan_id":"cebpf4jnsgd1na2vs0mg"},{"bike_id":"2a897450-ae3f-41f6-aa44-4f5d78a0ac41","system_id":"levelo_inurba_marseille","lat":43.322872,"lon":5.382756,"is_reserved":false,"is_disabled":false,"rental_uris":{"android":"levelo://app?vid=2a897450-ae3f-41f6-aa44-4f5d78a0ac41","ios":"levelo://app?vid=2a897450-ae3f-41f6-aa44-4f5d78a0ac41"},"vehicle_type_id":"4","last_reported":1714111865,"current_range_meters":18400,"station_id":"ce4bhr12rcd13ifvqhqg","pricing_plan_id":"cebpf4jnsgd1na2vs0mg"},{"bike_id":"8b506ba7-9169-46bf-b217-6300b8bf2f5a","system_id":"levelo_inurba_marseille","lat":43.322872,"lon":5.382756,"is_reserved":false,"is_disabled":false,"rental_uris":{"android":"levelo://app?vid=8b506ba7-9169-46bf-b217-6300b8bf2f5a","ios":"levelo://app?vid=8b506ba7-9169-46bf-b217-6300b8bf2f5a"},"vehicle_type_id":"4","last_reported":1714111865,"current_range_meters":32000,"station_id":"ce4bhr12rcd13ifvqhqg","pricing_plan_id":"cebpf4jnsgd1na2vs0mg"},{"bike_id":"6af26792-da4f-4e79-918d-fb4b290e19b8","system_id":"levelo_inurba_marseille","lat":43.297163,"lon":5.365866,"is_reserved":false,"is_disabled":false,"rental_uris":{"android":"levelo://app?vid=6af26792-da4f-4e79-918d-fb4b290e19b8","ios":"levelo://app?vid=6af26792-da4f-4e79-918d-fb4b290e19b8"},"vehicle_type_id":"4","last_reported":1714111865,"current_range_meters":28000,"station_id":"ce4bgn12rcd13ifvqbt0","pricing_plan_id":"cebpf4jnsgd1na2vs0mg"},{"bike_id":"c50f64d1-7c98-428a-a378-c1ce9aff6eec","system_id":"levelo_inurba_marseille","lat":43.297163,"lon":5.365866,"is_reserved":false,"is_disabled":false,"rental_uris":{"android":"levelo://app?vid=c50f64d1-7c98-428a-a378-c1ce9aff6eec","ios":"levelo://app?vid=c50f64d1-7c98-428a-a378-c1ce9aff6eec"},"vehicle_type_id":"4","last_reported":1714111865,"current_range_meters":12800,"station_id":"ce4bgn12rcd13ifvqbt0","pricing_plan_id":"cebpf4jnsgd1na2vs0mg"},{"bike_id":"22ee16ca-a245-4dc1-ad8a-db06da73955c","system_id":"levelo_inurba_marseille","lat":43.295935,"lon":5.369033,"is_reserved":false,"is_disabled":false,"rental_uris":{"android":"levelo://app?vid=22ee16ca-a245-4dc1-ad8a-db06da73955c","ios":"levelo://app?vid=22ee16ca-a245-4dc1-ad8a-db06da73955c"},"vehicle_type_id":"4","last_reported":1714111865,"current_range_meters":0,"station_id":"","pricing_plan_id":"cebpf4jnsgd1na2vs0mg"},{"bike_id":"07c4f58c-78ae-49af-9710-990e0a2e18ef","system_id":"levelo_inurba_marseille","lat":43.296131,"lon":5.370773,"is_reserved":false,"is_disabled":false,"rental_uris":{"android":"levelo://app?vid=07c4f58c-78ae-49af-9710-990e0a2e18ef","ios":"levelo://app?vid=07c4f58c-78ae-49af-9710-990e0a2e18ef"},"vehicle_type_id":"4","last_reported":1714111865,"current_range_meters":18000,"station_id":"ce4bgnh2rcd13ifvqc0g","pricing_plan_id":"cebpf4jnsgd1na2vs0mg"},{"bike_id":"977f449c-7243-48d3-b7b6-b808c8e183c4","system_id":"levelo_inurba_marseille","lat":43.29573,"lon":5.367355,"is_reserved":false,"is_disabled":false,"rental_uris":{"android":"levelo://app?vid=977f449c-7243-48d3-b7b6-b808c8e183c4","ios":"levelo://app?vid=977f449c-7243-48d3-b7b6-b808c8e183c4"},"vehicle_type_id":"4","last_reported":1714111865,"current_range_meters":29200,"station_id":"ce4bgph2rcd13ifvqc2g","pricing_plan_id":"cebpf4jnsgd1na2vs0mg"},{"bike_id":"550c8ef2-49ac-4def-9b80-13be85fc4bd7","system_id":"levelo_inurba_marseille","lat":43.29573,"lon":5.367355,"is_reserved":false,"is_disabled":false,"rental_uris":{"android":"levelo://app?vid=550c8ef2-49ac-4def-9b80-13be85fc4bd7","ios":"levelo://app?vid=550c8ef2-49ac-4def-9b80-13be85fc4bd7"},"vehicle_type_id":"4","last_reported":1714111865,"current_range_meters":25600,"station_id":"ce4bgph2rcd13ifvqc2g","pricing_plan_id":"cebpf4jnsgd1na2vs0mg"},{"bike_id":"28d0e679-a849-4219-b216-7e7d1082cb07","system_id":"levelo_inurba_marseille","lat":43.309589,"lon":5.390258,"is_reserved":false,"is_disabled":false,"rental_uris":{"android":"levelo://app?vid=28d0e679-a849-4219-b216-7e7d1082cb07","ios":"levelo://app?vid=28d0e679-a849-4219-b216-7e7d1082cb07"},"vehicle_type_id":"4","last_reported":1714111865,"current_range_meters":25600,"station_id":"ce4bgup2rcd13ifvqco0","pricing_plan_id":"cebpf4jnsgd1na2vs0mg"},{"bike_id":"7be8c0a7-3629-4d5b-a48b-bef4b25ce70f","system_id":"levelo_inurba_marseille","lat":43.309502,"lon":5.390263,"is_reserved":false,"is_disabled":false,"rental_uris":{"android":"levelo://app?vid=7be8c0a7-3629-4d5b-a48b-bef4b25ce70f","ios":"levelo://app?vid=7be8c0a7-3629-4d5b-a48b-bef4b25ce70f"},"vehicle_type_id":"4","last_reported":1714111865,"current_range_meters":22800,"station_id":"ce4bgup2rcd13ifvqco0","pricing_plan_id":"cebpf4jnsgd1na2vs0mg"},{"bike_id":"26e42a3e-1b42-4f16-89a3-515a872aee90","system_id":"levelo_inurba_marseille","lat":43.298818,"lon":5.381019,"is_reserved":false,"is_disabled":false,"rental_uris":{"android":"levelo://app?vid=26e42a3e-1b42-4f16-89a3-515a872aee90","ios":"levelo://app?vid=26e42a3e-1b42-4f16-89a3-515a872aee90"},"vehicle_type_id":"4","last_reported":1714111865,"current_range_meters":3600,"station_id":"ce4bgj12rcd13ifvqbc0","pricing_plan_id":"cebpf4jnsgd1na2vs0mg"},{"bike_id":"648c46da-6cc8-41d8-80bb-bccff8e5f13e","system_id":"levelo_inurba_marseille","lat":43.309589,"lon":5.390258,"is_reserved":false,"is_disabled":false,"rental_uris":{"android":"levelo://app?vid=648c46da-6cc8-41d8-80bb-bccff8e5f13e","ios":"levelo://app?vid=648c46da-6cc8-41d8-80bb-bccff8e5f13e"},"vehicle_type_id":"4","last_reported":1714111865,"current_range_meters":3600,"station_id":"ce4bgup2rcd13ifvqco0","pricing_plan_id":"cebpf4jnsgd1na2vs0mg"},{"bike_id":"da5d8e19-4055-4fd0-a77a-126ea0867878","system_id":"levelo_inurba_marseille","lat":43.309589,"lon":5.390258,"is_reserved":false,"is_disabled":false,"rental_uris":{"android":"levelo://app?vid=da5d8e19-4055-4fd0-a77a-126ea0867878","ios":"levelo://app?vid=da5d8e19-4055-4fd0-a77a-126ea0867878"},"vehicle_type_id":"4","last_reported":1714111865,"current_range_meters":13600,"station_id":"ce4bgup2rcd13ifvqco0","pricing_plan_id":"cebpf4jnsgd1na2vs0mg"},{"bike_id":"ee6f0441-ddb2-469f-9b07-0423e512f003","system_id":"levelo_inurba_marseille","lat":43.317557,"lon":5.390173,"is_reserved":false,"is_disabled":false,"rental_uris":{"android":"levelo://app?vid=ee6f0441-ddb2-469f-9b07-0423e512f003","ios":"levelo://app?vid=ee6f0441-ddb2-469f-9b07-0423e512f003"},"vehicle_type_id":"4","last_reported":1714111865,"current_range_meters":30000,"station_id":"ce4bhqp2rcd13ifvqhng","pricing_plan_id":"cebpf4jnsgd1na2vs0mg"},{"bike_id":"f2a0c99f-3d6d-4f00-81b6-e48934b815ae","system_id":"levelo_inurba_marseille","lat":43.317557,"lon":5.390173,"is_reserved":false,"is_disabled":false,"rental_uris":{"android":"levelo://app?vid=f2a0c99f-3d6d-4f00-81b6-e48934b815ae","ios":"levelo://app?vid=f2a0c99f-3d6d-4f00-81b6-e48934b815ae"},"vehicle_type_id":"4","last_reported":1714111865,"current_range_meters":26400,"station_id":"ce4bhqp2rcd13ifvqhng","pricing_plan_id":"cebpf4jnsgd1na2vs0mg"},{"bike_id":"85cbaa45-d18a-4991-bd52-d5e82defb92e","system_id":"levelo_inurba_marseille","lat":43.298037,"lon":5.381066,"is_reserved":false,"is_disabled":false,"rental_uris":{"android":"levelo://app?vid=85cbaa45-d18a-4991-bd52-d5e82defb92e","ios":"levelo://app?vid=85cbaa45-d18a-4991-bd52-d5e82defb92e"},"vehicle_type_id":"4","last_reported":1714111865,"current_range_meters":19600,"station_id":"ce4bgip2rcd13ifvqbb0","pricing_plan_id":"cebpf4jnsgd1na2vs0mg"},{"bike_id":"71c30e99-06cc-4645-ad69-d389f1f053da","system_id":"levelo_inurba_marseille","lat":43.304278,"lon":5.388868,"is_reserved":false,"is_disabled":false,"rental_uris":{"android":"levelo://app?vid=71c30e99-06cc-4645-ad69-d389f1f053da","ios":"levelo://app?vid=71c30e99-06cc-4645-ad69-d389f1f053da"},"vehicle_type_id":"4","last_reported":1714111865,"current_range_meters":6800,"station_id":"ce4bgk12rcd13ifvqbi0","pricing_plan_id":"cebpf4jnsgd1na2vs0mg"},{"bike_id":"a95935eb-2dce-4118-b1be-0c7c87de04e0","system_id":"levelo_inurba_marseille","lat":43.304366,"lon":5.3889,"is_reserved":false,"is_disabled":false,"rental_uris":{"android":"levelo://app?vid=a95935eb-2dce-4118-b1be-0c7c87de04e0","ios":"levelo://app?vid=a95935eb-2dce-4118-b1be-0c7c87de04e0"},"vehicle_type_id":"4","last_reported":1714111865,"current_range_meters":29200,"station_id":"ce4bgk12rcd13ifvqbi0","pricing_plan_id":"cebpf4jnsgd1na2vs0mg"},{"bike_id":"392ae894-3564-4667-92c7-7b2b0798c0cb","system_id":"levelo_inurba_marseille","lat":43.298037,"lon":5.381066,"is_reserved":false,"is_disabled":false,"rental_uris":{"android":"levelo://app?vid=392ae894-3564-4667-92c7-7b2b0798c0cb","ios":"levelo://app?vid=392ae894-3564-4667-92c7-7b2b0798c0cb"},"vehicle_type_id":"4","last_reported":1714111865,"current_range_meters":20000,"station_id":"ce4bgip2rcd13ifvqbb0","pricing_plan_id":"cebpf4jnsgd1na2vs0mg"},{"bike_id":"db989ac1-d0c6-4b55-bd30-0b4a926e41f6","system_id":"levelo_inurba_marseille","lat":43.304278,"lon":5.388868,"is_reserved":false,"is_disabled":false,"rental_uris":{"android":"levelo://app?vid=db989ac1-d0c6-4b55-bd30-0b4a926e41f6","ios":"levelo://app?vid=db989ac1-d0c6-4b55-bd30-0b4a926e41f6"},"vehicle_type_id":"4","last_reported":1714111865,"current_range_meters":24800,"station_id":"ce4bgk12rcd13ifvqbi0","pricing_plan_id":"cebpf4jnsgd1na2vs0mg"},{"bike_id":"dd5d4fcb-e1e1-4e62-a7aa-bcbb8c275f67","system_id":"levelo_inurba_marseille","lat":43.295748,"lon":5.37522,"is_reserved":false,"is_disabled":false,"rental_uris":{"android":"levelo://app?vid=dd5d4fcb-e1e1-4e62-a7aa-bcbb8c275f67","ios":"levelo://app?vid=dd5d4fcb-e1e1-4e62-a7aa-bcbb8c275f67"},"vehicle_type_id":"4","last_reported":1714111865,"current_range_meters":26400,"station_id":"ce4bgh92rcd13ifvqb50","pricing_plan_id":"cebpf4jnsgd1na2vs0mg"},{"bike_id":"28ee3672-920c-4d32-af6d-4a4e88d47b77","system_id":"levelo_inurba_marseille","lat":43.295748,"lon":5.37522,"is_reserved":false,"is_disabled":false,"rental_uris":{"android":"levelo://app?vid=28ee3672-920c-4d32-af6d-4a4e88d47b77","ios":"levelo://app?vid=28ee3672-920c-4d32-af6d-4a4e88d47b77"},"vehicle_type_id":"4","last_reported":1714111865,"current_range_meters":0,"station_id":"ce4bgh92rcd13ifvqb50","pricing_plan_id":"cebpf4jnsgd1na2vs0mg"},{"bike_id":"802062b4-6a4d-450b-b63c-fb2ee63223db","system_id":"levelo_inurba_marseille","lat":43.295748,"lon":5.37522,"is_reserved":false,"is_disabled":false,"rental_uris":{"android":"levelo://app?vid=802062b4-6a4d-450b-b63c-fb2ee63223db","ios":"levelo://app?vid=802062b4-6a4d-450b-b63c-fb2ee63223db"},"vehicle_type_id":"4","last_reported":1714111865,"current_range_meters":28400,"station_id":"ce4bgh92rcd13ifvqb50","pricing_plan_id":"cebpf4jnsgd1na2vs0mg"},{"bike_id":"0f7de18c-2193-41a8-bafd-15d66b3b3566","system_id":"levelo_inurba_marseille","lat":43.296277,"lon":5.377108,"is_reserved":false,"is_disabled":false,"rental_uris":{"android":"levelo://app?vid=0f7de18c-2193-41a8-bafd-15d66b3b3566","ios":"levelo://app?vid=0f7de18c-2193-41a8-bafd-15d66b3b3566"},"vehicle_type_id":"4","last_reported":1714111865,"current_range_meters":31600,"station_id":"ce4bgi92rcd13ifvqb90","pricing_plan_id":"cebpf4jnsgd1na2vs0mg"},{"bike_id":"fba7964f-6bae-4940-abd9-3841bbd417a6","system_id":"levelo_inurba_marseille","lat":43.295279,"lon":5.375048,"is_reserved":false,"is_disabled":false,"rental_uris":{"android":"levelo://app?vid=fba7964f-6bae-4940-abd9-3841bbd417a6","ios":"levelo://app?vid=fba7964f-6bae-4940-abd9-3841bbd417a6"},"vehicle_type_id":"4","last_reported":1714111865,"current_range_meters":25600,"station_id":"ce4bgkp2rcd13ifvqbmg","pricing_plan_id":"cebpf4jnsgd1na2vs0mg"},{"bike_id":"34680bd8-e83e-4a9a-b906-adfe6f16bad1","system_id":"levelo_inurba_marseille","lat":43.299717,"lon":5.384845,"is_reserved":false,"is_disabled":false,"rental_uris":{"android":"levelo://app?vid=34680bd8-e83e-4a9a-b906-adfe6f16bad1","ios":"levelo://app?vid=34680bd8-e83e-4a9a-b906-adfe6f16bad1"},"vehicle_type_id":"4","last_reported":1714111865,"current_range_meters":21200,"station_id":"ce4bgj92rcd13ifvqbd0","pricing_plan_id":"cebpf4jnsgd1na2vs0mg"},{"bike_id":"d5e758fc-02a7-41ba-936c-8abf2cdef3e7","system_id":"levelo_inurba_marseille","lat":43.312239,"lon":5.368562,"is_reserved":false,"is_disabled":false,"rental_uris":{"android":"levelo://app?vid=d5e758fc-02a7-41ba-936c-8abf2cdef3e7","ios":"levelo://app?vid=d5e758fc-02a7-41ba-936c-8abf2cdef3e7"},"vehicle_type_id":"4","last_reported":1714111865,"current_range_meters":28400,"station_id":"ce4bgl92rcd13ifvqbq0","pricing_plan_id":"cebpf4jnsgd1na2vs0mg"},{"bike_id":"c4cf5a1f-74c2-484d-92bc-80efabed2b92","system_id":"levelo_inurba_marseille","lat":43.292311,"lon":5.360731,"is_reserved":false,"is_disabled":false,"rental_uris":{"android":"levelo://app?vid=c4cf5a1f-74c2-484d-92bc-80efabed2b92","ios":"levelo://app?vid=c4cf5a1f-74c2-484d-92bc-80efabed2b92"},"vehicle_type_id":"4","last_reported":1714111865,"current_range_meters":19200,"station_id":"ce4bhbh2rcd13ifvqeqg","pricing_plan_id":"cebpf4jnsgd1na2vs0mg"},{"bike_id":"fe7c6f9d-a0a6-4e1e-9d55-4d7459adeaa7","system_id":"levelo_inurba_marseille","lat":43.299717,"lon":5.384845,"is_reserved":false,"is_disabled":false,"rental_uris":{"android":"levelo://app?vid=fe7c6f9d-a0a6-4e1e-9d55-4d7459adeaa7","ios":"levelo://app?vid=fe7c6f9d-a0a6-4e1e-9d55-4d7459adeaa7"},"vehicle_type_id":"4","last_reported":1714111865,"current_range_meters":11600,"station_id":"ce4bgj92rcd13ifvqbd0","pricing_plan_id":"cebpf4jnsgd1na2vs0mg"},{"bike_id":"c9294ff2-12e0-48fc-9e9c-4591accc2828","system_id":"levelo_inurba_marseille","lat":43.30109,"lon":5.387573,"is_reserved":false,"is_disabled":false,"rental_uris":{"android":"levelo://app?vid=c9294ff2-12e0-48fc-9e9c-4591accc2828","ios":"levelo://app?vid=c9294ff2-12e0-48fc-9e9c-4591accc2828"},"vehicle_type_id":"4","last_reported":1714111865,"current_range_meters":5200,"station_id":"","pricing_plan_id":"cebpf4jnsgd1na2vs0mg"},{"bike_id":"06fb6d9e-3f76-4e81-840a-632f57cffc0a","system_id":"levelo_inurba_marseille","lat":43.32359,"lon":5.38886,"is_reserved":false,"is_disabled":false,"rental_uris":{"android":"levelo://app?vid=06fb6d9e-3f76-4e81-840a-632f57cffc0a","ios":"levelo://app?vid=06fb6d9e-3f76-4e81-840a-632f57cffc0a"},"vehicle_type_id":"4","last_reported":1714111865,"current_range_meters":22800,"station_id":"ce4bhqp2rcd13ifvqhog","pricing_plan_id":"cebpf4jnsgd1na2vs0mg"},{"bike_id":"73b37800-277b-4d68-afd4-4b2ddd3b798e","system_id":"levelo_inurba_marseille","lat":43.295985,"lon":5.380125,"is_reserved":false,"is_disabled":false,"rental_uris":{"android":"levelo://app?vid=73b37800-277b-4d68-afd4-4b2ddd3b798e","ios":"levelo://app?vid=73b37800-277b-4d68-afd4-4b2ddd3b798e"},"vehicle_type_id":"4","last_reported":1714111865,"current_range_meters":22800,"station_id":"","pricing_plan_id":"cebpf4jnsgd1na2vs0mg"},{"bike_id":"38c6978d-3d26-4b0f-94cb-e4c761c71443","system_id":"levelo_inurba_marseille","lat":43.32365,"lon":5.38886,"is_reserved":false,"is_disabled":false,"rental_uris":{"android":"levelo://app?vid=38c6978d-3d26-4b0f-94cb-e4c761c71443","ios":"levelo://app?vid=38c6978d-3d26-4b0f-94cb-e4c761c71443"},"vehicle_type_id":"4","last_reported":1714111865,"current_range_meters":0,"station_id":"ce4bhqp2rcd13ifvqhog","pricing_plan_id":"cebpf4jnsgd1na2vs0mg"},{"bike_id":"9344594b-3624-4c67-9a56-6dcbc01708f9","system_id":"levelo_inurba_marseille","lat":43.323638,"lon":5.388883,"is_reserved":false,"is_disabled":false,"rental_uris":{"android":"levelo://app?vid=9344594b-3624-4c67-9a56-6dcbc01708f9","ios":"levelo://app?vid=9344594b-3624-4c67-9a56-6dcbc01708f9"},"vehicle_type_id":"4","last_reported":1714111865,"current_range_meters":4400,"station_id":"ce4bhqp2rcd13ifvqhog","pricing_plan_id":"cebpf4jnsgd1na2vs0mg"},{"bike_id":"3cdf8111-33be-4fc1-b6ba-2d94d0edae13","system_id":"levelo_inurba_marseille","lat":43.32367,"lon":5.388836,"is_reserved":false,"is_disabled":false,"rental_uris":{"android":"levelo://app?vid=3cdf8111-33be-4fc1-b6ba-2d94d0edae13","ios":"levelo://app?vid=3cdf8111-33be-4fc1-b6ba-2d94d0edae13"},"vehicle_type_id":"4","last_reported":1714111865,"current_range_meters":9200,"station_id":"ce4bhqp2rcd13ifvqhog","pricing_plan_id":"cebpf4jnsgd1na2vs0mg"},{"bike_id":"3190e011-9d54-48c3-8df4-24c375041388","system_id":"levelo_inurba_marseille","lat":43.292749,"lon":5.368402,"is_reserved":false,"is_disabled":false,"rental_uris":{"android":"levelo://app?vid=3190e011-9d54-48c3-8df4-24c375041388","ios":"levelo://app?vid=3190e011-9d54-48c3-8df4-24c375041388"},"vehicle_type_id":"4","last_reported":1714111865,"current_range_meters":16000,"station_id":"ce4bhbp2rcd13ifvqesg","pricing_plan_id":"cebpf4jnsgd1na2vs0mg"},{"bike_id":"2438202e-67ac-4f26-abe2-9e4e517f6857","system_id":"levelo_inurba_marseille","lat":43.318604,"lon":5.393453,"is_reserved":false,"is_disabled":false,"rental_uris":{"android":"levelo://app?vid=2438202e-67ac-4f26-abe2-9e4e517f6857","ios":"levelo://app?vid=2438202e-67ac-4f26-abe2-9e4e517f6857"},"vehicle_type_id":"4","last_reported":1714111865,"current_range_meters":21600,"station_id":"","pricing_plan_id":"cebpf4jnsgd1na2vs0mg"},{"bike_id":"4f17b62e-834b-4aa4-ba8a-369f9aab4165","system_id":"levelo_inurba_marseille","lat":43.293009,"lon":5.374584,"is_reserved":false,"is_disabled":false,"rental_uris":{"android":"levelo://app?vid=4f17b62e-834b-4aa4-ba8a-369f9aab4165","ios":"levelo://app?vid=4f17b62e-834b-4aa4-ba8a-369f9aab4165"},"vehicle_type_id":"4","last_reported":1714111865,"current_range_meters":28800,"station_id":"ce4bgi12rcd13ifvqb70","pricing_plan_id":"cebpf4jnsgd1na2vs0mg"},{"bike_id":"4a84748e-5179-47a6-b451-bb99d9331158","system_id":"levelo_inurba_marseille","lat":43.293009,"lon":5.374584,"is_reserved":false,"is_disabled":false,"rental_uris":{"android":"levelo://app?vid=4a84748e-5179-47a6-b451-bb99d9331158","ios":"levelo://app?vid=4a84748e-5179-47a6-b451-bb99d9331158"},"vehicle_type_id":"4","last_reported":1714111865,"current_range_meters":26000,"station_id":"ce4bgi12rcd13ifvqb70","pricing_plan_id":"cebpf4jnsgd1na2vs0mg"},{"bike_id":"7598d109-db14-4fbb-9578-2a3810bf3694","system_id":"levelo_inurba_marseille","lat":43.305994,"lon":5.393687,"is_reserved":false,"is_disabled":false,"rental_uris":{"android":"levelo://app?vid=7598d109-db14-4fbb-9578-2a3810bf3694","ios":"levelo://app?vid=7598d109-db14-4fbb-9578-2a3810bf3694"},"vehicle_type_id":"4","last_reported":1714111865,"current_range_meters":16400,"station_id":"ce4bh0p2rcd13ifvqd80","pricing_plan_id":"cebpf4jnsgd1na2vs0mg"},{"bike_id":"e5df779b-4e31-422e-8bac-14645e49a465","system_id":"levelo_inurba_marseille","lat":43.289184,"lon":5.366408,"is_reserved":false,"is_disabled":false,"rental_uris":{"android":"levelo://app?vid=e5df779b-4e31-422e-8bac-14645e49a465","ios":"levelo://app?vid=e5df779b-4e31-422e-8bac-14645e49a465"},"vehicle_type_id":"4","last_reported":1714111865,"current_range_meters":22000,"station_id":"ce4bhap2rcd13ifvqek0","pricing_plan_id":"cebpf4jnsgd1na2vs0mg"},{"bike_id":"2d0cb27e-fc7b-4b3c-ad82-55caffa18e43","system_id":"levelo_inurba_marseille","lat":43.292311,"lon":5.360731,"is_reserved":false,"is_disabled":false,"rental_uris":{"android":"levelo://app?vid=2d0cb27e-fc7b-4b3c-ad82-55caffa18e43","ios":"levelo://app?vid=2d0cb27e-fc7b-4b3c-ad82-55caffa18e43"},"vehicle_type_id":"4","last_reported":1714111865,"current_range_meters":28000,"station_id":"ce4bhbh2rcd13ifvqeqg","pricing_plan_id":"cebpf4jnsgd1na2vs0mg"},{"bike_id":"2351114b-090a-4487-ba62-7423484ae910","system_id":"levelo_inurba_marseille","lat":43.289468,"lon":5.363719,"is_reserved":false,"is_disabled":false,"rental_uris":{"android":"levelo://app?vid=2351114b-090a-4487-ba62-7423484ae910","ios":"levelo://app?vid=2351114b-090a-4487-ba62-7423484ae910"},"vehicle_type_id":"4","last_reported":1714111865,"current_range_meters":14000,"station_id":"ce4bhc92rcd13ifvqetg","pricing_plan_id":"cebpf4jnsgd1na2vs0mg"},{"bike_id":"ed639627-bf6d-4499-b940-bbafd22dc2f1","system_id":"levelo_inurba_marseille","lat":43.292311,"lon":5.360731,"is_reserved":false,"is_disabled":false,"rental_uris":{"android":"levelo://app?vid=ed639627-bf6d-4499-b940-bbafd22dc2f1","ios":"levelo://app?vid=ed639627-bf6d-4499-b940-bbafd22dc2f1"},"vehicle_type_id":"4","last_reported":1714111865,"current_range_meters":24800,"station_id":"ce4bhbh2rcd13ifvqeqg","pricing_plan_id":"cebpf4jnsgd1na2vs0mg"},{"bike_id":"babdb320-035f-4c32-9741-10f51f521108","system_id":"levelo_inurba_marseille","lat":43.292311,"lon":5.360731,"is_reserved":false,"is_disabled":false,"rental_uris":{"android":"levelo://app?vid=babdb320-035f-4c32-9741-10f51f521108","ios":"levelo://app?vid=babdb320-035f-4c32-9741-10f51f521108"},"vehicle_type_id":"4","last_reported":1714111865,"current_range_meters":23600,"station_id":"ce4bhbh2rcd13ifvqeqg","pricing_plan_id":"cebpf4jnsgd1na2vs0mg"},{"bike_id":"8ffb351e-9750-47aa-a3b3-44c0bf0b72dc","system_id":"levelo_inurba_marseille","lat":43.292311,"lon":5.360731,"is_reserved":false,"is_disabled":false,"rental_uris":{"android":"levelo://app?vid=8ffb351e-9750-47aa-a3b3-44c0bf0b72dc","ios":"levelo://app?vid=8ffb351e-9750-47aa-a3b3-44c0bf0b72dc"},"vehicle_type_id":"4","last_reported":1714111865,"current_range_meters":7600,"station_id":"ce4bhbh2rcd13ifvqeqg","pricing_plan_id":"cebpf4jnsgd1na2vs0mg"},{"bike_id":"45f27991-8b7b-470e-b882-9b0d86797a90","system_id":"levelo_inurba_marseille","lat":43.292311,"lon":5.360731,"is_reserved":false,"is_disabled":false,"rental_uris":{"android":"levelo://app?vid=45f27991-8b7b-470e-b882-9b0d86797a90","ios":"levelo://app?vid=45f27991-8b7b-470e-b882-9b0d86797a90"},"vehicle_type_id":"4","last_reported":1714111865,"current_range_meters":6800,"station_id":"ce4bhbh2rcd13ifvqeqg","pricing_plan_id":"cebpf4jnsgd1na2vs0mg"},{"bike_id":"b4988ccd-b6b7-4df5-8dd2-6261e0e327c0","system_id":"levelo_inurba_marseille","lat":43.292311,"lon":5.360731,"is_reserved":false,"is_disabled":false,"rental_uris":{"android":"levelo://app?vid=b4988ccd-b6b7-4df5-8dd2-6261e0e327c0","ios":"levelo://app?vid=b4988ccd-b6b7-4df5-8dd2-6261e0e327c0"},"vehicle_type_id":"4","last_reported":1714111865,"current_range_meters":28400,"station_id":"ce4bhbh2rcd13ifvqeqg","pricing_plan_id":"cebpf4jnsgd1na2vs0mg"},{"bike_id":"6e4987f6-5511-47f6-bded-004c0073be64","system_id":"levelo_inurba_marseille","lat":43.291671,"lon":5.371575,"is_reserved":false,"is_disabled":false,"rental_uris":{"android":"levelo://app?vid=6e4987f6-5511-47f6-bded-004c0073be64","ios":"levelo://app?vid=6e4987f6-5511-47f6-bded-004c0073be64"},"vehicle_type_id":"4","last_reported":1714111865,"current_range_meters":20800,"station_id":"ce4bha92rcd13ifvqeh0","pricing_plan_id":"cebpf4jnsgd1na2vs0mg"},{"bike_id":"18d7f5e2-3743-4578-bfde-3748d7af70e2","system_id":"levelo_inurba_marseille","lat":43.298764,"lon":5.388973,"is_reserved":false,"is_disabled":false,"rental_uris":{"android":"levelo://app?vid=18d7f5e2-3743-4578-bfde-3748d7af70e2","ios":"levelo://app?vid=18d7f5e2-3743-4578-bfde-3748d7af70e2"},"vehicle_type_id":"4","last_reported":1714111865,"current_range_meters":800,"station_id":"ce4bh392rcd13ifvqdl0","pricing_plan_id":"cebpf4jnsgd1na2vs0mg"},{"bike_id":"4a4d82bc-9a06-4cb0-900b-f9ae0d194b54","system_id":"levelo_inurba_marseille","lat":43.29198,"lon":5.35804,"is_reserved":false,"is_disabled":false,"rental_uris":{"android":"levelo://app?vid=4a4d82bc-9a06-4cb0-900b-f9ae0d194b54","ios":"levelo://app?vid=4a4d82bc-9a06-4cb0-900b-f9ae0d194b54"},"vehicle_type_id":"4","last_reported":1714111865,"current_range_meters":23200,"station_id":"ce4bhb12rcd13ifvqel0","pricing_plan_id":"cebpf4jnsgd1na2vs0mg"},{"bike_id":"dc70e804-300f-41e2-83f1-83d384ba3e0b","system_id":"levelo_inurba_marseille","lat":43.286595,"lon":5.386795,"is_reserved":false,"is_disabled":false,"rental_uris":{"android":"levelo://app?vid=dc70e804-300f-41e2-83f1-83d384ba3e0b","ios":"levelo://app?vid=dc70e804-300f-41e2-83f1-83d384ba3e0b"},"vehicle_type_id":"4","last_reported":1714111865,"current_range_meters":4400,"station_id":"ce4bh492rcd13ifvqdug","pricing_plan_id":"cebpf4jnsgd1na2vs0mg"},{"bike_id":"fd50dfd5-6e52-4083-82f3-8099ab74a875","system_id":"levelo_inurba_marseille","lat":43.291972,"lon":5.358049,"is_reserved":false,"is_disabled":false,"rental_uris":{"android":"levelo://app?vid=fd50dfd5-6e52-4083-82f3-8099ab74a875","ios":"levelo://app?vid=fd50dfd5-6e52-4083-82f3-8099ab74a875"},"vehicle_type_id":"4","last_reported":1714111865,"current_range_meters":27600,"station_id":"ce4bhb12rcd13ifvqel0","pricing_plan_id":"cebpf4jnsgd1na2vs0mg"},{"bike_id":"2daa6b68-e871-43fd-b5b4-342dd2c0fb7a","system_id":"levelo_inurba_marseille","lat":43.29195,"lon":5.35811,"is_reserved":false,"is_disabled":false,"rental_uris":{"android":"levelo://app?vid=2daa6b68-e871-43fd-b5b4-342dd2c0fb7a","ios":"levelo://app?vid=2daa6b68-e871-43fd-b5b4-342dd2c0fb7a"},"vehicle_type_id":"4","last_reported":1714111865,"current_range_meters":21200,"station_id":"ce4bhb12rcd13ifvqel0","pricing_plan_id":"cebpf4jnsgd1na2vs0mg"},