{"last_updated":1768086634,"ttl":60,"version":"2.2","data":{"bikes":[{"bike_id":"cc6a42bd-dd7c-4c64-b69f-e5073a2adae2","system_id":"levelo_inurba_marseille","lat":43.21761,"lon":5.346,"is_reserved":false,"is_disabled":false,"rental_uris":{"android":"levelo://app?vid=cc6a42bd-dd7c-4c64-b69f-e5073a2adae2","ios":"levelo://app?vid=cc6a42bd-dd7c-4c64-b69f-e5073a2adae2"},"vehicle_type_id":"4","last_reported":1768086634,"current_range_meters":2800,"station_id":"st_cvj6r9ubvosntc0bgbag","pricing_plan_id":"cebpf4jnsgd1na2vs0mg"},{"bike_id":"fa3e977d-1e63-41e7-8315-0d9223984351","system_id":"levelo_inurba_marseille","lat":43.30068,"lon":5.38196,"is_reserved":false,"is_disabled":false,"rental_uris":{"android":"levelo://app?vid=fa3e977d-1e63-41e7-8315-0d9223984351","ios":"levelo://app?vid=fa3e977d-1e63-41e7-8315-0d9223984351"},"vehicle_type_id":"4","last_reported":1768086634,"current_range_meters":2800,"station_id":"","pricing_plan_id":"cebpf4jnsgd1na2vs0mg"},{"bike_id":"08dba655-8d34-44d2-9e2a-5df7024401ad","system_id":"levelo_inurba_marseille","lat":43.30256,"lon":5.37714,"is_reserved":false,"is_disabled":false,"rental_uris":{"android":"levelo://app?vid=08dba655-8d34-44d2-9e2a-5df7024401ad","ios":"levelo://app?vid=08dba655-8d34-44d2-9e2a-5df7024401ad"},"vehicle_type_id":"4","last_reported":1768086634,"current_range_meters":2800,"station_id":"ce4bguh2rcd13ifvqcj0","pricing_plan_id":"cebpf4jnsgd1na2vs0mg"},{"bike_id":"865555d8-70a3-48c4-b89b-4cd7680516d4","system_id":"levelo_inurba_marseille","lat":43.23177,"lon":5.35562,"is_reserved":false,"is_disabled":false,"rental_uris":{"android":"levelo://app?vid=865555d8-70a3-48c4-b89b-4cd7680516d4","ios":"levelo://app?vid=865555d8-70a3-48c4-b89b-4cd7680516d4"},"vehicle_type_id":"4","last_reported":1768086634,"current_range_meters":2800,"station_id":"ce4bhu92rcd13ifvqi70","pricing_plan_id":"cebpf4jnsgd1na2vs0mg"},{"bike_id":"eb6bac7c-ea47-4981-b38d-8116727e3c2f","system_id":"levelo_inurba_marseille","lat":43.27841,"lon":5.40701,"is_reserved":false,"is_disabled":false,"rental_uris":{"android":"levelo://app?vid=eb6bac7c-ea47-4981-b38d-8116727e3c2f","ios":"levelo://app?vid=eb6bac7c-ea47-4981-b38d-8116727e3c2f"},"vehicle_type_id":"4","last_reported":1768086634,"current_range_meters":2800,"station_id":"ce4bhnh2rcd13ifvqgtg","pricing_plan_id":"cebpf4jnsgd1na2vs0mg"},{"bike_id":"0d766240-8416-4864-ac60-8bf893bba867","system_id":"levelo_inurba_marseille","lat":43.28646,"lon":5.37191,"is_reserved":false,"is_disabled":false,"rental_uris":{"android":"levelo://app?vid=0d766240-8416-4864-ac60-8bf893bba867","ios":"levelo://app?vid=0d766240-8416-4864-ac60-8bf893bba867"},"vehicle_type_id":"4","last_reported":1768086634,"current_range_meters":2800,"station_id":"","pricing_plan_id":"cebpf4jnsgd1na2vs0mg"},{"bike_id":"015c40ff-ccdb-43f0-8f4f-c4761b65940c","system_id":"levelo_inurba_marseille","lat":43.22979,"lon":5.35405,"is_reserved":false,"is_disabled":false,"rental_uris":{"android":"levelo://app?vid=015c40ff-ccdb-43f0-8f4f-c4761b65940c","ios":"levelo://app?vid=015c40ff-ccdb-43f0-8f4f-c4761b65940c"},"vehicle_type_id":"4","last_reported":1768086634,"current_range_meters":2800,"station_id":"cpo3532slgdg3j2ikp40","pricing_plan_id":"cebpf4jnsgd1na2vs0mg"},{"bike_id":"2a282b80-7b90-4dc8-964e-70060a433be7","system_id":"levelo_inurba_marseille","lat":43.23196,"lon":5.35518,"is_reserved":false,"is_disabled":false,"rental_uris":{"android":"levelo://app?vid=2a282b80-7b90-4dc8-964e-70060a433be7","ios":"levelo://app?vid=2a282b80-7b90-4dc8-964e-70060a433be7"},"vehicle_type_id":"4","last_reported":1768086634,"current_range_meters":3200,"station_id":"ce4bhu92rcd13ifvqi70","pricing_plan_id":"cebpf4jnsgd1na2vs0mg"},{"bike_id":"a31a5e09-760d-4df0-a42c-5ad4c665a29b","system_id":"levelo_inurba_marseille","lat":43.25489,"lon":5.37649,"is_reserved":false,"is_disabled":false,"rental_uris":{"android":"levelo://app?vid=a31a5e09-760d-4df0-a42c-5ad4c665a29b","ios":"levelo://app?vid=a31a5e09-760d-4df0-a42c-5ad4c665a29b"},"vehicle_type_id":"4","last_reported":1768086634,"current_range_meters":3200,"station_id":"ce4bhh12rcd13ifvqff0","pricing_plan_id":"cebpf4jnsgd1na2vs0mg"},{"bike_id":"cc1c2d2a-43d5-46f5-b6d2-bcf5b2d9c0f7","system_id":"levelo_inurba_marseille","lat":43.2716,"lon":5.40976,"is_reserved":false,"is_disabled":false,"rental_uris":{"android":"levelo://app?vid=cc1c2d2a-43d5-46f5-b6d2-bcf5b2d9c0f7","ios":"levelo://app?vid=cc1c2d2a-43d5-46f5-b6d2-bcf5b2d9c0f7"},"vehicle_type_id":"4","last_reported":1768086634,"current_range_meters":3200,"station_id":"ce4bhl12rcd13ifvqgf0","pricing_plan_id":"cebpf4jnsgd1na2vs0mg"},{"bike_id":"cdc22cfa-544c-440d-bf91-8918e1fa33ba","system_id":"levelo_inurba_marseille","lat":43.29161,"lon":5.37169,"is_reserved":false,"is_disabled":false,"rental_uris":{"android":"levelo://app?vid=cdc22cfa-544c-440d-bf91-8918e1fa33ba","ios":"levelo://app?vid=cdc22cfa-544c-440d-bf91-8918e1fa33ba"},"vehicle_type_id":"4","last_reported":1768086634,"current_range_meters":3200,"station_id":"ce4bha92rcd13ifvqeh0","pricing_plan_id":"cebpf4jnsgd1na2vs0mg"},{"bike_id":"4750dde3-1068-4d1c-91ff-e24a2c661d15","system_id":"levelo_inurba_marseille","lat":43.30126,"lon":5.43106,"is_reserved":false,"is_disabled":false,"rental_uris":{"android":"levelo://app?vid=4750dde3-1068-4d1c-91ff-e24a2c661d15","ios":"levelo://app?vid=4750dde3-1068-4d1c-91ff-e24a2c661d15"},"vehicle_type_id":"4","last_reported":1768086634,"current_range_meters":3200,"station_id":"st_d3js3co5814s73ftftug","pricing_plan_id":"cebpf4jnsgd1na2vs0mg"},{"bike_id":"0e99af7a-528e-4c47-86c9-baf47e2315c0","system_id":"levelo_inurba_marseille","lat":43.295278,"lon":5.375078,"is_reserved":false,"is_disabled":false,"rental_uris":{"android":"levelo://app?vid=0e99af7a-528e-4c47-86c9-baf47e2315c0","ios":"levelo://app?vid=0e99af7a-528e-4c47-86c9-baf47e2315c0"},"vehicle_type_id":"4","last_reported":1768086634,"current_range_meters":3200,"station_id":"","pricing_plan_id":"cebpf4jnsgd1na2vs0mg"},{"bike_id":"50c3ef0e-1a4a-429a-8acc-0df9b73d0d2b","system_id":"levelo_inurba_marseille","lat":43.23777,"lon":5.36643,"is_reserved":false,"is_disabled":false,"rental_uris":{"android":"levelo://app?vid=50c3ef0e-1a4a-429a-8acc-0df9b73d0d2b","ios":"levelo://app?vid=50c3ef0e-1a4a-429a-8acc-0df9b73d0d2b"},"vehicle_type_id":"4","last_reported":1768086634,"current_range_meters":3200,"station_id":"st_d3nk18o9ro0c73en2l3g","pricing_plan_id":"cebpf4jnsgd1na2vs0mg"},{"bike_id":"76e4e42b-ff1f-4fe8-a54e-d42a16767785","system_id":"levelo_inurba_marseille","lat":43.26023,"lon":5.37563,"is_reserved":false,"is_disabled":false,"rental_uris":{"android":"levelo://app?vid=76e4e42b-ff1f-4fe8-a54e-d42a16767785","ios":"levelo://app?vid=76e4e42b-ff1f-4fe8-a54e-d42a16767785"},"vehicle_type_id":"4","last_reported":1768086634,"current_range_meters":3200,"station_id":"ce4bhgh2rcd13ifvqfa0","pricing_plan_id":"cebpf4jnsgd1na2vs0mg"},{"bike_id":"9be47716-b6c4-4f6e-b3d9-238d6399366b","system_id":"levelo_inurba_marseille","lat":43.31375,"lon":5.4042,"is_reserved":false,"is_disabled":false,"rental_uris":{"android":"levelo://app?vid=9be47716-b6c4-4f6e-b3d9-238d6399366b","ios":"levelo://app?vid=9be47716-b6c4-4f6e-b3d9-238d6399366b"},"vehicle_type_id":"4","last_reported":1768086634,"current_range_meters":3200,"station_id":"","pricing_plan_id":"cebpf4jnsgd1na2vs0mg"},{"bike_id":"8dbc6796-10ad-485e-bfaa-05f30cae6c7d","system_id":"levelo_inurba_marseille","lat":43.29746,"lon":5.38034,"is_reserved":false,"is_disabled":true,"rental_uris":{"android":"levelo://app?vid=8dbc6796-10ad-485e-bfaa-05f30cae6c7d","ios":"levelo://app?vid=8dbc6796-10ad-485e-bfaa-05f30cae6c7d"},"vehicle_type_id":"4","last_reported":1768086634,"current_range_meters":3200,"station_id":"","pricing_plan_id":"cebpf4jnsgd1na2vs0mg"},{"bike_id":"8b67709a-995e-4676-89f2-73b22aa981a7","system_id":"levelo_inurba_marseille","lat":43.32303,"lon":5.39458,"is_reserved":false,"is_disabled":false,"rental_uris":{"android":"levelo://app?vid=8b67709a-995e-4676-89f2-73b22aa981a7","ios":"levelo://app?vid=8b67709a-995e-4676-89f2-73b22aa981a7"},"vehicle_type_id":"4","last_reported":1768086634,"current_range_meters":3200,"station_id":"","pricing_plan_id":"cebpf4jnsgd1na2vs0mg"},{"bike_id":"805cdd3d-a945-4905-be21-c606e2c4aea2","system_id":"levelo_inurba_marseille","lat":43.28767,"lon":5.38909,"is_reserved":false,"is_disabled":false,"rental_uris":{"android":"levelo://app?vid=805cdd3d-a945-4905-be21-c606e2c4aea2","ios":"levelo://app?vid=805cdd3d-a945-4905-be21-c606e2c4aea2"},"vehicle_type_id":"4","last_reported":1768086634,"current_range_meters":3600,"station_id":"","pricing_plan_id":"cebpf4jnsgd1na2vs0mg"},{"bike_id":"5a82fe8d-945e-4ba0-89a9-6af09a158437","system_id":"levelo_inurba_marseille","lat":43.25561,"lon":5.3823,"is_reserved":false,"is_disabled":false,"rental_uris":{"android":"levelo://app?vid=5a82fe8d-945e-4ba0-89a9-6af09a158437","ios":"levelo://app?vid=5a82fe8d-945e-4ba0-89a9-6af09a158437"},"vehicle_type_id":"4","last_reported":1768086634,"current_range_meters":3600,"station_id":"ce4bhih2rcd13ifvqfs0","pricing_plan_id":"cebpf4jnsgd1na2vs0mg"},{"bike_id":"7cc51d27-450b-483c-8291-b85cf4f922ca","system_id":"levelo_inurba_marseille","lat":43.24811,"lon":5.37463,"is_reserved":false,"is_disabled":false,"rental_uris":{"android":"levelo://app?vid=7cc51d27-450b-483c-8291-b85cf4f922ca","ios":"levelo://app?vid=7cc51d27-450b-483c-8291-b85cf4f922ca"},"vehicle_type_id":"4","last_reported":1768086634,"current_range_meters":3600,"station_id":"ce4bhgh2rcd13ifvqfb0","pricing_plan_id":"cebpf4jnsgd1na2vs0mg"},{"bike_id":"a206cebf-5573-46e2-83ef-9a959c495e41","system_id":"levelo_inurba_marseille","lat":43.22569,"lon":5.41639,"is_reserved":false,"is_disabled":false,"rental_uris":{"android":"levelo://app?vid=a206cebf-5573-46e2-83ef-9a959c495e41","ios":"levelo://app?vid=a206cebf-5573-46e2-83ef-9a959c495e41"},"vehicle_type_id":"4","last_reported":1768086634,"current_range_meters":3600,"station_id":"st_d2o4gvlbi1j2169b742g","pricing_plan_id":"cebpf4jnsgd1na2vs0mg"},{"bike_id":"07a64454-6ccc-4399-bb05-db92d5dab39b","system_id":"levelo_inurba_marseille","lat":43.27063,"lon":5.38308,"is_reserved":false,"is_disabled":false,"rental_uris":{"android":"levelo://app?vid=07a64454-6ccc-4399-bb05-db92d5dab39b","ios":"levelo://app?vid=07a64454-6ccc-4399-bb05-db92d5dab39b"},"vehicle_type_id":"4","last_reported":1768086634,"current_range_meters":3600,"station_id":"st_d3n2fo6cfp8s73cte1j0","pricing_plan_id":"cebpf4jnsgd1na2vs0mg"},{"bike_id":"936c2bc9-f72d-49ef-812b-33b904299037","system_id":"levelo_inurba_marseille","lat":43.30891,"lon":5.37187,"is_reserved":false,"is_disabled":false,"rental_uris":{"android":"levelo://app?vid=936c2bc9-f72d-49ef-812b-33b904299037","ios":"levelo://app?vid=936c2bc9-f72d-49ef-812b-33b904299037"},"vehicle_type_id":"4","last_reported":1768086634,"current_range_meters":3600,"station_id":"ce4bguh2rcd13ifvqckg","pricing_plan_id":"cebpf4jnsgd1na2vs0mg"},{"bike_id":"3da59865-307e-4e18-a76b-1e8cc1080ec2","system_id":"levelo_inurba_marseille","lat":43.25086,"lon":5.3951,"is_reserved":false,"is_disabled":false,"rental_uris":{"android":"levelo://app?vid=3da59865-307e-4e18-a76b-1e8cc1080ec2","ios":"levelo://app?vid=3da59865-307e-4e18-a76b-1e8cc1080ec2"},"vehicle_type_id":"4","last_reported":1768086634,"current_range_meters":3600,"station_id":"ce4bhm12rcd13ifvqgkg","pricing_plan_id":"cebpf4jnsgd1na2vs0mg"},{"bike_id":"8bca3afd-6757-4e17-905d-276c8f7a07bb","system_id":"levelo_inurba_marseille","lat":43.30806,"lon":5.36991,"is_reserved":false,"is_disabled":false,"rental_uris":{"android":"levelo://app?vid=8bca3afd-6757-4e17-905d-276c8f7a07bb","ios":"levelo://app?vid=8bca3afd-6757-4e17-905d-276c8f7a07bb"},"vehicle_type_id":"4","last_reported":1768086634,"current_range_meters":3600,"station_id":"","pricing_plan_id":"cebpf4jnsgd1na2vs0mg"},{"bike_id":"a9fccba9-b754-4ee7-accb-83ed7cce913f","system_id":"levelo_inurba_marseille","lat":43.23142,"lon":5.43709,"is_reserved":false,"is_disabled":false,"rental_uris":{"android":"levelo://app?vid=a9fccba9-b754-4ee7-accb-83ed7cce913f","ios":"levelo://app?vid=a9fccba9-b754-4ee7-accb-83ed7cce913f"},"vehicle_type_id":"4","last_reported":1768086634,"current_range_meters":4000,"station_id":"ce4bhmp2rcd13ifvqgog","pricing_plan_id":"cebpf4jnsgd1na2vs0mg"},{"bike_id":"18c99692-3ca0-436c-9ab1-5135473130c4","system_id":"levelo_inurba_marseille","lat":43.23831,"lon":5.36623,"is_reserved":false,"is_disabled":false,"rental_uris":{"android":"levelo://app?vid=18c99692-3ca0-436c-9ab1-5135473130c4","ios":"levelo://app?vid=18c99692-3ca0-436c-9ab1-5135473130c4"},"vehicle_type_id":"4","last_reported":1768086634,"current_range_meters":4000,"station_id":"","pricing_plan_id":"cebpf4jnsgd1na2vs0mg"},{"bike_id":"fb54c922-73a4-4918-a766-b56f627742d6","system_id":"levelo_inurba_marseille","lat":43.24402,"lon":5.37067,"is_reserved":false,"is_disabled":false,"rental_uris":{"android":"levelo://app?vid=fb54c922-73a4-4918-a766-b56f627742d6","ios":"levelo://app?vid=fb54c922-73a4-4918-a766-b56f627742d6"},"vehicle_type_id":"4","last_reported":1768086634,"current_range_meters":4000,"station_id":"ce4bhhh2rcd13ifvqfk0","pricing_plan_id":"cebpf4jnsgd1na2vs0mg"},{"bike_id":"8f6c4c1e-e47c-4a1f-a7a0-d3f75a03fcd5","system_id":"levelo_inurba_marseille","lat":43.25034,"lon":5.40315,"is_reserved":false,"is_disabled":false,"rental_uris":{"android":"levelo://app?vid=8f6c4c1e-e47c-4a1f-a7a0-d3f75a03fcd5","ios":"levelo://app?vid=8f6c4c1e-e47c-4a1f-a7a0-d3f75a03fcd5"},"vehicle_type_id":"4","last_reported":1768086634,"current_range_meters":4000,"station_id":"","pricing_plan_id":"cebpf4jnsgd1na2vs0mg"},{"bike_id":"a9a97530-f4ae-45c7-bbe9-02cb7807c19a","system_id":"levelo_inurba_marseille","lat":43.312755,"lon":5.401676,"is_reserved":false,"is_disabled":false,"rental_uris":{"android":"levelo://app?vid=a9a97530-f4ae-45c7-bbe9-02cb7807c19a","ios":"levelo://app?vid=a9a97530-f4ae-45c7-bbe9-02cb7807c19a"},"vehicle_type_id":"4","last_reported":1768086634,"current_range_meters":4000,"station_id":"","pricing_plan_id":"cebpf4jnsgd1na2vs0mg"},{"bike_id":"2ddd53e9-ad52-4f98-b379-9d0c3cd4074c","system_id":"levelo_inurba_marseille","lat":43.31078,"lon":5.38369,"is_reserved":false,"is_disabled":false,"rental_uris":{"android":"levelo://app?vid=2ddd53e9-ad52-4f98-b379-9d0c3cd4074c","ios":"levelo://app?vid=2ddd53e9-ad52-4f98-b379-9d0c3cd4074c"},"vehicle_type_id":"4","last_reported":1768086634,"current_range_meters":4000,"station_id":"ce4bgv92rcd13ifvqcr0","pricing_plan_id":"cebpf4jnsgd1na2vs0mg"},{"bike_id":"23d25c2f-1713-44f4-812e-c08229251eed","system_id":"levelo_inurba_marseille","lat":43.244,"lon":5.37069,"is_reserved":false,"is_disabled":false,"rental_uris":{"android":"levelo://app?vid=23d25c2f-1713-44f4-812e-c08229251eed","ios":"levelo://app?vid=23d25c2f-1713-44f4-812e-c08229251eed"},"vehicle_type_id":"4","last_reported":1768086634,"current_range_meters":4000,"station_id":"ce4bhhh2rcd13ifvqfk0","pricing_plan_id":"cebpf4jnsgd1na2vs0mg"},{"bike_id":"a8601da2-2020-4b9c-a126-4ba0f95f13ae","system_id":"levelo_inurba_marseille","lat":43.24084,"lon":5.37686,"is_reserved":false,"is_disabled":false,"rental_uris":{"android":"levelo://app?vid=a8601da2-2020-4b9c-a126-4ba0f95f13ae","ios":"levelo://app?vid=a8601da2-2020-4b9c-a126-4ba0f95f13ae"},"vehicle_type_id":"4","last_reported":1768086634,"current_range_meters":4000,"station_id":"","pricing_plan_id":"cebpf4jnsgd1na2vs0mg"},{"bike_id":"ea58a22a-0b97-41e3-bf6e-9b43aa27f1c8","system_id":"levelo_inurba_marseille","lat":43.27985,"lon":5.41652,"is_reserved":false,"is_disabled":false,"rental_uris":{"android":"levelo://app?vid=ea58a22a-0b97-41e3-bf6e-9b43aa27f1c8","ios":"levelo://app?vid=ea58a22a-0b97-41e3-bf6e-9b43aa27f1c8"},"vehicle_type_id":"4","last_reported":1768086634,"current_range_meters":4000,"station_id":"ce4bho12rcd13ifvqh1g","pricing_plan_id":"cebpf4jnsgd1na2vs0mg"},{"bike_id":"2179ebae-70ae-4a31-9446-80e16f4a1ea6","system_id":"levelo_inurba_marseille","lat":43.25336,"lon":5.4217,"is_reserved":false,"is_disabled":false,"rental_uris":{"android":"levelo://app?vid=2179ebae-70ae-4a31-9446-80e16f4a1ea6","ios":"levelo://app?vid=2179ebae-70ae-4a31-9446-80e16f4a1ea6"},"vehicle_type_id":"4","last_reported":1768086634,"current_range_meters":4000,"station_id":"st_d2m65c5bi1j21697t3ng","pricing_plan_id":"cebpf4jnsgd1na2vs0mg"},{"bike_id":"07577fad-9855-43d4-ac63-d8d4cd02a390","system_id":"levelo_inurba_marseille","lat":43.26559,"lon":5.37293,"is_reserved":false,"is_disabled":false,"rental_uris":{"android":"levelo://app?vid=07577fad-9855-43d4-ac63-d8d4cd02a390","ios":"levelo://app?vid=07577fad-9855-43d4-ac63-d8d4cd02a390"},"vehicle_type_id":"4","last_reported":1768086634,"current_range_meters":4000,"station_id":"ce4bhg12rcd13ifvqf70","pricing_plan_id":"cebpf4jnsgd1na2vs0mg"},{"bike_id":"de8d2be0-8b71-43be-bad1-1f61c385abc8","system_id":"levelo_inurba_marseille","lat":43.29757,"lon":5.42781,"is_reserved":false,"is_disabled":false,"rental_uris":{"android":"levelo://app?vid=de8d2be0-8b71-43be-bad1-1f61c385abc8","ios":"levelo://app?vid=de8d2be0-8b71-43be-bad1-1f61c385abc8"},"vehicle_type_id":"4","last_reported":1768086634,"current_range_meters":4400,"station_id":"st_d3md5207bmas73dh9klg","pricing_plan_id":"cebpf4jnsgd1na2vs0mg"},{"bike_id":"11fa4c95-2872-4961-b5f6-cc47a512eea8","system_id":"levelo_inurba_marseille","lat":43.2621,"lon":5.3745,"is_reserved":false,"is_disabled":false,"rental_uris":{"android":"levelo://app?vid=11fa4c95-2872-4961-b5f6-cc47a512eea8","ios":"levelo://app?vid=11fa4c95-2872-4961-b5f6-cc47a512eea8"},"vehicle_type_id":"4","last_reported":1768086634,"current_range_meters":4400,"station_id":"ce4bhgp2rcd13ifvqfc0","pricing_plan_id":"cebpf4jnsgd1na2vs0mg"},{"bike_id":"9a3bcfa8-754c-46dc-9e23-cede3ccc5a9b","system_id":"levelo_inurba_marseille","lat":43.25573,"lon":5.38227,"is_reserved":false,"is_disabled":false,"rental_uris":{"android":"levelo://app?vid=9a3bcfa8-754c-46dc-9e23-cede3ccc5a9b","ios":"levelo://app?vid=9a3bcfa8-754c-46dc-9e23-cede3ccc5a9b"},"vehicle_type_id":"4","last_reported":1768086634,"current_range_meters":4400,"station_id":"ce4bhih2rcd13ifvqfs0","pricing_plan_id":"cebpf4jnsgd1na2vs0mg"},{"bike_id":"2af6ce88-b0d7-400e-ab48-9b032ca0c7b5","system_id":"levelo_inurba_marseille","lat":43.31222,"lon":5.3672,"is_reserved":false,"is_disabled":false,"rental_uris":{"android":"levelo://app?vid=2af6ce88-b0d7-400e-ab48-9b032ca0c7b5","ios":"levelo://app?vid=2af6ce88-b0d7-400e-ab48-9b032ca0c7b5"},"vehicle_type_id":"4","last_reported":1768086634,"current_range_meters":4400,"station_id":"ce4bgl92rcd13ifvqbq0","pricing_plan_id":"cebpf4jnsgd1na2vs0mg"},{"bike_id":"655a9b99-52a8-4faf-885c-a661e20365be","system_id":"levelo_inurba_marseille","lat":43.260607,"lon":5.393993,"is_reserved":false,"is_disabled":false,"rental_uris":{"android":"levelo://app?vid=655a9b99-52a8-4faf-885c-a661e20365be","ios":"levelo://app?vid=655a9b99-52a8-4faf-885c-a661e20365be"},"vehicle_type_id":"4","last_reported":1768086634,"current_range_meters":4400,"station_id":"ce4bhh92rcd13ifvqfj0","pricing_plan_id":"cebpf4jnsgd1na2vs0mg"},{"bike_id":"968f5650-f7ac-46b6-a51a-97011a0e57d4","system_id":"levelo_inurba_marseille","lat":43.337568,"lon":5.374423,"is_reserved":false,"is_disabled":false,"rental_uris":{"android":"levelo://app?vid=968f5650-f7ac-46b6-a51a-97011a0e57d4","ios":"levelo://app?vid=968f5650-f7ac-46b6-a51a-97011a0e57d4"},"vehicle_type_id":"4","last_reported":1768086634,"current_range_meters":4400,"station_id":"","pricing_plan_id":"cebpf4jnsgd1na2vs0mg"},{"bike_id":"1444e0da-7b27-4f48-bdfa-30ab980c9925","system_id":"levelo_inurba_marseille","lat":43.25909,"lon":5.40914,"is_reserved":false,"is_disabled":false,"rental_uris":{"android":"levelo://app?vid=1444e0da-7b27-4f48-bdfa-30ab980c9925","ios":"levelo://app?vid=1444e0da-7b27-4f48-bdfa-30ab980c9925"},"vehicle_type_id":"4","last_reported":1768086634,"current_range_meters":4400,"station_id":"ce4bhm92rcd13ifvqglg","pricing_plan_id":"cebpf4jnsgd1na2vs0mg"},{"bike_id":"a35b0995-03f7-4205-aa95-793e1ec88754","system_id":"levelo_inurba_marseille","lat":43.24855,"lon":5.37492,"is_reserved":false,"is_disabled":false,"rental_uris":{"android":"levelo://app?vid=a35b0995-03f7-4205-aa95-793e1ec88754","ios":"levelo://app?vid=a35b0995-03f7-4205-aa95-793e1ec88754"},"vehicle_type_id":"4","last_reported":1768086634,"current_range_meters":4400,"station_id":"ce4bhgh2rcd13ifvqfb0","pricing_plan_id":"cebpf4jnsgd1na2vs0mg"},{"bike_id":"27f6b22e-b091-4f5a-a14e-549d4e7a1876","system_id":"levelo_inurba_marseille","lat":43.31201,"lon":5.38714,"is_reserved":false,"is_disabled":false,"rental_uris":{"android":"levelo://app?vid=27f6b22e-b091-4f5a-a14e-549d4e7a1876","ios":"levelo://app?vid=27f6b22e-b091-4f5a-a14e-549d4e7a1876"},"vehicle_type_id":"4","last_reported":1768086634,"current_range_meters":4400,"station_id":"ce4bgv12rcd13ifvqcp0","pricing_plan_id":"cebpf4jnsgd1na2vs0mg"},{"bike_id":"16fafe03-446b-4e5b-ba06-bcd62288909d","system_id":"levelo_inurba_marseille","lat":43.25487,"lon":5.37685,"is_reserved":false,"is_disabled":false,"rental_uris":{"android":"levelo://app?vid=16fafe03-446b-4e5b-ba06-bcd62288909d","ios":"levelo://app?vid=16fafe03-446b-4e5b-ba06-bcd62288909d"},"vehicle_type_id":"4","last_reported":1768086634,"current_range_meters":4400,"station_id":"ce4bhh12rcd13ifvqff0","pricing_plan_id":"cebpf4jnsgd1na2vs0mg"},{"bike_id":"362b9c6e-1bbc-491a-9f04-34937fdfe267","system_id":"levelo_inurba_marseille","lat":43.29975,"lon":5.38491,"is_reserved":false,"is_disabled":false,"rental_uris":{"android":"levelo://app?vid=362b9c6e-1bbc-491a-9f04-34937fdfe267","ios":"levelo://app?vid=362b9c6e-1bbc-491a-9f04-34937fdfe267"},"vehicle_type_id":"4","last_reported":1768086634,"current_range_meters":4400,"station_id":"ce4bgj92rcd13ifvqbd0","pricing_plan_id":"cebpf4jnsgd1na2vs0mg"},{"bike_id":"95da510d-8d81-451f-9e9c-645b35fe2028","system_id":"levelo_inurba_marseille","lat":43.260289,"lon":5.375499,"is_reserved":false,"is_disabled":false,"rental_uris":{"android":"levelo://app?vid=95da510d-8d81-451f-9e9c-645b35fe2028","ios":"levelo://app?vid=95da510d-8d81-451f-9e9c-645b35fe2028"},"vehicle_type_id":"4","last_reported":1768086634,"current_range_meters":4400,"station_id":"ce4bhgh2rcd13ifvqfa0","pricing_plan_id":"cebpf4jnsgd1na2vs0mg"},{"bike_id":"040b9c6c-9df2-4007-9dda-b857783456c7","system_id":"levelo_inurba_marseille","lat":43.25504,"lon":5.3766,"is_reserved":false,"is_disabled":false,"rental_uris":{"android":"levelo://app?vid=040b9c6c-9df2-4007-9dda-b857783456c7","ios":"levelo://app?vid=040b9c6c-9df2-4007-9dda-b857783456c7"},"vehicle_type_id":"4","last_reported":1768086634,"current_range_meters":4400,"station_id":"ce4bhh12rcd13ifvqff0","pricing_plan_id":"cebpf4jnsgd1na2vs0mg"},{"bike_id":"e94bf1df-85ac-4a34-aa29-c2a137468383","system_id":"levelo_inurba_marseille","lat":43.29484,"lon":5.43321,"is_reserved":false,"is_disabled":false,"rental_uris":{"android":"levelo://app?vid=e94bf1df-85ac-4a34-aa29-c2a137468383","ios":"levelo://app?vid=e94bf1df-85ac-4a34-aa29-c2a137468383"},"vehicle_type_id":"4","last_reported":1768086634,"current_range_meters":4400,"station_id":"st_d3j5ugp08ojc73fj9d10","pricing_plan_id":"cebpf4jnsgd1na2vs0mg"},{"bike_id":"8d8b8cae-9059-4748-93cb-f8d1a9686abb","system_id":"levelo_inurba_marseille","lat":43.29203,"lon":5.35793,"is_reserved":false,"is_disabled":false,"rental_uris":{"android":"levelo://app?vid=8d8b8cae-9059-4748-93cb-f8d1a9686abb","ios":"levelo://app?vid=8d8b8cae-9059-4748-93cb-f8d1a9686abb"},"vehicle_type_id":"4","last_reported":1768086634,"current_range_meters":4800,"station_id":"ce4bhb12rcd13ifvqel0","pricing_plan_id":"cebpf4jnsgd1na2vs0mg"},{"bike_id":"71b36ab2-ce5d-4ce0-89a0-260e828bf57f","system_id":"levelo_inurba_marseille","lat":43.27235,"lon":5.41018,"is_reserved":false,"is_disabled":false,"rental_uris":{"android":"levelo://app?vid=71b36ab2-ce5d-4ce0-89a0-260e828bf57f","ios":"levelo://app?vid=71b36ab2-ce5d-4ce0-89a0-260e828bf57f"},"vehicle_type_id":"4","last_reported":1768086634,"current_range_meters":4800,"station_id":"","pricing_plan_id":"cebpf4jnsgd1na2vs0mg"},{"bike_id":"95382051-2edc-4c1a-ac56-d197c3294bdd","system_id":"levelo_inurba_marseille","lat":43.27988,"lon":5.41654,"is_reserved":false,"is_disabled":false,"rental_uris":{"android":"levelo://app?vid=95382051-2edc-4c1a-ac56-d197c3294bdd","ios":"levelo://app?vid=95382051-2edc-4c1a-ac56-d197c3294bdd"},"vehicle_type_id":"4","last_reported":1768086634,"current_range_meters":4800,"station_id":"ce4bho12rcd13ifvqh1g","pricing_plan_id":"cebpf4jnsgd1na2vs0mg"},{"bike_id":"6773efea-6de1-4eff-881d-9d3652930047","system_id":"levelo_inurba_marseille","lat":43.29848,"lon":5.37569,"is_reserved":false,"is_disabled":false,"rental_uris":{"android":"levelo://app?vid=6773efea-6de1-4eff-881d-9d3652930047","ios":"levelo://app?vid=6773efea-6de1-4eff-881d-9d3652930047"},"vehicle_type_id":"4","last_reported":1768086634,"current_range_meters":4800,"station_id":"","pricing_plan_id":"cebpf4jnsgd1na2vs0mg"},{"bike_id":"3a944ff1-8f80-4b3a-87d1-40b3f03c9b0c","system_id":"levelo_inurba_marseille","lat":43.31084,"lon":5.38628,"is_reserved":false,"is_disabled":false,"rental_uris":{"android":"levelo://app?vid=3a944ff1-8f80-4b3a-87d1-40b3f03c9b0c","ios":"levelo://app?vid=3a944ff1-8f80-4b3a-87d1-40b3f03c9b0c"},"vehicle_type_id":"4","last_reported":1768086634,"current_range_meters":4800,"station_id":"","pricing_plan_id":"cebpf4jnsgd1na2vs0mg"},{"bike_id":"42bcbd37-e62c-4d61-9439-2d309432c971","system_id":"levelo_inurba_marseille","lat":43.25088,"lon":5.39518,"is_reserved":false,"is_disabled":false,"rental_uris":{"android":"levelo://app?vid=42bcbd37-e62c-4d61-9439-2d309432c971","ios":"levelo://app?vid=42bcbd37-e62c-4d61-9439-2d309432c971"},"vehicle_type_id":"4","last_reported":1768086634,"current_range_meters":4800,"station_id":"ce4bhm12rcd13ifvqgkg","pricing_plan_id":"cebpf4jnsgd1na2vs0mg"},{"bike_id":"07e92a42-5aca-4650-8312-443d35b7174b","system_id":"levelo_inurba_marseille","lat":43.28625,"lon":5.35099,"is_reserved":false,"is_disabled":false,"rental_uris":{"android":"levelo://app?vid=07e92a42-5aca-4650-8312-443d35b7174b","ios":"levelo://app?vid=07e92a42-5aca-4650-8312-443d35b7174b"},"vehicle_type_id":"4","last_reported":1768086634,"current_range_meters":4800,"station_id":"ce4bhch2rcd13ifvqeug","pricing_plan_id":"cebpf4jnsgd1na2vs0mg"},{"bike_id":"c7ae765b-3237-432c-8dab-b11a28a12a8c","system_id":"levelo_inurba_marseille","lat":43.28998,"lon":5.35609,"is_reserved":false,"is_disabled":false,"rental_uris":{"android":"levelo://app?vid=c7ae765b-3237-432c-8dab-b11a28a12a8c","ios":"levelo://app?vid=c7ae765b-3237-432c-8dab-b11a28a12a8c"},"vehicle_type_id":"4","last_reported":1768086634,"current_range_meters":4800,"station_id":"ce4bhb92rcd13ifvqen0","pricing_plan_id":"cebpf4jnsgd1na2vs0mg"},{"bike_id":"12b753d3-16f1-480b-9935-33bf56257aa4","system_id":"levelo_inurba_marseille","lat":43.27339,"lon":5.3909,"is_reserved":false,"is_disabled":false,"rental_uris":{"android":"levelo://app?vid=12b753d3-16f1-480b-9935-33bf56257aa4","ios":"levelo://app?vid=12b753d3-16f1-480b-9935-33bf56257aa4"},"vehicle_type_id":"4","last_reported":1768086634,"current_range_meters":4800,"station_id":"ce4bhgp2rcd13ifvqfe0","pricing_plan_id":"cebpf4jnsgd1na2vs0mg"},{"bike_id":"eb304065-e24e-49b9-a6e3-5c944a7d9557","system_id":"levelo_inurba_marseille","lat":43.29723,"lon":5.36615,"is_reserved":false,"is_disabled":false,"rental_uris":{"android":"levelo://app?vid=eb304065-e24e-49b9-a6e3-5c944a7d9557","ios":"levelo://app?vid=eb304065-e24e-49b9-a6e3-5c944a7d9557"},"vehicle_type_id":"4","last_reported":1768086634,"current_range_meters":5600,"station_id":"ce4bgn12rcd13ifvqbt0","pricing_plan_id":"cebpf4jnsgd1na2vs0mg"},{"bike_id":"87f67e97-3d5d-4e9b-a43f-2ccacab47334","system_id":"levelo_inurba_marseille","lat":43.26697,"lon":5.38263,"is_reserved":false,"is_disabled":false,"rental_uris":{"android":"levelo://app?vid=87f67e97-3d5d-4e9b-a43f-2ccacab47334","ios":"levelo://app?vid=87f67e97-3d5d-4e9b-a43f-2ccacab47334"},"vehicle_type_id":"4","last_reported":1768086634,"current_range_meters":5600,"station_id":"ce4bhg92rcd13ifvqf90","pricing_plan_id":"cebpf4jnsgd1na2vs0mg"},{"bike_id":"1a57bf80-d95f-4df4-85ec-7a70570ac48b","system_id":"levelo_inurba_marseille","lat":43.28934,"lon":5.36391,"is_reserved":false,"is_disabled":false,"rental_uris":{"android":"levelo://app?vid=1a57bf80-d95f-4df4-85ec-7a70570ac48b","ios":"levelo://app?vid=1a57bf80-d95f-4df4-85ec-7a70570ac48b"},"vehicle_type_id":"4","last_reported":1768086634,"current_range_meters":5600,"station_id":"ce4bhc92rcd13ifvqetg","pricing_plan_id":"cebpf4jnsgd1na2vs0mg"},{"bike_id":"48b0096b-4b93-4282-970e-7e8c3824dede","system_id":"levelo_inurba_marseille","lat":43.22563,"lon":5.41597,"is_reserved":false,"is_disabled":false,"rental_uris":{"android":"levelo://app?vid=48b0096b-4b93-4282-970e-7e8c3824dede","ios":"levelo://app?vid=48b0096b-4b93-4282-970e-7e8c3824dede"},"vehicle_type_id":"4","last_reported":1768086634,"current_range_meters":5600,"station_id":"st_d2o4gvlbi1j2169b742g","pricing_plan_id":"cebpf4jnsgd1na2vs0mg"},{"bike_id":"ec28a168-dfc7-4c87-acb4-8f7b58e7fa89","system_id":"levelo_inurba_marseille","lat":43.243982,"lon":5.370807,"is_reserved":false,"is_disabled":false,"rental_uris":{"android":"levelo://app?vid=ec28a168-dfc7-4c87-acb4-8f7b58e7fa89","ios":"levelo://app?vid=ec28a168-dfc7-4c87-acb4-8f7b58e7fa89"},"vehicle_type_id":"4","last_reported":1768086634,"current_range_meters":5600,"station_id":"ce4bhhh2rcd13ifvqfk0","pricing_plan_id":"cebpf4jnsgd1na2vs0mg"},{"bike_id":"78f273ad-50c8-4563-88ec-37da2350266a","system_id":"levelo_inurba_marseille","lat":43.26022,"lon":5.37557,"is_reserved":false,"is_disabled":false,"rental_uris":{"android":"levelo://app?vid=78f273ad-50c8-4563-88ec-37da2350266a","ios":"levelo://app?vid=78f273ad-50c8-4563-88ec-37da2350266a"},"vehicle_type_id":"4","last_reported":1768086634,"current_range_meters":5600,"station_id":"ce4bhgh2rcd13ifvqfa0","pricing_plan_id":"cebpf4jnsgd1na2vs0mg"},{"bike_id":"7a9ad836-4d79-4ba9-98d7-2ef50a4c96b5","system_id":"levelo_inurba_marseille","lat":43.29039,"lon":5.35927,"is_reserved":false,"is_disabled":false,"rental_uris":{"android":"levelo://app?vid=7a9ad836-4d79-4ba9-98d7-2ef50a4c96b5","ios":"levelo://app?vid=7a9ad836-4d79-4ba9-98d7-2ef50a4c96b5"},"vehicle_type_id":"4","last_reported":1768086634,"current_range_meters":5600,"station_id":"ce4bha92rcd13ifvqeg0","pricing_plan_id":"cebpf4jnsgd1na2vs0mg"},{"bike_id":"c18f2ed7-36b6-4892-8b43-5cf9db692332","system_id":"levelo_inurba_marseille","lat":43.29302,"lon":5.37166,"is_reserved":false,"is_disabled":false,"rental_uris":{"android":"levelo://app?vid=c18f2ed7-36b6-4892-8b43-5cf9db692332","ios":"levelo://app?vid=c18f2ed7-36b6-4892-8b43-5cf9db692332"},"vehicle_type_id":"4","last_reported":1768086634,"current_range_meters":5600,"station_id":"ce4bgh92rcd13ifvqb40","pricing_plan_id":"cebpf4jnsgd1na2vs0mg"},{"bike_id":"9ef5c7cf-da71-4612-9646-f64e3744543c","system_id":"levelo_inurba_marseille","lat":43.2294,"lon":5.35384,"is_reserved":false,"is_disabled":false,"rental_uris":{"android":"levelo://app?vid=9ef5c7cf-da71-4612-9646-f64e3744543c","ios":"levelo://app?vid=9ef5c7cf-da71-4612-9646-f64e3744543c"},"vehicle_type_id":"4","last_reported":1768086634,"current_range_meters":5600,"station_id":"cpo3532slgdg3j2ikp40","pricing_plan_id":"cebpf4jnsgd1na2vs0mg"},{"bike_id":"df548035-cee1-4f4d-b0ba-fa4f5834db8f","system_id":"levelo_inurba_marseille","lat":43.24812,"lon":5.37449,"is_reserved":false,"is_disabled":false,"rental_uris":{"android":"levelo://app?vid=df548035-cee1-4f4d-b0ba-fa4f5834db8f","ios":"levelo://app?vid=df548035-cee1-4f4d-b0ba-fa4f5834db8f"},"vehicle_type_id":"4","last_reported":1768086634,"current_range_meters":5600,"station_id":"ce4bhgh2rcd13ifvqfb0","pricing_plan_id":"cebpf4jnsgd1na2vs0mg"},{"bike_id":"37335263-0ba0-41e1-bf1f-92d8ddde73f2","system_id":"levelo_inurba_marseille","lat":43.25582,"lon":5.38213,"is_reserved":false,"is_disabled":false,"rental_uris":{"android":"levelo://app?vid=37335263-0ba0-41e1-bf1f-92d8ddde73f2","ios":"levelo://app?vid=37335263-0ba0-41e1-bf1f-92d8ddde73f2"},"vehicle_type_id":"4","last_reported":1768086634,"current_range_meters":5600,"station_id":"ce4bhih2rcd13ifvqfs0","pricing_plan_id":"cebpf4jnsgd1na2vs0mg"},{"bike_id":"8925de67-46a6-4c30-94d8-302161298623","system_id":"levelo_inurba_marseille","lat":43.31135,"lon":5.37037,"is_reserved":false,"is_disabled":false,"rental_uris":{"android":"levelo://app?vid=8925de67-46a6-4c30-94d8-302161298623","ios":"levelo://app?vid=8925de67-46a6-4c30-94d8-302161298623"},"vehicle_type_id":"4","last_reported":1768086634,"current_range_meters":5600,"station_id":"","pricing_plan_id":"cebpf4jnsgd1na2vs0mg"},{"bike_id":"bc49e5f9-cb3c-4c3a-969f-53e2b27dc0e8","system_id":"levelo_inurba_marseille","lat":43.241675,"lon":5.36403,"is_reserved":false,"is_disabled":false,"rental_uris":{"android":"levelo://app?vid=bc49e5f9-cb3c-4c3a-969f-53e2b27dc0e8","ios":"levelo://app?vid=bc49e5f9-cb3c-4c3a-969f-53e2b27dc0e8"},"vehicle_type_id":"4","last_reported":1768086634,"current_range_meters":5600,"station_id":"cpo36qri1sfpv3e86is0","pricing_plan_id":"cebpf4jnsgd1na2vs0mg"},{"bike_id":"7afafe8b-710d-46de-b7a0-496d048970e1","system_id":"levelo_inurba_marseille","lat":43.2949,"lon":5.39757,"is_reserved":false,"is_disabled":false,"rental_uris":{"android":"levelo://app?vid=7afafe8b-710d-46de-b7a0-496d048970e1","ios":"levelo://app?vid=7afafe8b-710d-46de-b7a0-496d048970e1"},"vehicle_type_id":"4","last_reported":1768086634,"current_range_meters":5600,"station_id":"ce4bh3h2rcd13ifvqdo0","pricing_plan_id":"cebpf4jnsgd1na2vs0mg"},{"bike_id":"18abf1cb-5f9c-499f-8188-2f5a690135d3","system_id":"levelo_inurba_marseille","lat":43.30425,"lon":5.39755,"is_reserved":false,"is_disabled":false,"rental_uris":{"android":"levelo://app?vid=18abf1cb-5f9c-499f-8188-2f5a690135d3","ios":"levelo://app?vid=18abf1cb-5f9c-499f-8188-2f5a690135d3"},"vehicle_type_id":"4","last_reported":1768086634,"current_range_meters":5600,"station_id":"ce4bh092rcd13ifvqd20","pricing_plan_id":"cebpf4jnsgd1na2vs0mg"},{"bike_id":"95308872-efcc-4759-9fe8-8d9da923fe01","system_id":"levelo_inurba_marseille","lat":43.29014,"lon":5.35564,"is_reserved":false,"is_disabled":false,"rental_uris":{"android":"levelo://app?vid=95308872-efcc-4759-9fe8-8d9da923fe01","ios":"levelo://app?vid=95308872-efcc-4759-9fe8-8d9da923fe01"},"vehicle_type_id":"4","last_reported":1768086634,"current_range_meters":5600,"station_id":"ce4bhb92rcd13ifvqen0","pricing_plan_id":"cebpf4jnsgd1na2vs0mg"},{"bike_id":"d0b85e45-94e7-472b-b2af-32c8b6d2d38e","system_id":"levelo_inurba_marseille","lat":43.29027,"lon":5.3868,"is_reserved":false,"is_disabled":false,"rental_uris":{"android":"levelo://app?vid=d0b85e45-94e7-472b-b2af-32c8b6d2d38e","ios":"levelo://app?vid=d0b85e45-94e7-472b-b2af-32c8b6d2d38e"},"vehicle_type_id":"4","last_reported":1768086634,"current_range_meters":5600,"station_id":"ce4bh4p2rcd13ifvqe0g","pricing_plan_id":"cebpf4jnsgd1na2vs0mg"},{"bike_id":"955472a9-f133-46c4-b5ee-028bf709d91e","system_id":"levelo_inurba_marseille","lat":43.28508,"lon":5.48391,"is_reserved":false,"is_disabled":false,"rental_uris":{"android":"levelo://app?vid=955472a9-f133-46c4-b5ee-028bf709d91e","ios":"levelo://app?vid=955472a9-f133-46c4-b5ee-028bf709d91e"},"vehicle_type_id":"4","last_reported":1768086634,"current_range_meters":5600,"station_id":"st_d3svhcjqgbts73a3dn0g","pricing_plan_id":"cebpf4jnsgd1na2vs0mg"},{"bike_id":"7e98743c-9f47-417e-8fbe-0862a28b7794","system_id":"levelo_inurba_marseille","lat":43.286695,"lon":5.363472,"is_reserved":false,"is_disabled":false,"rental_uris":{"android":"levelo://app?vid=7e98743c-9f47-417e-8fbe-0862a28b7794","ios":"levelo://app?vid=7e98743c-9f47-417e-8fbe-0862a28b7794"},"vehicle_type_id":"4","last_reported":1768086634,"current_range_meters":5600,"station_id":"ce4bhah2rcd13ifvqej0","pricing_plan_id":"cebpf4jnsgd1na2vs0mg"},{"bike_id":"1795b3a3-24e8-4ab0-8013-7a09218d9bc2","system_id":"levelo_inurba_marseille","lat":43.299901,"lon":5.371764,"is_reserved":false,"is_disabled":false,"rental_uris":{"android":"levelo://app?vid=1795b3a3-24e8-4ab0-8013-7a09218d9bc2","ios":"levelo://app?vid=1795b3a3-24e8-4ab0-8013-7a09218d9bc2"},"vehicle_type_id":"4","last_reported":1768086634,"current_range_meters":5600,"station_id":"ce4bgr92rcd13ifvqc7g","pricing_plan_id":"cebpf4jnsgd1na2vs0mg"},{"bike_id":"1347a05a-fe6b-495b-96d9-20a9a96846e2","system_id":"levelo_inurba_marseille","lat":43.2783,"lon":5.39203,"is_reserved":false,"is_disabled":false,"rental_uris":{"android":"levelo://app?vid=1347a05a-fe6b-495b-96d9-20a9a96846e2","ios":"levelo://app?vid=1347a05a-fe6b-495b-96d9-20a9a96846e2"},"vehicle_type_id":"4","last_reported":1768086634,"current_range_meters":6000,"station_id":"ce4bhjp2rcd13ifvqga0","pricing_plan_id":"cebpf4jnsgd1na2vs0mg"},{"bike_id":"2695eecd-ccdf-414b-b69c-4407e847a938","system_id":"levelo_inurba_marseille","lat":43.30943,"lon":5.39045,"is_reserved":false,"is_disabled":false,"rental_uris":{"android":"levelo://app?vid=2695eecd-ccdf-414b-b69c-4407e847a938","ios":"levelo://app?vid=2695eecd-ccdf-414b-b69c-4407e847a938"},"vehicle_type_id":"4","last_reported":1768086634,"current_range_meters":6000,"station_id":"ce4bgup2rcd13ifvqco0","pricing_plan_id":"cebpf4jnsgd1na2vs0mg"},{"bike_id":"c4d4ff34-e121-4994-b82a-615893a9089f","system_id":"levelo_inurba_marseille","lat":43.28295,"lon":5.35073,"is_reserved":false,"is_disabled":false,"rental_uris":{"android":"levelo://app?vid=c4d4ff34-e121-4994-b82a-615893a9089f","ios":"levelo://app?vid=c4d4ff34-e121-4994-b82a-615893a9089f"},"vehicle_type_id":"4","last_reported":1768086634,"current_range_meters":6000,"station_id":"ce4bhbp2rcd13ifvqerg","pricing_plan_id":"cebpf4jnsgd1na2vs0mg"},{"bike_id":"7e72a930-d1d5-437d-9a7d-0685de38c257","system_id":"levelo_inurba_marseille","lat":43.313318,"lon":5.397124,"is_reserved":false,"is_disabled":false,"rental_uris":{"android":"levelo://app?vid=7e72a930-d1d5-437d-9a7d-0685de38c257","ios":"levelo://app?vid=7e72a930-d1d5-437d-9a7d-0685de38c257"},"vehicle_type_id":"4","last_reported":1768086634,"current_range_meters":6000,"station_id":"ce4bgvp2rcd13ifvqcu0","pricing_plan_id":"cebpf4jnsgd1na2vs0mg"},{"bike_id":"1d2da464-79bc-4f4a-9df3-99a307867c6a","system_id":"levelo_inurba_marseille","lat":43.283017,"lon":5.352182,"is_reserved":false,"is_disabled":false,"rental_uris":{"android":"levelo://app?vid=1d2da464-79bc-4f4a-9df3-99a307867c6a","ios":"levelo://app?vid=1d2da464-79bc-4f4a-9df3-99a307867c6a"},"vehicle_type_id":"4","last_reported":1768086634,"current_range_meters":6000,"station_id":"","pricing_plan_id":"cebpf4jnsgd1na2vs0mg"},{"bike_id":"ad41c0f7-771d-4855-a9c8-7ed87d5e9445","system_id":"levelo_inurba_marseille","lat":43.29767,"lon":5.38559,"is_reserved":false,"is_disabled":false,"rental_uris":{"android":"levelo://app?vid=ad41c0f7-771d-4855-a9c8-7ed87d5e9445","ios":"levelo://app?vid=ad41c0f7-771d-4855-a9c8-7ed87d5e9445"},"vehicle_type_id":"4","last_reported":1768086634,"current_range_meters":6000,"station_id":"","pricing_plan_id":"cebpf4jnsgd1na2vs0mg"},{"bike_id":"ffe5d35b-f2bf-4629-b1dc-a9353cd194a2","system_id":"levelo_inurba_marseille","lat":43.31193,"lon":5.36873,"is_reserved":false,"is_disabled":false,"rental_uris":{"android":"levelo://app?vid=ffe5d35b-f2bf-4629-b1dc-a9353cd194a2","ios":"levelo://app?vid=ffe5d35b-f2bf-4629-b1dc-a9353cd194a2"},"vehicle_type_id":"4","last_reported":1768086634,"current_range_meters":6000,"station_id":"ce4bgl92rcd13ifvqbq0","pricing_plan_id":"cebpf4jnsgd1na2vs0mg"},{"bike_id":"15705fcb-fc6a-4f08-9895-a6a73b2606cb","system_id":"levelo_inurba_marseille","lat":43.26074,"lon":5.39428,"is_reserved":false,"is_disabled":false,"rental_uris":{"android":"levelo://app?vid=15705fcb-fc6a-4f08-9895-a6a73b2606cb","ios":"levelo://app?vid=15705fcb-fc6a-4f08-9895-a6a73b2606cb"},"vehicle_type_id":"4","last_reported":1768086634,"current_range_meters":6000,"station_id":"ce4bhh92rcd13ifvqfj0","pricing_plan_id":"cebpf4jnsgd1na2vs0mg"},{"bike_id":"0d4e5ddc-b292-4c0e-8986-9cde00922dd9","system_id":"levelo_inurba_marseille","lat":43.30195,"lon":5.43188,"is_reserved":false,"is_disabled":false,"rental_uris":{"android":"levelo://app?vid=0d4e5ddc-b292-4c0e-8986-9cde00922dd9","ios":"levelo://app?vid=0d4e5ddc-b292-4c0e-8986-9cde00922dd9"},"vehicle_type_id":"4","last_reported":1768086634,"current_range_meters":6000,"station_id":"","pricing_plan_id":"cebpf4jnsgd1na2vs0mg"},{"bike_id":"9522ced3-0687-4ab6-be9c-1e0b905ed7b8","system_id":"levelo_inurba_marseille","lat":43.25367,"lon":5.42157,"is_reserved":false,"is_disabled":false,"rental_uris":{"android":"levelo://app?vid=9522ced3-0687-4ab6-be9c-1e0b905ed7b8","ios":"levelo://app?vid=9522ced3-0687-4ab6-be9c-1e0b905ed7b8"},"vehicle_type_id":"4","last_reported":1768086634,"current_range_meters":6000,"station_id":"st_d2m65c5bi1j21697t3ng","pricing_plan_id":"cebpf4jnsgd1na2vs0mg"},{"bike_id":"f807eb45-2249-4a58-ad9a-c278e707985e","system_id":"levelo_inurba_marseille","lat":43.28947,"lon":5.38559,"is_reserved":false,"is_disabled":false,"rental_uris":{"android":"levelo://app?vid=f807eb45-2249-4a58-ad9a-c278e707985e","ios":"levelo://app?vid=f807eb45-2249-4a58-ad9a-c278e707985e"},"vehicle_type_id":"4","last_reported":1768086634,"current_range_meters":6000,"station_id":"","pricing_plan_id":"cebpf4jnsgd1na2vs0mg"},{"bike_id":"ff3d50e0-84d7-4480-8463-680e83cf9f97","system_id":"levelo_inurba_marseille","lat":43.24941,"lon":5.40501,"is_reserved":false,"is_disabled":false,"rental_uris":{"android":"levelo://app?vid=ff3d50e0-84d7-4480-8463-680e83cf9f97","ios":"levelo://app?vid=ff3d50e0-84d7-4480-8463-680e83cf9f97"},"vehicle_type_id":"4","last_reported":1768086634,"current_range_meters":6000,"station_id":"st_d2ngiaodas8pm72gd1h0","pricing_plan_id":"cebpf4jnsgd1na2vs0mg"},{"bike_id":"d172bd7b-d515-4516-9a54-2f7842359731","system_id":"levelo_inurba_marseille","lat":43.290236,"lon":5.381208,"is_reserved":false,"is_disabled":false,"rental_uris":{"android":"levelo://app?vid=d172bd7b-d515-4516-9a54-2f7842359731","ios":"levelo://app?vid=d172bd7b-d515-4516-9a54-2f7842359731"},"vehicle_type_id":"4","last_reported":1768086634,"current_range_meters":6400,"station_id":"ce4bh4p2rcd13ifvqe1g","pricing_plan_id":"cebpf4jnsgd1na2vs0mg"},{"bike_id":"88e3d680-5299-4e92-940f-447f027dc48f","system_id":"levelo_inurba_marseille","lat":43.28615,"lon":5.35103,"is_reserved":false,"is_disabled":false,"rental_uris":{"android":"levelo://app?vid=88e3d680-5299-4e92-940f-447f027dc48f","ios":"levelo://app?vid=88e3d680-5299-4e92-940f-447f027dc48f"},"vehicle_type_id":"4","last_reported":1768086634,"current_range_meters":6400,"station_id":"ce4bhch2rcd13ifvqeug","pricing_plan_id":"cebpf4jnsgd1na2vs0mg"},{"bike_id":"55fcea33-e7aa-4a56-8ac1-e90451a3f1d3","system_id":"levelo_inurba_marseille","lat":43.29219,"lon":5.35796,"is_reserved":false,"is_disabled":false,"rental_uris":{"android":"levelo://app?vid=55fcea33-e7aa-4a56-8ac1-e90451a3f1d3","ios":"levelo://app?vid=55fcea33-e7aa-4a56-8ac1-e90451a3f1d3"},"vehicle_type_id":"4","last_reported":1768086634,"current_range_meters":6400,"station_id":"ce4bhb12rcd13ifvqel0","pricing_plan_id":"cebpf4jnsgd1na2vs0mg"},{"bike_id":"ff91d566-89da-4f23-a85f-8fe443e9709a","system_id":"levelo_inurba_marseille","lat":43.21786,"lon":5.34589,"is_reserved":false,"is_disabled":false,"rental_uris":{"android":"levelo://app?vid=ff91d566-89da-4f23-a85f-8fe443e9709a","ios":"levelo://app?vid=ff91d566-89da-4f23-a85f-8fe443e9709a"},"vehicle_type_id":"4","last_reported":1768086634,"current_range_meters":6400,"station_id":"","pricing_plan_id":"cebpf4jnsgd1na2vs0mg"},{"bike_id":"0d9a28f3-f2a9-458c-abfb-9d5e6b00a237","system_id":"levelo_inurba_marseille","lat":43.2316,"lon":5.43732,"is_reserved":false,"is_disabled":false,"rental_uris":{"android":"levelo://app?vid=0d9a28f3-f2a9-458c-abfb-9d5e6b00a237","ios":"levelo://app?vid=0d9a28f3-f2a9-458c-abfb-9d5e6b00a237"},"vehicle_type_id":"4","last_reported":1768086634,"current_range_meters":6400,"station_id":"ce4bhmp2rcd13ifvqgog","pricing_plan_id":"cebpf4jnsgd1na2vs0mg"},{"bike_id":"b8104222-1e8b-400a-88c9-f77e7a449b1a","system_id":"levelo_inurba_marseille","lat":43.31525,"lon":5.38042,"is_reserved":false,"is_disabled":false,"rental_uris":{"android":"levelo://app?vid=b8104222-1e8b-400a-88c9-f77e7a449b1a","ios":"levelo://app?vid=b8104222-1e8b-400a-88c9-f77e7a449b1a"},"vehicle_type_id":"4","last_reported":1768086634,"current_range_meters":6400,"station_id":"ce4bhsp2rcd13ifvqi50","pricing_plan_id":"cebpf4jnsgd1na2vs0mg"},{"bike_id":"ec2c36ed-79e6-401c-b68a-6c26524403de","system_id":"levelo_inurba_marseille","lat":43.29477,"lon":5.43296,"is_reserved":false,"is_disabled":false,"rental_uris":{"android":"levelo://app?vid=ec2c36ed-79e6-401c-b68a-6c26524403de","ios":"levelo://app?vid=ec2c36ed-79e6-401c-b68a-6c26524403de"},"vehicle_type_id":"4","last_reported":1768086634,"current_range_meters":6400,"station_id":"st_d3j5ugp08ojc73fj9d10","pricing_plan_id":"cebpf4jnsgd1na2vs0mg"},{"bike_id":"2f94929b-7e6c-4e24-b276-2f585e92f29a","system_id":"levelo_inurba_marseille","lat":43.297576,"lon":5.427726,"is_reserved":false,"is_disabled":true,"rental_uris":{"android":"levelo://app?vid=2f94929b-7e6c-4e24-b276-2f585e92f29a","ios":"levelo://app?vid=2f94929b-7e6c-4e24-b276-2f585e92f29a"},"vehicle_type_id":"4","last_reported":1768086634,"current_range_meters":6400,"station_id":"st_d3md5207bmas73dh9klg","pricing_plan_id":"cebpf4jnsgd1na2vs0mg"},{"bike_id":"604f78fd-36d7-4821-843f-e68feb228a98","system_id":"levelo_inurba_marseille","lat":43.241607,"lon":5.364217,"is_reserved":false,"is_disabled":false,"rental_uris":{"android":"levelo://app?vid=604f78fd-36d7-4821-843f-e68feb228a98","ios":"levelo://app?vid=604f78fd-36d7-4821-843f-e68feb228a98"},"vehicle_type_id":"4","last_reported":1768086634,"current_range_meters":6400,"station_id":"cpo36qri1sfpv3e86is0","pricing_plan_id":"cebpf4jnsgd1na2vs0mg"},{"bike_id":"e3f8a098-8639-446b-9c17-a55f46262e9c","system_id":"levelo_inurba_marseille","lat":43.25343,"lon":5.42175,"is_reserved":false,"is_disabled":false,"rental_uris":{"android":"levelo://app?vid=e3f8a098-8639-446b-9c17-a55f46262e9c","ios":"levelo://app?vid=e3f8a098-8639-446b-9c17-a55f46262e9c"},"vehicle_type_id":"4","last_reported":1768086634,"current_range_meters":6400,"station_id":"st_d2m65c5bi1j21697t3ng","pricing_plan_id":"cebpf4jnsgd1na2vs0mg"},{"bike_id":"248f666c-97de-43b8-ba33-ea773cc06c95","system_id":"levelo_inurba_marseille","lat":43.27897,"lon":5.38003,"is_reserved":false,"is_disabled":false,"rental_uris":{"android":"levelo://app?vid=248f666c-97de-43b8-ba33-ea773cc06c95","ios":"levelo://app?vid=248f666c-97de-43b8-ba33-ea773cc06c95"},"vehicle_type_id":"4","last_reported":1768086634,"current_range_meters":6400,"station_id":"ce4bhf92rcd13ifvqf50","pricing_plan_id":"cebpf4jnsgd1na2vs0mg"},{"bike_id":"e9fbaaf6-7c5d-4c35-a579-61ed89f7a8a8","system_id":"levelo_inurba_marseille","lat":43.23963,"lon":5.36632,"is_reserved":false,"is_disabled":false,"rental_uris":{"android":"levelo://app?vid=e9fbaaf6-7c5d-4c35-a579-61ed89f7a8a8","ios":"levelo://app?vid=e9fbaaf6-7c5d-4c35-a579-61ed89f7a8a8"},"vehicle_type_id":"4","last_reported":1768086634,"current_range_meters":6400,"station_id":"ce4bhi12rcd13ifvqfp0","pricing_plan_id":"cebpf4jnsgd1na2vs0mg"},{"bike_id":"343ec2a0-0717-40a5-8e56-a899d2e241f7","system_id":"levelo_inurba_marseille","lat":43.2905,"lon":5.37532,"is_reserved":false,"is_disabled":false,"rental_uris":{"android":"levelo://app?vid=343ec2a0-0717-40a5-8e56-a899d2e241f7","ios":"levelo://app?vid=343ec2a0-0717-40a5-8e56-a899d2e241f7"},"vehicle_type_id":"4","last_reported":1768086634,"current_range_meters":6400,"station_id":"ce4bhf92rcd13ifvqf50","pricing_plan_id":"cebpf4jnsgd1na2vs0mg"},{"bike_id":"9ba3abdd-ccf0-4033-8df7-7454ef98b00e","system_id":"levelo_inurba_marseille","lat":43.23795,"lon":5.36634,"is_reserved":false,"is_disabled":false,"rental_uris":{"android":"levelo://app?vid=9ba3abdd-ccf0-4033-8df7-7454ef98b00e","ios":"levelo://app?vid=9ba3abdd-ccf0-4033-8df7-7454ef98b00e"},"vehicle_type_id":"4","last_reported":1768086634,"current_range_meters":6400,"station_id":"st_d3nk18o9ro0c73en2l3g","pricing_plan_id":"cebpf4jnsgd1na2vs0mg"},{"bike_id":"78533221-0292-46cc-9ec2-a5294797e756","system_id":"levelo_inurba_marseille","lat":43.31703,"lon":5.38194,"is_reserved":false,"is_disabled":false,"rental_uris":{"android":"levelo://app?vid=78533221-0292-46cc-9ec2-a5294797e756","ios":"levelo://app?vid=78533221-0292-46cc-9ec2-a5294797e756"},"vehicle_type_id":"4","last_reported":1768086634,"current_range_meters":6400,"station_id":"","pricing_plan_id":"cebpf4jnsgd1na2vs0mg"},{"bike_id":"bc59256e-c7a1-4170-b244-63a563d9a590","system_id":"levelo_inurba_marseille","lat":43.24099,"lon":5.37765,"is_reserved":false,"is_disabled":false,"rental_uris":{"android":"levelo://app?vid=bc59256e-c7a1-4170-b244-63a563d9a590","ios":"levelo://app?vid=bc59256e-c7a1-4170-b244-63a563d9a590"},"vehicle_type_id":"4","last_reported":1768086634,"current_range_meters":6400,"station_id":"ce4bhnp2rcd13ifvqgvg","pricing_plan_id":"cebpf4jnsgd1na2vs0mg"},{"bike_id":"dbb60bc6-4fb6-45fc-959a-667b177859f9","system_id":"levelo_inurba_marseille","lat":43.24185,"lon":5.36408,"is_reserved":false,"is_disabled":false,"rental_uris":{"android":"levelo://app?vid=dbb60bc6-4fb6-45fc-959a-667b177859f9","ios":"levelo://app?vid=dbb60bc6-4fb6-45fc-959a-667b177859f9"},"vehicle_type_id":"4","last_reported":1768086634,"current_range_meters":6400,"station_id":"cpo36qri1sfpv3e86is0","pricing_plan_id":"cebpf4jnsgd1na2vs0mg"},{"bike_id":"b50b7ea1-34f6-45a0-a517-498a63fcabec","system_id":"levelo_inurba_marseille","lat":43.28933,"lon":5.38396,"is_reserved":false,"is_disabled":false,"rental_uris":{"android":"levelo://app?vid=b50b7ea1-34f6-45a0-a517-498a63fcabec","ios":"levelo://app?vid=b50b7ea1-34f6-45a0-a517-498a63fcabec"},"vehicle_type_id":"4","last_reported":1768086634,"current_range_meters":6400,"station_id":"ce4bh612rcd13ifvqe6g","pricing_plan_id":"cebpf4jnsgd1na2vs0mg"},{"bike_id":"21fd000f-f4ce-4f18-a6a2-88e29d9458f7","system_id":"levelo_inurba_marseille","lat":43.23802,"lon":5.36639,"is_reserved":false,"is_disabled":false,"rental_uris":{"android":"levelo://app?vid=21fd000f-f4ce-4f18-a6a2-88e29d9458f7","ios":"levelo://app?vid=21fd000f-f4ce-4f18-a6a2-88e29d9458f7"},"vehicle_type_id":"4","last_reported":1768086634,"current_range_meters":6400,"station_id":"st_d3nk18o9ro0c73en2l3g","pricing_plan_id":"cebpf4jnsgd1na2vs0mg"},{"bike_id":"d26f4054-daa5-4936-9c27-6bfc7457f4e6","system_id":"levelo_inurba_marseille","lat":43.28853,"lon":5.3584,"is_reserved":false,"is_disabled":false,"rental_uris":{"android":"levelo://app?vid=d26f4054-daa5-4936-9c27-6bfc7457f4e6","ios":"levelo://app?vid=d26f4054-daa5-4936-9c27-6bfc7457f4e6"},"vehicle_type_id":"4","last_reported":1768086634,"current_range_meters":6400,"station_id":"ce4bhb12rcd13ifvqem0","pricing_plan_id":"cebpf4jnsgd1na2vs0mg"},{"bike_id":"99cbf376-51e2-4e16-9a3f-aeb4c11bff42","system_id":"levelo_inurba_marseille","lat":43.29621,"lon":5.37596,"is_reserved":false,"is_disabled":false,"rental_uris":{"android":"levelo://app?vid=99cbf376-51e2-4e16-9a3f-aeb4c11bff42","ios":"levelo://app?vid=99cbf376-51e2-4e16-9a3f-aeb4c11bff42"},"vehicle_type_id":"4","last_reported":1768086634,"current_range_meters":6400,"station_id":"","pricing_plan_id":"cebpf4jnsgd1na2vs0mg"},{"bike_id":"d29147e9-12b9-49d5-9a41-487e37c613b5","system_id":"levelo_inurba_marseille","lat":43.22507,"lon":5.41623,"is_reserved":false,"is_disabled":false,"rental_uris":{"android":"levelo://app?vid=d29147e9-12b9-49d5-9a41-487e37c613b5","ios":"levelo://app?vid=d29147e9-12b9-49d5-9a41-487e37c613b5"},"vehicle_type_id":"4","last_reported":1768086634,"current_range_meters":6800,"station_id":"","pricing_plan_id":"cebpf4jnsgd1na2vs0mg"},{"bike_id":"a1dcd8bf-b300-4092-8c84-5204375249a5","system_id":"levelo_inurba_marseille","lat":43.24808,"lon":5.37458,"is_reserved":false,"is_disabled":false,"rental_uris":{"android":"levelo://app?vid=a1dcd8bf-b300-4092-8c84-5204375249a5","ios":"levelo://app?vid=a1dcd8bf-b300-4092-8c84-5204375249a5"},"vehicle_type_id":"4","last_reported":1768086634,"current_range_meters":6800,"station_id":"ce4bhgh2rcd13ifvqfb0","pricing_plan_id":"cebpf4jnsgd1na2vs0mg"},{"bike_id":"7c981463-6fea-45a4-a723-d804339d8781","system_id":"levelo_inurba_marseille","lat":43.26875,"lon":5.39448,"is_reserved":false,"is_disabled":false,"rental_uris":{"android":"levelo://app?vid=7c981463-6fea-45a4-a723-d804339d8781","ios":"levelo://app?vid=7c981463-6fea-45a4-a723-d804339d8781"},"vehicle_type_id":"4","last_reported":1768086634,"current_range_meters":6800,"station_id":"","pricing_plan_id":"cebpf4jnsgd1na2vs0mg"},{"bike_id":"f8075f9d-b8a7-4230-8aa6-7f7f95cc5413","system_id":"levelo_inurba_marseille","lat":43.28217,"lon":5.39075,"is_reserved":false,"is_disabled":true,"rental_uris":{"android":"levelo://app?vid=f8075f9d-b8a7-4230-8aa6-7f7f95cc5413","ios":"levelo://app?vid=f8075f9d-b8a7-4230-8aa6-7f7f95cc5413"},"vehicle_type_id":"4","last_reported":1768086634,"current_range_meters":6800,"station_id":"ce4bhn92rcd13ifvqgsg","pricing_plan_id":"cebpf4jnsgd1na2vs0mg"},{"bike_id":"b1de97eb-9987-4268-a3de-fad899a3da21","system_id":"levelo_inurba_marseille","lat":43.25717,"lon":5.41114,"is_reserved":false,"is_disabled":false,"rental_uris":{"android":"levelo://app?vid=b1de97eb-9987-4268-a3de-fad899a3da21","ios":"levelo://app?vid=b1de97eb-9987-4268-a3de-fad899a3da21"},"vehicle_type_id":"4","last_reported":1768086634,"current_range_meters":6800,"station_id":"ce4bhkp2rcd13ifvqgd0","pricing_plan_id":"cebpf4jnsgd1na2vs0mg"},{"bike_id":"c8164b09-5889-42dc-8404-256b951d9eb5","system_id":"levelo_inurba_marseille","lat":43.29435,"lon":5.39761,"is_reserved":false,"is_disabled":false,"rental_uris":{"android":"levelo://app?vid=c8164b09-5889-42dc-8404-256b951d9eb5","ios":"levelo://app?vid=c8164b09-5889-42dc-8404-256b951d9eb5"},"vehicle_type_id":"4","last_reported":1768086634,"current_range_meters":6800,"station_id":"ce4bh3h2rcd13ifvqdo0","pricing_plan_id":"cebpf4jnsgd1na2vs0mg"},{"bike_id":"499b63c7-d47c-4bda-89d6-56b8c0a94a03","system_id":"levelo_inurba_marseille","lat":43.31661,"lon":5.43075,"is_reserved":false,"is_disabled":false,"rental_uris":{"android":"levelo://app?vid=499b63c7-d47c-4bda-89d6-56b8c0a94a03","ios":"levelo://app?vid=499b63c7-d47c-4bda-89d6-56b8c0a94a03"},"vehicle_type_id":"4","last_reported":1768086634,"current_range_meters":6800,"station_id":"","pricing_plan_id":"cebpf4jnsgd1na2vs0mg"},{"bike_id":"b24bfc3f-90af-4cbb-9795-590afddaa140","system_id":"levelo_inurba_marseille","lat":43.313538,"lon":5.36723,"is_reserved":false,"is_disabled":false,"rental_uris":{"android":"levelo://app?vid=b24bfc3f-90af-4cbb-9795-590afddaa140","ios":"levelo://app?vid=b24bfc3f-90af-4cbb-9795-590afddaa140"},"vehicle_type_id":"4","last_reported":1768086634,"current_range_meters":6800,"station_id":"ce4bgr92rcd13ifvqc6g","pricing_plan_id":"cebpf4jnsgd1na2vs0mg"},{"bike_id":"611d5909-481c-4108-a2ce-d73d9b8234f6","system_id":"levelo_inurba_marseille","lat":43.26195,"lon":5.37454,"is_reserved":false,"is_disabled":false,"rental_uris":{"android":"levelo://app?vid=611d5909-481c-4108-a2ce-d73d9b8234f6","ios":"levelo://app?vid=611d5909-481c-4108-a2ce-d73d9b8234f6"},"vehicle_type_id":"4","last_reported":1768086634,"current_range_meters":6800,"station_id":"ce4bhgp2rcd13ifvqfc0","pricing_plan_id":"cebpf4jnsgd1na2vs0mg"},{"bike_id":"c890de80-98dc-4082-bf7e-b6cd5cd1cf9b","system_id":"levelo_inurba_marseille","lat":43.27349,"lon":5.39119,"is_reserved":false,"is_disabled":false,"rental_uris":{"android":"levelo://app?vid=c890de80-98dc-4082-bf7e-b6cd5cd1cf9b","ios":"levelo://app?vid=c890de80-98dc-4082-bf7e-b6cd5cd1cf9b"},"vehicle_type_id":"4","last_reported":1768086634,"current_range_meters":6800,"station_id":"","pricing_plan_id":"cebpf4jnsgd1na2vs0mg"},{"bike_id":"b2295231-8d7a-4a3c-8ee1-7dbae04933b0","system_id":"levelo_inurba_marseille","lat":43.269454,"lon":5.402768,"is_reserved":false,"is_disabled":false,"rental_uris":{"android":"levelo://app?vid=b2295231-8d7a-4a3c-8ee1-7dbae04933b0","ios":"levelo://app?vid=b2295231-8d7a-4a3c-8ee1-7dbae04933b0"},"vehicle_type_id":"4","last_reported":1768086634,"current_range_meters":6800,"station_id":"cjm6bp8fraef2m0cb0m0","pricing_plan_id":"cebpf4jnsgd1na2vs0mg"},{"bike_id":"c771e32f-8268-48c3-904a-8acbbd85f57d","system_id":"levelo_inurba_marseille","lat":43.25835,"lon":5.39437,"is_reserved":false,"is_disabled":false,"rental_uris":{"android":"levelo://app?vid=c771e32f-8268-48c3-904a-8acbbd85f57d","ios":"levelo://app?vid=c771e32f-8268-48c3-904a-8acbbd85f57d"},"vehicle_type_id":"4","last_reported":1768086634,"current_range_meters":6800,"station_id":"ce4bhip2rcd13ifvqft0","pricing_plan_id":"cebpf4jnsgd1na2vs0mg"},{"bike_id":"1f06d7d3-6c19-4547-88eb-8d5826112285","system_id":"levelo_inurba_marseille","lat":43.30132,"lon":5.38797,"is_reserved":false,"is_disabled":false,"rental_uris":{"android":"levelo://app?vid=1f06d7d3-6c19-4547-88eb-8d5826112285","ios":"levelo://app?vid=1f06d7d3-6c19-4547-88eb-8d5826112285"},"vehicle_type_id":"4","last_reported":1768086634,"current_range_meters":6800,"station_id":"ce4bghh2rcd13ifvqb60","pricing_plan_id":"cebpf4jnsgd1na2vs0mg"},{"bike_id":"4dada92d-69e9-4146-88c9-8a252aae9f45","system_id":"levelo_inurba_marseille","lat":43.28724,"lon":5.37955,"is_reserved":false,"is_disabled":false,"rental_uris":{"android":"levelo://app?vid=4dada92d-69e9-4146-88c9-8a252aae9f45","ios":"levelo://app?vid=4dada92d-69e9-4146-88c9-8a252aae9f45"},"vehicle_type_id":"4","last_reported":1768086634,"current_range_meters":6800,"station_id":"ce4bh9p2rcd13ifvqec0","pricing_plan_id":"cebpf4jnsgd1na2vs0mg"},{"bike_id":"d036b849-3104-46e1-8fb1-f8d5be60e569","system_id":"levelo_inurba_marseille","lat":43.30117,"lon":5.43101,"is_reserved":false,"is_disabled":false,"rental_uris":{"android":"levelo://app?vid=d036b849-3104-46e1-8fb1-f8d5be60e569","ios":"levelo://app?vid=d036b849-3104-46e1-8fb1-f8d5be60e569"},"vehicle_type_id":"4","last_reported":1768086634,"current_range_meters":6800,"station_id":"st_d3js3co5814s73ftftug","pricing_plan_id":"cebpf4jnsgd1na2vs0mg"},{"bike_id":"1b1b65f2-5621-43a3-8721-1a01794caa40","system_id":"levelo_inurba_marseille","lat":43.23966,"lon":5.3668,"is_reserved":false,"is_disabled":false,"rental_uris":{"android":"levelo://app?vid=1b1b65f2-5621-43a3-8721-1a01794caa40","ios":"levelo://app?vid=1b1b65f2-5621-43a3-8721-1a01794caa40"},"vehicle_type_id":"4","last_reported":1768086634,"current_range_meters":6800,"station_id":"ce4bhi12rcd13ifvqfp0","pricing_plan_id":"cebpf4jnsgd1na2vs0mg"},{"bike_id":"3946f472-b8a7-4d59-bf38-d579b99a2b08","system_id":"levelo_inurba_marseille","lat":43.25507,"lon":5.37661,"is_reserved":false,"is_disabled":false,"rental_uris":{"android":"levelo://app?vid=3946f472-b8a7-4d59-bf38-d579b99a2b08","ios":"levelo://app?vid=3946f472-b8a7-4d59-bf38-d579b99a2b08"},"vehicle_type_id":"4","last_reported":1768086634,"current_range_meters":6800,"station_id":"ce4bhh12rcd13ifvqff0","pricing_plan_id":"cebpf4jnsgd1na2vs0mg"},{"bike_id":"4ad79fa9-3511-4679-bb4a-eea3df27e44b","system_id":"levelo_inurba_marseille","lat":43.30298,"lon":5.39205,"is_reserved":false,"is_disabled":false,"rental_uris":{"android":"levelo://app?vid=4ad79fa9-3511-4679-bb4a-eea3df27e44b","ios":"levelo://app?vid=4ad79fa9-3511-4679-bb4a-eea3df27e44b"},"vehicle_type_id":"4","last_reported":1768086634,"current_range_meters":6800,"station_id":"ce4bgkh2rcd13ifvqbk0","pricing_plan_id":"cebpf4jnsgd1na2vs0mg"},{"bike_id":"1492fbda-feb3-4d1c-bc73-c6bd931a3454","system_id":"levelo_inurba_marseille","lat":43.29765,"lon":5.42753,"is_reserved":false,"is_disabled":false,"rental_uris":{"android":"levelo://app?vid=1492fbda-feb3-4d1c-bc73-c6bd931a3454","ios":"levelo://app?vid=1492fbda-feb3-4d1c-bc73-c6bd931a3454"},"vehicle_type_id":"4","last_reported":1768086634,"current_range_meters":6800,"station_id":"st_d3md5207bmas73dh9klg","pricing_plan_id":"cebpf4jnsgd1na2vs0mg"},{"bike_id":"c7c2fb25-2812-4554-a688-8c1334dc293c","system_id":"levelo_inurba_marseille","lat":43.33348,"lon":5.41138,"is_reserved":false,"is_disabled":false,"rental_uris":{"android":"levelo://app?vid=c7c2fb25-2812-4554-a688-8c1334dc293c","ios":"levelo://app?vid=c7c2fb25-2812-4554-a688-8c1334dc293c"},"vehicle_type_id":"4","last_reported":1768086634,"current_range_meters":6800,"station_id":"","pricing_plan_id":"cebpf4jnsgd1na2vs0mg"},{"bike_id":"2a9201d3-7ab5-4fe8-9e24-acec22c37a2c","system_id":"levelo_inurba_marseille","lat":43.2468,"lon":5.38172,"is_reserved":false,"is_disabled":false,"rental_uris":{"android":"levelo://app?vid=2a9201d3-7ab5-4fe8-9e24-acec22c37a2c","ios":"levelo://app?vid=2a9201d3-7ab5-4fe8-9e24-acec22c37a2c"},"vehicle_type_id":"4","last_reported":1768086634,"current_range_meters":6800,"station_id":"ce4bhih2rcd13ifvqfr0","pricing_plan_id":"cebpf4jnsgd1na2vs0mg"},{"bike_id":"dbe9e179-37a7-4bf6-8958-b4f7e3523bb3","system_id":"levelo_inurba_marseille","lat":43.28295,"lon":5.43033,"is_reserved":false,"is_disabled":false,"rental_uris":{"android":"levelo://app?vid=dbe9e179-37a7-4bf6-8958-b4f7e3523bb3","ios":"levelo://app?vid=dbe9e179-37a7-4bf6-8958-b4f7e3523bb3"},"vehicle_type_id":"4","last_reported":1768086634,"current_range_meters":6800,"station_id":"","pricing_plan_id":"cebpf4jnsgd1na2vs0mg"},{"bike_id":"16cd9dc9-0aa5-4af9-8abf-42f6422c5227","system_id":"levelo_inurba_marseille","lat":43.295368,"lon":5.39046,"is_reserved":false,"is_disabled":false,"rental_uris":{"android":"levelo://app?vid=16cd9dc9-0aa5-4af9-8abf-42f6422c5227","ios":"levelo://app?vid=16cd9dc9-0aa5-4af9-8abf-42f6422c5227"},"vehicle_type_id":"4","last_reported":1768086634,"current_range_meters":6800,"station_id":"ce4bh3p2rcd13ifvqdp0","pricing_plan_id":"cebpf4jnsgd1na2vs0mg"},{"bike_id":"db879d5e-4218-45cc-be3b-413f71d508e4","system_id":"levelo_inurba_marseille","lat":43.29557,"lon":5.42302,"is_reserved":false,"is_disabled":false,"rental_uris":{"android":"levelo://app?vid=db879d5e-4218-45cc-be3b-413f71d508e4","ios":"levelo://app?vid=db879d5e-4218-45cc-be3b-413f71d508e4"},"vehicle_type_id":"4","last_reported":1768086634,"current_range_meters":7200,"station_id":"ce4bhph2rcd13ifvqhdg","pricing_plan_id":"cebpf4jnsgd1na2vs0mg"},{"bike_id":"3298400b-a581-435c-aa7d-6c0aebe8e78f","system_id":"levelo_inurba_marseille","lat":43.32479,"lon":5.36561,"is_reserved":false,"is_disabled":false,"rental_uris":{"android":"levelo://app?vid=3298400b-a581-435c-aa7d-6c0aebe8e78f","ios":"levelo://app?vid=3298400b-a581-435c-aa7d-6c0aebe8e78f"},"vehicle_type_id":"4","last_reported":1768086634,"current_range_meters":7200,"station_id":"ce4bhs12rcd13ifvqhvg","pricing_plan_id":"cebpf4jnsgd1na2vs0mg"},{"bike_id":"ff43ef99-a2e3-42cb-a87f-e919c3749872","system_id":"levelo_inurba_marseille","lat":43.29747,"lon":5.41471,"is_reserved":false,"is_disabled":false,"rental_uris":{"android":"levelo://app?vid=ff43ef99-a2e3-42cb-a87f-e919c3749872","ios":"levelo://app?vid=ff43ef99-a2e3-42cb-a87f-e919c3749872"},"vehicle_type_id":"4","last_reported":1768086634,"current_range_meters":7200,"station_id":"","pricing_plan_id":"cebpf4jnsgd1na2vs0mg"},{"bike_id":"34343374-0b8d-4754-b7e1-87a0108d6373","system_id":"levelo_inurba_marseille","lat":43.2873,"lon":5.37951,"is_reserved":false,"is_disabled":true,"rental_uris":{"android":"levelo://app?vid=34343374-0b8d-4754-b7e1-87a0108d6373","ios":"levelo://app?vid=34343374-0b8d-4754-b7e1-87a0108d6373"},"vehicle_type_id":"4","last_reported":1768086634,"current_range_meters":7200,"station_id":"ce4bh9p2rcd13ifvqec0","pricing_plan_id":"cebpf4jnsgd1na2vs0mg"},{"bike_id":"4949cb6e-d9e4-4d5e-b3bc-16a67e8de49b","system_id":"levelo_inurba_marseille","lat":43.28516,"lon":5.38523,"is_reserved":false,"is_disabled":false,"rental_uris":{"android":"levelo://app?vid=4949cb6e-d9e4-4d5e-b3bc-16a67e8de49b","ios":"levelo://app?vid=4949cb6e-d9e4-4d5e-b3bc-16a67e8de49b"},"vehicle_type_id":"4","last_reported":1768086634,"current_range_meters":7200,"station_id":"","pricing_plan_id":"cebpf4jnsgd1na2vs0mg"},{"bike_id":"7a888b55-8b12-47bf-a465-ca5ac78ac086","system_id":"levelo_inurba_marseille","lat":43.28939,"lon":5.38388,"is_reserved":false,"is_disabled":false,"rental_uris":{"android":"levelo://app?vid=7a888b55-8b12-47bf-a465-ca5ac78ac086","ios":"levelo://app?vid=7a888b55-8b12-47bf-a465-ca5ac78ac086"},"vehicle_type_id":"4","last_reported":1768086634,"current_range_meters":7200,"station_id":"ce4bh612rcd13ifvqe6g","pricing_plan_id":"cebpf4jnsgd1na2vs0mg"},{"bike_id":"d982cb69-fae2-4957-9164-7915b5ff0d5a","system_id":"levelo_inurba_marseille","lat":43.30247,"lon":5.40067,"is_reserved":false,"is_disabled":false,"rental_uris":{"android":"levelo://app?vid=d982cb69-fae2-4957-9164-7915b5ff0d5a","ios":"levelo://app?vid=d982cb69-fae2-4957-9164-7915b5ff0d5a"},"vehicle_type_id":"4","last_reported":1768086634,"current_range_meters":7200,"station_id":"ce4bgvh2rcd13ifvqcs0","pricing_plan_id":"cebpf4jnsgd1na2vs0mg"},{"bike_id":"9695ced4-9069-43de-9381-414e38a96d05","system_id":"levelo_inurba_marseille","lat":43.30039,"lon":5.37221,"is_reserved":false,"is_disabled":false,"rental_uris":{"android":"levelo://app?vid=9695ced4-9069-43de-9381-414e38a96d05","ios":"levelo://app?vid=9695ced4-9069-43de-9381-414e38a96d05"},"vehicle_type_id":"4","last_reported":1768086634,"current_range_meters":7200,"station_id":"","pricing_plan_id":"cebpf4jnsgd1na2vs0mg"},{"bike_id":"7f391882-abdd-4a67-9c14-bc81f5c2dbfb","system_id":"levelo_inurba_marseille","lat":43.2406,"lon":5.37756,"is_reserved":false,"is_disabled":false,"rental_uris":{"android":"levelo://app?vid=7f391882-abdd-4a67-9c14-bc81f5c2dbfb","ios":"levelo://app?vid=7f391882-abdd-4a67-9c14-bc81f5c2dbfb"},"vehicle_type_id":"4","last_reported":1768086634,"current_range_meters":7200,"station_id":"ce4bhnp2rcd13ifvqgvg","pricing_plan_id":"cebpf4jnsgd1na2vs0mg"},{"bike_id":"5f22f2f6-e38e-4ab5-b4b3-0df07f258114","system_id":"levelo_inurba_marseille","lat":43.25333,"lon":5.42165,"is_reserved":false,"is_disabled":false,"rental_uris":{"android":"levelo://app?vid=5f22f2f6-e38e-4ab5-b4b3-0df07f258114","ios":"levelo://app?vid=5f22f2f6-e38e-4ab5-b4b3-0df07f258114"},"vehicle_type_id":"4","last_reported":1768086634,"current_range_meters":7200,"station_id":"st_d2m65c5bi1j21697t3ng","pricing_plan_id":"cebpf4jnsgd1na2vs0mg"},{"bike_id":"ee66d2db-c17a-4b2a-83f9-37da596d1de5","system_id":"levelo_inurba_marseille","lat":43.24167,"lon":5.364,"is_reserved":false,"is_disabled":false,"rental_uris":{"android":"levelo://app?vid=ee66d2db-c17a-4b2a-83f9-37da596d1de5","ios":"levelo://app?vid=ee66d2db-c17a-4b2a-83f9-37da596d1de5"},"vehicle_type_id":"4","last_reported":1768086634,"current_range_meters":7200,"station_id":"cpo36qri1sfpv3e86is0","pricing_plan_id":"cebpf4jnsgd1na2vs0mg"},{"bike_id":"7c6e8543-32df-4a27-bc11-b68f55311974","system_id":"levelo_inurba_marseille","lat":43.28507,"lon":5.48386,"is_reserved":false,"is_disabled":false,"rental_uris":{"android":"levelo://app?vid=7c6e8543-32df-4a27-bc11-b68f55311974","ios":"levelo://app?vid=7c6e8543-32df-4a27-bc11-b68f55311974"},"vehicle_type_id":"4","last_reported":1768086634,"current_range_meters":7200,"station_id":"","pricing_plan_id":"cebpf4jnsgd1na2vs0mg"},{"bike_id":"ca763893-591a-4d7f-912f-cd2a0b2472a1","system_id":"levelo_inurba_marseille","lat":43.30632,"lon":5.39274,"is_reserved":false,"is_disabled":false,"rental_uris":{"android":"levelo://app?vid=ca763893-591a-4d7f-912f-cd2a0b2472a1","ios":"levelo://app?vid=ca763893-591a-4d7f-912f-cd2a0b2472a1"},"vehicle_type_id":"4","last_reported":1768086634,"current_range_meters":7200,"station_id":"","pricing_plan_id":"cebpf4jnsgd1na2vs0mg"},{"bike_id":"f4a60f1b-2920-4fb8-8f42-1eaeaa00e372","system_id":"levelo_inurba_marseille","lat":43.30126,"lon":5.43122,"is_reserved":false,"is_disabled":false,"rental_uris":{"android":"levelo://app?vid=f4a60f1b-2920-4fb8-8f42-1eaeaa00e372","ios":"levelo://app?vid=f4a60f1b-2920-4fb8-8f42-1eaeaa00e372"},"vehicle_type_id":"4","last_reported":1768086634,"current_range_meters":7200,"station_id":"st_d3js3co5814s73ftftug","pricing_plan_id":"cebpf4jnsgd1na2vs0mg"},{"bike_id":"a20e324f-461e-49f1-9758-c1dce453e58f","system_id":"levelo_inurba_marseille","lat":43.22994,"lon":5.35406,"is_reserved":false,"is_disabled":false,"rental_uris":{"android":"levelo://app?vid=a20e324f-461e-49f1-9758-c1dce453e58f","ios":"levelo://app?vid=a20e324f-461e-49f1-9758-c1dce453e58f"},"vehicle_type_id":"4","last_reported":1768086634,"current_range_meters":7200,"station_id":"cpo3532slgdg3j2ikp40","pricing_plan_id":"cebpf4jnsgd1na2vs0mg"},{"bike_id":"aea8dbf9-7d4c-4d46-acea-0eff00102a2f","system_id":"levelo_inurba_marseille","lat":43.292642,"lon":5.401571,"is_reserved":false,"is_disabled":false,"rental_uris":{"android":"levelo://app?vid=aea8dbf9-7d4c-4d46-acea-0eff00102a2f","ios":"levelo://app?vid=aea8dbf9-7d4c-4d46-acea-0eff00102a2f"},"vehicle_type_id":"4","last_reported":1768086634,"current_range_meters":7200,"station_id":"ce4bh312rcd13ifvqdk0","pricing_plan_id":"cebpf4jnsgd1na2vs0mg"},{"bike_id":"520f905b-9190-4407-aa69-8696aaa8c86e","system_id":"levelo_inurba_marseille","lat":43.29798,"lon":5.37119,"is_reserved":false,"is_disabled":false,"rental_uris":{"android":"levelo://app?vid=520f905b-9190-4407-aa69-8696aaa8c86e","ios":"levelo://app?vid=520f905b-9190-4407-aa69-8696aaa8c86e"},"vehicle_type_id":"4","last_reported":1768086634,"current_range_meters":8000,"station_id":"ce4bgop2rcd13ifvqc1g","pricing_plan_id":"cebpf4jnsgd1na2vs0mg"},{"bike_id":"a815540b-72e6-4e6f-b923-e273e879b5e8","system_id":"levelo_inurba_marseille","lat":43.25593,"lon":5.38225,"is_reserved":false,"is_disabled":false,"rental_uris":{"android":"levelo://app?vid=a815540b-72e6-4e6f-b923-e273e879b5e8","ios":"levelo://app?vid=a815540b-72e6-4e6f-b923-e273e879b5e8"},"vehicle_type_id":"4","last_reported":1768086634,"current_range_meters":8000,"station_id":"ce4bhih2rcd13ifvqfs0","pricing_plan_id":"cebpf4jnsgd1na2vs0mg"},{"bike_id":"e7e6cb92-4ba6-4878-a96f-e087afdbdbc0","system_id":"levelo_inurba_marseille","lat":43.22921,"lon":5.35377,"is_reserved":false,"is_disabled":false,"rental_uris":{"android":"levelo://app?vid=e7e6cb92-4ba6-4878-a96f-e087afdbdbc0","ios":"levelo://app?vid=e7e6cb92-4ba6-4878-a96f-e087afdbdbc0"},"vehicle_type_id":"4","last_reported":1768086634,"current_range_meters":8000,"station_id":"cpo3532slgdg3j2ikp40","pricing_plan_id":"cebpf4jnsgd1na2vs0mg"},{"bike_id":"ac194fe7-8594-4c4e-a0f2-5b58d3a80c10","system_id":"levelo_inurba_marseille","lat":43.30096,"lon":5.39069,"is_reserved":false,"is_disabled":false,"rental_uris":{"android":"levelo://app?vid=ac194fe7-8594-4c4e-a0f2-5b58d3a80c10","ios":"levelo://app?vid=ac194fe7-8594-4c4e-a0f2-5b58d3a80c10"},"vehicle_type_id":"4","last_reported":1768086634,"current_range_meters":8000,"station_id":"ce4bh192rcd13ifvqdb0","pricing_plan_id":"cebpf4jnsgd1na2vs0mg"},{"bike_id":"6051ea28-4252-4234-a1eb-0b453028ae6e","system_id":"levelo_inurba_marseille","lat":43.2861,"lon":5.35113,"is_reserved":false,"is_disabled":false,"rental_uris":{"android":"levelo://app?vid=6051ea28-4252-4234-a1eb-0b453028ae6e","ios":"levelo://app?vid=6051ea28-4252-4234-a1eb-0b453028ae6e"},"vehicle_type_id":"4","last_reported":1768086634,"current_range_meters":8000,"station_id":"ce4bhch2rcd13ifvqeug","pricing_plan_id":"cebpf4jnsgd1na2vs0mg"},{"bike_id":"e687f26e-1a6d-45be-8b63-1ccd629f02c6","system_id":"levelo_inurba_marseille","lat":43.29353,"lon":5.37174,"is_reserved":false,"is_disabled":false,"rental_uris":{"android":"levelo://app?vid=e687f26e-1a6d-45be-8b63-1ccd629f02c6","ios":"levelo://app?vid=e687f26e-1a6d-45be-8b63-1ccd629f02c6"},"vehicle_type_id":"4","last_reported":1768086634,"current_range_meters":8000,"station_id":"","pricing_plan_id":"cebpf4jnsgd1na2vs0mg"},{"bike_id":"de025d8b-9701-499a-99d0-5a88bfb4d63f","system_id":"levelo_inurba_marseille","lat":43.25574,"lon":5.38258,"is_reserved":false,"is_disabled":false,"rental_uris":{"android":"levelo://app?vid=de025d8b-9701-499a-99d0-5a88bfb4d63f","ios":"levelo://app?vid=de025d8b-9701-499a-99d0-5a88bfb4d63f"},"vehicle_type_id":"4","last_reported":1768086634,"current_range_meters":8000,"station_id":"ce4bhih2rcd13ifvqfs0","pricing_plan_id":"cebpf4jnsgd1na2vs0mg"},{"bike_id":"31ddb865-11db-4d02-a42e-59f8adbeb38f","system_id":"levelo_inurba_marseille","lat":43.24067,"lon":5.37772,"is_reserved":false,"is_disabled":false,"rental_uris":{"android":"levelo://app?vid=31ddb865-11db-4d02-a42e-59f8adbeb38f","ios":"levelo://app?vid=31ddb865-11db-4d02-a42e-59f8adbeb38f"},"vehicle_type_id":"4","last_reported":1768086634,"current_range_meters":8000,"station_id":"ce4bhnp2rcd13ifvqgvg","pricing_plan_id":"cebpf4jnsgd1na2vs0mg"},{"bike_id":"9e546458-c3a8-4e35-9b2b-b0910317fcfc","system_id":"levelo_inurba_marseille","lat":43.22929,"lon":5.35379,"is_reserved":false,"is_disabled":false,"rental_uris":{"android":"levelo://app?vid=9e546458-c3a8-4e35-9b2b-b0910317fcfc","ios":"levelo://app?vid=9e546458-c3a8-4e35-9b2b-b0910317fcfc"},"vehicle_type_id":"4","last_reported":1768086634,"current_range_meters":8000,"station_id":"cpo3532slgdg3j2ikp40","pricing_plan_id":"cebpf4jnsgd1na2vs0mg"},{"bike_id":"c61dd15c-3feb-4bcf-bf2b-d9ce96820805","system_id":"levelo_inurba_marseille","lat":43.25579,"lon":5.38222,"is_reserved":false,"is_disabled":false,"rental_uris":{"android":"levelo://app?vid=c61dd15c-3feb-4bcf-bf2b-d9ce96820805","ios":"levelo://app?vid=c61dd15c-3feb-4bcf-bf2b-d9ce96820805"},"vehicle_type_id":"4","last_reported":1768086634,"current_range_meters":8000,"station_id":"ce4bhih2rcd13ifvqfs0","pricing_plan_id":"cebpf4jnsgd1na2vs0mg"},{"bike_id":"ac44994a-d82f-4544-98c2-dc3d1b181253","system_id":"levelo_inurba_marseille","lat":43.31342,"lon":5.36733,"is_reserved":false,"is_disabled":false,"rental_uris":{"android":"levelo://app?vid=ac44994a-d82f-4544-98c2-dc3d1b181253","ios":"levelo://app?vid=ac44994a-d82f-4544-98c2-dc3d1b181253"},"vehicle_type_id":"4","last_reported":1768086634,"current_range_meters":8000,"station_id":"ce4bgr92rcd13ifvqc6g","pricing_plan_id":"cebpf4jnsgd1na2vs0mg"},{"bike_id":"f0b507e4-289a-47f5-91bc-6cb1950546cc","system_id":"levelo_inurba_marseille","lat":43.26561,"lon":5.40331,"is_reserved":false,"is_disabled":false,"rental_uris":{"android":"levelo://app?vid=f0b507e4-289a-47f5-91bc-6cb1950546cc","ios":"levelo://app?vid=f0b507e4-289a-47f5-91bc-6cb1950546cc"},"vehicle_type_id":"4","last_reported":1768086634,"current_range_meters":8000,"station_id":"ce4bhmp2rcd13ifvqgng","pricing_plan_id":"cebpf4jnsgd1na2vs0mg"},{"bike_id":"94e0bc5d-8493-42b4-9387-8afb1f1131f4","system_id":"levelo_inurba_marseille","lat":43.33292,"lon":5.38487,"is_reserved":false,"is_disabled":false,"rental_uris":{"android":"levelo://app?vid=94e0bc5d-8493-42b4-9387-8afb1f1131f4","ios":"levelo://app?vid=94e0bc5d-8493-42b4-9387-8afb1f1131f4"},"vehicle_type_id":"4","last_reported":1768086634,"current_range_meters":8000,"station_id":"","pricing_plan_id":"cebpf4jnsgd1na2vs0mg"},{"bike_id":"e199aa3f-4f3a-410e-b779-7de28b802cbb","system_id":"levelo_inurba_marseille","lat":43.28696,"lon":5.39985,"is_reserved":false,"is_disabled":false,"rental_uris":{"android":"levelo://app?vid=e199aa3f-4f3a-410e-b779-7de28b802cbb","ios":"levelo://app?vid=e199aa3f-4f3a-410e-b779-7de28b802cbb"},"vehicle_type_id":"4","last_reported":1768086634,"current_range_meters":8000,"station_id":"ce4bho92rcd13ifvqh3g","pricing_plan_id":"cebpf4jnsgd1na2vs0mg"},{"bike_id":"26201a0e-2fa7-46bf-adb4-65d194f95ff4","system_id":"levelo_inurba_marseille","lat":43.28699,"lon":5.37392,"is_reserved":false,"is_disabled":true,"rental_uris":{"android":"levelo://app?vid=26201a0e-2fa7-46bf-adb4-65d194f95ff4","ios":"levelo://app?vid=26201a0e-2fa7-46bf-adb4-65d194f95ff4"},"vehicle_type_id":"4","last_reported":1768086634,"current_range_meters":8000,"station_id":"ce4bh3p2rcd13ifvqdq0","pricing_plan_id":"cebpf4jnsgd1na2vs0mg"},{"bike_id":"6074d460-8355-43c9-ad00-28e850a7492f","system_id":"levelo_inurba_marseille","lat":43.28872,"lon":5.42526,"is_reserved":false,"is_disabled":false,"rental_uris":{"android":"levelo://app?vid=6074d460-8355-43c9-ad00-28e850a7492f","ios":"levelo://app?vid=6074d460-8355-43c9-ad00-28e850a7492f"},"vehicle_type_id":"4","last_reported":1768086634,"current_range_meters":8000,"station_id":"st_d3b462108ojc7389ooeg","pricing_plan_id":"cebpf4jnsgd1na2vs0mg"},{"bike_id":"86709c1a-db9f-4cb0-a547-2ddc56e50756","system_id":"levelo_inurba_marseille","lat":43.29029,"lon":5.38645,"is_reserved":false,"is_disabled":false,"rental_uris":{"android":"levelo://app?vid=86709c1a-db9f-4cb0-a547-2ddc56e50756","ios":"levelo://app?vid=86709c1a-db9f-4cb0-a547-2ddc56e50756"},"vehicle_type_id":"4","last_reported":1768086634,"current_range_meters":8000,"station_id":"ce4bh4p2rcd13ifvqe0g","pricing_plan_id":"cebpf4jnsgd1na2vs0mg"},{"bike_id":"17f66319-ac3b-44f3-9f86-4da99c24d4a6","system_id":"levelo_inurba_marseille","lat":43.26033,"lon":5.37567,"is_reserved":false,"is_disabled":false,"rental_uris":{"android":"levelo://app?vid=17f66319-ac3b-44f3-9f86-4da99c24d4a6","ios":"levelo://app?vid=17f66319-ac3b-44f3-9f86-4da99c24d4a6"},"vehicle_type_id":"4","last_reported":1768086634,"current_range_meters":8000,"station_id":"ce4bhgh2rcd13ifvqfa0","pricing_plan_id":"cebpf4jnsgd1na2vs0mg"},{"bike_id":"7d830b5d-9ecf-4784-ac40-38317f2e4419","system_id":"levelo_inurba_marseille","lat":43.27613,"lon":5.3612,"is_reserved":false,"is_disabled":false,"rental_uris":{"android":"levelo://app?vid=7d830b5d-9ecf-4784-ac40-38317f2e4419","ios":"levelo://app?vid=7d830b5d-9ecf-4784-ac40-38317f2e4419"},"vehicle_type_id":"4","last_reported":1768086634,"current_range_meters":8000,"station_id":"ce4bgj92rcd13ifvqbe0","pricing_plan_id":"cebpf4jnsgd1na2vs0mg"},{"bike_id":"15acaff8-889e-4081-ae54-8b8658492504","system_id":"levelo_inurba_marseille","lat":43.31406,"lon":5.40359,"is_reserved":false,"is_disabled":false,"rental_uris":{"android":"levelo://app?vid=15acaff8-889e-4081-ae54-8b8658492504","ios":"levelo://app?vid=15acaff8-889e-4081-ae54-8b8658492504"},"vehicle_type_id":"4","last_reported":1768086634,"current_range_meters":8000,"station_id":"","pricing_plan_id":"cebpf4jnsgd1na2vs0mg"},{"bike_id":"9227257d-26df-4311-bdb9-080324817f5d","system_id":"levelo_inurba_marseille","lat":43.21737,"lon":5.34626,"is_reserved":false,"is_disabled":true,"rental_uris":{"android":"levelo://app?vid=9227257d-26df-4311-bdb9-080324817f5d","ios":"levelo://app?vid=9227257d-26df-4311-bdb9-080324817f5d"},"vehicle_type_id":"4","last_reported":1768086634,"current_range_meters":8000,"station_id":"","pricing_plan_id":"cebpf4jnsgd1na2vs0mg"},{"bike_id":"60b9dcc5-f907-4073-9070-9d0e81ac445c","system_id":"levelo_inurba_marseille","lat":43.28738,"lon":5.36088,"is_reserved":false,"is_disabled":false,"rental_uris":{"android":"levelo://app?vid=60b9dcc5-f907-4073-9070-9d0e81ac445c","ios":"levelo://app?vid=60b9dcc5-f907-4073-9070-9d0e81ac445c"},"vehicle_type_id":"4","last_reported":1768086634,"current_range_meters":8000,"station_id":"cki0cbj6b192h4jlfktg","pricing_plan_id":"cebpf4jnsgd1na2vs0mg"},{"bike_id":"975619be-42a7-4800-8abc-7cfc8ab91bb2","system_id":"levelo_inurba_marseille","lat":43.30952,"lon":5.36855,"is_reserved":false,"is_disabled":false,"rental_uris":{"android":"levelo://app?vid=975619be-42a7-4800-8abc-7cfc8ab91bb2","ios":"levelo://app?vid=975619be-42a7-4800-8abc-7cfc8ab91bb2"},"vehicle_type_id":"4","last_reported":1768086634,"current_range_meters":8000,"station_id":"ce4bgn92rcd13ifvqbvg","pricing_plan_id":"cebpf4jnsgd1na2vs0mg"},{"bike_id":"8c234d55-c554-4583-8221-7b1740fc0979","system_id":"levelo_inurba_marseille","lat":43.2871,"lon":5.36098,"is_reserved":false,"is_disabled":false,"rental_uris":{"android":"levelo://app?vid=8c234d55-c554-4583-8221-7b1740fc0979","ios":"levelo://app?vid=8c234d55-c554-4583-8221-7b1740fc0979"},"vehicle_type_id":"4","last_reported":1768086634,"current_range_meters":8000,"station_id":"cki0cbj6b192h4jlfktg","pricing_plan_id":"cebpf4jnsgd1na2vs0mg"},{"bike_id":"baebb161-7721-4b4d-afb9-a5c5e1f5e9ac","system_id":"levelo_inurba_marseille","lat":43.26203,"lon":5.37933,"is_reserved":false,"is_disabled":false,"rental_uris":{"android":"levelo://app?vid=baebb161-7721-4b4d-afb9-a5c5e1f5e9ac","ios":"levelo://app?vid=baebb161-7721-4b4d-afb9-a5c5e1f5e9ac"},"vehicle_type_id":"4","last_reported":1768086634,"current_range_meters":8400,"station_id":"ce4bhjp2rcd13ifvqg90","pricing_plan_id":"cebpf4jnsgd1na2vs0mg"},{"bike_id":"c46739cb-8652-48d3-972f-9096dc83781a","system_id":"levelo_inurba_marseille","lat":43.2319,"lon":5.35562,"is_reserved":false,"is_disabled":false,"rental_uris":{"android":"levelo://app?vid=c46739cb-8652-48d3-972f-9096dc83781a","ios":"levelo://app?vid=c46739cb-8652-48d3-972f-9096dc83781a"},"vehicle_type_id":"4","last_reported":1768086634,"current_range_meters":8400,"station_id":"ce4bhu92rcd13ifvqi70","pricing_plan_id":"cebpf4jnsgd1na2vs0mg"},{"bike_id":"ae427873-2ce0-47ee-826b-d04d8e4f867a","system_id":"levelo_inurba_marseille","lat":43.30144,"lon":5.43121,"is_reserved":false,"is_disabled":false,"rental_uris":{"android":"levelo://app?vid=ae427873-2ce0-47ee-826b-d04d8e4f867a","ios":"levelo://app?vid=ae427873-2ce0-47ee-826b-d04d8e4f867a"},"vehicle_type_id":"4","last_reported":1768086634,"current_range_meters":8400,"station_id":"st_d3js3co5814s73ftftug","pricing_plan_id":"cebpf4jnsgd1na2vs0mg"},{"bike_id":"5d7dd672-0bb1-4b2a-bcb6-91578753eb1f","system_id":"levelo_inurba_marseille","lat":43.25107,"lon":5.39497,"is_reserved":false,"is_disabled":false,"rental_uris":{"android":"levelo://app?vid=5d7dd672-0bb1-4b2a-bcb6-91578753eb1f","ios":"levelo://app?vid=5d7dd672-0bb1-4b2a-bcb6-91578753eb1f"},"vehicle_type_id":"4","last_reported":1768086634,"current_range_meters":8400,"station_id":"ce4bhm12rcd13ifvqgkg","pricing_plan_id":"cebpf4jnsgd1na2vs0mg"},{"bike_id":"3036e6e3-dd55-4005-b37a-9493028b51e4","system_id":"levelo_inurba_marseille","lat":43.23777,"lon":5.36651,"is_reserved":false,"is_disabled":false,"rental_uris":{"android":"levelo://app?vid=3036e6e3-dd55-4005-b37a-9493028b51e4","ios":"levelo://app?vid=3036e6e3-dd55-4005-b37a-9493028b51e4"},"vehicle_type_id":"4","last_reported":1768086634,"current_range_meters":8400,"station_id":"st_d3nk18o9ro0c73en2l3g","pricing_plan_id":"cebpf4jnsgd1na2vs0mg"},{"bike_id":"37285173-7629-4cca-86c4-ad83064b32f4","system_id":"levelo_inurba_marseille","lat":43.26541,"lon":5.37325,"is_reserved":false,"is_disabled":false,"rental_uris":{"android":"levelo://app?vid=37285173-7629-4cca-86c4-ad83064b32f4","ios":"levelo://app?vid=37285173-7629-4cca-86c4-ad83064b32f4"},"vehicle_type_id":"4","last_reported":1768086634,"current_range_meters":8400,"station_id":"ce4bhg12rcd13ifvqf70","pricing_plan_id":"cebpf4jnsgd1na2vs0mg"},{"bike_id":"d047f3e6-5232-4d8a-a716-cf93d04ed4b1","system_id":"levelo_inurba_marseille","lat":43.27216,"lon":5.40981,"is_reserved":false,"is_disabled":false,"rental_uris":{"android":"levelo://app?vid=d047f3e6-5232-4d8a-a716-cf93d04ed4b1","ios":"levelo://app?vid=d047f3e6-5232-4d8a-a716-cf93d04ed4b1"},"vehicle_type_id":"4","last_reported":1768086634,"current_range_meters":8400,"station_id":"","pricing_plan_id":"cebpf4jnsgd1na2vs0mg"},{"bike_id":"bc2f6e92-a050-4635-ad40-cf12e054542a","system_id":"levelo_inurba_marseille","lat":43.27946,"lon":5.41061,"is_reserved":false,"is_disabled":false,"rental_uris":{"android":"levelo://app?vid=bc2f6e92-a050-4635-ad40-cf12e054542a","ios":"levelo://app?vid=bc2f6e92-a050-4635-ad40-cf12e054542a"},"vehicle_type_id":"4","last_reported":1768086634,"current_range_meters":8400,"station_id":"ce4bhnp2rcd13ifvqh0g","pricing_plan_id":"cebpf4jnsgd1na2vs0mg"},{"bike_id":"202b9ed5-8993-43b0-b2e5-5a58a7060431","system_id":"levelo_inurba_marseille","lat":43.280907,"lon":5.396488,"is_reserved":false,"is_disabled":false,"rental_uris":{"android":"levelo://app?vid=202b9ed5-8993-43b0-b2e5-5a58a7060431","ios":"levelo://app?vid=202b9ed5-8993-43b0-b2e5-5a58a7060431"},"vehicle_type_id":"4","last_reported":1768086634,"current_range_meters":8400,"station_id":"ce4bho12rcd13ifvqh2g","pricing_plan_id":"cebpf4jnsgd1na2vs0mg"},{"bike_id":"fe2bc6fa-f446-40d0-baed-54c9cf9ce6c8","system_id":"levelo_inurba_marseille","lat":43.26596,"lon":5.40321,"is_reserved":false,"is_disabled":false,"rental_uris":{"android":"levelo://app?vid=fe2bc6fa-f446-40d0-baed-54c9cf9ce6c8","ios":"levelo://app?vid=fe2bc6fa-f446-40d0-baed-54c9cf9ce6c8"},"vehicle_type_id":"4","last_reported":1768086634,"current_range_meters":8400,"station_id":"ce4bhmp2rcd13ifvqgng","pricing_plan_id":"cebpf4jnsgd1na2vs0mg"},{"bike_id":"6f7b8899-58f0-4e9d-991f-0ba19143e03d","system_id":"levelo_inurba_marseille","lat":43.27074,"lon":5.383,"is_reserved":false,"is_disabled":false,"rental_uris":{"android":"levelo://app?vid=6f7b8899-58f0-4e9d-991f-0ba19143e03d","ios":"levelo://app?vid=6f7b8899-58f0-4e9d-991f-0ba19143e03d"},"vehicle_type_id":"4","last_reported":1768086634,"current_range_meters":8400,"station_id":"st_d3n2fo6cfp8s73cte1j0","pricing_plan_id":"cebpf4jnsgd1na2vs0mg"},{"bike_id":"ad30565c-289e-47dc-9d4c-757c1f0ec127","system_id":"levelo_inurba_marseille","lat":43.30912,"lon":5.36854,"is_reserved":false,"is_disabled":false,"rental_uris":{"android":"levelo://app?vid=ad30565c-289e-47dc-9d4c-757c1f0ec127","ios":"levelo://app?vid=ad30565c-289e-47dc-9d4c-757c1f0ec127"},"vehicle_type_id":"4","last_reported":1768086634,"current_range_meters":8400,"station_id":"ce4bgn92rcd13ifvqbvg","pricing_plan_id":"cebpf4jnsgd1na2vs0mg"},{"bike_id":"d4287e0d-2f6f-4e66-9572-51a24be57a06","system_id":"levelo_inurba_marseille","lat":43.30252,"lon":5.40082,"is_reserved":false,"is_disabled":false,"rental_uris":{"android":"levelo://app?vid=d4287e0d-2f6f-4e66-9572-51a24be57a06","ios":"levelo://app?vid=d4287e0d-2f6f-4e66-9572-51a24be57a06"},"vehicle_type_id":"4","last_reported":1768086634,"current_range_meters":8400,"station_id":"ce4bgvh2rcd13ifvqcs0","pricing_plan_id":"cebpf4jnsgd1na2vs0mg"},{"bike_id":"87d5c75a-ce16-46ad-a6dd-f7088e8ac2aa","system_id":"levelo_inurba_marseille","lat":43.25861,"lon":5.39909,"is_reserved":false,"is_disabled":false,"rental_uris":{"android":"levelo://app?vid=87d5c75a-ce16-46ad-a6dd-f7088e8ac2aa","ios":"levelo://app?vid=87d5c75a-ce16-46ad-a6dd-f7088e8ac2aa"},"vehicle_type_id":"4","last_reported":1768086634,"current_range_meters":8400,"station_id":"ce4bhl92rcd13ifvqghg","pricing_plan_id":"cebpf4jnsgd1na2vs0mg"},{"bike_id":"78190b18-d4f6-4583-b796-9b44806d2811","system_id":"levelo_inurba_marseille","lat":43.28527,"lon":5.48422,"is_reserved":false,"is_disabled":false,"rental_uris":{"android":"levelo://app?vid=78190b18-d4f6-4583-b796-9b44806d2811","ios":"levelo://app?vid=78190b18-d4f6-4583-b796-9b44806d2811"},"vehicle_type_id":"4","last_reported":1768086634,"current_range_meters":8400,"station_id":"","pricing_plan_id":"cebpf4jnsgd1na2vs0mg"},{"bike_id":"65ad97e6-aef1-40d9-8756-ec2d6c923c46","system_id":"levelo_inurba_marseille","lat":43.22943,"lon":5.35384,"is_reserved":false,"is_disabled":false,"rental_uris":{"android":"levelo://app?vid=65ad97e6-aef1-40d9-8756-ec2d6c923c46","ios":"levelo://app?vid=65ad97e6-aef1-40d9-8756-ec2d6c923c46"},"vehicle_type_id":"4","last_reported":1768086634,"current_range_meters":8400,"station_id":"cpo3532slgdg3j2ikp40","pricing_plan_id":"cebpf4jnsgd1na2vs0mg"},{"bike_id":"ac730005-0665-432f-ad4b-605efb431d13","system_id":"levelo_inurba_marseille","lat":43.28091,"lon":5.37861,"is_reserved":false,"is_disabled":false,"rental_uris":{"android":"levelo://app?vid=ac730005-0665-432f-ad4b-605efb431d13","ios":"levelo://app?vid=ac730005-0665-432f-ad4b-605efb431d13"},"vehicle_type_id":"4","last_reported":1768086634,"current_range_meters":8400,"station_id":"ce4bha12rcd13ifvqee0","pricing_plan_id":"cebpf4jnsgd1na2vs0mg"},{"bike_id":"705e3ccc-26e4-438e-9cad-5b3d34f6daf9","system_id":"levelo_inurba_marseille","lat":43.31342,"lon":5.36717,"is_reserved":false,"is_disabled":false,"rental_uris":{"android":"levelo://app?vid=705e3ccc-26e4-438e-9cad-5b3d34f6daf9","ios":"levelo://app?vid=705e3ccc-26e4-438e-9cad-5b3d34f6daf9"},"vehicle_type_id":"4","last_reported":1768086634,"current_range_meters":8400,"station_id":"ce4bgr92rcd13ifvqc6g","pricing_plan_id":"cebpf4jnsgd1na2vs0mg"},{"bike_id":"47f9fab0-bcf1-4c60-b972-ce984ebdb3bc","system_id":"levelo_inurba_marseille","lat":43.27992,"lon":5.4001,"is_reserved":false,"is_disabled":false,"rental_uris":{"android":"levelo://app?vid=47f9fab0-bcf1-4c60-b972-ce984ebdb3bc","ios":"levelo://app?vid=47f9fab0-bcf1-4c60-b972-ce984ebdb3bc"},"vehicle_type_id":"4","last_reported":1768086634,"current_range_meters":8400,"station_id":"ce4bho92rcd13ifvqh4g","pricing_plan_id":"cebpf4jnsgd1na2vs0mg"},{"bike_id":"fa4bb0d8-ba68-465b-864b-6be18ff84a1b","system_id":"levelo_inurba_marseille","lat":43.23208,"lon":5.35558,"is_reserved":false,"is_disabled":false,"rental_uris":{"android":"levelo://app?vid=fa4bb0d8-ba68-465b-864b-6be18ff84a1b","ios":"levelo://app?vid=fa4bb0d8-ba68-465b-864b-6be18ff84a1b"},"vehicle_type_id":"4","last_reported":1768086634,"current_range_meters":8400,"station_id":"ce4bhu92rcd13ifvqi70","pricing_plan_id":"cebpf4jnsgd1na2vs0mg"},{"bike_id":"6d5b278d-3399-469d-9b45-2dd7371805a4","system_id":"levelo_inurba_marseille","lat":43.284,"lon":5.38147,"is_reserved":false,"is_disabled":false,"rental_uris":{"android":"levelo://app?vid=6d5b278d-3399-469d-9b45-2dd7371805a4","ios":"levelo://app?vid=6d5b278d-3399-469d-9b45-2dd7371805a4"},"vehicle_type_id":"4","last_reported":1768086634,"current_range_meters":8400,"station_id":"","pricing_plan_id":"cebpf4jnsgd1na2vs0mg"},{"bike_id":"fb0ea01a-85fc-4b12-bc32-55cb721216a7","system_id":"levelo_inurba_marseille","lat":43.31362,"lon":5.36666,"is_reserved":false,"is_disabled":false,"rental_uris":{"android":"levelo://app?vid=fb0ea01a-85fc-4b12-bc32-55cb721216a7","ios":"levelo://app?vid=fb0ea01a-85fc-4b12-bc32-55cb721216a7"},"vehicle_type_id":"4","last_reported":1768086634,"current_range_meters":8400,"station_id":"ce4bgr92rcd13ifvqc6g","pricing_plan_id":"cebpf4jnsgd1na2vs0mg"},{"bike_id":"5094aeb9-ac3f-47d1-a484-8aeeb36f0571","system_id":"levelo_inurba_marseille","lat":43.279983,"lon":5.416716,"is_reserved":false,"is_disabled":false,"rental_uris":{"android":"levelo://app?vid=5094aeb9-ac3f-47d1-a484-8aeeb36f0571","ios":"levelo://app?vid=5094aeb9-ac3f-47d1-a484-8aeeb36f0571"},"vehicle_type_id":"4","last_reported":1768086634,"current_range_meters":8800,"station_id":"ce4bho12rcd13ifvqh1g","pricing_plan_id":"cebpf4jnsgd1na2vs0mg"},{"bike_id":"7cc721e3-a1bc-4604-8a5c-634560c37980","system_id":"levelo_inurba_marseille","lat":43.26543,"lon":5.37294,"is_reserved":false,"is_disabled":false,"rental_uris":{"android":"levelo://app?vid=7cc721e3-a1bc-4604-8a5c-634560c37980","ios":"levelo://app?vid=7cc721e3-a1bc-4604-8a5c-634560c37980"},"vehicle_type_id":"4","last_reported":1768086634,"current_range_meters":8800,"station_id":"ce4bhg12rcd13ifvqf70","pricing_plan_id":"cebpf4jnsgd1na2vs0mg"},{"bike_id":"f0ebc8c2-e687-4bde-b3f8-6d500df6884a","system_id":"levelo_inurba_marseille","lat":43.29904,"lon":5.43668,"is_reserved":false,"is_disabled":false,"rental_uris":{"android":"levelo://app?vid=f0ebc8c2-e687-4bde-b3f8-6d500df6884a","ios":"levelo://app?vid=f0ebc8c2-e687-4bde-b3f8-6d500df6884a"},"vehicle_type_id":"4","last_reported":1768086634,"current_range_meters":8800,"station_id":"ce4bhpp2rcd13ifvqhfg","pricing_plan_id":"cebpf4jnsgd1na2vs0mg"},{"bike_id":"f7b46d8b-21f8-4f13-ab03-93f5f94c03cc","system_id":"levelo_inurba_marseille","lat":43.31081,"lon":5.42433,"is_reserved":false,"is_disabled":false,"rental_uris":{"android":"levelo://app?vid=f7b46d8b-21f8-4f13-ab03-93f5f94c03cc","ios":"levelo://app?vid=f7b46d8b-21f8-4f13-ab03-93f5f94c03cc"},"vehicle_type_id":"4","last_reported":1768086634,"current_range_meters":8800,"station_id":"ce4bhp92rcd13ifvqhag","pricing_plan_id":"cebpf4jnsgd1na2vs0mg"},{"bike_id":"827eb9dc-2858-4536-ba15-e17d2aa41481","system_id":"levelo_inurba_marseille","lat":43.27803,"lon":5.40673,"is_reserved":false,"is_disabled":false,"rental_uris":{"android":"levelo://app?vid=827eb9dc-2858-4536-ba15-e17d2aa41481","ios":"levelo://app?vid=827eb9dc-2858-4536-ba15-e17d2aa41481"},"vehicle_type_id":"4","last_reported":1768086634,"current_range_meters":8800,"station_id":"ce4bhnh2rcd13ifvqgtg","pricing_plan_id":"cebpf4jnsgd1na2vs0mg"},{"bike_id":"8708ff7a-0d67-45df-a37c-7e83ef319635","system_id":"levelo_inurba_marseille","lat":43.3106,"lon":5.42424,"is_reserved":false,"is_disabled":false,"rental_uris":{"android":"levelo://app?vid=8708ff7a-0d67-45df-a37c-7e83ef319635","ios":"levelo://app?vid=8708ff7a-0d67-45df-a37c-7e83ef319635"},"vehicle_type_id":"4","last_reported":1768086634,"current_range_meters":8800,"station_id":"ce4bhp92rcd13ifvqhag","pricing_plan_id":"cebpf4jnsgd1na2vs0mg"},{"bike_id":"d604c81f-a764-4060-8aab-045d72b9c1c2","system_id":"levelo_inurba_marseille","lat":43.29571,"lon":5.39078,"is_reserved":false,"is_disabled":false,"rental_uris":{"android":"levelo://app?vid=d604c81f-a764-4060-8aab-045d72b9c1c2","ios":"levelo://app?vid=d604c81f-a764-4060-8aab-045d72b9c1c2"},"vehicle_type_id":"4","last_reported":1768086634,"current_range_meters":8800,"station_id":"","pricing_plan_id":"cebpf4jnsgd1na2vs0mg"},{"bike_id":"2576b791-89b9-436c-883e-3191d9c51a32","system_id":"levelo_inurba_marseille","lat":43.225257,"lon":5.348438,"is_reserved":false,"is_disabled":false,"rental_uris":{"android":"levelo://app?vid=2576b791-89b9-436c-883e-3191d9c51a32","ios":"levelo://app?vid=2576b791-89b9-436c-883e-3191d9c51a32"},"vehicle_type_id":"4","last_reported":1768086634,"current_range_meters":8800,"station_id":"","pricing_plan_id":"cebpf4jnsgd1na2vs0mg"},{"bike_id":"c41b4833-7081-4824-aaec-8187326c374d","system_id":"levelo_inurba_marseille","lat":43.27922,"lon":5.39581,"is_reserved":false,"is_disabled":false,"rental_uris":{"android":"levelo://app?vid=c41b4833-7081-4824-aaec-8187326c374d","ios":"levelo://app?vid=c41b4833-7081-4824-aaec-8187326c374d"},"vehicle_type_id":"4","last_reported":1768086634,"current_range_meters":8800,"station_id":"ce4bhf92rcd13ifvqf40","pricing_plan_id":"cebpf4jnsgd1na2vs0mg"},{"bike_id":"5aa482e6-221b-4498-a6a2-fec31f16d788","system_id":"levelo_inurba_marseille","lat":43.28484,"lon":5.48401,"is_reserved":false,"is_disabled":false,"rental_uris":{"android":"levelo://app?vid=5aa482e6-221b-4498-a6a2-fec31f16d788","ios":"levelo://app?vid=5aa482e6-221b-4498-a6a2-fec31f16d788"},"vehicle_type_id":"4","last_reported":1768086634,"current_range_meters":8800,"station_id":"","pricing_plan_id":"cebpf4jnsgd1na2vs0mg"},{"bike_id":"239a18cd-6c0d-43fb-8897-a3f843c7752a","system_id":"levelo_inurba_marseille","lat":43.24801,"lon":5.37469,"is_reserved":false,"is_disabled":false,"rental_uris":{"android":"levelo://app?vid=239a18cd-6c0d-43fb-8897-a3f843c7752a","ios":"levelo://app?vid=239a18cd-6c0d-43fb-8897-a3f843c7752a"},"vehicle_type_id":"4","last_reported":1768086634,"current_range_meters":8800,"station_id":"ce4bhgh2rcd13ifvqfb0","pricing_plan_id":"cebpf4jnsgd1na2vs0mg"},{"bike_id":"0737c10a-d287-45c3-a7cb-fc329a4255fd","system_id":"levelo_inurba_marseille","lat":43.217433,"lon":5.34609,"is_reserved":false,"is_disabled":false,"rental_uris":{"android":"levelo://app?vid=0737c10a-d287-45c3-a7cb-fc329a4255fd","ios":"levelo://app?vid=0737c10a-d287-45c3-a7cb-fc329a4255fd"},"vehicle_type_id":"4","last_reported":1768086634,"current_range_meters":8800,"station_id":"ce4bgkh2rcd13ifvqbl0","pricing_plan_id":"cebpf4jnsgd1na2vs0mg"},{"bike_id":"c59f5a79-013e-434e-937e-1cdde0b23ac2","system_id":"levelo_inurba_marseille","lat":43.25337,"lon":5.42174,"is_reserved":false,"is_disabled":false,"rental_uris":{"android":"levelo://app?vid=c59f5a79-013e-434e-937e-1cdde0b23ac2","ios":"levelo://app?vid=c59f5a79-013e-434e-937e-1cdde0b23ac2"},"vehicle_type_id":"4","last_reported":1768086634,"current_range_meters":8800,"station_id":"st_d2m65c5bi1j21697t3ng","pricing_plan_id":"cebpf4jnsgd1na2vs0mg"},{"bike_id":"6207b334-de1a-4d6e-94c8-e0f2904c4e9c","system_id":"levelo_inurba_marseille","lat":43.29271,"lon":5.38442,"is_reserved":false,"is_disabled":false,"rental_uris":{"android":"levelo://app?vid=6207b334-de1a-4d6e-94c8-e0f2904c4e9c","ios":"levelo://app?vid=6207b334-de1a-4d6e-94c8-e0f2904c4e9c"},"vehicle_type_id":"4","last_reported":1768086634,"current_range_meters":8800,"station_id":"ce4bh692rcd13ifvqea0","pricing_plan_id":"cebpf4jnsgd1na2vs0mg"},{"bike_id":"e6f34154-a48e-49f3-9790-37e1b4a4c491","system_id":"levelo_inurba_marseille","lat":43.30036,"lon":5.38224,"is_reserved":false,"is_disabled":false,"rental_uris":{"android":"levelo://app?vid=e6f34154-a48e-49f3-9790-37e1b4a4c491","ios":"levelo://app?vid=e6f34154-a48e-49f3-9790-37e1b4a4c491"},"vehicle_type_id":"4","last_reported":1768086634,"current_range_meters":8800,"station_id":"","pricing_plan_id":"cebpf4jnsgd1na2vs0mg"},{"bike_id":"6869894f-67a0-4b58-8bae-911192c83f2f","system_id":"levelo_inurba_marseille","lat":43.31869,"lon":5.39995,"is_reserved":false,"is_disabled":false,"rental_uris":{"android":"levelo://app?vid=6869894f-67a0-4b58-8bae-911192c83f2f","ios":"levelo://app?vid=6869894f-67a0-4b58-8bae-911192c83f2f"},"vehicle_type_id":"4","last_reported":1768086634,"current_range_meters":8800,"station_id":"","pricing_plan_id":"cebpf4jnsgd1na2vs0mg"},{"bike_id":"b555239d-2168-4ba9-bdf4-8b711ca32acb","system_id":"levelo_inurba_marseille","lat":43.28477,"lon":5.48385,"is_reserved":false,"is_disabled":false,"rental_uris":{"android":"levelo://app?vid=b555239d-2168-4ba9-bdf4-8b711ca32acb","ios":"levelo://app?vid=b555239d-2168-4ba9-bdf4-8b711ca32acb"},"vehicle_type_id":"4","last_reported":1768086634,"current_range_meters":8800,"station_id":"","pricing_plan_id":"cebpf4jnsgd1na2vs0mg"},{"bike_id":"d1291e49-4160-472c-94ec-e611b2f0932c","system_id":"levelo_inurba_marseille","lat":43.21747,"lon":5.34612,"is_reserved":false,"is_disabled":false,"rental_uris":{"android":"levelo://app?vid=d1291e49-4160-472c-94ec-e611b2f0932c","ios":"levelo://app?vid=d1291e49-4160-472c-94ec-e611b2f0932c"},"vehicle_type_id":"4","last_reported":1768086634,"current_range_meters":8800,"station_id":"st_cvj6r9ubvosntc0bgbag","pricing_plan_id":"cebpf4jnsgd1na2vs0mg"},{"bike_id":"83b3df41-5798-4bc7-b638-276defbc58b2","system_id":"levelo_inurba_marseille","lat":43.33594,"lon":5.40994,"is_reserved":false,"is_disabled":false,"rental_uris":{"android":"levelo://app?vid=83b3df41-5798-4bc7-b638-276defbc58b2","ios":"levelo://app?vid=83b3df41-5798-4bc7-b638-276defbc58b2"},"vehicle_type_id":"4","last_reported":1768086634,"current_range_meters":8800,"station_id":"ce4bhqh2rcd13ifvqhmg","pricing_plan_id":"cebpf4jnsgd1na2vs0mg"},{"bike_id":"5ae46213-526f-49bc-859d-bd77a6272ad3","system_id":"levelo_inurba_marseille","lat":43.23217,"lon":5.40016,"is_reserved":false,"is_disabled":true,"rental_uris":{"android":"levelo://app?vid=5ae46213-526f-49bc-859d-bd77a6272ad3","ios":"levelo://app?vid=5ae46213-526f-49bc-859d-bd77a6272ad3"},"vehicle_type_id":"4","last_reported":1768086634,"current_range_meters":9200,"station_id":"ce4bhn12rcd13ifvqgqg","pricing_plan_id":"cebpf4jnsgd1na2vs0mg"},{"bike_id":"f71d23bb-0817-4575-bf00-a7284c6a3bb5","system_id":"levelo_inurba_marseille","lat":43.29545,"lon":5.43352,"is_reserved":false,"is_disabled":false,"rental_uris":{"android":"levelo://app?vid=f71d23bb-0817-4575-bf00-a7284c6a3bb5","ios":"levelo://app?vid=f71d23bb-0817-4575-bf00-a7284c6a3bb5"},"vehicle_type_id":"4","last_reported":1768086634,"current_range_meters":9200,"station_id":"st_d3j5ugp08ojc73fj9d10","pricing_plan_id":"cebpf4jnsgd1na2vs0mg"},{"bike_id":"ddc7378a-6ac2-4f81-b850-4331ae563816","system_id":"levelo_inurba_marseille","lat":43.28346,"lon":5.38099,"is_reserved":false,"is_disabled":false,"rental_uris":{"android":"levelo://app?vid=ddc7378a-6ac2-4f81-b850-4331ae563816","ios":"levelo://app?vid=ddc7378a-6ac2-4f81-b850-4331ae563816"},"vehicle_type_id":"4","last_reported":1768086634,"current_range_meters":9200,"station_id":"ce4bh412rcd13ifvqdr0","pricing_plan_id":"cebpf4jnsgd1na2vs0mg"},{"bike_id":"ca35d045-2c1b-44bb-b957-8f4166968359","system_id":"levelo_inurba_marseille","lat":43.26081,"lon":5.39403,"is_reserved":false,"is_disabled":false,"rental_uris":{"android":"levelo://app?vid=ca35d045-2c1b-44bb-b957-8f4166968359","ios":"levelo://app?vid=ca35d045-2c1b-44bb-b957-8f4166968359"},"vehicle_type_id":"4","last_reported":1768086634,"current_range_meters":9200,"station_id":"ce4bhh92rcd13ifvqfj0","pricing_plan_id":"cebpf4jnsgd1na2vs0mg"},