{"last_updated":1784880381,"ttl":60,"version":"2.2","data":{"bikes":[{"bike_id":"7ef36254-6bb3-448c-8d77-979d957d54b6","system_id":"levelo_inurba_marseille","lat":43.337444,"lon":5.374475,"is_reserved":false,"is_disabled":false,"rental_uris":{"android":"levelo://app?vid=7ef36254-6bb3-448c-8d77-979d957d54b6","ios":"levelo://app?vid=7ef36254-6bb3-448c-8d77-979d957d54b6"},"vehicle_type_id":"4","last_reported":1784880382,"current_range_meters":0,"station_id":"","pricing_plan_id":"cebpf4jnsgd1na2vs0mg"},{"bike_id":"21fe2e98-0432-4b40-a81f-10dd00b0f57d","system_id":"levelo_inurba_marseille","lat":43.337444,"lon":5.374475,"is_reserved":false,"is_disabled":false,"rental_uris":{"android":"levelo://app?vid=21fe2e98-0432-4b40-a81f-10dd00b0f57d","ios":"levelo://app?vid=21fe2e98-0432-4b40-a81f-10dd00b0f57d"},"vehicle_type_id":"4","last_reported":1784880382,"current_range_meters":0,"station_id":"","pricing_plan_id":"cebpf4jnsgd1na2vs0mg"},{"bike_id":"e53cbd5f-5be8-4607-9d39-9bfd1b3bd943","system_id":"levelo_inurba_marseille","lat":43.30444,"lon":5.38908,"is_reserved":false,"is_disabled":false,"rental_uris":{"android":"levelo://app?vid=e53cbd5f-5be8-4607-9d39-9bfd1b3bd943","ios":"levelo://app?vid=e53cbd5f-5be8-4607-9d39-9bfd1b3bd943"},"vehicle_type_id":"4","last_reported":1784880382,"current_range_meters":27200,"station_id":"ce4bgk12rcd13ifvqbi0","pricing_plan_id":"cebpf4jnsgd1na2vs0mg"},{"bike_id":"df7929a5-2b0c-4c4a-9607-4bd34960b2e8","system_id":"levelo_inurba_marseille","lat":43.21197,"lon":5.35077,"is_reserved":false,"is_disabled":false,"rental_uris":{"android":"levelo://app?vid=df7929a5-2b0c-4c4a-9607-4bd34960b2e8","ios":"levelo://app?vid=df7929a5-2b0c-4c4a-9607-4bd34960b2e8"},"vehicle_type_id":"4","last_reported":1784880382,"current_range_meters":6400,"station_id":"st_cvj6sg6p6f1abm77japg","pricing_plan_id":"cebpf4jnsgd1na2vs0mg"},{"bike_id":"19183c47-3219-4bc8-b0a5-33a0541148d1","system_id":"levelo_inurba_marseille","lat":43.23189,"lon":5.35564,"is_reserved":false,"is_disabled":false,"rental_uris":{"android":"levelo://app?vid=19183c47-3219-4bc8-b0a5-33a0541148d1","ios":"levelo://app?vid=19183c47-3219-4bc8-b0a5-33a0541148d1"},"vehicle_type_id":"4","last_reported":1784880382,"current_range_meters":28800,"station_id":"ce4bhu92rcd13ifvqi70","pricing_plan_id":"cebpf4jnsgd1na2vs0mg"},{"bike_id":"3cadf8f2-d89c-4f2b-bad2-a91b4b0a800a","system_id":"levelo_inurba_marseille","lat":43.30273,"lon":5.40361,"is_reserved":false,"is_disabled":false,"rental_uris":{"android":"levelo://app?vid=3cadf8f2-d89c-4f2b-bad2-a91b4b0a800a","ios":"levelo://app?vid=3cadf8f2-d89c-4f2b-bad2-a91b4b0a800a"},"vehicle_type_id":"4","last_reported":1784880382,"current_range_meters":11600,"station_id":"","pricing_plan_id":"cebpf4jnsgd1na2vs0mg"},{"bike_id":"aa05f9f3-0133-4755-8a02-0d4a93e70324","system_id":"levelo_inurba_marseille","lat":43.24685,"lon":5.3816,"is_reserved":false,"is_disabled":false,"rental_uris":{"android":"levelo://app?vid=aa05f9f3-0133-4755-8a02-0d4a93e70324","ios":"levelo://app?vid=aa05f9f3-0133-4755-8a02-0d4a93e70324"},"vehicle_type_id":"4","last_reported":1784880382,"current_range_meters":27600,"station_id":"ce4bhih2rcd13ifvqfr0","pricing_plan_id":"cebpf4jnsgd1na2vs0mg"},{"bike_id":"0d81eb71-c2a3-4a0b-ae1e-331c9582a1f6","system_id":"levelo_inurba_marseille","lat":43.26055,"lon":5.39403,"is_reserved":false,"is_disabled":false,"rental_uris":{"android":"levelo://app?vid=0d81eb71-c2a3-4a0b-ae1e-331c9582a1f6","ios":"levelo://app?vid=0d81eb71-c2a3-4a0b-ae1e-331c9582a1f6"},"vehicle_type_id":"4","last_reported":1784880382,"current_range_meters":38400,"station_id":"ce4bhh92rcd13ifvqfj0","pricing_plan_id":"cebpf4jnsgd1na2vs0mg"},{"bike_id":"f2c26268-2002-48c9-a2f8-8f76ed8a8540","system_id":"levelo_inurba_marseille","lat":43.23905,"lon":5.3747,"is_reserved":false,"is_disabled":false,"rental_uris":{"android":"levelo://app?vid=f2c26268-2002-48c9-a2f8-8f76ed8a8540","ios":"levelo://app?vid=f2c26268-2002-48c9-a2f8-8f76ed8a8540"},"vehicle_type_id":"4","last_reported":1784880382,"current_range_meters":35600,"station_id":"st_d6sm7csbq4hs73f8fpjg","pricing_plan_id":"cebpf4jnsgd1na2vs0mg"},{"bike_id":"72706276-fb69-4388-946e-2b4fb06a5929","system_id":"levelo_inurba_marseille","lat":43.33021,"lon":5.3902,"is_reserved":false,"is_disabled":false,"rental_uris":{"android":"levelo://app?vid=72706276-fb69-4388-946e-2b4fb06a5929","ios":"levelo://app?vid=72706276-fb69-4388-946e-2b4fb06a5929"},"vehicle_type_id":"4","last_reported":1784880382,"current_range_meters":37600,"station_id":"ce4bhr92rcd13ifvqhrg","pricing_plan_id":"cebpf4jnsgd1na2vs0mg"},{"bike_id":"43e2eb23-6b2c-4423-adae-1efc1f64588f","system_id":"levelo_inurba_marseille","lat":43.27318,"lon":5.39106,"is_reserved":false,"is_disabled":false,"rental_uris":{"android":"levelo://app?vid=43e2eb23-6b2c-4423-adae-1efc1f64588f","ios":"levelo://app?vid=43e2eb23-6b2c-4423-adae-1efc1f64588f"},"vehicle_type_id":"4","last_reported":1784880382,"current_range_meters":37600,"station_id":"ce4bhgp2rcd13ifvqfe0","pricing_plan_id":"cebpf4jnsgd1na2vs0mg"},{"bike_id":"bf903d1b-6c38-4606-83e9-2c926ea1b37f","system_id":"levelo_inurba_marseille","lat":43.308,"lon":5.3816,"is_reserved":false,"is_disabled":false,"rental_uris":{"android":"levelo://app?vid=bf903d1b-6c38-4606-83e9-2c926ea1b37f","ios":"levelo://app?vid=bf903d1b-6c38-4606-83e9-2c926ea1b37f"},"vehicle_type_id":"4","last_reported":1784880382,"current_range_meters":30400,"station_id":"ce4bgt12rcd13ifvqce0","pricing_plan_id":"cebpf4jnsgd1na2vs0mg"},{"bike_id":"366dad70-8027-4523-8561-ac1c2024dbc0","system_id":"levelo_inurba_marseille","lat":43.24399,"lon":5.37101,"is_reserved":false,"is_disabled":false,"rental_uris":{"android":"levelo://app?vid=366dad70-8027-4523-8561-ac1c2024dbc0","ios":"levelo://app?vid=366dad70-8027-4523-8561-ac1c2024dbc0"},"vehicle_type_id":"4","last_reported":1784880382,"current_range_meters":28800,"station_id":"ce4bhhh2rcd13ifvqfk0","pricing_plan_id":"cebpf4jnsgd1na2vs0mg"},{"bike_id":"d771a48c-e6d4-463f-894d-9ab1e9d6569c","system_id":"levelo_inurba_marseille","lat":43.29571,"lon":5.37508,"is_reserved":false,"is_disabled":false,"rental_uris":{"android":"levelo://app?vid=d771a48c-e6d4-463f-894d-9ab1e9d6569c","ios":"levelo://app?vid=d771a48c-e6d4-463f-894d-9ab1e9d6569c"},"vehicle_type_id":"4","last_reported":1784880382,"current_range_meters":39200,"station_id":"ce4bgh92rcd13ifvqb50","pricing_plan_id":"cebpf4jnsgd1na2vs0mg"},{"bike_id":"a1550354-2d97-44b7-8224-d712a77cbb75","system_id":"levelo_inurba_marseille","lat":43.21726,"lon":5.34618,"is_reserved":false,"is_disabled":false,"rental_uris":{"android":"levelo://app?vid=a1550354-2d97-44b7-8224-d712a77cbb75","ios":"levelo://app?vid=a1550354-2d97-44b7-8224-d712a77cbb75"},"vehicle_type_id":"4","last_reported":1784880382,"current_range_meters":26800,"station_id":"st_cvj6r9ubvosntc0bgbag","pricing_plan_id":"cebpf4jnsgd1na2vs0mg"},{"bike_id":"9c7209d4-7126-4726-88dd-48e099945efd","system_id":"levelo_inurba_marseille","lat":43.31349,"lon":5.36716,"is_reserved":false,"is_disabled":false,"rental_uris":{"android":"levelo://app?vid=9c7209d4-7126-4726-88dd-48e099945efd","ios":"levelo://app?vid=9c7209d4-7126-4726-88dd-48e099945efd"},"vehicle_type_id":"4","last_reported":1784880382,"current_range_meters":29600,"station_id":"ce4bgr92rcd13ifvqc6g","pricing_plan_id":"cebpf4jnsgd1na2vs0mg"},{"bike_id":"e40092d8-e809-444f-887b-ec2d97cdda0b","system_id":"levelo_inurba_marseille","lat":43.30315,"lon":5.39191,"is_reserved":false,"is_disabled":true,"rental_uris":{"android":"levelo://app?vid=e40092d8-e809-444f-887b-ec2d97cdda0b","ios":"levelo://app?vid=e40092d8-e809-444f-887b-ec2d97cdda0b"},"vehicle_type_id":"4","last_reported":1784880382,"current_range_meters":32800,"station_id":"ce4bgkh2rcd13ifvqbk0","pricing_plan_id":"cebpf4jnsgd1na2vs0mg"},{"bike_id":"c1f9063f-d4f2-40b6-8808-57755231c750","system_id":"levelo_inurba_marseille","lat":43.30528,"lon":5.40262,"is_reserved":false,"is_disabled":false,"rental_uris":{"android":"levelo://app?vid=c1f9063f-d4f2-40b6-8808-57755231c750","ios":"levelo://app?vid=c1f9063f-d4f2-40b6-8808-57755231c750"},"vehicle_type_id":"4","last_reported":1784880382,"current_range_meters":32800,"station_id":"","pricing_plan_id":"cebpf4jnsgd1na2vs0mg"},{"bike_id":"c9eb3249-8ffb-4e8d-a645-fa0f460d77bd","system_id":"levelo_inurba_marseille","lat":43.2439,"lon":5.37068,"is_reserved":false,"is_disabled":false,"rental_uris":{"android":"levelo://app?vid=c9eb3249-8ffb-4e8d-a645-fa0f460d77bd","ios":"levelo://app?vid=c9eb3249-8ffb-4e8d-a645-fa0f460d77bd"},"vehicle_type_id":"4","last_reported":1784880382,"current_range_meters":38800,"station_id":"ce4bhhh2rcd13ifvqfk0","pricing_plan_id":"cebpf4jnsgd1na2vs0mg"},{"bike_id":"756f94d2-f2f8-48f5-a2f0-8d243c9ec205","system_id":"levelo_inurba_marseille","lat":43.239634,"lon":5.366156,"is_reserved":false,"is_disabled":true,"rental_uris":{"android":"levelo://app?vid=756f94d2-f2f8-48f5-a2f0-8d243c9ec205","ios":"levelo://app?vid=756f94d2-f2f8-48f5-a2f0-8d243c9ec205"},"vehicle_type_id":"4","last_reported":1784880382,"current_range_meters":32000,"station_id":"ce4bhb92rcd13ifvqen0","pricing_plan_id":"cebpf4jnsgd1na2vs0mg"},{"bike_id":"5361a53c-ac1b-4e40-883d-ce1b4a9aa84c","system_id":"levelo_inurba_marseille","lat":43.27512,"lon":5.4159,"is_reserved":false,"is_disabled":false,"rental_uris":{"android":"levelo://app?vid=5361a53c-ac1b-4e40-883d-ce1b4a9aa84c","ios":"levelo://app?vid=5361a53c-ac1b-4e40-883d-ce1b4a9aa84c"},"vehicle_type_id":"4","last_reported":1784880382,"current_range_meters":32000,"station_id":"st_d6im8g6chgec73a5pndg","pricing_plan_id":"cebpf4jnsgd1na2vs0mg"},{"bike_id":"242213bb-864e-4d09-97c6-4a2d8732de8f","system_id":"levelo_inurba_marseille","lat":43.24173,"lon":5.36394,"is_reserved":false,"is_disabled":false,"rental_uris":{"android":"levelo://app?vid=242213bb-864e-4d09-97c6-4a2d8732de8f","ios":"levelo://app?vid=242213bb-864e-4d09-97c6-4a2d8732de8f"},"vehicle_type_id":"4","last_reported":1784880382,"current_range_meters":24000,"station_id":"cpo36qri1sfpv3e86is0","pricing_plan_id":"cebpf4jnsgd1na2vs0mg"},{"bike_id":"0a40dda4-e82a-4880-87fc-911a32d27d26","system_id":"levelo_inurba_marseille","lat":43.28702,"lon":5.38659,"is_reserved":false,"is_disabled":false,"rental_uris":{"android":"levelo://app?vid=0a40dda4-e82a-4880-87fc-911a32d27d26","ios":"levelo://app?vid=0a40dda4-e82a-4880-87fc-911a32d27d26"},"vehicle_type_id":"4","last_reported":1784880382,"current_range_meters":24800,"station_id":"","pricing_plan_id":"cebpf4jnsgd1na2vs0mg"},{"bike_id":"7a25661d-00e2-4d39-8221-f790de799907","system_id":"levelo_inurba_marseille","lat":43.31115,"lon":5.37759,"is_reserved":false,"is_disabled":false,"rental_uris":{"android":"levelo://app?vid=7a25661d-00e2-4d39-8221-f790de799907","ios":"levelo://app?vid=7a25661d-00e2-4d39-8221-f790de799907"},"vehicle_type_id":"4","last_reported":1784880382,"current_range_meters":27600,"station_id":"ce4bgt92rcd13ifvqcg0","pricing_plan_id":"cebpf4jnsgd1na2vs0mg"},{"bike_id":"be02b54d-0a82-4f19-8c2c-0d2e91472b20","system_id":"levelo_inurba_marseille","lat":43.312603,"lon":5.386367,"is_reserved":false,"is_disabled":false,"rental_uris":{"android":"levelo://app?vid=be02b54d-0a82-4f19-8c2c-0d2e91472b20","ios":"levelo://app?vid=be02b54d-0a82-4f19-8c2c-0d2e91472b20"},"vehicle_type_id":"4","last_reported":1784880382,"current_range_meters":35600,"station_id":"ce4bgt92rcd13ifvqcf0","pricing_plan_id":"cebpf4jnsgd1na2vs0mg"},{"bike_id":"f0aae2ad-c3aa-44a5-a01e-5fa4299ba265","system_id":"levelo_inurba_marseille","lat":43.29897,"lon":5.43662,"is_reserved":false,"is_disabled":false,"rental_uris":{"android":"levelo://app?vid=f0aae2ad-c3aa-44a5-a01e-5fa4299ba265","ios":"levelo://app?vid=f0aae2ad-c3aa-44a5-a01e-5fa4299ba265"},"vehicle_type_id":"4","last_reported":1784880382,"current_range_meters":38400,"station_id":"ce4bhpp2rcd13ifvqhfg","pricing_plan_id":"cebpf4jnsgd1na2vs0mg"},{"bike_id":"84ff9e4a-54da-4b03-b5a9-d535cdc2d3d1","system_id":"levelo_inurba_marseille","lat":43.2996,"lon":5.38501,"is_reserved":false,"is_disabled":false,"rental_uris":{"android":"levelo://app?vid=84ff9e4a-54da-4b03-b5a9-d535cdc2d3d1","ios":"levelo://app?vid=84ff9e4a-54da-4b03-b5a9-d535cdc2d3d1"},"vehicle_type_id":"4","last_reported":1784880382,"current_range_meters":33200,"station_id":"ce4bgj92rcd13ifvqbd0","pricing_plan_id":"cebpf4jnsgd1na2vs0mg"},{"bike_id":"b70f2f12-3550-4a9e-a06f-e73e09e2ebe9","system_id":"levelo_inurba_marseille","lat":43.28577,"lon":5.37427,"is_reserved":false,"is_disabled":false,"rental_uris":{"android":"levelo://app?vid=b70f2f12-3550-4a9e-a06f-e73e09e2ebe9","ios":"levelo://app?vid=b70f2f12-3550-4a9e-a06f-e73e09e2ebe9"},"vehicle_type_id":"4","last_reported":1784880382,"current_range_meters":17200,"station_id":"","pricing_plan_id":"cebpf4jnsgd1na2vs0mg"},{"bike_id":"329817da-a952-4c67-9f32-114c4c3667c0","system_id":"levelo_inurba_marseille","lat":43.26938,"lon":5.38927,"is_reserved":false,"is_disabled":false,"rental_uris":{"android":"levelo://app?vid=329817da-a952-4c67-9f32-114c4c3667c0","ios":"levelo://app?vid=329817da-a952-4c67-9f32-114c4c3667c0"},"vehicle_type_id":"4","last_reported":1784880382,"current_range_meters":26800,"station_id":"ce4bhhh2rcd13ifvqfl0","pricing_plan_id":"cebpf4jnsgd1na2vs0mg"},{"bike_id":"642e8134-a148-47c7-81b0-905460242800","system_id":"levelo_inurba_marseille","lat":43.2931,"lon":5.3715,"is_reserved":false,"is_disabled":false,"rental_uris":{"android":"levelo://app?vid=642e8134-a148-47c7-81b0-905460242800","ios":"levelo://app?vid=642e8134-a148-47c7-81b0-905460242800"},"vehicle_type_id":"4","last_reported":1784880382,"current_range_meters":38800,"station_id":"ce4bgh92rcd13ifvqb40","pricing_plan_id":"cebpf4jnsgd1na2vs0mg"},{"bike_id":"4c9ffa71-08c3-4e1d-8a05-42be8b31eac4","system_id":"levelo_inurba_marseille","lat":43.31722,"lon":5.37774,"is_reserved":false,"is_disabled":false,"rental_uris":{"android":"levelo://app?vid=4c9ffa71-08c3-4e1d-8a05-42be8b31eac4","ios":"levelo://app?vid=4c9ffa71-08c3-4e1d-8a05-42be8b31eac4"},"vehicle_type_id":"4","last_reported":1784880382,"current_range_meters":32400,"station_id":"ce4bgth2rcd13ifvqch0","pricing_plan_id":"cebpf4jnsgd1na2vs0mg"},{"bike_id":"49b9d945-38ee-43be-99d9-e21da26a5f9c","system_id":"levelo_inurba_marseille","lat":43.29543,"lon":5.3855,"is_reserved":false,"is_disabled":true,"rental_uris":{"android":"levelo://app?vid=49b9d945-38ee-43be-99d9-e21da26a5f9c","ios":"levelo://app?vid=49b9d945-38ee-43be-99d9-e21da26a5f9c"},"vehicle_type_id":"4","last_reported":1784880382,"current_range_meters":0,"station_id":"ce4bgih2rcd13ifvqba0","pricing_plan_id":"cebpf4jnsgd1na2vs0mg"},{"bike_id":"2154fcce-4dae-44fd-8c16-6859e119f377","system_id":"levelo_inurba_marseille","lat":43.2396,"lon":5.36627,"is_reserved":false,"is_disabled":false,"rental_uris":{"android":"levelo://app?vid=2154fcce-4dae-44fd-8c16-6859e119f377","ios":"levelo://app?vid=2154fcce-4dae-44fd-8c16-6859e119f377"},"vehicle_type_id":"4","last_reported":1784880382,"current_range_meters":18800,"station_id":"ce4bhi12rcd13ifvqfp0","pricing_plan_id":"cebpf4jnsgd1na2vs0mg"},{"bike_id":"2ab74caf-5b6a-4a05-8144-6b6122598b07","system_id":"levelo_inurba_marseille","lat":43.2792,"lon":5.39577,"is_reserved":false,"is_disabled":false,"rental_uris":{"android":"levelo://app?vid=2ab74caf-5b6a-4a05-8144-6b6122598b07","ios":"levelo://app?vid=2ab74caf-5b6a-4a05-8144-6b6122598b07"},"vehicle_type_id":"4","last_reported":1784880382,"current_range_meters":39200,"station_id":"ce4bhf92rcd13ifvqf40","pricing_plan_id":"cebpf4jnsgd1na2vs0mg"},{"bike_id":"a338cea5-f797-4d31-b718-3121663ee29c","system_id":"levelo_inurba_marseille","lat":43.30409,"lon":5.37901,"is_reserved":false,"is_disabled":false,"rental_uris":{"android":"levelo://app?vid=a338cea5-f797-4d31-b718-3121663ee29c","ios":"levelo://app?vid=a338cea5-f797-4d31-b718-3121663ee29c"},"vehicle_type_id":"4","last_reported":1784880382,"current_range_meters":27600,"station_id":"","pricing_plan_id":"cebpf4jnsgd1na2vs0mg"},{"bike_id":"12120ca4-ddbe-4dd9-9a56-21f3ef150aee","system_id":"levelo_inurba_marseille","lat":43.30331,"lon":5.37309,"is_reserved":false,"is_disabled":false,"rental_uris":{"android":"levelo://app?vid=12120ca4-ddbe-4dd9-9a56-21f3ef150aee","ios":"levelo://app?vid=12120ca4-ddbe-4dd9-9a56-21f3ef150aee"},"vehicle_type_id":"4","last_reported":1784880382,"current_range_meters":2800,"station_id":"","pricing_plan_id":"cebpf4jnsgd1na2vs0mg"},{"bike_id":"868a73d7-f636-4ae4-90b6-35a4e9f34adb","system_id":"levelo_inurba_marseille","lat":43.25854,"lon":5.39917,"is_reserved":false,"is_disabled":false,"rental_uris":{"android":"levelo://app?vid=868a73d7-f636-4ae4-90b6-35a4e9f34adb","ios":"levelo://app?vid=868a73d7-f636-4ae4-90b6-35a4e9f34adb"},"vehicle_type_id":"4","last_reported":1784880382,"current_range_meters":39200,"station_id":"ce4bhl92rcd13ifvqghg","pricing_plan_id":"cebpf4jnsgd1na2vs0mg"},{"bike_id":"a7c9489a-3c37-4218-bc38-92c335aa3a8a","system_id":"levelo_inurba_marseille","lat":43.28485,"lon":5.48394,"is_reserved":false,"is_disabled":false,"rental_uris":{"android":"levelo://app?vid=a7c9489a-3c37-4218-bc38-92c335aa3a8a","ios":"levelo://app?vid=a7c9489a-3c37-4218-bc38-92c335aa3a8a"},"vehicle_type_id":"4","last_reported":1784880382,"current_range_meters":38000,"station_id":"st_d3svhcjqgbts73a3dn0g","pricing_plan_id":"cebpf4jnsgd1na2vs0mg"},{"bike_id":"e15f52d6-e2ed-405f-bb0a-647ddc6cd40c","system_id":"levelo_inurba_marseille","lat":43.23203,"lon":5.35545,"is_reserved":false,"is_disabled":false,"rental_uris":{"android":"levelo://app?vid=e15f52d6-e2ed-405f-bb0a-647ddc6cd40c","ios":"levelo://app?vid=e15f52d6-e2ed-405f-bb0a-647ddc6cd40c"},"vehicle_type_id":"4","last_reported":1784880382,"current_range_meters":24800,"station_id":"ce4bhu92rcd13ifvqi70","pricing_plan_id":"cebpf4jnsgd1na2vs0mg"},{"bike_id":"b470d420-b3e9-4e13-9ec9-c93310ae5459","system_id":"levelo_inurba_marseille","lat":43.30542,"lon":5.36536,"is_reserved":false,"is_disabled":false,"rental_uris":{"android":"levelo://app?vid=b470d420-b3e9-4e13-9ec9-c93310ae5459","ios":"levelo://app?vid=b470d420-b3e9-4e13-9ec9-c93310ae5459"},"vehicle_type_id":"4","last_reported":1784880382,"current_range_meters":32800,"station_id":"ce4bgs12rcd13ifvqcag","pricing_plan_id":"cebpf4jnsgd1na2vs0mg"},{"bike_id":"8125f053-e6fe-41b4-9439-740d13b3a1b6","system_id":"levelo_inurba_marseille","lat":43.26564,"lon":5.40322,"is_reserved":false,"is_disabled":false,"rental_uris":{"android":"levelo://app?vid=8125f053-e6fe-41b4-9439-740d13b3a1b6","ios":"levelo://app?vid=8125f053-e6fe-41b4-9439-740d13b3a1b6"},"vehicle_type_id":"4","last_reported":1784880382,"current_range_meters":28400,"station_id":"ce4bhmp2rcd13ifvqgng","pricing_plan_id":"cebpf4jnsgd1na2vs0mg"},{"bike_id":"3d3363f1-b079-4e13-899e-dbc693f0dea6","system_id":"levelo_inurba_marseille","lat":43.27497,"lon":5.42462,"is_reserved":false,"is_disabled":false,"rental_uris":{"android":"levelo://app?vid=3d3363f1-b079-4e13-899e-dbc693f0dea6","ios":"levelo://app?vid=3d3363f1-b079-4e13-899e-dbc693f0dea6"},"vehicle_type_id":"4","last_reported":1784880382,"current_range_meters":36800,"station_id":"ce4bhn92rcd13ifvqgrg","pricing_plan_id":"cebpf4jnsgd1na2vs0mg"},{"bike_id":"993bae72-25a1-45db-b7e0-b48d287154c7","system_id":"levelo_inurba_marseille","lat":43.29217,"lon":5.36072,"is_reserved":false,"is_disabled":true,"rental_uris":{"android":"levelo://app?vid=993bae72-25a1-45db-b7e0-b48d287154c7","ios":"levelo://app?vid=993bae72-25a1-45db-b7e0-b48d287154c7"},"vehicle_type_id":"4","last_reported":1784880382,"current_range_meters":1600,"station_id":"ce4bhbh2rcd13ifvqeqg","pricing_plan_id":"cebpf4jnsgd1na2vs0mg"},{"bike_id":"5aa3ca14-34f8-4cf6-bf98-84664ad40ed9","system_id":"levelo_inurba_marseille","lat":43.32348,"lon":5.38902,"is_reserved":false,"is_disabled":false,"rental_uris":{"android":"levelo://app?vid=5aa3ca14-34f8-4cf6-bf98-84664ad40ed9","ios":"levelo://app?vid=5aa3ca14-34f8-4cf6-bf98-84664ad40ed9"},"vehicle_type_id":"4","last_reported":1784880382,"current_range_meters":38800,"station_id":"ce4bhqp2rcd13ifvqhog","pricing_plan_id":"cebpf4jnsgd1na2vs0mg"},{"bike_id":"ebe3688b-3317-4ac3-8a73-8cb55ca89acc","system_id":"levelo_inurba_marseille","lat":43.24667,"lon":5.38905,"is_reserved":false,"is_disabled":false,"rental_uris":{"android":"levelo://app?vid=ebe3688b-3317-4ac3-8a73-8cb55ca89acc","ios":"levelo://app?vid=ebe3688b-3317-4ac3-8a73-8cb55ca89acc"},"vehicle_type_id":"4","last_reported":1784880382,"current_range_meters":36400,"station_id":"ce4bhg12rcd13ifvqf60","pricing_plan_id":"cebpf4jnsgd1na2vs0mg"},{"bike_id":"43417b6c-d38b-474f-b5b8-9d99cedaedd8","system_id":"levelo_inurba_marseille","lat":43.2397,"lon":5.36623,"is_reserved":false,"is_disabled":false,"rental_uris":{"android":"levelo://app?vid=43417b6c-d38b-474f-b5b8-9d99cedaedd8","ios":"levelo://app?vid=43417b6c-d38b-474f-b5b8-9d99cedaedd8"},"vehicle_type_id":"4","last_reported":1784880382,"current_range_meters":18000,"station_id":"ce4bhi12rcd13ifvqfp0","pricing_plan_id":"cebpf4jnsgd1na2vs0mg"},{"bike_id":"2cd4366d-4404-428e-81b4-1f861a58dab0","system_id":"levelo_inurba_marseille","lat":43.29041,"lon":5.39934,"is_reserved":false,"is_disabled":false,"rental_uris":{"android":"levelo://app?vid=2cd4366d-4404-428e-81b4-1f861a58dab0","ios":"levelo://app?vid=2cd4366d-4404-428e-81b4-1f861a58dab0"},"vehicle_type_id":"4","last_reported":1784880382,"current_range_meters":20400,"station_id":"ce4bh392rcd13ifvqdm0","pricing_plan_id":"cebpf4jnsgd1na2vs0mg"},{"bike_id":"8b48f329-937d-4f33-bc8e-cc3992c67190","system_id":"levelo_inurba_marseille","lat":43.29623,"lon":5.37152,"is_reserved":false,"is_disabled":true,"rental_uris":{"android":"levelo://app?vid=8b48f329-937d-4f33-bc8e-cc3992c67190","ios":"levelo://app?vid=8b48f329-937d-4f33-bc8e-cc3992c67190"},"vehicle_type_id":"4","last_reported":1784880382,"current_range_meters":30000,"station_id":"","pricing_plan_id":"cebpf4jnsgd1na2vs0mg"},{"bike_id":"119e8bce-c2af-46bf-9784-d561aa00e761","system_id":"levelo_inurba_marseille","lat":43.26952,"lon":5.38625,"is_reserved":false,"is_disabled":false,"rental_uris":{"android":"levelo://app?vid=119e8bce-c2af-46bf-9784-d561aa00e761","ios":"levelo://app?vid=119e8bce-c2af-46bf-9784-d561aa00e761"},"vehicle_type_id":"4","last_reported":1784880382,"current_range_meters":36800,"station_id":"ce4bhh92rcd13ifvqfh0","pricing_plan_id":"cebpf4jnsgd1na2vs0mg"},{"bike_id":"4f1c105a-2829-434a-bc5d-23046601fbec","system_id":"levelo_inurba_marseille","lat":43.30901,"lon":5.37191,"is_reserved":false,"is_disabled":false,"rental_uris":{"android":"levelo://app?vid=4f1c105a-2829-434a-bc5d-23046601fbec","ios":"levelo://app?vid=4f1c105a-2829-434a-bc5d-23046601fbec"},"vehicle_type_id":"4","last_reported":1784880382,"current_range_meters":37600,"station_id":"ce4bguh2rcd13ifvqckg","pricing_plan_id":"cebpf4jnsgd1na2vs0mg"},{"bike_id":"10a709bc-a0dd-42ec-9eab-ee06f9100359","system_id":"levelo_inurba_marseille","lat":43.30373,"lon":5.42484,"is_reserved":false,"is_disabled":false,"rental_uris":{"android":"levelo://app?vid=10a709bc-a0dd-42ec-9eab-ee06f9100359","ios":"levelo://app?vid=10a709bc-a0dd-42ec-9eab-ee06f9100359"},"vehicle_type_id":"4","last_reported":1784880382,"current_range_meters":34800,"station_id":"ce4bhoh2rcd13ifvqh6g","pricing_plan_id":"cebpf4jnsgd1na2vs0mg"},{"bike_id":"72643f02-cd1d-40db-9770-e63e37d04b2c","system_id":"levelo_inurba_marseille","lat":43.27845,"lon":5.36304,"is_reserved":false,"is_disabled":false,"rental_uris":{"android":"levelo://app?vid=72643f02-cd1d-40db-9770-e63e37d04b2c","ios":"levelo://app?vid=72643f02-cd1d-40db-9770-e63e37d04b2c"},"vehicle_type_id":"4","last_reported":1784880382,"current_range_meters":8400,"station_id":"","pricing_plan_id":"cebpf4jnsgd1na2vs0mg"},{"bike_id":"0337f70f-422e-4a94-aa4e-b2dbf437f60c","system_id":"levelo_inurba_marseille","lat":43.29606,"lon":5.37715,"is_reserved":false,"is_disabled":false,"rental_uris":{"android":"levelo://app?vid=0337f70f-422e-4a94-aa4e-b2dbf437f60c","ios":"levelo://app?vid=0337f70f-422e-4a94-aa4e-b2dbf437f60c"},"vehicle_type_id":"4","last_reported":1784880382,"current_range_meters":34800,"station_id":"ce4bgi92rcd13ifvqb90","pricing_plan_id":"cebpf4jnsgd1na2vs0mg"},{"bike_id":"86c39a41-dbb7-492c-80ca-66bbe09aaa85","system_id":"levelo_inurba_marseille","lat":43.30105,"lon":5.39052,"is_reserved":false,"is_disabled":true,"rental_uris":{"android":"levelo://app?vid=86c39a41-dbb7-492c-80ca-66bbe09aaa85","ios":"levelo://app?vid=86c39a41-dbb7-492c-80ca-66bbe09aaa85"},"vehicle_type_id":"4","last_reported":1784880382,"current_range_meters":14800,"station_id":"ce4bh192rcd13ifvqdb0","pricing_plan_id":"cebpf4jnsgd1na2vs0mg"},{"bike_id":"3a295aff-6816-4af7-ac5a-87a5bd41c1cd","system_id":"levelo_inurba_marseille","lat":43.28498,"lon":5.48407,"is_reserved":false,"is_disabled":false,"rental_uris":{"android":"levelo://app?vid=3a295aff-6816-4af7-ac5a-87a5bd41c1cd","ios":"levelo://app?vid=3a295aff-6816-4af7-ac5a-87a5bd41c1cd"},"vehicle_type_id":"4","last_reported":1784880382,"current_range_meters":20400,"station_id":"st_d3svhcjqgbts73a3dn0g","pricing_plan_id":"cebpf4jnsgd1na2vs0mg"},{"bike_id":"7b1a34a9-9772-429a-ac81-dbcf3805788e","system_id":"levelo_inurba_marseille","lat":43.27891,"lon":5.35552,"is_reserved":false,"is_disabled":false,"rental_uris":{"android":"levelo://app?vid=7b1a34a9-9772-429a-ac81-dbcf3805788e","ios":"levelo://app?vid=7b1a34a9-9772-429a-ac81-dbcf3805788e"},"vehicle_type_id":"4","last_reported":1784880382,"current_range_meters":9600,"station_id":"","pricing_plan_id":"cebpf4jnsgd1na2vs0mg"},{"bike_id":"3def7ddd-3c42-4aad-8d0c-f3a27eb69aa5","system_id":"levelo_inurba_marseille","lat":43.28076,"lon":5.39626,"is_reserved":false,"is_disabled":false,"rental_uris":{"android":"levelo://app?vid=3def7ddd-3c42-4aad-8d0c-f3a27eb69aa5","ios":"levelo://app?vid=3def7ddd-3c42-4aad-8d0c-f3a27eb69aa5"},"vehicle_type_id":"4","last_reported":1784880382,"current_range_meters":38400,"station_id":"ce4bho12rcd13ifvqh2g","pricing_plan_id":"cebpf4jnsgd1na2vs0mg"},{"bike_id":"7ae81d2d-71bc-4198-881b-d36c8f934aa8","system_id":"levelo_inurba_marseille","lat":43.295292,"lon":5.390405,"is_reserved":false,"is_disabled":false,"rental_uris":{"android":"levelo://app?vid=7ae81d2d-71bc-4198-881b-d36c8f934aa8","ios":"levelo://app?vid=7ae81d2d-71bc-4198-881b-d36c8f934aa8"},"vehicle_type_id":"4","last_reported":1784880382,"current_range_meters":9600,"station_id":"ce4bh3p2rcd13ifvqdp0","pricing_plan_id":"cebpf4jnsgd1na2vs0mg"},{"bike_id":"6cd0b9a2-a893-4d86-a077-a039a6b6a0f1","system_id":"levelo_inurba_marseille","lat":43.28415,"lon":5.34975,"is_reserved":false,"is_disabled":true,"rental_uris":{"android":"levelo://app?vid=6cd0b9a2-a893-4d86-a077-a039a6b6a0f1","ios":"levelo://app?vid=6cd0b9a2-a893-4d86-a077-a039a6b6a0f1"},"vehicle_type_id":"4","last_reported":1784880382,"current_range_meters":18000,"station_id":"ce4bhbh2rcd13ifvqepg","pricing_plan_id":"cebpf4jnsgd1na2vs0mg"},{"bike_id":"b3615f38-9ae4-47b3-be0f-27da959fb130","system_id":"levelo_inurba_marseille","lat":43.26541,"lon":5.39665,"is_reserved":false,"is_disabled":false,"rental_uris":{"android":"levelo://app?vid=b3615f38-9ae4-47b3-be0f-27da959fb130","ios":"levelo://app?vid=b3615f38-9ae4-47b3-be0f-27da959fb130"},"vehicle_type_id":"4","last_reported":1784880382,"current_range_meters":8800,"station_id":"","pricing_plan_id":"cebpf4jnsgd1na2vs0mg"},{"bike_id":"0c993f63-7342-4d92-ac2a-5a27ac1e0907","system_id":"levelo_inurba_marseille","lat":43.26678,"lon":5.38263,"is_reserved":false,"is_disabled":false,"rental_uris":{"android":"levelo://app?vid=0c993f63-7342-4d92-ac2a-5a27ac1e0907","ios":"levelo://app?vid=0c993f63-7342-4d92-ac2a-5a27ac1e0907"},"vehicle_type_id":"4","last_reported":1784880382,"current_range_meters":10800,"station_id":"ce4bhg92rcd13ifvqf90","pricing_plan_id":"cebpf4jnsgd1na2vs0mg"},{"bike_id":"b0427871-42a3-486d-a25d-797f23c1f86a","system_id":"levelo_inurba_marseille","lat":43.225953,"lon":5.416523,"is_reserved":false,"is_disabled":false,"rental_uris":{"android":"levelo://app?vid=b0427871-42a3-486d-a25d-797f23c1f86a","ios":"levelo://app?vid=b0427871-42a3-486d-a25d-797f23c1f86a"},"vehicle_type_id":"4","last_reported":1784880382,"current_range_meters":3200,"station_id":"st_d2o4gvlbi1j2169b742g","pricing_plan_id":"cebpf4jnsgd1na2vs0mg"},{"bike_id":"5f87d7ba-5679-4042-a034-727c7c702ce0","system_id":"levelo_inurba_marseille","lat":43.31721,"lon":5.42393,"is_reserved":false,"is_disabled":false,"rental_uris":{"android":"levelo://app?vid=5f87d7ba-5679-4042-a034-727c7c702ce0","ios":"levelo://app?vid=5f87d7ba-5679-4042-a034-727c7c702ce0"},"vehicle_type_id":"4","last_reported":1784880382,"current_range_meters":28000,"station_id":"ce4bhp92rcd13ifvqhbg","pricing_plan_id":"cebpf4jnsgd1na2vs0mg"},{"bike_id":"f95849e3-ecc4-4a70-8bc6-ebfb18113894","system_id":"levelo_inurba_marseille","lat":43.27957,"lon":5.4105,"is_reserved":false,"is_disabled":false,"rental_uris":{"android":"levelo://app?vid=f95849e3-ecc4-4a70-8bc6-ebfb18113894","ios":"levelo://app?vid=f95849e3-ecc4-4a70-8bc6-ebfb18113894"},"vehicle_type_id":"4","last_reported":1784880382,"current_range_meters":36400,"station_id":"ce4bhnp2rcd13ifvqh0g","pricing_plan_id":"cebpf4jnsgd1na2vs0mg"},{"bike_id":"01d9a676-01f3-4b98-beb9-e0a1a490c722","system_id":"levelo_inurba_marseille","lat":43.28169,"lon":5.42619,"is_reserved":false,"is_disabled":false,"rental_uris":{"android":"levelo://app?vid=01d9a676-01f3-4b98-beb9-e0a1a490c722","ios":"levelo://app?vid=01d9a676-01f3-4b98-beb9-e0a1a490c722"},"vehicle_type_id":"4","last_reported":1784880382,"current_range_meters":22000,"station_id":"ce4bhnh2rcd13ifvqgug","pricing_plan_id":"cebpf4jnsgd1na2vs0mg"},{"bike_id":"f765bc46-853b-4f5f-a0cf-13f9a2c85881","system_id":"levelo_inurba_marseille","lat":43.3211,"lon":5.36785,"is_reserved":false,"is_disabled":false,"rental_uris":{"android":"levelo://app?vid=f765bc46-853b-4f5f-a0cf-13f9a2c85881","ios":"levelo://app?vid=f765bc46-853b-4f5f-a0cf-13f9a2c85881"},"vehicle_type_id":"4","last_reported":1784880382,"current_range_meters":27200,"station_id":"ce4bhrh2rcd13ifvqhug","pricing_plan_id":"cebpf4jnsgd1na2vs0mg"},{"bike_id":"0aaab04e-fbf4-4eb5-b726-87439b3409d4","system_id":"levelo_inurba_marseille","lat":43.31191,"lon":5.36861,"is_reserved":false,"is_disabled":true,"rental_uris":{"android":"levelo://app?vid=0aaab04e-fbf4-4eb5-b726-87439b3409d4","ios":"levelo://app?vid=0aaab04e-fbf4-4eb5-b726-87439b3409d4"},"vehicle_type_id":"4","last_reported":1784880382,"current_range_meters":30000,"station_id":"ce4bgl92rcd13ifvqbq0","pricing_plan_id":"cebpf4jnsgd1na2vs0mg"},{"bike_id":"c469d1f0-e1f3-4009-933d-1f7d58ff00a5","system_id":"levelo_inurba_marseille","lat":43.25866,"lon":5.39906,"is_reserved":false,"is_disabled":false,"rental_uris":{"android":"levelo://app?vid=c469d1f0-e1f3-4009-933d-1f7d58ff00a5","ios":"levelo://app?vid=c469d1f0-e1f3-4009-933d-1f7d58ff00a5"},"vehicle_type_id":"4","last_reported":1784880382,"current_range_meters":20400,"station_id":"ce4bhl92rcd13ifvqghg","pricing_plan_id":"cebpf4jnsgd1na2vs0mg"},{"bike_id":"ee10056c-3426-43d8-a600-37a47f26001b","system_id":"levelo_inurba_marseille","lat":43.28614,"lon":5.37076,"is_reserved":false,"is_disabled":false,"rental_uris":{"android":"levelo://app?vid=ee10056c-3426-43d8-a600-37a47f26001b","ios":"levelo://app?vid=ee10056c-3426-43d8-a600-37a47f26001b"},"vehicle_type_id":"4","last_reported":1784880382,"current_range_meters":39200,"station_id":"ce4bht12rcd13ifvqi60","pricing_plan_id":"cebpf4jnsgd1na2vs0mg"},{"bike_id":"a13e16e4-e177-431d-8bef-33b38f696e96","system_id":"levelo_inurba_marseille","lat":43.26757,"lon":5.39978,"is_reserved":false,"is_disabled":false,"rental_uris":{"android":"levelo://app?vid=a13e16e4-e177-431d-8bef-33b38f696e96","ios":"levelo://app?vid=a13e16e4-e177-431d-8bef-33b38f696e96"},"vehicle_type_id":"4","last_reported":1784880382,"current_range_meters":24400,"station_id":"","pricing_plan_id":"cebpf4jnsgd1na2vs0mg"},{"bike_id":"8303af8b-1964-46bd-80ca-99f1c8cd0727","system_id":"levelo_inurba_marseille","lat":43.31008,"lon":5.38298,"is_reserved":false,"is_disabled":false,"rental_uris":{"android":"levelo://app?vid=8303af8b-1964-46bd-80ca-99f1c8cd0727","ios":"levelo://app?vid=8303af8b-1964-46bd-80ca-99f1c8cd0727"},"vehicle_type_id":"4","last_reported":1784880382,"current_range_meters":28000,"station_id":"","pricing_plan_id":"cebpf4jnsgd1na2vs0mg"},{"bike_id":"70783dde-96fd-4197-b747-772646db0764","system_id":"levelo_inurba_marseille","lat":43.3135,"lon":5.36736,"is_reserved":false,"is_disabled":false,"rental_uris":{"android":"levelo://app?vid=70783dde-96fd-4197-b747-772646db0764","ios":"levelo://app?vid=70783dde-96fd-4197-b747-772646db0764"},"vehicle_type_id":"4","last_reported":1784880382,"current_range_meters":40000,"station_id":"ce4bgr92rcd13ifvqc6g","pricing_plan_id":"cebpf4jnsgd1na2vs0mg"},{"bike_id":"de84f93e-2efe-44dd-902e-99315be80f66","system_id":"levelo_inurba_marseille","lat":43.24707,"lon":5.40316,"is_reserved":false,"is_disabled":false,"rental_uris":{"android":"levelo://app?vid=de84f93e-2efe-44dd-902e-99315be80f66","ios":"levelo://app?vid=de84f93e-2efe-44dd-902e-99315be80f66"},"vehicle_type_id":"4","last_reported":1784880382,"current_range_meters":29600,"station_id":"","pricing_plan_id":"cebpf4jnsgd1na2vs0mg"},{"bike_id":"8b8bf975-2688-4280-a6c3-ad1fa127d507","system_id":"levelo_inurba_marseille","lat":43.33758,"lon":5.37428,"is_reserved":false,"is_disabled":false,"rental_uris":{"android":"levelo://app?vid=8b8bf975-2688-4280-a6c3-ad1fa127d507","ios":"levelo://app?vid=8b8bf975-2688-4280-a6c3-ad1fa127d507"},"vehicle_type_id":"4","last_reported":1784880382,"current_range_meters":36800,"station_id":"","pricing_plan_id":"cebpf4jnsgd1na2vs0mg"},{"bike_id":"dd0294df-14f6-40d3-8686-1f78aae9625a","system_id":"levelo_inurba_marseille","lat":43.27376,"lon":5.36258,"is_reserved":false,"is_disabled":false,"rental_uris":{"android":"levelo://app?vid=dd0294df-14f6-40d3-8686-1f78aae9625a","ios":"levelo://app?vid=dd0294df-14f6-40d3-8686-1f78aae9625a"},"vehicle_type_id":"4","last_reported":1784880382,"current_range_meters":39200,"station_id":"ce4bhbh2rcd13ifvqeo0","pricing_plan_id":"cebpf4jnsgd1na2vs0mg"},{"bike_id":"c6e736fb-e232-45bf-a0ea-16cc4b6b67d6","system_id":"levelo_inurba_marseille","lat":43.24157,"lon":5.36404,"is_reserved":false,"is_disabled":false,"rental_uris":{"android":"levelo://app?vid=c6e736fb-e232-45bf-a0ea-16cc4b6b67d6","ios":"levelo://app?vid=c6e736fb-e232-45bf-a0ea-16cc4b6b67d6"},"vehicle_type_id":"4","last_reported":1784880382,"current_range_meters":38000,"station_id":"cpo36qri1sfpv3e86is0","pricing_plan_id":"cebpf4jnsgd1na2vs0mg"},{"bike_id":"2654b3dd-5943-4bfe-bc56-5f17b8e2215e","system_id":"levelo_inurba_marseille","lat":43.34149,"lon":5.4091,"is_reserved":false,"is_disabled":false,"rental_uris":{"android":"levelo://app?vid=2654b3dd-5943-4bfe-bc56-5f17b8e2215e","ios":"levelo://app?vid=2654b3dd-5943-4bfe-bc56-5f17b8e2215e"},"vehicle_type_id":"4","last_reported":1784880382,"current_range_meters":39200,"station_id":"ce4bhqh2rcd13ifvqhlg","pricing_plan_id":"cebpf4jnsgd1na2vs0mg"},{"bike_id":"a438d2ee-26e7-46fa-94f6-0a8dfa65661c","system_id":"levelo_inurba_marseille","lat":43.26498,"lon":5.39564,"is_reserved":false,"is_disabled":false,"rental_uris":{"android":"levelo://app?vid=a438d2ee-26e7-46fa-94f6-0a8dfa65661c","ios":"levelo://app?vid=a438d2ee-26e7-46fa-94f6-0a8dfa65661c"},"vehicle_type_id":"4","last_reported":1784880382,"current_range_meters":20400,"station_id":"ce4bhi12rcd13ifvqfq0","pricing_plan_id":"cebpf4jnsgd1na2vs0mg"},{"bike_id":"c59d0aff-69b3-45af-a81e-861a60187067","system_id":"levelo_inurba_marseille","lat":43.28426,"lon":5.37511,"is_reserved":false,"is_disabled":false,"rental_uris":{"android":"levelo://app?vid=c59d0aff-69b3-45af-a81e-861a60187067","ios":"levelo://app?vid=c59d0aff-69b3-45af-a81e-861a60187067"},"vehicle_type_id":"4","last_reported":1784880382,"current_range_meters":18800,"station_id":"ce4bh412rcd13ifvqds0","pricing_plan_id":"cebpf4jnsgd1na2vs0mg"},{"bike_id":"c037fd15-1fb4-4aa0-a4c6-442b2b874fab","system_id":"levelo_inurba_marseille","lat":43.29036,"lon":5.39963,"is_reserved":false,"is_disabled":true,"rental_uris":{"android":"levelo://app?vid=c037fd15-1fb4-4aa0-a4c6-442b2b874fab","ios":"levelo://app?vid=c037fd15-1fb4-4aa0-a4c6-442b2b874fab"},"vehicle_type_id":"4","last_reported":1784880382,"current_range_meters":23200,"station_id":"ce4bh392rcd13ifvqdm0","pricing_plan_id":"cebpf4jnsgd1na2vs0mg"},{"bike_id":"965b6bd4-eb48-41e3-b3e8-0bcdc52f3759","system_id":"levelo_inurba_marseille","lat":43.28923,"lon":5.38384,"is_reserved":false,"is_disabled":true,"rental_uris":{"android":"levelo://app?vid=965b6bd4-eb48-41e3-b3e8-0bcdc52f3759","ios":"levelo://app?vid=965b6bd4-eb48-41e3-b3e8-0bcdc52f3759"},"vehicle_type_id":"4","last_reported":1784880382,"current_range_meters":30400,"station_id":"ce4bh612rcd13ifvqe6g","pricing_plan_id":"cebpf4jnsgd1na2vs0mg"},{"bike_id":"bbe718e6-fa16-44e8-87a1-2141703d3341","system_id":"levelo_inurba_marseille","lat":43.28159,"lon":5.42336,"is_reserved":false,"is_disabled":false,"rental_uris":{"android":"levelo://app?vid=bbe718e6-fa16-44e8-87a1-2141703d3341","ios":"levelo://app?vid=bbe718e6-fa16-44e8-87a1-2141703d3341"},"vehicle_type_id":"4","last_reported":1784880382,"current_range_meters":9200,"station_id":"","pricing_plan_id":"cebpf4jnsgd1na2vs0mg"},{"bike_id":"ee26c9f3-72fd-41a9-8336-6eae62f3f5f3","system_id":"levelo_inurba_marseille","lat":43.3079,"lon":5.38154,"is_reserved":false,"is_disabled":false,"rental_uris":{"android":"levelo://app?vid=ee26c9f3-72fd-41a9-8336-6eae62f3f5f3","ios":"levelo://app?vid=ee26c9f3-72fd-41a9-8336-6eae62f3f5f3"},"vehicle_type_id":"4","last_reported":1784880382,"current_range_meters":37600,"station_id":"ce4bgt12rcd13ifvqce0","pricing_plan_id":"cebpf4jnsgd1na2vs0mg"},{"bike_id":"a74338b6-ab76-4397-a44a-5b86a8bc675d","system_id":"levelo_inurba_marseille","lat":43.27178,"lon":5.41002,"is_reserved":false,"is_disabled":false,"rental_uris":{"android":"levelo://app?vid=a74338b6-ab76-4397-a44a-5b86a8bc675d","ios":"levelo://app?vid=a74338b6-ab76-4397-a44a-5b86a8bc675d"},"vehicle_type_id":"4","last_reported":1784880382,"current_range_meters":39200,"station_id":"ce4bhl12rcd13ifvqgf0","pricing_plan_id":"cebpf4jnsgd1na2vs0mg"},{"bike_id":"01cc4105-4144-4de4-840a-d381e79bd999","system_id":"levelo_inurba_marseille","lat":43.25721,"lon":5.41115,"is_reserved":false,"is_disabled":false,"rental_uris":{"android":"levelo://app?vid=01cc4105-4144-4de4-840a-d381e79bd999","ios":"levelo://app?vid=01cc4105-4144-4de4-840a-d381e79bd999"},"vehicle_type_id":"4","last_reported":1784880382,"current_range_meters":35200,"station_id":"ce4bhkp2rcd13ifvqgd0","pricing_plan_id":"cebpf4jnsgd1na2vs0mg"},{"bike_id":"eca09d22-4160-4f1d-996d-287ae7edcb6d","system_id":"levelo_inurba_marseille","lat":43.29938,"lon":5.37491,"is_reserved":false,"is_disabled":false,"rental_uris":{"android":"levelo://app?vid=eca09d22-4160-4f1d-996d-287ae7edcb6d","ios":"levelo://app?vid=eca09d22-4160-4f1d-996d-287ae7edcb6d"},"vehicle_type_id":"4","last_reported":1784880382,"current_range_meters":36400,"station_id":"ce4bgjh2rcd13ifvqbg0","pricing_plan_id":"cebpf4jnsgd1na2vs0mg"},{"bike_id":"a003e116-a466-49f3-979d-d6c328b0b830","system_id":"levelo_inurba_marseille","lat":43.31705,"lon":5.40455,"is_reserved":false,"is_disabled":false,"rental_uris":{"android":"levelo://app?vid=a003e116-a466-49f3-979d-d6c328b0b830","ios":"levelo://app?vid=a003e116-a466-49f3-979d-d6c328b0b830"},"vehicle_type_id":"4","last_reported":1784880382,"current_range_meters":10000,"station_id":"ce4bh012rcd13ifvqd00","pricing_plan_id":"cebpf4jnsgd1na2vs0mg"},{"bike_id":"e19b02ea-ff1a-49c9-9775-ffbc9db855b5","system_id":"levelo_inurba_marseille","lat":43.29522,"lon":5.37749,"is_reserved":false,"is_disabled":false,"rental_uris":{"android":"levelo://app?vid=e19b02ea-ff1a-49c9-9775-ffbc9db855b5","ios":"levelo://app?vid=e19b02ea-ff1a-49c9-9775-ffbc9db855b5"},"vehicle_type_id":"4","last_reported":1784880382,"current_range_meters":34000,"station_id":"","pricing_plan_id":"cebpf4jnsgd1na2vs0mg"},{"bike_id":"f1288106-a8c3-4624-ad2a-44299213b3e2","system_id":"levelo_inurba_marseille","lat":43.29587,"lon":5.36742,"is_reserved":false,"is_disabled":true,"rental_uris":{"android":"levelo://app?vid=f1288106-a8c3-4624-ad2a-44299213b3e2","ios":"levelo://app?vid=f1288106-a8c3-4624-ad2a-44299213b3e2"},"vehicle_type_id":"4","last_reported":1784880382,"current_range_meters":37600,"station_id":"","pricing_plan_id":"cebpf4jnsgd1na2vs0mg"},{"bike_id":"ab907c16-2123-44c2-912f-95e0f2737c03","system_id":"levelo_inurba_marseille","lat":43.31448,"lon":5.37377,"is_reserved":false,"is_disabled":true,"rental_uris":{"android":"levelo://app?vid=ab907c16-2123-44c2-912f-95e0f2737c03","ios":"levelo://app?vid=ab907c16-2123-44c2-912f-95e0f2737c03"},"vehicle_type_id":"4","last_reported":1784880382,"current_range_meters":17200,"station_id":"","pricing_plan_id":"cebpf4jnsgd1na2vs0mg"},{"bike_id":"0f27047d-3cee-486f-bbfd-4e43b3a3a5db","system_id":"levelo_inurba_marseille","lat":43.32087,"lon":5.36803,"is_reserved":false,"is_disabled":false,"rental_uris":{"android":"levelo://app?vid=0f27047d-3cee-486f-bbfd-4e43b3a3a5db","ios":"levelo://app?vid=0f27047d-3cee-486f-bbfd-4e43b3a3a5db"},"vehicle_type_id":"4","last_reported":1784880382,"current_range_meters":27600,"station_id":"ce4bhrh2rcd13ifvqhug","pricing_plan_id":"cebpf4jnsgd1na2vs0mg"},{"bike_id":"b9123d77-ca74-4b1d-9f0e-7e7f33b4d62c","system_id":"levelo_inurba_marseille","lat":43.2338,"lon":5.41279,"is_reserved":false,"is_disabled":false,"rental_uris":{"android":"levelo://app?vid=b9123d77-ca74-4b1d-9f0e-7e7f33b4d62c","ios":"levelo://app?vid=b9123d77-ca74-4b1d-9f0e-7e7f33b4d62c"},"vehicle_type_id":"4","last_reported":1784880382,"current_range_meters":11200,"station_id":"st_d75pvndhf9lc73cqq3eg","pricing_plan_id":"cebpf4jnsgd1na2vs0mg"},{"bike_id":"3c04bc7a-bd3f-4631-b1c2-91d07c32718c","system_id":"levelo_inurba_marseille","lat":43.296,"lon":5.36736,"is_reserved":false,"is_disabled":false,"rental_uris":{"android":"levelo://app?vid=3c04bc7a-bd3f-4631-b1c2-91d07c32718c","ios":"levelo://app?vid=3c04bc7a-bd3f-4631-b1c2-91d07c32718c"},"vehicle_type_id":"4","last_reported":1784880382,"current_range_meters":38800,"station_id":"","pricing_plan_id":"cebpf4jnsgd1na2vs0mg"},{"bike_id":"dbd423ab-53b5-4a23-95ba-04c501e299c8","system_id":"levelo_inurba_marseille","lat":43.2927,"lon":5.37631,"is_reserved":false,"is_disabled":false,"rental_uris":{"android":"levelo://app?vid=dbd423ab-53b5-4a23-95ba-04c501e299c8","ios":"levelo://app?vid=dbd423ab-53b5-4a23-95ba-04c501e299c8"},"vehicle_type_id":"4","last_reported":1784880382,"current_range_meters":33200,"station_id":"ce4bgi12rcd13ifvqb80","pricing_plan_id":"cebpf4jnsgd1na2vs0mg"},{"bike_id":"c520161e-c250-4161-a55a-6b287776d8da","system_id":"levelo_inurba_marseille","lat":43.28483,"lon":5.48388,"is_reserved":false,"is_disabled":false,"rental_uris":{"android":"levelo://app?vid=c520161e-c250-4161-a55a-6b287776d8da","ios":"levelo://app?vid=c520161e-c250-4161-a55a-6b287776d8da"},"vehicle_type_id":"4","last_reported":1784880382,"current_range_meters":22800,"station_id":"st_d3svhcjqgbts73a3dn0g","pricing_plan_id":"cebpf4jnsgd1na2vs0mg"},{"bike_id":"1be16c68-4af1-419d-93d4-773b2af07f2a","system_id":"levelo_inurba_marseille","lat":43.28549,"lon":5.44091,"is_reserved":false,"is_disabled":false,"rental_uris":{"android":"levelo://app?vid=1be16c68-4af1-419d-93d4-773b2af07f2a","ios":"levelo://app?vid=1be16c68-4af1-419d-93d4-773b2af07f2a"},"vehicle_type_id":"4","last_reported":1784880382,"current_range_meters":39200,"station_id":"st_d3j3df2ikq2c7380ej80","pricing_plan_id":"cebpf4jnsgd1na2vs0mg"},{"bike_id":"1344aaf3-97e6-42ff-b3d2-9099ac693f1e","system_id":"levelo_inurba_marseille","lat":43.2894,"lon":5.39634,"is_reserved":false,"is_disabled":false,"rental_uris":{"android":"levelo://app?vid=1344aaf3-97e6-42ff-b3d2-9099ac693f1e","ios":"levelo://app?vid=1344aaf3-97e6-42ff-b3d2-9099ac693f1e"},"vehicle_type_id":"4","last_reported":1784880382,"current_range_meters":24800,"station_id":"ce4bh3h2rcd13ifvqdn0","pricing_plan_id":"cebpf4jnsgd1na2vs0mg"},{"bike_id":"dfe9c336-e662-4c4f-b0e2-3694ed8cf4c1","system_id":"levelo_inurba_marseille","lat":43.31488,"lon":5.373,"is_reserved":false,"is_disabled":false,"rental_uris":{"android":"levelo://app?vid=dfe9c336-e662-4c4f-b0e2-3694ed8cf4c1","ios":"levelo://app?vid=dfe9c336-e662-4c4f-b0e2-3694ed8cf4c1"},"vehicle_type_id":"4","last_reported":1784880382,"current_range_meters":39200,"station_id":"ce4bgt12rcd13ifvqcd0","pricing_plan_id":"cebpf4jnsgd1na2vs0mg"},{"bike_id":"c4599c29-f86a-45dc-be51-4124fda90118","system_id":"levelo_inurba_marseille","lat":43.23147,"lon":5.43731,"is_reserved":false,"is_disabled":false,"rental_uris":{"android":"levelo://app?vid=c4599c29-f86a-45dc-be51-4124fda90118","ios":"levelo://app?vid=c4599c29-f86a-45dc-be51-4124fda90118"},"vehicle_type_id":"4","last_reported":1784880382,"current_range_meters":39200,"station_id":"ce4bhmp2rcd13ifvqgog","pricing_plan_id":"cebpf4jnsgd1na2vs0mg"},{"bike_id":"20e07662-7157-430a-9631-9a203d7c0a7d","system_id":"levelo_inurba_marseille","lat":43.30175,"lon":5.37451,"is_reserved":false,"is_disabled":false,"rental_uris":{"android":"levelo://app?vid=20e07662-7157-430a-9631-9a203d7c0a7d","ios":"levelo://app?vid=20e07662-7157-430a-9631-9a203d7c0a7d"},"vehicle_type_id":"4","last_reported":1784880382,"current_range_meters":32400,"station_id":"ce4bgs92rcd13ifvqcc0","pricing_plan_id":"cebpf4jnsgd1na2vs0mg"},{"bike_id":"6dacfbfb-59f1-4859-ab01-eeea74b8ab29","system_id":"levelo_inurba_marseille","lat":43.24391,"lon":5.37069,"is_reserved":false,"is_disabled":false,"rental_uris":{"android":"levelo://app?vid=6dacfbfb-59f1-4859-ab01-eeea74b8ab29","ios":"levelo://app?vid=6dacfbfb-59f1-4859-ab01-eeea74b8ab29"},"vehicle_type_id":"4","last_reported":1784880382,"current_range_meters":8000,"station_id":"ce4bhhh2rcd13ifvqfk0","pricing_plan_id":"cebpf4jnsgd1na2vs0mg"},{"bike_id":"fa6cfd08-bbb2-485e-8656-80a9c9a8ce9e","system_id":"levelo_inurba_marseille","lat":43.309275,"lon":5.40135,"is_reserved":false,"is_disabled":false,"rental_uris":{"android":"levelo://app?vid=fa6cfd08-bbb2-485e-8656-80a9c9a8ce9e","ios":"levelo://app?vid=fa6cfd08-bbb2-485e-8656-80a9c9a8ce9e"},"vehicle_type_id":"4","last_reported":1784880382,"current_range_meters":32000,"station_id":"ce4bgvp2rcd13ifvqct0","pricing_plan_id":"cebpf4jnsgd1na2vs0mg"},{"bike_id":"31c57415-3118-4abd-ac1b-fa80f15d6f4d","system_id":"levelo_inurba_marseille","lat":43.3047,"lon":5.37911,"is_reserved":false,"is_disabled":false,"rental_uris":{"android":"levelo://app?vid=31c57415-3118-4abd-ac1b-fa80f15d6f4d","ios":"levelo://app?vid=31c57415-3118-4abd-ac1b-fa80f15d6f4d"},"vehicle_type_id":"4","last_reported":1784880382,"current_range_meters":39200,"station_id":"ce4bgup2rcd13ifvqcn0","pricing_plan_id":"cebpf4jnsgd1na2vs0mg"},{"bike_id":"c31ea38b-cee9-41a1-93fb-85dd217b0cbd","system_id":"levelo_inurba_marseille","lat":43.33763,"lon":5.36729,"is_reserved":false,"is_disabled":false,"rental_uris":{"android":"levelo://app?vid=c31ea38b-cee9-41a1-93fb-85dd217b0cbd","ios":"levelo://app?vid=c31ea38b-cee9-41a1-93fb-85dd217b0cbd"},"vehicle_type_id":"4","last_reported":1784880382,"current_range_meters":27200,"station_id":"","pricing_plan_id":"cebpf4jnsgd1na2vs0mg"},{"bike_id":"5307bddb-8ae9-425a-b55b-f6e55db5ffac","system_id":"levelo_inurba_marseille","lat":43.25862,"lon":5.3989,"is_reserved":false,"is_disabled":false,"rental_uris":{"android":"levelo://app?vid=5307bddb-8ae9-425a-b55b-f6e55db5ffac","ios":"levelo://app?vid=5307bddb-8ae9-425a-b55b-f6e55db5ffac"},"vehicle_type_id":"4","last_reported":1784880382,"current_range_meters":33200,"station_id":"ce4bhl92rcd13ifvqghg","pricing_plan_id":"cebpf4jnsgd1na2vs0mg"},{"bike_id":"0353fca3-fbdd-4286-a9eb-ebce376c25fa","system_id":"levelo_inurba_marseille","lat":43.23404,"lon":5.41245,"is_reserved":false,"is_disabled":false,"rental_uris":{"android":"levelo://app?vid=0353fca3-fbdd-4286-a9eb-ebce376c25fa","ios":"levelo://app?vid=0353fca3-fbdd-4286-a9eb-ebce376c25fa"},"vehicle_type_id":"4","last_reported":1784880382,"current_range_meters":39200,"station_id":"st_d75pvndhf9lc73cqq3eg","pricing_plan_id":"cebpf4jnsgd1na2vs0mg"},{"bike_id":"b8e43a89-3bb1-4279-9cee-f7b093c9b703","system_id":"levelo_inurba_marseille","lat":43.33718,"lon":5.37415,"is_reserved":false,"is_disabled":false,"rental_uris":{"android":"levelo://app?vid=b8e43a89-3bb1-4279-9cee-f7b093c9b703","ios":"levelo://app?vid=b8e43a89-3bb1-4279-9cee-f7b093c9b703"},"vehicle_type_id":"4","last_reported":1784880382,"current_range_meters":6800,"station_id":"","pricing_plan_id":"cebpf4jnsgd1na2vs0mg"},{"bike_id":"d0e3d421-3232-4fe6-8914-f2fab6f9cce9","system_id":"levelo_inurba_marseille","lat":43.31038,"lon":5.38515,"is_reserved":false,"is_disabled":false,"rental_uris":{"android":"levelo://app?vid=d0e3d421-3232-4fe6-8914-f2fab6f9cce9","ios":"levelo://app?vid=d0e3d421-3232-4fe6-8914-f2fab6f9cce9"},"vehicle_type_id":"4","last_reported":1784880382,"current_range_meters":38400,"station_id":"","pricing_plan_id":"cebpf4jnsgd1na2vs0mg"},{"bike_id":"af8f5110-0dea-4414-b384-8e116760f0fd","system_id":"levelo_inurba_marseille","lat":43.23184,"lon":5.4,"is_reserved":false,"is_disabled":false,"rental_uris":{"android":"levelo://app?vid=af8f5110-0dea-4414-b384-8e116760f0fd","ios":"levelo://app?vid=af8f5110-0dea-4414-b384-8e116760f0fd"},"vehicle_type_id":"4","last_reported":1784880382,"current_range_meters":8000,"station_id":"ce4bhn12rcd13ifvqgqg","pricing_plan_id":"cebpf4jnsgd1na2vs0mg"},{"bike_id":"afd87d0f-5cad-49fb-99b3-a46f76157d59","system_id":"levelo_inurba_marseille","lat":43.30885,"lon":5.39654,"is_reserved":false,"is_disabled":false,"rental_uris":{"android":"levelo://app?vid=afd87d0f-5cad-49fb-99b3-a46f76157d59","ios":"levelo://app?vid=afd87d0f-5cad-49fb-99b3-a46f76157d59"},"vehicle_type_id":"4","last_reported":1784880382,"current_range_meters":10000,"station_id":"ce4bh012rcd13ifvqcv0","pricing_plan_id":"cebpf4jnsgd1na2vs0mg"},{"bike_id":"31c275e7-8c99-45a0-b66e-3ad60ce6645a","system_id":"levelo_inurba_marseille","lat":43.33759,"lon":5.37448,"is_reserved":false,"is_disabled":false,"rental_uris":{"android":"levelo://app?vid=31c275e7-8c99-45a0-b66e-3ad60ce6645a","ios":"levelo://app?vid=31c275e7-8c99-45a0-b66e-3ad60ce6645a"},"vehicle_type_id":"4","last_reported":1784880382,"current_range_meters":39200,"station_id":"","pricing_plan_id":"cebpf4jnsgd1na2vs0mg"},{"bike_id":"45d1a51f-5eff-4763-8b7c-1c817383ed0f","system_id":"levelo_inurba_marseille","lat":43.31097,"lon":5.4244,"is_reserved":false,"is_disabled":true,"rental_uris":{"android":"levelo://app?vid=45d1a51f-5eff-4763-8b7c-1c817383ed0f","ios":"levelo://app?vid=45d1a51f-5eff-4763-8b7c-1c817383ed0f"},"vehicle_type_id":"4","last_reported":1784880382,"current_range_meters":14000,"station_id":"ce4bhp92rcd13ifvqhag","pricing_plan_id":"cebpf4jnsgd1na2vs0mg"},{"bike_id":"0edd1e59-1ab0-4719-b32b-38d674efaaa9","system_id":"levelo_inurba_marseille","lat":43.30544,"lon":5.36559,"is_reserved":false,"is_disabled":false,"rental_uris":{"android":"levelo://app?vid=0edd1e59-1ab0-4719-b32b-38d674efaaa9","ios":"levelo://app?vid=0edd1e59-1ab0-4719-b32b-38d674efaaa9"},"vehicle_type_id":"4","last_reported":1784880382,"current_range_meters":30800,"station_id":"ce4bgs12rcd13ifvqcag","pricing_plan_id":"cebpf4jnsgd1na2vs0mg"},{"bike_id":"dd4be85d-8683-4ab7-ad9b-2161c36de6ca","system_id":"levelo_inurba_marseille","lat":43.24064,"lon":5.37701,"is_reserved":false,"is_disabled":false,"rental_uris":{"android":"levelo://app?vid=dd4be85d-8683-4ab7-ad9b-2161c36de6ca","ios":"levelo://app?vid=dd4be85d-8683-4ab7-ad9b-2161c36de6ca"},"vehicle_type_id":"4","last_reported":1784880382,"current_range_meters":36000,"station_id":"ce4bhnp2rcd13ifvqgvg","pricing_plan_id":"cebpf4jnsgd1na2vs0mg"},{"bike_id":"7289a88e-2c47-447b-ba8c-e8b3f1c2d105","system_id":"levelo_inurba_marseille","lat":43.29853,"lon":5.36265,"is_reserved":false,"is_disabled":false,"rental_uris":{"android":"levelo://app?vid=7289a88e-2c47-447b-ba8c-e8b3f1c2d105","ios":"levelo://app?vid=7289a88e-2c47-447b-ba8c-e8b3f1c2d105"},"vehicle_type_id":"4","last_reported":1784880382,"current_range_meters":18800,"station_id":"ce4bgpp2rcd13ifvqc3g","pricing_plan_id":"cebpf4jnsgd1na2vs0mg"},{"bike_id":"c36224d6-5971-4a21-8df2-2c749759fe14","system_id":"levelo_inurba_marseille","lat":43.27993,"lon":5.4002,"is_reserved":false,"is_disabled":false,"rental_uris":{"android":"levelo://app?vid=c36224d6-5971-4a21-8df2-2c749759fe14","ios":"levelo://app?vid=c36224d6-5971-4a21-8df2-2c749759fe14"},"vehicle_type_id":"4","last_reported":1784880382,"current_range_meters":38400,"station_id":"ce4bho92rcd13ifvqh4g","pricing_plan_id":"cebpf4jnsgd1na2vs0mg"},{"bike_id":"13bbfe3b-874b-44d7-9abb-922c8de23c11","system_id":"levelo_inurba_marseille","lat":43.2325,"lon":5.35401,"is_reserved":false,"is_disabled":false,"rental_uris":{"android":"levelo://app?vid=13bbfe3b-874b-44d7-9abb-922c8de23c11","ios":"levelo://app?vid=13bbfe3b-874b-44d7-9abb-922c8de23c11"},"vehicle_type_id":"4","last_reported":1784880382,"current_range_meters":16400,"station_id":"","pricing_plan_id":"cebpf4jnsgd1na2vs0mg"},{"bike_id":"e8800239-9eea-4468-a0be-958516963b72","system_id":"levelo_inurba_marseille","lat":43.291921,"lon":5.357926,"is_reserved":false,"is_disabled":false,"rental_uris":{"android":"levelo://app?vid=e8800239-9eea-4468-a0be-958516963b72","ios":"levelo://app?vid=e8800239-9eea-4468-a0be-958516963b72"},"vehicle_type_id":"4","last_reported":1784880382,"current_range_meters":18800,"station_id":"ce4bhb12rcd13ifvqel0","pricing_plan_id":"cebpf4jnsgd1na2vs0mg"},{"bike_id":"496a2eae-b08c-4311-ad78-515884e1b5b0","system_id":"levelo_inurba_marseille","lat":43.29272,"lon":5.36838,"is_reserved":false,"is_disabled":true,"rental_uris":{"android":"levelo://app?vid=496a2eae-b08c-4311-ad78-515884e1b5b0","ios":"levelo://app?vid=496a2eae-b08c-4311-ad78-515884e1b5b0"},"vehicle_type_id":"4","last_reported":1784880382,"current_range_meters":2000,"station_id":"ce4bhbp2rcd13ifvqesg","pricing_plan_id":"cebpf4jnsgd1na2vs0mg"},{"bike_id":"1bedc34c-6053-43d8-b0a8-456ba408ef9f","system_id":"levelo_inurba_marseille","lat":43.29047,"lon":5.39964,"is_reserved":false,"is_disabled":false,"rental_uris":{"android":"levelo://app?vid=1bedc34c-6053-43d8-b0a8-456ba408ef9f","ios":"levelo://app?vid=1bedc34c-6053-43d8-b0a8-456ba408ef9f"},"vehicle_type_id":"4","last_reported":1784880382,"current_range_meters":38000,"station_id":"ce4bh392rcd13ifvqdm0","pricing_plan_id":"cebpf4jnsgd1na2vs0mg"},{"bike_id":"6ed5f8c3-6da8-4cec-bfad-13253a432d70","system_id":"levelo_inurba_marseille","lat":43.29416,"lon":5.38616,"is_reserved":false,"is_disabled":true,"rental_uris":{"android":"levelo://app?vid=6ed5f8c3-6da8-4cec-bfad-13253a432d70","ios":"levelo://app?vid=6ed5f8c3-6da8-4cec-bfad-13253a432d70"},"vehicle_type_id":"4","last_reported":1784880382,"current_range_meters":27200,"station_id":"","pricing_plan_id":"cebpf4jnsgd1na2vs0mg"},{"bike_id":"2abfcdfb-2eb0-4480-932d-1071dc8638d6","system_id":"levelo_inurba_marseille","lat":43.33557,"lon":5.37435,"is_reserved":false,"is_disabled":false,"rental_uris":{"android":"levelo://app?vid=2abfcdfb-2eb0-4480-932d-1071dc8638d6","ios":"levelo://app?vid=2abfcdfb-2eb0-4480-932d-1071dc8638d6"},"vehicle_type_id":"4","last_reported":1784880382,"current_range_meters":32000,"station_id":"st_d46tts09ee8s73dlu43g","pricing_plan_id":"cebpf4jnsgd1na2vs0mg"},{"bike_id":"0dee0085-d5a5-4c48-b3f1-a323bb744f3d","system_id":"levelo_inurba_marseille","lat":43.22562,"lon":5.41623,"is_reserved":false,"is_disabled":false,"rental_uris":{"android":"levelo://app?vid=0dee0085-d5a5-4c48-b3f1-a323bb744f3d","ios":"levelo://app?vid=0dee0085-d5a5-4c48-b3f1-a323bb744f3d"},"vehicle_type_id":"4","last_reported":1784880382,"current_range_meters":25200,"station_id":"st_d2o4gvlbi1j2169b742g","pricing_plan_id":"cebpf4jnsgd1na2vs0mg"},{"bike_id":"1c1bbe7c-1d2a-410d-9beb-11362c892d68","system_id":"levelo_inurba_marseille","lat":43.30486,"lon":5.37918,"is_reserved":false,"is_disabled":false,"rental_uris":{"android":"levelo://app?vid=1c1bbe7c-1d2a-410d-9beb-11362c892d68","ios":"levelo://app?vid=1c1bbe7c-1d2a-410d-9beb-11362c892d68"},"vehicle_type_id":"4","last_reported":1784880382,"current_range_meters":32400,"station_id":"ce4bgup2rcd13ifvqcn0","pricing_plan_id":"cebpf4jnsgd1na2vs0mg"},{"bike_id":"97a60be5-700b-48a7-a33f-39e7a6f9d94f","system_id":"levelo_inurba_marseille","lat":43.29046,"lon":5.39965,"is_reserved":false,"is_disabled":false,"rental_uris":{"android":"levelo://app?vid=97a60be5-700b-48a7-a33f-39e7a6f9d94f","ios":"levelo://app?vid=97a60be5-700b-48a7-a33f-39e7a6f9d94f"},"vehicle_type_id":"4","last_reported":1784880382,"current_range_meters":36000,"station_id":"ce4bh392rcd13ifvqdm0","pricing_plan_id":"cebpf4jnsgd1na2vs0mg"},{"bike_id":"0b2c45f2-fdaa-45fe-9511-e6426cab85f6","system_id":"levelo_inurba_marseille","lat":43.27495,"lon":5.42446,"is_reserved":false,"is_disabled":false,"rental_uris":{"android":"levelo://app?vid=0b2c45f2-fdaa-45fe-9511-e6426cab85f6","ios":"levelo://app?vid=0b2c45f2-fdaa-45fe-9511-e6426cab85f6"},"vehicle_type_id":"4","last_reported":1784880382,"current_range_meters":12800,"station_id":"ce4bhn92rcd13ifvqgrg","pricing_plan_id":"cebpf4jnsgd1na2vs0mg"},{"bike_id":"f58e4198-29b2-4c50-bcae-c861fe28b7ba","system_id":"levelo_inurba_marseille","lat":43.30951,"lon":5.39038,"is_reserved":false,"is_disabled":false,"rental_uris":{"android":"levelo://app?vid=f58e4198-29b2-4c50-bcae-c861fe28b7ba","ios":"levelo://app?vid=f58e4198-29b2-4c50-bcae-c861fe28b7ba"},"vehicle_type_id":"4","last_reported":1784880382,"current_range_meters":35200,"station_id":"ce4bgup2rcd13ifvqco0","pricing_plan_id":"cebpf4jnsgd1na2vs0mg"},{"bike_id":"595b7f1a-57fa-4acd-a42f-0cff5ec053a5","system_id":"levelo_inurba_marseille","lat":43.28001,"lon":5.40005,"is_reserved":false,"is_disabled":false,"rental_uris":{"android":"levelo://app?vid=595b7f1a-57fa-4acd-a42f-0cff5ec053a5","ios":"levelo://app?vid=595b7f1a-57fa-4acd-a42f-0cff5ec053a5"},"vehicle_type_id":"4","last_reported":1784880382,"current_range_meters":19600,"station_id":"ce4bho92rcd13ifvqh4g","pricing_plan_id":"cebpf4jnsgd1na2vs0mg"},{"bike_id":"40fc1cec-8b48-46ff-a0ac-d0ff8764e1f8","system_id":"levelo_inurba_marseille","lat":43.25934,"lon":5.40891,"is_reserved":false,"is_disabled":false,"rental_uris":{"android":"levelo://app?vid=40fc1cec-8b48-46ff-a0ac-d0ff8764e1f8","ios":"levelo://app?vid=40fc1cec-8b48-46ff-a0ac-d0ff8764e1f8"},"vehicle_type_id":"4","last_reported":1784880382,"current_range_meters":28400,"station_id":"ce4bhm92rcd13ifvqglg","pricing_plan_id":"cebpf4jnsgd1na2vs0mg"},{"bike_id":"dad5eff3-cb3a-4459-ba39-741abe4a6c6c","system_id":"levelo_inurba_marseille","lat":43.32106,"lon":5.36776,"is_reserved":false,"is_disabled":false,"rental_uris":{"android":"levelo://app?vid=dad5eff3-cb3a-4459-ba39-741abe4a6c6c","ios":"levelo://app?vid=dad5eff3-cb3a-4459-ba39-741abe4a6c6c"},"vehicle_type_id":"4","last_reported":1784880382,"current_range_meters":36800,"station_id":"ce4bhrh2rcd13ifvqhug","pricing_plan_id":"cebpf4jnsgd1na2vs0mg"},{"bike_id":"c54edccf-7cf3-4a56-ae55-3e6bd5dff51e","system_id":"levelo_inurba_marseille","lat":43.29053,"lon":5.39982,"is_reserved":false,"is_disabled":false,"rental_uris":{"android":"levelo://app?vid=c54edccf-7cf3-4a56-ae55-3e6bd5dff51e","ios":"levelo://app?vid=c54edccf-7cf3-4a56-ae55-3e6bd5dff51e"},"vehicle_type_id":"4","last_reported":1784880382,"current_range_meters":30400,"station_id":"ce4bh392rcd13ifvqdm0","pricing_plan_id":"cebpf4jnsgd1na2vs0mg"},{"bike_id":"52ebf120-1049-4312-8cba-25f3a41578a0","system_id":"levelo_inurba_marseille","lat":43.27375,"lon":5.3624,"is_reserved":false,"is_disabled":false,"rental_uris":{"android":"levelo://app?vid=52ebf120-1049-4312-8cba-25f3a41578a0","ios":"levelo://app?vid=52ebf120-1049-4312-8cba-25f3a41578a0"},"vehicle_type_id":"4","last_reported":1784880382,"current_range_meters":39200,"station_id":"ce4bhbh2rcd13ifvqeo0","pricing_plan_id":"cebpf4jnsgd1na2vs0mg"},{"bike_id":"2acd2ae5-3829-4d5e-b56f-1bb617133f9d","system_id":"levelo_inurba_marseille","lat":43.23206,"lon":5.35567,"is_reserved":false,"is_disabled":false,"rental_uris":{"android":"levelo://app?vid=2acd2ae5-3829-4d5e-b56f-1bb617133f9d","ios":"levelo://app?vid=2acd2ae5-3829-4d5e-b56f-1bb617133f9d"},"vehicle_type_id":"4","last_reported":1784880382,"current_range_meters":26800,"station_id":"ce4bhu92rcd13ifvqi70","pricing_plan_id":"cebpf4jnsgd1na2vs0mg"},{"bike_id":"e9963229-6f79-4069-a94d-d3024b874db2","system_id":"levelo_inurba_marseille","lat":43.25091,"lon":5.39511,"is_reserved":false,"is_disabled":false,"rental_uris":{"android":"levelo://app?vid=e9963229-6f79-4069-a94d-d3024b874db2","ios":"levelo://app?vid=e9963229-6f79-4069-a94d-d3024b874db2"},"vehicle_type_id":"4","last_reported":1784880382,"current_range_meters":4000,"station_id":"ce4bhm12rcd13ifvqgkg","pricing_plan_id":"cebpf4jnsgd1na2vs0mg"},{"bike_id":"3860c86d-35d7-4b5e-a839-608b7372a84f","system_id":"levelo_inurba_marseille","lat":43.27508,"lon":5.4251,"is_reserved":false,"is_disabled":false,"rental_uris":{"android":"levelo://app?vid=3860c86d-35d7-4b5e-a839-608b7372a84f","ios":"levelo://app?vid=3860c86d-35d7-4b5e-a839-608b7372a84f"},"vehicle_type_id":"4","last_reported":1784880382,"current_range_meters":39200,"station_id":"ce4bhn92rcd13ifvqgrg","pricing_plan_id":"cebpf4jnsgd1na2vs0mg"},{"bike_id":"db7a0f5f-f4fd-47a3-8b62-f4675bfd5eb8","system_id":"levelo_inurba_marseille","lat":43.28474,"lon":5.3765,"is_reserved":false,"is_disabled":false,"rental_uris":{"android":"levelo://app?vid=db7a0f5f-f4fd-47a3-8b62-f4675bfd5eb8","ios":"levelo://app?vid=db7a0f5f-f4fd-47a3-8b62-f4675bfd5eb8"},"vehicle_type_id":"4","last_reported":1784880382,"current_range_meters":30000,"station_id":"","pricing_plan_id":"cebpf4jnsgd1na2vs0mg"},{"bike_id":"49afbb97-63c6-4429-a5d3-709ae66d442a","system_id":"levelo_inurba_marseille","lat":43.29802,"lon":5.37622,"is_reserved":false,"is_disabled":false,"rental_uris":{"android":"levelo://app?vid=49afbb97-63c6-4429-a5d3-709ae66d442a","ios":"levelo://app?vid=49afbb97-63c6-4429-a5d3-709ae66d442a"},"vehicle_type_id":"4","last_reported":1784880382,"current_range_meters":17600,"station_id":"","pricing_plan_id":"cebpf4jnsgd1na2vs0mg"},{"bike_id":"80a76fb1-0119-4fb3-8138-6764c88c5e95","system_id":"levelo_inurba_marseille","lat":43.21752,"lon":5.34598,"is_reserved":false,"is_disabled":false,"rental_uris":{"android":"levelo://app?vid=80a76fb1-0119-4fb3-8138-6764c88c5e95","ios":"levelo://app?vid=80a76fb1-0119-4fb3-8138-6764c88c5e95"},"vehicle_type_id":"4","last_reported":1784880382,"current_range_meters":9600,"station_id":"st_cvj6r9ubvosntc0bgbag","pricing_plan_id":"cebpf4jnsgd1na2vs0mg"},{"bike_id":"47c1741e-64b0-439f-9f1c-76e4dfb4aec6","system_id":"levelo_inurba_marseille","lat":43.28912,"lon":5.42548,"is_reserved":false,"is_disabled":false,"rental_uris":{"android":"levelo://app?vid=47c1741e-64b0-439f-9f1c-76e4dfb4aec6","ios":"levelo://app?vid=47c1741e-64b0-439f-9f1c-76e4dfb4aec6"},"vehicle_type_id":"4","last_reported":1784880382,"current_range_meters":9200,"station_id":"st_d3b462108ojc7389ooeg","pricing_plan_id":"cebpf4jnsgd1na2vs0mg"},{"bike_id":"1fade11d-8e73-4748-8586-d9741ca55ced","system_id":"levelo_inurba_marseille","lat":43.317152,"lon":5.437034,"is_reserved":false,"is_disabled":false,"rental_uris":{"android":"levelo://app?vid=1fade11d-8e73-4748-8586-d9741ca55ced","ios":"levelo://app?vid=1fade11d-8e73-4748-8586-d9741ca55ced"},"vehicle_type_id":"4","last_reported":1784880382,"current_range_meters":23200,"station_id":"ce4bhp92rcd13ifvqhcg","pricing_plan_id":"cebpf4jnsgd1na2vs0mg"},{"bike_id":"69bb3b6f-3ab0-4bdd-b87c-304d3e19b862","system_id":"levelo_inurba_marseille","lat":43.28386,"lon":5.3863,"is_reserved":false,"is_disabled":true,"rental_uris":{"android":"levelo://app?vid=69bb3b6f-3ab0-4bdd-b87c-304d3e19b862","ios":"levelo://app?vid=69bb3b6f-3ab0-4bdd-b87c-304d3e19b862"},"vehicle_type_id":"4","last_reported":1784880382,"current_range_meters":1200,"station_id":"ce4bh492rcd13ifvqdvg","pricing_plan_id":"cebpf4jnsgd1na2vs0mg"},{"bike_id":"a26ca20e-57ca-48c1-9768-c622c99dc8be","system_id":"levelo_inurba_marseille","lat":43.28465,"lon":5.38408,"is_reserved":false,"is_disabled":false,"rental_uris":{"android":"levelo://app?vid=a26ca20e-57ca-48c1-9768-c622c99dc8be","ios":"levelo://app?vid=a26ca20e-57ca-48c1-9768-c622c99dc8be"},"vehicle_type_id":"4","last_reported":1784880382,"current_range_meters":12400,"station_id":"ce4bh512rcd13ifvqe3g","pricing_plan_id":"cebpf4jnsgd1na2vs0mg"},{"bike_id":"2b5becdf-f8e2-49e5-a55c-775afd13da26","system_id":"levelo_inurba_marseille","lat":43.21185,"lon":5.35079,"is_reserved":false,"is_disabled":false,"rental_uris":{"android":"levelo://app?vid=2b5becdf-f8e2-49e5-a55c-775afd13da26","ios":"levelo://app?vid=2b5becdf-f8e2-49e5-a55c-775afd13da26"},"vehicle_type_id":"4","last_reported":1784880382,"current_range_meters":6400,"station_id":"st_cvj6sg6p6f1abm77japg","pricing_plan_id":"cebpf4jnsgd1na2vs0mg"},{"bike_id":"652a9e0c-7a5b-4bef-899b-170a0d6155ad","system_id":"levelo_inurba_marseille","lat":43.28954,"lon":5.3962,"is_reserved":false,"is_disabled":false,"rental_uris":{"android":"levelo://app?vid=652a9e0c-7a5b-4bef-899b-170a0d6155ad","ios":"levelo://app?vid=652a9e0c-7a5b-4bef-899b-170a0d6155ad"},"vehicle_type_id":"4","last_reported":1784880382,"current_range_meters":33600,"station_id":"ce4bh3h2rcd13ifvqdn0","pricing_plan_id":"cebpf4jnsgd1na2vs0mg"},{"bike_id":"75146afd-6944-4808-9153-760cee29f303","system_id":"levelo_inurba_marseille","lat":43.24667,"lon":5.37878,"is_reserved":false,"is_disabled":false,"rental_uris":{"android":"levelo://app?vid=75146afd-6944-4808-9153-760cee29f303","ios":"levelo://app?vid=75146afd-6944-4808-9153-760cee29f303"},"vehicle_type_id":"4","last_reported":1784880382,"current_range_meters":17600,"station_id":"","pricing_plan_id":"cebpf4jnsgd1na2vs0mg"},{"bike_id":"283163f1-8552-421c-9067-d2fb326bee26","system_id":"levelo_inurba_marseille","lat":43.31875,"lon":5.36831,"is_reserved":false,"is_disabled":false,"rental_uris":{"android":"levelo://app?vid=283163f1-8552-421c-9067-d2fb326bee26","ios":"levelo://app?vid=283163f1-8552-421c-9067-d2fb326bee26"},"vehicle_type_id":"4","last_reported":1784880382,"current_range_meters":27600,"station_id":"st_d6o2h0d0559c73evc1b0","pricing_plan_id":"cebpf4jnsgd1na2vs0mg"},{"bike_id":"9ea669b4-7ef9-40c9-b53c-ea61a27859fd","system_id":"levelo_inurba_marseille","lat":43.25941,"lon":5.40916,"is_reserved":false,"is_disabled":false,"rental_uris":{"android":"levelo://app?vid=9ea669b4-7ef9-40c9-b53c-ea61a27859fd","ios":"levelo://app?vid=9ea669b4-7ef9-40c9-b53c-ea61a27859fd"},"vehicle_type_id":"4","last_reported":1784880382,"current_range_meters":24400,"station_id":"ce4bhm92rcd13ifvqglg","pricing_plan_id":"cebpf4jnsgd1na2vs0mg"},{"bike_id":"1d2afb4e-945b-4668-9072-41ed9da1567d","system_id":"levelo_inurba_marseille","lat":43.28015,"lon":5.3828,"is_reserved":false,"is_disabled":false,"rental_uris":{"android":"levelo://app?vid=1d2afb4e-945b-4668-9072-41ed9da1567d","ios":"levelo://app?vid=1d2afb4e-945b-4668-9072-41ed9da1567d"},"vehicle_type_id":"4","last_reported":1784880382,"current_range_meters":8800,"station_id":"","pricing_plan_id":"cebpf4jnsgd1na2vs0mg"},{"bike_id":"62d77c3c-0cd8-4aad-9f5b-b707e4392beb","system_id":"levelo_inurba_marseille","lat":43.30791,"lon":5.38143,"is_reserved":false,"is_disabled":false,"rental_uris":{"android":"levelo://app?vid=62d77c3c-0cd8-4aad-9f5b-b707e4392beb","ios":"levelo://app?vid=62d77c3c-0cd8-4aad-9f5b-b707e4392beb"},"vehicle_type_id":"4","last_reported":1784880382,"current_range_meters":30000,"station_id":"ce4bgt12rcd13ifvqce0","pricing_plan_id":"cebpf4jnsgd1na2vs0mg"},{"bike_id":"ae9059ae-33bc-4c56-8e97-d6b36b6f158a","system_id":"levelo_inurba_marseille","lat":43.33528,"lon":5.37506,"is_reserved":false,"is_disabled":false,"rental_uris":{"android":"levelo://app?vid=ae9059ae-33bc-4c56-8e97-d6b36b6f158a","ios":"levelo://app?vid=ae9059ae-33bc-4c56-8e97-d6b36b6f158a"},"vehicle_type_id":"4","last_reported":1784880382,"current_range_meters":28400,"station_id":"","pricing_plan_id":"cebpf4jnsgd1na2vs0mg"},{"bike_id":"65b67c95-333b-427f-b423-5fedceb028f9","system_id":"levelo_inurba_marseille","lat":43.29637,"lon":5.40595,"is_reserved":false,"is_disabled":false,"rental_uris":{"android":"levelo://app?vid=65b67c95-333b-427f-b423-5fedceb028f9","ios":"levelo://app?vid=65b67c95-333b-427f-b423-5fedceb028f9"},"vehicle_type_id":"4","last_reported":1784880382,"current_range_meters":37600,"station_id":"ce4bh0h2rcd13ifvqd60","pricing_plan_id":"cebpf4jnsgd1na2vs0mg"},{"bike_id":"33b056d2-757f-4fdf-ae24-6fd245c383cd","system_id":"levelo_inurba_marseille","lat":43.29276,"lon":5.36855,"is_reserved":false,"is_disabled":false,"rental_uris":{"android":"levelo://app?vid=33b056d2-757f-4fdf-ae24-6fd245c383cd","ios":"levelo://app?vid=33b056d2-757f-4fdf-ae24-6fd245c383cd"},"vehicle_type_id":"4","last_reported":1784880382,"current_range_meters":38400,"station_id":"ce4bhbp2rcd13ifvqesg","pricing_plan_id":"cebpf4jnsgd1na2vs0mg"},{"bike_id":"f483008e-db03-4d10-804d-5fe3165dfac5","system_id":"levelo_inurba_marseille","lat":43.25939,"lon":5.40923,"is_reserved":false,"is_disabled":false,"rental_uris":{"android":"levelo://app?vid=f483008e-db03-4d10-804d-5fe3165dfac5","ios":"levelo://app?vid=f483008e-db03-4d10-804d-5fe3165dfac5"},"vehicle_type_id":"4","last_reported":1784880382,"current_range_meters":18000,"station_id":"ce4bhm92rcd13ifvqglg","pricing_plan_id":"cebpf4jnsgd1na2vs0mg"},{"bike_id":"10a25d67-c8bf-48f8-a32e-b2e718772c67","system_id":"levelo_inurba_marseille","lat":43.25504,"lon":5.37648,"is_reserved":false,"is_disabled":false,"rental_uris":{"android":"levelo://app?vid=10a25d67-c8bf-48f8-a32e-b2e718772c67","ios":"levelo://app?vid=10a25d67-c8bf-48f8-a32e-b2e718772c67"},"vehicle_type_id":"4","last_reported":1784880382,"current_range_meters":38800,"station_id":"ce4bhh12rcd13ifvqff0","pricing_plan_id":"cebpf4jnsgd1na2vs0mg"},{"bike_id":"acb6c310-64e8-4ffb-9d0e-3645b38213aa","system_id":"levelo_inurba_marseille","lat":43.22566,"lon":5.41619,"is_reserved":false,"is_disabled":false,"rental_uris":{"android":"levelo://app?vid=acb6c310-64e8-4ffb-9d0e-3645b38213aa","ios":"levelo://app?vid=acb6c310-64e8-4ffb-9d0e-3645b38213aa"},"vehicle_type_id":"4","last_reported":1784880382,"current_range_meters":38400,"station_id":"st_d2o4gvlbi1j2169b742g","pricing_plan_id":"cebpf4jnsgd1na2vs0mg"},{"bike_id":"784ecc80-cdf9-4768-8596-6ca3689e7799","system_id":"levelo_inurba_marseille","lat":43.28275,"lon":5.35058,"is_reserved":false,"is_disabled":false,"rental_uris":{"android":"levelo://app?vid=784ecc80-cdf9-4768-8596-6ca3689e7799","ios":"levelo://app?vid=784ecc80-cdf9-4768-8596-6ca3689e7799"},"vehicle_type_id":"4","last_reported":1784880382,"current_range_meters":24400,"station_id":"ce4bhbp2rcd13ifvqerg","pricing_plan_id":"cebpf4jnsgd1na2vs0mg"},{"bike_id":"f43fd5c4-8d3e-4319-a8f8-71c58f46f44a","system_id":"levelo_inurba_marseille","lat":43.28611,"lon":5.39906,"is_reserved":false,"is_disabled":false,"rental_uris":{"android":"levelo://app?vid=f43fd5c4-8d3e-4319-a8f8-71c58f46f44a","ios":"levelo://app?vid=f43fd5c4-8d3e-4319-a8f8-71c58f46f44a"},"vehicle_type_id":"4","last_reported":1784880382,"current_range_meters":32000,"station_id":"st_d4a7ka997mjs738ck50g","pricing_plan_id":"cebpf4jnsgd1na2vs0mg"},{"bike_id":"2b2d5806-a98a-4b6d-8666-219c96826a65","system_id":"levelo_inurba_marseille","lat":43.33012,"lon":5.39031,"is_reserved":false,"is_disabled":false,"rental_uris":{"android":"levelo://app?vid=2b2d5806-a98a-4b6d-8666-219c96826a65","ios":"levelo://app?vid=2b2d5806-a98a-4b6d-8666-219c96826a65"},"vehicle_type_id":"4","last_reported":1784880382,"current_range_meters":2800,"station_id":"ce4bhr92rcd13ifvqhrg","pricing_plan_id":"cebpf4jnsgd1na2vs0mg"},{"bike_id":"9d4b8430-c687-4ce9-b117-2b375d0afc9f","system_id":"levelo_inurba_marseille","lat":43.23146,"lon":5.43713,"is_reserved":false,"is_disabled":false,"rental_uris":{"android":"levelo://app?vid=9d4b8430-c687-4ce9-b117-2b375d0afc9f","ios":"levelo://app?vid=9d4b8430-c687-4ce9-b117-2b375d0afc9f"},"vehicle_type_id":"4","last_reported":1784880382,"current_range_meters":28800,"station_id":"ce4bhmp2rcd13ifvqgog","pricing_plan_id":"cebpf4jnsgd1na2vs0mg"},{"bike_id":"65a3f34d-94f0-443b-8235-d3a8fff66ef6","system_id":"levelo_inurba_marseille","lat":43.26495,"lon":5.39556,"is_reserved":false,"is_disabled":false,"rental_uris":{"android":"levelo://app?vid=65a3f34d-94f0-443b-8235-d3a8fff66ef6","ios":"levelo://app?vid=65a3f34d-94f0-443b-8235-d3a8fff66ef6"},"vehicle_type_id":"4","last_reported":1784880382,"current_range_meters":37600,"station_id":"ce4bhi12rcd13ifvqfq0","pricing_plan_id":"cebpf4jnsgd1na2vs0mg"},{"bike_id":"afc2a3b3-dda2-497e-a8f6-5a8775f21a4e","system_id":"levelo_inurba_marseille","lat":43.3044,"lon":5.38896,"is_reserved":false,"is_disabled":false,"rental_uris":{"android":"levelo://app?vid=afc2a3b3-dda2-497e-a8f6-5a8775f21a4e","ios":"levelo://app?vid=afc2a3b3-dda2-497e-a8f6-5a8775f21a4e"},"vehicle_type_id":"4","last_reported":1784880382,"current_range_meters":38400,"station_id":"ce4bgk12rcd13ifvqbi0","pricing_plan_id":"cebpf4jnsgd1na2vs0mg"},{"bike_id":"666a8e08-e898-4506-bf36-3b7cf33cc5a4","system_id":"levelo_inurba_marseille","lat":43.2592,"lon":5.40905,"is_reserved":false,"is_disabled":false,"rental_uris":{"android":"levelo://app?vid=666a8e08-e898-4506-bf36-3b7cf33cc5a4","ios":"levelo://app?vid=666a8e08-e898-4506-bf36-3b7cf33cc5a4"},"vehicle_type_id":"4","last_reported":1784880382,"current_range_meters":31200,"station_id":"ce4bhm92rcd13ifvqglg","pricing_plan_id":"cebpf4jnsgd1na2vs0mg"},{"bike_id":"9ebe5ee9-a40d-4de0-9312-61a1758a5ea5","system_id":"levelo_inurba_marseille","lat":43.2974,"lon":5.3766,"is_reserved":false,"is_disabled":false,"rental_uris":{"android":"levelo://app?vid=9ebe5ee9-a40d-4de0-9312-61a1758a5ea5","ios":"levelo://app?vid=9ebe5ee9-a40d-4de0-9312-61a1758a5ea5"},"vehicle_type_id":"4","last_reported":1784880382,"current_range_meters":39200,"station_id":"ce4bgkh2rcd13ifvqbl0","pricing_plan_id":"cebpf4jnsgd1na2vs0mg"},{"bike_id":"3aa3aae4-a48b-435b-aa19-a10108b5b5c3","system_id":"levelo_inurba_marseille","lat":43.267,"lon":5.38256,"is_reserved":false,"is_disabled":false,"rental_uris":{"android":"levelo://app?vid=3aa3aae4-a48b-435b-aa19-a10108b5b5c3","ios":"levelo://app?vid=3aa3aae4-a48b-435b-aa19-a10108b5b5c3"},"vehicle_type_id":"4","last_reported":1784880382,"current_range_meters":16400,"station_id":"ce4bhg92rcd13ifvqf90","pricing_plan_id":"cebpf4jnsgd1na2vs0mg"},{"bike_id":"32d8359b-35ea-44c4-8d2d-96da3c92039b","system_id":"levelo_inurba_marseille","lat":43.28936,"lon":5.39632,"is_reserved":false,"is_disabled":false,"rental_uris":{"android":"levelo://app?vid=32d8359b-35ea-44c4-8d2d-96da3c92039b","ios":"levelo://app?vid=32d8359b-35ea-44c4-8d2d-96da3c92039b"},"vehicle_type_id":"4","last_reported":1784880382,"current_range_meters":25200,"station_id":"ce4bh3h2rcd13ifvqdn0","pricing_plan_id":"cebpf4jnsgd1na2vs0mg"},{"bike_id":"429123e4-dc43-429b-abc2-42a83c22e46e","system_id":"levelo_inurba_marseille","lat":43.23191,"lon":5.35536,"is_reserved":false,"is_disabled":false,"rental_uris":{"android":"levelo://app?vid=429123e4-dc43-429b-abc2-42a83c22e46e","ios":"levelo://app?vid=429123e4-dc43-429b-abc2-42a83c22e46e"},"vehicle_type_id":"4","last_reported":1784880382,"current_range_meters":29600,"station_id":"ce4bhu92rcd13ifvqi70","pricing_plan_id":"cebpf4jnsgd1na2vs0mg"},{"bike_id":"549092ec-1728-4763-a2bf-987f0530bf59","system_id":"levelo_inurba_marseille","lat":43.286083,"lon":5.398729,"is_reserved":false,"is_disabled":false,"rental_uris":{"android":"levelo://app?vid=549092ec-1728-4763-a2bf-987f0530bf59","ios":"levelo://app?vid=549092ec-1728-4763-a2bf-987f0530bf59"},"vehicle_type_id":"4","last_reported":1784880382,"current_range_meters":30800,"station_id":"st_d4a7ka997mjs738ck50g","pricing_plan_id":"cebpf4jnsgd1na2vs0mg"},{"bike_id":"a9500356-c19d-415e-81ed-a8d1baa0c959","system_id":"levelo_inurba_marseille","lat":43.30139,"lon":5.38779,"is_reserved":false,"is_disabled":true,"rental_uris":{"android":"levelo://app?vid=a9500356-c19d-415e-81ed-a8d1baa0c959","ios":"levelo://app?vid=a9500356-c19d-415e-81ed-a8d1baa0c959"},"vehicle_type_id":"4","last_reported":1784880382,"current_range_meters":22400,"station_id":"ce4bghh2rcd13ifvqb60","pricing_plan_id":"cebpf4jnsgd1na2vs0mg"},{"bike_id":"bace381c-6258-4d80-80f1-070c343af026","system_id":"levelo_inurba_marseille","lat":43.33157,"lon":5.37691,"is_reserved":false,"is_disabled":false,"rental_uris":{"android":"levelo://app?vid=bace381c-6258-4d80-80f1-070c343af026","ios":"levelo://app?vid=bace381c-6258-4d80-80f1-070c343af026"},"vehicle_type_id":"4","last_reported":1784880382,"current_range_meters":32000,"station_id":"st_d46cu089ee8s73dldbu0","pricing_plan_id":"cebpf4jnsgd1na2vs0mg"},{"bike_id":"7369c976-3c3b-40fa-a52b-30f587df3271","system_id":"levelo_inurba_marseille","lat":43.33739,"lon":5.39167,"is_reserved":false,"is_disabled":false,"rental_uris":{"android":"levelo://app?vid=7369c976-3c3b-40fa-a52b-30f587df3271","ios":"levelo://app?vid=7369c976-3c3b-40fa-a52b-30f587df3271"},"vehicle_type_id":"4","last_reported":1784880382,"current_range_meters":39200,"station_id":"ce4bhr92rcd13ifvqhsg","pricing_plan_id":"cebpf4jnsgd1na2vs0mg"},{"bike_id":"109d5a63-d486-4695-b934-74276612dd35","system_id":"levelo_inurba_marseille","lat":43.287377,"lon":5.361139,"is_reserved":false,"is_disabled":false,"rental_uris":{"android":"levelo://app?vid=109d5a63-d486-4695-b934-74276612dd35","ios":"levelo://app?vid=109d5a63-d486-4695-b934-74276612dd35"},"vehicle_type_id":"4","last_reported":1784880382,"current_range_meters":21600,"station_id":"","pricing_plan_id":"cebpf4jnsgd1na2vs0mg"},{"bike_id":"500e8021-7502-4d65-a2f2-3e3e18810584","system_id":"levelo_inurba_marseille","lat":43.30971,"lon":5.39033,"is_reserved":false,"is_disabled":false,"rental_uris":{"android":"levelo://app?vid=500e8021-7502-4d65-a2f2-3e3e18810584","ios":"levelo://app?vid=500e8021-7502-4d65-a2f2-3e3e18810584"},"vehicle_type_id":"4","last_reported":1784880382,"current_range_meters":32400,"station_id":"ce4bgup2rcd13ifvqco0","pricing_plan_id":"cebpf4jnsgd1na2vs0mg"},{"bike_id":"e9e543b0-8ca5-47a6-998c-4902ea53cdd4","system_id":"levelo_inurba_marseille","lat":43.25229,"lon":5.37313,"is_reserved":false,"is_disabled":true,"rental_uris":{"android":"levelo://app?vid=e9e543b0-8ca5-47a6-998c-4902ea53cdd4","ios":"levelo://app?vid=e9e543b0-8ca5-47a6-998c-4902ea53cdd4"},"vehicle_type_id":"4","last_reported":1784880382,"current_range_meters":6400,"station_id":"","pricing_plan_id":"cebpf4jnsgd1na2vs0mg"},{"bike_id":"4efb9352-923b-441f-bad4-2e5f98f8d60a","system_id":"levelo_inurba_marseille","lat":43.24172,"lon":5.36384,"is_reserved":false,"is_disabled":false,"rental_uris":{"android":"levelo://app?vid=4efb9352-923b-441f-bad4-2e5f98f8d60a","ios":"levelo://app?vid=4efb9352-923b-441f-bad4-2e5f98f8d60a"},"vehicle_type_id":"4","last_reported":1784880382,"current_range_meters":26800,"station_id":"cpo36qri1sfpv3e86is0","pricing_plan_id":"cebpf4jnsgd1na2vs0mg"},{"bike_id":"62bf8e72-a053-4bd3-bca8-0849ee7b0af0","system_id":"levelo_inurba_marseille","lat":43.30337,"lon":5.37845,"is_reserved":false,"is_disabled":false,"rental_uris":{"android":"levelo://app?vid=62bf8e72-a053-4bd3-bca8-0849ee7b0af0","ios":"levelo://app?vid=62bf8e72-a053-4bd3-bca8-0849ee7b0af0"},"vehicle_type_id":"4","last_reported":1784880382,"current_range_meters":35200,"station_id":"","pricing_plan_id":"cebpf4jnsgd1na2vs0mg"},{"bike_id":"07381100-2a43-412d-8493-6e36d0198e03","system_id":"levelo_inurba_marseille","lat":43.29973,"lon":5.38491,"is_reserved":false,"is_disabled":true,"rental_uris":{"android":"levelo://app?vid=07381100-2a43-412d-8493-6e36d0198e03","ios":"levelo://app?vid=07381100-2a43-412d-8493-6e36d0198e03"},"vehicle_type_id":"4","last_reported":1784880382,"current_range_meters":8800,"station_id":"ce4bgj92rcd13ifvqbd0","pricing_plan_id":"cebpf4jnsgd1na2vs0mg"},{"bike_id":"693c14b8-dea8-4bd6-9209-8f095362b343","system_id":"levelo_inurba_marseille","lat":43.25876,"lon":5.40449,"is_reserved":false,"is_disabled":false,"rental_uris":{"android":"levelo://app?vid=693c14b8-dea8-4bd6-9209-8f095362b343","ios":"levelo://app?vid=693c14b8-dea8-4bd6-9209-8f095362b343"},"vehicle_type_id":"4","last_reported":1784880382,"current_range_meters":24400,"station_id":"","pricing_plan_id":"cebpf4jnsgd1na2vs0mg"},{"bike_id":"842ffc9a-101e-41d5-9739-f074894eaec5","system_id":"levelo_inurba_marseille","lat":43.29035,"lon":5.39985,"is_reserved":false,"is_disabled":false,"rental_uris":{"android":"levelo://app?vid=842ffc9a-101e-41d5-9739-f074894eaec5","ios":"levelo://app?vid=842ffc9a-101e-41d5-9739-f074894eaec5"},"vehicle_type_id":"4","last_reported":1784880382,"current_range_meters":30400,"station_id":"ce4bh392rcd13ifvqdm0","pricing_plan_id":"cebpf4jnsgd1na2vs0mg"},{"bike_id":"d4e84f43-159c-4ce4-aea1-f8fc8ea4c1dc","system_id":"levelo_inurba_marseille","lat":43.30442,"lon":5.38897,"is_reserved":false,"is_disabled":false,"rental_uris":{"android":"levelo://app?vid=d4e84f43-159c-4ce4-aea1-f8fc8ea4c1dc","ios":"levelo://app?vid=d4e84f43-159c-4ce4-aea1-f8fc8ea4c1dc"},"vehicle_type_id":"4","last_reported":1784880382,"current_range_meters":36000,"station_id":"ce4bgk12rcd13ifvqbi0","pricing_plan_id":"cebpf4jnsgd1na2vs0mg"},{"bike_id":"a6e39fb0-f2e5-41d8-b4aa-b3071fa9ec56","system_id":"levelo_inurba_marseille","lat":43.23153,"lon":5.43724,"is_reserved":false,"is_disabled":false,"rental_uris":{"android":"levelo://app?vid=a6e39fb0-f2e5-41d8-b4aa-b3071fa9ec56","ios":"levelo://app?vid=a6e39fb0-f2e5-41d8-b4aa-b3071fa9ec56"},"vehicle_type_id":"4","last_reported":1784880382,"current_range_meters":20000,"station_id":"ce4bhmp2rcd13ifvqgog","pricing_plan_id":"cebpf4jnsgd1na2vs0mg"},{"bike_id":"82eb37f2-e99a-4ee2-956f-b1b7ae8e7a02","system_id":"levelo_inurba_marseille","lat":43.34141,"lon":5.40899,"is_reserved":false,"is_disabled":false,"rental_uris":{"android":"levelo://app?vid=82eb37f2-e99a-4ee2-956f-b1b7ae8e7a02","ios":"levelo://app?vid=82eb37f2-e99a-4ee2-956f-b1b7ae8e7a02"},"vehicle_type_id":"4","last_reported":1784880382,"current_range_meters":39200,"station_id":"ce4bhqh2rcd13ifvqhlg","pricing_plan_id":"cebpf4jnsgd1na2vs0mg"},{"bike_id":"a2c9fd6e-925c-4795-ba3f-b9c641931695","system_id":"levelo_inurba_marseille","lat":43.31453,"lon":5.37383,"is_reserved":false,"is_disabled":true,"rental_uris":{"android":"levelo://app?vid=a2c9fd6e-925c-4795-ba3f-b9c641931695","ios":"levelo://app?vid=a2c9fd6e-925c-4795-ba3f-b9c641931695"},"vehicle_type_id":"4","last_reported":1784880382,"current_range_meters":16800,"station_id":"","pricing_plan_id":"cebpf4jnsgd1na2vs0mg"},{"bike_id":"d15acef8-1bae-4a6d-a8d1-43e11b8ea147","system_id":"levelo_inurba_marseille","lat":43.29024,"lon":5.35695,"is_reserved":false,"is_disabled":true,"rental_uris":{"android":"levelo://app?vid=d15acef8-1bae-4a6d-a8d1-43e11b8ea147","ios":"levelo://app?vid=d15acef8-1bae-4a6d-a8d1-43e11b8ea147"},"vehicle_type_id":"4","last_reported":1784880382,"current_range_meters":28000,"station_id":"","pricing_plan_id":"cebpf4jnsgd1na2vs0mg"},{"bike_id":"52ca3962-268d-4ff7-b4f6-ba502b6ccf14","system_id":"levelo_inurba_marseille","lat":43.29577,"lon":5.37491,"is_reserved":false,"is_disabled":false,"rental_uris":{"android":"levelo://app?vid=52ca3962-268d-4ff7-b4f6-ba502b6ccf14","ios":"levelo://app?vid=52ca3962-268d-4ff7-b4f6-ba502b6ccf14"},"vehicle_type_id":"4","last_reported":1784880382,"current_range_meters":34800,"station_id":"ce4bgh92rcd13ifvqb50","pricing_plan_id":"cebpf4jnsgd1na2vs0mg"},{"bike_id":"7b7c350c-7fa0-4260-b6c2-812c00fe7727","system_id":"levelo_inurba_marseille","lat":43.32098,"lon":5.36801,"is_reserved":false,"is_disabled":false,"rental_uris":{"android":"levelo://app?vid=7b7c350c-7fa0-4260-b6c2-812c00fe7727","ios":"levelo://app?vid=7b7c350c-7fa0-4260-b6c2-812c00fe7727"},"vehicle_type_id":"4","last_reported":1784880382,"current_range_meters":22800,"station_id":"ce4bhrh2rcd13ifvqhug","pricing_plan_id":"cebpf4jnsgd1na2vs0mg"},{"bike_id":"002b6de9-4906-4900-bd53-a26437451aab","system_id":"levelo_inurba_marseille","lat":43.33266,"lon":5.35871,"is_reserved":false,"is_disabled":false,"rental_uris":{"android":"levelo://app?vid=002b6de9-4906-4900-bd53-a26437451aab","ios":"levelo://app?vid=002b6de9-4906-4900-bd53-a26437451aab"},"vehicle_type_id":"4","last_reported":1784880382,"current_range_meters":8400,"station_id":"","pricing_plan_id":"cebpf4jnsgd1na2vs0mg"},{"bike_id":"43202a20-9249-4370-ba54-924c48ca67c8","system_id":"levelo_inurba_marseille","lat":43.21748,"lon":5.34602,"is_reserved":false,"is_disabled":false,"rental_uris":{"android":"levelo://app?vid=43202a20-9249-4370-ba54-924c48ca67c8","ios":"levelo://app?vid=43202a20-9249-4370-ba54-924c48ca67c8"},"vehicle_type_id":"4","last_reported":1784880382,"current_range_meters":15200,"station_id":"st_cvj6r9ubvosntc0bgbag","pricing_plan_id":"cebpf4jnsgd1na2vs0mg"},{"bike_id":"edeea96f-e7a0-434f-aa8a-693c64e6516b","system_id":"levelo_inurba_marseille","lat":43.29443,"lon":5.39755,"is_reserved":false,"is_disabled":false,"rental_uris":{"android":"levelo://app?vid=edeea96f-e7a0-434f-aa8a-693c64e6516b","ios":"levelo://app?vid=edeea96f-e7a0-434f-aa8a-693c64e6516b"},"vehicle_type_id":"4","last_reported":1784880382,"current_range_meters":38800,"station_id":"ce4bh3h2rcd13ifvqdo0","pricing_plan_id":"cebpf4jnsgd1na2vs0mg"},{"bike_id":"ef59dbb7-3d39-4e5b-85d6-ca899a34e7dc","system_id":"levelo_inurba_marseille","lat":43.27074,"lon":5.42258,"is_reserved":false,"is_disabled":false,"rental_uris":{"android":"levelo://app?vid=ef59dbb7-3d39-4e5b-85d6-ca899a34e7dc","ios":"levelo://app?vid=ef59dbb7-3d39-4e5b-85d6-ca899a34e7dc"},"vehicle_type_id":"4","last_reported":1784880382,"current_range_meters":39200,"station_id":"ce4bhk92rcd13ifvqgb0","pricing_plan_id":"cebpf4jnsgd1na2vs0mg"},{"bike_id":"ffbc1fde-a934-48b1-89fb-948359611108","system_id":"levelo_inurba_marseille","lat":43.30891,"lon":5.37325,"is_reserved":false,"is_disabled":false,"rental_uris":{"android":"levelo://app?vid=ffbc1fde-a934-48b1-89fb-948359611108","ios":"levelo://app?vid=ffbc1fde-a934-48b1-89fb-948359611108"},"vehicle_type_id":"4","last_reported":1784880382,"current_range_meters":28400,"station_id":"","pricing_plan_id":"cebpf4jnsgd1na2vs0mg"},{"bike_id":"0706f79a-b938-4dbf-90f3-9182e12538c7","system_id":"levelo_inurba_marseille","lat":43.25099,"lon":5.39525,"is_reserved":false,"is_disabled":false,"rental_uris":{"android":"levelo://app?vid=0706f79a-b938-4dbf-90f3-9182e12538c7","ios":"levelo://app?vid=0706f79a-b938-4dbf-90f3-9182e12538c7"},"vehicle_type_id":"4","last_reported":1784880382,"current_range_meters":38400,"station_id":"ce4bhm12rcd13ifvqgkg","pricing_plan_id":"cebpf4jnsgd1na2vs0mg"},{"bike_id":"bd8b3369-74a8-4511-bee7-721b894466b2","system_id":"levelo_inurba_marseille","lat":43.23791,"lon":5.36635,"is_reserved":false,"is_disabled":false,"rental_uris":{"android":"levelo://app?vid=bd8b3369-74a8-4511-bee7-721b894466b2","ios":"levelo://app?vid=bd8b3369-74a8-4511-bee7-721b894466b2"},"vehicle_type_id":"4","last_reported":1784880382,"current_range_meters":38800,"station_id":"st_d3nk18o9ro0c73en2l3g","pricing_plan_id":"cebpf4jnsgd1na2vs0mg"},{"bike_id":"22e66e8b-f008-4d04-b17c-751d019a7a36","system_id":"levelo_inurba_marseille","lat":43.29821,"lon":5.44088,"is_reserved":false,"is_disabled":false,"rental_uris":{"android":"levelo://app?vid=22e66e8b-f008-4d04-b17c-751d019a7a36","ios":"levelo://app?vid=22e66e8b-f008-4d04-b17c-751d019a7a36"},"vehicle_type_id":"4","last_reported":1784880382,"current_range_meters":34800,"station_id":"st_d3jp68qikq2c7381ktn0","pricing_plan_id":"cebpf4jnsgd1na2vs0mg"},{"bike_id":"1981d3ef-d7ae-460e-a247-e2f1120f8322","system_id":"levelo_inurba_marseille","lat":43.24591,"lon":5.41946,"is_reserved":false,"is_disabled":false,"rental_uris":{"android":"levelo://app?vid=1981d3ef-d7ae-460e-a247-e2f1120f8322","ios":"levelo://app?vid=1981d3ef-d7ae-460e-a247-e2f1120f8322"},"vehicle_type_id":"4","last_reported":1784880382,"current_range_meters":11200,"station_id":"","pricing_plan_id":"cebpf4jnsgd1na2vs0mg"},{"bike_id":"8504615a-04ed-41f8-867c-00ecf3189a0e","system_id":"levelo_inurba_marseille","lat":43.24549,"lon":5.39523,"is_reserved":false,"is_disabled":false,"rental_uris":{"android":"levelo://app?vid=8504615a-04ed-41f8-867c-00ecf3189a0e","ios":"levelo://app?vid=8504615a-04ed-41f8-867c-00ecf3189a0e"},"vehicle_type_id":"4","last_reported":1784880382,"current_range_meters":22400,"station_id":"ce4bhlp2rcd13ifvqgjg","pricing_plan_id":"cebpf4jnsgd1na2vs0mg"},{"bike_id":"bbb6d84d-52b2-4523-b78b-60cb354411ef","system_id":"levelo_inurba_marseille","lat":43.3211,"lon":5.36787,"is_reserved":false,"is_disabled":false,"rental_uris":{"android":"levelo://app?vid=bbb6d84d-52b2-4523-b78b-60cb354411ef","ios":"levelo://app?vid=bbb6d84d-52b2-4523-b78b-60cb354411ef"},"vehicle_type_id":"4","last_reported":1784880382,"current_range_meters":30000,"station_id":"ce4bhrh2rcd13ifvqhug","pricing_plan_id":"cebpf4jnsgd1na2vs0mg"},{"bike_id":"210edc1e-0fee-4b0a-8359-52ad8890af32","system_id":"levelo_inurba_marseille","lat":43.29924,"lon":5.37475,"is_reserved":false,"is_disabled":false,"rental_uris":{"android":"levelo://app?vid=210edc1e-0fee-4b0a-8359-52ad8890af32","ios":"levelo://app?vid=210edc1e-0fee-4b0a-8359-52ad8890af32"},"vehicle_type_id":"4","last_reported":1784880382,"current_range_meters":6400,"station_id":"ce4bgjh2rcd13ifvqbg0","pricing_plan_id":"cebpf4jnsgd1na2vs0mg"},{"bike_id":"a9863fcb-8ca0-4220-b083-cb27e96475fe","system_id":"levelo_inurba_marseille","lat":43.23204,"lon":5.35552,"is_reserved":false,"is_disabled":false,"rental_uris":{"android":"levelo://app?vid=a9863fcb-8ca0-4220-b083-cb27e96475fe","ios":"levelo://app?vid=a9863fcb-8ca0-4220-b083-cb27e96475fe"},"vehicle_type_id":"4","last_reported":1784880382,"current_range_meters":38000,"station_id":"ce4bhu92rcd13ifvqi70","pricing_plan_id":"cebpf4jnsgd1na2vs0mg"},{"bike_id":"e938caca-351f-4cd8-af05-26b0849fd873","system_id":"levelo_inurba_marseille","lat":43.31371,"lon":5.36687,"is_reserved":false,"is_disabled":false,"rental_uris":{"android":"levelo://app?vid=e938caca-351f-4cd8-af05-26b0849fd873","ios":"levelo://app?vid=e938caca-351f-4cd8-af05-26b0849fd873"},"vehicle_type_id":"4","last_reported":1784880382,"current_range_meters":40000,"station_id":"ce4bgr92rcd13ifvqc6g","pricing_plan_id":"cebpf4jnsgd1na2vs0mg"},{"bike_id":"21772c16-9d39-474a-b007-1d278e7360a9","system_id":"levelo_inurba_marseille","lat":43.33768,"lon":5.3743,"is_reserved":false,"is_disabled":false,"rental_uris":{"android":"levelo://app?vid=21772c16-9d39-474a-b007-1d278e7360a9","ios":"levelo://app?vid=21772c16-9d39-474a-b007-1d278e7360a9"},"vehicle_type_id":"4","last_reported":1784880382,"current_range_meters":38400,"station_id":"","pricing_plan_id":"cebpf4jnsgd1na2vs0mg"},{"bike_id":"6beb94b0-4283-4f7d-810d-b229619bc024","system_id":"levelo_inurba_marseille","lat":43.229591,"lon":5.444884,"is_reserved":false,"is_disabled":false,"rental_uris":{"android":"levelo://app?vid=6beb94b0-4283-4f7d-810d-b229619bc024","ios":"levelo://app?vid=6beb94b0-4283-4f7d-810d-b229619bc024"},"vehicle_type_id":"4","last_reported":1784880382,"current_range_meters":17200,"station_id":"","pricing_plan_id":"cebpf4jnsgd1na2vs0mg"},{"bike_id":"d4272f7f-8443-4ab0-8ce3-9a84624c3d4e","system_id":"levelo_inurba_marseille","lat":43.29037,"lon":5.39999,"is_reserved":false,"is_disabled":false,"rental_uris":{"android":"levelo://app?vid=d4272f7f-8443-4ab0-8ce3-9a84624c3d4e","ios":"levelo://app?vid=d4272f7f-8443-4ab0-8ce3-9a84624c3d4e"},"vehicle_type_id":"4","last_reported":1784880382,"current_range_meters":39200,"station_id":"ce4bh392rcd13ifvqdm0","pricing_plan_id":"cebpf4jnsgd1na2vs0mg"},{"bike_id":"4e495527-911e-4854-a914-5a3f951fc565","system_id":"levelo_inurba_marseille","lat":43.32075,"lon":5.41529,"is_reserved":false,"is_disabled":false,"rental_uris":{"android":"levelo://app?vid=4e495527-911e-4854-a914-5a3f951fc565","ios":"levelo://app?vid=4e495527-911e-4854-a914-5a3f951fc565"},"vehicle_type_id":"4","last_reported":1784880382,"current_range_meters":36800,"station_id":"ce4bhq92rcd13ifvqhkg","pricing_plan_id":"cebpf4jnsgd1na2vs0mg"},{"bike_id":"25d63c03-240b-4596-9842-ae7363543101","system_id":"levelo_inurba_marseille","lat":43.33159,"lon":5.37692,"is_reserved":false,"is_disabled":false,"rental_uris":{"android":"levelo://app?vid=25d63c03-240b-4596-9842-ae7363543101","ios":"levelo://app?vid=25d63c03-240b-4596-9842-ae7363543101"},"vehicle_type_id":"4","last_reported":1784880382,"current_range_meters":35200,"station_id":"st_d46cu089ee8s73dldbu0","pricing_plan_id":"cebpf4jnsgd1na2vs0mg"},{"bike_id":"d5ce1f70-45dd-47d5-a2a4-e8a19c2ad395","system_id":"levelo_inurba_marseille","lat":43.23787,"lon":5.36634,"is_reserved":false,"is_disabled":false,"rental_uris":{"android":"levelo://app?vid=d5ce1f70-45dd-47d5-a2a4-e8a19c2ad395","ios":"levelo://app?vid=d5ce1f70-45dd-47d5-a2a4-e8a19c2ad395"},"vehicle_type_id":"4","last_reported":1784880382,"current_range_meters":39200,"station_id":"st_d3nk18o9ro0c73en2l3g","pricing_plan_id":"cebpf4jnsgd1na2vs0mg"},{"bike_id":"2227fe95-0a72-4ced-9f02-31d32846fb4e","system_id":"levelo_inurba_marseille","lat":43.25084,"lon":5.39544,"is_reserved":false,"is_disabled":false,"rental_uris":{"android":"levelo://app?vid=2227fe95-0a72-4ced-9f02-31d32846fb4e","ios":"levelo://app?vid=2227fe95-0a72-4ced-9f02-31d32846fb4e"},"vehicle_type_id":"4","last_reported":1784880382,"current_range_meters":38400,"station_id":"ce4bhm12rcd13ifvqgkg","pricing_plan_id":"cebpf4jnsgd1na2vs0mg"},{"bike_id":"f8d90c4e-4908-4f03-845e-3c10c53cb1f4","system_id":"levelo_inurba_marseille","lat":43.30043,"lon":5.4094,"is_reserved":false,"is_disabled":false,"rental_uris":{"android":"levelo://app?vid=f8d90c4e-4908-4f03-845e-3c10c53cb1f4","ios":"levelo://app?vid=f8d90c4e-4908-4f03-845e-3c10c53cb1f4"},"vehicle_type_id":"4","last_reported":1784880382,"current_range_meters":14800,"station_id":"","pricing_plan_id":"cebpf4jnsgd1na2vs0mg"},{"bike_id":"be033826-0277-47d3-8616-60204f4d4984","system_id":"levelo_inurba_marseille","lat":43.30243,"lon":5.40065,"is_reserved":false,"is_disabled":false,"rental_uris":{"android":"levelo://app?vid=be033826-0277-47d3-8616-60204f4d4984","ios":"levelo://app?vid=be033826-0277-47d3-8616-60204f4d4984"},"vehicle_type_id":"4","last_reported":1784880382,"current_range_meters":16000,"station_id":"ce4bgvh2rcd13ifvqcs0","pricing_plan_id":"cebpf4jnsgd1na2vs0mg"},{"bike_id":"7fb71d9a-b227-403d-ba2b-6f40613d3d47","system_id":"levelo_inurba_marseille","lat":43.31355,"lon":5.36748,"is_reserved":false,"is_disabled":false,"rental_uris":{"android":"levelo://app?vid=7fb71d9a-b227-403d-ba2b-6f40613d3d47","ios":"levelo://app?vid=7fb71d9a-b227-403d-ba2b-6f40613d3d47"},"vehicle_type_id":"4","last_reported":1784880382,"current_range_meters":38400,"station_id":"ce4bgr92rcd13ifvqc6g","pricing_plan_id":"cebpf4jnsgd1na2vs0mg"},{"bike_id":"27e1e4c5-a07c-4ba9-9e46-007cc925fb39","system_id":"levelo_inurba_marseille","lat":43.25416,"lon":5.41659,"is_reserved":false,"is_disabled":false,"rental_uris":{"android":"levelo://app?vid=27e1e4c5-a07c-4ba9-9e46-007cc925fb39","ios":"levelo://app?vid=27e1e4c5-a07c-4ba9-9e46-007cc925fb39"},"vehicle_type_id":"4","last_reported":1784880382,"current_range_meters":4000,"station_id":"","pricing_plan_id":"cebpf4jnsgd1na2vs0mg"},{"bike_id":"48edcd36-02e8-4499-9781-e08270a05de7","system_id":"levelo_inurba_marseille","lat":43.24425,"lon":5.36941,"is_reserved":false,"is_disabled":false,"rental_uris":{"android":"levelo://app?vid=48edcd36-02e8-4499-9781-e08270a05de7","ios":"levelo://app?vid=48edcd36-02e8-4499-9781-e08270a05de7"},"vehicle_type_id":"4","last_reported":1784880382,"current_range_meters":10000,"station_id":"","pricing_plan_id":"cebpf4jnsgd1na2vs0mg"},{"bike_id":"033eab5e-4885-4e3e-a926-9530624df4e6","system_id":"levelo_inurba_marseille","lat":43.28943,"lon":5.36406,"is_reserved":false,"is_disabled":false,"rental_uris":{"android":"levelo://app?vid=033eab5e-4885-4e3e-a926-9530624df4e6","ios":"levelo://app?vid=033eab5e-4885-4e3e-a926-9530624df4e6"},"vehicle_type_id":"4","last_reported":1784880382,"current_range_meters":7200,"station_id":"ce4bhc92rcd13ifvqetg","pricing_plan_id":"cebpf4jnsgd1na2vs0mg"},{"bike_id":"318129b4-c7a7-4d62-8daa-bf96cab18e20","system_id":"levelo_inurba_marseille","lat":43.28431,"lon":5.3497,"is_reserved":false,"is_disabled":true,"rental_uris":{"android":"levelo://app?vid=318129b4-c7a7-4d62-8daa-bf96cab18e20","ios":"levelo://app?vid=318129b4-c7a7-4d62-8daa-bf96cab18e20"},"vehicle_type_id":"4","last_reported":1784880382,"current_range_meters":17600,"station_id":"ce4bhbh2rcd13ifvqepg","pricing_plan_id":"cebpf4jnsgd1na2vs0mg"},{"bike_id":"23f8ea03-bc8d-497a-9c3a-55c6ca0c33e8","system_id":"levelo_inurba_marseille","lat":43.31523,"lon":5.38035,"is_reserved":false,"is_disabled":false,"rental_uris":{"android":"levelo://app?vid=23f8ea03-bc8d-497a-9c3a-55c6ca0c33e8","ios":"levelo://app?vid=23f8ea03-bc8d-497a-9c3a-55c6ca0c33e8"},"vehicle_type_id":"4","last_reported":1784880382,"current_range_meters":28000,"station_id":"ce4bhsp2rcd13ifvqi50","pricing_plan_id":"cebpf4jnsgd1na2vs0mg"},{"bike_id":"2f3c08d1-4cdc-4610-bf4b-5e5ab3853cf7","system_id":"levelo_inurba_marseille","lat":43.31483,"lon":5.39624,"is_reserved":false,"is_disabled":false,"rental_uris":{"android":"levelo://app?vid=2f3c08d1-4cdc-4610-bf4b-5e5ab3853cf7","ios":"levelo://app?vid=2f3c08d1-4cdc-4610-bf4b-5e5ab3853cf7"},"vehicle_type_id":"4","last_reported":1784880382,"current_range_meters":15200,"station_id":"","pricing_plan_id":"cebpf4jnsgd1na2vs0mg"},{"bike_id":"c66db674-e634-4125-a366-6c4a9ca11cf8","system_id":"levelo_inurba_marseille","lat":43.28202,"lon":5.3906,"is_reserved":false,"is_disabled":false,"rental_uris":{"android":"levelo://app?vid=c66db674-e634-4125-a366-6c4a9ca11cf8","ios":"levelo://app?vid=c66db674-e634-4125-a366-6c4a9ca11cf8"},"vehicle_type_id":"4","last_reported":1784880382,"current_range_meters":28000,"station_id":"ce4bhn92rcd13ifvqgsg","pricing_plan_id":"cebpf4jnsgd1na2vs0mg"},{"bike_id":"35bc3b6e-9a3b-4733-bd1e-b09f6a1f0aab","system_id":"levelo_inurba_marseille","lat":43.33759,"lon":5.37437,"is_reserved":false,"is_disabled":false,"rental_uris":{"android":"levelo://app?vid=35bc3b6e-9a3b-4733-bd1e-b09f6a1f0aab","ios":"levelo://app?vid=35bc3b6e-9a3b-4733-bd1e-b09f6a1f0aab"},"vehicle_type_id":"4","last_reported":1784880382,"current_range_meters":38800,"station_id":"","pricing_plan_id":"cebpf4jnsgd1na2vs0mg"},{"bike_id":"00f0c484-597d-4ed4-91e8-bee8c228882b","system_id":"levelo_inurba_marseille","lat":43.25094,"lon":5.3954,"is_reserved":false,"is_disabled":false,"rental_uris":{"android":"levelo://app?vid=00f0c484-597d-4ed4-91e8-bee8c228882b","ios":"levelo://app?vid=00f0c484-597d-4ed4-91e8-bee8c228882b"},"vehicle_type_id":"4","last_reported":1784880382,"current_range_meters":38000,"station_id":"ce4bhm12rcd13ifvqgkg","pricing_plan_id":"cebpf4jnsgd1na2vs0mg"},{"bike_id":"afa333af-a23b-4cbc-b561-9fcb559fc889","system_id":"levelo_inurba_marseille","lat":43.30143,"lon":5.3742,"is_reserved":false,"is_disabled":false,"rental_uris":{"android":"levelo://app?vid=afa333af-a23b-4cbc-b561-9fcb559fc889","ios":"levelo://app?vid=afa333af-a23b-4cbc-b561-9fcb559fc889"},"vehicle_type_id":"4","last_reported":1784880382,"current_range_meters":27200,"station_id":"ce4bgs92rcd13ifvqcc0","pricing_plan_id":"cebpf4jnsgd1na2vs0mg"},{"bike_id":"06ec2202-b987-490f-bfbc-aa2e2c0d1818","system_id":"levelo_inurba_marseille","lat":43.26667,"lon":5.37542,"is_reserved":false,"is_disabled":false,"rental_uris":{"android":"levelo://app?vid=06ec2202-b987-490f-bfbc-aa2e2c0d1818","ios":"levelo://app?vid=06ec2202-b987-490f-bfbc-aa2e2c0d1818"},"vehicle_type_id":"4","last_reported":1784880382,"current_range_meters":19600,"station_id":"","pricing_plan_id":"cebpf4jnsgd1na2vs0mg"},{"bike_id":"d1b66825-c158-457e-a6ca-20015eb28f13","system_id":"levelo_inurba_marseille","lat":43.33765,"lon":5.37492,"is_reserved":false,"is_disabled":false,"rental_uris":{"android":"levelo://app?vid=d1b66825-c158-457e-a6ca-20015eb28f13","ios":"levelo://app?vid=d1b66825-c158-457e-a6ca-20015eb28f13"},