{"last_updated":1698991771,"ttl":30,"version":"2.2","data":{"bikes":[{"bike_id":"7b698c90-d328-4882-81f7-8511d21f7c95","system_id":"levelo_inurba_marseille","lat":43.313391,"lon":5.36706,"is_reserved":false,"is_disabled":false,"rental_uris":{"android":"levelo://app?vid=7b698c90-d328-4882-81f7-8511d21f7c95","ios":"levelo://app?vid=7b698c90-d328-4882-81f7-8511d21f7c95"},"vehicle_type_id":"4","last_reported":1698991771,"current_range_meters":26400,"station_id":"ce4bgr92rcd13ifvqc6g","pricing_plan_id":"free"},{"bike_id":"6884ef05-a182-4d49-9441-2dd769be852c","system_id":"levelo_inurba_marseille","lat":43.313391,"lon":5.36706,"is_reserved":false,"is_disabled":false,"rental_uris":{"android":"levelo://app?vid=6884ef05-a182-4d49-9441-2dd769be852c","ios":"levelo://app?vid=6884ef05-a182-4d49-9441-2dd769be852c"},"vehicle_type_id":"4","last_reported":1698991771,"current_range_meters":30000,"station_id":"ce4bgr92rcd13ifvqc6g","pricing_plan_id":"free"},{"bike_id":"c9afdd78-c376-4bae-a661-6e986e125886","system_id":"levelo_inurba_marseille","lat":43.312192,"lon":5.368483,"is_reserved":false,"is_disabled":false,"rental_uris":{"android":"levelo://app?vid=c9afdd78-c376-4bae-a661-6e986e125886","ios":"levelo://app?vid=c9afdd78-c376-4bae-a661-6e986e125886"},"vehicle_type_id":"4","last_reported":1698991771,"current_range_meters":31200,"station_id":"ce4bgl92rcd13ifvqbq0","pricing_plan_id":"free"},{"bike_id":"dd118c42-5025-429f-ae40-6feb4b8f1b4a","system_id":"levelo_inurba_marseille","lat":43.314811,"lon":5.373103,"is_reserved":false,"is_disabled":false,"rental_uris":{"android":"levelo://app?vid=dd118c42-5025-429f-ae40-6feb4b8f1b4a","ios":"levelo://app?vid=dd118c42-5025-429f-ae40-6feb4b8f1b4a"},"vehicle_type_id":"4","last_reported":1698991771,"current_range_meters":22800,"station_id":"ce4bgt12rcd13ifvqcd0","pricing_plan_id":"free"},{"bike_id":"7f6d1821-d960-4aa5-81c2-8064a10d310c","system_id":"levelo_inurba_marseille","lat":43.31885,"lon":5.370823,"is_reserved":false,"is_disabled":false,"rental_uris":{"android":"levelo://app?vid=7f6d1821-d960-4aa5-81c2-8064a10d310c","ios":"levelo://app?vid=7f6d1821-d960-4aa5-81c2-8064a10d310c"},"vehicle_type_id":"4","last_reported":1698991771,"current_range_meters":14400,"station_id":"","pricing_plan_id":"free"},{"bike_id":"f252b071-dddd-4e5f-ad07-506846af6d1a","system_id":"levelo_inurba_marseille","lat":43.30551,"lon":5.3653,"is_reserved":false,"is_disabled":false,"rental_uris":{"android":"levelo://app?vid=f252b071-dddd-4e5f-ad07-506846af6d1a","ios":"levelo://app?vid=f252b071-dddd-4e5f-ad07-506846af6d1a"},"vehicle_type_id":"4","last_reported":1698991771,"current_range_meters":11200,"station_id":"ce4bgs12rcd13ifvqcag","pricing_plan_id":"free"},{"bike_id":"ae820969-0a5a-492c-81a4-72f6b59dafc5","system_id":"levelo_inurba_marseille","lat":43.30538,"lon":5.36556,"is_reserved":false,"is_disabled":false,"rental_uris":{"android":"levelo://app?vid=ae820969-0a5a-492c-81a4-72f6b59dafc5","ios":"levelo://app?vid=ae820969-0a5a-492c-81a4-72f6b59dafc5"},"vehicle_type_id":"4","last_reported":1698991771,"current_range_meters":26800,"station_id":"ce4bgs12rcd13ifvqcag","pricing_plan_id":"free"},{"bike_id":"6b157df2-9045-45e2-a3be-68a94382e69c","system_id":"levelo_inurba_marseille","lat":43.311125,"lon":5.377624,"is_reserved":false,"is_disabled":false,"rental_uris":{"android":"levelo://app?vid=6b157df2-9045-45e2-a3be-68a94382e69c","ios":"levelo://app?vid=6b157df2-9045-45e2-a3be-68a94382e69c"},"vehicle_type_id":"4","last_reported":1698991771,"current_range_meters":28800,"station_id":"ce4bgt92rcd13ifvqcg0","pricing_plan_id":"free"},{"bike_id":"ce15ffe5-58f2-416c-a9bf-c1a82ed09825","system_id":"levelo_inurba_marseille","lat":43.311203,"lon":5.377739,"is_reserved":false,"is_disabled":false,"rental_uris":{"android":"levelo://app?vid=ce15ffe5-58f2-416c-a9bf-c1a82ed09825","ios":"levelo://app?vid=ce15ffe5-58f2-416c-a9bf-c1a82ed09825"},"vehicle_type_id":"4","last_reported":1698991771,"current_range_meters":12800,"station_id":"ce4bgt92rcd13ifvqcg0","pricing_plan_id":"free"},{"bike_id":"0b1b2908-1b82-49c7-bb81-c08de41e9bc0","system_id":"levelo_inurba_marseille","lat":43.311215,"lon":5.377759,"is_reserved":false,"is_disabled":false,"rental_uris":{"android":"levelo://app?vid=0b1b2908-1b82-49c7-bb81-c08de41e9bc0","ios":"levelo://app?vid=0b1b2908-1b82-49c7-bb81-c08de41e9bc0"},"vehicle_type_id":"4","last_reported":1698991771,"current_range_meters":8800,"station_id":"ce4bgt92rcd13ifvqcg0","pricing_plan_id":"free"},{"bike_id":"c448da74-7fc9-4bb8-b8bf-e004aee3b6aa","system_id":"levelo_inurba_marseille","lat":43.311125,"lon":5.377624,"is_reserved":false,"is_disabled":false,"rental_uris":{"android":"levelo://app?vid=c448da74-7fc9-4bb8-b8bf-e004aee3b6aa","ios":"levelo://app?vid=c448da74-7fc9-4bb8-b8bf-e004aee3b6aa"},"vehicle_type_id":"4","last_reported":1698991771,"current_range_meters":27600,"station_id":"ce4bgt92rcd13ifvqcg0","pricing_plan_id":"free"},{"bike_id":"c58103a2-aa4b-45f6-bf3e-b781ee7fc4ef","system_id":"levelo_inurba_marseille","lat":43.30792,"lon":5.37643,"is_reserved":false,"is_disabled":false,"rental_uris":{"android":"levelo://app?vid=c58103a2-aa4b-45f6-bf3e-b781ee7fc4ef","ios":"levelo://app?vid=c58103a2-aa4b-45f6-bf3e-b781ee7fc4ef"},"vehicle_type_id":"4","last_reported":1698991771,"current_range_meters":21600,"station_id":"ce4bgv92rcd13ifvqcq0","pricing_plan_id":"free"},{"bike_id":"1f9ae95e-b0f9-4296-a27e-52faeca5c693","system_id":"levelo_inurba_marseille","lat":43.30789,"lon":5.37645,"is_reserved":false,"is_disabled":false,"rental_uris":{"android":"levelo://app?vid=1f9ae95e-b0f9-4296-a27e-52faeca5c693","ios":"levelo://app?vid=1f9ae95e-b0f9-4296-a27e-52faeca5c693"},"vehicle_type_id":"4","last_reported":1698991771,"current_range_meters":13200,"station_id":"ce4bgv92rcd13ifvqcq0","pricing_plan_id":"free"},{"bike_id":"c64bdf7f-edcf-4f85-a33e-af33119be905","system_id":"levelo_inurba_marseille","lat":43.3079,"lon":5.37651,"is_reserved":false,"is_disabled":false,"rental_uris":{"android":"levelo://app?vid=c64bdf7f-edcf-4f85-a33e-af33119be905","ios":"levelo://app?vid=c64bdf7f-edcf-4f85-a33e-af33119be905"},"vehicle_type_id":"4","last_reported":1698991771,"current_range_meters":4800,"station_id":"ce4bgv92rcd13ifvqcq0","pricing_plan_id":"free"},{"bike_id":"86a4b0c7-08d5-4963-a39c-9bcb8e1b727b","system_id":"levelo_inurba_marseille","lat":43.30786,"lon":5.37653,"is_reserved":false,"is_disabled":false,"rental_uris":{"android":"levelo://app?vid=86a4b0c7-08d5-4963-a39c-9bcb8e1b727b","ios":"levelo://app?vid=86a4b0c7-08d5-4963-a39c-9bcb8e1b727b"},"vehicle_type_id":"4","last_reported":1698991771,"current_range_meters":30400,"station_id":"ce4bgv92rcd13ifvqcq0","pricing_plan_id":"free"},{"bike_id":"25b6e46a-8ec4-4aa9-b8ad-fb87bae9b196","system_id":"levelo_inurba_marseille","lat":43.317075,"lon":5.377367,"is_reserved":false,"is_disabled":false,"rental_uris":{"android":"levelo://app?vid=25b6e46a-8ec4-4aa9-b8ad-fb87bae9b196","ios":"levelo://app?vid=25b6e46a-8ec4-4aa9-b8ad-fb87bae9b196"},"vehicle_type_id":"4","last_reported":1698991771,"current_range_meters":5600,"station_id":"ce4bgth2rcd13ifvqch0","pricing_plan_id":"free"},{"bike_id":"6bd5b362-20bc-4390-9f8d-a9e508408010","system_id":"levelo_inurba_marseille","lat":43.317075,"lon":5.377367,"is_reserved":false,"is_disabled":false,"rental_uris":{"android":"levelo://app?vid=6bd5b362-20bc-4390-9f8d-a9e508408010","ios":"levelo://app?vid=6bd5b362-20bc-4390-9f8d-a9e508408010"},"vehicle_type_id":"4","last_reported":1698991771,"current_range_meters":24800,"station_id":"ce4bgth2rcd13ifvqch0","pricing_plan_id":"free"},{"bike_id":"cf44a4cd-e48b-4caa-9c33-578dcf8dc3bf","system_id":"levelo_inurba_marseille","lat":43.317075,"lon":5.377367,"is_reserved":false,"is_disabled":false,"rental_uris":{"android":"levelo://app?vid=cf44a4cd-e48b-4caa-9c33-578dcf8dc3bf","ios":"levelo://app?vid=cf44a4cd-e48b-4caa-9c33-578dcf8dc3bf"},"vehicle_type_id":"4","last_reported":1698991771,"current_range_meters":31200,"station_id":"ce4bgth2rcd13ifvqch0","pricing_plan_id":"free"},{"bike_id":"6b7dfee3-5ad2-494a-b298-7a3e4dd06bc0","system_id":"levelo_inurba_marseille","lat":43.30304,"lon":5.368987,"is_reserved":false,"is_disabled":false,"rental_uris":{"android":"levelo://app?vid=6b7dfee3-5ad2-494a-b298-7a3e4dd06bc0","ios":"levelo://app?vid=6b7dfee3-5ad2-494a-b298-7a3e4dd06bc0"},"vehicle_type_id":"4","last_reported":1698991771,"current_range_meters":30800,"station_id":"ce4bgqh2rcd13ifvqc5g","pricing_plan_id":"free"},{"bike_id":"c9ebbfc0-4b0e-46d2-a016-64edd2d5b82c","system_id":"levelo_inurba_marseille","lat":43.30085,"lon":5.390856,"is_reserved":false,"is_disabled":false,"rental_uris":{"android":"levelo://app?vid=c9ebbfc0-4b0e-46d2-a016-64edd2d5b82c","ios":"levelo://app?vid=c9ebbfc0-4b0e-46d2-a016-64edd2d5b82c"},"vehicle_type_id":"4","last_reported":1698991771,"current_range_meters":0,"station_id":"ce4bh192rcd13ifvqdb0","pricing_plan_id":"free"},{"bike_id":"63ab902c-ea5d-4617-8105-d1a0d566933c","system_id":"levelo_inurba_marseille","lat":43.303046,"lon":5.368981,"is_reserved":false,"is_disabled":false,"rental_uris":{"android":"levelo://app?vid=63ab902c-ea5d-4617-8105-d1a0d566933c","ios":"levelo://app?vid=63ab902c-ea5d-4617-8105-d1a0d566933c"},"vehicle_type_id":"4","last_reported":1698991771,"current_range_meters":25600,"station_id":"ce4bgqh2rcd13ifvqc5g","pricing_plan_id":"free"},{"bike_id":"b04480bf-0b44-4846-b5b8-2c0ca75f0b0e","system_id":"levelo_inurba_marseille","lat":43.315351,"lon":5.380378,"is_reserved":false,"is_disabled":false,"rental_uris":{"android":"levelo://app?vid=b04480bf-0b44-4846-b5b8-2c0ca75f0b0e","ios":"levelo://app?vid=b04480bf-0b44-4846-b5b8-2c0ca75f0b0e"},"vehicle_type_id":"4","last_reported":1698991771,"current_range_meters":17200,"station_id":"ce4bhsp2rcd13ifvqi50","pricing_plan_id":"free"},{"bike_id":"7e69553b-c97e-42b9-be15-99c5249605a8","system_id":"levelo_inurba_marseille","lat":43.31539,"lon":5.38037,"is_reserved":false,"is_disabled":false,"rental_uris":{"android":"levelo://app?vid=7e69553b-c97e-42b9-be15-99c5249605a8","ios":"levelo://app?vid=7e69553b-c97e-42b9-be15-99c5249605a8"},"vehicle_type_id":"4","last_reported":1698991771,"current_range_meters":12400,"station_id":"ce4bhsp2rcd13ifvqi50","pricing_plan_id":"free"},{"bike_id":"579ca599-4082-41ac-bfbe-754e766a1bb4","system_id":"levelo_inurba_marseille","lat":43.315372,"lon":5.380402,"is_reserved":false,"is_disabled":false,"rental_uris":{"android":"levelo://app?vid=579ca599-4082-41ac-bfbe-754e766a1bb4","ios":"levelo://app?vid=579ca599-4082-41ac-bfbe-754e766a1bb4"},"vehicle_type_id":"4","last_reported":1698991771,"current_range_meters":29600,"station_id":"ce4bhsp2rcd13ifvqi50","pricing_plan_id":"free"},{"bike_id":"b8662565-44c8-4f29-9a2b-5cb2450ba0ea","system_id":"levelo_inurba_marseille","lat":43.304606,"lon":5.379026,"is_reserved":false,"is_disabled":false,"rental_uris":{"android":"levelo://app?vid=b8662565-44c8-4f29-9a2b-5cb2450ba0ea","ios":"levelo://app?vid=b8662565-44c8-4f29-9a2b-5cb2450ba0ea"},"vehicle_type_id":"4","last_reported":1698991771,"current_range_meters":4400,"station_id":"ce4bgup2rcd13ifvqcn0","pricing_plan_id":"free"},{"bike_id":"e57fb544-9c3e-433a-8472-d766673de593","system_id":"levelo_inurba_marseille","lat":43.304606,"lon":5.379026,"is_reserved":false,"is_disabled":false,"rental_uris":{"android":"levelo://app?vid=e57fb544-9c3e-433a-8472-d766673de593","ios":"levelo://app?vid=e57fb544-9c3e-433a-8472-d766673de593"},"vehicle_type_id":"4","last_reported":1698991771,"current_range_meters":28000,"station_id":"ce4bgup2rcd13ifvqcn0","pricing_plan_id":"free"},{"bike_id":"aa6582a7-65bf-474c-b406-c2651e0ed9b9","system_id":"levelo_inurba_marseille","lat":43.304606,"lon":5.379026,"is_reserved":false,"is_disabled":false,"rental_uris":{"android":"levelo://app?vid=aa6582a7-65bf-474c-b406-c2651e0ed9b9","ios":"levelo://app?vid=aa6582a7-65bf-474c-b406-c2651e0ed9b9"},"vehicle_type_id":"4","last_reported":1698991771,"current_range_meters":31600,"station_id":"ce4bgup2rcd13ifvqcn0","pricing_plan_id":"free"},{"bike_id":"c47e9778-4e0b-45df-910b-3ce37391bc33","system_id":"levelo_inurba_marseille","lat":43.304606,"lon":5.379026,"is_reserved":false,"is_disabled":false,"rental_uris":{"android":"levelo://app?vid=c47e9778-4e0b-45df-910b-3ce37391bc33","ios":"levelo://app?vid=c47e9778-4e0b-45df-910b-3ce37391bc33"},"vehicle_type_id":"4","last_reported":1698991771,"current_range_meters":25600,"station_id":"ce4bgup2rcd13ifvqcn0","pricing_plan_id":"free"},{"bike_id":"5a184f65-2a62-44aa-b56e-7c2f8b4dd636","system_id":"levelo_inurba_marseille","lat":43.304606,"lon":5.379026,"is_reserved":false,"is_disabled":false,"rental_uris":{"android":"levelo://app?vid=5a184f65-2a62-44aa-b56e-7c2f8b4dd636","ios":"levelo://app?vid=5a184f65-2a62-44aa-b56e-7c2f8b4dd636"},"vehicle_type_id":"4","last_reported":1698991771,"current_range_meters":30000,"station_id":"ce4bgup2rcd13ifvqcn0","pricing_plan_id":"free"},{"bike_id":"eacd710e-b5cc-440c-904f-7c8f84020d68","system_id":"levelo_inurba_marseille","lat":43.304606,"lon":5.379026,"is_reserved":false,"is_disabled":false,"rental_uris":{"android":"levelo://app?vid=eacd710e-b5cc-440c-904f-7c8f84020d68","ios":"levelo://app?vid=eacd710e-b5cc-440c-904f-7c8f84020d68"},"vehicle_type_id":"4","last_reported":1698991771,"current_range_meters":20400,"station_id":"ce4bgup2rcd13ifvqcn0","pricing_plan_id":"free"},{"bike_id":"ed177ce2-f2b6-41ad-af05-ff6ea11ce5ba","system_id":"levelo_inurba_marseille","lat":43.304606,"lon":5.379026,"is_reserved":false,"is_disabled":false,"rental_uris":{"android":"levelo://app?vid=ed177ce2-f2b6-41ad-af05-ff6ea11ce5ba","ios":"levelo://app?vid=ed177ce2-f2b6-41ad-af05-ff6ea11ce5ba"},"vehicle_type_id":"4","last_reported":1698991771,"current_range_meters":30800,"station_id":"ce4bgup2rcd13ifvqcn0","pricing_plan_id":"free"},{"bike_id":"bcbfdb34-1e1e-4526-a64a-dcdca930a6f5","system_id":"levelo_inurba_marseille","lat":43.304606,"lon":5.379026,"is_reserved":false,"is_disabled":false,"rental_uris":{"android":"levelo://app?vid=bcbfdb34-1e1e-4526-a64a-dcdca930a6f5","ios":"levelo://app?vid=bcbfdb34-1e1e-4526-a64a-dcdca930a6f5"},"vehicle_type_id":"4","last_reported":1698991771,"current_range_meters":16800,"station_id":"ce4bgup2rcd13ifvqcn0","pricing_plan_id":"free"},{"bike_id":"2897b35a-543e-4bef-8a49-b2b1eb04a19e","system_id":"levelo_inurba_marseille","lat":43.304606,"lon":5.379026,"is_reserved":false,"is_disabled":false,"rental_uris":{"android":"levelo://app?vid=2897b35a-543e-4bef-8a49-b2b1eb04a19e","ios":"levelo://app?vid=2897b35a-543e-4bef-8a49-b2b1eb04a19e"},"vehicle_type_id":"4","last_reported":1698991771,"current_range_meters":29600,"station_id":"ce4bgup2rcd13ifvqcn0","pricing_plan_id":"free"},{"bike_id":"1df29803-5ac1-4946-9ee3-8304c874ebd1","system_id":"levelo_inurba_marseille","lat":43.304606,"lon":5.379026,"is_reserved":false,"is_disabled":false,"rental_uris":{"android":"levelo://app?vid=1df29803-5ac1-4946-9ee3-8304c874ebd1","ios":"levelo://app?vid=1df29803-5ac1-4946-9ee3-8304c874ebd1"},"vehicle_type_id":"4","last_reported":1698991771,"current_range_meters":31600,"station_id":"ce4bgup2rcd13ifvqcn0","pricing_plan_id":"free"},{"bike_id":"3ef14f8b-0ce2-42c3-89dc-3fd8cdc2bd72","system_id":"levelo_inurba_marseille","lat":43.304606,"lon":5.379026,"is_reserved":false,"is_disabled":false,"rental_uris":{"android":"levelo://app?vid=3ef14f8b-0ce2-42c3-89dc-3fd8cdc2bd72","ios":"levelo://app?vid=3ef14f8b-0ce2-42c3-89dc-3fd8cdc2bd72"},"vehicle_type_id":"4","last_reported":1698991771,"current_range_meters":0,"station_id":"ce4bgup2rcd13ifvqcn0","pricing_plan_id":"free"},{"bike_id":"a64eb0d0-016f-4d50-9fae-66472a68fcf5","system_id":"levelo_inurba_marseille","lat":43.304606,"lon":5.379026,"is_reserved":false,"is_disabled":false,"rental_uris":{"android":"levelo://app?vid=a64eb0d0-016f-4d50-9fae-66472a68fcf5","ios":"levelo://app?vid=a64eb0d0-016f-4d50-9fae-66472a68fcf5"},"vehicle_type_id":"4","last_reported":1698991771,"current_range_meters":29600,"station_id":"ce4bgup2rcd13ifvqcn0","pricing_plan_id":"free"},{"bike_id":"efe12d68-294f-4ede-9acd-e1521d165296","system_id":"levelo_inurba_marseille","lat":43.304606,"lon":5.379026,"is_reserved":false,"is_disabled":false,"rental_uris":{"android":"levelo://app?vid=efe12d68-294f-4ede-9acd-e1521d165296","ios":"levelo://app?vid=efe12d68-294f-4ede-9acd-e1521d165296"},"vehicle_type_id":"4","last_reported":1698991771,"current_range_meters":23600,"station_id":"ce4bgup2rcd13ifvqcn0","pricing_plan_id":"free"},{"bike_id":"b650293a-166b-4d76-9b1e-3aa8e940bcbf","system_id":"levelo_inurba_marseille","lat":43.304606,"lon":5.379026,"is_reserved":false,"is_disabled":false,"rental_uris":{"android":"levelo://app?vid=b650293a-166b-4d76-9b1e-3aa8e940bcbf","ios":"levelo://app?vid=b650293a-166b-4d76-9b1e-3aa8e940bcbf"},"vehicle_type_id":"4","last_reported":1698991771,"current_range_meters":18800,"station_id":"ce4bgup2rcd13ifvqcn0","pricing_plan_id":"free"},{"bike_id":"e75a4721-20ff-4617-a5b4-d07852284602","system_id":"levelo_inurba_marseille","lat":43.304606,"lon":5.379026,"is_reserved":false,"is_disabled":false,"rental_uris":{"android":"levelo://app?vid=e75a4721-20ff-4617-a5b4-d07852284602","ios":"levelo://app?vid=e75a4721-20ff-4617-a5b4-d07852284602"},"vehicle_type_id":"4","last_reported":1698991771,"current_range_meters":21200,"station_id":"ce4bgup2rcd13ifvqcn0","pricing_plan_id":"free"},{"bike_id":"d37cc8ee-6516-43f8-95b6-96a199ee7849","system_id":"levelo_inurba_marseille","lat":43.304606,"lon":5.379026,"is_reserved":false,"is_disabled":false,"rental_uris":{"android":"levelo://app?vid=d37cc8ee-6516-43f8-95b6-96a199ee7849","ios":"levelo://app?vid=d37cc8ee-6516-43f8-95b6-96a199ee7849"},"vehicle_type_id":"4","last_reported":1698991771,"current_range_meters":25200,"station_id":"ce4bgup2rcd13ifvqcn0","pricing_plan_id":"free"},{"bike_id":"31e01a53-ee0c-4d8b-a22e-4772309e10a7","system_id":"levelo_inurba_marseille","lat":43.304606,"lon":5.379026,"is_reserved":false,"is_disabled":false,"rental_uris":{"android":"levelo://app?vid=31e01a53-ee0c-4d8b-a22e-4772309e10a7","ios":"levelo://app?vid=31e01a53-ee0c-4d8b-a22e-4772309e10a7"},"vehicle_type_id":"4","last_reported":1698991771,"current_range_meters":16800,"station_id":"ce4bgup2rcd13ifvqcn0","pricing_plan_id":"free"},{"bike_id":"ac3b3cb9-cec5-4c32-8d21-21aad886dccb","system_id":"levelo_inurba_marseille","lat":43.304606,"lon":5.379026,"is_reserved":false,"is_disabled":false,"rental_uris":{"android":"levelo://app?vid=ac3b3cb9-cec5-4c32-8d21-21aad886dccb","ios":"levelo://app?vid=ac3b3cb9-cec5-4c32-8d21-21aad886dccb"},"vehicle_type_id":"4","last_reported":1698991771,"current_range_meters":26800,"station_id":"ce4bgup2rcd13ifvqcn0","pricing_plan_id":"free"},{"bike_id":"01e3d180-56a6-4de4-ad25-00563633dd41","system_id":"levelo_inurba_marseille","lat":43.304606,"lon":5.379026,"is_reserved":false,"is_disabled":false,"rental_uris":{"android":"levelo://app?vid=01e3d180-56a6-4de4-ad25-00563633dd41","ios":"levelo://app?vid=01e3d180-56a6-4de4-ad25-00563633dd41"},"vehicle_type_id":"4","last_reported":1698991771,"current_range_meters":31200,"station_id":"ce4bgup2rcd13ifvqcn0","pricing_plan_id":"free"},{"bike_id":"15132f04-f12b-438b-9fc4-6d4c0d450e94","system_id":"levelo_inurba_marseille","lat":43.304606,"lon":5.379026,"is_reserved":false,"is_disabled":false,"rental_uris":{"android":"levelo://app?vid=15132f04-f12b-438b-9fc4-6d4c0d450e94","ios":"levelo://app?vid=15132f04-f12b-438b-9fc4-6d4c0d450e94"},"vehicle_type_id":"4","last_reported":1698991771,"current_range_meters":24400,"station_id":"ce4bgup2rcd13ifvqcn0","pricing_plan_id":"free"},{"bike_id":"87053699-e071-440a-a738-0699bdb97cb5","system_id":"levelo_inurba_marseille","lat":43.304606,"lon":5.379026,"is_reserved":false,"is_disabled":false,"rental_uris":{"android":"levelo://app?vid=87053699-e071-440a-a738-0699bdb97cb5","ios":"levelo://app?vid=87053699-e071-440a-a738-0699bdb97cb5"},"vehicle_type_id":"4","last_reported":1698991771,"current_range_meters":10400,"station_id":"ce4bgup2rcd13ifvqcn0","pricing_plan_id":"free"},{"bike_id":"1c0a3739-313a-4984-9c73-9e49fb06a13e","system_id":"levelo_inurba_marseille","lat":43.304606,"lon":5.379026,"is_reserved":false,"is_disabled":false,"rental_uris":{"android":"levelo://app?vid=1c0a3739-313a-4984-9c73-9e49fb06a13e","ios":"levelo://app?vid=1c0a3739-313a-4984-9c73-9e49fb06a13e"},"vehicle_type_id":"4","last_reported":1698991771,"current_range_meters":31600,"station_id":"ce4bgup2rcd13ifvqcn0","pricing_plan_id":"free"},{"bike_id":"5e72e8f0-59dd-47f7-8d78-8906a4f057de","system_id":"levelo_inurba_marseille","lat":43.304606,"lon":5.379026,"is_reserved":false,"is_disabled":false,"rental_uris":{"android":"levelo://app?vid=5e72e8f0-59dd-47f7-8d78-8906a4f057de","ios":"levelo://app?vid=5e72e8f0-59dd-47f7-8d78-8906a4f057de"},"vehicle_type_id":"4","last_reported":1698991771,"current_range_meters":31600,"station_id":"ce4bgup2rcd13ifvqcn0","pricing_plan_id":"free"},{"bike_id":"41e60243-b26c-4426-ad2e-5c9f7e26f746","system_id":"levelo_inurba_marseille","lat":43.304606,"lon":5.379026,"is_reserved":false,"is_disabled":false,"rental_uris":{"android":"levelo://app?vid=41e60243-b26c-4426-ad2e-5c9f7e26f746","ios":"levelo://app?vid=41e60243-b26c-4426-ad2e-5c9f7e26f746"},"vehicle_type_id":"4","last_reported":1698991771,"current_range_meters":21600,"station_id":"ce4bgup2rcd13ifvqcn0","pricing_plan_id":"free"},{"bike_id":"79b28d6e-2fa1-40cd-9296-9585badb877e","system_id":"levelo_inurba_marseille","lat":43.304606,"lon":5.379026,"is_reserved":false,"is_disabled":false,"rental_uris":{"android":"levelo://app?vid=79b28d6e-2fa1-40cd-9296-9585badb877e","ios":"levelo://app?vid=79b28d6e-2fa1-40cd-9296-9585badb877e"},"vehicle_type_id":"4","last_reported":1698991771,"current_range_meters":26800,"station_id":"ce4bgup2rcd13ifvqcn0","pricing_plan_id":"free"},{"bike_id":"c81ffb42-0e7c-4fee-ae28-8617fe98c8b7","system_id":"levelo_inurba_marseille","lat":43.304606,"lon":5.379026,"is_reserved":false,"is_disabled":false,"rental_uris":{"android":"levelo://app?vid=c81ffb42-0e7c-4fee-ae28-8617fe98c8b7","ios":"levelo://app?vid=c81ffb42-0e7c-4fee-ae28-8617fe98c8b7"},"vehicle_type_id":"4","last_reported":1698991771,"current_range_meters":31600,"station_id":"ce4bgup2rcd13ifvqcn0","pricing_plan_id":"free"},{"bike_id":"77a47d14-c357-4c48-8907-047e203fcef4","system_id":"levelo_inurba_marseille","lat":43.324818,"lon":5.365573,"is_reserved":false,"is_disabled":false,"rental_uris":{"android":"levelo://app?vid=77a47d14-c357-4c48-8907-047e203fcef4","ios":"levelo://app?vid=77a47d14-c357-4c48-8907-047e203fcef4"},"vehicle_type_id":"4","last_reported":1698991771,"current_range_meters":13200,"station_id":"ce4bhs12rcd13ifvqhvg","pricing_plan_id":"free"},{"bike_id":"5f6eadb7-7600-4bd8-84b2-05eeda72ff8b","system_id":"levelo_inurba_marseille","lat":43.302904,"lon":5.3769,"is_reserved":false,"is_disabled":false,"rental_uris":{"android":"levelo://app?vid=5f6eadb7-7600-4bd8-84b2-05eeda72ff8b","ios":"levelo://app?vid=5f6eadb7-7600-4bd8-84b2-05eeda72ff8b"},"vehicle_type_id":"4","last_reported":1698991771,"current_range_meters":22400,"station_id":"ce4bguh2rcd13ifvqcj0","pricing_plan_id":"free"},{"bike_id":"dcd8af7f-cced-4949-a326-2adac63e0390","system_id":"levelo_inurba_marseille","lat":43.302688,"lon":5.37696,"is_reserved":false,"is_disabled":false,"rental_uris":{"android":"levelo://app?vid=dcd8af7f-cced-4949-a326-2adac63e0390","ios":"levelo://app?vid=dcd8af7f-cced-4949-a326-2adac63e0390"},"vehicle_type_id":"4","last_reported":1698991771,"current_range_meters":29200,"station_id":"","pricing_plan_id":"free"},{"bike_id":"3c8936e6-e01b-4020-bbce-541713ec8ea2","system_id":"levelo_inurba_marseille","lat":43.301429,"lon":5.37413,"is_reserved":false,"is_disabled":false,"rental_uris":{"android":"levelo://app?vid=3c8936e6-e01b-4020-bbce-541713ec8ea2","ios":"levelo://app?vid=3c8936e6-e01b-4020-bbce-541713ec8ea2"},"vehicle_type_id":"4","last_reported":1698991771,"current_range_meters":29600,"station_id":"ce4bgs92rcd13ifvqcc0","pricing_plan_id":"free"},{"bike_id":"cde09343-cb34-42b4-bd82-ba3dc99ca7a9","system_id":"levelo_inurba_marseille","lat":43.31541,"lon":5.38404,"is_reserved":false,"is_disabled":false,"rental_uris":{"android":"levelo://app?vid=cde09343-cb34-42b4-bd82-ba3dc99ca7a9","ios":"levelo://app?vid=cde09343-cb34-42b4-bd82-ba3dc99ca7a9"},"vehicle_type_id":"4","last_reported":1698991771,"current_range_meters":17200,"station_id":"ce4bhqp2rcd13ifvqhng","pricing_plan_id":"free"},{"bike_id":"0c1b6186-1d05-42b3-ad0e-1a731931bdc9","system_id":"levelo_inurba_marseille","lat":43.319935,"lon":5.381699,"is_reserved":false,"is_disabled":false,"rental_uris":{"android":"levelo://app?vid=0c1b6186-1d05-42b3-ad0e-1a731931bdc9","ios":"levelo://app?vid=0c1b6186-1d05-42b3-ad0e-1a731931bdc9"},"vehicle_type_id":"4","last_reported":1698991771,"current_range_meters":21600,"station_id":"ce4bhr12rcd13ifvqhpg","pricing_plan_id":"free"},{"bike_id":"7c825a59-2b5f-4720-8b3b-2cdbc5d11a8c","system_id":"levelo_inurba_marseille","lat":43.314166,"lon":5.384479,"is_reserved":false,"is_disabled":false,"rental_uris":{"android":"levelo://app?vid=7c825a59-2b5f-4720-8b3b-2cdbc5d11a8c","ios":"levelo://app?vid=7c825a59-2b5f-4720-8b3b-2cdbc5d11a8c"},"vehicle_type_id":"4","last_reported":1698991771,"current_range_meters":23600,"station_id":"","pricing_plan_id":"free"},{"bike_id":"dc3bc1ff-050b-4be9-8ed3-698051826e34","system_id":"levelo_inurba_marseille","lat":43.313571,"lon":5.384829,"is_reserved":false,"is_disabled":false,"rental_uris":{"android":"levelo://app?vid=dc3bc1ff-050b-4be9-8ed3-698051826e34","ios":"levelo://app?vid=dc3bc1ff-050b-4be9-8ed3-698051826e34"},"vehicle_type_id":"4","last_reported":1698991771,"current_range_meters":28800,"station_id":"ce4bgt92rcd13ifvqcf0","pricing_plan_id":"free"},{"bike_id":"69d4efad-f41c-44b7-bcfd-449ac57c17ea","system_id":"levelo_inurba_marseille","lat":43.313571,"lon":5.384829,"is_reserved":false,"is_disabled":false,"rental_uris":{"android":"levelo://app?vid=69d4efad-f41c-44b7-bcfd-449ac57c17ea","ios":"levelo://app?vid=69d4efad-f41c-44b7-bcfd-449ac57c17ea"},"vehicle_type_id":"4","last_reported":1698991771,"current_range_meters":30000,"station_id":"ce4bgt92rcd13ifvqcf0","pricing_plan_id":"free"},{"bike_id":"e949f99c-7f49-4f5c-a9bc-3f6a92a22747","system_id":"levelo_inurba_marseille","lat":43.313567,"lon":5.384993,"is_reserved":false,"is_disabled":false,"rental_uris":{"android":"levelo://app?vid=e949f99c-7f49-4f5c-a9bc-3f6a92a22747","ios":"levelo://app?vid=e949f99c-7f49-4f5c-a9bc-3f6a92a22747"},"vehicle_type_id":"4","last_reported":1698991771,"current_range_meters":6400,"station_id":"ce4bgt92rcd13ifvqcf0","pricing_plan_id":"free"},{"bike_id":"c8d80ef1-6e66-4342-bc6b-f4fda5af8154","system_id":"levelo_inurba_marseille","lat":43.313551,"lon":5.38501,"is_reserved":false,"is_disabled":false,"rental_uris":{"android":"levelo://app?vid=c8d80ef1-6e66-4342-bc6b-f4fda5af8154","ios":"levelo://app?vid=c8d80ef1-6e66-4342-bc6b-f4fda5af8154"},"vehicle_type_id":"4","last_reported":1698991771,"current_range_meters":30800,"station_id":"ce4bgt92rcd13ifvqcf0","pricing_plan_id":"free"},{"bike_id":"b2f20780-ce77-4284-b590-712f1ed93aea","system_id":"levelo_inurba_marseille","lat":43.313593,"lon":5.385013,"is_reserved":false,"is_disabled":false,"rental_uris":{"android":"levelo://app?vid=b2f20780-ce77-4284-b590-712f1ed93aea","ios":"levelo://app?vid=b2f20780-ce77-4284-b590-712f1ed93aea"},"vehicle_type_id":"4","last_reported":1698991771,"current_range_meters":30800,"station_id":"ce4bgt92rcd13ifvqcf0","pricing_plan_id":"free"},{"bike_id":"cffe800b-8e46-4367-92e9-d9a0f2cba0f2","system_id":"levelo_inurba_marseille","lat":43.299626,"lon":5.375372,"is_reserved":false,"is_disabled":false,"rental_uris":{"android":"levelo://app?vid=cffe800b-8e46-4367-92e9-d9a0f2cba0f2","ios":"levelo://app?vid=cffe800b-8e46-4367-92e9-d9a0f2cba0f2"},"vehicle_type_id":"4","last_reported":1698991771,"current_range_meters":30000,"station_id":"ce4bgjh2rcd13ifvqbg0","pricing_plan_id":"free"},{"bike_id":"c2f931df-4cde-4869-a43c-641747b30b6d","system_id":"levelo_inurba_marseille","lat":43.298433,"lon":5.362774,"is_reserved":false,"is_disabled":false,"rental_uris":{"android":"levelo://app?vid=c2f931df-4cde-4869-a43c-641747b30b6d","ios":"levelo://app?vid=c2f931df-4cde-4869-a43c-641747b30b6d"},"vehicle_type_id":"4","last_reported":1698991771,"current_range_meters":15200,"station_id":"ce4bgpp2rcd13ifvqc3g","pricing_plan_id":"free"},{"bike_id":"5225a7cb-b1d9-44a7-b9a6-fa929b831b95","system_id":"levelo_inurba_marseille","lat":43.298433,"lon":5.362774,"is_reserved":false,"is_disabled":false,"rental_uris":{"android":"levelo://app?vid=5225a7cb-b1d9-44a7-b9a6-fa929b831b95","ios":"levelo://app?vid=5225a7cb-b1d9-44a7-b9a6-fa929b831b95"},"vehicle_type_id":"4","last_reported":1698991771,"current_range_meters":30800,"station_id":"ce4bgpp2rcd13ifvqc3g","pricing_plan_id":"free"},{"bike_id":"c35ca42f-40f2-482f-8aed-4274ad1ead06","system_id":"levelo_inurba_marseille","lat":43.30551,"lon":5.38434,"is_reserved":false,"is_disabled":false,"rental_uris":{"android":"levelo://app?vid=c35ca42f-40f2-482f-8aed-4274ad1ead06","ios":"levelo://app?vid=c35ca42f-40f2-482f-8aed-4274ad1ead06"},"vehicle_type_id":"4","last_reported":1698991771,"current_range_meters":24800,"station_id":"ce4bgg92rcd13ifvqb30","pricing_plan_id":"free"},{"bike_id":"9f25f31c-89e4-4ff8-95eb-2e6e2d975a66","system_id":"levelo_inurba_marseille","lat":43.305364,"lon":5.384119,"is_reserved":false,"is_disabled":false,"rental_uris":{"android":"levelo://app?vid=9f25f31c-89e4-4ff8-95eb-2e6e2d975a66","ios":"levelo://app?vid=9f25f31c-89e4-4ff8-95eb-2e6e2d975a66"},"vehicle_type_id":"4","last_reported":1698991771,"current_range_meters":2000,"station_id":"ce4bgg92rcd13ifvqb30","pricing_plan_id":"free"},{"bike_id":"f86a7f1d-a35a-4caf-baa6-c73e73c44051","system_id":"levelo_inurba_marseille","lat":43.305364,"lon":5.384119,"is_reserved":false,"is_disabled":false,"rental_uris":{"android":"levelo://app?vid=f86a7f1d-a35a-4caf-baa6-c73e73c44051","ios":"levelo://app?vid=f86a7f1d-a35a-4caf-baa6-c73e73c44051"},"vehicle_type_id":"4","last_reported":1698991771,"current_range_meters":23600,"station_id":"ce4bgg92rcd13ifvqb30","pricing_plan_id":"free"},{"bike_id":"bdd39e14-bcd2-4788-804c-653909f02d9c","system_id":"levelo_inurba_marseille","lat":43.305364,"lon":5.384119,"is_reserved":false,"is_disabled":false,"rental_uris":{"android":"levelo://app?vid=bdd39e14-bcd2-4788-804c-653909f02d9c","ios":"levelo://app?vid=bdd39e14-bcd2-4788-804c-653909f02d9c"},"vehicle_type_id":"4","last_reported":1698991771,"current_range_meters":8400,"station_id":"ce4bgg92rcd13ifvqb30","pricing_plan_id":"free"},{"bike_id":"275cec4e-fe16-41e7-93d2-aa77628de4d4","system_id":"levelo_inurba_marseille","lat":43.305364,"lon":5.384119,"is_reserved":false,"is_disabled":false,"rental_uris":{"android":"levelo://app?vid=275cec4e-fe16-41e7-93d2-aa77628de4d4","ios":"levelo://app?vid=275cec4e-fe16-41e7-93d2-aa77628de4d4"},"vehicle_type_id":"4","last_reported":1698991771,"current_range_meters":28800,"station_id":"ce4bgg92rcd13ifvqb30","pricing_plan_id":"free"},{"bike_id":"df08a2a9-495b-403d-a93b-cd17d7477156","system_id":"levelo_inurba_marseille","lat":43.30544,"lon":5.38444,"is_reserved":false,"is_disabled":false,"rental_uris":{"android":"levelo://app?vid=df08a2a9-495b-403d-a93b-cd17d7477156","ios":"levelo://app?vid=df08a2a9-495b-403d-a93b-cd17d7477156"},"vehicle_type_id":"4","last_reported":1698991771,"current_range_meters":15600,"station_id":"ce4bgg92rcd13ifvqb30","pricing_plan_id":"free"},{"bike_id":"2f26c0c0-f034-4a54-9464-0cb572494eeb","system_id":"levelo_inurba_marseille","lat":43.311713,"lon":5.387148,"is_reserved":false,"is_disabled":false,"rental_uris":{"android":"levelo://app?vid=2f26c0c0-f034-4a54-9464-0cb572494eeb","ios":"levelo://app?vid=2f26c0c0-f034-4a54-9464-0cb572494eeb"},"vehicle_type_id":"4","last_reported":1698991771,"current_range_meters":27600,"station_id":"ce4bgv12rcd13ifvqcp0","pricing_plan_id":"free"},{"bike_id":"6127713f-4b40-4577-98e0-ad7eeac93cf7","system_id":"levelo_inurba_marseille","lat":43.311782,"lon":5.387277,"is_reserved":false,"is_disabled":false,"rental_uris":{"android":"levelo://app?vid=6127713f-4b40-4577-98e0-ad7eeac93cf7","ios":"levelo://app?vid=6127713f-4b40-4577-98e0-ad7eeac93cf7"},"vehicle_type_id":"4","last_reported":1698991771,"current_range_meters":22400,"station_id":"","pricing_plan_id":"free"},{"bike_id":"e8584f7f-3a22-4191-9ecd-5314ed574e4e","system_id":"levelo_inurba_marseille","lat":43.298824,"lon":5.374227,"is_reserved":false,"is_disabled":false,"rental_uris":{"android":"levelo://app?vid=e8584f7f-3a22-4191-9ecd-5314ed574e4e","ios":"levelo://app?vid=e8584f7f-3a22-4191-9ecd-5314ed574e4e"},"vehicle_type_id":"4","last_reported":1698991771,"current_range_meters":20800,"station_id":"ce4bhr12rcd13ifvqhpg","pricing_plan_id":"free"},{"bike_id":"c9428514-9197-4976-812b-d61139ef9187","system_id":"levelo_inurba_marseille","lat":43.318846,"lon":5.386473,"is_reserved":false,"is_disabled":false,"rental_uris":{"android":"levelo://app?vid=c9428514-9197-4976-812b-d61139ef9187","ios":"levelo://app?vid=c9428514-9197-4976-812b-d61139ef9187"},"vehicle_type_id":"4","last_reported":1698991771,"current_range_meters":14000,"station_id":"","pricing_plan_id":"free"},{"bike_id":"89517e2e-a73a-49e0-9795-31e8e5413245","system_id":"levelo_inurba_marseille","lat":43.297163,"lon":5.365866,"is_reserved":false,"is_disabled":false,"rental_uris":{"android":"levelo://app?vid=89517e2e-a73a-49e0-9795-31e8e5413245","ios":"levelo://app?vid=89517e2e-a73a-49e0-9795-31e8e5413245"},"vehicle_type_id":"4","last_reported":1698991771,"current_range_meters":30000,"station_id":"ce4bgn12rcd13ifvqbt0","pricing_plan_id":"free"},{"bike_id":"edb83278-50aa-4a4d-a9fb-1337e7dd7a81","system_id":"levelo_inurba_marseille","lat":43.328316,"lon":5.366753,"is_reserved":false,"is_disabled":false,"rental_uris":{"android":"levelo://app?vid=edb83278-50aa-4a4d-a9fb-1337e7dd7a81","ios":"levelo://app?vid=edb83278-50aa-4a4d-a9fb-1337e7dd7a81"},"vehicle_type_id":"4","last_reported":1698991771,"current_range_meters":9600,"station_id":"ce4bhs92rcd13ifvqi0g","pricing_plan_id":"free"},{"bike_id":"1bc8db34-ad1b-4827-8ca6-bc0dc883f6d3","system_id":"levelo_inurba_marseille","lat":43.328371,"lon":5.366909,"is_reserved":false,"is_disabled":false,"rental_uris":{"android":"levelo://app?vid=1bc8db34-ad1b-4827-8ca6-bc0dc883f6d3","ios":"levelo://app?vid=1bc8db34-ad1b-4827-8ca6-bc0dc883f6d3"},"vehicle_type_id":"4","last_reported":1698991771,"current_range_meters":20800,"station_id":"ce4bhs92rcd13ifvqi0g","pricing_plan_id":"free"},{"bike_id":"ae5d8bcd-b790-4400-b7fb-908e750211ba","system_id":"levelo_inurba_marseille","lat":43.2971,"lon":5.366117,"is_reserved":false,"is_disabled":false,"rental_uris":{"android":"levelo://app?vid=ae5d8bcd-b790-4400-b7fb-908e750211ba","ios":"levelo://app?vid=ae5d8bcd-b790-4400-b7fb-908e750211ba"},"vehicle_type_id":"4","last_reported":1698991771,"current_range_meters":10400,"station_id":"ce4bgn12rcd13ifvqbt0","pricing_plan_id":"free"},{"bike_id":"0ff87b7d-c0ad-4b71-90e6-bd0e32084126","system_id":"levelo_inurba_marseille","lat":43.297082,"lon":5.36613,"is_reserved":false,"is_disabled":false,"rental_uris":{"android":"levelo://app?vid=0ff87b7d-c0ad-4b71-90e6-bd0e32084126","ios":"levelo://app?vid=0ff87b7d-c0ad-4b71-90e6-bd0e32084126"},"vehicle_type_id":"4","last_reported":1698991771,"current_range_meters":22400,"station_id":"ce4bgn12rcd13ifvqbt0","pricing_plan_id":"free"},{"bike_id":"671fa751-9bb4-47af-a078-683ce4ee5e2f","system_id":"levelo_inurba_marseille","lat":43.320437,"lon":5.386008,"is_reserved":false,"is_disabled":false,"rental_uris":{"android":"levelo://app?vid=671fa751-9bb4-47af-a078-683ce4ee5e2f","ios":"levelo://app?vid=671fa751-9bb4-47af-a078-683ce4ee5e2f"},"vehicle_type_id":"4","last_reported":1698991771,"current_range_meters":5600,"station_id":"","pricing_plan_id":"free"},{"bike_id":"67bb7dbe-50ea-4249-bc98-d0ad4814b4a6","system_id":"levelo_inurba_marseille","lat":43.321453,"lon":5.385595,"is_reserved":false,"is_disabled":false,"rental_uris":{"android":"levelo://app?vid=67bb7dbe-50ea-4249-bc98-d0ad4814b4a6","ios":"levelo://app?vid=67bb7dbe-50ea-4249-bc98-d0ad4814b4a6"},"vehicle_type_id":"4","last_reported":1698991771,"current_range_meters":23600,"station_id":"","pricing_plan_id":"free"},{"bike_id":"ac64cfce-5505-455a-9537-62af5dd3a90a","system_id":"levelo_inurba_marseille","lat":43.32355,"lon":5.38416,"is_reserved":false,"is_disabled":false,"rental_uris":{"android":"levelo://app?vid=ac64cfce-5505-455a-9537-62af5dd3a90a","ios":"levelo://app?vid=ac64cfce-5505-455a-9537-62af5dd3a90a"},"vehicle_type_id":"4","last_reported":1698991771,"current_range_meters":25600,"station_id":"","pricing_plan_id":"free"},{"bike_id":"e32baeeb-b035-4a39-9fe3-b39c0b1e8a65","system_id":"levelo_inurba_marseille","lat":43.29588,"lon":5.36751,"is_reserved":false,"is_disabled":false,"rental_uris":{"android":"levelo://app?vid=e32baeeb-b035-4a39-9fe3-b39c0b1e8a65","ios":"levelo://app?vid=e32baeeb-b035-4a39-9fe3-b39c0b1e8a65"},"vehicle_type_id":"4","last_reported":1698991771,"current_range_meters":16000,"station_id":"ce4bgph2rcd13ifvqc2g","pricing_plan_id":"free"},{"bike_id":"5a3e4389-a6dc-483b-abd6-709292f6e071","system_id":"levelo_inurba_marseille","lat":43.295864,"lon":5.367131,"is_reserved":false,"is_disabled":false,"rental_uris":{"android":"levelo://app?vid=5a3e4389-a6dc-483b-abd6-709292f6e071","ios":"levelo://app?vid=5a3e4389-a6dc-483b-abd6-709292f6e071"},"vehicle_type_id":"4","last_reported":1698991771,"current_range_meters":20400,"station_id":"ce4bgph2rcd13ifvqc2g","pricing_plan_id":"free"},{"bike_id":"fa43c7d5-b6b2-472e-b1a8-e9734d2498ae","system_id":"levelo_inurba_marseille","lat":43.29619,"lon":5.37153,"is_reserved":false,"is_disabled":false,"rental_uris":{"android":"levelo://app?vid=fa43c7d5-b6b2-472e-b1a8-e9734d2498ae","ios":"levelo://app?vid=fa43c7d5-b6b2-472e-b1a8-e9734d2498ae"},"vehicle_type_id":"4","last_reported":1698991771,"current_range_meters":20000,"station_id":"ce4bgnh2rcd13ifvqc0g","pricing_plan_id":"free"},{"bike_id":"770aa8b0-74e4-477c-8cc4-fd5d552902a6","system_id":"levelo_inurba_marseille","lat":43.321356,"lon":5.386887,"is_reserved":false,"is_disabled":false,"rental_uris":{"android":"levelo://app?vid=770aa8b0-74e4-477c-8cc4-fd5d552902a6","ios":"levelo://app?vid=770aa8b0-74e4-477c-8cc4-fd5d552902a6"},"vehicle_type_id":"4","last_reported":1698991771,"current_range_meters":10800,"station_id":"","pricing_plan_id":"free"},{"bike_id":"63233ee7-73f7-4fce-a898-a89656e60c34","system_id":"levelo_inurba_marseille","lat":43.29584,"lon":5.36779,"is_reserved":false,"is_disabled":false,"rental_uris":{"android":"levelo://app?vid=63233ee7-73f7-4fce-a898-a89656e60c34","ios":"levelo://app?vid=63233ee7-73f7-4fce-a898-a89656e60c34"},"vehicle_type_id":"4","last_reported":1698991771,"current_range_meters":28000,"station_id":"ce4bgph2rcd13ifvqc2g","pricing_plan_id":"free"},{"bike_id":"efd49251-3155-4ae1-959b-3dbe1b8f8577","system_id":"levelo_inurba_marseille","lat":43.2986,"lon":5.37972,"is_reserved":false,"is_disabled":false,"rental_uris":{"android":"levelo://app?vid=efd49251-3155-4ae1-959b-3dbe1b8f8577","ios":"levelo://app?vid=efd49251-3155-4ae1-959b-3dbe1b8f8577"},"vehicle_type_id":"4","last_reported":1698991771,"current_range_meters":22000,"station_id":"","pricing_plan_id":"free"},{"bike_id":"e90c2c37-c504-4f2e-8a70-08ddd4cc0d3d","system_id":"levelo_inurba_marseille","lat":43.296935,"lon":5.376544,"is_reserved":false,"is_disabled":false,"rental_uris":{"android":"levelo://app?vid=e90c2c37-c504-4f2e-8a70-08ddd4cc0d3d","ios":"levelo://app?vid=e90c2c37-c504-4f2e-8a70-08ddd4cc0d3d"},"vehicle_type_id":"4","last_reported":1698991771,"current_range_meters":30400,"station_id":"ce4bgkh2rcd13ifvqbl0","pricing_plan_id":"free"},{"bike_id":"deee5cf3-2e08-4d15-b631-db692d7937ef","system_id":"levelo_inurba_marseille","lat":43.2964,"lon":5.36007,"is_reserved":false,"is_disabled":false,"rental_uris":{"android":"levelo://app?vid=deee5cf3-2e08-4d15-b631-db692d7937ef","ios":"levelo://app?vid=deee5cf3-2e08-4d15-b631-db692d7937ef"},"vehicle_type_id":"4","last_reported":1698991771,"current_range_meters":16400,"station_id":"","pricing_plan_id":"free"},{"bike_id":"9a1aa28c-283c-4307-a9ff-b30b92faa092","system_id":"levelo_inurba_marseille","lat":43.328765,"lon":5.375308,"is_reserved":false,"is_disabled":false,"rental_uris":{"android":"levelo://app?vid=9a1aa28c-283c-4307-a9ff-b30b92faa092","ios":"levelo://app?vid=9a1aa28c-283c-4307-a9ff-b30b92faa092"},"vehicle_type_id":"4","last_reported":1698991771,"current_range_meters":0,"station_id":"","pricing_plan_id":"free"},{"bike_id":"9cfa481d-8ccf-4709-9141-f000fa182471","system_id":"levelo_inurba_marseille","lat":43.296935,"lon":5.376544,"is_reserved":false,"is_disabled":false,"rental_uris":{"android":"levelo://app?vid=9cfa481d-8ccf-4709-9141-f000fa182471","ios":"levelo://app?vid=9cfa481d-8ccf-4709-9141-f000fa182471"},"vehicle_type_id":"4","last_reported":1698991771,"current_range_meters":28400,"station_id":"ce4bgkh2rcd13ifvqbl0","pricing_plan_id":"free"},{"bike_id":"2dba2bf5-cacd-40b5-a7c1-18232b50c002","system_id":"levelo_inurba_marseille","lat":43.299028,"lon":5.381509,"is_reserved":false,"is_disabled":false,"rental_uris":{"android":"levelo://app?vid=2dba2bf5-cacd-40b5-a7c1-18232b50c002","ios":"levelo://app?vid=2dba2bf5-cacd-40b5-a7c1-18232b50c002"},"vehicle_type_id":"4","last_reported":1698991771,"current_range_meters":27200,"station_id":"ce4bgj12rcd13ifvqbc0","pricing_plan_id":"free"},{"bike_id":"d71a6a00-896f-46ff-9a0a-d7fe0f221ea4","system_id":"levelo_inurba_marseille","lat":43.299028,"lon":5.381509,"is_reserved":false,"is_disabled":false,"rental_uris":{"android":"levelo://app?vid=d71a6a00-896f-46ff-9a0a-d7fe0f221ea4","ios":"levelo://app?vid=d71a6a00-896f-46ff-9a0a-d7fe0f221ea4"},"vehicle_type_id":"4","last_reported":1698991771,"current_range_meters":15600,"station_id":"ce4bgj12rcd13ifvqbc0","pricing_plan_id":"free"},{"bike_id":"40cd3db8-251d-4aa1-a75e-39f44fe9ed97","system_id":"levelo_inurba_marseille","lat":43.296935,"lon":5.376544,"is_reserved":false,"is_disabled":false,"rental_uris":{"android":"levelo://app?vid=40cd3db8-251d-4aa1-a75e-39f44fe9ed97","ios":"levelo://app?vid=40cd3db8-251d-4aa1-a75e-39f44fe9ed97"},"vehicle_type_id":"4","last_reported":1698991771,"current_range_meters":16400,"station_id":"ce4bgkh2rcd13ifvqbl0","pricing_plan_id":"free"},{"bike_id":"1531e4f5-6176-4cb7-b1bd-015fd46a7bf0","system_id":"levelo_inurba_marseille","lat":43.296935,"lon":5.376544,"is_reserved":false,"is_disabled":false,"rental_uris":{"android":"levelo://app?vid=1531e4f5-6176-4cb7-b1bd-015fd46a7bf0","ios":"levelo://app?vid=1531e4f5-6176-4cb7-b1bd-015fd46a7bf0"},"vehicle_type_id":"4","last_reported":1698991771,"current_range_meters":30400,"station_id":"ce4bgkh2rcd13ifvqbl0","pricing_plan_id":"free"},{"bike_id":"e1d48d64-b187-4b9e-88ff-0d6b3fa229e4","system_id":"levelo_inurba_marseille","lat":43.29695,"lon":5.37674,"is_reserved":false,"is_disabled":false,"rental_uris":{"android":"levelo://app?vid=e1d48d64-b187-4b9e-88ff-0d6b3fa229e4","ios":"levelo://app?vid=e1d48d64-b187-4b9e-88ff-0d6b3fa229e4"},"vehicle_type_id":"4","last_reported":1698991771,"current_range_meters":28400,"station_id":"ce4bgkh2rcd13ifvqbl0","pricing_plan_id":"free"},{"bike_id":"e72dfbe5-c47d-497b-86a0-7fe75178bf84","system_id":"levelo_inurba_marseille","lat":43.30944,"lon":5.39039,"is_reserved":false,"is_disabled":false,"rental_uris":{"android":"levelo://app?vid=e72dfbe5-c47d-497b-86a0-7fe75178bf84","ios":"levelo://app?vid=e72dfbe5-c47d-497b-86a0-7fe75178bf84"},"vehicle_type_id":"4","last_reported":1698991771,"current_range_meters":30400,"station_id":"ce4bgup2rcd13ifvqco0","pricing_plan_id":"free"},{"bike_id":"cfa22e54-bc78-4676-b2a1-1a910cab0f47","system_id":"levelo_inurba_marseille","lat":43.309589,"lon":5.390258,"is_reserved":false,"is_disabled":false,"rental_uris":{"android":"levelo://app?vid=cfa22e54-bc78-4676-b2a1-1a910cab0f47","ios":"levelo://app?vid=cfa22e54-bc78-4676-b2a1-1a910cab0f47"},"vehicle_type_id":"4","last_reported":1698991771,"current_range_meters":31200,"station_id":"ce4bgup2rcd13ifvqco0","pricing_plan_id":"free"},{"bike_id":"28b6a7ea-ca5d-4fbb-b9b0-8fa1cfa20b97","system_id":"levelo_inurba_marseille","lat":43.309589,"lon":5.390258,"is_reserved":false,"is_disabled":false,"rental_uris":{"android":"levelo://app?vid=28b6a7ea-ca5d-4fbb-b9b0-8fa1cfa20b97","ios":"levelo://app?vid=28b6a7ea-ca5d-4fbb-b9b0-8fa1cfa20b97"},"vehicle_type_id":"4","last_reported":1698991771,"current_range_meters":28800,"station_id":"ce4bgup2rcd13ifvqco0","pricing_plan_id":"free"},{"bike_id":"a0ea5e47-e2db-4f0c-bf16-45331be7847a","system_id":"levelo_inurba_marseille","lat":43.298037,"lon":5.381066,"is_reserved":false,"is_disabled":false,"rental_uris":{"android":"levelo://app?vid=a0ea5e47-e2db-4f0c-bf16-45331be7847a","ios":"levelo://app?vid=a0ea5e47-e2db-4f0c-bf16-45331be7847a"},"vehicle_type_id":"4","last_reported":1698991771,"current_range_meters":16400,"station_id":"ce4bgip2rcd13ifvqbb0","pricing_plan_id":"free"},{"bike_id":"6c36658d-ddc0-43e8-82c7-69993d85e18a","system_id":"levelo_inurba_marseille","lat":43.298037,"lon":5.381066,"is_reserved":false,"is_disabled":false,"rental_uris":{"android":"levelo://app?vid=6c36658d-ddc0-43e8-82c7-69993d85e18a","ios":"levelo://app?vid=6c36658d-ddc0-43e8-82c7-69993d85e18a"},"vehicle_type_id":"4","last_reported":1698991771,"current_range_meters":0,"station_id":"ce4bgip2rcd13ifvqbb0","pricing_plan_id":"free"},{"bike_id":"304422d5-0819-446a-afda-4b77a1065515","system_id":"levelo_inurba_marseille","lat":43.295748,"lon":5.37522,"is_reserved":false,"is_disabled":false,"rental_uris":{"android":"levelo://app?vid=304422d5-0819-446a-afda-4b77a1065515","ios":"levelo://app?vid=304422d5-0819-446a-afda-4b77a1065515"},"vehicle_type_id":"4","last_reported":1698991771,"current_range_meters":23200,"station_id":"ce4bgh92rcd13ifvqb50","pricing_plan_id":"free"},{"bike_id":"b2bbf724-fbfb-4c48-ae47-63c01674626c","system_id":"levelo_inurba_marseille","lat":43.298037,"lon":5.381066,"is_reserved":false,"is_disabled":false,"rental_uris":{"android":"levelo://app?vid=b2bbf724-fbfb-4c48-ae47-63c01674626c","ios":"levelo://app?vid=b2bbf724-fbfb-4c48-ae47-63c01674626c"},"vehicle_type_id":"4","last_reported":1698991771,"current_range_meters":28000,"station_id":"ce4bgip2rcd13ifvqbb0","pricing_plan_id":"free"},{"bike_id":"b97e2d71-30f3-4351-8f3c-efb278566870","system_id":"levelo_inurba_marseille","lat":43.295748,"lon":5.37522,"is_reserved":false,"is_disabled":false,"rental_uris":{"android":"levelo://app?vid=b97e2d71-30f3-4351-8f3c-efb278566870","ios":"levelo://app?vid=b97e2d71-30f3-4351-8f3c-efb278566870"},"vehicle_type_id":"4","last_reported":1698991771,"current_range_meters":28000,"station_id":"ce4bgh92rcd13ifvqb50","pricing_plan_id":"free"},{"bike_id":"5951443f-f546-4235-b78b-9534d8098813","system_id":"levelo_inurba_marseille","lat":43.295748,"lon":5.37522,"is_reserved":false,"is_disabled":false,"rental_uris":{"android":"levelo://app?vid=5951443f-f546-4235-b78b-9534d8098813","ios":"levelo://app?vid=5951443f-f546-4235-b78b-9534d8098813"},"vehicle_type_id":"4","last_reported":1698991771,"current_range_meters":22400,"station_id":"ce4bgh92rcd13ifvqb50","pricing_plan_id":"free"},{"bike_id":"c5a3358a-7c1b-44b2-908c-fcfa0e53f9c3","system_id":"levelo_inurba_marseille","lat":43.295748,"lon":5.37522,"is_reserved":false,"is_disabled":false,"rental_uris":{"android":"levelo://app?vid=c5a3358a-7c1b-44b2-908c-fcfa0e53f9c3","ios":"levelo://app?vid=c5a3358a-7c1b-44b2-908c-fcfa0e53f9c3"},"vehicle_type_id":"4","last_reported":1698991771,"current_range_meters":27600,"station_id":"ce4bgh92rcd13ifvqb50","pricing_plan_id":"free"},{"bike_id":"8dc71877-2627-4da3-92f0-fe8fe73b0426","system_id":"levelo_inurba_marseille","lat":43.296238,"lon":5.377179,"is_reserved":false,"is_disabled":false,"rental_uris":{"android":"levelo://app?vid=8dc71877-2627-4da3-92f0-fe8fe73b0426","ios":"levelo://app?vid=8dc71877-2627-4da3-92f0-fe8fe73b0426"},"vehicle_type_id":"4","last_reported":1698991771,"current_range_meters":21200,"station_id":"ce4bgh92rcd13ifvqb50","pricing_plan_id":"free"},{"bike_id":"6492e0bf-a259-49bd-87e5-9d148e9795d1","system_id":"levelo_inurba_marseille","lat":43.296263,"lon":5.377094,"is_reserved":false,"is_disabled":false,"rental_uris":{"android":"levelo://app?vid=6492e0bf-a259-49bd-87e5-9d148e9795d1","ios":"levelo://app?vid=6492e0bf-a259-49bd-87e5-9d148e9795d1"},"vehicle_type_id":"4","last_reported":1698991771,"current_range_meters":30000,"station_id":"ce4bgi92rcd13ifvqb90","pricing_plan_id":"free"},{"bike_id":"b96c5bf2-e9d2-4f1f-87c9-b8231cf2b97d","system_id":"levelo_inurba_marseille","lat":43.29611,"lon":5.37711,"is_reserved":false,"is_disabled":false,"rental_uris":{"android":"levelo://app?vid=b96c5bf2-e9d2-4f1f-87c9-b8231cf2b97d","ios":"levelo://app?vid=b96c5bf2-e9d2-4f1f-87c9-b8231cf2b97d"},"vehicle_type_id":"4","last_reported":1698991771,"current_range_meters":25600,"station_id":"","pricing_plan_id":"free"},{"bike_id":"b9148a63-113e-4f1b-bf29-566c317cafcd","system_id":"levelo_inurba_marseille","lat":43.29521,"lon":5.37503,"is_reserved":false,"is_disabled":false,"rental_uris":{"android":"levelo://app?vid=b9148a63-113e-4f1b-bf29-566c317cafcd","ios":"levelo://app?vid=b9148a63-113e-4f1b-bf29-566c317cafcd"},"vehicle_type_id":"4","last_reported":1698991771,"current_range_meters":21600,"station_id":"ce4bgkp2rcd13ifvqbmg","pricing_plan_id":"free"},{"bike_id":"1f580447-7b2c-4630-9a51-33e28281b372","system_id":"levelo_inurba_marseille","lat":43.329065,"lon":5.379814,"is_reserved":false,"is_disabled":false,"rental_uris":{"android":"levelo://app?vid=1f580447-7b2c-4630-9a51-33e28281b372","ios":"levelo://app?vid=1f580447-7b2c-4630-9a51-33e28281b372"},"vehicle_type_id":"4","last_reported":1698991771,"current_range_meters":20800,"station_id":"","pricing_plan_id":"free"},{"bike_id":"eab5d605-eaca-4660-a5fd-3fd2b2fdfd03","system_id":"levelo_inurba_marseille","lat":43.29476,"lon":5.37582,"is_reserved":false,"is_disabled":false,"rental_uris":{"android":"levelo://app?vid=eab5d605-eaca-4660-a5fd-3fd2b2fdfd03","ios":"levelo://app?vid=eab5d605-eaca-4660-a5fd-3fd2b2fdfd03"},"vehicle_type_id":"4","last_reported":1698991771,"current_range_meters":4400,"station_id":"","pricing_plan_id":"free"},{"bike_id":"a1024dbd-b29a-4255-9347-3054eb48f627","system_id":"levelo_inurba_marseille","lat":43.309589,"lon":5.390258,"is_reserved":false,"is_disabled":false,"rental_uris":{"android":"levelo://app?vid=a1024dbd-b29a-4255-9347-3054eb48f627","ios":"levelo://app?vid=a1024dbd-b29a-4255-9347-3054eb48f627"},"vehicle_type_id":"4","last_reported":1698991771,"current_range_meters":14800,"station_id":"ce4bgup2rcd13ifvqco0","pricing_plan_id":"free"},{"bike_id":"8ab6b5d9-e934-4b49-996f-86fdd1bf59f0","system_id":"levelo_inurba_marseille","lat":43.29602,"lon":5.381084,"is_reserved":false,"is_disabled":false,"rental_uris":{"android":"levelo://app?vid=8ab6b5d9-e934-4b49-996f-86fdd1bf59f0","ios":"levelo://app?vid=8ab6b5d9-e934-4b49-996f-86fdd1bf59f0"},"vehicle_type_id":"4","last_reported":1698991771,"current_range_meters":22000,"station_id":"ce4bgl12rcd13ifvqbo0","pricing_plan_id":"free"},{"bike_id":"d1803357-289f-46e6-b227-4d79da541ec7","system_id":"levelo_inurba_marseille","lat":43.293259,"lon":5.371586,"is_reserved":false,"is_disabled":false,"rental_uris":{"android":"levelo://app?vid=d1803357-289f-46e6-b227-4d79da541ec7","ios":"levelo://app?vid=d1803357-289f-46e6-b227-4d79da541ec7"},"vehicle_type_id":"4","last_reported":1698991771,"current_range_meters":13200,"station_id":"ce4bgh92rcd13ifvqb40","pricing_plan_id":"free"},{"bike_id":"8aaaa87a-55db-47f6-af0a-92a3ad63e8dc","system_id":"levelo_inurba_marseille","lat":43.305994,"lon":5.393687,"is_reserved":false,"is_disabled":false,"rental_uris":{"android":"levelo://app?vid=8aaaa87a-55db-47f6-af0a-92a3ad63e8dc","ios":"levelo://app?vid=8aaaa87a-55db-47f6-af0a-92a3ad63e8dc"},"vehicle_type_id":"4","last_reported":1698991771,"current_range_meters":27600,"station_id":"ce4bh0p2rcd13ifvqd80","pricing_plan_id":"free"},{"bike_id":"95b38f76-361d-45af-93a5-4380100f8206","system_id":"levelo_inurba_marseille","lat":43.305994,"lon":5.393687,"is_reserved":false,"is_disabled":false,"rental_uris":{"android":"levelo://app?vid=95b38f76-361d-45af-93a5-4380100f8206","ios":"levelo://app?vid=95b38f76-361d-45af-93a5-4380100f8206"},"vehicle_type_id":"4","last_reported":1698991771,"current_range_meters":31200,"station_id":"ce4bh0p2rcd13ifvqd80","pricing_plan_id":"free"},{"bike_id":"831a3170-3db7-4f68-91fd-e0067c45d77e","system_id":"levelo_inurba_marseille","lat":43.305994,"lon":5.393687,"is_reserved":false,"is_disabled":false,"rental_uris":{"android":"levelo://app?vid=831a3170-3db7-4f68-91fd-e0067c45d77e","ios":"levelo://app?vid=831a3170-3db7-4f68-91fd-e0067c45d77e"},"vehicle_type_id":"4","last_reported":1698991771,"current_range_meters":31200,"station_id":"ce4bh0p2rcd13ifvqd80","pricing_plan_id":"free"},{"bike_id":"30641db8-142b-44f6-b61d-307828c81e9b","system_id":"levelo_inurba_marseille","lat":43.293009,"lon":5.374584,"is_reserved":false,"is_disabled":false,"rental_uris":{"android":"levelo://app?vid=30641db8-142b-44f6-b61d-307828c81e9b","ios":"levelo://app?vid=30641db8-142b-44f6-b61d-307828c81e9b"},"vehicle_type_id":"4","last_reported":1698991771,"current_range_meters":8800,"station_id":"ce4bgi12rcd13ifvqb70","pricing_plan_id":"free"},{"bike_id":"dadbd93e-ce14-4f01-bb2d-9e5d5705e888","system_id":"levelo_inurba_marseille","lat":43.30295,"lon":5.39191,"is_reserved":false,"is_disabled":false,"rental_uris":{"android":"levelo://app?vid=dadbd93e-ce14-4f01-bb2d-9e5d5705e888","ios":"levelo://app?vid=dadbd93e-ce14-4f01-bb2d-9e5d5705e888"},"vehicle_type_id":"4","last_reported":1698991771,"current_range_meters":31200,"station_id":"ce4bgkh2rcd13ifvqbk0","pricing_plan_id":"free"},{"bike_id":"d486f1a0-f35e-423b-92e7-363a84639566","system_id":"levelo_inurba_marseille","lat":43.302992,"lon":5.392136,"is_reserved":false,"is_disabled":false,"rental_uris":{"android":"levelo://app?vid=d486f1a0-f35e-423b-92e7-363a84639566","ios":"levelo://app?vid=d486f1a0-f35e-423b-92e7-363a84639566"},"vehicle_type_id":"4","last_reported":1698991771,"current_range_meters":28000,"station_id":"ce4bgkh2rcd13ifvqbk0","pricing_plan_id":"free"},{"bike_id":"8572ff63-44e8-49f1-bb5c-4cb8092fc3b3","system_id":"levelo_inurba_marseille","lat":43.2936,"lon":5.37835,"is_reserved":false,"is_disabled":false,"rental_uris":{"android":"levelo://app?vid=8572ff63-44e8-49f1-bb5c-4cb8092fc3b3","ios":"levelo://app?vid=8572ff63-44e8-49f1-bb5c-4cb8092fc3b3"},"vehicle_type_id":"4","last_reported":1698991771,"current_range_meters":800,"station_id":"ce4bgjh2rcd13ifvqbf0","pricing_plan_id":"free"},{"bike_id":"4155fabb-cf91-4081-9bdb-15516be299e1","system_id":"levelo_inurba_marseille","lat":43.292311,"lon":5.360731,"is_reserved":false,"is_disabled":false,"rental_uris":{"android":"levelo://app?vid=4155fabb-cf91-4081-9bdb-15516be299e1","ios":"levelo://app?vid=4155fabb-cf91-4081-9bdb-15516be299e1"},"vehicle_type_id":"4","last_reported":1698991771,"current_range_meters":26000,"station_id":"ce4bhbh2rcd13ifvqeqg","pricing_plan_id":"free"},{"bike_id":"7870295b-b08e-40c0-ba8c-63ba892e2def","system_id":"levelo_inurba_marseille","lat":43.292311,"lon":5.360731,"is_reserved":false,"is_disabled":false,"rental_uris":{"android":"levelo://app?vid=7870295b-b08e-40c0-ba8c-63ba892e2def","ios":"levelo://app?vid=7870295b-b08e-40c0-ba8c-63ba892e2def"},"vehicle_type_id":"4","last_reported":1698991771,"current_range_meters":17200,"station_id":"ce4bhbh2rcd13ifvqeqg","pricing_plan_id":"free"},{"bike_id":"ecd5fcfb-e675-41c4-803e-df009ca85e60","system_id":"levelo_inurba_marseille","lat":43.309804,"lon":5.395491,"is_reserved":false,"is_disabled":false,"rental_uris":{"android":"levelo://app?vid=ecd5fcfb-e675-41c4-803e-df009ca85e60","ios":"levelo://app?vid=ecd5fcfb-e675-41c4-803e-df009ca85e60"},"vehicle_type_id":"4","last_reported":1698991771,"current_range_meters":19600,"station_id":"","pricing_plan_id":"free"},{"bike_id":"1575422b-f99f-4525-ab00-681f712b3765","system_id":"levelo_inurba_marseille","lat":43.333047,"lon":5.359521,"is_reserved":false,"is_disabled":false,"rental_uris":{"android":"levelo://app?vid=1575422b-f99f-4525-ab00-681f712b3765","ios":"levelo://app?vid=1575422b-f99f-4525-ab00-681f712b3765"},"vehicle_type_id":"4","last_reported":1698991771,"current_range_meters":12800,"station_id":"","pricing_plan_id":"free"},{"bike_id":"d797f1e6-f3ca-4ad7-8b56-5ed6191da53c","system_id":"levelo_inurba_marseille","lat":43.29261,"lon":5.37612,"is_reserved":false,"is_disabled":false,"rental_uris":{"android":"levelo://app?vid=d797f1e6-f3ca-4ad7-8b56-5ed6191da53c","ios":"levelo://app?vid=d797f1e6-f3ca-4ad7-8b56-5ed6191da53c"},"vehicle_type_id":"4","last_reported":1698991771,"current_range_meters":30400,"station_id":"ce4bgi12rcd13ifvqb80","pricing_plan_id":"free"},{"bike_id":"0e8233d2-0d57-470f-8c07-e9f753046a4f","system_id":"levelo_inurba_marseille","lat":43.33217,"lon":5.3788,"is_reserved":false,"is_disabled":false,"rental_uris":{"android":"levelo://app?vid=0e8233d2-0d57-470f-8c07-e9f753046a4f","ios":"levelo://app?vid=0e8233d2-0d57-470f-8c07-e9f753046a4f"},"vehicle_type_id":"4","last_reported":1698991771,"current_range_meters":18000,"station_id":"","pricing_plan_id":"free"},{"bike_id":"58833de5-e747-427d-875c-c74472a1105b","system_id":"levelo_inurba_marseille","lat":43.292663,"lon":5.376389,"is_reserved":false,"is_disabled":false,"rental_uris":{"android":"levelo://app?vid=58833de5-e747-427d-875c-c74472a1105b","ios":"levelo://app?vid=58833de5-e747-427d-875c-c74472a1105b"},"vehicle_type_id":"4","last_reported":1698991771,"current_range_meters":25200,"station_id":"ce4bgi12rcd13ifvqb80","pricing_plan_id":"free"},{"bike_id":"251860cf-f809-4fd3-9230-9d3a8c4d8d60","system_id":"levelo_inurba_marseille","lat":43.309038,"lon":5.396546,"is_reserved":false,"is_disabled":false,"rental_uris":{"android":"levelo://app?vid=251860cf-f809-4fd3-9230-9d3a8c4d8d60","ios":"levelo://app?vid=251860cf-f809-4fd3-9230-9d3a8c4d8d60"},"vehicle_type_id":"4","last_reported":1698991771,"current_range_meters":31200,"station_id":"ce4bh012rcd13ifvqcv0","pricing_plan_id":"free"},{"bike_id":"4ebe5b28-81f4-4c41-86f0-931bf8695285","system_id":"levelo_inurba_marseille","lat":43.29195,"lon":5.35801,"is_reserved":false,"is_disabled":false,"rental_uris":{"android":"levelo://app?vid=4ebe5b28-81f4-4c41-86f0-931bf8695285","ios":"levelo://app?vid=4ebe5b28-81f4-4c41-86f0-931bf8695285"},"vehicle_type_id":"4","last_reported":1698991771,"current_range_meters":25200,"station_id":"ce4bhb12rcd13ifvqel0","pricing_plan_id":"free"},{"bike_id":"0528e42f-ee88-4d66-883b-f84437ce697f","system_id":"levelo_inurba_marseille","lat":43.291994,"lon":5.357886,"is_reserved":false,"is_disabled":false,"rental_uris":{"android":"levelo://app?vid=0528e42f-ee88-4d66-883b-f84437ce697f","ios":"levelo://app?vid=0528e42f-ee88-4d66-883b-f84437ce697f"},"vehicle_type_id":"4","last_reported":1698991771,"current_range_meters":30000,"station_id":"ce4bhb12rcd13ifvqel0","pricing_plan_id":"free"},{"bike_id":"c33a917d-b9be-4e0e-82a0-378e95ed0689","system_id":"levelo_inurba_marseille","lat":43.309047,"lon":5.396551,"is_reserved":false,"is_disabled":false,"rental_uris":{"android":"levelo://app?vid=c33a917d-b9be-4e0e-82a0-378e95ed0689","ios":"levelo://app?vid=c33a917d-b9be-4e0e-82a0-378e95ed0689"},"vehicle_type_id":"4","last_reported":1698991771,"current_range_meters":31200,"station_id":"ce4bh012rcd13ifvqcv0","pricing_plan_id":"free"},{"bike_id":"3363b430-87b4-43a5-a8e2-2cae2774cf8d","system_id":"levelo_inurba_marseille","lat":43.31327,"lon":5.39688,"is_reserved":false,"is_disabled":false,"rental_uris":{"android":"levelo://app?vid=3363b430-87b4-43a5-a8e2-2cae2774cf8d","ios":"levelo://app?vid=3363b430-87b4-43a5-a8e2-2cae2774cf8d"},"vehicle_type_id":"4","last_reported":1698991771,"current_range_meters":21200,"station_id":"ce4bgvp2rcd13ifvqcu0","pricing_plan_id":"free"},{"bike_id":"c5cddef0-0e0f-429d-b3df-8f4b6aff4bf1","system_id":"levelo_inurba_marseille","lat":43.31332,"lon":5.39688,"is_reserved":false,"is_disabled":false,"rental_uris":{"android":"levelo://app?vid=c5cddef0-0e0f-429d-b3df-8f4b6aff4bf1","ios":"levelo://app?vid=c5cddef0-0e0f-429d-b3df-8f4b6aff4bf1"},"vehicle_type_id":"4","last_reported":1698991771,"current_range_meters":4000,"station_id":"ce4bgvp2rcd13ifvqcu0","pricing_plan_id":"free"},{"bike_id":"4473111d-ea0d-4903-b065-1a18c5d2cc0c","system_id":"levelo_inurba_marseille","lat":43.313291,"lon":5.396838,"is_reserved":false,"is_disabled":false,"rental_uris":{"android":"levelo://app?vid=4473111d-ea0d-4903-b065-1a18c5d2cc0c","ios":"levelo://app?vid=4473111d-ea0d-4903-b065-1a18c5d2cc0c"},"vehicle_type_id":"4","last_reported":1698991771,"current_range_meters":14400,"station_id":"ce4bgvp2rcd13ifvqcu0","pricing_plan_id":"free"},{"bike_id":"b4e439e0-3012-4667-8eaf-05e43550e95c","system_id":"levelo_inurba_marseille","lat":43.313291,"lon":5.396838,"is_reserved":false,"is_disabled":false,"rental_uris":{"android":"levelo://app?vid=b4e439e0-3012-4667-8eaf-05e43550e95c","ios":"levelo://app?vid=b4e439e0-3012-4667-8eaf-05e43550e95c"},"vehicle_type_id":"4","last_reported":1698991771,"current_range_meters":8000,"station_id":"ce4bgvp2rcd13ifvqcu0","pricing_plan_id":"free"},{"bike_id":"141fe2a8-9661-43b1-9025-8127edefce9e","system_id":"levelo_inurba_marseille","lat":43.31332,"lon":5.39695,"is_reserved":false,"is_disabled":false,"rental_uris":{"android":"levelo://app?vid=141fe2a8-9661-43b1-9025-8127edefce9e","ios":"levelo://app?vid=141fe2a8-9661-43b1-9025-8127edefce9e"},"vehicle_type_id":"4","last_reported":1698991771,"current_range_meters":30800,"station_id":"ce4bgvp2rcd13ifvqcu0","pricing_plan_id":"free"},{"bike_id":"286ca56e-647d-4422-bf48-237f0b39998c","system_id":"levelo_inurba_marseille","lat":43.309047,"lon":5.396551,"is_reserved":false,"is_disabled":false,"rental_uris":{"android":"levelo://app?vid=286ca56e-647d-4422-bf48-237f0b39998c","ios":"levelo://app?vid=286ca56e-647d-4422-bf48-237f0b39998c"},"vehicle_type_id":"4","last_reported":1698991771,"current_range_meters":31200,"station_id":"ce4bh012rcd13ifvqcv0","pricing_plan_id":"free"},{"bike_id":"0ff8390f-2d21-428b-91b9-6f2b0f478a3f","system_id":"levelo_inurba_marseille","lat":43.31324,"lon":5.396959,"is_reserved":false,"is_disabled":false,"rental_uris":{"android":"levelo://app?vid=0ff8390f-2d21-428b-91b9-6f2b0f478a3f","ios":"levelo://app?vid=0ff8390f-2d21-428b-91b9-6f2b0f478a3f"},"vehicle_type_id":"4","last_reported":1698991771,"current_range_meters":24000,"station_id":"ce4bgvp2rcd13ifvqcu0","pricing_plan_id":"free"},{"bike_id":"0fecf4a8-be6f-47d9-a869-e266631b3d66","system_id":"levelo_inurba_marseille","lat":43.313265,"lon":5.396959,"is_reserved":false,"is_disabled":false,"rental_uris":{"android":"levelo://app?vid=0fecf4a8-be6f-47d9-a869-e266631b3d66","ios":"levelo://app?vid=0fecf4a8-be6f-47d9-a869-e266631b3d66"},"vehicle_type_id":"4","last_reported":1698991771,"current_range_meters":8800,"station_id":"ce4bgvp2rcd13ifvqcu0","pricing_plan_id":"free"},{"bike_id":"3130bb17-74ad-40ec-af68-badb61237991","system_id":"levelo_inurba_marseille","lat":43.31331,"lon":5.39696,"is_reserved":false,"is_disabled":false,"rental_uris":{"android":"levelo://app?vid=3130bb17-74ad-40ec-af68-badb61237991","ios":"levelo://app?vid=3130bb17-74ad-40ec-af68-badb61237991"},"vehicle_type_id":"4","last_reported":1698991771,"current_range_meters":10000,"station_id":"ce4bgvp2rcd13ifvqcu0","pricing_plan_id":"free"},{"bike_id":"8bcdf9ed-4784-4dd3-a7ab-496876f9d232","system_id":"levelo_inurba_marseille","lat":43.313291,"lon":5.396838,"is_reserved":false,"is_disabled":false,"rental_uris":{"android":"levelo://app?vid=8bcdf9ed-4784-4dd3-a7ab-496876f9d232","ios":"levelo://app?vid=8bcdf9ed-4784-4dd3-a7ab-496876f9d232"},"vehicle_type_id":"4","last_reported":1698991771,"current_range_meters":29600,"station_id":"ce4bgvp2rcd13ifvqcu0","pricing_plan_id":"free"},{"bike_id":"92152461-8d9e-422c-b36c-fb0377aa94dd","system_id":"levelo_inurba_marseille","lat":43.31327,"lon":5.39698,"is_reserved":false,"is_disabled":false,"rental_uris":{"android":"levelo://app?vid=92152461-8d9e-422c-b36c-fb0377aa94dd","ios":"levelo://app?vid=92152461-8d9e-422c-b36c-fb0377aa94dd"},"vehicle_type_id":"4","last_reported":1698991771,"current_range_meters":27200,"station_id":"ce4bgvp2rcd13ifvqcu0","pricing_plan_id":"free"},{"bike_id":"7516ec1c-a08b-4c6e-9ba6-5ca4580c8da3","system_id":"levelo_inurba_marseille","lat":43.313314,"lon":5.396996,"is_reserved":false,"is_disabled":false,"rental_uris":{"android":"levelo://app?vid=7516ec1c-a08b-4c6e-9ba6-5ca4580c8da3","ios":"levelo://app?vid=7516ec1c-a08b-4c6e-9ba6-5ca4580c8da3"},"vehicle_type_id":"4","last_reported":1698991771,"current_range_meters":17200,"station_id":"ce4bgvp2rcd13ifvqcu0","pricing_plan_id":"free"},{"bike_id":"0b91b079-af67-4d28-b391-17ea4c84c27a","system_id":"levelo_inurba_marseille","lat":43.309038,"lon":5.396546,"is_reserved":false,"is_disabled":false,"rental_uris":{"android":"levelo://app?vid=0b91b079-af67-4d28-b391-17ea4c84c27a","ios":"levelo://app?vid=0b91b079-af67-4d28-b391-17ea4c84c27a"},"vehicle_type_id":"4","last_reported":1698991771,"current_range_meters":30800,"station_id":"ce4bh012rcd13ifvqcv0","pricing_plan_id":"free"},{"bike_id":"0f6f05b5-34f4-4ff1-9b26-a27b982b4b3b","system_id":"levelo_inurba_marseille","lat":43.29529,"lon":5.385581,"is_reserved":false,"is_disabled":false,"rental_uris":{"android":"levelo://app?vid=0f6f05b5-34f4-4ff1-9b26-a27b982b4b3b","ios":"levelo://app?vid=0f6f05b5-34f4-4ff1-9b26-a27b982b4b3b"},"vehicle_type_id":"4","last_reported":1698991771,"current_range_meters":26000,"station_id":"ce4bgih2rcd13ifvqba0","pricing_plan_id":"free"},{"bike_id":"38d492bf-5e1b-4757-af95-0ad15dc26c78","system_id":"levelo_inurba_marseille","lat":43.290741,"lon":5.371698,"is_reserved":false,"is_disabled":false,"rental_uris":{"android":"levelo://app?vid=38d492bf-5e1b-4757-af95-0ad15dc26c78","ios":"levelo://app?vid=38d492bf-5e1b-4757-af95-0ad15dc26c78"},"vehicle_type_id":"4","last_reported":1698991771,"current_range_meters":12400,"station_id":"ce4bh5p2rcd13ifvqe4g","pricing_plan_id":"free"},{"bike_id":"a0c7ec8b-88c9-4cb2-883a-94dcfeef900e","system_id":"levelo_inurba_marseille","lat":43.302008,"lon":5.394694,"is_reserved":false,"is_disabled":false,"rental_uris":{"android":"levelo://app?vid=a0c7ec8b-88c9-4cb2-883a-94dcfeef900e","ios":"levelo://app?vid=a0c7ec8b-88c9-4cb2-883a-94dcfeef900e"},"vehicle_type_id":"4","last_reported":1698991771,"current_range_meters":30400,"station_id":"ce4bh0p2rcd13ifvqd70","pricing_plan_id":"free"},{"bike_id":"2248b992-5297-4afa-a017-792a1ba2121d","system_id":"levelo_inurba_marseille","lat":43.302008,"lon":5.394694,"is_reserved":false,"is_disabled":false,"rental_uris":{"android":"levelo://app?vid=2248b992-5297-4afa-a017-792a1ba2121d","ios":"levelo://app?vid=2248b992-5297-4afa-a017-792a1ba2121d"},"vehicle_type_id":"4","last_reported":1698991771,"current_range_meters":28800,"station_id":"ce4bh0p2rcd13ifvqd70","pricing_plan_id":"free"},{"bike_id":"03c5ab11-f976-4ae9-bc5d-6787fdd4eb90","system_id":"levelo_inurba_marseille","lat":43.290624,"lon":5.359245,"is_reserved":false,"is_disabled":false,"rental_uris":{"android":"levelo://app?vid=03c5ab11-f976-4ae9-bc5d-6787fdd4eb90","ios":"levelo://app?vid=03c5ab11-f976-4ae9-bc5d-6787fdd4eb90"},"vehicle_type_id":"4","last_reported":1698991771,"current_range_meters":22400,"station_id":"ce4bha92rcd13ifvqeg0","pricing_plan_id":"free"},{"bike_id":"faee6291-135b-407a-a838-f70e4982866e","system_id":"levelo_inurba_marseille","lat":43.290624,"lon":5.359245,"is_reserved":false,"is_disabled":false,"rental_uris":{"android":"levelo://app?vid=faee6291-135b-407a-a838-f70e4982866e","ios":"levelo://app?vid=faee6291-135b-407a-a838-f70e4982866e"},"vehicle_type_id":"4","last_reported":1698991771,"current_range_meters":29600,"station_id":"ce4bha92rcd13ifvqeg0","pricing_plan_id":"free"},{"bike_id":"f36f131d-1318-4065-8d01-604e85611445","system_id":"levelo_inurba_marseille","lat":43.290624,"lon":5.359245,"is_reserved":false,"is_disabled":false,"rental_uris":{"android":"levelo://app?vid=f36f131d-1318-4065-8d01-604e85611445","ios":"levelo://app?vid=f36f131d-1318-4065-8d01-604e85611445"},"vehicle_type_id":"4","last_reported":1698991771,"current_range_meters":31200,"station_id":"ce4bha92rcd13ifvqeg0","pricing_plan_id":"free"},{"bike_id":"6b2fc0bb-b430-476a-bb45-eee8ff7ebd28","system_id":"levelo_inurba_marseille","lat":43.290631,"lon":5.359244,"is_reserved":false,"is_disabled":false,"rental_uris":{"android":"levelo://app?vid=6b2fc0bb-b430-476a-bb45-eee8ff7ebd28","ios":"levelo://app?vid=6b2fc0bb-b430-476a-bb45-eee8ff7ebd28"},"vehicle_type_id":"4","last_reported":1698991771,"current_range_meters":29600,"station_id":"ce4bha92rcd13ifvqeg0","pricing_plan_id":"free"},{"bike_id":"dd5a96da-297a-4ba8-b44b-9d56c2c37c62","system_id":"levelo_inurba_marseille","lat":43.290624,"lon":5.359245,"is_reserved":false,"is_disabled":false,"rental_uris":{"android":"levelo://app?vid=dd5a96da-297a-4ba8-b44b-9d56c2c37c62","ios":"levelo://app?vid=dd5a96da-297a-4ba8-b44b-9d56c2c37c62"},"vehicle_type_id":"4","last_reported":1698991771,"current_range_meters":31200,"station_id":"ce4bha92rcd13ifvqeg0","pricing_plan_id":"free"},{"bike_id":"7a408370-b460-48ed-80d6-fd1c943b5979","system_id":"levelo_inurba_marseille","lat":43.290624,"lon":5.359245,"is_reserved":false,"is_disabled":false,"rental_uris":{"android":"levelo://app?vid=7a408370-b460-48ed-80d6-fd1c943b5979","ios":"levelo://app?vid=7a408370-b460-48ed-80d6-fd1c943b5979"},"vehicle_type_id":"4","last_reported":1698991771,"current_range_meters":26800,"station_id":"ce4bha92rcd13ifvqeg0","pricing_plan_id":"free"},{"bike_id":"d8601a54-9491-429c-a28c-65e2180f12bb","system_id":"levelo_inurba_marseille","lat":43.290631,"lon":5.359244,"is_reserved":false,"is_disabled":false,"rental_uris":{"android":"levelo://app?vid=d8601a54-9491-429c-a28c-65e2180f12bb","ios":"levelo://app?vid=d8601a54-9491-429c-a28c-65e2180f12bb"},"vehicle_type_id":"4","last_reported":1698991771,"current_range_meters":31200,"station_id":"ce4bha92rcd13ifvqeg0","pricing_plan_id":"free"},{"bike_id":"6f87e969-f8ce-4ee6-ae42-797d6440dafd","system_id":"levelo_inurba_marseille","lat":43.327609,"lon":5.391141,"is_reserved":false,"is_disabled":false,"rental_uris":{"android":"levelo://app?vid=6f87e969-f8ce-4ee6-ae42-797d6440dafd","ios":"levelo://app?vid=6f87e969-f8ce-4ee6-ae42-797d6440dafd"},"vehicle_type_id":"4","last_reported":1698991771,"current_range_meters":23200,"station_id":"","pricing_plan_id":"free"},{"bike_id":"9693c673-a118-4369-b628-4b205d6a42e7","system_id":"levelo_inurba_marseille","lat":43.289398,"lon":5.366331,"is_reserved":false,"is_disabled":false,"rental_uris":{"android":"levelo://app?vid=9693c673-a118-4369-b628-4b205d6a42e7","ios":"levelo://app?vid=9693c673-a118-4369-b628-4b205d6a42e7"},"vehicle_type_id":"4","last_reported":1698991771,"current_range_meters":29600,"station_id":"ce4bhap2rcd13ifvqek0","pricing_plan_id":"free"},{"bike_id":"6b14f6a4-8e2f-4c23-932c-498998e2dcee","system_id":"levelo_inurba_marseille","lat":43.289379,"lon":5.366298,"is_reserved":false,"is_disabled":false,"rental_uris":{"android":"levelo://app?vid=6b14f6a4-8e2f-4c23-932c-498998e2dcee","ios":"levelo://app?vid=6b14f6a4-8e2f-4c23-932c-498998e2dcee"},"vehicle_type_id":"4","last_reported":1698991771,"current_range_meters":31200,"station_id":"ce4bhap2rcd13ifvqek0","pricing_plan_id":"free"},{"bike_id":"3f80c7d6-4171-4662-a94e-69eb851dea44","system_id":"levelo_inurba_marseille","lat":43.289468,"lon":5.363719,"is_reserved":false,"is_disabled":false,"rental_uris":{"android":"levelo://app?vid=3f80c7d6-4171-4662-a94e-69eb851dea44","ios":"levelo://app?vid=3f80c7d6-4171-4662-a94e-69eb851dea44"},"vehicle_type_id":"4","last_reported":1698991771,"current_range_meters":22400,"station_id":"ce4bhc92rcd13ifvqetg","pricing_plan_id":"free"},{"bike_id":"d28620f1-993a-4ad6-94e5-e6de3969e6ae","system_id":"levelo_inurba_marseille","lat":43.289184,"lon":5.366408,"is_reserved":false,"is_disabled":false,"rental_uris":{"android":"levelo://app?vid=d28620f1-993a-4ad6-94e5-e6de3969e6ae","ios":"levelo://app?vid=d28620f1-993a-4ad6-94e5-e6de3969e6ae"},"vehicle_type_id":"4","last_reported":1698991771,"current_range_meters":31200,"station_id":"ce4bhap2rcd13ifvqek0","pricing_plan_id":"free"},{"bike_id":"1b845313-15cd-4e66-b900-b6623e61e80e","system_id":"levelo_inurba_marseille","lat":43.289468,"lon":5.363719,"is_reserved":false,"is_disabled":false,"rental_uris":{"android":"levelo://app?vid=1b845313-15cd-4e66-b900-b6623e61e80e","ios":"levelo://app?vid=1b845313-15cd-4e66-b900-b6623e61e80e"},"vehicle_type_id":"4","last_reported":1698991771,"current_range_meters":16800,"station_id":"ce4bhc92rcd13ifvqetg","pricing_plan_id":"free"},{"bike_id":"7c3d7cdc-3e84-4217-a110-f4169626ccc8","system_id":"levelo_inurba_marseille","lat":43.289468,"lon":5.363719,"is_reserved":false,"is_disabled":false,"rental_uris":{"android":"levelo://app?vid=7c3d7cdc-3e84-4217-a110-f4169626ccc8","ios":"levelo://app?vid=7c3d7cdc-3e84-4217-a110-f4169626ccc8"},"vehicle_type_id":"4","last_reported":1698991771,"current_range_meters":0,"station_id":"ce4bhc92rcd13ifvqetg","pricing_plan_id":"free"},{"bike_id":"f79c808a-640f-4d6b-8c5c-b214106daf4d","system_id":"levelo_inurba_marseille","lat":43.289468,"lon":5.363719,"is_reserved":false,"is_disabled":false,"rental_uris":{"android":"levelo://app?vid=f79c808a-640f-4d6b-8c5c-b214106daf4d","ios":"levelo://app?vid=f79c808a-640f-4d6b-8c5c-b214106daf4d"},"vehicle_type_id":"4","last_reported":1698991771,"current_range_meters":31200,"station_id":"ce4bhc92rcd13ifvqetg","pricing_plan_id":"free"},{"bike_id":"886529c2-9290-4a73-b593-960778b27eae","system_id":"levelo_inurba_marseille","lat":43.304274,"lon":5.397513,"is_reserved":false,"is_disabled":false,"rental_uris":{"android":"levelo://app?vid=886529c2-9290-4a73-b593-960778b27eae","ios":"levelo://app?vid=886529c2-9290-4a73-b593-960778b27eae"},"vehicle_type_id":"4","last_reported":1698991771,"current_range_meters":23600,"station_id":"ce4bh092rcd13ifvqd20","pricing_plan_id":"free"},{"bike_id":"6cd7ecf4-03c8-453c-a399-fd2b266a6322","system_id":"levelo_inurba_marseille","lat":43.292629,"lon":5.384459,"is_reserved":false,"is_disabled":false,"rental_uris":{"android":"levelo://app?vid=6cd7ecf4-03c8-453c-a399-fd2b266a6322","ios":"levelo://app?vid=6cd7ecf4-03c8-453c-a399-fd2b266a6322"},"vehicle_type_id":"4","last_reported":1698991771,"current_range_meters":20800,"station_id":"ce4bh692rcd13ifvqea0","pricing_plan_id":"free"},{"bike_id":"cb9002d2-bbcf-410c-904e-f58955267a4b","system_id":"levelo_inurba_marseille","lat":43.290104,"lon":5.356111,"is_reserved":false,"is_disabled":false,"rental_uris":{"android":"levelo://app?vid=cb9002d2-bbcf-410c-904e-f58955267a4b","ios":"levelo://app?vid=cb9002d2-bbcf-410c-904e-f58955267a4b"},"vehicle_type_id":"4","last_reported":1698991771,"current_range_meters":24000,"station_id":"ce4bhb92rcd13ifvqen0","pricing_plan_id":"free"},{"bike_id":"c9441294-1088-4db6-a2c6-46ea92dca345","system_id":"levelo_inurba_marseille","lat":43.290104,"lon":5.356111,"is_reserved":false,"is_disabled":false,"rental_uris":{"android":"levelo://app?vid=c9441294-1088-4db6-a2c6-46ea92dca345","ios":"levelo://app?vid=c9441294-1088-4db6-a2c6-46ea92dca345"},"vehicle_type_id":"4","last_reported":1698991771,"current_range_meters":30800,"station_id":"ce4bhb92rcd13ifvqen0","pricing_plan_id":"free"},{"bike_id":"62290be8-2b42-4cd9-83c4-f69245bb676c","system_id":"levelo_inurba_marseille","lat":43.290104,"lon":5.356111,"is_reserved":false,"is_disabled":false,"rental_uris":{"android":"levelo://app?vid=62290be8-2b42-4cd9-83c4-f69245bb676c","ios":"levelo://app?vid=62290be8-2b42-4cd9-83c4-f69245bb676c"},"vehicle_type_id":"4","last_reported":1698991771,"current_range_meters":30800,"station_id":"ce4bhb92rcd13ifvqen0","pricing_plan_id":"free"},{"bike_id":"4fb445ea-edeb-413e-a3d7-d74182d96d6c","system_id":"levelo_inurba_marseille","lat":43.290104,"lon":5.356111,"is_reserved":false,"is_disabled":false,"rental_uris":{"android":"levelo://app?vid=4fb445ea-edeb-413e-a3d7-d74182d96d6c","ios":"levelo://app?vid=4fb445ea-edeb-413e-a3d7-d74182d96d6c"},"vehicle_type_id":"4","last_reported":1698991771,"current_range_meters":31200,"station_id":"ce4bhb92rcd13ifvqen0","pricing_plan_id":"free"},{"bike_id":"61115101-64be-4f55-8540-489aa4a8b02b","system_id":"levelo_inurba_marseille","lat":43.29,"lon":5.35615,"is_reserved":false,"is_disabled":false,"rental_uris":{"android":"levelo://app?vid=61115101-64be-4f55-8540-489aa4a8b02b","ios":"levelo://app?vid=61115101-64be-4f55-8540-489aa4a8b02b"},"vehicle_type_id":"4","last_reported":1698991771,"current_range_meters":23200,"station_id":"ce4bhb92rcd13ifvqen0","pricing_plan_id":"free"},{"bike_id":"12e43a30-4ad7-4a1f-a286-46ec846da60a","system_id":"levelo_inurba_marseille","lat":43.295334,"lon":5.390199,"is_reserved":false,"is_disabled":false,"rental_uris":{"android":"levelo://app?vid=12e43a30-4ad7-4a1f-a286-46ec846da60a","ios":"levelo://app?vid=12e43a30-4ad7-4a1f-a286-46ec846da60a"},"vehicle_type_id":"4","last_reported":1698991771,"current_range_meters":19600,"station_id":"ce4bh3p2rcd13ifvqdp0","pricing_plan_id":"free"},{"bike_id":"a3781ba8-ee1d-4e20-8cd5-d862747cf9fa","system_id":"levelo_inurba_marseille","lat":43.297879,"lon":5.393365,"is_reserved":false,"is_disabled":false,"rental_uris":{"android":"levelo://app?vid=a3781ba8-ee1d-4e20-8cd5-d862747cf9fa","ios":"levelo://app?vid=a3781ba8-ee1d-4e20-8cd5-d862747cf9fa"},"vehicle_type_id":"4","last_reported":1698991771,"current_range_meters":24000,"station_id":"chh1huq6cuj3fo74tm60","pricing_plan_id":"free"},{"bike_id":"e0d713cd-ec81-44ec-8ba4-571dd76a2b05","system_id":"levelo_inurba_marseille","lat":43.295169,"lon":5.390426,"is_reserved":false,"is_disabled":false,"rental_uris":{"android":"levelo://app?vid=e0d713cd-ec81-44ec-8ba4-571dd76a2b05","ios":"levelo://app?vid=e0d713cd-ec81-44ec-8ba4-571dd76a2b05"},"vehicle_type_id":"4","last_reported":1698991771,"current_range_meters":6400,"station_id":"ce4bh3p2rcd13ifvqdp0","pricing_plan_id":"free"},{"bike_id":"c5c1ebd4-6703-4428-aab7-a8a61bd8d8f8","system_id":"levelo_inurba_marseille","lat":43.297815,"lon":5.393548,"is_reserved":false,"is_disabled":false,"rental_uris":{"android":"levelo://app?vid=c5c1ebd4-6703-4428-aab7-a8a61bd8d8f8","ios":"levelo://app?vid=c5c1ebd4-6703-4428-aab7-a8a61bd8d8f8"},"vehicle_type_id":"4","last_reported":1698991771,"current_range_meters":31200,"station_id":"chh1huq6cuj3fo74tm60","pricing_plan_id":"free"},{"bike_id":"a69f8c67-cc11-422e-a439-68c014175275","system_id":"levelo_inurba_marseille","lat":43.297865,"lon":5.393387,"is_reserved":false,"is_disabled":false,"rental_uris":{"android":"levelo://app?vid=a69f8c67-cc11-422e-a439-68c014175275","ios":"levelo://app?vid=a69f8c67-cc11-422e-a439-68c014175275"},"vehicle_type_id":"4","last_reported":1698991771,"current_range_meters":23600,"station_id":"chh1huq6cuj3fo74tm60","pricing_plan_id":"free"},{"bike_id":"296d6d39-5e4a-4fad-90f9-58f557e67439","system_id":"levelo_inurba_marseille","lat":43.297815,"lon":5.393548,"is_reserved":false,"is_disabled":false,"rental_uris":{"android":"levelo://app?vid=296d6d39-5e4a-4fad-90f9-58f557e67439","ios":"levelo://app?vid=296d6d39-5e4a-4fad-90f9-58f557e67439"},"vehicle_type_id":"4","last_reported":1698991771,"current_range_meters":31200,"station_id":"chh1huq6cuj3fo74tm60","pricing_plan_id":"free"},{"bike_id":"59fb8f0d-24ee-4faa-ba4e-628fd9be1e15","system_id":"levelo_inurba_marseille","lat":43.297815,"lon":5.393548,"is_reserved":false,"is_disabled":false,"rental_uris":{"android":"levelo://app?vid=59fb8f0d-24ee-4faa-ba4e-628fd9be1e15","ios":"levelo://app?vid=59fb8f0d-24ee-4faa-ba4e-628fd9be1e15"},"vehicle_type_id":"4","last_reported":1698991771,"current_range_meters":31200,"station_id":"chh1huq6cuj3fo74tm60","pricing_plan_id":"free"},{"bike_id":"3e1de60b-f410-4afa-be4d-d18c23d69b43","system_id":"levelo_inurba_marseille","lat":43.295241,"lon":5.390296,"is_reserved":false,"is_disabled":false,"rental_uris":{"android":"levelo://app?vid=3e1de60b-f410-4afa-be4d-d18c23d69b43","ios":"levelo://app?vid=3e1de60b-f410-4afa-be4d-d18c23d69b43"},"vehicle_type_id":"4","last_reported":1698991771,"current_range_meters":20800,"station_id":"ce4bh3p2rcd13ifvqdp0","pricing_plan_id":"free"},{"bike_id":"e969db6f-b94e-49f3-97bd-69d8f60451e4","system_id":"levelo_inurba_marseille","lat":43.295237,"lon":5.390305,"is_reserved":false,"is_disabled":false,"rental_uris":{"android":"levelo://app?vid=e969db6f-b94e-49f3-97bd-69d8f60451e4","ios":"levelo://app?vid=e969db6f-b94e-49f3-97bd-69d8f60451e4"},"vehicle_type_id":"4","last_reported":1698991771,"current_range_meters":20400,"station_id":"ce4bh3p2rcd13ifvqdp0","pricing_plan_id":"free"},{"bike_id":"c3a8def9-fa80-4df5-8e49-2710599753b0","system_id":"levelo_inurba_marseille","lat":43.295221,"lon":5.390306,"is_reserved":false,"is_disabled":false,"rental_uris":{"android":"levelo://app?vid=c3a8def9-fa80-4df5-8e49-2710599753b0","ios":"levelo://app?vid=c3a8def9-fa80-4df5-8e49-2710599753b0"},"vehicle_type_id":"4","last_reported":1698991771,"current_range_meters":30800,"station_id":"ce4bh3p2rcd13ifvqdp0","pricing_plan_id":"free"},{"bike_id":"fc0dabcb-8d0d-4859-8087-f9c201d0c3a1","system_id":"levelo_inurba_marseille","lat":43.295221,"lon":5.390313,"is_reserved":false,"is_disabled":false,"rental_uris":{"android":"levelo://app?vid=fc0dabcb-8d0d-4859-8087-f9c201d0c3a1","ios":"levelo://app?vid=fc0dabcb-8d0d-4859-8087-f9c201d0c3a1"},"vehicle_type_id":"4","last_reported":1698991771,"current_range_meters":22800,"station_id":"ce4bh3p2rcd13ifvqdp0","pricing_plan_id":"free"},{"bike_id":"37a18caf-95dd-45b5-a52d-1daa37deae80","system_id":"levelo_inurba_marseille","lat":43.2901,"lon":5.381269,"is_reserved":false,"is_disabled":false,"rental_uris":{"android":"levelo://app?vid=37a18caf-95dd-45b5-a52d-1daa37deae80","ios":"levelo://app?vid=37a18caf-95dd-45b5-a52d-1daa37deae80"},"vehicle_type_id":"4","last_reported":1698991771,"current_range_meters":23200,"station_id":"ce4bh4p2rcd13ifvqe1g","pricing_plan_id":"free"},{"bike_id":"b6280932-31aa-428a-9241-2cade159cc1a","system_id":"levelo_inurba_marseille","lat":43.28856,"lon":5.358371,"is_reserved":false,"is_disabled":false,"rental_uris":{"android":"levelo://app?vid=b6280932-31aa-428a-9241-2cade159cc1a","ios":"levelo://app?vid=b6280932-31aa-428a-9241-2cade159cc1a"},"vehicle_type_id":"4","last_reported":1698991771,"current_range_meters":31200,"station_id":"ce4bhb12rcd13ifvqem0","pricing_plan_id":"free"},{"bike_id":"888c12a2-faca-47ab-b33b-ee36c37ef841","system_id":"levelo_inurba_marseille","lat":43.28856,"lon":5.358371,"is_reserved":false,"is_disabled":false,"rental_uris":{"android":"levelo://app?vid=888c12a2-faca-47ab-b33b-ee36c37ef841","ios":"levelo://app?vid=888c12a2-faca-47ab-b33b-ee36c37ef841"},"vehicle_type_id":"4","last_reported":1698991771,"current_range_meters":17600,"station_id":"ce4bhb12rcd13ifvqem0","pricing_plan_id":"free"},{"bike_id":"147d21ff-4ee4-439c-be75-580e8ae9d3cd","system_id":"levelo_inurba_marseille","lat":43.28856,"lon":5.358371,"is_reserved":false,"is_disabled":false,"rental_uris":{"android":"levelo://app?vid=147d21ff-4ee4-439c-be75-580e8ae9d3cd","ios":"levelo://app?vid=147d21ff-4ee4-439c-be75-580e8ae9d3cd"},"vehicle_type_id":"4","last_reported":1698991771,"current_range_meters":15600,"station_id":"ce4bhb12rcd13ifvqem0","pricing_plan_id":"free"},{"bike_id":"eb16b1e7-3e40-437f-89af-b26302c1a90a","system_id":"levelo_inurba_marseille","lat":43.28856,"lon":5.358371,"is_reserved":false,"is_disabled":false,"rental_uris":{"android":"levelo://app?vid=eb16b1e7-3e40-437f-89af-b26302c1a90a","ios":"levelo://app?vid=eb16b1e7-3e40-437f-89af-b26302c1a90a"},"vehicle_type_id":"4","last_reported":1698991771,"current_range_meters":31200,"station_id":"ce4bhb12rcd13ifvqem0","pricing_plan_id":"free"},{"bike_id":"e3c4e028-b071-4ce5-b311-70a29c9a9274","system_id":"levelo_inurba_marseille","lat":43.28856,"lon":5.358371,"is_reserved":false,"is_disabled":false,"rental_uris":{"android":"levelo://app?vid=e3c4e028-b071-4ce5-b311-70a29c9a9274","ios":"levelo://app?vid=e3c4e028-b071-4ce5-b311-70a29c9a9274"},"vehicle_type_id":"4","last_reported":1698991771,"current_range_meters":25200,"station_id":"ce4bhb12rcd13ifvqem0","pricing_plan_id":"free"},{"bike_id":"11b03456-7007-4fb5-a676-1cfcfc93e754","system_id":"levelo_inurba_marseille","lat":43.28856,"lon":5.358371,"is_reserved":false,"is_disabled":false,"rental_uris":{"android":"levelo://app?vid=11b03456-7007-4fb5-a676-1cfcfc93e754","ios":"levelo://app?vid=11b03456-7007-4fb5-a676-1cfcfc93e754"},"vehicle_type_id":"4","last_reported":1698991771,"current_range_meters":31200,"station_id":"ce4bhb12rcd13ifvqem0","pricing_plan_id":"free"},{"bike_id":"91798a6b-3902-4acc-a51d-ed61ef0b5443","system_id":"levelo_inurba_marseille","lat":43.312718,"lon":5.401608,"is_reserved":false,"is_disabled":false,"rental_uris":{"android":"levelo://app?vid=91798a6b-3902-4acc-a51d-ed61ef0b5443","ios":"levelo://app?vid=91798a6b-3902-4acc-a51d-ed61ef0b5443"},"vehicle_type_id":"4","last_reported":1698991771,"current_range_meters":14800,"station_id":"ce4bh092rcd13ifvqd30","pricing_plan_id":"free"},{"bike_id":"b62753c5-f517-445b-8005-6907cfecdfb7","system_id":"levelo_inurba_marseille","lat":43.312609,"lon":5.401662,"is_reserved":false,"is_disabled":false,"rental_uris":{"android":"levelo://app?vid=b62753c5-f517-445b-8005-6907cfecdfb7","ios":"levelo://app?vid=b62753c5-f517-445b-8005-6907cfecdfb7"},"vehicle_type_id":"4","last_reported":1698991771,"current_range_meters":14800,"station_id":"ce4bh092rcd13ifvqd30","pricing_plan_id":"free"},{"bike_id":"787b5223-991e-4006-8070-b2c83114dcbc","system_id":"levelo_inurba_marseille","lat":43.30929,"lon":5.40139,"is_reserved":false,"is_disabled":false,"rental_uris":{"android":"levelo://app?vid=787b5223-991e-4006-8070-b2c83114dcbc","ios":"levelo://app?vid=787b5223-991e-4006-8070-b2c83114dcbc"},"vehicle_type_id":"4","last_reported":1698991771,"current_range_meters":24800,"station_id":"ce4bgvp2rcd13ifvqct0","pricing_plan_id":"free"},{"bike_id":"ea1257ad-5653-4c96-8922-d31d84d6dab7","system_id":"levelo_inurba_marseille","lat":43.309325,"lon":5.401406,"is_reserved":false,"is_disabled":false,"rental_uris":{"android":"levelo://app?vid=ea1257ad-5653-4c96-8922-d31d84d6dab7","ios":"levelo://app?vid=ea1257ad-5653-4c96-8922-d31d84d6dab7"},"vehicle_type_id":"4","last_reported":1698991771,"current_range_meters":31200,"station_id":"ce4bgvp2rcd13ifvqct0","pricing_plan_id":"free"},{"bike_id":"46e27dc7-8355-4692-bf8a-8b8f5beeea67","system_id":"levelo_inurba_marseille","lat":43.312609,"lon":5.401662,"is_reserved":false,"is_disabled":false,"rental_uris":{"android":"levelo://app?vid=46e27dc7-8355-4692-bf8a-8b8f5beeea67","ios":"levelo://app?vid=46e27dc7-8355-4692-bf8a-8b8f5beeea67"},"vehicle_type_id":"4","last_reported":1698991771,"current_range_meters":24400,"station_id":"ce4bh092rcd13ifvqd30","pricing_plan_id":"free"},{"bike_id":"f6b3fa4e-d7ba-4c92-b163-38752865e5cb","system_id":"levelo_inurba_marseille","lat":43.30935,"lon":5.40142,"is_reserved":false,"is_disabled":false,"rental_uris":{"android":"levelo://app?vid=f6b3fa4e-d7ba-4c92-b163-38752865e5cb","ios":"levelo://app?vid=f6b3fa4e-d7ba-4c92-b163-38752865e5cb"},"vehicle_type_id":"4","last_reported":1698991771,"current_range_meters":1600,"station_id":"ce4bgvp2rcd13ifvqct0","pricing_plan_id":"free"},{"bike_id":"cb7c22d3-eed8-49a7-8b75-1c246511a864","system_id":"levelo_inurba_marseille","lat":43.30926,"lon":5.40141,"is_reserved":false,"is_disabled":false,"rental_uris":{"android":"levelo://app?vid=cb7c22d3-eed8-49a7-8b75-1c246511a864","ios":"levelo://app?vid=cb7c22d3-eed8-49a7-8b75-1c246511a864"},"vehicle_type_id":"4","last_reported":1698991771,"current_range_meters":22400,"station_id":"ce4bgvp2rcd13ifvqct0","pricing_plan_id":"free"},{"bike_id":"c4a3966c-18a1-4af4-8e57-3e03dded1f88","system_id":"levelo_inurba_marseille","lat":43.309371,"lon":5.401449,"is_reserved":false,"is_disabled":false,"rental_uris":{"android":"levelo://app?vid=c4a3966c-18a1-4af4-8e57-3e03dded1f88","ios":"levelo://app?vid=c4a3966c-18a1-4af4-8e57-3e03dded1f88"},"vehicle_type_id":"4","last_reported":1698991771,"current_range_meters":30400,"station_id":"ce4bgvp2rcd13ifvqct0","pricing_plan_id":"free"},{"bike_id":"293e7fb3-f9bb-40e4-b522-bcb94934049a","system_id":"levelo_inurba_marseille","lat":43.309377,"lon":5.401459,"is_reserved":false,"is_disabled":false,"rental_uris":{"android":"levelo://app?vid=293e7fb3-f9bb-40e4-b522-bcb94934049a","ios":"levelo://app?vid=293e7fb3-f9bb-40e4-b522-bcb94934049a"},"vehicle_type_id":"4","last_reported":1698991771,"current_range_meters":28400,"station_id":"ce4bgvp2rcd13ifvqct0","pricing_plan_id":"free"},{"bike_id":"58f6c66f-a891-43e2-8dd1-f459c39d8bcf","system_id":"levelo_inurba_marseille","lat":43.306408,"lon":5.400682,"is_reserved":false,"is_disabled":false,"rental_uris":{"android":"levelo://app?vid=58f6c66f-a891-43e2-8dd1-f459c39d8bcf","ios":"levelo://app?vid=58f6c66f-a891-43e2-8dd1-f459c39d8bcf"},"vehicle_type_id":"4","last_reported":1698991771,"current_range_meters":24400,"station_id":"ce4bh112rcd13ifvqda0","pricing_plan_id":"free"},{"bike_id":"0b1ae411-aad6-4cab-95db-a2f958b9daf6","system_id":"levelo_inurba_marseille","lat":43.309371,"lon":5.401449,"is_reserved":false,"is_disabled":false,"rental_uris":{"android":"levelo://app?vid=0b1ae411-aad6-4cab-95db-a2f958b9daf6","ios":"levelo://app?vid=0b1ae411-aad6-4cab-95db-a2f958b9daf6"},"vehicle_type_id":"4","last_reported":1698991771,"current_range_meters":20800,"station_id":"ce4bgvp2rcd13ifvqct0","pricing_plan_id":"free"},{"bike_id":"aeb5493c-056d-46cc-a2c7-2b97a4f26e5c","system_id":"levelo_inurba_marseille","lat":43.30661,"lon":5.40079,"is_reserved":false,"is_disabled":false,"rental_uris":{"android":"levelo://app?vid=aeb5493c-056d-46cc-a2c7-2b97a4f26e5c","ios":"levelo://app?vid=aeb5493c-056d-46cc-a2c7-2b97a4f26e5c"},"vehicle_type_id":"4","last_reported":1698991771,"current_range_meters":25200,"station_id":"ce4bh112rcd13ifvqda0","pricing_plan_id":"free"},{"bike_id":"6dbe0b57-62dc-41d6-89ad-7767dcda3dc8","system_id":"levelo_inurba_marseille","lat":43.30663,"lon":5.40081,"is_reserved":false,"is_disabled":false,"rental_uris":{"android":"levelo://app?vid=6dbe0b57-62dc-41d6-89ad-7767dcda3dc8","ios":"levelo://app?vid=6dbe0b57-62dc-41d6-89ad-7767dcda3dc8"},"vehicle_type_id":"4","last_reported":1698991771,"current_range_meters":22000,"station_id":"ce4bh112rcd13ifvqda0","pricing_plan_id":"free"},{"bike_id":"17d3dcea-046d-4b61-aa99-cef6ece2f410","system_id":"levelo_inurba_marseille","lat":43.306499,"lon":5.400796,"is_reserved":false,"is_disabled":false,"rental_uris":{"android":"levelo://app?vid=17d3dcea-046d-4b61-aa99-cef6ece2f410","ios":"levelo://app?vid=17d3dcea-046d-4b61-aa99-cef6ece2f410"},"vehicle_type_id":"4","last_reported":1698991771,"current_range_meters":31200,"station_id":"ce4bh112rcd13ifvqda0","pricing_plan_id":"free"},{"bike_id":"7cdc46c7-8306-4b37-9ab5-3bcdf0438597","system_id":"levelo_inurba_marseille","lat":43.30653,"lon":5.400808,"is_reserved":false,"is_disabled":false,"rental_uris":{"android":"levelo://app?vid=7cdc46c7-8306-4b37-9ab5-3bcdf0438597","ios":"levelo://app?vid=7cdc46c7-8306-4b37-9ab5-3bcdf0438597"},"vehicle_type_id":"4","last_reported":1698991771,"current_range_meters":18800,"station_id":"ce4bh112rcd13ifvqda0","pricing_plan_id":"free"},{"bike_id":"c3ae53cd-1896-4bea-b85f-ba77dbf22341","system_id":"levelo_inurba_marseille","lat":43.306537,"lon":5.400838,"is_reserved":false,"is_disabled":false,"rental_uris":{"android":"levelo://app?vid=c3ae53cd-1896-4bea-b85f-ba77dbf22341","ios":"levelo://app?vid=c3ae53cd-1896-4bea-b85f-ba77dbf22341"},"vehicle_type_id":"4","last_reported":1698991771,"current_range_meters":26000,"station_id":"ce4bh112rcd13ifvqda0","pricing_plan_id":"free"},{"bike_id":"0b60bccb-d1cf-46de-b5ae-b46eb8361531","system_id":"levelo_inurba_marseille","lat":43.306439,"lon":5.400834,"is_reserved":false,"is_disabled":false,"rental_uris":{"android":"levelo://app?vid=0b60bccb-d1cf-46de-b5ae-b46eb8361531","ios":"levelo://app?vid=0b60bccb-d1cf-46de-b5ae-b46eb8361531"},"vehicle_type_id":"4","last_reported":1698991771,"current_range_meters":18400,"station_id":"ce4bh112rcd13ifvqda0","pricing_plan_id":"free"},{"bike_id":"8491e08e-6966-4aab-ba75-fdbbab2f286e","system_id":"levelo_inurba_marseille","lat":43.330308,"lon":5.392461,"is_reserved":false,"is_disabled":false,"rental_uris":{"android":"levelo://app?vid=8491e08e-6966-4aab-ba75-fdbbab2f286e","ios":"levelo://app?vid=8491e08e-6966-4aab-ba75-fdbbab2f286e"},"vehicle_type_id":"4","last_reported":1698991771,"current_range_meters":9200,"station_id":"","pricing_plan_id":"free"},{"bike_id":"6b95949f-aead-4d8f-9e2c-f7564ac4fcd5","system_id":"levelo_inurba_marseille","lat":43.28727,"lon":5.36078,"is_reserved":false,"is_disabled":false,"rental_uris":{"android":"levelo://app?vid=6b95949f-aead-4d8f-9e2c-f7564ac4fcd5","ios":"levelo://app?vid=6b95949f-aead-4d8f-9e2c-f7564ac4fcd5"},"vehicle_type_id":"4","last_reported":1698991771,"current_range_meters":30000,"station_id":"cki0cbj6b192h4jlfktg","pricing_plan_id":"free"},{"bike_id":"97a4f256-9bd1-4a9b-b718-285182d1a604","system_id":"levelo_inurba_marseille","lat":43.28727,"lon":5.36078,"is_reserved":false,"is_disabled":false,"rental_uris":{"android":"levelo://app?vid=97a4f256-9bd1-4a9b-b718-285182d1a604","ios":"levelo://app?vid=97a4f256-9bd1-4a9b-b718-285182d1a604"},"vehicle_type_id":"4","last_reported":1698991771,"current_range_meters":28000,"station_id":"cki0cbj6b192h4jlfktg","pricing_plan_id":"free"},{"bike_id":"196d7185-355b-4fa4-8633-2457b444c4c1","system_id":"levelo_inurba_marseille","lat":43.28727,"lon":5.36078,"is_reserved":false,"is_disabled":false,"rental_uris":{"android":"levelo://app?vid=196d7185-355b-4fa4-8633-2457b444c4c1","ios":"levelo://app?vid=196d7185-355b-4fa4-8633-2457b444c4c1"},"vehicle_type_id":"4","last_reported":1698991771,"current_range_meters":31200,"station_id":"cki0cbj6b192h4jlfktg","pricing_plan_id":"free"},{"bike_id":"5503e6ee-dce8-40d5-8705-cf53887b9fdf","system_id":"levelo_inurba_marseille","lat":43.28727,"lon":5.36078,"is_reserved":false,"is_disabled":false,"rental_uris":{"android":"levelo://app?vid=5503e6ee-dce8-40d5-8705-cf53887b9fdf","ios":"levelo://app?vid=5503e6ee-dce8-40d5-8705-cf53887b9fdf"},"vehicle_type_id":"4","last_reported":1698991771,"current_range_meters":27200,"station_id":"cki0cbj6b192h4jlfktg","pricing_plan_id":"free"},{"bike_id":"e40ecab4-720b-4486-ad57-89019eb82c43","system_id":"levelo_inurba_marseille","lat":43.286961,"lon":5.373785,"is_reserved":false,"is_disabled":false,"rental_uris":{"android":"levelo://app?vid=e40ecab4-720b-4486-ad57-89019eb82c43","ios":"levelo://app?vid=e40ecab4-720b-4486-ad57-89019eb82c43"},"vehicle_type_id":"4","last_reported":1698991771,"current_range_meters":6800,"station_id":"ce4bh3p2rcd13ifvqdq0","pricing_plan_id":"free"},{"bike_id":"ee026970-e794-40e6-9ae6-b332c91e2b0b","system_id":"levelo_inurba_marseille","lat":43.286591,"lon":5.363346,"is_reserved":false,"is_disabled":false,"rental_uris":{"android":"levelo://app?vid=ee026970-e794-40e6-9ae6-b332c91e2b0b","ios":"levelo://app?vid=ee026970-e794-40e6-9ae6-b332c91e2b0b"},"vehicle_type_id":"4","last_reported":1698991771,"current_range_meters":25600,"station_id":"ce4bhah2rcd13ifvqej0","pricing_plan_id":"free"},{"bike_id":"4a1c7fb6-d497-4670-85a2-a35f2900f5e3","system_id":"levelo_inurba_marseille","lat":43.286591,"lon":5.363346,"is_reserved":false,"is_disabled":false,"rental_uris":{"android":"levelo://app?vid=4a1c7fb6-d497-4670-85a2-a35f2900f5e3","ios":"levelo://app?vid=4a1c7fb6-d497-4670-85a2-a35f2900f5e3"},"vehicle_type_id":"4","last_reported":1698991771,"current_range_meters":27600,"station_id":"ce4bhah2rcd13ifvqej0","pricing_plan_id":"free"},{"bike_id":"6fee58b6-4282-4694-aff8-ad1ebce27be4","system_id":"levelo_inurba_marseille","lat":43.286961,"lon":5.373785,"is_reserved":false,"is_disabled":false,"rental_uris":{"android":"levelo://app?vid=6fee58b6-4282-4694-aff8-ad1ebce27be4","ios":"levelo://app?vid=6fee58b6-4282-4694-aff8-ad1ebce27be4"},"vehicle_type_id":"4","last_reported":1698991771,"current_range_meters":31200,"station_id":"ce4bh3p2rcd13ifvqdq0","pricing_plan_id":"free"},{"bike_id":"24e5a262-be52-47eb-8f2a-bd6377d2e0bc","system_id":"levelo_inurba_marseille","lat":43.298833,"lon":5.397449,"is_reserved":false,"is_disabled":false,"rental_uris":{"android":"levelo://app?vid=24e5a262-be52-47eb-8f2a-bd6377d2e0bc","ios":"levelo://app?vid=24e5a262-be52-47eb-8f2a-bd6377d2e0bc"},"vehicle_type_id":"4","last_reported":1698991771,"current_range_meters":28000,"station_id":"ce4bh0h2rcd13ifvqd50","pricing_plan_id":"free"},{"bike_id":"c13a824f-77d9-4e29-ba09-5ff55c9b81f9","system_id":"levelo_inurba_marseille","lat":43.298681,"lon":5.397225,"is_reserved":false,"is_disabled":false,"rental_uris":{"android":"levelo://app?vid=c13a824f-77d9-4e29-ba09-5ff55c9b81f9","ios":"levelo://app?vid=c13a824f-77d9-4e29-ba09-5ff55c9b81f9"},"vehicle_type_id":"4","last_reported":1698991771,"current_range_meters":31200,"station_id":"ce4bh0h2rcd13ifvqd50","pricing_plan_id":"free"},{"bike_id":"d541ab2d-3a25-48c1-beed-072e0e660c55","system_id":"levelo_inurba_marseille","lat":43.286961,"lon":5.373785,"is_reserved":false,"is_disabled":false,"rental_uris":{"android":"levelo://app?vid=d541ab2d-3a25-48c1-beed-072e0e660c55","ios":"levelo://app?vid=d541ab2d-3a25-48c1-beed-072e0e660c55"},"vehicle_type_id":"4","last_reported":1698991771,"current_range_meters":31200,"station_id":"ce4bh3p2rcd13ifvqdq0","pricing_plan_id":"free"},{"bike_id":"d5a91e99-fa52-4682-ae32-9c9c161dc4b4","system_id":"levelo_inurba_marseille","lat":43.298681,"lon":5.397225,"is_reserved":false,"is_disabled":false,"rental_uris":{"android":"levelo://app?vid=d5a91e99-fa52-4682-ae32-9c9c161dc4b4","ios":"levelo://app?vid=d5a91e99-fa52-4682-ae32-9c9c161dc4b4"},"vehicle_type_id":"4","last_reported":1698991771,"current_range_meters":29200,"station_id":"ce4bh0h2rcd13ifvqd50","pricing_plan_id":"free"},{"bike_id":"a5bd5186-5147-42ef-9c6f-8cd071bfd698","system_id":"levelo_inurba_marseille","lat":43.286591,"lon":5.363346,"is_reserved":false,"is_disabled":false,"rental_uris":{"android":"levelo://app?vid=a5bd5186-5147-42ef-9c6f-8cd071bfd698","ios":"levelo://app?vid=a5bd5186-5147-42ef-9c6f-8cd071bfd698"},"vehicle_type_id":"4","last_reported":1698991771,"current_range_meters":18800,"station_id":"ce4bhah2rcd13ifvqej0","pricing_plan_id":"free"},{"bike_id":"9c125b51-8247-4525-a7bf-d02b54b15076","system_id":"levelo_inurba_marseille","lat":43.298695,"lon":5.397392,"is_reserved":false,"is_disabled":false,"rental_uris":{"android":"levelo://app?vid=9c125b51-8247-4525-a7bf-d02b54b15076","ios":"levelo://app?vid=9c125b51-8247-4525-a7bf-d02b54b15076"},"vehicle_type_id":"4","last_reported":1698991771,"current_range_meters":31200,"station_id":"ce4bh0h2rcd13ifvqd50","pricing_plan_id":"free"},{"bike_id":"3662ba27-6106-4950-8a1d-8392d65ab410","system_id":"levelo_inurba_marseille","lat":43.286593,"lon":5.363346,"is_reserved":false,"is_disabled":false,"rental_uris":{"android":"levelo://app?vid=3662ba27-6106-4950-8a1d-8392d65ab410","ios":"levelo://app?vid=3662ba27-6106-4950-8a1d-8392d65ab410"},"vehicle_type_id":"4","last_reported":1698991771,"current_range_meters":26400,"station_id":"ce4bhah2rcd13ifvqej0","pricing_plan_id":"free"},{"bike_id":"5648ed5f-7a8b-4b1c-989e-1ad840382d9c","system_id":"levelo_inurba_marseille","lat":43.286961,"lon":5.373785,"is_reserved":false,"is_disabled":false,"rental_uris":{"android":"levelo://app?vid=5648ed5f-7a8b-4b1c-989e-1ad840382d9c","ios":"levelo://app?vid=5648ed5f-7a8b-4b1c-989e-1ad840382d9c"},"vehicle_type_id":"4","last_reported":1698991771,"current_range_meters":15600,"station_id":"ce4bh3p2rcd13ifvqdq0","pricing_plan_id":"free"},{"bike_id":"3e4e06af-fdb7-456a-ad0d-1d4d748526b7","system_id":"levelo_inurba_marseille","lat":43.298681,"lon":5.397225,"is_reserved":false,"is_disabled":false,"rental_uris":{"android":"levelo://app?vid=3e4e06af-fdb7-456a-ad0d-1d4d748526b7","ios":"levelo://app?vid=3e4e06af-fdb7-456a-ad0d-1d4d748526b7"},