{"last_updated":1749648380,"ttl":60,"version":"2.2","data":{"bikes":[{"bike_id":"feaee220-a01b-4bb0-9dae-22630f34e694","system_id":"levelo_inurba_marseille","lat":43.29271,"lon":5.38439,"is_reserved":false,"is_disabled":false,"rental_uris":{"android":"levelo://app?vid=feaee220-a01b-4bb0-9dae-22630f34e694","ios":"levelo://app?vid=feaee220-a01b-4bb0-9dae-22630f34e694"},"vehicle_type_id":"4","last_reported":1749648380,"current_range_meters":2800,"station_id":"ce4bh692rcd13ifvqea0","pricing_plan_id":"cebpf4jnsgd1na2vs0mg"},{"bike_id":"552b1c91-de33-42ea-a71f-3ebcb82c7663","system_id":"levelo_inurba_marseille","lat":43.29907,"lon":5.43671,"is_reserved":false,"is_disabled":false,"rental_uris":{"android":"levelo://app?vid=552b1c91-de33-42ea-a71f-3ebcb82c7663","ios":"levelo://app?vid=552b1c91-de33-42ea-a71f-3ebcb82c7663"},"vehicle_type_id":"4","last_reported":1749648380,"current_range_meters":2800,"station_id":"ce4bhpp2rcd13ifvqhfg","pricing_plan_id":"cebpf4jnsgd1na2vs0mg"},{"bike_id":"784eb204-71c4-4d42-9a82-124e4123bddf","system_id":"levelo_inurba_marseille","lat":43.26231,"lon":5.40472,"is_reserved":false,"is_disabled":false,"rental_uris":{"android":"levelo://app?vid=784eb204-71c4-4d42-9a82-124e4123bddf","ios":"levelo://app?vid=784eb204-71c4-4d42-9a82-124e4123bddf"},"vehicle_type_id":"4","last_reported":1749648380,"current_range_meters":2800,"station_id":"ce4bhmh2rcd13ifvqgmg","pricing_plan_id":"cebpf4jnsgd1na2vs0mg"},{"bike_id":"4e791414-963d-490d-8a57-66106085e941","system_id":"levelo_inurba_marseille","lat":43.30209,"lon":5.39468,"is_reserved":false,"is_disabled":false,"rental_uris":{"android":"levelo://app?vid=4e791414-963d-490d-8a57-66106085e941","ios":"levelo://app?vid=4e791414-963d-490d-8a57-66106085e941"},"vehicle_type_id":"4","last_reported":1749648380,"current_range_meters":3200,"station_id":"ce4bh0p2rcd13ifvqd70","pricing_plan_id":"cebpf4jnsgd1na2vs0mg"},{"bike_id":"1d70ec26-5c19-4b81-ab6b-fe5f4d6d66f6","system_id":"levelo_inurba_marseille","lat":43.293,"lon":5.40116,"is_reserved":false,"is_disabled":false,"rental_uris":{"android":"levelo://app?vid=1d70ec26-5c19-4b81-ab6b-fe5f4d6d66f6","ios":"levelo://app?vid=1d70ec26-5c19-4b81-ab6b-fe5f4d6d66f6"},"vehicle_type_id":"4","last_reported":1749648380,"current_range_meters":3200,"station_id":"ce4bh312rcd13ifvqdk0","pricing_plan_id":"cebpf4jnsgd1na2vs0mg"},{"bike_id":"71a6ad24-4e18-4bd8-917d-5666aa0c4d76","system_id":"levelo_inurba_marseille","lat":43.3375,"lon":5.37464,"is_reserved":false,"is_disabled":false,"rental_uris":{"android":"levelo://app?vid=71a6ad24-4e18-4bd8-917d-5666aa0c4d76","ios":"levelo://app?vid=71a6ad24-4e18-4bd8-917d-5666aa0c4d76"},"vehicle_type_id":"4","last_reported":1749648380,"current_range_meters":3200,"station_id":"","pricing_plan_id":"cebpf4jnsgd1na2vs0mg"},{"bike_id":"ffa92cd9-feea-4068-8b05-2b4ccd75d138","system_id":"levelo_inurba_marseille","lat":43.21744,"lon":5.34617,"is_reserved":false,"is_disabled":false,"rental_uris":{"android":"levelo://app?vid=ffa92cd9-feea-4068-8b05-2b4ccd75d138","ios":"levelo://app?vid=ffa92cd9-feea-4068-8b05-2b4ccd75d138"},"vehicle_type_id":"4","last_reported":1749648380,"current_range_meters":3200,"station_id":"st_cvj6r9ubvosntc0bgbag","pricing_plan_id":"cebpf4jnsgd1na2vs0mg"},{"bike_id":"37868974-e486-4620-9dc9-04ba9bf14346","system_id":"levelo_inurba_marseille","lat":43.26556,"lon":5.37289,"is_reserved":false,"is_disabled":false,"rental_uris":{"android":"levelo://app?vid=37868974-e486-4620-9dc9-04ba9bf14346","ios":"levelo://app?vid=37868974-e486-4620-9dc9-04ba9bf14346"},"vehicle_type_id":"4","last_reported":1749648380,"current_range_meters":3600,"station_id":"ce4bhg12rcd13ifvqf70","pricing_plan_id":"cebpf4jnsgd1na2vs0mg"},{"bike_id":"96679746-cd86-45f1-9e1d-23ed9d595f8e","system_id":"levelo_inurba_marseille","lat":43.2997,"lon":5.38496,"is_reserved":false,"is_disabled":false,"rental_uris":{"android":"levelo://app?vid=96679746-cd86-45f1-9e1d-23ed9d595f8e","ios":"levelo://app?vid=96679746-cd86-45f1-9e1d-23ed9d595f8e"},"vehicle_type_id":"4","last_reported":1749648380,"current_range_meters":3600,"station_id":"ce4bgj92rcd13ifvqbd0","pricing_plan_id":"cebpf4jnsgd1na2vs0mg"},{"bike_id":"ec31f33f-f9e8-47df-8188-958df10000f6","system_id":"levelo_inurba_marseille","lat":43.29575,"lon":5.38528,"is_reserved":false,"is_disabled":true,"rental_uris":{"android":"levelo://app?vid=ec31f33f-f9e8-47df-8188-958df10000f6","ios":"levelo://app?vid=ec31f33f-f9e8-47df-8188-958df10000f6"},"vehicle_type_id":"4","last_reported":1749648380,"current_range_meters":3600,"station_id":"ce4bgih2rcd13ifvqba0","pricing_plan_id":"cebpf4jnsgd1na2vs0mg"},{"bike_id":"f33e4375-1905-4b1e-b0ed-915b90896721","system_id":"levelo_inurba_marseille","lat":43.26219,"lon":5.3744,"is_reserved":false,"is_disabled":false,"rental_uris":{"android":"levelo://app?vid=f33e4375-1905-4b1e-b0ed-915b90896721","ios":"levelo://app?vid=f33e4375-1905-4b1e-b0ed-915b90896721"},"vehicle_type_id":"4","last_reported":1749648380,"current_range_meters":3600,"station_id":"ce4bhgp2rcd13ifvqfc0","pricing_plan_id":"cebpf4jnsgd1na2vs0mg"},{"bike_id":"2a84aff2-a1f5-4b75-9356-9e86b96416ff","system_id":"levelo_inurba_marseille","lat":43.255037,"lon":5.37659,"is_reserved":false,"is_disabled":false,"rental_uris":{"android":"levelo://app?vid=2a84aff2-a1f5-4b75-9356-9e86b96416ff","ios":"levelo://app?vid=2a84aff2-a1f5-4b75-9356-9e86b96416ff"},"vehicle_type_id":"4","last_reported":1749648380,"current_range_meters":3600,"station_id":"ce4bhh12rcd13ifvqff0","pricing_plan_id":"cebpf4jnsgd1na2vs0mg"},{"bike_id":"3882ff98-9f02-4672-bb5b-a157198eeb5a","system_id":"levelo_inurba_marseille","lat":43.31206,"lon":5.36832,"is_reserved":false,"is_disabled":false,"rental_uris":{"android":"levelo://app?vid=3882ff98-9f02-4672-bb5b-a157198eeb5a","ios":"levelo://app?vid=3882ff98-9f02-4672-bb5b-a157198eeb5a"},"vehicle_type_id":"4","last_reported":1749648380,"current_range_meters":4000,"station_id":"ce4bgl92rcd13ifvqbq0","pricing_plan_id":"cebpf4jnsgd1na2vs0mg"},{"bike_id":"e18a8b1d-aae1-419f-9c38-f50a5adc8e25","system_id":"levelo_inurba_marseille","lat":43.26939,"lon":5.40265,"is_reserved":false,"is_disabled":false,"rental_uris":{"android":"levelo://app?vid=e18a8b1d-aae1-419f-9c38-f50a5adc8e25","ios":"levelo://app?vid=e18a8b1d-aae1-419f-9c38-f50a5adc8e25"},"vehicle_type_id":"4","last_reported":1749648380,"current_range_meters":4400,"station_id":"cjm6bp8fraef2m0cb0m0","pricing_plan_id":"cebpf4jnsgd1na2vs0mg"},{"bike_id":"b845403d-bcfc-42b9-923f-8b22e69ac4da","system_id":"levelo_inurba_marseille","lat":43.30143,"lon":5.39874,"is_reserved":false,"is_disabled":false,"rental_uris":{"android":"levelo://app?vid=b845403d-bcfc-42b9-923f-8b22e69ac4da","ios":"levelo://app?vid=b845403d-bcfc-42b9-923f-8b22e69ac4da"},"vehicle_type_id":"4","last_reported":1749648380,"current_range_meters":4400,"station_id":"ce4bh0h2rcd13ifvqd40","pricing_plan_id":"cebpf4jnsgd1na2vs0mg"},{"bike_id":"7b362773-0916-4ea1-8a15-446d272583ce","system_id":"levelo_inurba_marseille","lat":43.23156,"lon":5.43711,"is_reserved":false,"is_disabled":false,"rental_uris":{"android":"levelo://app?vid=7b362773-0916-4ea1-8a15-446d272583ce","ios":"levelo://app?vid=7b362773-0916-4ea1-8a15-446d272583ce"},"vehicle_type_id":"4","last_reported":1749648380,"current_range_meters":4400,"station_id":"ce4bhmp2rcd13ifvqgog","pricing_plan_id":"cebpf4jnsgd1na2vs0mg"},{"bike_id":"ea291256-1cd9-4056-86b4-1b8404b37b4c","system_id":"levelo_inurba_marseille","lat":43.23964,"lon":5.3664,"is_reserved":false,"is_disabled":false,"rental_uris":{"android":"levelo://app?vid=ea291256-1cd9-4056-86b4-1b8404b37b4c","ios":"levelo://app?vid=ea291256-1cd9-4056-86b4-1b8404b37b4c"},"vehicle_type_id":"4","last_reported":1749648380,"current_range_meters":4400,"station_id":"ce4bhi12rcd13ifvqfp0","pricing_plan_id":"cebpf4jnsgd1na2vs0mg"},{"bike_id":"038f7813-def6-48e8-a004-af5f5bcf9ade","system_id":"levelo_inurba_marseille","lat":43.30544,"lon":5.36695,"is_reserved":false,"is_disabled":false,"rental_uris":{"android":"levelo://app?vid=038f7813-def6-48e8-a004-af5f5bcf9ade","ios":"levelo://app?vid=038f7813-def6-48e8-a004-af5f5bcf9ade"},"vehicle_type_id":"4","last_reported":1749648380,"current_range_meters":4800,"station_id":"ce4bgrp2rcd13ifvqc9g","pricing_plan_id":"cebpf4jnsgd1na2vs0mg"},{"bike_id":"6e63e174-177f-45b4-9993-d29e8d8f52a5","system_id":"levelo_inurba_marseille","lat":43.229937,"lon":5.354446,"is_reserved":false,"is_disabled":false,"rental_uris":{"android":"levelo://app?vid=6e63e174-177f-45b4-9993-d29e8d8f52a5","ios":"levelo://app?vid=6e63e174-177f-45b4-9993-d29e8d8f52a5"},"vehicle_type_id":"4","last_reported":1749648380,"current_range_meters":4800,"station_id":"","pricing_plan_id":"cebpf4jnsgd1na2vs0mg"},{"bike_id":"d50ded5e-5abc-4c07-af44-7e12dfeb28cc","system_id":"levelo_inurba_marseille","lat":43.29891,"lon":5.38907,"is_reserved":false,"is_disabled":false,"rental_uris":{"android":"levelo://app?vid=d50ded5e-5abc-4c07-af44-7e12dfeb28cc","ios":"levelo://app?vid=d50ded5e-5abc-4c07-af44-7e12dfeb28cc"},"vehicle_type_id":"4","last_reported":1749648380,"current_range_meters":5600,"station_id":"ce4bh392rcd13ifvqdl0","pricing_plan_id":"cebpf4jnsgd1na2vs0mg"},{"bike_id":"0a2cd4f2-b24c-4afc-88b0-5cb6f6a00646","system_id":"levelo_inurba_marseille","lat":43.24655,"lon":5.4359,"is_reserved":false,"is_disabled":true,"rental_uris":{"android":"levelo://app?vid=0a2cd4f2-b24c-4afc-88b0-5cb6f6a00646","ios":"levelo://app?vid=0a2cd4f2-b24c-4afc-88b0-5cb6f6a00646"},"vehicle_type_id":"4","last_reported":1749648380,"current_range_meters":5600,"station_id":"","pricing_plan_id":"cebpf4jnsgd1na2vs0mg"},{"bike_id":"d0760518-6f91-44c4-a7b5-000218ad5024","system_id":"levelo_inurba_marseille","lat":43.28085,"lon":5.39665,"is_reserved":false,"is_disabled":false,"rental_uris":{"android":"levelo://app?vid=d0760518-6f91-44c4-a7b5-000218ad5024","ios":"levelo://app?vid=d0760518-6f91-44c4-a7b5-000218ad5024"},"vehicle_type_id":"4","last_reported":1749648380,"current_range_meters":5600,"station_id":"ce4bho12rcd13ifvqh2g","pricing_plan_id":"cebpf4jnsgd1na2vs0mg"},{"bike_id":"f97a3f4c-4ff3-4439-bfe0-7788baade424","system_id":"levelo_inurba_marseille","lat":43.337444,"lon":5.374475,"is_reserved":false,"is_disabled":false,"rental_uris":{"android":"levelo://app?vid=f97a3f4c-4ff3-4439-bfe0-7788baade424","ios":"levelo://app?vid=f97a3f4c-4ff3-4439-bfe0-7788baade424"},"vehicle_type_id":"4","last_reported":1749648380,"current_range_meters":5600,"station_id":"","pricing_plan_id":"cebpf4jnsgd1na2vs0mg"},{"bike_id":"17cc72af-37c3-44e7-92b4-6d4786563103","system_id":"levelo_inurba_marseille","lat":43.32513,"lon":5.41415,"is_reserved":false,"is_disabled":false,"rental_uris":{"android":"levelo://app?vid=17cc72af-37c3-44e7-92b4-6d4786563103","ios":"levelo://app?vid=17cc72af-37c3-44e7-92b4-6d4786563103"},"vehicle_type_id":"4","last_reported":1749648380,"current_range_meters":6000,"station_id":"ce4bhq12rcd13ifvqhhg","pricing_plan_id":"cebpf4jnsgd1na2vs0mg"},{"bike_id":"b1a70dc7-8902-4660-9bf8-131b5a142d3b","system_id":"levelo_inurba_marseille","lat":43.27496,"lon":5.42451,"is_reserved":false,"is_disabled":false,"rental_uris":{"android":"levelo://app?vid=b1a70dc7-8902-4660-9bf8-131b5a142d3b","ios":"levelo://app?vid=b1a70dc7-8902-4660-9bf8-131b5a142d3b"},"vehicle_type_id":"4","last_reported":1749648380,"current_range_meters":6400,"station_id":"ce4bhn92rcd13ifvqgrg","pricing_plan_id":"cebpf4jnsgd1na2vs0mg"},{"bike_id":"8cf4c8bc-17ef-43a1-8370-f763103aff73","system_id":"levelo_inurba_marseille","lat":43.26561,"lon":5.3728,"is_reserved":false,"is_disabled":true,"rental_uris":{"android":"levelo://app?vid=8cf4c8bc-17ef-43a1-8370-f763103aff73","ios":"levelo://app?vid=8cf4c8bc-17ef-43a1-8370-f763103aff73"},"vehicle_type_id":"4","last_reported":1749648380,"current_range_meters":6400,"station_id":"ce4bhg12rcd13ifvqf70","pricing_plan_id":"cebpf4jnsgd1na2vs0mg"},{"bike_id":"439a2e6f-dc48-4427-a8a5-1ba35f04563b","system_id":"levelo_inurba_marseille","lat":43.31678,"lon":5.40488,"is_reserved":false,"is_disabled":false,"rental_uris":{"android":"levelo://app?vid=439a2e6f-dc48-4427-a8a5-1ba35f04563b","ios":"levelo://app?vid=439a2e6f-dc48-4427-a8a5-1ba35f04563b"},"vehicle_type_id":"4","last_reported":1749648380,"current_range_meters":6400,"station_id":"ce4bh012rcd13ifvqd00","pricing_plan_id":"cebpf4jnsgd1na2vs0mg"},{"bike_id":"39d32260-51d5-455a-ba53-6471389bd255","system_id":"levelo_inurba_marseille","lat":43.31978,"lon":5.37615,"is_reserved":false,"is_disabled":false,"rental_uris":{"android":"levelo://app?vid=39d32260-51d5-455a-ba53-6471389bd255","ios":"levelo://app?vid=39d32260-51d5-455a-ba53-6471389bd255"},"vehicle_type_id":"4","last_reported":1749648380,"current_range_meters":6400,"station_id":"","pricing_plan_id":"cebpf4jnsgd1na2vs0mg"},{"bike_id":"1e532920-9e26-4275-b7c0-535f652566f3","system_id":"levelo_inurba_marseille","lat":43.31411,"lon":5.36707,"is_reserved":false,"is_disabled":false,"rental_uris":{"android":"levelo://app?vid=1e532920-9e26-4275-b7c0-535f652566f3","ios":"levelo://app?vid=1e532920-9e26-4275-b7c0-535f652566f3"},"vehicle_type_id":"4","last_reported":1749648380,"current_range_meters":6400,"station_id":"","pricing_plan_id":"cebpf4jnsgd1na2vs0mg"},{"bike_id":"90f7336d-6866-41ff-9918-33d81980698c","system_id":"levelo_inurba_marseille","lat":43.255827,"lon":5.382253,"is_reserved":false,"is_disabled":false,"rental_uris":{"android":"levelo://app?vid=90f7336d-6866-41ff-9918-33d81980698c","ios":"levelo://app?vid=90f7336d-6866-41ff-9918-33d81980698c"},"vehicle_type_id":"4","last_reported":1749648380,"current_range_meters":6800,"station_id":"ce4bhih2rcd13ifvqfs0","pricing_plan_id":"cebpf4jnsgd1na2vs0mg"},{"bike_id":"325adbf7-3210-4f42-9fa3-23c5b94ad930","system_id":"levelo_inurba_marseille","lat":43.29619,"lon":5.371599,"is_reserved":false,"is_disabled":false,"rental_uris":{"android":"levelo://app?vid=325adbf7-3210-4f42-9fa3-23c5b94ad930","ios":"levelo://app?vid=325adbf7-3210-4f42-9fa3-23c5b94ad930"},"vehicle_type_id":"4","last_reported":1749648380,"current_range_meters":6800,"station_id":"","pricing_plan_id":"cebpf4jnsgd1na2vs0mg"},{"bike_id":"05539866-229e-4064-aaa1-6c1a1fe227da","system_id":"levelo_inurba_marseille","lat":43.25579,"lon":5.38228,"is_reserved":false,"is_disabled":false,"rental_uris":{"android":"levelo://app?vid=05539866-229e-4064-aaa1-6c1a1fe227da","ios":"levelo://app?vid=05539866-229e-4064-aaa1-6c1a1fe227da"},"vehicle_type_id":"4","last_reported":1749648380,"current_range_meters":6800,"station_id":"ce4bhih2rcd13ifvqfs0","pricing_plan_id":"cebpf4jnsgd1na2vs0mg"},{"bike_id":"e2dc6530-ead0-4d72-a45b-912ddf009d5d","system_id":"levelo_inurba_marseille","lat":43.31325,"lon":5.39697,"is_reserved":false,"is_disabled":false,"rental_uris":{"android":"levelo://app?vid=e2dc6530-ead0-4d72-a45b-912ddf009d5d","ios":"levelo://app?vid=e2dc6530-ead0-4d72-a45b-912ddf009d5d"},"vehicle_type_id":"4","last_reported":1749648380,"current_range_meters":6800,"station_id":"ce4bgvp2rcd13ifvqcu0","pricing_plan_id":"cebpf4jnsgd1na2vs0mg"},{"bike_id":"a9334c0d-cdfc-464f-8eab-e98192ed3454","system_id":"levelo_inurba_marseille","lat":43.29298,"lon":5.39936,"is_reserved":false,"is_disabled":false,"rental_uris":{"android":"levelo://app?vid=a9334c0d-cdfc-464f-8eab-e98192ed3454","ios":"levelo://app?vid=a9334c0d-cdfc-464f-8eab-e98192ed3454"},"vehicle_type_id":"4","last_reported":1749648380,"current_range_meters":7200,"station_id":"","pricing_plan_id":"cebpf4jnsgd1na2vs0mg"},{"bike_id":"4f695435-2b3e-492f-8337-02a689dd5175","system_id":"levelo_inurba_marseille","lat":43.29268,"lon":5.38437,"is_reserved":false,"is_disabled":false,"rental_uris":{"android":"levelo://app?vid=4f695435-2b3e-492f-8337-02a689dd5175","ios":"levelo://app?vid=4f695435-2b3e-492f-8337-02a689dd5175"},"vehicle_type_id":"4","last_reported":1749648380,"current_range_meters":7200,"station_id":"ce4bh692rcd13ifvqea0","pricing_plan_id":"cebpf4jnsgd1na2vs0mg"},{"bike_id":"2b0f3216-d2ce-4f9b-854b-e99f1c2f2aa5","system_id":"levelo_inurba_marseille","lat":43.27817,"lon":5.40707,"is_reserved":false,"is_disabled":false,"rental_uris":{"android":"levelo://app?vid=2b0f3216-d2ce-4f9b-854b-e99f1c2f2aa5","ios":"levelo://app?vid=2b0f3216-d2ce-4f9b-854b-e99f1c2f2aa5"},"vehicle_type_id":"4","last_reported":1749648380,"current_range_meters":7200,"station_id":"ce4bhnh2rcd13ifvqgtg","pricing_plan_id":"cebpf4jnsgd1na2vs0mg"},{"bike_id":"edb2fba3-972d-4f3f-a8ac-8e66a7c522ad","system_id":"levelo_inurba_marseille","lat":43.27929,"lon":5.38035,"is_reserved":false,"is_disabled":false,"rental_uris":{"android":"levelo://app?vid=edb2fba3-972d-4f3f-a8ac-8e66a7c522ad","ios":"levelo://app?vid=edb2fba3-972d-4f3f-a8ac-8e66a7c522ad"},"vehicle_type_id":"4","last_reported":1749648380,"current_range_meters":7200,"station_id":"ce4bhf92rcd13ifvqf50","pricing_plan_id":"cebpf4jnsgd1na2vs0mg"},{"bike_id":"49dbc43d-dbaf-416b-943b-7592c70b9aab","system_id":"levelo_inurba_marseille","lat":43.30647,"lon":5.40078,"is_reserved":false,"is_disabled":false,"rental_uris":{"android":"levelo://app?vid=49dbc43d-dbaf-416b-943b-7592c70b9aab","ios":"levelo://app?vid=49dbc43d-dbaf-416b-943b-7592c70b9aab"},"vehicle_type_id":"4","last_reported":1749648380,"current_range_meters":7200,"station_id":"ce4bh112rcd13ifvqda0","pricing_plan_id":"cebpf4jnsgd1na2vs0mg"},{"bike_id":"125bd855-10ed-4a56-9707-403f3a8b58a0","system_id":"levelo_inurba_marseille","lat":43.33052,"lon":5.4044,"is_reserved":false,"is_disabled":false,"rental_uris":{"android":"levelo://app?vid=125bd855-10ed-4a56-9707-403f3a8b58a0","ios":"levelo://app?vid=125bd855-10ed-4a56-9707-403f3a8b58a0"},"vehicle_type_id":"4","last_reported":1749648380,"current_range_meters":7200,"station_id":"","pricing_plan_id":"cebpf4jnsgd1na2vs0mg"},{"bike_id":"02d5ce66-7aab-4804-ad85-35e9488567ec","system_id":"levelo_inurba_marseille","lat":43.26937,"lon":5.40257,"is_reserved":false,"is_disabled":false,"rental_uris":{"android":"levelo://app?vid=02d5ce66-7aab-4804-ad85-35e9488567ec","ios":"levelo://app?vid=02d5ce66-7aab-4804-ad85-35e9488567ec"},"vehicle_type_id":"4","last_reported":1749648380,"current_range_meters":7200,"station_id":"cjm6bp8fraef2m0cb0m0","pricing_plan_id":"cebpf4jnsgd1na2vs0mg"},{"bike_id":"a6b06eee-c99e-4aff-9489-78f0c485688a","system_id":"levelo_inurba_marseille","lat":43.30147,"lon":5.3742,"is_reserved":false,"is_disabled":false,"rental_uris":{"android":"levelo://app?vid=a6b06eee-c99e-4aff-9489-78f0c485688a","ios":"levelo://app?vid=a6b06eee-c99e-4aff-9489-78f0c485688a"},"vehicle_type_id":"4","last_reported":1749648380,"current_range_meters":8000,"station_id":"ce4bgs92rcd13ifvqcc0","pricing_plan_id":"cebpf4jnsgd1na2vs0mg"},{"bike_id":"852b8ed7-b6d1-430c-9313-3b7af5120209","system_id":"levelo_inurba_marseille","lat":43.23186,"lon":5.39995,"is_reserved":false,"is_disabled":false,"rental_uris":{"android":"levelo://app?vid=852b8ed7-b6d1-430c-9313-3b7af5120209","ios":"levelo://app?vid=852b8ed7-b6d1-430c-9313-3b7af5120209"},"vehicle_type_id":"4","last_reported":1749648380,"current_range_meters":8000,"station_id":"ce4bhn12rcd13ifvqgqg","pricing_plan_id":"cebpf4jnsgd1na2vs0mg"},{"bike_id":"4165c93c-2412-4170-aa75-3d5f983a804e","system_id":"levelo_inurba_marseille","lat":43.27908,"lon":5.38035,"is_reserved":false,"is_disabled":false,"rental_uris":{"android":"levelo://app?vid=4165c93c-2412-4170-aa75-3d5f983a804e","ios":"levelo://app?vid=4165c93c-2412-4170-aa75-3d5f983a804e"},"vehicle_type_id":"4","last_reported":1749648380,"current_range_meters":8000,"station_id":"ce4bhf92rcd13ifvqf50","pricing_plan_id":"cebpf4jnsgd1na2vs0mg"},{"bike_id":"5a89f8df-2794-4475-a5e9-59c9a6a61af2","system_id":"levelo_inurba_marseille","lat":43.29897,"lon":5.38897,"is_reserved":false,"is_disabled":false,"rental_uris":{"android":"levelo://app?vid=5a89f8df-2794-4475-a5e9-59c9a6a61af2","ios":"levelo://app?vid=5a89f8df-2794-4475-a5e9-59c9a6a61af2"},"vehicle_type_id":"4","last_reported":1749648380,"current_range_meters":8000,"station_id":"ce4bh392rcd13ifvqdl0","pricing_plan_id":"cebpf4jnsgd1na2vs0mg"},{"bike_id":"00793cc7-3aa4-4db5-b4eb-b976b8442b97","system_id":"levelo_inurba_marseille","lat":43.30802,"lon":5.435192,"is_reserved":false,"is_disabled":false,"rental_uris":{"android":"levelo://app?vid=00793cc7-3aa4-4db5-b4eb-b976b8442b97","ios":"levelo://app?vid=00793cc7-3aa4-4db5-b4eb-b976b8442b97"},"vehicle_type_id":"4","last_reported":1749648380,"current_range_meters":8400,"station_id":"ce4bhph2rcd13ifvqheg","pricing_plan_id":"cebpf4jnsgd1na2vs0mg"},{"bike_id":"7591d4b0-84bc-42c3-92d0-7d8ab57c0843","system_id":"levelo_inurba_marseille","lat":43.23196,"lon":5.35563,"is_reserved":false,"is_disabled":false,"rental_uris":{"android":"levelo://app?vid=7591d4b0-84bc-42c3-92d0-7d8ab57c0843","ios":"levelo://app?vid=7591d4b0-84bc-42c3-92d0-7d8ab57c0843"},"vehicle_type_id":"4","last_reported":1749648380,"current_range_meters":8400,"station_id":"ce4bhu92rcd13ifvqi70","pricing_plan_id":"cebpf4jnsgd1na2vs0mg"},{"bike_id":"5077581b-cebb-46fc-ba69-4fa8272d4810","system_id":"levelo_inurba_marseille","lat":43.21364,"lon":5.3553,"is_reserved":false,"is_disabled":false,"rental_uris":{"android":"levelo://app?vid=5077581b-cebb-46fc-ba69-4fa8272d4810","ios":"levelo://app?vid=5077581b-cebb-46fc-ba69-4fa8272d4810"},"vehicle_type_id":"4","last_reported":1749648380,"current_range_meters":8400,"station_id":"","pricing_plan_id":"cebpf4jnsgd1na2vs0mg"},{"bike_id":"067e2ee8-1101-4b3d-8f2a-2f3961754b72","system_id":"levelo_inurba_marseille","lat":43.25943,"lon":5.40915,"is_reserved":false,"is_disabled":false,"rental_uris":{"android":"levelo://app?vid=067e2ee8-1101-4b3d-8f2a-2f3961754b72","ios":"levelo://app?vid=067e2ee8-1101-4b3d-8f2a-2f3961754b72"},"vehicle_type_id":"4","last_reported":1749648380,"current_range_meters":8400,"station_id":"ce4bhm92rcd13ifvqglg","pricing_plan_id":"cebpf4jnsgd1na2vs0mg"},{"bike_id":"259b3bb7-470d-4511-af68-f5ff118b0b70","system_id":"levelo_inurba_marseille","lat":43.33013,"lon":5.39055,"is_reserved":false,"is_disabled":false,"rental_uris":{"android":"levelo://app?vid=259b3bb7-470d-4511-af68-f5ff118b0b70","ios":"levelo://app?vid=259b3bb7-470d-4511-af68-f5ff118b0b70"},"vehicle_type_id":"4","last_reported":1749648380,"current_range_meters":8400,"station_id":"ce4bhr92rcd13ifvqhrg","pricing_plan_id":"cebpf4jnsgd1na2vs0mg"},{"bike_id":"18759061-77d6-468f-98a8-b5bab7d472b0","system_id":"levelo_inurba_marseille","lat":43.26576,"lon":5.390197,"is_reserved":false,"is_disabled":true,"rental_uris":{"android":"levelo://app?vid=18759061-77d6-468f-98a8-b5bab7d472b0","ios":"levelo://app?vid=18759061-77d6-468f-98a8-b5bab7d472b0"},"vehicle_type_id":"4","last_reported":1749648380,"current_range_meters":8400,"station_id":"ce4bhe12rcd13ifvqf30","pricing_plan_id":"cebpf4jnsgd1na2vs0mg"},{"bike_id":"4b98a87b-5ab9-41c3-9df9-d79dd08be178","system_id":"levelo_inurba_marseille","lat":43.28275,"lon":5.35078,"is_reserved":false,"is_disabled":false,"rental_uris":{"android":"levelo://app?vid=4b98a87b-5ab9-41c3-9df9-d79dd08be178","ios":"levelo://app?vid=4b98a87b-5ab9-41c3-9df9-d79dd08be178"},"vehicle_type_id":"4","last_reported":1749648380,"current_range_meters":8400,"station_id":"ce4bhbp2rcd13ifvqerg","pricing_plan_id":"cebpf4jnsgd1na2vs0mg"},{"bike_id":"02877201-62c7-4b90-8a41-c501f68b8b87","system_id":"levelo_inurba_marseille","lat":43.30444,"lon":5.38899,"is_reserved":false,"is_disabled":false,"rental_uris":{"android":"levelo://app?vid=02877201-62c7-4b90-8a41-c501f68b8b87","ios":"levelo://app?vid=02877201-62c7-4b90-8a41-c501f68b8b87"},"vehicle_type_id":"4","last_reported":1749648380,"current_range_meters":8400,"station_id":"ce4bgk12rcd13ifvqbi0","pricing_plan_id":"cebpf4jnsgd1na2vs0mg"},{"bike_id":"2c5e912a-9bf1-45bf-b537-d36687785c87","system_id":"levelo_inurba_marseille","lat":43.30934,"lon":5.40152,"is_reserved":false,"is_disabled":false,"rental_uris":{"android":"levelo://app?vid=2c5e912a-9bf1-45bf-b537-d36687785c87","ios":"levelo://app?vid=2c5e912a-9bf1-45bf-b537-d36687785c87"},"vehicle_type_id":"4","last_reported":1749648380,"current_range_meters":8400,"station_id":"ce4bgvp2rcd13ifvqct0","pricing_plan_id":"cebpf4jnsgd1na2vs0mg"},{"bike_id":"39e4ced0-1d75-41fa-91b0-35be47ec02f3","system_id":"levelo_inurba_marseille","lat":43.29172,"lon":5.37169,"is_reserved":false,"is_disabled":false,"rental_uris":{"android":"levelo://app?vid=39e4ced0-1d75-41fa-91b0-35be47ec02f3","ios":"levelo://app?vid=39e4ced0-1d75-41fa-91b0-35be47ec02f3"},"vehicle_type_id":"4","last_reported":1749648380,"current_range_meters":8400,"station_id":"ce4bha92rcd13ifvqeh0","pricing_plan_id":"cebpf4jnsgd1na2vs0mg"},{"bike_id":"3cc6e8ad-9bf5-42e2-b7b1-5099067732f4","system_id":"levelo_inurba_marseille","lat":43.232,"lon":5.40037,"is_reserved":false,"is_disabled":false,"rental_uris":{"android":"levelo://app?vid=3cc6e8ad-9bf5-42e2-b7b1-5099067732f4","ios":"levelo://app?vid=3cc6e8ad-9bf5-42e2-b7b1-5099067732f4"},"vehicle_type_id":"4","last_reported":1749648380,"current_range_meters":8400,"station_id":"ce4bhn12rcd13ifvqgqg","pricing_plan_id":"cebpf4jnsgd1na2vs0mg"},{"bike_id":"3c9102a1-e58f-4d92-8c91-e11b2d691a11","system_id":"levelo_inurba_marseille","lat":43.23957,"lon":5.36642,"is_reserved":false,"is_disabled":false,"rental_uris":{"android":"levelo://app?vid=3c9102a1-e58f-4d92-8c91-e11b2d691a11","ios":"levelo://app?vid=3c9102a1-e58f-4d92-8c91-e11b2d691a11"},"vehicle_type_id":"4","last_reported":1749648380,"current_range_meters":8800,"station_id":"ce4bhi12rcd13ifvqfp0","pricing_plan_id":"cebpf4jnsgd1na2vs0mg"},{"bike_id":"fb7a0414-68de-4bcf-a069-8b76b50de836","system_id":"levelo_inurba_marseille","lat":43.2593,"lon":5.40905,"is_reserved":false,"is_disabled":false,"rental_uris":{"android":"levelo://app?vid=fb7a0414-68de-4bcf-a069-8b76b50de836","ios":"levelo://app?vid=fb7a0414-68de-4bcf-a069-8b76b50de836"},"vehicle_type_id":"4","last_reported":1749648380,"current_range_meters":8800,"station_id":"ce4bhm92rcd13ifvqglg","pricing_plan_id":"cebpf4jnsgd1na2vs0mg"},{"bike_id":"ca27e12a-1f2d-4cf2-be29-12a2b9ff1547","system_id":"levelo_inurba_marseille","lat":43.31728,"lon":5.42423,"is_reserved":false,"is_disabled":false,"rental_uris":{"android":"levelo://app?vid=ca27e12a-1f2d-4cf2-be29-12a2b9ff1547","ios":"levelo://app?vid=ca27e12a-1f2d-4cf2-be29-12a2b9ff1547"},"vehicle_type_id":"4","last_reported":1749648380,"current_range_meters":8800,"station_id":"ce4bhp92rcd13ifvqhbg","pricing_plan_id":"cebpf4jnsgd1na2vs0mg"},{"bike_id":"ad5fea89-943a-4619-9edc-0ace3e829ee1","system_id":"levelo_inurba_marseille","lat":43.32503,"lon":5.41461,"is_reserved":false,"is_disabled":false,"rental_uris":{"android":"levelo://app?vid=ad5fea89-943a-4619-9edc-0ace3e829ee1","ios":"levelo://app?vid=ad5fea89-943a-4619-9edc-0ace3e829ee1"},"vehicle_type_id":"4","last_reported":1749648380,"current_range_meters":9200,"station_id":"ce4bhq12rcd13ifvqhhg","pricing_plan_id":"cebpf4jnsgd1na2vs0mg"},{"bike_id":"181f8844-7b90-4d67-99db-74be5a8afaa0","system_id":"levelo_inurba_marseille","lat":43.26806,"lon":5.40271,"is_reserved":false,"is_disabled":false,"rental_uris":{"android":"levelo://app?vid=181f8844-7b90-4d67-99db-74be5a8afaa0","ios":"levelo://app?vid=181f8844-7b90-4d67-99db-74be5a8afaa0"},"vehicle_type_id":"4","last_reported":1749648380,"current_range_meters":9200,"station_id":"ce501612rcd8frsf0b60","pricing_plan_id":"cebpf4jnsgd1na2vs0mg"},{"bike_id":"70ff7a7a-411c-46cd-a06b-5a2d94e4bb0b","system_id":"levelo_inurba_marseille","lat":43.29971,"lon":5.38489,"is_reserved":false,"is_disabled":false,"rental_uris":{"android":"levelo://app?vid=70ff7a7a-411c-46cd-a06b-5a2d94e4bb0b","ios":"levelo://app?vid=70ff7a7a-411c-46cd-a06b-5a2d94e4bb0b"},"vehicle_type_id":"4","last_reported":1749648380,"current_range_meters":9200,"station_id":"ce4bgj92rcd13ifvqbd0","pricing_plan_id":"cebpf4jnsgd1na2vs0mg"},{"bike_id":"57ae981b-f992-4b9e-bd1e-447b95ce922f","system_id":"levelo_inurba_marseille","lat":43.30726,"lon":5.38044,"is_reserved":false,"is_disabled":false,"rental_uris":{"android":"levelo://app?vid=57ae981b-f992-4b9e-bd1e-447b95ce922f","ios":"levelo://app?vid=57ae981b-f992-4b9e-bd1e-447b95ce922f"},"vehicle_type_id":"4","last_reported":1749648380,"current_range_meters":9200,"station_id":"","pricing_plan_id":"cebpf4jnsgd1na2vs0mg"},{"bike_id":"ab5d796b-6f87-4b6e-a5bd-6ac051fcacd1","system_id":"levelo_inurba_marseille","lat":43.325,"lon":5.36551,"is_reserved":false,"is_disabled":false,"rental_uris":{"android":"levelo://app?vid=ab5d796b-6f87-4b6e-a5bd-6ac051fcacd1","ios":"levelo://app?vid=ab5d796b-6f87-4b6e-a5bd-6ac051fcacd1"},"vehicle_type_id":"4","last_reported":1749648380,"current_range_meters":9200,"station_id":"ce4bhs12rcd13ifvqhvg","pricing_plan_id":"cebpf4jnsgd1na2vs0mg"},{"bike_id":"8505f0e2-0d82-47e4-9196-8131df97e672","system_id":"levelo_inurba_marseille","lat":43.29261,"lon":5.40909,"is_reserved":false,"is_disabled":false,"rental_uris":{"android":"levelo://app?vid=8505f0e2-0d82-47e4-9196-8131df97e672","ios":"levelo://app?vid=8505f0e2-0d82-47e4-9196-8131df97e672"},"vehicle_type_id":"4","last_reported":1749648380,"current_range_meters":9200,"station_id":"ce4bh192rcd13ifvqdc0","pricing_plan_id":"cebpf4jnsgd1na2vs0mg"},{"bike_id":"1e20f032-0f6a-40b2-ad29-e4d2225496fa","system_id":"levelo_inurba_marseille","lat":43.337444,"lon":5.374475,"is_reserved":false,"is_disabled":false,"rental_uris":{"android":"levelo://app?vid=1e20f032-0f6a-40b2-ad29-e4d2225496fa","ios":"levelo://app?vid=1e20f032-0f6a-40b2-ad29-e4d2225496fa"},"vehicle_type_id":"4","last_reported":1749648380,"current_range_meters":9600,"station_id":"","pricing_plan_id":"cebpf4jnsgd1na2vs0mg"},{"bike_id":"f099f1d3-8f7a-4cc3-a178-0fbb1ea0f192","system_id":"levelo_inurba_marseille","lat":43.29028,"lon":5.38141,"is_reserved":false,"is_disabled":true,"rental_uris":{"android":"levelo://app?vid=f099f1d3-8f7a-4cc3-a178-0fbb1ea0f192","ios":"levelo://app?vid=f099f1d3-8f7a-4cc3-a178-0fbb1ea0f192"},"vehicle_type_id":"4","last_reported":1749648380,"current_range_meters":9600,"station_id":"ce4bh4p2rcd13ifvqe1g","pricing_plan_id":"cebpf4jnsgd1na2vs0mg"},{"bike_id":"a5d8bf67-e00f-4b3f-8720-d6497651122a","system_id":"levelo_inurba_marseille","lat":43.28427,"lon":5.34991,"is_reserved":false,"is_disabled":false,"rental_uris":{"android":"levelo://app?vid=a5d8bf67-e00f-4b3f-8720-d6497651122a","ios":"levelo://app?vid=a5d8bf67-e00f-4b3f-8720-d6497651122a"},"vehicle_type_id":"4","last_reported":1749648380,"current_range_meters":10000,"station_id":"ce4bhbh2rcd13ifvqepg","pricing_plan_id":"cebpf4jnsgd1na2vs0mg"},{"bike_id":"fb095f36-f1ca-472b-aaa4-1e734df1fb46","system_id":"levelo_inurba_marseille","lat":43.29908,"lon":5.37474,"is_reserved":false,"is_disabled":false,"rental_uris":{"android":"levelo://app?vid=fb095f36-f1ca-472b-aaa4-1e734df1fb46","ios":"levelo://app?vid=fb095f36-f1ca-472b-aaa4-1e734df1fb46"},"vehicle_type_id":"4","last_reported":1749648380,"current_range_meters":10000,"station_id":"ce4bgjh2rcd13ifvqbg0","pricing_plan_id":"cebpf4jnsgd1na2vs0mg"},{"bike_id":"faaacfeb-ef95-41fc-98c5-e11e51369270","system_id":"levelo_inurba_marseille","lat":43.25926,"lon":5.40891,"is_reserved":false,"is_disabled":false,"rental_uris":{"android":"levelo://app?vid=faaacfeb-ef95-41fc-98c5-e11e51369270","ios":"levelo://app?vid=faaacfeb-ef95-41fc-98c5-e11e51369270"},"vehicle_type_id":"4","last_reported":1749648380,"current_range_meters":10000,"station_id":"ce4bhm92rcd13ifvqglg","pricing_plan_id":"cebpf4jnsgd1na2vs0mg"},{"bike_id":"f433c06d-205b-48f7-a7ec-92dfc73f7ba2","system_id":"levelo_inurba_marseille","lat":43.31329,"lon":5.39689,"is_reserved":false,"is_disabled":false,"rental_uris":{"android":"levelo://app?vid=f433c06d-205b-48f7-a7ec-92dfc73f7ba2","ios":"levelo://app?vid=f433c06d-205b-48f7-a7ec-92dfc73f7ba2"},"vehicle_type_id":"4","last_reported":1749648380,"current_range_meters":9600,"station_id":"ce4bgvp2rcd13ifvqcu0","pricing_plan_id":"cebpf4jnsgd1na2vs0mg"},{"bike_id":"c80dfd21-5467-4a88-80e2-58ce33356a33","system_id":"levelo_inurba_marseille","lat":43.26488,"lon":5.39558,"is_reserved":false,"is_disabled":false,"rental_uris":{"android":"levelo://app?vid=c80dfd21-5467-4a88-80e2-58ce33356a33","ios":"levelo://app?vid=c80dfd21-5467-4a88-80e2-58ce33356a33"},"vehicle_type_id":"4","last_reported":1749648380,"current_range_meters":10000,"station_id":"ce4bhi12rcd13ifvqfq0","pricing_plan_id":"cebpf4jnsgd1na2vs0mg"},{"bike_id":"14257a63-b996-4ed4-ad15-5919c9c559e3","system_id":"levelo_inurba_marseille","lat":43.3209,"lon":5.36783,"is_reserved":false,"is_disabled":false,"rental_uris":{"android":"levelo://app?vid=14257a63-b996-4ed4-ad15-5919c9c559e3","ios":"levelo://app?vid=14257a63-b996-4ed4-ad15-5919c9c559e3"},"vehicle_type_id":"4","last_reported":1749648380,"current_range_meters":10000,"station_id":"ce4bhrh2rcd13ifvqhug","pricing_plan_id":"cebpf4jnsgd1na2vs0mg"},{"bike_id":"4005c274-b967-4005-810c-42c83ca88050","system_id":"levelo_inurba_marseille","lat":43.29096,"lon":5.38151,"is_reserved":false,"is_disabled":true,"rental_uris":{"android":"levelo://app?vid=4005c274-b967-4005-810c-42c83ca88050","ios":"levelo://app?vid=4005c274-b967-4005-810c-42c83ca88050"},"vehicle_type_id":"4","last_reported":1749648380,"current_range_meters":10800,"station_id":"ce4bh512rcd13ifvqe2g","pricing_plan_id":"cebpf4jnsgd1na2vs0mg"},{"bike_id":"f5db53c2-39c8-4781-b30f-b57c98968b37","system_id":"levelo_inurba_marseille","lat":43.2942,"lon":5.38598,"is_reserved":false,"is_disabled":true,"rental_uris":{"android":"levelo://app?vid=f5db53c2-39c8-4781-b30f-b57c98968b37","ios":"levelo://app?vid=f5db53c2-39c8-4781-b30f-b57c98968b37"},"vehicle_type_id":"4","last_reported":1749648380,"current_range_meters":10800,"station_id":"ce4bh2h2rcd13ifvqdh0","pricing_plan_id":"cebpf4jnsgd1na2vs0mg"},{"bike_id":"acecc9dd-9f66-4fc9-b678-7dfbfc49612a","system_id":"levelo_inurba_marseille","lat":43.30366,"lon":5.42489,"is_reserved":false,"is_disabled":false,"rental_uris":{"android":"levelo://app?vid=acecc9dd-9f66-4fc9-b678-7dfbfc49612a","ios":"levelo://app?vid=acecc9dd-9f66-4fc9-b678-7dfbfc49612a"},"vehicle_type_id":"4","last_reported":1749648380,"current_range_meters":10800,"station_id":"ce4bhoh2rcd13ifvqh6g","pricing_plan_id":"cebpf4jnsgd1na2vs0mg"},{"bike_id":"7c36ab5f-1606-4972-98b7-432569989cba","system_id":"levelo_inurba_marseille","lat":43.32365,"lon":5.38883,"is_reserved":false,"is_disabled":false,"rental_uris":{"android":"levelo://app?vid=7c36ab5f-1606-4972-98b7-432569989cba","ios":"levelo://app?vid=7c36ab5f-1606-4972-98b7-432569989cba"},"vehicle_type_id":"4","last_reported":1749648380,"current_range_meters":10800,"station_id":"ce4bhqp2rcd13ifvqhog","pricing_plan_id":"cebpf4jnsgd1na2vs0mg"},{"bike_id":"5ffc5d75-9066-40cf-9730-75b3d557a59f","system_id":"levelo_inurba_marseille","lat":43.29911,"lon":5.37852,"is_reserved":false,"is_disabled":false,"rental_uris":{"android":"levelo://app?vid=5ffc5d75-9066-40cf-9730-75b3d557a59f","ios":"levelo://app?vid=5ffc5d75-9066-40cf-9730-75b3d557a59f"},"vehicle_type_id":"4","last_reported":1749648380,"current_range_meters":10800,"station_id":"","pricing_plan_id":"cebpf4jnsgd1na2vs0mg"},{"bike_id":"551c8a51-1127-4498-8e9e-45f78540722f","system_id":"levelo_inurba_marseille","lat":43.30955,"lon":5.40153,"is_reserved":false,"is_disabled":false,"rental_uris":{"android":"levelo://app?vid=551c8a51-1127-4498-8e9e-45f78540722f","ios":"levelo://app?vid=551c8a51-1127-4498-8e9e-45f78540722f"},"vehicle_type_id":"4","last_reported":1749648380,"current_range_meters":10800,"station_id":"ce4bgvp2rcd13ifvqct0","pricing_plan_id":"cebpf4jnsgd1na2vs0mg"},{"bike_id":"262903a9-22b9-4b2d-96c2-2e5dbd155090","system_id":"levelo_inurba_marseille","lat":43.32552,"lon":5.36558,"is_reserved":false,"is_disabled":false,"rental_uris":{"android":"levelo://app?vid=262903a9-22b9-4b2d-96c2-2e5dbd155090","ios":"levelo://app?vid=262903a9-22b9-4b2d-96c2-2e5dbd155090"},"vehicle_type_id":"4","last_reported":1749648380,"current_range_meters":11200,"station_id":"","pricing_plan_id":"cebpf4jnsgd1na2vs0mg"},{"bike_id":"a6a9aa78-7299-47ac-a784-76282a099506","system_id":"levelo_inurba_marseille","lat":43.30152,"lon":5.380971,"is_reserved":false,"is_disabled":true,"rental_uris":{"android":"levelo://app?vid=a6a9aa78-7299-47ac-a784-76282a099506","ios":"levelo://app?vid=a6a9aa78-7299-47ac-a784-76282a099506"},"vehicle_type_id":"4","last_reported":1749648380,"current_range_meters":11200,"station_id":"ce4bgjp2rcd13ifvqbh0","pricing_plan_id":"cebpf4jnsgd1na2vs0mg"},{"bike_id":"aa997fc4-d4c8-4f68-a4ae-fc9375bc6000","system_id":"levelo_inurba_marseille","lat":43.30329,"lon":5.40432,"is_reserved":false,"is_disabled":false,"rental_uris":{"android":"levelo://app?vid=aa997fc4-d4c8-4f68-a4ae-fc9375bc6000","ios":"levelo://app?vid=aa997fc4-d4c8-4f68-a4ae-fc9375bc6000"},"vehicle_type_id":"4","last_reported":1749648380,"current_range_meters":10800,"station_id":"ce4bh012rcd13ifvqd10","pricing_plan_id":"cebpf4jnsgd1na2vs0mg"},{"bike_id":"84f5a926-1dd6-4535-b647-2764ce0ca103","system_id":"levelo_inurba_marseille","lat":43.32136,"lon":5.36786,"is_reserved":false,"is_disabled":false,"rental_uris":{"android":"levelo://app?vid=84f5a926-1dd6-4535-b647-2764ce0ca103","ios":"levelo://app?vid=84f5a926-1dd6-4535-b647-2764ce0ca103"},"vehicle_type_id":"4","last_reported":1749648380,"current_range_meters":11200,"station_id":"ce4bhrh2rcd13ifvqhug","pricing_plan_id":"cebpf4jnsgd1na2vs0mg"},{"bike_id":"92337612-8df0-4273-b64e-aee5982aa9ae","system_id":"levelo_inurba_marseille","lat":43.27211,"lon":5.39186,"is_reserved":false,"is_disabled":false,"rental_uris":{"android":"levelo://app?vid=92337612-8df0-4273-b64e-aee5982aa9ae","ios":"levelo://app?vid=92337612-8df0-4273-b64e-aee5982aa9ae"},"vehicle_type_id":"4","last_reported":1749648380,"current_range_meters":10800,"station_id":"ce4bhhp2rcd13ifvqfm0","pricing_plan_id":"cebpf4jnsgd1na2vs0mg"},{"bike_id":"0eaf7cad-662f-47e6-9ec1-0ab9fca6cbf2","system_id":"levelo_inurba_marseille","lat":43.282593,"lon":5.350591,"is_reserved":false,"is_disabled":false,"rental_uris":{"android":"levelo://app?vid=0eaf7cad-662f-47e6-9ec1-0ab9fca6cbf2","ios":"levelo://app?vid=0eaf7cad-662f-47e6-9ec1-0ab9fca6cbf2"},"vehicle_type_id":"4","last_reported":1749648380,"current_range_meters":11200,"station_id":"ce4bhbp2rcd13ifvqerg","pricing_plan_id":"cebpf4jnsgd1na2vs0mg"},{"bike_id":"03200272-6c7b-4609-8d39-c1d1afa08f38","system_id":"levelo_inurba_marseille","lat":43.29582,"lon":5.36751,"is_reserved":false,"is_disabled":false,"rental_uris":{"android":"levelo://app?vid=03200272-6c7b-4609-8d39-c1d1afa08f38","ios":"levelo://app?vid=03200272-6c7b-4609-8d39-c1d1afa08f38"},"vehicle_type_id":"4","last_reported":1749648380,"current_range_meters":11200,"station_id":"ce4bgph2rcd13ifvqc2g","pricing_plan_id":"cebpf4jnsgd1na2vs0mg"},{"bike_id":"408ea359-9b87-40fe-bedf-c7ce11c65456","system_id":"levelo_inurba_marseille","lat":43.29635,"lon":5.37165,"is_reserved":false,"is_disabled":false,"rental_uris":{"android":"levelo://app?vid=408ea359-9b87-40fe-bedf-c7ce11c65456","ios":"levelo://app?vid=408ea359-9b87-40fe-bedf-c7ce11c65456"},"vehicle_type_id":"4","last_reported":1749648380,"current_range_meters":11600,"station_id":"ce4bgnh2rcd13ifvqc0g","pricing_plan_id":"cebpf4jnsgd1na2vs0mg"},{"bike_id":"2e7bcf76-77eb-42a2-9ae3-8c7b16b8103f","system_id":"levelo_inurba_marseille","lat":43.32104,"lon":5.36809,"is_reserved":false,"is_disabled":false,"rental_uris":{"android":"levelo://app?vid=2e7bcf76-77eb-42a2-9ae3-8c7b16b8103f","ios":"levelo://app?vid=2e7bcf76-77eb-42a2-9ae3-8c7b16b8103f"},"vehicle_type_id":"4","last_reported":1749648380,"current_range_meters":11600,"station_id":"ce4bhrh2rcd13ifvqhug","pricing_plan_id":"cebpf4jnsgd1na2vs0mg"},{"bike_id":"4220c3f1-dd96-4f3e-a186-336464ef48f9","system_id":"levelo_inurba_marseille","lat":43.28434,"lon":5.34995,"is_reserved":false,"is_disabled":false,"rental_uris":{"android":"levelo://app?vid=4220c3f1-dd96-4f3e-a186-336464ef48f9","ios":"levelo://app?vid=4220c3f1-dd96-4f3e-a186-336464ef48f9"},"vehicle_type_id":"4","last_reported":1749648380,"current_range_meters":11600,"station_id":"ce4bhbh2rcd13ifvqepg","pricing_plan_id":"cebpf4jnsgd1na2vs0mg"},{"bike_id":"5fc99e29-f5eb-4b0e-954a-040e7002271e","system_id":"levelo_inurba_marseille","lat":43.27381,"lon":5.36257,"is_reserved":false,"is_disabled":false,"rental_uris":{"android":"levelo://app?vid=5fc99e29-f5eb-4b0e-954a-040e7002271e","ios":"levelo://app?vid=5fc99e29-f5eb-4b0e-954a-040e7002271e"},"vehicle_type_id":"4","last_reported":1749648380,"current_range_meters":12000,"station_id":"ce4bhbh2rcd13ifvqeo0","pricing_plan_id":"cebpf4jnsgd1na2vs0mg"},{"bike_id":"41f1e400-799d-4f1c-a1c9-a962b78b8943","system_id":"levelo_inurba_marseille","lat":43.27382,"lon":5.3625,"is_reserved":false,"is_disabled":false,"rental_uris":{"android":"levelo://app?vid=41f1e400-799d-4f1c-a1c9-a962b78b8943","ios":"levelo://app?vid=41f1e400-799d-4f1c-a1c9-a962b78b8943"},"vehicle_type_id":"4","last_reported":1749648380,"current_range_meters":12000,"station_id":"ce4bhbh2rcd13ifvqeo0","pricing_plan_id":"cebpf4jnsgd1na2vs0mg"},{"bike_id":"b4e5bd5b-7335-4d47-8807-e22ca871e57c","system_id":"levelo_inurba_marseille","lat":43.22935,"lon":5.35379,"is_reserved":false,"is_disabled":false,"rental_uris":{"android":"levelo://app?vid=b4e5bd5b-7335-4d47-8807-e22ca871e57c","ios":"levelo://app?vid=b4e5bd5b-7335-4d47-8807-e22ca871e57c"},"vehicle_type_id":"4","last_reported":1749648380,"current_range_meters":12400,"station_id":"cpo3532slgdg3j2ikp40","pricing_plan_id":"cebpf4jnsgd1na2vs0mg"},{"bike_id":"22d21c56-a346-4acf-a809-2670b2f506e8","system_id":"levelo_inurba_marseille","lat":43.279974,"lon":5.400193,"is_reserved":false,"is_disabled":false,"rental_uris":{"android":"levelo://app?vid=22d21c56-a346-4acf-a809-2670b2f506e8","ios":"levelo://app?vid=22d21c56-a346-4acf-a809-2670b2f506e8"},"vehicle_type_id":"4","last_reported":1749648380,"current_range_meters":12400,"station_id":"ce4bho92rcd13ifvqh4g","pricing_plan_id":"cebpf4jnsgd1na2vs0mg"},{"bike_id":"72a15444-09ce-4af3-9214-29aec0979b91","system_id":"levelo_inurba_marseille","lat":43.26202,"lon":5.37931,"is_reserved":false,"is_disabled":false,"rental_uris":{"android":"levelo://app?vid=72a15444-09ce-4af3-9214-29aec0979b91","ios":"levelo://app?vid=72a15444-09ce-4af3-9214-29aec0979b91"},"vehicle_type_id":"4","last_reported":1749648380,"current_range_meters":12400,"station_id":"ce4bhjp2rcd13ifvqg90","pricing_plan_id":"cebpf4jnsgd1na2vs0mg"},{"bike_id":"5a33e87a-35b8-4cdb-8d3c-ab618cd302b8","system_id":"levelo_inurba_marseille","lat":43.2916,"lon":5.35577,"is_reserved":false,"is_disabled":false,"rental_uris":{"android":"levelo://app?vid=5a33e87a-35b8-4cdb-8d3c-ab618cd302b8","ios":"levelo://app?vid=5a33e87a-35b8-4cdb-8d3c-ab618cd302b8"},"vehicle_type_id":"4","last_reported":1749648380,"current_range_meters":14800,"station_id":"","pricing_plan_id":"cebpf4jnsgd1na2vs0mg"},{"bike_id":"91252cb4-db98-4cff-ba49-0337a6eacf8f","system_id":"levelo_inurba_marseille","lat":43.31978,"lon":5.38753,"is_reserved":false,"is_disabled":false,"rental_uris":{"android":"levelo://app?vid=91252cb4-db98-4cff-ba49-0337a6eacf8f","ios":"levelo://app?vid=91252cb4-db98-4cff-ba49-0337a6eacf8f"},"vehicle_type_id":"4","last_reported":1749648380,"current_range_meters":12400,"station_id":"","pricing_plan_id":"cebpf4jnsgd1na2vs0mg"},{"bike_id":"398fc2d5-304a-4200-ba54-ed87b973990b","system_id":"levelo_inurba_marseille","lat":43.259345,"lon":5.409128,"is_reserved":false,"is_disabled":false,"rental_uris":{"android":"levelo://app?vid=398fc2d5-304a-4200-ba54-ed87b973990b","ios":"levelo://app?vid=398fc2d5-304a-4200-ba54-ed87b973990b"},"vehicle_type_id":"4","last_reported":1749648380,"current_range_meters":12400,"station_id":"ce4bhm92rcd13ifvqglg","pricing_plan_id":"cebpf4jnsgd1na2vs0mg"},{"bike_id":"1acfb620-cad7-48c0-8901-d7a5b74a5b65","system_id":"levelo_inurba_marseille","lat":43.33751,"lon":5.37456,"is_reserved":false,"is_disabled":false,"rental_uris":{"android":"levelo://app?vid=1acfb620-cad7-48c0-8901-d7a5b74a5b65","ios":"levelo://app?vid=1acfb620-cad7-48c0-8901-d7a5b74a5b65"},"vehicle_type_id":"4","last_reported":1749648380,"current_range_meters":12400,"station_id":"","pricing_plan_id":"cebpf4jnsgd1na2vs0mg"},{"bike_id":"69b7c853-bb0b-4b8f-b29d-95dc61030243","system_id":"levelo_inurba_marseille","lat":43.26556,"lon":5.37287,"is_reserved":false,"is_disabled":false,"rental_uris":{"android":"levelo://app?vid=69b7c853-bb0b-4b8f-b29d-95dc61030243","ios":"levelo://app?vid=69b7c853-bb0b-4b8f-b29d-95dc61030243"},"vehicle_type_id":"4","last_reported":1749648380,"current_range_meters":12800,"station_id":"ce4bhg12rcd13ifvqf70","pricing_plan_id":"cebpf4jnsgd1na2vs0mg"},{"bike_id":"752ebfa1-a8e9-4725-b808-58aa618033e5","system_id":"levelo_inurba_marseille","lat":43.28271,"lon":5.35087,"is_reserved":false,"is_disabled":false,"rental_uris":{"android":"levelo://app?vid=752ebfa1-a8e9-4725-b808-58aa618033e5","ios":"levelo://app?vid=752ebfa1-a8e9-4725-b808-58aa618033e5"},"vehicle_type_id":"4","last_reported":1749648380,"current_range_meters":12800,"station_id":"ce4bhbp2rcd13ifvqerg","pricing_plan_id":"cebpf4jnsgd1na2vs0mg"},{"bike_id":"1265a00d-7f07-449d-816b-670652ea6cae","system_id":"levelo_inurba_marseille","lat":43.30136,"lon":5.37433,"is_reserved":false,"is_disabled":false,"rental_uris":{"android":"levelo://app?vid=1265a00d-7f07-449d-816b-670652ea6cae","ios":"levelo://app?vid=1265a00d-7f07-449d-816b-670652ea6cae"},"vehicle_type_id":"4","last_reported":1749648380,"current_range_meters":12800,"station_id":"ce4bgs92rcd13ifvqcc0","pricing_plan_id":"cebpf4jnsgd1na2vs0mg"},{"bike_id":"d75aaeda-ece7-43a3-b703-b22a4490ea7d","system_id":"levelo_inurba_marseille","lat":43.29023,"lon":5.38143,"is_reserved":false,"is_disabled":true,"rental_uris":{"android":"levelo://app?vid=d75aaeda-ece7-43a3-b703-b22a4490ea7d","ios":"levelo://app?vid=d75aaeda-ece7-43a3-b703-b22a4490ea7d"},"vehicle_type_id":"4","last_reported":1749648380,"current_range_meters":12800,"station_id":"ce4bh4p2rcd13ifvqe1g","pricing_plan_id":"cebpf4jnsgd1na2vs0mg"},{"bike_id":"3bbafb1b-d8ba-469c-b627-c491f6074636","system_id":"levelo_inurba_marseille","lat":43.32032,"lon":5.41529,"is_reserved":false,"is_disabled":false,"rental_uris":{"android":"levelo://app?vid=3bbafb1b-d8ba-469c-b627-c491f6074636","ios":"levelo://app?vid=3bbafb1b-d8ba-469c-b627-c491f6074636"},"vehicle_type_id":"4","last_reported":1749648380,"current_range_meters":13600,"station_id":"ce4bhq92rcd13ifvqhkg","pricing_plan_id":"cebpf4jnsgd1na2vs0mg"},{"bike_id":"86c174c5-f798-4272-b728-4539144b45e6","system_id":"levelo_inurba_marseille","lat":43.30909,"lon":5.36835,"is_reserved":false,"is_disabled":false,"rental_uris":{"android":"levelo://app?vid=86c174c5-f798-4272-b728-4539144b45e6","ios":"levelo://app?vid=86c174c5-f798-4272-b728-4539144b45e6"},"vehicle_type_id":"4","last_reported":1749648380,"current_range_meters":13600,"station_id":"ce4bgn92rcd13ifvqbvg","pricing_plan_id":"cebpf4jnsgd1na2vs0mg"},{"bike_id":"8afb6112-33a3-4866-adc8-e3fe04e3f604","system_id":"levelo_inurba_marseille","lat":43.282677,"lon":5.350621,"is_reserved":false,"is_disabled":false,"rental_uris":{"android":"levelo://app?vid=8afb6112-33a3-4866-adc8-e3fe04e3f604","ios":"levelo://app?vid=8afb6112-33a3-4866-adc8-e3fe04e3f604"},"vehicle_type_id":"4","last_reported":1749648380,"current_range_meters":13600,"station_id":"ce4bhbp2rcd13ifvqerg","pricing_plan_id":"cebpf4jnsgd1na2vs0mg"},{"bike_id":"26458859-f290-440c-ae9c-21fae7264218","system_id":"levelo_inurba_marseille","lat":43.282654,"lon":5.350508,"is_reserved":false,"is_disabled":false,"rental_uris":{"android":"levelo://app?vid=26458859-f290-440c-ae9c-21fae7264218","ios":"levelo://app?vid=26458859-f290-440c-ae9c-21fae7264218"},"vehicle_type_id":"4","last_reported":1749648380,"current_range_meters":13600,"station_id":"ce4bhbp2rcd13ifvqerg","pricing_plan_id":"cebpf4jnsgd1na2vs0mg"},{"bike_id":"e2ab8eba-7083-4745-9245-927a9e9c668c","system_id":"levelo_inurba_marseille","lat":43.2842,"lon":5.35004,"is_reserved":false,"is_disabled":false,"rental_uris":{"android":"levelo://app?vid=e2ab8eba-7083-4745-9245-927a9e9c668c","ios":"levelo://app?vid=e2ab8eba-7083-4745-9245-927a9e9c668c"},"vehicle_type_id":"4","last_reported":1749648380,"current_range_meters":13600,"station_id":"ce4bhbh2rcd13ifvqepg","pricing_plan_id":"cebpf4jnsgd1na2vs0mg"},{"bike_id":"2c7a13aa-9a16-4880-8e65-7cb3af8d8d1b","system_id":"levelo_inurba_marseille","lat":43.289648,"lon":5.37872,"is_reserved":false,"is_disabled":true,"rental_uris":{"android":"levelo://app?vid=2c7a13aa-9a16-4880-8e65-7cb3af8d8d1b","ios":"levelo://app?vid=2c7a13aa-9a16-4880-8e65-7cb3af8d8d1b"},"vehicle_type_id":"4","last_reported":1749648380,"current_range_meters":13600,"station_id":"ce4bh9p2rcd13ifvqed0","pricing_plan_id":"cebpf4jnsgd1na2vs0mg"},{"bike_id":"5c7467ea-1bef-475a-a3c5-09e2c36bf23b","system_id":"levelo_inurba_marseille","lat":43.29552,"lon":5.42287,"is_reserved":false,"is_disabled":false,"rental_uris":{"android":"levelo://app?vid=5c7467ea-1bef-475a-a3c5-09e2c36bf23b","ios":"levelo://app?vid=5c7467ea-1bef-475a-a3c5-09e2c36bf23b"},"vehicle_type_id":"4","last_reported":1749648380,"current_range_meters":13600,"station_id":"ce4bhph2rcd13ifvqhdg","pricing_plan_id":"cebpf4jnsgd1na2vs0mg"},{"bike_id":"b46fc879-cbd2-489e-b2ca-045773f8f23d","system_id":"levelo_inurba_marseille","lat":43.27383,"lon":5.36257,"is_reserved":false,"is_disabled":false,"rental_uris":{"android":"levelo://app?vid=b46fc879-cbd2-489e-b2ca-045773f8f23d","ios":"levelo://app?vid=b46fc879-cbd2-489e-b2ca-045773f8f23d"},"vehicle_type_id":"4","last_reported":1749648380,"current_range_meters":14000,"station_id":"ce4bhbh2rcd13ifvqeo0","pricing_plan_id":"cebpf4jnsgd1na2vs0mg"},{"bike_id":"5bf6ad64-3ee1-4d38-b9dd-fa21f2838116","system_id":"levelo_inurba_marseille","lat":43.25872,"lon":5.39903,"is_reserved":false,"is_disabled":false,"rental_uris":{"android":"levelo://app?vid=5bf6ad64-3ee1-4d38-b9dd-fa21f2838116","ios":"levelo://app?vid=5bf6ad64-3ee1-4d38-b9dd-fa21f2838116"},"vehicle_type_id":"4","last_reported":1749648380,"current_range_meters":14000,"station_id":"ce4bhl92rcd13ifvqghg","pricing_plan_id":"cebpf4jnsgd1na2vs0mg"},{"bike_id":"62c0da7f-aff9-4ffa-86b8-6966d8f0e555","system_id":"levelo_inurba_marseille","lat":43.211872,"lon":5.350727,"is_reserved":false,"is_disabled":false,"rental_uris":{"android":"levelo://app?vid=62c0da7f-aff9-4ffa-86b8-6966d8f0e555","ios":"levelo://app?vid=62c0da7f-aff9-4ffa-86b8-6966d8f0e555"},"vehicle_type_id":"4","last_reported":1749648380,"current_range_meters":14000,"station_id":"st_cvj6sg6p6f1abm77japg","pricing_plan_id":"cebpf4jnsgd1na2vs0mg"},{"bike_id":"859c6d64-1885-4daa-9e95-5e7e4571efc2","system_id":"levelo_inurba_marseille","lat":43.22936,"lon":5.35378,"is_reserved":false,"is_disabled":false,"rental_uris":{"android":"levelo://app?vid=859c6d64-1885-4daa-9e95-5e7e4571efc2","ios":"levelo://app?vid=859c6d64-1885-4daa-9e95-5e7e4571efc2"},"vehicle_type_id":"4","last_reported":1749648380,"current_range_meters":14000,"station_id":"cpo3532slgdg3j2ikp40","pricing_plan_id":"cebpf4jnsgd1na2vs0mg"},{"bike_id":"ce526313-e4c7-47eb-856f-183916936663","system_id":"levelo_inurba_marseille","lat":43.25552,"lon":5.3941,"is_reserved":false,"is_disabled":false,"rental_uris":{"android":"levelo://app?vid=ce526313-e4c7-47eb-856f-183916936663","ios":"levelo://app?vid=ce526313-e4c7-47eb-856f-183916936663"},"vehicle_type_id":"4","last_reported":1749648380,"current_range_meters":14400,"station_id":"","pricing_plan_id":"cebpf4jnsgd1na2vs0mg"},{"bike_id":"be6fb3cb-72c8-41d7-abfd-34b68dd1b50b","system_id":"levelo_inurba_marseille","lat":43.29943,"lon":5.36518,"is_reserved":false,"is_disabled":false,"rental_uris":{"android":"levelo://app?vid=be6fb3cb-72c8-41d7-abfd-34b68dd1b50b","ios":"levelo://app?vid=be6fb3cb-72c8-41d7-abfd-34b68dd1b50b"},"vehicle_type_id":"4","last_reported":1749648380,"current_range_meters":14400,"station_id":"ce4bgm92rcd13ifvqbr0","pricing_plan_id":"cebpf4jnsgd1na2vs0mg"},{"bike_id":"08d78a49-d56a-4007-bfe7-ef80380d51ac","system_id":"levelo_inurba_marseille","lat":43.28273,"lon":5.35069,"is_reserved":false,"is_disabled":false,"rental_uris":{"android":"levelo://app?vid=08d78a49-d56a-4007-bfe7-ef80380d51ac","ios":"levelo://app?vid=08d78a49-d56a-4007-bfe7-ef80380d51ac"},"vehicle_type_id":"4","last_reported":1749648380,"current_range_meters":14400,"station_id":"ce4bhbp2rcd13ifvqerg","pricing_plan_id":"cebpf4jnsgd1na2vs0mg"},{"bike_id":"d6515318-ac2c-47f0-b0e4-ac5ab2c5d151","system_id":"levelo_inurba_marseille","lat":43.241685,"lon":5.363955,"is_reserved":false,"is_disabled":false,"rental_uris":{"android":"levelo://app?vid=d6515318-ac2c-47f0-b0e4-ac5ab2c5d151","ios":"levelo://app?vid=d6515318-ac2c-47f0-b0e4-ac5ab2c5d151"},"vehicle_type_id":"4","last_reported":1749648380,"current_range_meters":14400,"station_id":"cpo36qri1sfpv3e86is0","pricing_plan_id":"cebpf4jnsgd1na2vs0mg"},{"bike_id":"e70c17ea-cf15-4cd8-8ca9-87d54374f23f","system_id":"levelo_inurba_marseille","lat":43.286163,"lon":5.351035,"is_reserved":false,"is_disabled":false,"rental_uris":{"android":"levelo://app?vid=e70c17ea-cf15-4cd8-8ca9-87d54374f23f","ios":"levelo://app?vid=e70c17ea-cf15-4cd8-8ca9-87d54374f23f"},"vehicle_type_id":"4","last_reported":1749648380,"current_range_meters":14400,"station_id":"","pricing_plan_id":"cebpf4jnsgd1na2vs0mg"},{"bike_id":"51ec0687-547a-4f6a-99cf-9e712879ea7e","system_id":"levelo_inurba_marseille","lat":43.25505,"lon":5.37645,"is_reserved":false,"is_disabled":false,"rental_uris":{"android":"levelo://app?vid=51ec0687-547a-4f6a-99cf-9e712879ea7e","ios":"levelo://app?vid=51ec0687-547a-4f6a-99cf-9e712879ea7e"},"vehicle_type_id":"4","last_reported":1749648380,"current_range_meters":14400,"station_id":"ce4bhh12rcd13ifvqff0","pricing_plan_id":"cebpf4jnsgd1na2vs0mg"},{"bike_id":"3e2a0171-688b-4101-9017-1eb65e22cd48","system_id":"levelo_inurba_marseille","lat":43.31122,"lon":5.37771,"is_reserved":false,"is_disabled":false,"rental_uris":{"android":"levelo://app?vid=3e2a0171-688b-4101-9017-1eb65e22cd48","ios":"levelo://app?vid=3e2a0171-688b-4101-9017-1eb65e22cd48"},"vehicle_type_id":"4","last_reported":1749648380,"current_range_meters":14800,"station_id":"ce4bgt92rcd13ifvqcg0","pricing_plan_id":"cebpf4jnsgd1na2vs0mg"},{"bike_id":"dc6fca2e-5f1c-4ae8-aefe-7f65f0547e41","system_id":"levelo_inurba_marseille","lat":43.33782,"lon":5.37427,"is_reserved":false,"is_disabled":false,"rental_uris":{"android":"levelo://app?vid=dc6fca2e-5f1c-4ae8-aefe-7f65f0547e41","ios":"levelo://app?vid=dc6fca2e-5f1c-4ae8-aefe-7f65f0547e41"},"vehicle_type_id":"4","last_reported":1749648380,"current_range_meters":14800,"station_id":"","pricing_plan_id":"cebpf4jnsgd1na2vs0mg"},{"bike_id":"3d3604e2-7c6c-48fd-9f51-e25f72e6d4d9","system_id":"levelo_inurba_marseille","lat":43.27377,"lon":5.3626,"is_reserved":false,"is_disabled":false,"rental_uris":{"android":"levelo://app?vid=3d3604e2-7c6c-48fd-9f51-e25f72e6d4d9","ios":"levelo://app?vid=3d3604e2-7c6c-48fd-9f51-e25f72e6d4d9"},"vehicle_type_id":"4","last_reported":1749648380,"current_range_meters":15200,"station_id":"ce4bhbh2rcd13ifvqeo0","pricing_plan_id":"cebpf4jnsgd1na2vs0mg"},{"bike_id":"a7061507-877b-4e7c-9377-91083948e064","system_id":"levelo_inurba_marseille","lat":43.273774,"lon":5.362636,"is_reserved":false,"is_disabled":false,"rental_uris":{"android":"levelo://app?vid=a7061507-877b-4e7c-9377-91083948e064","ios":"levelo://app?vid=a7061507-877b-4e7c-9377-91083948e064"},"vehicle_type_id":"4","last_reported":1749648380,"current_range_meters":15200,"station_id":"ce4bhbh2rcd13ifvqeo0","pricing_plan_id":"cebpf4jnsgd1na2vs0mg"},{"bike_id":"03e99185-e778-4ccf-af48-bb80112546c3","system_id":"levelo_inurba_marseille","lat":43.262097,"lon":5.374183,"is_reserved":false,"is_disabled":false,"rental_uris":{"android":"levelo://app?vid=03e99185-e778-4ccf-af48-bb80112546c3","ios":"levelo://app?vid=03e99185-e778-4ccf-af48-bb80112546c3"},"vehicle_type_id":"4","last_reported":1749648380,"current_range_meters":15200,"station_id":"ce4bhgp2rcd13ifvqfc0","pricing_plan_id":"cebpf4jnsgd1na2vs0mg"},{"bike_id":"0a0d22f9-9ff9-40f8-9d93-4c86d6393e23","system_id":"levelo_inurba_marseille","lat":43.26215,"lon":5.3744,"is_reserved":false,"is_disabled":false,"rental_uris":{"android":"levelo://app?vid=0a0d22f9-9ff9-40f8-9d93-4c86d6393e23","ios":"levelo://app?vid=0a0d22f9-9ff9-40f8-9d93-4c86d6393e23"},"vehicle_type_id":"4","last_reported":1749648380,"current_range_meters":15200,"station_id":"ce4bhgp2rcd13ifvqfc0","pricing_plan_id":"cebpf4jnsgd1na2vs0mg"},{"bike_id":"01b53ea9-5963-4456-ac52-b335e6cee31c","system_id":"levelo_inurba_marseille","lat":43.28393,"lon":5.3499,"is_reserved":false,"is_disabled":false,"rental_uris":{"android":"levelo://app?vid=01b53ea9-5963-4456-ac52-b335e6cee31c","ios":"levelo://app?vid=01b53ea9-5963-4456-ac52-b335e6cee31c"},"vehicle_type_id":"4","last_reported":1749648380,"current_range_meters":15200,"station_id":"ce4bhbh2rcd13ifvqepg","pricing_plan_id":"cebpf4jnsgd1na2vs0mg"},{"bike_id":"a2421370-e442-436f-a98a-844d44299694","system_id":"levelo_inurba_marseille","lat":43.32377,"lon":5.36776,"is_reserved":false,"is_disabled":false,"rental_uris":{"android":"levelo://app?vid=a2421370-e442-436f-a98a-844d44299694","ios":"levelo://app?vid=a2421370-e442-436f-a98a-844d44299694"},"vehicle_type_id":"4","last_reported":1749648380,"current_range_meters":16000,"station_id":"ce4bhsh2rcd13ifvqi2g","pricing_plan_id":"cebpf4jnsgd1na2vs0mg"},{"bike_id":"87e5aca8-7654-4fe4-bc40-18f565a3c477","system_id":"levelo_inurba_marseille","lat":43.27425,"lon":5.39423,"is_reserved":false,"is_disabled":false,"rental_uris":{"android":"levelo://app?vid=87e5aca8-7654-4fe4-bc40-18f565a3c477","ios":"levelo://app?vid=87e5aca8-7654-4fe4-bc40-18f565a3c477"},"vehicle_type_id":"4","last_reported":1749648380,"current_range_meters":16000,"station_id":"ce4bhdp2rcd13ifvqf20","pricing_plan_id":"cebpf4jnsgd1na2vs0mg"},{"bike_id":"bbb07685-3969-4efb-8a82-cd710a183e53","system_id":"levelo_inurba_marseille","lat":43.30469,"lon":5.37907,"is_reserved":false,"is_disabled":false,"rental_uris":{"android":"levelo://app?vid=bbb07685-3969-4efb-8a82-cd710a183e53","ios":"levelo://app?vid=bbb07685-3969-4efb-8a82-cd710a183e53"},"vehicle_type_id":"4","last_reported":1749648380,"current_range_meters":16000,"station_id":"ce4bgup2rcd13ifvqcn0","pricing_plan_id":"cebpf4jnsgd1na2vs0mg"},{"bike_id":"e8cc25e3-298d-4fe0-8729-3cb801708422","system_id":"levelo_inurba_marseille","lat":43.26238,"lon":5.37632,"is_reserved":false,"is_disabled":false,"rental_uris":{"android":"levelo://app?vid=e8cc25e3-298d-4fe0-8729-3cb801708422","ios":"levelo://app?vid=e8cc25e3-298d-4fe0-8729-3cb801708422"},"vehicle_type_id":"4","last_reported":1749648380,"current_range_meters":16000,"station_id":"","pricing_plan_id":"cebpf4jnsgd1na2vs0mg"},{"bike_id":"f10adc7e-6a3a-4a5d-9515-dc52fefe2058","system_id":"levelo_inurba_marseille","lat":43.32383,"lon":5.36783,"is_reserved":false,"is_disabled":false,"rental_uris":{"android":"levelo://app?vid=f10adc7e-6a3a-4a5d-9515-dc52fefe2058","ios":"levelo://app?vid=f10adc7e-6a3a-4a5d-9515-dc52fefe2058"},"vehicle_type_id":"4","last_reported":1749648380,"current_range_meters":16000,"station_id":"ce4bhsh2rcd13ifvqi2g","pricing_plan_id":"cebpf4jnsgd1na2vs0mg"},{"bike_id":"b1a9a8a4-dbb9-4db2-9f04-3c1f79933aad","system_id":"levelo_inurba_marseille","lat":43.23155,"lon":5.43714,"is_reserved":false,"is_disabled":false,"rental_uris":{"android":"levelo://app?vid=b1a9a8a4-dbb9-4db2-9f04-3c1f79933aad","ios":"levelo://app?vid=b1a9a8a4-dbb9-4db2-9f04-3c1f79933aad"},"vehicle_type_id":"4","last_reported":1749648380,"current_range_meters":16000,"station_id":"ce4bhmp2rcd13ifvqgog","pricing_plan_id":"cebpf4jnsgd1na2vs0mg"},{"bike_id":"ff6779a1-4f4c-471b-ab85-6c361d5c8c03","system_id":"levelo_inurba_marseille","lat":43.31416,"lon":5.36689,"is_reserved":false,"is_disabled":false,"rental_uris":{"android":"levelo://app?vid=ff6779a1-4f4c-471b-ab85-6c361d5c8c03","ios":"levelo://app?vid=ff6779a1-4f4c-471b-ab85-6c361d5c8c03"},"vehicle_type_id":"4","last_reported":1749648380,"current_range_meters":16000,"station_id":"","pricing_plan_id":"cebpf4jnsgd1na2vs0mg"},{"bike_id":"54265529-c802-41ea-a434-8efe037aed4d","system_id":"levelo_inurba_marseille","lat":43.28422,"lon":5.34991,"is_reserved":false,"is_disabled":false,"rental_uris":{"android":"levelo://app?vid=54265529-c802-41ea-a434-8efe037aed4d","ios":"levelo://app?vid=54265529-c802-41ea-a434-8efe037aed4d"},"vehicle_type_id":"4","last_reported":1749648380,"current_range_meters":16400,"station_id":"ce4bhbh2rcd13ifvqepg","pricing_plan_id":"cebpf4jnsgd1na2vs0mg"},{"bike_id":"b1e72ba7-b4c9-4fe9-80c0-8b85a1ce12cf","system_id":"levelo_inurba_marseille","lat":43.28019,"lon":5.36953,"is_reserved":false,"is_disabled":false,"rental_uris":{"android":"levelo://app?vid=b1e72ba7-b4c9-4fe9-80c0-8b85a1ce12cf","ios":"levelo://app?vid=b1e72ba7-b4c9-4fe9-80c0-8b85a1ce12cf"},"vehicle_type_id":"4","last_reported":1749648380,"current_range_meters":16400,"station_id":"ce4bha12rcd13ifvqef0","pricing_plan_id":"cebpf4jnsgd1na2vs0mg"},{"bike_id":"d2e5bb6c-31d9-4601-850b-1bbbd21312fc","system_id":"levelo_inurba_marseille","lat":43.25825,"lon":5.39441,"is_reserved":false,"is_disabled":false,"rental_uris":{"android":"levelo://app?vid=d2e5bb6c-31d9-4601-850b-1bbbd21312fc","ios":"levelo://app?vid=d2e5bb6c-31d9-4601-850b-1bbbd21312fc"},"vehicle_type_id":"4","last_reported":1749648380,"current_range_meters":16400,"station_id":"ce4bhip2rcd13ifvqft0","pricing_plan_id":"cebpf4jnsgd1na2vs0mg"},{"bike_id":"1bdb65d7-40c3-46ee-a40c-cd479f2ad90f","system_id":"levelo_inurba_marseille","lat":43.29632,"lon":5.37155,"is_reserved":false,"is_disabled":false,"rental_uris":{"android":"levelo://app?vid=1bdb65d7-40c3-46ee-a40c-cd479f2ad90f","ios":"levelo://app?vid=1bdb65d7-40c3-46ee-a40c-cd479f2ad90f"},"vehicle_type_id":"4","last_reported":1749648380,"current_range_meters":16400,"station_id":"ce4bgnh2rcd13ifvqc0g","pricing_plan_id":"cebpf4jnsgd1na2vs0mg"},{"bike_id":"30363637-f3fc-4f55-a597-39640ddabe7f","system_id":"levelo_inurba_marseille","lat":43.27188,"lon":5.40989,"is_reserved":false,"is_disabled":false,"rental_uris":{"android":"levelo://app?vid=30363637-f3fc-4f55-a597-39640ddabe7f","ios":"levelo://app?vid=30363637-f3fc-4f55-a597-39640ddabe7f"},"vehicle_type_id":"4","last_reported":1749648380,"current_range_meters":16800,"station_id":"ce4bhl12rcd13ifvqgf0","pricing_plan_id":"cebpf4jnsgd1na2vs0mg"},{"bike_id":"c0bd4251-d527-48a7-9378-e4e80c1c274f","system_id":"levelo_inurba_marseille","lat":43.31812,"lon":5.37357,"is_reserved":false,"is_disabled":false,"rental_uris":{"android":"levelo://app?vid=c0bd4251-d527-48a7-9378-e4e80c1c274f","ios":"levelo://app?vid=c0bd4251-d527-48a7-9378-e4e80c1c274f"},"vehicle_type_id":"4","last_reported":1749648380,"current_range_meters":16800,"station_id":"","pricing_plan_id":"cebpf4jnsgd1na2vs0mg"},{"bike_id":"ac364231-74ad-4a87-9a19-da14597901e8","system_id":"levelo_inurba_marseille","lat":43.284178,"lon":5.35856,"is_reserved":false,"is_disabled":false,"rental_uris":{"android":"levelo://app?vid=ac364231-74ad-4a87-9a19-da14597901e8","ios":"levelo://app?vid=ac364231-74ad-4a87-9a19-da14597901e8"},"vehicle_type_id":"4","last_reported":1749648380,"current_range_meters":16800,"station_id":"ce4bhbp2rcd13ifvqerg","pricing_plan_id":"cebpf4jnsgd1na2vs0mg"},{"bike_id":"7f6c80d6-b015-4145-8e00-338178446921","system_id":"levelo_inurba_marseille","lat":43.25101,"lon":5.39526,"is_reserved":false,"is_disabled":true,"rental_uris":{"android":"levelo://app?vid=7f6c80d6-b015-4145-8e00-338178446921","ios":"levelo://app?vid=7f6c80d6-b015-4145-8e00-338178446921"},"vehicle_type_id":"4","last_reported":1749648380,"current_range_meters":16800,"station_id":"ce4bhm12rcd13ifvqgkg","pricing_plan_id":"cebpf4jnsgd1na2vs0mg"},{"bike_id":"4634d944-f29d-4c22-9607-26d5765c28a8","system_id":"levelo_inurba_marseille","lat":43.28276,"lon":5.3506,"is_reserved":false,"is_disabled":false,"rental_uris":{"android":"levelo://app?vid=4634d944-f29d-4c22-9607-26d5765c28a8","ios":"levelo://app?vid=4634d944-f29d-4c22-9607-26d5765c28a8"},"vehicle_type_id":"4","last_reported":1749648380,"current_range_meters":16800,"station_id":"ce4bhbp2rcd13ifvqerg","pricing_plan_id":"cebpf4jnsgd1na2vs0mg"},{"bike_id":"e63855cf-f981-4352-8193-d424ca629c8c","system_id":"levelo_inurba_marseille","lat":43.30478,"lon":5.37906,"is_reserved":false,"is_disabled":false,"rental_uris":{"android":"levelo://app?vid=e63855cf-f981-4352-8193-d424ca629c8c","ios":"levelo://app?vid=e63855cf-f981-4352-8193-d424ca629c8c"},"vehicle_type_id":"4","last_reported":1749648380,"current_range_meters":16800,"station_id":"ce4bgup2rcd13ifvqcn0","pricing_plan_id":"cebpf4jnsgd1na2vs0mg"},{"bike_id":"707fb64a-4983-4a34-ade7-ee60c8e43453","system_id":"levelo_inurba_marseille","lat":43.231681,"lon":5.436507,"is_reserved":false,"is_disabled":false,"rental_uris":{"android":"levelo://app?vid=707fb64a-4983-4a34-ade7-ee60c8e43453","ios":"levelo://app?vid=707fb64a-4983-4a34-ade7-ee60c8e43453"},"vehicle_type_id":"4","last_reported":1749648380,"current_range_meters":16800,"station_id":"ce4bhmp2rcd13ifvqgog","pricing_plan_id":"cebpf4jnsgd1na2vs0mg"},{"bike_id":"048f2f2b-8e86-4fe8-80fa-0a30dafb1ed2","system_id":"levelo_inurba_marseille","lat":43.298596,"lon":5.362928,"is_reserved":false,"is_disabled":false,"rental_uris":{"android":"levelo://app?vid=048f2f2b-8e86-4fe8-80fa-0a30dafb1ed2","ios":"levelo://app?vid=048f2f2b-8e86-4fe8-80fa-0a30dafb1ed2"},"vehicle_type_id":"4","last_reported":1749648380,"current_range_meters":17200,"station_id":"","pricing_plan_id":"cebpf4jnsgd1na2vs0mg"},{"bike_id":"26d88ddc-e46b-4c59-90e5-eff664fd2688","system_id":"levelo_inurba_marseille","lat":43.29702,"lon":5.36585,"is_reserved":false,"is_disabled":false,"rental_uris":{"android":"levelo://app?vid=26d88ddc-e46b-4c59-90e5-eff664fd2688","ios":"levelo://app?vid=26d88ddc-e46b-4c59-90e5-eff664fd2688"},"vehicle_type_id":"4","last_reported":1749648380,"current_range_meters":17200,"station_id":"ce4bgn12rcd13ifvqbt0","pricing_plan_id":"cebpf4jnsgd1na2vs0mg"},{"bike_id":"4c63bbbb-f279-4bdd-8220-9c06da921777","system_id":"levelo_inurba_marseille","lat":43.27998,"lon":5.40009,"is_reserved":false,"is_disabled":false,"rental_uris":{"android":"levelo://app?vid=4c63bbbb-f279-4bdd-8220-9c06da921777","ios":"levelo://app?vid=4c63bbbb-f279-4bdd-8220-9c06da921777"},"vehicle_type_id":"4","last_reported":1749648380,"current_range_meters":16800,"station_id":"ce4bho92rcd13ifvqh4g","pricing_plan_id":"cebpf4jnsgd1na2vs0mg"},{"bike_id":"638b9117-c70b-47a3-9192-610d8a8acdda","system_id":"levelo_inurba_marseille","lat":43.298943,"lon":5.436606,"is_reserved":false,"is_disabled":false,"rental_uris":{"android":"levelo://app?vid=638b9117-c70b-47a3-9192-610d8a8acdda","ios":"levelo://app?vid=638b9117-c70b-47a3-9192-610d8a8acdda"},"vehicle_type_id":"4","last_reported":1749648380,"current_range_meters":17200,"station_id":"ce4bhpp2rcd13ifvqhfg","pricing_plan_id":"cebpf4jnsgd1na2vs0mg"},{"bike_id":"59808e72-1866-4f4a-8f11-f6d75ee68c9b","system_id":"levelo_inurba_marseille","lat":43.28421,"lon":5.34989,"is_reserved":false,"is_disabled":false,"rental_uris":{"android":"levelo://app?vid=59808e72-1866-4f4a-8f11-f6d75ee68c9b","ios":"levelo://app?vid=59808e72-1866-4f4a-8f11-f6d75ee68c9b"},"vehicle_type_id":"4","last_reported":1749648380,"current_range_meters":17200,"station_id":"ce4bhbh2rcd13ifvqepg","pricing_plan_id":"cebpf4jnsgd1na2vs0mg"},{"bike_id":"743245d4-5457-49b9-9efc-d95c90d69b8e","system_id":"levelo_inurba_marseille","lat":43.314873,"lon":5.373081,"is_reserved":false,"is_disabled":false,"rental_uris":{"android":"levelo://app?vid=743245d4-5457-49b9-9efc-d95c90d69b8e","ios":"levelo://app?vid=743245d4-5457-49b9-9efc-d95c90d69b8e"},"vehicle_type_id":"4","last_reported":1749648380,"current_range_meters":17200,"station_id":"ce4bhip2rcd13ifvqft0","pricing_plan_id":"cebpf4jnsgd1na2vs0mg"},{"bike_id":"5b5bd648-0748-4ed8-82f6-4224fa62522d","system_id":"levelo_inurba_marseille","lat":43.26199,"lon":5.37452,"is_reserved":false,"is_disabled":false,"rental_uris":{"android":"levelo://app?vid=5b5bd648-0748-4ed8-82f6-4224fa62522d","ios":"levelo://app?vid=5b5bd648-0748-4ed8-82f6-4224fa62522d"},"vehicle_type_id":"4","last_reported":1749648380,"current_range_meters":17200,"station_id":"ce4bhgp2rcd13ifvqfc0","pricing_plan_id":"cebpf4jnsgd1na2vs0mg"},{"bike_id":"165ecccf-321b-45ee-abfd-553d9801aac0","system_id":"levelo_inurba_marseille","lat":43.29082,"lon":5.35584,"is_reserved":false,"is_disabled":false,"rental_uris":{"android":"levelo://app?vid=165ecccf-321b-45ee-abfd-553d9801aac0","ios":"levelo://app?vid=165ecccf-321b-45ee-abfd-553d9801aac0"},"vehicle_type_id":"4","last_reported":1749648380,"current_range_meters":17200,"station_id":"","pricing_plan_id":"cebpf4jnsgd1na2vs0mg"},{"bike_id":"7c7bb10f-198e-4bc5-a51a-504ddb9f9e88","system_id":"levelo_inurba_marseille","lat":43.309263,"lon":5.401512,"is_reserved":false,"is_disabled":false,"rental_uris":{"android":"levelo://app?vid=7c7bb10f-198e-4bc5-a51a-504ddb9f9e88","ios":"levelo://app?vid=7c7bb10f-198e-4bc5-a51a-504ddb9f9e88"},"vehicle_type_id":"4","last_reported":1749648380,"current_range_meters":17200,"station_id":"ce4bgvp2rcd13ifvqct0","pricing_plan_id":"cebpf4jnsgd1na2vs0mg"},{"bike_id":"61430dda-b803-48a0-9043-d29a1d89fb56","system_id":"levelo_inurba_marseille","lat":43.31171,"lon":5.38715,"is_reserved":false,"is_disabled":false,"rental_uris":{"android":"levelo://app?vid=61430dda-b803-48a0-9043-d29a1d89fb56","ios":"levelo://app?vid=61430dda-b803-48a0-9043-d29a1d89fb56"},"vehicle_type_id":"4","last_reported":1749648380,"current_range_meters":16800,"station_id":"ce4bgv12rcd13ifvqcp0","pricing_plan_id":"cebpf4jnsgd1na2vs0mg"},{"bike_id":"a0ba27d9-6955-439b-b334-b6f6fa47bd8e","system_id":"levelo_inurba_marseille","lat":43.26194,"lon":5.37459,"is_reserved":false,"is_disabled":false,"rental_uris":{"android":"levelo://app?vid=a0ba27d9-6955-439b-b334-b6f6fa47bd8e","ios":"levelo://app?vid=a0ba27d9-6955-439b-b334-b6f6fa47bd8e"},"vehicle_type_id":"4","last_reported":1749648380,"current_range_meters":17200,"station_id":"ce4bhgp2rcd13ifvqfc0","pricing_plan_id":"cebpf4jnsgd1na2vs0mg"},{"bike_id":"7c2e303b-6808-4b77-94a3-3a00b4d5ad8f","system_id":"levelo_inurba_marseille","lat":43.27806,"lon":5.40713,"is_reserved":false,"is_disabled":false,"rental_uris":{"android":"levelo://app?vid=7c2e303b-6808-4b77-94a3-3a00b4d5ad8f","ios":"levelo://app?vid=7c2e303b-6808-4b77-94a3-3a00b4d5ad8f"},"vehicle_type_id":"4","last_reported":1749648380,"current_range_meters":17600,"station_id":"ce4bhnh2rcd13ifvqgtg","pricing_plan_id":"cebpf4jnsgd1na2vs0mg"},{"bike_id":"27c3ce4c-2f83-41ff-abde-3fb4e2e068fb","system_id":"levelo_inurba_marseille","lat":43.31002,"lon":5.37479,"is_reserved":false,"is_disabled":false,"rental_uris":{"android":"levelo://app?vid=27c3ce4c-2f83-41ff-abde-3fb4e2e068fb","ios":"levelo://app?vid=27c3ce4c-2f83-41ff-abde-3fb4e2e068fb"},"vehicle_type_id":"4","last_reported":1749648380,"current_range_meters":17600,"station_id":"","pricing_plan_id":"cebpf4jnsgd1na2vs0mg"},{"bike_id":"d3fae93b-ec43-4bbe-bf55-bdc486df173b","system_id":"levelo_inurba_marseille","lat":43.28276,"lon":5.35072,"is_reserved":false,"is_disabled":false,"rental_uris":{"android":"levelo://app?vid=d3fae93b-ec43-4bbe-bf55-bdc486df173b","ios":"levelo://app?vid=d3fae93b-ec43-4bbe-bf55-bdc486df173b"},"vehicle_type_id":"4","last_reported":1749648380,"current_range_meters":18000,"station_id":"ce4bhbp2rcd13ifvqerg","pricing_plan_id":"cebpf4jnsgd1na2vs0mg"},{"bike_id":"b21450a4-463f-4eb5-a5b1-a818c0abb90a","system_id":"levelo_inurba_marseille","lat":43.298963,"lon":5.436668,"is_reserved":false,"is_disabled":false,"rental_uris":{"android":"levelo://app?vid=b21450a4-463f-4eb5-a5b1-a818c0abb90a","ios":"levelo://app?vid=b21450a4-463f-4eb5-a5b1-a818c0abb90a"},"vehicle_type_id":"4","last_reported":1749648380,"current_range_meters":18000,"station_id":"ce4bhpp2rcd13ifvqhfg","pricing_plan_id":"cebpf4jnsgd1na2vs0mg"},{"bike_id":"5b2465cc-7e6f-4c14-b369-84c45a6e5dec","system_id":"levelo_inurba_marseille","lat":43.27588,"lon":5.38434,"is_reserved":false,"is_disabled":false,"rental_uris":{"android":"levelo://app?vid=5b2465cc-7e6f-4c14-b369-84c45a6e5dec","ios":"levelo://app?vid=5b2465cc-7e6f-4c14-b369-84c45a6e5dec"},"vehicle_type_id":"4","last_reported":1749648380,"current_range_meters":18000,"station_id":"ce4bhh92rcd13ifvqfi0","pricing_plan_id":"cebpf4jnsgd1na2vs0mg"},{"bike_id":"b7f9ae4c-ebf8-401f-8710-92e42cfaa6cd","system_id":"levelo_inurba_marseille","lat":43.2681,"lon":5.40274,"is_reserved":false,"is_disabled":false,"rental_uris":{"android":"levelo://app?vid=b7f9ae4c-ebf8-401f-8710-92e42cfaa6cd","ios":"levelo://app?vid=b7f9ae4c-ebf8-401f-8710-92e42cfaa6cd"},"vehicle_type_id":"4","last_reported":1749648380,"current_range_meters":18000,"station_id":"ce501612rcd8frsf0b60","pricing_plan_id":"cebpf4jnsgd1na2vs0mg"},{"bike_id":"1a3b0ef4-fd99-41cb-bbbe-2863e96b819d","system_id":"levelo_inurba_marseille","lat":43.31389,"lon":5.36743,"is_reserved":false,"is_disabled":false,"rental_uris":{"android":"levelo://app?vid=1a3b0ef4-fd99-41cb-bbbe-2863e96b819d","ios":"levelo://app?vid=1a3b0ef4-fd99-41cb-bbbe-2863e96b819d"},"vehicle_type_id":"4","last_reported":1749648380,"current_range_meters":18000,"station_id":"","pricing_plan_id":"cebpf4jnsgd1na2vs0mg"},{"bike_id":"d0f5fd5e-82d0-4068-b904-613e884eaef5","system_id":"levelo_inurba_marseille","lat":43.28266,"lon":5.35079,"is_reserved":false,"is_disabled":false,"rental_uris":{"android":"levelo://app?vid=d0f5fd5e-82d0-4068-b904-613e884eaef5","ios":"levelo://app?vid=d0f5fd5e-82d0-4068-b904-613e884eaef5"},"vehicle_type_id":"4","last_reported":1749648380,"current_range_meters":18800,"station_id":"ce4bhbp2rcd13ifvqerg","pricing_plan_id":"cebpf4jnsgd1na2vs0mg"},{"bike_id":"898b1e13-3a5d-4cfc-b733-70f2f83fc726","system_id":"levelo_inurba_marseille","lat":43.31329,"lon":5.39688,"is_reserved":false,"is_disabled":false,"rental_uris":{"android":"levelo://app?vid=898b1e13-3a5d-4cfc-b733-70f2f83fc726","ios":"levelo://app?vid=898b1e13-3a5d-4cfc-b733-70f2f83fc726"},"vehicle_type_id":"4","last_reported":1749648380,"current_range_meters":18800,"station_id":"ce4bgvp2rcd13ifvqcu0","pricing_plan_id":"cebpf4jnsgd1na2vs0mg"},{"bike_id":"9a48d999-4065-4626-b782-346f03ce8e97","system_id":"levelo_inurba_marseille","lat":43.23078,"lon":5.35486,"is_reserved":false,"is_disabled":false,"rental_uris":{"android":"levelo://app?vid=9a48d999-4065-4626-b782-346f03ce8e97","ios":"levelo://app?vid=9a48d999-4065-4626-b782-346f03ce8e97"},"vehicle_type_id":"4","last_reported":1749648380,"current_range_meters":18800,"station_id":"cpo3342slgdg3j2ifvpg","pricing_plan_id":"cebpf4jnsgd1na2vs0mg"},{"bike_id":"1b986ab5-899b-45c0-ae8f-5234203e90af","system_id":"levelo_inurba_marseille","lat":43.32126,"lon":5.36821,"is_reserved":false,"is_disabled":false,"rental_uris":{"android":"levelo://app?vid=1b986ab5-899b-45c0-ae8f-5234203e90af","ios":"levelo://app?vid=1b986ab5-899b-45c0-ae8f-5234203e90af"},"vehicle_type_id":"4","last_reported":1749648380,"current_range_meters":18800,"station_id":"","pricing_plan_id":"cebpf4jnsgd1na2vs0mg"},{"bike_id":"89952bdf-8423-4dee-a648-f625ccf1e098","system_id":"levelo_inurba_marseille","lat":43.28283,"lon":5.35077,"is_reserved":false,"is_disabled":false,"rental_uris":{"android":"levelo://app?vid=89952bdf-8423-4dee-a648-f625ccf1e098","ios":"levelo://app?vid=89952bdf-8423-4dee-a648-f625ccf1e098"},"vehicle_type_id":"4","last_reported":1749648380,"current_range_meters":18800,"station_id":"ce4bhbp2rcd13ifvqerg","pricing_plan_id":"cebpf4jnsgd1na2vs0mg"},{"bike_id":"5d87649a-35c3-44dd-8bb0-cb263158ab9a","system_id":"levelo_inurba_marseille","lat":43.25009,"lon":5.38914,"is_reserved":false,"is_disabled":true,"rental_uris":{"android":"levelo://app?vid=5d87649a-35c3-44dd-8bb0-cb263158ab9a","ios":"levelo://app?vid=5d87649a-35c3-44dd-8bb0-cb263158ab9a"},"vehicle_type_id":"4","last_reported":1749648380,"current_range_meters":18800,"station_id":"ce4bhgp2rcd13ifvqfd0","pricing_plan_id":"cebpf4jnsgd1na2vs0mg"},{"bike_id":"cfbd8a25-6b08-4933-860d-36fe8a73be5a","system_id":"levelo_inurba_marseille","lat":43.24167,"lon":5.36409,"is_reserved":false,"is_disabled":false,"rental_uris":{"android":"levelo://app?vid=cfbd8a25-6b08-4933-860d-36fe8a73be5a","ios":"levelo://app?vid=cfbd8a25-6b08-4933-860d-36fe8a73be5a"},"vehicle_type_id":"4","last_reported":1749648380,"current_range_meters":18800,"station_id":"cpo36qri1sfpv3e86is0","pricing_plan_id":"cebpf4jnsgd1na2vs0mg"},{"bike_id":"3648a67f-2cc1-4264-8daa-043ed8b421cf","system_id":"levelo_inurba_marseille","lat":43.27378,"lon":5.3626,"is_reserved":false,"is_disabled":false,"rental_uris":{"android":"levelo://app?vid=3648a67f-2cc1-4264-8daa-043ed8b421cf","ios":"levelo://app?vid=3648a67f-2cc1-4264-8daa-043ed8b421cf"},"vehicle_type_id":"4","last_reported":1749648380,"current_range_meters":18800,"station_id":"ce4bhbh2rcd13ifvqeo0","pricing_plan_id":"cebpf4jnsgd1na2vs0mg"},{"bike_id":"61c65c12-2f66-41c4-bb38-dbd56f58e8e9","system_id":"levelo_inurba_marseille","lat":43.28633,"lon":5.35106,"is_reserved":false,"is_disabled":false,"rental_uris":{"android":"levelo://app?vid=61c65c12-2f66-41c4-bb38-dbd56f58e8e9","ios":"levelo://app?vid=61c65c12-2f66-41c4-bb38-dbd56f58e8e9"},"vehicle_type_id":"4","last_reported":1749648380,"current_range_meters":19200,"station_id":"ce4bhch2rcd13ifvqeug","pricing_plan_id":"cebpf4jnsgd1na2vs0mg"},{"bike_id":"0db40102-158a-42a7-9960-74ab1bdde2a2","system_id":"levelo_inurba_marseille","lat":43.30729,"lon":5.37225,"is_reserved":false,"is_disabled":false,"rental_uris":{"android":"levelo://app?vid=0db40102-158a-42a7-9960-74ab1bdde2a2","ios":"levelo://app?vid=0db40102-158a-42a7-9960-74ab1bdde2a2"},"vehicle_type_id":"4","last_reported":1749648380,"current_range_meters":19200,"station_id":"","pricing_plan_id":"cebpf4jnsgd1na2vs0mg"},{"bike_id":"9f5e90a9-520b-44ad-bdb1-ca929f17f039","system_id":"levelo_inurba_marseille","lat":43.30802,"lon":5.38151,"is_reserved":false,"is_disabled":false,"rental_uris":{"android":"levelo://app?vid=9f5e90a9-520b-44ad-bdb1-ca929f17f039","ios":"levelo://app?vid=9f5e90a9-520b-44ad-bdb1-ca929f17f039"},"vehicle_type_id":"4","last_reported":1749648380,"current_range_meters":19200,"station_id":"ce4bgt12rcd13ifvqce0","pricing_plan_id":"cebpf4jnsgd1na2vs0mg"},{"bike_id":"93db05fb-5eee-4b47-a8a7-b4596c9bf1b9","system_id":"levelo_inurba_marseille","lat":43.30544,"lon":5.36557,"is_reserved":false,"is_disabled":false,"rental_uris":{"android":"levelo://app?vid=93db05fb-5eee-4b47-a8a7-b4596c9bf1b9","ios":"levelo://app?vid=93db05fb-5eee-4b47-a8a7-b4596c9bf1b9"},"vehicle_type_id":"4","last_reported":1749648380,"current_range_meters":19200,"station_id":"ce4bgs12rcd13ifvqcag","pricing_plan_id":"cebpf4jnsgd1na2vs0mg"},{"bike_id":"a38f943b-f6e8-4eb7-89c6-f60a147cb002","system_id":"levelo_inurba_marseille","lat":43.28369,"lon":5.38107,"is_reserved":false,"is_disabled":false,"rental_uris":{"android":"levelo://app?vid=a38f943b-f6e8-4eb7-89c6-f60a147cb002","ios":"levelo://app?vid=a38f943b-f6e8-4eb7-89c6-f60a147cb002"},"vehicle_type_id":"4","last_reported":1749648380,"current_range_meters":19200,"station_id":"ce4bh412rcd13ifvqdr0","pricing_plan_id":"cebpf4jnsgd1na2vs0mg"},{"bike_id":"2387b0ef-33f7-4c8d-84d8-5e5d0f6f5c5d","system_id":"levelo_inurba_marseille","lat":43.29104,"lon":5.38158,"is_reserved":false,"is_disabled":false,"rental_uris":{"android":"levelo://app?vid=2387b0ef-33f7-4c8d-84d8-5e5d0f6f5c5d","ios":"levelo://app?vid=2387b0ef-33f7-4c8d-84d8-5e5d0f6f5c5d"},"vehicle_type_id":"4","last_reported":1749648380,"current_range_meters":19200,"station_id":"ce4bh512rcd13ifvqe2g","pricing_plan_id":"cebpf4jnsgd1na2vs0mg"},{"bike_id":"187d4762-3ae0-4a33-a0d7-15340438a66b","system_id":"levelo_inurba_marseille","lat":43.2953,"lon":5.3941,"is_reserved":false,"is_disabled":false,"rental_uris":{"android":"levelo://app?vid=187d4762-3ae0-4a33-a0d7-15340438a66b","ios":"levelo://app?vid=187d4762-3ae0-4a33-a0d7-15340438a66b"},"vehicle_type_id":"4","last_reported":1749648380,"current_range_meters":18800,"station_id":"ce4bh292rcd13ifvqdf0","pricing_plan_id":"cebpf4jnsgd1na2vs0mg"},{"bike_id":"e0249f4b-8d8b-4dc7-a224-9ea697947c37","system_id":"levelo_inurba_marseille","lat":43.317179,"lon":5.424096,"is_reserved":false,"is_disabled":false,"rental_uris":{"android":"levelo://app?vid=e0249f4b-8d8b-4dc7-a224-9ea697947c37","ios":"levelo://app?vid=e0249f4b-8d8b-4dc7-a224-9ea697947c37"},"vehicle_type_id":"4","last_reported":1749648380,"current_range_meters":19200,"station_id":"ce4bhp92rcd13ifvqhbg","pricing_plan_id":"cebpf4jnsgd1na2vs0mg"},{"bike_id":"2a7344b5-7126-4cc1-bbd1-a9bb0e44b7bd","system_id":"levelo_inurba_marseille","lat":43.23055,"lon":5.3551,"is_reserved":false,"is_disabled":false,"rental_uris":{"android":"levelo://app?vid=2a7344b5-7126-4cc1-bbd1-a9bb0e44b7bd","ios":"levelo://app?vid=2a7344b5-7126-4cc1-bbd1-a9bb0e44b7bd"},"vehicle_type_id":"4","last_reported":1749648380,"current_range_meters":19200,"station_id":"cpo3342slgdg3j2ifvpg","pricing_plan_id":"cebpf4jnsgd1na2vs0mg"},{"bike_id":"3f091ab2-d036-4a00-b99c-c40a7c14c235","system_id":"levelo_inurba_marseille","lat":43.32414,"lon":5.36541,"is_reserved":false,"is_disabled":false,"rental_uris":{"android":"levelo://app?vid=3f091ab2-d036-4a00-b99c-c40a7c14c235","ios":"levelo://app?vid=3f091ab2-d036-4a00-b99c-c40a7c14c235"},"vehicle_type_id":"4","last_reported":1749648380,"current_range_meters":19200,"station_id":"","pricing_plan_id":"cebpf4jnsgd1na2vs0mg"},{"bike_id":"5716c0ea-e662-4b11-8c02-10165dc0e18c","system_id":"levelo_inurba_marseille","lat":43.24185,"lon":5.39738,"is_reserved":false,"is_disabled":false,"rental_uris":{"android":"levelo://app?vid=5716c0ea-e662-4b11-8c02-10165dc0e18c","ios":"levelo://app?vid=5716c0ea-e662-4b11-8c02-10165dc0e18c"},"vehicle_type_id":"4","last_reported":1749648380,"current_range_meters":19200,"station_id":"ce4bhn12rcd13ifvqgpg","pricing_plan_id":"cebpf4jnsgd1na2vs0mg"},{"bike_id":"11926c67-c581-4a5d-8203-15313e951bcf","system_id":"levelo_inurba_marseille","lat":43.21762,"lon":5.34601,"is_reserved":false,"is_disabled":false,"rental_uris":{"android":"levelo://app?vid=11926c67-c581-4a5d-8203-15313e951bcf","ios":"levelo://app?vid=11926c67-c581-4a5d-8203-15313e951bcf"},"vehicle_type_id":"4","last_reported":1749648380,"current_range_meters":19200,"station_id":"st_cvj6r9ubvosntc0bgbag","pricing_plan_id":"cebpf4jnsgd1na2vs0mg"},{"bike_id":"956155a0-cce5-4fd3-8922-68f15eb5f8a5","system_id":"levelo_inurba_marseille","lat":43.30482,"lon":5.3791,"is_reserved":false,"is_disabled":false,"rental_uris":{"android":"levelo://app?vid=956155a0-cce5-4fd3-8922-68f15eb5f8a5","ios":"levelo://app?vid=956155a0-cce5-4fd3-8922-68f15eb5f8a5"},"vehicle_type_id":"4","last_reported":1749648380,"current_range_meters":19200,"station_id":"ce4bgup2rcd13ifvqcn0","pricing_plan_id":"cebpf4jnsgd1na2vs0mg"},{"bike_id":"f9ba2e76-62e9-4c4d-8d9c-0342e60cf9b9","system_id":"levelo_inurba_marseille","lat":43.27367,"lon":5.36246,"is_reserved":false,"is_disabled":false,"rental_uris":{"android":"levelo://app?vid=f9ba2e76-62e9-4c4d-8d9c-0342e60cf9b9","ios":"levelo://app?vid=f9ba2e76-62e9-4c4d-8d9c-0342e60cf9b9"},"vehicle_type_id":"4","last_reported":1749648380,"current_range_meters":19200,"station_id":"ce4bhbh2rcd13ifvqeo0","pricing_plan_id":"cebpf4jnsgd1na2vs0mg"},{"bike_id":"647fe7b1-7e48-491b-a4cc-9d5e2ca05273","system_id":"levelo_inurba_marseille","lat":43.25581,"lon":5.38233,"is_reserved":false,"is_disabled":false,"rental_uris":{"android":"levelo://app?vid=647fe7b1-7e48-491b-a4cc-9d5e2ca05273","ios":"levelo://app?vid=647fe7b1-7e48-491b-a4cc-9d5e2ca05273"},"vehicle_type_id":"4","last_reported":1749648380,"current_range_meters":19200,"station_id":"ce4bhih2rcd13ifvqfs0","pricing_plan_id":"cebpf4jnsgd1na2vs0mg"},{"bike_id":"9b517d51-cdae-47e9-ad9e-852070fb297e","system_id":"levelo_inurba_marseille","lat":43.28617,"lon":5.35102,"is_reserved":false,"is_disabled":false,"rental_uris":{"android":"levelo://app?vid=9b517d51-cdae-47e9-ad9e-852070fb297e","ios":"levelo://app?vid=9b517d51-cdae-47e9-ad9e-852070fb297e"},"vehicle_type_id":"4","last_reported":1749648380,"current_range_meters":19200,"station_id":"ce4bhch2rcd13ifvqeug","pricing_plan_id":"cebpf4jnsgd1na2vs0mg"},{"bike_id":"3db8fde5-dc25-47f9-adb5-1429f5338e31","system_id":"levelo_inurba_marseille","lat":43.317496,"lon":5.384736,"is_reserved":false,"is_disabled":false,"rental_uris":{"android":"levelo://app?vid=3db8fde5-dc25-47f9-adb5-1429f5338e31","ios":"levelo://app?vid=3db8fde5-dc25-47f9-adb5-1429f5338e31"},"vehicle_type_id":"4","last_reported":1749648380,"current_range_meters":19200,"station_id":"","pricing_plan_id":"cebpf4jnsgd1na2vs0mg"},{"bike_id":"92d53ca1-03c3-4309-8325-40b63541cbab","system_id":"levelo_inurba_marseille","lat":43.25094,"lon":5.39523,"is_reserved":false,"is_disabled":true,"rental_uris":{"android":"levelo://app?vid=92d53ca1-03c3-4309-8325-40b63541cbab","ios":"levelo://app?vid=92d53ca1-03c3-4309-8325-40b63541cbab"},"vehicle_type_id":"4","last_reported":1749648380,"current_range_meters":19200,"station_id":"ce4bhm12rcd13ifvqgkg","pricing_plan_id":"cebpf4jnsgd1na2vs0mg"},{"bike_id":"d09dc515-277a-4646-8816-f10cec5d4457","system_id":"levelo_inurba_marseille","lat":43.30929,"lon":5.40204,"is_reserved":false,"is_disabled":true,"rental_uris":{"android":"levelo://app?vid=d09dc515-277a-4646-8816-f10cec5d4457","ios":"levelo://app?vid=d09dc515-277a-4646-8816-f10cec5d4457"},"vehicle_type_id":"4","last_reported":1749648380,"current_range_meters":19600,"station_id":"ce4bgvp2rcd13ifvqct0","pricing_plan_id":"cebpf4jnsgd1na2vs0mg"},{"bike_id":"7003b93c-725d-412e-9127-fbade718cbc3","system_id":"levelo_inurba_marseille","lat":43.21223,"lon":5.35094,"is_reserved":false,"is_disabled":false,"rental_uris":{"android":"levelo://app?vid=7003b93c-725d-412e-9127-fbade718cbc3","ios":"levelo://app?vid=7003b93c-725d-412e-9127-fbade718cbc3"},"vehicle_type_id":"4","last_reported":1749648380,"current_range_meters":19600,"station_id":"st_cvj6sg6p6f1abm77japg","pricing_plan_id":"cebpf4jnsgd1na2vs0mg"},{"bike_id":"90d37cd4-456e-43a2-b8f5-3a3b7fcdd7ef","system_id":"levelo_inurba_marseille","lat":43.28276,"lon":5.35066,"is_reserved":false,"is_disabled":false,"rental_uris":{"android":"levelo://app?vid=90d37cd4-456e-43a2-b8f5-3a3b7fcdd7ef","ios":"levelo://app?vid=90d37cd4-456e-43a2-b8f5-3a3b7fcdd7ef"},"vehicle_type_id":"4","last_reported":1749648380,"current_range_meters":19600,"station_id":"ce4bhbp2rcd13ifvqerg","pricing_plan_id":"cebpf4jnsgd1na2vs0mg"},{"bike_id":"5240f6fd-7c4d-480e-89e7-ad5430e3da82","system_id":"levelo_inurba_marseille","lat":43.28435,"lon":5.35015,"is_reserved":false,"is_disabled":false,"rental_uris":{"android":"levelo://app?vid=5240f6fd-7c4d-480e-89e7-ad5430e3da82","ios":"levelo://app?vid=5240f6fd-7c4d-480e-89e7-ad5430e3da82"},"vehicle_type_id":"4","last_reported":1749648380,"current_range_meters":20000,"station_id":"ce4bhbh2rcd13ifvqepg","pricing_plan_id":"cebpf4jnsgd1na2vs0mg"},{"bike_id":"80c4481f-3a94-40c5-bcb5-c1363c06279d","system_id":"levelo_inurba_marseille","lat":43.25941,"lon":5.40903,"is_reserved":false,"is_disabled":false,"rental_uris":{"android":"levelo://app?vid=80c4481f-3a94-40c5-bcb5-c1363c06279d","ios":"levelo://app?vid=80c4481f-3a94-40c5-bcb5-c1363c06279d"},"vehicle_type_id":"4","last_reported":1749648380,"current_range_meters":20000,"station_id":"ce4bhm92rcd13ifvqglg","pricing_plan_id":"cebpf4jnsgd1na2vs0mg"},{"bike_id":"98855dfb-7f1a-4ad2-b5c8-6854d863a5f3","system_id":"levelo_inurba_marseille","lat":43.28168,"lon":5.42622,"is_reserved":false,"is_disabled":false,"rental_uris":{"android":"levelo://app?vid=98855dfb-7f1a-4ad2-b5c8-6854d863a5f3","ios":"levelo://app?vid=98855dfb-7f1a-4ad2-b5c8-6854d863a5f3"},"vehicle_type_id":"4","last_reported":1749648380,"current_range_meters":20000,"station_id":"ce4bhnh2rcd13ifvqgug","pricing_plan_id":"cebpf4jnsgd1na2vs0mg"},{"bike_id":"ca2385ec-2256-44bd-89a6-74e1971966cc","system_id":"levelo_inurba_marseille","lat":43.30563,"lon":5.36558,"is_reserved":false,"is_disabled":false,"rental_uris":{"android":"levelo://app?vid=ca2385ec-2256-44bd-89a6-74e1971966cc","ios":"levelo://app?vid=ca2385ec-2256-44bd-89a6-74e1971966cc"},"vehicle_type_id":"4","last_reported":1749648380,"current_range_meters":20000,"station_id":"ce4bgs12rcd13ifvqcag","pricing_plan_id":"cebpf4jnsgd1na2vs0mg"},{"bike_id":"0dd40b3e-a12f-477b-9c4b-db54b684016e","system_id":"levelo_inurba_marseille","lat":43.29947,"lon":5.36546,"is_reserved":false,"is_disabled":false,"rental_uris":{"android":"levelo://app?vid=0dd40b3e-a12f-477b-9c4b-db54b684016e","ios":"levelo://app?vid=0dd40b3e-a12f-477b-9c4b-db54b684016e"},"vehicle_type_id":"4","last_reported":1749648380,"current_range_meters":20000,"station_id":"ce4bgm92rcd13ifvqbr0","pricing_plan_id":"cebpf4jnsgd1na2vs0mg"},{"bike_id":"184f9a33-fa9c-4236-9ce3-1ff5c1faa753","system_id":"levelo_inurba_marseille","lat":43.2828,"lon":5.35068,"is_reserved":false,"is_disabled":false,"rental_uris":{"android":"levelo://app?vid=184f9a33-fa9c-4236-9ce3-1ff5c1faa753","ios":"levelo://app?vid=184f9a33-fa9c-4236-9ce3-1ff5c1faa753"},"vehicle_type_id":"4","last_reported":1749648380,"current_range_meters":20000,"station_id":"ce4bhbp2rcd13ifvqerg","pricing_plan_id":"cebpf4jnsgd1na2vs0mg"},{"bike_id":"3cb0af7c-994a-4b71-98dc-211ebea626ad","system_id":"levelo_inurba_marseille","lat":43.32372,"lon":5.3676,"is_reserved":false,"is_disabled":false,"rental_uris":{"android":"levelo://app?vid=3cb0af7c-994a-4b71-98dc-211ebea626ad","ios":"levelo://app?vid=3cb0af7c-994a-4b71-98dc-211ebea626ad"},"vehicle_type_id":"4","last_reported":1749648380,"current_range_meters":20000,"station_id":"ce4bhsh2rcd13ifvqi2g","pricing_plan_id":"cebpf4jnsgd1na2vs0mg"},{"bike_id":"5c65cd68-03c2-4ce1-868b-3afec1904028","system_id":"levelo_inurba_marseille","lat":43.28467,"lon":5.38421,"is_reserved":false,"is_disabled":false,"rental_uris":{"android":"levelo://app?vid=5c65cd68-03c2-4ce1-868b-3afec1904028","ios":"levelo://app?vid=5c65cd68-03c2-4ce1-868b-3afec1904028"},"vehicle_type_id":"4","last_reported":1749648380,"current_range_meters":20000,"station_id":"ce4bh512rcd13ifvqe3g","pricing_plan_id":"cebpf4jnsgd1na2vs0mg"},{"bike_id":"6e464720-93b0-4699-80fe-881649eb71cd","system_id":"levelo_inurba_marseille","lat":43.23249,"lon":5.35584,"is_reserved":false,"is_disabled":false,"rental_uris":{"android":"levelo://app?vid=6e464720-93b0-4699-80fe-881649eb71cd","ios":"levelo://app?vid=6e464720-93b0-4699-80fe-881649eb71cd"},"vehicle_type_id":"4","last_reported":1749648380,"current_range_meters":20000,"station_id":"","pricing_plan_id":"cebpf4jnsgd1na2vs0mg"},{"bike_id":"3cdd374f-ed91-4e88-b1ce-d4cce4694412","system_id":"levelo_inurba_marseille","lat":43.24392,"lon":5.37062,"is_reserved":false,"is_disabled":false,"rental_uris":{"android":"levelo://app?vid=3cdd374f-ed91-4e88-b1ce-d4cce4694412","ios":"levelo://app?vid=3cdd374f-ed91-4e88-b1ce-d4cce4694412"},"vehicle_type_id":"4","last_reported":1749648380,"current_range_meters":20400,"station_id":"ce4bhhh2rcd13ifvqfk0","pricing_plan_id":"cebpf4jnsgd1na2vs0mg"},{"bike_id":"b7d88162-d7be-460d-91c8-246163601afe","system_id":"levelo_inurba_marseille","lat":43.26576,"lon":5.39015,"is_reserved":false,"is_disabled":false,"rental_uris":{"android":"levelo://app?vid=b7d88162-d7be-460d-91c8-246163601afe","ios":"levelo://app?vid=b7d88162-d7be-460d-91c8-246163601afe"},"vehicle_type_id":"4","last_reported":1749648380,"current_range_meters":20400,"station_id":"ce4bhe12rcd13ifvqf30","pricing_plan_id":"cebpf4jnsgd1na2vs0mg"},{"bike_id":"09a62509-054d-4da6-bb80-95fd229b51e5","system_id":"levelo_inurba_marseille","lat":43.31714,"lon":5.43705,"is_reserved":false,"is_disabled":false,"rental_uris":{"android":"levelo://app?vid=09a62509-054d-4da6-bb80-95fd229b51e5","ios":"levelo://app?vid=09a62509-054d-4da6-bb80-95fd229b51e5"},"vehicle_type_id":"4","last_reported":1749648380,"current_range_meters":20400,"station_id":"ce4bhp92rcd13ifvqhcg","pricing_plan_id":"cebpf4jnsgd1na2vs0mg"},{"bike_id":"a5780e05-0cb9-498f-833b-d09a36dfc72e","system_id":"levelo_inurba_marseille","lat":43.28271,"lon":5.35078,"is_reserved":false,"is_disabled":false,"rental_uris":{"android":"levelo://app?vid=a5780e05-0cb9-498f-833b-d09a36dfc72e","ios":"levelo://app?vid=a5780e05-0cb9-498f-833b-d09a36dfc72e"},"vehicle_type_id":"4","last_reported":1749648380,"current_range_meters":20400,"station_id":"ce4bhbp2rcd13ifvqerg","pricing_plan_id":"cebpf4jnsgd1na2vs0mg"},{"bike_id":"d1684cb9-47dd-43c3-9e23-61f69d989e14","system_id":"levelo_inurba_marseille","lat":43.28513,"lon":5.38547,"is_reserved":false,"is_disabled":false,"rental_uris":{"android":"levelo://app?vid=d1684cb9-47dd-43c3-9e23-61f69d989e14","ios":"levelo://app?vid=d1684cb9-47dd-43c3-9e23-61f69d989e14"},"vehicle_type_id":"4","last_reported":1749648380,"current_range_meters":20400,"station_id":"ce4bh8p2rcd13ifvqeb0","pricing_plan_id":"cebpf4jnsgd1na2vs0mg"},{"bike_id":"40c0af09-723d-4cec-bd01-81f9709e7207","system_id":"levelo_inurba_marseille","lat":43.29276,"lon":5.38453,"is_reserved":false,"is_disabled":false,"rental_uris":{"android":"levelo://app?vid=40c0af09-723d-4cec-bd01-81f9709e7207","ios":"levelo://app?vid=40c0af09-723d-4cec-bd01-81f9709e7207"},"vehicle_type_id":"4","last_reported":1749648380,"current_range_meters":20400,"station_id":"ce4bh692rcd13ifvqea0","pricing_plan_id":"cebpf4jnsgd1na2vs0mg"},{"bike_id":"2276c90b-1abb-4801-97fa-4b4a67305a9b","system_id":"levelo_inurba_marseille","lat":43.28276,"lon":5.35089,"is_reserved":false,"is_disabled":false,"rental_uris":{"android":"levelo://app?vid=2276c90b-1abb-4801-97fa-4b4a67305a9b","ios":"levelo://app?vid=2276c90b-1abb-4801-97fa-4b4a67305a9b"},"vehicle_type_id":"4","last_reported":1749648380,"current_range_meters":20400,"station_id":"ce4bhbp2rcd13ifvqerg","pricing_plan_id":"cebpf4jnsgd1na2vs0mg"},{"bike_id":"1268e070-f02d-4537-93df-0bfd5c4daa05","system_id":"levelo_inurba_marseille","lat":43.32691,"lon":5.3767,"is_reserved":false,"is_disabled":false,"rental_uris":{"android":"levelo://app?vid=1268e070-f02d-4537-93df-0bfd5c4daa05","ios":"levelo://app?vid=1268e070-f02d-4537-93df-0bfd5c4daa05"},"vehicle_type_id":"4","last_reported":1749648380,"current_range_meters":20800,"station_id":"","pricing_plan_id":"cebpf4jnsgd1na2vs0mg"},{"bike_id":"07171c3d-79e4-492e-a699-bd892fcea6c0","system_id":"levelo_inurba_marseille","lat":43.25601,"lon":5.38249,"is_reserved":false,"is_disabled":false,"rental_uris":{"android":"levelo://app?vid=07171c3d-79e4-492e-a699-bd892fcea6c0","ios":"levelo://app?vid=07171c3d-79e4-492e-a699-bd892fcea6c0"},"vehicle_type_id":"4","last_reported":1749648380,"current_range_meters":20800,"station_id":"ce4bhih2rcd13ifvqfs0","pricing_plan_id":"cebpf4jnsgd1na2vs0mg"},{"bike_id":"d14fc7a4-f813-445f-8935-c3eb3db5f153","system_id":"levelo_inurba_marseille","lat":43.28706,"lon":5.37391,"is_reserved":false,"is_disabled":false,"rental_uris":{"android":"levelo://app?vid=d14fc7a4-f813-445f-8935-c3eb3db5f153","ios":"levelo://app?vid=d14fc7a4-f813-445f-8935-c3eb3db5f153"},"vehicle_type_id":"4","last_reported":1749648380,"current_range_meters":20800,"station_id":"ce4bh3p2rcd13ifvqdq0","pricing_plan_id":"cebpf4jnsgd1na2vs0mg"},{"bike_id":"71aa97be-c917-4ccc-a6eb-90067d44c35c","system_id":"levelo_inurba_marseille","lat":43.2793,"lon":5.38009,"is_reserved":false,"is_disabled":false,"rental_uris":{"android":"levelo://app?vid=71aa97be-c917-4ccc-a6eb-90067d44c35c","ios":"levelo://app?vid=71aa97be-c917-4ccc-a6eb-90067d44c35c"},"vehicle_type_id":"4","last_reported":1749648380,"current_range_meters":20800,"station_id":"ce4bhf92rcd13ifvqf50","pricing_plan_id":"cebpf4jnsgd1na2vs0mg"},{"bike_id":"2aeb48f8-60a6-4e00-858d-97dfd7ac7e4d","system_id":"levelo_inurba_marseille","lat":43.26037,"lon":5.37544,"is_reserved":false,"is_disabled":false,"rental_uris":{"android":"levelo://app?vid=2aeb48f8-60a6-4e00-858d-97dfd7ac7e4d","ios":"levelo://app?vid=2aeb48f8-60a6-4e00-858d-97dfd7ac7e4d"},"vehicle_type_id":"4","last_reported":1749648380,"current_range_meters":20400,"station_id":"ce4bhgh2rcd13ifvqfa0","pricing_plan_id":"cebpf4jnsgd1na2vs0mg"},{"bike_id":"d540c753-dabd-413f-a4ae-016f4e9b6aef","system_id":"levelo_inurba_marseille","lat":43.26213,"lon":5.37442,"is_reserved":false,"is_disabled":false,"rental_uris":{"android":"levelo://app?vid=d540c753-dabd-413f-a4ae-016f4e9b6aef","ios":"levelo://app?vid=d540c753-dabd-413f-a4ae-016f4e9b6aef"},"vehicle_type_id":"4","last_reported":1749648380,"current_range_meters":20800,"station_id":"ce4bhgp2rcd13ifvqfc0","pricing_plan_id":"cebpf4jnsgd1na2vs0mg"},{"bike_id":"346f3f80-6b15-4406-b905-bb78596f5bac","system_id":"levelo_inurba_marseille","lat":43.32359,"lon":5.36737,"is_reserved":false,"is_disabled":false,"rental_uris":{"android":"levelo://app?vid=346f3f80-6b15-4406-b905-bb78596f5bac","ios":"levelo://app?vid=346f3f80-6b15-4406-b905-bb78596f5bac"},"vehicle_type_id":"4","last_reported":1749648380,"current_range_meters":20800,"station_id":"ce4bhsh2rcd13ifvqi2g","pricing_plan_id":"cebpf4jnsgd1na2vs0mg"},{"bike_id":"e3ecd183-cef1-4b91-b539-6ae6ded4e9aa","system_id":"levelo_inurba_marseille","lat":43.26557,"lon":5.37289,"is_reserved":false,"is_disabled":false,"rental_uris":{"android":"levelo://app?vid=e3ecd183-cef1-4b91-b539-6ae6ded4e9aa","ios":"levelo://app?vid=e3ecd183-cef1-4b91-b539-6ae6ded4e9aa"},"vehicle_type_id":"4","last_reported":1749648380,"current_range_meters":20800,"station_id":"ce4bhg12rcd13ifvqf70","pricing_plan_id":"cebpf4jnsgd1na2vs0mg"},{"bike_id":"17571966-125a-43b0-a0c8-b72ff9f62bd0","system_id":"levelo_inurba_marseille","lat":43.28268,"lon":5.35068,"is_reserved":false,"is_disabled":false,"rental_uris":{"android":"levelo://app?vid=17571966-125a-43b0-a0c8-b72ff9f62bd0","ios":"levelo://app?vid=17571966-125a-43b0-a0c8-b72ff9f62bd0"},"vehicle_type_id":"4","last_reported":1749648380,"current_range_meters":20800,"station_id":"ce4bhbp2rcd13ifvqerg","pricing_plan_id":"cebpf4jnsgd1na2vs0mg"},{"bike_id":"20080f1d-6dd2-42da-8160-fea6fab80059","system_id":"levelo_inurba_marseille","lat":43.27392,"lon":5.36259,"is_reserved":false,"is_disabled":false,"rental_uris":{"android":"levelo://app?vid=20080f1d-6dd2-42da-8160-fea6fab80059","ios":"levelo://app?vid=20080f1d-6dd2-42da-8160-fea6fab80059"},"vehicle_type_id":"4","last_reported":1749648380,"current_range_meters":20800,"station_id":"ce4bhbh2rcd13ifvqeo0","pricing_plan_id":"cebpf4jnsgd1na2vs0mg"},{"bike_id":"3c6a3e41-0c80-411f-b479-1639a99dfd96","system_id":"levelo_inurba_marseille","lat":43.25079,"lon":5.39504,"is_reserved":false,"is_disabled":false,"rental_uris":{"android":"levelo://app?vid=3c6a3e41-0c80-411f-b479-1639a99dfd96","ios":"levelo://app?vid=3c6a3e41-0c80-411f-b479-1639a99dfd96"},"vehicle_type_id":"4","last_reported":1749648380,"current_range_meters":20800,"station_id":"ce4bhm12rcd13ifvqgkg","pricing_plan_id":"cebpf4jnsgd1na2vs0mg"},{"bike_id":"bd64ddc1-af5e-424c-8aba-07db55d3c3a6","system_id":"levelo_inurba_marseille","lat":43.28846,"lon":5.39323,"is_reserved":false,"is_disabled":false,"rental_uris":{"android":"levelo://app?vid=bd64ddc1-af5e-424c-8aba-07db55d3c3a6","ios":"levelo://app?vid=bd64ddc1-af5e-424c-8aba-07db55d3c3a6"},"vehicle_type_id":"4","last_reported":1749648380,"current_range_meters":20400,"station_id":"ce4bh2p2rcd13ifvqdi0","pricing_plan_id":"cebpf4jnsgd1na2vs0mg"},{"bike_id":"9d755fb6-a857-4fff-8180-2ea4457d9353","system_id":"levelo_inurba_marseille","lat":43.297974,"lon":5.381129,"is_reserved":false,"is_disabled":false,"rental_uris":{"android":"levelo://app?vid=9d755fb6-a857-4fff-8180-2ea4457d9353","ios":"levelo://app?vid=9d755fb6-a857-4fff-8180-2ea4457d9353"},"vehicle_type_id":"4","last_reported":1749648380,"current_range_meters":21600,"station_id":"ce4bgip2rcd13ifvqbb0","pricing_plan_id":"cebpf4jnsgd1na2vs0mg"},{"bike_id":"7ae2b603-9218-483f-8521-5ac8d6bf2c25","system_id":"levelo_inurba_marseille","lat":43.33496,"lon":5.37463,"is_reserved":false,"is_disabled":false,"rental_uris":{"android":"levelo://app?vid=7ae2b603-9218-483f-8521-5ac8d6bf2c25","ios":"levelo://app?vid=7ae2b603-9218-483f-8521-5ac8d6bf2c25"},"vehicle_type_id":"4","last_reported":1749648380,"current_range_meters":21600,"station_id":"","pricing_plan_id":"cebpf4jnsgd1na2vs0mg"},