{"last_updated":1762503348,"ttl":60,"version":"2.2","data":{"bikes":[{"bike_id":"af1f6ede-eac0-4d74-b077-f40a8935155b","system_id":"levelo_inurba_marseille","lat":43.30265,"lon":5.37707,"is_reserved":false,"is_disabled":false,"rental_uris":{"android":"levelo://app?vid=af1f6ede-eac0-4d74-b077-f40a8935155b","ios":"levelo://app?vid=af1f6ede-eac0-4d74-b077-f40a8935155b"},"vehicle_type_id":"4","last_reported":1762503349,"current_range_meters":2800,"station_id":"ce4bguh2rcd13ifvqcj0","pricing_plan_id":"cebpf4jnsgd1na2vs0mg"},{"bike_id":"e5d284cd-0bc3-4fd2-8826-6b91c3c548cd","system_id":"levelo_inurba_marseille","lat":43.28627,"lon":5.38213,"is_reserved":false,"is_disabled":false,"rental_uris":{"android":"levelo://app?vid=e5d284cd-0bc3-4fd2-8826-6b91c3c548cd","ios":"levelo://app?vid=e5d284cd-0bc3-4fd2-8826-6b91c3c548cd"},"vehicle_type_id":"4","last_reported":1762503349,"current_range_meters":2800,"station_id":"","pricing_plan_id":"cebpf4jnsgd1na2vs0mg"},{"bike_id":"2bed186a-6756-4d54-a09c-fba958ca0888","system_id":"levelo_inurba_marseille","lat":43.308956,"lon":5.371945,"is_reserved":false,"is_disabled":false,"rental_uris":{"android":"levelo://app?vid=2bed186a-6756-4d54-a09c-fba958ca0888","ios":"levelo://app?vid=2bed186a-6756-4d54-a09c-fba958ca0888"},"vehicle_type_id":"4","last_reported":1762503349,"current_range_meters":2800,"station_id":"ce4bguh2rcd13ifvqckg","pricing_plan_id":"cebpf4jnsgd1na2vs0mg"},{"bike_id":"c23a3e46-d1d2-45f0-96a9-2c11e3e78c59","system_id":"levelo_inurba_marseille","lat":43.304696,"lon":5.379095,"is_reserved":false,"is_disabled":false,"rental_uris":{"android":"levelo://app?vid=c23a3e46-d1d2-45f0-96a9-2c11e3e78c59","ios":"levelo://app?vid=c23a3e46-d1d2-45f0-96a9-2c11e3e78c59"},"vehicle_type_id":"4","last_reported":1762503349,"current_range_meters":2800,"station_id":"ce4bgup2rcd13ifvqcn0","pricing_plan_id":"cebpf4jnsgd1na2vs0mg"},{"bike_id":"f91c4559-425b-4689-9bc7-a188d0514875","system_id":"levelo_inurba_marseille","lat":43.2679,"lon":5.39415,"is_reserved":false,"is_disabled":false,"rental_uris":{"android":"levelo://app?vid=f91c4559-425b-4689-9bc7-a188d0514875","ios":"levelo://app?vid=f91c4559-425b-4689-9bc7-a188d0514875"},"vehicle_type_id":"4","last_reported":1762503349,"current_range_meters":2800,"station_id":"ce4bhh12rcd13ifvqfg0","pricing_plan_id":"cebpf4jnsgd1na2vs0mg"},{"bike_id":"824e67b4-a25d-4c02-aeae-c9b44bf12487","system_id":"levelo_inurba_marseille","lat":43.2835,"lon":5.38097,"is_reserved":false,"is_disabled":false,"rental_uris":{"android":"levelo://app?vid=824e67b4-a25d-4c02-aeae-c9b44bf12487","ios":"levelo://app?vid=824e67b4-a25d-4c02-aeae-c9b44bf12487"},"vehicle_type_id":"4","last_reported":1762503349,"current_range_meters":2800,"station_id":"ce4bh412rcd13ifvqdr0","pricing_plan_id":"cebpf4jnsgd1na2vs0mg"},{"bike_id":"d83ceb5a-71d5-4552-a290-4ba08616ae63","system_id":"levelo_inurba_marseille","lat":43.28355,"lon":5.38101,"is_reserved":false,"is_disabled":false,"rental_uris":{"android":"levelo://app?vid=d83ceb5a-71d5-4552-a290-4ba08616ae63","ios":"levelo://app?vid=d83ceb5a-71d5-4552-a290-4ba08616ae63"},"vehicle_type_id":"4","last_reported":1762503349,"current_range_meters":3200,"station_id":"ce4bh412rcd13ifvqdr0","pricing_plan_id":"cebpf4jnsgd1na2vs0mg"},{"bike_id":"f586ab05-fe76-4e7a-91b3-4b034b0c1679","system_id":"levelo_inurba_marseille","lat":43.24634,"lon":5.43152,"is_reserved":false,"is_disabled":false,"rental_uris":{"android":"levelo://app?vid=f586ab05-fe76-4e7a-91b3-4b034b0c1679","ios":"levelo://app?vid=f586ab05-fe76-4e7a-91b3-4b034b0c1679"},"vehicle_type_id":"4","last_reported":1762503349,"current_range_meters":3200,"station_id":"st_d2m6c4gdas8pm72e190g","pricing_plan_id":"cebpf4jnsgd1na2vs0mg"},{"bike_id":"42e2c5fa-29e8-48f6-b70c-850e2dfb04ad","system_id":"levelo_inurba_marseille","lat":43.32476,"lon":5.36571,"is_reserved":false,"is_disabled":false,"rental_uris":{"android":"levelo://app?vid=42e2c5fa-29e8-48f6-b70c-850e2dfb04ad","ios":"levelo://app?vid=42e2c5fa-29e8-48f6-b70c-850e2dfb04ad"},"vehicle_type_id":"4","last_reported":1762503349,"current_range_meters":3600,"station_id":"ce4bhs12rcd13ifvqhvg","pricing_plan_id":"cebpf4jnsgd1na2vs0mg"},{"bike_id":"765b9661-2b24-4c0f-a9fb-732d7409b10c","system_id":"levelo_inurba_marseille","lat":43.21622,"lon":5.34421,"is_reserved":false,"is_disabled":false,"rental_uris":{"android":"levelo://app?vid=765b9661-2b24-4c0f-a9fb-732d7409b10c","ios":"levelo://app?vid=765b9661-2b24-4c0f-a9fb-732d7409b10c"},"vehicle_type_id":"4","last_reported":1762503349,"current_range_meters":3600,"station_id":"","pricing_plan_id":"cebpf4jnsgd1na2vs0mg"},{"bike_id":"e7002296-a724-4792-9c77-9aa7da662e7d","system_id":"levelo_inurba_marseille","lat":43.29752,"lon":5.36248,"is_reserved":false,"is_disabled":false,"rental_uris":{"android":"levelo://app?vid=e7002296-a724-4792-9c77-9aa7da662e7d","ios":"levelo://app?vid=e7002296-a724-4792-9c77-9aa7da662e7d"},"vehicle_type_id":"4","last_reported":1762503349,"current_range_meters":3600,"station_id":"","pricing_plan_id":"cebpf4jnsgd1na2vs0mg"},{"bike_id":"49114ab4-c035-4991-8488-22507b0ab9d1","system_id":"levelo_inurba_marseille","lat":43.309466,"lon":5.390283,"is_reserved":false,"is_disabled":false,"rental_uris":{"android":"levelo://app?vid=49114ab4-c035-4991-8488-22507b0ab9d1","ios":"levelo://app?vid=49114ab4-c035-4991-8488-22507b0ab9d1"},"vehicle_type_id":"4","last_reported":1762503349,"current_range_meters":4000,"station_id":"ce4bgup2rcd13ifvqco0","pricing_plan_id":"cebpf4jnsgd1na2vs0mg"},{"bike_id":"916ad9aa-3f97-4182-8981-b85aa68f9470","system_id":"levelo_inurba_marseille","lat":43.3032,"lon":5.40431,"is_reserved":false,"is_disabled":false,"rental_uris":{"android":"levelo://app?vid=916ad9aa-3f97-4182-8981-b85aa68f9470","ios":"levelo://app?vid=916ad9aa-3f97-4182-8981-b85aa68f9470"},"vehicle_type_id":"4","last_reported":1762503349,"current_range_meters":4000,"station_id":"ce4bh012rcd13ifvqd10","pricing_plan_id":"cebpf4jnsgd1na2vs0mg"},{"bike_id":"da7040af-9ace-432f-a387-0578f54391c3","system_id":"levelo_inurba_marseille","lat":43.30144,"lon":5.38083,"is_reserved":false,"is_disabled":false,"rental_uris":{"android":"levelo://app?vid=da7040af-9ace-432f-a387-0578f54391c3","ios":"levelo://app?vid=da7040af-9ace-432f-a387-0578f54391c3"},"vehicle_type_id":"4","last_reported":1762503349,"current_range_meters":4000,"station_id":"ce4bgjp2rcd13ifvqbh0","pricing_plan_id":"cebpf4jnsgd1na2vs0mg"},{"bike_id":"7be91d85-7a38-41c8-ba86-8d3ed46d2e04","system_id":"levelo_inurba_marseille","lat":43.323499,"lon":5.414498,"is_reserved":false,"is_disabled":false,"rental_uris":{"android":"levelo://app?vid=7be91d85-7a38-41c8-ba86-8d3ed46d2e04","ios":"levelo://app?vid=7be91d85-7a38-41c8-ba86-8d3ed46d2e04"},"vehicle_type_id":"4","last_reported":1762503349,"current_range_meters":4000,"station_id":"","pricing_plan_id":"cebpf4jnsgd1na2vs0mg"},{"bike_id":"632ebfb7-c2f7-4f7f-801d-384b378721d3","system_id":"levelo_inurba_marseille","lat":43.32488,"lon":5.36569,"is_reserved":false,"is_disabled":false,"rental_uris":{"android":"levelo://app?vid=632ebfb7-c2f7-4f7f-801d-384b378721d3","ios":"levelo://app?vid=632ebfb7-c2f7-4f7f-801d-384b378721d3"},"vehicle_type_id":"4","last_reported":1762503349,"current_range_meters":4400,"station_id":"ce4bhs12rcd13ifvqhvg","pricing_plan_id":"cebpf4jnsgd1na2vs0mg"},{"bike_id":"775cab87-5458-4a61-8eca-97a7fc93fedd","system_id":"levelo_inurba_marseille","lat":43.29091,"lon":5.38115,"is_reserved":false,"is_disabled":false,"rental_uris":{"android":"levelo://app?vid=775cab87-5458-4a61-8eca-97a7fc93fedd","ios":"levelo://app?vid=775cab87-5458-4a61-8eca-97a7fc93fedd"},"vehicle_type_id":"4","last_reported":1762503349,"current_range_meters":4400,"station_id":"ce4bh512rcd13ifvqe2g","pricing_plan_id":"cebpf4jnsgd1na2vs0mg"},{"bike_id":"0b84941e-87ff-45bb-8300-fb3b7cc70221","system_id":"levelo_inurba_marseille","lat":43.23134,"lon":5.43715,"is_reserved":false,"is_disabled":false,"rental_uris":{"android":"levelo://app?vid=0b84941e-87ff-45bb-8300-fb3b7cc70221","ios":"levelo://app?vid=0b84941e-87ff-45bb-8300-fb3b7cc70221"},"vehicle_type_id":"4","last_reported":1762503349,"current_range_meters":4400,"station_id":"ce4bhmp2rcd13ifvqgog","pricing_plan_id":"cebpf4jnsgd1na2vs0mg"},{"bike_id":"a1ff0a62-edf1-4ee2-8e83-32f781462051","system_id":"levelo_inurba_marseille","lat":43.231506,"lon":5.43718,"is_reserved":false,"is_disabled":false,"rental_uris":{"android":"levelo://app?vid=a1ff0a62-edf1-4ee2-8e83-32f781462051","ios":"levelo://app?vid=a1ff0a62-edf1-4ee2-8e83-32f781462051"},"vehicle_type_id":"4","last_reported":1762503349,"current_range_meters":4400,"station_id":"ce4bhmp2rcd13ifvqgog","pricing_plan_id":"cebpf4jnsgd1na2vs0mg"},{"bike_id":"571bd3a6-912b-44a3-9841-50c558a61481","system_id":"levelo_inurba_marseille","lat":43.28048,"lon":5.40591,"is_reserved":false,"is_disabled":false,"rental_uris":{"android":"levelo://app?vid=571bd3a6-912b-44a3-9841-50c558a61481","ios":"levelo://app?vid=571bd3a6-912b-44a3-9841-50c558a61481"},"vehicle_type_id":"4","last_reported":1762503349,"current_range_meters":4800,"station_id":"","pricing_plan_id":"cebpf4jnsgd1na2vs0mg"},{"bike_id":"1e4f2b5d-3b2c-4568-bbf4-8ca174126ce9","system_id":"levelo_inurba_marseille","lat":43.30091,"lon":5.39081,"is_reserved":false,"is_disabled":false,"rental_uris":{"android":"levelo://app?vid=1e4f2b5d-3b2c-4568-bbf4-8ca174126ce9","ios":"levelo://app?vid=1e4f2b5d-3b2c-4568-bbf4-8ca174126ce9"},"vehicle_type_id":"4","last_reported":1762503349,"current_range_meters":4800,"station_id":"ce4bh192rcd13ifvqdb0","pricing_plan_id":"cebpf4jnsgd1na2vs0mg"},{"bike_id":"5db53558-9c32-42d8-999f-e9d75d3795cc","system_id":"levelo_inurba_marseille","lat":43.23149,"lon":5.43737,"is_reserved":false,"is_disabled":false,"rental_uris":{"android":"levelo://app?vid=5db53558-9c32-42d8-999f-e9d75d3795cc","ios":"levelo://app?vid=5db53558-9c32-42d8-999f-e9d75d3795cc"},"vehicle_type_id":"4","last_reported":1762503349,"current_range_meters":4800,"station_id":"ce4bhmp2rcd13ifvqgog","pricing_plan_id":"cebpf4jnsgd1na2vs0mg"},{"bike_id":"5d5bca1a-0216-42f9-be17-08560d9e24c5","system_id":"levelo_inurba_marseille","lat":43.2656,"lon":5.37282,"is_reserved":false,"is_disabled":false,"rental_uris":{"android":"levelo://app?vid=5d5bca1a-0216-42f9-be17-08560d9e24c5","ios":"levelo://app?vid=5d5bca1a-0216-42f9-be17-08560d9e24c5"},"vehicle_type_id":"4","last_reported":1762503349,"current_range_meters":5600,"station_id":"ce4bhg12rcd13ifvqf70","pricing_plan_id":"cebpf4jnsgd1na2vs0mg"},{"bike_id":"2f7b3af4-755f-4070-a9a3-7fa061a60f83","system_id":"levelo_inurba_marseille","lat":43.29041,"lon":5.39977,"is_reserved":false,"is_disabled":false,"rental_uris":{"android":"levelo://app?vid=2f7b3af4-755f-4070-a9a3-7fa061a60f83","ios":"levelo://app?vid=2f7b3af4-755f-4070-a9a3-7fa061a60f83"},"vehicle_type_id":"4","last_reported":1762503349,"current_range_meters":5600,"station_id":"ce4bh392rcd13ifvqdm0","pricing_plan_id":"cebpf4jnsgd1na2vs0mg"},{"bike_id":"3ed02add-87f3-41d7-bdf1-1cf82493034f","system_id":"levelo_inurba_marseille","lat":43.29312,"lon":5.383347,"is_reserved":false,"is_disabled":false,"rental_uris":{"android":"levelo://app?vid=3ed02add-87f3-41d7-bdf1-1cf82493034f","ios":"levelo://app?vid=3ed02add-87f3-41d7-bdf1-1cf82493034f"},"vehicle_type_id":"4","last_reported":1762503349,"current_range_meters":5600,"station_id":"","pricing_plan_id":"cebpf4jnsgd1na2vs0mg"},{"bike_id":"81c176cb-3f38-4f06-8196-5e14f46cabff","system_id":"levelo_inurba_marseille","lat":43.30285,"lon":5.37711,"is_reserved":false,"is_disabled":false,"rental_uris":{"android":"levelo://app?vid=81c176cb-3f38-4f06-8196-5e14f46cabff","ios":"levelo://app?vid=81c176cb-3f38-4f06-8196-5e14f46cabff"},"vehicle_type_id":"4","last_reported":1762503349,"current_range_meters":5600,"station_id":"ce4bguh2rcd13ifvqcj0","pricing_plan_id":"cebpf4jnsgd1na2vs0mg"},{"bike_id":"b9ae4803-3463-4e57-9a8e-a3cf161dce0a","system_id":"levelo_inurba_marseille","lat":43.32479,"lon":5.36562,"is_reserved":false,"is_disabled":false,"rental_uris":{"android":"levelo://app?vid=b9ae4803-3463-4e57-9a8e-a3cf161dce0a","ios":"levelo://app?vid=b9ae4803-3463-4e57-9a8e-a3cf161dce0a"},"vehicle_type_id":"4","last_reported":1762503349,"current_range_meters":5600,"station_id":"ce4bhs12rcd13ifvqhvg","pricing_plan_id":"cebpf4jnsgd1na2vs0mg"},{"bike_id":"8a1ccebe-622c-4cc5-a79c-de7d87c368dc","system_id":"levelo_inurba_marseille","lat":43.24808,"lon":5.3746,"is_reserved":false,"is_disabled":false,"rental_uris":{"android":"levelo://app?vid=8a1ccebe-622c-4cc5-a79c-de7d87c368dc","ios":"levelo://app?vid=8a1ccebe-622c-4cc5-a79c-de7d87c368dc"},"vehicle_type_id":"4","last_reported":1762503349,"current_range_meters":6000,"station_id":"ce4bhgh2rcd13ifvqfb0","pricing_plan_id":"cebpf4jnsgd1na2vs0mg"},{"bike_id":"a3fef8eb-8f94-458f-be11-4f7a9044c9c9","system_id":"levelo_inurba_marseille","lat":43.273369,"lon":5.390797,"is_reserved":false,"is_disabled":false,"rental_uris":{"android":"levelo://app?vid=a3fef8eb-8f94-458f-be11-4f7a9044c9c9","ios":"levelo://app?vid=a3fef8eb-8f94-458f-be11-4f7a9044c9c9"},"vehicle_type_id":"4","last_reported":1762503349,"current_range_meters":6000,"station_id":"ce4bhgp2rcd13ifvqfe0","pricing_plan_id":"cebpf4jnsgd1na2vs0mg"},{"bike_id":"217bfb2f-1fa7-4fb7-989e-4059d5f94d24","system_id":"levelo_inurba_marseille","lat":43.337371,"lon":5.374716,"is_reserved":false,"is_disabled":false,"rental_uris":{"android":"levelo://app?vid=217bfb2f-1fa7-4fb7-989e-4059d5f94d24","ios":"levelo://app?vid=217bfb2f-1fa7-4fb7-989e-4059d5f94d24"},"vehicle_type_id":"4","last_reported":1762503349,"current_range_meters":6000,"station_id":"","pricing_plan_id":"cebpf4jnsgd1na2vs0mg"},{"bike_id":"b23b7525-3dd2-4bde-a311-7965f6db1b96","system_id":"levelo_inurba_marseille","lat":43.28938,"lon":5.36637,"is_reserved":false,"is_disabled":false,"rental_uris":{"android":"levelo://app?vid=b23b7525-3dd2-4bde-a311-7965f6db1b96","ios":"levelo://app?vid=b23b7525-3dd2-4bde-a311-7965f6db1b96"},"vehicle_type_id":"4","last_reported":1762503349,"current_range_meters":6000,"station_id":"ce4bhap2rcd13ifvqek0","pricing_plan_id":"cebpf4jnsgd1na2vs0mg"},{"bike_id":"d3a8c452-bd73-4909-9cfe-f1c0285f3d0c","system_id":"levelo_inurba_marseille","lat":43.28477,"lon":5.48398,"is_reserved":false,"is_disabled":false,"rental_uris":{"android":"levelo://app?vid=d3a8c452-bd73-4909-9cfe-f1c0285f3d0c","ios":"levelo://app?vid=d3a8c452-bd73-4909-9cfe-f1c0285f3d0c"},"vehicle_type_id":"4","last_reported":1762503349,"current_range_meters":6400,"station_id":"","pricing_plan_id":"cebpf4jnsgd1na2vs0mg"},{"bike_id":"0baea862-0500-4af2-9895-6415708f8d4c","system_id":"levelo_inurba_marseille","lat":43.24079,"lon":5.37748,"is_reserved":false,"is_disabled":false,"rental_uris":{"android":"levelo://app?vid=0baea862-0500-4af2-9895-6415708f8d4c","ios":"levelo://app?vid=0baea862-0500-4af2-9895-6415708f8d4c"},"vehicle_type_id":"4","last_reported":1762503349,"current_range_meters":6400,"station_id":"ce4bhnp2rcd13ifvqgvg","pricing_plan_id":"cebpf4jnsgd1na2vs0mg"},{"bike_id":"d08ee228-c2c7-475f-9a3e-386d21e2995f","system_id":"levelo_inurba_marseille","lat":43.288624,"lon":5.425247,"is_reserved":false,"is_disabled":false,"rental_uris":{"android":"levelo://app?vid=d08ee228-c2c7-475f-9a3e-386d21e2995f","ios":"levelo://app?vid=d08ee228-c2c7-475f-9a3e-386d21e2995f"},"vehicle_type_id":"4","last_reported":1762503349,"current_range_meters":6400,"station_id":"st_d3b462108ojc7389ooeg","pricing_plan_id":"cebpf4jnsgd1na2vs0mg"},{"bike_id":"8f2339af-b968-45f2-94dc-0c04dc5e1bc7","system_id":"levelo_inurba_marseille","lat":43.30472,"lon":5.37917,"is_reserved":false,"is_disabled":false,"rental_uris":{"android":"levelo://app?vid=8f2339af-b968-45f2-94dc-0c04dc5e1bc7","ios":"levelo://app?vid=8f2339af-b968-45f2-94dc-0c04dc5e1bc7"},"vehicle_type_id":"4","last_reported":1762503349,"current_range_meters":6400,"station_id":"ce4bgup2rcd13ifvqcn0","pricing_plan_id":"cebpf4jnsgd1na2vs0mg"},{"bike_id":"94b06f3e-9c43-404e-899a-d1e48d6d7a76","system_id":"levelo_inurba_marseille","lat":43.287102,"lon":5.399967,"is_reserved":false,"is_disabled":false,"rental_uris":{"android":"levelo://app?vid=94b06f3e-9c43-404e-899a-d1e48d6d7a76","ios":"levelo://app?vid=94b06f3e-9c43-404e-899a-d1e48d6d7a76"},"vehicle_type_id":"4","last_reported":1762503349,"current_range_meters":6800,"station_id":"ce4bho92rcd13ifvqh3g","pricing_plan_id":"cebpf4jnsgd1na2vs0mg"},{"bike_id":"00065666-b382-40c8-87f2-d52ded706b03","system_id":"levelo_inurba_marseille","lat":43.301796,"lon":5.39192,"is_reserved":false,"is_disabled":false,"rental_uris":{"android":"levelo://app?vid=00065666-b382-40c8-87f2-d52ded706b03","ios":"levelo://app?vid=00065666-b382-40c8-87f2-d52ded706b03"},"vehicle_type_id":"4","last_reported":1762503349,"current_range_meters":6800,"station_id":"","pricing_plan_id":"cebpf4jnsgd1na2vs0mg"},{"bike_id":"2c89c3ed-62de-4c74-8e11-a37172c6c77b","system_id":"levelo_inurba_marseille","lat":43.22875,"lon":5.4024,"is_reserved":false,"is_disabled":false,"rental_uris":{"android":"levelo://app?vid=2c89c3ed-62de-4c74-8e11-a37172c6c77b","ios":"levelo://app?vid=2c89c3ed-62de-4c74-8e11-a37172c6c77b"},"vehicle_type_id":"4","last_reported":1762503349,"current_range_meters":6800,"station_id":"","pricing_plan_id":"cebpf4jnsgd1na2vs0mg"},{"bike_id":"566ca381-df45-4d2f-84cf-c0bcb8c83749","system_id":"levelo_inurba_marseille","lat":43.28356,"lon":5.38106,"is_reserved":false,"is_disabled":false,"rental_uris":{"android":"levelo://app?vid=566ca381-df45-4d2f-84cf-c0bcb8c83749","ios":"levelo://app?vid=566ca381-df45-4d2f-84cf-c0bcb8c83749"},"vehicle_type_id":"4","last_reported":1762503349,"current_range_meters":6800,"station_id":"ce4bh412rcd13ifvqdr0","pricing_plan_id":"cebpf4jnsgd1na2vs0mg"},{"bike_id":"bd612c60-592c-4097-836e-bfba58726d72","system_id":"levelo_inurba_marseille","lat":43.31363,"lon":5.3669,"is_reserved":false,"is_disabled":false,"rental_uris":{"android":"levelo://app?vid=bd612c60-592c-4097-836e-bfba58726d72","ios":"levelo://app?vid=bd612c60-592c-4097-836e-bfba58726d72"},"vehicle_type_id":"4","last_reported":1762503349,"current_range_meters":6800,"station_id":"ce4bgr92rcd13ifvqc6g","pricing_plan_id":"cebpf4jnsgd1na2vs0mg"},{"bike_id":"a715c0ef-3857-414c-967a-b5d1a542eb13","system_id":"levelo_inurba_marseille","lat":43.2254,"lon":5.34828,"is_reserved":false,"is_disabled":false,"rental_uris":{"android":"levelo://app?vid=a715c0ef-3857-414c-967a-b5d1a542eb13","ios":"levelo://app?vid=a715c0ef-3857-414c-967a-b5d1a542eb13"},"vehicle_type_id":"4","last_reported":1762503349,"current_range_meters":7200,"station_id":"","pricing_plan_id":"cebpf4jnsgd1na2vs0mg"},{"bike_id":"3f7bf004-3b15-48b2-974b-09402d5858eb","system_id":"levelo_inurba_marseille","lat":43.24636,"lon":5.43143,"is_reserved":false,"is_disabled":false,"rental_uris":{"android":"levelo://app?vid=3f7bf004-3b15-48b2-974b-09402d5858eb","ios":"levelo://app?vid=3f7bf004-3b15-48b2-974b-09402d5858eb"},"vehicle_type_id":"4","last_reported":1762503349,"current_range_meters":7200,"station_id":"st_d2m6c4gdas8pm72e190g","pricing_plan_id":"cebpf4jnsgd1na2vs0mg"},{"bike_id":"81dcc136-dea2-46c0-98af-42dbdee92b54","system_id":"levelo_inurba_marseille","lat":43.28485,"lon":5.48392,"is_reserved":false,"is_disabled":false,"rental_uris":{"android":"levelo://app?vid=81dcc136-dea2-46c0-98af-42dbdee92b54","ios":"levelo://app?vid=81dcc136-dea2-46c0-98af-42dbdee92b54"},"vehicle_type_id":"4","last_reported":1762503349,"current_range_meters":7200,"station_id":"","pricing_plan_id":"cebpf4jnsgd1na2vs0mg"},{"bike_id":"526980cc-e11a-4ffd-9550-4ee2d805e862","system_id":"levelo_inurba_marseille","lat":43.27818,"lon":5.40708,"is_reserved":false,"is_disabled":false,"rental_uris":{"android":"levelo://app?vid=526980cc-e11a-4ffd-9550-4ee2d805e862","ios":"levelo://app?vid=526980cc-e11a-4ffd-9550-4ee2d805e862"},"vehicle_type_id":"4","last_reported":1762503349,"current_range_meters":7200,"station_id":"ce4bhnh2rcd13ifvqgtg","pricing_plan_id":"cebpf4jnsgd1na2vs0mg"},{"bike_id":"e05d2d5b-b217-43d0-af8e-addb1244bb10","system_id":"levelo_inurba_marseille","lat":43.31221,"lon":5.36862,"is_reserved":false,"is_disabled":false,"rental_uris":{"android":"levelo://app?vid=e05d2d5b-b217-43d0-af8e-addb1244bb10","ios":"levelo://app?vid=e05d2d5b-b217-43d0-af8e-addb1244bb10"},"vehicle_type_id":"4","last_reported":1762503349,"current_range_meters":7200,"station_id":"ce4bgl92rcd13ifvqbq0","pricing_plan_id":"cebpf4jnsgd1na2vs0mg"},{"bike_id":"6ce9b756-ae47-47c7-9c0d-688f85723ec2","system_id":"levelo_inurba_marseille","lat":43.28717,"lon":5.37956,"is_reserved":false,"is_disabled":false,"rental_uris":{"android":"levelo://app?vid=6ce9b756-ae47-47c7-9c0d-688f85723ec2","ios":"levelo://app?vid=6ce9b756-ae47-47c7-9c0d-688f85723ec2"},"vehicle_type_id":"4","last_reported":1762503349,"current_range_meters":8000,"station_id":"ce4bh9p2rcd13ifvqec0","pricing_plan_id":"cebpf4jnsgd1na2vs0mg"},{"bike_id":"4ff02e69-ba85-477c-bc8d-861d3d6d2d8e","system_id":"levelo_inurba_marseille","lat":43.31686,"lon":5.40473,"is_reserved":false,"is_disabled":false,"rental_uris":{"android":"levelo://app?vid=4ff02e69-ba85-477c-bc8d-861d3d6d2d8e","ios":"levelo://app?vid=4ff02e69-ba85-477c-bc8d-861d3d6d2d8e"},"vehicle_type_id":"4","last_reported":1762503349,"current_range_meters":8000,"station_id":"ce4bh012rcd13ifvqd00","pricing_plan_id":"cebpf4jnsgd1na2vs0mg"},{"bike_id":"9b82c0de-80db-4eb8-b008-31e481180344","system_id":"levelo_inurba_marseille","lat":43.28614,"lon":5.351,"is_reserved":false,"is_disabled":false,"rental_uris":{"android":"levelo://app?vid=9b82c0de-80db-4eb8-b008-31e481180344","ios":"levelo://app?vid=9b82c0de-80db-4eb8-b008-31e481180344"},"vehicle_type_id":"4","last_reported":1762503349,"current_range_meters":8000,"station_id":"ce4bhch2rcd13ifvqeug","pricing_plan_id":"cebpf4jnsgd1na2vs0mg"},{"bike_id":"faf02dba-a063-4be7-b738-20d510b602ef","system_id":"levelo_inurba_marseille","lat":43.29826,"lon":5.38287,"is_reserved":false,"is_disabled":false,"rental_uris":{"android":"levelo://app?vid=faf02dba-a063-4be7-b738-20d510b602ef","ios":"levelo://app?vid=faf02dba-a063-4be7-b738-20d510b602ef"},"vehicle_type_id":"4","last_reported":1762503349,"current_range_meters":8000,"station_id":"","pricing_plan_id":"cebpf4jnsgd1na2vs0mg"},{"bike_id":"e43e397b-f1bf-4830-9938-a0643e222c63","system_id":"levelo_inurba_marseille","lat":43.24947,"lon":5.40498,"is_reserved":false,"is_disabled":false,"rental_uris":{"android":"levelo://app?vid=e43e397b-f1bf-4830-9938-a0643e222c63","ios":"levelo://app?vid=e43e397b-f1bf-4830-9938-a0643e222c63"},"vehicle_type_id":"4","last_reported":1762503349,"current_range_meters":8000,"station_id":"st_d2ngiaodas8pm72gd1h0","pricing_plan_id":"cebpf4jnsgd1na2vs0mg"},{"bike_id":"253154f6-e9c9-4067-8ae0-8629a2242cf8","system_id":"levelo_inurba_marseille","lat":43.29001,"lon":5.373,"is_reserved":false,"is_disabled":false,"rental_uris":{"android":"levelo://app?vid=253154f6-e9c9-4067-8ae0-8629a2242cf8","ios":"levelo://app?vid=253154f6-e9c9-4067-8ae0-8629a2242cf8"},"vehicle_type_id":"4","last_reported":1762503349,"current_range_meters":8400,"station_id":"","pricing_plan_id":"cebpf4jnsgd1na2vs0mg"},{"bike_id":"6e9601c8-3a9b-4c4f-8a50-e778f7d9a229","system_id":"levelo_inurba_marseille","lat":43.299358,"lon":5.365511,"is_reserved":false,"is_disabled":false,"rental_uris":{"android":"levelo://app?vid=6e9601c8-3a9b-4c4f-8a50-e778f7d9a229","ios":"levelo://app?vid=6e9601c8-3a9b-4c4f-8a50-e778f7d9a229"},"vehicle_type_id":"4","last_reported":1762503349,"current_range_meters":8400,"station_id":"ce4bgm92rcd13ifvqbr0","pricing_plan_id":"cebpf4jnsgd1na2vs0mg"},{"bike_id":"2618c74e-cd82-4350-9ac4-b70dcae78025","system_id":"levelo_inurba_marseille","lat":43.27496,"lon":5.42449,"is_reserved":false,"is_disabled":false,"rental_uris":{"android":"levelo://app?vid=2618c74e-cd82-4350-9ac4-b70dcae78025","ios":"levelo://app?vid=2618c74e-cd82-4350-9ac4-b70dcae78025"},"vehicle_type_id":"4","last_reported":1762503349,"current_range_meters":8400,"station_id":"ce4bhn92rcd13ifvqgrg","pricing_plan_id":"cebpf4jnsgd1na2vs0mg"},{"bike_id":"d1df350f-56fd-491e-be56-8dcad3bb2ea2","system_id":"levelo_inurba_marseille","lat":43.22596,"lon":5.41624,"is_reserved":false,"is_disabled":false,"rental_uris":{"android":"levelo://app?vid=d1df350f-56fd-491e-be56-8dcad3bb2ea2","ios":"levelo://app?vid=d1df350f-56fd-491e-be56-8dcad3bb2ea2"},"vehicle_type_id":"4","last_reported":1762503349,"current_range_meters":8400,"station_id":"st_d2o4gvlbi1j2169b742g","pricing_plan_id":"cebpf4jnsgd1na2vs0mg"},{"bike_id":"c3fb5728-fde2-467a-9627-063f28b0c151","system_id":"levelo_inurba_marseille","lat":43.259333,"lon":5.409112,"is_reserved":false,"is_disabled":false,"rental_uris":{"android":"levelo://app?vid=c3fb5728-fde2-467a-9627-063f28b0c151","ios":"levelo://app?vid=c3fb5728-fde2-467a-9627-063f28b0c151"},"vehicle_type_id":"4","last_reported":1762503349,"current_range_meters":8400,"station_id":"ce4bhm92rcd13ifvqglg","pricing_plan_id":"cebpf4jnsgd1na2vs0mg"},{"bike_id":"09ed3eb5-c2d4-4c5e-b9d1-44fb102a0a7e","system_id":"levelo_inurba_marseille","lat":43.22562,"lon":5.41627,"is_reserved":false,"is_disabled":false,"rental_uris":{"android":"levelo://app?vid=09ed3eb5-c2d4-4c5e-b9d1-44fb102a0a7e","ios":"levelo://app?vid=09ed3eb5-c2d4-4c5e-b9d1-44fb102a0a7e"},"vehicle_type_id":"4","last_reported":1762503349,"current_range_meters":8400,"station_id":"st_d2o4gvlbi1j2169b742g","pricing_plan_id":"cebpf4jnsgd1na2vs0mg"},{"bike_id":"1c81c9ab-2d02-4aaf-9980-35f7cf39a51e","system_id":"levelo_inurba_marseille","lat":43.27064,"lon":5.40263,"is_reserved":false,"is_disabled":false,"rental_uris":{"android":"levelo://app?vid=1c81c9ab-2d02-4aaf-9980-35f7cf39a51e","ios":"levelo://app?vid=1c81c9ab-2d02-4aaf-9980-35f7cf39a51e"},"vehicle_type_id":"4","last_reported":1762503349,"current_range_meters":8400,"station_id":"ce4bhk92rcd13ifvqgc0","pricing_plan_id":"cebpf4jnsgd1na2vs0mg"},{"bike_id":"78a2ab8f-4f7c-4ddc-9701-1001c917a1ce","system_id":"levelo_inurba_marseille","lat":43.28543,"lon":5.44106,"is_reserved":false,"is_disabled":false,"rental_uris":{"android":"levelo://app?vid=78a2ab8f-4f7c-4ddc-9701-1001c917a1ce","ios":"levelo://app?vid=78a2ab8f-4f7c-4ddc-9701-1001c917a1ce"},"vehicle_type_id":"4","last_reported":1762503349,"current_range_meters":8400,"station_id":"st_d3j3df2ikq2c7380ej80","pricing_plan_id":"cebpf4jnsgd1na2vs0mg"},{"bike_id":"9d8847f0-291b-4f07-b1aa-f725929779cf","system_id":"levelo_inurba_marseille","lat":43.31076,"lon":5.38359,"is_reserved":false,"is_disabled":false,"rental_uris":{"android":"levelo://app?vid=9d8847f0-291b-4f07-b1aa-f725929779cf","ios":"levelo://app?vid=9d8847f0-291b-4f07-b1aa-f725929779cf"},"vehicle_type_id":"4","last_reported":1762503349,"current_range_meters":8400,"station_id":"ce4bgv92rcd13ifvqcr0","pricing_plan_id":"cebpf4jnsgd1na2vs0mg"},{"bike_id":"dd9dd3ba-f841-4d2a-b206-9ab2184df950","system_id":"levelo_inurba_marseille","lat":43.29145,"lon":5.37085,"is_reserved":false,"is_disabled":false,"rental_uris":{"android":"levelo://app?vid=dd9dd3ba-f841-4d2a-b206-9ab2184df950","ios":"levelo://app?vid=dd9dd3ba-f841-4d2a-b206-9ab2184df950"},"vehicle_type_id":"4","last_reported":1762503349,"current_range_meters":8800,"station_id":"","pricing_plan_id":"cebpf4jnsgd1na2vs0mg"},{"bike_id":"cea50c25-d91c-40aa-a4d6-80fb92f38429","system_id":"levelo_inurba_marseille","lat":43.2781,"lon":5.40712,"is_reserved":false,"is_disabled":false,"rental_uris":{"android":"levelo://app?vid=cea50c25-d91c-40aa-a4d6-80fb92f38429","ios":"levelo://app?vid=cea50c25-d91c-40aa-a4d6-80fb92f38429"},"vehicle_type_id":"4","last_reported":1762503349,"current_range_meters":8800,"station_id":"ce4bhnh2rcd13ifvqgtg","pricing_plan_id":"cebpf4jnsgd1na2vs0mg"},{"bike_id":"dd12e5cc-6efd-4080-a855-2053f9702d15","system_id":"levelo_inurba_marseille","lat":43.25942,"lon":5.40908,"is_reserved":false,"is_disabled":false,"rental_uris":{"android":"levelo://app?vid=dd12e5cc-6efd-4080-a855-2053f9702d15","ios":"levelo://app?vid=dd12e5cc-6efd-4080-a855-2053f9702d15"},"vehicle_type_id":"4","last_reported":1762503349,"current_range_meters":8800,"station_id":"ce4bhm92rcd13ifvqglg","pricing_plan_id":"cebpf4jnsgd1na2vs0mg"},{"bike_id":"71967476-752a-4f5e-b222-99c0eea95f39","system_id":"levelo_inurba_marseille","lat":43.32307,"lon":5.38426,"is_reserved":false,"is_disabled":false,"rental_uris":{"android":"levelo://app?vid=71967476-752a-4f5e-b222-99c0eea95f39","ios":"levelo://app?vid=71967476-752a-4f5e-b222-99c0eea95f39"},"vehicle_type_id":"4","last_reported":1762503349,"current_range_meters":8800,"station_id":"","pricing_plan_id":"cebpf4jnsgd1na2vs0mg"},{"bike_id":"d47c2504-2268-4591-88a6-605f083733ac","system_id":"levelo_inurba_marseille","lat":43.28489,"lon":5.484052,"is_reserved":false,"is_disabled":false,"rental_uris":{"android":"levelo://app?vid=d47c2504-2268-4591-88a6-605f083733ac","ios":"levelo://app?vid=d47c2504-2268-4591-88a6-605f083733ac"},"vehicle_type_id":"4","last_reported":1762503349,"current_range_meters":9200,"station_id":"","pricing_plan_id":"cebpf4jnsgd1na2vs0mg"},{"bike_id":"e27166c8-85bb-46ad-adfd-5dad71a4f82c","system_id":"levelo_inurba_marseille","lat":43.28034,"lon":5.36945,"is_reserved":false,"is_disabled":false,"rental_uris":{"android":"levelo://app?vid=e27166c8-85bb-46ad-adfd-5dad71a4f82c","ios":"levelo://app?vid=e27166c8-85bb-46ad-adfd-5dad71a4f82c"},"vehicle_type_id":"4","last_reported":1762503349,"current_range_meters":9200,"station_id":"ce4bha12rcd13ifvqef0","pricing_plan_id":"cebpf4jnsgd1na2vs0mg"},{"bike_id":"30bca0b2-13f7-4d83-8503-959ccf241efc","system_id":"levelo_inurba_marseille","lat":43.24957,"lon":5.40497,"is_reserved":false,"is_disabled":false,"rental_uris":{"android":"levelo://app?vid=30bca0b2-13f7-4d83-8503-959ccf241efc","ios":"levelo://app?vid=30bca0b2-13f7-4d83-8503-959ccf241efc"},"vehicle_type_id":"4","last_reported":1762503349,"current_range_meters":9200,"station_id":"st_d2ngiaodas8pm72gd1h0","pricing_plan_id":"cebpf4jnsgd1na2vs0mg"},{"bike_id":"3ffe2c7b-f27f-49bd-95c3-0ecfbf0880d2","system_id":"levelo_inurba_marseille","lat":43.306997,"lon":5.384379,"is_reserved":false,"is_disabled":false,"rental_uris":{"android":"levelo://app?vid=3ffe2c7b-f27f-49bd-95c3-0ecfbf0880d2","ios":"levelo://app?vid=3ffe2c7b-f27f-49bd-95c3-0ecfbf0880d2"},"vehicle_type_id":"4","last_reported":1762503349,"current_range_meters":9200,"station_id":"","pricing_plan_id":"cebpf4jnsgd1na2vs0mg"},{"bike_id":"c84e0001-62b8-4470-bb20-75917ec6c6f7","system_id":"levelo_inurba_marseille","lat":43.3122,"lon":5.36848,"is_reserved":false,"is_disabled":false,"rental_uris":{"android":"levelo://app?vid=c84e0001-62b8-4470-bb20-75917ec6c6f7","ios":"levelo://app?vid=c84e0001-62b8-4470-bb20-75917ec6c6f7"},"vehicle_type_id":"4","last_reported":1762503349,"current_range_meters":9200,"station_id":"ce4bgl92rcd13ifvqbq0","pricing_plan_id":"cebpf4jnsgd1na2vs0mg"},{"bike_id":"4797eaa5-1fc5-427c-815f-0905d896d815","system_id":"levelo_inurba_marseille","lat":43.27061,"lon":5.38308,"is_reserved":false,"is_disabled":false,"rental_uris":{"android":"levelo://app?vid=4797eaa5-1fc5-427c-815f-0905d896d815","ios":"levelo://app?vid=4797eaa5-1fc5-427c-815f-0905d896d815"},"vehicle_type_id":"4","last_reported":1762503349,"current_range_meters":9200,"station_id":"st_d3n2fo6cfp8s73cte1j0","pricing_plan_id":"cebpf4jnsgd1na2vs0mg"},{"bike_id":"ab3a4d6b-b442-44b9-8f02-c1c222f445ba","system_id":"levelo_inurba_marseille","lat":43.274461,"lon":5.392696,"is_reserved":false,"is_disabled":false,"rental_uris":{"android":"levelo://app?vid=ab3a4d6b-b442-44b9-8f02-c1c222f445ba","ios":"levelo://app?vid=ab3a4d6b-b442-44b9-8f02-c1c222f445ba"},"vehicle_type_id":"4","last_reported":1762503349,"current_range_meters":9600,"station_id":"","pricing_plan_id":"cebpf4jnsgd1na2vs0mg"},{"bike_id":"e986448c-3285-49f6-a01e-afdbdae82fae","system_id":"levelo_inurba_marseille","lat":43.23154,"lon":5.43703,"is_reserved":false,"is_disabled":false,"rental_uris":{"android":"levelo://app?vid=e986448c-3285-49f6-a01e-afdbdae82fae","ios":"levelo://app?vid=e986448c-3285-49f6-a01e-afdbdae82fae"},"vehicle_type_id":"4","last_reported":1762503349,"current_range_meters":9600,"station_id":"ce4bhmp2rcd13ifvqgog","pricing_plan_id":"cebpf4jnsgd1na2vs0mg"},{"bike_id":"b604a661-5849-4bc9-98d7-354c9f2b8331","system_id":"levelo_inurba_marseille","lat":43.304696,"lon":5.379094,"is_reserved":false,"is_disabled":false,"rental_uris":{"android":"levelo://app?vid=b604a661-5849-4bc9-98d7-354c9f2b8331","ios":"levelo://app?vid=b604a661-5849-4bc9-98d7-354c9f2b8331"},"vehicle_type_id":"4","last_reported":1762503349,"current_range_meters":9600,"station_id":"","pricing_plan_id":"cebpf4jnsgd1na2vs0mg"},{"bike_id":"f9a84438-123e-4caa-9547-9df9964b1ae5","system_id":"levelo_inurba_marseille","lat":43.336083,"lon":5.410116,"is_reserved":false,"is_disabled":false,"rental_uris":{"android":"levelo://app?vid=f9a84438-123e-4caa-9547-9df9964b1ae5","ios":"levelo://app?vid=f9a84438-123e-4caa-9547-9df9964b1ae5"},"vehicle_type_id":"4","last_reported":1762503349,"current_range_meters":9600,"station_id":"ce4bhqh2rcd13ifvqhmg","pricing_plan_id":"cebpf4jnsgd1na2vs0mg"},{"bike_id":"6ee540f0-7f3b-453f-90af-c60b64a71b48","system_id":"levelo_inurba_marseille","lat":43.314,"lon":5.40397,"is_reserved":false,"is_disabled":false,"rental_uris":{"android":"levelo://app?vid=6ee540f0-7f3b-453f-90af-c60b64a71b48","ios":"levelo://app?vid=6ee540f0-7f3b-453f-90af-c60b64a71b48"},"vehicle_type_id":"4","last_reported":1762503349,"current_range_meters":9600,"station_id":"","pricing_plan_id":"cebpf4jnsgd1na2vs0mg"},{"bike_id":"b565574a-9bdf-4792-b451-221643610acf","system_id":"levelo_inurba_marseille","lat":43.22528,"lon":5.34823,"is_reserved":false,"is_disabled":false,"rental_uris":{"android":"levelo://app?vid=b565574a-9bdf-4792-b451-221643610acf","ios":"levelo://app?vid=b565574a-9bdf-4792-b451-221643610acf"},"vehicle_type_id":"4","last_reported":1762503349,"current_range_meters":9600,"station_id":"st_cvj5dfep6f1abm77gieg","pricing_plan_id":"cebpf4jnsgd1na2vs0mg"},{"bike_id":"643a63be-8606-4543-90d6-8d4a868e0d75","system_id":"levelo_inurba_marseille","lat":43.24806,"lon":5.37456,"is_reserved":false,"is_disabled":false,"rental_uris":{"android":"levelo://app?vid=643a63be-8606-4543-90d6-8d4a868e0d75","ios":"levelo://app?vid=643a63be-8606-4543-90d6-8d4a868e0d75"},"vehicle_type_id":"4","last_reported":1762503349,"current_range_meters":9600,"station_id":"","pricing_plan_id":"cebpf4jnsgd1na2vs0mg"},{"bike_id":"59b31ef2-3fe3-46e5-b5a5-685f264695ce","system_id":"levelo_inurba_marseille","lat":43.284815,"lon":5.483993,"is_reserved":false,"is_disabled":false,"rental_uris":{"android":"levelo://app?vid=59b31ef2-3fe3-46e5-b5a5-685f264695ce","ios":"levelo://app?vid=59b31ef2-3fe3-46e5-b5a5-685f264695ce"},"vehicle_type_id":"4","last_reported":1762503349,"current_range_meters":9600,"station_id":"","pricing_plan_id":"cebpf4jnsgd1na2vs0mg"},{"bike_id":"ce44fa4b-cff1-4564-ba47-cbfbbb7a39ea","system_id":"levelo_inurba_marseille","lat":43.28738,"lon":5.3795,"is_reserved":false,"is_disabled":false,"rental_uris":{"android":"levelo://app?vid=ce44fa4b-cff1-4564-ba47-cbfbbb7a39ea","ios":"levelo://app?vid=ce44fa4b-cff1-4564-ba47-cbfbbb7a39ea"},"vehicle_type_id":"4","last_reported":1762503349,"current_range_meters":10000,"station_id":"ce4bh9p2rcd13ifvqec0","pricing_plan_id":"cebpf4jnsgd1na2vs0mg"},{"bike_id":"957dedc2-44bd-40ee-a718-ca0ffd0efaef","system_id":"levelo_inurba_marseille","lat":43.27672,"lon":5.38893,"is_reserved":false,"is_disabled":true,"rental_uris":{"android":"levelo://app?vid=957dedc2-44bd-40ee-a718-ca0ffd0efaef","ios":"levelo://app?vid=957dedc2-44bd-40ee-a718-ca0ffd0efaef"},"vehicle_type_id":"4","last_reported":1762503349,"current_range_meters":10000,"station_id":"ce4bhi12rcd13ifvqfo0","pricing_plan_id":"cebpf4jnsgd1na2vs0mg"},{"bike_id":"30c6b425-6ae6-43f9-a0a7-f7d4a6ed93cd","system_id":"levelo_inurba_marseille","lat":43.27931,"lon":5.411382,"is_reserved":false,"is_disabled":false,"rental_uris":{"android":"levelo://app?vid=30c6b425-6ae6-43f9-a0a7-f7d4a6ed93cd","ios":"levelo://app?vid=30c6b425-6ae6-43f9-a0a7-f7d4a6ed93cd"},"vehicle_type_id":"4","last_reported":1762503349,"current_range_meters":10000,"station_id":"","pricing_plan_id":"cebpf4jnsgd1na2vs0mg"},{"bike_id":"a19c30db-b470-4793-ab4a-7911940515e1","system_id":"levelo_inurba_marseille","lat":43.27821,"lon":5.40716,"is_reserved":false,"is_disabled":true,"rental_uris":{"android":"levelo://app?vid=a19c30db-b470-4793-ab4a-7911940515e1","ios":"levelo://app?vid=a19c30db-b470-4793-ab4a-7911940515e1"},"vehicle_type_id":"4","last_reported":1762503349,"current_range_meters":10000,"station_id":"ce4bhnh2rcd13ifvqgtg","pricing_plan_id":"cebpf4jnsgd1na2vs0mg"},{"bike_id":"c816b626-0dfd-4e33-a230-4ffb4cbaf04d","system_id":"levelo_inurba_marseille","lat":43.3054,"lon":5.384281,"is_reserved":false,"is_disabled":false,"rental_uris":{"android":"levelo://app?vid=c816b626-0dfd-4e33-a230-4ffb4cbaf04d","ios":"levelo://app?vid=c816b626-0dfd-4e33-a230-4ffb4cbaf04d"},"vehicle_type_id":"4","last_reported":1762503349,"current_range_meters":10000,"station_id":"ce4bgg92rcd13ifvqb30","pricing_plan_id":"cebpf4jnsgd1na2vs0mg"},{"bike_id":"319ffc4e-7711-40e6-a5bd-4d90d7a995da","system_id":"levelo_inurba_marseille","lat":43.310876,"lon":5.424227,"is_reserved":false,"is_disabled":false,"rental_uris":{"android":"levelo://app?vid=319ffc4e-7711-40e6-a5bd-4d90d7a995da","ios":"levelo://app?vid=319ffc4e-7711-40e6-a5bd-4d90d7a995da"},"vehicle_type_id":"4","last_reported":1762503349,"current_range_meters":10000,"station_id":"ce4bhp92rcd13ifvqhag","pricing_plan_id":"cebpf4jnsgd1na2vs0mg"},{"bike_id":"5ddc9d39-e788-44e4-977d-90138068b805","system_id":"levelo_inurba_marseille","lat":43.34148,"lon":5.40901,"is_reserved":false,"is_disabled":false,"rental_uris":{"android":"levelo://app?vid=5ddc9d39-e788-44e4-977d-90138068b805","ios":"levelo://app?vid=5ddc9d39-e788-44e4-977d-90138068b805"},"vehicle_type_id":"4","last_reported":1762503349,"current_range_meters":10000,"station_id":"ce4bhqh2rcd13ifvqhlg","pricing_plan_id":"cebpf4jnsgd1na2vs0mg"},{"bike_id":"93fdce70-ebd3-4171-95a1-c27d6d292d8a","system_id":"levelo_inurba_marseille","lat":43.28041,"lon":5.36943,"is_reserved":false,"is_disabled":false,"rental_uris":{"android":"levelo://app?vid=93fdce70-ebd3-4171-95a1-c27d6d292d8a","ios":"levelo://app?vid=93fdce70-ebd3-4171-95a1-c27d6d292d8a"},"vehicle_type_id":"4","last_reported":1762503349,"current_range_meters":10000,"station_id":"ce4bha12rcd13ifvqef0","pricing_plan_id":"cebpf4jnsgd1na2vs0mg"},{"bike_id":"2b6b1f79-96ea-498a-810b-6b39590e1d4e","system_id":"levelo_inurba_marseille","lat":43.22567,"lon":5.41624,"is_reserved":false,"is_disabled":false,"rental_uris":{"android":"levelo://app?vid=2b6b1f79-96ea-498a-810b-6b39590e1d4e","ios":"levelo://app?vid=2b6b1f79-96ea-498a-810b-6b39590e1d4e"},"vehicle_type_id":"4","last_reported":1762503349,"current_range_meters":10000,"station_id":"st_d2o4gvlbi1j2169b742g","pricing_plan_id":"cebpf4jnsgd1na2vs0mg"},{"bike_id":"62b597ad-0183-45ab-83ea-6b1f25540269","system_id":"levelo_inurba_marseille","lat":43.32749,"lon":5.452,"is_reserved":false,"is_disabled":false,"rental_uris":{"android":"levelo://app?vid=62b597ad-0183-45ab-83ea-6b1f25540269","ios":"levelo://app?vid=62b597ad-0183-45ab-83ea-6b1f25540269"},"vehicle_type_id":"4","last_reported":1762503349,"current_range_meters":10000,"station_id":"","pricing_plan_id":"cebpf4jnsgd1na2vs0mg"},{"bike_id":"1c1406c3-ccbf-4c7e-948d-af3d562996c8","system_id":"levelo_inurba_marseille","lat":43.2982,"lon":5.44041,"is_reserved":false,"is_disabled":false,"rental_uris":{"android":"levelo://app?vid=1c1406c3-ccbf-4c7e-948d-af3d562996c8","ios":"levelo://app?vid=1c1406c3-ccbf-4c7e-948d-af3d562996c8"},"vehicle_type_id":"4","last_reported":1762503349,"current_range_meters":10800,"station_id":"st_d3jp68qikq2c7381ktn0","pricing_plan_id":"cebpf4jnsgd1na2vs0mg"},{"bike_id":"bac5d48e-da66-48a5-8151-c66bbdf506ba","system_id":"levelo_inurba_marseille","lat":43.23151,"lon":5.43722,"is_reserved":false,"is_disabled":false,"rental_uris":{"android":"levelo://app?vid=bac5d48e-da66-48a5-8151-c66bbdf506ba","ios":"levelo://app?vid=bac5d48e-da66-48a5-8151-c66bbdf506ba"},"vehicle_type_id":"4","last_reported":1762503349,"current_range_meters":10800,"station_id":"ce4bhmp2rcd13ifvqgog","pricing_plan_id":"cebpf4jnsgd1na2vs0mg"},{"bike_id":"f0162dd0-493e-4789-b7c3-cabd55d30c5f","system_id":"levelo_inurba_marseille","lat":43.324662,"lon":5.365635,"is_reserved":false,"is_disabled":false,"rental_uris":{"android":"levelo://app?vid=f0162dd0-493e-4789-b7c3-cabd55d30c5f","ios":"levelo://app?vid=f0162dd0-493e-4789-b7c3-cabd55d30c5f"},"vehicle_type_id":"4","last_reported":1762503349,"current_range_meters":10800,"station_id":"ce4bhs12rcd13ifvqhvg","pricing_plan_id":"cebpf4jnsgd1na2vs0mg"},{"bike_id":"1352944b-7ad2-42fc-8948-ad4cf9e45c9f","system_id":"levelo_inurba_marseille","lat":43.33606,"lon":5.41029,"is_reserved":false,"is_disabled":false,"rental_uris":{"android":"levelo://app?vid=1352944b-7ad2-42fc-8948-ad4cf9e45c9f","ios":"levelo://app?vid=1352944b-7ad2-42fc-8948-ad4cf9e45c9f"},"vehicle_type_id":"4","last_reported":1762503349,"current_range_meters":10800,"station_id":"ce4bhqh2rcd13ifvqhmg","pricing_plan_id":"cebpf4jnsgd1na2vs0mg"},{"bike_id":"4cac4ebd-5c77-4ba4-8387-1c48fc45f3a7","system_id":"levelo_inurba_marseille","lat":43.31119,"lon":5.37776,"is_reserved":false,"is_disabled":false,"rental_uris":{"android":"levelo://app?vid=4cac4ebd-5c77-4ba4-8387-1c48fc45f3a7","ios":"levelo://app?vid=4cac4ebd-5c77-4ba4-8387-1c48fc45f3a7"},"vehicle_type_id":"4","last_reported":1762503349,"current_range_meters":10800,"station_id":"ce4bgt92rcd13ifvqcg0","pricing_plan_id":"cebpf4jnsgd1na2vs0mg"},{"bike_id":"3f0f222f-be3a-4b4f-8a82-ea22924a7f57","system_id":"levelo_inurba_marseille","lat":43.24073,"lon":5.37766,"is_reserved":false,"is_disabled":false,"rental_uris":{"android":"levelo://app?vid=3f0f222f-be3a-4b4f-8a82-ea22924a7f57","ios":"levelo://app?vid=3f0f222f-be3a-4b4f-8a82-ea22924a7f57"},"vehicle_type_id":"4","last_reported":1762503349,"current_range_meters":10800,"station_id":"","pricing_plan_id":"cebpf4jnsgd1na2vs0mg"},{"bike_id":"6220bb5f-8916-4cab-8736-629d21b2de30","system_id":"levelo_inurba_marseille","lat":43.27375,"lon":5.42398,"is_reserved":false,"is_disabled":false,"rental_uris":{"android":"levelo://app?vid=6220bb5f-8916-4cab-8736-629d21b2de30","ios":"levelo://app?vid=6220bb5f-8916-4cab-8736-629d21b2de30"},"vehicle_type_id":"4","last_reported":1762503349,"current_range_meters":11200,"station_id":"","pricing_plan_id":"cebpf4jnsgd1na2vs0mg"},{"bike_id":"1e89aa19-8456-4398-b70e-ce2874dd6d89","system_id":"levelo_inurba_marseille","lat":43.215522,"lon":5.344688,"is_reserved":false,"is_disabled":false,"rental_uris":{"android":"levelo://app?vid=1e89aa19-8456-4398-b70e-ce2874dd6d89","ios":"levelo://app?vid=1e89aa19-8456-4398-b70e-ce2874dd6d89"},"vehicle_type_id":"4","last_reported":1762503349,"current_range_meters":11200,"station_id":"","pricing_plan_id":"cebpf4jnsgd1na2vs0mg"},{"bike_id":"0e20a5d9-0ab3-4e71-a3ef-c9be28fc5551","system_id":"levelo_inurba_marseille","lat":43.28534,"lon":5.44099,"is_reserved":false,"is_disabled":false,"rental_uris":{"android":"levelo://app?vid=0e20a5d9-0ab3-4e71-a3ef-c9be28fc5551","ios":"levelo://app?vid=0e20a5d9-0ab3-4e71-a3ef-c9be28fc5551"},"vehicle_type_id":"4","last_reported":1762503349,"current_range_meters":11200,"station_id":"st_d3j3df2ikq2c7380ej80","pricing_plan_id":"cebpf4jnsgd1na2vs0mg"},{"bike_id":"33ae4984-5f12-485a-9589-62afcaed0591","system_id":"levelo_inurba_marseille","lat":43.291288,"lon":5.40784,"is_reserved":false,"is_disabled":false,"rental_uris":{"android":"levelo://app?vid=33ae4984-5f12-485a-9589-62afcaed0591","ios":"levelo://app?vid=33ae4984-5f12-485a-9589-62afcaed0591"},"vehicle_type_id":"4","last_reported":1762503349,"current_range_meters":11200,"station_id":"","pricing_plan_id":"cebpf4jnsgd1na2vs0mg"},{"bike_id":"4a440a57-1f4b-45b1-ae85-351b9b3e414d","system_id":"levelo_inurba_marseille","lat":43.273746,"lon":5.36255,"is_reserved":false,"is_disabled":false,"rental_uris":{"android":"levelo://app?vid=4a440a57-1f4b-45b1-ae85-351b9b3e414d","ios":"levelo://app?vid=4a440a57-1f4b-45b1-ae85-351b9b3e414d"},"vehicle_type_id":"4","last_reported":1762503349,"current_range_meters":11200,"station_id":"ce4bhbh2rcd13ifvqeo0","pricing_plan_id":"cebpf4jnsgd1na2vs0mg"},{"bike_id":"860a3ed7-0eca-4b8b-b64e-25200781bb31","system_id":"levelo_inurba_marseille","lat":43.29921,"lon":5.38145,"is_reserved":false,"is_disabled":false,"rental_uris":{"android":"levelo://app?vid=860a3ed7-0eca-4b8b-b64e-25200781bb31","ios":"levelo://app?vid=860a3ed7-0eca-4b8b-b64e-25200781bb31"},"vehicle_type_id":"4","last_reported":1762503349,"current_range_meters":11200,"station_id":"ce4bgj12rcd13ifvqbc0","pricing_plan_id":"cebpf4jnsgd1na2vs0mg"},{"bike_id":"51a7e8e7-5be5-404f-8b55-10f3b98630eb","system_id":"levelo_inurba_marseille","lat":43.27996,"lon":5.40024,"is_reserved":false,"is_disabled":false,"rental_uris":{"android":"levelo://app?vid=51a7e8e7-5be5-404f-8b55-10f3b98630eb","ios":"levelo://app?vid=51a7e8e7-5be5-404f-8b55-10f3b98630eb"},"vehicle_type_id":"4","last_reported":1762503349,"current_range_meters":11200,"station_id":"ce4bho92rcd13ifvqh4g","pricing_plan_id":"cebpf4jnsgd1na2vs0mg"},{"bike_id":"0990d13d-02e1-4e54-9d32-bff81dbbfd6f","system_id":"levelo_inurba_marseille","lat":43.30142,"lon":5.37421,"is_reserved":false,"is_disabled":false,"rental_uris":{"android":"levelo://app?vid=0990d13d-02e1-4e54-9d32-bff81dbbfd6f","ios":"levelo://app?vid=0990d13d-02e1-4e54-9d32-bff81dbbfd6f"},"vehicle_type_id":"4","last_reported":1762503349,"current_range_meters":11600,"station_id":"ce4bgs92rcd13ifvqcc0","pricing_plan_id":"cebpf4jnsgd1na2vs0mg"},{"bike_id":"ea3493ac-549f-4563-8ebc-3496272766af","system_id":"levelo_inurba_marseille","lat":43.253409,"lon":5.421737,"is_reserved":false,"is_disabled":false,"rental_uris":{"android":"levelo://app?vid=ea3493ac-549f-4563-8ebc-3496272766af","ios":"levelo://app?vid=ea3493ac-549f-4563-8ebc-3496272766af"},"vehicle_type_id":"4","last_reported":1762503349,"current_range_meters":11600,"station_id":"st_d2m65c5bi1j21697t3ng","pricing_plan_id":"cebpf4jnsgd1na2vs0mg"},{"bike_id":"dae30738-204c-4787-a9b5-e056fa94e0c9","system_id":"levelo_inurba_marseille","lat":43.22567,"lon":5.41623,"is_reserved":false,"is_disabled":false,"rental_uris":{"android":"levelo://app?vid=dae30738-204c-4787-a9b5-e056fa94e0c9","ios":"levelo://app?vid=dae30738-204c-4787-a9b5-e056fa94e0c9"},"vehicle_type_id":"4","last_reported":1762503349,"current_range_meters":11600,"station_id":"st_d2o4gvlbi1j2169b742g","pricing_plan_id":"cebpf4jnsgd1na2vs0mg"},{"bike_id":"acd11f1f-a797-4d8a-ac97-7cfd85277af2","system_id":"levelo_inurba_marseille","lat":43.22921,"lon":5.35381,"is_reserved":false,"is_disabled":false,"rental_uris":{"android":"levelo://app?vid=acd11f1f-a797-4d8a-ac97-7cfd85277af2","ios":"levelo://app?vid=acd11f1f-a797-4d8a-ac97-7cfd85277af2"},"vehicle_type_id":"4","last_reported":1762503349,"current_range_meters":11600,"station_id":"cpo3532slgdg3j2ikp40","pricing_plan_id":"cebpf4jnsgd1na2vs0mg"},{"bike_id":"1fb57b18-b2ef-4ba4-9961-468b9658c49f","system_id":"levelo_inurba_marseille","lat":43.25924,"lon":5.40875,"is_reserved":false,"is_disabled":false,"rental_uris":{"android":"levelo://app?vid=1fb57b18-b2ef-4ba4-9961-468b9658c49f","ios":"levelo://app?vid=1fb57b18-b2ef-4ba4-9961-468b9658c49f"},"vehicle_type_id":"4","last_reported":1762503349,"current_range_meters":11600,"station_id":"ce4bhm92rcd13ifvqglg","pricing_plan_id":"cebpf4jnsgd1na2vs0mg"},{"bike_id":"fecd15b4-e638-418f-b7cb-cb77d3984a02","system_id":"levelo_inurba_marseille","lat":43.31176,"lon":5.38712,"is_reserved":false,"is_disabled":false,"rental_uris":{"android":"levelo://app?vid=fecd15b4-e638-418f-b7cb-cb77d3984a02","ios":"levelo://app?vid=fecd15b4-e638-418f-b7cb-cb77d3984a02"},"vehicle_type_id":"4","last_reported":1762503349,"current_range_meters":11600,"station_id":"ce4bgv12rcd13ifvqcp0","pricing_plan_id":"cebpf4jnsgd1na2vs0mg"},{"bike_id":"ac9b2307-8532-4e5b-acbf-4475959117d2","system_id":"levelo_inurba_marseille","lat":43.25724,"lon":5.41108,"is_reserved":false,"is_disabled":false,"rental_uris":{"android":"levelo://app?vid=ac9b2307-8532-4e5b-acbf-4475959117d2","ios":"levelo://app?vid=ac9b2307-8532-4e5b-acbf-4475959117d2"},"vehicle_type_id":"4","last_reported":1762503349,"current_range_meters":12000,"station_id":"ce4bhkp2rcd13ifvqgd0","pricing_plan_id":"cebpf4jnsgd1na2vs0mg"},{"bike_id":"06f25dea-ca18-4cca-a251-573298dd6aba","system_id":"levelo_inurba_marseille","lat":43.321115,"lon":5.367749,"is_reserved":false,"is_disabled":false,"rental_uris":{"android":"levelo://app?vid=06f25dea-ca18-4cca-a251-573298dd6aba","ios":"levelo://app?vid=06f25dea-ca18-4cca-a251-573298dd6aba"},"vehicle_type_id":"4","last_reported":1762503349,"current_range_meters":12000,"station_id":"ce4bhrh2rcd13ifvqhug","pricing_plan_id":"cebpf4jnsgd1na2vs0mg"},{"bike_id":"43e7e658-56d1-452e-9981-7dd57423c48b","system_id":"levelo_inurba_marseille","lat":43.30551,"lon":5.3655,"is_reserved":false,"is_disabled":false,"rental_uris":{"android":"levelo://app?vid=43e7e658-56d1-452e-9981-7dd57423c48b","ios":"levelo://app?vid=43e7e658-56d1-452e-9981-7dd57423c48b"},"vehicle_type_id":"4","last_reported":1762503349,"current_range_meters":12000,"station_id":"ce4bgs12rcd13ifvqcag","pricing_plan_id":"cebpf4jnsgd1na2vs0mg"},{"bike_id":"3b52366b-e19d-4511-b0ca-d95e3ab83065","system_id":"levelo_inurba_marseille","lat":43.2315,"lon":5.43713,"is_reserved":false,"is_disabled":false,"rental_uris":{"android":"levelo://app?vid=3b52366b-e19d-4511-b0ca-d95e3ab83065","ios":"levelo://app?vid=3b52366b-e19d-4511-b0ca-d95e3ab83065"},"vehicle_type_id":"4","last_reported":1762503349,"current_range_meters":12000,"station_id":"ce4bhmp2rcd13ifvqgog","pricing_plan_id":"cebpf4jnsgd1na2vs0mg"},{"bike_id":"ab9b2bcc-ea75-449d-adbb-4add292d38c4","system_id":"levelo_inurba_marseille","lat":43.3405,"lon":5.38253,"is_reserved":false,"is_disabled":true,"rental_uris":{"android":"levelo://app?vid=ab9b2bcc-ea75-449d-adbb-4add292d38c4","ios":"levelo://app?vid=ab9b2bcc-ea75-449d-adbb-4add292d38c4"},"vehicle_type_id":"4","last_reported":1762503349,"current_range_meters":12000,"station_id":"","pricing_plan_id":"cebpf4jnsgd1na2vs0mg"},{"bike_id":"28b54568-250f-48ad-b030-25d760bf4abc","system_id":"levelo_inurba_marseille","lat":43.321079,"lon":5.367813,"is_reserved":false,"is_disabled":false,"rental_uris":{"android":"levelo://app?vid=28b54568-250f-48ad-b030-25d760bf4abc","ios":"levelo://app?vid=28b54568-250f-48ad-b030-25d760bf4abc"},"vehicle_type_id":"4","last_reported":1762503349,"current_range_meters":12000,"station_id":"ce4bhrh2rcd13ifvqhug","pricing_plan_id":"cebpf4jnsgd1na2vs0mg"},{"bike_id":"f4c3d6ad-3669-4e1c-b29c-c035d0b0a0a3","system_id":"levelo_inurba_marseille","lat":43.29168,"lon":5.39307,"is_reserved":false,"is_disabled":true,"rental_uris":{"android":"levelo://app?vid=f4c3d6ad-3669-4e1c-b29c-c035d0b0a0a3","ios":"levelo://app?vid=f4c3d6ad-3669-4e1c-b29c-c035d0b0a0a3"},"vehicle_type_id":"4","last_reported":1762503349,"current_range_meters":12000,"station_id":"ce4bh192rcd13ifvqdd0","pricing_plan_id":"cebpf4jnsgd1na2vs0mg"},{"bike_id":"46609da1-1a56-4a2e-8fd3-da507a08e8ac","system_id":"levelo_inurba_marseille","lat":43.2315,"lon":5.43713,"is_reserved":false,"is_disabled":false,"rental_uris":{"android":"levelo://app?vid=46609da1-1a56-4a2e-8fd3-da507a08e8ac","ios":"levelo://app?vid=46609da1-1a56-4a2e-8fd3-da507a08e8ac"},"vehicle_type_id":"4","last_reported":1762503349,"current_range_meters":12000,"station_id":"ce4bhmp2rcd13ifvqgog","pricing_plan_id":"cebpf4jnsgd1na2vs0mg"},{"bike_id":"711b5184-06a1-46c6-b1ad-270408b914a4","system_id":"levelo_inurba_marseille","lat":43.300112,"lon":5.409679,"is_reserved":false,"is_disabled":false,"rental_uris":{"android":"levelo://app?vid=711b5184-06a1-46c6-b1ad-270408b914a4","ios":"levelo://app?vid=711b5184-06a1-46c6-b1ad-270408b914a4"},"vehicle_type_id":"4","last_reported":1762503349,"current_range_meters":12400,"station_id":"","pricing_plan_id":"cebpf4jnsgd1na2vs0mg"},{"bike_id":"735af335-66bf-4340-87fb-78f795989dcc","system_id":"levelo_inurba_marseille","lat":43.29911,"lon":5.38234,"is_reserved":false,"is_disabled":false,"rental_uris":{"android":"levelo://app?vid=735af335-66bf-4340-87fb-78f795989dcc","ios":"levelo://app?vid=735af335-66bf-4340-87fb-78f795989dcc"},"vehicle_type_id":"4","last_reported":1762503349,"current_range_meters":12400,"station_id":"","pricing_plan_id":"cebpf4jnsgd1na2vs0mg"},{"bike_id":"59709e0f-8a0f-4245-b2cc-fcbcb0036340","system_id":"levelo_inurba_marseille","lat":43.27209,"lon":5.39187,"is_reserved":false,"is_disabled":false,"rental_uris":{"android":"levelo://app?vid=59709e0f-8a0f-4245-b2cc-fcbcb0036340","ios":"levelo://app?vid=59709e0f-8a0f-4245-b2cc-fcbcb0036340"},"vehicle_type_id":"4","last_reported":1762503349,"current_range_meters":12400,"station_id":"ce4bhhp2rcd13ifvqfm0","pricing_plan_id":"cebpf4jnsgd1na2vs0mg"},{"bike_id":"b6d6ed38-4c87-427d-b530-709237f9a962","system_id":"levelo_inurba_marseille","lat":43.231494,"lon":5.437119,"is_reserved":false,"is_disabled":false,"rental_uris":{"android":"levelo://app?vid=b6d6ed38-4c87-427d-b530-709237f9a962","ios":"levelo://app?vid=b6d6ed38-4c87-427d-b530-709237f9a962"},"vehicle_type_id":"4","last_reported":1762503349,"current_range_meters":12400,"station_id":"ce4bhmp2rcd13ifvqgog","pricing_plan_id":"cebpf4jnsgd1na2vs0mg"},{"bike_id":"bd5e3a2c-5acb-4d90-bae2-0abba3e51fb3","system_id":"levelo_inurba_marseille","lat":43.29896,"lon":5.43669,"is_reserved":false,"is_disabled":false,"rental_uris":{"android":"levelo://app?vid=bd5e3a2c-5acb-4d90-bae2-0abba3e51fb3","ios":"levelo://app?vid=bd5e3a2c-5acb-4d90-bae2-0abba3e51fb3"},"vehicle_type_id":"4","last_reported":1762503349,"current_range_meters":12400,"station_id":"ce4bhpp2rcd13ifvqhfg","pricing_plan_id":"cebpf4jnsgd1na2vs0mg"},{"bike_id":"5ef84235-eddd-425b-8be4-c31c46a00271","system_id":"levelo_inurba_marseille","lat":43.2417,"lon":5.36399,"is_reserved":false,"is_disabled":false,"rental_uris":{"android":"levelo://app?vid=5ef84235-eddd-425b-8be4-c31c46a00271","ios":"levelo://app?vid=5ef84235-eddd-425b-8be4-c31c46a00271"},"vehicle_type_id":"4","last_reported":1762503349,"current_range_meters":12400,"station_id":"cpo36qri1sfpv3e86is0","pricing_plan_id":"cebpf4jnsgd1na2vs0mg"},{"bike_id":"d7e67494-210f-4072-ab2e-c7104afa10d7","system_id":"levelo_inurba_marseille","lat":43.30379,"lon":5.42485,"is_reserved":false,"is_disabled":false,"rental_uris":{"android":"levelo://app?vid=d7e67494-210f-4072-ab2e-c7104afa10d7","ios":"levelo://app?vid=d7e67494-210f-4072-ab2e-c7104afa10d7"},"vehicle_type_id":"4","last_reported":1762503349,"current_range_meters":12400,"station_id":"ce4bhoh2rcd13ifvqh6g","pricing_plan_id":"cebpf4jnsgd1na2vs0mg"},{"bike_id":"0f4ffc77-cafe-489d-b8b6-ccbf6aa9af95","system_id":"levelo_inurba_marseille","lat":43.286181,"lon":5.35094,"is_reserved":false,"is_disabled":false,"rental_uris":{"android":"levelo://app?vid=0f4ffc77-cafe-489d-b8b6-ccbf6aa9af95","ios":"levelo://app?vid=0f4ffc77-cafe-489d-b8b6-ccbf6aa9af95"},"vehicle_type_id":"4","last_reported":1762503349,"current_range_meters":12400,"station_id":"ce4bhch2rcd13ifvqeug","pricing_plan_id":"cebpf4jnsgd1na2vs0mg"},{"bike_id":"89b503fb-a6b1-47e9-9520-c6fd73bc447b","system_id":"levelo_inurba_marseille","lat":43.30148,"lon":5.37421,"is_reserved":false,"is_disabled":false,"rental_uris":{"android":"levelo://app?vid=89b503fb-a6b1-47e9-9520-c6fd73bc447b","ios":"levelo://app?vid=89b503fb-a6b1-47e9-9520-c6fd73bc447b"},"vehicle_type_id":"4","last_reported":1762503349,"current_range_meters":12400,"station_id":"ce4bgs92rcd13ifvqcc0","pricing_plan_id":"cebpf4jnsgd1na2vs0mg"},{"bike_id":"12ee0993-fde5-452a-90f8-0e3d19f492c1","system_id":"levelo_inurba_marseille","lat":43.29623,"lon":5.37732,"is_reserved":false,"is_disabled":false,"rental_uris":{"android":"levelo://app?vid=12ee0993-fde5-452a-90f8-0e3d19f492c1","ios":"levelo://app?vid=12ee0993-fde5-452a-90f8-0e3d19f492c1"},"vehicle_type_id":"4","last_reported":1762503349,"current_range_meters":12400,"station_id":"ce4bgi92rcd13ifvqb90","pricing_plan_id":"cebpf4jnsgd1na2vs0mg"},{"bike_id":"a5173696-5ba0-4fe6-bac5-de4a58477c02","system_id":"levelo_inurba_marseille","lat":43.33754,"lon":5.37473,"is_reserved":false,"is_disabled":false,"rental_uris":{"android":"levelo://app?vid=a5173696-5ba0-4fe6-bac5-de4a58477c02","ios":"levelo://app?vid=a5173696-5ba0-4fe6-bac5-de4a58477c02"},"vehicle_type_id":"4","last_reported":1762503349,"current_range_meters":12800,"station_id":"","pricing_plan_id":"cebpf4jnsgd1na2vs0mg"},{"bike_id":"364e7252-6c8d-481d-b075-6ed46540f13b","system_id":"levelo_inurba_marseille","lat":43.26282,"lon":5.39854,"is_reserved":false,"is_disabled":false,"rental_uris":{"android":"levelo://app?vid=364e7252-6c8d-481d-b075-6ed46540f13b","ios":"levelo://app?vid=364e7252-6c8d-481d-b075-6ed46540f13b"},"vehicle_type_id":"4","last_reported":1762503349,"current_range_meters":12800,"station_id":"","pricing_plan_id":"cebpf4jnsgd1na2vs0mg"},{"bike_id":"55c6a609-9074-4f89-a752-5a65b39a1df5","system_id":"levelo_inurba_marseille","lat":43.321057,"lon":5.367921,"is_reserved":false,"is_disabled":false,"rental_uris":{"android":"levelo://app?vid=55c6a609-9074-4f89-a752-5a65b39a1df5","ios":"levelo://app?vid=55c6a609-9074-4f89-a752-5a65b39a1df5"},"vehicle_type_id":"4","last_reported":1762503349,"current_range_meters":12800,"station_id":"ce4bhrh2rcd13ifvqhug","pricing_plan_id":"cebpf4jnsgd1na2vs0mg"},{"bike_id":"011c8469-4db8-40a3-bf70-1afd53260839","system_id":"levelo_inurba_marseille","lat":43.231979,"lon":5.355551,"is_reserved":false,"is_disabled":false,"rental_uris":{"android":"levelo://app?vid=011c8469-4db8-40a3-bf70-1afd53260839","ios":"levelo://app?vid=011c8469-4db8-40a3-bf70-1afd53260839"},"vehicle_type_id":"4","last_reported":1762503349,"current_range_meters":12800,"station_id":"ce4bhu92rcd13ifvqi70","pricing_plan_id":"cebpf4jnsgd1na2vs0mg"},{"bike_id":"329070e8-d502-4a6c-b48c-e60c98fc285b","system_id":"levelo_inurba_marseille","lat":43.312698,"lon":5.389403,"is_reserved":false,"is_disabled":false,"rental_uris":{"android":"levelo://app?vid=329070e8-d502-4a6c-b48c-e60c98fc285b","ios":"levelo://app?vid=329070e8-d502-4a6c-b48c-e60c98fc285b"},"vehicle_type_id":"4","last_reported":1762503349,"current_range_meters":12800,"station_id":"","pricing_plan_id":"cebpf4jnsgd1na2vs0mg"},{"bike_id":"7c5d983e-b632-4dae-a44f-f6f3f6e3db0d","system_id":"levelo_inurba_marseille","lat":43.29929,"lon":5.36545,"is_reserved":false,"is_disabled":false,"rental_uris":{"android":"levelo://app?vid=7c5d983e-b632-4dae-a44f-f6f3f6e3db0d","ios":"levelo://app?vid=7c5d983e-b632-4dae-a44f-f6f3f6e3db0d"},"vehicle_type_id":"4","last_reported":1762503349,"current_range_meters":12800,"station_id":"ce4bgm92rcd13ifvqbr0","pricing_plan_id":"cebpf4jnsgd1na2vs0mg"},{"bike_id":"bbc40c92-073e-4525-bdd2-1667a35266ff","system_id":"levelo_inurba_marseille","lat":43.2958,"lon":5.36746,"is_reserved":false,"is_disabled":false,"rental_uris":{"android":"levelo://app?vid=bbc40c92-073e-4525-bdd2-1667a35266ff","ios":"levelo://app?vid=bbc40c92-073e-4525-bdd2-1667a35266ff"},"vehicle_type_id":"4","last_reported":1762503349,"current_range_meters":12800,"station_id":"ce4bgph2rcd13ifvqc2g","pricing_plan_id":"cebpf4jnsgd1na2vs0mg"},{"bike_id":"5bee8f0f-57fe-4257-a72a-04a4967570b5","system_id":"levelo_inurba_marseille","lat":43.30092,"lon":5.37655,"is_reserved":false,"is_disabled":false,"rental_uris":{"android":"levelo://app?vid=5bee8f0f-57fe-4257-a72a-04a4967570b5","ios":"levelo://app?vid=5bee8f0f-57fe-4257-a72a-04a4967570b5"},"vehicle_type_id":"4","last_reported":1762503349,"current_range_meters":12800,"station_id":"","pricing_plan_id":"cebpf4jnsgd1na2vs0mg"},{"bike_id":"52fbcdbc-aaf5-49fa-bc7f-d424dc8ef78f","system_id":"levelo_inurba_marseille","lat":43.281234,"lon":5.378338,"is_reserved":false,"is_disabled":false,"rental_uris":{"android":"levelo://app?vid=52fbcdbc-aaf5-49fa-bc7f-d424dc8ef78f","ios":"levelo://app?vid=52fbcdbc-aaf5-49fa-bc7f-d424dc8ef78f"},"vehicle_type_id":"4","last_reported":1762503349,"current_range_meters":12800,"station_id":"ce4bguh2rcd13ifvqcj0","pricing_plan_id":"cebpf4jnsgd1na2vs0mg"},{"bike_id":"91195dc3-7219-4139-a8eb-8e52bb6d271e","system_id":"levelo_inurba_marseille","lat":43.23197,"lon":5.35555,"is_reserved":false,"is_disabled":false,"rental_uris":{"android":"levelo://app?vid=91195dc3-7219-4139-a8eb-8e52bb6d271e","ios":"levelo://app?vid=91195dc3-7219-4139-a8eb-8e52bb6d271e"},"vehicle_type_id":"4","last_reported":1762503349,"current_range_meters":13600,"station_id":"ce4bhu92rcd13ifvqi70","pricing_plan_id":"cebpf4jnsgd1na2vs0mg"},{"bike_id":"df436567-b5dd-47ff-82cb-66b373039810","system_id":"levelo_inurba_marseille","lat":43.2592,"lon":5.40878,"is_reserved":false,"is_disabled":false,"rental_uris":{"android":"levelo://app?vid=df436567-b5dd-47ff-82cb-66b373039810","ios":"levelo://app?vid=df436567-b5dd-47ff-82cb-66b373039810"},"vehicle_type_id":"4","last_reported":1762503349,"current_range_meters":13600,"station_id":"ce4bhm92rcd13ifvqglg","pricing_plan_id":"cebpf4jnsgd1na2vs0mg"},{"bike_id":"decad613-875f-4e39-a5cc-a2636a2419c6","system_id":"levelo_inurba_marseille","lat":43.23157,"lon":5.437025,"is_reserved":false,"is_disabled":false,"rental_uris":{"android":"levelo://app?vid=decad613-875f-4e39-a5cc-a2636a2419c6","ios":"levelo://app?vid=decad613-875f-4e39-a5cc-a2636a2419c6"},"vehicle_type_id":"4","last_reported":1762503349,"current_range_meters":13600,"station_id":"ce4bhmp2rcd13ifvqgog","pricing_plan_id":"cebpf4jnsgd1na2vs0mg"},{"bike_id":"57deb573-64bc-492f-ba8f-07c41926b45f","system_id":"levelo_inurba_marseille","lat":43.23153,"lon":5.43722,"is_reserved":false,"is_disabled":false,"rental_uris":{"android":"levelo://app?vid=57deb573-64bc-492f-ba8f-07c41926b45f","ios":"levelo://app?vid=57deb573-64bc-492f-ba8f-07c41926b45f"},"vehicle_type_id":"4","last_reported":1762503349,"current_range_meters":13600,"station_id":"ce4bhmp2rcd13ifvqgog","pricing_plan_id":"cebpf4jnsgd1na2vs0mg"},{"bike_id":"c2a09d20-92fa-4c5d-9c9d-6d1d92e8e00d","system_id":"levelo_inurba_marseille","lat":43.29503,"lon":5.39392,"is_reserved":false,"is_disabled":true,"rental_uris":{"android":"levelo://app?vid=c2a09d20-92fa-4c5d-9c9d-6d1d92e8e00d","ios":"levelo://app?vid=c2a09d20-92fa-4c5d-9c9d-6d1d92e8e00d"},"vehicle_type_id":"4","last_reported":1762503349,"current_range_meters":13600,"station_id":"ce4bh292rcd13ifvqdf0","pricing_plan_id":"cebpf4jnsgd1na2vs0mg"},{"bike_id":"e5a36f5f-f810-4be1-a09e-0fe8f7b8d5c1","system_id":"levelo_inurba_marseille","lat":43.29911,"lon":5.38143,"is_reserved":false,"is_disabled":false,"rental_uris":{"android":"levelo://app?vid=e5a36f5f-f810-4be1-a09e-0fe8f7b8d5c1","ios":"levelo://app?vid=e5a36f5f-f810-4be1-a09e-0fe8f7b8d5c1"},"vehicle_type_id":"4","last_reported":1762503349,"current_range_meters":14000,"station_id":"ce4bgj12rcd13ifvqbc0","pricing_plan_id":"cebpf4jnsgd1na2vs0mg"},{"bike_id":"f68cdb11-4ad5-494f-8b44-dc318ce342e5","system_id":"levelo_inurba_marseille","lat":43.27828,"lon":5.40697,"is_reserved":false,"is_disabled":false,"rental_uris":{"android":"levelo://app?vid=f68cdb11-4ad5-494f-8b44-dc318ce342e5","ios":"levelo://app?vid=f68cdb11-4ad5-494f-8b44-dc318ce342e5"},"vehicle_type_id":"4","last_reported":1762503349,"current_range_meters":14000,"station_id":"ce4bhnh2rcd13ifvqgtg","pricing_plan_id":"cebpf4jnsgd1na2vs0mg"},{"bike_id":"4ecb4a1f-a4fb-4e60-ad05-37045b3ff7e1","system_id":"levelo_inurba_marseille","lat":43.29619,"lon":5.37157,"is_reserved":false,"is_disabled":false,"rental_uris":{"android":"levelo://app?vid=4ecb4a1f-a4fb-4e60-ad05-37045b3ff7e1","ios":"levelo://app?vid=4ecb4a1f-a4fb-4e60-ad05-37045b3ff7e1"},"vehicle_type_id":"4","last_reported":1762503349,"current_range_meters":14000,"station_id":"ce4bgnh2rcd13ifvqc0g","pricing_plan_id":"cebpf4jnsgd1na2vs0mg"},{"bike_id":"be0572d6-b185-4557-add9-c9e6d1e3df20","system_id":"levelo_inurba_marseille","lat":43.26681,"lon":5.38274,"is_reserved":false,"is_disabled":false,"rental_uris":{"android":"levelo://app?vid=be0572d6-b185-4557-add9-c9e6d1e3df20","ios":"levelo://app?vid=be0572d6-b185-4557-add9-c9e6d1e3df20"},"vehicle_type_id":"4","last_reported":1762503349,"current_range_meters":14000,"station_id":"ce4bhg92rcd13ifvqf90","pricing_plan_id":"cebpf4jnsgd1na2vs0mg"},{"bike_id":"ec44e195-cde1-4252-aadf-701a64256dd7","system_id":"levelo_inurba_marseille","lat":43.24619,"lon":5.43146,"is_reserved":false,"is_disabled":false,"rental_uris":{"android":"levelo://app?vid=ec44e195-cde1-4252-aadf-701a64256dd7","ios":"levelo://app?vid=ec44e195-cde1-4252-aadf-701a64256dd7"},"vehicle_type_id":"4","last_reported":1762503349,"current_range_meters":14000,"station_id":"st_d2m6c4gdas8pm72e190g","pricing_plan_id":"cebpf4jnsgd1na2vs0mg"},{"bike_id":"49f72977-a3b0-4756-91f7-bfd8da95f1b4","system_id":"levelo_inurba_marseille","lat":43.25942,"lon":5.40905,"is_reserved":false,"is_disabled":false,"rental_uris":{"android":"levelo://app?vid=49f72977-a3b0-4756-91f7-bfd8da95f1b4","ios":"levelo://app?vid=49f72977-a3b0-4756-91f7-bfd8da95f1b4"},"vehicle_type_id":"4","last_reported":1762503349,"current_range_meters":14000,"station_id":"ce4bhm92rcd13ifvqglg","pricing_plan_id":"cebpf4jnsgd1na2vs0mg"},{"bike_id":"81837828-f925-43db-9054-86e414f5bd53","system_id":"levelo_inurba_marseille","lat":43.27964,"lon":5.3875,"is_reserved":false,"is_disabled":false,"rental_uris":{"android":"levelo://app?vid=81837828-f925-43db-9054-86e414f5bd53","ios":"levelo://app?vid=81837828-f925-43db-9054-86e414f5bd53"},"vehicle_type_id":"4","last_reported":1762503349,"current_range_meters":14400,"station_id":"ce4bhg12rcd13ifvqf80","pricing_plan_id":"cebpf4jnsgd1na2vs0mg"},{"bike_id":"43cfab9e-f547-4304-9999-4a8329474751","system_id":"levelo_inurba_marseille","lat":43.211974,"lon":5.350712,"is_reserved":false,"is_disabled":false,"rental_uris":{"android":"levelo://app?vid=43cfab9e-f547-4304-9999-4a8329474751","ios":"levelo://app?vid=43cfab9e-f547-4304-9999-4a8329474751"},"vehicle_type_id":"4","last_reported":1762503349,"current_range_meters":14400,"station_id":"st_cvj6sg6p6f1abm77japg","pricing_plan_id":"cebpf4jnsgd1na2vs0mg"},{"bike_id":"3b350de2-695c-42e3-a80c-fe5d0f1d9920","system_id":"levelo_inurba_marseille","lat":43.25955,"lon":5.40892,"is_reserved":false,"is_disabled":false,"rental_uris":{"android":"levelo://app?vid=3b350de2-695c-42e3-a80c-fe5d0f1d9920","ios":"levelo://app?vid=3b350de2-695c-42e3-a80c-fe5d0f1d9920"},"vehicle_type_id":"4","last_reported":1762503349,"current_range_meters":14400,"station_id":"ce4bhm92rcd13ifvqglg","pricing_plan_id":"cebpf4jnsgd1na2vs0mg"},{"bike_id":"2214147d-b2bc-47a5-8262-b29a2f3cbd90","system_id":"levelo_inurba_marseille","lat":43.28858,"lon":5.42507,"is_reserved":false,"is_disabled":false,"rental_uris":{"android":"levelo://app?vid=2214147d-b2bc-47a5-8262-b29a2f3cbd90","ios":"levelo://app?vid=2214147d-b2bc-47a5-8262-b29a2f3cbd90"},"vehicle_type_id":"4","last_reported":1762503349,"current_range_meters":14400,"station_id":"st_d3b462108ojc7389ooeg","pricing_plan_id":"cebpf4jnsgd1na2vs0mg"},{"bike_id":"41981e24-0927-44dd-8ffb-53a47c374ab1","system_id":"levelo_inurba_marseille","lat":43.259454,"lon":5.408505,"is_reserved":false,"is_disabled":false,"rental_uris":{"android":"levelo://app?vid=41981e24-0927-44dd-8ffb-53a47c374ab1","ios":"levelo://app?vid=41981e24-0927-44dd-8ffb-53a47c374ab1"},"vehicle_type_id":"4","last_reported":1762503349,"current_range_meters":14800,"station_id":"ce4bha12rcd13ifvqee0","pricing_plan_id":"cebpf4jnsgd1na2vs0mg"},{"bike_id":"a4d0eff6-f0fc-4082-886a-284f6648ca70","system_id":"levelo_inurba_marseille","lat":43.28358,"lon":5.38105,"is_reserved":false,"is_disabled":false,"rental_uris":{"android":"levelo://app?vid=a4d0eff6-f0fc-4082-886a-284f6648ca70","ios":"levelo://app?vid=a4d0eff6-f0fc-4082-886a-284f6648ca70"},"vehicle_type_id":"4","last_reported":1762503349,"current_range_meters":14800,"station_id":"ce4bh412rcd13ifvqdr0","pricing_plan_id":"cebpf4jnsgd1na2vs0mg"},{"bike_id":"8537479d-e703-477a-af1b-92c15a4c6d70","system_id":"levelo_inurba_marseille","lat":43.282041,"lon":5.388669,"is_reserved":false,"is_disabled":false,"rental_uris":{"android":"levelo://app?vid=8537479d-e703-477a-af1b-92c15a4c6d70","ios":"levelo://app?vid=8537479d-e703-477a-af1b-92c15a4c6d70"},"vehicle_type_id":"4","last_reported":1762503349,"current_range_meters":14800,"station_id":"","pricing_plan_id":"cebpf4jnsgd1na2vs0mg"},{"bike_id":"b766e8eb-95b5-42de-9eac-a30bfd8dbf61","system_id":"levelo_inurba_marseille","lat":43.26947,"lon":5.3864,"is_reserved":false,"is_disabled":false,"rental_uris":{"android":"levelo://app?vid=b766e8eb-95b5-42de-9eac-a30bfd8dbf61","ios":"levelo://app?vid=b766e8eb-95b5-42de-9eac-a30bfd8dbf61"},"vehicle_type_id":"4","last_reported":1762503349,"current_range_meters":14800,"station_id":"ce4bhh92rcd13ifvqfh0","pricing_plan_id":"cebpf4jnsgd1na2vs0mg"},{"bike_id":"ada7c068-07f5-4885-8cb5-5c4f9b537ace","system_id":"levelo_inurba_marseille","lat":43.23153,"lon":5.43716,"is_reserved":false,"is_disabled":false,"rental_uris":{"android":"levelo://app?vid=ada7c068-07f5-4885-8cb5-5c4f9b537ace","ios":"levelo://app?vid=ada7c068-07f5-4885-8cb5-5c4f9b537ace"},"vehicle_type_id":"4","last_reported":1762503349,"current_range_meters":14800,"station_id":"ce4bhmp2rcd13ifvqgog","pricing_plan_id":"cebpf4jnsgd1na2vs0mg"},{"bike_id":"9e715706-e1d9-4697-8254-a985a3704eb1","system_id":"levelo_inurba_marseille","lat":43.26548,"lon":5.37288,"is_reserved":false,"is_disabled":false,"rental_uris":{"android":"levelo://app?vid=9e715706-e1d9-4697-8254-a985a3704eb1","ios":"levelo://app?vid=9e715706-e1d9-4697-8254-a985a3704eb1"},"vehicle_type_id":"4","last_reported":1762503349,"current_range_meters":15200,"station_id":"ce4bhg12rcd13ifvqf70","pricing_plan_id":"cebpf4jnsgd1na2vs0mg"},{"bike_id":"84fe45e7-b5e1-4cca-89d7-ead57bfc030e","system_id":"levelo_inurba_marseille","lat":43.25942,"lon":5.409048,"is_reserved":false,"is_disabled":false,"rental_uris":{"android":"levelo://app?vid=84fe45e7-b5e1-4cca-89d7-ead57bfc030e","ios":"levelo://app?vid=84fe45e7-b5e1-4cca-89d7-ead57bfc030e"},"vehicle_type_id":"4","last_reported":1762503349,"current_range_meters":15200,"station_id":"ce4bhm92rcd13ifvqglg","pricing_plan_id":"cebpf4jnsgd1na2vs0mg"},{"bike_id":"fbe1980c-28b3-44ff-94bc-1a822c9d6de7","system_id":"levelo_inurba_marseille","lat":43.30927,"lon":5.37261,"is_reserved":false,"is_disabled":false,"rental_uris":{"android":"levelo://app?vid=fbe1980c-28b3-44ff-94bc-1a822c9d6de7","ios":"levelo://app?vid=fbe1980c-28b3-44ff-94bc-1a822c9d6de7"},"vehicle_type_id":"4","last_reported":1762503349,"current_range_meters":15200,"station_id":"","pricing_plan_id":"cebpf4jnsgd1na2vs0mg"},{"bike_id":"34d2260c-05f2-48dc-8f16-f8fba988ba9e","system_id":"levelo_inurba_marseille","lat":43.24073,"lon":5.3774,"is_reserved":false,"is_disabled":false,"rental_uris":{"android":"levelo://app?vid=34d2260c-05f2-48dc-8f16-f8fba988ba9e","ios":"levelo://app?vid=34d2260c-05f2-48dc-8f16-f8fba988ba9e"},"vehicle_type_id":"4","last_reported":1762503349,"current_range_meters":15200,"station_id":"ce4bhnp2rcd13ifvqgvg","pricing_plan_id":"cebpf4jnsgd1na2vs0mg"},{"bike_id":"4ea4bced-084f-489d-aecf-6bb64e6d4162","system_id":"levelo_inurba_marseille","lat":43.317145,"lon":5.423971,"is_reserved":false,"is_disabled":false,"rental_uris":{"android":"levelo://app?vid=4ea4bced-084f-489d-aecf-6bb64e6d4162","ios":"levelo://app?vid=4ea4bced-084f-489d-aecf-6bb64e6d4162"},"vehicle_type_id":"4","last_reported":1762503349,"current_range_meters":15200,"station_id":"ce4bhp92rcd13ifvqhbg","pricing_plan_id":"cebpf4jnsgd1na2vs0mg"},{"bike_id":"ba00a797-bc94-42f1-aba8-9bf207fe458c","system_id":"levelo_inurba_marseille","lat":43.305494,"lon":5.36531,"is_reserved":false,"is_disabled":false,"rental_uris":{"android":"levelo://app?vid=ba00a797-bc94-42f1-aba8-9bf207fe458c","ios":"levelo://app?vid=ba00a797-bc94-42f1-aba8-9bf207fe458c"},"vehicle_type_id":"4","last_reported":1762503349,"current_range_meters":15200,"station_id":"ce4bgs12rcd13ifvqcag","pricing_plan_id":"cebpf4jnsgd1na2vs0mg"},{"bike_id":"26420d18-4d1e-4d57-bdb6-4a61ce03bf7a","system_id":"levelo_inurba_marseille","lat":43.29807,"lon":5.38096,"is_reserved":false,"is_disabled":false,"rental_uris":{"android":"levelo://app?vid=26420d18-4d1e-4d57-bdb6-4a61ce03bf7a","ios":"levelo://app?vid=26420d18-4d1e-4d57-bdb6-4a61ce03bf7a"},"vehicle_type_id":"4","last_reported":1762503349,"current_range_meters":16000,"station_id":"ce4bgip2rcd13ifvqbb0","pricing_plan_id":"cebpf4jnsgd1na2vs0mg"},{"bike_id":"8c39fbd7-e500-40f2-a66a-2d8215e16bca","system_id":"levelo_inurba_marseille","lat":43.26684,"lon":5.3827,"is_reserved":false,"is_disabled":false,"rental_uris":{"android":"levelo://app?vid=8c39fbd7-e500-40f2-a66a-2d8215e16bca","ios":"levelo://app?vid=8c39fbd7-e500-40f2-a66a-2d8215e16bca"},"vehicle_type_id":"4","last_reported":1762503349,"current_range_meters":16000,"station_id":"ce4bhg92rcd13ifvqf90","pricing_plan_id":"cebpf4jnsgd1na2vs0mg"},{"bike_id":"4e142e3b-2d8e-4687-b30d-c024c7c70c89","system_id":"levelo_inurba_marseille","lat":43.2962,"lon":5.37726,"is_reserved":false,"is_disabled":false,"rental_uris":{"android":"levelo://app?vid=4e142e3b-2d8e-4687-b30d-c024c7c70c89","ios":"levelo://app?vid=4e142e3b-2d8e-4687-b30d-c024c7c70c89"},"vehicle_type_id":"4","last_reported":1762503349,"current_range_meters":16000,"station_id":"ce4bgi92rcd13ifvqb90","pricing_plan_id":"cebpf4jnsgd1na2vs0mg"},{"bike_id":"51b9afea-e3f9-46da-a79d-624b2847ee35","system_id":"levelo_inurba_marseille","lat":43.29918,"lon":5.36531,"is_reserved":false,"is_disabled":false,"rental_uris":{"android":"levelo://app?vid=51b9afea-e3f9-46da-a79d-624b2847ee35","ios":"levelo://app?vid=51b9afea-e3f9-46da-a79d-624b2847ee35"},"vehicle_type_id":"4","last_reported":1762503349,"current_range_meters":16000,"station_id":"ce4bgm92rcd13ifvqbr0","pricing_plan_id":"cebpf4jnsgd1na2vs0mg"},{"bike_id":"3a6b939b-8483-4a00-8652-d825cdd856d7","system_id":"levelo_inurba_marseille","lat":43.225478,"lon":5.416426,"is_reserved":false,"is_disabled":false,"rental_uris":{"android":"levelo://app?vid=3a6b939b-8483-4a00-8652-d825cdd856d7","ios":"levelo://app?vid=3a6b939b-8483-4a00-8652-d825cdd856d7"},"vehicle_type_id":"4","last_reported":1762503349,"current_range_meters":16000,"station_id":"st_d2o4gvlbi1j2169b742g","pricing_plan_id":"cebpf4jnsgd1na2vs0mg"},{"bike_id":"310115a0-7bf2-4a4a-9d53-56bf6918e4d0","system_id":"levelo_inurba_marseille","lat":43.28485,"lon":5.48393,"is_reserved":false,"is_disabled":false,"rental_uris":{"android":"levelo://app?vid=310115a0-7bf2-4a4a-9d53-56bf6918e4d0","ios":"levelo://app?vid=310115a0-7bf2-4a4a-9d53-56bf6918e4d0"},"vehicle_type_id":"4","last_reported":1762503349,"current_range_meters":16400,"station_id":"st_d3svhcjqgbts73a3dn0g","pricing_plan_id":"cebpf4jnsgd1na2vs0mg"},{"bike_id":"14bede57-e6c3-42e3-85ea-7147697689db","system_id":"levelo_inurba_marseille","lat":43.24948,"lon":5.40494,"is_reserved":false,"is_disabled":false,"rental_uris":{"android":"levelo://app?vid=14bede57-e6c3-42e3-85ea-7147697689db","ios":"levelo://app?vid=14bede57-e6c3-42e3-85ea-7147697689db"},"vehicle_type_id":"4","last_reported":1762503349,"current_range_meters":16400,"station_id":"st_d2ngiaodas8pm72gd1h0","pricing_plan_id":"cebpf4jnsgd1na2vs0mg"},{"bike_id":"a88522c2-7f31-460d-8b59-1c10109fed19","system_id":"levelo_inurba_marseille","lat":43.31471,"lon":5.37567,"is_reserved":false,"is_disabled":false,"rental_uris":{"android":"levelo://app?vid=a88522c2-7f31-460d-8b59-1c10109fed19","ios":"levelo://app?vid=a88522c2-7f31-460d-8b59-1c10109fed19"},"vehicle_type_id":"4","last_reported":1762503349,"current_range_meters":16400,"station_id":"","pricing_plan_id":"cebpf4jnsgd1na2vs0mg"},{"bike_id":"0129d5e3-887c-4b82-9486-db9b5dbeeb12","system_id":"levelo_inurba_marseille","lat":43.24634,"lon":5.38908,"is_reserved":false,"is_disabled":false,"rental_uris":{"android":"levelo://app?vid=0129d5e3-887c-4b82-9486-db9b5dbeeb12","ios":"levelo://app?vid=0129d5e3-887c-4b82-9486-db9b5dbeeb12"},"vehicle_type_id":"4","last_reported":1762503349,"current_range_meters":16400,"station_id":"ce4bhg12rcd13ifvqf60","pricing_plan_id":"cebpf4jnsgd1na2vs0mg"},{"bike_id":"434b3724-dbbf-421f-be7e-420d6eb46c58","system_id":"levelo_inurba_marseille","lat":43.292318,"lon":5.36063,"is_reserved":false,"is_disabled":false,"rental_uris":{"android":"levelo://app?vid=434b3724-dbbf-421f-be7e-420d6eb46c58","ios":"levelo://app?vid=434b3724-dbbf-421f-be7e-420d6eb46c58"},"vehicle_type_id":"4","last_reported":1762503349,"current_range_meters":16400,"station_id":"ce4bhbh2rcd13ifvqeqg","pricing_plan_id":"cebpf4jnsgd1na2vs0mg"},{"bike_id":"165aff21-73e8-4451-9d3e-5e99dd0c2bd0","system_id":"levelo_inurba_marseille","lat":43.27959,"lon":5.41046,"is_reserved":false,"is_disabled":false,"rental_uris":{"android":"levelo://app?vid=165aff21-73e8-4451-9d3e-5e99dd0c2bd0","ios":"levelo://app?vid=165aff21-73e8-4451-9d3e-5e99dd0c2bd0"},"vehicle_type_id":"4","last_reported":1762503349,"current_range_meters":16400,"station_id":"ce4bhnp2rcd13ifvqh0g","pricing_plan_id":"cebpf4jnsgd1na2vs0mg"},{"bike_id":"8b713fc9-5fff-413e-b1b1-f6059ca22355","system_id":"levelo_inurba_marseille","lat":43.287207,"lon":5.379369,"is_reserved":false,"is_disabled":false,"rental_uris":{"android":"levelo://app?vid=8b713fc9-5fff-413e-b1b1-f6059ca22355","ios":"levelo://app?vid=8b713fc9-5fff-413e-b1b1-f6059ca22355"},"vehicle_type_id":"4","last_reported":1762503349,"current_range_meters":16800,"station_id":"ce4bh9p2rcd13ifvqec0","pricing_plan_id":"cebpf4jnsgd1na2vs0mg"},{"bike_id":"4c6a1efe-8e83-4a67-827c-143460497412","system_id":"levelo_inurba_marseille","lat":43.29554,"lon":5.42295,"is_reserved":false,"is_disabled":false,"rental_uris":{"android":"levelo://app?vid=4c6a1efe-8e83-4a67-827c-143460497412","ios":"levelo://app?vid=4c6a1efe-8e83-4a67-827c-143460497412"},"vehicle_type_id":"4","last_reported":1762503349,"current_range_meters":16800,"station_id":"ce4bhph2rcd13ifvqhdg","pricing_plan_id":"cebpf4jnsgd1na2vs0mg"},{"bike_id":"9599e800-c0f3-4d1c-ae6f-0370f8960f5c","system_id":"levelo_inurba_marseille","lat":43.321061,"lon":5.367673,"is_reserved":false,"is_disabled":false,"rental_uris":{"android":"levelo://app?vid=9599e800-c0f3-4d1c-ae6f-0370f8960f5c","ios":"levelo://app?vid=9599e800-c0f3-4d1c-ae6f-0370f8960f5c"},"vehicle_type_id":"4","last_reported":1762503349,"current_range_meters":16800,"station_id":"ce4bhrh2rcd13ifvqhug","pricing_plan_id":"cebpf4jnsgd1na2vs0mg"},{"bike_id":"6b18042a-fffb-4b4a-bde9-e5d81f970eff","system_id":"levelo_inurba_marseille","lat":43.292731,"lon":5.368085,"is_reserved":false,"is_disabled":false,"rental_uris":{"android":"levelo://app?vid=6b18042a-fffb-4b4a-bde9-e5d81f970eff","ios":"levelo://app?vid=6b18042a-fffb-4b4a-bde9-e5d81f970eff"},"vehicle_type_id":"4","last_reported":1762503349,"current_range_meters":16800,"station_id":"ce4bhbp2rcd13ifvqesg","pricing_plan_id":"cebpf4jnsgd1na2vs0mg"},{"bike_id":"401209f9-1098-407a-9275-182f209531f6","system_id":"levelo_inurba_marseille","lat":43.295516,"lon":5.422843,"is_reserved":false,"is_disabled":false,"rental_uris":{"android":"levelo://app?vid=401209f9-1098-407a-9275-182f209531f6","ios":"levelo://app?vid=401209f9-1098-407a-9275-182f209531f6"},"vehicle_type_id":"4","last_reported":1762503349,"current_range_meters":16800,"station_id":"ce4bhph2rcd13ifvqhdg","pricing_plan_id":"cebpf4jnsgd1na2vs0mg"},{"bike_id":"e071e82c-cdb6-459f-b22d-eefcbaca951d","system_id":"levelo_inurba_marseille","lat":43.3107,"lon":5.38504,"is_reserved":false,"is_disabled":false,"rental_uris":{"android":"levelo://app?vid=e071e82c-cdb6-459f-b22d-eefcbaca951d","ios":"levelo://app?vid=e071e82c-cdb6-459f-b22d-eefcbaca951d"},"vehicle_type_id":"4","last_reported":1762503349,"current_range_meters":17200,"station_id":"","pricing_plan_id":"cebpf4jnsgd1na2vs0mg"},{"bike_id":"83d77d4d-ce80-4c97-b769-bfd70f398ca1","system_id":"levelo_inurba_marseille","lat":43.26224,"lon":5.40445,"is_reserved":false,"is_disabled":false,"rental_uris":{"android":"levelo://app?vid=83d77d4d-ce80-4c97-b769-bfd70f398ca1","ios":"levelo://app?vid=83d77d4d-ce80-4c97-b769-bfd70f398ca1"},"vehicle_type_id":"4","last_reported":1762503349,"current_range_meters":17200,"station_id":"ce4bhmh2rcd13ifvqgmg","pricing_plan_id":"cebpf4jnsgd1na2vs0mg"},{"bike_id":"a24ecaa7-dc5d-4c8e-a910-6021da3d40da","system_id":"levelo_inurba_marseille","lat":43.22564,"lon":5.41635,"is_reserved":false,"is_disabled":false,"rental_uris":{"android":"levelo://app?vid=a24ecaa7-dc5d-4c8e-a910-6021da3d40da","ios":"levelo://app?vid=a24ecaa7-dc5d-4c8e-a910-6021da3d40da"},"vehicle_type_id":"4","last_reported":1762503349,"current_range_meters":17200,"station_id":"st_d2o4gvlbi1j2169b742g","pricing_plan_id":"cebpf4jnsgd1na2vs0mg"},{"bike_id":"21c13248-3296-4aba-8213-fdcfac1e357b","system_id":"levelo_inurba_marseille","lat":43.23147,"lon":5.43718,"is_reserved":false,"is_disabled":false,"rental_uris":{"android":"levelo://app?vid=21c13248-3296-4aba-8213-fdcfac1e357b","ios":"levelo://app?vid=21c13248-3296-4aba-8213-fdcfac1e357b"},"vehicle_type_id":"4","last_reported":1762503349,"current_range_meters":17200,"station_id":"ce4bhmp2rcd13ifvqgog","pricing_plan_id":"cebpf4jnsgd1na2vs0mg"},{"bike_id":"9af0687b-3e79-4e11-b844-dd239618aeba","system_id":"levelo_inurba_marseille","lat":43.28902,"lon":5.42549,"is_reserved":false,"is_disabled":false,"rental_uris":{"android":"levelo://app?vid=9af0687b-3e79-4e11-b844-dd239618aeba","ios":"levelo://app?vid=9af0687b-3e79-4e11-b844-dd239618aeba"},"vehicle_type_id":"4","last_reported":1762503349,"current_range_meters":17200,"station_id":"st_d3b462108ojc7389ooeg","pricing_plan_id":"cebpf4jnsgd1na2vs0mg"},{"bike_id":"36ccda77-26f7-498c-b092-0edbc7df336b","system_id":"levelo_inurba_marseille","lat":43.2737,"lon":5.36255,"is_reserved":false,"is_disabled":false,"rental_uris":{"android":"levelo://app?vid=36ccda77-26f7-498c-b092-0edbc7df336b","ios":"levelo://app?vid=36ccda77-26f7-498c-b092-0edbc7df336b"},"vehicle_type_id":"4","last_reported":1762503349,"current_range_meters":17200,"station_id":"ce4bhbh2rcd13ifvqeo0","pricing_plan_id":"cebpf4jnsgd1na2vs0mg"},{"bike_id":"5b03e0a7-e5b7-4bb1-a15f-78dcdc45fd57","system_id":"levelo_inurba_marseille","lat":43.23155,"lon":5.43719,"is_reserved":false,"is_disabled":false,"rental_uris":{"android":"levelo://app?vid=5b03e0a7-e5b7-4bb1-a15f-78dcdc45fd57","ios":"levelo://app?vid=5b03e0a7-e5b7-4bb1-a15f-78dcdc45fd57"},"vehicle_type_id":"4","last_reported":1762503349,"current_range_meters":17200,"station_id":"ce4bhmp2rcd13ifvqgog","pricing_plan_id":"cebpf4jnsgd1na2vs0mg"},{"bike_id":"02555bf9-17cb-4f0c-950c-5e02f4856f39","system_id":"levelo_inurba_marseille","lat":43.25008,"lon":5.3895,"is_reserved":false,"is_disabled":false,"rental_uris":{"android":"levelo://app?vid=02555bf9-17cb-4f0c-950c-5e02f4856f39","ios":"levelo://app?vid=02555bf9-17cb-4f0c-950c-5e02f4856f39"},"vehicle_type_id":"4","last_reported":1762503349,"current_range_meters":17200,"station_id":"ce4bhgp2rcd13ifvqfd0","pricing_plan_id":"cebpf4jnsgd1na2vs0mg"},{"bike_id":"8687c328-8c5d-43d7-a5b3-9d16b990c0aa","system_id":"levelo_inurba_marseille","lat":43.31374,"lon":5.38493,"is_reserved":false,"is_disabled":false,"rental_uris":{"android":"levelo://app?vid=8687c328-8c5d-43d7-a5b3-9d16b990c0aa","ios":"levelo://app?vid=8687c328-8c5d-43d7-a5b3-9d16b990c0aa"},"vehicle_type_id":"4","last_reported":1762503349,"current_range_meters":17200,"station_id":"ce4bgt92rcd13ifvqcf0","pricing_plan_id":"cebpf4jnsgd1na2vs0mg"},{"bike_id":"6a5ddfdf-eda2-4c9a-bd10-fba552af5b58","system_id":"levelo_inurba_marseille","lat":43.26933,"lon":5.38927,"is_reserved":false,"is_disabled":false,"rental_uris":{"android":"levelo://app?vid=6a5ddfdf-eda2-4c9a-bd10-fba552af5b58","ios":"levelo://app?vid=6a5ddfdf-eda2-4c9a-bd10-fba552af5b58"},"vehicle_type_id":"4","last_reported":1762503349,"current_range_meters":17600,"station_id":"ce4bhhh2rcd13ifvqfl0","pricing_plan_id":"cebpf4jnsgd1na2vs0mg"},{"bike_id":"22918fb7-a391-4f35-8c21-8eb60e2ab03f","system_id":"levelo_inurba_marseille","lat":43.22555,"lon":5.41621,"is_reserved":false,"is_disabled":false,"rental_uris":{"android":"levelo://app?vid=22918fb7-a391-4f35-8c21-8eb60e2ab03f","ios":"levelo://app?vid=22918fb7-a391-4f35-8c21-8eb60e2ab03f"},"vehicle_type_id":"4","last_reported":1762503349,"current_range_meters":17600,"station_id":"st_d2o4gvlbi1j2169b742g","pricing_plan_id":"cebpf4jnsgd1na2vs0mg"},{"bike_id":"26e4f434-8c3c-4101-b662-e9ee5c4b31f7","system_id":"levelo_inurba_marseille","lat":43.30887,"lon":5.37187,"is_reserved":false,"is_disabled":false,"rental_uris":{"android":"levelo://app?vid=26e4f434-8c3c-4101-b662-e9ee5c4b31f7","ios":"levelo://app?vid=26e4f434-8c3c-4101-b662-e9ee5c4b31f7"},"vehicle_type_id":"4","last_reported":1762503349,"current_range_meters":17600,"station_id":"ce4bguh2rcd13ifvqckg","pricing_plan_id":"cebpf4jnsgd1na2vs0mg"},{"bike_id":"c8a8f8ee-659f-435e-9968-5f8eeb39498a","system_id":"levelo_inurba_marseille","lat":43.25587,"lon":5.38227,"is_reserved":false,"is_disabled":false,"rental_uris":{"android":"levelo://app?vid=c8a8f8ee-659f-435e-9968-5f8eeb39498a","ios":"levelo://app?vid=c8a8f8ee-659f-435e-9968-5f8eeb39498a"},"vehicle_type_id":"4","last_reported":1762503349,"current_range_meters":17600,"station_id":"ce4bhih2rcd13ifvqfs0","pricing_plan_id":"cebpf4jnsgd1na2vs0mg"},{"bike_id":"101702e2-1b44-4c12-bcf9-5c543e0da166","system_id":"levelo_inurba_marseille","lat":43.321092,"lon":5.367772,"is_reserved":false,"is_disabled":false,"rental_uris":{"android":"levelo://app?vid=101702e2-1b44-4c12-bcf9-5c543e0da166","ios":"levelo://app?vid=101702e2-1b44-4c12-bcf9-5c543e0da166"},"vehicle_type_id":"4","last_reported":1762503349,"current_range_meters":17600,"station_id":"ce4bhrh2rcd13ifvqhug","pricing_plan_id":"cebpf4jnsgd1na2vs0mg"},{"bike_id":"a0780bc9-5bab-46f2-8d08-98e1e3141e80","system_id":"levelo_inurba_marseille","lat":43.30898,"lon":5.36852,"is_reserved":false,"is_disabled":false,"rental_uris":{"android":"levelo://app?vid=a0780bc9-5bab-46f2-8d08-98e1e3141e80","ios":"levelo://app?vid=a0780bc9-5bab-46f2-8d08-98e1e3141e80"},"vehicle_type_id":"4","last_reported":1762503349,"current_range_meters":17600,"station_id":"ce4bgn92rcd13ifvqbvg","pricing_plan_id":"cebpf4jnsgd1na2vs0mg"},{"bike_id":"bdf4db44-3c4f-4337-bc54-1dd0e943a036","system_id":"levelo_inurba_marseille","lat":43.309349,"lon":5.390246,"is_reserved":false,"is_disabled":false,"rental_uris":{"android":"levelo://app?vid=bdf4db44-3c4f-4337-bc54-1dd0e943a036","ios":"levelo://app?vid=bdf4db44-3c4f-4337-bc54-1dd0e943a036"},"vehicle_type_id":"4","last_reported":1762503349,"current_range_meters":17600,"station_id":"ce4bgup2rcd13ifvqco0","pricing_plan_id":"cebpf4jnsgd1na2vs0mg"},{"bike_id":"f3a522e1-df6b-4ed8-b73c-dcaac0c40e0c","system_id":"levelo_inurba_marseille","lat":43.30156,"lon":5.37426,"is_reserved":false,"is_disabled":false,"rental_uris":{"android":"levelo://app?vid=f3a522e1-df6b-4ed8-b73c-dcaac0c40e0c","ios":"levelo://app?vid=f3a522e1-df6b-4ed8-b73c-dcaac0c40e0c"},"vehicle_type_id":"4","last_reported":1762503349,"current_range_meters":17600,"station_id":"ce4bgs92rcd13ifvqcc0","pricing_plan_id":"cebpf4jnsgd1na2vs0mg"},{"bike_id":"33fcdbb0-2f2f-418c-a9e2-8bfbd62dc3a5","system_id":"levelo_inurba_marseille","lat":43.30546,"lon":5.36696,"is_reserved":false,"is_disabled":false,"rental_uris":{"android":"levelo://app?vid=33fcdbb0-2f2f-418c-a9e2-8bfbd62dc3a5","ios":"levelo://app?vid=33fcdbb0-2f2f-418c-a9e2-8bfbd62dc3a5"},"vehicle_type_id":"4","last_reported":1762503349,"current_range_meters":17600,"station_id":"ce4bgrp2rcd13ifvqc9g","pricing_plan_id":"cebpf4jnsgd1na2vs0mg"},{"bike_id":"8294fb7c-61b8-46dd-8a0d-07e729b72143","system_id":"levelo_inurba_marseille","lat":43.23157,"lon":5.43699,"is_reserved":false,"is_disabled":false,"rental_uris":{"android":"levelo://app?vid=8294fb7c-61b8-46dd-8a0d-07e729b72143","ios":"levelo://app?vid=8294fb7c-61b8-46dd-8a0d-07e729b72143"},"vehicle_type_id":"4","last_reported":1762503349,"current_range_meters":17600,"station_id":"ce4bhmp2rcd13ifvqgog","pricing_plan_id":"cebpf4jnsgd1na2vs0mg"},{"bike_id":"f4a31bd8-b6ca-4d2b-9c79-309bc9179a63","system_id":"levelo_inurba_marseille","lat":43.255206,"lon":5.376646,"is_reserved":false,"is_disabled":false,"rental_uris":{"android":"levelo://app?vid=f4a31bd8-b6ca-4d2b-9c79-309bc9179a63","ios":"levelo://app?vid=f4a31bd8-b6ca-4d2b-9c79-309bc9179a63"},"vehicle_type_id":"4","last_reported":1762503349,"current_range_meters":18000,"station_id":"ce4bhh12rcd13ifvqff0","pricing_plan_id":"cebpf4jnsgd1na2vs0mg"},{"bike_id":"65d83eaf-428a-43cd-a356-ecaed95948ff","system_id":"levelo_inurba_marseille","lat":43.24845,"lon":5.397805,"is_reserved":false,"is_disabled":false,"rental_uris":{"android":"levelo://app?vid=65d83eaf-428a-43cd-a356-ecaed95948ff","ios":"levelo://app?vid=65d83eaf-428a-43cd-a356-ecaed95948ff"},"vehicle_type_id":"4","last_reported":1762503349,"current_range_meters":18000,"station_id":"","pricing_plan_id":"cebpf4jnsgd1na2vs0mg"},{"bike_id":"cbaf6e70-be37-4c92-8bb7-677f9be0a37d","system_id":"levelo_inurba_marseille","lat":43.30128,"lon":5.43108,"is_reserved":false,"is_disabled":false,"rental_uris":{"android":"levelo://app?vid=cbaf6e70-be37-4c92-8bb7-677f9be0a37d","ios":"levelo://app?vid=cbaf6e70-be37-4c92-8bb7-677f9be0a37d"},"vehicle_type_id":"4","last_reported":1762503349,"current_range_meters":18000,"station_id":"st_d3js3co5814s73ftftug","pricing_plan_id":"cebpf4jnsgd1na2vs0mg"},{"bike_id":"5ae7b0d8-fb9a-4e0b-aa8b-a55d096f306b","system_id":"levelo_inurba_marseille","lat":43.30879,"lon":5.36859,"is_reserved":false,"is_disabled":false,"rental_uris":{"android":"levelo://app?vid=5ae7b0d8-fb9a-4e0b-aa8b-a55d096f306b","ios":"levelo://app?vid=5ae7b0d8-fb9a-4e0b-aa8b-a55d096f306b"},"vehicle_type_id":"4","last_reported":1762503349,"current_range_meters":18000,"station_id":"ce4bgn92rcd13ifvqbvg","pricing_plan_id":"cebpf4jnsgd1na2vs0mg"},{"bike_id":"a718cc29-6f54-49e3-862a-351d7a32001f","system_id":"levelo_inurba_marseille","lat":43.28494,"lon":5.48414,"is_reserved":false,"is_disabled":false,"rental_uris":{"android":"levelo://app?vid=a718cc29-6f54-49e3-862a-351d7a32001f","ios":"levelo://app?vid=a718cc29-6f54-49e3-862a-351d7a32001f"},"vehicle_type_id":"4","last_reported":1762503349,"current_range_meters":18000,"station_id":"","pricing_plan_id":"cebpf4jnsgd1na2vs0mg"},{"bike_id":"026711f1-c640-4e28-8a55-fae57096ee2c","system_id":"levelo_inurba_marseille","lat":43.2594,"lon":5.40902,"is_reserved":false,"is_disabled":false,"rental_uris":{"android":"levelo://app?vid=026711f1-c640-4e28-8a55-fae57096ee2c","ios":"levelo://app?vid=026711f1-c640-4e28-8a55-fae57096ee2c"},"vehicle_type_id":"4","last_reported":1762503349,"current_range_meters":18000,"station_id":"ce4bhm92rcd13ifvqglg","pricing_plan_id":"cebpf4jnsgd1na2vs0mg"},{"bike_id":"09742958-d3e6-4ec0-b4f0-504594c894d6","system_id":"levelo_inurba_marseille","lat":43.29275,"lon":5.40144,"is_reserved":false,"is_disabled":false,"rental_uris":{"android":"levelo://app?vid=09742958-d3e6-4ec0-b4f0-504594c894d6","ios":"levelo://app?vid=09742958-d3e6-4ec0-b4f0-504594c894d6"},"vehicle_type_id":"4","last_reported":1762503349,"current_range_meters":18800,"station_id":"ce4bh312rcd13ifvqdk0","pricing_plan_id":"cebpf4jnsgd1na2vs0mg"},{"bike_id":"18c09d9c-358a-453d-a5bd-32ed3451cd99","system_id":"levelo_inurba_marseille","lat":43.32135,"lon":5.36753,"is_reserved":false,"is_disabled":false,"rental_uris":{"android":"levelo://app?vid=18c09d9c-358a-453d-a5bd-32ed3451cd99","ios":"levelo://app?vid=18c09d9c-358a-453d-a5bd-32ed3451cd99"},"vehicle_type_id":"4","last_reported":1762503349,"current_range_meters":18800,"station_id":"","pricing_plan_id":"cebpf4jnsgd1na2vs0mg"},{"bike_id":"05c639a2-6660-40ed-a12f-85b485fe188e","system_id":"levelo_inurba_marseille","lat":43.292241,"lon":5.357688,"is_reserved":false,"is_disabled":false,"rental_uris":{"android":"levelo://app?vid=05c639a2-6660-40ed-a12f-85b485fe188e","ios":"levelo://app?vid=05c639a2-6660-40ed-a12f-85b485fe188e"},"vehicle_type_id":"4","last_reported":1762503349,"current_range_meters":18800,"station_id":"ce4bhb12rcd13ifvqel0","pricing_plan_id":"cebpf4jnsgd1na2vs0mg"},{"bike_id":"ec57e0a6-e3c1-4320-b7ea-7829d0041749","system_id":"levelo_inurba_marseille","lat":43.32041,"lon":5.41546,"is_reserved":false,"is_disabled":false,"rental_uris":{"android":"levelo://app?vid=ec57e0a6-e3c1-4320-b7ea-7829d0041749","ios":"levelo://app?vid=ec57e0a6-e3c1-4320-b7ea-7829d0041749"},"vehicle_type_id":"4","last_reported":1762503349,"current_range_meters":18800,"station_id":"ce4bhq92rcd13ifvqhkg","pricing_plan_id":"cebpf4jnsgd1na2vs0mg"},{"bike_id":"75d7dc47-dceb-471d-8668-ef13189f4f02","system_id":"levelo_inurba_marseille","lat":43.32364,"lon":5.36783,"is_reserved":false,"is_disabled":false,"rental_uris":{"android":"levelo://app?vid=75d7dc47-dceb-471d-8668-ef13189f4f02","ios":"levelo://app?vid=75d7dc47-dceb-471d-8668-ef13189f4f02"},"vehicle_type_id":"4","last_reported":1762503349,"current_range_meters":18800,"station_id":"ce4bhsh2rcd13ifvqi2g","pricing_plan_id":"cebpf4jnsgd1na2vs0mg"},{"bike_id":"becc05ef-c148-4583-bfb3-696549166a2f","system_id":"levelo_inurba_marseille","lat":43.26945,"lon":5.3864,"is_reserved":false,"is_disabled":false,"rental_uris":{"android":"levelo://app?vid=becc05ef-c148-4583-bfb3-696549166a2f","ios":"levelo://app?vid=becc05ef-c148-4583-bfb3-696549166a2f"},"vehicle_type_id":"4","last_reported":1762503349,"current_range_meters":18800,"station_id":"ce4bhh92rcd13ifvqfh0","pricing_plan_id":"cebpf4jnsgd1na2vs0mg"},{"bike_id":"8dbf2eb9-40fb-4208-a27b-ab5e1c705547","system_id":"levelo_inurba_marseille","lat":43.30289,"lon":5.37699,"is_reserved":false,"is_disabled":false,"rental_uris":{"android":"levelo://app?vid=8dbf2eb9-40fb-4208-a27b-ab5e1c705547","ios":"levelo://app?vid=8dbf2eb9-40fb-4208-a27b-ab5e1c705547"},"vehicle_type_id":"4","last_reported":1762503349,"current_range_meters":18800,"station_id":"ce4bguh2rcd13ifvqcj0","pricing_plan_id":"cebpf4jnsgd1na2vs0mg"},{"bike_id":"39c565e8-371c-4592-ab8d-9aff02ee02f5","system_id":"levelo_inurba_marseille","lat":43.263,"lon":5.39907,"is_reserved":false,"is_disabled":false,"rental_uris":{"android":"levelo://app?vid=39c565e8-371c-4592-ab8d-9aff02ee02f5","ios":"levelo://app?vid=39c565e8-371c-4592-ab8d-9aff02ee02f5"},"vehicle_type_id":"4","last_reported":1762503349,"current_range_meters":18800,"station_id":"","pricing_plan_id":"cebpf4jnsgd1na2vs0mg"},{"bike_id":"d8e5a2ae-7558-4ca1-8f51-3799e24ce1ed","system_id":"levelo_inurba_marseille","lat":43.312174,"lon":5.368414,"is_reserved":false,"is_disabled":true,"rental_uris":{"android":"levelo://app?vid=d8e5a2ae-7558-4ca1-8f51-3799e24ce1ed","ios":"levelo://app?vid=d8e5a2ae-7558-4ca1-8f51-3799e24ce1ed"},"vehicle_type_id":"4","last_reported":1762503349,"current_range_meters":19200,"station_id":"ce4bgl92rcd13ifvqbq0","pricing_plan_id":"cebpf4jnsgd1na2vs0mg"},{"bike_id":"c3fa59d0-9a8e-43ec-8625-6437ba3bd142","system_id":"levelo_inurba_marseille","lat":43.335388,"lon":5.410453,"is_reserved":false,"is_disabled":false,"rental_uris":{"android":"levelo://app?vid=c3fa59d0-9a8e-43ec-8625-6437ba3bd142","ios":"levelo://app?vid=c3fa59d0-9a8e-43ec-8625-6437ba3bd142"},"vehicle_type_id":"4","last_reported":1762503349,"current_range_meters":19200,"station_id":"ce4bhqh2rcd13ifvqhmg","pricing_plan_id":"cebpf4jnsgd1na2vs0mg"},{"bike_id":"c448769d-72a1-4a2a-80b2-791ccf525608","system_id":"levelo_inurba_marseille","lat":43.257309,"lon":5.411118,"is_reserved":false,"is_disabled":false,"rental_uris":{"android":"levelo://app?vid=c448769d-72a1-4a2a-80b2-791ccf525608","ios":"levelo://app?vid=c448769d-72a1-4a2a-80b2-791ccf525608"},"vehicle_type_id":"4","last_reported":1762503349,"current_range_meters":19200,"station_id":"ce4bhkp2rcd13ifvqgd0","pricing_plan_id":"cebpf4jnsgd1na2vs0mg"},{"bike_id":"7d42ff4b-845c-4e94-b8de-7aa18fc64f80","system_id":"levelo_inurba_marseille","lat":43.23147,"lon":5.43727,"is_reserved":false,"is_disabled":false,"rental_uris":{"android":"levelo://app?vid=7d42ff4b-845c-4e94-b8de-7aa18fc64f80","ios":"levelo://app?vid=7d42ff4b-845c-4e94-b8de-7aa18fc64f80"},"vehicle_type_id":"4","last_reported":1762503349,"current_range_meters":19200,"station_id":"ce4bhmp2rcd13ifvqgog","pricing_plan_id":"cebpf4jnsgd1na2vs0mg"},{"bike_id":"6d50bdc0-5f2c-43b6-bf1d-fa91b1758752","system_id":"levelo_inurba_marseille","lat":43.25948,"lon":5.40906,"is_reserved":false,"is_disabled":false,"rental_uris":{"android":"levelo://app?vid=6d50bdc0-5f2c-43b6-bf1d-fa91b1758752","ios":"levelo://app?vid=6d50bdc0-5f2c-43b6-bf1d-fa91b1758752"},"vehicle_type_id":"4","last_reported":1762503349,"current_range_meters":19200,"station_id":"ce4bhm92rcd13ifvqglg","pricing_plan_id":"cebpf4jnsgd1na2vs0mg"},{"bike_id":"cb9fd420-b10f-4305-adc3-e830c3de22fe","system_id":"levelo_inurba_marseille","lat":43.25332,"lon":5.4217,"is_reserved":false,"is_disabled":true,"rental_uris":{"android":"levelo://app?vid=cb9fd420-b10f-4305-adc3-e830c3de22fe","ios":"levelo://app?vid=cb9fd420-b10f-4305-adc3-e830c3de22fe"},"vehicle_type_id":"4","last_reported":1762503349,"current_range_meters":19200,"station_id":"st_d2m65c5bi1j21697t3ng","pricing_plan_id":"cebpf4jnsgd1na2vs0mg"},{"bike_id":"f53c3dfb-851c-4055-ad28-de09f0cc315c","system_id":"levelo_inurba_marseille","lat":43.30548,"lon":5.36557,"is_reserved":false,"is_disabled":false,"rental_uris":{"android":"levelo://app?vid=f53c3dfb-851c-4055-ad28-de09f0cc315c","ios":"levelo://app?vid=f53c3dfb-851c-4055-ad28-de09f0cc315c"},"vehicle_type_id":"4","last_reported":1762503349,"current_range_meters":19200,"station_id":"ce4bgs12rcd13ifvqcag","pricing_plan_id":"cebpf4jnsgd1na2vs0mg"},{"bike_id":"74bb8ce2-1ec5-4414-94bf-bc4889d1e14c","system_id":"levelo_inurba_marseille","lat":43.32474,"lon":5.39526,"is_reserved":false,"is_disabled":false,"rental_uris":{"android":"levelo://app?vid=74bb8ce2-1ec5-4414-94bf-bc4889d1e14c","ios":"levelo://app?vid=74bb8ce2-1ec5-4414-94bf-bc4889d1e14c"},"vehicle_type_id":"4","last_reported":1762503349,"current_range_meters":19200,"station_id":"","pricing_plan_id":"cebpf4jnsgd1na2vs0mg"},{"bike_id":"aa528943-b0a7-4086-a539-b68558a5577a","system_id":"levelo_inurba_marseille","lat":43.26509,"lon":5.39547,"is_reserved":false,"is_disabled":false,"rental_uris":{"android":"levelo://app?vid=aa528943-b0a7-4086-a539-b68558a5577a","ios":"levelo://app?vid=aa528943-b0a7-4086-a539-b68558a5577a"},"vehicle_type_id":"4","last_reported":1762503349,"current_range_meters":19600,"station_id":"ce4bhi12rcd13ifvqfq0","pricing_plan_id":"cebpf4jnsgd1na2vs0mg"},{"bike_id":"b933b794-77d6-43cc-9ed4-d6cd063f5f7d","system_id":"levelo_inurba_marseille","lat":43.29038,"lon":5.39961,"is_reserved":false,"is_disabled":false,"rental_uris":{"android":"levelo://app?vid=b933b794-77d6-43cc-9ed4-d6cd063f5f7d","ios":"levelo://app?vid=b933b794-77d6-43cc-9ed4-d6cd063f5f7d"},"vehicle_type_id":"4","last_reported":1762503349,"current_range_meters":19600,"station_id":"ce4bh392rcd13ifvqdm0","pricing_plan_id":"cebpf4jnsgd1na2vs0mg"},{"bike_id":"c6d84995-5f45-4cc2-a9d9-173141686205","system_id":"levelo_inurba_marseille","lat":43.30186,"lon":5.36632,"is_reserved":false,"is_disabled":false,"rental_uris":{"android":"levelo://app?vid=c6d84995-5f45-4cc2-a9d9-173141686205","ios":"levelo://app?vid=c6d84995-5f45-4cc2-a9d9-173141686205"},"vehicle_type_id":"4","last_reported":1762503349,"current_range_meters":19600,"station_id":"ce4bgrh2rcd13ifvqc8g","pricing_plan_id":"cebpf4jnsgd1na2vs0mg"},{"bike_id":"1925c121-d5f3-4e68-b285-2344d1fe06b3","system_id":"levelo_inurba_marseille","lat":43.29236,"lon":5.36073,"is_reserved":false,"is_disabled":false,"rental_uris":{"android":"levelo://app?vid=1925c121-d5f3-4e68-b285-2344d1fe06b3","ios":"levelo://app?vid=1925c121-d5f3-4e68-b285-2344d1fe06b3"},"vehicle_type_id":"4","last_reported":1762503349,"current_range_meters":19600,"station_id":"ce4bhbh2rcd13ifvqeqg","pricing_plan_id":"cebpf4jnsgd1na2vs0mg"},