{"last_updated":1756397586,"ttl":60,"version":"2.2","data":{"bikes":[{"bike_id":"0d502687-08ef-4491-8893-8a03d8688be8","system_id":"levelo_inurba_marseille","lat":43.296359,"lon":5.361186,"is_reserved":false,"is_disabled":false,"rental_uris":{"android":"levelo://app?vid=0d502687-08ef-4491-8893-8a03d8688be8","ios":"levelo://app?vid=0d502687-08ef-4491-8893-8a03d8688be8"},"vehicle_type_id":"4","last_reported":1756397587,"current_range_meters":2800,"station_id":"","pricing_plan_id":"cebpf4jnsgd1na2vs0mg"},{"bike_id":"a13dc2e5-f2de-4fe3-992f-4b4e410fac4b","system_id":"levelo_inurba_marseille","lat":43.30892,"lon":5.37188,"is_reserved":false,"is_disabled":false,"rental_uris":{"android":"levelo://app?vid=a13dc2e5-f2de-4fe3-992f-4b4e410fac4b","ios":"levelo://app?vid=a13dc2e5-f2de-4fe3-992f-4b4e410fac4b"},"vehicle_type_id":"4","last_reported":1756397587,"current_range_meters":2800,"station_id":"ce4bguh2rcd13ifvqckg","pricing_plan_id":"cebpf4jnsgd1na2vs0mg"},{"bike_id":"4afa74ad-a2bd-48d9-9146-7f2aa6468513","system_id":"levelo_inurba_marseille","lat":43.265,"lon":5.39534,"is_reserved":false,"is_disabled":false,"rental_uris":{"android":"levelo://app?vid=4afa74ad-a2bd-48d9-9146-7f2aa6468513","ios":"levelo://app?vid=4afa74ad-a2bd-48d9-9146-7f2aa6468513"},"vehicle_type_id":"4","last_reported":1756397587,"current_range_meters":2800,"station_id":"ce4bhi12rcd13ifvqfq0","pricing_plan_id":"cebpf4jnsgd1na2vs0mg"},{"bike_id":"9ebbca0f-8b0f-49e0-bbc0-5934ebb0e846","system_id":"levelo_inurba_marseille","lat":43.211886,"lon":5.350678,"is_reserved":false,"is_disabled":false,"rental_uris":{"android":"levelo://app?vid=9ebbca0f-8b0f-49e0-bbc0-5934ebb0e846","ios":"levelo://app?vid=9ebbca0f-8b0f-49e0-bbc0-5934ebb0e846"},"vehicle_type_id":"4","last_reported":1756397587,"current_range_meters":3600,"station_id":"st_cvj6sg6p6f1abm77japg","pricing_plan_id":"cebpf4jnsgd1na2vs0mg"},{"bike_id":"51842e17-ef10-4624-a23e-c8a182427991","system_id":"levelo_inurba_marseille","lat":43.3162,"lon":5.38186,"is_reserved":false,"is_disabled":false,"rental_uris":{"android":"levelo://app?vid=51842e17-ef10-4624-a23e-c8a182427991","ios":"levelo://app?vid=51842e17-ef10-4624-a23e-c8a182427991"},"vehicle_type_id":"4","last_reported":1756397587,"current_range_meters":3600,"station_id":"","pricing_plan_id":"cebpf4jnsgd1na2vs0mg"},{"bike_id":"53c17e45-2b77-4b2e-a3a5-4a32809a3188","system_id":"levelo_inurba_marseille","lat":43.30286,"lon":5.37699,"is_reserved":false,"is_disabled":false,"rental_uris":{"android":"levelo://app?vid=53c17e45-2b77-4b2e-a3a5-4a32809a3188","ios":"levelo://app?vid=53c17e45-2b77-4b2e-a3a5-4a32809a3188"},"vehicle_type_id":"4","last_reported":1756397587,"current_range_meters":3600,"station_id":"ce4bguh2rcd13ifvqcj0","pricing_plan_id":"cebpf4jnsgd1na2vs0mg"},{"bike_id":"2074dbdc-38dc-4ef2-9d21-3eb20743b43e","system_id":"levelo_inurba_marseille","lat":43.323601,"lon":5.367574,"is_reserved":false,"is_disabled":false,"rental_uris":{"android":"levelo://app?vid=2074dbdc-38dc-4ef2-9d21-3eb20743b43e","ios":"levelo://app?vid=2074dbdc-38dc-4ef2-9d21-3eb20743b43e"},"vehicle_type_id":"4","last_reported":1756397587,"current_range_meters":4000,"station_id":"ce4bhsh2rcd13ifvqi2g","pricing_plan_id":"cebpf4jnsgd1na2vs0mg"},{"bike_id":"f030cc81-d894-4a86-ab98-925a0680aa98","system_id":"levelo_inurba_marseille","lat":43.30307,"lon":5.39217,"is_reserved":false,"is_disabled":false,"rental_uris":{"android":"levelo://app?vid=f030cc81-d894-4a86-ab98-925a0680aa98","ios":"levelo://app?vid=f030cc81-d894-4a86-ab98-925a0680aa98"},"vehicle_type_id":"4","last_reported":1756397587,"current_range_meters":4000,"station_id":"ce4bgkh2rcd13ifvqbk0","pricing_plan_id":"cebpf4jnsgd1na2vs0mg"},{"bike_id":"a6805965-b73a-4244-b2d0-7b0afe24bca4","system_id":"levelo_inurba_marseille","lat":43.2873,"lon":5.37933,"is_reserved":false,"is_disabled":false,"rental_uris":{"android":"levelo://app?vid=a6805965-b73a-4244-b2d0-7b0afe24bca4","ios":"levelo://app?vid=a6805965-b73a-4244-b2d0-7b0afe24bca4"},"vehicle_type_id":"4","last_reported":1756397587,"current_range_meters":3600,"station_id":"ce4bh9p2rcd13ifvqec0","pricing_plan_id":"cebpf4jnsgd1na2vs0mg"},{"bike_id":"b7f5d4fc-8af5-442f-b471-e28f343fd67e","system_id":"levelo_inurba_marseille","lat":43.33767,"lon":5.3748,"is_reserved":false,"is_disabled":false,"rental_uris":{"android":"levelo://app?vid=b7f5d4fc-8af5-442f-b471-e28f343fd67e","ios":"levelo://app?vid=b7f5d4fc-8af5-442f-b471-e28f343fd67e"},"vehicle_type_id":"4","last_reported":1756397587,"current_range_meters":4000,"station_id":"","pricing_plan_id":"cebpf4jnsgd1na2vs0mg"},{"bike_id":"69a01144-4cb0-4f43-b8a7-d8bba1210d75","system_id":"levelo_inurba_marseille","lat":43.31583,"lon":5.37406,"is_reserved":false,"is_disabled":false,"rental_uris":{"android":"levelo://app?vid=69a01144-4cb0-4f43-b8a7-d8bba1210d75","ios":"levelo://app?vid=69a01144-4cb0-4f43-b8a7-d8bba1210d75"},"vehicle_type_id":"4","last_reported":1756397587,"current_range_meters":4400,"station_id":"","pricing_plan_id":"cebpf4jnsgd1na2vs0mg"},{"bike_id":"87b4987a-835a-4867-b302-27d654ff2bb2","system_id":"levelo_inurba_marseille","lat":43.26217,"lon":5.37943,"is_reserved":false,"is_disabled":false,"rental_uris":{"android":"levelo://app?vid=87b4987a-835a-4867-b302-27d654ff2bb2","ios":"levelo://app?vid=87b4987a-835a-4867-b302-27d654ff2bb2"},"vehicle_type_id":"4","last_reported":1756397587,"current_range_meters":4800,"station_id":"ce4bhjp2rcd13ifvqg90","pricing_plan_id":"cebpf4jnsgd1na2vs0mg"},{"bike_id":"9def3c3c-59b9-4dd5-bcd9-23eb4d9be56a","system_id":"levelo_inurba_marseille","lat":43.29307,"lon":5.37461,"is_reserved":false,"is_disabled":false,"rental_uris":{"android":"levelo://app?vid=9def3c3c-59b9-4dd5-bcd9-23eb4d9be56a","ios":"levelo://app?vid=9def3c3c-59b9-4dd5-bcd9-23eb4d9be56a"},"vehicle_type_id":"4","last_reported":1756397587,"current_range_meters":5600,"station_id":"ce4bgi12rcd13ifvqb70","pricing_plan_id":"cebpf4jnsgd1na2vs0mg"},{"bike_id":"67990567-9290-4db8-a7e2-b90b77ccda0e","system_id":"levelo_inurba_marseille","lat":43.29504,"lon":5.39404,"is_reserved":false,"is_disabled":false,"rental_uris":{"android":"levelo://app?vid=67990567-9290-4db8-a7e2-b90b77ccda0e","ios":"levelo://app?vid=67990567-9290-4db8-a7e2-b90b77ccda0e"},"vehicle_type_id":"4","last_reported":1756397587,"current_range_meters":6000,"station_id":"ce4bh292rcd13ifvqdf0","pricing_plan_id":"cebpf4jnsgd1na2vs0mg"},{"bike_id":"129a3937-0ee1-4954-8bee-ed88c1789fec","system_id":"levelo_inurba_marseille","lat":43.25121,"lon":5.40318,"is_reserved":false,"is_disabled":false,"rental_uris":{"android":"levelo://app?vid=129a3937-0ee1-4954-8bee-ed88c1789fec","ios":"levelo://app?vid=129a3937-0ee1-4954-8bee-ed88c1789fec"},"vehicle_type_id":"4","last_reported":1756397587,"current_range_meters":6000,"station_id":"ce4bhlh2rcd13ifvqgig","pricing_plan_id":"cebpf4jnsgd1na2vs0mg"},{"bike_id":"1419129e-f0de-4052-abf1-7e5e3f2a2700","system_id":"levelo_inurba_marseille","lat":43.29176,"lon":5.37948,"is_reserved":false,"is_disabled":false,"rental_uris":{"android":"levelo://app?vid=1419129e-f0de-4052-abf1-7e5e3f2a2700","ios":"levelo://app?vid=1419129e-f0de-4052-abf1-7e5e3f2a2700"},"vehicle_type_id":"4","last_reported":1756397587,"current_range_meters":6000,"station_id":"","pricing_plan_id":"cebpf4jnsgd1na2vs0mg"},{"bike_id":"12a324d4-9e7d-463e-80e0-bc43815ccf98","system_id":"levelo_inurba_marseille","lat":43.29593,"lon":5.38175,"is_reserved":false,"is_disabled":false,"rental_uris":{"android":"levelo://app?vid=12a324d4-9e7d-463e-80e0-bc43815ccf98","ios":"levelo://app?vid=12a324d4-9e7d-463e-80e0-bc43815ccf98"},"vehicle_type_id":"4","last_reported":1756397587,"current_range_meters":6400,"station_id":"","pricing_plan_id":"cebpf4jnsgd1na2vs0mg"},{"bike_id":"5bce688b-fc81-4596-8277-b66f54be87c1","system_id":"levelo_inurba_marseille","lat":43.337645,"lon":5.374409,"is_reserved":false,"is_disabled":false,"rental_uris":{"android":"levelo://app?vid=5bce688b-fc81-4596-8277-b66f54be87c1","ios":"levelo://app?vid=5bce688b-fc81-4596-8277-b66f54be87c1"},"vehicle_type_id":"4","last_reported":1756397587,"current_range_meters":6400,"station_id":"","pricing_plan_id":"cebpf4jnsgd1na2vs0mg"},{"bike_id":"12cb0e92-249a-4b1d-8dd8-d748f13f21b7","system_id":"levelo_inurba_marseille","lat":43.30461,"lon":5.37905,"is_reserved":false,"is_disabled":false,"rental_uris":{"android":"levelo://app?vid=12cb0e92-249a-4b1d-8dd8-d748f13f21b7","ios":"levelo://app?vid=12cb0e92-249a-4b1d-8dd8-d748f13f21b7"},"vehicle_type_id":"4","last_reported":1756397587,"current_range_meters":6000,"station_id":"ce4bgup2rcd13ifvqcn0","pricing_plan_id":"cebpf4jnsgd1na2vs0mg"},{"bike_id":"551aa5e4-53bb-4034-8d1c-0f68d879aaa8","system_id":"levelo_inurba_marseille","lat":43.32108,"lon":5.36761,"is_reserved":false,"is_disabled":false,"rental_uris":{"android":"levelo://app?vid=551aa5e4-53bb-4034-8d1c-0f68d879aaa8","ios":"levelo://app?vid=551aa5e4-53bb-4034-8d1c-0f68d879aaa8"},"vehicle_type_id":"4","last_reported":1756397587,"current_range_meters":6400,"station_id":"ce4bhrh2rcd13ifvqhug","pricing_plan_id":"cebpf4jnsgd1na2vs0mg"},{"bike_id":"51654be2-7925-4129-b082-96dbf7f566bf","system_id":"levelo_inurba_marseille","lat":43.302568,"lon":5.391327,"is_reserved":false,"is_disabled":false,"rental_uris":{"android":"levelo://app?vid=51654be2-7925-4129-b082-96dbf7f566bf","ios":"levelo://app?vid=51654be2-7925-4129-b082-96dbf7f566bf"},"vehicle_type_id":"4","last_reported":1756397587,"current_range_meters":6000,"station_id":"ce4bgkh2rcd13ifvqbk0","pricing_plan_id":"cebpf4jnsgd1na2vs0mg"},{"bike_id":"24f5aa1f-2f94-4f26-8f26-0f5d3cb057f4","system_id":"levelo_inurba_marseille","lat":43.28724,"lon":5.42629,"is_reserved":false,"is_disabled":false,"rental_uris":{"android":"levelo://app?vid=24f5aa1f-2f94-4f26-8f26-0f5d3cb057f4","ios":"levelo://app?vid=24f5aa1f-2f94-4f26-8f26-0f5d3cb057f4"},"vehicle_type_id":"4","last_reported":1756397587,"current_range_meters":6400,"station_id":"","pricing_plan_id":"cebpf4jnsgd1na2vs0mg"},{"bike_id":"2d90c6c2-1193-476e-983d-22d358b08a6f","system_id":"levelo_inurba_marseille","lat":43.28718,"lon":5.37947,"is_reserved":false,"is_disabled":false,"rental_uris":{"android":"levelo://app?vid=2d90c6c2-1193-476e-983d-22d358b08a6f","ios":"levelo://app?vid=2d90c6c2-1193-476e-983d-22d358b08a6f"},"vehicle_type_id":"4","last_reported":1756397587,"current_range_meters":6400,"station_id":"ce4bh9p2rcd13ifvqec0","pricing_plan_id":"cebpf4jnsgd1na2vs0mg"},{"bike_id":"e307daaf-9128-47f7-aac1-08f45f68e308","system_id":"levelo_inurba_marseille","lat":43.28269,"lon":5.35061,"is_reserved":false,"is_disabled":false,"rental_uris":{"android":"levelo://app?vid=e307daaf-9128-47f7-aac1-08f45f68e308","ios":"levelo://app?vid=e307daaf-9128-47f7-aac1-08f45f68e308"},"vehicle_type_id":"4","last_reported":1756397587,"current_range_meters":6800,"station_id":"ce4bhbp2rcd13ifvqerg","pricing_plan_id":"cebpf4jnsgd1na2vs0mg"},{"bike_id":"2a7b62f6-64a8-40bf-8fb0-1d4d792aa795","system_id":"levelo_inurba_marseille","lat":43.28448,"lon":5.39204,"is_reserved":false,"is_disabled":false,"rental_uris":{"android":"levelo://app?vid=2a7b62f6-64a8-40bf-8fb0-1d4d792aa795","ios":"levelo://app?vid=2a7b62f6-64a8-40bf-8fb0-1d4d792aa795"},"vehicle_type_id":"4","last_reported":1756397587,"current_range_meters":7200,"station_id":"ce4bhoh2rcd13ifvqh5g","pricing_plan_id":"cebpf4jnsgd1na2vs0mg"},{"bike_id":"e5eabf25-4e1c-476e-b130-9f83cdcfc80c","system_id":"levelo_inurba_marseille","lat":43.29805,"lon":5.41716,"is_reserved":false,"is_disabled":false,"rental_uris":{"android":"levelo://app?vid=e5eabf25-4e1c-476e-b130-9f83cdcfc80c","ios":"levelo://app?vid=e5eabf25-4e1c-476e-b130-9f83cdcfc80c"},"vehicle_type_id":"4","last_reported":1756397587,"current_range_meters":7200,"station_id":"","pricing_plan_id":"cebpf4jnsgd1na2vs0mg"},{"bike_id":"a6ef8657-5b8a-423b-993f-c3df43dec0a0","system_id":"levelo_inurba_marseille","lat":43.337595,"lon":5.374806,"is_reserved":false,"is_disabled":false,"rental_uris":{"android":"levelo://app?vid=a6ef8657-5b8a-423b-993f-c3df43dec0a0","ios":"levelo://app?vid=a6ef8657-5b8a-423b-993f-c3df43dec0a0"},"vehicle_type_id":"4","last_reported":1756397587,"current_range_meters":7200,"station_id":"","pricing_plan_id":"cebpf4jnsgd1na2vs0mg"},{"bike_id":"efe0bb0f-c92c-4efb-b29f-a81448ec5eb2","system_id":"levelo_inurba_marseille","lat":43.29038,"lon":5.37553,"is_reserved":false,"is_disabled":true,"rental_uris":{"android":"levelo://app?vid=efe0bb0f-c92c-4efb-b29f-a81448ec5eb2","ios":"levelo://app?vid=efe0bb0f-c92c-4efb-b29f-a81448ec5eb2"},"vehicle_type_id":"4","last_reported":1756397587,"current_range_meters":8000,"station_id":"ce4bh692rcd13ifvqe90","pricing_plan_id":"cebpf4jnsgd1na2vs0mg"},{"bike_id":"7ca08875-8b83-43cb-a7e2-dda0046f83cc","system_id":"levelo_inurba_marseille","lat":43.3042,"lon":5.41279,"is_reserved":false,"is_disabled":false,"rental_uris":{"android":"levelo://app?vid=7ca08875-8b83-43cb-a7e2-dda0046f83cc","ios":"levelo://app?vid=7ca08875-8b83-43cb-a7e2-dda0046f83cc"},"vehicle_type_id":"4","last_reported":1756397587,"current_range_meters":8000,"station_id":"ce4bhop2rcd13ifvqh8g","pricing_plan_id":"cebpf4jnsgd1na2vs0mg"},{"bike_id":"e36ab571-6b83-4012-910d-c8ac275ef467","system_id":"levelo_inurba_marseille","lat":43.294562,"lon":5.374092,"is_reserved":false,"is_disabled":false,"rental_uris":{"android":"levelo://app?vid=e36ab571-6b83-4012-910d-c8ac275ef467","ios":"levelo://app?vid=e36ab571-6b83-4012-910d-c8ac275ef467"},"vehicle_type_id":"4","last_reported":1756397587,"current_range_meters":8400,"station_id":"","pricing_plan_id":"cebpf4jnsgd1na2vs0mg"},{"bike_id":"7d09ef9f-0184-45ce-803c-83307eefc5b2","system_id":"levelo_inurba_marseille","lat":43.298089,"lon":5.381118,"is_reserved":false,"is_disabled":false,"rental_uris":{"android":"levelo://app?vid=7d09ef9f-0184-45ce-803c-83307eefc5b2","ios":"levelo://app?vid=7d09ef9f-0184-45ce-803c-83307eefc5b2"},"vehicle_type_id":"4","last_reported":1756397587,"current_range_meters":8400,"station_id":"ce4bgip2rcd13ifvqbb0","pricing_plan_id":"cebpf4jnsgd1na2vs0mg"},{"bike_id":"3ebbe411-c9ad-41ae-9df5-ad5b7601336c","system_id":"levelo_inurba_marseille","lat":43.26027,"lon":5.37556,"is_reserved":false,"is_disabled":true,"rental_uris":{"android":"levelo://app?vid=3ebbe411-c9ad-41ae-9df5-ad5b7601336c","ios":"levelo://app?vid=3ebbe411-c9ad-41ae-9df5-ad5b7601336c"},"vehicle_type_id":"4","last_reported":1756397587,"current_range_meters":8800,"station_id":"ce4bhgh2rcd13ifvqfa0","pricing_plan_id":"cebpf4jnsgd1na2vs0mg"},{"bike_id":"8637e1aa-9c9a-41e1-a5d5-f0342a65118e","system_id":"levelo_inurba_marseille","lat":43.31699,"lon":5.43704,"is_reserved":false,"is_disabled":false,"rental_uris":{"android":"levelo://app?vid=8637e1aa-9c9a-41e1-a5d5-f0342a65118e","ios":"levelo://app?vid=8637e1aa-9c9a-41e1-a5d5-f0342a65118e"},"vehicle_type_id":"4","last_reported":1756397587,"current_range_meters":8800,"station_id":"ce4bhp92rcd13ifvqhcg","pricing_plan_id":"cebpf4jnsgd1na2vs0mg"},{"bike_id":"452c64c1-c18e-429f-ac02-5f3cc7af3941","system_id":"levelo_inurba_marseille","lat":43.21765,"lon":5.34608,"is_reserved":false,"is_disabled":false,"rental_uris":{"android":"levelo://app?vid=452c64c1-c18e-429f-ac02-5f3cc7af3941","ios":"levelo://app?vid=452c64c1-c18e-429f-ac02-5f3cc7af3941"},"vehicle_type_id":"4","last_reported":1756397587,"current_range_meters":8800,"station_id":"st_cvj6r9ubvosntc0bgbag","pricing_plan_id":"cebpf4jnsgd1na2vs0mg"},{"bike_id":"d4d3a3e5-0782-421d-8ffe-1203afe9ddd1","system_id":"levelo_inurba_marseille","lat":43.27806,"lon":5.40696,"is_reserved":false,"is_disabled":false,"rental_uris":{"android":"levelo://app?vid=d4d3a3e5-0782-421d-8ffe-1203afe9ddd1","ios":"levelo://app?vid=d4d3a3e5-0782-421d-8ffe-1203afe9ddd1"},"vehicle_type_id":"4","last_reported":1756397587,"current_range_meters":9200,"station_id":"ce4bhnh2rcd13ifvqgtg","pricing_plan_id":"cebpf4jnsgd1na2vs0mg"},{"bike_id":"fa52d239-bed3-48ee-a842-fd852abd09a0","system_id":"levelo_inurba_marseille","lat":43.27839,"lon":5.39211,"is_reserved":false,"is_disabled":false,"rental_uris":{"android":"levelo://app?vid=fa52d239-bed3-48ee-a842-fd852abd09a0","ios":"levelo://app?vid=fa52d239-bed3-48ee-a842-fd852abd09a0"},"vehicle_type_id":"4","last_reported":1756397587,"current_range_meters":9200,"station_id":"ce4bhjp2rcd13ifvqga0","pricing_plan_id":"cebpf4jnsgd1na2vs0mg"},{"bike_id":"77156377-48e3-4434-b0ee-2f71280534b9","system_id":"levelo_inurba_marseille","lat":43.27247,"lon":5.41064,"is_reserved":false,"is_disabled":false,"rental_uris":{"android":"levelo://app?vid=77156377-48e3-4434-b0ee-2f71280534b9","ios":"levelo://app?vid=77156377-48e3-4434-b0ee-2f71280534b9"},"vehicle_type_id":"4","last_reported":1756397587,"current_range_meters":9600,"station_id":"","pricing_plan_id":"cebpf4jnsgd1na2vs0mg"},{"bike_id":"bbd11906-b4e8-4c4f-82a1-bfbbfcfaac77","system_id":"levelo_inurba_marseille","lat":43.23056,"lon":5.3549,"is_reserved":false,"is_disabled":false,"rental_uris":{"android":"levelo://app?vid=bbd11906-b4e8-4c4f-82a1-bfbbfcfaac77","ios":"levelo://app?vid=bbd11906-b4e8-4c4f-82a1-bfbbfcfaac77"},"vehicle_type_id":"4","last_reported":1756397587,"current_range_meters":9600,"station_id":"cpo3342slgdg3j2ifvpg","pricing_plan_id":"cebpf4jnsgd1na2vs0mg"},{"bike_id":"12433994-6327-4c0c-8e14-9840c3f9d2bd","system_id":"levelo_inurba_marseille","lat":43.29708,"lon":5.36621,"is_reserved":false,"is_disabled":false,"rental_uris":{"android":"levelo://app?vid=12433994-6327-4c0c-8e14-9840c3f9d2bd","ios":"levelo://app?vid=12433994-6327-4c0c-8e14-9840c3f9d2bd"},"vehicle_type_id":"4","last_reported":1756397587,"current_range_meters":10000,"station_id":"ce4bgn12rcd13ifvqbt0","pricing_plan_id":"cebpf4jnsgd1na2vs0mg"},{"bike_id":"5c26a54e-1e97-4ad3-a16d-614ad930b130","system_id":"levelo_inurba_marseille","lat":43.32111,"lon":5.36768,"is_reserved":false,"is_disabled":false,"rental_uris":{"android":"levelo://app?vid=5c26a54e-1e97-4ad3-a16d-614ad930b130","ios":"levelo://app?vid=5c26a54e-1e97-4ad3-a16d-614ad930b130"},"vehicle_type_id":"4","last_reported":1756397587,"current_range_meters":10000,"station_id":"ce4bhrh2rcd13ifvqhug","pricing_plan_id":"cebpf4jnsgd1na2vs0mg"},{"bike_id":"edbfaa01-4d10-4182-bf5c-4be6b6acef84","system_id":"levelo_inurba_marseille","lat":43.27213,"lon":5.39181,"is_reserved":false,"is_disabled":false,"rental_uris":{"android":"levelo://app?vid=edbfaa01-4d10-4182-bf5c-4be6b6acef84","ios":"levelo://app?vid=edbfaa01-4d10-4182-bf5c-4be6b6acef84"},"vehicle_type_id":"4","last_reported":1756397587,"current_range_meters":10000,"station_id":"ce4bhhp2rcd13ifvqfm0","pricing_plan_id":"cebpf4jnsgd1na2vs0mg"},{"bike_id":"def09d86-cf53-4fa1-bbc6-120361c46992","system_id":"levelo_inurba_marseille","lat":43.28613,"lon":5.35098,"is_reserved":false,"is_disabled":false,"rental_uris":{"android":"levelo://app?vid=def09d86-cf53-4fa1-bbc6-120361c46992","ios":"levelo://app?vid=def09d86-cf53-4fa1-bbc6-120361c46992"},"vehicle_type_id":"4","last_reported":1756397587,"current_range_meters":10000,"station_id":"ce4bhch2rcd13ifvqeug","pricing_plan_id":"cebpf4jnsgd1na2vs0mg"},{"bike_id":"65092fa9-364a-40ee-9cb7-cc19cb5a898a","system_id":"levelo_inurba_marseille","lat":43.280151,"lon":5.351535,"is_reserved":false,"is_disabled":false,"rental_uris":{"android":"levelo://app?vid=65092fa9-364a-40ee-9cb7-cc19cb5a898a","ios":"levelo://app?vid=65092fa9-364a-40ee-9cb7-cc19cb5a898a"},"vehicle_type_id":"4","last_reported":1756397587,"current_range_meters":10000,"station_id":"ce4bguh2rcd13ifvqckg","pricing_plan_id":"cebpf4jnsgd1na2vs0mg"},{"bike_id":"3091e42a-5528-4881-bef2-02a10038c1e8","system_id":"levelo_inurba_marseille","lat":43.27295,"lon":5.36287,"is_reserved":false,"is_disabled":false,"rental_uris":{"android":"levelo://app?vid=3091e42a-5528-4881-bef2-02a10038c1e8","ios":"levelo://app?vid=3091e42a-5528-4881-bef2-02a10038c1e8"},"vehicle_type_id":"4","last_reported":1756397587,"current_range_meters":10000,"station_id":"","pricing_plan_id":"cebpf4jnsgd1na2vs0mg"},{"bike_id":"ac0ea835-99bd-43af-8946-31e8413cf1fb","system_id":"levelo_inurba_marseille","lat":43.32494,"lon":5.36561,"is_reserved":false,"is_disabled":false,"rental_uris":{"android":"levelo://app?vid=ac0ea835-99bd-43af-8946-31e8413cf1fb","ios":"levelo://app?vid=ac0ea835-99bd-43af-8946-31e8413cf1fb"},"vehicle_type_id":"4","last_reported":1756397587,"current_range_meters":10800,"station_id":"ce4bhs12rcd13ifvqhvg","pricing_plan_id":"cebpf4jnsgd1na2vs0mg"},{"bike_id":"a5931b30-52f8-40af-9a6a-03ff43b77469","system_id":"levelo_inurba_marseille","lat":43.2439,"lon":5.37057,"is_reserved":false,"is_disabled":false,"rental_uris":{"android":"levelo://app?vid=a5931b30-52f8-40af-9a6a-03ff43b77469","ios":"levelo://app?vid=a5931b30-52f8-40af-9a6a-03ff43b77469"},"vehicle_type_id":"4","last_reported":1756397587,"current_range_meters":10800,"station_id":"ce4bhhh2rcd13ifvqfk0","pricing_plan_id":"cebpf4jnsgd1na2vs0mg"},{"bike_id":"c67682e4-ad86-4b65-b4ef-e774963b7e60","system_id":"levelo_inurba_marseille","lat":43.231964,"lon":5.355691,"is_reserved":false,"is_disabled":false,"rental_uris":{"android":"levelo://app?vid=c67682e4-ad86-4b65-b4ef-e774963b7e60","ios":"levelo://app?vid=c67682e4-ad86-4b65-b4ef-e774963b7e60"},"vehicle_type_id":"4","last_reported":1756397587,"current_range_meters":11200,"station_id":"ce4bhu92rcd13ifvqi70","pricing_plan_id":"cebpf4jnsgd1na2vs0mg"},{"bike_id":"d3463736-6f79-49f4-bb94-b7d077f27a86","system_id":"levelo_inurba_marseille","lat":43.26553,"lon":5.37283,"is_reserved":false,"is_disabled":false,"rental_uris":{"android":"levelo://app?vid=d3463736-6f79-49f4-bb94-b7d077f27a86","ios":"levelo://app?vid=d3463736-6f79-49f4-bb94-b7d077f27a86"},"vehicle_type_id":"4","last_reported":1756397587,"current_range_meters":11200,"station_id":"ce4bhg12rcd13ifvqf70","pricing_plan_id":"cebpf4jnsgd1na2vs0mg"},{"bike_id":"0963a50e-3df1-4983-bfdd-ff8a06d65e60","system_id":"levelo_inurba_marseille","lat":43.2862,"lon":5.35106,"is_reserved":false,"is_disabled":false,"rental_uris":{"android":"levelo://app?vid=0963a50e-3df1-4983-bfdd-ff8a06d65e60","ios":"levelo://app?vid=0963a50e-3df1-4983-bfdd-ff8a06d65e60"},"vehicle_type_id":"4","last_reported":1756397587,"current_range_meters":11200,"station_id":"","pricing_plan_id":"cebpf4jnsgd1na2vs0mg"},{"bike_id":"eab43485-32c9-46f2-945e-ada25159633d","system_id":"levelo_inurba_marseille","lat":43.262516,"lon":5.374557,"is_reserved":false,"is_disabled":false,"rental_uris":{"android":"levelo://app?vid=eab43485-32c9-46f2-945e-ada25159633d","ios":"levelo://app?vid=eab43485-32c9-46f2-945e-ada25159633d"},"vehicle_type_id":"4","last_reported":1756397587,"current_range_meters":11200,"station_id":"ce4bhgp2rcd13ifvqfc0","pricing_plan_id":"cebpf4jnsgd1na2vs0mg"},{"bike_id":"df65111b-565e-44c8-9330-7339e94b296f","system_id":"levelo_inurba_marseille","lat":43.28237,"lon":5.39067,"is_reserved":false,"is_disabled":false,"rental_uris":{"android":"levelo://app?vid=df65111b-565e-44c8-9330-7339e94b296f","ios":"levelo://app?vid=df65111b-565e-44c8-9330-7339e94b296f"},"vehicle_type_id":"4","last_reported":1756397587,"current_range_meters":11200,"station_id":"","pricing_plan_id":"cebpf4jnsgd1na2vs0mg"},{"bike_id":"16e58fc5-d103-4af9-97c8-aaf78bc02760","system_id":"levelo_inurba_marseille","lat":43.28726,"lon":5.36084,"is_reserved":false,"is_disabled":false,"rental_uris":{"android":"levelo://app?vid=16e58fc5-d103-4af9-97c8-aaf78bc02760","ios":"levelo://app?vid=16e58fc5-d103-4af9-97c8-aaf78bc02760"},"vehicle_type_id":"4","last_reported":1756397587,"current_range_meters":10800,"station_id":"cki0cbj6b192h4jlfktg","pricing_plan_id":"cebpf4jnsgd1na2vs0mg"},{"bike_id":"baf23113-7082-4065-a6eb-ae0f8cc08033","system_id":"levelo_inurba_marseille","lat":43.32338,"lon":5.36612,"is_reserved":false,"is_disabled":false,"rental_uris":{"android":"levelo://app?vid=baf23113-7082-4065-a6eb-ae0f8cc08033","ios":"levelo://app?vid=baf23113-7082-4065-a6eb-ae0f8cc08033"},"vehicle_type_id":"4","last_reported":1756397587,"current_range_meters":11200,"station_id":"","pricing_plan_id":"cebpf4jnsgd1na2vs0mg"},{"bike_id":"0ae26aa7-83f0-4e5c-b200-550f91a8cfb4","system_id":"levelo_inurba_marseille","lat":43.32333,"lon":5.40616,"is_reserved":false,"is_disabled":false,"rental_uris":{"android":"levelo://app?vid=0ae26aa7-83f0-4e5c-b200-550f91a8cfb4","ios":"levelo://app?vid=0ae26aa7-83f0-4e5c-b200-550f91a8cfb4"},"vehicle_type_id":"4","last_reported":1756397587,"current_range_meters":11600,"station_id":"ce4bhq92rcd13ifvqhjg","pricing_plan_id":"cebpf4jnsgd1na2vs0mg"},{"bike_id":"58b0f458-6d83-41ca-9901-eee7b5b8a27a","system_id":"levelo_inurba_marseille","lat":43.26206,"lon":5.37454,"is_reserved":false,"is_disabled":false,"rental_uris":{"android":"levelo://app?vid=58b0f458-6d83-41ca-9901-eee7b5b8a27a","ios":"levelo://app?vid=58b0f458-6d83-41ca-9901-eee7b5b8a27a"},"vehicle_type_id":"4","last_reported":1756397587,"current_range_meters":11600,"station_id":"ce4bhgp2rcd13ifvqfc0","pricing_plan_id":"cebpf4jnsgd1na2vs0mg"},{"bike_id":"857f0a2b-44e3-40c1-bbe7-509ba79497d0","system_id":"levelo_inurba_marseille","lat":43.297063,"lon":5.366018,"is_reserved":false,"is_disabled":false,"rental_uris":{"android":"levelo://app?vid=857f0a2b-44e3-40c1-bbe7-509ba79497d0","ios":"levelo://app?vid=857f0a2b-44e3-40c1-bbe7-509ba79497d0"},"vehicle_type_id":"4","last_reported":1756397587,"current_range_meters":11200,"station_id":"ce4bgn12rcd13ifvqbt0","pricing_plan_id":"cebpf4jnsgd1na2vs0mg"},{"bike_id":"d810acf0-5bd2-4bf1-848d-31cd30d105e6","system_id":"levelo_inurba_marseille","lat":43.269831,"lon":5.392782,"is_reserved":false,"is_disabled":false,"rental_uris":{"android":"levelo://app?vid=d810acf0-5bd2-4bf1-848d-31cd30d105e6","ios":"levelo://app?vid=d810acf0-5bd2-4bf1-848d-31cd30d105e6"},"vehicle_type_id":"4","last_reported":1756397587,"current_range_meters":11600,"station_id":"","pricing_plan_id":"cebpf4jnsgd1na2vs0mg"},{"bike_id":"71a52321-a880-4620-a31b-9db5ebbdb721","system_id":"levelo_inurba_marseille","lat":43.29078,"lon":5.37174,"is_reserved":false,"is_disabled":false,"rental_uris":{"android":"levelo://app?vid=71a52321-a880-4620-a31b-9db5ebbdb721","ios":"levelo://app?vid=71a52321-a880-4620-a31b-9db5ebbdb721"},"vehicle_type_id":"4","last_reported":1756397587,"current_range_meters":12000,"station_id":"ce4bh5p2rcd13ifvqe4g","pricing_plan_id":"cebpf4jnsgd1na2vs0mg"},{"bike_id":"b8df9f83-db4c-4d07-ab72-0da748a1f42b","system_id":"levelo_inurba_marseille","lat":43.26203,"lon":5.37448,"is_reserved":false,"is_disabled":false,"rental_uris":{"android":"levelo://app?vid=b8df9f83-db4c-4d07-ab72-0da748a1f42b","ios":"levelo://app?vid=b8df9f83-db4c-4d07-ab72-0da748a1f42b"},"vehicle_type_id":"4","last_reported":1756397587,"current_range_meters":11600,"station_id":"ce4bhgp2rcd13ifvqfc0","pricing_plan_id":"cebpf4jnsgd1na2vs0mg"},{"bike_id":"602fb3db-5dd4-4f89-9857-d81b4fc3ccd2","system_id":"levelo_inurba_marseille","lat":43.28676,"lon":5.38663,"is_reserved":false,"is_disabled":false,"rental_uris":{"android":"levelo://app?vid=602fb3db-5dd4-4f89-9857-d81b4fc3ccd2","ios":"levelo://app?vid=602fb3db-5dd4-4f89-9857-d81b4fc3ccd2"},"vehicle_type_id":"4","last_reported":1756397587,"current_range_meters":11600,"station_id":"ce4bh492rcd13ifvqdug","pricing_plan_id":"cebpf4jnsgd1na2vs0mg"},{"bike_id":"aa01b32c-87f1-4c2a-b714-4c023db7244b","system_id":"levelo_inurba_marseille","lat":43.26062,"lon":5.39394,"is_reserved":false,"is_disabled":false,"rental_uris":{"android":"levelo://app?vid=aa01b32c-87f1-4c2a-b714-4c023db7244b","ios":"levelo://app?vid=aa01b32c-87f1-4c2a-b714-4c023db7244b"},"vehicle_type_id":"4","last_reported":1756397587,"current_range_meters":11200,"station_id":"ce4bhh92rcd13ifvqfj0","pricing_plan_id":"cebpf4jnsgd1na2vs0mg"},{"bike_id":"3f96c682-ab1a-4890-9d9a-a07b00795cc2","system_id":"levelo_inurba_marseille","lat":43.23971,"lon":5.36615,"is_reserved":false,"is_disabled":false,"rental_uris":{"android":"levelo://app?vid=3f96c682-ab1a-4890-9d9a-a07b00795cc2","ios":"levelo://app?vid=3f96c682-ab1a-4890-9d9a-a07b00795cc2"},"vehicle_type_id":"4","last_reported":1756397587,"current_range_meters":11200,"station_id":"ce4bhi12rcd13ifvqfp0","pricing_plan_id":"cebpf4jnsgd1na2vs0mg"},{"bike_id":"825f99ee-02a3-46e4-8dd8-870f14d345a8","system_id":"levelo_inurba_marseille","lat":43.22526,"lon":5.3477,"is_reserved":false,"is_disabled":true,"rental_uris":{"android":"levelo://app?vid=825f99ee-02a3-46e4-8dd8-870f14d345a8","ios":"levelo://app?vid=825f99ee-02a3-46e4-8dd8-870f14d345a8"},"vehicle_type_id":"4","last_reported":1756397587,"current_range_meters":12000,"station_id":"","pricing_plan_id":"cebpf4jnsgd1na2vs0mg"},{"bike_id":"23ae6fed-deff-411b-8b6e-f95e32ccd4d0","system_id":"levelo_inurba_marseille","lat":43.321315,"lon":5.367681,"is_reserved":false,"is_disabled":false,"rental_uris":{"android":"levelo://app?vid=23ae6fed-deff-411b-8b6e-f95e32ccd4d0","ios":"levelo://app?vid=23ae6fed-deff-411b-8b6e-f95e32ccd4d0"},"vehicle_type_id":"4","last_reported":1756397587,"current_range_meters":12000,"station_id":"ce4bhrh2rcd13ifvqhug","pricing_plan_id":"cebpf4jnsgd1na2vs0mg"},{"bike_id":"be8aa754-85f9-40a1-9e90-c9882863c890","system_id":"levelo_inurba_marseille","lat":43.26025,"lon":5.37542,"is_reserved":false,"is_disabled":false,"rental_uris":{"android":"levelo://app?vid=be8aa754-85f9-40a1-9e90-c9882863c890","ios":"levelo://app?vid=be8aa754-85f9-40a1-9e90-c9882863c890"},"vehicle_type_id":"4","last_reported":1756397587,"current_range_meters":12000,"station_id":"ce4bhgh2rcd13ifvqfa0","pricing_plan_id":"cebpf4jnsgd1na2vs0mg"},{"bike_id":"84239937-6126-4402-8397-ac364b20f6e5","system_id":"levelo_inurba_marseille","lat":43.26033,"lon":5.37515,"is_reserved":false,"is_disabled":false,"rental_uris":{"android":"levelo://app?vid=84239937-6126-4402-8397-ac364b20f6e5","ios":"levelo://app?vid=84239937-6126-4402-8397-ac364b20f6e5"},"vehicle_type_id":"4","last_reported":1756397587,"current_range_meters":12000,"station_id":"ce4bhgh2rcd13ifvqfa0","pricing_plan_id":"cebpf4jnsgd1na2vs0mg"},{"bike_id":"e1ed8c93-f3fa-41b1-ab06-478e43b431dc","system_id":"levelo_inurba_marseille","lat":43.29798,"lon":5.37091,"is_reserved":false,"is_disabled":false,"rental_uris":{"android":"levelo://app?vid=e1ed8c93-f3fa-41b1-ab06-478e43b431dc","ios":"levelo://app?vid=e1ed8c93-f3fa-41b1-ab06-478e43b431dc"},"vehicle_type_id":"4","last_reported":1756397587,"current_range_meters":12400,"station_id":"ce4bgop2rcd13ifvqc1g","pricing_plan_id":"cebpf4jnsgd1na2vs0mg"},{"bike_id":"9cda9b53-e00a-4aba-8846-438c0d04aec4","system_id":"levelo_inurba_marseille","lat":43.305601,"lon":5.391501,"is_reserved":false,"is_disabled":false,"rental_uris":{"android":"levelo://app?vid=9cda9b53-e00a-4aba-8846-438c0d04aec4","ios":"levelo://app?vid=9cda9b53-e00a-4aba-8846-438c0d04aec4"},"vehicle_type_id":"4","last_reported":1756397587,"current_range_meters":12400,"station_id":"ce4bgk12rcd13ifvqbi0","pricing_plan_id":"cebpf4jnsgd1na2vs0mg"},{"bike_id":"46c81c14-55e4-4178-b4d5-af9e4fbd78fc","system_id":"levelo_inurba_marseille","lat":43.28253,"lon":5.35052,"is_reserved":false,"is_disabled":false,"rental_uris":{"android":"levelo://app?vid=46c81c14-55e4-4178-b4d5-af9e4fbd78fc","ios":"levelo://app?vid=46c81c14-55e4-4178-b4d5-af9e4fbd78fc"},"vehicle_type_id":"4","last_reported":1756397587,"current_range_meters":12400,"station_id":"ce4bhbp2rcd13ifvqerg","pricing_plan_id":"cebpf4jnsgd1na2vs0mg"},{"bike_id":"e8d0c66d-897a-4fc4-85ef-5fac4e6c70bc","system_id":"levelo_inurba_marseille","lat":43.290264,"lon":5.386466,"is_reserved":false,"is_disabled":false,"rental_uris":{"android":"levelo://app?vid=e8d0c66d-897a-4fc4-85ef-5fac4e6c70bc","ios":"levelo://app?vid=e8d0c66d-897a-4fc4-85ef-5fac4e6c70bc"},"vehicle_type_id":"4","last_reported":1756397587,"current_range_meters":12400,"station_id":"ce4bh4p2rcd13ifvqe0g","pricing_plan_id":"cebpf4jnsgd1na2vs0mg"},{"bike_id":"1091f287-02ee-4a66-888b-59c35fd65791","system_id":"levelo_inurba_marseille","lat":43.23194,"lon":5.35543,"is_reserved":false,"is_disabled":false,"rental_uris":{"android":"levelo://app?vid=1091f287-02ee-4a66-888b-59c35fd65791","ios":"levelo://app?vid=1091f287-02ee-4a66-888b-59c35fd65791"},"vehicle_type_id":"4","last_reported":1756397587,"current_range_meters":12800,"station_id":"ce4bhu92rcd13ifvqi70","pricing_plan_id":"cebpf4jnsgd1na2vs0mg"},{"bike_id":"e2157c09-f51d-4d60-9654-c3b735f52046","system_id":"levelo_inurba_marseille","lat":43.262,"lon":5.37468,"is_reserved":false,"is_disabled":false,"rental_uris":{"android":"levelo://app?vid=e2157c09-f51d-4d60-9654-c3b735f52046","ios":"levelo://app?vid=e2157c09-f51d-4d60-9654-c3b735f52046"},"vehicle_type_id":"4","last_reported":1756397587,"current_range_meters":12800,"station_id":"ce4bhgp2rcd13ifvqfc0","pricing_plan_id":"cebpf4jnsgd1na2vs0mg"},{"bike_id":"381ee211-9cbc-4e3b-a668-6f098f82d140","system_id":"levelo_inurba_marseille","lat":43.25506,"lon":5.37647,"is_reserved":false,"is_disabled":false,"rental_uris":{"android":"levelo://app?vid=381ee211-9cbc-4e3b-a668-6f098f82d140","ios":"levelo://app?vid=381ee211-9cbc-4e3b-a668-6f098f82d140"},"vehicle_type_id":"4","last_reported":1756397587,"current_range_meters":12800,"station_id":"ce4bhh12rcd13ifvqff0","pricing_plan_id":"cebpf4jnsgd1na2vs0mg"},{"bike_id":"eebfbe73-f440-4706-b477-601b1f8fe6e6","system_id":"levelo_inurba_marseille","lat":43.248036,"lon":5.374587,"is_reserved":false,"is_disabled":false,"rental_uris":{"android":"levelo://app?vid=eebfbe73-f440-4706-b477-601b1f8fe6e6","ios":"levelo://app?vid=eebfbe73-f440-4706-b477-601b1f8fe6e6"},"vehicle_type_id":"4","last_reported":1756397587,"current_range_meters":16000,"station_id":"ce4bhgh2rcd13ifvqfb0","pricing_plan_id":"cebpf4jnsgd1na2vs0mg"},{"bike_id":"a5c913a9-8444-4f45-9f9e-1bc06a802d9b","system_id":"levelo_inurba_marseille","lat":43.279992,"lon":5.416501,"is_reserved":false,"is_disabled":false,"rental_uris":{"android":"levelo://app?vid=a5c913a9-8444-4f45-9f9e-1bc06a802d9b","ios":"levelo://app?vid=a5c913a9-8444-4f45-9f9e-1bc06a802d9b"},"vehicle_type_id":"4","last_reported":1756397587,"current_range_meters":13600,"station_id":"ce4bho12rcd13ifvqh1g","pricing_plan_id":"cebpf4jnsgd1na2vs0mg"},{"bike_id":"5b5c12ca-12c4-473f-80f9-47be4ce09ca2","system_id":"levelo_inurba_marseille","lat":43.30213,"lon":5.39478,"is_reserved":false,"is_disabled":false,"rental_uris":{"android":"levelo://app?vid=5b5c12ca-12c4-473f-80f9-47be4ce09ca2","ios":"levelo://app?vid=5b5c12ca-12c4-473f-80f9-47be4ce09ca2"},"vehicle_type_id":"4","last_reported":1756397587,"current_range_meters":13600,"station_id":"ce4bh0p2rcd13ifvqd70","pricing_plan_id":"cebpf4jnsgd1na2vs0mg"},{"bike_id":"e9252517-5806-4481-9301-92173387cb87","system_id":"levelo_inurba_marseille","lat":43.295294,"lon":5.375061,"is_reserved":false,"is_disabled":false,"rental_uris":{"android":"levelo://app?vid=e9252517-5806-4481-9301-92173387cb87","ios":"levelo://app?vid=e9252517-5806-4481-9301-92173387cb87"},"vehicle_type_id":"4","last_reported":1756397587,"current_range_meters":14000,"station_id":"","pricing_plan_id":"cebpf4jnsgd1na2vs0mg"},{"bike_id":"c1817ae8-2244-4c0b-991a-a4230f161a39","system_id":"levelo_inurba_marseille","lat":43.31762,"lon":5.39008,"is_reserved":false,"is_disabled":false,"rental_uris":{"android":"levelo://app?vid=c1817ae8-2244-4c0b-991a-a4230f161a39","ios":"levelo://app?vid=c1817ae8-2244-4c0b-991a-a4230f161a39"},"vehicle_type_id":"4","last_reported":1756397587,"current_range_meters":14000,"station_id":"ce4bhqp2rcd13ifvqhng","pricing_plan_id":"cebpf4jnsgd1na2vs0mg"},{"bike_id":"615f9cb4-bc08-43f1-87ef-884359fe2e39","system_id":"levelo_inurba_marseille","lat":43.32367,"lon":5.36763,"is_reserved":false,"is_disabled":false,"rental_uris":{"android":"levelo://app?vid=615f9cb4-bc08-43f1-87ef-884359fe2e39","ios":"levelo://app?vid=615f9cb4-bc08-43f1-87ef-884359fe2e39"},"vehicle_type_id":"4","last_reported":1756397587,"current_range_meters":14000,"station_id":"ce4bhsh2rcd13ifvqi2g","pricing_plan_id":"cebpf4jnsgd1na2vs0mg"},{"bike_id":"731ff345-1377-45e9-acf9-0825f15b172a","system_id":"levelo_inurba_marseille","lat":43.229267,"lon":5.353837,"is_reserved":false,"is_disabled":false,"rental_uris":{"android":"levelo://app?vid=731ff345-1377-45e9-acf9-0825f15b172a","ios":"levelo://app?vid=731ff345-1377-45e9-acf9-0825f15b172a"},"vehicle_type_id":"4","last_reported":1756397587,"current_range_meters":14000,"station_id":"cpo3532slgdg3j2ikp40","pricing_plan_id":"cebpf4jnsgd1na2vs0mg"},{"bike_id":"533686dc-e263-4240-984f-1fcd6cac7776","system_id":"levelo_inurba_marseille","lat":43.27936,"lon":5.41048,"is_reserved":false,"is_disabled":false,"rental_uris":{"android":"levelo://app?vid=533686dc-e263-4240-984f-1fcd6cac7776","ios":"levelo://app?vid=533686dc-e263-4240-984f-1fcd6cac7776"},"vehicle_type_id":"4","last_reported":1756397587,"current_range_meters":14000,"station_id":"ce4bhnp2rcd13ifvqh0g","pricing_plan_id":"cebpf4jnsgd1na2vs0mg"},{"bike_id":"ec0f9f0d-0796-42ac-9cf5-bb8596cdf342","system_id":"levelo_inurba_marseille","lat":43.211947,"lon":5.350739,"is_reserved":false,"is_disabled":false,"rental_uris":{"android":"levelo://app?vid=ec0f9f0d-0796-42ac-9cf5-bb8596cdf342","ios":"levelo://app?vid=ec0f9f0d-0796-42ac-9cf5-bb8596cdf342"},"vehicle_type_id":"4","last_reported":1756397587,"current_range_meters":14000,"station_id":"","pricing_plan_id":"cebpf4jnsgd1na2vs0mg"},{"bike_id":"b9a2bbbb-69ac-40be-bf46-27119ee9c404","system_id":"levelo_inurba_marseille","lat":43.25339,"lon":5.42167,"is_reserved":false,"is_disabled":false,"rental_uris":{"android":"levelo://app?vid=b9a2bbbb-69ac-40be-bf46-27119ee9c404","ios":"levelo://app?vid=b9a2bbbb-69ac-40be-bf46-27119ee9c404"},"vehicle_type_id":"4","last_reported":1756397587,"current_range_meters":14000,"station_id":"st_d2m65c5bi1j21697t3ng","pricing_plan_id":"cebpf4jnsgd1na2vs0mg"},{"bike_id":"5a4ed5bf-12c1-43ea-a93a-096a6d89ffd1","system_id":"levelo_inurba_marseille","lat":43.29023,"lon":5.38635,"is_reserved":false,"is_disabled":false,"rental_uris":{"android":"levelo://app?vid=5a4ed5bf-12c1-43ea-a93a-096a6d89ffd1","ios":"levelo://app?vid=5a4ed5bf-12c1-43ea-a93a-096a6d89ffd1"},"vehicle_type_id":"4","last_reported":1756397587,"current_range_meters":14000,"station_id":"ce4bh4p2rcd13ifvqe0g","pricing_plan_id":"cebpf4jnsgd1na2vs0mg"},{"bike_id":"799aa54a-fdeb-4d21-87fe-2088319e4ec3","system_id":"levelo_inurba_marseille","lat":43.29804,"lon":5.40403,"is_reserved":false,"is_disabled":false,"rental_uris":{"android":"levelo://app?vid=799aa54a-fdeb-4d21-87fe-2088319e4ec3","ios":"levelo://app?vid=799aa54a-fdeb-4d21-87fe-2088319e4ec3"},"vehicle_type_id":"4","last_reported":1756397587,"current_range_meters":14400,"station_id":"ce4bh112rcd13ifvqd90","pricing_plan_id":"cebpf4jnsgd1na2vs0mg"},{"bike_id":"6e51d5d9-9f08-4273-8911-21fb24c92111","system_id":"levelo_inurba_marseille","lat":43.31487,"lon":5.37305,"is_reserved":false,"is_disabled":false,"rental_uris":{"android":"levelo://app?vid=6e51d5d9-9f08-4273-8911-21fb24c92111","ios":"levelo://app?vid=6e51d5d9-9f08-4273-8911-21fb24c92111"},"vehicle_type_id":"4","last_reported":1756397587,"current_range_meters":14400,"station_id":"ce4bgt12rcd13ifvqcd0","pricing_plan_id":"cebpf4jnsgd1na2vs0mg"},{"bike_id":"d1abbd0a-1712-4028-bd6b-86ddd9f96d88","system_id":"levelo_inurba_marseille","lat":43.28265,"lon":5.35056,"is_reserved":false,"is_disabled":false,"rental_uris":{"android":"levelo://app?vid=d1abbd0a-1712-4028-bd6b-86ddd9f96d88","ios":"levelo://app?vid=d1abbd0a-1712-4028-bd6b-86ddd9f96d88"},"vehicle_type_id":"4","last_reported":1756397587,"current_range_meters":14400,"station_id":"ce4bhbp2rcd13ifvqerg","pricing_plan_id":"cebpf4jnsgd1na2vs0mg"},{"bike_id":"92d91fb6-b306-4625-aab0-9deb66d91b9d","system_id":"levelo_inurba_marseille","lat":43.30802,"lon":5.3816,"is_reserved":false,"is_disabled":false,"rental_uris":{"android":"levelo://app?vid=92d91fb6-b306-4625-aab0-9deb66d91b9d","ios":"levelo://app?vid=92d91fb6-b306-4625-aab0-9deb66d91b9d"},"vehicle_type_id":"4","last_reported":1756397587,"current_range_meters":14400,"station_id":"","pricing_plan_id":"cebpf4jnsgd1na2vs0mg"},{"bike_id":"123cd15d-1056-4aa8-a0b4-832f0ff9c2a1","system_id":"levelo_inurba_marseille","lat":43.295944,"lon":5.373417,"is_reserved":false,"is_disabled":false,"rental_uris":{"android":"levelo://app?vid=123cd15d-1056-4aa8-a0b4-832f0ff9c2a1","ios":"levelo://app?vid=123cd15d-1056-4aa8-a0b4-832f0ff9c2a1"},"vehicle_type_id":"4","last_reported":1756397587,"current_range_meters":14400,"station_id":"ce4bhb12rcd13ifvqel0","pricing_plan_id":"cebpf4jnsgd1na2vs0mg"},{"bike_id":"3f7674ec-aa51-4893-a511-180742bbfe1d","system_id":"levelo_inurba_marseille","lat":43.21741,"lon":5.34595,"is_reserved":false,"is_disabled":false,"rental_uris":{"android":"levelo://app?vid=3f7674ec-aa51-4893-a511-180742bbfe1d","ios":"levelo://app?vid=3f7674ec-aa51-4893-a511-180742bbfe1d"},"vehicle_type_id":"4","last_reported":1756397587,"current_range_meters":14400,"station_id":"st_cvj6r9ubvosntc0bgbag","pricing_plan_id":"cebpf4jnsgd1na2vs0mg"},{"bike_id":"a9d35eac-c200-4d07-8938-39c660bf481c","system_id":"levelo_inurba_marseille","lat":43.3042,"lon":5.41273,"is_reserved":false,"is_disabled":false,"rental_uris":{"android":"levelo://app?vid=a9d35eac-c200-4d07-8938-39c660bf481c","ios":"levelo://app?vid=a9d35eac-c200-4d07-8938-39c660bf481c"},"vehicle_type_id":"4","last_reported":1756397587,"current_range_meters":14400,"station_id":"ce4bhop2rcd13ifvqh8g","pricing_plan_id":"cebpf4jnsgd1na2vs0mg"},{"bike_id":"5dde89c4-8ab2-4d7d-98c9-0d3b2a8d9fd6","system_id":"levelo_inurba_marseille","lat":43.261913,"lon":5.37448,"is_reserved":false,"is_disabled":false,"rental_uris":{"android":"levelo://app?vid=5dde89c4-8ab2-4d7d-98c9-0d3b2a8d9fd6","ios":"levelo://app?vid=5dde89c4-8ab2-4d7d-98c9-0d3b2a8d9fd6"},"vehicle_type_id":"4","last_reported":1756397587,"current_range_meters":14400,"station_id":"ce4bhgp2rcd13ifvqfc0","pricing_plan_id":"cebpf4jnsgd1na2vs0mg"},{"bike_id":"3a2f5063-0ed3-4139-b50b-cacffd5db734","system_id":"levelo_inurba_marseille","lat":43.32366,"lon":5.36759,"is_reserved":false,"is_disabled":false,"rental_uris":{"android":"levelo://app?vid=3a2f5063-0ed3-4139-b50b-cacffd5db734","ios":"levelo://app?vid=3a2f5063-0ed3-4139-b50b-cacffd5db734"},"vehicle_type_id":"4","last_reported":1756397587,"current_range_meters":14400,"station_id":"ce4bhsh2rcd13ifvqi2g","pricing_plan_id":"cebpf4jnsgd1na2vs0mg"},{"bike_id":"5c7d89cd-1b51-41ea-af0f-0754c3b32e8a","system_id":"levelo_inurba_marseille","lat":43.31362,"lon":5.38494,"is_reserved":false,"is_disabled":false,"rental_uris":{"android":"levelo://app?vid=5c7d89cd-1b51-41ea-af0f-0754c3b32e8a","ios":"levelo://app?vid=5c7d89cd-1b51-41ea-af0f-0754c3b32e8a"},"vehicle_type_id":"4","last_reported":1756397587,"current_range_meters":14000,"station_id":"ce4bgt92rcd13ifvqcf0","pricing_plan_id":"cebpf4jnsgd1na2vs0mg"},{"bike_id":"b01809d5-bf7e-4556-b821-e493d14bf145","system_id":"levelo_inurba_marseille","lat":43.27946,"lon":5.41043,"is_reserved":false,"is_disabled":false,"rental_uris":{"android":"levelo://app?vid=b01809d5-bf7e-4556-b821-e493d14bf145","ios":"levelo://app?vid=b01809d5-bf7e-4556-b821-e493d14bf145"},"vehicle_type_id":"4","last_reported":1756397587,"current_range_meters":14400,"station_id":"ce4bhnp2rcd13ifvqh0g","pricing_plan_id":"cebpf4jnsgd1na2vs0mg"},{"bike_id":"d4411ce1-1269-4134-adda-1eb61c16980f","system_id":"levelo_inurba_marseille","lat":43.280974,"lon":5.378421,"is_reserved":false,"is_disabled":false,"rental_uris":{"android":"levelo://app?vid=d4411ce1-1269-4134-adda-1eb61c16980f","ios":"levelo://app?vid=d4411ce1-1269-4134-adda-1eb61c16980f"},"vehicle_type_id":"4","last_reported":1756397587,"current_range_meters":14800,"station_id":"ce4bha12rcd13ifvqee0","pricing_plan_id":"cebpf4jnsgd1na2vs0mg"},{"bike_id":"1f62479a-0856-46ae-b67f-852ed6ce6a56","system_id":"levelo_inurba_marseille","lat":43.26567,"lon":5.39009,"is_reserved":false,"is_disabled":false,"rental_uris":{"android":"levelo://app?vid=1f62479a-0856-46ae-b67f-852ed6ce6a56","ios":"levelo://app?vid=1f62479a-0856-46ae-b67f-852ed6ce6a56"},"vehicle_type_id":"4","last_reported":1756397587,"current_range_meters":14800,"station_id":"ce4bhe12rcd13ifvqf30","pricing_plan_id":"cebpf4jnsgd1na2vs0mg"},{"bike_id":"e7751801-e014-4199-afdb-dbf8dcf7c318","system_id":"levelo_inurba_marseille","lat":43.29569,"lon":5.39985,"is_reserved":false,"is_disabled":false,"rental_uris":{"android":"levelo://app?vid=e7751801-e014-4199-afdb-dbf8dcf7c318","ios":"levelo://app?vid=e7751801-e014-4199-afdb-dbf8dcf7c318"},"vehicle_type_id":"4","last_reported":1756397587,"current_range_meters":14400,"station_id":"ce4bh312rcd13ifvqdj0","pricing_plan_id":"cebpf4jnsgd1na2vs0mg"},{"bike_id":"d1a4ea35-b6c5-4a45-b35b-a4b06696c8cb","system_id":"levelo_inurba_marseille","lat":43.25497,"lon":5.37648,"is_reserved":false,"is_disabled":false,"rental_uris":{"android":"levelo://app?vid=d1a4ea35-b6c5-4a45-b35b-a4b06696c8cb","ios":"levelo://app?vid=d1a4ea35-b6c5-4a45-b35b-a4b06696c8cb"},"vehicle_type_id":"4","last_reported":1756397587,"current_range_meters":14800,"station_id":"ce4bhh12rcd13ifvqff0","pricing_plan_id":"cebpf4jnsgd1na2vs0mg"},{"bike_id":"909d9796-46db-4e26-b2f4-b169d1dab8c8","system_id":"levelo_inurba_marseille","lat":43.29517,"lon":5.39047,"is_reserved":false,"is_disabled":false,"rental_uris":{"android":"levelo://app?vid=909d9796-46db-4e26-b2f4-b169d1dab8c8","ios":"levelo://app?vid=909d9796-46db-4e26-b2f4-b169d1dab8c8"},"vehicle_type_id":"4","last_reported":1756397587,"current_range_meters":14800,"station_id":"ce4bh3p2rcd13ifvqdp0","pricing_plan_id":"cebpf4jnsgd1na2vs0mg"},{"bike_id":"0a2b53ef-8783-4b60-bd0c-8c0ab63ccee1","system_id":"levelo_inurba_marseille","lat":43.2603,"lon":5.37553,"is_reserved":false,"is_disabled":false,"rental_uris":{"android":"levelo://app?vid=0a2b53ef-8783-4b60-bd0c-8c0ab63ccee1","ios":"levelo://app?vid=0a2b53ef-8783-4b60-bd0c-8c0ab63ccee1"},"vehicle_type_id":"4","last_reported":1756397587,"current_range_meters":14800,"station_id":"ce4bhgh2rcd13ifvqfa0","pricing_plan_id":"cebpf4jnsgd1na2vs0mg"},{"bike_id":"dee4462b-2fda-4454-90e6-cd671a52515c","system_id":"levelo_inurba_marseille","lat":43.25504,"lon":5.37637,"is_reserved":false,"is_disabled":false,"rental_uris":{"android":"levelo://app?vid=dee4462b-2fda-4454-90e6-cd671a52515c","ios":"levelo://app?vid=dee4462b-2fda-4454-90e6-cd671a52515c"},"vehicle_type_id":"4","last_reported":1756397587,"current_range_meters":14800,"station_id":"ce4bhh12rcd13ifvqff0","pricing_plan_id":"cebpf4jnsgd1na2vs0mg"},{"bike_id":"d005b541-909d-4c5d-bde1-94285008f478","system_id":"levelo_inurba_marseille","lat":43.323577,"lon":5.367556,"is_reserved":false,"is_disabled":false,"rental_uris":{"android":"levelo://app?vid=d005b541-909d-4c5d-bde1-94285008f478","ios":"levelo://app?vid=d005b541-909d-4c5d-bde1-94285008f478"},"vehicle_type_id":"4","last_reported":1756397587,"current_range_meters":14800,"station_id":"ce4bhsh2rcd13ifvqi2g","pricing_plan_id":"cebpf4jnsgd1na2vs0mg"},{"bike_id":"8eece06c-1375-46ef-a493-ad81a979139e","system_id":"levelo_inurba_marseille","lat":43.26021,"lon":5.37542,"is_reserved":false,"is_disabled":false,"rental_uris":{"android":"levelo://app?vid=8eece06c-1375-46ef-a493-ad81a979139e","ios":"levelo://app?vid=8eece06c-1375-46ef-a493-ad81a979139e"},"vehicle_type_id":"4","last_reported":1756397587,"current_range_meters":14800,"station_id":"ce4bhgh2rcd13ifvqfa0","pricing_plan_id":"cebpf4jnsgd1na2vs0mg"},{"bike_id":"d0a92e61-7122-4ad6-a0d1-9d37d94ce062","system_id":"levelo_inurba_marseille","lat":43.29712,"lon":5.39052,"is_reserved":false,"is_disabled":false,"rental_uris":{"android":"levelo://app?vid=d0a92e61-7122-4ad6-a0d1-9d37d94ce062","ios":"levelo://app?vid=d0a92e61-7122-4ad6-a0d1-9d37d94ce062"},"vehicle_type_id":"4","last_reported":1756397587,"current_range_meters":14800,"station_id":"","pricing_plan_id":"cebpf4jnsgd1na2vs0mg"},{"bike_id":"2c69427e-e370-486f-b8ad-1f01db5bfd9f","system_id":"levelo_inurba_marseille","lat":43.28615,"lon":5.35102,"is_reserved":false,"is_disabled":false,"rental_uris":{"android":"levelo://app?vid=2c69427e-e370-486f-b8ad-1f01db5bfd9f","ios":"levelo://app?vid=2c69427e-e370-486f-b8ad-1f01db5bfd9f"},"vehicle_type_id":"4","last_reported":1756397587,"current_range_meters":14800,"station_id":"ce4bhch2rcd13ifvqeug","pricing_plan_id":"cebpf4jnsgd1na2vs0mg"},{"bike_id":"00865bff-72de-47be-acda-9cf6ec16a836","system_id":"levelo_inurba_marseille","lat":43.320997,"lon":5.367741,"is_reserved":false,"is_disabled":false,"rental_uris":{"android":"levelo://app?vid=00865bff-72de-47be-acda-9cf6ec16a836","ios":"levelo://app?vid=00865bff-72de-47be-acda-9cf6ec16a836"},"vehicle_type_id":"4","last_reported":1756397587,"current_range_meters":15200,"station_id":"ce4bhrh2rcd13ifvqhug","pricing_plan_id":"cebpf4jnsgd1na2vs0mg"},{"bike_id":"637def02-2a7a-42cd-969d-926cf6200d3f","system_id":"levelo_inurba_marseille","lat":43.287294,"lon":5.361093,"is_reserved":false,"is_disabled":false,"rental_uris":{"android":"levelo://app?vid=637def02-2a7a-42cd-969d-926cf6200d3f","ios":"levelo://app?vid=637def02-2a7a-42cd-969d-926cf6200d3f"},"vehicle_type_id":"4","last_reported":1756397587,"current_range_meters":15200,"station_id":"cki0cbj6b192h4jlfktg","pricing_plan_id":"cebpf4jnsgd1na2vs0mg"},{"bike_id":"aba408de-f921-4633-8496-98ebb8befe83","system_id":"levelo_inurba_marseille","lat":43.2603,"lon":5.37539,"is_reserved":false,"is_disabled":false,"rental_uris":{"android":"levelo://app?vid=aba408de-f921-4633-8496-98ebb8befe83","ios":"levelo://app?vid=aba408de-f921-4633-8496-98ebb8befe83"},"vehicle_type_id":"4","last_reported":1756397587,"current_range_meters":15200,"station_id":"ce4bhgh2rcd13ifvqfa0","pricing_plan_id":"cebpf4jnsgd1na2vs0mg"},{"bike_id":"5a52bb2f-8073-4022-8a4a-a222fd7c33f0","system_id":"levelo_inurba_marseille","lat":43.29276,"lon":5.40114,"is_reserved":false,"is_disabled":false,"rental_uris":{"android":"levelo://app?vid=5a52bb2f-8073-4022-8a4a-a222fd7c33f0","ios":"levelo://app?vid=5a52bb2f-8073-4022-8a4a-a222fd7c33f0"},"vehicle_type_id":"4","last_reported":1756397587,"current_range_meters":15200,"station_id":"ce4bh312rcd13ifvqdk0","pricing_plan_id":"cebpf4jnsgd1na2vs0mg"},{"bike_id":"76853953-4750-4c5e-a02d-c060c687f7f4","system_id":"levelo_inurba_marseille","lat":43.26549,"lon":5.37304,"is_reserved":false,"is_disabled":false,"rental_uris":{"android":"levelo://app?vid=76853953-4750-4c5e-a02d-c060c687f7f4","ios":"levelo://app?vid=76853953-4750-4c5e-a02d-c060c687f7f4"},"vehicle_type_id":"4","last_reported":1756397587,"current_range_meters":16000,"station_id":"ce4bhg12rcd13ifvqf70","pricing_plan_id":"cebpf4jnsgd1na2vs0mg"},{"bike_id":"8a3d08a4-6e22-43fc-a3af-efea32020201","system_id":"levelo_inurba_marseille","lat":43.32362,"lon":5.36778,"is_reserved":false,"is_disabled":false,"rental_uris":{"android":"levelo://app?vid=8a3d08a4-6e22-43fc-a3af-efea32020201","ios":"levelo://app?vid=8a3d08a4-6e22-43fc-a3af-efea32020201"},"vehicle_type_id":"4","last_reported":1756397587,"current_range_meters":16000,"station_id":"ce4bhsh2rcd13ifvqi2g","pricing_plan_id":"cebpf4jnsgd1na2vs0mg"},{"bike_id":"a12f6910-157b-4110-8b52-15bcb60f48b4","system_id":"levelo_inurba_marseille","lat":43.262076,"lon":5.374426,"is_reserved":false,"is_disabled":false,"rental_uris":{"android":"levelo://app?vid=a12f6910-157b-4110-8b52-15bcb60f48b4","ios":"levelo://app?vid=a12f6910-157b-4110-8b52-15bcb60f48b4"},"vehicle_type_id":"4","last_reported":1756397587,"current_range_meters":16000,"station_id":"ce4bhgp2rcd13ifvqfc0","pricing_plan_id":"cebpf4jnsgd1na2vs0mg"},{"bike_id":"500ec55a-262a-43a5-93ff-8130d4a15333","system_id":"levelo_inurba_marseille","lat":43.29613,"lon":5.38093,"is_reserved":false,"is_disabled":false,"rental_uris":{"android":"levelo://app?vid=500ec55a-262a-43a5-93ff-8130d4a15333","ios":"levelo://app?vid=500ec55a-262a-43a5-93ff-8130d4a15333"},"vehicle_type_id":"4","last_reported":1756397587,"current_range_meters":16000,"station_id":"ce4bgl12rcd13ifvqbo0","pricing_plan_id":"cebpf4jnsgd1na2vs0mg"},{"bike_id":"46eb6327-7515-47c8-ac48-8311782b1d74","system_id":"levelo_inurba_marseille","lat":43.23224,"lon":5.39886,"is_reserved":false,"is_disabled":false,"rental_uris":{"android":"levelo://app?vid=46eb6327-7515-47c8-ac48-8311782b1d74","ios":"levelo://app?vid=46eb6327-7515-47c8-ac48-8311782b1d74"},"vehicle_type_id":"4","last_reported":1756397587,"current_range_meters":16000,"station_id":"","pricing_plan_id":"cebpf4jnsgd1na2vs0mg"},{"bike_id":"49e3e0dc-7bc3-4c21-b5e7-64678061068b","system_id":"levelo_inurba_marseille","lat":43.24189,"lon":5.39699,"is_reserved":false,"is_disabled":false,"rental_uris":{"android":"levelo://app?vid=49e3e0dc-7bc3-4c21-b5e7-64678061068b","ios":"levelo://app?vid=49e3e0dc-7bc3-4c21-b5e7-64678061068b"},"vehicle_type_id":"4","last_reported":1756397587,"current_range_meters":16000,"station_id":"ce4bhn12rcd13ifvqgpg","pricing_plan_id":"cebpf4jnsgd1na2vs0mg"},{"bike_id":"73f741aa-46e5-4918-b753-bee9db7a0564","system_id":"levelo_inurba_marseille","lat":43.29595,"lon":5.38077,"is_reserved":false,"is_disabled":false,"rental_uris":{"android":"levelo://app?vid=73f741aa-46e5-4918-b753-bee9db7a0564","ios":"levelo://app?vid=73f741aa-46e5-4918-b753-bee9db7a0564"},"vehicle_type_id":"4","last_reported":1756397587,"current_range_meters":16400,"station_id":"","pricing_plan_id":"cebpf4jnsgd1na2vs0mg"},{"bike_id":"1d6d2e3d-e6be-45f3-9550-08daca30c94e","system_id":"levelo_inurba_marseille","lat":43.231466,"lon":5.437156,"is_reserved":false,"is_disabled":false,"rental_uris":{"android":"levelo://app?vid=1d6d2e3d-e6be-45f3-9550-08daca30c94e","ios":"levelo://app?vid=1d6d2e3d-e6be-45f3-9550-08daca30c94e"},"vehicle_type_id":"4","last_reported":1756397587,"current_range_meters":16400,"station_id":"ce4bhmp2rcd13ifvqgog","pricing_plan_id":"cebpf4jnsgd1na2vs0mg"},{"bike_id":"06669016-cd47-459f-9dbc-b8f7fe75d379","system_id":"levelo_inurba_marseille","lat":43.322854,"lon":5.382621,"is_reserved":false,"is_disabled":false,"rental_uris":{"android":"levelo://app?vid=06669016-cd47-459f-9dbc-b8f7fe75d379","ios":"levelo://app?vid=06669016-cd47-459f-9dbc-b8f7fe75d379"},"vehicle_type_id":"4","last_reported":1756397587,"current_range_meters":16400,"station_id":"ce4bhr12rcd13ifvqhqg","pricing_plan_id":"cebpf4jnsgd1na2vs0mg"},{"bike_id":"e9fc8b6e-9de1-4885-8ffc-e26149c08de1","system_id":"levelo_inurba_marseille","lat":43.26025,"lon":5.37552,"is_reserved":false,"is_disabled":false,"rental_uris":{"android":"levelo://app?vid=e9fc8b6e-9de1-4885-8ffc-e26149c08de1","ios":"levelo://app?vid=e9fc8b6e-9de1-4885-8ffc-e26149c08de1"},"vehicle_type_id":"4","last_reported":1756397587,"current_range_meters":16400,"station_id":"ce4bhgh2rcd13ifvqfa0","pricing_plan_id":"cebpf4jnsgd1na2vs0mg"},{"bike_id":"398b5467-14e6-4631-b9a2-98a502212595","system_id":"levelo_inurba_marseille","lat":43.29098,"lon":5.38143,"is_reserved":false,"is_disabled":false,"rental_uris":{"android":"levelo://app?vid=398b5467-14e6-4631-b9a2-98a502212595","ios":"levelo://app?vid=398b5467-14e6-4631-b9a2-98a502212595"},"vehicle_type_id":"4","last_reported":1756397587,"current_range_meters":16400,"station_id":"ce4bh512rcd13ifvqe2g","pricing_plan_id":"cebpf4jnsgd1na2vs0mg"},{"bike_id":"c8ed8afa-4750-4d5e-b29e-7da3cd8f4dc7","system_id":"levelo_inurba_marseille","lat":43.323667,"lon":5.367278,"is_reserved":false,"is_disabled":false,"rental_uris":{"android":"levelo://app?vid=c8ed8afa-4750-4d5e-b29e-7da3cd8f4dc7","ios":"levelo://app?vid=c8ed8afa-4750-4d5e-b29e-7da3cd8f4dc7"},"vehicle_type_id":"4","last_reported":1756397587,"current_range_meters":16400,"station_id":"ce4bhsh2rcd13ifvqi2g","pricing_plan_id":"cebpf4jnsgd1na2vs0mg"},{"bike_id":"e88813c3-e63a-4665-b0f4-72e6c6c89a00","system_id":"levelo_inurba_marseille","lat":43.21165,"lon":5.3508,"is_reserved":false,"is_disabled":false,"rental_uris":{"android":"levelo://app?vid=e88813c3-e63a-4665-b0f4-72e6c6c89a00","ios":"levelo://app?vid=e88813c3-e63a-4665-b0f4-72e6c6c89a00"},"vehicle_type_id":"4","last_reported":1756397587,"current_range_meters":16400,"station_id":"st_cvj6sg6p6f1abm77japg","pricing_plan_id":"cebpf4jnsgd1na2vs0mg"},{"bike_id":"00218ed1-7531-489c-99cc-92e6ef63e397","system_id":"levelo_inurba_marseille","lat":43.30315,"lon":5.3691,"is_reserved":false,"is_disabled":false,"rental_uris":{"android":"levelo://app?vid=00218ed1-7531-489c-99cc-92e6ef63e397","ios":"levelo://app?vid=00218ed1-7531-489c-99cc-92e6ef63e397"},"vehicle_type_id":"4","last_reported":1756397587,"current_range_meters":16400,"station_id":"ce4bgqh2rcd13ifvqc5g","pricing_plan_id":"cebpf4jnsgd1na2vs0mg"},{"bike_id":"e68ad225-85c0-4ec9-a2c0-7cb7765f5195","system_id":"levelo_inurba_marseille","lat":43.24067,"lon":5.37761,"is_reserved":false,"is_disabled":false,"rental_uris":{"android":"levelo://app?vid=e68ad225-85c0-4ec9-a2c0-7cb7765f5195","ios":"levelo://app?vid=e68ad225-85c0-4ec9-a2c0-7cb7765f5195"},"vehicle_type_id":"4","last_reported":1756397587,"current_range_meters":16800,"station_id":"ce4bhnp2rcd13ifvqgvg","pricing_plan_id":"cebpf4jnsgd1na2vs0mg"},{"bike_id":"ccbbb67c-22df-472d-9ec2-66c4c8e6ab0c","system_id":"levelo_inurba_marseille","lat":43.29264,"lon":5.3845,"is_reserved":false,"is_disabled":false,"rental_uris":{"android":"levelo://app?vid=ccbbb67c-22df-472d-9ec2-66c4c8e6ab0c","ios":"levelo://app?vid=ccbbb67c-22df-472d-9ec2-66c4c8e6ab0c"},"vehicle_type_id":"4","last_reported":1756397587,"current_range_meters":16800,"station_id":"ce4bh692rcd13ifvqea0","pricing_plan_id":"cebpf4jnsgd1na2vs0mg"},{"bike_id":"42515969-df58-4bc3-81b4-d2c5b3092781","system_id":"levelo_inurba_marseille","lat":43.27739,"lon":5.4201,"is_reserved":false,"is_disabled":false,"rental_uris":{"android":"levelo://app?vid=42515969-df58-4bc3-81b4-d2c5b3092781","ios":"levelo://app?vid=42515969-df58-4bc3-81b4-d2c5b3092781"},"vehicle_type_id":"4","last_reported":1756397587,"current_range_meters":16800,"station_id":"","pricing_plan_id":"cebpf4jnsgd1na2vs0mg"},{"bike_id":"6ae14167-040f-483b-b606-bd3d86422839","system_id":"levelo_inurba_marseille","lat":43.24662,"lon":5.3816,"is_reserved":false,"is_disabled":false,"rental_uris":{"android":"levelo://app?vid=6ae14167-040f-483b-b606-bd3d86422839","ios":"levelo://app?vid=6ae14167-040f-483b-b606-bd3d86422839"},"vehicle_type_id":"4","last_reported":1756397587,"current_range_meters":16800,"station_id":"ce4bhih2rcd13ifvqfr0","pricing_plan_id":"cebpf4jnsgd1na2vs0mg"},{"bike_id":"f0e1e4a3-1fe8-4a58-b582-c0b4188393d1","system_id":"levelo_inurba_marseille","lat":43.29268,"lon":5.384389,"is_reserved":false,"is_disabled":true,"rental_uris":{"android":"levelo://app?vid=f0e1e4a3-1fe8-4a58-b582-c0b4188393d1","ios":"levelo://app?vid=f0e1e4a3-1fe8-4a58-b582-c0b4188393d1"},"vehicle_type_id":"4","last_reported":1756397587,"current_range_meters":16800,"station_id":"ce4bh692rcd13ifvqea0","pricing_plan_id":"cebpf4jnsgd1na2vs0mg"},{"bike_id":"6c585c9e-34d5-486a-b1ef-53c3ee6bf89b","system_id":"levelo_inurba_marseille","lat":43.279545,"lon":5.3871,"is_reserved":false,"is_disabled":false,"rental_uris":{"android":"levelo://app?vid=6c585c9e-34d5-486a-b1ef-53c3ee6bf89b","ios":"levelo://app?vid=6c585c9e-34d5-486a-b1ef-53c3ee6bf89b"},"vehicle_type_id":"4","last_reported":1756397587,"current_range_meters":16800,"station_id":"ce4bhg12rcd13ifvqf80","pricing_plan_id":"cebpf4jnsgd1na2vs0mg"},{"bike_id":"9c2ea7af-e1f0-49ae-bea1-fdef9d504587","system_id":"levelo_inurba_marseille","lat":43.26029,"lon":5.3754,"is_reserved":false,"is_disabled":false,"rental_uris":{"android":"levelo://app?vid=9c2ea7af-e1f0-49ae-bea1-fdef9d504587","ios":"levelo://app?vid=9c2ea7af-e1f0-49ae-bea1-fdef9d504587"},"vehicle_type_id":"4","last_reported":1756397587,"current_range_meters":16800,"station_id":"ce4bhgh2rcd13ifvqfa0","pricing_plan_id":"cebpf4jnsgd1na2vs0mg"},{"bike_id":"ca808d34-9391-4691-b4c5-e9180d9c16d9","system_id":"levelo_inurba_marseille","lat":43.25337,"lon":5.42173,"is_reserved":false,"is_disabled":false,"rental_uris":{"android":"levelo://app?vid=ca808d34-9391-4691-b4c5-e9180d9c16d9","ios":"levelo://app?vid=ca808d34-9391-4691-b4c5-e9180d9c16d9"},"vehicle_type_id":"4","last_reported":1756397587,"current_range_meters":16800,"station_id":"st_d2m65c5bi1j21697t3ng","pricing_plan_id":"cebpf4jnsgd1na2vs0mg"},{"bike_id":"21facb37-f2df-4979-a525-418747dd4e09","system_id":"levelo_inurba_marseille","lat":43.28411,"lon":5.349855,"is_reserved":false,"is_disabled":false,"rental_uris":{"android":"levelo://app?vid=21facb37-f2df-4979-a525-418747dd4e09","ios":"levelo://app?vid=21facb37-f2df-4979-a525-418747dd4e09"},"vehicle_type_id":"4","last_reported":1756397587,"current_range_meters":17200,"station_id":"ce4bhbh2rcd13ifvqepg","pricing_plan_id":"cebpf4jnsgd1na2vs0mg"},{"bike_id":"10fbab93-5982-4a11-bbda-2d66e50b732b","system_id":"levelo_inurba_marseille","lat":43.30795,"lon":5.37648,"is_reserved":false,"is_disabled":false,"rental_uris":{"android":"levelo://app?vid=10fbab93-5982-4a11-bbda-2d66e50b732b","ios":"levelo://app?vid=10fbab93-5982-4a11-bbda-2d66e50b732b"},"vehicle_type_id":"4","last_reported":1756397587,"current_range_meters":17200,"station_id":"ce4bgv92rcd13ifvqcq0","pricing_plan_id":"cebpf4jnsgd1na2vs0mg"},{"bike_id":"a3e4ee41-5175-47da-ad6e-4c5ae3eb42d9","system_id":"levelo_inurba_marseille","lat":43.2119,"lon":5.35068,"is_reserved":false,"is_disabled":false,"rental_uris":{"android":"levelo://app?vid=a3e4ee41-5175-47da-ad6e-4c5ae3eb42d9","ios":"levelo://app?vid=a3e4ee41-5175-47da-ad6e-4c5ae3eb42d9"},"vehicle_type_id":"4","last_reported":1756397587,"current_range_meters":17200,"station_id":"st_cvj6sg6p6f1abm77japg","pricing_plan_id":"cebpf4jnsgd1na2vs0mg"},{"bike_id":"f06e5c0e-5a76-4705-aa22-932f62009ec5","system_id":"levelo_inurba_marseille","lat":43.27044,"lon":5.38635,"is_reserved":false,"is_disabled":false,"rental_uris":{"android":"levelo://app?vid=f06e5c0e-5a76-4705-aa22-932f62009ec5","ios":"levelo://app?vid=f06e5c0e-5a76-4705-aa22-932f62009ec5"},"vehicle_type_id":"4","last_reported":1756397587,"current_range_meters":17600,"station_id":"","pricing_plan_id":"cebpf4jnsgd1na2vs0mg"},{"bike_id":"5708d5d7-80c6-42fc-91a6-f850aee0b03c","system_id":"levelo_inurba_marseille","lat":43.27277,"lon":5.38536,"is_reserved":false,"is_disabled":false,"rental_uris":{"android":"levelo://app?vid=5708d5d7-80c6-42fc-91a6-f850aee0b03c","ios":"levelo://app?vid=5708d5d7-80c6-42fc-91a6-f850aee0b03c"},"vehicle_type_id":"4","last_reported":1756397587,"current_range_meters":17600,"station_id":"","pricing_plan_id":"cebpf4jnsgd1na2vs0mg"},{"bike_id":"e0e04e77-d2c9-4055-8b5b-ec1ba61e417b","system_id":"levelo_inurba_marseille","lat":43.24169,"lon":5.36393,"is_reserved":false,"is_disabled":false,"rental_uris":{"android":"levelo://app?vid=e0e04e77-d2c9-4055-8b5b-ec1ba61e417b","ios":"levelo://app?vid=e0e04e77-d2c9-4055-8b5b-ec1ba61e417b"},"vehicle_type_id":"4","last_reported":1756397587,"current_range_meters":17600,"station_id":"cpo36qri1sfpv3e86is0","pricing_plan_id":"cebpf4jnsgd1na2vs0mg"},{"bike_id":"21b30ddc-247b-447c-8c63-9880bb965b1d","system_id":"levelo_inurba_marseille","lat":43.26016,"lon":5.37539,"is_reserved":false,"is_disabled":false,"rental_uris":{"android":"levelo://app?vid=21b30ddc-247b-447c-8c63-9880bb965b1d","ios":"levelo://app?vid=21b30ddc-247b-447c-8c63-9880bb965b1d"},"vehicle_type_id":"4","last_reported":1756397587,"current_range_meters":17600,"station_id":"","pricing_plan_id":"cebpf4jnsgd1na2vs0mg"},{"bike_id":"b226851c-b8c6-4341-8132-38af96c34122","system_id":"levelo_inurba_marseille","lat":43.260215,"lon":5.375529,"is_reserved":false,"is_disabled":false,"rental_uris":{"android":"levelo://app?vid=b226851c-b8c6-4341-8132-38af96c34122","ios":"levelo://app?vid=b226851c-b8c6-4341-8132-38af96c34122"},"vehicle_type_id":"4","last_reported":1756397587,"current_range_meters":17600,"station_id":"ce4bhgh2rcd13ifvqfa0","pricing_plan_id":"cebpf4jnsgd1na2vs0mg"},{"bike_id":"679dd2c2-03ba-464f-b4ca-d253d6e39f03","system_id":"levelo_inurba_marseille","lat":43.28425,"lon":5.34978,"is_reserved":false,"is_disabled":false,"rental_uris":{"android":"levelo://app?vid=679dd2c2-03ba-464f-b4ca-d253d6e39f03","ios":"levelo://app?vid=679dd2c2-03ba-464f-b4ca-d253d6e39f03"},"vehicle_type_id":"4","last_reported":1756397587,"current_range_meters":17600,"station_id":"ce4bhbh2rcd13ifvqepg","pricing_plan_id":"cebpf4jnsgd1na2vs0mg"},{"bike_id":"8b31e0fe-b43a-4732-a9f3-1447152f0d7b","system_id":"levelo_inurba_marseille","lat":43.26025,"lon":5.37551,"is_reserved":false,"is_disabled":false,"rental_uris":{"android":"levelo://app?vid=8b31e0fe-b43a-4732-a9f3-1447152f0d7b","ios":"levelo://app?vid=8b31e0fe-b43a-4732-a9f3-1447152f0d7b"},"vehicle_type_id":"4","last_reported":1756397587,"current_range_meters":17600,"station_id":"ce4bhgh2rcd13ifvqfa0","pricing_plan_id":"cebpf4jnsgd1na2vs0mg"},{"bike_id":"cfc020fa-4ccc-4389-8a3b-e88fe4b0528a","system_id":"levelo_inurba_marseille","lat":43.27063,"lon":5.402777,"is_reserved":false,"is_disabled":false,"rental_uris":{"android":"levelo://app?vid=cfc020fa-4ccc-4389-8a3b-e88fe4b0528a","ios":"levelo://app?vid=cfc020fa-4ccc-4389-8a3b-e88fe4b0528a"},"vehicle_type_id":"4","last_reported":1756397587,"current_range_meters":17600,"station_id":"ce4bhk92rcd13ifvqgc0","pricing_plan_id":"cebpf4jnsgd1na2vs0mg"},{"bike_id":"77f8bfec-c1c5-4206-baee-e5a59f032a59","system_id":"levelo_inurba_marseille","lat":43.2714,"lon":5.38632,"is_reserved":false,"is_disabled":false,"rental_uris":{"android":"levelo://app?vid=77f8bfec-c1c5-4206-baee-e5a59f032a59","ios":"levelo://app?vid=77f8bfec-c1c5-4206-baee-e5a59f032a59"},"vehicle_type_id":"4","last_reported":1756397587,"current_range_meters":17600,"station_id":"","pricing_plan_id":"cebpf4jnsgd1na2vs0mg"},{"bike_id":"ab7c0377-9067-4f33-b6fd-8c2b4cb14a20","system_id":"levelo_inurba_marseille","lat":43.30677,"lon":5.3661,"is_reserved":false,"is_disabled":false,"rental_uris":{"android":"levelo://app?vid=ab7c0377-9067-4f33-b6fd-8c2b4cb14a20","ios":"levelo://app?vid=ab7c0377-9067-4f33-b6fd-8c2b4cb14a20"},"vehicle_type_id":"4","last_reported":1756397587,"current_range_meters":17600,"station_id":"","pricing_plan_id":"cebpf4jnsgd1na2vs0mg"},{"bike_id":"6c3f9606-3f72-4507-bdb0-acc139c19e6d","system_id":"levelo_inurba_marseille","lat":43.26557,"lon":5.37285,"is_reserved":false,"is_disabled":false,"rental_uris":{"android":"levelo://app?vid=6c3f9606-3f72-4507-bdb0-acc139c19e6d","ios":"levelo://app?vid=6c3f9606-3f72-4507-bdb0-acc139c19e6d"},"vehicle_type_id":"4","last_reported":1756397587,"current_range_meters":17600,"station_id":"ce4bhg12rcd13ifvqf70","pricing_plan_id":"cebpf4jnsgd1na2vs0mg"},{"bike_id":"ab2b2968-2afc-4029-82d1-f9d7f0e7846c","system_id":"levelo_inurba_marseille","lat":43.292618,"lon":5.376212,"is_reserved":false,"is_disabled":false,"rental_uris":{"android":"levelo://app?vid=ab2b2968-2afc-4029-82d1-f9d7f0e7846c","ios":"levelo://app?vid=ab2b2968-2afc-4029-82d1-f9d7f0e7846c"},"vehicle_type_id":"4","last_reported":1756397587,"current_range_meters":18000,"station_id":"ce4bgi12rcd13ifvqb80","pricing_plan_id":"cebpf4jnsgd1na2vs0mg"},{"bike_id":"dee5fc92-9d8d-42ec-97e1-996d8f5266a8","system_id":"levelo_inurba_marseille","lat":43.22927,"lon":5.35362,"is_reserved":false,"is_disabled":false,"rental_uris":{"android":"levelo://app?vid=dee5fc92-9d8d-42ec-97e1-996d8f5266a8","ios":"levelo://app?vid=dee5fc92-9d8d-42ec-97e1-996d8f5266a8"},"vehicle_type_id":"4","last_reported":1756397587,"current_range_meters":18000,"station_id":"cpo3532slgdg3j2ikp40","pricing_plan_id":"cebpf4jnsgd1na2vs0mg"},{"bike_id":"083b0e7f-357f-4afd-b79e-219efec9656b","system_id":"levelo_inurba_marseille","lat":43.28395,"lon":5.34974,"is_reserved":false,"is_disabled":false,"rental_uris":{"android":"levelo://app?vid=083b0e7f-357f-4afd-b79e-219efec9656b","ios":"levelo://app?vid=083b0e7f-357f-4afd-b79e-219efec9656b"},"vehicle_type_id":"4","last_reported":1756397587,"current_range_meters":18000,"station_id":"ce4bhbh2rcd13ifvqepg","pricing_plan_id":"cebpf4jnsgd1na2vs0mg"},{"bike_id":"e677bc7f-e54b-4b3b-999d-2489d0a3126d","system_id":"levelo_inurba_marseille","lat":43.3188,"lon":5.39386,"is_reserved":false,"is_disabled":false,"rental_uris":{"android":"levelo://app?vid=e677bc7f-e54b-4b3b-999d-2489d0a3126d","ios":"levelo://app?vid=e677bc7f-e54b-4b3b-999d-2489d0a3126d"},"vehicle_type_id":"4","last_reported":1756397587,"current_range_meters":18000,"station_id":"ce4bgqh2rcd13ifvqc4g","pricing_plan_id":"cebpf4jnsgd1na2vs0mg"},{"bike_id":"540033ef-f7d3-44ce-92c7-611d6d487141","system_id":"levelo_inurba_marseille","lat":43.24661,"lon":5.38157,"is_reserved":false,"is_disabled":false,"rental_uris":{"android":"levelo://app?vid=540033ef-f7d3-44ce-92c7-611d6d487141","ios":"levelo://app?vid=540033ef-f7d3-44ce-92c7-611d6d487141"},"vehicle_type_id":"4","last_reported":1756397587,"current_range_meters":18000,"station_id":"ce4bhih2rcd13ifvqfr0","pricing_plan_id":"cebpf4jnsgd1na2vs0mg"},{"bike_id":"af0e337f-d4cf-4e28-9020-c2f2b620012b","system_id":"levelo_inurba_marseille","lat":43.2292,"lon":5.35378,"is_reserved":false,"is_disabled":false,"rental_uris":{"android":"levelo://app?vid=af0e337f-d4cf-4e28-9020-c2f2b620012b","ios":"levelo://app?vid=af0e337f-d4cf-4e28-9020-c2f2b620012b"},"vehicle_type_id":"4","last_reported":1756397587,"current_range_meters":18000,"station_id":"cpo3532slgdg3j2ikp40","pricing_plan_id":"cebpf4jnsgd1na2vs0mg"},{"bike_id":"60863403-b289-4c9c-b2d0-3d448abf417f","system_id":"levelo_inurba_marseille","lat":43.282869,"lon":5.350692,"is_reserved":false,"is_disabled":true,"rental_uris":{"android":"levelo://app?vid=60863403-b289-4c9c-b2d0-3d448abf417f","ios":"levelo://app?vid=60863403-b289-4c9c-b2d0-3d448abf417f"},"vehicle_type_id":"4","last_reported":1756397587,"current_range_meters":18000,"station_id":"ce4bhbp2rcd13ifvqerg","pricing_plan_id":"cebpf4jnsgd1na2vs0mg"},{"bike_id":"688af5fb-6252-4eed-9501-ed7d2b2be597","system_id":"levelo_inurba_marseille","lat":43.24135,"lon":5.36413,"is_reserved":false,"is_disabled":false,"rental_uris":{"android":"levelo://app?vid=688af5fb-6252-4eed-9501-ed7d2b2be597","ios":"levelo://app?vid=688af5fb-6252-4eed-9501-ed7d2b2be597"},"vehicle_type_id":"4","last_reported":1756397587,"current_range_meters":18000,"station_id":"cpo36qri1sfpv3e86is0","pricing_plan_id":"cebpf4jnsgd1na2vs0mg"},{"bike_id":"53482a20-bd82-47e7-85d6-718b5a06855b","system_id":"levelo_inurba_marseille","lat":43.28615,"lon":5.35096,"is_reserved":false,"is_disabled":false,"rental_uris":{"android":"levelo://app?vid=53482a20-bd82-47e7-85d6-718b5a06855b","ios":"levelo://app?vid=53482a20-bd82-47e7-85d6-718b5a06855b"},"vehicle_type_id":"4","last_reported":1756397587,"current_range_meters":18000,"station_id":"ce4bhch2rcd13ifvqeug","pricing_plan_id":"cebpf4jnsgd1na2vs0mg"},{"bike_id":"49774fcc-922a-499c-b7d4-86afe0396868","system_id":"levelo_inurba_marseille","lat":43.25504,"lon":5.37654,"is_reserved":false,"is_disabled":true,"rental_uris":{"android":"levelo://app?vid=49774fcc-922a-499c-b7d4-86afe0396868","ios":"levelo://app?vid=49774fcc-922a-499c-b7d4-86afe0396868"},"vehicle_type_id":"4","last_reported":1756397587,"current_range_meters":18000,"station_id":"ce4bhh12rcd13ifvqff0","pricing_plan_id":"cebpf4jnsgd1na2vs0mg"},{"bike_id":"071fb059-dee6-4dbb-b126-776c39acc95d","system_id":"levelo_inurba_marseille","lat":43.26209,"lon":5.37444,"is_reserved":false,"is_disabled":false,"rental_uris":{"android":"levelo://app?vid=071fb059-dee6-4dbb-b126-776c39acc95d","ios":"levelo://app?vid=071fb059-dee6-4dbb-b126-776c39acc95d"},"vehicle_type_id":"4","last_reported":1756397587,"current_range_meters":18000,"station_id":"ce4bhgp2rcd13ifvqfc0","pricing_plan_id":"cebpf4jnsgd1na2vs0mg"},{"bike_id":"196169a4-3222-419a-be3c-e08cc270c692","system_id":"levelo_inurba_marseille","lat":43.29342,"lon":5.37312,"is_reserved":false,"is_disabled":false,"rental_uris":{"android":"levelo://app?vid=196169a4-3222-419a-be3c-e08cc270c692","ios":"levelo://app?vid=196169a4-3222-419a-be3c-e08cc270c692"},"vehicle_type_id":"4","last_reported":1756397587,"current_range_meters":18000,"station_id":"","pricing_plan_id":"cebpf4jnsgd1na2vs0mg"},{"bike_id":"a2fc3b0b-66fa-481a-8af2-3c2d6365ee0b","system_id":"levelo_inurba_marseille","lat":43.28726,"lon":5.37939,"is_reserved":false,"is_disabled":false,"rental_uris":{"android":"levelo://app?vid=a2fc3b0b-66fa-481a-8af2-3c2d6365ee0b","ios":"levelo://app?vid=a2fc3b0b-66fa-481a-8af2-3c2d6365ee0b"},"vehicle_type_id":"4","last_reported":1756397587,"current_range_meters":18000,"station_id":"ce4bh9p2rcd13ifvqec0","pricing_plan_id":"cebpf4jnsgd1na2vs0mg"},{"bike_id":"159e778a-d20c-42da-86c4-bf4c3d4998a3","system_id":"levelo_inurba_marseille","lat":43.26211,"lon":5.37443,"is_reserved":false,"is_disabled":false,"rental_uris":{"android":"levelo://app?vid=159e778a-d20c-42da-86c4-bf4c3d4998a3","ios":"levelo://app?vid=159e778a-d20c-42da-86c4-bf4c3d4998a3"},"vehicle_type_id":"4","last_reported":1756397587,"current_range_meters":18000,"station_id":"ce4bhgp2rcd13ifvqfc0","pricing_plan_id":"cebpf4jnsgd1na2vs0mg"},{"bike_id":"470e3b4a-071e-4e4d-ba95-8099080d874f","system_id":"levelo_inurba_marseille","lat":43.26194,"lon":5.37437,"is_reserved":false,"is_disabled":false,"rental_uris":{"android":"levelo://app?vid=470e3b4a-071e-4e4d-ba95-8099080d874f","ios":"levelo://app?vid=470e3b4a-071e-4e4d-ba95-8099080d874f"},"vehicle_type_id":"4","last_reported":1756397587,"current_range_meters":18000,"station_id":"ce4bhgp2rcd13ifvqfc0","pricing_plan_id":"cebpf4jnsgd1na2vs0mg"},{"bike_id":"6dd0abf3-b4b3-4f6d-8320-aeaf8346e3b9","system_id":"levelo_inurba_marseille","lat":43.23144,"lon":5.43722,"is_reserved":false,"is_disabled":false,"rental_uris":{"android":"levelo://app?vid=6dd0abf3-b4b3-4f6d-8320-aeaf8346e3b9","ios":"levelo://app?vid=6dd0abf3-b4b3-4f6d-8320-aeaf8346e3b9"},"vehicle_type_id":"4","last_reported":1756397587,"current_range_meters":18800,"station_id":"ce4bhmp2rcd13ifvqgog","pricing_plan_id":"cebpf4jnsgd1na2vs0mg"},{"bike_id":"4fb3e352-fd23-494d-8639-d840dadc29ac","system_id":"levelo_inurba_marseille","lat":43.2396,"lon":5.36627,"is_reserved":false,"is_disabled":false,"rental_uris":{"android":"levelo://app?vid=4fb3e352-fd23-494d-8639-d840dadc29ac","ios":"levelo://app?vid=4fb3e352-fd23-494d-8639-d840dadc29ac"},"vehicle_type_id":"4","last_reported":1756397587,"current_range_meters":18800,"station_id":"ce4bhi12rcd13ifvqfp0","pricing_plan_id":"cebpf4jnsgd1na2vs0mg"},{"bike_id":"f99747ac-e0be-4465-bbc5-ecef9f106a1d","system_id":"levelo_inurba_marseille","lat":43.29028,"lon":5.3865,"is_reserved":false,"is_disabled":false,"rental_uris":{"android":"levelo://app?vid=f99747ac-e0be-4465-bbc5-ecef9f106a1d","ios":"levelo://app?vid=f99747ac-e0be-4465-bbc5-ecef9f106a1d"},"vehicle_type_id":"4","last_reported":1756397587,"current_range_meters":18800,"station_id":"ce4bh4p2rcd13ifvqe0g","pricing_plan_id":"cebpf4jnsgd1na2vs0mg"},{"bike_id":"07761c7f-90f3-44f4-a950-f91cbca976d7","system_id":"levelo_inurba_marseille","lat":43.26224,"lon":5.37419,"is_reserved":false,"is_disabled":false,"rental_uris":{"android":"levelo://app?vid=07761c7f-90f3-44f4-a950-f91cbca976d7","ios":"levelo://app?vid=07761c7f-90f3-44f4-a950-f91cbca976d7"},"vehicle_type_id":"4","last_reported":1756397587,"current_range_meters":18800,"station_id":"ce4bhgp2rcd13ifvqfc0","pricing_plan_id":"cebpf4jnsgd1na2vs0mg"},{"bike_id":"e6a93fb5-0898-42b5-a0f1-0058cce3ed8f","system_id":"levelo_inurba_marseille","lat":43.25497,"lon":5.3765,"is_reserved":false,"is_disabled":false,"rental_uris":{"android":"levelo://app?vid=e6a93fb5-0898-42b5-a0f1-0058cce3ed8f","ios":"levelo://app?vid=e6a93fb5-0898-42b5-a0f1-0058cce3ed8f"},"vehicle_type_id":"4","last_reported":1756397587,"current_range_meters":18800,"station_id":"ce4bhh12rcd13ifvqff0","pricing_plan_id":"cebpf4jnsgd1na2vs0mg"},{"bike_id":"9d2ced14-2d78-44ee-a715-fe961703f144","system_id":"levelo_inurba_marseille","lat":43.28162,"lon":5.42617,"is_reserved":false,"is_disabled":false,"rental_uris":{"android":"levelo://app?vid=9d2ced14-2d78-44ee-a715-fe961703f144","ios":"levelo://app?vid=9d2ced14-2d78-44ee-a715-fe961703f144"},"vehicle_type_id":"4","last_reported":1756397587,"current_range_meters":18800,"station_id":"ce4bhnh2rcd13ifvqgug","pricing_plan_id":"cebpf4jnsgd1na2vs0mg"},{"bike_id":"fdfe6fd8-fb0e-4713-8ecb-26f32dc5718e","system_id":"levelo_inurba_marseille","lat":43.2604,"lon":5.37547,"is_reserved":false,"is_disabled":false,"rental_uris":{"android":"levelo://app?vid=fdfe6fd8-fb0e-4713-8ecb-26f32dc5718e","ios":"levelo://app?vid=fdfe6fd8-fb0e-4713-8ecb-26f32dc5718e"},"vehicle_type_id":"4","last_reported":1756397587,"current_range_meters":18800,"station_id":"ce4bhgh2rcd13ifvqfa0","pricing_plan_id":"cebpf4jnsgd1na2vs0mg"},{"bike_id":"bedbfafb-e8f2-4d6b-9dc8-56d123a4d55c","system_id":"levelo_inurba_marseille","lat":43.27281,"lon":5.38558,"is_reserved":false,"is_disabled":false,"rental_uris":{"android":"levelo://app?vid=bedbfafb-e8f2-4d6b-9dc8-56d123a4d55c","ios":"levelo://app?vid=bedbfafb-e8f2-4d6b-9dc8-56d123a4d55c"},"vehicle_type_id":"4","last_reported":1756397587,"current_range_meters":18800,"station_id":"","pricing_plan_id":"cebpf4jnsgd1na2vs0mg"},{"bike_id":"d1012ec4-1fc3-4e5f-a82c-9d7d73d65c20","system_id":"levelo_inurba_marseille","lat":43.26037,"lon":5.41742,"is_reserved":false,"is_disabled":false,"rental_uris":{"android":"levelo://app?vid=d1012ec4-1fc3-4e5f-a82c-9d7d73d65c20","ios":"levelo://app?vid=d1012ec4-1fc3-4e5f-a82c-9d7d73d65c20"},"vehicle_type_id":"4","last_reported":1756397587,"current_range_meters":18800,"station_id":"","pricing_plan_id":"cebpf4jnsgd1na2vs0mg"},{"bike_id":"a6106d71-8d2e-4dc4-b530-1cd5fc2ce573","system_id":"levelo_inurba_marseille","lat":43.25581,"lon":5.38231,"is_reserved":false,"is_disabled":false,"rental_uris":{"android":"levelo://app?vid=a6106d71-8d2e-4dc4-b530-1cd5fc2ce573","ios":"levelo://app?vid=a6106d71-8d2e-4dc4-b530-1cd5fc2ce573"},"vehicle_type_id":"4","last_reported":1756397587,"current_range_meters":19200,"station_id":"ce4bhih2rcd13ifvqfs0","pricing_plan_id":"cebpf4jnsgd1na2vs0mg"},{"bike_id":"72adf8d3-000d-462a-9b10-b49b61130129","system_id":"levelo_inurba_marseille","lat":43.28417,"lon":5.34987,"is_reserved":false,"is_disabled":false,"rental_uris":{"android":"levelo://app?vid=72adf8d3-000d-462a-9b10-b49b61130129","ios":"levelo://app?vid=72adf8d3-000d-462a-9b10-b49b61130129"},"vehicle_type_id":"4","last_reported":1756397587,"current_range_meters":19200,"station_id":"ce4bhbh2rcd13ifvqepg","pricing_plan_id":"cebpf4jnsgd1na2vs0mg"},{"bike_id":"cc7424a2-63e2-49b7-9026-ff6c693453c2","system_id":"levelo_inurba_marseille","lat":43.24668,"lon":5.38151,"is_reserved":false,"is_disabled":false,"rental_uris":{"android":"levelo://app?vid=cc7424a2-63e2-49b7-9026-ff6c693453c2","ios":"levelo://app?vid=cc7424a2-63e2-49b7-9026-ff6c693453c2"},"vehicle_type_id":"4","last_reported":1756397587,"current_range_meters":19200,"station_id":"ce4bhih2rcd13ifvqfr0","pricing_plan_id":"cebpf4jnsgd1na2vs0mg"},{"bike_id":"1d3ad676-0115-4bbe-973e-c2594b30f614","system_id":"levelo_inurba_marseille","lat":43.26534,"lon":5.37303,"is_reserved":false,"is_disabled":false,"rental_uris":{"android":"levelo://app?vid=1d3ad676-0115-4bbe-973e-c2594b30f614","ios":"levelo://app?vid=1d3ad676-0115-4bbe-973e-c2594b30f614"},"vehicle_type_id":"4","last_reported":1756397587,"current_range_meters":19200,"station_id":"ce4bhg12rcd13ifvqf70","pricing_plan_id":"cebpf4jnsgd1na2vs0mg"},{"bike_id":"6d1d9580-c978-40cd-999b-ceeb58bd0433","system_id":"levelo_inurba_marseille","lat":43.27841,"lon":5.39211,"is_reserved":false,"is_disabled":false,"rental_uris":{"android":"levelo://app?vid=6d1d9580-c978-40cd-999b-ceeb58bd0433","ios":"levelo://app?vid=6d1d9580-c978-40cd-999b-ceeb58bd0433"},"vehicle_type_id":"4","last_reported":1756397587,"current_range_meters":19600,"station_id":"ce4bhjp2rcd13ifvqga0","pricing_plan_id":"cebpf4jnsgd1na2vs0mg"},{"bike_id":"3dd23926-ae78-488e-8f33-e0fe0712154d","system_id":"levelo_inurba_marseille","lat":43.312001,"lon":5.377911,"is_reserved":false,"is_disabled":false,"rental_uris":{"android":"levelo://app?vid=3dd23926-ae78-488e-8f33-e0fe0712154d","ios":"levelo://app?vid=3dd23926-ae78-488e-8f33-e0fe0712154d"},"vehicle_type_id":"4","last_reported":1756397587,"current_range_meters":19200,"station_id":"","pricing_plan_id":"cebpf4jnsgd1na2vs0mg"},{"bike_id":"f7c72213-bc1f-4dc8-9236-f4004cdae7b1","system_id":"levelo_inurba_marseille","lat":43.21751,"lon":5.346,"is_reserved":false,"is_disabled":false,"rental_uris":{"android":"levelo://app?vid=f7c72213-bc1f-4dc8-9236-f4004cdae7b1","ios":"levelo://app?vid=f7c72213-bc1f-4dc8-9236-f4004cdae7b1"},"vehicle_type_id":"4","last_reported":1756397587,"current_range_meters":19200,"station_id":"st_cvj6r9ubvosntc0bgbag","pricing_plan_id":"cebpf4jnsgd1na2vs0mg"},{"bike_id":"982c78ab-055f-4afa-8dba-e591b8b7824d","system_id":"levelo_inurba_marseille","lat":43.260231,"lon":5.375585,"is_reserved":false,"is_disabled":false,"rental_uris":{"android":"levelo://app?vid=982c78ab-055f-4afa-8dba-e591b8b7824d","ios":"levelo://app?vid=982c78ab-055f-4afa-8dba-e591b8b7824d"},"vehicle_type_id":"4","last_reported":1756397587,"current_range_meters":19200,"station_id":"ce4bhn92rcd13ifvqgsg","pricing_plan_id":"cebpf4jnsgd1na2vs0mg"},{"bike_id":"e66b3941-edc1-47d2-a508-6af05bed5109","system_id":"levelo_inurba_marseille","lat":43.22508,"lon":5.3478,"is_reserved":false,"is_disabled":false,"rental_uris":{"android":"levelo://app?vid=e66b3941-edc1-47d2-a508-6af05bed5109","ios":"levelo://app?vid=e66b3941-edc1-47d2-a508-6af05bed5109"},"vehicle_type_id":"4","last_reported":1756397587,"current_range_meters":19200,"station_id":"st_cvj5dfep6f1abm77gieg","pricing_plan_id":"cebpf4jnsgd1na2vs0mg"},{"bike_id":"d5c0016f-c98f-4940-b45a-884fc5cda2dc","system_id":"levelo_inurba_marseille","lat":43.29192,"lon":5.35785,"is_reserved":false,"is_disabled":false,"rental_uris":{"android":"levelo://app?vid=d5c0016f-c98f-4940-b45a-884fc5cda2dc","ios":"levelo://app?vid=d5c0016f-c98f-4940-b45a-884fc5cda2dc"},"vehicle_type_id":"4","last_reported":1756397587,"current_range_meters":19600,"station_id":"ce4bhb12rcd13ifvqel0","pricing_plan_id":"cebpf4jnsgd1na2vs0mg"},{"bike_id":"ef92bd80-be1c-4588-8888-0b42cadf016b","system_id":"levelo_inurba_marseille","lat":43.26562,"lon":5.3729,"is_reserved":false,"is_disabled":false,"rental_uris":{"android":"levelo://app?vid=ef92bd80-be1c-4588-8888-0b42cadf016b","ios":"levelo://app?vid=ef92bd80-be1c-4588-8888-0b42cadf016b"},"vehicle_type_id":"4","last_reported":1756397587,"current_range_meters":19600,"station_id":"ce4bhg12rcd13ifvqf70","pricing_plan_id":"cebpf4jnsgd1na2vs0mg"},{"bike_id":"258158f0-e507-44cf-9ba0-0bacc9740d7a","system_id":"levelo_inurba_marseille","lat":43.25334,"lon":5.42169,"is_reserved":false,"is_disabled":false,"rental_uris":{"android":"levelo://app?vid=258158f0-e507-44cf-9ba0-0bacc9740d7a","ios":"levelo://app?vid=258158f0-e507-44cf-9ba0-0bacc9740d7a"},"vehicle_type_id":"4","last_reported":1756397587,"current_range_meters":19600,"station_id":"st_d2m65c5bi1j21697t3ng","pricing_plan_id":"cebpf4jnsgd1na2vs0mg"},{"bike_id":"25fc4ed9-a377-418c-8268-e46347eaf15e","system_id":"levelo_inurba_marseille","lat":43.25584,"lon":5.38227,"is_reserved":false,"is_disabled":false,"rental_uris":{"android":"levelo://app?vid=25fc4ed9-a377-418c-8268-e46347eaf15e","ios":"levelo://app?vid=25fc4ed9-a377-418c-8268-e46347eaf15e"},"vehicle_type_id":"4","last_reported":1756397587,"current_range_meters":19600,"station_id":"ce4bhih2rcd13ifvqfs0","pricing_plan_id":"cebpf4jnsgd1na2vs0mg"},{"bike_id":"82d8b399-fe80-435d-a31f-c959f3cfb96f","system_id":"levelo_inurba_marseille","lat":43.26032,"lon":5.37536,"is_reserved":false,"is_disabled":false,"rental_uris":{"android":"levelo://app?vid=82d8b399-fe80-435d-a31f-c959f3cfb96f","ios":"levelo://app?vid=82d8b399-fe80-435d-a31f-c959f3cfb96f"},"vehicle_type_id":"4","last_reported":1756397587,"current_range_meters":19600,"station_id":"ce4bhgh2rcd13ifvqfa0","pricing_plan_id":"cebpf4jnsgd1na2vs0mg"},{"bike_id":"26ca8748-e157-4f71-af6c-6e9222f5c3d4","system_id":"levelo_inurba_marseille","lat":43.3013,"lon":5.392191,"is_reserved":false,"is_disabled":false,"rental_uris":{"android":"levelo://app?vid=26ca8748-e157-4f71-af6c-6e9222f5c3d4","ios":"levelo://app?vid=26ca8748-e157-4f71-af6c-6e9222f5c3d4"},"vehicle_type_id":"4","last_reported":1756397587,"current_range_meters":19600,"station_id":"ce4bh0p2rcd13ifvqd70","pricing_plan_id":"cebpf4jnsgd1na2vs0mg"},{"bike_id":"62d73753-109c-41c0-98c2-47c1301b6af2","system_id":"levelo_inurba_marseille","lat":43.255805,"lon":5.382328,"is_reserved":false,"is_disabled":false,"rental_uris":{"android":"levelo://app?vid=62d73753-109c-41c0-98c2-47c1301b6af2","ios":"levelo://app?vid=62d73753-109c-41c0-98c2-47c1301b6af2"},"vehicle_type_id":"4","last_reported":1756397587,"current_range_meters":20000,"station_id":"ce4bhih2rcd13ifvqfs0","pricing_plan_id":"cebpf4jnsgd1na2vs0mg"},{"bike_id":"be56a579-3870-4545-85bd-dad43950a1f0","system_id":"levelo_inurba_marseille","lat":43.281423,"lon":5.426439,"is_reserved":false,"is_disabled":false,"rental_uris":{"android":"levelo://app?vid=be56a579-3870-4545-85bd-dad43950a1f0","ios":"levelo://app?vid=be56a579-3870-4545-85bd-dad43950a1f0"},"vehicle_type_id":"4","last_reported":1756397587,"current_range_meters":20000,"station_id":"ce4bhnh2rcd13ifvqgug","pricing_plan_id":"cebpf4jnsgd1na2vs0mg"},{"bike_id":"f5f2ca21-5d95-4289-978c-eadf93ad3706","system_id":"levelo_inurba_marseille","lat":43.23148,"lon":5.43718,"is_reserved":false,"is_disabled":false,"rental_uris":{"android":"levelo://app?vid=f5f2ca21-5d95-4289-978c-eadf93ad3706","ios":"levelo://app?vid=f5f2ca21-5d95-4289-978c-eadf93ad3706"},"vehicle_type_id":"4","last_reported":1756397587,"current_range_meters":20000,"station_id":"ce4bhmp2rcd13ifvqgog","pricing_plan_id":"cebpf4jnsgd1na2vs0mg"},{"bike_id":"ca0c0c39-3e21-4ae9-b4cf-b3d85fbed11a","system_id":"levelo_inurba_marseille","lat":43.29264,"lon":5.37624,"is_reserved":false,"is_disabled":false,"rental_uris":{"android":"levelo://app?vid=ca0c0c39-3e21-4ae9-b4cf-b3d85fbed11a","ios":"levelo://app?vid=ca0c0c39-3e21-4ae9-b4cf-b3d85fbed11a"},"vehicle_type_id":"4","last_reported":1756397587,"current_range_meters":20400,"station_id":"ce4bgi12rcd13ifvqb80","pricing_plan_id":"cebpf4jnsgd1na2vs0mg"},{"bike_id":"80a120ec-2f5b-4b9d-8278-3d7e3ce3b443","system_id":"levelo_inurba_marseille","lat":43.30461,"lon":5.379,"is_reserved":false,"is_disabled":false,"rental_uris":{"android":"levelo://app?vid=80a120ec-2f5b-4b9d-8278-3d7e3ce3b443","ios":"levelo://app?vid=80a120ec-2f5b-4b9d-8278-3d7e3ce3b443"},"vehicle_type_id":"4","last_reported":1756397587,"current_range_meters":20000,"station_id":"ce4bgup2rcd13ifvqcn0","pricing_plan_id":"cebpf4jnsgd1na2vs0mg"},{"bike_id":"ed2c7433-e117-4b8c-a02b-c2050d24b82f","system_id":"levelo_inurba_marseille","lat":43.26201,"lon":5.37925,"is_reserved":false,"is_disabled":false,"rental_uris":{"android":"levelo://app?vid=ed2c7433-e117-4b8c-a02b-c2050d24b82f","ios":"levelo://app?vid=ed2c7433-e117-4b8c-a02b-c2050d24b82f"},"vehicle_type_id":"4","last_reported":1756397587,"current_range_meters":20400,"station_id":"ce4bhjp2rcd13ifvqg90","pricing_plan_id":"cebpf4jnsgd1na2vs0mg"},{"bike_id":"16d2d431-3e5c-4c0c-9cf5-e4439a5fcfce","system_id":"levelo_inurba_marseille","lat":43.2919,"lon":5.35811,"is_reserved":false,"is_disabled":false,"rental_uris":{"android":"levelo://app?vid=16d2d431-3e5c-4c0c-9cf5-e4439a5fcfce","ios":"levelo://app?vid=16d2d431-3e5c-4c0c-9cf5-e4439a5fcfce"},"vehicle_type_id":"4","last_reported":1756397587,"current_range_meters":20400,"station_id":"ce4bhb12rcd13ifvqel0","pricing_plan_id":"cebpf4jnsgd1na2vs0mg"},{"bike_id":"dd356f1d-22ee-4415-84f4-a3bf21363e9b","system_id":"levelo_inurba_marseille","lat":43.29248,"lon":5.40904,"is_reserved":false,"is_disabled":false,"rental_uris":{"android":"levelo://app?vid=dd356f1d-22ee-4415-84f4-a3bf21363e9b","ios":"levelo://app?vid=dd356f1d-22ee-4415-84f4-a3bf21363e9b"},"vehicle_type_id":"4","last_reported":1756397587,"current_range_meters":20400,"station_id":"ce4bh192rcd13ifvqdc0","pricing_plan_id":"cebpf4jnsgd1na2vs0mg"},{"bike_id":"0e16483d-7c29-42d6-90d2-d9cb7ef31592","system_id":"levelo_inurba_marseille","lat":43.323612,"lon":5.367618,"is_reserved":false,"is_disabled":false,"rental_uris":{"android":"levelo://app?vid=0e16483d-7c29-42d6-90d2-d9cb7ef31592","ios":"levelo://app?vid=0e16483d-7c29-42d6-90d2-d9cb7ef31592"},"vehicle_type_id":"4","last_reported":1756397587,"current_range_meters":20400,"station_id":"ce4bhsh2rcd13ifvqi2g","pricing_plan_id":"cebpf4jnsgd1na2vs0mg"},{"bike_id":"877d4ff2-8e4e-4dd8-9f9d-3f576d35b87a","system_id":"levelo_inurba_marseille","lat":43.29375,"lon":5.37852,"is_reserved":false,"is_disabled":false,"rental_uris":{"android":"levelo://app?vid=877d4ff2-8e4e-4dd8-9f9d-3f576d35b87a","ios":"levelo://app?vid=877d4ff2-8e4e-4dd8-9f9d-3f576d35b87a"},"vehicle_type_id":"4","last_reported":1756397587,"current_range_meters":20800,"station_id":"ce4bgjh2rcd13ifvqbf0","pricing_plan_id":"cebpf4jnsgd1na2vs0mg"},{"bike_id":"94469496-96ae-450e-adaf-a7663bfd0e82","system_id":"levelo_inurba_marseille","lat":43.33766,"lon":5.37475,"is_reserved":false,"is_disabled":false,"rental_uris":{"android":"levelo://app?vid=94469496-96ae-450e-adaf-a7663bfd0e82","ios":"levelo://app?vid=94469496-96ae-450e-adaf-a7663bfd0e82"},"vehicle_type_id":"4","last_reported":1756397587,"current_range_meters":20800,"station_id":"","pricing_plan_id":"cebpf4jnsgd1na2vs0mg"},{"bike_id":"d6ca3a92-b311-44a7-9268-d87b1a269cd7","system_id":"levelo_inurba_marseille","lat":43.26993,"lon":5.38681,"is_reserved":false,"is_disabled":false,"rental_uris":{"android":"levelo://app?vid=d6ca3a92-b311-44a7-9268-d87b1a269cd7","ios":"levelo://app?vid=d6ca3a92-b311-44a7-9268-d87b1a269cd7"},"vehicle_type_id":"4","last_reported":1756397587,"current_range_meters":20800,"station_id":"","pricing_plan_id":"cebpf4jnsgd1na2vs0mg"},{"bike_id":"a5cc61f9-6ab1-4983-b430-db412099bc42","system_id":"levelo_inurba_marseille","lat":43.28255,"lon":5.35073,"is_reserved":false,"is_disabled":false,"rental_uris":{"android":"levelo://app?vid=a5cc61f9-6ab1-4983-b430-db412099bc42","ios":"levelo://app?vid=a5cc61f9-6ab1-4983-b430-db412099bc42"},"vehicle_type_id":"4","last_reported":1756397587,"current_range_meters":20800,"station_id":"ce4bhbp2rcd13ifvqerg","pricing_plan_id":"cebpf4jnsgd1na2vs0mg"},{"bike_id":"97301b6f-85b9-42ad-a747-9304088516b2","system_id":"levelo_inurba_marseille","lat":43.25336,"lon":5.42163,"is_reserved":false,"is_disabled":false,"rental_uris":{"android":"levelo://app?vid=97301b6f-85b9-42ad-a747-9304088516b2","ios":"levelo://app?vid=97301b6f-85b9-42ad-a747-9304088516b2"},"vehicle_type_id":"4","last_reported":1756397587,"current_range_meters":20800,"station_id":"st_d2m65c5bi1j21697t3ng","pricing_plan_id":"cebpf4jnsgd1na2vs0mg"},{"bike_id":"96f14abf-b6a1-4070-ae67-01d81046406c","system_id":"levelo_inurba_marseille","lat":43.2603,"lon":5.37548,"is_reserved":false,"is_disabled":false,"rental_uris":{"android":"levelo://app?vid=96f14abf-b6a1-4070-ae67-01d81046406c","ios":"levelo://app?vid=96f14abf-b6a1-4070-ae67-01d81046406c"},"vehicle_type_id":"4","last_reported":1756397587,"current_range_meters":20800,"station_id":"ce4bhgh2rcd13ifvqfa0","pricing_plan_id":"cebpf4jnsgd1na2vs0mg"},{"bike_id":"e7c32614-4570-444e-85ab-d70b92e652a8","system_id":"levelo_inurba_marseille","lat":43.21742,"lon":5.34602,"is_reserved":false,"is_disabled":false,"rental_uris":{"android":"levelo://app?vid=e7c32614-4570-444e-85ab-d70b92e652a8","ios":"levelo://app?vid=e7c32614-4570-444e-85ab-d70b92e652a8"},"vehicle_type_id":"4","last_reported":1756397587,"current_range_meters":20800,"station_id":"st_cvj6r9ubvosntc0bgbag","pricing_plan_id":"cebpf4jnsgd1na2vs0mg"},{"bike_id":"329cd2e3-3f50-464b-b205-37b738369eeb","system_id":"levelo_inurba_marseille","lat":43.32365,"lon":5.36772,"is_reserved":false,"is_disabled":false,"rental_uris":{"android":"levelo://app?vid=329cd2e3-3f50-464b-b205-37b738369eeb","ios":"levelo://app?vid=329cd2e3-3f50-464b-b205-37b738369eeb"},"vehicle_type_id":"4","last_reported":1756397587,"current_range_meters":20800,"station_id":"ce4bhsh2rcd13ifvqi2g","pricing_plan_id":"cebpf4jnsgd1na2vs0mg"},{"bike_id":"c4ff6e2e-7c46-4a14-90e0-391caea45a27","system_id":"levelo_inurba_marseille","lat":43.24656,"lon":5.388927,"is_reserved":false,"is_disabled":false,"rental_uris":{"android":"levelo://app?vid=c4ff6e2e-7c46-4a14-90e0-391caea45a27","ios":"levelo://app?vid=c4ff6e2e-7c46-4a14-90e0-391caea45a27"},"vehicle_type_id":"4","last_reported":1756397587,"current_range_meters":20800,"station_id":"ce4bhg12rcd13ifvqf60","pricing_plan_id":"cebpf4jnsgd1na2vs0mg"},{"bike_id":"cf3038fc-d946-4e46-8d5f-4ba8aaa0b207","system_id":"levelo_inurba_marseille","lat":43.27899,"lon":5.38011,"is_reserved":false,"is_disabled":false,"rental_uris":{"android":"levelo://app?vid=cf3038fc-d946-4e46-8d5f-4ba8aaa0b207","ios":"levelo://app?vid=cf3038fc-d946-4e46-8d5f-4ba8aaa0b207"},"vehicle_type_id":"4","last_reported":1756397587,"current_range_meters":20400,"station_id":"ce4bhf92rcd13ifvqf50","pricing_plan_id":"cebpf4jnsgd1na2vs0mg"},{"bike_id":"c12b669c-b1f6-4ef5-a4ec-0ce2fee20b9c","system_id":"levelo_inurba_marseille","lat":43.24179,"lon":5.39719,"is_reserved":false,"is_disabled":false,"rental_uris":{"android":"levelo://app?vid=c12b669c-b1f6-4ef5-a4ec-0ce2fee20b9c","ios":"levelo://app?vid=c12b669c-b1f6-4ef5-a4ec-0ce2fee20b9c"},"vehicle_type_id":"4","last_reported":1756397587,"current_range_meters":20800,"station_id":"ce4bhn12rcd13ifvqgpg","pricing_plan_id":"cebpf4jnsgd1na2vs0mg"},{"bike_id":"79e77f72-e4e3-4642-a38c-d14738234f85","system_id":"levelo_inurba_marseille","lat":43.29308,"lon":5.37452,"is_reserved":false,"is_disabled":false,"rental_uris":{"android":"levelo://app?vid=79e77f72-e4e3-4642-a38c-d14738234f85","ios":"levelo://app?vid=79e77f72-e4e3-4642-a38c-d14738234f85"},"vehicle_type_id":"4","last_reported":1756397587,"current_range_meters":20800,"station_id":"ce4bgi12rcd13ifvqb70","pricing_plan_id":"cebpf4jnsgd1na2vs0mg"},{"bike_id":"d7f6bab2-b7af-4300-84cb-f5a5734ab552","system_id":"levelo_inurba_marseille","lat":43.3059,"lon":5.39348,"is_reserved":false,"is_disabled":false,"rental_uris":{"android":"levelo://app?vid=d7f6bab2-b7af-4300-84cb-f5a5734ab552","ios":"levelo://app?vid=d7f6bab2-b7af-4300-84cb-f5a5734ab552"},"vehicle_type_id":"4","last_reported":1756397587,"current_range_meters":21600,"station_id":"ce4bh0p2rcd13ifvqd80","pricing_plan_id":"cebpf4jnsgd1na2vs0mg"},{"bike_id":"ab4879ea-14fc-4274-854e-6eabdbab2245","system_id":"levelo_inurba_marseille","lat":43.262159,"lon":5.374374,"is_reserved":false,"is_disabled":false,"rental_uris":{"android":"levelo://app?vid=ab4879ea-14fc-4274-854e-6eabdbab2245","ios":"levelo://app?vid=ab4879ea-14fc-4274-854e-6eabdbab2245"},"vehicle_type_id":"4","last_reported":1756397587,"current_range_meters":21600,"station_id":"ce4bhgp2rcd13ifvqfc0","pricing_plan_id":"cebpf4jnsgd1na2vs0mg"},{"bike_id":"c0881cb5-357f-468d-a3c1-b313679c3509","system_id":"levelo_inurba_marseille","lat":43.337579,"lon":5.37436,"is_reserved":false,"is_disabled":false,"rental_uris":{"android":"levelo://app?vid=c0881cb5-357f-468d-a3c1-b313679c3509","ios":"levelo://app?vid=c0881cb5-357f-468d-a3c1-b313679c3509"},"vehicle_type_id":"4","last_reported":1756397587,"current_range_meters":21600,"station_id":"","pricing_plan_id":"cebpf4jnsgd1na2vs0mg"},{"bike_id":"12b8ba9b-f2f8-495b-856f-a8fd817c9e02","system_id":"levelo_inurba_marseille","lat":43.26557,"lon":5.37286,"is_reserved":false,"is_disabled":false,"rental_uris":{"android":"levelo://app?vid=12b8ba9b-f2f8-495b-856f-a8fd817c9e02","ios":"levelo://app?vid=12b8ba9b-f2f8-495b-856f-a8fd817c9e02"},"vehicle_type_id":"4","last_reported":1756397587,"current_range_meters":21600,"station_id":"ce4bhg12rcd13ifvqf70","pricing_plan_id":"cebpf4jnsgd1na2vs0mg"},{"bike_id":"93cc04ec-00cd-4c5a-9919-841c31df513d","system_id":"levelo_inurba_marseille","lat":43.2622,"lon":5.37422,"is_reserved":false,"is_disabled":false,"rental_uris":{"android":"levelo://app?vid=93cc04ec-00cd-4c5a-9919-841c31df513d","ios":"levelo://app?vid=93cc04ec-00cd-4c5a-9919-841c31df513d"},"vehicle_type_id":"4","last_reported":1756397587,"current_range_meters":21600,"station_id":"","pricing_plan_id":"cebpf4jnsgd1na2vs0mg"},{"bike_id":"71eaea92-bad6-4e02-8470-b6f83f71eaf6","system_id":"levelo_inurba_marseille","lat":43.31885,"lon":5.40741,"is_reserved":false,"is_disabled":false,"rental_uris":{"android":"levelo://app?vid=71eaea92-bad6-4e02-8470-b6f83f71eaf6","ios":"levelo://app?vid=71eaea92-bad6-4e02-8470-b6f83f71eaf6"},"vehicle_type_id":"4","last_reported":1756397587,"current_range_meters":21600,"station_id":"ce4bhq12rcd13ifvqhig","pricing_plan_id":"cebpf4jnsgd1na2vs0mg"},{"bike_id":"867f9ed5-fea7-449c-a65b-fb129c5fe1ad","system_id":"levelo_inurba_marseille","lat":43.26547,"lon":5.37292,"is_reserved":false,"is_disabled":false,"rental_uris":{"android":"levelo://app?vid=867f9ed5-fea7-449c-a65b-fb129c5fe1ad","ios":"levelo://app?vid=867f9ed5-fea7-449c-a65b-fb129c5fe1ad"},"vehicle_type_id":"4","last_reported":1756397587,"current_range_meters":21600,"station_id":"ce4bhg12rcd13ifvqf70","pricing_plan_id":"cebpf4jnsgd1na2vs0mg"},{"bike_id":"89c29c1a-ebfb-488f-a28c-3f09978434b0","system_id":"levelo_inurba_marseille","lat":43.230582,"lon":5.354933,"is_reserved":false,"is_disabled":false,"rental_uris":{"android":"levelo://app?vid=89c29c1a-ebfb-488f-a28c-3f09978434b0","ios":"levelo://app?vid=89c29c1a-ebfb-488f-a28c-3f09978434b0"},"vehicle_type_id":"4","last_reported":1756397587,"current_range_meters":21600,"station_id":"cpo3342slgdg3j2ifvpg","pricing_plan_id":"cebpf4jnsgd1na2vs0mg"},{"bike_id":"22e714a6-2031-4bbf-a7b9-f7ccad5196bd","system_id":"levelo_inurba_marseille","lat":43.23154,"lon":5.43725,"is_reserved":false,"is_disabled":false,"rental_uris":{"android":"levelo://app?vid=22e714a6-2031-4bbf-a7b9-f7ccad5196bd","ios":"levelo://app?vid=22e714a6-2031-4bbf-a7b9-f7ccad5196bd"},"vehicle_type_id":"4","last_reported":1756397587,"current_range_meters":22000,"station_id":"ce4bhmp2rcd13ifvqgog","pricing_plan_id":"cebpf4jnsgd1na2vs0mg"},{"bike_id":"535056ba-c88e-4ed6-9a92-e9d46b23c543","system_id":"levelo_inurba_marseille","lat":43.24648,"lon":5.38893,"is_reserved":false,"is_disabled":true,"rental_uris":{"android":"levelo://app?vid=535056ba-c88e-4ed6-9a92-e9d46b23c543","ios":"levelo://app?vid=535056ba-c88e-4ed6-9a92-e9d46b23c543"},"vehicle_type_id":"4","last_reported":1756397587,"current_range_meters":22000,"station_id":"ce4bhg12rcd13ifvqf60","pricing_plan_id":"cebpf4jnsgd1na2vs0mg"},{"bike_id":"57932b3c-ba37-4273-a129-72ad674e0d22","system_id":"levelo_inurba_marseille","lat":43.286554,"lon":5.38612,"is_reserved":false,"is_disabled":false,"rental_uris":{"android":"levelo://app?vid=57932b3c-ba37-4273-a129-72ad674e0d22","ios":"levelo://app?vid=57932b3c-ba37-4273-a129-72ad674e0d22"},"vehicle_type_id":"4","last_reported":1756397587,"current_range_meters":22000,"station_id":"ce4bh492rcd13ifvqdug","pricing_plan_id":"cebpf4jnsgd1na2vs0mg"},{"bike_id":"c6bd354c-0069-49c4-809c-042eeb7a1fa1","system_id":"levelo_inurba_marseille","lat":43.31269,"lon":5.40165,"is_reserved":false,"is_disabled":false,"rental_uris":{"android":"levelo://app?vid=c6bd354c-0069-49c4-809c-042eeb7a1fa1","ios":"levelo://app?vid=c6bd354c-0069-49c4-809c-042eeb7a1fa1"},"vehicle_type_id":"4","last_reported":1756397587,"current_range_meters":22000,"station_id":"ce4bh092rcd13ifvqd30","pricing_plan_id":"cebpf4jnsgd1na2vs0mg"},{"bike_id":"ac27170e-9570-4f63-bb10-7f62fa3f5708","system_id":"levelo_inurba_marseille","lat":43.30148,"lon":5.37404,"is_reserved":false,"is_disabled":false,"rental_uris":{"android":"levelo://app?vid=ac27170e-9570-4f63-bb10-7f62fa3f5708","ios":"levelo://app?vid=ac27170e-9570-4f63-bb10-7f62fa3f5708"},"vehicle_type_id":"4","last_reported":1756397587,"current_range_meters":22000,"station_id":"","pricing_plan_id":"cebpf4jnsgd1na2vs0mg"},{"bike_id":"2fd30236-76ce-450e-8701-99eb1eba8a53","system_id":"levelo_inurba_marseille","lat":43.291001,"lon":5.381353,"is_reserved":false,"is_disabled":false,"rental_uris":{"android":"levelo://app?vid=2fd30236-76ce-450e-8701-99eb1eba8a53","ios":"levelo://app?vid=2fd30236-76ce-450e-8701-99eb1eba8a53"},"vehicle_type_id":"4","last_reported":1756397587,"current_range_meters":22000,"station_id":"ce4bh512rcd13ifvqe2g","pricing_plan_id":"cebpf4jnsgd1na2vs0mg"},