{"last_updated":1748362393,"ttl":60,"version":"2.2","data":{"bikes":[{"bike_id":"ccaa469e-dceb-460f-bd9c-83012eafd6cc","system_id":"levelo_inurba_marseille","lat":43.29519,"lon":5.394,"is_reserved":false,"is_disabled":false,"rental_uris":{"android":"levelo://app?vid=ccaa469e-dceb-460f-bd9c-83012eafd6cc","ios":"levelo://app?vid=ccaa469e-dceb-460f-bd9c-83012eafd6cc"},"vehicle_type_id":"4","last_reported":1748362394,"current_range_meters":2800,"station_id":"ce4bh292rcd13ifvqdf0","pricing_plan_id":"cebpf4jnsgd1na2vs0mg"},{"bike_id":"7bd5bad4-5f6c-4c1b-bf2b-471cc6d72042","system_id":"levelo_inurba_marseille","lat":43.3303,"lon":5.39038,"is_reserved":false,"is_disabled":false,"rental_uris":{"android":"levelo://app?vid=7bd5bad4-5f6c-4c1b-bf2b-471cc6d72042","ios":"levelo://app?vid=7bd5bad4-5f6c-4c1b-bf2b-471cc6d72042"},"vehicle_type_id":"4","last_reported":1748362394,"current_range_meters":2800,"station_id":"ce4bhr92rcd13ifvqhrg","pricing_plan_id":"cebpf4jnsgd1na2vs0mg"},{"bike_id":"f5a9f25f-f3fb-4b83-a2fa-67e058f1bacc","system_id":"levelo_inurba_marseille","lat":43.30921,"lon":5.40137,"is_reserved":false,"is_disabled":false,"rental_uris":{"android":"levelo://app?vid=f5a9f25f-f3fb-4b83-a2fa-67e058f1bacc","ios":"levelo://app?vid=f5a9f25f-f3fb-4b83-a2fa-67e058f1bacc"},"vehicle_type_id":"4","last_reported":1748362394,"current_range_meters":2800,"station_id":"ce4bgvp2rcd13ifvqct0","pricing_plan_id":"cebpf4jnsgd1na2vs0mg"},{"bike_id":"4ddde26d-4389-441d-b1d6-3bc0658787f5","system_id":"levelo_inurba_marseille","lat":43.22929,"lon":5.35373,"is_reserved":false,"is_disabled":true,"rental_uris":{"android":"levelo://app?vid=4ddde26d-4389-441d-b1d6-3bc0658787f5","ios":"levelo://app?vid=4ddde26d-4389-441d-b1d6-3bc0658787f5"},"vehicle_type_id":"4","last_reported":1748362394,"current_range_meters":2800,"station_id":"cpo3532slgdg3j2ikp40","pricing_plan_id":"cebpf4jnsgd1na2vs0mg"},{"bike_id":"ab485184-dee6-4278-8ed8-78cb97c31dd5","system_id":"levelo_inurba_marseille","lat":43.2921,"lon":5.35824,"is_reserved":false,"is_disabled":false,"rental_uris":{"android":"levelo://app?vid=ab485184-dee6-4278-8ed8-78cb97c31dd5","ios":"levelo://app?vid=ab485184-dee6-4278-8ed8-78cb97c31dd5"},"vehicle_type_id":"4","last_reported":1748362394,"current_range_meters":3200,"station_id":"","pricing_plan_id":"cebpf4jnsgd1na2vs0mg"},{"bike_id":"26db11fe-31f1-43c3-a2ea-dfedbe6fb5d4","system_id":"levelo_inurba_marseille","lat":43.27909,"lon":5.39589,"is_reserved":false,"is_disabled":false,"rental_uris":{"android":"levelo://app?vid=26db11fe-31f1-43c3-a2ea-dfedbe6fb5d4","ios":"levelo://app?vid=26db11fe-31f1-43c3-a2ea-dfedbe6fb5d4"},"vehicle_type_id":"4","last_reported":1748362394,"current_range_meters":3200,"station_id":"ce4bhf92rcd13ifvqf40","pricing_plan_id":"cebpf4jnsgd1na2vs0mg"},{"bike_id":"15adbd26-11d4-4dec-86ff-a39d2b66cfb4","system_id":"levelo_inurba_marseille","lat":43.3112,"lon":5.37746,"is_reserved":false,"is_disabled":false,"rental_uris":{"android":"levelo://app?vid=15adbd26-11d4-4dec-86ff-a39d2b66cfb4","ios":"levelo://app?vid=15adbd26-11d4-4dec-86ff-a39d2b66cfb4"},"vehicle_type_id":"4","last_reported":1748362394,"current_range_meters":3200,"station_id":"ce4bgt92rcd13ifvqcg0","pricing_plan_id":"cebpf4jnsgd1na2vs0mg"},{"bike_id":"23dc382c-60a8-4a09-8309-1755523a5986","system_id":"levelo_inurba_marseille","lat":43.28456,"lon":5.35879,"is_reserved":false,"is_disabled":false,"rental_uris":{"android":"levelo://app?vid=23dc382c-60a8-4a09-8309-1755523a5986","ios":"levelo://app?vid=23dc382c-60a8-4a09-8309-1755523a5986"},"vehicle_type_id":"4","last_reported":1748362394,"current_range_meters":3200,"station_id":"ce4bhah2rcd13ifvqei0","pricing_plan_id":"cebpf4jnsgd1na2vs0mg"},{"bike_id":"c67f6e07-09e9-4a9b-84ce-e2fd4a6a4005","system_id":"levelo_inurba_marseille","lat":43.27383,"lon":5.36243,"is_reserved":false,"is_disabled":false,"rental_uris":{"android":"levelo://app?vid=c67f6e07-09e9-4a9b-84ce-e2fd4a6a4005","ios":"levelo://app?vid=c67f6e07-09e9-4a9b-84ce-e2fd4a6a4005"},"vehicle_type_id":"4","last_reported":1748362394,"current_range_meters":3200,"station_id":"ce4bhbh2rcd13ifvqeo0","pricing_plan_id":"cebpf4jnsgd1na2vs0mg"},{"bike_id":"e9496718-b841-4999-823d-28c5bee5d6f1","system_id":"levelo_inurba_marseille","lat":43.26556,"lon":5.3897,"is_reserved":false,"is_disabled":false,"rental_uris":{"android":"levelo://app?vid=e9496718-b841-4999-823d-28c5bee5d6f1","ios":"levelo://app?vid=e9496718-b841-4999-823d-28c5bee5d6f1"},"vehicle_type_id":"4","last_reported":1748362394,"current_range_meters":3600,"station_id":"ce4bhe12rcd13ifvqf30","pricing_plan_id":"cebpf4jnsgd1na2vs0mg"},{"bike_id":"8c85cfdc-7f8a-4ae9-9fdc-650d0f7e872f","system_id":"levelo_inurba_marseille","lat":43.27835,"lon":5.3921,"is_reserved":false,"is_disabled":false,"rental_uris":{"android":"levelo://app?vid=8c85cfdc-7f8a-4ae9-9fdc-650d0f7e872f","ios":"levelo://app?vid=8c85cfdc-7f8a-4ae9-9fdc-650d0f7e872f"},"vehicle_type_id":"4","last_reported":1748362394,"current_range_meters":3600,"station_id":"ce4bhjp2rcd13ifvqga0","pricing_plan_id":"cebpf4jnsgd1na2vs0mg"},{"bike_id":"4ba6a2fc-1d0b-4aa6-8fa5-49331b1e75f0","system_id":"levelo_inurba_marseille","lat":43.23192,"lon":5.39978,"is_reserved":false,"is_disabled":false,"rental_uris":{"android":"levelo://app?vid=4ba6a2fc-1d0b-4aa6-8fa5-49331b1e75f0","ios":"levelo://app?vid=4ba6a2fc-1d0b-4aa6-8fa5-49331b1e75f0"},"vehicle_type_id":"4","last_reported":1748362394,"current_range_meters":3600,"station_id":"ce4bhn12rcd13ifvqgqg","pricing_plan_id":"cebpf4jnsgd1na2vs0mg"},{"bike_id":"3bc9f18b-01be-4b78-b10d-2678612ff346","system_id":"levelo_inurba_marseille","lat":43.28615,"lon":5.35101,"is_reserved":false,"is_disabled":false,"rental_uris":{"android":"levelo://app?vid=3bc9f18b-01be-4b78-b10d-2678612ff346","ios":"levelo://app?vid=3bc9f18b-01be-4b78-b10d-2678612ff346"},"vehicle_type_id":"4","last_reported":1748362394,"current_range_meters":4000,"station_id":"ce4bhch2rcd13ifvqeug","pricing_plan_id":"cebpf4jnsgd1na2vs0mg"},{"bike_id":"ab644b5f-84a7-41c4-b2e0-e47a7cff018d","system_id":"levelo_inurba_marseille","lat":43.26544,"lon":5.37308,"is_reserved":false,"is_disabled":false,"rental_uris":{"android":"levelo://app?vid=ab644b5f-84a7-41c4-b2e0-e47a7cff018d","ios":"levelo://app?vid=ab644b5f-84a7-41c4-b2e0-e47a7cff018d"},"vehicle_type_id":"4","last_reported":1748362394,"current_range_meters":4000,"station_id":"ce4bhg12rcd13ifvqf70","pricing_plan_id":"cebpf4jnsgd1na2vs0mg"},{"bike_id":"6d4cf098-b653-485d-9c48-44c23dbbd669","system_id":"levelo_inurba_marseille","lat":43.30873,"lon":5.37201,"is_reserved":false,"is_disabled":false,"rental_uris":{"android":"levelo://app?vid=6d4cf098-b653-485d-9c48-44c23dbbd669","ios":"levelo://app?vid=6d4cf098-b653-485d-9c48-44c23dbbd669"},"vehicle_type_id":"4","last_reported":1748362394,"current_range_meters":3600,"station_id":"ce4bguh2rcd13ifvqckg","pricing_plan_id":"cebpf4jnsgd1na2vs0mg"},{"bike_id":"ef6c0baf-9233-4b0d-a85b-521e9da5369f","system_id":"levelo_inurba_marseille","lat":43.27618,"lon":5.36106,"is_reserved":false,"is_disabled":false,"rental_uris":{"android":"levelo://app?vid=ef6c0baf-9233-4b0d-a85b-521e9da5369f","ios":"levelo://app?vid=ef6c0baf-9233-4b0d-a85b-521e9da5369f"},"vehicle_type_id":"4","last_reported":1748362394,"current_range_meters":4000,"station_id":"ce4bgj92rcd13ifvqbe0","pricing_plan_id":"cebpf4jnsgd1na2vs0mg"},{"bike_id":"b8712020-9364-4ae8-890b-0a00e33b1258","system_id":"levelo_inurba_marseille","lat":43.23152,"lon":5.43729,"is_reserved":false,"is_disabled":false,"rental_uris":{"android":"levelo://app?vid=b8712020-9364-4ae8-890b-0a00e33b1258","ios":"levelo://app?vid=b8712020-9364-4ae8-890b-0a00e33b1258"},"vehicle_type_id":"4","last_reported":1748362394,"current_range_meters":4000,"station_id":"ce4bhmp2rcd13ifvqgog","pricing_plan_id":"cebpf4jnsgd1na2vs0mg"},{"bike_id":"94be9505-ca68-4181-900e-53e7c33fd1a9","system_id":"levelo_inurba_marseille","lat":43.29982,"lon":5.38448,"is_reserved":false,"is_disabled":false,"rental_uris":{"android":"levelo://app?vid=94be9505-ca68-4181-900e-53e7c33fd1a9","ios":"levelo://app?vid=94be9505-ca68-4181-900e-53e7c33fd1a9"},"vehicle_type_id":"4","last_reported":1748362394,"current_range_meters":4000,"station_id":"ce4bgj92rcd13ifvqbd0","pricing_plan_id":"cebpf4jnsgd1na2vs0mg"},{"bike_id":"3cb73767-880c-4a59-884d-f59bc33ab77a","system_id":"levelo_inurba_marseille","lat":43.26565,"lon":5.40324,"is_reserved":false,"is_disabled":false,"rental_uris":{"android":"levelo://app?vid=3cb73767-880c-4a59-884d-f59bc33ab77a","ios":"levelo://app?vid=3cb73767-880c-4a59-884d-f59bc33ab77a"},"vehicle_type_id":"4","last_reported":1748362394,"current_range_meters":4000,"station_id":"","pricing_plan_id":"cebpf4jnsgd1na2vs0mg"},{"bike_id":"4125bb0a-e1f9-470a-a448-a4815fed89a9","system_id":"levelo_inurba_marseille","lat":43.29914,"lon":5.37475,"is_reserved":false,"is_disabled":false,"rental_uris":{"android":"levelo://app?vid=4125bb0a-e1f9-470a-a448-a4815fed89a9","ios":"levelo://app?vid=4125bb0a-e1f9-470a-a448-a4815fed89a9"},"vehicle_type_id":"4","last_reported":1748362394,"current_range_meters":4000,"station_id":"ce4bgjh2rcd13ifvqbg0","pricing_plan_id":"cebpf4jnsgd1na2vs0mg"},{"bike_id":"2abe0ceb-be8e-471e-b5ff-76be6ee12e3f","system_id":"levelo_inurba_marseille","lat":43.3233,"lon":5.40627,"is_reserved":false,"is_disabled":false,"rental_uris":{"android":"levelo://app?vid=2abe0ceb-be8e-471e-b5ff-76be6ee12e3f","ios":"levelo://app?vid=2abe0ceb-be8e-471e-b5ff-76be6ee12e3f"},"vehicle_type_id":"4","last_reported":1748362394,"current_range_meters":4000,"station_id":"ce4bhq92rcd13ifvqhjg","pricing_plan_id":"cebpf4jnsgd1na2vs0mg"},{"bike_id":"b98bff4a-6005-455b-92f8-11c04b72672f","system_id":"levelo_inurba_marseille","lat":43.27906,"lon":5.38026,"is_reserved":false,"is_disabled":false,"rental_uris":{"android":"levelo://app?vid=b98bff4a-6005-455b-92f8-11c04b72672f","ios":"levelo://app?vid=b98bff4a-6005-455b-92f8-11c04b72672f"},"vehicle_type_id":"4","last_reported":1748362394,"current_range_meters":4400,"station_id":"ce4bhf92rcd13ifvqf50","pricing_plan_id":"cebpf4jnsgd1na2vs0mg"},{"bike_id":"143ff7fe-4edb-40fb-a8fe-7f80228a1600","system_id":"levelo_inurba_marseille","lat":43.29572,"lon":5.39983,"is_reserved":false,"is_disabled":false,"rental_uris":{"android":"levelo://app?vid=143ff7fe-4edb-40fb-a8fe-7f80228a1600","ios":"levelo://app?vid=143ff7fe-4edb-40fb-a8fe-7f80228a1600"},"vehicle_type_id":"4","last_reported":1748362394,"current_range_meters":4400,"station_id":"ce4bh312rcd13ifvqdj0","pricing_plan_id":"cebpf4jnsgd1na2vs0mg"},{"bike_id":"716ad644-423b-4158-8126-3d6f68cb40f1","system_id":"levelo_inurba_marseille","lat":43.3093,"lon":5.40139,"is_reserved":false,"is_disabled":false,"rental_uris":{"android":"levelo://app?vid=716ad644-423b-4158-8126-3d6f68cb40f1","ios":"levelo://app?vid=716ad644-423b-4158-8126-3d6f68cb40f1"},"vehicle_type_id":"4","last_reported":1748362394,"current_range_meters":4400,"station_id":"ce4bgvp2rcd13ifvqct0","pricing_plan_id":"cebpf4jnsgd1na2vs0mg"},{"bike_id":"fc56555b-396d-4667-b896-0ad86036e39e","system_id":"levelo_inurba_marseille","lat":43.25905,"lon":5.38039,"is_reserved":false,"is_disabled":false,"rental_uris":{"android":"levelo://app?vid=fc56555b-396d-4667-b896-0ad86036e39e","ios":"levelo://app?vid=fc56555b-396d-4667-b896-0ad86036e39e"},"vehicle_type_id":"4","last_reported":1748362394,"current_range_meters":4800,"station_id":"","pricing_plan_id":"cebpf4jnsgd1na2vs0mg"},{"bike_id":"1584caaa-5b22-44be-8be1-a7e4d497728b","system_id":"levelo_inurba_marseille","lat":43.29776,"lon":5.39338,"is_reserved":false,"is_disabled":false,"rental_uris":{"android":"levelo://app?vid=1584caaa-5b22-44be-8be1-a7e4d497728b","ios":"levelo://app?vid=1584caaa-5b22-44be-8be1-a7e4d497728b"},"vehicle_type_id":"4","last_reported":1748362394,"current_range_meters":4800,"station_id":"chh1huq6cuj3fo74tm60","pricing_plan_id":"cebpf4jnsgd1na2vs0mg"},{"bike_id":"b5b826e1-af52-41ff-93d9-cabf23dba1c8","system_id":"levelo_inurba_marseille","lat":43.27946,"lon":5.41037,"is_reserved":false,"is_disabled":false,"rental_uris":{"android":"levelo://app?vid=b5b826e1-af52-41ff-93d9-cabf23dba1c8","ios":"levelo://app?vid=b5b826e1-af52-41ff-93d9-cabf23dba1c8"},"vehicle_type_id":"4","last_reported":1748362394,"current_range_meters":4800,"station_id":"ce4bhnp2rcd13ifvqh0g","pricing_plan_id":"cebpf4jnsgd1na2vs0mg"},{"bike_id":"6ce29694-116b-4dc9-9aea-fd0808560a1d","system_id":"levelo_inurba_marseille","lat":43.28669,"lon":5.36344,"is_reserved":false,"is_disabled":false,"rental_uris":{"android":"levelo://app?vid=6ce29694-116b-4dc9-9aea-fd0808560a1d","ios":"levelo://app?vid=6ce29694-116b-4dc9-9aea-fd0808560a1d"},"vehicle_type_id":"4","last_reported":1748362394,"current_range_meters":4800,"station_id":"ce4bhah2rcd13ifvqej0","pricing_plan_id":"cebpf4jnsgd1na2vs0mg"},{"bike_id":"a4aef2b9-b7e8-4e2d-8340-592d28bc6c85","system_id":"levelo_inurba_marseille","lat":43.337654,"lon":5.37434,"is_reserved":false,"is_disabled":false,"rental_uris":{"android":"levelo://app?vid=a4aef2b9-b7e8-4e2d-8340-592d28bc6c85","ios":"levelo://app?vid=a4aef2b9-b7e8-4e2d-8340-592d28bc6c85"},"vehicle_type_id":"4","last_reported":1748362394,"current_range_meters":4800,"station_id":"","pricing_plan_id":"cebpf4jnsgd1na2vs0mg"},{"bike_id":"ce9863d4-102e-416a-b7a5-58fd5b7b5cd5","system_id":"levelo_inurba_marseille","lat":43.2655,"lon":5.37288,"is_reserved":false,"is_disabled":false,"rental_uris":{"android":"levelo://app?vid=ce9863d4-102e-416a-b7a5-58fd5b7b5cd5","ios":"levelo://app?vid=ce9863d4-102e-416a-b7a5-58fd5b7b5cd5"},"vehicle_type_id":"4","last_reported":1748362394,"current_range_meters":4800,"station_id":"ce4bhg12rcd13ifvqf70","pricing_plan_id":"cebpf4jnsgd1na2vs0mg"},{"bike_id":"a3fdfab4-cb8b-4639-a8f9-ac99f398c758","system_id":"levelo_inurba_marseille","lat":43.24171,"lon":5.36395,"is_reserved":false,"is_disabled":false,"rental_uris":{"android":"levelo://app?vid=a3fdfab4-cb8b-4639-a8f9-ac99f398c758","ios":"levelo://app?vid=a3fdfab4-cb8b-4639-a8f9-ac99f398c758"},"vehicle_type_id":"4","last_reported":1748362394,"current_range_meters":4800,"station_id":"cpo36qri1sfpv3e86is0","pricing_plan_id":"cebpf4jnsgd1na2vs0mg"},{"bike_id":"c593e556-9b1d-4e4e-a60e-d1f57c2463ed","system_id":"levelo_inurba_marseille","lat":43.29571,"lon":5.39991,"is_reserved":false,"is_disabled":false,"rental_uris":{"android":"levelo://app?vid=c593e556-9b1d-4e4e-a60e-d1f57c2463ed","ios":"levelo://app?vid=c593e556-9b1d-4e4e-a60e-d1f57c2463ed"},"vehicle_type_id":"4","last_reported":1748362394,"current_range_meters":4800,"station_id":"ce4bh312rcd13ifvqdj0","pricing_plan_id":"cebpf4jnsgd1na2vs0mg"},{"bike_id":"842ee2d1-1e55-4b70-b3cf-5fd23f7586f4","system_id":"levelo_inurba_marseille","lat":43.28572,"lon":5.39505,"is_reserved":false,"is_disabled":false,"rental_uris":{"android":"levelo://app?vid=842ee2d1-1e55-4b70-b3cf-5fd23f7586f4","ios":"levelo://app?vid=842ee2d1-1e55-4b70-b3cf-5fd23f7586f4"},"vehicle_type_id":"4","last_reported":1748362394,"current_range_meters":4800,"station_id":"ce4bh292rcd13ifvqdg0","pricing_plan_id":"cebpf4jnsgd1na2vs0mg"},{"bike_id":"c154c4d1-bc69-4f9e-af99-cb6fe790e769","system_id":"levelo_inurba_marseille","lat":43.29174,"lon":5.37151,"is_reserved":false,"is_disabled":false,"rental_uris":{"android":"levelo://app?vid=c154c4d1-bc69-4f9e-af99-cb6fe790e769","ios":"levelo://app?vid=c154c4d1-bc69-4f9e-af99-cb6fe790e769"},"vehicle_type_id":"4","last_reported":1748362394,"current_range_meters":5600,"station_id":"ce4bha92rcd13ifvqeh0","pricing_plan_id":"cebpf4jnsgd1na2vs0mg"},{"bike_id":"b744080c-dd77-486d-9609-00c9cf60c1ad","system_id":"levelo_inurba_marseille","lat":43.236227,"lon":5.391953,"is_reserved":false,"is_disabled":false,"rental_uris":{"android":"levelo://app?vid=b744080c-dd77-486d-9609-00c9cf60c1ad","ios":"levelo://app?vid=b744080c-dd77-486d-9609-00c9cf60c1ad"},"vehicle_type_id":"4","last_reported":1748362394,"current_range_meters":5600,"station_id":"","pricing_plan_id":"cebpf4jnsgd1na2vs0mg"},{"bike_id":"ad0fd1aa-c804-438c-9251-a5058f125ac5","system_id":"levelo_inurba_marseille","lat":43.28157,"lon":5.4266,"is_reserved":false,"is_disabled":false,"rental_uris":{"android":"levelo://app?vid=ad0fd1aa-c804-438c-9251-a5058f125ac5","ios":"levelo://app?vid=ad0fd1aa-c804-438c-9251-a5058f125ac5"},"vehicle_type_id":"4","last_reported":1748362394,"current_range_meters":5600,"station_id":"ce4bhnh2rcd13ifvqgug","pricing_plan_id":"cebpf4jnsgd1na2vs0mg"},{"bike_id":"b62a4b91-b2a1-49a9-807e-34343f9d2423","system_id":"levelo_inurba_marseille","lat":43.28153,"lon":5.4264,"is_reserved":false,"is_disabled":false,"rental_uris":{"android":"levelo://app?vid=b62a4b91-b2a1-49a9-807e-34343f9d2423","ios":"levelo://app?vid=b62a4b91-b2a1-49a9-807e-34343f9d2423"},"vehicle_type_id":"4","last_reported":1748362394,"current_range_meters":6000,"station_id":"ce4bhnh2rcd13ifvqgug","pricing_plan_id":"cebpf4jnsgd1na2vs0mg"},{"bike_id":"7ed06109-81c7-42c3-8d8c-bbc2b8bb0589","system_id":"levelo_inurba_marseille","lat":43.3032,"lon":5.40444,"is_reserved":false,"is_disabled":false,"rental_uris":{"android":"levelo://app?vid=7ed06109-81c7-42c3-8d8c-bbc2b8bb0589","ios":"levelo://app?vid=7ed06109-81c7-42c3-8d8c-bbc2b8bb0589"},"vehicle_type_id":"4","last_reported":1748362394,"current_range_meters":6000,"station_id":"ce4bh012rcd13ifvqd10","pricing_plan_id":"cebpf4jnsgd1na2vs0mg"},{"bike_id":"2b73315a-ee87-4d8e-8a09-44cb343862e1","system_id":"levelo_inurba_marseille","lat":43.27984,"lon":5.41659,"is_reserved":false,"is_disabled":false,"rental_uris":{"android":"levelo://app?vid=2b73315a-ee87-4d8e-8a09-44cb343862e1","ios":"levelo://app?vid=2b73315a-ee87-4d8e-8a09-44cb343862e1"},"vehicle_type_id":"4","last_reported":1748362394,"current_range_meters":6000,"station_id":"ce4bho12rcd13ifvqh1g","pricing_plan_id":"cebpf4jnsgd1na2vs0mg"},{"bike_id":"c429b1ec-6814-46a9-92da-dfd1c375fcb9","system_id":"levelo_inurba_marseille","lat":43.28614,"lon":5.35104,"is_reserved":false,"is_disabled":false,"rental_uris":{"android":"levelo://app?vid=c429b1ec-6814-46a9-92da-dfd1c375fcb9","ios":"levelo://app?vid=c429b1ec-6814-46a9-92da-dfd1c375fcb9"},"vehicle_type_id":"4","last_reported":1748362394,"current_range_meters":6000,"station_id":"ce4bhch2rcd13ifvqeug","pricing_plan_id":"cebpf4jnsgd1na2vs0mg"},{"bike_id":"3fbd40f0-543e-4d92-932c-ed5cd890f817","system_id":"levelo_inurba_marseille","lat":43.30595,"lon":5.39359,"is_reserved":false,"is_disabled":false,"rental_uris":{"android":"levelo://app?vid=3fbd40f0-543e-4d92-932c-ed5cd890f817","ios":"levelo://app?vid=3fbd40f0-543e-4d92-932c-ed5cd890f817"},"vehicle_type_id":"4","last_reported":1748362394,"current_range_meters":6000,"station_id":"ce4bh0p2rcd13ifvqd80","pricing_plan_id":"cebpf4jnsgd1na2vs0mg"},{"bike_id":"fd908bdf-5d81-4122-b313-442572d15912","system_id":"levelo_inurba_marseille","lat":43.29523,"lon":5.394,"is_reserved":false,"is_disabled":true,"rental_uris":{"android":"levelo://app?vid=fd908bdf-5d81-4122-b313-442572d15912","ios":"levelo://app?vid=fd908bdf-5d81-4122-b313-442572d15912"},"vehicle_type_id":"4","last_reported":1748362394,"current_range_meters":6400,"station_id":"ce4bh292rcd13ifvqdf0","pricing_plan_id":"cebpf4jnsgd1na2vs0mg"},{"bike_id":"e90802e6-2225-4aa4-a1e0-93b6c1435e83","system_id":"levelo_inurba_marseille","lat":43.27179,"lon":5.40994,"is_reserved":false,"is_disabled":false,"rental_uris":{"android":"levelo://app?vid=e90802e6-2225-4aa4-a1e0-93b6c1435e83","ios":"levelo://app?vid=e90802e6-2225-4aa4-a1e0-93b6c1435e83"},"vehicle_type_id":"4","last_reported":1748362394,"current_range_meters":6000,"station_id":"ce4bhl12rcd13ifvqgf0","pricing_plan_id":"cebpf4jnsgd1na2vs0mg"},{"bike_id":"981da2eb-6178-416f-9149-d1d28cffbc25","system_id":"levelo_inurba_marseille","lat":43.30804,"lon":5.43527,"is_reserved":false,"is_disabled":false,"rental_uris":{"android":"levelo://app?vid=981da2eb-6178-416f-9149-d1d28cffbc25","ios":"levelo://app?vid=981da2eb-6178-416f-9149-d1d28cffbc25"},"vehicle_type_id":"4","last_reported":1748362394,"current_range_meters":6400,"station_id":"ce4bhph2rcd13ifvqheg","pricing_plan_id":"cebpf4jnsgd1na2vs0mg"},{"bike_id":"4fad57b4-d60f-4670-ad38-11cf5d967979","system_id":"levelo_inurba_marseille","lat":43.30908,"lon":5.36839,"is_reserved":false,"is_disabled":false,"rental_uris":{"android":"levelo://app?vid=4fad57b4-d60f-4670-ad38-11cf5d967979","ios":"levelo://app?vid=4fad57b4-d60f-4670-ad38-11cf5d967979"},"vehicle_type_id":"4","last_reported":1748362394,"current_range_meters":6400,"station_id":"ce4bgn92rcd13ifvqbvg","pricing_plan_id":"cebpf4jnsgd1na2vs0mg"},{"bike_id":"15895a4c-6504-4c01-aecb-996f77f1a3b5","system_id":"levelo_inurba_marseille","lat":43.32085,"lon":5.36758,"is_reserved":false,"is_disabled":false,"rental_uris":{"android":"levelo://app?vid=15895a4c-6504-4c01-aecb-996f77f1a3b5","ios":"levelo://app?vid=15895a4c-6504-4c01-aecb-996f77f1a3b5"},"vehicle_type_id":"4","last_reported":1748362394,"current_range_meters":6400,"station_id":"ce4bhrh2rcd13ifvqhug","pricing_plan_id":"cebpf4jnsgd1na2vs0mg"},{"bike_id":"e3205548-8636-4637-98e2-6e25e459dd29","system_id":"levelo_inurba_marseille","lat":43.28415,"lon":5.34989,"is_reserved":false,"is_disabled":false,"rental_uris":{"android":"levelo://app?vid=e3205548-8636-4637-98e2-6e25e459dd29","ios":"levelo://app?vid=e3205548-8636-4637-98e2-6e25e459dd29"},"vehicle_type_id":"4","last_reported":1748362394,"current_range_meters":6400,"station_id":"ce4bhbh2rcd13ifvqepg","pricing_plan_id":"cebpf4jnsgd1na2vs0mg"},{"bike_id":"747bb1a9-7697-489f-94b0-203d6313bffd","system_id":"levelo_inurba_marseille","lat":43.27379,"lon":5.36248,"is_reserved":false,"is_disabled":false,"rental_uris":{"android":"levelo://app?vid=747bb1a9-7697-489f-94b0-203d6313bffd","ios":"levelo://app?vid=747bb1a9-7697-489f-94b0-203d6313bffd"},"vehicle_type_id":"4","last_reported":1748362394,"current_range_meters":6800,"station_id":"ce4bhbh2rcd13ifvqeo0","pricing_plan_id":"cebpf4jnsgd1na2vs0mg"},{"bike_id":"cfe8f52f-0ff6-4ee7-9606-a4f82917d5b4","system_id":"levelo_inurba_marseille","lat":43.23067,"lon":5.355,"is_reserved":false,"is_disabled":false,"rental_uris":{"android":"levelo://app?vid=cfe8f52f-0ff6-4ee7-9606-a4f82917d5b4","ios":"levelo://app?vid=cfe8f52f-0ff6-4ee7-9606-a4f82917d5b4"},"vehicle_type_id":"4","last_reported":1748362394,"current_range_meters":6800,"station_id":"cpo3342slgdg3j2ifvpg","pricing_plan_id":"cebpf4jnsgd1na2vs0mg"},{"bike_id":"af23ef4b-2949-4e41-89c6-0f7222f32d6b","system_id":"levelo_inurba_marseille","lat":43.286631,"lon":5.399762,"is_reserved":false,"is_disabled":false,"rental_uris":{"android":"levelo://app?vid=af23ef4b-2949-4e41-89c6-0f7222f32d6b","ios":"levelo://app?vid=af23ef4b-2949-4e41-89c6-0f7222f32d6b"},"vehicle_type_id":"4","last_reported":1748362394,"current_range_meters":6800,"station_id":"ce4bho92rcd13ifvqh3g","pricing_plan_id":"cebpf4jnsgd1na2vs0mg"},{"bike_id":"e2ce3562-cae6-4b38-a332-43fe4005796a","system_id":"levelo_inurba_marseille","lat":43.29869,"lon":5.38907,"is_reserved":false,"is_disabled":false,"rental_uris":{"android":"levelo://app?vid=e2ce3562-cae6-4b38-a332-43fe4005796a","ios":"levelo://app?vid=e2ce3562-cae6-4b38-a332-43fe4005796a"},"vehicle_type_id":"4","last_reported":1748362394,"current_range_meters":6800,"station_id":"ce4bh392rcd13ifvqdl0","pricing_plan_id":"cebpf4jnsgd1na2vs0mg"},{"bike_id":"420ae587-5234-4dfa-9367-77443c0f5a58","system_id":"levelo_inurba_marseille","lat":43.25868,"lon":5.39895,"is_reserved":false,"is_disabled":false,"rental_uris":{"android":"levelo://app?vid=420ae587-5234-4dfa-9367-77443c0f5a58","ios":"levelo://app?vid=420ae587-5234-4dfa-9367-77443c0f5a58"},"vehicle_type_id":"4","last_reported":1748362394,"current_range_meters":6800,"station_id":"ce4bhl92rcd13ifvqghg","pricing_plan_id":"cebpf4jnsgd1na2vs0mg"},{"bike_id":"2de37d96-419a-4a3c-be30-4ec29a90e090","system_id":"levelo_inurba_marseille","lat":43.28467,"lon":5.39181,"is_reserved":false,"is_disabled":false,"rental_uris":{"android":"levelo://app?vid=2de37d96-419a-4a3c-be30-4ec29a90e090","ios":"levelo://app?vid=2de37d96-419a-4a3c-be30-4ec29a90e090"},"vehicle_type_id":"4","last_reported":1748362394,"current_range_meters":6800,"station_id":"ce4bhoh2rcd13ifvqh5g","pricing_plan_id":"cebpf4jnsgd1na2vs0mg"},{"bike_id":"78cd7be7-d06f-4071-bd6d-f6b192e0a84d","system_id":"levelo_inurba_marseille","lat":43.26554,"lon":5.40303,"is_reserved":false,"is_disabled":false,"rental_uris":{"android":"levelo://app?vid=78cd7be7-d06f-4071-bd6d-f6b192e0a84d","ios":"levelo://app?vid=78cd7be7-d06f-4071-bd6d-f6b192e0a84d"},"vehicle_type_id":"4","last_reported":1748362394,"current_range_meters":7200,"station_id":"","pricing_plan_id":"cebpf4jnsgd1na2vs0mg"},{"bike_id":"b51f1e55-2ff5-45c7-bda2-6e4fe333ad5e","system_id":"levelo_inurba_marseille","lat":43.28152,"lon":5.4266,"is_reserved":false,"is_disabled":false,"rental_uris":{"android":"levelo://app?vid=b51f1e55-2ff5-45c7-bda2-6e4fe333ad5e","ios":"levelo://app?vid=b51f1e55-2ff5-45c7-bda2-6e4fe333ad5e"},"vehicle_type_id":"4","last_reported":1748362394,"current_range_meters":7200,"station_id":"ce4bhnh2rcd13ifvqgug","pricing_plan_id":"cebpf4jnsgd1na2vs0mg"},{"bike_id":"f11c08b1-9695-4583-bac5-1d27ea7cc64d","system_id":"levelo_inurba_marseille","lat":43.29007,"lon":5.35619,"is_reserved":false,"is_disabled":true,"rental_uris":{"android":"levelo://app?vid=f11c08b1-9695-4583-bac5-1d27ea7cc64d","ios":"levelo://app?vid=f11c08b1-9695-4583-bac5-1d27ea7cc64d"},"vehicle_type_id":"4","last_reported":1748362394,"current_range_meters":7200,"station_id":"ce4bhb92rcd13ifvqen0","pricing_plan_id":"cebpf4jnsgd1na2vs0mg"},{"bike_id":"d36aaecb-e9c9-4d1e-b038-8a4ef0653692","system_id":"levelo_inurba_marseille","lat":43.254969,"lon":5.37649,"is_reserved":false,"is_disabled":false,"rental_uris":{"android":"levelo://app?vid=d36aaecb-e9c9-4d1e-b038-8a4ef0653692","ios":"levelo://app?vid=d36aaecb-e9c9-4d1e-b038-8a4ef0653692"},"vehicle_type_id":"4","last_reported":1748362394,"current_range_meters":7200,"station_id":"","pricing_plan_id":"cebpf4jnsgd1na2vs0mg"},{"bike_id":"4de9b7e5-eeb0-4157-a33c-ea0bec568ecd","system_id":"levelo_inurba_marseille","lat":43.26206,"lon":5.37926,"is_reserved":false,"is_disabled":false,"rental_uris":{"android":"levelo://app?vid=4de9b7e5-eeb0-4157-a33c-ea0bec568ecd","ios":"levelo://app?vid=4de9b7e5-eeb0-4157-a33c-ea0bec568ecd"},"vehicle_type_id":"4","last_reported":1748362394,"current_range_meters":7200,"station_id":"ce4bhjp2rcd13ifvqg90","pricing_plan_id":"cebpf4jnsgd1na2vs0mg"},{"bike_id":"c0b95967-3024-4cd0-a1c0-47300948b812","system_id":"levelo_inurba_marseille","lat":43.29003,"lon":5.35616,"is_reserved":false,"is_disabled":false,"rental_uris":{"android":"levelo://app?vid=c0b95967-3024-4cd0-a1c0-47300948b812","ios":"levelo://app?vid=c0b95967-3024-4cd0-a1c0-47300948b812"},"vehicle_type_id":"4","last_reported":1748362394,"current_range_meters":7200,"station_id":"ce4bhb92rcd13ifvqen0","pricing_plan_id":"cebpf4jnsgd1na2vs0mg"},{"bike_id":"f95a359a-8451-4d2d-af52-d24eca024b04","system_id":"levelo_inurba_marseille","lat":43.2792,"lon":5.395738,"is_reserved":false,"is_disabled":false,"rental_uris":{"android":"levelo://app?vid=f95a359a-8451-4d2d-af52-d24eca024b04","ios":"levelo://app?vid=f95a359a-8451-4d2d-af52-d24eca024b04"},"vehicle_type_id":"4","last_reported":1748362394,"current_range_meters":7200,"station_id":"","pricing_plan_id":"cebpf4jnsgd1na2vs0mg"},{"bike_id":"3013a044-5547-48e4-904b-31903f2973ef","system_id":"levelo_inurba_marseille","lat":43.2987,"lon":5.38902,"is_reserved":false,"is_disabled":false,"rental_uris":{"android":"levelo://app?vid=3013a044-5547-48e4-904b-31903f2973ef","ios":"levelo://app?vid=3013a044-5547-48e4-904b-31903f2973ef"},"vehicle_type_id":"4","last_reported":1748362394,"current_range_meters":7200,"station_id":"ce4bh392rcd13ifvqdl0","pricing_plan_id":"cebpf4jnsgd1na2vs0mg"},{"bike_id":"abca1eed-3c26-4db4-9cdf-301bc0a4d257","system_id":"levelo_inurba_marseille","lat":43.28431,"lon":5.39219,"is_reserved":false,"is_disabled":false,"rental_uris":{"android":"levelo://app?vid=abca1eed-3c26-4db4-9cdf-301bc0a4d257","ios":"levelo://app?vid=abca1eed-3c26-4db4-9cdf-301bc0a4d257"},"vehicle_type_id":"4","last_reported":1748362394,"current_range_meters":8000,"station_id":"ce4bhoh2rcd13ifvqh5g","pricing_plan_id":"cebpf4jnsgd1na2vs0mg"},{"bike_id":"fa1a2c57-910c-4e4f-9ef0-323c31f7666b","system_id":"levelo_inurba_marseille","lat":43.26553,"lon":5.37288,"is_reserved":false,"is_disabled":false,"rental_uris":{"android":"levelo://app?vid=fa1a2c57-910c-4e4f-9ef0-323c31f7666b","ios":"levelo://app?vid=fa1a2c57-910c-4e4f-9ef0-323c31f7666b"},"vehicle_type_id":"4","last_reported":1748362394,"current_range_meters":8000,"station_id":"ce4bhg12rcd13ifvqf70","pricing_plan_id":"cebpf4jnsgd1na2vs0mg"},{"bike_id":"6c785b93-5254-4011-a3ab-4a06e47610b1","system_id":"levelo_inurba_marseille","lat":43.30661,"lon":5.40058,"is_reserved":false,"is_disabled":false,"rental_uris":{"android":"levelo://app?vid=6c785b93-5254-4011-a3ab-4a06e47610b1","ios":"levelo://app?vid=6c785b93-5254-4011-a3ab-4a06e47610b1"},"vehicle_type_id":"4","last_reported":1748362394,"current_range_meters":8000,"station_id":"ce4bh112rcd13ifvqda0","pricing_plan_id":"cebpf4jnsgd1na2vs0mg"},{"bike_id":"4a5459c3-b678-43f9-9d04-347efd4be388","system_id":"levelo_inurba_marseille","lat":43.25491,"lon":5.37648,"is_reserved":false,"is_disabled":false,"rental_uris":{"android":"levelo://app?vid=4a5459c3-b678-43f9-9d04-347efd4be388","ios":"levelo://app?vid=4a5459c3-b678-43f9-9d04-347efd4be388"},"vehicle_type_id":"4","last_reported":1748362394,"current_range_meters":8000,"station_id":"ce4bhh12rcd13ifvqff0","pricing_plan_id":"cebpf4jnsgd1na2vs0mg"},{"bike_id":"92c20333-f1be-4048-8f1a-30fdeff2a990","system_id":"levelo_inurba_marseille","lat":43.330278,"lon":5.390398,"is_reserved":false,"is_disabled":false,"rental_uris":{"android":"levelo://app?vid=92c20333-f1be-4048-8f1a-30fdeff2a990","ios":"levelo://app?vid=92c20333-f1be-4048-8f1a-30fdeff2a990"},"vehicle_type_id":"4","last_reported":1748362394,"current_range_meters":8000,"station_id":"ce4bhr92rcd13ifvqhrg","pricing_plan_id":"cebpf4jnsgd1na2vs0mg"},{"bike_id":"84d577c9-0030-4753-88b4-b1b78a95dd89","system_id":"levelo_inurba_marseille","lat":43.24804,"lon":5.37445,"is_reserved":false,"is_disabled":false,"rental_uris":{"android":"levelo://app?vid=84d577c9-0030-4753-88b4-b1b78a95dd89","ios":"levelo://app?vid=84d577c9-0030-4753-88b4-b1b78a95dd89"},"vehicle_type_id":"4","last_reported":1748362394,"current_range_meters":8000,"station_id":"ce4bhgh2rcd13ifvqfb0","pricing_plan_id":"cebpf4jnsgd1na2vs0mg"},{"bike_id":"7fe065cd-3e86-4ed9-bcbe-d7b46ab90363","system_id":"levelo_inurba_marseille","lat":43.29273,"lon":5.36853,"is_reserved":false,"is_disabled":false,"rental_uris":{"android":"levelo://app?vid=7fe065cd-3e86-4ed9-bcbe-d7b46ab90363","ios":"levelo://app?vid=7fe065cd-3e86-4ed9-bcbe-d7b46ab90363"},"vehicle_type_id":"4","last_reported":1748362394,"current_range_meters":8400,"station_id":"ce4bhbp2rcd13ifvqesg","pricing_plan_id":"cebpf4jnsgd1na2vs0mg"},{"bike_id":"1fa5d77f-b63c-4300-a1b7-d3411027e979","system_id":"levelo_inurba_marseille","lat":43.28349,"lon":5.38109,"is_reserved":false,"is_disabled":false,"rental_uris":{"android":"levelo://app?vid=1fa5d77f-b63c-4300-a1b7-d3411027e979","ios":"levelo://app?vid=1fa5d77f-b63c-4300-a1b7-d3411027e979"},"vehicle_type_id":"4","last_reported":1748362394,"current_range_meters":8400,"station_id":"ce4bh412rcd13ifvqdr0","pricing_plan_id":"cebpf4jnsgd1na2vs0mg"},{"bike_id":"ae6e6868-2635-4f49-b7c1-b03759c58ec7","system_id":"levelo_inurba_marseille","lat":43.272793,"lon":5.415864,"is_reserved":false,"is_disabled":false,"rental_uris":{"android":"levelo://app?vid=ae6e6868-2635-4f49-b7c1-b03759c58ec7","ios":"levelo://app?vid=ae6e6868-2635-4f49-b7c1-b03759c58ec7"},"vehicle_type_id":"4","last_reported":1748362394,"current_range_meters":8400,"station_id":"","pricing_plan_id":"cebpf4jnsgd1na2vs0mg"},{"bike_id":"810bfa8b-9d10-4469-b40e-b1ada249ae34","system_id":"levelo_inurba_marseille","lat":43.31329,"lon":5.39689,"is_reserved":false,"is_disabled":false,"rental_uris":{"android":"levelo://app?vid=810bfa8b-9d10-4469-b40e-b1ada249ae34","ios":"levelo://app?vid=810bfa8b-9d10-4469-b40e-b1ada249ae34"},"vehicle_type_id":"4","last_reported":1748362394,"current_range_meters":8400,"station_id":"ce4bgvp2rcd13ifvqcu0","pricing_plan_id":"cebpf4jnsgd1na2vs0mg"},{"bike_id":"266507d2-8c95-4bbc-8c1f-1f05680e77de","system_id":"levelo_inurba_marseille","lat":43.284724,"lon":5.384145,"is_reserved":false,"is_disabled":false,"rental_uris":{"android":"levelo://app?vid=266507d2-8c95-4bbc-8c1f-1f05680e77de","ios":"levelo://app?vid=266507d2-8c95-4bbc-8c1f-1f05680e77de"},"vehicle_type_id":"4","last_reported":1748362394,"current_range_meters":8400,"station_id":"ce4bh512rcd13ifvqe3g","pricing_plan_id":"cebpf4jnsgd1na2vs0mg"},{"bike_id":"3421eaf6-3363-4ce9-b976-0ae9cb5b42f6","system_id":"levelo_inurba_marseille","lat":43.25115,"lon":5.40318,"is_reserved":false,"is_disabled":false,"rental_uris":{"android":"levelo://app?vid=3421eaf6-3363-4ce9-b976-0ae9cb5b42f6","ios":"levelo://app?vid=3421eaf6-3363-4ce9-b976-0ae9cb5b42f6"},"vehicle_type_id":"4","last_reported":1748362394,"current_range_meters":8400,"station_id":"ce4bhlh2rcd13ifvqgig","pricing_plan_id":"cebpf4jnsgd1na2vs0mg"},{"bike_id":"a29a2708-797f-4e9a-9f1a-17352bf6f3db","system_id":"levelo_inurba_marseille","lat":43.273041,"lon":5.391574,"is_reserved":false,"is_disabled":true,"rental_uris":{"android":"levelo://app?vid=a29a2708-797f-4e9a-9f1a-17352bf6f3db","ios":"levelo://app?vid=a29a2708-797f-4e9a-9f1a-17352bf6f3db"},"vehicle_type_id":"4","last_reported":1748362394,"current_range_meters":8400,"station_id":"ce4bhgp2rcd13ifvqfe0","pricing_plan_id":"cebpf4jnsgd1na2vs0mg"},{"bike_id":"4f62c4c0-eaac-4167-8e58-ec4230a030b9","system_id":"levelo_inurba_marseille","lat":43.256059,"lon":5.382236,"is_reserved":false,"is_disabled":false,"rental_uris":{"android":"levelo://app?vid=4f62c4c0-eaac-4167-8e58-ec4230a030b9","ios":"levelo://app?vid=4f62c4c0-eaac-4167-8e58-ec4230a030b9"},"vehicle_type_id":"4","last_reported":1748362394,"current_range_meters":8400,"station_id":"ce4bhih2rcd13ifvqfs0","pricing_plan_id":"cebpf4jnsgd1na2vs0mg"},{"bike_id":"8385589e-fd78-4131-9913-fe48cccb6a67","system_id":"levelo_inurba_marseille","lat":43.23187,"lon":5.35569,"is_reserved":false,"is_disabled":false,"rental_uris":{"android":"levelo://app?vid=8385589e-fd78-4131-9913-fe48cccb6a67","ios":"levelo://app?vid=8385589e-fd78-4131-9913-fe48cccb6a67"},"vehicle_type_id":"4","last_reported":1748362394,"current_range_meters":8400,"station_id":"ce4bhu92rcd13ifvqi70","pricing_plan_id":"cebpf4jnsgd1na2vs0mg"},{"bike_id":"179f87c5-653e-4929-8615-1f36854f464c","system_id":"levelo_inurba_marseille","lat":43.28151,"lon":5.42641,"is_reserved":false,"is_disabled":false,"rental_uris":{"android":"levelo://app?vid=179f87c5-653e-4929-8615-1f36854f464c","ios":"levelo://app?vid=179f87c5-653e-4929-8615-1f36854f464c"},"vehicle_type_id":"4","last_reported":1748362394,"current_range_meters":8800,"station_id":"ce4bhnh2rcd13ifvqgug","pricing_plan_id":"cebpf4jnsgd1na2vs0mg"},{"bike_id":"ee617531-7300-4958-baa3-db4f90ad5721","system_id":"levelo_inurba_marseille","lat":43.25821,"lon":5.39432,"is_reserved":false,"is_disabled":false,"rental_uris":{"android":"levelo://app?vid=ee617531-7300-4958-baa3-db4f90ad5721","ios":"levelo://app?vid=ee617531-7300-4958-baa3-db4f90ad5721"},"vehicle_type_id":"4","last_reported":1748362394,"current_range_meters":8800,"station_id":"ce4bhip2rcd13ifvqft0","pricing_plan_id":"cebpf4jnsgd1na2vs0mg"},{"bike_id":"6ca597e4-c1fe-42eb-bdef-55d588756ea1","system_id":"levelo_inurba_marseille","lat":43.29172,"lon":5.37157,"is_reserved":false,"is_disabled":false,"rental_uris":{"android":"levelo://app?vid=6ca597e4-c1fe-42eb-bdef-55d588756ea1","ios":"levelo://app?vid=6ca597e4-c1fe-42eb-bdef-55d588756ea1"},"vehicle_type_id":"4","last_reported":1748362394,"current_range_meters":8800,"station_id":"ce4bha92rcd13ifvqeh0","pricing_plan_id":"cebpf4jnsgd1na2vs0mg"},{"bike_id":"e78c5f73-7222-4281-baf7-75e1ff63ce8f","system_id":"levelo_inurba_marseille","lat":43.25086,"lon":5.39531,"is_reserved":false,"is_disabled":false,"rental_uris":{"android":"levelo://app?vid=e78c5f73-7222-4281-baf7-75e1ff63ce8f","ios":"levelo://app?vid=e78c5f73-7222-4281-baf7-75e1ff63ce8f"},"vehicle_type_id":"4","last_reported":1748362394,"current_range_meters":8800,"station_id":"ce4bhm12rcd13ifvqgkg","pricing_plan_id":"cebpf4jnsgd1na2vs0mg"},{"bike_id":"7f2350a8-abd8-438c-883e-de036e973d39","system_id":"levelo_inurba_marseille","lat":43.32341,"lon":5.40623,"is_reserved":false,"is_disabled":false,"rental_uris":{"android":"levelo://app?vid=7f2350a8-abd8-438c-883e-de036e973d39","ios":"levelo://app?vid=7f2350a8-abd8-438c-883e-de036e973d39"},"vehicle_type_id":"4","last_reported":1748362394,"current_range_meters":8800,"station_id":"ce4bhq92rcd13ifvqhjg","pricing_plan_id":"cebpf4jnsgd1na2vs0mg"},{"bike_id":"438bdd94-b490-4199-b47e-a58b2c8c01fe","system_id":"levelo_inurba_marseille","lat":43.29808,"lon":5.40397,"is_reserved":false,"is_disabled":false,"rental_uris":{"android":"levelo://app?vid=438bdd94-b490-4199-b47e-a58b2c8c01fe","ios":"levelo://app?vid=438bdd94-b490-4199-b47e-a58b2c8c01fe"},"vehicle_type_id":"4","last_reported":1748362394,"current_range_meters":8800,"station_id":"ce4bh112rcd13ifvqd90","pricing_plan_id":"cebpf4jnsgd1na2vs0mg"},{"bike_id":"69445417-2ca1-41fe-a123-a5f121817f68","system_id":"levelo_inurba_marseille","lat":43.29784,"lon":5.3933,"is_reserved":false,"is_disabled":false,"rental_uris":{"android":"levelo://app?vid=69445417-2ca1-41fe-a123-a5f121817f68","ios":"levelo://app?vid=69445417-2ca1-41fe-a123-a5f121817f68"},"vehicle_type_id":"4","last_reported":1748362394,"current_range_meters":8800,"station_id":"chh1huq6cuj3fo74tm60","pricing_plan_id":"cebpf4jnsgd1na2vs0mg"},{"bike_id":"1a0998e5-8bb9-474f-a827-53cad24c9e8f","system_id":"levelo_inurba_marseille","lat":43.32037,"lon":5.44957,"is_reserved":false,"is_disabled":false,"rental_uris":{"android":"levelo://app?vid=1a0998e5-8bb9-474f-a827-53cad24c9e8f","ios":"levelo://app?vid=1a0998e5-8bb9-474f-a827-53cad24c9e8f"},"vehicle_type_id":"4","last_reported":1748362394,"current_range_meters":9200,"station_id":"","pricing_plan_id":"cebpf4jnsgd1na2vs0mg"},{"bike_id":"d7fa3a2d-adc2-4911-af10-73521bae6c55","system_id":"levelo_inurba_marseille","lat":43.29004,"lon":5.35613,"is_reserved":false,"is_disabled":false,"rental_uris":{"android":"levelo://app?vid=d7fa3a2d-adc2-4911-af10-73521bae6c55","ios":"levelo://app?vid=d7fa3a2d-adc2-4911-af10-73521bae6c55"},"vehicle_type_id":"4","last_reported":1748362394,"current_range_meters":9200,"station_id":"ce4bhb92rcd13ifvqen0","pricing_plan_id":"cebpf4jnsgd1na2vs0mg"},{"bike_id":"a705c57d-b2e0-4a4e-8a70-cb45411d63e3","system_id":"levelo_inurba_marseille","lat":43.28396,"lon":5.35015,"is_reserved":false,"is_disabled":false,"rental_uris":{"android":"levelo://app?vid=a705c57d-b2e0-4a4e-8a70-cb45411d63e3","ios":"levelo://app?vid=a705c57d-b2e0-4a4e-8a70-cb45411d63e3"},"vehicle_type_id":"4","last_reported":1748362394,"current_range_meters":9200,"station_id":"ce4bhbh2rcd13ifvqepg","pricing_plan_id":"cebpf4jnsgd1na2vs0mg"},{"bike_id":"ecec0dbe-0ccb-470d-bc6b-7e71f374730a","system_id":"levelo_inurba_marseille","lat":43.23957,"lon":5.36628,"is_reserved":false,"is_disabled":false,"rental_uris":{"android":"levelo://app?vid=ecec0dbe-0ccb-470d-bc6b-7e71f374730a","ios":"levelo://app?vid=ecec0dbe-0ccb-470d-bc6b-7e71f374730a"},"vehicle_type_id":"4","last_reported":1748362394,"current_range_meters":9200,"station_id":"ce4bhi12rcd13ifvqfp0","pricing_plan_id":"cebpf4jnsgd1na2vs0mg"},{"bike_id":"77dbee3f-c7a2-4331-b917-03ab734ccc1b","system_id":"levelo_inurba_marseille","lat":43.28851,"lon":5.35835,"is_reserved":false,"is_disabled":false,"rental_uris":{"android":"levelo://app?vid=77dbee3f-c7a2-4331-b917-03ab734ccc1b","ios":"levelo://app?vid=77dbee3f-c7a2-4331-b917-03ab734ccc1b"},"vehicle_type_id":"4","last_reported":1748362394,"current_range_meters":9200,"station_id":"ce4bhb12rcd13ifvqem0","pricing_plan_id":"cebpf4jnsgd1na2vs0mg"},{"bike_id":"7e823e3b-1b92-4735-8533-dc1341b80eaf","system_id":"levelo_inurba_marseille","lat":43.23059,"lon":5.3549,"is_reserved":false,"is_disabled":true,"rental_uris":{"android":"levelo://app?vid=7e823e3b-1b92-4735-8533-dc1341b80eaf","ios":"levelo://app?vid=7e823e3b-1b92-4735-8533-dc1341b80eaf"},"vehicle_type_id":"4","last_reported":1748362394,"current_range_meters":9200,"station_id":"cpo3342slgdg3j2ifvpg","pricing_plan_id":"cebpf4jnsgd1na2vs0mg"},{"bike_id":"1ba3c726-2241-45f2-9397-0519c9f9ddc7","system_id":"levelo_inurba_marseille","lat":43.27379,"lon":5.362603,"is_reserved":false,"is_disabled":false,"rental_uris":{"android":"levelo://app?vid=1ba3c726-2241-45f2-9397-0519c9f9ddc7","ios":"levelo://app?vid=1ba3c726-2241-45f2-9397-0519c9f9ddc7"},"vehicle_type_id":"4","last_reported":1748362394,"current_range_meters":9200,"station_id":"ce4bhbh2rcd13ifvqeo0","pricing_plan_id":"cebpf4jnsgd1na2vs0mg"},{"bike_id":"63684735-d506-4694-8c6b-117cca608ca3","system_id":"levelo_inurba_marseille","lat":43.29604,"lon":5.38104,"is_reserved":false,"is_disabled":false,"rental_uris":{"android":"levelo://app?vid=63684735-d506-4694-8c6b-117cca608ca3","ios":"levelo://app?vid=63684735-d506-4694-8c6b-117cca608ca3"},"vehicle_type_id":"4","last_reported":1748362394,"current_range_meters":9200,"station_id":"ce4bgl12rcd13ifvqbo0","pricing_plan_id":"cebpf4jnsgd1na2vs0mg"},{"bike_id":"525d9027-82c3-4f9b-a40a-3e1d19882a55","system_id":"levelo_inurba_marseille","lat":43.33069,"lon":5.39011,"is_reserved":false,"is_disabled":false,"rental_uris":{"android":"levelo://app?vid=525d9027-82c3-4f9b-a40a-3e1d19882a55","ios":"levelo://app?vid=525d9027-82c3-4f9b-a40a-3e1d19882a55"},"vehicle_type_id":"4","last_reported":1748362394,"current_range_meters":9200,"station_id":"","pricing_plan_id":"cebpf4jnsgd1na2vs0mg"},{"bike_id":"cafe5778-47f8-4c28-a0f3-99d925683866","system_id":"levelo_inurba_marseille","lat":43.24798,"lon":5.3745,"is_reserved":false,"is_disabled":false,"rental_uris":{"android":"levelo://app?vid=cafe5778-47f8-4c28-a0f3-99d925683866","ios":"levelo://app?vid=cafe5778-47f8-4c28-a0f3-99d925683866"},"vehicle_type_id":"4","last_reported":1748362394,"current_range_meters":9600,"station_id":"ce4bhgh2rcd13ifvqfb0","pricing_plan_id":"cebpf4jnsgd1na2vs0mg"},{"bike_id":"04e880ed-7b3b-424b-93b6-d7f0467ab5a2","system_id":"levelo_inurba_marseille","lat":43.25101,"lon":5.40319,"is_reserved":false,"is_disabled":false,"rental_uris":{"android":"levelo://app?vid=04e880ed-7b3b-424b-93b6-d7f0467ab5a2","ios":"levelo://app?vid=04e880ed-7b3b-424b-93b6-d7f0467ab5a2"},"vehicle_type_id":"4","last_reported":1748362394,"current_range_meters":9600,"station_id":"ce4bhlh2rcd13ifvqgig","pricing_plan_id":"cebpf4jnsgd1na2vs0mg"},{"bike_id":"31eb1c1c-c5a5-4f60-aaa0-7dd8c371696a","system_id":"levelo_inurba_marseille","lat":43.27952,"lon":5.41053,"is_reserved":false,"is_disabled":true,"rental_uris":{"android":"levelo://app?vid=31eb1c1c-c5a5-4f60-aaa0-7dd8c371696a","ios":"levelo://app?vid=31eb1c1c-c5a5-4f60-aaa0-7dd8c371696a"},"vehicle_type_id":"4","last_reported":1748362394,"current_range_meters":9600,"station_id":"ce4bhnp2rcd13ifvqh0g","pricing_plan_id":"cebpf4jnsgd1na2vs0mg"},{"bike_id":"7a517881-8088-409e-b474-815edfb229ae","system_id":"levelo_inurba_marseille","lat":43.22927,"lon":5.35381,"is_reserved":false,"is_disabled":false,"rental_uris":{"android":"levelo://app?vid=7a517881-8088-409e-b474-815edfb229ae","ios":"levelo://app?vid=7a517881-8088-409e-b474-815edfb229ae"},"vehicle_type_id":"4","last_reported":1748362394,"current_range_meters":9600,"station_id":"cpo3532slgdg3j2ikp40","pricing_plan_id":"cebpf4jnsgd1na2vs0mg"},{"bike_id":"86d8b762-9568-49e7-965c-2dcd6a374df9","system_id":"levelo_inurba_marseille","lat":43.28424,"lon":5.34991,"is_reserved":false,"is_disabled":false,"rental_uris":{"android":"levelo://app?vid=86d8b762-9568-49e7-965c-2dcd6a374df9","ios":"levelo://app?vid=86d8b762-9568-49e7-965c-2dcd6a374df9"},"vehicle_type_id":"4","last_reported":1748362394,"current_range_meters":9600,"station_id":"ce4bhbh2rcd13ifvqepg","pricing_plan_id":"cebpf4jnsgd1na2vs0mg"},{"bike_id":"17a24a9b-1412-4984-ba8c-56a6461b4d0e","system_id":"levelo_inurba_marseille","lat":43.31081,"lon":5.38354,"is_reserved":false,"is_disabled":false,"rental_uris":{"android":"levelo://app?vid=17a24a9b-1412-4984-ba8c-56a6461b4d0e","ios":"levelo://app?vid=17a24a9b-1412-4984-ba8c-56a6461b4d0e"},"vehicle_type_id":"4","last_reported":1748362394,"current_range_meters":9600,"station_id":"ce4bgv92rcd13ifvqcr0","pricing_plan_id":"cebpf4jnsgd1na2vs0mg"},{"bike_id":"15170129-d10b-4195-99db-20b82a098891","system_id":"levelo_inurba_marseille","lat":43.26476,"lon":5.39557,"is_reserved":false,"is_disabled":false,"rental_uris":{"android":"levelo://app?vid=15170129-d10b-4195-99db-20b82a098891","ios":"levelo://app?vid=15170129-d10b-4195-99db-20b82a098891"},"vehicle_type_id":"4","last_reported":1748362394,"current_range_meters":9600,"station_id":"ce4bhi12rcd13ifvqfq0","pricing_plan_id":"cebpf4jnsgd1na2vs0mg"},{"bike_id":"6ab21195-3953-417d-813b-b10c45e88741","system_id":"levelo_inurba_marseille","lat":43.29202,"lon":5.39319,"is_reserved":false,"is_disabled":false,"rental_uris":{"android":"levelo://app?vid=6ab21195-3953-417d-813b-b10c45e88741","ios":"levelo://app?vid=6ab21195-3953-417d-813b-b10c45e88741"},"vehicle_type_id":"4","last_reported":1748362394,"current_range_meters":9200,"station_id":"ce4bh192rcd13ifvqdd0","pricing_plan_id":"cebpf4jnsgd1na2vs0mg"},{"bike_id":"e3053042-6af2-451d-9289-c505b359500b","system_id":"levelo_inurba_marseille","lat":43.25112,"lon":5.40329,"is_reserved":false,"is_disabled":false,"rental_uris":{"android":"levelo://app?vid=e3053042-6af2-451d-9289-c505b359500b","ios":"levelo://app?vid=e3053042-6af2-451d-9289-c505b359500b"},"vehicle_type_id":"4","last_reported":1748362394,"current_range_meters":9600,"station_id":"ce4bhlh2rcd13ifvqgig","pricing_plan_id":"cebpf4jnsgd1na2vs0mg"},{"bike_id":"e3a74e11-a46c-4634-9b24-01c4e3412c70","system_id":"levelo_inurba_marseille","lat":43.28265,"lon":5.35058,"is_reserved":false,"is_disabled":false,"rental_uris":{"android":"levelo://app?vid=e3a74e11-a46c-4634-9b24-01c4e3412c70","ios":"levelo://app?vid=e3a74e11-a46c-4634-9b24-01c4e3412c70"},"vehicle_type_id":"4","last_reported":1748362394,"current_range_meters":9600,"station_id":"ce4bhbp2rcd13ifvqerg","pricing_plan_id":"cebpf4jnsgd1na2vs0mg"},{"bike_id":"ca767790-6789-4d6a-baf1-5de47fdfead3","system_id":"levelo_inurba_marseille","lat":43.29719,"lon":5.36605,"is_reserved":false,"is_disabled":false,"rental_uris":{"android":"levelo://app?vid=ca767790-6789-4d6a-baf1-5de47fdfead3","ios":"levelo://app?vid=ca767790-6789-4d6a-baf1-5de47fdfead3"},"vehicle_type_id":"4","last_reported":1748362394,"current_range_meters":10000,"station_id":"ce4bgn12rcd13ifvqbt0","pricing_plan_id":"cebpf4jnsgd1na2vs0mg"},{"bike_id":"9b9d8135-82f8-4f79-bdd1-2ae839c47acd","system_id":"levelo_inurba_marseille","lat":43.27375,"lon":5.36256,"is_reserved":false,"is_disabled":false,"rental_uris":{"android":"levelo://app?vid=9b9d8135-82f8-4f79-bdd1-2ae839c47acd","ios":"levelo://app?vid=9b9d8135-82f8-4f79-bdd1-2ae839c47acd"},"vehicle_type_id":"4","last_reported":1748362394,"current_range_meters":10000,"station_id":"ce4bhbh2rcd13ifvqeo0","pricing_plan_id":"cebpf4jnsgd1na2vs0mg"},{"bike_id":"e6c65de3-7d92-4979-809c-6677188473c0","system_id":"levelo_inurba_marseille","lat":43.337598,"lon":5.374632,"is_reserved":false,"is_disabled":false,"rental_uris":{"android":"levelo://app?vid=e6c65de3-7d92-4979-809c-6677188473c0","ios":"levelo://app?vid=e6c65de3-7d92-4979-809c-6677188473c0"},"vehicle_type_id":"4","last_reported":1748362394,"current_range_meters":10000,"station_id":"","pricing_plan_id":"cebpf4jnsgd1na2vs0mg"},{"bike_id":"6ef27e84-462a-46f9-afe5-e09b209cc7f0","system_id":"levelo_inurba_marseille","lat":43.33118,"lon":5.36204,"is_reserved":false,"is_disabled":false,"rental_uris":{"android":"levelo://app?vid=6ef27e84-462a-46f9-afe5-e09b209cc7f0","ios":"levelo://app?vid=6ef27e84-462a-46f9-afe5-e09b209cc7f0"},"vehicle_type_id":"4","last_reported":1748362394,"current_range_meters":10000,"station_id":"","pricing_plan_id":"cebpf4jnsgd1na2vs0mg"},{"bike_id":"9b6df540-233e-4cb4-9477-9813d3643df9","system_id":"levelo_inurba_marseille","lat":43.30258,"lon":5.40075,"is_reserved":false,"is_disabled":false,"rental_uris":{"android":"levelo://app?vid=9b6df540-233e-4cb4-9477-9813d3643df9","ios":"levelo://app?vid=9b6df540-233e-4cb4-9477-9813d3643df9"},"vehicle_type_id":"4","last_reported":1748362394,"current_range_meters":10000,"station_id":"ce4bgvh2rcd13ifvqcs0","pricing_plan_id":"cebpf4jnsgd1na2vs0mg"},{"bike_id":"3b5b06f9-482d-466f-90d2-929f5713480d","system_id":"levelo_inurba_marseille","lat":43.24203,"lon":5.39724,"is_reserved":false,"is_disabled":false,"rental_uris":{"android":"levelo://app?vid=3b5b06f9-482d-466f-90d2-929f5713480d","ios":"levelo://app?vid=3b5b06f9-482d-466f-90d2-929f5713480d"},"vehicle_type_id":"4","last_reported":1748362394,"current_range_meters":10000,"station_id":"ce4bhn12rcd13ifvqgpg","pricing_plan_id":"cebpf4jnsgd1na2vs0mg"},{"bike_id":"fe0305d5-0074-43af-ac06-1fbac83ca276","system_id":"levelo_inurba_marseille","lat":43.28569,"lon":5.39502,"is_reserved":false,"is_disabled":false,"rental_uris":{"android":"levelo://app?vid=fe0305d5-0074-43af-ac06-1fbac83ca276","ios":"levelo://app?vid=fe0305d5-0074-43af-ac06-1fbac83ca276"},"vehicle_type_id":"4","last_reported":1748362394,"current_range_meters":10000,"station_id":"ce4bh292rcd13ifvqdg0","pricing_plan_id":"cebpf4jnsgd1na2vs0mg"},{"bike_id":"dae3fc33-4b95-47d2-a716-b028de3acbc1","system_id":"levelo_inurba_marseille","lat":43.28618,"lon":5.35099,"is_reserved":false,"is_disabled":false,"rental_uris":{"android":"levelo://app?vid=dae3fc33-4b95-47d2-a716-b028de3acbc1","ios":"levelo://app?vid=dae3fc33-4b95-47d2-a716-b028de3acbc1"},"vehicle_type_id":"4","last_reported":1748362394,"current_range_meters":10800,"station_id":"ce4bhch2rcd13ifvqeug","pricing_plan_id":"cebpf4jnsgd1na2vs0mg"},{"bike_id":"0e54fe2e-7cbe-4a46-96d7-a681f84cecd1","system_id":"levelo_inurba_marseille","lat":43.29531,"lon":5.38552,"is_reserved":false,"is_disabled":false,"rental_uris":{"android":"levelo://app?vid=0e54fe2e-7cbe-4a46-96d7-a681f84cecd1","ios":"levelo://app?vid=0e54fe2e-7cbe-4a46-96d7-a681f84cecd1"},"vehicle_type_id":"4","last_reported":1748362394,"current_range_meters":10800,"station_id":"ce4bgih2rcd13ifvqba0","pricing_plan_id":"cebpf4jnsgd1na2vs0mg"},{"bike_id":"327e813c-0f67-445c-9310-96f50341b65e","system_id":"levelo_inurba_marseille","lat":43.24172,"lon":5.39731,"is_reserved":false,"is_disabled":false,"rental_uris":{"android":"levelo://app?vid=327e813c-0f67-445c-9310-96f50341b65e","ios":"levelo://app?vid=327e813c-0f67-445c-9310-96f50341b65e"},"vehicle_type_id":"4","last_reported":1748362394,"current_range_meters":10800,"station_id":"ce4bhn12rcd13ifvqgpg","pricing_plan_id":"cebpf4jnsgd1na2vs0mg"},{"bike_id":"7af01c9e-9ae8-4d96-be82-5713f1103f22","system_id":"levelo_inurba_marseille","lat":43.2657,"lon":5.39021,"is_reserved":false,"is_disabled":false,"rental_uris":{"android":"levelo://app?vid=7af01c9e-9ae8-4d96-be82-5713f1103f22","ios":"levelo://app?vid=7af01c9e-9ae8-4d96-be82-5713f1103f22"},"vehicle_type_id":"4","last_reported":1748362394,"current_range_meters":10800,"station_id":"ce4bhe12rcd13ifvqf30","pricing_plan_id":"cebpf4jnsgd1na2vs0mg"},{"bike_id":"f689d449-d0ec-464c-9319-de295e0a037a","system_id":"levelo_inurba_marseille","lat":43.23956,"lon":5.36631,"is_reserved":false,"is_disabled":true,"rental_uris":{"android":"levelo://app?vid=f689d449-d0ec-464c-9319-de295e0a037a","ios":"levelo://app?vid=f689d449-d0ec-464c-9319-de295e0a037a"},"vehicle_type_id":"4","last_reported":1748362394,"current_range_meters":10800,"station_id":"ce4bhi12rcd13ifvqfp0","pricing_plan_id":"cebpf4jnsgd1na2vs0mg"},{"bike_id":"796f3588-fc14-4444-a8e5-bd17db1bce1c","system_id":"levelo_inurba_marseille","lat":43.28414,"lon":5.34994,"is_reserved":false,"is_disabled":false,"rental_uris":{"android":"levelo://app?vid=796f3588-fc14-4444-a8e5-bd17db1bce1c","ios":"levelo://app?vid=796f3588-fc14-4444-a8e5-bd17db1bce1c"},"vehicle_type_id":"4","last_reported":1748362394,"current_range_meters":10800,"station_id":"ce4bhbh2rcd13ifvqepg","pricing_plan_id":"cebpf4jnsgd1na2vs0mg"},{"bike_id":"a16982e2-d246-4477-8d00-46dc290c9a2d","system_id":"levelo_inurba_marseille","lat":43.27373,"lon":5.36244,"is_reserved":false,"is_disabled":false,"rental_uris":{"android":"levelo://app?vid=a16982e2-d246-4477-8d00-46dc290c9a2d","ios":"levelo://app?vid=a16982e2-d246-4477-8d00-46dc290c9a2d"},"vehicle_type_id":"4","last_reported":1748362394,"current_range_meters":10800,"station_id":"ce4bhbh2rcd13ifvqeo0","pricing_plan_id":"cebpf4jnsgd1na2vs0mg"},{"bike_id":"2a046dee-b3af-48c9-9659-b7d30ba20af5","system_id":"levelo_inurba_marseille","lat":43.24339,"lon":5.37994,"is_reserved":false,"is_disabled":false,"rental_uris":{"android":"levelo://app?vid=2a046dee-b3af-48c9-9659-b7d30ba20af5","ios":"levelo://app?vid=2a046dee-b3af-48c9-9659-b7d30ba20af5"},"vehicle_type_id":"4","last_reported":1748362394,"current_range_meters":10800,"station_id":"","pricing_plan_id":"cebpf4jnsgd1na2vs0mg"},{"bike_id":"3f855aa9-a03a-4d28-bbc8-2f3b26d07315","system_id":"levelo_inurba_marseille","lat":43.22926,"lon":5.35392,"is_reserved":false,"is_disabled":false,"rental_uris":{"android":"levelo://app?vid=3f855aa9-a03a-4d28-bbc8-2f3b26d07315","ios":"levelo://app?vid=3f855aa9-a03a-4d28-bbc8-2f3b26d07315"},"vehicle_type_id":"4","last_reported":1748362394,"current_range_meters":10800,"station_id":"cpo3532slgdg3j2ikp40","pricing_plan_id":"cebpf4jnsgd1na2vs0mg"},{"bike_id":"ea5137c5-a338-4db7-b986-076512d45298","system_id":"levelo_inurba_marseille","lat":43.28613,"lon":5.37062,"is_reserved":false,"is_disabled":false,"rental_uris":{"android":"levelo://app?vid=ea5137c5-a338-4db7-b986-076512d45298","ios":"levelo://app?vid=ea5137c5-a338-4db7-b986-076512d45298"},"vehicle_type_id":"4","last_reported":1748362394,"current_range_meters":11200,"station_id":"ce4bht12rcd13ifvqi60","pricing_plan_id":"cebpf4jnsgd1na2vs0mg"},{"bike_id":"4a2dbe82-d714-4998-850d-b5bae31c19ec","system_id":"levelo_inurba_marseille","lat":43.27376,"lon":5.36249,"is_reserved":false,"is_disabled":false,"rental_uris":{"android":"levelo://app?vid=4a2dbe82-d714-4998-850d-b5bae31c19ec","ios":"levelo://app?vid=4a2dbe82-d714-4998-850d-b5bae31c19ec"},"vehicle_type_id":"4","last_reported":1748362394,"current_range_meters":11200,"station_id":"ce4bhbh2rcd13ifvqeo0","pricing_plan_id":"cebpf4jnsgd1na2vs0mg"},{"bike_id":"2e98f8dd-250a-420f-b88a-ca90e60e0303","system_id":"levelo_inurba_marseille","lat":43.28266,"lon":5.35066,"is_reserved":false,"is_disabled":false,"rental_uris":{"android":"levelo://app?vid=2e98f8dd-250a-420f-b88a-ca90e60e0303","ios":"levelo://app?vid=2e98f8dd-250a-420f-b88a-ca90e60e0303"},"vehicle_type_id":"4","last_reported":1748362394,"current_range_meters":11200,"station_id":"ce4bhbp2rcd13ifvqerg","pricing_plan_id":"cebpf4jnsgd1na2vs0mg"},{"bike_id":"17b0d8ff-aa28-408b-9628-4a545be2c769","system_id":"levelo_inurba_marseille","lat":43.31919,"lon":5.3801,"is_reserved":false,"is_disabled":false,"rental_uris":{"android":"levelo://app?vid=17b0d8ff-aa28-408b-9628-4a545be2c769","ios":"levelo://app?vid=17b0d8ff-aa28-408b-9628-4a545be2c769"},"vehicle_type_id":"4","last_reported":1748362394,"current_range_meters":11200,"station_id":"","pricing_plan_id":"cebpf4jnsgd1na2vs0mg"},{"bike_id":"0a35707b-c3a6-4ef0-b31b-83e72e61b689","system_id":"levelo_inurba_marseille","lat":43.30141,"lon":5.3743,"is_reserved":false,"is_disabled":false,"rental_uris":{"android":"levelo://app?vid=0a35707b-c3a6-4ef0-b31b-83e72e61b689","ios":"levelo://app?vid=0a35707b-c3a6-4ef0-b31b-83e72e61b689"},"vehicle_type_id":"4","last_reported":1748362394,"current_range_meters":11600,"station_id":"ce4bgs92rcd13ifvqcc0","pricing_plan_id":"cebpf4jnsgd1na2vs0mg"},{"bike_id":"b15ff0f7-b895-4b8d-9d77-8fc5921cb197","system_id":"levelo_inurba_marseille","lat":43.2942,"lon":5.38611,"is_reserved":false,"is_disabled":false,"rental_uris":{"android":"levelo://app?vid=b15ff0f7-b895-4b8d-9d77-8fc5921cb197","ios":"levelo://app?vid=b15ff0f7-b895-4b8d-9d77-8fc5921cb197"},"vehicle_type_id":"4","last_reported":1748362394,"current_range_meters":11600,"station_id":"ce4bh2h2rcd13ifvqdh0","pricing_plan_id":"cebpf4jnsgd1na2vs0mg"},{"bike_id":"0a871849-d8e1-4d4f-ba5a-8954048bdbb3","system_id":"levelo_inurba_marseille","lat":43.30213,"lon":5.39467,"is_reserved":false,"is_disabled":false,"rental_uris":{"android":"levelo://app?vid=0a871849-d8e1-4d4f-ba5a-8954048bdbb3","ios":"levelo://app?vid=0a871849-d8e1-4d4f-ba5a-8954048bdbb3"},"vehicle_type_id":"4","last_reported":1748362394,"current_range_meters":11600,"station_id":"ce4bh0p2rcd13ifvqd70","pricing_plan_id":"cebpf4jnsgd1na2vs0mg"},{"bike_id":"a3a1e2f8-c082-4657-9cf8-ceb282e14a71","system_id":"levelo_inurba_marseille","lat":43.231949,"lon":5.399932,"is_reserved":false,"is_disabled":false,"rental_uris":{"android":"levelo://app?vid=a3a1e2f8-c082-4657-9cf8-ceb282e14a71","ios":"levelo://app?vid=a3a1e2f8-c082-4657-9cf8-ceb282e14a71"},"vehicle_type_id":"4","last_reported":1748362394,"current_range_meters":11600,"station_id":"ce4bhn12rcd13ifvqgqg","pricing_plan_id":"cebpf4jnsgd1na2vs0mg"},{"bike_id":"ceb81090-b40e-47dd-bc35-8598d269ef58","system_id":"levelo_inurba_marseille","lat":43.26663,"lon":5.38431,"is_reserved":false,"is_disabled":false,"rental_uris":{"android":"levelo://app?vid=ceb81090-b40e-47dd-bc35-8598d269ef58","ios":"levelo://app?vid=ceb81090-b40e-47dd-bc35-8598d269ef58"},"vehicle_type_id":"4","last_reported":1748362394,"current_range_meters":12000,"station_id":"","pricing_plan_id":"cebpf4jnsgd1na2vs0mg"},{"bike_id":"aba18963-107c-42d9-a46d-def195dd4e9c","system_id":"levelo_inurba_marseille","lat":43.30648,"lon":5.40096,"is_reserved":false,"is_disabled":false,"rental_uris":{"android":"levelo://app?vid=aba18963-107c-42d9-a46d-def195dd4e9c","ios":"levelo://app?vid=aba18963-107c-42d9-a46d-def195dd4e9c"},"vehicle_type_id":"4","last_reported":1748362394,"current_range_meters":12000,"station_id":"ce4bh112rcd13ifvqda0","pricing_plan_id":"cebpf4jnsgd1na2vs0mg"},{"bike_id":"f629467a-df68-46c4-9305-a5bbd69468ba","system_id":"levelo_inurba_marseille","lat":43.28409,"lon":5.34987,"is_reserved":false,"is_disabled":false,"rental_uris":{"android":"levelo://app?vid=f629467a-df68-46c4-9305-a5bbd69468ba","ios":"levelo://app?vid=f629467a-df68-46c4-9305-a5bbd69468ba"},"vehicle_type_id":"4","last_reported":1748362394,"current_range_meters":12000,"station_id":"ce4bhbh2rcd13ifvqepg","pricing_plan_id":"cebpf4jnsgd1na2vs0mg"},{"bike_id":"e066e7ad-347f-4037-908a-aa18da210859","system_id":"levelo_inurba_marseille","lat":43.27893,"lon":5.38002,"is_reserved":false,"is_disabled":false,"rental_uris":{"android":"levelo://app?vid=e066e7ad-347f-4037-908a-aa18da210859","ios":"levelo://app?vid=e066e7ad-347f-4037-908a-aa18da210859"},"vehicle_type_id":"4","last_reported":1748362394,"current_range_meters":12000,"station_id":"ce4bhf92rcd13ifvqf50","pricing_plan_id":"cebpf4jnsgd1na2vs0mg"},{"bike_id":"4441fe36-b277-4f0d-91b3-64fceed1a0d7","system_id":"levelo_inurba_marseille","lat":43.30269,"lon":5.40055,"is_reserved":false,"is_disabled":false,"rental_uris":{"android":"levelo://app?vid=4441fe36-b277-4f0d-91b3-64fceed1a0d7","ios":"levelo://app?vid=4441fe36-b277-4f0d-91b3-64fceed1a0d7"},"vehicle_type_id":"4","last_reported":1748362394,"current_range_meters":12000,"station_id":"ce4bgvh2rcd13ifvqcs0","pricing_plan_id":"cebpf4jnsgd1na2vs0mg"},{"bike_id":"fbf36f19-9e64-4137-9980-005b3d2f493f","system_id":"levelo_inurba_marseille","lat":43.24648,"lon":5.38886,"is_reserved":false,"is_disabled":false,"rental_uris":{"android":"levelo://app?vid=fbf36f19-9e64-4137-9980-005b3d2f493f","ios":"levelo://app?vid=fbf36f19-9e64-4137-9980-005b3d2f493f"},"vehicle_type_id":"4","last_reported":1748362394,"current_range_meters":11600,"station_id":"ce4bhg12rcd13ifvqf60","pricing_plan_id":"cebpf4jnsgd1na2vs0mg"},{"bike_id":"e5c82b4c-e30f-487a-ae65-76f66da567ea","system_id":"levelo_inurba_marseille","lat":43.32395,"lon":5.36653,"is_reserved":false,"is_disabled":false,"rental_uris":{"android":"levelo://app?vid=e5c82b4c-e30f-487a-ae65-76f66da567ea","ios":"levelo://app?vid=e5c82b4c-e30f-487a-ae65-76f66da567ea"},"vehicle_type_id":"4","last_reported":1748362394,"current_range_meters":12000,"station_id":"ce4bhsh2rcd13ifvqi2g","pricing_plan_id":"cebpf4jnsgd1na2vs0mg"},{"bike_id":"b715949c-351e-4b30-8ddf-050933368972","system_id":"levelo_inurba_marseille","lat":43.31715,"lon":5.4241,"is_reserved":false,"is_disabled":false,"rental_uris":{"android":"levelo://app?vid=b715949c-351e-4b30-8ddf-050933368972","ios":"levelo://app?vid=b715949c-351e-4b30-8ddf-050933368972"},"vehicle_type_id":"4","last_reported":1748362394,"current_range_meters":12000,"station_id":"ce4bhp92rcd13ifvqhbg","pricing_plan_id":"cebpf4jnsgd1na2vs0mg"},{"bike_id":"dc3dff63-0619-481c-a18f-c0b882597f9f","system_id":"levelo_inurba_marseille","lat":43.29693,"lon":5.36605,"is_reserved":false,"is_disabled":false,"rental_uris":{"android":"levelo://app?vid=dc3dff63-0619-481c-a18f-c0b882597f9f","ios":"levelo://app?vid=dc3dff63-0619-481c-a18f-c0b882597f9f"},"vehicle_type_id":"4","last_reported":1748362394,"current_range_meters":12400,"station_id":"ce4bgn12rcd13ifvqbt0","pricing_plan_id":"cebpf4jnsgd1na2vs0mg"},{"bike_id":"6d2977b8-b405-496c-bf31-3eacba5c9601","system_id":"levelo_inurba_marseille","lat":43.28433,"lon":5.3502,"is_reserved":false,"is_disabled":false,"rental_uris":{"android":"levelo://app?vid=6d2977b8-b405-496c-bf31-3eacba5c9601","ios":"levelo://app?vid=6d2977b8-b405-496c-bf31-3eacba5c9601"},"vehicle_type_id":"4","last_reported":1748362394,"current_range_meters":12400,"station_id":"ce4bhbh2rcd13ifvqepg","pricing_plan_id":"cebpf4jnsgd1na2vs0mg"},{"bike_id":"1fbd130b-cb94-49d6-9bd3-bb418fe725b4","system_id":"levelo_inurba_marseille","lat":43.28429,"lon":5.35,"is_reserved":false,"is_disabled":false,"rental_uris":{"android":"levelo://app?vid=1fbd130b-cb94-49d6-9bd3-bb418fe725b4","ios":"levelo://app?vid=1fbd130b-cb94-49d6-9bd3-bb418fe725b4"},"vehicle_type_id":"4","last_reported":1748362394,"current_range_meters":12400,"station_id":"ce4bhbh2rcd13ifvqepg","pricing_plan_id":"cebpf4jnsgd1na2vs0mg"},{"bike_id":"91712460-2f40-40fe-99e6-f9971f9769d2","system_id":"levelo_inurba_marseille","lat":43.2927,"lon":5.38435,"is_reserved":false,"is_disabled":false,"rental_uris":{"android":"levelo://app?vid=91712460-2f40-40fe-99e6-f9971f9769d2","ios":"levelo://app?vid=91712460-2f40-40fe-99e6-f9971f9769d2"},"vehicle_type_id":"4","last_reported":1748362394,"current_range_meters":12400,"station_id":"ce4bh692rcd13ifvqea0","pricing_plan_id":"cebpf4jnsgd1na2vs0mg"},{"bike_id":"03a878d5-7464-43c2-bb12-8804355fff55","system_id":"levelo_inurba_marseille","lat":43.25574,"lon":5.38251,"is_reserved":false,"is_disabled":false,"rental_uris":{"android":"levelo://app?vid=03a878d5-7464-43c2-bb12-8804355fff55","ios":"levelo://app?vid=03a878d5-7464-43c2-bb12-8804355fff55"},"vehicle_type_id":"4","last_reported":1748362394,"current_range_meters":12400,"station_id":"ce4bhih2rcd13ifvqfs0","pricing_plan_id":"cebpf4jnsgd1na2vs0mg"},{"bike_id":"b1de6594-afeb-44f0-a7f9-d29efab468fd","system_id":"levelo_inurba_marseille","lat":43.28615,"lon":5.35109,"is_reserved":false,"is_disabled":false,"rental_uris":{"android":"levelo://app?vid=b1de6594-afeb-44f0-a7f9-d29efab468fd","ios":"levelo://app?vid=b1de6594-afeb-44f0-a7f9-d29efab468fd"},"vehicle_type_id":"4","last_reported":1748362394,"current_range_meters":12400,"station_id":"ce4bhch2rcd13ifvqeug","pricing_plan_id":"cebpf4jnsgd1na2vs0mg"},{"bike_id":"d210ed15-0cab-4985-be76-61173c3a81e4","system_id":"levelo_inurba_marseille","lat":43.28722,"lon":5.36099,"is_reserved":false,"is_disabled":true,"rental_uris":{"android":"levelo://app?vid=d210ed15-0cab-4985-be76-61173c3a81e4","ios":"levelo://app?vid=d210ed15-0cab-4985-be76-61173c3a81e4"},"vehicle_type_id":"4","last_reported":1748362394,"current_range_meters":12400,"station_id":"cki0cbj6b192h4jlfktg","pricing_plan_id":"cebpf4jnsgd1na2vs0mg"},{"bike_id":"064e6fa0-0d7c-4ec8-b1ad-7f69178c75b7","system_id":"levelo_inurba_marseille","lat":43.299007,"lon":5.436626,"is_reserved":false,"is_disabled":false,"rental_uris":{"android":"levelo://app?vid=064e6fa0-0d7c-4ec8-b1ad-7f69178c75b7","ios":"levelo://app?vid=064e6fa0-0d7c-4ec8-b1ad-7f69178c75b7"},"vehicle_type_id":"4","last_reported":1748362394,"current_range_meters":12400,"station_id":"ce4bhpp2rcd13ifvqhfg","pricing_plan_id":"cebpf4jnsgd1na2vs0mg"},{"bike_id":"197eccc7-6f29-48b9-ae92-465064686e71","system_id":"levelo_inurba_marseille","lat":43.29084,"lon":5.37162,"is_reserved":false,"is_disabled":false,"rental_uris":{"android":"levelo://app?vid=197eccc7-6f29-48b9-ae92-465064686e71","ios":"levelo://app?vid=197eccc7-6f29-48b9-ae92-465064686e71"},"vehicle_type_id":"4","last_reported":1748362394,"current_range_meters":12400,"station_id":"ce4bh5p2rcd13ifvqe4g","pricing_plan_id":"cebpf4jnsgd1na2vs0mg"},{"bike_id":"36d54028-6b8c-4158-8078-b167e4d5f4a9","system_id":"levelo_inurba_marseille","lat":43.27994,"lon":5.41657,"is_reserved":false,"is_disabled":false,"rental_uris":{"android":"levelo://app?vid=36d54028-6b8c-4158-8078-b167e4d5f4a9","ios":"levelo://app?vid=36d54028-6b8c-4158-8078-b167e4d5f4a9"},"vehicle_type_id":"4","last_reported":1748362394,"current_range_meters":12800,"station_id":"ce4bho12rcd13ifvqh1g","pricing_plan_id":"cebpf4jnsgd1na2vs0mg"},{"bike_id":"45f1510e-2915-4323-8be2-b64748be2ea1","system_id":"levelo_inurba_marseille","lat":43.264382,"lon":5.373453,"is_reserved":false,"is_disabled":false,"rental_uris":{"android":"levelo://app?vid=45f1510e-2915-4323-8be2-b64748be2ea1","ios":"levelo://app?vid=45f1510e-2915-4323-8be2-b64748be2ea1"},"vehicle_type_id":"4","last_reported":1748362394,"current_range_meters":12800,"station_id":"ce4bhgp2rcd13ifvqfc0","pricing_plan_id":"cebpf4jnsgd1na2vs0mg"},{"bike_id":"f2a1e657-1bd3-4ce5-b6ad-604a96d41fc0","system_id":"levelo_inurba_marseille","lat":43.256959,"lon":5.410748,"is_reserved":false,"is_disabled":false,"rental_uris":{"android":"levelo://app?vid=f2a1e657-1bd3-4ce5-b6ad-604a96d41fc0","ios":"levelo://app?vid=f2a1e657-1bd3-4ce5-b6ad-604a96d41fc0"},"vehicle_type_id":"4","last_reported":1748362394,"current_range_meters":12800,"station_id":"ce4bhkp2rcd13ifvqgd0","pricing_plan_id":"cebpf4jnsgd1na2vs0mg"},{"bike_id":"e3ba936f-d903-4617-8a07-162a4561a3f8","system_id":"levelo_inurba_marseille","lat":43.29808,"lon":5.40406,"is_reserved":false,"is_disabled":false,"rental_uris":{"android":"levelo://app?vid=e3ba936f-d903-4617-8a07-162a4561a3f8","ios":"levelo://app?vid=e3ba936f-d903-4617-8a07-162a4561a3f8"},"vehicle_type_id":"4","last_reported":1748362394,"current_range_meters":12800,"station_id":"ce4bh112rcd13ifvqd90","pricing_plan_id":"cebpf4jnsgd1na2vs0mg"},{"bike_id":"e958725d-b4c4-432f-950e-949f87f464e4","system_id":"levelo_inurba_marseille","lat":43.30211,"lon":5.3946,"is_reserved":false,"is_disabled":false,"rental_uris":{"android":"levelo://app?vid=e958725d-b4c4-432f-950e-949f87f464e4","ios":"levelo://app?vid=e958725d-b4c4-432f-950e-949f87f464e4"},"vehicle_type_id":"4","last_reported":1748362394,"current_range_meters":12800,"station_id":"ce4bh0p2rcd13ifvqd70","pricing_plan_id":"cebpf4jnsgd1na2vs0mg"},{"bike_id":"a40588ee-00f9-4620-a7e7-03b577ebbb6e","system_id":"levelo_inurba_marseille","lat":43.23186,"lon":5.39992,"is_reserved":false,"is_disabled":false,"rental_uris":{"android":"levelo://app?vid=a40588ee-00f9-4620-a7e7-03b577ebbb6e","ios":"levelo://app?vid=a40588ee-00f9-4620-a7e7-03b577ebbb6e"},"vehicle_type_id":"4","last_reported":1748362394,"current_range_meters":12800,"station_id":"ce4bhn12rcd13ifvqgqg","pricing_plan_id":"cebpf4jnsgd1na2vs0mg"},{"bike_id":"2447e726-02f2-4707-a232-a209224dd9ad","system_id":"levelo_inurba_marseille","lat":43.33021,"lon":5.39043,"is_reserved":false,"is_disabled":false,"rental_uris":{"android":"levelo://app?vid=2447e726-02f2-4707-a232-a209224dd9ad","ios":"levelo://app?vid=2447e726-02f2-4707-a232-a209224dd9ad"},"vehicle_type_id":"4","last_reported":1748362394,"current_range_meters":12800,"station_id":"ce4bhr92rcd13ifvqhrg","pricing_plan_id":"cebpf4jnsgd1na2vs0mg"},{"bike_id":"c359ce31-503c-4864-81a4-8b7ff30ded70","system_id":"levelo_inurba_marseille","lat":43.3247,"lon":5.3658,"is_reserved":false,"is_disabled":false,"rental_uris":{"android":"levelo://app?vid=c359ce31-503c-4864-81a4-8b7ff30ded70","ios":"levelo://app?vid=c359ce31-503c-4864-81a4-8b7ff30ded70"},"vehicle_type_id":"4","last_reported":1748362394,"current_range_meters":13600,"station_id":"ce4bhs12rcd13ifvqhvg","pricing_plan_id":"cebpf4jnsgd1na2vs0mg"},{"bike_id":"56303e41-2b27-4d35-8ea7-4c7f6f219c1a","system_id":"levelo_inurba_marseille","lat":43.2177,"lon":5.34598,"is_reserved":false,"is_disabled":false,"rental_uris":{"android":"levelo://app?vid=56303e41-2b27-4d35-8ea7-4c7f6f219c1a","ios":"levelo://app?vid=56303e41-2b27-4d35-8ea7-4c7f6f219c1a"},"vehicle_type_id":"4","last_reported":1748362394,"current_range_meters":13600,"station_id":"","pricing_plan_id":"cebpf4jnsgd1na2vs0mg"},{"bike_id":"312eddef-5c2d-496b-b083-89f2cabc836d","system_id":"levelo_inurba_marseille","lat":43.26574,"lon":5.39041,"is_reserved":false,"is_disabled":false,"rental_uris":{"android":"levelo://app?vid=312eddef-5c2d-496b-b083-89f2cabc836d","ios":"levelo://app?vid=312eddef-5c2d-496b-b083-89f2cabc836d"},"vehicle_type_id":"4","last_reported":1748362394,"current_range_meters":13600,"station_id":"ce4bhe12rcd13ifvqf30","pricing_plan_id":"cebpf4jnsgd1na2vs0mg"},{"bike_id":"84f20522-6fe9-4131-aa99-7e652947bcde","system_id":"levelo_inurba_marseille","lat":43.28425,"lon":5.35005,"is_reserved":false,"is_disabled":false,"rental_uris":{"android":"levelo://app?vid=84f20522-6fe9-4131-aa99-7e652947bcde","ios":"levelo://app?vid=84f20522-6fe9-4131-aa99-7e652947bcde"},"vehicle_type_id":"4","last_reported":1748362394,"current_range_meters":13600,"station_id":"ce4bhbh2rcd13ifvqepg","pricing_plan_id":"cebpf4jnsgd1na2vs0mg"},{"bike_id":"b778a739-5d57-4a38-b6bc-115210282a1f","system_id":"levelo_inurba_marseille","lat":43.29306,"lon":5.37178,"is_reserved":false,"is_disabled":false,"rental_uris":{"android":"levelo://app?vid=b778a739-5d57-4a38-b6bc-115210282a1f","ios":"levelo://app?vid=b778a739-5d57-4a38-b6bc-115210282a1f"},"vehicle_type_id":"4","last_reported":1748362394,"current_range_meters":13600,"station_id":"ce4bgh92rcd13ifvqb40","pricing_plan_id":"cebpf4jnsgd1na2vs0mg"},{"bike_id":"e572f301-b2c7-42f5-af5c-379ca5457f2b","system_id":"levelo_inurba_marseille","lat":43.2295,"lon":5.35372,"is_reserved":false,"is_disabled":false,"rental_uris":{"android":"levelo://app?vid=e572f301-b2c7-42f5-af5c-379ca5457f2b","ios":"levelo://app?vid=e572f301-b2c7-42f5-af5c-379ca5457f2b"},"vehicle_type_id":"4","last_reported":1748362394,"current_range_meters":14000,"station_id":"cpo3532slgdg3j2ikp40","pricing_plan_id":"cebpf4jnsgd1na2vs0mg"},{"bike_id":"8b2f176c-6227-4141-ac56-7c85af7ac53a","system_id":"levelo_inurba_marseille","lat":43.31711,"lon":5.43711,"is_reserved":false,"is_disabled":false,"rental_uris":{"android":"levelo://app?vid=8b2f176c-6227-4141-ac56-7c85af7ac53a","ios":"levelo://app?vid=8b2f176c-6227-4141-ac56-7c85af7ac53a"},"vehicle_type_id":"4","last_reported":1748362394,"current_range_meters":14000,"station_id":"ce4bhp92rcd13ifvqhcg","pricing_plan_id":"cebpf4jnsgd1na2vs0mg"},{"bike_id":"8b8f4ddc-5f2d-41ad-9613-91a528fd4361","system_id":"levelo_inurba_marseille","lat":43.22957,"lon":5.35365,"is_reserved":false,"is_disabled":false,"rental_uris":{"android":"levelo://app?vid=8b8f4ddc-5f2d-41ad-9613-91a528fd4361","ios":"levelo://app?vid=8b8f4ddc-5f2d-41ad-9613-91a528fd4361"},"vehicle_type_id":"4","last_reported":1748362394,"current_range_meters":14000,"station_id":"cpo3532slgdg3j2ikp40","pricing_plan_id":"cebpf4jnsgd1na2vs0mg"},{"bike_id":"16325869-b0b1-4ea6-b5e0-4206964d490a","system_id":"levelo_inurba_marseille","lat":43.260238,"lon":5.417378,"is_reserved":false,"is_disabled":false,"rental_uris":{"android":"levelo://app?vid=16325869-b0b1-4ea6-b5e0-4206964d490a","ios":"levelo://app?vid=16325869-b0b1-4ea6-b5e0-4206964d490a"},"vehicle_type_id":"4","last_reported":1748362394,"current_range_meters":14000,"station_id":"","pricing_plan_id":"cebpf4jnsgd1na2vs0mg"},{"bike_id":"d92b91e9-e169-49d2-b435-d2f0d568e62a","system_id":"levelo_inurba_marseille","lat":43.28154,"lon":5.4265,"is_reserved":false,"is_disabled":false,"rental_uris":{"android":"levelo://app?vid=d92b91e9-e169-49d2-b435-d2f0d568e62a","ios":"levelo://app?vid=d92b91e9-e169-49d2-b435-d2f0d568e62a"},"vehicle_type_id":"4","last_reported":1748362394,"current_range_meters":14000,"station_id":"ce4bhnh2rcd13ifvqgug","pricing_plan_id":"cebpf4jnsgd1na2vs0mg"},{"bike_id":"daa8a49f-122c-4d26-bdef-9f4f3e827bca","system_id":"levelo_inurba_marseille","lat":43.284177,"lon":5.349808,"is_reserved":false,"is_disabled":false,"rental_uris":{"android":"levelo://app?vid=daa8a49f-122c-4d26-bdef-9f4f3e827bca","ios":"levelo://app?vid=daa8a49f-122c-4d26-bdef-9f4f3e827bca"},"vehicle_type_id":"4","last_reported":1748362394,"current_range_meters":14000,"station_id":"ce4bhbh2rcd13ifvqepg","pricing_plan_id":"cebpf4jnsgd1na2vs0mg"},{"bike_id":"cc391400-7d4c-4261-8004-e9968eddac7e","system_id":"levelo_inurba_marseille","lat":43.29028,"lon":5.37552,"is_reserved":false,"is_disabled":true,"rental_uris":{"android":"levelo://app?vid=cc391400-7d4c-4261-8004-e9968eddac7e","ios":"levelo://app?vid=cc391400-7d4c-4261-8004-e9968eddac7e"},"vehicle_type_id":"4","last_reported":1748362394,"current_range_meters":14400,"station_id":"ce4bh692rcd13ifvqe90","pricing_plan_id":"cebpf4jnsgd1na2vs0mg"},{"bike_id":"fe885166-e704-4450-ad4d-cb7b1b3aa6c7","system_id":"levelo_inurba_marseille","lat":43.28417,"lon":5.34995,"is_reserved":false,"is_disabled":false,"rental_uris":{"android":"levelo://app?vid=fe885166-e704-4450-ad4d-cb7b1b3aa6c7","ios":"levelo://app?vid=fe885166-e704-4450-ad4d-cb7b1b3aa6c7"},"vehicle_type_id":"4","last_reported":1748362394,"current_range_meters":14400,"station_id":"ce4bhbh2rcd13ifvqepg","pricing_plan_id":"cebpf4jnsgd1na2vs0mg"},{"bike_id":"027996d9-c458-4fe9-9def-7a537508c67a","system_id":"levelo_inurba_marseille","lat":43.265487,"lon":5.372947,"is_reserved":false,"is_disabled":false,"rental_uris":{"android":"levelo://app?vid=027996d9-c458-4fe9-9def-7a537508c67a","ios":"levelo://app?vid=027996d9-c458-4fe9-9def-7a537508c67a"},"vehicle_type_id":"4","last_reported":1748362394,"current_range_meters":14800,"station_id":"ce4bhg12rcd13ifvqf70","pricing_plan_id":"cebpf4jnsgd1na2vs0mg"},{"bike_id":"40381637-4693-4e24-a452-2644486f8889","system_id":"levelo_inurba_marseille","lat":43.28268,"lon":5.35064,"is_reserved":false,"is_disabled":false,"rental_uris":{"android":"levelo://app?vid=40381637-4693-4e24-a452-2644486f8889","ios":"levelo://app?vid=40381637-4693-4e24-a452-2644486f8889"},"vehicle_type_id":"4","last_reported":1748362394,"current_range_meters":14800,"station_id":"ce4bhbp2rcd13ifvqerg","pricing_plan_id":"cebpf4jnsgd1na2vs0mg"},{"bike_id":"a9a42d50-8999-4d1b-8e44-b7f86e96364a","system_id":"levelo_inurba_marseille","lat":43.26567,"lon":5.39006,"is_reserved":false,"is_disabled":false,"rental_uris":{"android":"levelo://app?vid=a9a42d50-8999-4d1b-8e44-b7f86e96364a","ios":"levelo://app?vid=a9a42d50-8999-4d1b-8e44-b7f86e96364a"},"vehicle_type_id":"4","last_reported":1748362394,"current_range_meters":14800,"station_id":"ce4bhe12rcd13ifvqf30","pricing_plan_id":"cebpf4jnsgd1na2vs0mg"},{"bike_id":"373d9c8e-fc96-4068-8dc2-9702d5b9d496","system_id":"levelo_inurba_marseille","lat":43.30255,"lon":5.40082,"is_reserved":false,"is_disabled":false,"rental_uris":{"android":"levelo://app?vid=373d9c8e-fc96-4068-8dc2-9702d5b9d496","ios":"levelo://app?vid=373d9c8e-fc96-4068-8dc2-9702d5b9d496"},"vehicle_type_id":"4","last_reported":1748362394,"current_range_meters":14800,"station_id":"ce4bgvh2rcd13ifvqcs0","pricing_plan_id":"cebpf4jnsgd1na2vs0mg"},{"bike_id":"538115c9-8fac-4b9a-af2f-5b3b14d08891","system_id":"levelo_inurba_marseille","lat":43.28672,"lon":5.36349,"is_reserved":false,"is_disabled":false,"rental_uris":{"android":"levelo://app?vid=538115c9-8fac-4b9a-af2f-5b3b14d08891","ios":"levelo://app?vid=538115c9-8fac-4b9a-af2f-5b3b14d08891"},"vehicle_type_id":"4","last_reported":1748362394,"current_range_meters":14800,"station_id":"ce4bhah2rcd13ifvqej0","pricing_plan_id":"cebpf4jnsgd1na2vs0mg"},{"bike_id":"b9feece3-8db7-4d9c-b5c4-3d592ac61b90","system_id":"levelo_inurba_marseille","lat":43.291848,"lon":5.358085,"is_reserved":false,"is_disabled":false,"rental_uris":{"android":"levelo://app?vid=b9feece3-8db7-4d9c-b5c4-3d592ac61b90","ios":"levelo://app?vid=b9feece3-8db7-4d9c-b5c4-3d592ac61b90"},"vehicle_type_id":"4","last_reported":1748362394,"current_range_meters":14800,"station_id":"","pricing_plan_id":"cebpf4jnsgd1na2vs0mg"},{"bike_id":"5a621852-4b0d-47fa-9514-efb82e08741c","system_id":"levelo_inurba_marseille","lat":43.28844,"lon":5.4003,"is_reserved":false,"is_disabled":true,"rental_uris":{"android":"levelo://app?vid=5a621852-4b0d-47fa-9514-efb82e08741c","ios":"levelo://app?vid=5a621852-4b0d-47fa-9514-efb82e08741c"},"vehicle_type_id":"4","last_reported":1748362394,"current_range_meters":15200,"station_id":"","pricing_plan_id":"cebpf4jnsgd1na2vs0mg"},{"bike_id":"1ba10a51-845b-4919-9745-a62bd9569772","system_id":"levelo_inurba_marseille","lat":43.28402,"lon":5.37522,"is_reserved":false,"is_disabled":false,"rental_uris":{"android":"levelo://app?vid=1ba10a51-845b-4919-9745-a62bd9569772","ios":"levelo://app?vid=1ba10a51-845b-4919-9745-a62bd9569772"},"vehicle_type_id":"4","last_reported":1748362394,"current_range_meters":15200,"station_id":"ce4bh412rcd13ifvqds0","pricing_plan_id":"cebpf4jnsgd1na2vs0mg"},{"bike_id":"46f1e1a2-421d-4288-9b19-22918bc7cc7f","system_id":"levelo_inurba_marseille","lat":43.231946,"lon":5.355535,"is_reserved":false,"is_disabled":false,"rental_uris":{"android":"levelo://app?vid=46f1e1a2-421d-4288-9b19-22918bc7cc7f","ios":"levelo://app?vid=46f1e1a2-421d-4288-9b19-22918bc7cc7f"},"vehicle_type_id":"4","last_reported":1748362394,"current_range_meters":15200,"station_id":"ce4bhu92rcd13ifvqi70","pricing_plan_id":"cebpf4jnsgd1na2vs0mg"},{"bike_id":"7d644362-2701-4137-aac7-822704820d27","system_id":"levelo_inurba_marseille","lat":43.317544,"lon":5.390224,"is_reserved":false,"is_disabled":true,"rental_uris":{"android":"levelo://app?vid=7d644362-2701-4137-aac7-822704820d27","ios":"levelo://app?vid=7d644362-2701-4137-aac7-822704820d27"},"vehicle_type_id":"4","last_reported":1748362394,"current_range_meters":15200,"station_id":"ce4bhqp2rcd13ifvqhng","pricing_plan_id":"cebpf4jnsgd1na2vs0mg"},{"bike_id":"69c0fd55-cd72-4f90-a33e-0ecbe62d3f06","system_id":"levelo_inurba_marseille","lat":43.28422,"lon":5.35001,"is_reserved":false,"is_disabled":false,"rental_uris":{"android":"levelo://app?vid=69c0fd55-cd72-4f90-a33e-0ecbe62d3f06","ios":"levelo://app?vid=69c0fd55-cd72-4f90-a33e-0ecbe62d3f06"},"vehicle_type_id":"4","last_reported":1748362394,"current_range_meters":16000,"station_id":"ce4bhbh2rcd13ifvqepg","pricing_plan_id":"cebpf4jnsgd1na2vs0mg"},{"bike_id":"b6b6fbcc-3f17-4d0b-93e2-24b345bfff31","system_id":"levelo_inurba_marseille","lat":43.28408,"lon":5.34991,"is_reserved":false,"is_disabled":false,"rental_uris":{"android":"levelo://app?vid=b6b6fbcc-3f17-4d0b-93e2-24b345bfff31","ios":"levelo://app?vid=b6b6fbcc-3f17-4d0b-93e2-24b345bfff31"},"vehicle_type_id":"4","last_reported":1748362394,"current_range_meters":16000,"station_id":"ce4bhbh2rcd13ifvqepg","pricing_plan_id":"cebpf4jnsgd1na2vs0mg"},{"bike_id":"875c48ee-7369-4c70-b22f-147c82cd929b","system_id":"levelo_inurba_marseille","lat":43.297277,"lon":5.376853,"is_reserved":false,"is_disabled":false,"rental_uris":{"android":"levelo://app?vid=875c48ee-7369-4c70-b22f-147c82cd929b","ios":"levelo://app?vid=875c48ee-7369-4c70-b22f-147c82cd929b"},"vehicle_type_id":"4","last_reported":1748362394,"current_range_meters":16000,"station_id":"ce4bgh92rcd13ifvqb50","pricing_plan_id":"cebpf4jnsgd1na2vs0mg"},{"bike_id":"ecaea88c-f407-47cc-8877-45a44f89ab2f","system_id":"levelo_inurba_marseille","lat":43.29263,"lon":5.38442,"is_reserved":false,"is_disabled":false,"rental_uris":{"android":"levelo://app?vid=ecaea88c-f407-47cc-8877-45a44f89ab2f","ios":"levelo://app?vid=ecaea88c-f407-47cc-8877-45a44f89ab2f"},"vehicle_type_id":"4","last_reported":1748362394,"current_range_meters":16000,"station_id":"ce4bh692rcd13ifvqea0","pricing_plan_id":"cebpf4jnsgd1na2vs0mg"},{"bike_id":"95b379f6-58b3-4dbc-a1d9-d24207500dcc","system_id":"levelo_inurba_marseille","lat":43.28616,"lon":5.37049,"is_reserved":false,"is_disabled":false,"rental_uris":{"android":"levelo://app?vid=95b379f6-58b3-4dbc-a1d9-d24207500dcc","ios":"levelo://app?vid=95b379f6-58b3-4dbc-a1d9-d24207500dcc"},"vehicle_type_id":"4","last_reported":1748362394,"current_range_meters":16000,"station_id":"ce4bht12rcd13ifvqi60","pricing_plan_id":"cebpf4jnsgd1na2vs0mg"},{"bike_id":"a56cc5c8-9d3b-4872-a224-2a6a7b6e5459","system_id":"levelo_inurba_marseille","lat":43.30648,"lon":5.40101,"is_reserved":false,"is_disabled":false,"rental_uris":{"android":"levelo://app?vid=a56cc5c8-9d3b-4872-a224-2a6a7b6e5459","ios":"levelo://app?vid=a56cc5c8-9d3b-4872-a224-2a6a7b6e5459"},"vehicle_type_id":"4","last_reported":1748362394,"current_range_meters":16000,"station_id":"ce4bh112rcd13ifvqda0","pricing_plan_id":"cebpf4jnsgd1na2vs0mg"},{"bike_id":"6ebb6dd7-e028-471a-a254-2363923c0cd9","system_id":"levelo_inurba_marseille","lat":43.32126,"lon":5.36767,"is_reserved":false,"is_disabled":false,"rental_uris":{"android":"levelo://app?vid=6ebb6dd7-e028-471a-a254-2363923c0cd9","ios":"levelo://app?vid=6ebb6dd7-e028-471a-a254-2363923c0cd9"},"vehicle_type_id":"4","last_reported":1748362394,"current_range_meters":16000,"station_id":"ce4bhrh2rcd13ifvqhug","pricing_plan_id":"cebpf4jnsgd1na2vs0mg"},{"bike_id":"b87aac56-5d07-4480-a589-3b33f7758cbc","system_id":"levelo_inurba_marseille","lat":43.28623,"lon":5.35095,"is_reserved":false,"is_disabled":false,"rental_uris":{"android":"levelo://app?vid=b87aac56-5d07-4480-a589-3b33f7758cbc","ios":"levelo://app?vid=b87aac56-5d07-4480-a589-3b33f7758cbc"},"vehicle_type_id":"4","last_reported":1748362394,"current_range_meters":16000,"station_id":"ce4bhch2rcd13ifvqeug","pricing_plan_id":"cebpf4jnsgd1na2vs0mg"},{"bike_id":"ccbf90a7-29d9-49d8-ab49-b015256cafea","system_id":"levelo_inurba_marseille","lat":43.27379,"lon":5.36253,"is_reserved":false,"is_disabled":false,"rental_uris":{"android":"levelo://app?vid=ccbf90a7-29d9-49d8-ab49-b015256cafea","ios":"levelo://app?vid=ccbf90a7-29d9-49d8-ab49-b015256cafea"},"vehicle_type_id":"4","last_reported":1748362394,"current_range_meters":16000,"station_id":"ce4bhbh2rcd13ifvqeo0","pricing_plan_id":"cebpf4jnsgd1na2vs0mg"},{"bike_id":"134c70cc-46f1-414c-ba60-b99ba2b4a992","system_id":"levelo_inurba_marseille","lat":43.34809,"lon":5.3512,"is_reserved":false,"is_disabled":false,"rental_uris":{"android":"levelo://app?vid=134c70cc-46f1-414c-ba60-b99ba2b4a992","ios":"levelo://app?vid=134c70cc-46f1-414c-ba60-b99ba2b4a992"},"vehicle_type_id":"4","last_reported":1748362394,"current_range_meters":16000,"station_id":"","pricing_plan_id":"cebpf4jnsgd1na2vs0mg"},{"bike_id":"5dc051d6-90f2-4efc-8f21-3624c86acb93","system_id":"levelo_inurba_marseille","lat":43.27998,"lon":5.41661,"is_reserved":false,"is_disabled":false,"rental_uris":{"android":"levelo://app?vid=5dc051d6-90f2-4efc-8f21-3624c86acb93","ios":"levelo://app?vid=5dc051d6-90f2-4efc-8f21-3624c86acb93"},"vehicle_type_id":"4","last_reported":1748362394,"current_range_meters":16400,"station_id":"ce4bho12rcd13ifvqh1g","pricing_plan_id":"cebpf4jnsgd1na2vs0mg"},{"bike_id":"4453deae-e9b4-44cf-8302-cfe5eb65828e","system_id":"levelo_inurba_marseille","lat":43.26939,"lon":5.40256,"is_reserved":false,"is_disabled":false,"rental_uris":{"android":"levelo://app?vid=4453deae-e9b4-44cf-8302-cfe5eb65828e","ios":"levelo://app?vid=4453deae-e9b4-44cf-8302-cfe5eb65828e"},"vehicle_type_id":"4","last_reported":1748362394,"current_range_meters":16400,"station_id":"cjm6bp8fraef2m0cb0m0","pricing_plan_id":"cebpf4jnsgd1na2vs0mg"},{"bike_id":"f7e1aadb-b479-4bcd-905e-49296b20e80b","system_id":"levelo_inurba_marseille","lat":43.30215,"lon":5.3947,"is_reserved":false,"is_disabled":false,"rental_uris":{"android":"levelo://app?vid=f7e1aadb-b479-4bcd-905e-49296b20e80b","ios":"levelo://app?vid=f7e1aadb-b479-4bcd-905e-49296b20e80b"},"vehicle_type_id":"4","last_reported":1748362394,"current_range_meters":16400,"station_id":"ce4bh0p2rcd13ifvqd70","pricing_plan_id":"cebpf4jnsgd1na2vs0mg"},{"bike_id":"d80b26c1-b190-4924-a6c2-833530d4261e","system_id":"levelo_inurba_marseille","lat":43.295766,"lon":5.422987,"is_reserved":false,"is_disabled":false,"rental_uris":{"android":"levelo://app?vid=d80b26c1-b190-4924-a6c2-833530d4261e","ios":"levelo://app?vid=d80b26c1-b190-4924-a6c2-833530d4261e"},"vehicle_type_id":"4","last_reported":1748362394,"current_range_meters":16400,"station_id":"","pricing_plan_id":"cebpf4jnsgd1na2vs0mg"},{"bike_id":"e8264270-6e82-48a0-9de5-a3f73f59db95","system_id":"levelo_inurba_marseille","lat":43.231906,"lon":5.399821,"is_reserved":false,"is_disabled":false,"rental_uris":{"android":"levelo://app?vid=e8264270-6e82-48a0-9de5-a3f73f59db95","ios":"levelo://app?vid=e8264270-6e82-48a0-9de5-a3f73f59db95"},"vehicle_type_id":"4","last_reported":1748362394,"current_range_meters":16400,"station_id":"ce4bhn12rcd13ifvqgqg","pricing_plan_id":"cebpf4jnsgd1na2vs0mg"},{"bike_id":"3189a836-3bc1-4d00-96e7-6180f7019e10","system_id":"levelo_inurba_marseille","lat":43.32332,"lon":5.40613,"is_reserved":false,"is_disabled":false,"rental_uris":{"android":"levelo://app?vid=3189a836-3bc1-4d00-96e7-6180f7019e10","ios":"levelo://app?vid=3189a836-3bc1-4d00-96e7-6180f7019e10"},"vehicle_type_id":"4","last_reported":1748362394,"current_range_meters":16400,"station_id":"ce4bhq92rcd13ifvqhjg","pricing_plan_id":"cebpf4jnsgd1na2vs0mg"},{"bike_id":"88fd3918-5836-42a8-b1d5-7f4e92410e56","system_id":"levelo_inurba_marseille","lat":43.3108,"lon":5.4243,"is_reserved":false,"is_disabled":false,"rental_uris":{"android":"levelo://app?vid=88fd3918-5836-42a8-b1d5-7f4e92410e56","ios":"levelo://app?vid=88fd3918-5836-42a8-b1d5-7f4e92410e56"},"vehicle_type_id":"4","last_reported":1748362394,"current_range_meters":16800,"station_id":"ce4bhp92rcd13ifvqhag","pricing_plan_id":"cebpf4jnsgd1na2vs0mg"},{"bike_id":"6f511cbe-3f60-46af-bfec-8cfe2899e5b8","system_id":"levelo_inurba_marseille","lat":43.23188,"lon":5.399825,"is_reserved":false,"is_disabled":false,"rental_uris":{"android":"levelo://app?vid=6f511cbe-3f60-46af-bfec-8cfe2899e5b8","ios":"levelo://app?vid=6f511cbe-3f60-46af-bfec-8cfe2899e5b8"},"vehicle_type_id":"4","last_reported":1748362394,"current_range_meters":16800,"station_id":"ce4bhn12rcd13ifvqgqg","pricing_plan_id":"cebpf4jnsgd1na2vs0mg"},{"bike_id":"094cde27-acde-4d58-b1bd-48e13cc0365e","system_id":"levelo_inurba_marseille","lat":43.28,"lon":5.40014,"is_reserved":false,"is_disabled":false,"rental_uris":{"android":"levelo://app?vid=094cde27-acde-4d58-b1bd-48e13cc0365e","ios":"levelo://app?vid=094cde27-acde-4d58-b1bd-48e13cc0365e"},"vehicle_type_id":"4","last_reported":1748362394,"current_range_meters":16800,"station_id":"ce4bho92rcd13ifvqh4g","pricing_plan_id":"cebpf4jnsgd1na2vs0mg"},{"bike_id":"694826cd-19a1-499c-af7c-83a7fd9a0111","system_id":"levelo_inurba_marseille","lat":43.28652,"lon":5.3508,"is_reserved":false,"is_disabled":false,"rental_uris":{"android":"levelo://app?vid=694826cd-19a1-499c-af7c-83a7fd9a0111","ios":"levelo://app?vid=694826cd-19a1-499c-af7c-83a7fd9a0111"},"vehicle_type_id":"4","last_reported":1748362394,"current_range_meters":17200,"station_id":"ce4bhch2rcd13ifvqeug","pricing_plan_id":"cebpf4jnsgd1na2vs0mg"},{"bike_id":"91970272-5c94-4507-9600-7ad64e4cd42f","system_id":"levelo_inurba_marseille","lat":43.25867,"lon":5.39894,"is_reserved":false,"is_disabled":false,"rental_uris":{"android":"levelo://app?vid=91970272-5c94-4507-9600-7ad64e4cd42f","ios":"levelo://app?vid=91970272-5c94-4507-9600-7ad64e4cd42f"},"vehicle_type_id":"4","last_reported":1748362394,"current_range_meters":17200,"station_id":"ce4bhl92rcd13ifvqghg","pricing_plan_id":"cebpf4jnsgd1na2vs0mg"},{"bike_id":"f2fc1692-01b9-4b02-8b2c-252289992f8e","system_id":"levelo_inurba_marseille","lat":43.28416,"lon":5.35033,"is_reserved":false,"is_disabled":false,"rental_uris":{"android":"levelo://app?vid=f2fc1692-01b9-4b02-8b2c-252289992f8e","ios":"levelo://app?vid=f2fc1692-01b9-4b02-8b2c-252289992f8e"},"vehicle_type_id":"4","last_reported":1748362394,"current_range_meters":17200,"station_id":"","pricing_plan_id":"cebpf4jnsgd1na2vs0mg"},{"bike_id":"d1b04229-5ae5-4d40-af12-6abd6d26145d","system_id":"levelo_inurba_marseille","lat":43.25823,"lon":5.39436,"is_reserved":false,"is_disabled":false,"rental_uris":{"android":"levelo://app?vid=d1b04229-5ae5-4d40-af12-6abd6d26145d","ios":"levelo://app?vid=d1b04229-5ae5-4d40-af12-6abd6d26145d"},"vehicle_type_id":"4","last_reported":1748362394,"current_range_meters":17200,"station_id":"ce4bhip2rcd13ifvqft0","pricing_plan_id":"cebpf4jnsgd1na2vs0mg"},{"bike_id":"586f7bdb-1495-4f02-85d1-ded9efe1b843","system_id":"levelo_inurba_marseille","lat":43.287,"lon":5.37408,"is_reserved":false,"is_disabled":false,"rental_uris":{"android":"levelo://app?vid=586f7bdb-1495-4f02-85d1-ded9efe1b843","ios":"levelo://app?vid=586f7bdb-1495-4f02-85d1-ded9efe1b843"},"vehicle_type_id":"4","last_reported":1748362394,"current_range_meters":17200,"station_id":"ce4bh3p2rcd13ifvqdq0","pricing_plan_id":"cebpf4jnsgd1na2vs0mg"},{"bike_id":"b639dcaa-fffc-4665-8101-347157ee96d9","system_id":"levelo_inurba_marseille","lat":43.25086,"lon":5.39527,"is_reserved":false,"is_disabled":false,"rental_uris":{"android":"levelo://app?vid=b639dcaa-fffc-4665-8101-347157ee96d9","ios":"levelo://app?vid=b639dcaa-fffc-4665-8101-347157ee96d9"},"vehicle_type_id":"4","last_reported":1748362394,"current_range_meters":17200,"station_id":"ce4bhm12rcd13ifvqgkg","pricing_plan_id":"cebpf4jnsgd1na2vs0mg"},{"bike_id":"ed165672-9d9e-4ba7-ad6d-80d0e9db44ba","system_id":"levelo_inurba_marseille","lat":43.2841,"lon":5.35002,"is_reserved":false,"is_disabled":false,"rental_uris":{"android":"levelo://app?vid=ed165672-9d9e-4ba7-ad6d-80d0e9db44ba","ios":"levelo://app?vid=ed165672-9d9e-4ba7-ad6d-80d0e9db44ba"},"vehicle_type_id":"4","last_reported":1748362394,"current_range_meters":17200,"station_id":"ce4bhbh2rcd13ifvqepg","pricing_plan_id":"cebpf4jnsgd1na2vs0mg"},{"bike_id":"8cb48e60-19aa-4fb9-8708-4e4a56b04ded","system_id":"levelo_inurba_marseille","lat":43.25491,"lon":5.37649,"is_reserved":false,"is_disabled":true,"rental_uris":{"android":"levelo://app?vid=8cb48e60-19aa-4fb9-8708-4e4a56b04ded","ios":"levelo://app?vid=8cb48e60-19aa-4fb9-8708-4e4a56b04ded"},"vehicle_type_id":"4","last_reported":1748362394,"current_range_meters":17200,"station_id":"ce4bhh12rcd13ifvqff0","pricing_plan_id":"cebpf4jnsgd1na2vs0mg"},{"bike_id":"d717d593-28a1-40db-b42a-ac7a5b471856","system_id":"levelo_inurba_marseille","lat":43.27971,"lon":5.3874,"is_reserved":false,"is_disabled":false,"rental_uris":{"android":"levelo://app?vid=d717d593-28a1-40db-b42a-ac7a5b471856","ios":"levelo://app?vid=d717d593-28a1-40db-b42a-ac7a5b471856"},"vehicle_type_id":"4","last_reported":1748362394,"current_range_meters":17200,"station_id":"ce4bhg12rcd13ifvqf80","pricing_plan_id":"cebpf4jnsgd1na2vs0mg"},{"bike_id":"ec06cd68-1f05-4f18-8393-8769bf59ea28","system_id":"levelo_inurba_marseille","lat":43.318894,"lon":5.407432,"is_reserved":false,"is_disabled":false,"rental_uris":{"android":"levelo://app?vid=ec06cd68-1f05-4f18-8393-8769bf59ea28","ios":"levelo://app?vid=ec06cd68-1f05-4f18-8393-8769bf59ea28"},"vehicle_type_id":"4","last_reported":1748362394,"current_range_meters":16800,"station_id":"ce4bhq12rcd13ifvqhig","pricing_plan_id":"cebpf4jnsgd1na2vs0mg"},{"bike_id":"c3ad529f-5550-4337-93f9-ab6ecd3f5cd2","system_id":"levelo_inurba_marseille","lat":43.30249,"lon":5.40062,"is_reserved":false,"is_disabled":false,"rental_uris":{"android":"levelo://app?vid=c3ad529f-5550-4337-93f9-ab6ecd3f5cd2","ios":"levelo://app?vid=c3ad529f-5550-4337-93f9-ab6ecd3f5cd2"},"vehicle_type_id":"4","last_reported":1748362394,"current_range_meters":17200,"station_id":"ce4bgvh2rcd13ifvqcs0","pricing_plan_id":"cebpf4jnsgd1na2vs0mg"},{"bike_id":"435d1a1f-35a7-45ad-ad6b-fa7767471b2e","system_id":"levelo_inurba_marseille","lat":43.330206,"lon":5.390459,"is_reserved":false,"is_disabled":false,"rental_uris":{"android":"levelo://app?vid=435d1a1f-35a7-45ad-ad6b-fa7767471b2e","ios":"levelo://app?vid=435d1a1f-35a7-45ad-ad6b-fa7767471b2e"},"vehicle_type_id":"4","last_reported":1748362394,"current_range_meters":17200,"station_id":"ce4bhr92rcd13ifvqhrg","pricing_plan_id":"cebpf4jnsgd1na2vs0mg"},{"bike_id":"22f4649a-1ba0-4f37-9156-66c8770650ef","system_id":"levelo_inurba_marseille","lat":43.29035,"lon":5.3865,"is_reserved":false,"is_disabled":false,"rental_uris":{"android":"levelo://app?vid=22f4649a-1ba0-4f37-9156-66c8770650ef","ios":"levelo://app?vid=22f4649a-1ba0-4f37-9156-66c8770650ef"},"vehicle_type_id":"4","last_reported":1748362394,"current_range_meters":17200,"station_id":"ce4bh4p2rcd13ifvqe0g","pricing_plan_id":"cebpf4jnsgd1na2vs0mg"},{"bike_id":"912aeffc-f677-4d4d-9f86-212600af40b6","system_id":"levelo_inurba_marseille","lat":43.28768,"lon":5.37959,"is_reserved":false,"is_disabled":false,"rental_uris":{"android":"levelo://app?vid=912aeffc-f677-4d4d-9f86-212600af40b6","ios":"levelo://app?vid=912aeffc-f677-4d4d-9f86-212600af40b6"},"vehicle_type_id":"4","last_reported":1748362394,"current_range_meters":17200,"station_id":"","pricing_plan_id":"cebpf4jnsgd1na2vs0mg"},{"bike_id":"55ea50a0-faa8-42b0-812e-aa23d1b50f58","system_id":"levelo_inurba_marseille","lat":43.283985,"lon":5.349748,"is_reserved":false,"is_disabled":false,"rental_uris":{"android":"levelo://app?vid=55ea50a0-faa8-42b0-812e-aa23d1b50f58","ios":"levelo://app?vid=55ea50a0-faa8-42b0-812e-aa23d1b50f58"},"vehicle_type_id":"4","last_reported":1748362394,"current_range_meters":17200,"station_id":"ce4bhbh2rcd13ifvqepg","pricing_plan_id":"cebpf4jnsgd1na2vs0mg"},{"bike_id":"2ac9101b-f178-4f52-bf04-666277b3bf4e","system_id":"levelo_inurba_marseille","lat":43.29714,"lon":5.36616,"is_reserved":false,"is_disabled":false,"rental_uris":{"android":"levelo://app?vid=2ac9101b-f178-4f52-bf04-666277b3bf4e","ios":"levelo://app?vid=2ac9101b-f178-4f52-bf04-666277b3bf4e"},"vehicle_type_id":"4","last_reported":1748362394,"current_range_meters":17600,"station_id":"ce4bgn12rcd13ifvqbt0","pricing_plan_id":"cebpf4jnsgd1na2vs0mg"},{"bike_id":"9d7aebf7-16b6-4e66-81c8-4cbc8211c683","system_id":"levelo_inurba_marseille","lat":43.25086,"lon":5.39524,"is_reserved":false,"is_disabled":false,"rental_uris":{"android":"levelo://app?vid=9d7aebf7-16b6-4e66-81c8-4cbc8211c683","ios":"levelo://app?vid=9d7aebf7-16b6-4e66-81c8-4cbc8211c683"},"vehicle_type_id":"4","last_reported":1748362394,"current_range_meters":17600,"station_id":"ce4bhm12rcd13ifvqgkg","pricing_plan_id":"cebpf4jnsgd1na2vs0mg"},{"bike_id":"bd985fb5-85bb-4b7a-8300-6010d2b93b79","system_id":"levelo_inurba_marseille","lat":43.2762,"lon":5.36104,"is_reserved":false,"is_disabled":false,"rental_uris":{"android":"levelo://app?vid=bd985fb5-85bb-4b7a-8300-6010d2b93b79","ios":"levelo://app?vid=bd985fb5-85bb-4b7a-8300-6010d2b93b79"},"vehicle_type_id":"4","last_reported":1748362394,"current_range_meters":17600,"station_id":"ce4bgj92rcd13ifvqbe0","pricing_plan_id":"cebpf4jnsgd1na2vs0mg"},{"bike_id":"9a937550-6305-4f07-a32f-0448917b48ba","system_id":"levelo_inurba_marseille","lat":43.286686,"lon":5.386687,"is_reserved":false,"is_disabled":false,"rental_uris":{"android":"levelo://app?vid=9a937550-6305-4f07-a32f-0448917b48ba","ios":"levelo://app?vid=9a937550-6305-4f07-a32f-0448917b48ba"},"vehicle_type_id":"4","last_reported":1748362394,"current_range_meters":17600,"station_id":"ce4bh492rcd13ifvqdug","pricing_plan_id":"cebpf4jnsgd1na2vs0mg"},{"bike_id":"83e25b39-74c1-4b59-a01d-85e299e04c00","system_id":"levelo_inurba_marseille","lat":43.29802,"lon":5.40401,"is_reserved":false,"is_disabled":false,"rental_uris":{"android":"levelo://app?vid=83e25b39-74c1-4b59-a01d-85e299e04c00","ios":"levelo://app?vid=83e25b39-74c1-4b59-a01d-85e299e04c00"},"vehicle_type_id":"4","last_reported":1748362394,"current_range_meters":17600,"station_id":"ce4bh112rcd13ifvqd90","pricing_plan_id":"cebpf4jnsgd1na2vs0mg"},{"bike_id":"51d4e892-a069-4021-9c81-6ed4a34f6998","system_id":"levelo_inurba_marseille","lat":43.23201,"lon":5.39992,"is_reserved":false,"is_disabled":false,"rental_uris":{"android":"levelo://app?vid=51d4e892-a069-4021-9c81-6ed4a34f6998","ios":"levelo://app?vid=51d4e892-a069-4021-9c81-6ed4a34f6998"},"vehicle_type_id":"4","last_reported":1748362394,"current_range_meters":17600,"station_id":"ce4bhn12rcd13ifvqgqg","pricing_plan_id":"cebpf4jnsgd1na2vs0mg"},{"bike_id":"12919875-9aa7-480a-8bf8-5c538078633a","system_id":"levelo_inurba_marseille","lat":43.286242,"lon":5.351045,"is_reserved":false,"is_disabled":false,"rental_uris":{"android":"levelo://app?vid=12919875-9aa7-480a-8bf8-5c538078633a","ios":"levelo://app?vid=12919875-9aa7-480a-8bf8-5c538078633a"},"vehicle_type_id":"4","last_reported":1748362394,"current_range_meters":17600,"station_id":"ce4bhch2rcd13ifvqeug","pricing_plan_id":"cebpf4jnsgd1na2vs0mg"},{"bike_id":"2e6bdf9e-cb84-461a-adce-e0a6ffd67009","system_id":"levelo_inurba_marseille","lat":43.24386,"lon":5.3706,"is_reserved":false,"is_disabled":false,"rental_uris":{"android":"levelo://app?vid=2e6bdf9e-cb84-461a-adce-e0a6ffd67009","ios":"levelo://app?vid=2e6bdf9e-cb84-461a-adce-e0a6ffd67009"},"vehicle_type_id":"4","last_reported":1748362394,"current_range_meters":17600,"station_id":"ce4bhhh2rcd13ifvqfk0","pricing_plan_id":"cebpf4jnsgd1na2vs0mg"},{"bike_id":"159b5b03-b07a-4fa4-b689-6a2ca553228e","system_id":"levelo_inurba_marseille","lat":43.3166,"lon":5.38941,"is_reserved":false,"is_disabled":false,"rental_uris":{"android":"levelo://app?vid=159b5b03-b07a-4fa4-b689-6a2ca553228e","ios":"levelo://app?vid=159b5b03-b07a-4fa4-b689-6a2ca553228e"},"vehicle_type_id":"4","last_reported":1748362394,"current_range_meters":18000,"station_id":"","pricing_plan_id":"cebpf4jnsgd1na2vs0mg"},{"bike_id":"1fed5cf7-13b7-4dc4-814e-e55c1b74556e","system_id":"levelo_inurba_marseille","lat":43.2927,"lon":5.40112,"is_reserved":false,"is_disabled":true,"rental_uris":{"android":"levelo://app?vid=1fed5cf7-13b7-4dc4-814e-e55c1b74556e","ios":"levelo://app?vid=1fed5cf7-13b7-4dc4-814e-e55c1b74556e"},"vehicle_type_id":"4","last_reported":1748362394,"current_range_meters":18000,"station_id":"ce4bh312rcd13ifvqdk0","pricing_plan_id":"cebpf4jnsgd1na2vs0mg"},{"bike_id":"6f029416-a109-44c0-974a-e0c30b664f1c","system_id":"levelo_inurba_marseille","lat":43.292572,"lon":5.384438,"is_reserved":false,"is_disabled":false,"rental_uris":{"android":"levelo://app?vid=6f029416-a109-44c0-974a-e0c30b664f1c","ios":"levelo://app?vid=6f029416-a109-44c0-974a-e0c30b664f1c"},"vehicle_type_id":"4","last_reported":1748362394,"current_range_meters":18000,"station_id":"ce4bh692rcd13ifvqea0","pricing_plan_id":"cebpf4jnsgd1na2vs0mg"},{"bike_id":"349e7297-179d-46aa-af73-d0772f15795a","system_id":"levelo_inurba_marseille","lat":43.30139,"lon":5.37416,"is_reserved":false,"is_disabled":false,"rental_uris":{"android":"levelo://app?vid=349e7297-179d-46aa-af73-d0772f15795a","ios":"levelo://app?vid=349e7297-179d-46aa-af73-d0772f15795a"},"vehicle_type_id":"4","last_reported":1748362394,"current_range_meters":18000,"station_id":"","pricing_plan_id":"cebpf4jnsgd1na2vs0mg"},{"bike_id":"3b07f020-3d8e-47eb-b723-de46e817e2a3","system_id":"levelo_inurba_marseille","lat":43.29738,"lon":5.3837,"is_reserved":false,"is_disabled":false,"rental_uris":{"android":"levelo://app?vid=3b07f020-3d8e-47eb-b723-de46e817e2a3","ios":"levelo://app?vid=3b07f020-3d8e-47eb-b723-de46e817e2a3"},"vehicle_type_id":"4","last_reported":1748362394,"current_range_meters":18000,"station_id":"","pricing_plan_id":"cebpf4jnsgd1na2vs0mg"},