{"last_updated":1702721224,"ttl":30,"version":"2.2","data":{"bikes":[{"bike_id":"49cac485-5c8f-4da3-ade9-bf9c51ece19b","system_id":"levelo_inurba_marseille","lat":43.312239,"lon":5.368562,"is_reserved":false,"is_disabled":false,"rental_uris":{"android":"levelo://app?vid=49cac485-5c8f-4da3-ade9-bf9c51ece19b","ios":"levelo://app?vid=49cac485-5c8f-4da3-ade9-bf9c51ece19b"},"vehicle_type_id":"4","last_reported":1702721224,"current_range_meters":19600,"station_id":"ce4bgl92rcd13ifvqbq0","pricing_plan_id":"free"},{"bike_id":"8417bed0-f08b-4048-a4ee-10626c71eb9b","system_id":"levelo_inurba_marseille","lat":43.312239,"lon":5.368562,"is_reserved":false,"is_disabled":false,"rental_uris":{"android":"levelo://app?vid=8417bed0-f08b-4048-a4ee-10626c71eb9b","ios":"levelo://app?vid=8417bed0-f08b-4048-a4ee-10626c71eb9b"},"vehicle_type_id":"4","last_reported":1702721224,"current_range_meters":29600,"station_id":"ce4bgl92rcd13ifvqbq0","pricing_plan_id":"free"},{"bike_id":"1d93e301-3337-44fe-b9c0-7cef80eb0e8f","system_id":"levelo_inurba_marseille","lat":43.309076,"lon":5.368465,"is_reserved":false,"is_disabled":false,"rental_uris":{"android":"levelo://app?vid=1d93e301-3337-44fe-b9c0-7cef80eb0e8f","ios":"levelo://app?vid=1d93e301-3337-44fe-b9c0-7cef80eb0e8f"},"vehicle_type_id":"4","last_reported":1702721224,"current_range_meters":25600,"station_id":"ce4bgn92rcd13ifvqbvg","pricing_plan_id":"free"},{"bike_id":"2628431f-da41-45b9-bb5b-b864794506d1","system_id":"levelo_inurba_marseille","lat":43.314317,"lon":5.3734,"is_reserved":false,"is_disabled":false,"rental_uris":{"android":"levelo://app?vid=2628431f-da41-45b9-bb5b-b864794506d1","ios":"levelo://app?vid=2628431f-da41-45b9-bb5b-b864794506d1"},"vehicle_type_id":"4","last_reported":1702721224,"current_range_meters":2800,"station_id":"","pricing_plan_id":"free"},{"bike_id":"515f45cf-ef33-42f2-bad9-6a878be332ed","system_id":"levelo_inurba_marseille","lat":43.30884,"lon":5.371775,"is_reserved":false,"is_disabled":false,"rental_uris":{"android":"levelo://app?vid=515f45cf-ef33-42f2-bad9-6a878be332ed","ios":"levelo://app?vid=515f45cf-ef33-42f2-bad9-6a878be332ed"},"vehicle_type_id":"4","last_reported":1702721224,"current_range_meters":15600,"station_id":"ce4bguh2rcd13ifvqckg","pricing_plan_id":"free"},{"bike_id":"da30b174-1c4f-4e80-89a2-49c33406886a","system_id":"levelo_inurba_marseille","lat":43.309039,"lon":5.371797,"is_reserved":false,"is_disabled":false,"rental_uris":{"android":"levelo://app?vid=da30b174-1c4f-4e80-89a2-49c33406886a","ios":"levelo://app?vid=da30b174-1c4f-4e80-89a2-49c33406886a"},"vehicle_type_id":"4","last_reported":1702721224,"current_range_meters":25200,"station_id":"ce4bguh2rcd13ifvqckg","pricing_plan_id":"free"},{"bike_id":"048a7b5f-3bd4-4a25-97fb-5dfeff2e3815","system_id":"levelo_inurba_marseille","lat":43.309039,"lon":5.371797,"is_reserved":false,"is_disabled":false,"rental_uris":{"android":"levelo://app?vid=048a7b5f-3bd4-4a25-97fb-5dfeff2e3815","ios":"levelo://app?vid=048a7b5f-3bd4-4a25-97fb-5dfeff2e3815"},"vehicle_type_id":"4","last_reported":1702721224,"current_range_meters":21200,"station_id":"ce4bguh2rcd13ifvqckg","pricing_plan_id":"free"},{"bike_id":"115225e0-b2c3-48fd-9ecf-55f4100d1bfc","system_id":"levelo_inurba_marseille","lat":43.309039,"lon":5.371797,"is_reserved":false,"is_disabled":false,"rental_uris":{"android":"levelo://app?vid=115225e0-b2c3-48fd-9ecf-55f4100d1bfc","ios":"levelo://app?vid=115225e0-b2c3-48fd-9ecf-55f4100d1bfc"},"vehicle_type_id":"4","last_reported":1702721224,"current_range_meters":31600,"station_id":"ce4bguh2rcd13ifvqckg","pricing_plan_id":"free"},{"bike_id":"3f8b821f-e430-4a35-bf14-f8b6e777ea11","system_id":"levelo_inurba_marseille","lat":43.313939,"lon":5.375306,"is_reserved":false,"is_disabled":false,"rental_uris":{"android":"levelo://app?vid=3f8b821f-e430-4a35-bf14-f8b6e777ea11","ios":"levelo://app?vid=3f8b821f-e430-4a35-bf14-f8b6e777ea11"},"vehicle_type_id":"4","last_reported":1702721224,"current_range_meters":0,"station_id":"","pricing_plan_id":"free"},{"bike_id":"4612566b-7a19-4098-bd7f-97b1d0588b75","system_id":"levelo_inurba_marseille","lat":43.30564,"lon":5.365567,"is_reserved":false,"is_disabled":false,"rental_uris":{"android":"levelo://app?vid=4612566b-7a19-4098-bd7f-97b1d0588b75","ios":"levelo://app?vid=4612566b-7a19-4098-bd7f-97b1d0588b75"},"vehicle_type_id":"4","last_reported":1702721224,"current_range_meters":22000,"station_id":"ce4bgs12rcd13ifvqcag","pricing_plan_id":"free"},{"bike_id":"da4490e8-880d-4c3b-af8a-9b3c817574d8","system_id":"levelo_inurba_marseille","lat":43.30541,"lon":5.36721,"is_reserved":false,"is_disabled":false,"rental_uris":{"android":"levelo://app?vid=da4490e8-880d-4c3b-af8a-9b3c817574d8","ios":"levelo://app?vid=da4490e8-880d-4c3b-af8a-9b3c817574d8"},"vehicle_type_id":"4","last_reported":1702721224,"current_range_meters":13600,"station_id":"ce4bgrp2rcd13ifvqc9g","pricing_plan_id":"free"},{"bike_id":"e37e23b7-7834-4c2d-91eb-9a8e5af24a55","system_id":"levelo_inurba_marseille","lat":43.30547,"lon":5.36529,"is_reserved":false,"is_disabled":false,"rental_uris":{"android":"levelo://app?vid=e37e23b7-7834-4c2d-91eb-9a8e5af24a55","ios":"levelo://app?vid=e37e23b7-7834-4c2d-91eb-9a8e5af24a55"},"vehicle_type_id":"4","last_reported":1702721224,"current_range_meters":29200,"station_id":"ce4bgs12rcd13ifvqcag","pricing_plan_id":"free"},{"bike_id":"12c32355-7746-4f4c-b404-f7aa9cc47f6c","system_id":"levelo_inurba_marseille","lat":43.305368,"lon":5.367343,"is_reserved":false,"is_disabled":false,"rental_uris":{"android":"levelo://app?vid=12c32355-7746-4f4c-b404-f7aa9cc47f6c","ios":"levelo://app?vid=12c32355-7746-4f4c-b404-f7aa9cc47f6c"},"vehicle_type_id":"4","last_reported":1702721224,"current_range_meters":28400,"station_id":"ce4bgrp2rcd13ifvqc9g","pricing_plan_id":"free"},{"bike_id":"48a8644b-4648-4c6b-a49b-1f4356fd700f","system_id":"levelo_inurba_marseille","lat":43.305434,"lon":5.365269,"is_reserved":false,"is_disabled":false,"rental_uris":{"android":"levelo://app?vid=48a8644b-4648-4c6b-a49b-1f4356fd700f","ios":"levelo://app?vid=48a8644b-4648-4c6b-a49b-1f4356fd700f"},"vehicle_type_id":"4","last_reported":1702721224,"current_range_meters":30400,"station_id":"ce4bgs12rcd13ifvqcag","pricing_plan_id":"free"},{"bike_id":"95b66f4f-55d9-4478-958b-fc1804e89ee7","system_id":"levelo_inurba_marseille","lat":43.305706,"lon":5.365654,"is_reserved":false,"is_disabled":false,"rental_uris":{"android":"levelo://app?vid=95b66f4f-55d9-4478-958b-fc1804e89ee7","ios":"levelo://app?vid=95b66f4f-55d9-4478-958b-fc1804e89ee7"},"vehicle_type_id":"4","last_reported":1702721224,"current_range_meters":19600,"station_id":"ce4bgs12rcd13ifvqcag","pricing_plan_id":"free"},{"bike_id":"17bd3303-aa02-4013-82af-58f2652162c1","system_id":"levelo_inurba_marseille","lat":43.305706,"lon":5.365654,"is_reserved":false,"is_disabled":false,"rental_uris":{"android":"levelo://app?vid=17bd3303-aa02-4013-82af-58f2652162c1","ios":"levelo://app?vid=17bd3303-aa02-4013-82af-58f2652162c1"},"vehicle_type_id":"4","last_reported":1702721224,"current_range_meters":28400,"station_id":"ce4bgs12rcd13ifvqcag","pricing_plan_id":"free"},{"bike_id":"7cd97a8f-948a-43b9-8b30-8710a955902f","system_id":"levelo_inurba_marseille","lat":43.3054,"lon":5.36528,"is_reserved":false,"is_disabled":false,"rental_uris":{"android":"levelo://app?vid=7cd97a8f-948a-43b9-8b30-8710a955902f","ios":"levelo://app?vid=7cd97a8f-948a-43b9-8b30-8710a955902f"},"vehicle_type_id":"4","last_reported":1702721224,"current_range_meters":30000,"station_id":"ce4bgs12rcd13ifvqcag","pricing_plan_id":"free"},{"bike_id":"955e4ab2-16e5-44e8-a986-a2f50ff96c06","system_id":"levelo_inurba_marseille","lat":43.305382,"lon":5.365389,"is_reserved":false,"is_disabled":false,"rental_uris":{"android":"levelo://app?vid=955e4ab2-16e5-44e8-a986-a2f50ff96c06","ios":"levelo://app?vid=955e4ab2-16e5-44e8-a986-a2f50ff96c06"},"vehicle_type_id":"4","last_reported":1702721224,"current_range_meters":16000,"station_id":"","pricing_plan_id":"free"},{"bike_id":"439d7f52-2b84-454c-a8fb-59d19036981b","system_id":"levelo_inurba_marseille","lat":43.305706,"lon":5.365654,"is_reserved":false,"is_disabled":false,"rental_uris":{"android":"levelo://app?vid=439d7f52-2b84-454c-a8fb-59d19036981b","ios":"levelo://app?vid=439d7f52-2b84-454c-a8fb-59d19036981b"},"vehicle_type_id":"4","last_reported":1702721224,"current_range_meters":22400,"station_id":"ce4bgs12rcd13ifvqcag","pricing_plan_id":"free"},{"bike_id":"2cf38736-5162-4ed8-8ba6-39709262172a","system_id":"levelo_inurba_marseille","lat":43.305706,"lon":5.365654,"is_reserved":false,"is_disabled":false,"rental_uris":{"android":"levelo://app?vid=2cf38736-5162-4ed8-8ba6-39709262172a","ios":"levelo://app?vid=2cf38736-5162-4ed8-8ba6-39709262172a"},"vehicle_type_id":"4","last_reported":1702721224,"current_range_meters":30800,"station_id":"ce4bgs12rcd13ifvqcag","pricing_plan_id":"free"},{"bike_id":"77bb4192-0079-476c-82f6-7c18e34e71e4","system_id":"levelo_inurba_marseille","lat":43.305706,"lon":5.365654,"is_reserved":false,"is_disabled":false,"rental_uris":{"android":"levelo://app?vid=77bb4192-0079-476c-82f6-7c18e34e71e4","ios":"levelo://app?vid=77bb4192-0079-476c-82f6-7c18e34e71e4"},"vehicle_type_id":"4","last_reported":1702721224,"current_range_meters":31200,"station_id":"ce4bgs12rcd13ifvqcag","pricing_plan_id":"free"},{"bike_id":"61cbbe48-bbeb-487a-bf28-3d77503552b9","system_id":"levelo_inurba_marseille","lat":43.305706,"lon":5.365654,"is_reserved":false,"is_disabled":false,"rental_uris":{"android":"levelo://app?vid=61cbbe48-bbeb-487a-bf28-3d77503552b9","ios":"levelo://app?vid=61cbbe48-bbeb-487a-bf28-3d77503552b9"},"vehicle_type_id":"4","last_reported":1702721224,"current_range_meters":22400,"station_id":"ce4bgs12rcd13ifvqcag","pricing_plan_id":"free"},{"bike_id":"2386b78f-fa6a-47c4-aafe-2f9c837df8bb","system_id":"levelo_inurba_marseille","lat":43.305706,"lon":5.365654,"is_reserved":false,"is_disabled":false,"rental_uris":{"android":"levelo://app?vid=2386b78f-fa6a-47c4-aafe-2f9c837df8bb","ios":"levelo://app?vid=2386b78f-fa6a-47c4-aafe-2f9c837df8bb"},"vehicle_type_id":"4","last_reported":1702721224,"current_range_meters":28400,"station_id":"ce4bgs12rcd13ifvqcag","pricing_plan_id":"free"},{"bike_id":"cd4928e0-0764-496c-8e54-5ee2f6e7de76","system_id":"levelo_inurba_marseille","lat":43.305989,"lon":5.37225,"is_reserved":false,"is_disabled":false,"rental_uris":{"android":"levelo://app?vid=cd4928e0-0764-496c-8e54-5ee2f6e7de76","ios":"levelo://app?vid=cd4928e0-0764-496c-8e54-5ee2f6e7de76"},"vehicle_type_id":"4","last_reported":1702721224,"current_range_meters":22000,"station_id":"ce4bgqh2rcd13ifvqc4g","pricing_plan_id":"free"},{"bike_id":"56216665-01c4-482e-9b45-3bcbfb473828","system_id":"levelo_inurba_marseille","lat":43.305989,"lon":5.37225,"is_reserved":false,"is_disabled":false,"rental_uris":{"android":"levelo://app?vid=56216665-01c4-482e-9b45-3bcbfb473828","ios":"levelo://app?vid=56216665-01c4-482e-9b45-3bcbfb473828"},"vehicle_type_id":"4","last_reported":1702721224,"current_range_meters":18400,"station_id":"ce4bgqh2rcd13ifvqc4g","pricing_plan_id":"free"},{"bike_id":"37480a4d-1ce9-421b-8587-12d2f7ed17e2","system_id":"levelo_inurba_marseille","lat":43.305989,"lon":5.37225,"is_reserved":false,"is_disabled":false,"rental_uris":{"android":"levelo://app?vid=37480a4d-1ce9-421b-8587-12d2f7ed17e2","ios":"levelo://app?vid=37480a4d-1ce9-421b-8587-12d2f7ed17e2"},"vehicle_type_id":"4","last_reported":1702721224,"current_range_meters":30400,"station_id":"ce4bgqh2rcd13ifvqc4g","pricing_plan_id":"free"},{"bike_id":"64b875e9-8014-4720-8f36-19ba9cf363eb","system_id":"levelo_inurba_marseille","lat":43.307784,"lon":5.376466,"is_reserved":false,"is_disabled":false,"rental_uris":{"android":"levelo://app?vid=64b875e9-8014-4720-8f36-19ba9cf363eb","ios":"levelo://app?vid=64b875e9-8014-4720-8f36-19ba9cf363eb"},"vehicle_type_id":"4","last_reported":1702721224,"current_range_meters":25200,"station_id":"ce4bgv92rcd13ifvqcq0","pricing_plan_id":"free"},{"bike_id":"8f2f2472-686d-4d1b-bd99-8d9acdd0522f","system_id":"levelo_inurba_marseille","lat":43.307809,"lon":5.376503,"is_reserved":false,"is_disabled":false,"rental_uris":{"android":"levelo://app?vid=8f2f2472-686d-4d1b-bd99-8d9acdd0522f","ios":"levelo://app?vid=8f2f2472-686d-4d1b-bd99-8d9acdd0522f"},"vehicle_type_id":"4","last_reported":1702721224,"current_range_meters":22800,"station_id":"ce4bgv92rcd13ifvqcq0","pricing_plan_id":"free"},{"bike_id":"1fe5e966-96db-4e8c-a4be-30533dd70df6","system_id":"levelo_inurba_marseille","lat":43.307755,"lon":5.376475,"is_reserved":false,"is_disabled":false,"rental_uris":{"android":"levelo://app?vid=1fe5e966-96db-4e8c-a4be-30533dd70df6","ios":"levelo://app?vid=1fe5e966-96db-4e8c-a4be-30533dd70df6"},"vehicle_type_id":"4","last_reported":1702721224,"current_range_meters":13600,"station_id":"ce4bgv92rcd13ifvqcq0","pricing_plan_id":"free"},{"bike_id":"1cac14e1-4099-455b-ab55-73d699c3e506","system_id":"levelo_inurba_marseille","lat":43.307945,"lon":5.376487,"is_reserved":false,"is_disabled":false,"rental_uris":{"android":"levelo://app?vid=1cac14e1-4099-455b-ab55-73d699c3e506","ios":"levelo://app?vid=1cac14e1-4099-455b-ab55-73d699c3e506"},"vehicle_type_id":"4","last_reported":1702721224,"current_range_meters":30000,"station_id":"ce4bgv92rcd13ifvqcq0","pricing_plan_id":"free"},{"bike_id":"9a557d8f-d5f1-4bc5-8063-680898b9e532","system_id":"levelo_inurba_marseille","lat":43.307945,"lon":5.376487,"is_reserved":false,"is_disabled":false,"rental_uris":{"android":"levelo://app?vid=9a557d8f-d5f1-4bc5-8063-680898b9e532","ios":"levelo://app?vid=9a557d8f-d5f1-4bc5-8063-680898b9e532"},"vehicle_type_id":"4","last_reported":1702721224,"current_range_meters":30000,"station_id":"ce4bgv92rcd13ifvqcq0","pricing_plan_id":"free"},{"bike_id":"63dc4c84-42cd-4009-8fa8-14542acd5532","system_id":"levelo_inurba_marseille","lat":43.307945,"lon":5.376487,"is_reserved":false,"is_disabled":false,"rental_uris":{"android":"levelo://app?vid=63dc4c84-42cd-4009-8fa8-14542acd5532","ios":"levelo://app?vid=63dc4c84-42cd-4009-8fa8-14542acd5532"},"vehicle_type_id":"4","last_reported":1702721224,"current_range_meters":23600,"station_id":"ce4bgv92rcd13ifvqcq0","pricing_plan_id":"free"},{"bike_id":"e80b0dce-ff66-4d99-b5a3-df1e3fc4a4b1","system_id":"levelo_inurba_marseille","lat":43.303046,"lon":5.368981,"is_reserved":false,"is_disabled":false,"rental_uris":{"android":"levelo://app?vid=e80b0dce-ff66-4d99-b5a3-df1e3fc4a4b1","ios":"levelo://app?vid=e80b0dce-ff66-4d99-b5a3-df1e3fc4a4b1"},"vehicle_type_id":"4","last_reported":1702721224,"current_range_meters":31200,"station_id":"ce4bgqh2rcd13ifvqc5g","pricing_plan_id":"free"},{"bike_id":"79d3200c-b2a4-4687-b996-8662845eaabf","system_id":"levelo_inurba_marseille","lat":43.303046,"lon":5.368981,"is_reserved":false,"is_disabled":false,"rental_uris":{"android":"levelo://app?vid=79d3200c-b2a4-4687-b996-8662845eaabf","ios":"levelo://app?vid=79d3200c-b2a4-4687-b996-8662845eaabf"},"vehicle_type_id":"4","last_reported":1702721224,"current_range_meters":6800,"station_id":"ce4bgqh2rcd13ifvqc5g","pricing_plan_id":"free"},{"bike_id":"112889bc-8d0f-431d-9767-314715ea602b","system_id":"levelo_inurba_marseille","lat":43.315539,"lon":5.38007,"is_reserved":false,"is_disabled":false,"rental_uris":{"android":"levelo://app?vid=112889bc-8d0f-431d-9767-314715ea602b","ios":"levelo://app?vid=112889bc-8d0f-431d-9767-314715ea602b"},"vehicle_type_id":"4","last_reported":1702721224,"current_range_meters":16800,"station_id":"ce4bhsp2rcd13ifvqi50","pricing_plan_id":"free"},{"bike_id":"8d0764f7-c6ec-46ef-9112-b98e0cf7975f","system_id":"levelo_inurba_marseille","lat":43.304606,"lon":5.379026,"is_reserved":false,"is_disabled":false,"rental_uris":{"android":"levelo://app?vid=8d0764f7-c6ec-46ef-9112-b98e0cf7975f","ios":"levelo://app?vid=8d0764f7-c6ec-46ef-9112-b98e0cf7975f"},"vehicle_type_id":"4","last_reported":1702721224,"current_range_meters":13200,"station_id":"ce4bgup2rcd13ifvqcn0","pricing_plan_id":"free"},{"bike_id":"a5b876e7-cddc-4a09-86af-507e6df4bb42","system_id":"levelo_inurba_marseille","lat":43.304606,"lon":5.379026,"is_reserved":false,"is_disabled":false,"rental_uris":{"android":"levelo://app?vid=a5b876e7-cddc-4a09-86af-507e6df4bb42","ios":"levelo://app?vid=a5b876e7-cddc-4a09-86af-507e6df4bb42"},"vehicle_type_id":"4","last_reported":1702721224,"current_range_meters":28400,"station_id":"ce4bgup2rcd13ifvqcn0","pricing_plan_id":"free"},{"bike_id":"ff22a7f5-e6c2-45e5-b067-48d8fb909076","system_id":"levelo_inurba_marseille","lat":43.304606,"lon":5.379026,"is_reserved":false,"is_disabled":false,"rental_uris":{"android":"levelo://app?vid=ff22a7f5-e6c2-45e5-b067-48d8fb909076","ios":"levelo://app?vid=ff22a7f5-e6c2-45e5-b067-48d8fb909076"},"vehicle_type_id":"4","last_reported":1702721224,"current_range_meters":25200,"station_id":"ce4bgup2rcd13ifvqcn0","pricing_plan_id":"free"},{"bike_id":"d6bfee3a-aadf-4fc6-b7c7-3317849f2d58","system_id":"levelo_inurba_marseille","lat":43.304606,"lon":5.379026,"is_reserved":false,"is_disabled":false,"rental_uris":{"android":"levelo://app?vid=d6bfee3a-aadf-4fc6-b7c7-3317849f2d58","ios":"levelo://app?vid=d6bfee3a-aadf-4fc6-b7c7-3317849f2d58"},"vehicle_type_id":"4","last_reported":1702721224,"current_range_meters":27600,"station_id":"ce4bgup2rcd13ifvqcn0","pricing_plan_id":"free"},{"bike_id":"e3c53d49-cf48-407c-b2a4-f4810ee52a2f","system_id":"levelo_inurba_marseille","lat":43.304606,"lon":5.379026,"is_reserved":false,"is_disabled":false,"rental_uris":{"android":"levelo://app?vid=e3c53d49-cf48-407c-b2a4-f4810ee52a2f","ios":"levelo://app?vid=e3c53d49-cf48-407c-b2a4-f4810ee52a2f"},"vehicle_type_id":"4","last_reported":1702721224,"current_range_meters":15200,"station_id":"ce4bgup2rcd13ifvqcn0","pricing_plan_id":"free"},{"bike_id":"8e43974e-05d5-4a33-86e4-62a3e3537359","system_id":"levelo_inurba_marseille","lat":43.304606,"lon":5.379026,"is_reserved":false,"is_disabled":false,"rental_uris":{"android":"levelo://app?vid=8e43974e-05d5-4a33-86e4-62a3e3537359","ios":"levelo://app?vid=8e43974e-05d5-4a33-86e4-62a3e3537359"},"vehicle_type_id":"4","last_reported":1702721224,"current_range_meters":29600,"station_id":"ce4bgup2rcd13ifvqcn0","pricing_plan_id":"free"},{"bike_id":"13aa9d0e-58cc-4fec-a94a-ab3f7b882878","system_id":"levelo_inurba_marseille","lat":43.304606,"lon":5.379026,"is_reserved":false,"is_disabled":false,"rental_uris":{"android":"levelo://app?vid=13aa9d0e-58cc-4fec-a94a-ab3f7b882878","ios":"levelo://app?vid=13aa9d0e-58cc-4fec-a94a-ab3f7b882878"},"vehicle_type_id":"4","last_reported":1702721224,"current_range_meters":31600,"station_id":"ce4bgup2rcd13ifvqcn0","pricing_plan_id":"free"},{"bike_id":"b9017615-d4ec-4cea-9969-ab56fede6521","system_id":"levelo_inurba_marseille","lat":43.304606,"lon":5.379026,"is_reserved":false,"is_disabled":false,"rental_uris":{"android":"levelo://app?vid=b9017615-d4ec-4cea-9969-ab56fede6521","ios":"levelo://app?vid=b9017615-d4ec-4cea-9969-ab56fede6521"},"vehicle_type_id":"4","last_reported":1702721224,"current_range_meters":20800,"station_id":"ce4bgup2rcd13ifvqcn0","pricing_plan_id":"free"},{"bike_id":"9c248663-03d1-415b-88d2-6bfbc9175a63","system_id":"levelo_inurba_marseille","lat":43.304606,"lon":5.379026,"is_reserved":false,"is_disabled":false,"rental_uris":{"android":"levelo://app?vid=9c248663-03d1-415b-88d2-6bfbc9175a63","ios":"levelo://app?vid=9c248663-03d1-415b-88d2-6bfbc9175a63"},"vehicle_type_id":"4","last_reported":1702721224,"current_range_meters":29200,"station_id":"ce4bgup2rcd13ifvqcn0","pricing_plan_id":"free"},{"bike_id":"3ec6da86-b6f8-43fb-a36f-5b0aa8c723a9","system_id":"levelo_inurba_marseille","lat":43.304606,"lon":5.379026,"is_reserved":false,"is_disabled":false,"rental_uris":{"android":"levelo://app?vid=3ec6da86-b6f8-43fb-a36f-5b0aa8c723a9","ios":"levelo://app?vid=3ec6da86-b6f8-43fb-a36f-5b0aa8c723a9"},"vehicle_type_id":"4","last_reported":1702721224,"current_range_meters":31200,"station_id":"ce4bgup2rcd13ifvqcn0","pricing_plan_id":"free"},{"bike_id":"dfe62985-6f65-471f-8bdb-4e96693a7937","system_id":"levelo_inurba_marseille","lat":43.32483,"lon":5.36568,"is_reserved":false,"is_disabled":false,"rental_uris":{"android":"levelo://app?vid=dfe62985-6f65-471f-8bdb-4e96693a7937","ios":"levelo://app?vid=dfe62985-6f65-471f-8bdb-4e96693a7937"},"vehicle_type_id":"4","last_reported":1702721224,"current_range_meters":19200,"station_id":"ce4bhs12rcd13ifvqhvg","pricing_plan_id":"free"},{"bike_id":"f1cde3ff-6cd4-4e86-99bc-06e7a73fc0a0","system_id":"levelo_inurba_marseille","lat":43.324771,"lon":5.36557,"is_reserved":false,"is_disabled":false,"rental_uris":{"android":"levelo://app?vid=f1cde3ff-6cd4-4e86-99bc-06e7a73fc0a0","ios":"levelo://app?vid=f1cde3ff-6cd4-4e86-99bc-06e7a73fc0a0"},"vehicle_type_id":"4","last_reported":1702721224,"current_range_meters":17600,"station_id":"ce4bhs12rcd13ifvqhvg","pricing_plan_id":"free"},{"bike_id":"88f7ea2a-62f7-4a88-9e9d-900940b4d7e5","system_id":"levelo_inurba_marseille","lat":43.324771,"lon":5.36557,"is_reserved":false,"is_disabled":false,"rental_uris":{"android":"levelo://app?vid=88f7ea2a-62f7-4a88-9e9d-900940b4d7e5","ios":"levelo://app?vid=88f7ea2a-62f7-4a88-9e9d-900940b4d7e5"},"vehicle_type_id":"4","last_reported":1702721224,"current_range_meters":16800,"station_id":"ce4bhs12rcd13ifvqhvg","pricing_plan_id":"free"},{"bike_id":"a08feff8-0005-48fe-984f-d278f8723be7","system_id":"levelo_inurba_marseille","lat":43.30143,"lon":5.37413,"is_reserved":false,"is_disabled":false,"rental_uris":{"android":"levelo://app?vid=a08feff8-0005-48fe-984f-d278f8723be7","ios":"levelo://app?vid=a08feff8-0005-48fe-984f-d278f8723be7"},"vehicle_type_id":"4","last_reported":1702721224,"current_range_meters":27600,"station_id":"ce4bgs92rcd13ifvqcc0","pricing_plan_id":"free"},{"bike_id":"43918e18-cd5d-49db-93fb-49759c3ea9c8","system_id":"levelo_inurba_marseille","lat":43.30143,"lon":5.37413,"is_reserved":false,"is_disabled":false,"rental_uris":{"android":"levelo://app?vid=43918e18-cd5d-49db-93fb-49759c3ea9c8","ios":"levelo://app?vid=43918e18-cd5d-49db-93fb-49759c3ea9c8"},"vehicle_type_id":"4","last_reported":1702721224,"current_range_meters":28000,"station_id":"ce4bgs92rcd13ifvqcc0","pricing_plan_id":"free"},{"bike_id":"487896aa-3617-4efa-9391-1f96988efa64","system_id":"levelo_inurba_marseille","lat":43.301429,"lon":5.37413,"is_reserved":false,"is_disabled":false,"rental_uris":{"android":"levelo://app?vid=487896aa-3617-4efa-9391-1f96988efa64","ios":"levelo://app?vid=487896aa-3617-4efa-9391-1f96988efa64"},"vehicle_type_id":"4","last_reported":1702721224,"current_range_meters":20400,"station_id":"ce4bgs92rcd13ifvqcc0","pricing_plan_id":"free"},{"bike_id":"62e9817c-5791-445c-88a7-549da1674117","system_id":"levelo_inurba_marseille","lat":43.301429,"lon":5.37413,"is_reserved":false,"is_disabled":false,"rental_uris":{"android":"levelo://app?vid=62e9817c-5791-445c-88a7-549da1674117","ios":"levelo://app?vid=62e9817c-5791-445c-88a7-549da1674117"},"vehicle_type_id":"4","last_reported":1702721224,"current_range_meters":28400,"station_id":"ce4bgs92rcd13ifvqcc0","pricing_plan_id":"free"},{"bike_id":"06031211-d5d2-4cbc-8fba-770bc731ebe4","system_id":"levelo_inurba_marseille","lat":43.301429,"lon":5.37413,"is_reserved":false,"is_disabled":false,"rental_uris":{"android":"levelo://app?vid=06031211-d5d2-4cbc-8fba-770bc731ebe4","ios":"levelo://app?vid=06031211-d5d2-4cbc-8fba-770bc731ebe4"},"vehicle_type_id":"4","last_reported":1702721224,"current_range_meters":27600,"station_id":"ce4bgs92rcd13ifvqcc0","pricing_plan_id":"free"},{"bike_id":"34c5fc75-62c8-49b4-8210-f92a24eee5d5","system_id":"levelo_inurba_marseille","lat":43.313571,"lon":5.384829,"is_reserved":false,"is_disabled":false,"rental_uris":{"android":"levelo://app?vid=34c5fc75-62c8-49b4-8210-f92a24eee5d5","ios":"levelo://app?vid=34c5fc75-62c8-49b4-8210-f92a24eee5d5"},"vehicle_type_id":"4","last_reported":1702721224,"current_range_meters":14400,"station_id":"ce4bgt92rcd13ifvqcf0","pricing_plan_id":"free"},{"bike_id":"36ad9c63-4a81-4db2-8f4b-0bc23707d037","system_id":"levelo_inurba_marseille","lat":43.298433,"lon":5.362774,"is_reserved":false,"is_disabled":false,"rental_uris":{"android":"levelo://app?vid=36ad9c63-4a81-4db2-8f4b-0bc23707d037","ios":"levelo://app?vid=36ad9c63-4a81-4db2-8f4b-0bc23707d037"},"vehicle_type_id":"4","last_reported":1702721224,"current_range_meters":27200,"station_id":"ce4bgpp2rcd13ifvqc3g","pricing_plan_id":"free"},{"bike_id":"420a4b1b-5d5c-46bb-ae69-5cf27bd32f1a","system_id":"levelo_inurba_marseille","lat":43.298433,"lon":5.362774,"is_reserved":false,"is_disabled":false,"rental_uris":{"android":"levelo://app?vid=420a4b1b-5d5c-46bb-ae69-5cf27bd32f1a","ios":"levelo://app?vid=420a4b1b-5d5c-46bb-ae69-5cf27bd32f1a"},"vehicle_type_id":"4","last_reported":1702721224,"current_range_meters":31200,"station_id":"ce4bgpp2rcd13ifvqc3g","pricing_plan_id":"free"},{"bike_id":"886c09fa-d468-4065-a549-0ecd50c3f551","system_id":"levelo_inurba_marseille","lat":43.298433,"lon":5.362774,"is_reserved":false,"is_disabled":false,"rental_uris":{"android":"levelo://app?vid=886c09fa-d468-4065-a549-0ecd50c3f551","ios":"levelo://app?vid=886c09fa-d468-4065-a549-0ecd50c3f551"},"vehicle_type_id":"4","last_reported":1702721224,"current_range_meters":26000,"station_id":"ce4bgpp2rcd13ifvqc3g","pricing_plan_id":"free"},{"bike_id":"c4e77394-aef9-4077-b745-e99148625344","system_id":"levelo_inurba_marseille","lat":43.32733,"lon":5.36707,"is_reserved":false,"is_disabled":false,"rental_uris":{"android":"levelo://app?vid=c4e77394-aef9-4077-b745-e99148625344","ios":"levelo://app?vid=c4e77394-aef9-4077-b745-e99148625344"},"vehicle_type_id":"4","last_reported":1702721224,"current_range_meters":23200,"station_id":"","pricing_plan_id":"free"},{"bike_id":"3ca816d2-eff9-49af-aa44-ca93382468e5","system_id":"levelo_inurba_marseille","lat":43.299243,"lon":5.37481,"is_reserved":false,"is_disabled":false,"rental_uris":{"android":"levelo://app?vid=3ca816d2-eff9-49af-aa44-ca93382468e5","ios":"levelo://app?vid=3ca816d2-eff9-49af-aa44-ca93382468e5"},"vehicle_type_id":"4","last_reported":1702721224,"current_range_meters":28400,"station_id":"ce4bgjh2rcd13ifvqbg0","pricing_plan_id":"free"},{"bike_id":"819cb438-2e9c-4e0b-902b-5e19ef554d5c","system_id":"levelo_inurba_marseille","lat":43.305481,"lon":5.384393,"is_reserved":false,"is_disabled":false,"rental_uris":{"android":"levelo://app?vid=819cb438-2e9c-4e0b-902b-5e19ef554d5c","ios":"levelo://app?vid=819cb438-2e9c-4e0b-902b-5e19ef554d5c"},"vehicle_type_id":"4","last_reported":1702721224,"current_range_meters":17600,"station_id":"ce4bgg92rcd13ifvqb30","pricing_plan_id":"free"},{"bike_id":"1af341fc-09a8-4874-83bd-b8194107905f","system_id":"levelo_inurba_marseille","lat":43.298433,"lon":5.362774,"is_reserved":false,"is_disabled":false,"rental_uris":{"android":"levelo://app?vid=1af341fc-09a8-4874-83bd-b8194107905f","ios":"levelo://app?vid=1af341fc-09a8-4874-83bd-b8194107905f"},"vehicle_type_id":"4","last_reported":1702721224,"current_range_meters":30000,"station_id":"ce4bgpp2rcd13ifvqc3g","pricing_plan_id":"free"},{"bike_id":"a2a759b4-8274-4195-b65e-8329008bd4ec","system_id":"levelo_inurba_marseille","lat":43.311722,"lon":5.387247,"is_reserved":false,"is_disabled":false,"rental_uris":{"android":"levelo://app?vid=a2a759b4-8274-4195-b65e-8329008bd4ec","ios":"levelo://app?vid=a2a759b4-8274-4195-b65e-8329008bd4ec"},"vehicle_type_id":"4","last_reported":1702721224,"current_range_meters":28400,"station_id":"ce4bgv12rcd13ifvqcp0","pricing_plan_id":"free"},{"bike_id":"d5f94bf5-d229-4174-b0bf-f78da2f7017e","system_id":"levelo_inurba_marseille","lat":43.322872,"lon":5.382756,"is_reserved":false,"is_disabled":false,"rental_uris":{"android":"levelo://app?vid=d5f94bf5-d229-4174-b0bf-f78da2f7017e","ios":"levelo://app?vid=d5f94bf5-d229-4174-b0bf-f78da2f7017e"},"vehicle_type_id":"4","last_reported":1702721224,"current_range_meters":11200,"station_id":"ce4bhr12rcd13ifvqhqg","pricing_plan_id":"free"},{"bike_id":"1737724e-cb2c-4de9-82f2-77dd2021971f","system_id":"levelo_inurba_marseille","lat":43.32828,"lon":5.36678,"is_reserved":false,"is_disabled":false,"rental_uris":{"android":"levelo://app?vid=1737724e-cb2c-4de9-82f2-77dd2021971f","ios":"levelo://app?vid=1737724e-cb2c-4de9-82f2-77dd2021971f"},"vehicle_type_id":"4","last_reported":1702721224,"current_range_meters":17200,"station_id":"ce4bhs92rcd13ifvqi0g","pricing_plan_id":"free"},{"bike_id":"b086e63a-59ab-4cf7-9526-e5fe540abef0","system_id":"levelo_inurba_marseille","lat":43.297163,"lon":5.365866,"is_reserved":false,"is_disabled":false,"rental_uris":{"android":"levelo://app?vid=b086e63a-59ab-4cf7-9526-e5fe540abef0","ios":"levelo://app?vid=b086e63a-59ab-4cf7-9526-e5fe540abef0"},"vehicle_type_id":"4","last_reported":1702721224,"current_range_meters":20000,"station_id":"ce4bgn12rcd13ifvqbt0","pricing_plan_id":"free"},{"bike_id":"1b53373c-3c2f-4e8a-b873-4f0550f59ff9","system_id":"levelo_inurba_marseille","lat":43.297163,"lon":5.365866,"is_reserved":false,"is_disabled":false,"rental_uris":{"android":"levelo://app?vid=1b53373c-3c2f-4e8a-b873-4f0550f59ff9","ios":"levelo://app?vid=1b53373c-3c2f-4e8a-b873-4f0550f59ff9"},"vehicle_type_id":"4","last_reported":1702721224,"current_range_meters":20000,"station_id":"ce4bgn12rcd13ifvqbt0","pricing_plan_id":"free"},{"bike_id":"b3915924-263f-4e55-9f11-a37e3a22dc92","system_id":"levelo_inurba_marseille","lat":43.297163,"lon":5.365866,"is_reserved":false,"is_disabled":false,"rental_uris":{"android":"levelo://app?vid=b3915924-263f-4e55-9f11-a37e3a22dc92","ios":"levelo://app?vid=b3915924-263f-4e55-9f11-a37e3a22dc92"},"vehicle_type_id":"4","last_reported":1702721224,"current_range_meters":29600,"station_id":"ce4bgn12rcd13ifvqbt0","pricing_plan_id":"free"},{"bike_id":"b647e35c-5e3c-4b35-8db9-eaea4e2b61be","system_id":"levelo_inurba_marseille","lat":43.297163,"lon":5.365866,"is_reserved":false,"is_disabled":false,"rental_uris":{"android":"levelo://app?vid=b647e35c-5e3c-4b35-8db9-eaea4e2b61be","ios":"levelo://app?vid=b647e35c-5e3c-4b35-8db9-eaea4e2b61be"},"vehicle_type_id":"4","last_reported":1702721224,"current_range_meters":20800,"station_id":"ce4bgn12rcd13ifvqbt0","pricing_plan_id":"free"},{"bike_id":"0c52d5d0-6aa1-46b8-a4c0-ebf1132e1751","system_id":"levelo_inurba_marseille","lat":43.296131,"lon":5.370791,"is_reserved":false,"is_disabled":false,"rental_uris":{"android":"levelo://app?vid=0c52d5d0-6aa1-46b8-a4c0-ebf1132e1751","ios":"levelo://app?vid=0c52d5d0-6aa1-46b8-a4c0-ebf1132e1751"},"vehicle_type_id":"4","last_reported":1702721224,"current_range_meters":20000,"station_id":"ce4bgnh2rcd13ifvqc0g","pricing_plan_id":"free"},{"bike_id":"37efc4fc-3d11-46bc-9309-21310fe5d7db","system_id":"levelo_inurba_marseille","lat":43.296131,"lon":5.370773,"is_reserved":false,"is_disabled":false,"rental_uris":{"android":"levelo://app?vid=37efc4fc-3d11-46bc-9309-21310fe5d7db","ios":"levelo://app?vid=37efc4fc-3d11-46bc-9309-21310fe5d7db"},"vehicle_type_id":"4","last_reported":1702721224,"current_range_meters":26000,"station_id":"ce4bgnh2rcd13ifvqc0g","pricing_plan_id":"free"},{"bike_id":"25907433-ef9f-48fe-b1b9-7035239e3847","system_id":"levelo_inurba_marseille","lat":43.29573,"lon":5.367355,"is_reserved":false,"is_disabled":false,"rental_uris":{"android":"levelo://app?vid=25907433-ef9f-48fe-b1b9-7035239e3847","ios":"levelo://app?vid=25907433-ef9f-48fe-b1b9-7035239e3847"},"vehicle_type_id":"4","last_reported":1702721224,"current_range_meters":29600,"station_id":"ce4bgph2rcd13ifvqc2g","pricing_plan_id":"free"},{"bike_id":"7641fd56-c595-4a08-b22c-98431b79f274","system_id":"levelo_inurba_marseille","lat":43.29573,"lon":5.367355,"is_reserved":false,"is_disabled":false,"rental_uris":{"android":"levelo://app?vid=7641fd56-c595-4a08-b22c-98431b79f274","ios":"levelo://app?vid=7641fd56-c595-4a08-b22c-98431b79f274"},"vehicle_type_id":"4","last_reported":1702721224,"current_range_meters":26800,"station_id":"ce4bgph2rcd13ifvqc2g","pricing_plan_id":"free"},{"bike_id":"fc7e472f-d4d0-43ba-b16f-d2ee5aac5431","system_id":"levelo_inurba_marseille","lat":43.29573,"lon":5.367355,"is_reserved":false,"is_disabled":false,"rental_uris":{"android":"levelo://app?vid=fc7e472f-d4d0-43ba-b16f-d2ee5aac5431","ios":"levelo://app?vid=fc7e472f-d4d0-43ba-b16f-d2ee5aac5431"},"vehicle_type_id":"4","last_reported":1702721224,"current_range_meters":28800,"station_id":"ce4bgph2rcd13ifvqc2g","pricing_plan_id":"free"},{"bike_id":"09c3d4dd-fd52-4e55-b64f-623e251036b5","system_id":"levelo_inurba_marseille","lat":43.29573,"lon":5.367355,"is_reserved":false,"is_disabled":false,"rental_uris":{"android":"levelo://app?vid=09c3d4dd-fd52-4e55-b64f-623e251036b5","ios":"levelo://app?vid=09c3d4dd-fd52-4e55-b64f-623e251036b5"},"vehicle_type_id":"4","last_reported":1702721224,"current_range_meters":27600,"station_id":"ce4bgph2rcd13ifvqc2g","pricing_plan_id":"free"},{"bike_id":"5a3a80a1-b6f7-401c-979d-31ea89e80acb","system_id":"levelo_inurba_marseille","lat":43.29573,"lon":5.367355,"is_reserved":false,"is_disabled":false,"rental_uris":{"android":"levelo://app?vid=5a3a80a1-b6f7-401c-979d-31ea89e80acb","ios":"levelo://app?vid=5a3a80a1-b6f7-401c-979d-31ea89e80acb"},"vehicle_type_id":"4","last_reported":1702721224,"current_range_meters":28000,"station_id":"ce4bgph2rcd13ifvqc2g","pricing_plan_id":"free"},{"bike_id":"638b4dca-9224-4f0a-b3fd-bb88ebd40c86","system_id":"levelo_inurba_marseille","lat":43.296935,"lon":5.376544,"is_reserved":false,"is_disabled":false,"rental_uris":{"android":"levelo://app?vid=638b4dca-9224-4f0a-b3fd-bb88ebd40c86","ios":"levelo://app?vid=638b4dca-9224-4f0a-b3fd-bb88ebd40c86"},"vehicle_type_id":"4","last_reported":1702721224,"current_range_meters":30400,"station_id":"ce4bgkh2rcd13ifvqbl0","pricing_plan_id":"free"},{"bike_id":"eb825b53-6b51-44d9-80d0-3a138a529b06","system_id":"levelo_inurba_marseille","lat":43.296935,"lon":5.376544,"is_reserved":false,"is_disabled":false,"rental_uris":{"android":"levelo://app?vid=eb825b53-6b51-44d9-80d0-3a138a529b06","ios":"levelo://app?vid=eb825b53-6b51-44d9-80d0-3a138a529b06"},"vehicle_type_id":"4","last_reported":1702721224,"current_range_meters":27600,"station_id":"ce4bgkh2rcd13ifvqbl0","pricing_plan_id":"free"},{"bike_id":"5aed3985-29c5-4b68-82f4-290569ca7bc8","system_id":"levelo_inurba_marseille","lat":43.296921,"lon":5.376579,"is_reserved":false,"is_disabled":false,"rental_uris":{"android":"levelo://app?vid=5aed3985-29c5-4b68-82f4-290569ca7bc8","ios":"levelo://app?vid=5aed3985-29c5-4b68-82f4-290569ca7bc8"},"vehicle_type_id":"4","last_reported":1702721224,"current_range_meters":11200,"station_id":"ce4bgkh2rcd13ifvqbl0","pricing_plan_id":"free"},{"bike_id":"633509bd-dc37-47e5-b684-5b4fba0acbcc","system_id":"levelo_inurba_marseille","lat":43.317557,"lon":5.390173,"is_reserved":false,"is_disabled":false,"rental_uris":{"android":"levelo://app?vid=633509bd-dc37-47e5-b684-5b4fba0acbcc","ios":"levelo://app?vid=633509bd-dc37-47e5-b684-5b4fba0acbcc"},"vehicle_type_id":"4","last_reported":1702721224,"current_range_meters":21600,"station_id":"ce4bhqp2rcd13ifvqhng","pricing_plan_id":"free"},{"bike_id":"576121e8-9376-4ba2-b570-84e4e4b9898e","system_id":"levelo_inurba_marseille","lat":43.29797,"lon":5.38099,"is_reserved":false,"is_disabled":false,"rental_uris":{"android":"levelo://app?vid=576121e8-9376-4ba2-b570-84e4e4b9898e","ios":"levelo://app?vid=576121e8-9376-4ba2-b570-84e4e4b9898e"},"vehicle_type_id":"4","last_reported":1702721224,"current_range_meters":14000,"station_id":"ce4bgip2rcd13ifvqbb0","pricing_plan_id":"free"},{"bike_id":"8e5cd4a4-0ce4-44b6-9360-536e819b3c12","system_id":"levelo_inurba_marseille","lat":43.304278,"lon":5.388868,"is_reserved":false,"is_disabled":false,"rental_uris":{"android":"levelo://app?vid=8e5cd4a4-0ce4-44b6-9360-536e819b3c12","ios":"levelo://app?vid=8e5cd4a4-0ce4-44b6-9360-536e819b3c12"},"vehicle_type_id":"4","last_reported":1702721224,"current_range_meters":26400,"station_id":"ce4bgk12rcd13ifvqbi0","pricing_plan_id":"free"},{"bike_id":"f22e5eaa-c7c4-4141-b072-5fcee1b6dcab","system_id":"levelo_inurba_marseille","lat":43.304278,"lon":5.388868,"is_reserved":false,"is_disabled":false,"rental_uris":{"android":"levelo://app?vid=f22e5eaa-c7c4-4141-b072-5fcee1b6dcab","ios":"levelo://app?vid=f22e5eaa-c7c4-4141-b072-5fcee1b6dcab"},"vehicle_type_id":"4","last_reported":1702721224,"current_range_meters":28000,"station_id":"ce4bgk12rcd13ifvqbi0","pricing_plan_id":"free"},{"bike_id":"b3bfc9a6-a35f-46fd-a87e-55f1de3e2912","system_id":"levelo_inurba_marseille","lat":43.304278,"lon":5.388868,"is_reserved":false,"is_disabled":false,"rental_uris":{"android":"levelo://app?vid=b3bfc9a6-a35f-46fd-a87e-55f1de3e2912","ios":"levelo://app?vid=b3bfc9a6-a35f-46fd-a87e-55f1de3e2912"},"vehicle_type_id":"4","last_reported":1702721224,"current_range_meters":26400,"station_id":"ce4bgk12rcd13ifvqbi0","pricing_plan_id":"free"},{"bike_id":"8d3bb5c1-c498-4b4b-80c4-f2a29d4d28c5","system_id":"levelo_inurba_marseille","lat":43.295748,"lon":5.37522,"is_reserved":false,"is_disabled":false,"rental_uris":{"android":"levelo://app?vid=8d3bb5c1-c498-4b4b-80c4-f2a29d4d28c5","ios":"levelo://app?vid=8d3bb5c1-c498-4b4b-80c4-f2a29d4d28c5"},"vehicle_type_id":"4","last_reported":1702721224,"current_range_meters":8000,"station_id":"ce4bgh92rcd13ifvqb50","pricing_plan_id":"free"},{"bike_id":"e20a3257-6f9e-46bc-a8ae-dceff67c7951","system_id":"levelo_inurba_marseille","lat":43.295279,"lon":5.375048,"is_reserved":false,"is_disabled":false,"rental_uris":{"android":"levelo://app?vid=e20a3257-6f9e-46bc-a8ae-dceff67c7951","ios":"levelo://app?vid=e20a3257-6f9e-46bc-a8ae-dceff67c7951"},"vehicle_type_id":"4","last_reported":1702721224,"current_range_meters":25200,"station_id":"ce4bgkp2rcd13ifvqbmg","pricing_plan_id":"free"},{"bike_id":"618eaa43-512e-4b24-880f-2a97a8de9c5d","system_id":"levelo_inurba_marseille","lat":43.295279,"lon":5.375048,"is_reserved":false,"is_disabled":false,"rental_uris":{"android":"levelo://app?vid=618eaa43-512e-4b24-880f-2a97a8de9c5d","ios":"levelo://app?vid=618eaa43-512e-4b24-880f-2a97a8de9c5d"},"vehicle_type_id":"4","last_reported":1702721224,"current_range_meters":18400,"station_id":"ce4bgkp2rcd13ifvqbmg","pricing_plan_id":"free"},{"bike_id":"24c19684-28c7-4ae4-b6ac-1840f97117bb","system_id":"levelo_inurba_marseille","lat":43.32367,"lon":5.388836,"is_reserved":false,"is_disabled":false,"rental_uris":{"android":"levelo://app?vid=24c19684-28c7-4ae4-b6ac-1840f97117bb","ios":"levelo://app?vid=24c19684-28c7-4ae4-b6ac-1840f97117bb"},"vehicle_type_id":"4","last_reported":1702721224,"current_range_meters":400,"station_id":"ce4bhqp2rcd13ifvqhog","pricing_plan_id":"free"},{"bike_id":"a3d0164f-317f-4e9b-9cae-86f291adce52","system_id":"levelo_inurba_marseille","lat":43.29601,"lon":5.381084,"is_reserved":false,"is_disabled":false,"rental_uris":{"android":"levelo://app?vid=a3d0164f-317f-4e9b-9cae-86f291adce52","ios":"levelo://app?vid=a3d0164f-317f-4e9b-9cae-86f291adce52"},"vehicle_type_id":"4","last_reported":1702721224,"current_range_meters":16800,"station_id":"ce4bgl12rcd13ifvqbo0","pricing_plan_id":"free"},{"bike_id":"f8f463b7-d3f4-4efc-bb44-4a0a84e58881","system_id":"levelo_inurba_marseille","lat":43.29308,"lon":5.37186,"is_reserved":false,"is_disabled":false,"rental_uris":{"android":"levelo://app?vid=f8f463b7-d3f4-4efc-bb44-4a0a84e58881","ios":"levelo://app?vid=f8f463b7-d3f4-4efc-bb44-4a0a84e58881"},"vehicle_type_id":"4","last_reported":1702721224,"current_range_meters":22000,"station_id":"ce4bgh92rcd13ifvqb40","pricing_plan_id":"free"},{"bike_id":"1bc9acb1-09ee-4af8-b2e5-2bd55f626628","system_id":"levelo_inurba_marseille","lat":43.292997,"lon":5.374637,"is_reserved":false,"is_disabled":false,"rental_uris":{"android":"levelo://app?vid=1bc9acb1-09ee-4af8-b2e5-2bd55f626628","ios":"levelo://app?vid=1bc9acb1-09ee-4af8-b2e5-2bd55f626628"},"vehicle_type_id":"4","last_reported":1702721224,"current_range_meters":16400,"station_id":"","pricing_plan_id":"free"},{"bike_id":"341d4a83-f232-425a-825f-af4a37864761","system_id":"levelo_inurba_marseille","lat":43.302992,"lon":5.392136,"is_reserved":false,"is_disabled":false,"rental_uris":{"android":"levelo://app?vid=341d4a83-f232-425a-825f-af4a37864761","ios":"levelo://app?vid=341d4a83-f232-425a-825f-af4a37864761"},"vehicle_type_id":"4","last_reported":1702721224,"current_range_meters":4400,"station_id":"ce4bgkh2rcd13ifvqbk0","pricing_plan_id":"free"},{"bike_id":"9107ffac-ad3f-407e-85f6-c991ef56b96a","system_id":"levelo_inurba_marseille","lat":43.300852,"lon":5.390859,"is_reserved":false,"is_disabled":false,"rental_uris":{"android":"levelo://app?vid=9107ffac-ad3f-407e-85f6-c991ef56b96a","ios":"levelo://app?vid=9107ffac-ad3f-407e-85f6-c991ef56b96a"},"vehicle_type_id":"4","last_reported":1702721224,"current_range_meters":31200,"station_id":"ce4bh192rcd13ifvqdb0","pricing_plan_id":"free"},{"bike_id":"111119ae-6688-4a0e-946e-810929bd81de","system_id":"levelo_inurba_marseille","lat":43.298766,"lon":5.389062,"is_reserved":false,"is_disabled":false,"rental_uris":{"android":"levelo://app?vid=111119ae-6688-4a0e-946e-810929bd81de","ios":"levelo://app?vid=111119ae-6688-4a0e-946e-810929bd81de"},"vehicle_type_id":"4","last_reported":1702721224,"current_range_meters":5200,"station_id":"","pricing_plan_id":"free"},{"bike_id":"0eb97ce2-8b1c-4e80-b33e-03860acd1a7f","system_id":"levelo_inurba_marseille","lat":43.291675,"lon":5.371583,"is_reserved":false,"is_disabled":false,"rental_uris":{"android":"levelo://app?vid=0eb97ce2-8b1c-4e80-b33e-03860acd1a7f","ios":"levelo://app?vid=0eb97ce2-8b1c-4e80-b33e-03860acd1a7f"},"vehicle_type_id":"4","last_reported":1702721224,"current_range_meters":31200,"station_id":"ce4bha92rcd13ifvqeh0","pricing_plan_id":"free"},{"bike_id":"5d8f4c0a-1894-4784-9947-4c7cec0be9bc","system_id":"levelo_inurba_marseille","lat":43.313291,"lon":5.396838,"is_reserved":false,"is_disabled":false,"rental_uris":{"android":"levelo://app?vid=5d8f4c0a-1894-4784-9947-4c7cec0be9bc","ios":"levelo://app?vid=5d8f4c0a-1894-4784-9947-4c7cec0be9bc"},"vehicle_type_id":"4","last_reported":1702721224,"current_range_meters":31200,"station_id":"ce4bgvp2rcd13ifvqcu0","pricing_plan_id":"free"},{"bike_id":"609b51cc-ca0d-48c9-ae97-3326a069592e","system_id":"levelo_inurba_marseille","lat":43.29529,"lon":5.385581,"is_reserved":false,"is_disabled":false,"rental_uris":{"android":"levelo://app?vid=609b51cc-ca0d-48c9-ae97-3326a069592e","ios":"levelo://app?vid=609b51cc-ca0d-48c9-ae97-3326a069592e"},"vehicle_type_id":"4","last_reported":1702721224,"current_range_meters":13200,"station_id":"ce4bgih2rcd13ifvqba0","pricing_plan_id":"free"},{"bike_id":"0b90a8d6-160c-46e4-a1dd-2736f69a80e1","system_id":"levelo_inurba_marseille","lat":43.302008,"lon":5.394694,"is_reserved":false,"is_disabled":false,"rental_uris":{"android":"levelo://app?vid=0b90a8d6-160c-46e4-a1dd-2736f69a80e1","ios":"levelo://app?vid=0b90a8d6-160c-46e4-a1dd-2736f69a80e1"},"vehicle_type_id":"4","last_reported":1702721224,"current_range_meters":31200,"station_id":"ce4bh0p2rcd13ifvqd70","pricing_plan_id":"free"},{"bike_id":"dc1a1e5d-fb52-4028-a5d2-a55eefe69d14","system_id":"levelo_inurba_marseille","lat":43.302008,"lon":5.394694,"is_reserved":false,"is_disabled":false,"rental_uris":{"android":"levelo://app?vid=dc1a1e5d-fb52-4028-a5d2-a55eefe69d14","ios":"levelo://app?vid=dc1a1e5d-fb52-4028-a5d2-a55eefe69d14"},"vehicle_type_id":"4","last_reported":1702721224,"current_range_meters":23200,"station_id":"ce4bh0p2rcd13ifvqd70","pricing_plan_id":"free"},{"bike_id":"97ce2e3c-a898-4344-8264-e9d4189da15e","system_id":"levelo_inurba_marseille","lat":43.294153,"lon":5.386305,"is_reserved":false,"is_disabled":false,"rental_uris":{"android":"levelo://app?vid=97ce2e3c-a898-4344-8264-e9d4189da15e","ios":"levelo://app?vid=97ce2e3c-a898-4344-8264-e9d4189da15e"},"vehicle_type_id":"4","last_reported":1702721224,"current_range_meters":9600,"station_id":"ce4bh2h2rcd13ifvqdh0","pricing_plan_id":"free"},{"bike_id":"309287d9-8852-4a06-8bc8-c3f2c2950fa8","system_id":"levelo_inurba_marseille","lat":43.290327,"lon":5.375711,"is_reserved":false,"is_disabled":false,"rental_uris":{"android":"levelo://app?vid=309287d9-8852-4a06-8bc8-c3f2c2950fa8","ios":"levelo://app?vid=309287d9-8852-4a06-8bc8-c3f2c2950fa8"},"vehicle_type_id":"4","last_reported":1702721224,"current_range_meters":28800,"station_id":"ce4bh692rcd13ifvqe90","pricing_plan_id":"free"},{"bike_id":"3ab4be90-23e9-4c0a-8e2f-8fb811809198","system_id":"levelo_inurba_marseille","lat":43.289184,"lon":5.366408,"is_reserved":false,"is_disabled":false,"rental_uris":{"android":"levelo://app?vid=3ab4be90-23e9-4c0a-8e2f-8fb811809198","ios":"levelo://app?vid=3ab4be90-23e9-4c0a-8e2f-8fb811809198"},"vehicle_type_id":"4","last_reported":1702721224,"current_range_meters":27600,"station_id":"ce4bhap2rcd13ifvqek0","pricing_plan_id":"free"},{"bike_id":"558c6d35-fbaf-4e2b-a7a8-432a750166b6","system_id":"levelo_inurba_marseille","lat":43.304353,"lon":5.397484,"is_reserved":false,"is_disabled":false,"rental_uris":{"android":"levelo://app?vid=558c6d35-fbaf-4e2b-a7a8-432a750166b6","ios":"levelo://app?vid=558c6d35-fbaf-4e2b-a7a8-432a750166b6"},"vehicle_type_id":"4","last_reported":1702721224,"current_range_meters":29200,"station_id":"","pricing_plan_id":"free"},{"bike_id":"2af1ec1d-db50-4675-b168-902ca134119a","system_id":"levelo_inurba_marseille","lat":43.33044,"lon":5.38918,"is_reserved":false,"is_disabled":false,"rental_uris":{"android":"levelo://app?vid=2af1ec1d-db50-4675-b168-902ca134119a","ios":"levelo://app?vid=2af1ec1d-db50-4675-b168-902ca134119a"},"vehicle_type_id":"4","last_reported":1702721224,"current_range_meters":0,"station_id":"ce4bhr92rcd13ifvqhrg","pricing_plan_id":"free"},{"bike_id":"7dae5f9f-db65-4399-8d4a-368f652865b7","system_id":"levelo_inurba_marseille","lat":43.29008,"lon":5.35611,"is_reserved":false,"is_disabled":false,"rental_uris":{"android":"levelo://app?vid=7dae5f9f-db65-4399-8d4a-368f652865b7","ios":"levelo://app?vid=7dae5f9f-db65-4399-8d4a-368f652865b7"},"vehicle_type_id":"4","last_reported":1702721224,"current_range_meters":26800,"station_id":"ce4bhb92rcd13ifvqen0","pricing_plan_id":"free"},{"bike_id":"6eebef9e-68f9-4804-8082-3e6c2c304641","system_id":"levelo_inurba_marseille","lat":43.29006,"lon":5.35606,"is_reserved":false,"is_disabled":false,"rental_uris":{"android":"levelo://app?vid=6eebef9e-68f9-4804-8082-3e6c2c304641","ios":"levelo://app?vid=6eebef9e-68f9-4804-8082-3e6c2c304641"},"vehicle_type_id":"4","last_reported":1702721224,"current_range_meters":17600,"station_id":"ce4bhb92rcd13ifvqen0","pricing_plan_id":"free"},{"bike_id":"dcb49890-d113-4e8d-9814-51924e3b9fd5","system_id":"levelo_inurba_marseille","lat":43.330442,"lon":5.389148,"is_reserved":false,"is_disabled":false,"rental_uris":{"android":"levelo://app?vid=dcb49890-d113-4e8d-9814-51924e3b9fd5","ios":"levelo://app?vid=dcb49890-d113-4e8d-9814-51924e3b9fd5"},"vehicle_type_id":"4","last_reported":1702721224,"current_range_meters":21600,"station_id":"ce4bhr92rcd13ifvqhrg","pricing_plan_id":"free"},{"bike_id":"241ef4f6-f5d0-43a8-a34a-db7a42fd4b96","system_id":"levelo_inurba_marseille","lat":43.29786,"lon":5.39329,"is_reserved":false,"is_disabled":false,"rental_uris":{"android":"levelo://app?vid=241ef4f6-f5d0-43a8-a34a-db7a42fd4b96","ios":"levelo://app?vid=241ef4f6-f5d0-43a8-a34a-db7a42fd4b96"},"vehicle_type_id":"4","last_reported":1702721224,"current_range_meters":23200,"station_id":"chh1huq6cuj3fo74tm60","pricing_plan_id":"free"},{"bike_id":"03d5a656-1e65-48a8-be12-7bcc36727d90","system_id":"levelo_inurba_marseille","lat":43.289741,"lon":5.378306,"is_reserved":false,"is_disabled":false,"rental_uris":{"android":"levelo://app?vid=03d5a656-1e65-48a8-be12-7bcc36727d90","ios":"levelo://app?vid=03d5a656-1e65-48a8-be12-7bcc36727d90"},"vehicle_type_id":"4","last_reported":1702721224,"current_range_meters":24800,"station_id":"ce4bh9p2rcd13ifvqed0","pricing_plan_id":"free"},{"bike_id":"6b429fb1-b12b-4e0a-bfb5-1a7f479a9ea8","system_id":"levelo_inurba_marseille","lat":43.28853,"lon":5.35854,"is_reserved":false,"is_disabled":false,"rental_uris":{"android":"levelo://app?vid=6b429fb1-b12b-4e0a-bfb5-1a7f479a9ea8","ios":"levelo://app?vid=6b429fb1-b12b-4e0a-bfb5-1a7f479a9ea8"},"vehicle_type_id":"4","last_reported":1702721224,"current_range_meters":12800,"station_id":"ce4bhb12rcd13ifvqem0","pricing_plan_id":"free"},{"bike_id":"0a6a1ed2-fa39-46c3-a9a9-c09441ba9175","system_id":"levelo_inurba_marseille","lat":43.312535,"lon":5.40162,"is_reserved":false,"is_disabled":false,"rental_uris":{"android":"levelo://app?vid=0a6a1ed2-fa39-46c3-a9a9-c09441ba9175","ios":"levelo://app?vid=0a6a1ed2-fa39-46c3-a9a9-c09441ba9175"},"vehicle_type_id":"4","last_reported":1702721224,"current_range_meters":18000,"station_id":"ce4bh092rcd13ifvqd30","pricing_plan_id":"free"},{"bike_id":"811eac48-7c36-4ce9-9a27-879aa1e1514e","system_id":"levelo_inurba_marseille","lat":43.33745,"lon":5.37451,"is_reserved":false,"is_disabled":false,"rental_uris":{"android":"levelo://app?vid=811eac48-7c36-4ce9-9a27-879aa1e1514e","ios":"levelo://app?vid=811eac48-7c36-4ce9-9a27-879aa1e1514e"},"vehicle_type_id":"4","last_reported":1702721224,"current_range_meters":23600,"station_id":"","pricing_plan_id":"free"},{"bike_id":"f0cd831c-cfb9-44c7-9487-103b6df223ca","system_id":"levelo_inurba_marseille","lat":43.337445,"lon":5.374592,"is_reserved":false,"is_disabled":false,"rental_uris":{"android":"levelo://app?vid=f0cd831c-cfb9-44c7-9487-103b6df223ca","ios":"levelo://app?vid=f0cd831c-cfb9-44c7-9487-103b6df223ca"},"vehicle_type_id":"4","last_reported":1702721224,"current_range_meters":29600,"station_id":"","pricing_plan_id":"free"},{"bike_id":"e3c05e88-380c-41dc-9e90-0a95befc201d","system_id":"levelo_inurba_marseille","lat":43.306444,"lon":5.400728,"is_reserved":false,"is_disabled":false,"rental_uris":{"android":"levelo://app?vid=e3c05e88-380c-41dc-9e90-0a95befc201d","ios":"levelo://app?vid=e3c05e88-380c-41dc-9e90-0a95befc201d"},"vehicle_type_id":"4","last_reported":1702721224,"current_range_meters":20400,"station_id":"ce4bh112rcd13ifvqda0","pricing_plan_id":"free"},{"bike_id":"a15a6f31-d26a-498f-aab0-fad2629bd007","system_id":"levelo_inurba_marseille","lat":43.337535,"lon":5.37446,"is_reserved":false,"is_disabled":false,"rental_uris":{"android":"levelo://app?vid=a15a6f31-d26a-498f-aab0-fad2629bd007","ios":"levelo://app?vid=a15a6f31-d26a-498f-aab0-fad2629bd007"},"vehicle_type_id":"4","last_reported":1702721224,"current_range_meters":0,"station_id":"","pricing_plan_id":"free"},{"bike_id":"ef80ceab-dc9f-4b6c-8f52-707d5177f481","system_id":"levelo_inurba_marseille","lat":43.33752,"lon":5.37466,"is_reserved":false,"is_disabled":false,"rental_uris":{"android":"levelo://app?vid=ef80ceab-dc9f-4b6c-8f52-707d5177f481","ios":"levelo://app?vid=ef80ceab-dc9f-4b6c-8f52-707d5177f481"},"vehicle_type_id":"4","last_reported":1702721224,"current_range_meters":29200,"station_id":"","pricing_plan_id":"free"},{"bike_id":"1b1bd80c-92ec-4f8e-8e80-a125315f4b22","system_id":"levelo_inurba_marseille","lat":43.337681,"lon":5.374343,"is_reserved":false,"is_disabled":false,"rental_uris":{"android":"levelo://app?vid=1b1bd80c-92ec-4f8e-8e80-a125315f4b22","ios":"levelo://app?vid=1b1bd80c-92ec-4f8e-8e80-a125315f4b22"},"vehicle_type_id":"4","last_reported":1702721224,"current_range_meters":4400,"station_id":"","pricing_plan_id":"free"},{"bike_id":"0589af4e-8c39-441f-bcf3-a2b62c003b9e","system_id":"levelo_inurba_marseille","lat":43.301117,"lon":5.398795,"is_reserved":false,"is_disabled":false,"rental_uris":{"android":"levelo://app?vid=0589af4e-8c39-441f-bcf3-a2b62c003b9e","ios":"levelo://app?vid=0589af4e-8c39-441f-bcf3-a2b62c003b9e"},"vehicle_type_id":"4","last_reported":1702721224,"current_range_meters":15200,"station_id":"ce4bh0h2rcd13ifvqd40","pricing_plan_id":"free"},{"bike_id":"b0cb8979-bf2f-4868-b4e0-12f40a309eb8","system_id":"levelo_inurba_marseille","lat":43.286591,"lon":5.363346,"is_reserved":false,"is_disabled":false,"rental_uris":{"android":"levelo://app?vid=b0cb8979-bf2f-4868-b4e0-12f40a309eb8","ios":"levelo://app?vid=b0cb8979-bf2f-4868-b4e0-12f40a309eb8"},"vehicle_type_id":"4","last_reported":1702721224,"current_range_meters":22400,"station_id":"ce4bhah2rcd13ifvqej0","pricing_plan_id":"free"},{"bike_id":"eaf8d200-80ba-4546-9511-d6770e719bf0","system_id":"levelo_inurba_marseille","lat":43.286591,"lon":5.363346,"is_reserved":false,"is_disabled":false,"rental_uris":{"android":"levelo://app?vid=eaf8d200-80ba-4546-9511-d6770e719bf0","ios":"levelo://app?vid=eaf8d200-80ba-4546-9511-d6770e719bf0"},"vehicle_type_id":"4","last_reported":1702721224,"current_range_meters":28400,"station_id":"ce4bhah2rcd13ifvqej0","pricing_plan_id":"free"},{"bike_id":"46937d05-36c2-495a-9b30-7603f646a5e5","system_id":"levelo_inurba_marseille","lat":43.30752,"lon":5.402726,"is_reserved":false,"is_disabled":false,"rental_uris":{"android":"levelo://app?vid=46937d05-36c2-495a-9b30-7603f646a5e5","ios":"levelo://app?vid=46937d05-36c2-495a-9b30-7603f646a5e5"},"vehicle_type_id":"4","last_reported":1702721224,"current_range_meters":14400,"station_id":"","pricing_plan_id":"free"},{"bike_id":"d15a346b-d3b3-4851-9ece-baf1c6f58385","system_id":"levelo_inurba_marseille","lat":43.290336,"lon":5.386425,"is_reserved":false,"is_disabled":false,"rental_uris":{"android":"levelo://app?vid=d15a346b-d3b3-4851-9ece-baf1c6f58385","ios":"levelo://app?vid=d15a346b-d3b3-4851-9ece-baf1c6f58385"},"vehicle_type_id":"4","last_reported":1702721224,"current_range_meters":22400,"station_id":"ce4bh4p2rcd13ifvqe0g","pricing_plan_id":"free"},{"bike_id":"246d5fa5-c550-48ea-a6ec-41b624ab5d9f","system_id":"levelo_inurba_marseille","lat":43.286039,"lon":5.370679,"is_reserved":false,"is_disabled":false,"rental_uris":{"android":"levelo://app?vid=246d5fa5-c550-48ea-a6ec-41b624ab5d9f","ios":"levelo://app?vid=246d5fa5-c550-48ea-a6ec-41b624ab5d9f"},"vehicle_type_id":"4","last_reported":1702721224,"current_range_meters":30000,"station_id":"ce4bht12rcd13ifvqi60","pricing_plan_id":"free"},{"bike_id":"5cde627d-4669-41c1-92d6-d3d1cf0af10c","system_id":"levelo_inurba_marseille","lat":43.287184,"lon":5.37937,"is_reserved":false,"is_disabled":false,"rental_uris":{"android":"levelo://app?vid=5cde627d-4669-41c1-92d6-d3d1cf0af10c","ios":"levelo://app?vid=5cde627d-4669-41c1-92d6-d3d1cf0af10c"},"vehicle_type_id":"4","last_reported":1702721224,"current_range_meters":27200,"station_id":"ce4bh9p2rcd13ifvqec0","pricing_plan_id":"free"},{"bike_id":"15e43c5c-45e9-4cf0-8cb1-213ee8167c83","system_id":"levelo_inurba_marseille","lat":43.31684,"lon":5.40459,"is_reserved":false,"is_disabled":false,"rental_uris":{"android":"levelo://app?vid=15e43c5c-45e9-4cf0-8cb1-213ee8167c83","ios":"levelo://app?vid=15e43c5c-45e9-4cf0-8cb1-213ee8167c83"},"vehicle_type_id":"4","last_reported":1702721224,"current_range_meters":30800,"station_id":"ce4bh012rcd13ifvqd00","pricing_plan_id":"free"},{"bike_id":"8fe2ce97-fea6-4d3a-bbd1-6da7a56bb1d4","system_id":"levelo_inurba_marseille","lat":43.316965,"lon":5.404588,"is_reserved":false,"is_disabled":false,"rental_uris":{"android":"levelo://app?vid=8fe2ce97-fea6-4d3a-bbd1-6da7a56bb1d4","ios":"levelo://app?vid=8fe2ce97-fea6-4d3a-bbd1-6da7a56bb1d4"},"vehicle_type_id":"4","last_reported":1702721224,"current_range_meters":28400,"station_id":"ce4bh012rcd13ifvqd00","pricing_plan_id":"free"},{"bike_id":"12a5fd8c-1371-4587-accc-b3754c2414ba","system_id":"levelo_inurba_marseille","lat":43.28644,"lon":5.3793,"is_reserved":false,"is_disabled":false,"rental_uris":{"android":"levelo://app?vid=12a5fd8c-1371-4587-accc-b3754c2414ba","ios":"levelo://app?vid=12a5fd8c-1371-4587-accc-b3754c2414ba"},"vehicle_type_id":"4","last_reported":1702721224,"current_range_meters":20400,"station_id":"","pricing_plan_id":"free"},{"bike_id":"1dc688ff-b84f-4e04-9b9d-e6d9a6525d77","system_id":"levelo_inurba_marseille","lat":43.284534,"lon":5.358662,"is_reserved":false,"is_disabled":false,"rental_uris":{"android":"levelo://app?vid=1dc688ff-b84f-4e04-9b9d-e6d9a6525d77","ios":"levelo://app?vid=1dc688ff-b84f-4e04-9b9d-e6d9a6525d77"},"vehicle_type_id":"4","last_reported":1702721224,"current_range_meters":30000,"station_id":"ce4bhah2rcd13ifvqei0","pricing_plan_id":"free"},{"bike_id":"f63aaf0f-0f98-4878-956a-81328fd0d921","system_id":"levelo_inurba_marseille","lat":43.295713,"lon":5.399639,"is_reserved":false,"is_disabled":false,"rental_uris":{"android":"levelo://app?vid=f63aaf0f-0f98-4878-956a-81328fd0d921","ios":"levelo://app?vid=f63aaf0f-0f98-4878-956a-81328fd0d921"},"vehicle_type_id":"4","last_reported":1702721224,"current_range_meters":22000,"station_id":"ce4bh312rcd13ifvqdj0","pricing_plan_id":"free"},{"bike_id":"09d0b8f5-ea4e-4c8f-ab16-cb710fa54b84","system_id":"levelo_inurba_marseille","lat":43.286595,"lon":5.386795,"is_reserved":false,"is_disabled":false,"rental_uris":{"android":"levelo://app?vid=09d0b8f5-ea4e-4c8f-ab16-cb710fa54b84","ios":"levelo://app?vid=09d0b8f5-ea4e-4c8f-ab16-cb710fa54b84"},"vehicle_type_id":"4","last_reported":1702721224,"current_range_meters":26400,"station_id":"ce4bh492rcd13ifvqdug","pricing_plan_id":"free"},{"bike_id":"4e7f35df-b5be-41f8-a088-b359fd0719b0","system_id":"levelo_inurba_marseille","lat":43.323464,"lon":5.406297,"is_reserved":false,"is_disabled":false,"rental_uris":{"android":"levelo://app?vid=4e7f35df-b5be-41f8-a088-b359fd0719b0","ios":"levelo://app?vid=4e7f35df-b5be-41f8-a088-b359fd0719b0"},"vehicle_type_id":"4","last_reported":1702721224,"current_range_meters":27200,"station_id":"ce4bhq92rcd13ifvqhjg","pricing_plan_id":"free"},{"bike_id":"16373837-b161-407f-b0fa-3d0f27559010","system_id":"levelo_inurba_marseille","lat":43.323464,"lon":5.406297,"is_reserved":false,"is_disabled":false,"rental_uris":{"android":"levelo://app?vid=16373837-b161-407f-b0fa-3d0f27559010","ios":"levelo://app?vid=16373837-b161-407f-b0fa-3d0f27559010"},"vehicle_type_id":"4","last_reported":1702721224,"current_range_meters":31200,"station_id":"ce4bhq92rcd13ifvqhjg","pricing_plan_id":"free"},{"bike_id":"8a09af35-6112-4cdb-998c-9ed30af03266","system_id":"levelo_inurba_marseille","lat":43.284787,"lon":5.384116,"is_reserved":false,"is_disabled":false,"rental_uris":{"android":"levelo://app?vid=8a09af35-6112-4cdb-998c-9ed30af03266","ios":"levelo://app?vid=8a09af35-6112-4cdb-998c-9ed30af03266"},"vehicle_type_id":"4","last_reported":1702721224,"current_range_meters":400,"station_id":"ce4bh512rcd13ifvqe3g","pricing_plan_id":"free"},{"bike_id":"07a27b17-3e39-4fed-90a2-f6b84abe0322","system_id":"levelo_inurba_marseille","lat":43.28831,"lon":5.39317,"is_reserved":false,"is_disabled":false,"rental_uris":{"android":"levelo://app?vid=07a27b17-3e39-4fed-90a2-f6b84abe0322","ios":"levelo://app?vid=07a27b17-3e39-4fed-90a2-f6b84abe0322"},"vehicle_type_id":"4","last_reported":1702721224,"current_range_meters":0,"station_id":"ce4bh2p2rcd13ifvqdi0","pricing_plan_id":"free"},{"bike_id":"ec904e76-873d-4fa6-bc93-9cc6179eae6c","system_id":"levelo_inurba_marseille","lat":43.284219,"lon":5.3497,"is_reserved":false,"is_disabled":false,"rental_uris":{"android":"levelo://app?vid=ec904e76-873d-4fa6-bc93-9cc6179eae6c","ios":"levelo://app?vid=ec904e76-873d-4fa6-bc93-9cc6179eae6c"},"vehicle_type_id":"4","last_reported":1702721224,"current_range_meters":26400,"station_id":"ce4bhbh2rcd13ifvqepg","pricing_plan_id":"free"},{"bike_id":"76627c66-5da1-4b71-a086-f69457c1d703","system_id":"levelo_inurba_marseille","lat":43.29041,"lon":5.399634,"is_reserved":false,"is_disabled":false,"rental_uris":{"android":"levelo://app?vid=76627c66-5da1-4b71-a086-f69457c1d703","ios":"levelo://app?vid=76627c66-5da1-4b71-a086-f69457c1d703"},"vehicle_type_id":"4","last_reported":1702721224,"current_range_meters":30400,"station_id":"ce4bh392rcd13ifvqdm0","pricing_plan_id":"free"},{"bike_id":"bd612fb5-9635-455a-a1c7-52e4f7cadbe6","system_id":"levelo_inurba_marseille","lat":43.296263,"lon":5.40601,"is_reserved":false,"is_disabled":false,"rental_uris":{"android":"levelo://app?vid=bd612fb5-9635-455a-a1c7-52e4f7cadbe6","ios":"levelo://app?vid=bd612fb5-9635-455a-a1c7-52e4f7cadbe6"},"vehicle_type_id":"4","last_reported":1702721224,"current_range_meters":30000,"station_id":"ce4bh0h2rcd13ifvqd60","pricing_plan_id":"free"},{"bike_id":"856e99c4-698b-482f-88e8-a63f0f9ebb9a","system_id":"levelo_inurba_marseille","lat":43.296263,"lon":5.40601,"is_reserved":false,"is_disabled":false,"rental_uris":{"android":"levelo://app?vid=856e99c4-698b-482f-88e8-a63f0f9ebb9a","ios":"levelo://app?vid=856e99c4-698b-482f-88e8-a63f0f9ebb9a"},"vehicle_type_id":"4","last_reported":1702721224,"current_range_meters":24400,"station_id":"ce4bh0h2rcd13ifvqd60","pricing_plan_id":"free"},{"bike_id":"4b4681e8-5ae5-40ac-b6b6-d29c248b4938","system_id":"levelo_inurba_marseille","lat":43.304188,"lon":5.412904,"is_reserved":false,"is_disabled":false,"rental_uris":{"android":"levelo://app?vid=4b4681e8-5ae5-40ac-b6b6-d29c248b4938","ios":"levelo://app?vid=4b4681e8-5ae5-40ac-b6b6-d29c248b4938"},"vehicle_type_id":"4","last_reported":1702721224,"current_range_meters":19200,"station_id":"ce4bhop2rcd13ifvqh8g","pricing_plan_id":"free"},{"bike_id":"4530ea2b-e5c6-4bb8-be2a-3800b9a97f8b","system_id":"levelo_inurba_marseille","lat":43.279087,"lon":5.380114,"is_reserved":false,"is_disabled":false,"rental_uris":{"android":"levelo://app?vid=4530ea2b-e5c6-4bb8-be2a-3800b9a97f8b","ios":"levelo://app?vid=4530ea2b-e5c6-4bb8-be2a-3800b9a97f8b"},"vehicle_type_id":"4","last_reported":1702721224,"current_range_meters":24800,"station_id":"ce4bhf92rcd13ifvqf50","pricing_plan_id":"free"},{"bike_id":"39e1f3b9-6491-4f6d-b448-50f375a06476","system_id":"levelo_inurba_marseille","lat":43.320045,"lon":5.415046,"is_reserved":false,"is_disabled":false,"rental_uris":{"android":"levelo://app?vid=39e1f3b9-6491-4f6d-b448-50f375a06476","ios":"levelo://app?vid=39e1f3b9-6491-4f6d-b448-50f375a06476"},"vehicle_type_id":"4","last_reported":1702721224,"current_range_meters":27600,"station_id":"ce4bhq92rcd13ifvqhkg","pricing_plan_id":"free"},{"bike_id":"77003e33-0070-4d21-bc8b-d304fc4f0ad4","system_id":"levelo_inurba_marseille","lat":43.320045,"lon":5.415048,"is_reserved":false,"is_disabled":false,"rental_uris":{"android":"levelo://app?vid=77003e33-0070-4d21-bc8b-d304fc4f0ad4","ios":"levelo://app?vid=77003e33-0070-4d21-bc8b-d304fc4f0ad4"},"vehicle_type_id":"4","last_reported":1702721224,"current_range_meters":24800,"station_id":"ce4bhq92rcd13ifvqhkg","pricing_plan_id":"free"},{"bike_id":"520edc76-ce48-4081-a82f-0ddf169146b1","system_id":"levelo_inurba_marseille","lat":43.292569,"lon":5.409107,"is_reserved":false,"is_disabled":false,"rental_uris":{"android":"levelo://app?vid=520edc76-ce48-4081-a82f-0ddf169146b1","ios":"levelo://app?vid=520edc76-ce48-4081-a82f-0ddf169146b1"},"vehicle_type_id":"4","last_reported":1702721224,"current_range_meters":6400,"station_id":"ce4bh192rcd13ifvqdc0","pricing_plan_id":"free"},{"bike_id":"e776db12-c22c-47a7-86ae-79377b94c0c9","system_id":"levelo_inurba_marseille","lat":43.292569,"lon":5.409107,"is_reserved":false,"is_disabled":false,"rental_uris":{"android":"levelo://app?vid=e776db12-c22c-47a7-86ae-79377b94c0c9","ios":"levelo://app?vid=e776db12-c22c-47a7-86ae-79377b94c0c9"},"vehicle_type_id":"4","last_reported":1702721224,"current_range_meters":28000,"station_id":"ce4bh192rcd13ifvqdc0","pricing_plan_id":"free"},{"bike_id":"e893d083-1305-4087-b1e2-85456bd1e812","system_id":"levelo_inurba_marseille","lat":43.276157,"lon":5.361113,"is_reserved":false,"is_disabled":false,"rental_uris":{"android":"levelo://app?vid=e893d083-1305-4087-b1e2-85456bd1e812","ios":"levelo://app?vid=e893d083-1305-4087-b1e2-85456bd1e812"},"vehicle_type_id":"4","last_reported":1702721224,"current_range_meters":16400,"station_id":"ce4bgj92rcd13ifvqbe0","pricing_plan_id":"free"},{"bike_id":"1e16e397-4f18-4ef6-b117-4bda371f2cd5","system_id":"levelo_inurba_marseille","lat":43.276179,"lon":5.361009,"is_reserved":false,"is_disabled":false,"rental_uris":{"android":"levelo://app?vid=1e16e397-4f18-4ef6-b117-4bda371f2cd5","ios":"levelo://app?vid=1e16e397-4f18-4ef6-b117-4bda371f2cd5"},"vehicle_type_id":"4","last_reported":1702721224,"current_range_meters":17600,"station_id":"ce4bgj92rcd13ifvqbe0","pricing_plan_id":"free"},{"bike_id":"5632523b-e05d-42f6-8dbc-32bd0d65a353","system_id":"levelo_inurba_marseille","lat":43.280784,"lon":5.396622,"is_reserved":false,"is_disabled":false,"rental_uris":{"android":"levelo://app?vid=5632523b-e05d-42f6-8dbc-32bd0d65a353","ios":"levelo://app?vid=5632523b-e05d-42f6-8dbc-32bd0d65a353"},"vehicle_type_id":"4","last_reported":1702721224,"current_range_meters":25200,"station_id":"ce4bho12rcd13ifvqh2g","pricing_plan_id":"free"},{"bike_id":"ee427a39-ae90-4c5c-bf6b-273d00598d02","system_id":"levelo_inurba_marseille","lat":43.280784,"lon":5.396622,"is_reserved":false,"is_disabled":false,"rental_uris":{"android":"levelo://app?vid=ee427a39-ae90-4c5c-bf6b-273d00598d02","ios":"levelo://app?vid=ee427a39-ae90-4c5c-bf6b-273d00598d02"},"vehicle_type_id":"4","last_reported":1702721224,"current_range_meters":2400,"station_id":"ce4bho12rcd13ifvqh2g","pricing_plan_id":"free"},{"bike_id":"dbf313d9-6f87-4ed7-8ef5-14d958314e1b","system_id":"levelo_inurba_marseille","lat":43.303837,"lon":5.418724,"is_reserved":false,"is_disabled":false,"rental_uris":{"android":"levelo://app?vid=dbf313d9-6f87-4ed7-8ef5-14d958314e1b","ios":"levelo://app?vid=dbf313d9-6f87-4ed7-8ef5-14d958314e1b"},"vehicle_type_id":"4","last_reported":1702721224,"current_range_meters":6000,"station_id":"ce4bhop2rcd13ifvqh7g","pricing_plan_id":"free"},{"bike_id":"f0f36ef9-2814-48f7-8d9a-71a61345e6d3","system_id":"levelo_inurba_marseille","lat":43.273613,"lon":5.362705,"is_reserved":false,"is_disabled":false,"rental_uris":{"android":"levelo://app?vid=f0f36ef9-2814-48f7-8d9a-71a61345e6d3","ios":"levelo://app?vid=f0f36ef9-2814-48f7-8d9a-71a61345e6d3"},"vehicle_type_id":"4","last_reported":1702721224,"current_range_meters":16800,"station_id":"ce4bhbh2rcd13ifvqeo0","pricing_plan_id":"free"},{"bike_id":"3fe187c6-275d-4ba8-aef1-b2889c29db4d","system_id":"levelo_inurba_marseille","lat":43.279952,"lon":5.400085,"is_reserved":false,"is_disabled":false,"rental_uris":{"android":"levelo://app?vid=3fe187c6-275d-4ba8-aef1-b2889c29db4d","ios":"levelo://app?vid=3fe187c6-275d-4ba8-aef1-b2889c29db4d"},"vehicle_type_id":"4","last_reported":1702721224,"current_range_meters":28800,"station_id":"ce4bho92rcd13ifvqh4g","pricing_plan_id":"free"},{"bike_id":"10eadedf-b2e9-4bb9-a1f0-77df69175439","system_id":"levelo_inurba_marseille","lat":43.28436,"lon":5.40847,"is_reserved":false,"is_disabled":false,"rental_uris":{"android":"levelo://app?vid=10eadedf-b2e9-4bb9-a1f0-77df69175439","ios":"levelo://app?vid=10eadedf-b2e9-4bb9-a1f0-77df69175439"},"vehicle_type_id":"4","last_reported":1702721224,"current_range_meters":12800,"station_id":"","pricing_plan_id":"free"},{"bike_id":"e7f3199b-16c7-4ec8-844a-fb3b2f233e43","system_id":"levelo_inurba_marseille","lat":43.317121,"lon":5.423936,"is_reserved":false,"is_disabled":false,"rental_uris":{"android":"levelo://app?vid=e7f3199b-16c7-4ec8-844a-fb3b2f233e43","ios":"levelo://app?vid=e7f3199b-16c7-4ec8-844a-fb3b2f233e43"},"vehicle_type_id":"4","last_reported":1702721224,"current_range_meters":31200,"station_id":"ce4bhp92rcd13ifvqhbg","pricing_plan_id":"free"},{"bike_id":"13b63d08-aaa3-4985-bf57-1f32727c58d1","system_id":"levelo_inurba_marseille","lat":43.310785,"lon":5.424305,"is_reserved":false,"is_disabled":false,"rental_uris":{"android":"levelo://app?vid=13b63d08-aaa3-4985-bf57-1f32727c58d1","ios":"levelo://app?vid=13b63d08-aaa3-4985-bf57-1f32727c58d1"},"vehicle_type_id":"4","last_reported":1702721224,"current_range_meters":29600,"station_id":"ce4bhp92rcd13ifvqhag","pricing_plan_id":"free"},{"bike_id":"93a9a0b0-f09a-4679-973e-f3ebca0caf36","system_id":"levelo_inurba_marseille","lat":43.310785,"lon":5.424305,"is_reserved":false,"is_disabled":false,"rental_uris":{"android":"levelo://app?vid=93a9a0b0-f09a-4679-973e-f3ebca0caf36","ios":"levelo://app?vid=93a9a0b0-f09a-4679-973e-f3ebca0caf36"},"vehicle_type_id":"4","last_reported":1702721224,"current_range_meters":31200,"station_id":"ce4bhp92rcd13ifvqhag","pricing_plan_id":"free"},{"bike_id":"88d21734-a1ec-434c-836c-b0fde0b8c8e9","system_id":"levelo_inurba_marseille","lat":43.310785,"lon":5.424305,"is_reserved":false,"is_disabled":false,"rental_uris":{"android":"levelo://app?vid=88d21734-a1ec-434c-836c-b0fde0b8c8e9","ios":"levelo://app?vid=88d21734-a1ec-434c-836c-b0fde0b8c8e9"},"vehicle_type_id":"4","last_reported":1702721224,"current_range_meters":28800,"station_id":"ce4bhp92rcd13ifvqhag","pricing_plan_id":"free"},{"bike_id":"882bb515-0ba4-4c21-83bc-3aa9401cde34","system_id":"levelo_inurba_marseille","lat":43.310785,"lon":5.424305,"is_reserved":false,"is_disabled":false,"rental_uris":{"android":"levelo://app?vid=882bb515-0ba4-4c21-83bc-3aa9401cde34","ios":"levelo://app?vid=882bb515-0ba4-4c21-83bc-3aa9401cde34"},"vehicle_type_id":"4","last_reported":1702721224,"current_range_meters":27200,"station_id":"ce4bhp92rcd13ifvqhag","pricing_plan_id":"free"},{"bike_id":"7b7bfaee-0e53-4459-bbde-886e6805f2a5","system_id":"levelo_inurba_marseille","lat":43.317121,"lon":5.423936,"is_reserved":false,"is_disabled":false,"rental_uris":{"android":"levelo://app?vid=7b7bfaee-0e53-4459-bbde-886e6805f2a5","ios":"levelo://app?vid=7b7bfaee-0e53-4459-bbde-886e6805f2a5"},"vehicle_type_id":"4","last_reported":1702721224,"current_range_meters":28800,"station_id":"ce4bhp92rcd13ifvqhbg","pricing_plan_id":"free"},{"bike_id":"cdc69067-dad5-415d-b4f3-0a438e350196","system_id":"levelo_inurba_marseille","lat":43.317121,"lon":5.423936,"is_reserved":false,"is_disabled":false,"rental_uris":{"android":"levelo://app?vid=cdc69067-dad5-415d-b4f3-0a438e350196","ios":"levelo://app?vid=cdc69067-dad5-415d-b4f3-0a438e350196"},"vehicle_type_id":"4","last_reported":1702721224,"current_range_meters":26800,"station_id":"ce4bhp92rcd13ifvqhbg","pricing_plan_id":"free"},{"bike_id":"9fd98958-12f3-4062-a784-cd245cbf37c6","system_id":"levelo_inurba_marseille","lat":43.340804,"lon":5.410219,"is_reserved":false,"is_disabled":false,"rental_uris":{"android":"levelo://app?vid=9fd98958-12f3-4062-a784-cd245cbf37c6","ios":"levelo://app?vid=9fd98958-12f3-4062-a784-cd245cbf37c6"},"vehicle_type_id":"4","last_reported":1702721224,"current_range_meters":31200,"station_id":"ce4bhqh2rcd13ifvqhlg","pricing_plan_id":"free"},{"bike_id":"5bfd1a40-b0e4-41f3-a861-bd72abc8764c","system_id":"levelo_inurba_marseille","lat":43.340804,"lon":5.410219,"is_reserved":false,"is_disabled":false,"rental_uris":{"android":"levelo://app?vid=5bfd1a40-b0e4-41f3-a861-bd72abc8764c","ios":"levelo://app?vid=5bfd1a40-b0e4-41f3-a861-bd72abc8764c"},"vehicle_type_id":"4","last_reported":1702721224,"current_range_meters":11600,"station_id":"ce4bhqh2rcd13ifvqhlg","pricing_plan_id":"free"},{"bike_id":"7a908f67-8326-4ce5-9fc6-f55e73647b83","system_id":"levelo_inurba_marseille","lat":43.340804,"lon":5.410219,"is_reserved":false,"is_disabled":false,"rental_uris":{"android":"levelo://app?vid=7a908f67-8326-4ce5-9fc6-f55e73647b83","ios":"levelo://app?vid=7a908f67-8326-4ce5-9fc6-f55e73647b83"},"vehicle_type_id":"4","last_reported":1702721224,"current_range_meters":22000,"station_id":"ce4bhqh2rcd13ifvqhlg","pricing_plan_id":"free"},{"bike_id":"7e8cef09-8a0b-4358-a452-87cf59060b40","system_id":"levelo_inurba_marseille","lat":43.34143,"lon":5.4091,"is_reserved":false,"is_disabled":false,"rental_uris":{"android":"levelo://app?vid=7e8cef09-8a0b-4358-a452-87cf59060b40","ios":"levelo://app?vid=7e8cef09-8a0b-4358-a452-87cf59060b40"},"vehicle_type_id":"4","last_reported":1702721224,"current_range_meters":9600,"station_id":"ce4bhqh2rcd13ifvqhlg","pricing_plan_id":"free"},{"bike_id":"3ca2c2d2-99b0-4aa6-a05d-e30f02e6a7fb","system_id":"levelo_inurba_marseille","lat":43.276092,"lon":5.395289,"is_reserved":false,"is_disabled":false,"rental_uris":{"android":"levelo://app?vid=3ca2c2d2-99b0-4aa6-a05d-e30f02e6a7fb","ios":"levelo://app?vid=3ca2c2d2-99b0-4aa6-a05d-e30f02e6a7fb"},"vehicle_type_id":"4","last_reported":1702721224,"current_range_meters":23200,"station_id":"","pricing_plan_id":"free"},{"bike_id":"b1f43ff3-1f30-4c7c-831a-b12fda09e799","system_id":"levelo_inurba_marseille","lat":43.273129,"lon":5.390725,"is_reserved":false,"is_disabled":false,"rental_uris":{"android":"levelo://app?vid=b1f43ff3-1f30-4c7c-831a-b12fda09e799","ios":"levelo://app?vid=b1f43ff3-1f30-4c7c-831a-b12fda09e799"},"vehicle_type_id":"4","last_reported":1702721224,"current_range_meters":16800,"station_id":"ce4bhgp2rcd13ifvqfe0","pricing_plan_id":"free"},{"bike_id":"99bcb4da-9698-4512-a158-470244d69d6c","system_id":"levelo_inurba_marseille","lat":43.30414,"lon":5.42536,"is_reserved":false,"is_disabled":false,"rental_uris":{"android":"levelo://app?vid=99bcb4da-9698-4512-a158-470244d69d6c","ios":"levelo://app?vid=99bcb4da-9698-4512-a158-470244d69d6c"},"vehicle_type_id":"4","last_reported":1702721224,"current_range_meters":28800,"station_id":"ce4bhoh2rcd13ifvqh6g","pricing_plan_id":"free"},{"bike_id":"549600fb-47b9-4312-8242-de53dbdf980c","system_id":"levelo_inurba_marseille","lat":43.30417,"lon":5.42539,"is_reserved":false,"is_disabled":false,"rental_uris":{"android":"levelo://app?vid=549600fb-47b9-4312-8242-de53dbdf980c","ios":"levelo://app?vid=549600fb-47b9-4312-8242-de53dbdf980c"},"vehicle_type_id":"4","last_reported":1702721224,"current_range_meters":7200,"station_id":"ce4bhoh2rcd13ifvqh6g","pricing_plan_id":"free"},{"bike_id":"127120c9-2a95-4892-91e0-d0f0a2b77fe5","system_id":"levelo_inurba_marseille","lat":43.30411,"lon":5.42541,"is_reserved":false,"is_disabled":false,"rental_uris":{"android":"levelo://app?vid=127120c9-2a95-4892-91e0-d0f0a2b77fe5","ios":"levelo://app?vid=127120c9-2a95-4892-91e0-d0f0a2b77fe5"},"vehicle_type_id":"4","last_reported":1702721224,"current_range_meters":27200,"station_id":"ce4bhoh2rcd13ifvqh6g","pricing_plan_id":"free"},{"bike_id":"9fa6895d-0e68-493e-b1fb-bfed75b1d89e","system_id":"levelo_inurba_marseille","lat":43.304088,"lon":5.425388,"is_reserved":false,"is_disabled":false,"rental_uris":{"android":"levelo://app?vid=9fa6895d-0e68-493e-b1fb-bfed75b1d89e","ios":"levelo://app?vid=9fa6895d-0e68-493e-b1fb-bfed75b1d89e"},"vehicle_type_id":"4","last_reported":1702721224,"current_range_meters":13600,"station_id":"ce4bhoh2rcd13ifvqh6g","pricing_plan_id":"free"},{"bike_id":"54598bfe-b463-404d-b0a9-319a9ffed791","system_id":"levelo_inurba_marseille","lat":43.295511,"lon":5.422926,"is_reserved":false,"is_disabled":false,"rental_uris":{"android":"levelo://app?vid=54598bfe-b463-404d-b0a9-319a9ffed791","ios":"levelo://app?vid=54598bfe-b463-404d-b0a9-319a9ffed791"},"vehicle_type_id":"4","last_reported":1702721224,"current_range_meters":0,"station_id":"ce4bhph2rcd13ifvqhdg","pricing_plan_id":"free"},{"bike_id":"087230b3-ae12-46fc-8650-d840a066a359","system_id":"levelo_inurba_marseille","lat":43.272124,"lon":5.391768,"is_reserved":false,"is_disabled":false,"rental_uris":{"android":"levelo://app?vid=087230b3-ae12-46fc-8650-d840a066a359","ios":"levelo://app?vid=087230b3-ae12-46fc-8650-d840a066a359"},"vehicle_type_id":"4","last_reported":1702721224,"current_range_meters":31200,"station_id":"ce4bhhp2rcd13ifvqfm0","pricing_plan_id":"free"},{"bike_id":"ada57737-7a79-44c0-8f3e-ecbad75f6298","system_id":"levelo_inurba_marseille","lat":43.272124,"lon":5.391768,"is_reserved":false,"is_disabled":false,"rental_uris":{"android":"levelo://app?vid=ada57737-7a79-44c0-8f3e-ecbad75f6298","ios":"levelo://app?vid=ada57737-7a79-44c0-8f3e-ecbad75f6298"},"vehicle_type_id":"4","last_reported":1702721224,"current_range_meters":31200,"station_id":"ce4bhhp2rcd13ifvqfm0","pricing_plan_id":"free"},{"bike_id":"a928b68e-1134-4f26-a1c8-38f8b2415552","system_id":"levelo_inurba_marseille","lat":43.272116,"lon":5.391763,"is_reserved":false,"is_disabled":false,"rental_uris":{"android":"levelo://app?vid=a928b68e-1134-4f26-a1c8-38f8b2415552","ios":"levelo://app?vid=a928b68e-1134-4f26-a1c8-38f8b2415552"},"vehicle_type_id":"4","last_reported":1702721224,"current_range_meters":24400,"station_id":"ce4bhhp2rcd13ifvqfm0","pricing_plan_id":"free"},{"bike_id":"3122faef-aaf5-42ad-8234-8457d6f17cf0","system_id":"levelo_inurba_marseille","lat":43.272124,"lon":5.391768,"is_reserved":false,"is_disabled":false,"rental_uris":{"android":"levelo://app?vid=3122faef-aaf5-42ad-8234-8457d6f17cf0","ios":"levelo://app?vid=3122faef-aaf5-42ad-8234-8457d6f17cf0"},"vehicle_type_id":"4","last_reported":1702721224,"current_range_meters":11600,"station_id":"ce4bhhp2rcd13ifvqfm0","pricing_plan_id":"free"},{"bike_id":"313ef3cd-d8d9-4352-8e29-1c0b1f5f6570","system_id":"levelo_inurba_marseille","lat":43.272116,"lon":5.391763,"is_reserved":false,"is_disabled":false,"rental_uris":{"android":"levelo://app?vid=313ef3cd-d8d9-4352-8e29-1c0b1f5f6570","ios":"levelo://app?vid=313ef3cd-d8d9-4352-8e29-1c0b1f5f6570"},"vehicle_type_id":"4","last_reported":1702721224,"current_range_meters":20400,"station_id":"ce4bhhp2rcd13ifvqfm0","pricing_plan_id":"free"},{"bike_id":"1bf6ab99-d9aa-4d42-b630-8b2444ef4514","system_id":"levelo_inurba_marseille","lat":43.272116,"lon":5.391763,"is_reserved":false,"is_disabled":false,"rental_uris":{"android":"levelo://app?vid=1bf6ab99-d9aa-4d42-b630-8b2444ef4514","ios":"levelo://app?vid=1bf6ab99-d9aa-4d42-b630-8b2444ef4514"},"vehicle_type_id":"4","last_reported":1702721224,"current_range_meters":31200,"station_id":"ce4bhhp2rcd13ifvqfm0","pricing_plan_id":"free"},{"bike_id":"5aac2092-3d50-4ba7-b8bf-9cc405ea7264","system_id":"levelo_inurba_marseille","lat":43.272118,"lon":5.391758,"is_reserved":false,"is_disabled":false,"rental_uris":{"android":"levelo://app?vid=5aac2092-3d50-4ba7-b8bf-9cc405ea7264","ios":"levelo://app?vid=5aac2092-3d50-4ba7-b8bf-9cc405ea7264"},"vehicle_type_id":"4","last_reported":1702721224,"current_range_meters":18000,"station_id":"ce4bhhp2rcd13ifvqfm0","pricing_plan_id":"free"},{"bike_id":"673e4143-2791-4d60-af90-41dd459eca86","system_id":"levelo_inurba_marseille","lat":43.272116,"lon":5.391763,"is_reserved":false,"is_disabled":false,"rental_uris":{"android":"levelo://app?vid=673e4143-2791-4d60-af90-41dd459eca86","ios":"levelo://app?vid=673e4143-2791-4d60-af90-41dd459eca86"},"vehicle_type_id":"4","last_reported":1702721224,"current_range_meters":30800,"station_id":"ce4bhhp2rcd13ifvqfm0","pricing_plan_id":"free"},{"bike_id":"7ffe1239-d227-415a-a819-cffa4be50c78","system_id":"levelo_inurba_marseille","lat":43.272124,"lon":5.391768,"is_reserved":false,"is_disabled":false,"rental_uris":{"android":"levelo://app?vid=7ffe1239-d227-415a-a819-cffa4be50c78","ios":"levelo://app?vid=7ffe1239-d227-415a-a819-cffa4be50c78"},"vehicle_type_id":"4","last_reported":1702721224,"current_range_meters":24800,"station_id":"ce4bhhp2rcd13ifvqfm0","pricing_plan_id":"free"},{"bike_id":"6a229aae-0267-4c54-b93d-00acba8bd520","system_id":"levelo_inurba_marseille","lat":43.272116,"lon":5.391747,"is_reserved":false,"is_disabled":false,"rental_uris":{"android":"levelo://app?vid=6a229aae-0267-4c54-b93d-00acba8bd520","ios":"levelo://app?vid=6a229aae-0267-4c54-b93d-00acba8bd520"},"vehicle_type_id":"4","last_reported":1702721224,"current_range_meters":31200,"station_id":"ce4bhhp2rcd13ifvqfm0","pricing_plan_id":"free"},{"bike_id":"7da1ab18-1768-44ea-acd4-c2a49d8f0217","system_id":"levelo_inurba_marseille","lat":43.272118,"lon":5.391758,"is_reserved":false,"is_disabled":false,"rental_uris":{"android":"levelo://app?vid=7da1ab18-1768-44ea-acd4-c2a49d8f0217","ios":"levelo://app?vid=7da1ab18-1768-44ea-acd4-c2a49d8f0217"},"vehicle_type_id":"4","last_reported":1702721224,"current_range_meters":20800,"station_id":"ce4bhhp2rcd13ifvqfm0","pricing_plan_id":"free"},{"bike_id":"11ba9dde-35c8-4c2b-ac39-081057b99fa3","system_id":"levelo_inurba_marseille","lat":43.272124,"lon":5.391768,"is_reserved":false,"is_disabled":false,"rental_uris":{"android":"levelo://app?vid=11ba9dde-35c8-4c2b-ac39-081057b99fa3","ios":"levelo://app?vid=11ba9dde-35c8-4c2b-ac39-081057b99fa3"},"vehicle_type_id":"4","last_reported":1702721224,"current_range_meters":24800,"station_id":"ce4bhhp2rcd13ifvqfm0","pricing_plan_id":"free"},{"bike_id":"7c5e5a9a-9f39-4a14-9573-d5b8ab599dd5","system_id":"levelo_inurba_marseille","lat":43.27191,"lon":5.39229,"is_reserved":false,"is_disabled":false,"rental_uris":{"android":"levelo://app?vid=7c5e5a9a-9f39-4a14-9573-d5b8ab599dd5","ios":"levelo://app?vid=7c5e5a9a-9f39-4a14-9573-d5b8ab599dd5"},"vehicle_type_id":"4","last_reported":1702721224,"current_range_meters":19200,"station_id":"ce4bhhp2rcd13ifvqfm0","pricing_plan_id":"free"},{"bike_id":"1eb3e22c-7adf-4b49-882f-b84e4f0ca957","system_id":"levelo_inurba_marseille","lat":43.278128,"lon":5.407195,"is_reserved":false,"is_disabled":false,"rental_uris":{"android":"levelo://app?vid=1eb3e22c-7adf-4b49-882f-b84e4f0ca957","ios":"levelo://app?vid=1eb3e22c-7adf-4b49-882f-b84e4f0ca957"},"vehicle_type_id":"4","last_reported":1702721224,"current_range_meters":28800,"station_id":"ce4bhnh2rcd13ifvqgtg","pricing_plan_id":"free"},{"bike_id":"a30d1f85-051b-42c9-98b7-82db948b1493","system_id":"levelo_inurba_marseille","lat":43.278128,"lon":5.407195,"is_reserved":false,"is_disabled":false,"rental_uris":{"android":"levelo://app?vid=a30d1f85-051b-42c9-98b7-82db948b1493","ios":"levelo://app?vid=a30d1f85-051b-42c9-98b7-82db948b1493"},"vehicle_type_id":"4","last_reported":1702721224,"current_range_meters":8000,"station_id":"ce4bhnh2rcd13ifvqgtg","pricing_plan_id":"free"},{"bike_id":"8c66db32-5257-4678-9245-874b7358f60f","system_id":"levelo_inurba_marseille","lat":43.269467,"lon":5.386439,"is_reserved":false,"is_disabled":false,"rental_uris":{"android":"levelo://app?vid=8c66db32-5257-4678-9245-874b7358f60f","ios":"levelo://app?vid=8c66db32-5257-4678-9245-874b7358f60f"},"vehicle_type_id":"4","last_reported":1702721224,"current_range_meters":3600,"station_id":"ce4bhh92rcd13ifvqfh0","pricing_plan_id":"free"},{"bike_id":"33bb6f10-589f-41c2-88fe-3952b6871dac","system_id":"levelo_inurba_marseille","lat":43.27943,"lon":5.41047,"is_reserved":false,"is_disabled":false,"rental_uris":{"android":"levelo://app?vid=33bb6f10-589f-41c2-88fe-3952b6871dac","ios":"levelo://app?vid=33bb6f10-589f-41c2-88fe-3952b6871dac"},"vehicle_type_id":"4","last_reported":1702721224,"current_range_meters":24000,"station_id":"ce4bhnp2rcd13ifvqh0g","pricing_plan_id":"free"},{"bike_id":"10fa6778-3c32-4fd3-bf6a-cdb281e62c59","system_id":"levelo_inurba_marseille","lat":43.269319,"lon":5.389397,"is_reserved":false,"is_disabled":false,"rental_uris":{"android":"levelo://app?vid=10fa6778-3c32-4fd3-bf6a-cdb281e62c59","ios":"levelo://app?vid=10fa6778-3c32-4fd3-bf6a-cdb281e62c59"},"vehicle_type_id":"4","last_reported":1702721224,"current_range_meters":14400,"station_id":"ce4bhhh2rcd13ifvqfl0","pricing_plan_id":"free"},{"bike_id":"b4d8e382-96f0-40e1-a921-d369744c4141","system_id":"levelo_inurba_marseille","lat":43.269319,"lon":5.389397,"is_reserved":false,"is_disabled":false,"rental_uris":{"android":"levelo://app?vid=b4d8e382-96f0-40e1-a921-d369744c4141","ios":"levelo://app?vid=b4d8e382-96f0-40e1-a921-d369744c4141"},"vehicle_type_id":"4","last_reported":1702721224,"current_range_meters":29200,"station_id":"ce4bhhh2rcd13ifvqfl0","pricing_plan_id":"free"},{"bike_id":"db774753-4382-453e-a138-c32d538f9839","system_id":"levelo_inurba_marseille","lat":43.35866,"lon":5.356728,"is_reserved":false,"is_disabled":false,"rental_uris":{"android":"levelo://app?vid=db774753-4382-453e-a138-c32d538f9839","ios":"levelo://app?vid=db774753-4382-453e-a138-c32d538f9839"},"vehicle_type_id":"4","last_reported":1702721224,"current_range_meters":10400,"station_id":"","pricing_plan_id":"free"},{"bike_id":"0f678052-28f9-4691-8141-d53e0432b029","system_id":"levelo_inurba_marseille","lat":43.26681,"lon":5.382694,"is_reserved":false,"is_disabled":false,"rental_uris":{"android":"levelo://app?vid=0f678052-28f9-4691-8141-d53e0432b029","ios":"levelo://app?vid=0f678052-28f9-4691-8141-d53e0432b029"},"vehicle_type_id":"4","last_reported":1702721224,"current_range_meters":17200,"station_id":"ce4bhg92rcd13ifvqf90","pricing_plan_id":"free"},{"bike_id":"7f0576a9-65b1-4b22-915b-2f4d4f2b1f34","system_id":"levelo_inurba_marseille","lat":43.27996,"lon":5.416624,"is_reserved":false,"is_disabled":false,"rental_uris":{"android":"levelo://app?vid=7f0576a9-65b1-4b22-915b-2f4d4f2b1f34","ios":"levelo://app?vid=7f0576a9-65b1-4b22-915b-2f4d4f2b1f34"},"vehicle_type_id":"4","last_reported":1702721224,"current_range_meters":6800,"station_id":"ce4bho12rcd13ifvqh1g","pricing_plan_id":"free"},{"bike_id":"606a0fa5-3f6e-40c3-93cb-11997652773a","system_id":"levelo_inurba_marseille","lat":43.27996,"lon":5.416624,"is_reserved":false,"is_disabled":false,"rental_uris":{"android":"levelo://app?vid=606a0fa5-3f6e-40c3-93cb-11997652773a","ios":"levelo://app?vid=606a0fa5-3f6e-40c3-93cb-11997652773a"},"vehicle_type_id":"4","last_reported":1702721224,"current_range_meters":19600,"station_id":"ce4bho12rcd13ifvqh1g","pricing_plan_id":"free"},{"bike_id":"f9e63a65-a4b8-444f-9007-eff8dba3eec9","system_id":"levelo_inurba_marseille","lat":43.27996,"lon":5.416624,"is_reserved":false,"is_disabled":false,"rental_uris":{"android":"levelo://app?vid=f9e63a65-a4b8-444f-9007-eff8dba3eec9","ios":"levelo://app?vid=f9e63a65-a4b8-444f-9007-eff8dba3eec9"},"vehicle_type_id":"4","last_reported":1702721224,"current_range_meters":27200,"station_id":"ce4bho12rcd13ifvqh1g","pricing_plan_id":"free"},{"bike_id":"7b3acfec-7269-4a55-abfa-7819202d73ef","system_id":"levelo_inurba_marseille","lat":43.308051,"lon":5.43527,"is_reserved":false,"is_disabled":false,"rental_uris":{"android":"levelo://app?vid=7b3acfec-7269-4a55-abfa-7819202d73ef","ios":"levelo://app?vid=7b3acfec-7269-4a55-abfa-7819202d73ef"},"vehicle_type_id":"4","last_reported":1702721224,"current_range_meters":28400,"station_id":"ce4bhph2rcd13ifvqheg","pricing_plan_id":"free"},{"bike_id":"762f3283-1c31-4ebc-ba0b-4061bbd29cc7","system_id":"levelo_inurba_marseille","lat":43.265569,"lon":5.390047,"is_reserved":false,"is_disabled":false,"rental_uris":{"android":"levelo://app?vid=762f3283-1c31-4ebc-ba0b-4061bbd29cc7","ios":"levelo://app?vid=762f3283-1c31-4ebc-ba0b-4061bbd29cc7"},"vehicle_type_id":"4","last_reported":1702721224,"current_range_meters":29600,"station_id":"ce4bhe12rcd13ifvqf30","pricing_plan_id":"free"},{"bike_id":"924dd0b6-11bb-4688-9962-d909c563de41","system_id":"levelo_inurba_marseille","lat":43.26184,"lon":5.37442,"is_reserved":false,"is_disabled":false,"rental_uris":{"android":"levelo://app?vid=924dd0b6-11bb-4688-9962-d909c563de41","ios":"levelo://app?vid=924dd0b6-11bb-4688-9962-d909c563de41"},"vehicle_type_id":"4","last_reported":1702721224,"current_range_meters":18800,"station_id":"ce4bhgp2rcd13ifvqfc0","pricing_plan_id":"free"},{"bike_id":"3f89a02b-bdc2-4eb0-bdc8-f06806993e8a","system_id":"levelo_inurba_marseille","lat":43.317104,"lon":5.436818,"is_reserved":false,"is_disabled":false,"rental_uris":{"android":"levelo://app?vid=3f89a02b-bdc2-4eb0-bdc8-f06806993e8a","ios":"levelo://app?vid=3f89a02b-bdc2-4eb0-bdc8-f06806993e8a"},"vehicle_type_id":"4","last_reported":1702721224,"current_range_meters":26800,"station_id":"ce4bhp92rcd13ifvqhcg","pricing_plan_id":"free"},{"bike_id":"30223ffb-949e-4b1b-9e9c-ed7fa5e91e6b","system_id":"levelo_inurba_marseille","lat":43.26182,"lon":5.37443,"is_reserved":false,"is_disabled":false,"rental_uris":{"android":"levelo://app?vid=30223ffb-949e-4b1b-9e9c-ed7fa5e91e6b","ios":"levelo://app?vid=30223ffb-949e-4b1b-9e9c-ed7fa5e91e6b"},"vehicle_type_id":"4","last_reported":1702721224,"current_range_meters":21600,"station_id":"ce4bhgp2rcd13ifvqfc0","pricing_plan_id":"free"},{"bike_id":"0d0846a5-da9c-4e14-a6a7-2d974fd25282","system_id":"levelo_inurba_marseille","lat":43.260219,"lon":5.37546,"is_reserved":false,"is_disabled":false,"rental_uris":{"android":"levelo://app?vid=0d0846a5-da9c-4e14-a6a7-2d974fd25282","ios":"levelo://app?vid=0d0846a5-da9c-4e14-a6a7-2d974fd25282"},"vehicle_type_id":"4","last_reported":1702721224,"current_range_meters":26800,"station_id":"ce4bhgh2rcd13ifvqfa0","pricing_plan_id":"free"},{"bike_id":"31998b13-745f-4f17-b3ac-6cc5ccee1f4f","system_id":"levelo_inurba_marseille","lat":43.281548,"lon":5.42643,"is_reserved":false,"is_disabled":false,"rental_uris":{"android":"levelo://app?vid=31998b13-745f-4f17-b3ac-6cc5ccee1f4f","ios":"levelo://app?vid=31998b13-745f-4f17-b3ac-6cc5ccee1f4f"},"vehicle_type_id":"4","last_reported":1702721224,"current_range_meters":26000,"station_id":"ce4bhnh2rcd13ifvqgug","pricing_plan_id":"free"},{"bike_id":"9d81c7ac-186e-49e6-b966-eba21140cda4","system_id":"levelo_inurba_marseille","lat":43.281548,"lon":5.42643,"is_reserved":false,"is_disabled":false,"rental_uris":{"android":"levelo://app?vid=9d81c7ac-186e-49e6-b966-eba21140cda4","ios":"levelo://app?vid=9d81c7ac-186e-49e6-b966-eba21140cda4"},"vehicle_type_id":"4","last_reported":1702721224,"current_range_meters":26000,"station_id":"ce4bhnh2rcd13ifvqgug","pricing_plan_id":"free"},{"bike_id":"b5b95e05-4fc7-41d3-89b2-cd5619b26808","system_id":"levelo_inurba_marseille","lat":43.2607,"lon":5.393983,"is_reserved":false,"is_disabled":false,"rental_uris":{"android":"levelo://app?vid=b5b95e05-4fc7-41d3-89b2-cd5619b26808","ios":"levelo://app?vid=b5b95e05-4fc7-41d3-89b2-cd5619b26808"},"vehicle_type_id":"4","last_reported":1702721224,"current_range_meters":23600,"station_id":"ce4bhh92rcd13ifvqfj0","pricing_plan_id":"free"},{"bike_id":"5d60bc90-8f99-4e98-b2f6-5bf596f34f7c","system_id":"levelo_inurba_marseille","lat":43.2607,"lon":5.393983,"is_reserved":false,"is_disabled":false,"rental_uris":{"android":"levelo://app?vid=5d60bc90-8f99-4e98-b2f6-5bf596f34f7c","ios":"levelo://app?vid=5d60bc90-8f99-4e98-b2f6-5bf596f34f7c"},"vehicle_type_id":"4","last_reported":1702721224,"current_range_meters":31600,"station_id":"ce4bhh92rcd13ifvqfj0","pricing_plan_id":"free"},{"bike_id":"12454bed-0e67-4352-b29e-c06618713b6a","system_id":"levelo_inurba_marseille","lat":43.275028,"lon":5.424534,"is_reserved":false,"is_disabled":false,"rental_uris":{"android":"levelo://app?vid=12454bed-0e67-4352-b29e-c06618713b6a","ios":"levelo://app?vid=12454bed-0e67-4352-b29e-c06618713b6a"},"vehicle_type_id":"4","last_reported":1702721224,"current_range_meters":20000,"station_id":"ce4bhn92rcd13ifvqgrg","pricing_plan_id":"free"},{"bike_id":"0f46f0e8-3eb4-45df-b3ff-63a01897fadd","system_id":"levelo_inurba_marseille","lat":43.275028,"lon":5.424534,"is_reserved":false,"is_disabled":false,"rental_uris":{"android":"levelo://app?vid=0f46f0e8-3eb4-45df-b3ff-63a01897fadd","ios":"levelo://app?vid=0f46f0e8-3eb4-45df-b3ff-63a01897fadd"},"vehicle_type_id":"4","last_reported":1702721224,"current_range_meters":24800,"station_id":"ce4bhn92rcd13ifvqgrg","pricing_plan_id":"free"},{"bike_id":"f4b2f07e-f903-4d4a-a248-e6cf94f99938","system_id":"levelo_inurba_marseille","lat":43.275028,"lon":5.424534,"is_reserved":false,"is_disabled":false,"rental_uris":{"android":"levelo://app?vid=f4b2f07e-f903-4d4a-a248-e6cf94f99938","ios":"levelo://app?vid=f4b2f07e-f903-4d4a-a248-e6cf94f99938"},"vehicle_type_id":"4","last_reported":1702721224,"current_range_meters":17200,"station_id":"ce4bhn92rcd13ifvqgrg","pricing_plan_id":"free"},{"bike_id":"b76e4b50-f6f0-431f-a6f8-b141c06663a4","system_id":"levelo_inurba_marseille","lat":43.275028,"lon":5.424534,"is_reserved":false,"is_disabled":false,"rental_uris":{"android":"levelo://app?vid=b76e4b50-f6f0-431f-a6f8-b141c06663a4","ios":"levelo://app?vid=b76e4b50-f6f0-431f-a6f8-b141c06663a4"},"vehicle_type_id":"4","last_reported":1702721224,"current_range_meters":16400,"station_id":"ce4bhn92rcd13ifvqgrg","pricing_plan_id":"free"},{"bike_id":"cc5d76b0-a393-4a4c-baa6-a656fc269eb7","system_id":"levelo_inurba_marseille","lat":43.275028,"lon":5.424534,"is_reserved":false,"is_disabled":false,"rental_uris":{"android":"levelo://app?vid=cc5d76b0-a393-4a4c-baa6-a656fc269eb7","ios":"levelo://app?vid=cc5d76b0-a393-4a4c-baa6-a656fc269eb7"},"vehicle_type_id":"4","last_reported":1702721224,"current_range_meters":31200,"station_id":"ce4bhn92rcd13ifvqgrg","pricing_plan_id":"free"},{"bike_id":"8efe26eb-b024-49a0-92f8-a61f90a7c052","system_id":"levelo_inurba_marseille","lat":43.25581,"lon":5.38231,"is_reserved":false,"is_disabled":false,"rental_uris":{"android":"levelo://app?vid=8efe26eb-b024-49a0-92f8-a61f90a7c052","ios":"levelo://app?vid=8efe26eb-b024-49a0-92f8-a61f90a7c052"},"vehicle_type_id":"4","last_reported":1702721224,"current_range_meters":18800,"station_id":"ce4bhih2rcd13ifvqfs0","pricing_plan_id":"free"},{"bike_id":"bce61538-2021-4000-b0d7-994f4d34adcb","system_id":"levelo_inurba_marseille","lat":43.25581,"lon":5.38231,"is_reserved":false,"is_disabled":false,"rental_uris":{"android":"levelo://app?vid=bce61538-2021-4000-b0d7-994f4d34adcb","ios":"levelo://app?vid=bce61538-2021-4000-b0d7-994f4d34adcb"},"vehicle_type_id":"4","last_reported":1702721224,"current_range_meters":20400,"station_id":"ce4bhih2rcd13ifvqfs0","pricing_plan_id":"free"},{"bike_id":"d49c822c-39f5-4a5d-be91-a7e3c6be2340","system_id":"levelo_inurba_marseille","lat":43.255756,"lon":5.382303,"is_reserved":false,"is_disabled":false,"rental_uris":{"android":"levelo://app?vid=d49c822c-39f5-4a5d-be91-a7e3c6be2340","ios":"levelo://app?vid=d49c822c-39f5-4a5d-be91-a7e3c6be2340"},"vehicle_type_id":"4","last_reported":1702721224,"current_range_meters":13200,"station_id":"ce4bhih2rcd13ifvqfs0","pricing_plan_id":"free"},{"bike_id":"0f686b1d-955f-40e8-919f-b54c346c01cd","system_id":"levelo_inurba_marseille","lat":43.254947,"lon":5.376454,"is_reserved":false,"is_disabled":false,"rental_uris":{"android":"levelo://app?vid=0f686b1d-955f-40e8-919f-b54c346c01cd","ios":"levelo://app?vid=0f686b1d-955f-40e8-919f-b54c346c01cd"},"vehicle_type_id":"4","last_reported":1702721224,"current_range_meters":15600,"station_id":"ce4bhh12rcd13ifvqff0","pricing_plan_id":"free"},{"bike_id":"152f0b5f-2e6b-49d7-9e6c-7e17f0f4350b","system_id":"levelo_inurba_marseille","lat":43.270721,"lon":5.422764,"is_reserved":false,"is_disabled":false,"rental_uris":{"android":"levelo://app?vid=152f0b5f-2e6b-49d7-9e6c-7e17f0f4350b","ios":"levelo://app?vid=152f0b5f-2e6b-49d7-9e6c-7e17f0f4350b"},"vehicle_type_id":"4","last_reported":1702721224,"current_range_meters":18000,"station_id":"ce4bhk92rcd13ifvqgb0","pricing_plan_id":"free"},{"bike_id":"674b3813-bf66-49e8-adfa-b71be3ff455e","system_id":"levelo_inurba_marseille","lat":43.270721,"lon":5.422764,"is_reserved":false,"is_disabled":false,"rental_uris":{"android":"levelo://app?vid=674b3813-bf66-49e8-adfa-b71be3ff455e","ios":"levelo://app?vid=674b3813-bf66-49e8-adfa-b71be3ff455e"},"vehicle_type_id":"4","last_reported":1702721224,"current_range_meters":16400,"station_id":"ce4bhk92rcd13ifvqgb0","pricing_plan_id":"free"},{"bike_id":"9f23c4fe-2b8e-4fa6-aeed-63e5db4fbaf9","system_id":"levelo_inurba_marseille","lat":43.27068,"lon":5.42279,"is_reserved":false,"is_disabled":false,"rental_uris":{"android":"levelo://app?vid=9f23c4fe-2b8e-4fa6-aeed-63e5db4fbaf9","ios":"levelo://app?vid=9f23c4fe-2b8e-4fa6-aeed-63e5db4fbaf9"},"vehicle_type_id":"4","last_reported":1702721224,"current_range_meters":9600,"station_id":"ce4bhk92rcd13ifvqgb0","pricing_plan_id":"free"},{"bike_id":"b1f63a6a-b115-4c25-9a8f-84eb606e95df","system_id":"levelo_inurba_marseille","lat":43.259009,"lon":5.40929,"is_reserved":false,"is_disabled":false,"rental_uris":{"android":"levelo://app?vid=b1f63a6a-b115-4c25-9a8f-84eb606e95df","ios":"levelo://app?vid=b1f63a6a-b115-4c25-9a8f-84eb606e95df"},"vehicle_type_id":"4","last_reported":1702721224,"current_range_meters":22000,"station_id":"ce4bhm92rcd13ifvqglg","pricing_plan_id":"free"},{"bike_id":"2386440a-b837-41d7-96b1-ba2e2d56aea6","system_id":"levelo_inurba_marseille","lat":43.25933,"lon":5.4091,"is_reserved":false,"is_disabled":false,"rental_uris":{"android":"levelo://app?vid=2386440a-b837-41d7-96b1-ba2e2d56aea6","ios":"levelo://app?vid=2386440a-b837-41d7-96b1-ba2e2d56aea6"},"vehicle_type_id":"4","last_reported":1702721224,"current_range_meters":20000,"station_id":"ce4bhm92rcd13ifvqglg","pricing_plan_id":"free"},{"bike_id":"9e9c1ace-693b-4f7b-8f16-ab8c2f2f9236","system_id":"levelo_inurba_marseille","lat":43.25929,"lon":5.40908,"is_reserved":false,"is_disabled":false,"rental_uris":{"android":"levelo://app?vid=9e9c1ace-693b-4f7b-8f16-ab8c2f2f9236","ios":"levelo://app?vid=9e9c1ace-693b-4f7b-8f16-ab8c2f2f9236"},"vehicle_type_id":"4","last_reported":1702721224,"current_range_meters":29600,"station_id":"ce4bhm92rcd13ifvqglg","pricing_plan_id":"free"},{"bike_id":"07e99022-3a40-4b83-a840-d9fbbc83b647","system_id":"levelo_inurba_marseille","lat":43.259013,"lon":5.409301,"is_reserved":false,"is_disabled":false,"rental_uris":{"android":"levelo://app?vid=07e99022-3a40-4b83-a840-d9fbbc83b647","ios":"levelo://app?vid=07e99022-3a40-4b83-a840-d9fbbc83b647"},"vehicle_type_id":"4","last_reported":1702721224,"current_range_meters":20400,"station_id":"ce4bhm92rcd13ifvqglg","pricing_plan_id":"free"},{"bike_id":"6e24ca66-aaea-408d-91a2-4b10fc83bb82","system_id":"levelo_inurba_marseille","lat":43.25008,"lon":5.38913,"is_reserved":false,"is_disabled":false,"rental_uris":{"android":"levelo://app?vid=6e24ca66-aaea-408d-91a2-4b10fc83bb82","ios":"levelo://app?vid=6e24ca66-aaea-408d-91a2-4b10fc83bb82"},"vehicle_type_id":"4","last_reported":1702721224,"current_range_meters":20000,"station_id":"ce4bhgp2rcd13ifvqfd0","pricing_plan_id":"free"},{"bike_id":"a2c6f3a8-50bc-47a8-90ba-ea3cb0146032","system_id":"levelo_inurba_marseille","lat":43.250009,"lon":5.389195,"is_reserved":false,"is_disabled":false,"rental_uris":{"android":"levelo://app?vid=a2c6f3a8-50bc-47a8-90ba-ea3cb0146032","ios":"levelo://app?vid=a2c6f3a8-50bc-47a8-90ba-ea3cb0146032"},"vehicle_type_id":"4","last_reported":1702721224,"current_range_meters":10000,"station_id":"ce4bhgp2rcd13ifvqfd0","pricing_plan_id":"free"},{"bike_id":"54d53e20-b2ed-480f-ab60-fd6b664f95b1","system_id":"levelo_inurba_marseille","lat":43.25092,"lon":5.39521,"is_reserved":false,"is_disabled":false,"rental_uris":{"android":"levelo://app?vid=54d53e20-b2ed-480f-ab60-fd6b664f95b1","ios":"levelo://app?vid=54d53e20-b2ed-480f-ab60-fd6b664f95b1"},"vehicle_type_id":"4","last_reported":1702721224,"current_range_meters":15200,"station_id":"ce4bhm12rcd13ifvqgkg","pricing_plan_id":"free"},{"bike_id":"11bfcabd-6948-4ada-bd3b-836bb199af62","system_id":"levelo_inurba_marseille","lat":43.250966,"lon":5.395186,"is_reserved":false,"is_disabled":false,"rental_uris":{"android":"levelo://app?vid=11bfcabd-6948-4ada-bd3b-836bb199af62","ios":"levelo://app?vid=11bfcabd-6948-4ada-bd3b-836bb199af62"},"vehicle_type_id":"4","last_reported":1702721224,"current_range_meters":28800,"station_id":"ce4bhm12rcd13ifvqgkg","pricing_plan_id":"free"},{"bike_id":"a561d9fb-0cc1-4f8b-9641-000a3002f040","system_id":"levelo_inurba_marseille","lat":43.250966,"lon":5.395186,"is_reserved":false,"is_disabled":false,"rental_uris":{"android":"levelo://app?vid=a561d9fb-0cc1-4f8b-9641-000a3002f040","ios":"levelo://app?vid=a561d9fb-0cc1-4f8b-9641-000a3002f040"},"vehicle_type_id":"4","last_reported":1702721224,"current_range_meters":32000,"station_id":"ce4bhm12rcd13ifvqgkg","pricing_plan_id":"free"},{"bike_id":"898b018b-d803-4540-afb5-aad02fd85533","system_id":"levelo_inurba_marseille","lat":43.24693,"lon":5.382096,"is_reserved":false,"is_disabled":false,"rental_uris":{"android":"levelo://app?vid=898b018b-d803-4540-afb5-aad02fd85533","ios":"levelo://app?vid=898b018b-d803-4540-afb5-aad02fd85533"},"vehicle_type_id":"4","last_reported":1702721224,"current_range_meters":31200,"station_id":"ce4bhih2rcd13ifvqfr0","pricing_plan_id":"free"},{"bike_id":"cda151f2-9ad2-46c9-9115-b73ba9a06619","system_id":"levelo_inurba_marseille","lat":43.25206,"lon":5.406396,"is_reserved":false,"is_disabled":false,"rental_uris":{"android":"levelo://app?vid=cda151f2-9ad2-46c9-9115-b73ba9a06619","ios":"levelo://app?vid=cda151f2-9ad2-46c9-9115-b73ba9a06619"},"vehicle_type_id":"4","last_reported":1702721224,"current_range_meters":4800,"station_id":"","pricing_plan_id":"free"},{"bike_id":"a8848b8b-995b-43e6-a068-03d2ec054c23","system_id":"levelo_inurba_marseille","lat":43.246467,"lon":5.388984,"is_reserved":false,"is_disabled":false,"rental_uris":{"android":"levelo://app?vid=a8848b8b-995b-43e6-a068-03d2ec054c23","ios":"levelo://app?vid=a8848b8b-995b-43e6-a068-03d2ec054c23"},