{"last_updated":1734790029,"ttl":60,"version":"2.2","data":{"bikes":[{"bike_id":"05aa8ec7-12c5-4ce6-b03c-bce3369277c4","system_id":"levelo_inurba_marseille","lat":43.27843,"lon":5.39211,"is_reserved":false,"is_disabled":false,"rental_uris":{"android":"levelo://app?vid=05aa8ec7-12c5-4ce6-b03c-bce3369277c4","ios":"levelo://app?vid=05aa8ec7-12c5-4ce6-b03c-bce3369277c4"},"vehicle_type_id":"4","last_reported":1734790029,"current_range_meters":37600,"station_id":"ce4bhjp2rcd13ifvqga0","pricing_plan_id":"cebpf4jnsgd1na2vs0mg"},{"bike_id":"12b28a6a-a08d-4088-a058-24fc8a1b7dad","system_id":"levelo_inurba_marseille","lat":43.25871,"lon":5.39904,"is_reserved":false,"is_disabled":false,"rental_uris":{"android":"levelo://app?vid=12b28a6a-a08d-4088-a058-24fc8a1b7dad","ios":"levelo://app?vid=12b28a6a-a08d-4088-a058-24fc8a1b7dad"},"vehicle_type_id":"4","last_reported":1734790029,"current_range_meters":38800,"station_id":"ce4bhl92rcd13ifvqghg","pricing_plan_id":"cebpf4jnsgd1na2vs0mg"},{"bike_id":"aa496fe5-ff01-4c76-b230-91db42ff1c79","system_id":"levelo_inurba_marseille","lat":43.2692,"lon":5.40249,"is_reserved":false,"is_disabled":false,"rental_uris":{"android":"levelo://app?vid=aa496fe5-ff01-4c76-b230-91db42ff1c79","ios":"levelo://app?vid=aa496fe5-ff01-4c76-b230-91db42ff1c79"},"vehicle_type_id":"4","last_reported":1734790029,"current_range_meters":36400,"station_id":"cjm6bp8fraef2m0cb0m0","pricing_plan_id":"cebpf4jnsgd1na2vs0mg"},{"bike_id":"60c2770b-5058-46c1-8a5a-bebef3f8d4d5","system_id":"levelo_inurba_marseille","lat":43.29565,"lon":5.37517,"is_reserved":false,"is_disabled":false,"rental_uris":{"android":"levelo://app?vid=60c2770b-5058-46c1-8a5a-bebef3f8d4d5","ios":"levelo://app?vid=60c2770b-5058-46c1-8a5a-bebef3f8d4d5"},"vehicle_type_id":"4","last_reported":1734790029,"current_range_meters":19200,"station_id":"ce4bgh92rcd13ifvqb50","pricing_plan_id":"cebpf4jnsgd1na2vs0mg"},{"bike_id":"8498a8ba-4c47-4184-967b-757e28bc7f83","system_id":"levelo_inurba_marseille","lat":43.30445,"lon":5.38885,"is_reserved":false,"is_disabled":false,"rental_uris":{"android":"levelo://app?vid=8498a8ba-4c47-4184-967b-757e28bc7f83","ios":"levelo://app?vid=8498a8ba-4c47-4184-967b-757e28bc7f83"},"vehicle_type_id":"4","last_reported":1734790029,"current_range_meters":24800,"station_id":"ce4bgk12rcd13ifvqbi0","pricing_plan_id":"cebpf4jnsgd1na2vs0mg"},{"bike_id":"96f67906-c94f-4a78-ae6e-fdff28a17019","system_id":"levelo_inurba_marseille","lat":43.337444,"lon":5.374475,"is_reserved":false,"is_disabled":false,"rental_uris":{"android":"levelo://app?vid=96f67906-c94f-4a78-ae6e-fdff28a17019","ios":"levelo://app?vid=96f67906-c94f-4a78-ae6e-fdff28a17019"},"vehicle_type_id":"4","last_reported":1734790029,"current_range_meters":38400,"station_id":"","pricing_plan_id":"cebpf4jnsgd1na2vs0mg"},{"bike_id":"6d401513-66ba-4f40-af76-25e509695a78","system_id":"levelo_inurba_marseille","lat":43.29235,"lon":5.36085,"is_reserved":false,"is_disabled":false,"rental_uris":{"android":"levelo://app?vid=6d401513-66ba-4f40-af76-25e509695a78","ios":"levelo://app?vid=6d401513-66ba-4f40-af76-25e509695a78"},"vehicle_type_id":"4","last_reported":1734790029,"current_range_meters":24000,"station_id":"ce4bhbh2rcd13ifvqeqg","pricing_plan_id":"cebpf4jnsgd1na2vs0mg"},{"bike_id":"f42f783e-769a-4b80-ae8e-683f87caab35","system_id":"levelo_inurba_marseille","lat":43.29668,"lon":5.37689,"is_reserved":false,"is_disabled":false,"rental_uris":{"android":"levelo://app?vid=f42f783e-769a-4b80-ae8e-683f87caab35","ios":"levelo://app?vid=f42f783e-769a-4b80-ae8e-683f87caab35"},"vehicle_type_id":"4","last_reported":1734790029,"current_range_meters":35600,"station_id":"ce4bgkh2rcd13ifvqbl0","pricing_plan_id":"cebpf4jnsgd1na2vs0mg"},{"bike_id":"40431b7a-e281-4e2d-91bc-d3d85515f6cd","system_id":"levelo_inurba_marseille","lat":43.2957,"lon":5.37501,"is_reserved":false,"is_disabled":false,"rental_uris":{"android":"levelo://app?vid=40431b7a-e281-4e2d-91bc-d3d85515f6cd","ios":"levelo://app?vid=40431b7a-e281-4e2d-91bc-d3d85515f6cd"},"vehicle_type_id":"4","last_reported":1734790029,"current_range_meters":28000,"station_id":"ce4bgh92rcd13ifvqb50","pricing_plan_id":"cebpf4jnsgd1na2vs0mg"},{"bike_id":"608374e1-f5ef-4e14-aac6-f3b4fbfd2453","system_id":"levelo_inurba_marseille","lat":43.25081,"lon":5.39521,"is_reserved":false,"is_disabled":false,"rental_uris":{"android":"levelo://app?vid=608374e1-f5ef-4e14-aac6-f3b4fbfd2453","ios":"levelo://app?vid=608374e1-f5ef-4e14-aac6-f3b4fbfd2453"},"vehicle_type_id":"4","last_reported":1734790029,"current_range_meters":30400,"station_id":"ce4bhm12rcd13ifvqgkg","pricing_plan_id":"cebpf4jnsgd1na2vs0mg"},{"bike_id":"f344c2f0-533d-46c2-b92e-0b69b03dde15","system_id":"levelo_inurba_marseille","lat":43.29509,"lon":5.39411,"is_reserved":false,"is_disabled":false,"rental_uris":{"android":"levelo://app?vid=f344c2f0-533d-46c2-b92e-0b69b03dde15","ios":"levelo://app?vid=f344c2f0-533d-46c2-b92e-0b69b03dde15"},"vehicle_type_id":"4","last_reported":1734790029,"current_range_meters":8400,"station_id":"ce4bh292rcd13ifvqdf0","pricing_plan_id":"cebpf4jnsgd1na2vs0mg"},{"bike_id":"5481ebd9-b3a3-4db6-ba37-c92c821046b1","system_id":"levelo_inurba_marseille","lat":43.27616,"lon":5.36112,"is_reserved":false,"is_disabled":false,"rental_uris":{"android":"levelo://app?vid=5481ebd9-b3a3-4db6-ba37-c92c821046b1","ios":"levelo://app?vid=5481ebd9-b3a3-4db6-ba37-c92c821046b1"},"vehicle_type_id":"4","last_reported":1734790029,"current_range_meters":38800,"station_id":"ce4bgj92rcd13ifvqbe0","pricing_plan_id":"cebpf4jnsgd1na2vs0mg"},{"bike_id":"ac9ae62b-7f39-42e7-b9ec-75e7356640a3","system_id":"levelo_inurba_marseille","lat":43.32101,"lon":5.36766,"is_reserved":false,"is_disabled":false,"rental_uris":{"android":"levelo://app?vid=ac9ae62b-7f39-42e7-b9ec-75e7356640a3","ios":"levelo://app?vid=ac9ae62b-7f39-42e7-b9ec-75e7356640a3"},"vehicle_type_id":"4","last_reported":1734790029,"current_range_meters":33600,"station_id":"ce4bhrh2rcd13ifvqhug","pricing_plan_id":"cebpf4jnsgd1na2vs0mg"},{"bike_id":"cd8e6119-b907-4a62-9ad2-bd1eaae8a6f8","system_id":"levelo_inurba_marseille","lat":43.30325,"lon":5.40438,"is_reserved":false,"is_disabled":false,"rental_uris":{"android":"levelo://app?vid=cd8e6119-b907-4a62-9ad2-bd1eaae8a6f8","ios":"levelo://app?vid=cd8e6119-b907-4a62-9ad2-bd1eaae8a6f8"},"vehicle_type_id":"4","last_reported":1734790029,"current_range_meters":12800,"station_id":"ce4bh012rcd13ifvqd10","pricing_plan_id":"cebpf4jnsgd1na2vs0mg"},{"bike_id":"f68c9948-ab77-4723-855c-343850dab7f7","system_id":"levelo_inurba_marseille","lat":43.2956,"lon":5.4229,"is_reserved":false,"is_disabled":false,"rental_uris":{"android":"levelo://app?vid=f68c9948-ab77-4723-855c-343850dab7f7","ios":"levelo://app?vid=f68c9948-ab77-4723-855c-343850dab7f7"},"vehicle_type_id":"4","last_reported":1734790029,"current_range_meters":18800,"station_id":"ce4bhph2rcd13ifvqhdg","pricing_plan_id":"cebpf4jnsgd1na2vs0mg"},{"bike_id":"c7a71632-bc6f-4b15-b28c-b84f250813df","system_id":"levelo_inurba_marseille","lat":43.3266,"lon":5.40989,"is_reserved":false,"is_disabled":false,"rental_uris":{"android":"levelo://app?vid=c7a71632-bc6f-4b15-b28c-b84f250813df","ios":"levelo://app?vid=c7a71632-bc6f-4b15-b28c-b84f250813df"},"vehicle_type_id":"4","last_reported":1734790029,"current_range_meters":36800,"station_id":"ce4bhpp2rcd13ifvqhgg","pricing_plan_id":"cebpf4jnsgd1na2vs0mg"},{"bike_id":"9fef363f-c999-4f7b-88c7-799fffc10cb6","system_id":"levelo_inurba_marseille","lat":43.29608,"lon":5.38104,"is_reserved":false,"is_disabled":false,"rental_uris":{"android":"levelo://app?vid=9fef363f-c999-4f7b-88c7-799fffc10cb6","ios":"levelo://app?vid=9fef363f-c999-4f7b-88c7-799fffc10cb6"},"vehicle_type_id":"4","last_reported":1734790029,"current_range_meters":15200,"station_id":"ce4bgl12rcd13ifvqbo0","pricing_plan_id":"cebpf4jnsgd1na2vs0mg"},{"bike_id":"9dc1ff30-2b1d-48f2-a09e-e77c91d5af4b","system_id":"levelo_inurba_marseille","lat":43.30958,"lon":5.39036,"is_reserved":false,"is_disabled":false,"rental_uris":{"android":"levelo://app?vid=9dc1ff30-2b1d-48f2-a09e-e77c91d5af4b","ios":"levelo://app?vid=9dc1ff30-2b1d-48f2-a09e-e77c91d5af4b"},"vehicle_type_id":"4","last_reported":1734790029,"current_range_meters":38000,"station_id":"ce4bgup2rcd13ifvqco0","pricing_plan_id":"cebpf4jnsgd1na2vs0mg"},{"bike_id":"9264b624-9de5-495f-afae-7a84bb3e1f28","system_id":"levelo_inurba_marseille","lat":43.31222,"lon":5.36862,"is_reserved":false,"is_disabled":false,"rental_uris":{"android":"levelo://app?vid=9264b624-9de5-495f-afae-7a84bb3e1f28","ios":"levelo://app?vid=9264b624-9de5-495f-afae-7a84bb3e1f28"},"vehicle_type_id":"4","last_reported":1734790029,"current_range_meters":28400,"station_id":"ce4bgl92rcd13ifvqbq0","pricing_plan_id":"cebpf4jnsgd1na2vs0mg"},{"bike_id":"c7fa8543-23ad-4172-87ae-03c0d9fe98c1","system_id":"levelo_inurba_marseille","lat":43.2502,"lon":5.38938,"is_reserved":false,"is_disabled":false,"rental_uris":{"android":"levelo://app?vid=c7fa8543-23ad-4172-87ae-03c0d9fe98c1","ios":"levelo://app?vid=c7fa8543-23ad-4172-87ae-03c0d9fe98c1"},"vehicle_type_id":"4","last_reported":1734790029,"current_range_meters":36400,"station_id":"ce4bhgp2rcd13ifvqfd0","pricing_plan_id":"cebpf4jnsgd1na2vs0mg"},{"bike_id":"65399007-f7cb-4507-974b-daa0fb6e1a2e","system_id":"levelo_inurba_marseille","lat":43.27206,"lon":5.39185,"is_reserved":false,"is_disabled":false,"rental_uris":{"android":"levelo://app?vid=65399007-f7cb-4507-974b-daa0fb6e1a2e","ios":"levelo://app?vid=65399007-f7cb-4507-974b-daa0fb6e1a2e"},"vehicle_type_id":"4","last_reported":1734790029,"current_range_meters":38800,"station_id":"ce4bhhp2rcd13ifvqfm0","pricing_plan_id":"cebpf4jnsgd1na2vs0mg"},{"bike_id":"710cbb4b-92a3-4fcb-a674-51cdb538a062","system_id":"levelo_inurba_marseille","lat":43.26064,"lon":5.39402,"is_reserved":false,"is_disabled":true,"rental_uris":{"android":"levelo://app?vid=710cbb4b-92a3-4fcb-a674-51cdb538a062","ios":"levelo://app?vid=710cbb4b-92a3-4fcb-a674-51cdb538a062"},"vehicle_type_id":"4","last_reported":1734790029,"current_range_meters":37600,"station_id":"ce4bhh92rcd13ifvqfj0","pricing_plan_id":"cebpf4jnsgd1na2vs0mg"},{"bike_id":"25f582da-80bb-46cd-988d-abd13b13594a","system_id":"levelo_inurba_marseille","lat":43.26061,"lon":5.39401,"is_reserved":false,"is_disabled":false,"rental_uris":{"android":"levelo://app?vid=25f582da-80bb-46cd-988d-abd13b13594a","ios":"levelo://app?vid=25f582da-80bb-46cd-988d-abd13b13594a"},"vehicle_type_id":"4","last_reported":1734790029,"current_range_meters":22400,"station_id":"ce4bhh92rcd13ifvqfj0","pricing_plan_id":"cebpf4jnsgd1na2vs0mg"},{"bike_id":"4010d8ba-4b80-425c-8eba-2845f10315fb","system_id":"levelo_inurba_marseille","lat":43.24073,"lon":5.37752,"is_reserved":false,"is_disabled":false,"rental_uris":{"android":"levelo://app?vid=4010d8ba-4b80-425c-8eba-2845f10315fb","ios":"levelo://app?vid=4010d8ba-4b80-425c-8eba-2845f10315fb"},"vehicle_type_id":"4","last_reported":1734790029,"current_range_meters":16000,"station_id":"ce4bhnp2rcd13ifvqgvg","pricing_plan_id":"cebpf4jnsgd1na2vs0mg"},{"bike_id":"dd52cea9-6fe3-460c-a4fc-255f18d6f38c","system_id":"levelo_inurba_marseille","lat":43.24997,"lon":5.38935,"is_reserved":false,"is_disabled":false,"rental_uris":{"android":"levelo://app?vid=dd52cea9-6fe3-460c-a4fc-255f18d6f38c","ios":"levelo://app?vid=dd52cea9-6fe3-460c-a4fc-255f18d6f38c"},"vehicle_type_id":"4","last_reported":1734790029,"current_range_meters":25600,"station_id":"ce4bhgp2rcd13ifvqfd0","pricing_plan_id":"cebpf4jnsgd1na2vs0mg"},{"bike_id":"f9226c4f-b9da-45af-929b-b36440337d80","system_id":"levelo_inurba_marseille","lat":43.30898,"lon":5.36853,"is_reserved":false,"is_disabled":false,"rental_uris":{"android":"levelo://app?vid=f9226c4f-b9da-45af-929b-b36440337d80","ios":"levelo://app?vid=f9226c4f-b9da-45af-929b-b36440337d80"},"vehicle_type_id":"4","last_reported":1734790029,"current_range_meters":29600,"station_id":"ce4bgn92rcd13ifvqbvg","pricing_plan_id":"cebpf4jnsgd1na2vs0mg"},{"bike_id":"4fa30569-b92b-422e-9bc7-ddcd7d605bf7","system_id":"levelo_inurba_marseille","lat":43.2305,"lon":5.35491,"is_reserved":false,"is_disabled":false,"rental_uris":{"android":"levelo://app?vid=4fa30569-b92b-422e-9bc7-ddcd7d605bf7","ios":"levelo://app?vid=4fa30569-b92b-422e-9bc7-ddcd7d605bf7"},"vehicle_type_id":"4","last_reported":1734790029,"current_range_meters":9600,"station_id":"cpo3342slgdg3j2ifvpg","pricing_plan_id":"cebpf4jnsgd1na2vs0mg"},{"bike_id":"923203be-81e9-4bac-baed-4fd99bc3f450","system_id":"levelo_inurba_marseille","lat":43.295829,"lon":5.374956,"is_reserved":false,"is_disabled":false,"rental_uris":{"android":"levelo://app?vid=923203be-81e9-4bac-baed-4fd99bc3f450","ios":"levelo://app?vid=923203be-81e9-4bac-baed-4fd99bc3f450"},"vehicle_type_id":"4","last_reported":1734790029,"current_range_meters":27200,"station_id":"ce4bgh92rcd13ifvqb50","pricing_plan_id":"cebpf4jnsgd1na2vs0mg"},{"bike_id":"7896e178-d523-4462-a9aa-a351a1112e49","system_id":"levelo_inurba_marseille","lat":43.27072,"lon":5.42277,"is_reserved":false,"is_disabled":false,"rental_uris":{"android":"levelo://app?vid=7896e178-d523-4462-a9aa-a351a1112e49","ios":"levelo://app?vid=7896e178-d523-4462-a9aa-a351a1112e49"},"vehicle_type_id":"4","last_reported":1734790029,"current_range_meters":28000,"station_id":"ce4bhk92rcd13ifvqgb0","pricing_plan_id":"cebpf4jnsgd1na2vs0mg"},{"bike_id":"fbf3da40-6db3-4b0a-ba01-e3b05174c03a","system_id":"levelo_inurba_marseille","lat":43.28274,"lon":5.35081,"is_reserved":false,"is_disabled":false,"rental_uris":{"android":"levelo://app?vid=fbf3da40-6db3-4b0a-ba01-e3b05174c03a","ios":"levelo://app?vid=fbf3da40-6db3-4b0a-ba01-e3b05174c03a"},"vehicle_type_id":"4","last_reported":1734790029,"current_range_meters":38800,"station_id":"ce4bhbp2rcd13ifvqerg","pricing_plan_id":"cebpf4jnsgd1na2vs0mg"},{"bike_id":"c9daacae-79a8-4a54-9f99-f1056ebfdaf4","system_id":"levelo_inurba_marseille","lat":43.25495,"lon":5.37648,"is_reserved":false,"is_disabled":true,"rental_uris":{"android":"levelo://app?vid=c9daacae-79a8-4a54-9f99-f1056ebfdaf4","ios":"levelo://app?vid=c9daacae-79a8-4a54-9f99-f1056ebfdaf4"},"vehicle_type_id":"4","last_reported":1734790029,"current_range_meters":0,"station_id":"ce4bhh12rcd13ifvqff0","pricing_plan_id":"cebpf4jnsgd1na2vs0mg"},{"bike_id":"1f265f2c-c3ce-4530-9858-4eca3d9e00e1","system_id":"levelo_inurba_marseille","lat":43.23177,"lon":5.40005,"is_reserved":false,"is_disabled":false,"rental_uris":{"android":"levelo://app?vid=1f265f2c-c3ce-4530-9858-4eca3d9e00e1","ios":"levelo://app?vid=1f265f2c-c3ce-4530-9858-4eca3d9e00e1"},"vehicle_type_id":"4","last_reported":1734790029,"current_range_meters":10000,"station_id":"ce4bhn12rcd13ifvqgqg","pricing_plan_id":"cebpf4jnsgd1na2vs0mg"},{"bike_id":"7fd1c797-e3d8-4dec-be0f-7347244fa071","system_id":"levelo_inurba_marseille","lat":43.31722,"lon":5.42403,"is_reserved":false,"is_disabled":false,"rental_uris":{"android":"levelo://app?vid=7fd1c797-e3d8-4dec-be0f-7347244fa071","ios":"levelo://app?vid=7fd1c797-e3d8-4dec-be0f-7347244fa071"},"vehicle_type_id":"4","last_reported":1734790029,"current_range_meters":12800,"station_id":"ce4bhp92rcd13ifvqhbg","pricing_plan_id":"cebpf4jnsgd1na2vs0mg"},{"bike_id":"523697cd-8684-4343-bd9c-3aae0aed004a","system_id":"levelo_inurba_marseille","lat":43.30554,"lon":5.36549,"is_reserved":false,"is_disabled":false,"rental_uris":{"android":"levelo://app?vid=523697cd-8684-4343-bd9c-3aae0aed004a","ios":"levelo://app?vid=523697cd-8684-4343-bd9c-3aae0aed004a"},"vehicle_type_id":"4","last_reported":1734790029,"current_range_meters":26800,"station_id":"ce4bgs12rcd13ifvqcag","pricing_plan_id":"cebpf4jnsgd1na2vs0mg"},{"bike_id":"e724f4e5-0922-4e36-91f4-8a4c9d514ff5","system_id":"levelo_inurba_marseille","lat":43.29834,"lon":5.36267,"is_reserved":false,"is_disabled":false,"rental_uris":{"android":"levelo://app?vid=e724f4e5-0922-4e36-91f4-8a4c9d514ff5","ios":"levelo://app?vid=e724f4e5-0922-4e36-91f4-8a4c9d514ff5"},"vehicle_type_id":"4","last_reported":1734790029,"current_range_meters":38800,"station_id":"ce4bgpp2rcd13ifvqc3g","pricing_plan_id":"cebpf4jnsgd1na2vs0mg"},{"bike_id":"abf860be-3d3d-4a76-b353-f7286e2856a9","system_id":"levelo_inurba_marseille","lat":43.27617,"lon":5.36125,"is_reserved":false,"is_disabled":false,"rental_uris":{"android":"levelo://app?vid=abf860be-3d3d-4a76-b353-f7286e2856a9","ios":"levelo://app?vid=abf860be-3d3d-4a76-b353-f7286e2856a9"},"vehicle_type_id":"4","last_reported":1734790029,"current_range_meters":22800,"station_id":"ce4bgj92rcd13ifvqbe0","pricing_plan_id":"cebpf4jnsgd1na2vs0mg"},{"bike_id":"7e577efa-ad7b-4159-aa14-2376d4395d6f","system_id":"levelo_inurba_marseille","lat":43.29615,"lon":5.37725,"is_reserved":false,"is_disabled":false,"rental_uris":{"android":"levelo://app?vid=7e577efa-ad7b-4159-aa14-2376d4395d6f","ios":"levelo://app?vid=7e577efa-ad7b-4159-aa14-2376d4395d6f"},"vehicle_type_id":"4","last_reported":1734790029,"current_range_meters":20400,"station_id":"ce4bgi92rcd13ifvqb90","pricing_plan_id":"cebpf4jnsgd1na2vs0mg"},{"bike_id":"d98f0b8a-1ef4-43b4-85a1-12b00b5f4de1","system_id":"levelo_inurba_marseille","lat":43.28424,"lon":5.3499,"is_reserved":false,"is_disabled":false,"rental_uris":{"android":"levelo://app?vid=d98f0b8a-1ef4-43b4-85a1-12b00b5f4de1","ios":"levelo://app?vid=d98f0b8a-1ef4-43b4-85a1-12b00b5f4de1"},"vehicle_type_id":"4","last_reported":1734790029,"current_range_meters":38000,"station_id":"ce4bhbh2rcd13ifvqepg","pricing_plan_id":"cebpf4jnsgd1na2vs0mg"},{"bike_id":"5e6d28ee-0e94-4fcc-8d1e-c67ddb11c7c6","system_id":"levelo_inurba_marseille","lat":43.250445,"lon":5.403285,"is_reserved":false,"is_disabled":false,"rental_uris":{"android":"levelo://app?vid=5e6d28ee-0e94-4fcc-8d1e-c67ddb11c7c6","ios":"levelo://app?vid=5e6d28ee-0e94-4fcc-8d1e-c67ddb11c7c6"},"vehicle_type_id":"4","last_reported":1734790029,"current_range_meters":24800,"station_id":"ce4bhn12rcd13ifvqgpg","pricing_plan_id":"cebpf4jnsgd1na2vs0mg"},{"bike_id":"89fb7c12-7f7c-4bae-841d-4e881f1dfd1f","system_id":"levelo_inurba_marseille","lat":43.28616,"lon":5.3511,"is_reserved":false,"is_disabled":false,"rental_uris":{"android":"levelo://app?vid=89fb7c12-7f7c-4bae-841d-4e881f1dfd1f","ios":"levelo://app?vid=89fb7c12-7f7c-4bae-841d-4e881f1dfd1f"},"vehicle_type_id":"4","last_reported":1734790029,"current_range_meters":18000,"station_id":"ce4bhch2rcd13ifvqeug","pricing_plan_id":"cebpf4jnsgd1na2vs0mg"},{"bike_id":"9cc6fd29-b873-4d34-aa08-bc39e26aeba5","system_id":"levelo_inurba_marseille","lat":43.28613,"lon":5.37064,"is_reserved":false,"is_disabled":false,"rental_uris":{"android":"levelo://app?vid=9cc6fd29-b873-4d34-aa08-bc39e26aeba5","ios":"levelo://app?vid=9cc6fd29-b873-4d34-aa08-bc39e26aeba5"},"vehicle_type_id":"4","last_reported":1734790029,"current_range_meters":16800,"station_id":"ce4bht12rcd13ifvqi60","pricing_plan_id":"cebpf4jnsgd1na2vs0mg"},{"bike_id":"59ca2ebc-7c6f-439a-a11b-02933f88209e","system_id":"levelo_inurba_marseille","lat":43.27079,"lon":5.42289,"is_reserved":false,"is_disabled":false,"rental_uris":{"android":"levelo://app?vid=59ca2ebc-7c6f-439a-a11b-02933f88209e","ios":"levelo://app?vid=59ca2ebc-7c6f-439a-a11b-02933f88209e"},"vehicle_type_id":"4","last_reported":1734790029,"current_range_meters":36800,"station_id":"ce4bhk92rcd13ifvqgb0","pricing_plan_id":"cebpf4jnsgd1na2vs0mg"},{"bike_id":"7ec2e082-9a40-4719-bfaf-9cc7e2f0ff4c","system_id":"levelo_inurba_marseille","lat":43.27925,"lon":5.41033,"is_reserved":false,"is_disabled":false,"rental_uris":{"android":"levelo://app?vid=7ec2e082-9a40-4719-bfaf-9cc7e2f0ff4c","ios":"levelo://app?vid=7ec2e082-9a40-4719-bfaf-9cc7e2f0ff4c"},"vehicle_type_id":"4","last_reported":1734790029,"current_range_meters":7200,"station_id":"ce4bhnp2rcd13ifvqh0g","pricing_plan_id":"cebpf4jnsgd1na2vs0mg"},{"bike_id":"6a03fd08-5018-4fbb-b6ab-d794b1fc20c8","system_id":"levelo_inurba_marseille","lat":43.29577,"lon":5.37515,"is_reserved":false,"is_disabled":false,"rental_uris":{"android":"levelo://app?vid=6a03fd08-5018-4fbb-b6ab-d794b1fc20c8","ios":"levelo://app?vid=6a03fd08-5018-4fbb-b6ab-d794b1fc20c8"},"vehicle_type_id":"4","last_reported":1734790029,"current_range_meters":12800,"station_id":"ce4bgh92rcd13ifvqb50","pricing_plan_id":"cebpf4jnsgd1na2vs0mg"},{"bike_id":"18b3f870-bfe7-4396-81e5-34ed6ada0d75","system_id":"levelo_inurba_marseille","lat":43.30162,"lon":5.38084,"is_reserved":false,"is_disabled":false,"rental_uris":{"android":"levelo://app?vid=18b3f870-bfe7-4396-81e5-34ed6ada0d75","ios":"levelo://app?vid=18b3f870-bfe7-4396-81e5-34ed6ada0d75"},"vehicle_type_id":"4","last_reported":1734790029,"current_range_meters":38800,"station_id":"ce4bgjp2rcd13ifvqbh0","pricing_plan_id":"cebpf4jnsgd1na2vs0mg"},{"bike_id":"ebf4f747-e93e-4b10-8f31-75332a0ff205","system_id":"levelo_inurba_marseille","lat":43.28942,"lon":5.39626,"is_reserved":false,"is_disabled":false,"rental_uris":{"android":"levelo://app?vid=ebf4f747-e93e-4b10-8f31-75332a0ff205","ios":"levelo://app?vid=ebf4f747-e93e-4b10-8f31-75332a0ff205"},"vehicle_type_id":"4","last_reported":1734790029,"current_range_meters":38800,"station_id":"ce4bh3h2rcd13ifvqdn0","pricing_plan_id":"cebpf4jnsgd1na2vs0mg"},{"bike_id":"5de55ec3-b446-45b5-9e6a-b67b9996a2b3","system_id":"levelo_inurba_marseille","lat":43.27248,"lon":5.39106,"is_reserved":false,"is_disabled":true,"rental_uris":{"android":"levelo://app?vid=5de55ec3-b446-45b5-9e6a-b67b9996a2b3","ios":"levelo://app?vid=5de55ec3-b446-45b5-9e6a-b67b9996a2b3"},"vehicle_type_id":"4","last_reported":1734790029,"current_range_meters":36800,"station_id":"ce4bhhp2rcd13ifvqfm0","pricing_plan_id":"cebpf4jnsgd1na2vs0mg"},{"bike_id":"ceca975b-b342-4918-8353-e4cd51aebfcc","system_id":"levelo_inurba_marseille","lat":43.28616,"lon":5.35122,"is_reserved":false,"is_disabled":false,"rental_uris":{"android":"levelo://app?vid=ceca975b-b342-4918-8353-e4cd51aebfcc","ios":"levelo://app?vid=ceca975b-b342-4918-8353-e4cd51aebfcc"},"vehicle_type_id":"4","last_reported":1734790029,"current_range_meters":38800,"station_id":"ce4bhch2rcd13ifvqeug","pricing_plan_id":"cebpf4jnsgd1na2vs0mg"},{"bike_id":"a5ae13f9-25c6-414e-b20e-140b3ecae3e5","system_id":"levelo_inurba_marseille","lat":43.29879,"lon":5.39735,"is_reserved":false,"is_disabled":false,"rental_uris":{"android":"levelo://app?vid=a5ae13f9-25c6-414e-b20e-140b3ecae3e5","ios":"levelo://app?vid=a5ae13f9-25c6-414e-b20e-140b3ecae3e5"},"vehicle_type_id":"4","last_reported":1734790029,"current_range_meters":28000,"station_id":"ce4bh0h2rcd13ifvqd50","pricing_plan_id":"cebpf4jnsgd1na2vs0mg"},{"bike_id":"54568c13-3ed6-4cb8-93bc-d1af885dc4aa","system_id":"levelo_inurba_marseille","lat":43.27815,"lon":5.40718,"is_reserved":false,"is_disabled":false,"rental_uris":{"android":"levelo://app?vid=54568c13-3ed6-4cb8-93bc-d1af885dc4aa","ios":"levelo://app?vid=54568c13-3ed6-4cb8-93bc-d1af885dc4aa"},"vehicle_type_id":"4","last_reported":1734790029,"current_range_meters":27200,"station_id":"ce4bhnh2rcd13ifvqgtg","pricing_plan_id":"cebpf4jnsgd1na2vs0mg"},{"bike_id":"85225762-d7ec-4912-87cf-30f56fc88559","system_id":"levelo_inurba_marseille","lat":43.29227,"lon":5.36075,"is_reserved":false,"is_disabled":false,"rental_uris":{"android":"levelo://app?vid=85225762-d7ec-4912-87cf-30f56fc88559","ios":"levelo://app?vid=85225762-d7ec-4912-87cf-30f56fc88559"},"vehicle_type_id":"4","last_reported":1734790029,"current_range_meters":16000,"station_id":"ce4bhbh2rcd13ifvqeqg","pricing_plan_id":"cebpf4jnsgd1na2vs0mg"},{"bike_id":"b3901552-4706-4150-8ace-26d936eca9fd","system_id":"levelo_inurba_marseille","lat":43.265,"lon":5.39544,"is_reserved":false,"is_disabled":false,"rental_uris":{"android":"levelo://app?vid=b3901552-4706-4150-8ace-26d936eca9fd","ios":"levelo://app?vid=b3901552-4706-4150-8ace-26d936eca9fd"},"vehicle_type_id":"4","last_reported":1734790029,"current_range_meters":38000,"station_id":"ce4bhi12rcd13ifvqfq0","pricing_plan_id":"cebpf4jnsgd1na2vs0mg"},{"bike_id":"ba2f85d6-a83a-4fee-8016-e3b8803ad126","system_id":"levelo_inurba_marseille","lat":43.29537,"lon":5.37502,"is_reserved":false,"is_disabled":false,"rental_uris":{"android":"levelo://app?vid=ba2f85d6-a83a-4fee-8016-e3b8803ad126","ios":"levelo://app?vid=ba2f85d6-a83a-4fee-8016-e3b8803ad126"},"vehicle_type_id":"4","last_reported":1734790029,"current_range_meters":2800,"station_id":"ce4bgkp2rcd13ifvqbmg","pricing_plan_id":"cebpf4jnsgd1na2vs0mg"},{"bike_id":"4ed128f2-c289-492e-b733-41626add23cd","system_id":"levelo_inurba_marseille","lat":43.31905,"lon":5.40749,"is_reserved":false,"is_disabled":false,"rental_uris":{"android":"levelo://app?vid=4ed128f2-c289-492e-b733-41626add23cd","ios":"levelo://app?vid=4ed128f2-c289-492e-b733-41626add23cd"},"vehicle_type_id":"4","last_reported":1734790029,"current_range_meters":36800,"station_id":"ce4bhq12rcd13ifvqhig","pricing_plan_id":"cebpf4jnsgd1na2vs0mg"},{"bike_id":"d1985a28-de3f-4de8-8223-adb22deb4411","system_id":"levelo_inurba_marseille","lat":43.30143,"lon":5.3812,"is_reserved":false,"is_disabled":false,"rental_uris":{"android":"levelo://app?vid=d1985a28-de3f-4de8-8223-adb22deb4411","ios":"levelo://app?vid=d1985a28-de3f-4de8-8223-adb22deb4411"},"vehicle_type_id":"4","last_reported":1734790029,"current_range_meters":32400,"station_id":"ce4bgjp2rcd13ifvqbh0","pricing_plan_id":"cebpf4jnsgd1na2vs0mg"},{"bike_id":"6dc6694c-e80f-4778-9813-70fc7e438103","system_id":"levelo_inurba_marseille","lat":43.27419,"lon":5.39414,"is_reserved":false,"is_disabled":false,"rental_uris":{"android":"levelo://app?vid=6dc6694c-e80f-4778-9813-70fc7e438103","ios":"levelo://app?vid=6dc6694c-e80f-4778-9813-70fc7e438103"},"vehicle_type_id":"4","last_reported":1734790029,"current_range_meters":25600,"station_id":"ce4bhdp2rcd13ifvqf20","pricing_plan_id":"cebpf4jnsgd1na2vs0mg"},{"bike_id":"6f3c8a5c-ada2-4481-883e-ec9ac01d5493","system_id":"levelo_inurba_marseille","lat":43.28262,"lon":5.35072,"is_reserved":false,"is_disabled":false,"rental_uris":{"android":"levelo://app?vid=6f3c8a5c-ada2-4481-883e-ec9ac01d5493","ios":"levelo://app?vid=6f3c8a5c-ada2-4481-883e-ec9ac01d5493"},"vehicle_type_id":"4","last_reported":1734790029,"current_range_meters":6400,"station_id":"ce4bhbp2rcd13ifvqerg","pricing_plan_id":"cebpf4jnsgd1na2vs0mg"},{"bike_id":"aa1382d2-2ba9-4843-9d1e-50018c94330f","system_id":"levelo_inurba_marseille","lat":43.28721,"lon":5.36092,"is_reserved":false,"is_disabled":false,"rental_uris":{"android":"levelo://app?vid=aa1382d2-2ba9-4843-9d1e-50018c94330f","ios":"levelo://app?vid=aa1382d2-2ba9-4843-9d1e-50018c94330f"},"vehicle_type_id":"4","last_reported":1734790029,"current_range_meters":35200,"station_id":"cki0cbj6b192h4jlfktg","pricing_plan_id":"cebpf4jnsgd1na2vs0mg"},{"bike_id":"52a88488-4dd2-4f03-9384-f060d17bb6f5","system_id":"levelo_inurba_marseille","lat":43.25868,"lon":5.399,"is_reserved":false,"is_disabled":true,"rental_uris":{"android":"levelo://app?vid=52a88488-4dd2-4f03-9384-f060d17bb6f5","ios":"levelo://app?vid=52a88488-4dd2-4f03-9384-f060d17bb6f5"},"vehicle_type_id":"4","last_reported":1734790029,"current_range_meters":0,"station_id":"ce4bhl92rcd13ifvqghg","pricing_plan_id":"cebpf4jnsgd1na2vs0mg"},{"bike_id":"720d4dfc-db62-4d98-83af-51ccf736ad84","system_id":"levelo_inurba_marseille","lat":43.29615,"lon":5.37719,"is_reserved":false,"is_disabled":false,"rental_uris":{"android":"levelo://app?vid=720d4dfc-db62-4d98-83af-51ccf736ad84","ios":"levelo://app?vid=720d4dfc-db62-4d98-83af-51ccf736ad84"},"vehicle_type_id":"4","last_reported":1734790029,"current_range_meters":32000,"station_id":"ce4bgi92rcd13ifvqb90","pricing_plan_id":"cebpf4jnsgd1na2vs0mg"},{"bike_id":"0a6e2767-ecd8-4159-9104-04d34208e4d6","system_id":"levelo_inurba_marseille","lat":43.29732,"lon":5.37695,"is_reserved":false,"is_disabled":false,"rental_uris":{"android":"levelo://app?vid=0a6e2767-ecd8-4159-9104-04d34208e4d6","ios":"levelo://app?vid=0a6e2767-ecd8-4159-9104-04d34208e4d6"},"vehicle_type_id":"4","last_reported":1734790029,"current_range_meters":38800,"station_id":"ce4bgkh2rcd13ifvqbl0","pricing_plan_id":"cebpf4jnsgd1na2vs0mg"},{"bike_id":"2ecd7a5c-6b03-4906-a193-c1bc16b7668c","system_id":"levelo_inurba_marseille","lat":43.30271,"lon":5.40069,"is_reserved":false,"is_disabled":true,"rental_uris":{"android":"levelo://app?vid=2ecd7a5c-6b03-4906-a193-c1bc16b7668c","ios":"levelo://app?vid=2ecd7a5c-6b03-4906-a193-c1bc16b7668c"},"vehicle_type_id":"4","last_reported":1734790029,"current_range_meters":38800,"station_id":"ce4bgvh2rcd13ifvqcs0","pricing_plan_id":"cebpf4jnsgd1na2vs0mg"},{"bike_id":"782bcbf2-b7de-4b04-bebc-aaa0329dd90c","system_id":"levelo_inurba_marseille","lat":43.23188,"lon":5.35563,"is_reserved":false,"is_disabled":false,"rental_uris":{"android":"levelo://app?vid=782bcbf2-b7de-4b04-bebc-aaa0329dd90c","ios":"levelo://app?vid=782bcbf2-b7de-4b04-bebc-aaa0329dd90c"},"vehicle_type_id":"4","last_reported":1734790029,"current_range_meters":30800,"station_id":"ce4bhu92rcd13ifvqi70","pricing_plan_id":"cebpf4jnsgd1na2vs0mg"},{"bike_id":"1f2b9cbc-597f-44bd-90ca-e341a2f647b2","system_id":"levelo_inurba_marseille","lat":43.29874,"lon":5.39722,"is_reserved":false,"is_disabled":false,"rental_uris":{"android":"levelo://app?vid=1f2b9cbc-597f-44bd-90ca-e341a2f647b2","ios":"levelo://app?vid=1f2b9cbc-597f-44bd-90ca-e341a2f647b2"},"vehicle_type_id":"4","last_reported":1734790029,"current_range_meters":38800,"station_id":"ce4bh0h2rcd13ifvqd50","pricing_plan_id":"cebpf4jnsgd1na2vs0mg"},{"bike_id":"7cac44d6-2a25-473f-b642-ba85548c9d66","system_id":"levelo_inurba_marseille","lat":43.289411,"lon":5.363734,"is_reserved":false,"is_disabled":false,"rental_uris":{"android":"levelo://app?vid=7cac44d6-2a25-473f-b642-ba85548c9d66","ios":"levelo://app?vid=7cac44d6-2a25-473f-b642-ba85548c9d66"},"vehicle_type_id":"4","last_reported":1734790029,"current_range_meters":30800,"station_id":"ce4bhc92rcd13ifvqetg","pricing_plan_id":"cebpf4jnsgd1na2vs0mg"},{"bike_id":"3bc9d7e3-29bb-4adc-9c94-43ca8a069539","system_id":"levelo_inurba_marseille","lat":43.27372,"lon":5.36258,"is_reserved":false,"is_disabled":false,"rental_uris":{"android":"levelo://app?vid=3bc9d7e3-29bb-4adc-9c94-43ca8a069539","ios":"levelo://app?vid=3bc9d7e3-29bb-4adc-9c94-43ca8a069539"},"vehicle_type_id":"4","last_reported":1734790029,"current_range_meters":26800,"station_id":"ce4bhbh2rcd13ifvqeo0","pricing_plan_id":"cebpf4jnsgd1na2vs0mg"},{"bike_id":"0fe0c7fc-7dc8-44c8-b816-723b7d01981d","system_id":"levelo_inurba_marseille","lat":43.26176,"lon":5.42048,"is_reserved":false,"is_disabled":true,"rental_uris":{"android":"levelo://app?vid=0fe0c7fc-7dc8-44c8-b816-723b7d01981d","ios":"levelo://app?vid=0fe0c7fc-7dc8-44c8-b816-723b7d01981d"},"vehicle_type_id":"4","last_reported":1734790029,"current_range_meters":1200,"station_id":"","pricing_plan_id":"cebpf4jnsgd1na2vs0mg"},{"bike_id":"cc803612-c5e3-41d9-b847-7a8ecb434c97","system_id":"levelo_inurba_marseille","lat":43.30598,"lon":5.37204,"is_reserved":false,"is_disabled":false,"rental_uris":{"android":"levelo://app?vid=cc803612-c5e3-41d9-b847-7a8ecb434c97","ios":"levelo://app?vid=cc803612-c5e3-41d9-b847-7a8ecb434c97"},"vehicle_type_id":"4","last_reported":1734790029,"current_range_meters":38800,"station_id":"ce4bgqh2rcd13ifvqc4g","pricing_plan_id":"cebpf4jnsgd1na2vs0mg"},{"bike_id":"35325136-ba50-4a03-a961-ec049678dc79","system_id":"levelo_inurba_marseille","lat":43.24809,"lon":5.37457,"is_reserved":false,"is_disabled":false,"rental_uris":{"android":"levelo://app?vid=35325136-ba50-4a03-a961-ec049678dc79","ios":"levelo://app?vid=35325136-ba50-4a03-a961-ec049678dc79"},"vehicle_type_id":"4","last_reported":1734790029,"current_range_meters":30000,"station_id":"ce4bhgh2rcd13ifvqfb0","pricing_plan_id":"cebpf4jnsgd1na2vs0mg"},{"bike_id":"1c7673d1-1a80-423c-aadb-0d47eb88f4ff","system_id":"levelo_inurba_marseille","lat":43.2962,"lon":5.37155,"is_reserved":false,"is_disabled":false,"rental_uris":{"android":"levelo://app?vid=1c7673d1-1a80-423c-aadb-0d47eb88f4ff","ios":"levelo://app?vid=1c7673d1-1a80-423c-aadb-0d47eb88f4ff"},"vehicle_type_id":"4","last_reported":1734790029,"current_range_meters":29600,"station_id":"","pricing_plan_id":"cebpf4jnsgd1na2vs0mg"},{"bike_id":"2cc52980-941f-41ef-85e8-3dad0f5327dc","system_id":"levelo_inurba_marseille","lat":43.27075,"lon":5.4228,"is_reserved":false,"is_disabled":false,"rental_uris":{"android":"levelo://app?vid=2cc52980-941f-41ef-85e8-3dad0f5327dc","ios":"levelo://app?vid=2cc52980-941f-41ef-85e8-3dad0f5327dc"},"vehicle_type_id":"4","last_reported":1734790029,"current_range_meters":24400,"station_id":"ce4bhk92rcd13ifvqgb0","pricing_plan_id":"cebpf4jnsgd1na2vs0mg"},{"bike_id":"e1e55b34-0cc8-42c6-b9d9-a442d6ab0cd4","system_id":"levelo_inurba_marseille","lat":43.23189,"lon":5.40001,"is_reserved":false,"is_disabled":false,"rental_uris":{"android":"levelo://app?vid=e1e55b34-0cc8-42c6-b9d9-a442d6ab0cd4","ios":"levelo://app?vid=e1e55b34-0cc8-42c6-b9d9-a442d6ab0cd4"},"vehicle_type_id":"4","last_reported":1734790029,"current_range_meters":25600,"station_id":"ce4bhn12rcd13ifvqgqg","pricing_plan_id":"cebpf4jnsgd1na2vs0mg"},{"bike_id":"0333784c-466d-4745-846b-c3d19d722c78","system_id":"levelo_inurba_marseille","lat":43.30905,"lon":5.37212,"is_reserved":false,"is_disabled":false,"rental_uris":{"android":"levelo://app?vid=0333784c-466d-4745-846b-c3d19d722c78","ios":"levelo://app?vid=0333784c-466d-4745-846b-c3d19d722c78"},"vehicle_type_id":"4","last_reported":1734790029,"current_range_meters":31200,"station_id":"ce4bguh2rcd13ifvqckg","pricing_plan_id":"cebpf4jnsgd1na2vs0mg"},{"bike_id":"b67e6347-c993-4186-b85c-1f54c9e75564","system_id":"levelo_inurba_marseille","lat":43.27592,"lon":5.38437,"is_reserved":false,"is_disabled":false,"rental_uris":{"android":"levelo://app?vid=b67e6347-c993-4186-b85c-1f54c9e75564","ios":"levelo://app?vid=b67e6347-c993-4186-b85c-1f54c9e75564"},"vehicle_type_id":"4","last_reported":1734790029,"current_range_meters":38800,"station_id":"ce4bhh92rcd13ifvqfi0","pricing_plan_id":"cebpf4jnsgd1na2vs0mg"},{"bike_id":"a5404b43-1f8d-4cf3-a071-fce93c8325c1","system_id":"levelo_inurba_marseille","lat":43.27065,"lon":5.40255,"is_reserved":false,"is_disabled":false,"rental_uris":{"android":"levelo://app?vid=a5404b43-1f8d-4cf3-a071-fce93c8325c1","ios":"levelo://app?vid=a5404b43-1f8d-4cf3-a071-fce93c8325c1"},"vehicle_type_id":"4","last_reported":1734790029,"current_range_meters":27200,"station_id":"ce4bhk92rcd13ifvqgc0","pricing_plan_id":"cebpf4jnsgd1na2vs0mg"},{"bike_id":"0312043b-97f9-41f5-9ad1-d115dbdf7fd1","system_id":"levelo_inurba_marseille","lat":43.30327,"lon":5.40436,"is_reserved":false,"is_disabled":false,"rental_uris":{"android":"levelo://app?vid=0312043b-97f9-41f5-9ad1-d115dbdf7fd1","ios":"levelo://app?vid=0312043b-97f9-41f5-9ad1-d115dbdf7fd1"},"vehicle_type_id":"4","last_reported":1734790029,"current_range_meters":38800,"station_id":"ce4bh012rcd13ifvqd10","pricing_plan_id":"cebpf4jnsgd1na2vs0mg"},{"bike_id":"44127e4e-8e84-4a38-89f7-8f4efb63f7a5","system_id":"levelo_inurba_marseille","lat":43.31191,"lon":5.36743,"is_reserved":false,"is_disabled":true,"rental_uris":{"android":"levelo://app?vid=44127e4e-8e84-4a38-89f7-8f4efb63f7a5","ios":"levelo://app?vid=44127e4e-8e84-4a38-89f7-8f4efb63f7a5"},"vehicle_type_id":"4","last_reported":1734790029,"current_range_meters":0,"station_id":"","pricing_plan_id":"cebpf4jnsgd1na2vs0mg"},{"bike_id":"592df7ea-e0d5-4468-9dfc-a545f6dc0e22","system_id":"levelo_inurba_marseille","lat":43.31356,"lon":5.36727,"is_reserved":false,"is_disabled":false,"rental_uris":{"android":"levelo://app?vid=592df7ea-e0d5-4468-9dfc-a545f6dc0e22","ios":"levelo://app?vid=592df7ea-e0d5-4468-9dfc-a545f6dc0e22"},"vehicle_type_id":"4","last_reported":1734790029,"current_range_meters":38800,"station_id":"ce4bgr92rcd13ifvqc6g","pricing_plan_id":"cebpf4jnsgd1na2vs0mg"},{"bike_id":"375cf45d-3c50-494d-97a1-6aa823a391ba","system_id":"levelo_inurba_marseille","lat":43.27573,"lon":5.38439,"is_reserved":false,"is_disabled":false,"rental_uris":{"android":"levelo://app?vid=375cf45d-3c50-494d-97a1-6aa823a391ba","ios":"levelo://app?vid=375cf45d-3c50-494d-97a1-6aa823a391ba"},"vehicle_type_id":"4","last_reported":1734790029,"current_range_meters":31200,"station_id":"ce4bhh92rcd13ifvqfi0","pricing_plan_id":"cebpf4jnsgd1na2vs0mg"},{"bike_id":"67c28b29-6a69-48f2-ae41-c5c2f69b85d8","system_id":"levelo_inurba_marseille","lat":43.29544,"lon":5.37496,"is_reserved":false,"is_disabled":false,"rental_uris":{"android":"levelo://app?vid=67c28b29-6a69-48f2-ae41-c5c2f69b85d8","ios":"levelo://app?vid=67c28b29-6a69-48f2-ae41-c5c2f69b85d8"},"vehicle_type_id":"4","last_reported":1734790029,"current_range_meters":7200,"station_id":"ce4bgkp2rcd13ifvqbmg","pricing_plan_id":"cebpf4jnsgd1na2vs0mg"},{"bike_id":"4c1fd80c-e9fb-42bb-9ee8-77cae5913cbe","system_id":"levelo_inurba_marseille","lat":43.28612,"lon":5.37064,"is_reserved":false,"is_disabled":false,"rental_uris":{"android":"levelo://app?vid=4c1fd80c-e9fb-42bb-9ee8-77cae5913cbe","ios":"levelo://app?vid=4c1fd80c-e9fb-42bb-9ee8-77cae5913cbe"},"vehicle_type_id":"4","last_reported":1734790029,"current_range_meters":32400,"station_id":"ce4bht12rcd13ifvqi60","pricing_plan_id":"cebpf4jnsgd1na2vs0mg"},{"bike_id":"a198e248-41c4-4a27-af7b-34f7a7595000","system_id":"levelo_inurba_marseille","lat":43.29909,"lon":5.37469,"is_reserved":false,"is_disabled":false,"rental_uris":{"android":"levelo://app?vid=a198e248-41c4-4a27-af7b-34f7a7595000","ios":"levelo://app?vid=a198e248-41c4-4a27-af7b-34f7a7595000"},"vehicle_type_id":"4","last_reported":1734790029,"current_range_meters":39200,"station_id":"ce4bgjh2rcd13ifvqbg0","pricing_plan_id":"cebpf4jnsgd1na2vs0mg"},{"bike_id":"67bd58ad-bcc0-45ec-acbc-020a30ce0c10","system_id":"levelo_inurba_marseille","lat":43.30531,"lon":5.36545,"is_reserved":false,"is_disabled":false,"rental_uris":{"android":"levelo://app?vid=67bd58ad-bcc0-45ec-acbc-020a30ce0c10","ios":"levelo://app?vid=67bd58ad-bcc0-45ec-acbc-020a30ce0c10"},"vehicle_type_id":"4","last_reported":1734790029,"current_range_meters":29600,"station_id":"ce4bgs12rcd13ifvqcag","pricing_plan_id":"cebpf4jnsgd1na2vs0mg"},{"bike_id":"6d3e152a-52b7-4e48-8ce9-495072b8eb15","system_id":"levelo_inurba_marseille","lat":43.33022,"lon":5.39043,"is_reserved":false,"is_disabled":false,"rental_uris":{"android":"levelo://app?vid=6d3e152a-52b7-4e48-8ce9-495072b8eb15","ios":"levelo://app?vid=6d3e152a-52b7-4e48-8ce9-495072b8eb15"},"vehicle_type_id":"4","last_reported":1734790029,"current_range_meters":38800,"station_id":"ce4bhr92rcd13ifvqhrg","pricing_plan_id":"cebpf4jnsgd1na2vs0mg"},{"bike_id":"dfcbaf7f-5177-41a2-aa19-4f14caa37646","system_id":"levelo_inurba_marseille","lat":43.28627,"lon":5.37059,"is_reserved":false,"is_disabled":false,"rental_uris":{"android":"levelo://app?vid=dfcbaf7f-5177-41a2-aa19-4f14caa37646","ios":"levelo://app?vid=dfcbaf7f-5177-41a2-aa19-4f14caa37646"},"vehicle_type_id":"4","last_reported":1734790029,"current_range_meters":4000,"station_id":"ce4bht12rcd13ifvqi60","pricing_plan_id":"cebpf4jnsgd1na2vs0mg"},{"bike_id":"f9fb656d-bcfc-4c0d-8da7-f0c23afe7d6a","system_id":"levelo_inurba_marseille","lat":43.29915,"lon":5.38163,"is_reserved":false,"is_disabled":false,"rental_uris":{"android":"levelo://app?vid=f9fb656d-bcfc-4c0d-8da7-f0c23afe7d6a","ios":"levelo://app?vid=f9fb656d-bcfc-4c0d-8da7-f0c23afe7d6a"},"vehicle_type_id":"4","last_reported":1734790029,"current_range_meters":26800,"station_id":"ce4bgj12rcd13ifvqbc0","pricing_plan_id":"cebpf4jnsgd1na2vs0mg"},{"bike_id":"7ddbcde7-0411-490e-afea-0c0d7796e65f","system_id":"levelo_inurba_marseille","lat":43.29892,"lon":5.43665,"is_reserved":false,"is_disabled":false,"rental_uris":{"android":"levelo://app?vid=7ddbcde7-0411-490e-afea-0c0d7796e65f","ios":"levelo://app?vid=7ddbcde7-0411-490e-afea-0c0d7796e65f"},"vehicle_type_id":"4","last_reported":1734790029,"current_range_meters":20800,"station_id":"ce4bhpp2rcd13ifvqhfg","pricing_plan_id":"cebpf4jnsgd1na2vs0mg"},{"bike_id":"20907fe1-7093-4868-8bd6-d680712c57df","system_id":"levelo_inurba_marseille","lat":43.29611,"lon":5.37659,"is_reserved":false,"is_disabled":false,"rental_uris":{"android":"levelo://app?vid=20907fe1-7093-4868-8bd6-d680712c57df","ios":"levelo://app?vid=20907fe1-7093-4868-8bd6-d680712c57df"},"vehicle_type_id":"4","last_reported":1734790029,"current_range_meters":28000,"station_id":"ce4bgi92rcd13ifvqb90","pricing_plan_id":"cebpf4jnsgd1na2vs0mg"},{"bike_id":"3e35c612-6aab-4cde-a603-054861237f48","system_id":"levelo_inurba_marseille","lat":43.29778,"lon":5.371167,"is_reserved":false,"is_disabled":false,"rental_uris":{"android":"levelo://app?vid=3e35c612-6aab-4cde-a603-054861237f48","ios":"levelo://app?vid=3e35c612-6aab-4cde-a603-054861237f48"},"vehicle_type_id":"4","last_reported":1734790029,"current_range_meters":30400,"station_id":"ce4bgop2rcd13ifvqc1g","pricing_plan_id":"cebpf4jnsgd1na2vs0mg"},{"bike_id":"d77abc9d-2ff7-46b1-95d2-5a87a7d7b6fc","system_id":"levelo_inurba_marseille","lat":43.29605,"lon":5.37715,"is_reserved":false,"is_disabled":false,"rental_uris":{"android":"levelo://app?vid=d77abc9d-2ff7-46b1-95d2-5a87a7d7b6fc","ios":"levelo://app?vid=d77abc9d-2ff7-46b1-95d2-5a87a7d7b6fc"},"vehicle_type_id":"4","last_reported":1734790029,"current_range_meters":38000,"station_id":"ce4bgi92rcd13ifvqb90","pricing_plan_id":"cebpf4jnsgd1na2vs0mg"},{"bike_id":"14dbcb14-abf7-4274-be65-58fb44a8e529","system_id":"levelo_inurba_marseille","lat":43.27447,"lon":5.39419,"is_reserved":false,"is_disabled":false,"rental_uris":{"android":"levelo://app?vid=14dbcb14-abf7-4274-be65-58fb44a8e529","ios":"levelo://app?vid=14dbcb14-abf7-4274-be65-58fb44a8e529"},"vehicle_type_id":"4","last_reported":1734790029,"current_range_meters":36800,"station_id":"ce4bhdp2rcd13ifvqf20","pricing_plan_id":"cebpf4jnsgd1na2vs0mg"},{"bike_id":"77da38f2-be67-48e3-8cb9-3031a9b2b25c","system_id":"levelo_inurba_marseille","lat":43.29727,"lon":5.37688,"is_reserved":false,"is_disabled":false,"rental_uris":{"android":"levelo://app?vid=77da38f2-be67-48e3-8cb9-3031a9b2b25c","ios":"levelo://app?vid=77da38f2-be67-48e3-8cb9-3031a9b2b25c"},"vehicle_type_id":"4","last_reported":1734790029,"current_range_meters":17600,"station_id":"ce4bgkh2rcd13ifvqbl0","pricing_plan_id":"cebpf4jnsgd1na2vs0mg"},{"bike_id":"81c55f70-3f5b-44f5-82c2-dadd04d937b5","system_id":"levelo_inurba_marseille","lat":43.311213,"lon":5.377714,"is_reserved":false,"is_disabled":false,"rental_uris":{"android":"levelo://app?vid=81c55f70-3f5b-44f5-82c2-dadd04d937b5","ios":"levelo://app?vid=81c55f70-3f5b-44f5-82c2-dadd04d937b5"},"vehicle_type_id":"4","last_reported":1734790029,"current_range_meters":10800,"station_id":"ce4bgt92rcd13ifvqcg0","pricing_plan_id":"cebpf4jnsgd1na2vs0mg"},{"bike_id":"b2a7f13a-9614-4595-a264-2c05c7dda9fd","system_id":"levelo_inurba_marseille","lat":43.26489,"lon":5.3955,"is_reserved":false,"is_disabled":false,"rental_uris":{"android":"levelo://app?vid=b2a7f13a-9614-4595-a264-2c05c7dda9fd","ios":"levelo://app?vid=b2a7f13a-9614-4595-a264-2c05c7dda9fd"},"vehicle_type_id":"4","last_reported":1734790029,"current_range_meters":12800,"station_id":"ce4bhi12rcd13ifvqfq0","pricing_plan_id":"cebpf4jnsgd1na2vs0mg"},{"bike_id":"9ccd427a-335f-4345-8944-79b3d49dfe96","system_id":"levelo_inurba_marseille","lat":43.29637,"lon":5.37141,"is_reserved":false,"is_disabled":false,"rental_uris":{"android":"levelo://app?vid=9ccd427a-335f-4345-8944-79b3d49dfe96","ios":"levelo://app?vid=9ccd427a-335f-4345-8944-79b3d49dfe96"},"vehicle_type_id":"4","last_reported":1734790029,"current_range_meters":38000,"station_id":"","pricing_plan_id":"cebpf4jnsgd1na2vs0mg"},{"bike_id":"30afb38e-0c47-4c13-b1a5-c734d9214964","system_id":"levelo_inurba_marseille","lat":43.29271,"lon":5.36843,"is_reserved":false,"is_disabled":false,"rental_uris":{"android":"levelo://app?vid=30afb38e-0c47-4c13-b1a5-c734d9214964","ios":"levelo://app?vid=30afb38e-0c47-4c13-b1a5-c734d9214964"},"vehicle_type_id":"4","last_reported":1734790029,"current_range_meters":24800,"station_id":"ce4bhbp2rcd13ifvqesg","pricing_plan_id":"cebpf4jnsgd1na2vs0mg"},{"bike_id":"5c61ca5d-1173-469b-81d3-98bd4b2a1441","system_id":"levelo_inurba_marseille","lat":43.230588,"lon":5.35492,"is_reserved":false,"is_disabled":true,"rental_uris":{"android":"levelo://app?vid=5c61ca5d-1173-469b-81d3-98bd4b2a1441","ios":"levelo://app?vid=5c61ca5d-1173-469b-81d3-98bd4b2a1441"},"vehicle_type_id":"4","last_reported":1734790029,"current_range_meters":0,"station_id":"cpo3342slgdg3j2ifvpg","pricing_plan_id":"cebpf4jnsgd1na2vs0mg"},{"bike_id":"eeb165cd-0850-4135-b307-a7a2de607d7b","system_id":"levelo_inurba_marseille","lat":43.28609,"lon":5.37066,"is_reserved":false,"is_disabled":false,"rental_uris":{"android":"levelo://app?vid=eeb165cd-0850-4135-b307-a7a2de607d7b","ios":"levelo://app?vid=eeb165cd-0850-4135-b307-a7a2de607d7b"},"vehicle_type_id":"4","last_reported":1734790029,"current_range_meters":38800,"station_id":"ce4bht12rcd13ifvqi60","pricing_plan_id":"cebpf4jnsgd1na2vs0mg"},{"bike_id":"2e401c1b-8b88-4095-96fa-e0b294572623","system_id":"levelo_inurba_marseille","lat":43.32618,"lon":5.36641,"is_reserved":false,"is_disabled":false,"rental_uris":{"android":"levelo://app?vid=2e401c1b-8b88-4095-96fa-e0b294572623","ios":"levelo://app?vid=2e401c1b-8b88-4095-96fa-e0b294572623"},"vehicle_type_id":"4","last_reported":1734790029,"current_range_meters":36400,"station_id":"ce4bhs12rcd13ifvqhvg","pricing_plan_id":"cebpf4jnsgd1na2vs0mg"},{"bike_id":"aee9adb9-c0ca-4e0c-b927-b16e072008dd","system_id":"levelo_inurba_marseille","lat":43.29571,"lon":5.37519,"is_reserved":false,"is_disabled":false,"rental_uris":{"android":"levelo://app?vid=aee9adb9-c0ca-4e0c-b927-b16e072008dd","ios":"levelo://app?vid=aee9adb9-c0ca-4e0c-b927-b16e072008dd"},"vehicle_type_id":"4","last_reported":1734790029,"current_range_meters":36800,"station_id":"ce4bgh92rcd13ifvqb50","pricing_plan_id":"cebpf4jnsgd1na2vs0mg"},{"bike_id":"722dc002-d534-4936-9890-920f17b08600","system_id":"levelo_inurba_marseille","lat":43.28476,"lon":5.38414,"is_reserved":false,"is_disabled":false,"rental_uris":{"android":"levelo://app?vid=722dc002-d534-4936-9890-920f17b08600","ios":"levelo://app?vid=722dc002-d534-4936-9890-920f17b08600"},"vehicle_type_id":"4","last_reported":1734790029,"current_range_meters":30800,"station_id":"ce4bh512rcd13ifvqe3g","pricing_plan_id":"cebpf4jnsgd1na2vs0mg"},{"bike_id":"0f5e5d38-d472-4f22-ab9d-3205c66c2299","system_id":"levelo_inurba_marseille","lat":43.31226,"lon":5.36854,"is_reserved":false,"is_disabled":false,"rental_uris":{"android":"levelo://app?vid=0f5e5d38-d472-4f22-ab9d-3205c66c2299","ios":"levelo://app?vid=0f5e5d38-d472-4f22-ab9d-3205c66c2299"},"vehicle_type_id":"4","last_reported":1734790029,"current_range_meters":36400,"station_id":"ce4bgl92rcd13ifvqbq0","pricing_plan_id":"cebpf4jnsgd1na2vs0mg"},{"bike_id":"156ba7be-f230-41ab-8e17-ef9998c086d5","system_id":"levelo_inurba_marseille","lat":43.27151,"lon":5.39188,"is_reserved":false,"is_disabled":true,"rental_uris":{"android":"levelo://app?vid=156ba7be-f230-41ab-8e17-ef9998c086d5","ios":"levelo://app?vid=156ba7be-f230-41ab-8e17-ef9998c086d5"},"vehicle_type_id":"4","last_reported":1734790029,"current_range_meters":38800,"station_id":"","pricing_plan_id":"cebpf4jnsgd1na2vs0mg"},{"bike_id":"15a99ce9-65a6-4f95-b7ea-21d341c6ff66","system_id":"levelo_inurba_marseille","lat":43.24083,"lon":5.37768,"is_reserved":false,"is_disabled":false,"rental_uris":{"android":"levelo://app?vid=15a99ce9-65a6-4f95-b7ea-21d341c6ff66","ios":"levelo://app?vid=15a99ce9-65a6-4f95-b7ea-21d341c6ff66"},"vehicle_type_id":"4","last_reported":1734790029,"current_range_meters":26800,"station_id":"ce4bhnp2rcd13ifvqgvg","pricing_plan_id":"cebpf4jnsgd1na2vs0mg"},{"bike_id":"8dfc53b9-96fd-47c3-8930-08432e9aa87c","system_id":"levelo_inurba_marseille","lat":43.30162,"lon":5.38082,"is_reserved":false,"is_disabled":false,"rental_uris":{"android":"levelo://app?vid=8dfc53b9-96fd-47c3-8930-08432e9aa87c","ios":"levelo://app?vid=8dfc53b9-96fd-47c3-8930-08432e9aa87c"},"vehicle_type_id":"4","last_reported":1734790029,"current_range_meters":35200,"station_id":"ce4bgjp2rcd13ifvqbh0","pricing_plan_id":"cebpf4jnsgd1na2vs0mg"},{"bike_id":"0ccdf620-eaf4-47f7-bf63-410613d0565f","system_id":"levelo_inurba_marseille","lat":43.30535,"lon":5.36531,"is_reserved":false,"is_disabled":false,"rental_uris":{"android":"levelo://app?vid=0ccdf620-eaf4-47f7-bf63-410613d0565f","ios":"levelo://app?vid=0ccdf620-eaf4-47f7-bf63-410613d0565f"},"vehicle_type_id":"4","last_reported":1734790029,"current_range_meters":34800,"station_id":"ce4bgs12rcd13ifvqcag","pricing_plan_id":"cebpf4jnsgd1na2vs0mg"},{"bike_id":"9f50244a-d38a-491a-9f70-c23a46404b46","system_id":"levelo_inurba_marseille","lat":43.28615,"lon":5.37059,"is_reserved":false,"is_disabled":false,"rental_uris":{"android":"levelo://app?vid=9f50244a-d38a-491a-9f70-c23a46404b46","ios":"levelo://app?vid=9f50244a-d38a-491a-9f70-c23a46404b46"},"vehicle_type_id":"4","last_reported":1734790029,"current_range_meters":38800,"station_id":"ce4bht12rcd13ifvqi60","pricing_plan_id":"cebpf4jnsgd1na2vs0mg"},{"bike_id":"ceb47411-851c-4629-80be-093b3dea2d57","system_id":"levelo_inurba_marseille","lat":43.29561,"lon":5.37508,"is_reserved":false,"is_disabled":false,"rental_uris":{"android":"levelo://app?vid=ceb47411-851c-4629-80be-093b3dea2d57","ios":"levelo://app?vid=ceb47411-851c-4629-80be-093b3dea2d57"},"vehicle_type_id":"4","last_reported":1734790029,"current_range_meters":38800,"station_id":"ce4bgh92rcd13ifvqb50","pricing_plan_id":"cebpf4jnsgd1na2vs0mg"},{"bike_id":"c88c4b0d-8e58-498c-8a16-c07f5bd1c386","system_id":"levelo_inurba_marseille","lat":43.30155,"lon":5.38097,"is_reserved":false,"is_disabled":false,"rental_uris":{"android":"levelo://app?vid=c88c4b0d-8e58-498c-8a16-c07f5bd1c386","ios":"levelo://app?vid=c88c4b0d-8e58-498c-8a16-c07f5bd1c386"},"vehicle_type_id":"4","last_reported":1734790029,"current_range_meters":38800,"station_id":"ce4bgjp2rcd13ifvqbh0","pricing_plan_id":"cebpf4jnsgd1na2vs0mg"},{"bike_id":"90fbf7b3-3e59-4761-9ba2-48103aa75f60","system_id":"levelo_inurba_marseille","lat":43.29907,"lon":5.43676,"is_reserved":false,"is_disabled":false,"rental_uris":{"android":"levelo://app?vid=90fbf7b3-3e59-4761-9ba2-48103aa75f60","ios":"levelo://app?vid=90fbf7b3-3e59-4761-9ba2-48103aa75f60"},"vehicle_type_id":"4","last_reported":1734790029,"current_range_meters":27200,"station_id":"ce4bhpp2rcd13ifvqhfg","pricing_plan_id":"cebpf4jnsgd1na2vs0mg"},{"bike_id":"d623d71b-cdb1-4f37-9afb-994b775f406a","system_id":"levelo_inurba_marseille","lat":43.29622,"lon":5.37735,"is_reserved":false,"is_disabled":false,"rental_uris":{"android":"levelo://app?vid=d623d71b-cdb1-4f37-9afb-994b775f406a","ios":"levelo://app?vid=d623d71b-cdb1-4f37-9afb-994b775f406a"},"vehicle_type_id":"4","last_reported":1734790029,"current_range_meters":18000,"station_id":"ce4bgi92rcd13ifvqb90","pricing_plan_id":"cebpf4jnsgd1na2vs0mg"},{"bike_id":"3e76721f-98e4-431f-969b-21f0e57609ec","system_id":"levelo_inurba_marseille","lat":43.24661,"lon":5.38151,"is_reserved":false,"is_disabled":false,"rental_uris":{"android":"levelo://app?vid=3e76721f-98e4-431f-969b-21f0e57609ec","ios":"levelo://app?vid=3e76721f-98e4-431f-969b-21f0e57609ec"},"vehicle_type_id":"4","last_reported":1734790029,"current_range_meters":38800,"station_id":"ce4bhih2rcd13ifvqfr0","pricing_plan_id":"cebpf4jnsgd1na2vs0mg"},{"bike_id":"227b8709-a253-45c2-b4c3-fa7ef48a7c09","system_id":"levelo_inurba_marseille","lat":43.26938,"lon":5.38629,"is_reserved":false,"is_disabled":false,"rental_uris":{"android":"levelo://app?vid=227b8709-a253-45c2-b4c3-fa7ef48a7c09","ios":"levelo://app?vid=227b8709-a253-45c2-b4c3-fa7ef48a7c09"},"vehicle_type_id":"4","last_reported":1734790029,"current_range_meters":33200,"station_id":"ce4bhh92rcd13ifvqfh0","pricing_plan_id":"cebpf4jnsgd1na2vs0mg"},{"bike_id":"5fb41fd5-73dd-4f0b-aef7-7641a0bec667","system_id":"levelo_inurba_marseille","lat":43.28477,"lon":5.38549,"is_reserved":false,"is_disabled":false,"rental_uris":{"android":"levelo://app?vid=5fb41fd5-73dd-4f0b-aef7-7641a0bec667","ios":"levelo://app?vid=5fb41fd5-73dd-4f0b-aef7-7641a0bec667"},"vehicle_type_id":"4","last_reported":1734790029,"current_range_meters":20800,"station_id":"ce4bh8p2rcd13ifvqeb0","pricing_plan_id":"cebpf4jnsgd1na2vs0mg"},{"bike_id":"0c0965d3-3f71-4b27-9009-cf6b5705bfe0","system_id":"levelo_inurba_marseille","lat":43.3053,"lon":5.36557,"is_reserved":false,"is_disabled":false,"rental_uris":{"android":"levelo://app?vid=0c0965d3-3f71-4b27-9009-cf6b5705bfe0","ios":"levelo://app?vid=0c0965d3-3f71-4b27-9009-cf6b5705bfe0"},"vehicle_type_id":"4","last_reported":1734790029,"current_range_meters":6400,"station_id":"ce4bgs12rcd13ifvqcag","pricing_plan_id":"cebpf4jnsgd1na2vs0mg"},{"bike_id":"d315a5bd-8102-4963-89cd-ff09ee66693d","system_id":"levelo_inurba_marseille","lat":43.30212,"lon":5.39467,"is_reserved":false,"is_disabled":false,"rental_uris":{"android":"levelo://app?vid=d315a5bd-8102-4963-89cd-ff09ee66693d","ios":"levelo://app?vid=d315a5bd-8102-4963-89cd-ff09ee66693d"},"vehicle_type_id":"4","last_reported":1734790029,"current_range_meters":36400,"station_id":"ce4bh0p2rcd13ifvqd70","pricing_plan_id":"cebpf4jnsgd1na2vs0mg"},{"bike_id":"fd9c7df6-e3c4-4e62-a4b0-23afb455b299","system_id":"levelo_inurba_marseille","lat":43.30135,"lon":5.39872,"is_reserved":false,"is_disabled":false,"rental_uris":{"android":"levelo://app?vid=fd9c7df6-e3c4-4e62-a4b0-23afb455b299","ios":"levelo://app?vid=fd9c7df6-e3c4-4e62-a4b0-23afb455b299"},"vehicle_type_id":"4","last_reported":1734790029,"current_range_meters":21600,"station_id":"ce4bh0h2rcd13ifvqd40","pricing_plan_id":"cebpf4jnsgd1na2vs0mg"},{"bike_id":"fd785b07-2362-4223-ac19-c71a1481c377","system_id":"levelo_inurba_marseille","lat":43.25505,"lon":5.37655,"is_reserved":false,"is_disabled":false,"rental_uris":{"android":"levelo://app?vid=fd785b07-2362-4223-ac19-c71a1481c377","ios":"levelo://app?vid=fd785b07-2362-4223-ac19-c71a1481c377"},"vehicle_type_id":"4","last_reported":1734790029,"current_range_meters":36400,"station_id":"ce4bhh12rcd13ifvqff0","pricing_plan_id":"cebpf4jnsgd1na2vs0mg"},{"bike_id":"2678b9e7-b887-4244-9b45-06365972f676","system_id":"levelo_inurba_marseille","lat":43.29573,"lon":5.375,"is_reserved":false,"is_disabled":false,"rental_uris":{"android":"levelo://app?vid=2678b9e7-b887-4244-9b45-06365972f676","ios":"levelo://app?vid=2678b9e7-b887-4244-9b45-06365972f676"},"vehicle_type_id":"4","last_reported":1734790029,"current_range_meters":37600,"station_id":"ce4bgh92rcd13ifvqb50","pricing_plan_id":"cebpf4jnsgd1na2vs0mg"},{"bike_id":"dabdb816-8280-4165-8f88-ae205fe0accb","system_id":"levelo_inurba_marseille","lat":43.23964,"lon":5.36637,"is_reserved":false,"is_disabled":false,"rental_uris":{"android":"levelo://app?vid=dabdb816-8280-4165-8f88-ae205fe0accb","ios":"levelo://app?vid=dabdb816-8280-4165-8f88-ae205fe0accb"},"vehicle_type_id":"4","last_reported":1734790029,"current_range_meters":36400,"station_id":"ce4bhi12rcd13ifvqfp0","pricing_plan_id":"cebpf4jnsgd1na2vs0mg"},{"bike_id":"40f0d9f7-597f-4a4f-9e1f-0bccc7e86565","system_id":"levelo_inurba_marseille","lat":43.29017,"lon":5.38145,"is_reserved":false,"is_disabled":false,"rental_uris":{"android":"levelo://app?vid=40f0d9f7-597f-4a4f-9e1f-0bccc7e86565","ios":"levelo://app?vid=40f0d9f7-597f-4a4f-9e1f-0bccc7e86565"},"vehicle_type_id":"4","last_reported":1734790029,"current_range_meters":30400,"station_id":"ce4bh4p2rcd13ifvqe1g","pricing_plan_id":"cebpf4jnsgd1na2vs0mg"},{"bike_id":"62c4bf08-2663-4d5f-b5a0-40453d217c52","system_id":"levelo_inurba_marseille","lat":43.26201,"lon":5.37924,"is_reserved":false,"is_disabled":false,"rental_uris":{"android":"levelo://app?vid=62c4bf08-2663-4d5f-b5a0-40453d217c52","ios":"levelo://app?vid=62c4bf08-2663-4d5f-b5a0-40453d217c52"},"vehicle_type_id":"4","last_reported":1734790029,"current_range_meters":36400,"station_id":"ce4bhjp2rcd13ifvqg90","pricing_plan_id":"cebpf4jnsgd1na2vs0mg"},{"bike_id":"91e7ad43-f916-4de7-908c-886dc8f256ff","system_id":"levelo_inurba_marseille","lat":43.26558,"lon":5.37295,"is_reserved":false,"is_disabled":true,"rental_uris":{"android":"levelo://app?vid=91e7ad43-f916-4de7-908c-886dc8f256ff","ios":"levelo://app?vid=91e7ad43-f916-4de7-908c-886dc8f256ff"},"vehicle_type_id":"4","last_reported":1734790029,"current_range_meters":0,"station_id":"ce4bhg12rcd13ifvqf70","pricing_plan_id":"cebpf4jnsgd1na2vs0mg"},{"bike_id":"108b58f7-795b-4bc3-887e-c514a0a656af","system_id":"levelo_inurba_marseille","lat":43.26931,"lon":5.40258,"is_reserved":false,"is_disabled":false,"rental_uris":{"android":"levelo://app?vid=108b58f7-795b-4bc3-887e-c514a0a656af","ios":"levelo://app?vid=108b58f7-795b-4bc3-887e-c514a0a656af"},"vehicle_type_id":"4","last_reported":1734790029,"current_range_meters":38400,"station_id":"cjm6bp8fraef2m0cb0m0","pricing_plan_id":"cebpf4jnsgd1na2vs0mg"},{"bike_id":"fc4ff347-ef4d-4a4d-ae09-babf618fedb6","system_id":"levelo_inurba_marseille","lat":43.24173,"lon":5.36394,"is_reserved":false,"is_disabled":false,"rental_uris":{"android":"levelo://app?vid=fc4ff347-ef4d-4a4d-ae09-babf618fedb6","ios":"levelo://app?vid=fc4ff347-ef4d-4a4d-ae09-babf618fedb6"},"vehicle_type_id":"4","last_reported":1734790029,"current_range_meters":35200,"station_id":"cpo36qri1sfpv3e86is0","pricing_plan_id":"cebpf4jnsgd1na2vs0mg"},{"bike_id":"4e1c702f-4fec-4a09-a45d-af1848f5ba3b","system_id":"levelo_inurba_marseille","lat":43.25578,"lon":5.38235,"is_reserved":false,"is_disabled":false,"rental_uris":{"android":"levelo://app?vid=4e1c702f-4fec-4a09-a45d-af1848f5ba3b","ios":"levelo://app?vid=4e1c702f-4fec-4a09-a45d-af1848f5ba3b"},"vehicle_type_id":"4","last_reported":1734790029,"current_range_meters":36800,"station_id":"ce4bhih2rcd13ifvqfs0","pricing_plan_id":"cebpf4jnsgd1na2vs0mg"},{"bike_id":"a2faf989-2e48-4d7b-acf4-b989e7d66388","system_id":"levelo_inurba_marseille","lat":43.2657,"lon":5.3901,"is_reserved":false,"is_disabled":false,"rental_uris":{"android":"levelo://app?vid=a2faf989-2e48-4d7b-acf4-b989e7d66388","ios":"levelo://app?vid=a2faf989-2e48-4d7b-acf4-b989e7d66388"},"vehicle_type_id":"4","last_reported":1734790029,"current_range_meters":28400,"station_id":"ce4bhe12rcd13ifvqf30","pricing_plan_id":"cebpf4jnsgd1na2vs0mg"},{"bike_id":"95afa7c7-07f2-4173-b115-514ed8722312","system_id":"levelo_inurba_marseille","lat":43.30607,"lon":5.37215,"is_reserved":false,"is_disabled":false,"rental_uris":{"android":"levelo://app?vid=95afa7c7-07f2-4173-b115-514ed8722312","ios":"levelo://app?vid=95afa7c7-07f2-4173-b115-514ed8722312"},"vehicle_type_id":"4","last_reported":1734790029,"current_range_meters":36800,"station_id":"ce4bgqh2rcd13ifvqc4g","pricing_plan_id":"cebpf4jnsgd1na2vs0mg"},{"bike_id":"0fa7c283-b845-49a6-b0b1-e1a0116c4f73","system_id":"levelo_inurba_marseille","lat":43.26494,"lon":5.39543,"is_reserved":false,"is_disabled":false,"rental_uris":{"android":"levelo://app?vid=0fa7c283-b845-49a6-b0b1-e1a0116c4f73","ios":"levelo://app?vid=0fa7c283-b845-49a6-b0b1-e1a0116c4f73"},"vehicle_type_id":"4","last_reported":1734790029,"current_range_meters":38800,"station_id":"ce4bhi12rcd13ifvqfq0","pricing_plan_id":"cebpf4jnsgd1na2vs0mg"},{"bike_id":"11f9ede0-b346-400f-a4d9-e09e763a2b21","system_id":"levelo_inurba_marseille","lat":43.27819,"lon":5.40694,"is_reserved":false,"is_disabled":false,"rental_uris":{"android":"levelo://app?vid=11f9ede0-b346-400f-a4d9-e09e763a2b21","ios":"levelo://app?vid=11f9ede0-b346-400f-a4d9-e09e763a2b21"},"vehicle_type_id":"4","last_reported":1734790029,"current_range_meters":37600,"station_id":"ce4bhnh2rcd13ifvqgtg","pricing_plan_id":"cebpf4jnsgd1na2vs0mg"},{"bike_id":"1ee4213f-24d8-43d1-9aa2-82e570b9f575","system_id":"levelo_inurba_marseille","lat":43.29897,"lon":5.37421,"is_reserved":false,"is_disabled":false,"rental_uris":{"android":"levelo://app?vid=1ee4213f-24d8-43d1-9aa2-82e570b9f575","ios":"levelo://app?vid=1ee4213f-24d8-43d1-9aa2-82e570b9f575"},"vehicle_type_id":"4","last_reported":1734790029,"current_range_meters":36400,"station_id":"","pricing_plan_id":"cebpf4jnsgd1na2vs0mg"},{"bike_id":"cef46b00-f8b6-4dfa-afc0-d09ec267248a","system_id":"levelo_inurba_marseille","lat":43.267954,"lon":5.394055,"is_reserved":false,"is_disabled":false,"rental_uris":{"android":"levelo://app?vid=cef46b00-f8b6-4dfa-afc0-d09ec267248a","ios":"levelo://app?vid=cef46b00-f8b6-4dfa-afc0-d09ec267248a"},"vehicle_type_id":"4","last_reported":1734790029,"current_range_meters":38800,"station_id":"ce4bhh12rcd13ifvqfg0","pricing_plan_id":"cebpf4jnsgd1na2vs0mg"},{"bike_id":"4695cff2-e8a9-4cfc-a059-a1678fa39cf5","system_id":"levelo_inurba_marseille","lat":43.27809,"lon":5.40719,"is_reserved":false,"is_disabled":false,"rental_uris":{"android":"levelo://app?vid=4695cff2-e8a9-4cfc-a059-a1678fa39cf5","ios":"levelo://app?vid=4695cff2-e8a9-4cfc-a059-a1678fa39cf5"},"vehicle_type_id":"4","last_reported":1734790029,"current_range_meters":27200,"station_id":"ce4bhnh2rcd13ifvqgtg","pricing_plan_id":"cebpf4jnsgd1na2vs0mg"},{"bike_id":"1b0e9d34-71b5-4d2a-8c59-b2701c6566e6","system_id":"levelo_inurba_marseille","lat":43.25493,"lon":5.37654,"is_reserved":false,"is_disabled":false,"rental_uris":{"android":"levelo://app?vid=1b0e9d34-71b5-4d2a-8c59-b2701c6566e6","ios":"levelo://app?vid=1b0e9d34-71b5-4d2a-8c59-b2701c6566e6"},"vehicle_type_id":"4","last_reported":1734790029,"current_range_meters":38800,"station_id":"ce4bhh12rcd13ifvqff0","pricing_plan_id":"cebpf4jnsgd1na2vs0mg"},{"bike_id":"925a18fc-4a82-4f01-8078-fc82223c6dd3","system_id":"levelo_inurba_marseille","lat":43.27423,"lon":5.39416,"is_reserved":false,"is_disabled":false,"rental_uris":{"android":"levelo://app?vid=925a18fc-4a82-4f01-8078-fc82223c6dd3","ios":"levelo://app?vid=925a18fc-4a82-4f01-8078-fc82223c6dd3"},"vehicle_type_id":"4","last_reported":1734790029,"current_range_meters":38800,"station_id":"ce4bhdp2rcd13ifvqf20","pricing_plan_id":"cebpf4jnsgd1na2vs0mg"},{"bike_id":"1fcb3933-9939-4e22-8941-9704edb4c50a","system_id":"levelo_inurba_marseille","lat":43.24071,"lon":5.37765,"is_reserved":false,"is_disabled":false,"rental_uris":{"android":"levelo://app?vid=1fcb3933-9939-4e22-8941-9704edb4c50a","ios":"levelo://app?vid=1fcb3933-9939-4e22-8941-9704edb4c50a"},"vehicle_type_id":"4","last_reported":1734790029,"current_range_meters":24800,"station_id":"ce4bhnp2rcd13ifvqgvg","pricing_plan_id":"cebpf4jnsgd1na2vs0mg"},{"bike_id":"8c2bd394-e76e-4754-91d3-225b3ec2ba02","system_id":"levelo_inurba_marseille","lat":43.288678,"lon":5.378824,"is_reserved":false,"is_disabled":false,"rental_uris":{"android":"levelo://app?vid=8c2bd394-e76e-4754-91d3-225b3ec2ba02","ios":"levelo://app?vid=8c2bd394-e76e-4754-91d3-225b3ec2ba02"},"vehicle_type_id":"4","last_reported":1734790029,"current_range_meters":21600,"station_id":"ce4bh9p2rcd13ifvqec0","pricing_plan_id":"cebpf4jnsgd1na2vs0mg"},{"bike_id":"ee537403-1ca0-4957-b512-e7ceb5877ae5","system_id":"levelo_inurba_marseille","lat":43.30554,"lon":5.36554,"is_reserved":false,"is_disabled":false,"rental_uris":{"android":"levelo://app?vid=ee537403-1ca0-4957-b512-e7ceb5877ae5","ios":"levelo://app?vid=ee537403-1ca0-4957-b512-e7ceb5877ae5"},"vehicle_type_id":"4","last_reported":1734790029,"current_range_meters":22400,"station_id":"ce4bgs12rcd13ifvqcag","pricing_plan_id":"cebpf4jnsgd1na2vs0mg"},{"bike_id":"5cce117c-21f6-4b47-9e6c-5cafdbb81f68","system_id":"levelo_inurba_marseille","lat":43.27369,"lon":5.36257,"is_reserved":false,"is_disabled":false,"rental_uris":{"android":"levelo://app?vid=5cce117c-21f6-4b47-9e6c-5cafdbb81f68","ios":"levelo://app?vid=5cce117c-21f6-4b47-9e6c-5cafdbb81f68"},"vehicle_type_id":"4","last_reported":1734790029,"current_range_meters":27200,"station_id":"ce4bhbh2rcd13ifvqeo0","pricing_plan_id":"cebpf4jnsgd1na2vs0mg"},{"bike_id":"d57342bb-ad62-4ffa-b3a0-6cf5333809e3","system_id":"levelo_inurba_marseille","lat":43.30893,"lon":5.37196,"is_reserved":false,"is_disabled":false,"rental_uris":{"android":"levelo://app?vid=d57342bb-ad62-4ffa-b3a0-6cf5333809e3","ios":"levelo://app?vid=d57342bb-ad62-4ffa-b3a0-6cf5333809e3"},"vehicle_type_id":"4","last_reported":1734790029,"current_range_meters":6400,"station_id":"ce4bguh2rcd13ifvqckg","pricing_plan_id":"cebpf4jnsgd1na2vs0mg"},{"bike_id":"d7c7f4fc-b802-4908-a143-0bdb07b87a05","system_id":"levelo_inurba_marseille","lat":43.28465,"lon":5.38418,"is_reserved":false,"is_disabled":false,"rental_uris":{"android":"levelo://app?vid=d7c7f4fc-b802-4908-a143-0bdb07b87a05","ios":"levelo://app?vid=d7c7f4fc-b802-4908-a143-0bdb07b87a05"},"vehicle_type_id":"4","last_reported":1734790029,"current_range_meters":28800,"station_id":"ce4bh512rcd13ifvqe3g","pricing_plan_id":"cebpf4jnsgd1na2vs0mg"},{"bike_id":"0d08bce9-5500-4f9a-bd1e-c3986914d1bf","system_id":"levelo_inurba_marseille","lat":43.29619,"lon":5.37728,"is_reserved":false,"is_disabled":false,"rental_uris":{"android":"levelo://app?vid=0d08bce9-5500-4f9a-bd1e-c3986914d1bf","ios":"levelo://app?vid=0d08bce9-5500-4f9a-bd1e-c3986914d1bf"},"vehicle_type_id":"4","last_reported":1734790029,"current_range_meters":30400,"station_id":"ce4bgi92rcd13ifvqb90","pricing_plan_id":"cebpf4jnsgd1na2vs0mg"},{"bike_id":"f94a11ab-a919-4998-a058-792face89d81","system_id":"levelo_inurba_marseille","lat":43.29771,"lon":5.37112,"is_reserved":false,"is_disabled":false,"rental_uris":{"android":"levelo://app?vid=f94a11ab-a919-4998-a058-792face89d81","ios":"levelo://app?vid=f94a11ab-a919-4998-a058-792face89d81"},"vehicle_type_id":"4","last_reported":1734790029,"current_range_meters":14400,"station_id":"ce4bgop2rcd13ifvqc1g","pricing_plan_id":"cebpf4jnsgd1na2vs0mg"},{"bike_id":"10e1ad81-c22f-493d-8075-637ab8b5c981","system_id":"levelo_inurba_marseille","lat":43.26679,"lon":5.38273,"is_reserved":false,"is_disabled":false,"rental_uris":{"android":"levelo://app?vid=10e1ad81-c22f-493d-8075-637ab8b5c981","ios":"levelo://app?vid=10e1ad81-c22f-493d-8075-637ab8b5c981"},"vehicle_type_id":"4","last_reported":1734790029,"current_range_meters":37600,"station_id":"ce4bhg92rcd13ifvqf90","pricing_plan_id":"cebpf4jnsgd1na2vs0mg"},{"bike_id":"93431190-8bab-4ebd-a1fb-798f70e0f9fb","system_id":"levelo_inurba_marseille","lat":43.24082,"lon":5.37754,"is_reserved":false,"is_disabled":false,"rental_uris":{"android":"levelo://app?vid=93431190-8bab-4ebd-a1fb-798f70e0f9fb","ios":"levelo://app?vid=93431190-8bab-4ebd-a1fb-798f70e0f9fb"},"vehicle_type_id":"4","last_reported":1734790029,"current_range_meters":20800,"station_id":"ce4bhnp2rcd13ifvqgvg","pricing_plan_id":"cebpf4jnsgd1na2vs0mg"},{"bike_id":"9cb8c7d3-6d3b-4938-90ce-5b574366bd18","system_id":"levelo_inurba_marseille","lat":43.28375,"lon":5.38649,"is_reserved":false,"is_disabled":false,"rental_uris":{"android":"levelo://app?vid=9cb8c7d3-6d3b-4938-90ce-5b574366bd18","ios":"levelo://app?vid=9cb8c7d3-6d3b-4938-90ce-5b574366bd18"},"vehicle_type_id":"4","last_reported":1734790029,"current_range_meters":30400,"station_id":"ce4bh492rcd13ifvqdvg","pricing_plan_id":"cebpf4jnsgd1na2vs0mg"},{"bike_id":"c4f01ca7-28f1-454d-ba01-b7f6f6e2db1f","system_id":"levelo_inurba_marseille","lat":43.27417,"lon":5.3942,"is_reserved":false,"is_disabled":false,"rental_uris":{"android":"levelo://app?vid=c4f01ca7-28f1-454d-ba01-b7f6f6e2db1f","ios":"levelo://app?vid=c4f01ca7-28f1-454d-ba01-b7f6f6e2db1f"},"vehicle_type_id":"4","last_reported":1734790029,"current_range_meters":38800,"station_id":"ce4bhdp2rcd13ifvqf20","pricing_plan_id":"cebpf4jnsgd1na2vs0mg"},{"bike_id":"fdc8cf9c-8e99-4365-a64b-10ec6fd20345","system_id":"levelo_inurba_marseille","lat":43.24398,"lon":5.37057,"is_reserved":false,"is_disabled":false,"rental_uris":{"android":"levelo://app?vid=fdc8cf9c-8e99-4365-a64b-10ec6fd20345","ios":"levelo://app?vid=fdc8cf9c-8e99-4365-a64b-10ec6fd20345"},"vehicle_type_id":"4","last_reported":1734790029,"current_range_meters":38800,"station_id":"ce4bhhh2rcd13ifvqfk0","pricing_plan_id":"cebpf4jnsgd1na2vs0mg"},{"bike_id":"f0bcbb45-555d-4c5b-8534-084b0fafc4e9","system_id":"levelo_inurba_marseille","lat":43.29168,"lon":5.37153,"is_reserved":false,"is_disabled":true,"rental_uris":{"android":"levelo://app?vid=f0bcbb45-555d-4c5b-8534-084b0fafc4e9","ios":"levelo://app?vid=f0bcbb45-555d-4c5b-8534-084b0fafc4e9"},"vehicle_type_id":"4","last_reported":1734790029,"current_range_meters":38800,"station_id":"ce4bha92rcd13ifvqeh0","pricing_plan_id":"cebpf4jnsgd1na2vs0mg"},{"bike_id":"b002d028-e42c-46e2-93ce-a18a7a90546e","system_id":"levelo_inurba_marseille","lat":43.32277,"lon":5.38267,"is_reserved":false,"is_disabled":false,"rental_uris":{"android":"levelo://app?vid=b002d028-e42c-46e2-93ce-a18a7a90546e","ios":"levelo://app?vid=b002d028-e42c-46e2-93ce-a18a7a90546e"},"vehicle_type_id":"4","last_reported":1734790029,"current_range_meters":22000,"station_id":"ce4bhr12rcd13ifvqhqg","pricing_plan_id":"cebpf4jnsgd1na2vs0mg"},{"bike_id":"92d175d1-5c24-4f72-8bdf-b3eb5b6c8bb6","system_id":"levelo_inurba_marseille","lat":43.29534,"lon":5.37506,"is_reserved":false,"is_disabled":false,"rental_uris":{"android":"levelo://app?vid=92d175d1-5c24-4f72-8bdf-b3eb5b6c8bb6","ios":"levelo://app?vid=92d175d1-5c24-4f72-8bdf-b3eb5b6c8bb6"},"vehicle_type_id":"4","last_reported":1734790029,"current_range_meters":38800,"station_id":"ce4bgkp2rcd13ifvqbmg","pricing_plan_id":"cebpf4jnsgd1na2vs0mg"},{"bike_id":"47383cce-0250-4c77-bd30-435193ad9962","system_id":"levelo_inurba_marseille","lat":43.28417,"lon":5.34984,"is_reserved":false,"is_disabled":false,"rental_uris":{"android":"levelo://app?vid=47383cce-0250-4c77-bd30-435193ad9962","ios":"levelo://app?vid=47383cce-0250-4c77-bd30-435193ad9962"},"vehicle_type_id":"4","last_reported":1734790029,"current_range_meters":27200,"station_id":"ce4bhbh2rcd13ifvqepg","pricing_plan_id":"cebpf4jnsgd1na2vs0mg"},{"bike_id":"5c592034-129f-414d-85e6-d92c74cda9ed","system_id":"levelo_inurba_marseille","lat":43.29547,"lon":5.37504,"is_reserved":false,"is_disabled":false,"rental_uris":{"android":"levelo://app?vid=5c592034-129f-414d-85e6-d92c74cda9ed","ios":"levelo://app?vid=5c592034-129f-414d-85e6-d92c74cda9ed"},"vehicle_type_id":"4","last_reported":1734790029,"current_range_meters":36400,"station_id":"ce4bgkp2rcd13ifvqbmg","pricing_plan_id":"cebpf4jnsgd1na2vs0mg"},{"bike_id":"ca5f776a-90a6-461f-bf78-324ccaf1f911","system_id":"levelo_inurba_marseille","lat":43.30544,"lon":5.36541,"is_reserved":false,"is_disabled":true,"rental_uris":{"android":"levelo://app?vid=ca5f776a-90a6-461f-bf78-324ccaf1f911","ios":"levelo://app?vid=ca5f776a-90a6-461f-bf78-324ccaf1f911"},"vehicle_type_id":"4","last_reported":1734790029,"current_range_meters":1200,"station_id":"ce4bgs12rcd13ifvqcag","pricing_plan_id":"cebpf4jnsgd1na2vs0mg"},{"bike_id":"4094ac40-fe97-4483-91f4-bc4b6a97b4f3","system_id":"levelo_inurba_marseille","lat":43.25839,"lon":5.39432,"is_reserved":false,"is_disabled":false,"rental_uris":{"android":"levelo://app?vid=4094ac40-fe97-4483-91f4-bc4b6a97b4f3","ios":"levelo://app?vid=4094ac40-fe97-4483-91f4-bc4b6a97b4f3"},"vehicle_type_id":"4","last_reported":1734790029,"current_range_meters":6000,"station_id":"ce4bhip2rcd13ifvqft0","pricing_plan_id":"cebpf4jnsgd1na2vs0mg"},{"bike_id":"74e4fa40-6e17-41b3-8fb0-0bd3f8572f0f","system_id":"levelo_inurba_marseille","lat":43.24076,"lon":5.37759,"is_reserved":false,"is_disabled":false,"rental_uris":{"android":"levelo://app?vid=74e4fa40-6e17-41b3-8fb0-0bd3f8572f0f","ios":"levelo://app?vid=74e4fa40-6e17-41b3-8fb0-0bd3f8572f0f"},"vehicle_type_id":"4","last_reported":1734790029,"current_range_meters":36400,"station_id":"ce4bhnp2rcd13ifvqgvg","pricing_plan_id":"cebpf4jnsgd1na2vs0mg"},{"bike_id":"83571daf-4df4-4c30-875e-3631c985fa1d","system_id":"levelo_inurba_marseille","lat":43.29842,"lon":5.36266,"is_reserved":false,"is_disabled":false,"rental_uris":{"android":"levelo://app?vid=83571daf-4df4-4c30-875e-3631c985fa1d","ios":"levelo://app?vid=83571daf-4df4-4c30-875e-3631c985fa1d"},"vehicle_type_id":"4","last_reported":1734790029,"current_range_meters":37600,"station_id":"ce4bgpp2rcd13ifvqc3g","pricing_plan_id":"cebpf4jnsgd1na2vs0mg"},{"bike_id":"c6d6f2e3-a19b-4f12-9273-24fbed440b93","system_id":"levelo_inurba_marseille","lat":43.30282,"lon":5.37708,"is_reserved":false,"is_disabled":false,"rental_uris":{"android":"levelo://app?vid=c6d6f2e3-a19b-4f12-9273-24fbed440b93","ios":"levelo://app?vid=c6d6f2e3-a19b-4f12-9273-24fbed440b93"},"vehicle_type_id":"4","last_reported":1734790029,"current_range_meters":34000,"station_id":"ce4bguh2rcd13ifvqcj0","pricing_plan_id":"cebpf4jnsgd1na2vs0mg"},{"bike_id":"9becddea-ecbc-4149-89d1-f1de80737443","system_id":"levelo_inurba_marseille","lat":43.2668,"lon":5.38268,"is_reserved":false,"is_disabled":false,"rental_uris":{"android":"levelo://app?vid=9becddea-ecbc-4149-89d1-f1de80737443","ios":"levelo://app?vid=9becddea-ecbc-4149-89d1-f1de80737443"},"vehicle_type_id":"4","last_reported":1734790029,"current_range_meters":35600,"station_id":"ce4bhg92rcd13ifvqf90","pricing_plan_id":"cebpf4jnsgd1na2vs0mg"},{"bike_id":"b73b3cc8-26fa-4032-8e99-f74b6ff40c2a","system_id":"levelo_inurba_marseille","lat":43.27004,"lon":5.40223,"is_reserved":false,"is_disabled":false,"rental_uris":{"android":"levelo://app?vid=b73b3cc8-26fa-4032-8e99-f74b6ff40c2a","ios":"levelo://app?vid=b73b3cc8-26fa-4032-8e99-f74b6ff40c2a"},"vehicle_type_id":"4","last_reported":1734790029,"current_range_meters":20000,"station_id":"","pricing_plan_id":"cebpf4jnsgd1na2vs0mg"},{"bike_id":"db122134-c31b-4a82-9b05-bda39f6fec31","system_id":"levelo_inurba_marseille","lat":43.24645,"lon":5.38169,"is_reserved":false,"is_disabled":false,"rental_uris":{"android":"levelo://app?vid=db122134-c31b-4a82-9b05-bda39f6fec31","ios":"levelo://app?vid=db122134-c31b-4a82-9b05-bda39f6fec31"},"vehicle_type_id":"4","last_reported":1734790029,"current_range_meters":36400,"station_id":"ce4bhih2rcd13ifvqfr0","pricing_plan_id":"cebpf4jnsgd1na2vs0mg"},{"bike_id":"32ebf098-e002-4aa6-88f7-5b365ee05e11","system_id":"levelo_inurba_marseille","lat":43.2408,"lon":5.37747,"is_reserved":false,"is_disabled":true,"rental_uris":{"android":"levelo://app?vid=32ebf098-e002-4aa6-88f7-5b365ee05e11","ios":"levelo://app?vid=32ebf098-e002-4aa6-88f7-5b365ee05e11"},"vehicle_type_id":"4","last_reported":1734790029,"current_range_meters":2000,"station_id":"ce4bhnp2rcd13ifvqgvg","pricing_plan_id":"cebpf4jnsgd1na2vs0mg"},{"bike_id":"4b7afde9-10fb-4c99-9992-7cd53645a008","system_id":"levelo_inurba_marseille","lat":43.2961,"lon":5.37723,"is_reserved":false,"is_disabled":false,"rental_uris":{"android":"levelo://app?vid=4b7afde9-10fb-4c99-9992-7cd53645a008","ios":"levelo://app?vid=4b7afde9-10fb-4c99-9992-7cd53645a008"},"vehicle_type_id":"4","last_reported":1734790029,"current_range_meters":38400,"station_id":"ce4bgi92rcd13ifvqb90","pricing_plan_id":"cebpf4jnsgd1na2vs0mg"},{"bike_id":"d0459723-7015-4b1a-97a7-9f2e8ea678f3","system_id":"levelo_inurba_marseille","lat":43.28481,"lon":5.38543,"is_reserved":false,"is_disabled":false,"rental_uris":{"android":"levelo://app?vid=d0459723-7015-4b1a-97a7-9f2e8ea678f3","ios":"levelo://app?vid=d0459723-7015-4b1a-97a7-9f2e8ea678f3"},"vehicle_type_id":"4","last_reported":1734790029,"current_range_meters":25200,"station_id":"ce4bh8p2rcd13ifvqeb0","pricing_plan_id":"cebpf4jnsgd1na2vs0mg"},{"bike_id":"a4cdc68d-9a41-489e-9b1d-3577a4e39cb2","system_id":"levelo_inurba_marseille","lat":43.31727,"lon":5.42404,"is_reserved":false,"is_disabled":false,"rental_uris":{"android":"levelo://app?vid=a4cdc68d-9a41-489e-9b1d-3577a4e39cb2","ios":"levelo://app?vid=a4cdc68d-9a41-489e-9b1d-3577a4e39cb2"},"vehicle_type_id":"4","last_reported":1734790029,"current_range_meters":38800,"station_id":"ce4bhp92rcd13ifvqhbg","pricing_plan_id":"cebpf4jnsgd1na2vs0mg"},{"bike_id":"61bd45b4-bece-42b5-80d4-864f70786968","system_id":"levelo_inurba_marseille","lat":43.28612,"lon":5.35103,"is_reserved":false,"is_disabled":false,"rental_uris":{"android":"levelo://app?vid=61bd45b4-bece-42b5-80d4-864f70786968","ios":"levelo://app?vid=61bd45b4-bece-42b5-80d4-864f70786968"},"vehicle_type_id":"4","last_reported":1734790029,"current_range_meters":38000,"station_id":"ce4bhch2rcd13ifvqeug","pricing_plan_id":"cebpf4jnsgd1na2vs0mg"},{"bike_id":"ba623d7f-de4d-43e6-9a39-be19938e75fb","system_id":"levelo_inurba_marseille","lat":43.29357,"lon":5.3786,"is_reserved":false,"is_disabled":true,"rental_uris":{"android":"levelo://app?vid=ba623d7f-de4d-43e6-9a39-be19938e75fb","ios":"levelo://app?vid=ba623d7f-de4d-43e6-9a39-be19938e75fb"},"vehicle_type_id":"4","last_reported":1734790029,"current_range_meters":38000,"station_id":"","pricing_plan_id":"cebpf4jnsgd1na2vs0mg"},{"bike_id":"88450e4b-2f18-47ca-a4c9-603b632e041a","system_id":"levelo_inurba_marseille","lat":43.30136,"lon":5.39853,"is_reserved":false,"is_disabled":false,"rental_uris":{"android":"levelo://app?vid=88450e4b-2f18-47ca-a4c9-603b632e041a","ios":"levelo://app?vid=88450e4b-2f18-47ca-a4c9-603b632e041a"},"vehicle_type_id":"4","last_reported":1734790029,"current_range_meters":36400,"station_id":"ce4bh0h2rcd13ifvqd40","pricing_plan_id":"cebpf4jnsgd1na2vs0mg"},{"bike_id":"00c6460d-0463-404f-ba04-3266a5d0bb0f","system_id":"levelo_inurba_marseille","lat":43.29895,"lon":5.3812,"is_reserved":false,"is_disabled":false,"rental_uris":{"android":"levelo://app?vid=00c6460d-0463-404f-ba04-3266a5d0bb0f","ios":"levelo://app?vid=00c6460d-0463-404f-ba04-3266a5d0bb0f"},"vehicle_type_id":"4","last_reported":1734790029,"current_range_meters":39200,"station_id":"ce4bgj12rcd13ifvqbc0","pricing_plan_id":"cebpf4jnsgd1na2vs0mg"},{"bike_id":"c073fa6a-f94e-4fab-8a56-0f73febd329a","system_id":"levelo_inurba_marseille","lat":43.27947,"lon":5.41043,"is_reserved":false,"is_disabled":false,"rental_uris":{"android":"levelo://app?vid=c073fa6a-f94e-4fab-8a56-0f73febd329a","ios":"levelo://app?vid=c073fa6a-f94e-4fab-8a56-0f73febd329a"},"vehicle_type_id":"4","last_reported":1734790029,"current_range_meters":12000,"station_id":"ce4bhnp2rcd13ifvqh0g","pricing_plan_id":"cebpf4jnsgd1na2vs0mg"},{"bike_id":"c37b4c9c-57d3-4989-9b22-07194777a781","system_id":"levelo_inurba_marseille","lat":43.29303,"lon":5.37455,"is_reserved":false,"is_disabled":false,"rental_uris":{"android":"levelo://app?vid=c37b4c9c-57d3-4989-9b22-07194777a781","ios":"levelo://app?vid=c37b4c9c-57d3-4989-9b22-07194777a781"},"vehicle_type_id":"4","last_reported":1734790029,"current_range_meters":38800,"station_id":"ce4bgi12rcd13ifvqb70","pricing_plan_id":"cebpf4jnsgd1na2vs0mg"},{"bike_id":"caa28317-677f-4684-8cc6-46932db162b9","system_id":"levelo_inurba_marseille","lat":43.27813,"lon":5.40718,"is_reserved":false,"is_disabled":false,"rental_uris":{"android":"levelo://app?vid=caa28317-677f-4684-8cc6-46932db162b9","ios":"levelo://app?vid=caa28317-677f-4684-8cc6-46932db162b9"},"vehicle_type_id":"4","last_reported":1734790029,"current_range_meters":16800,"station_id":"ce4bhnh2rcd13ifvqgtg","pricing_plan_id":"cebpf4jnsgd1na2vs0mg"},{"bike_id":"d7a9a039-2919-4498-94bc-85df69bbf9b4","system_id":"levelo_inurba_marseille","lat":43.2509,"lon":5.39512,"is_reserved":false,"is_disabled":true,"rental_uris":{"android":"levelo://app?vid=d7a9a039-2919-4498-94bc-85df69bbf9b4","ios":"levelo://app?vid=d7a9a039-2919-4498-94bc-85df69bbf9b4"},"vehicle_type_id":"4","last_reported":1734790029,"current_range_meters":0,"station_id":"ce4bhm12rcd13ifvqgkg","pricing_plan_id":"cebpf4jnsgd1na2vs0mg"},{"bike_id":"d34fefdf-efe5-47e8-acde-18666dae30c4","system_id":"levelo_inurba_marseille","lat":43.33754,"lon":5.37476,"is_reserved":false,"is_disabled":false,"rental_uris":{"android":"levelo://app?vid=d34fefdf-efe5-47e8-acde-18666dae30c4","ios":"levelo://app?vid=d34fefdf-efe5-47e8-acde-18666dae30c4"},"vehicle_type_id":"4","last_reported":1734790029,"current_range_meters":36000,"station_id":"","pricing_plan_id":"cebpf4jnsgd1na2vs0mg"},{"bike_id":"f6e00a83-cc1f-4aaf-83bb-77e9d3b9e809","system_id":"levelo_inurba_marseille","lat":43.337444,"lon":5.374475,"is_reserved":false,"is_disabled":false,"rental_uris":{"android":"levelo://app?vid=f6e00a83-cc1f-4aaf-83bb-77e9d3b9e809","ios":"levelo://app?vid=f6e00a83-cc1f-4aaf-83bb-77e9d3b9e809"},"vehicle_type_id":"4","last_reported":1734790029,"current_range_meters":28400,"station_id":"","pricing_plan_id":"cebpf4jnsgd1na2vs0mg"},{"bike_id":"4557c5fc-60ed-4c34-9596-70c70138f451","system_id":"levelo_inurba_marseille","lat":43.29622,"lon":5.3716,"is_reserved":false,"is_disabled":true,"rental_uris":{"android":"levelo://app?vid=4557c5fc-60ed-4c34-9596-70c70138f451","ios":"levelo://app?vid=4557c5fc-60ed-4c34-9596-70c70138f451"},"vehicle_type_id":"4","last_reported":1734790029,"current_range_meters":0,"station_id":"","pricing_plan_id":"cebpf4jnsgd1na2vs0mg"},{"bike_id":"7d1b96ea-46ee-455b-a275-7a36e20b7a8b","system_id":"levelo_inurba_marseille","lat":43.30101,"lon":5.39088,"is_reserved":false,"is_disabled":true,"rental_uris":{"android":"levelo://app?vid=7d1b96ea-46ee-455b-a275-7a36e20b7a8b","ios":"levelo://app?vid=7d1b96ea-46ee-455b-a275-7a36e20b7a8b"},"vehicle_type_id":"4","last_reported":1734790029,"current_range_meters":0,"station_id":"ce4bh192rcd13ifvqdb0","pricing_plan_id":"cebpf4jnsgd1na2vs0mg"},{"bike_id":"ab03df0b-543d-4c8b-95ec-4ff2feeef006","system_id":"levelo_inurba_marseille","lat":43.29624,"lon":5.37728,"is_reserved":false,"is_disabled":false,"rental_uris":{"android":"levelo://app?vid=ab03df0b-543d-4c8b-95ec-4ff2feeef006","ios":"levelo://app?vid=ab03df0b-543d-4c8b-95ec-4ff2feeef006"},"vehicle_type_id":"4","last_reported":1734790029,"current_range_meters":38800,"station_id":"ce4bgi92rcd13ifvqb90","pricing_plan_id":"cebpf4jnsgd1na2vs0mg"},{"bike_id":"5cb32567-f788-4d0d-b4de-698f7cf52ac2","system_id":"levelo_inurba_marseille","lat":43.337444,"lon":5.374475,"is_reserved":false,"is_disabled":false,"rental_uris":{"android":"levelo://app?vid=5cb32567-f788-4d0d-b4de-698f7cf52ac2","ios":"levelo://app?vid=5cb32567-f788-4d0d-b4de-698f7cf52ac2"},"vehicle_type_id":"4","last_reported":1734790029,"current_range_meters":25600,"station_id":"ce4bhnp2rcd13ifvqgvg","pricing_plan_id":"cebpf4jnsgd1na2vs0mg"},{"bike_id":"dc67b329-1255-4e03-b41d-8f87b57de396","system_id":"levelo_inurba_marseille","lat":43.30808,"lon":5.38155,"is_reserved":false,"is_disabled":false,"rental_uris":{"android":"levelo://app?vid=dc67b329-1255-4e03-b41d-8f87b57de396","ios":"levelo://app?vid=dc67b329-1255-4e03-b41d-8f87b57de396"},"vehicle_type_id":"4","last_reported":1734790029,"current_range_meters":9600,"station_id":"ce4bgt12rcd13ifvqce0","pricing_plan_id":"cebpf4jnsgd1na2vs0mg"},{"bike_id":"a10c3e4f-e4d5-44ed-8f32-eb7fc4c1879c","system_id":"levelo_inurba_marseille","lat":43.28476,"lon":5.38417,"is_reserved":false,"is_disabled":false,"rental_uris":{"android":"levelo://app?vid=a10c3e4f-e4d5-44ed-8f32-eb7fc4c1879c","ios":"levelo://app?vid=a10c3e4f-e4d5-44ed-8f32-eb7fc4c1879c"},"vehicle_type_id":"4","last_reported":1734790029,"current_range_meters":26800,"station_id":"ce4bh512rcd13ifvqe3g","pricing_plan_id":"cebpf4jnsgd1na2vs0mg"},{"bike_id":"0f9596d5-1c50-4512-a66c-fc4efae4121d","system_id":"levelo_inurba_marseille","lat":43.29576,"lon":5.37529,"is_reserved":false,"is_disabled":false,"rental_uris":{"android":"levelo://app?vid=0f9596d5-1c50-4512-a66c-fc4efae4121d","ios":"levelo://app?vid=0f9596d5-1c50-4512-a66c-fc4efae4121d"},"vehicle_type_id":"4","last_reported":1734790029,"current_range_meters":38000,"station_id":"ce4bgh92rcd13ifvqb50","pricing_plan_id":"cebpf4jnsgd1na2vs0mg"},{"bike_id":"e9b9d51c-3835-4f0a-860c-dca30cbf1462","system_id":"levelo_inurba_marseille","lat":43.29843,"lon":5.36276,"is_reserved":false,"is_disabled":false,"rental_uris":{"android":"levelo://app?vid=e9b9d51c-3835-4f0a-860c-dca30cbf1462","ios":"levelo://app?vid=e9b9d51c-3835-4f0a-860c-dca30cbf1462"},"vehicle_type_id":"4","last_reported":1734790029,"current_range_meters":38800,"station_id":"ce4bgpp2rcd13ifvqc3g","pricing_plan_id":"cebpf4jnsgd1na2vs0mg"},{"bike_id":"9e4fd3af-a38c-4cc0-a669-b23d39435e38","system_id":"levelo_inurba_marseille","lat":43.27072,"lon":5.42283,"is_reserved":false,"is_disabled":false,"rental_uris":{"android":"levelo://app?vid=9e4fd3af-a38c-4cc0-a669-b23d39435e38","ios":"levelo://app?vid=9e4fd3af-a38c-4cc0-a669-b23d39435e38"},"vehicle_type_id":"4","last_reported":1734790029,"current_range_meters":24400,"station_id":"ce4bhk92rcd13ifvqgb0","pricing_plan_id":"cebpf4jnsgd1na2vs0mg"},{"bike_id":"8d23ef1c-4d80-41f5-8856-02b6ab55c880","system_id":"levelo_inurba_marseille","lat":43.33727,"lon":5.39182,"is_reserved":false,"is_disabled":false,"rental_uris":{"android":"levelo://app?vid=8d23ef1c-4d80-41f5-8856-02b6ab55c880","ios":"levelo://app?vid=8d23ef1c-4d80-41f5-8856-02b6ab55c880"},"vehicle_type_id":"4","last_reported":1734790029,"current_range_meters":36000,"station_id":"ce4bhr92rcd13ifvqhsg","pricing_plan_id":"cebpf4jnsgd1na2vs0mg"},{"bike_id":"273828d0-ad53-4df1-ab71-8bd58cada311","system_id":"levelo_inurba_marseille","lat":43.23196,"lon":5.39988,"is_reserved":false,"is_disabled":false,"rental_uris":{"android":"levelo://app?vid=273828d0-ad53-4df1-ab71-8bd58cada311","ios":"levelo://app?vid=273828d0-ad53-4df1-ab71-8bd58cada311"},"vehicle_type_id":"4","last_reported":1734790029,"current_range_meters":12400,"station_id":"ce4bhn12rcd13ifvqgqg","pricing_plan_id":"cebpf4jnsgd1na2vs0mg"},{"bike_id":"bc3230d4-c5dd-4006-a1a1-75a048a6a931","system_id":"levelo_inurba_marseille","lat":43.29306,"lon":5.37466,"is_reserved":false,"is_disabled":false,"rental_uris":{"android":"levelo://app?vid=bc3230d4-c5dd-4006-a1a1-75a048a6a931","ios":"levelo://app?vid=bc3230d4-c5dd-4006-a1a1-75a048a6a931"},"vehicle_type_id":"4","last_reported":1734790029,"current_range_meters":32800,"station_id":"ce4bgi12rcd13ifvqb70","pricing_plan_id":"cebpf4jnsgd1na2vs0mg"},{"bike_id":"29666aa4-269c-46ca-8ed0-7ecc022f915c","system_id":"levelo_inurba_marseille","lat":43.29514,"lon":5.37501,"is_reserved":false,"is_disabled":false,"rental_uris":{"android":"levelo://app?vid=29666aa4-269c-46ca-8ed0-7ecc022f915c","ios":"levelo://app?vid=29666aa4-269c-46ca-8ed0-7ecc022f915c"},"vehicle_type_id":"4","last_reported":1734790029,"current_range_meters":14400,"station_id":"ce4bgkp2rcd13ifvqbmg","pricing_plan_id":"cebpf4jnsgd1na2vs0mg"},{"bike_id":"d60d8232-4a96-492d-9348-9c3d8bdfda03","system_id":"levelo_inurba_marseille","lat":43.29843,"lon":5.36281,"is_reserved":false,"is_disabled":false,"rental_uris":{"android":"levelo://app?vid=d60d8232-4a96-492d-9348-9c3d8bdfda03","ios":"levelo://app?vid=d60d8232-4a96-492d-9348-9c3d8bdfda03"},"vehicle_type_id":"4","last_reported":1734790029,"current_range_meters":39200,"station_id":"ce4bgpp2rcd13ifvqc3g","pricing_plan_id":"cebpf4jnsgd1na2vs0mg"},{"bike_id":"0365d627-bfc5-459b-8305-c5938b939cbe","system_id":"levelo_inurba_marseille","lat":43.269304,"lon":5.389315,"is_reserved":false,"is_disabled":false,"rental_uris":{"android":"levelo://app?vid=0365d627-bfc5-459b-8305-c5938b939cbe","ios":"levelo://app?vid=0365d627-bfc5-459b-8305-c5938b939cbe"},"vehicle_type_id":"4","last_reported":1734790029,"current_range_meters":27600,"station_id":"ce4bhhh2rcd13ifvqfl0","pricing_plan_id":"cebpf4jnsgd1na2vs0mg"},{"bike_id":"677eab5b-ffd2-4968-9453-5e5949722b12","system_id":"levelo_inurba_marseille","lat":43.2962,"lon":5.37728,"is_reserved":false,"is_disabled":false,"rental_uris":{"android":"levelo://app?vid=677eab5b-ffd2-4968-9453-5e5949722b12","ios":"levelo://app?vid=677eab5b-ffd2-4968-9453-5e5949722b12"},"vehicle_type_id":"4","last_reported":1734790029,"current_range_meters":18800,"station_id":"ce4bgi92rcd13ifvqb90","pricing_plan_id":"cebpf4jnsgd1na2vs0mg"},{"bike_id":"d5808a5c-0dd9-459e-bd08-53cbcdfccbaf","system_id":"levelo_inurba_marseille","lat":43.2994,"lon":5.3815,"is_reserved":false,"is_disabled":false,"rental_uris":{"android":"levelo://app?vid=d5808a5c-0dd9-459e-bd08-53cbcdfccbaf","ios":"levelo://app?vid=d5808a5c-0dd9-459e-bd08-53cbcdfccbaf"},"vehicle_type_id":"4","last_reported":1734790029,"current_range_meters":26000,"station_id":"ce4bgj12rcd13ifvqbc0","pricing_plan_id":"cebpf4jnsgd1na2vs0mg"},{"bike_id":"5a6ca2af-f962-492e-990f-0b811a8e2080","system_id":"levelo_inurba_marseille","lat":43.29275,"lon":5.36849,"is_reserved":false,"is_disabled":false,"rental_uris":{"android":"levelo://app?vid=5a6ca2af-f962-492e-990f-0b811a8e2080","ios":"levelo://app?vid=5a6ca2af-f962-492e-990f-0b811a8e2080"},"vehicle_type_id":"4","last_reported":1734790029,"current_range_meters":38800,"station_id":"ce4bhbp2rcd13ifvqesg","pricing_plan_id":"cebpf4jnsgd1na2vs0mg"},{"bike_id":"646232ca-85af-4543-9491-77ec5822ec23","system_id":"levelo_inurba_marseille","lat":43.2985,"lon":5.36258,"is_reserved":false,"is_disabled":false,"rental_uris":{"android":"levelo://app?vid=646232ca-85af-4543-9491-77ec5822ec23","ios":"levelo://app?vid=646232ca-85af-4543-9491-77ec5822ec23"},"vehicle_type_id":"4","last_reported":1734790029,"current_range_meters":37600,"station_id":"ce4bgpp2rcd13ifvqc3g","pricing_plan_id":"cebpf4jnsgd1na2vs0mg"},{"bike_id":"64a81806-f05e-4e8f-bcc9-ef77c3bb11b8","system_id":"levelo_inurba_marseille","lat":43.28478,"lon":5.38413,"is_reserved":false,"is_disabled":false,"rental_uris":{"android":"levelo://app?vid=64a81806-f05e-4e8f-bcc9-ef77c3bb11b8","ios":"levelo://app?vid=64a81806-f05e-4e8f-bcc9-ef77c3bb11b8"},"vehicle_type_id":"4","last_reported":1734790029,"current_range_meters":34800,"station_id":"ce4bh512rcd13ifvqe3g","pricing_plan_id":"cebpf4jnsgd1na2vs0mg"},{"bike_id":"c2d39d4e-fbd6-4e6f-946d-4a5af49aab31","system_id":"levelo_inurba_marseille","lat":43.27904,"lon":5.38012,"is_reserved":false,"is_disabled":false,"rental_uris":{"android":"levelo://app?vid=c2d39d4e-fbd6-4e6f-946d-4a5af49aab31","ios":"levelo://app?vid=c2d39d4e-fbd6-4e6f-946d-4a5af49aab31"},"vehicle_type_id":"4","last_reported":1734790029,"current_range_meters":30400,"station_id":"ce4bhf92rcd13ifvqf50","pricing_plan_id":"cebpf4jnsgd1na2vs0mg"},{"bike_id":"e353d62c-c5ff-4f13-94a9-2d54b9fdbe08","system_id":"levelo_inurba_marseille","lat":43.288463,"lon":5.358413,"is_reserved":false,"is_disabled":true,"rental_uris":{"android":"levelo://app?vid=e353d62c-c5ff-4f13-94a9-2d54b9fdbe08","ios":"levelo://app?vid=e353d62c-c5ff-4f13-94a9-2d54b9fdbe08"},"vehicle_type_id":"4","last_reported":1734790029,"current_range_meters":0,"station_id":"ce4bhb12rcd13ifvqem0","pricing_plan_id":"cebpf4jnsgd1na2vs0mg"},{"bike_id":"6f8a0222-30d9-4acd-9679-9f18eea26dbe","system_id":"levelo_inurba_marseille","lat":43.24684,"lon":5.38151,"is_reserved":false,"is_disabled":false,"rental_uris":{"android":"levelo://app?vid=6f8a0222-30d9-4acd-9679-9f18eea26dbe","ios":"levelo://app?vid=6f8a0222-30d9-4acd-9679-9f18eea26dbe"},"vehicle_type_id":"4","last_reported":1734790029,"current_range_meters":16000,"station_id":"ce4bhih2rcd13ifvqfr0","pricing_plan_id":"cebpf4jnsgd1na2vs0mg"},{"bike_id":"dfd60306-6842-4fae-aacb-4c30d2d5cfbb","system_id":"levelo_inurba_marseille","lat":43.27373,"lon":5.36252,"is_reserved":false,"is_disabled":false,"rental_uris":{"android":"levelo://app?vid=dfd60306-6842-4fae-aacb-4c30d2d5cfbb","ios":"levelo://app?vid=dfd60306-6842-4fae-aacb-4c30d2d5cfbb"},"vehicle_type_id":"4","last_reported":1734790029,"current_range_meters":27200,"station_id":"ce4bhbh2rcd13ifvqeo0","pricing_plan_id":"cebpf4jnsgd1na2vs0mg"},{"bike_id":"3e4953e1-c178-41db-9597-f41113272927","system_id":"levelo_inurba_marseille","lat":43.27198,"lon":5.3917,"is_reserved":false,"is_disabled":false,"rental_uris":{"android":"levelo://app?vid=3e4953e1-c178-41db-9597-f41113272927","ios":"levelo://app?vid=3e4953e1-c178-41db-9597-f41113272927"},"vehicle_type_id":"4","last_reported":1734790029,"current_range_meters":38800,"station_id":"ce4bhhp2rcd13ifvqfm0","pricing_plan_id":"cebpf4jnsgd1na2vs0mg"},{"bike_id":"870ac398-0980-41bc-b29b-852a736f71c6","system_id":"levelo_inurba_marseille","lat":43.29918,"lon":5.36552,"is_reserved":false,"is_disabled":false,"rental_uris":{"android":"levelo://app?vid=870ac398-0980-41bc-b29b-852a736f71c6","ios":"levelo://app?vid=870ac398-0980-41bc-b29b-852a736f71c6"},"vehicle_type_id":"4","last_reported":1734790029,"current_range_meters":19200,"station_id":"ce4bgm92rcd13ifvqbr0","pricing_plan_id":"cebpf4jnsgd1na2vs0mg"},{"bike_id":"623c8165-c1d4-43b5-856a-33dac25db1d4","system_id":"levelo_inurba_marseille","lat":43.29627,"lon":5.37151,"is_reserved":false,"is_disabled":false,"rental_uris":{"android":"levelo://app?vid=623c8165-c1d4-43b5-856a-33dac25db1d4","ios":"levelo://app?vid=623c8165-c1d4-43b5-856a-33dac25db1d4"},"vehicle_type_id":"4","last_reported":1734790029,"current_range_meters":35600,"station_id":"","pricing_plan_id":"cebpf4jnsgd1na2vs0mg"},{"bike_id":"a37c10b7-1da8-4cc6-b0f3-2a310cde69cc","system_id":"levelo_inurba_marseille","lat":43.29531,"lon":5.3903,"is_reserved":false,"is_disabled":true,"rental_uris":{"android":"levelo://app?vid=a37c10b7-1da8-4cc6-b0f3-2a310cde69cc","ios":"levelo://app?vid=a37c10b7-1da8-4cc6-b0f3-2a310cde69cc"},"vehicle_type_id":"4","last_reported":1734790029,"current_range_meters":30800,"station_id":"ce4bh3p2rcd13ifvqdp0","pricing_plan_id":"cebpf4jnsgd1na2vs0mg"},{"bike_id":"d1853d76-78cf-466d-9558-f0792250c702","system_id":"levelo_inurba_marseille","lat":43.33742,"lon":5.37449,"is_reserved":false,"is_disabled":false,"rental_uris":{"android":"levelo://app?vid=d1853d76-78cf-466d-9558-f0792250c702","ios":"levelo://app?vid=d1853d76-78cf-466d-9558-f0792250c702"},"vehicle_type_id":"4","last_reported":1734790029,"current_range_meters":28800,"station_id":"","pricing_plan_id":"cebpf4jnsgd1na2vs0mg"},{"bike_id":"08164877-f0e6-4318-a998-2acfa67e6c1e","system_id":"levelo_inurba_marseille","lat":43.27916,"lon":5.39582,"is_reserved":false,"is_disabled":false,"rental_uris":{"android":"levelo://app?vid=08164877-f0e6-4318-a998-2acfa67e6c1e","ios":"levelo://app?vid=08164877-f0e6-4318-a998-2acfa67e6c1e"},"vehicle_type_id":"4","last_reported":1734790029,"current_range_meters":22400,"station_id":"ce4bhf92rcd13ifvqf40","pricing_plan_id":"cebpf4jnsgd1na2vs0mg"},{"bike_id":"8748b527-011a-44e2-b7fd-54ba8b4e0814","system_id":"levelo_inurba_marseille","lat":43.229387,"lon":5.353751,"is_reserved":false,"is_disabled":true,"rental_uris":{"android":"levelo://app?vid=8748b527-011a-44e2-b7fd-54ba8b4e0814","ios":"levelo://app?vid=8748b527-011a-44e2-b7fd-54ba8b4e0814"},"vehicle_type_id":"4","last_reported":1734790029,"current_range_meters":0,"station_id":"cpo3532slgdg3j2ikp40","pricing_plan_id":"cebpf4jnsgd1na2vs0mg"},{"bike_id":"28195630-2c39-4c93-bf30-6590e0ccf6df","system_id":"levelo_inurba_marseille","lat":43.27056,"lon":5.40265,"is_reserved":false,"is_disabled":false,"rental_uris":{"android":"levelo://app?vid=28195630-2c39-4c93-bf30-6590e0ccf6df","ios":"levelo://app?vid=28195630-2c39-4c93-bf30-6590e0ccf6df"},"vehicle_type_id":"4","last_reported":1734790029,"current_range_meters":12800,"station_id":"ce4bhk92rcd13ifvqgc0","pricing_plan_id":"cebpf4jnsgd1na2vs0mg"},{"bike_id":"e26bfda6-8e04-4c36-a45c-e35853dbc7f8","system_id":"levelo_inurba_marseille","lat":43.29514,"lon":5.39036,"is_reserved":false,"is_disabled":false,"rental_uris":{"android":"levelo://app?vid=e26bfda6-8e04-4c36-a45c-e35853dbc7f8","ios":"levelo://app?vid=e26bfda6-8e04-4c36-a45c-e35853dbc7f8"},"vehicle_type_id":"4","last_reported":1734790029,"current_range_meters":37600,"station_id":"ce4bh3p2rcd13ifvqdp0","pricing_plan_id":"cebpf4jnsgd1na2vs0mg"},{"bike_id":"47cc93a7-70b5-45bf-991b-f441a77935aa","system_id":"levelo_inurba_marseille","lat":43.27315,"lon":5.39086,"is_reserved":false,"is_disabled":true,"rental_uris":{"android":"levelo://app?vid=47cc93a7-70b5-45bf-991b-f441a77935aa","ios":"levelo://app?vid=47cc93a7-70b5-45bf-991b-f441a77935aa"},"vehicle_type_id":"4","last_reported":1734790029,"current_range_meters":37600,"station_id":"ce4bhgp2rcd13ifvqfe0","pricing_plan_id":"cebpf4jnsgd1na2vs0mg"},{"bike_id":"76f7298d-23db-43ba-97cb-ee0a1bca30fa","system_id":"levelo_inurba_marseille","lat":43.26941,"lon":5.40254,"is_reserved":false,"is_disabled":false,"rental_uris":{"android":"levelo://app?vid=76f7298d-23db-43ba-97cb-ee0a1bca30fa","ios":"levelo://app?vid=76f7298d-23db-43ba-97cb-ee0a1bca30fa"},"vehicle_type_id":"4","last_reported":1734790029,"current_range_meters":38800,"station_id":"cjm6bp8fraef2m0cb0m0","pricing_plan_id":"cebpf4jnsgd1na2vs0mg"},{"bike_id":"39cb86bd-d333-444c-a321-d07277f74a29","system_id":"levelo_inurba_marseille","lat":43.26559,"lon":5.37279,"is_reserved":false,"is_disabled":false,"rental_uris":{"android":"levelo://app?vid=39cb86bd-d333-444c-a321-d07277f74a29","ios":"levelo://app?vid=39cb86bd-d333-444c-a321-d07277f74a29"},"vehicle_type_id":"4","last_reported":1734790029,"current_range_meters":32800,"station_id":"ce4bhg12rcd13ifvqf70","pricing_plan_id":"cebpf4jnsgd1na2vs0mg"},{"bike_id":"5de77257-80f5-4126-8140-fd63253300d0","system_id":"levelo_inurba_marseille","lat":43.270675,"lon":5.42281,"is_reserved":false,"is_disabled":false,"rental_uris":{"android":"levelo://app?vid=5de77257-80f5-4126-8140-fd63253300d0","ios":"levelo://app?vid=5de77257-80f5-4126-8140-fd63253300d0"},"vehicle_type_id":"4","last_reported":1734790029,"current_range_meters":8800,"station_id":"ce4bhk92rcd13ifvqgb0","pricing_plan_id":"cebpf4jnsgd1na2vs0mg"},{"bike_id":"a2eba22b-b0ee-4005-9bf3-576bb458d391","system_id":"levelo_inurba_marseille","lat":43.279651,"lon":5.387544,"is_reserved":false,"is_disabled":true,"rental_uris":{"android":"levelo://app?vid=a2eba22b-b0ee-4005-9bf3-576bb458d391","ios":"levelo://app?vid=a2eba22b-b0ee-4005-9bf3-576bb458d391"},"vehicle_type_id":"4","last_reported":1734790029,"current_range_meters":0,"station_id":"","pricing_plan_id":"cebpf4jnsgd1na2vs0mg"},{"bike_id":"8aa4b71b-d877-4fb0-8b5e-2c201f8eedc2","system_id":"levelo_inurba_marseille","lat":43.2917,"lon":5.3717,"is_reserved":false,"is_disabled":false,"rental_uris":{"android":"levelo://app?vid=8aa4b71b-d877-4fb0-8b5e-2c201f8eedc2","ios":"levelo://app?vid=8aa4b71b-d877-4fb0-8b5e-2c201f8eedc2"},"vehicle_type_id":"4","last_reported":1734790029,"current_range_meters":38800,"station_id":"ce4bha92rcd13ifvqeh0","pricing_plan_id":"cebpf4jnsgd1na2vs0mg"},{"bike_id":"fa1b00c2-1e45-460c-a625-e22f4e722d1e","system_id":"levelo_inurba_marseille","lat":43.29622,"lon":5.37737,"is_reserved":false,"is_disabled":false,"rental_uris":{"android":"levelo://app?vid=fa1b00c2-1e45-460c-a625-e22f4e722d1e","ios":"levelo://app?vid=fa1b00c2-1e45-460c-a625-e22f4e722d1e"},"vehicle_type_id":"4","last_reported":1734790029,"current_range_meters":37600,"station_id":"ce4bgi92rcd13ifvqb90","pricing_plan_id":"cebpf4jnsgd1na2vs0mg"},{"bike_id":"11e31868-fd43-43b0-95aa-4d96e7cf84ea","system_id":"levelo_inurba_marseille","lat":43.22934,"lon":5.3538,"is_reserved":false,"is_disabled":false,"rental_uris":{"android":"levelo://app?vid=11e31868-fd43-43b0-95aa-4d96e7cf84ea","ios":"levelo://app?vid=11e31868-fd43-43b0-95aa-4d96e7cf84ea"},"vehicle_type_id":"4","last_reported":1734790029,"current_range_meters":10800,"station_id":"cpo3532slgdg3j2ikp40","pricing_plan_id":"cebpf4jnsgd1na2vs0mg"},{"bike_id":"5c947138-4462-4c28-a25a-8fcdf6b4a3a2","system_id":"levelo_inurba_marseille","lat":43.33023,"lon":5.39037,"is_reserved":false,"is_disabled":false,"rental_uris":{"android":"levelo://app?vid=5c947138-4462-4c28-a25a-8fcdf6b4a3a2","ios":"levelo://app?vid=5c947138-4462-4c28-a25a-8fcdf6b4a3a2"},"vehicle_type_id":"4","last_reported":1734790029,"current_range_meters":38800,"station_id":"ce4bhr92rcd13ifvqhrg","pricing_plan_id":"cebpf4jnsgd1na2vs0mg"},{"bike_id":"e8b9266a-288a-46d4-af3d-7f133e6bf0fb","system_id":"levelo_inurba_marseille","lat":43.29875,"lon":5.37477,"is_reserved":false,"is_disabled":false,"rental_uris":{"android":"levelo://app?vid=e8b9266a-288a-46d4-af3d-7f133e6bf0fb","ios":"levelo://app?vid=e8b9266a-288a-46d4-af3d-7f133e6bf0fb"},"vehicle_type_id":"4","last_reported":1734790029,"current_range_meters":36000,"station_id":"","pricing_plan_id":"cebpf4jnsgd1na2vs0mg"},{"bike_id":"5d935366-e2bd-4eed-b04a-866e74d7ccd1","system_id":"levelo_inurba_marseille","lat":43.32472,"lon":5.36559,"is_reserved":false,"is_disabled":false,"rental_uris":{"android":"levelo://app?vid=5d935366-e2bd-4eed-b04a-866e74d7ccd1","ios":"levelo://app?vid=5d935366-e2bd-4eed-b04a-866e74d7ccd1"},"vehicle_type_id":"4","last_reported":1734790029,"current_range_meters":38400,"station_id":"ce4bhs12rcd13ifvqhvg","pricing_plan_id":"cebpf4jnsgd1na2vs0mg"},