{"last_updated":1752181851,"ttl":60,"version":"2.2","data":{"bikes":[{"bike_id":"b6fee853-523d-431d-8fc6-9defb8cb4a0a","system_id":"levelo_inurba_marseille","lat":43.24806,"lon":5.37466,"is_reserved":false,"is_disabled":true,"rental_uris":{"android":"levelo://app?vid=b6fee853-523d-431d-8fc6-9defb8cb4a0a","ios":"levelo://app?vid=b6fee853-523d-431d-8fc6-9defb8cb4a0a"},"vehicle_type_id":"4","last_reported":1752181851,"current_range_meters":2800,"station_id":"ce4bhgh2rcd13ifvqfb0","pricing_plan_id":"cebpf4jnsgd1na2vs0mg"},{"bike_id":"372a19c2-0a71-4979-99da-b8d86be35032","system_id":"levelo_inurba_marseille","lat":43.31892,"lon":5.40743,"is_reserved":false,"is_disabled":false,"rental_uris":{"android":"levelo://app?vid=372a19c2-0a71-4979-99da-b8d86be35032","ios":"levelo://app?vid=372a19c2-0a71-4979-99da-b8d86be35032"},"vehicle_type_id":"4","last_reported":1752181851,"current_range_meters":2800,"station_id":"ce4bhq12rcd13ifvqhig","pricing_plan_id":"cebpf4jnsgd1na2vs0mg"},{"bike_id":"4b0e2a0a-b43c-4c56-8904-37c6850672aa","system_id":"levelo_inurba_marseille","lat":43.27313,"lon":5.39079,"is_reserved":false,"is_disabled":false,"rental_uris":{"android":"levelo://app?vid=4b0e2a0a-b43c-4c56-8904-37c6850672aa","ios":"levelo://app?vid=4b0e2a0a-b43c-4c56-8904-37c6850672aa"},"vehicle_type_id":"4","last_reported":1752181851,"current_range_meters":2800,"station_id":"ce4bhgp2rcd13ifvqfe0","pricing_plan_id":"cebpf4jnsgd1na2vs0mg"},{"bike_id":"328a2126-c338-484d-b0b2-85a381405780","system_id":"levelo_inurba_marseille","lat":43.3106,"lon":5.38342,"is_reserved":false,"is_disabled":false,"rental_uris":{"android":"levelo://app?vid=328a2126-c338-484d-b0b2-85a381405780","ios":"levelo://app?vid=328a2126-c338-484d-b0b2-85a381405780"},"vehicle_type_id":"4","last_reported":1752181851,"current_range_meters":3200,"station_id":"ce4bgv92rcd13ifvqcr0","pricing_plan_id":"cebpf4jnsgd1na2vs0mg"},{"bike_id":"a31ad088-0bef-4a8b-8818-1f906a0505fa","system_id":"levelo_inurba_marseille","lat":43.30881,"lon":5.39648,"is_reserved":false,"is_disabled":false,"rental_uris":{"android":"levelo://app?vid=a31ad088-0bef-4a8b-8818-1f906a0505fa","ios":"levelo://app?vid=a31ad088-0bef-4a8b-8818-1f906a0505fa"},"vehicle_type_id":"4","last_reported":1752181851,"current_range_meters":3600,"station_id":"ce4bh012rcd13ifvqcv0","pricing_plan_id":"cebpf4jnsgd1na2vs0mg"},{"bike_id":"ff73f5b9-9235-4610-b135-8d25d5930e4d","system_id":"levelo_inurba_marseille","lat":43.26203,"lon":5.37486,"is_reserved":false,"is_disabled":true,"rental_uris":{"android":"levelo://app?vid=ff73f5b9-9235-4610-b135-8d25d5930e4d","ios":"levelo://app?vid=ff73f5b9-9235-4610-b135-8d25d5930e4d"},"vehicle_type_id":"4","last_reported":1752181851,"current_range_meters":3600,"station_id":"ce4bhgp2rcd13ifvqfc0","pricing_plan_id":"cebpf4jnsgd1na2vs0mg"},{"bike_id":"12ceca8e-6a63-48ad-a4e7-bc7ceb3cfa32","system_id":"levelo_inurba_marseille","lat":43.28446,"lon":5.39204,"is_reserved":false,"is_disabled":false,"rental_uris":{"android":"levelo://app?vid=12ceca8e-6a63-48ad-a4e7-bc7ceb3cfa32","ios":"levelo://app?vid=12ceca8e-6a63-48ad-a4e7-bc7ceb3cfa32"},"vehicle_type_id":"4","last_reported":1752181851,"current_range_meters":4000,"station_id":"ce4bhoh2rcd13ifvqh5g","pricing_plan_id":"cebpf4jnsgd1na2vs0mg"},{"bike_id":"2453aa62-626e-453f-9e2b-b39c85dc7514","system_id":"levelo_inurba_marseille","lat":43.30305,"lon":5.39204,"is_reserved":false,"is_disabled":false,"rental_uris":{"android":"levelo://app?vid=2453aa62-626e-453f-9e2b-b39c85dc7514","ios":"levelo://app?vid=2453aa62-626e-453f-9e2b-b39c85dc7514"},"vehicle_type_id":"4","last_reported":1752181851,"current_range_meters":4000,"station_id":"ce4bgkh2rcd13ifvqbk0","pricing_plan_id":"cebpf4jnsgd1na2vs0mg"},{"bike_id":"2a3b510a-2dd9-48bf-9477-dc291faf8f79","system_id":"levelo_inurba_marseille","lat":43.28705,"lon":5.39991,"is_reserved":false,"is_disabled":false,"rental_uris":{"android":"levelo://app?vid=2a3b510a-2dd9-48bf-9477-dc291faf8f79","ios":"levelo://app?vid=2a3b510a-2dd9-48bf-9477-dc291faf8f79"},"vehicle_type_id":"4","last_reported":1752181851,"current_range_meters":4000,"station_id":"ce4bho92rcd13ifvqh3g","pricing_plan_id":"cebpf4jnsgd1na2vs0mg"},{"bike_id":"b8d6bf6b-ecbb-4c40-8ce7-0169ef070b49","system_id":"levelo_inurba_marseille","lat":43.29555,"lon":5.36284,"is_reserved":false,"is_disabled":false,"rental_uris":{"android":"levelo://app?vid=b8d6bf6b-ecbb-4c40-8ce7-0169ef070b49","ios":"levelo://app?vid=b8d6bf6b-ecbb-4c40-8ce7-0169ef070b49"},"vehicle_type_id":"4","last_reported":1752181851,"current_range_meters":4400,"station_id":"","pricing_plan_id":"cebpf4jnsgd1na2vs0mg"},{"bike_id":"da100b45-35c8-4f86-9495-4480a8c5714e","system_id":"levelo_inurba_marseille","lat":43.26809,"lon":5.40262,"is_reserved":false,"is_disabled":false,"rental_uris":{"android":"levelo://app?vid=da100b45-35c8-4f86-9495-4480a8c5714e","ios":"levelo://app?vid=da100b45-35c8-4f86-9495-4480a8c5714e"},"vehicle_type_id":"4","last_reported":1752181851,"current_range_meters":4400,"station_id":"ce501612rcd8frsf0b60","pricing_plan_id":"cebpf4jnsgd1na2vs0mg"},{"bike_id":"25454d91-3da6-4669-ae6c-f54a44e9ee06","system_id":"levelo_inurba_marseille","lat":43.27178,"lon":5.40994,"is_reserved":false,"is_disabled":false,"rental_uris":{"android":"levelo://app?vid=25454d91-3da6-4669-ae6c-f54a44e9ee06","ios":"levelo://app?vid=25454d91-3da6-4669-ae6c-f54a44e9ee06"},"vehicle_type_id":"4","last_reported":1752181851,"current_range_meters":4800,"station_id":"ce4bhl12rcd13ifvqgf0","pricing_plan_id":"cebpf4jnsgd1na2vs0mg"},{"bike_id":"159fe00e-1605-4a3a-a906-ef8dcd52b1db","system_id":"levelo_inurba_marseille","lat":43.3085,"lon":5.37327,"is_reserved":false,"is_disabled":false,"rental_uris":{"android":"levelo://app?vid=159fe00e-1605-4a3a-a906-ef8dcd52b1db","ios":"levelo://app?vid=159fe00e-1605-4a3a-a906-ef8dcd52b1db"},"vehicle_type_id":"4","last_reported":1752181851,"current_range_meters":4800,"station_id":"","pricing_plan_id":"cebpf4jnsgd1na2vs0mg"},{"bike_id":"104ce6ad-9b05-48b1-9a0a-7b14e56e192b","system_id":"levelo_inurba_marseille","lat":43.29576,"lon":5.37447,"is_reserved":false,"is_disabled":false,"rental_uris":{"android":"levelo://app?vid=104ce6ad-9b05-48b1-9a0a-7b14e56e192b","ios":"levelo://app?vid=104ce6ad-9b05-48b1-9a0a-7b14e56e192b"},"vehicle_type_id":"4","last_reported":1752181851,"current_range_meters":4800,"station_id":"","pricing_plan_id":"cebpf4jnsgd1na2vs0mg"},{"bike_id":"961b00bb-5ad8-45aa-9363-e9b1e5acb750","system_id":"levelo_inurba_marseille","lat":43.29364,"lon":5.37845,"is_reserved":false,"is_disabled":false,"rental_uris":{"android":"levelo://app?vid=961b00bb-5ad8-45aa-9363-e9b1e5acb750","ios":"levelo://app?vid=961b00bb-5ad8-45aa-9363-e9b1e5acb750"},"vehicle_type_id":"4","last_reported":1752181851,"current_range_meters":5600,"station_id":"ce4bgjh2rcd13ifvqbf0","pricing_plan_id":"cebpf4jnsgd1na2vs0mg"},{"bike_id":"f78cdb98-9c3d-47f2-953b-bb77161f5cf7","system_id":"levelo_inurba_marseille","lat":43.29265,"lon":5.38461,"is_reserved":false,"is_disabled":false,"rental_uris":{"android":"levelo://app?vid=f78cdb98-9c3d-47f2-953b-bb77161f5cf7","ios":"levelo://app?vid=f78cdb98-9c3d-47f2-953b-bb77161f5cf7"},"vehicle_type_id":"4","last_reported":1752181851,"current_range_meters":5600,"station_id":"ce4bh692rcd13ifvqea0","pricing_plan_id":"cebpf4jnsgd1na2vs0mg"},{"bike_id":"a743dc30-1cad-4b99-9621-a2924b46ee8e","system_id":"levelo_inurba_marseille","lat":43.25867,"lon":5.39902,"is_reserved":false,"is_disabled":false,"rental_uris":{"android":"levelo://app?vid=a743dc30-1cad-4b99-9621-a2924b46ee8e","ios":"levelo://app?vid=a743dc30-1cad-4b99-9621-a2924b46ee8e"},"vehicle_type_id":"4","last_reported":1752181851,"current_range_meters":5600,"station_id":"ce4bhl92rcd13ifvqghg","pricing_plan_id":"cebpf4jnsgd1na2vs0mg"},{"bike_id":"6befab8a-444a-446e-b227-4c9f49a7666e","system_id":"levelo_inurba_marseille","lat":43.2895,"lon":5.36406,"is_reserved":false,"is_disabled":false,"rental_uris":{"android":"levelo://app?vid=6befab8a-444a-446e-b227-4c9f49a7666e","ios":"levelo://app?vid=6befab8a-444a-446e-b227-4c9f49a7666e"},"vehicle_type_id":"4","last_reported":1752181851,"current_range_meters":6000,"station_id":"ce4bhc92rcd13ifvqetg","pricing_plan_id":"cebpf4jnsgd1na2vs0mg"},{"bike_id":"864830cd-471c-4ae8-8ff1-495934107509","system_id":"levelo_inurba_marseille","lat":43.31888,"lon":5.40746,"is_reserved":false,"is_disabled":true,"rental_uris":{"android":"levelo://app?vid=864830cd-471c-4ae8-8ff1-495934107509","ios":"levelo://app?vid=864830cd-471c-4ae8-8ff1-495934107509"},"vehicle_type_id":"4","last_reported":1752181851,"current_range_meters":6000,"station_id":"ce4bhq12rcd13ifvqhig","pricing_plan_id":"cebpf4jnsgd1na2vs0mg"},{"bike_id":"f285854f-6d6e-4097-999c-5a8324d4ed36","system_id":"levelo_inurba_marseille","lat":43.301378,"lon":5.38784,"is_reserved":false,"is_disabled":false,"rental_uris":{"android":"levelo://app?vid=f285854f-6d6e-4097-999c-5a8324d4ed36","ios":"levelo://app?vid=f285854f-6d6e-4097-999c-5a8324d4ed36"},"vehicle_type_id":"4","last_reported":1752181851,"current_range_meters":6000,"station_id":"","pricing_plan_id":"cebpf4jnsgd1na2vs0mg"},{"bike_id":"01a33a70-773f-4841-a5f7-fe9b063735b0","system_id":"levelo_inurba_marseille","lat":43.25937,"lon":5.40905,"is_reserved":false,"is_disabled":false,"rental_uris":{"android":"levelo://app?vid=01a33a70-773f-4841-a5f7-fe9b063735b0","ios":"levelo://app?vid=01a33a70-773f-4841-a5f7-fe9b063735b0"},"vehicle_type_id":"4","last_reported":1752181851,"current_range_meters":6000,"station_id":"ce4bhm92rcd13ifvqglg","pricing_plan_id":"cebpf4jnsgd1na2vs0mg"},{"bike_id":"586b505e-e0eb-44bf-b8e1-bfa2f4f7c65b","system_id":"levelo_inurba_marseille","lat":43.32006,"lon":5.38158,"is_reserved":false,"is_disabled":false,"rental_uris":{"android":"levelo://app?vid=586b505e-e0eb-44bf-b8e1-bfa2f4f7c65b","ios":"levelo://app?vid=586b505e-e0eb-44bf-b8e1-bfa2f4f7c65b"},"vehicle_type_id":"4","last_reported":1752181851,"current_range_meters":6400,"station_id":"ce4bhr12rcd13ifvqhpg","pricing_plan_id":"cebpf4jnsgd1na2vs0mg"},{"bike_id":"e673f93f-88ed-4f4e-a0b0-09653b661b46","system_id":"levelo_inurba_marseille","lat":43.29964,"lon":5.385,"is_reserved":false,"is_disabled":false,"rental_uris":{"android":"levelo://app?vid=e673f93f-88ed-4f4e-a0b0-09653b661b46","ios":"levelo://app?vid=e673f93f-88ed-4f4e-a0b0-09653b661b46"},"vehicle_type_id":"4","last_reported":1752181851,"current_range_meters":6800,"station_id":"ce4bgj92rcd13ifvqbd0","pricing_plan_id":"cebpf4jnsgd1na2vs0mg"},{"bike_id":"d0e64184-ee88-4e2d-9d25-7bbadd0e27bb","system_id":"levelo_inurba_marseille","lat":43.31276,"lon":5.40167,"is_reserved":false,"is_disabled":false,"rental_uris":{"android":"levelo://app?vid=d0e64184-ee88-4e2d-9d25-7bbadd0e27bb","ios":"levelo://app?vid=d0e64184-ee88-4e2d-9d25-7bbadd0e27bb"},"vehicle_type_id":"4","last_reported":1752181851,"current_range_meters":6800,"station_id":"ce4bh092rcd13ifvqd30","pricing_plan_id":"cebpf4jnsgd1na2vs0mg"},{"bike_id":"3a47e549-5012-465d-8aa7-3b28a6417393","system_id":"levelo_inurba_marseille","lat":43.294314,"lon":5.386253,"is_reserved":false,"is_disabled":false,"rental_uris":{"android":"levelo://app?vid=3a47e549-5012-465d-8aa7-3b28a6417393","ios":"levelo://app?vid=3a47e549-5012-465d-8aa7-3b28a6417393"},"vehicle_type_id":"4","last_reported":1752181851,"current_range_meters":6800,"station_id":"ce4bh2h2rcd13ifvqdh0","pricing_plan_id":"cebpf4jnsgd1na2vs0mg"},{"bike_id":"7bb02a9f-2527-47a5-8fd2-1066ac3e2ec0","system_id":"levelo_inurba_marseille","lat":43.31086,"lon":5.38358,"is_reserved":false,"is_disabled":false,"rental_uris":{"android":"levelo://app?vid=7bb02a9f-2527-47a5-8fd2-1066ac3e2ec0","ios":"levelo://app?vid=7bb02a9f-2527-47a5-8fd2-1066ac3e2ec0"},"vehicle_type_id":"4","last_reported":1752181851,"current_range_meters":6800,"station_id":"ce4bgv92rcd13ifvqcr0","pricing_plan_id":"cebpf4jnsgd1na2vs0mg"},{"bike_id":"cf6a2d9a-a0d3-4e06-9997-4b3e8bf27330","system_id":"levelo_inurba_marseille","lat":43.29097,"lon":5.37177,"is_reserved":false,"is_disabled":false,"rental_uris":{"android":"levelo://app?vid=cf6a2d9a-a0d3-4e06-9997-4b3e8bf27330","ios":"levelo://app?vid=cf6a2d9a-a0d3-4e06-9997-4b3e8bf27330"},"vehicle_type_id":"4","last_reported":1752181851,"current_range_meters":7200,"station_id":"ce4bh5p2rcd13ifvqe4g","pricing_plan_id":"cebpf4jnsgd1na2vs0mg"},{"bike_id":"24fa3949-5fbf-4828-b023-39ef2564d485","system_id":"levelo_inurba_marseille","lat":43.29438,"lon":5.397343,"is_reserved":false,"is_disabled":false,"rental_uris":{"android":"levelo://app?vid=24fa3949-5fbf-4828-b023-39ef2564d485","ios":"levelo://app?vid=24fa3949-5fbf-4828-b023-39ef2564d485"},"vehicle_type_id":"4","last_reported":1752181851,"current_range_meters":7200,"station_id":"ce4bh3h2rcd13ifvqdo0","pricing_plan_id":"cebpf4jnsgd1na2vs0mg"},{"bike_id":"997bab41-dd0b-47b9-afad-d6cc16b94645","system_id":"levelo_inurba_marseille","lat":43.29591,"lon":5.38111,"is_reserved":false,"is_disabled":false,"rental_uris":{"android":"levelo://app?vid=997bab41-dd0b-47b9-afad-d6cc16b94645","ios":"levelo://app?vid=997bab41-dd0b-47b9-afad-d6cc16b94645"},"vehicle_type_id":"4","last_reported":1752181851,"current_range_meters":7200,"station_id":"ce4bgl12rcd13ifvqbo0","pricing_plan_id":"cebpf4jnsgd1na2vs0mg"},{"bike_id":"170dd38d-d32d-48df-80cb-7ca0a0eaa67e","system_id":"levelo_inurba_marseille","lat":43.28938,"lon":5.36644,"is_reserved":false,"is_disabled":false,"rental_uris":{"android":"levelo://app?vid=170dd38d-d32d-48df-80cb-7ca0a0eaa67e","ios":"levelo://app?vid=170dd38d-d32d-48df-80cb-7ca0a0eaa67e"},"vehicle_type_id":"4","last_reported":1752181851,"current_range_meters":7200,"station_id":"ce4bhap2rcd13ifvqek0","pricing_plan_id":"cebpf4jnsgd1na2vs0mg"},{"bike_id":"2bd2509c-8e69-46fb-904c-1c65a6340b60","system_id":"levelo_inurba_marseille","lat":43.21756,"lon":5.34626,"is_reserved":false,"is_disabled":true,"rental_uris":{"android":"levelo://app?vid=2bd2509c-8e69-46fb-904c-1c65a6340b60","ios":"levelo://app?vid=2bd2509c-8e69-46fb-904c-1c65a6340b60"},"vehicle_type_id":"4","last_reported":1752181851,"current_range_meters":7200,"station_id":"st_cvj6r9ubvosntc0bgbag","pricing_plan_id":"cebpf4jnsgd1na2vs0mg"},{"bike_id":"b4f0af24-1970-4cb2-abb4-e9f7f09fa10a","system_id":"levelo_inurba_marseille","lat":43.30315,"lon":5.40469,"is_reserved":false,"is_disabled":false,"rental_uris":{"android":"levelo://app?vid=b4f0af24-1970-4cb2-abb4-e9f7f09fa10a","ios":"levelo://app?vid=b4f0af24-1970-4cb2-abb4-e9f7f09fa10a"},"vehicle_type_id":"4","last_reported":1752181851,"current_range_meters":8000,"station_id":"ce4bh012rcd13ifvqd10","pricing_plan_id":"cebpf4jnsgd1na2vs0mg"},{"bike_id":"c4b40dbe-2b87-4ff2-a128-e0a0a01b5656","system_id":"levelo_inurba_marseille","lat":43.30593,"lon":5.39364,"is_reserved":false,"is_disabled":false,"rental_uris":{"android":"levelo://app?vid=c4b40dbe-2b87-4ff2-a128-e0a0a01b5656","ios":"levelo://app?vid=c4b40dbe-2b87-4ff2-a128-e0a0a01b5656"},"vehicle_type_id":"4","last_reported":1752181851,"current_range_meters":8000,"station_id":"ce4bh0p2rcd13ifvqd80","pricing_plan_id":"cebpf4jnsgd1na2vs0mg"},{"bike_id":"ba480b1d-fbef-4d54-9bb0-c2fa8b787212","system_id":"levelo_inurba_marseille","lat":43.21163,"lon":5.35099,"is_reserved":false,"is_disabled":false,"rental_uris":{"android":"levelo://app?vid=ba480b1d-fbef-4d54-9bb0-c2fa8b787212","ios":"levelo://app?vid=ba480b1d-fbef-4d54-9bb0-c2fa8b787212"},"vehicle_type_id":"4","last_reported":1752181851,"current_range_meters":8400,"station_id":"st_cvj6sg6p6f1abm77japg","pricing_plan_id":"cebpf4jnsgd1na2vs0mg"},{"bike_id":"e86f96e5-f2aa-4d72-829c-c868b674b3a0","system_id":"levelo_inurba_marseille","lat":43.2316,"lon":5.43672,"is_reserved":false,"is_disabled":false,"rental_uris":{"android":"levelo://app?vid=e86f96e5-f2aa-4d72-829c-c868b674b3a0","ios":"levelo://app?vid=e86f96e5-f2aa-4d72-829c-c868b674b3a0"},"vehicle_type_id":"4","last_reported":1752181851,"current_range_meters":8400,"station_id":"ce4bhmp2rcd13ifvqgog","pricing_plan_id":"cebpf4jnsgd1na2vs0mg"},{"bike_id":"d74e805a-d6d0-4892-81ec-4130488639a6","system_id":"levelo_inurba_marseille","lat":43.30925,"lon":5.40147,"is_reserved":false,"is_disabled":false,"rental_uris":{"android":"levelo://app?vid=d74e805a-d6d0-4892-81ec-4130488639a6","ios":"levelo://app?vid=d74e805a-d6d0-4892-81ec-4130488639a6"},"vehicle_type_id":"4","last_reported":1752181851,"current_range_meters":8400,"station_id":"ce4bgvp2rcd13ifvqct0","pricing_plan_id":"cebpf4jnsgd1na2vs0mg"},{"bike_id":"56d4fdaf-ae4c-4003-8a74-738d4b9be60f","system_id":"levelo_inurba_marseille","lat":43.28688,"lon":5.40025,"is_reserved":false,"is_disabled":true,"rental_uris":{"android":"levelo://app?vid=56d4fdaf-ae4c-4003-8a74-738d4b9be60f","ios":"levelo://app?vid=56d4fdaf-ae4c-4003-8a74-738d4b9be60f"},"vehicle_type_id":"4","last_reported":1752181851,"current_range_meters":8800,"station_id":"ce4bho92rcd13ifvqh3g","pricing_plan_id":"cebpf4jnsgd1na2vs0mg"},{"bike_id":"fd7a6f4a-c957-4d42-846f-9ea7c34153c3","system_id":"levelo_inurba_marseille","lat":43.3065,"lon":5.40095,"is_reserved":false,"is_disabled":false,"rental_uris":{"android":"levelo://app?vid=fd7a6f4a-c957-4d42-846f-9ea7c34153c3","ios":"levelo://app?vid=fd7a6f4a-c957-4d42-846f-9ea7c34153c3"},"vehicle_type_id":"4","last_reported":1752181851,"current_range_meters":8800,"station_id":"ce4bh112rcd13ifvqda0","pricing_plan_id":"cebpf4jnsgd1na2vs0mg"},{"bike_id":"6e5c2657-ccb8-4153-8b94-2143bc427a03","system_id":"levelo_inurba_marseille","lat":43.22517,"lon":5.3479,"is_reserved":false,"is_disabled":false,"rental_uris":{"android":"levelo://app?vid=6e5c2657-ccb8-4153-8b94-2143bc427a03","ios":"levelo://app?vid=6e5c2657-ccb8-4153-8b94-2143bc427a03"},"vehicle_type_id":"4","last_reported":1752181851,"current_range_meters":8800,"station_id":"st_cvj5dfep6f1abm77gieg","pricing_plan_id":"cebpf4jnsgd1na2vs0mg"},{"bike_id":"84cb787e-9e3f-43cc-948c-24b004f5562a","system_id":"levelo_inurba_marseille","lat":43.31073,"lon":5.38353,"is_reserved":false,"is_disabled":false,"rental_uris":{"android":"levelo://app?vid=84cb787e-9e3f-43cc-948c-24b004f5562a","ios":"levelo://app?vid=84cb787e-9e3f-43cc-948c-24b004f5562a"},"vehicle_type_id":"4","last_reported":1752181851,"current_range_meters":8800,"station_id":"ce4bgv92rcd13ifvqcr0","pricing_plan_id":"cebpf4jnsgd1na2vs0mg"},{"bike_id":"21ae54b9-7375-4101-b8a7-bff9d6e1fa32","system_id":"levelo_inurba_marseille","lat":43.29998,"lon":5.37606,"is_reserved":false,"is_disabled":false,"rental_uris":{"android":"levelo://app?vid=21ae54b9-7375-4101-b8a7-bff9d6e1fa32","ios":"levelo://app?vid=21ae54b9-7375-4101-b8a7-bff9d6e1fa32"},"vehicle_type_id":"4","last_reported":1752181851,"current_range_meters":9200,"station_id":"","pricing_plan_id":"cebpf4jnsgd1na2vs0mg"},{"bike_id":"b2caa530-bb19-4cc6-a6bd-61e3e1d7432e","system_id":"levelo_inurba_marseille","lat":43.33763,"lon":5.37461,"is_reserved":false,"is_disabled":false,"rental_uris":{"android":"levelo://app?vid=b2caa530-bb19-4cc6-a6bd-61e3e1d7432e","ios":"levelo://app?vid=b2caa530-bb19-4cc6-a6bd-61e3e1d7432e"},"vehicle_type_id":"4","last_reported":1752181851,"current_range_meters":9200,"station_id":"","pricing_plan_id":"cebpf4jnsgd1na2vs0mg"},{"bike_id":"663ef472-4ce1-4faf-8c3d-0a192e73b867","system_id":"levelo_inurba_marseille","lat":43.27072,"lon":5.42281,"is_reserved":false,"is_disabled":false,"rental_uris":{"android":"levelo://app?vid=663ef472-4ce1-4faf-8c3d-0a192e73b867","ios":"levelo://app?vid=663ef472-4ce1-4faf-8c3d-0a192e73b867"},"vehicle_type_id":"4","last_reported":1752181851,"current_range_meters":9200,"station_id":"ce4bhk92rcd13ifvqgb0","pricing_plan_id":"cebpf4jnsgd1na2vs0mg"},{"bike_id":"1e8e5fc4-1d81-419c-bb6b-508f86b979e4","system_id":"levelo_inurba_marseille","lat":43.306,"lon":5.37207,"is_reserved":false,"is_disabled":true,"rental_uris":{"android":"levelo://app?vid=1e8e5fc4-1d81-419c-bb6b-508f86b979e4","ios":"levelo://app?vid=1e8e5fc4-1d81-419c-bb6b-508f86b979e4"},"vehicle_type_id":"4","last_reported":1752181851,"current_range_meters":9600,"station_id":"ce4bgqh2rcd13ifvqc4g","pricing_plan_id":"cebpf4jnsgd1na2vs0mg"},{"bike_id":"b757ffbb-2b71-4330-9f60-5f8a9d46d16e","system_id":"levelo_inurba_marseille","lat":43.29662,"lon":5.37127,"is_reserved":false,"is_disabled":false,"rental_uris":{"android":"levelo://app?vid=b757ffbb-2b71-4330-9f60-5f8a9d46d16e","ios":"levelo://app?vid=b757ffbb-2b71-4330-9f60-5f8a9d46d16e"},"vehicle_type_id":"4","last_reported":1752181851,"current_range_meters":9600,"station_id":"","pricing_plan_id":"cebpf4jnsgd1na2vs0mg"},{"bike_id":"9b1f6336-9d6f-4d58-8062-679a257342a3","system_id":"levelo_inurba_marseille","lat":43.30887,"lon":5.37188,"is_reserved":false,"is_disabled":false,"rental_uris":{"android":"levelo://app?vid=9b1f6336-9d6f-4d58-8062-679a257342a3","ios":"levelo://app?vid=9b1f6336-9d6f-4d58-8062-679a257342a3"},"vehicle_type_id":"4","last_reported":1752181851,"current_range_meters":9600,"station_id":"ce4bguh2rcd13ifvqckg","pricing_plan_id":"cebpf4jnsgd1na2vs0mg"},{"bike_id":"c1a2a69e-9bf5-4849-b55f-6847b98c70a7","system_id":"levelo_inurba_marseille","lat":43.307159,"lon":5.37371,"is_reserved":false,"is_disabled":false,"rental_uris":{"android":"levelo://app?vid=c1a2a69e-9bf5-4849-b55f-6847b98c70a7","ios":"levelo://app?vid=c1a2a69e-9bf5-4849-b55f-6847b98c70a7"},"vehicle_type_id":"4","last_reported":1752181851,"current_range_meters":9600,"station_id":"","pricing_plan_id":"cebpf4jnsgd1na2vs0mg"},{"bike_id":"4bdd2b52-5b5d-4baf-83af-4ba71cc3f2ce","system_id":"levelo_inurba_marseille","lat":43.31081,"lon":5.38358,"is_reserved":false,"is_disabled":false,"rental_uris":{"android":"levelo://app?vid=4bdd2b52-5b5d-4baf-83af-4ba71cc3f2ce","ios":"levelo://app?vid=4bdd2b52-5b5d-4baf-83af-4ba71cc3f2ce"},"vehicle_type_id":"4","last_reported":1752181851,"current_range_meters":9600,"station_id":"ce4bgv92rcd13ifvqcr0","pricing_plan_id":"cebpf4jnsgd1na2vs0mg"},{"bike_id":"83caaf0d-b918-4b8a-83e5-fb6a9ff083fb","system_id":"levelo_inurba_marseille","lat":43.29444,"lon":5.37466,"is_reserved":false,"is_disabled":false,"rental_uris":{"android":"levelo://app?vid=83caaf0d-b918-4b8a-83e5-fb6a9ff083fb","ios":"levelo://app?vid=83caaf0d-b918-4b8a-83e5-fb6a9ff083fb"},"vehicle_type_id":"4","last_reported":1752181851,"current_range_meters":9600,"station_id":"","pricing_plan_id":"cebpf4jnsgd1na2vs0mg"},{"bike_id":"833f97ec-e704-4051-ab3b-2e9eb58f71d0","system_id":"levelo_inurba_marseille","lat":43.30262,"lon":5.37545,"is_reserved":false,"is_disabled":false,"rental_uris":{"android":"levelo://app?vid=833f97ec-e704-4051-ab3b-2e9eb58f71d0","ios":"levelo://app?vid=833f97ec-e704-4051-ab3b-2e9eb58f71d0"},"vehicle_type_id":"4","last_reported":1752181851,"current_range_meters":9600,"station_id":"","pricing_plan_id":"cebpf4jnsgd1na2vs0mg"},{"bike_id":"b3880947-3aa9-4ceb-8b4a-b249b92fcd4e","system_id":"levelo_inurba_marseille","lat":43.29881,"lon":5.389046,"is_reserved":false,"is_disabled":false,"rental_uris":{"android":"levelo://app?vid=b3880947-3aa9-4ceb-8b4a-b249b92fcd4e","ios":"levelo://app?vid=b3880947-3aa9-4ceb-8b4a-b249b92fcd4e"},"vehicle_type_id":"4","last_reported":1752181851,"current_range_meters":10000,"station_id":"ce4bh392rcd13ifvqdl0","pricing_plan_id":"cebpf4jnsgd1na2vs0mg"},{"bike_id":"7c62ad67-1ca5-47af-a06f-570a871bd8d2","system_id":"levelo_inurba_marseille","lat":43.29878,"lon":5.39731,"is_reserved":false,"is_disabled":false,"rental_uris":{"android":"levelo://app?vid=7c62ad67-1ca5-47af-a06f-570a871bd8d2","ios":"levelo://app?vid=7c62ad67-1ca5-47af-a06f-570a871bd8d2"},"vehicle_type_id":"4","last_reported":1752181851,"current_range_meters":10000,"station_id":"ce4bh0h2rcd13ifvqd50","pricing_plan_id":"cebpf4jnsgd1na2vs0mg"},{"bike_id":"c1481715-9afd-4c6b-a7b7-96c314462592","system_id":"levelo_inurba_marseille","lat":43.286652,"lon":5.386647,"is_reserved":false,"is_disabled":false,"rental_uris":{"android":"levelo://app?vid=c1481715-9afd-4c6b-a7b7-96c314462592","ios":"levelo://app?vid=c1481715-9afd-4c6b-a7b7-96c314462592"},"vehicle_type_id":"4","last_reported":1752181851,"current_range_meters":9600,"station_id":"ce4bh492rcd13ifvqdug","pricing_plan_id":"cebpf4jnsgd1na2vs0mg"},{"bike_id":"52d88166-71f3-4f74-aaa5-57426b762d6e","system_id":"levelo_inurba_marseille","lat":43.30944,"lon":5.39042,"is_reserved":false,"is_disabled":true,"rental_uris":{"android":"levelo://app?vid=52d88166-71f3-4f74-aaa5-57426b762d6e","ios":"levelo://app?vid=52d88166-71f3-4f74-aaa5-57426b762d6e"},"vehicle_type_id":"4","last_reported":1752181851,"current_range_meters":10000,"station_id":"ce4bgup2rcd13ifvqco0","pricing_plan_id":"cebpf4jnsgd1na2vs0mg"},{"bike_id":"d1f59f1a-f2df-4d62-8543-8f982ebe92f0","system_id":"levelo_inurba_marseille","lat":43.29262,"lon":5.38488,"is_reserved":false,"is_disabled":false,"rental_uris":{"android":"levelo://app?vid=d1f59f1a-f2df-4d62-8543-8f982ebe92f0","ios":"levelo://app?vid=d1f59f1a-f2df-4d62-8543-8f982ebe92f0"},"vehicle_type_id":"4","last_reported":1752181851,"current_range_meters":10000,"station_id":"","pricing_plan_id":"cebpf4jnsgd1na2vs0mg"},{"bike_id":"9b419ca3-81ad-41d0-b7f4-b40b4c3017d2","system_id":"levelo_inurba_marseille","lat":43.28725,"lon":5.36089,"is_reserved":false,"is_disabled":false,"rental_uris":{"android":"levelo://app?vid=9b419ca3-81ad-41d0-b7f4-b40b4c3017d2","ios":"levelo://app?vid=9b419ca3-81ad-41d0-b7f4-b40b4c3017d2"},"vehicle_type_id":"4","last_reported":1752181851,"current_range_meters":10800,"station_id":"cki0cbj6b192h4jlfktg","pricing_plan_id":"cebpf4jnsgd1na2vs0mg"},{"bike_id":"fc947a00-0f00-4e56-8f3e-02186d9d6eca","system_id":"levelo_inurba_marseille","lat":43.307032,"lon":5.399879,"is_reserved":false,"is_disabled":false,"rental_uris":{"android":"levelo://app?vid=fc947a00-0f00-4e56-8f3e-02186d9d6eca","ios":"levelo://app?vid=fc947a00-0f00-4e56-8f3e-02186d9d6eca"},"vehicle_type_id":"4","last_reported":1752181851,"current_range_meters":10800,"station_id":"ce4bgvp2rcd13ifvqct0","pricing_plan_id":"cebpf4jnsgd1na2vs0mg"},{"bike_id":"95ed45be-0cbe-4ada-ab9b-3d6fe6e0c22e","system_id":"levelo_inurba_marseille","lat":43.27626,"lon":5.36075,"is_reserved":false,"is_disabled":true,"rental_uris":{"android":"levelo://app?vid=95ed45be-0cbe-4ada-ab9b-3d6fe6e0c22e","ios":"levelo://app?vid=95ed45be-0cbe-4ada-ab9b-3d6fe6e0c22e"},"vehicle_type_id":"4","last_reported":1752181851,"current_range_meters":10800,"station_id":"ce4bgj92rcd13ifvqbe0","pricing_plan_id":"cebpf4jnsgd1na2vs0mg"},{"bike_id":"3e9bf0ba-20ef-4d1d-8346-6d7b9775dbd9","system_id":"levelo_inurba_marseille","lat":43.28396,"lon":5.34995,"is_reserved":false,"is_disabled":false,"rental_uris":{"android":"levelo://app?vid=3e9bf0ba-20ef-4d1d-8346-6d7b9775dbd9","ios":"levelo://app?vid=3e9bf0ba-20ef-4d1d-8346-6d7b9775dbd9"},"vehicle_type_id":"4","last_reported":1752181851,"current_range_meters":10800,"station_id":"ce4bhbh2rcd13ifvqepg","pricing_plan_id":"cebpf4jnsgd1na2vs0mg"},{"bike_id":"f9ee97f3-793a-4037-86cc-dfe626a501ba","system_id":"levelo_inurba_marseille","lat":43.28417,"lon":5.34999,"is_reserved":false,"is_disabled":false,"rental_uris":{"android":"levelo://app?vid=f9ee97f3-793a-4037-86cc-dfe626a501ba","ios":"levelo://app?vid=f9ee97f3-793a-4037-86cc-dfe626a501ba"},"vehicle_type_id":"4","last_reported":1752181851,"current_range_meters":10800,"station_id":"ce4bhbh2rcd13ifvqepg","pricing_plan_id":"cebpf4jnsgd1na2vs0mg"},{"bike_id":"12a0a7d5-bd16-4db6-9d97-49b871905ee5","system_id":"levelo_inurba_marseille","lat":43.29436,"lon":5.39743,"is_reserved":false,"is_disabled":false,"rental_uris":{"android":"levelo://app?vid=12a0a7d5-bd16-4db6-9d97-49b871905ee5","ios":"levelo://app?vid=12a0a7d5-bd16-4db6-9d97-49b871905ee5"},"vehicle_type_id":"4","last_reported":1752181851,"current_range_meters":11200,"station_id":"ce4bh3h2rcd13ifvqdo0","pricing_plan_id":"cebpf4jnsgd1na2vs0mg"},{"bike_id":"aec6c9b3-3924-452b-8d60-e43088435fc4","system_id":"levelo_inurba_marseille","lat":43.296162,"lon":5.376945,"is_reserved":false,"is_disabled":false,"rental_uris":{"android":"levelo://app?vid=aec6c9b3-3924-452b-8d60-e43088435fc4","ios":"levelo://app?vid=aec6c9b3-3924-452b-8d60-e43088435fc4"},"vehicle_type_id":"4","last_reported":1752181851,"current_range_meters":11200,"station_id":"","pricing_plan_id":"cebpf4jnsgd1na2vs0mg"},{"bike_id":"11dafa57-a594-4632-aa14-e3000e78c1a5","system_id":"levelo_inurba_marseille","lat":43.29571,"lon":5.39989,"is_reserved":false,"is_disabled":false,"rental_uris":{"android":"levelo://app?vid=11dafa57-a594-4632-aa14-e3000e78c1a5","ios":"levelo://app?vid=11dafa57-a594-4632-aa14-e3000e78c1a5"},"vehicle_type_id":"4","last_reported":1752181851,"current_range_meters":11200,"station_id":"ce4bh312rcd13ifvqdj0","pricing_plan_id":"cebpf4jnsgd1na2vs0mg"},{"bike_id":"6cce0d28-332b-405a-b2ca-f9b015fec520","system_id":"levelo_inurba_marseille","lat":43.27812,"lon":5.40715,"is_reserved":false,"is_disabled":false,"rental_uris":{"android":"levelo://app?vid=6cce0d28-332b-405a-b2ca-f9b015fec520","ios":"levelo://app?vid=6cce0d28-332b-405a-b2ca-f9b015fec520"},"vehicle_type_id":"4","last_reported":1752181851,"current_range_meters":10800,"station_id":"ce4bhnh2rcd13ifvqgtg","pricing_plan_id":"cebpf4jnsgd1na2vs0mg"},{"bike_id":"e204274b-73ad-4c6f-862d-8af730ce2e2b","system_id":"levelo_inurba_marseille","lat":43.29575,"lon":5.42343,"is_reserved":false,"is_disabled":false,"rental_uris":{"android":"levelo://app?vid=e204274b-73ad-4c6f-862d-8af730ce2e2b","ios":"levelo://app?vid=e204274b-73ad-4c6f-862d-8af730ce2e2b"},"vehicle_type_id":"4","last_reported":1752181851,"current_range_meters":11200,"station_id":"ce4bhph2rcd13ifvqhdg","pricing_plan_id":"cebpf4jnsgd1na2vs0mg"},{"bike_id":"12a40eac-7ba3-4115-8455-e8517f0ed9dd","system_id":"levelo_inurba_marseille","lat":43.29592,"lon":5.39973,"is_reserved":false,"is_disabled":false,"rental_uris":{"android":"levelo://app?vid=12a40eac-7ba3-4115-8455-e8517f0ed9dd","ios":"levelo://app?vid=12a40eac-7ba3-4115-8455-e8517f0ed9dd"},"vehicle_type_id":"4","last_reported":1752181851,"current_range_meters":11600,"station_id":"ce4bh312rcd13ifvqdj0","pricing_plan_id":"cebpf4jnsgd1na2vs0mg"},{"bike_id":"89fea943-decb-4f8b-b44a-516a9588c4d8","system_id":"levelo_inurba_marseille","lat":43.32296,"lon":5.38269,"is_reserved":false,"is_disabled":false,"rental_uris":{"android":"levelo://app?vid=89fea943-decb-4f8b-b44a-516a9588c4d8","ios":"levelo://app?vid=89fea943-decb-4f8b-b44a-516a9588c4d8"},"vehicle_type_id":"4","last_reported":1752181851,"current_range_meters":11600,"station_id":"ce4bhr12rcd13ifvqhqg","pricing_plan_id":"cebpf4jnsgd1na2vs0mg"},{"bike_id":"feaa7e3a-cbe4-4489-be11-8a12d7eec173","system_id":"levelo_inurba_marseille","lat":43.25156,"lon":5.42541,"is_reserved":false,"is_disabled":false,"rental_uris":{"android":"levelo://app?vid=feaa7e3a-cbe4-4489-be11-8a12d7eec173","ios":"levelo://app?vid=feaa7e3a-cbe4-4489-be11-8a12d7eec173"},"vehicle_type_id":"4","last_reported":1752181851,"current_range_meters":11600,"station_id":"","pricing_plan_id":"cebpf4jnsgd1na2vs0mg"},{"bike_id":"7a857438-decf-4393-b0be-21e524007d2f","system_id":"levelo_inurba_marseille","lat":43.28405,"lon":5.3751,"is_reserved":false,"is_disabled":false,"rental_uris":{"android":"levelo://app?vid=7a857438-decf-4393-b0be-21e524007d2f","ios":"levelo://app?vid=7a857438-decf-4393-b0be-21e524007d2f"},"vehicle_type_id":"4","last_reported":1752181851,"current_range_meters":12000,"station_id":"ce4bh412rcd13ifvqds0","pricing_plan_id":"cebpf4jnsgd1na2vs0mg"},{"bike_id":"0c3ef97b-97eb-4273-8688-c44e748d207b","system_id":"levelo_inurba_marseille","lat":43.34932,"lon":5.39924,"is_reserved":false,"is_disabled":false,"rental_uris":{"android":"levelo://app?vid=0c3ef97b-97eb-4273-8688-c44e748d207b","ios":"levelo://app?vid=0c3ef97b-97eb-4273-8688-c44e748d207b"},"vehicle_type_id":"4","last_reported":1752181851,"current_range_meters":12000,"station_id":"","pricing_plan_id":"cebpf4jnsgd1na2vs0mg"},{"bike_id":"327c05a0-88d6-46d5-829f-37056c043786","system_id":"levelo_inurba_marseille","lat":43.30129,"lon":5.39887,"is_reserved":false,"is_disabled":true,"rental_uris":{"android":"levelo://app?vid=327c05a0-88d6-46d5-829f-37056c043786","ios":"levelo://app?vid=327c05a0-88d6-46d5-829f-37056c043786"},"vehicle_type_id":"4","last_reported":1752181851,"current_range_meters":12000,"station_id":"ce4bh0h2rcd13ifvqd40","pricing_plan_id":"cebpf4jnsgd1na2vs0mg"},{"bike_id":"b2ec9c3e-6575-40fd-b4ce-966c9776d017","system_id":"levelo_inurba_marseille","lat":43.29966,"lon":5.38497,"is_reserved":false,"is_disabled":false,"rental_uris":{"android":"levelo://app?vid=b2ec9c3e-6575-40fd-b4ce-966c9776d017","ios":"levelo://app?vid=b2ec9c3e-6575-40fd-b4ce-966c9776d017"},"vehicle_type_id":"4","last_reported":1752181851,"current_range_meters":12000,"station_id":"ce4bgj92rcd13ifvqbd0","pricing_plan_id":"cebpf4jnsgd1na2vs0mg"},{"bike_id":"9e84f726-bca4-4be5-89aa-118290d5b915","system_id":"levelo_inurba_marseille","lat":43.31351,"lon":5.38533,"is_reserved":false,"is_disabled":false,"rental_uris":{"android":"levelo://app?vid=9e84f726-bca4-4be5-89aa-118290d5b915","ios":"levelo://app?vid=9e84f726-bca4-4be5-89aa-118290d5b915"},"vehicle_type_id":"4","last_reported":1752181851,"current_range_meters":12000,"station_id":"ce4bgt92rcd13ifvqcf0","pricing_plan_id":"cebpf4jnsgd1na2vs0mg"},{"bike_id":"09dbbf2e-30f7-41d5-b603-1516e2db67b3","system_id":"levelo_inurba_marseille","lat":43.29535,"lon":5.38546,"is_reserved":false,"is_disabled":false,"rental_uris":{"android":"levelo://app?vid=09dbbf2e-30f7-41d5-b603-1516e2db67b3","ios":"levelo://app?vid=09dbbf2e-30f7-41d5-b603-1516e2db67b3"},"vehicle_type_id":"4","last_reported":1752181851,"current_range_meters":12000,"station_id":"ce4bgih2rcd13ifvqba0","pricing_plan_id":"cebpf4jnsgd1na2vs0mg"},{"bike_id":"d4fef870-f3df-418c-b45a-632453acc9ad","system_id":"levelo_inurba_marseille","lat":43.22497,"lon":5.34785,"is_reserved":false,"is_disabled":false,"rental_uris":{"android":"levelo://app?vid=d4fef870-f3df-418c-b45a-632453acc9ad","ios":"levelo://app?vid=d4fef870-f3df-418c-b45a-632453acc9ad"},"vehicle_type_id":"4","last_reported":1752181851,"current_range_meters":12000,"station_id":"st_cvj5dfep6f1abm77gieg","pricing_plan_id":"cebpf4jnsgd1na2vs0mg"},{"bike_id":"15974513-bec7-4627-8aa4-71f313ec38ca","system_id":"levelo_inurba_marseille","lat":43.301476,"lon":5.380742,"is_reserved":false,"is_disabled":false,"rental_uris":{"android":"levelo://app?vid=15974513-bec7-4627-8aa4-71f313ec38ca","ios":"levelo://app?vid=15974513-bec7-4627-8aa4-71f313ec38ca"},"vehicle_type_id":"4","last_reported":1752181851,"current_range_meters":12000,"station_id":"ce4bgjp2rcd13ifvqbh0","pricing_plan_id":"cebpf4jnsgd1na2vs0mg"},{"bike_id":"00e4f9e9-927d-4e42-b941-5ffe272700b4","system_id":"levelo_inurba_marseille","lat":43.30096,"lon":5.39086,"is_reserved":false,"is_disabled":false,"rental_uris":{"android":"levelo://app?vid=00e4f9e9-927d-4e42-b941-5ffe272700b4","ios":"levelo://app?vid=00e4f9e9-927d-4e42-b941-5ffe272700b4"},"vehicle_type_id":"4","last_reported":1752181851,"current_range_meters":11600,"station_id":"ce4bh192rcd13ifvqdb0","pricing_plan_id":"cebpf4jnsgd1na2vs0mg"},{"bike_id":"351f047f-d7d8-416b-9bab-8f1a9ad4f50b","system_id":"levelo_inurba_marseille","lat":43.292584,"lon":5.36846,"is_reserved":false,"is_disabled":false,"rental_uris":{"android":"levelo://app?vid=351f047f-d7d8-416b-9bab-8f1a9ad4f50b","ios":"levelo://app?vid=351f047f-d7d8-416b-9bab-8f1a9ad4f50b"},"vehicle_type_id":"4","last_reported":1752181851,"current_range_meters":12000,"station_id":"","pricing_plan_id":"cebpf4jnsgd1na2vs0mg"},{"bike_id":"617e783f-a9d7-4849-ad46-77a5a2df45f2","system_id":"levelo_inurba_marseille","lat":43.29564,"lon":5.37514,"is_reserved":false,"is_disabled":true,"rental_uris":{"android":"levelo://app?vid=617e783f-a9d7-4849-ad46-77a5a2df45f2","ios":"levelo://app?vid=617e783f-a9d7-4849-ad46-77a5a2df45f2"},"vehicle_type_id":"4","last_reported":1752181851,"current_range_meters":12400,"station_id":"ce4bgh92rcd13ifvqb50","pricing_plan_id":"cebpf4jnsgd1na2vs0mg"},{"bike_id":"d6c31952-2ba1-4aaa-8ac6-df214607add1","system_id":"levelo_inurba_marseille","lat":43.29533,"lon":5.385426,"is_reserved":false,"is_disabled":false,"rental_uris":{"android":"levelo://app?vid=d6c31952-2ba1-4aaa-8ac6-df214607add1","ios":"levelo://app?vid=d6c31952-2ba1-4aaa-8ac6-df214607add1"},"vehicle_type_id":"4","last_reported":1752181851,"current_range_meters":12400,"station_id":"ce4bgih2rcd13ifvqba0","pricing_plan_id":"cebpf4jnsgd1na2vs0mg"},{"bike_id":"73fe94e8-74f9-41f0-85e9-7d8c52adf2fc","system_id":"levelo_inurba_marseille","lat":43.212704,"lon":5.352856,"is_reserved":false,"is_disabled":false,"rental_uris":{"android":"levelo://app?vid=73fe94e8-74f9-41f0-85e9-7d8c52adf2fc","ios":"levelo://app?vid=73fe94e8-74f9-41f0-85e9-7d8c52adf2fc"},"vehicle_type_id":"4","last_reported":1752181851,"current_range_meters":12400,"station_id":"","pricing_plan_id":"cebpf4jnsgd1na2vs0mg"},{"bike_id":"add44911-5600-48be-8f26-1afc6b20a196","system_id":"levelo_inurba_marseille","lat":43.28571,"lon":5.39494,"is_reserved":false,"is_disabled":false,"rental_uris":{"android":"levelo://app?vid=add44911-5600-48be-8f26-1afc6b20a196","ios":"levelo://app?vid=add44911-5600-48be-8f26-1afc6b20a196"},"vehicle_type_id":"4","last_reported":1752181851,"current_range_meters":12400,"station_id":"ce4bh292rcd13ifvqdg0","pricing_plan_id":"cebpf4jnsgd1na2vs0mg"},{"bike_id":"fa1301bd-2b82-4370-ac64-3a865e539776","system_id":"levelo_inurba_marseille","lat":43.28579,"lon":5.40413,"is_reserved":false,"is_disabled":false,"rental_uris":{"android":"levelo://app?vid=fa1301bd-2b82-4370-ac64-3a865e539776","ios":"levelo://app?vid=fa1301bd-2b82-4370-ac64-3a865e539776"},"vehicle_type_id":"4","last_reported":1752181851,"current_range_meters":12400,"station_id":"","pricing_plan_id":"cebpf4jnsgd1na2vs0mg"},{"bike_id":"64f60014-d079-437d-b4a6-21db67d82f7f","system_id":"levelo_inurba_marseille","lat":43.31365,"lon":5.38493,"is_reserved":false,"is_disabled":false,"rental_uris":{"android":"levelo://app?vid=64f60014-d079-437d-b4a6-21db67d82f7f","ios":"levelo://app?vid=64f60014-d079-437d-b4a6-21db67d82f7f"},"vehicle_type_id":"4","last_reported":1752181851,"current_range_meters":12400,"station_id":"ce4bgt92rcd13ifvqcf0","pricing_plan_id":"cebpf4jnsgd1na2vs0mg"},{"bike_id":"96d0e48f-1d19-4d1d-bd6a-f642438fe9ea","system_id":"levelo_inurba_marseille","lat":43.29419,"lon":5.38634,"is_reserved":false,"is_disabled":false,"rental_uris":{"android":"levelo://app?vid=96d0e48f-1d19-4d1d-bd6a-f642438fe9ea","ios":"levelo://app?vid=96d0e48f-1d19-4d1d-bd6a-f642438fe9ea"},"vehicle_type_id":"4","last_reported":1752181851,"current_range_meters":12400,"station_id":"ce4bh2h2rcd13ifvqdh0","pricing_plan_id":"cebpf4jnsgd1na2vs0mg"},{"bike_id":"83e297d7-8d66-4763-8949-0b70ff37184c","system_id":"levelo_inurba_marseille","lat":43.292639,"lon":5.384406,"is_reserved":false,"is_disabled":false,"rental_uris":{"android":"levelo://app?vid=83e297d7-8d66-4763-8949-0b70ff37184c","ios":"levelo://app?vid=83e297d7-8d66-4763-8949-0b70ff37184c"},"vehicle_type_id":"4","last_reported":1752181851,"current_range_meters":12400,"station_id":"ce4bh192rcd13ifvqdc0","pricing_plan_id":"cebpf4jnsgd1na2vs0mg"},{"bike_id":"2d966806-1407-47d0-808f-edec3334a498","system_id":"levelo_inurba_marseille","lat":43.29048,"lon":5.39944,"is_reserved":false,"is_disabled":false,"rental_uris":{"android":"levelo://app?vid=2d966806-1407-47d0-808f-edec3334a498","ios":"levelo://app?vid=2d966806-1407-47d0-808f-edec3334a498"},"vehicle_type_id":"4","last_reported":1752181851,"current_range_meters":12800,"station_id":"ce4bh392rcd13ifvqdm0","pricing_plan_id":"cebpf4jnsgd1na2vs0mg"},{"bike_id":"839e399f-0e94-48ea-9f97-2024f3e3faec","system_id":"levelo_inurba_marseille","lat":43.31167,"lon":5.38727,"is_reserved":false,"is_disabled":false,"rental_uris":{"android":"levelo://app?vid=839e399f-0e94-48ea-9f97-2024f3e3faec","ios":"levelo://app?vid=839e399f-0e94-48ea-9f97-2024f3e3faec"},"vehicle_type_id":"4","last_reported":1752181851,"current_range_meters":12400,"station_id":"ce4bgv12rcd13ifvqcp0","pricing_plan_id":"cebpf4jnsgd1na2vs0mg"},{"bike_id":"8931bc45-0898-43b3-b812-6f166e126c5a","system_id":"levelo_inurba_marseille","lat":43.29709,"lon":5.36616,"is_reserved":false,"is_disabled":false,"rental_uris":{"android":"levelo://app?vid=8931bc45-0898-43b3-b812-6f166e126c5a","ios":"levelo://app?vid=8931bc45-0898-43b3-b812-6f166e126c5a"},"vehicle_type_id":"4","last_reported":1752181851,"current_range_meters":12400,"station_id":"ce4bgn12rcd13ifvqbt0","pricing_plan_id":"cebpf4jnsgd1na2vs0mg"},{"bike_id":"ddb9be4f-f3f8-43f9-aa75-a62ae12dac83","system_id":"levelo_inurba_marseille","lat":43.29048,"lon":5.39963,"is_reserved":false,"is_disabled":true,"rental_uris":{"android":"levelo://app?vid=ddb9be4f-f3f8-43f9-aa75-a62ae12dac83","ios":"levelo://app?vid=ddb9be4f-f3f8-43f9-aa75-a62ae12dac83"},"vehicle_type_id":"4","last_reported":1752181851,"current_range_meters":12800,"station_id":"ce4bh392rcd13ifvqdm0","pricing_plan_id":"cebpf4jnsgd1na2vs0mg"},{"bike_id":"985db6cd-eb32-402a-9a7e-453c37ec0db0","system_id":"levelo_inurba_marseille","lat":43.28701,"lon":5.37428,"is_reserved":false,"is_disabled":false,"rental_uris":{"android":"levelo://app?vid=985db6cd-eb32-402a-9a7e-453c37ec0db0","ios":"levelo://app?vid=985db6cd-eb32-402a-9a7e-453c37ec0db0"},"vehicle_type_id":"4","last_reported":1752181851,"current_range_meters":12800,"station_id":"ce4bh3p2rcd13ifvqdq0","pricing_plan_id":"cebpf4jnsgd1na2vs0mg"},{"bike_id":"f373e4a8-33e3-4f72-ae8e-e7ab386910f4","system_id":"levelo_inurba_marseille","lat":43.22488,"lon":5.34786,"is_reserved":false,"is_disabled":false,"rental_uris":{"android":"levelo://app?vid=f373e4a8-33e3-4f72-ae8e-e7ab386910f4","ios":"levelo://app?vid=f373e4a8-33e3-4f72-ae8e-e7ab386910f4"},"vehicle_type_id":"4","last_reported":1752181851,"current_range_meters":12800,"station_id":"st_cvj5dfep6f1abm77gieg","pricing_plan_id":"cebpf4jnsgd1na2vs0mg"},{"bike_id":"d738154a-b7a8-47ee-b4de-b37e92312c88","system_id":"levelo_inurba_marseille","lat":43.26177,"lon":5.37049,"is_reserved":false,"is_disabled":false,"rental_uris":{"android":"levelo://app?vid=d738154a-b7a8-47ee-b4de-b37e92312c88","ios":"levelo://app?vid=d738154a-b7a8-47ee-b4de-b37e92312c88"},"vehicle_type_id":"4","last_reported":1752181851,"current_range_meters":12800,"station_id":"","pricing_plan_id":"cebpf4jnsgd1na2vs0mg"},{"bike_id":"8e860161-91cc-46a3-9372-6e9fb6af5506","system_id":"levelo_inurba_marseille","lat":43.27173,"lon":5.40996,"is_reserved":false,"is_disabled":false,"rental_uris":{"android":"levelo://app?vid=8e860161-91cc-46a3-9372-6e9fb6af5506","ios":"levelo://app?vid=8e860161-91cc-46a3-9372-6e9fb6af5506"},"vehicle_type_id":"4","last_reported":1752181851,"current_range_meters":12400,"station_id":"ce4bhl12rcd13ifvqgf0","pricing_plan_id":"cebpf4jnsgd1na2vs0mg"},{"bike_id":"baaae71e-2261-4694-abbd-b828bff19123","system_id":"levelo_inurba_marseille","lat":43.26491,"lon":5.39543,"is_reserved":false,"is_disabled":false,"rental_uris":{"android":"levelo://app?vid=baaae71e-2261-4694-abbd-b828bff19123","ios":"levelo://app?vid=baaae71e-2261-4694-abbd-b828bff19123"},"vehicle_type_id":"4","last_reported":1752181851,"current_range_meters":12800,"station_id":"ce4bhi12rcd13ifvqfq0","pricing_plan_id":"cebpf4jnsgd1na2vs0mg"},{"bike_id":"5824cde0-9706-464d-b5a4-07467c072f73","system_id":"levelo_inurba_marseille","lat":43.23185,"lon":5.39989,"is_reserved":false,"is_disabled":false,"rental_uris":{"android":"levelo://app?vid=5824cde0-9706-464d-b5a4-07467c072f73","ios":"levelo://app?vid=5824cde0-9706-464d-b5a4-07467c072f73"},"vehicle_type_id":"4","last_reported":1752181851,"current_range_meters":12800,"station_id":"ce4bhn12rcd13ifvqgqg","pricing_plan_id":"cebpf4jnsgd1na2vs0mg"},{"bike_id":"9170c84f-1e08-4a38-9a8d-99eea069f295","system_id":"levelo_inurba_marseille","lat":43.2694,"lon":5.40255,"is_reserved":false,"is_disabled":false,"rental_uris":{"android":"levelo://app?vid=9170c84f-1e08-4a38-9a8d-99eea069f295","ios":"levelo://app?vid=9170c84f-1e08-4a38-9a8d-99eea069f295"},"vehicle_type_id":"4","last_reported":1752181851,"current_range_meters":13600,"station_id":"cjm6bp8fraef2m0cb0m0","pricing_plan_id":"cebpf4jnsgd1na2vs0mg"},{"bike_id":"99aedd7f-b8c7-4995-b806-4ad855a814ec","system_id":"levelo_inurba_marseille","lat":43.2923,"lon":5.40911,"is_reserved":false,"is_disabled":false,"rental_uris":{"android":"levelo://app?vid=99aedd7f-b8c7-4995-b806-4ad855a814ec","ios":"levelo://app?vid=99aedd7f-b8c7-4995-b806-4ad855a814ec"},"vehicle_type_id":"4","last_reported":1752181851,"current_range_meters":13600,"station_id":"ce4bh192rcd13ifvqdc0","pricing_plan_id":"cebpf4jnsgd1na2vs0mg"},{"bike_id":"7dfadad4-fd3f-4331-b210-ab764b7ae19e","system_id":"levelo_inurba_marseille","lat":43.28488,"lon":5.38571,"is_reserved":false,"is_disabled":false,"rental_uris":{"android":"levelo://app?vid=7dfadad4-fd3f-4331-b210-ab764b7ae19e","ios":"levelo://app?vid=7dfadad4-fd3f-4331-b210-ab764b7ae19e"},"vehicle_type_id":"4","last_reported":1752181851,"current_range_meters":13600,"station_id":"ce4bh8p2rcd13ifvqeb0","pricing_plan_id":"cebpf4jnsgd1na2vs0mg"},{"bike_id":"12f87bdf-ebfd-4382-a2f1-b42d9240ea6e","system_id":"levelo_inurba_marseille","lat":43.28975,"lon":5.37831,"is_reserved":false,"is_disabled":false,"rental_uris":{"android":"levelo://app?vid=12f87bdf-ebfd-4382-a2f1-b42d9240ea6e","ios":"levelo://app?vid=12f87bdf-ebfd-4382-a2f1-b42d9240ea6e"},"vehicle_type_id":"4","last_reported":1752181851,"current_range_meters":13600,"station_id":"ce4bh9p2rcd13ifvqed0","pricing_plan_id":"cebpf4jnsgd1na2vs0mg"},{"bike_id":"9e85fef3-7ce8-4489-86fd-be94ef6895c6","system_id":"levelo_inurba_marseille","lat":43.30106,"lon":5.36529,"is_reserved":false,"is_disabled":false,"rental_uris":{"android":"levelo://app?vid=9e85fef3-7ce8-4489-86fd-be94ef6895c6","ios":"levelo://app?vid=9e85fef3-7ce8-4489-86fd-be94ef6895c6"},"vehicle_type_id":"4","last_reported":1752181851,"current_range_meters":13600,"station_id":"","pricing_plan_id":"cebpf4jnsgd1na2vs0mg"},{"bike_id":"e755442d-8544-4152-b94a-842e80ebaddd","system_id":"levelo_inurba_marseille","lat":43.248233,"lon":5.374473,"is_reserved":false,"is_disabled":true,"rental_uris":{"android":"levelo://app?vid=e755442d-8544-4152-b94a-842e80ebaddd","ios":"levelo://app?vid=e755442d-8544-4152-b94a-842e80ebaddd"},"vehicle_type_id":"4","last_reported":1752181851,"current_range_meters":13600,"station_id":"ce4bhgh2rcd13ifvqfb0","pricing_plan_id":"cebpf4jnsgd1na2vs0mg"},{"bike_id":"5e3de7c8-3182-4a73-8e5c-d4ae2028ef6e","system_id":"levelo_inurba_marseille","lat":43.217463,"lon":5.346037,"is_reserved":false,"is_disabled":false,"rental_uris":{"android":"levelo://app?vid=5e3de7c8-3182-4a73-8e5c-d4ae2028ef6e","ios":"levelo://app?vid=5e3de7c8-3182-4a73-8e5c-d4ae2028ef6e"},"vehicle_type_id":"4","last_reported":1752181851,"current_range_meters":13600,"station_id":"","pricing_plan_id":"cebpf4jnsgd1na2vs0mg"},{"bike_id":"2594e65f-dea1-4a23-9d41-fd36c7c261a9","system_id":"levelo_inurba_marseille","lat":43.29519,"lon":5.38541,"is_reserved":false,"is_disabled":false,"rental_uris":{"android":"levelo://app?vid=2594e65f-dea1-4a23-9d41-fd36c7c261a9","ios":"levelo://app?vid=2594e65f-dea1-4a23-9d41-fd36c7c261a9"},"vehicle_type_id":"4","last_reported":1752181851,"current_range_meters":13600,"station_id":"ce4bgih2rcd13ifvqba0","pricing_plan_id":"cebpf4jnsgd1na2vs0mg"},{"bike_id":"f4d8afa1-8f4d-42c0-b795-8a2d2ea9a8de","system_id":"levelo_inurba_marseille","lat":43.27835,"lon":5.40751,"is_reserved":false,"is_disabled":false,"rental_uris":{"android":"levelo://app?vid=f4d8afa1-8f4d-42c0-b795-8a2d2ea9a8de","ios":"levelo://app?vid=f4d8afa1-8f4d-42c0-b795-8a2d2ea9a8de"},"vehicle_type_id":"4","last_reported":1752181851,"current_range_meters":13600,"station_id":"ce4bhnh2rcd13ifvqgtg","pricing_plan_id":"cebpf4jnsgd1na2vs0mg"},{"bike_id":"d3e8264f-5e78-41b8-b5b0-557e389e6623","system_id":"levelo_inurba_marseille","lat":43.31371,"lon":5.37159,"is_reserved":false,"is_disabled":false,"rental_uris":{"android":"levelo://app?vid=d3e8264f-5e78-41b8-b5b0-557e389e6623","ios":"levelo://app?vid=d3e8264f-5e78-41b8-b5b0-557e389e6623"},"vehicle_type_id":"4","last_reported":1752181851,"current_range_meters":13600,"station_id":"","pricing_plan_id":"cebpf4jnsgd1na2vs0mg"},{"bike_id":"585b801e-88b9-440e-897a-864ee0a6b543","system_id":"levelo_inurba_marseille","lat":43.32665,"lon":5.40996,"is_reserved":false,"is_disabled":false,"rental_uris":{"android":"levelo://app?vid=585b801e-88b9-440e-897a-864ee0a6b543","ios":"levelo://app?vid=585b801e-88b9-440e-897a-864ee0a6b543"},"vehicle_type_id":"4","last_reported":1752181851,"current_range_meters":14000,"station_id":"ce4bhpp2rcd13ifvqhgg","pricing_plan_id":"cebpf4jnsgd1na2vs0mg"},{"bike_id":"b0af6047-74f5-4d02-b187-6e3c116954cd","system_id":"levelo_inurba_marseille","lat":43.30088,"lon":5.39068,"is_reserved":false,"is_disabled":false,"rental_uris":{"android":"levelo://app?vid=b0af6047-74f5-4d02-b187-6e3c116954cd","ios":"levelo://app?vid=b0af6047-74f5-4d02-b187-6e3c116954cd"},"vehicle_type_id":"4","last_reported":1752181851,"current_range_meters":14000,"station_id":"ce4bh192rcd13ifvqdb0","pricing_plan_id":"cebpf4jnsgd1na2vs0mg"},{"bike_id":"7f2f2937-2eee-42a3-a8a8-eaa2c470af40","system_id":"levelo_inurba_marseille","lat":43.29252,"lon":5.38471,"is_reserved":false,"is_disabled":false,"rental_uris":{"android":"levelo://app?vid=7f2f2937-2eee-42a3-a8a8-eaa2c470af40","ios":"levelo://app?vid=7f2f2937-2eee-42a3-a8a8-eaa2c470af40"},"vehicle_type_id":"4","last_reported":1752181851,"current_range_meters":14000,"station_id":"ce4bh692rcd13ifvqea0","pricing_plan_id":"cebpf4jnsgd1na2vs0mg"},{"bike_id":"1118a94d-9059-40a5-a38a-f57a9d078769","system_id":"levelo_inurba_marseille","lat":43.26226,"lon":5.4045,"is_reserved":false,"is_disabled":false,"rental_uris":{"android":"levelo://app?vid=1118a94d-9059-40a5-a38a-f57a9d078769","ios":"levelo://app?vid=1118a94d-9059-40a5-a38a-f57a9d078769"},"vehicle_type_id":"4","last_reported":1752181851,"current_range_meters":14000,"station_id":"ce4bhmh2rcd13ifvqgmg","pricing_plan_id":"cebpf4jnsgd1na2vs0mg"},{"bike_id":"9f5e74ce-2459-4c6f-a171-f6d1e8a1ed83","system_id":"levelo_inurba_marseille","lat":43.31855,"lon":5.37589,"is_reserved":false,"is_disabled":false,"rental_uris":{"android":"levelo://app?vid=9f5e74ce-2459-4c6f-a171-f6d1e8a1ed83","ios":"levelo://app?vid=9f5e74ce-2459-4c6f-a171-f6d1e8a1ed83"},"vehicle_type_id":"4","last_reported":1752181851,"current_range_meters":14000,"station_id":"","pricing_plan_id":"cebpf4jnsgd1na2vs0mg"},{"bike_id":"279239b3-c162-41b2-ba5e-9ac60a7989aa","system_id":"levelo_inurba_marseille","lat":43.27047,"lon":5.42303,"is_reserved":false,"is_disabled":false,"rental_uris":{"android":"levelo://app?vid=279239b3-c162-41b2-ba5e-9ac60a7989aa","ios":"levelo://app?vid=279239b3-c162-41b2-ba5e-9ac60a7989aa"},"vehicle_type_id":"4","last_reported":1752181851,"current_range_meters":14400,"station_id":"ce4bhk92rcd13ifvqgb0","pricing_plan_id":"cebpf4jnsgd1na2vs0mg"},{"bike_id":"cb0890e8-3c02-4962-99e3-73812f6ce8d5","system_id":"levelo_inurba_marseille","lat":43.29546,"lon":5.42301,"is_reserved":false,"is_disabled":false,"rental_uris":{"android":"levelo://app?vid=cb0890e8-3c02-4962-99e3-73812f6ce8d5","ios":"levelo://app?vid=cb0890e8-3c02-4962-99e3-73812f6ce8d5"},"vehicle_type_id":"4","last_reported":1752181851,"current_range_meters":14400,"station_id":"ce4bhph2rcd13ifvqhdg","pricing_plan_id":"cebpf4jnsgd1na2vs0mg"},{"bike_id":"88131231-f86c-45fb-b80a-eb551efcb680","system_id":"levelo_inurba_marseille","lat":43.30885,"lon":5.39656,"is_reserved":false,"is_disabled":false,"rental_uris":{"android":"levelo://app?vid=88131231-f86c-45fb-b80a-eb551efcb680","ios":"levelo://app?vid=88131231-f86c-45fb-b80a-eb551efcb680"},"vehicle_type_id":"4","last_reported":1752181851,"current_range_meters":14400,"station_id":"ce4bh012rcd13ifvqcv0","pricing_plan_id":"cebpf4jnsgd1na2vs0mg"},{"bike_id":"bab4aecf-1994-4ebc-8abd-f3d3961f7afa","system_id":"levelo_inurba_marseille","lat":43.30259,"lon":5.4008,"is_reserved":false,"is_disabled":false,"rental_uris":{"android":"levelo://app?vid=bab4aecf-1994-4ebc-8abd-f3d3961f7afa","ios":"levelo://app?vid=bab4aecf-1994-4ebc-8abd-f3d3961f7afa"},"vehicle_type_id":"4","last_reported":1752181851,"current_range_meters":14400,"station_id":"ce4bgvh2rcd13ifvqcs0","pricing_plan_id":"cebpf4jnsgd1na2vs0mg"},{"bike_id":"7087604d-09b1-43cb-912a-403244697b02","system_id":"levelo_inurba_marseille","lat":43.301117,"lon":5.387895,"is_reserved":false,"is_disabled":false,"rental_uris":{"android":"levelo://app?vid=7087604d-09b1-43cb-912a-403244697b02","ios":"levelo://app?vid=7087604d-09b1-43cb-912a-403244697b02"},"vehicle_type_id":"4","last_reported":1752181851,"current_range_meters":14400,"station_id":"ce4bghh2rcd13ifvqb60","pricing_plan_id":"cebpf4jnsgd1na2vs0mg"},{"bike_id":"77a895c0-f47c-4ec3-a855-a3289edee2ca","system_id":"levelo_inurba_marseille","lat":43.27826,"lon":5.39202,"is_reserved":false,"is_disabled":true,"rental_uris":{"android":"levelo://app?vid=77a895c0-f47c-4ec3-a855-a3289edee2ca","ios":"levelo://app?vid=77a895c0-f47c-4ec3-a855-a3289edee2ca"},"vehicle_type_id":"4","last_reported":1752181851,"current_range_meters":14400,"station_id":"ce4bhjp2rcd13ifvqga0","pricing_plan_id":"cebpf4jnsgd1na2vs0mg"},{"bike_id":"04148f14-4cd8-42b8-8416-c87a9d5cb2a7","system_id":"levelo_inurba_marseille","lat":43.28456,"lon":5.35031,"is_reserved":false,"is_disabled":false,"rental_uris":{"android":"levelo://app?vid=04148f14-4cd8-42b8-8416-c87a9d5cb2a7","ios":"levelo://app?vid=04148f14-4cd8-42b8-8416-c87a9d5cb2a7"},"vehicle_type_id":"4","last_reported":1752181851,"current_range_meters":14400,"station_id":"","pricing_plan_id":"cebpf4jnsgd1na2vs0mg"},{"bike_id":"3bcfcea9-db06-4e8e-a7e9-7ec63fc20fc7","system_id":"levelo_inurba_marseille","lat":43.25493,"lon":5.37646,"is_reserved":false,"is_disabled":false,"rental_uris":{"android":"levelo://app?vid=3bcfcea9-db06-4e8e-a7e9-7ec63fc20fc7","ios":"levelo://app?vid=3bcfcea9-db06-4e8e-a7e9-7ec63fc20fc7"},"vehicle_type_id":"4","last_reported":1752181851,"current_range_meters":14400,"station_id":"ce4bhh12rcd13ifvqff0","pricing_plan_id":"cebpf4jnsgd1na2vs0mg"},{"bike_id":"75a09d9b-347a-4c64-aea1-aedcd9b900c9","system_id":"levelo_inurba_marseille","lat":43.29905,"lon":5.38502,"is_reserved":false,"is_disabled":false,"rental_uris":{"android":"levelo://app?vid=75a09d9b-347a-4c64-aea1-aedcd9b900c9","ios":"levelo://app?vid=75a09d9b-347a-4c64-aea1-aedcd9b900c9"},"vehicle_type_id":"4","last_reported":1752181851,"current_range_meters":14800,"station_id":"","pricing_plan_id":"cebpf4jnsgd1na2vs0mg"},{"bike_id":"94a6839a-d277-412b-8e5b-d64b5d375432","system_id":"levelo_inurba_marseille","lat":43.30616,"lon":5.37226,"is_reserved":false,"is_disabled":false,"rental_uris":{"android":"levelo://app?vid=94a6839a-d277-412b-8e5b-d64b5d375432","ios":"levelo://app?vid=94a6839a-d277-412b-8e5b-d64b5d375432"},"vehicle_type_id":"4","last_reported":1752181851,"current_range_meters":14000,"station_id":"ce4bgqh2rcd13ifvqc4g","pricing_plan_id":"cebpf4jnsgd1na2vs0mg"},{"bike_id":"4e209b0c-855f-4b51-8120-2faef8673853","system_id":"levelo_inurba_marseille","lat":43.30608,"lon":5.3689,"is_reserved":false,"is_disabled":false,"rental_uris":{"android":"levelo://app?vid=4e209b0c-855f-4b51-8120-2faef8673853","ios":"levelo://app?vid=4e209b0c-855f-4b51-8120-2faef8673853"},"vehicle_type_id":"4","last_reported":1752181851,"current_range_meters":14400,"station_id":"","pricing_plan_id":"cebpf4jnsgd1na2vs0mg"},{"bike_id":"5a7b57ef-a00d-4d19-853c-d49c119db95f","system_id":"levelo_inurba_marseille","lat":43.24566,"lon":5.3734,"is_reserved":false,"is_disabled":false,"rental_uris":{"android":"levelo://app?vid=5a7b57ef-a00d-4d19-853c-d49c119db95f","ios":"levelo://app?vid=5a7b57ef-a00d-4d19-853c-d49c119db95f"},"vehicle_type_id":"4","last_reported":1752181851,"current_range_meters":14800,"station_id":"","pricing_plan_id":"cebpf4jnsgd1na2vs0mg"},{"bike_id":"8330a68f-2f6e-4337-9657-35d7d87c04ca","system_id":"levelo_inurba_marseille","lat":43.25451,"lon":5.37946,"is_reserved":false,"is_disabled":false,"rental_uris":{"android":"levelo://app?vid=8330a68f-2f6e-4337-9657-35d7d87c04ca","ios":"levelo://app?vid=8330a68f-2f6e-4337-9657-35d7d87c04ca"},"vehicle_type_id":"4","last_reported":1752181851,"current_range_meters":14800,"station_id":"","pricing_plan_id":"cebpf4jnsgd1na2vs0mg"},{"bike_id":"927c9645-6e6a-41fd-9387-e46554372747","system_id":"levelo_inurba_marseille","lat":43.28482,"lon":5.38419,"is_reserved":false,"is_disabled":false,"rental_uris":{"android":"levelo://app?vid=927c9645-6e6a-41fd-9387-e46554372747","ios":"levelo://app?vid=927c9645-6e6a-41fd-9387-e46554372747"},"vehicle_type_id":"4","last_reported":1752181851,"current_range_meters":14800,"station_id":"ce4bh512rcd13ifvqe3g","pricing_plan_id":"cebpf4jnsgd1na2vs0mg"},{"bike_id":"56d67a48-639c-435a-ad95-a6016cfcc12e","system_id":"levelo_inurba_marseille","lat":43.29254,"lon":5.38441,"is_reserved":false,"is_disabled":false,"rental_uris":{"android":"levelo://app?vid=56d67a48-639c-435a-ad95-a6016cfcc12e","ios":"levelo://app?vid=56d67a48-639c-435a-ad95-a6016cfcc12e"},"vehicle_type_id":"4","last_reported":1752181851,"current_range_meters":14800,"station_id":"ce4bh692rcd13ifvqea0","pricing_plan_id":"cebpf4jnsgd1na2vs0mg"},{"bike_id":"fa87fcb5-aacb-41a1-a789-0296bbd02085","system_id":"levelo_inurba_marseille","lat":43.24588,"lon":5.3739,"is_reserved":false,"is_disabled":false,"rental_uris":{"android":"levelo://app?vid=fa87fcb5-aacb-41a1-a789-0296bbd02085","ios":"levelo://app?vid=fa87fcb5-aacb-41a1-a789-0296bbd02085"},"vehicle_type_id":"4","last_reported":1752181851,"current_range_meters":14800,"station_id":"","pricing_plan_id":"cebpf4jnsgd1na2vs0mg"},{"bike_id":"3a018df6-f07f-4996-a08e-f8489eb39ec1","system_id":"levelo_inurba_marseille","lat":43.2979,"lon":5.39337,"is_reserved":false,"is_disabled":false,"rental_uris":{"android":"levelo://app?vid=3a018df6-f07f-4996-a08e-f8489eb39ec1","ios":"levelo://app?vid=3a018df6-f07f-4996-a08e-f8489eb39ec1"},"vehicle_type_id":"4","last_reported":1752181851,"current_range_meters":15200,"station_id":"chh1huq6cuj3fo74tm60","pricing_plan_id":"cebpf4jnsgd1na2vs0mg"},{"bike_id":"a953bc11-7e5a-487f-95eb-f67a2fc6e6d6","system_id":"levelo_inurba_marseille","lat":43.2918,"lon":5.39325,"is_reserved":false,"is_disabled":false,"rental_uris":{"android":"levelo://app?vid=a953bc11-7e5a-487f-95eb-f67a2fc6e6d6","ios":"levelo://app?vid=a953bc11-7e5a-487f-95eb-f67a2fc6e6d6"},"vehicle_type_id":"4","last_reported":1752181851,"current_range_meters":15200,"station_id":"ce4bh192rcd13ifvqdd0","pricing_plan_id":"cebpf4jnsgd1na2vs0mg"},{"bike_id":"f9aae404-f3e1-4167-89c6-ab2f0d17db74","system_id":"levelo_inurba_marseille","lat":43.30939,"lon":5.40134,"is_reserved":false,"is_disabled":false,"rental_uris":{"android":"levelo://app?vid=f9aae404-f3e1-4167-89c6-ab2f0d17db74","ios":"levelo://app?vid=f9aae404-f3e1-4167-89c6-ab2f0d17db74"},"vehicle_type_id":"4","last_reported":1752181851,"current_range_meters":15200,"station_id":"ce4bgvp2rcd13ifvqct0","pricing_plan_id":"cebpf4jnsgd1na2vs0mg"},{"bike_id":"b842d059-27fe-4429-89c7-250a43e69f81","system_id":"levelo_inurba_marseille","lat":43.28721,"lon":5.37962,"is_reserved":false,"is_disabled":true,"rental_uris":{"android":"levelo://app?vid=b842d059-27fe-4429-89c7-250a43e69f81","ios":"levelo://app?vid=b842d059-27fe-4429-89c7-250a43e69f81"},"vehicle_type_id":"4","last_reported":1752181851,"current_range_meters":15200,"station_id":"ce4bh9p2rcd13ifvqec0","pricing_plan_id":"cebpf4jnsgd1na2vs0mg"},{"bike_id":"eb808631-7f2b-4efe-a9e5-541032677921","system_id":"levelo_inurba_marseille","lat":43.23187,"lon":5.35554,"is_reserved":false,"is_disabled":false,"rental_uris":{"android":"levelo://app?vid=eb808631-7f2b-4efe-a9e5-541032677921","ios":"levelo://app?vid=eb808631-7f2b-4efe-a9e5-541032677921"},"vehicle_type_id":"4","last_reported":1752181851,"current_range_meters":15200,"station_id":"ce4bhu92rcd13ifvqi70","pricing_plan_id":"cebpf4jnsgd1na2vs0mg"},{"bike_id":"a5a6c2c1-2d48-4581-8647-6eab6c0bbb54","system_id":"levelo_inurba_marseille","lat":43.263176,"lon":5.373846,"is_reserved":false,"is_disabled":false,"rental_uris":{"android":"levelo://app?vid=a5a6c2c1-2d48-4581-8647-6eab6c0bbb54","ios":"levelo://app?vid=a5a6c2c1-2d48-4581-8647-6eab6c0bbb54"},"vehicle_type_id":"4","last_reported":1752181851,"current_range_meters":16000,"station_id":"","pricing_plan_id":"cebpf4jnsgd1na2vs0mg"},{"bike_id":"a52717e1-d0f4-4ca2-b25e-9c370f784722","system_id":"levelo_inurba_marseille","lat":43.28964,"lon":5.37835,"is_reserved":false,"is_disabled":false,"rental_uris":{"android":"levelo://app?vid=a52717e1-d0f4-4ca2-b25e-9c370f784722","ios":"levelo://app?vid=a52717e1-d0f4-4ca2-b25e-9c370f784722"},"vehicle_type_id":"4","last_reported":1752181851,"current_range_meters":16000,"station_id":"ce4bh9p2rcd13ifvqed0","pricing_plan_id":"cebpf4jnsgd1na2vs0mg"},{"bike_id":"0ab3f00c-4b54-424c-8e6d-e6b4e5865f8f","system_id":"levelo_inurba_marseille","lat":43.29631,"lon":5.4059,"is_reserved":false,"is_disabled":false,"rental_uris":{"android":"levelo://app?vid=0ab3f00c-4b54-424c-8e6d-e6b4e5865f8f","ios":"levelo://app?vid=0ab3f00c-4b54-424c-8e6d-e6b4e5865f8f"},"vehicle_type_id":"4","last_reported":1752181851,"current_range_meters":16000,"station_id":"ce4bh0h2rcd13ifvqd60","pricing_plan_id":"cebpf4jnsgd1na2vs0mg"},{"bike_id":"5017c449-38fe-4160-848e-225e9c2e04c7","system_id":"levelo_inurba_marseille","lat":43.28086,"lon":5.4079,"is_reserved":false,"is_disabled":false,"rental_uris":{"android":"levelo://app?vid=5017c449-38fe-4160-848e-225e9c2e04c7","ios":"levelo://app?vid=5017c449-38fe-4160-848e-225e9c2e04c7"},"vehicle_type_id":"4","last_reported":1752181851,"current_range_meters":16000,"station_id":"","pricing_plan_id":"cebpf4jnsgd1na2vs0mg"},{"bike_id":"704d30d2-d208-4a4b-82a0-b7d43b158c20","system_id":"levelo_inurba_marseille","lat":43.23963,"lon":5.36628,"is_reserved":false,"is_disabled":false,"rental_uris":{"android":"levelo://app?vid=704d30d2-d208-4a4b-82a0-b7d43b158c20","ios":"levelo://app?vid=704d30d2-d208-4a4b-82a0-b7d43b158c20"},"vehicle_type_id":"4","last_reported":1752181851,"current_range_meters":16000,"station_id":"ce4bhi12rcd13ifvqfp0","pricing_plan_id":"cebpf4jnsgd1na2vs0mg"},{"bike_id":"3950523b-53a3-4062-93bd-1a5a252b3beb","system_id":"levelo_inurba_marseille","lat":43.29515,"lon":5.38542,"is_reserved":false,"is_disabled":false,"rental_uris":{"android":"levelo://app?vid=3950523b-53a3-4062-93bd-1a5a252b3beb","ios":"levelo://app?vid=3950523b-53a3-4062-93bd-1a5a252b3beb"},"vehicle_type_id":"4","last_reported":1752181851,"current_range_meters":16000,"station_id":"ce4bgih2rcd13ifvqba0","pricing_plan_id":"cebpf4jnsgd1na2vs0mg"},{"bike_id":"244216f5-da45-455a-9ae4-6f27d54c5a40","system_id":"levelo_inurba_marseille","lat":43.29907,"lon":5.38147,"is_reserved":false,"is_disabled":false,"rental_uris":{"android":"levelo://app?vid=244216f5-da45-455a-9ae4-6f27d54c5a40","ios":"levelo://app?vid=244216f5-da45-455a-9ae4-6f27d54c5a40"},"vehicle_type_id":"4","last_reported":1752181851,"current_range_meters":15200,"station_id":"ce4bgj12rcd13ifvqbc0","pricing_plan_id":"cebpf4jnsgd1na2vs0mg"},{"bike_id":"d464bfce-ce53-484e-a09e-2e6cb9cd227c","system_id":"levelo_inurba_marseille","lat":43.2997,"lon":5.38501,"is_reserved":false,"is_disabled":false,"rental_uris":{"android":"levelo://app?vid=d464bfce-ce53-484e-a09e-2e6cb9cd227c","ios":"levelo://app?vid=d464bfce-ce53-484e-a09e-2e6cb9cd227c"},"vehicle_type_id":"4","last_reported":1752181851,"current_range_meters":16000,"station_id":"ce4bgj92rcd13ifvqbd0","pricing_plan_id":"cebpf4jnsgd1na2vs0mg"},{"bike_id":"6994c34f-7b9e-4588-9c5d-f80e030067a1","system_id":"levelo_inurba_marseille","lat":43.32372,"lon":5.38859,"is_reserved":false,"is_disabled":false,"rental_uris":{"android":"levelo://app?vid=6994c34f-7b9e-4588-9c5d-f80e030067a1","ios":"levelo://app?vid=6994c34f-7b9e-4588-9c5d-f80e030067a1"},"vehicle_type_id":"4","last_reported":1752181851,"current_range_meters":16000,"station_id":"ce4bhqp2rcd13ifvqhog","pricing_plan_id":"cebpf4jnsgd1na2vs0mg"},{"bike_id":"5772e250-9a4a-4405-b042-d89f85e0d5a6","system_id":"levelo_inurba_marseille","lat":43.27493,"lon":5.42452,"is_reserved":false,"is_disabled":false,"rental_uris":{"android":"levelo://app?vid=5772e250-9a4a-4405-b042-d89f85e0d5a6","ios":"levelo://app?vid=5772e250-9a4a-4405-b042-d89f85e0d5a6"},"vehicle_type_id":"4","last_reported":1752181851,"current_range_meters":16000,"station_id":"ce4bhn92rcd13ifvqgrg","pricing_plan_id":"cebpf4jnsgd1na2vs0mg"},{"bike_id":"776d38c9-7636-4876-8205-f420c6bb384b","system_id":"levelo_inurba_marseille","lat":43.28979,"lon":5.378366,"is_reserved":false,"is_disabled":false,"rental_uris":{"android":"levelo://app?vid=776d38c9-7636-4876-8205-f420c6bb384b","ios":"levelo://app?vid=776d38c9-7636-4876-8205-f420c6bb384b"},"vehicle_type_id":"4","last_reported":1752181851,"current_range_meters":16000,"station_id":"ce4bh9p2rcd13ifvqed0","pricing_plan_id":"cebpf4jnsgd1na2vs0mg"},{"bike_id":"92f42638-9a88-4007-9c27-9b6ee6ce62fc","system_id":"levelo_inurba_marseille","lat":43.29778,"lon":5.39341,"is_reserved":false,"is_disabled":false,"rental_uris":{"android":"levelo://app?vid=92f42638-9a88-4007-9c27-9b6ee6ce62fc","ios":"levelo://app?vid=92f42638-9a88-4007-9c27-9b6ee6ce62fc"},"vehicle_type_id":"4","last_reported":1752181851,"current_range_meters":16000,"station_id":"chh1huq6cuj3fo74tm60","pricing_plan_id":"cebpf4jnsgd1na2vs0mg"},{"bike_id":"ee1ac907-8623-4d00-ac01-d41dd90be9fe","system_id":"levelo_inurba_marseille","lat":43.21157,"lon":5.3509,"is_reserved":false,"is_disabled":false,"rental_uris":{"android":"levelo://app?vid=ee1ac907-8623-4d00-ac01-d41dd90be9fe","ios":"levelo://app?vid=ee1ac907-8623-4d00-ac01-d41dd90be9fe"},"vehicle_type_id":"4","last_reported":1752181851,"current_range_meters":16000,"station_id":"st_cvj6sg6p6f1abm77japg","pricing_plan_id":"cebpf4jnsgd1na2vs0mg"},{"bike_id":"9a38b8ae-de57-4388-9942-2cd602d3a5ea","system_id":"levelo_inurba_marseille","lat":43.29571,"lon":5.42233,"is_reserved":false,"is_disabled":false,"rental_uris":{"android":"levelo://app?vid=9a38b8ae-de57-4388-9942-2cd602d3a5ea","ios":"levelo://app?vid=9a38b8ae-de57-4388-9942-2cd602d3a5ea"},"vehicle_type_id":"4","last_reported":1752181851,"current_range_meters":16000,"station_id":"","pricing_plan_id":"cebpf4jnsgd1na2vs0mg"},{"bike_id":"4c889a95-dcf5-429e-a7e4-528dbbdfb04b","system_id":"levelo_inurba_marseille","lat":43.30874,"lon":5.3964,"is_reserved":false,"is_disabled":false,"rental_uris":{"android":"levelo://app?vid=4c889a95-dcf5-429e-a7e4-528dbbdfb04b","ios":"levelo://app?vid=4c889a95-dcf5-429e-a7e4-528dbbdfb04b"},"vehicle_type_id":"4","last_reported":1752181851,"current_range_meters":16000,"station_id":"ce4bh012rcd13ifvqcv0","pricing_plan_id":"cebpf4jnsgd1na2vs0mg"},{"bike_id":"24b17f7b-dff1-4936-b27a-7c2c6813a894","system_id":"levelo_inurba_marseille","lat":43.24587,"lon":5.37387,"is_reserved":false,"is_disabled":false,"rental_uris":{"android":"levelo://app?vid=24b17f7b-dff1-4936-b27a-7c2c6813a894","ios":"levelo://app?vid=24b17f7b-dff1-4936-b27a-7c2c6813a894"},"vehicle_type_id":"4","last_reported":1752181851,"current_range_meters":16000,"station_id":"","pricing_plan_id":"cebpf4jnsgd1na2vs0mg"},{"bike_id":"1746d397-612f-47c9-94f0-ae0e40fad68b","system_id":"levelo_inurba_marseille","lat":43.239633,"lon":5.366214,"is_reserved":false,"is_disabled":true,"rental_uris":{"android":"levelo://app?vid=1746d397-612f-47c9-94f0-ae0e40fad68b","ios":"levelo://app?vid=1746d397-612f-47c9-94f0-ae0e40fad68b"},"vehicle_type_id":"4","last_reported":1752181851,"current_range_meters":16000,"station_id":"ce4bhi12rcd13ifvqfp0","pricing_plan_id":"cebpf4jnsgd1na2vs0mg"},{"bike_id":"87114dc8-d85f-4ae0-999e-bc71aca32fc1","system_id":"levelo_inurba_marseille","lat":43.26558,"lon":5.39008,"is_reserved":false,"is_disabled":false,"rental_uris":{"android":"levelo://app?vid=87114dc8-d85f-4ae0-999e-bc71aca32fc1","ios":"levelo://app?vid=87114dc8-d85f-4ae0-999e-bc71aca32fc1"},"vehicle_type_id":"4","last_reported":1752181851,"current_range_meters":16400,"station_id":"ce4bhe12rcd13ifvqf30","pricing_plan_id":"cebpf4jnsgd1na2vs0mg"},{"bike_id":"67a1c8bb-4e10-4d4c-8446-8fe730f54574","system_id":"levelo_inurba_marseille","lat":43.29417,"lon":5.38631,"is_reserved":false,"is_disabled":true,"rental_uris":{"android":"levelo://app?vid=67a1c8bb-4e10-4d4c-8446-8fe730f54574","ios":"levelo://app?vid=67a1c8bb-4e10-4d4c-8446-8fe730f54574"},"vehicle_type_id":"4","last_reported":1752181851,"current_range_meters":16400,"station_id":"ce4bh2h2rcd13ifvqdh0","pricing_plan_id":"cebpf4jnsgd1na2vs0mg"},{"bike_id":"040661d2-d8d2-4426-a85e-0e7aaf33ba5f","system_id":"levelo_inurba_marseille","lat":43.3061,"lon":5.39366,"is_reserved":false,"is_disabled":false,"rental_uris":{"android":"levelo://app?vid=040661d2-d8d2-4426-a85e-0e7aaf33ba5f","ios":"levelo://app?vid=040661d2-d8d2-4426-a85e-0e7aaf33ba5f"},"vehicle_type_id":"4","last_reported":1752181851,"current_range_meters":16400,"station_id":"ce4bh0p2rcd13ifvqd80","pricing_plan_id":"cebpf4jnsgd1na2vs0mg"},{"bike_id":"f6051ecb-40ed-4213-9fd5-ba7d19beb122","system_id":"levelo_inurba_marseille","lat":43.29271,"lon":5.38446,"is_reserved":false,"is_disabled":false,"rental_uris":{"android":"levelo://app?vid=f6051ecb-40ed-4213-9fd5-ba7d19beb122","ios":"levelo://app?vid=f6051ecb-40ed-4213-9fd5-ba7d19beb122"},"vehicle_type_id":"4","last_reported":1752181851,"current_range_meters":16400,"station_id":"ce4bh692rcd13ifvqea0","pricing_plan_id":"cebpf4jnsgd1na2vs0mg"},{"bike_id":"9fe19236-83b4-42cf-a851-036218958696","system_id":"levelo_inurba_marseille","lat":43.30472,"lon":5.37905,"is_reserved":false,"is_disabled":false,"rental_uris":{"android":"levelo://app?vid=9fe19236-83b4-42cf-a851-036218958696","ios":"levelo://app?vid=9fe19236-83b4-42cf-a851-036218958696"},"vehicle_type_id":"4","last_reported":1752181851,"current_range_meters":16400,"station_id":"ce4bgup2rcd13ifvqcn0","pricing_plan_id":"cebpf4jnsgd1na2vs0mg"},{"bike_id":"6737467a-fe5d-470c-a191-2df05ebbb3bb","system_id":"levelo_inurba_marseille","lat":43.22502,"lon":5.34779,"is_reserved":false,"is_disabled":false,"rental_uris":{"android":"levelo://app?vid=6737467a-fe5d-470c-a191-2df05ebbb3bb","ios":"levelo://app?vid=6737467a-fe5d-470c-a191-2df05ebbb3bb"},"vehicle_type_id":"4","last_reported":1752181851,"current_range_meters":16400,"station_id":"st_cvj5dfep6f1abm77gieg","pricing_plan_id":"cebpf4jnsgd1na2vs0mg"},{"bike_id":"f7681846-16dd-419f-a112-a6048a44d446","system_id":"levelo_inurba_marseille","lat":43.29501,"lon":5.38632,"is_reserved":false,"is_disabled":false,"rental_uris":{"android":"levelo://app?vid=f7681846-16dd-419f-a112-a6048a44d446","ios":"levelo://app?vid=f7681846-16dd-419f-a112-a6048a44d446"},"vehicle_type_id":"4","last_reported":1752181851,"current_range_meters":16400,"station_id":"","pricing_plan_id":"cebpf4jnsgd1na2vs0mg"},{"bike_id":"af1cde33-5506-4304-9bde-62aa1392a4b6","system_id":"levelo_inurba_marseille","lat":43.32365,"lon":5.38885,"is_reserved":false,"is_disabled":false,"rental_uris":{"android":"levelo://app?vid=af1cde33-5506-4304-9bde-62aa1392a4b6","ios":"levelo://app?vid=af1cde33-5506-4304-9bde-62aa1392a4b6"},"vehicle_type_id":"4","last_reported":1752181851,"current_range_meters":16400,"station_id":"ce4bhqp2rcd13ifvqhog","pricing_plan_id":"cebpf4jnsgd1na2vs0mg"},{"bike_id":"be918144-a469-4449-8387-a06a401e00c1","system_id":"levelo_inurba_marseille","lat":43.31329,"lon":5.39694,"is_reserved":false,"is_disabled":false,"rental_uris":{"android":"levelo://app?vid=be918144-a469-4449-8387-a06a401e00c1","ios":"levelo://app?vid=be918144-a469-4449-8387-a06a401e00c1"},"vehicle_type_id":"4","last_reported":1752181851,"current_range_meters":16000,"station_id":"ce4bgvp2rcd13ifvqcu0","pricing_plan_id":"cebpf4jnsgd1na2vs0mg"},{"bike_id":"8f89e4f3-495a-4317-bd6d-37a19186d65b","system_id":"levelo_inurba_marseille","lat":43.33711,"lon":5.39185,"is_reserved":false,"is_disabled":false,"rental_uris":{"android":"levelo://app?vid=8f89e4f3-495a-4317-bd6d-37a19186d65b","ios":"levelo://app?vid=8f89e4f3-495a-4317-bd6d-37a19186d65b"},"vehicle_type_id":"4","last_reported":1752181851,"current_range_meters":16400,"station_id":"ce4bhr92rcd13ifvqhsg","pricing_plan_id":"cebpf4jnsgd1na2vs0mg"},{"bike_id":"af45acc9-4032-485f-b846-f55888ac4452","system_id":"levelo_inurba_marseille","lat":43.29419,"lon":5.38614,"is_reserved":false,"is_disabled":false,"rental_uris":{"android":"levelo://app?vid=af45acc9-4032-485f-b846-f55888ac4452","ios":"levelo://app?vid=af45acc9-4032-485f-b846-f55888ac4452"},"vehicle_type_id":"4","last_reported":1752181851,"current_range_meters":16400,"station_id":"ce4bh2h2rcd13ifvqdh0","pricing_plan_id":"cebpf4jnsgd1na2vs0mg"},{"bike_id":"6c436b36-960f-4ef5-9b55-d6b5371855ce","system_id":"levelo_inurba_marseille","lat":43.28409,"lon":5.34979,"is_reserved":false,"is_disabled":false,"rental_uris":{"android":"levelo://app?vid=6c436b36-960f-4ef5-9b55-d6b5371855ce","ios":"levelo://app?vid=6c436b36-960f-4ef5-9b55-d6b5371855ce"},"vehicle_type_id":"4","last_reported":1752181851,"current_range_meters":16800,"station_id":"ce4bhbh2rcd13ifvqepg","pricing_plan_id":"cebpf4jnsgd1na2vs0mg"},{"bike_id":"4d4b9e28-a4f6-4d45-ac6b-64a63a768bd8","system_id":"levelo_inurba_marseille","lat":43.31518,"lon":5.37427,"is_reserved":false,"is_disabled":false,"rental_uris":{"android":"levelo://app?vid=4d4b9e28-a4f6-4d45-ac6b-64a63a768bd8","ios":"levelo://app?vid=4d4b9e28-a4f6-4d45-ac6b-64a63a768bd8"},"vehicle_type_id":"4","last_reported":1752181851,"current_range_meters":16800,"station_id":"","pricing_plan_id":"cebpf4jnsgd1na2vs0mg"},{"bike_id":"c3c5b26c-e834-4db6-994b-52abb31f20f1","system_id":"levelo_inurba_marseille","lat":43.240714,"lon":5.37761,"is_reserved":false,"is_disabled":false,"rental_uris":{"android":"levelo://app?vid=c3c5b26c-e834-4db6-994b-52abb31f20f1","ios":"levelo://app?vid=c3c5b26c-e834-4db6-994b-52abb31f20f1"},"vehicle_type_id":"4","last_reported":1752181851,"current_range_meters":16800,"station_id":"ce4bhnp2rcd13ifvqgvg","pricing_plan_id":"cebpf4jnsgd1na2vs0mg"},{"bike_id":"4018485f-3d49-463e-bed7-d890e4ff7869","system_id":"levelo_inurba_marseille","lat":43.29012,"lon":5.3864,"is_reserved":false,"is_disabled":true,"rental_uris":{"android":"levelo://app?vid=4018485f-3d49-463e-bed7-d890e4ff7869","ios":"levelo://app?vid=4018485f-3d49-463e-bed7-d890e4ff7869"},"vehicle_type_id":"4","last_reported":1752181851,"current_range_meters":16800,"station_id":"ce4bh4p2rcd13ifvqe0g","pricing_plan_id":"cebpf4jnsgd1na2vs0mg"},{"bike_id":"20298669-51c1-4292-ad92-d0fa61c941d3","system_id":"levelo_inurba_marseille","lat":43.23185,"lon":5.4379,"is_reserved":false,"is_disabled":true,"rental_uris":{"android":"levelo://app?vid=20298669-51c1-4292-ad92-d0fa61c941d3","ios":"levelo://app?vid=20298669-51c1-4292-ad92-d0fa61c941d3"},"vehicle_type_id":"4","last_reported":1752181851,"current_range_meters":16800,"station_id":"ce4bhmp2rcd13ifvqgog","pricing_plan_id":"cebpf4jnsgd1na2vs0mg"},{"bike_id":"2c702aa4-2ac5-4550-b697-5b3cdcd314b3","system_id":"levelo_inurba_marseille","lat":43.32053,"lon":5.41568,"is_reserved":false,"is_disabled":false,"rental_uris":{"android":"levelo://app?vid=2c702aa4-2ac5-4550-b697-5b3cdcd314b3","ios":"levelo://app?vid=2c702aa4-2ac5-4550-b697-5b3cdcd314b3"},"vehicle_type_id":"4","last_reported":1752181851,"current_range_meters":16800,"station_id":"ce4bhq92rcd13ifvqhkg","pricing_plan_id":"cebpf4jnsgd1na2vs0mg"},{"bike_id":"d849a247-c2c0-4619-bac8-f5a6994e0014","system_id":"levelo_inurba_marseille","lat":43.3202,"lon":5.41572,"is_reserved":false,"is_disabled":true,"rental_uris":{"android":"levelo://app?vid=d849a247-c2c0-4619-bac8-f5a6994e0014","ios":"levelo://app?vid=d849a247-c2c0-4619-bac8-f5a6994e0014"},"vehicle_type_id":"4","last_reported":1752181851,"current_range_meters":16800,"station_id":"ce4bhq92rcd13ifvqhkg","pricing_plan_id":"cebpf4jnsgd1na2vs0mg"},{"bike_id":"29a0a180-d29f-4a4e-a71b-d1d9d42cb217","system_id":"levelo_inurba_marseille","lat":43.211981,"lon":5.350899,"is_reserved":false,"is_disabled":false,"rental_uris":{"android":"levelo://app?vid=29a0a180-d29f-4a4e-a71b-d1d9d42cb217","ios":"levelo://app?vid=29a0a180-d29f-4a4e-a71b-d1d9d42cb217"},"vehicle_type_id":"4","last_reported":1752181851,"current_range_meters":16800,"station_id":"st_cvj6sg6p6f1abm77japg","pricing_plan_id":"cebpf4jnsgd1na2vs0mg"},{"bike_id":"f3522028-e1b8-47f4-b09f-c3f6532fa069","system_id":"levelo_inurba_marseille","lat":43.29534,"lon":5.38538,"is_reserved":false,"is_disabled":false,"rental_uris":{"android":"levelo://app?vid=f3522028-e1b8-47f4-b09f-c3f6532fa069","ios":"levelo://app?vid=f3522028-e1b8-47f4-b09f-c3f6532fa069"},"vehicle_type_id":"4","last_reported":1752181851,"current_range_meters":16800,"station_id":"ce4bgih2rcd13ifvqba0","pricing_plan_id":"cebpf4jnsgd1na2vs0mg"},{"bike_id":"708d5aef-7ccb-4746-a259-8a843a1e1bc6","system_id":"levelo_inurba_marseille","lat":43.29257,"lon":5.38443,"is_reserved":false,"is_disabled":false,"rental_uris":{"android":"levelo://app?vid=708d5aef-7ccb-4746-a259-8a843a1e1bc6","ios":"levelo://app?vid=708d5aef-7ccb-4746-a259-8a843a1e1bc6"},"vehicle_type_id":"4","last_reported":1752181851,"current_range_meters":17200,"station_id":"ce4bh692rcd13ifvqea0","pricing_plan_id":"cebpf4jnsgd1na2vs0mg"},{"bike_id":"c8b16325-224a-4cd2-961f-c6ee8ae06d34","system_id":"levelo_inurba_marseille","lat":43.304315,"lon":5.38899,"is_reserved":false,"is_disabled":false,"rental_uris":{"android":"levelo://app?vid=c8b16325-224a-4cd2-961f-c6ee8ae06d34","ios":"levelo://app?vid=c8b16325-224a-4cd2-961f-c6ee8ae06d34"},"vehicle_type_id":"4","last_reported":1752181851,"current_range_meters":17200,"station_id":"ce4bgk12rcd13ifvqbi0","pricing_plan_id":"cebpf4jnsgd1na2vs0mg"},{"bike_id":"595e9351-a7ce-45de-8995-771f7d9fe86e","system_id":"levelo_inurba_marseille","lat":43.309243,"lon":5.378088,"is_reserved":false,"is_disabled":false,"rental_uris":{"android":"levelo://app?vid=595e9351-a7ce-45de-8995-771f7d9fe86e","ios":"levelo://app?vid=595e9351-a7ce-45de-8995-771f7d9fe86e"},"vehicle_type_id":"4","last_reported":1752181851,"current_range_meters":17200,"station_id":"","pricing_plan_id":"cebpf4jnsgd1na2vs0mg"},{"bike_id":"6e44525d-ed45-445a-a877-081b94eb5813","system_id":"levelo_inurba_marseille","lat":43.303538,"lon":5.418811,"is_reserved":false,"is_disabled":true,"rental_uris":{"android":"levelo://app?vid=6e44525d-ed45-445a-a877-081b94eb5813","ios":"levelo://app?vid=6e44525d-ed45-445a-a877-081b94eb5813"},"vehicle_type_id":"4","last_reported":1752181851,"current_range_meters":17200,"station_id":"ce4bhop2rcd13ifvqh7g","pricing_plan_id":"cebpf4jnsgd1na2vs0mg"},{"bike_id":"1886c21f-8bb0-49ec-9e4c-223d502e3248","system_id":"levelo_inurba_marseille","lat":43.29279,"lon":5.3843,"is_reserved":false,"is_disabled":false,"rental_uris":{"android":"levelo://app?vid=1886c21f-8bb0-49ec-9e4c-223d502e3248","ios":"levelo://app?vid=1886c21f-8bb0-49ec-9e4c-223d502e3248"},"vehicle_type_id":"4","last_reported":1752181851,"current_range_meters":17200,"station_id":"ce4bh692rcd13ifvqea0","pricing_plan_id":"cebpf4jnsgd1na2vs0mg"},{"bike_id":"09d6e05b-b489-494a-9f00-551474131412","system_id":"levelo_inurba_marseille","lat":43.25496,"lon":5.37669,"is_reserved":false,"is_disabled":false,"rental_uris":{"android":"levelo://app?vid=09d6e05b-b489-494a-9f00-551474131412","ios":"levelo://app?vid=09d6e05b-b489-494a-9f00-551474131412"},"vehicle_type_id":"4","last_reported":1752181851,"current_range_meters":17200,"station_id":"ce4bhh12rcd13ifvqff0","pricing_plan_id":"cebpf4jnsgd1na2vs0mg"},{"bike_id":"6d560513-0d60-40ac-99e0-c6ffa83c1805","system_id":"levelo_inurba_marseille","lat":43.28487,"lon":5.38419,"is_reserved":false,"is_disabled":false,"rental_uris":{"android":"levelo://app?vid=6d560513-0d60-40ac-99e0-c6ffa83c1805","ios":"levelo://app?vid=6d560513-0d60-40ac-99e0-c6ffa83c1805"},"vehicle_type_id":"4","last_reported":1752181851,"current_range_meters":17200,"station_id":"ce4bh512rcd13ifvqe3g","pricing_plan_id":"cebpf4jnsgd1na2vs0mg"},{"bike_id":"8b440aeb-3c8b-4650-9f24-9c9b62dd74de","system_id":"levelo_inurba_marseille","lat":43.212,"lon":5.35093,"is_reserved":false,"is_disabled":false,"rental_uris":{"android":"levelo://app?vid=8b440aeb-3c8b-4650-9f24-9c9b62dd74de","ios":"levelo://app?vid=8b440aeb-3c8b-4650-9f24-9c9b62dd74de"},"vehicle_type_id":"4","last_reported":1752181851,"current_range_meters":17200,"station_id":"st_cvj6sg6p6f1abm77japg","pricing_plan_id":"cebpf4jnsgd1na2vs0mg"},{"bike_id":"5423e7d5-07f9-4264-9d42-219884898d7f","system_id":"levelo_inurba_marseille","lat":43.24173,"lon":5.36397,"is_reserved":false,"is_disabled":false,"rental_uris":{"android":"levelo://app?vid=5423e7d5-07f9-4264-9d42-219884898d7f","ios":"levelo://app?vid=5423e7d5-07f9-4264-9d42-219884898d7f"},"vehicle_type_id":"4","last_reported":1752181851,"current_range_meters":17200,"station_id":"cpo36qri1sfpv3e86is0","pricing_plan_id":"cebpf4jnsgd1na2vs0mg"},{"bike_id":"544ec108-796d-413d-8a7c-7e4ffa805fe3","system_id":"levelo_inurba_marseille","lat":43.27355,"lon":5.39279,"is_reserved":false,"is_disabled":false,"rental_uris":{"android":"levelo://app?vid=544ec108-796d-413d-8a7c-7e4ffa805fe3","ios":"levelo://app?vid=544ec108-796d-413d-8a7c-7e4ffa805fe3"},"vehicle_type_id":"4","last_reported":1752181851,"current_range_meters":17200,"station_id":"","pricing_plan_id":"cebpf4jnsgd1na2vs0mg"},{"bike_id":"dc5cc168-989d-4126-aeb4-c1e8c49319f0","system_id":"levelo_inurba_marseille","lat":43.30602,"lon":5.37229,"is_reserved":false,"is_disabled":false,"rental_uris":{"android":"levelo://app?vid=dc5cc168-989d-4126-aeb4-c1e8c49319f0","ios":"levelo://app?vid=dc5cc168-989d-4126-aeb4-c1e8c49319f0"},"vehicle_type_id":"4","last_reported":1752181851,"current_range_meters":17200,"station_id":"ce4bgqh2rcd13ifvqc4g","pricing_plan_id":"cebpf4jnsgd1na2vs0mg"},{"bike_id":"23342ab9-666f-4ae4-b1f7-93a52d2e350a","system_id":"levelo_inurba_marseille","lat":43.301409,"lon":5.387639,"is_reserved":false,"is_disabled":false,"rental_uris":{"android":"levelo://app?vid=23342ab9-666f-4ae4-b1f7-93a52d2e350a","ios":"levelo://app?vid=23342ab9-666f-4ae4-b1f7-93a52d2e350a"},"vehicle_type_id":"4","last_reported":1752181851,"current_range_meters":17200,"station_id":"ce4bghh2rcd13ifvqb60","pricing_plan_id":"cebpf4jnsgd1na2vs0mg"},{"bike_id":"49d89ea5-f4ca-402a-b4e7-024e0443428b","system_id":"levelo_inurba_marseille","lat":43.295739,"lon":5.399743,"is_reserved":false,"is_disabled":false,"rental_uris":{"android":"levelo://app?vid=49d89ea5-f4ca-402a-b4e7-024e0443428b","ios":"levelo://app?vid=49d89ea5-f4ca-402a-b4e7-024e0443428b"},"vehicle_type_id":"4","last_reported":1752181851,"current_range_meters":17600,"station_id":"ce4bh312rcd13ifvqdj0","pricing_plan_id":"cebpf4jnsgd1na2vs0mg"},{"bike_id":"36d841ea-e6f4-4ff1-8465-d05e720a58e5","system_id":"levelo_inurba_marseille","lat":43.28722,"lon":5.40041,"is_reserved":false,"is_disabled":true,"rental_uris":{"android":"levelo://app?vid=36d841ea-e6f4-4ff1-8465-d05e720a58e5","ios":"levelo://app?vid=36d841ea-e6f4-4ff1-8465-d05e720a58e5"},"vehicle_type_id":"4","last_reported":1752181851,"current_range_meters":17600,"station_id":"ce4bho92rcd13ifvqh3g","pricing_plan_id":"cebpf4jnsgd1na2vs0mg"},{"bike_id":"d4586ad7-e1a3-4986-9849-594154166335","system_id":"levelo_inurba_marseille","lat":43.25722,"lon":5.41118,"is_reserved":false,"is_disabled":false,"rental_uris":{"android":"levelo://app?vid=d4586ad7-e1a3-4986-9849-594154166335","ios":"levelo://app?vid=d4586ad7-e1a3-4986-9849-594154166335"},"vehicle_type_id":"4","last_reported":1752181851,"current_range_meters":17600,"station_id":"ce4bhkp2rcd13ifvqgd0","pricing_plan_id":"cebpf4jnsgd1na2vs0mg"},{"bike_id":"a3c20ddf-6682-4fd5-9903-abb52fbbef83","system_id":"levelo_inurba_marseille","lat":43.258249,"lon":5.394385,"is_reserved":false,"is_disabled":false,"rental_uris":{"android":"levelo://app?vid=a3c20ddf-6682-4fd5-9903-abb52fbbef83","ios":"levelo://app?vid=a3c20ddf-6682-4fd5-9903-abb52fbbef83"},"vehicle_type_id":"4","last_reported":1752181851,"current_range_meters":17200,"station_id":"ce4bhip2rcd13ifvqft0","pricing_plan_id":"cebpf4jnsgd1na2vs0mg"},{"bike_id":"7095101c-ac3f-48ba-961a-f42d84774b0b","system_id":"levelo_inurba_marseille","lat":43.30905,"lon":5.36855,"is_reserved":false,"is_disabled":false,"rental_uris":{"android":"levelo://app?vid=7095101c-ac3f-48ba-961a-f42d84774b0b","ios":"levelo://app?vid=7095101c-ac3f-48ba-961a-f42d84774b0b"},"vehicle_type_id":"4","last_reported":1752181851,"current_range_meters":17200,"station_id":"ce4bgn92rcd13ifvqbvg","pricing_plan_id":"cebpf4jnsgd1na2vs0mg"},{"bike_id":"90bc1451-ed8f-4f1a-807c-2488b3557cb8","system_id":"levelo_inurba_marseille","lat":43.30649,"lon":5.40077,"is_reserved":false,"is_disabled":false,"rental_uris":{"android":"levelo://app?vid=90bc1451-ed8f-4f1a-807c-2488b3557cb8","ios":"levelo://app?vid=90bc1451-ed8f-4f1a-807c-2488b3557cb8"},"vehicle_type_id":"4","last_reported":1752181851,"current_range_meters":17600,"station_id":"ce4bh112rcd13ifvqda0","pricing_plan_id":"cebpf4jnsgd1na2vs0mg"},{"bike_id":"bd69f1e7-b901-41a0-b2c9-aee4bd027443","system_id":"levelo_inurba_marseille","lat":43.21191,"lon":5.35118,"is_reserved":false,"is_disabled":false,"rental_uris":{"android":"levelo://app?vid=bd69f1e7-b901-41a0-b2c9-aee4bd027443","ios":"levelo://app?vid=bd69f1e7-b901-41a0-b2c9-aee4bd027443"},"vehicle_type_id":"4","last_reported":1752181851,"current_range_meters":17600,"station_id":"st_cvj6sg6p6f1abm77japg","pricing_plan_id":"cebpf4jnsgd1na2vs0mg"},{"bike_id":"e3a75ee9-c614-467b-8cc2-f813bcef2ab1","system_id":"levelo_inurba_marseille","lat":43.33743,"lon":5.3919,"is_reserved":false,"is_disabled":false,"rental_uris":{"android":"levelo://app?vid=e3a75ee9-c614-467b-8cc2-f813bcef2ab1","ios":"levelo://app?vid=e3a75ee9-c614-467b-8cc2-f813bcef2ab1"},"vehicle_type_id":"4","last_reported":1752181851,"current_range_meters":17600,"station_id":"ce4bhr92rcd13ifvqhsg","pricing_plan_id":"cebpf4jnsgd1na2vs0mg"},{"bike_id":"cd3ad621-81d5-486b-8d9d-ec2d2d715d0a","system_id":"levelo_inurba_marseille","lat":43.30299,"lon":5.40504,"is_reserved":false,"is_disabled":false,"rental_uris":{"android":"levelo://app?vid=cd3ad621-81d5-486b-8d9d-ec2d2d715d0a","ios":"levelo://app?vid=cd3ad621-81d5-486b-8d9d-ec2d2d715d0a"},"vehicle_type_id":"4","last_reported":1752181851,"current_range_meters":17600,"station_id":"ce4bh012rcd13ifvqd10","pricing_plan_id":"cebpf4jnsgd1na2vs0mg"},{"bike_id":"05bb55a1-4ebc-4f7e-9df5-1ccd2ed2b3c8","system_id":"levelo_inurba_marseille","lat":43.29263,"lon":5.38442,"is_reserved":false,"is_disabled":false,"rental_uris":{"android":"levelo://app?vid=05bb55a1-4ebc-4f7e-9df5-1ccd2ed2b3c8","ios":"levelo://app?vid=05bb55a1-4ebc-4f7e-9df5-1ccd2ed2b3c8"},"vehicle_type_id":"4","last_reported":1752181851,"current_range_meters":17600,"station_id":"ce4bh692rcd13ifvqea0","pricing_plan_id":"cebpf4jnsgd1na2vs0mg"},{"bike_id":"5086513f-38b2-4d32-bf7b-ef747c2370bc","system_id":"levelo_inurba_marseille","lat":43.27914,"lon":5.39576,"is_reserved":false,"is_disabled":false,"rental_uris":{"android":"levelo://app?vid=5086513f-38b2-4d32-bf7b-ef747c2370bc","ios":"levelo://app?vid=5086513f-38b2-4d32-bf7b-ef747c2370bc"},"vehicle_type_id":"4","last_reported":1752181851,"current_range_meters":17600,"station_id":"ce4bhf92rcd13ifvqf40","pricing_plan_id":"cebpf4jnsgd1na2vs0mg"},{"bike_id":"a27c01d4-977b-4bc7-a2ef-e89407d4dbd5","system_id":"levelo_inurba_marseille","lat":43.31073,"lon":5.38349,"is_reserved":false,"is_disabled":false,"rental_uris":{"android":"levelo://app?vid=a27c01d4-977b-4bc7-a2ef-e89407d4dbd5","ios":"levelo://app?vid=a27c01d4-977b-4bc7-a2ef-e89407d4dbd5"},"vehicle_type_id":"4","last_reported":1752181851,"current_range_meters":17600,"station_id":"ce4bgv92rcd13ifvqcr0","pricing_plan_id":"cebpf4jnsgd1na2vs0mg"},{"bike_id":"4bd20a18-6379-499c-b002-e172ca664654","system_id":"levelo_inurba_marseille","lat":43.24389,"lon":5.37062,"is_reserved":false,"is_disabled":false,"rental_uris":{"android":"levelo://app?vid=4bd20a18-6379-499c-b002-e172ca664654","ios":"levelo://app?vid=4bd20a18-6379-499c-b002-e172ca664654"},"vehicle_type_id":"4","last_reported":1752181851,"current_range_meters":18000,"station_id":"ce4bhhh2rcd13ifvqfk0","pricing_plan_id":"cebpf4jnsgd1na2vs0mg"},{"bike_id":"96f82260-718a-4e3a-9802-28ac9d732e83","system_id":"levelo_inurba_marseille","lat":43.26161,"lon":5.37468,"is_reserved":false,"is_disabled":false,"rental_uris":{"android":"levelo://app?vid=96f82260-718a-4e3a-9802-28ac9d732e83","ios":"levelo://app?vid=96f82260-718a-4e3a-9802-28ac9d732e83"},"vehicle_type_id":"4","last_reported":1752181851,"current_range_meters":18000,"station_id":"","pricing_plan_id":"cebpf4jnsgd1na2vs0mg"},{"bike_id":"8c63651c-c6de-4813-b9d0-67c21cc4b734","system_id":"levelo_inurba_marseille","lat":43.31497,"lon":5.3731,"is_reserved":false,"is_disabled":false,"rental_uris":{"android":"levelo://app?vid=8c63651c-c6de-4813-b9d0-67c21cc4b734","ios":"levelo://app?vid=8c63651c-c6de-4813-b9d0-67c21cc4b734"},"vehicle_type_id":"4","last_reported":1752181851,"current_range_meters":17600,"station_id":"ce4bgt12rcd13ifvqcd0","pricing_plan_id":"cebpf4jnsgd1na2vs0mg"},{"bike_id":"479b69d4-3376-4ae6-bc74-41dcf16b0474","system_id":"levelo_inurba_marseille","lat":43.2248,"lon":5.34804,"is_reserved":false,"is_disabled":false,"rental_uris":{"android":"levelo://app?vid=479b69d4-3376-4ae6-bc74-41dcf16b0474","ios":"levelo://app?vid=479b69d4-3376-4ae6-bc74-41dcf16b0474"},"vehicle_type_id":"4","last_reported":1752181851,"current_range_meters":18000,"station_id":"st_cvj5dfep6f1abm77gieg","pricing_plan_id":"cebpf4jnsgd1na2vs0mg"},{"bike_id":"530fdaa0-3dcf-48bd-ae6d-18f67ca1c283","system_id":"levelo_inurba_marseille","lat":43.297111,"lon":5.366155,"is_reserved":false,"is_disabled":false,"rental_uris":{"android":"levelo://app?vid=530fdaa0-3dcf-48bd-ae6d-18f67ca1c283","ios":"levelo://app?vid=530fdaa0-3dcf-48bd-ae6d-18f67ca1c283"},"vehicle_type_id":"4","last_reported":1752181851,"current_range_meters":18000,"station_id":"","pricing_plan_id":"cebpf4jnsgd1na2vs0mg"},{"bike_id":"f086528f-f0be-4b14-8b3f-7d93ea0437ec","system_id":"levelo_inurba_marseille","lat":43.29032,"lon":5.39961,"is_reserved":false,"is_disabled":false,"rental_uris":{"android":"levelo://app?vid=f086528f-f0be-4b14-8b3f-7d93ea0437ec","ios":"levelo://app?vid=f086528f-f0be-4b14-8b3f-7d93ea0437ec"},"vehicle_type_id":"4","last_reported":1752181851,"current_range_meters":18000,"station_id":"ce4bh392rcd13ifvqdm0","pricing_plan_id":"cebpf4jnsgd1na2vs0mg"},{"bike_id":"78ed966d-532e-4613-93de-a9e98dedf5f2","system_id":"levelo_inurba_marseille","lat":43.26793,"lon":5.39412,"is_reserved":false,"is_disabled":false,"rental_uris":{"android":"levelo://app?vid=78ed966d-532e-4613-93de-a9e98dedf5f2","ios":"levelo://app?vid=78ed966d-532e-4613-93de-a9e98dedf5f2"},"vehicle_type_id":"4","last_reported":1752181851,"current_range_meters":17600,"station_id":"ce4bhh12rcd13ifvqfg0","pricing_plan_id":"cebpf4jnsgd1na2vs0mg"},{"bike_id":"6d9b6e94-bfbc-43fd-940e-be4afa4e2561","system_id":"levelo_inurba_marseille","lat":43.29464,"lon":5.38685,"is_reserved":false,"is_disabled":false,"rental_uris":{"android":"levelo://app?vid=6d9b6e94-bfbc-43fd-940e-be4afa4e2561","ios":"levelo://app?vid=6d9b6e94-bfbc-43fd-940e-be4afa4e2561"},"vehicle_type_id":"4","last_reported":1752181851,"current_range_meters":18000,"station_id":"","pricing_plan_id":"cebpf4jnsgd1na2vs0mg"},{"bike_id":"cb8db05c-7ef4-4fcf-b321-cdc13d7cccad","system_id":"levelo_inurba_marseille","lat":43.29068,"lon":5.35581,"is_reserved":false,"is_disabled":false,"rental_uris":{"android":"levelo://app?vid=cb8db05c-7ef4-4fcf-b321-cdc13d7cccad","ios":"levelo://app?vid=cb8db05c-7ef4-4fcf-b321-cdc13d7cccad"},"vehicle_type_id":"4","last_reported":1752181851,"current_range_meters":18000,"station_id":"","pricing_plan_id":"cebpf4jnsgd1na2vs0mg"},{"bike_id":"647a1903-1834-4730-b34e-6397917620f0","system_id":"levelo_inurba_marseille","lat":43.31669,"lon":5.37008,"is_reserved":false,"is_disabled":false,"rental_uris":{"android":"levelo://app?vid=647a1903-1834-4730-b34e-6397917620f0","ios":"levelo://app?vid=647a1903-1834-4730-b34e-6397917620f0"},"vehicle_type_id":"4","last_reported":1752181851,"current_range_meters":18000,"station_id":"","pricing_plan_id":"cebpf4jnsgd1na2vs0mg"},{"bike_id":"f35ba27a-e0a1-4f2c-a363-e45ec612c967","system_id":"levelo_inurba_marseille","lat":43.29508,"lon":5.39038,"is_reserved":false,"is_disabled":false,"rental_uris":{"android":"levelo://app?vid=f35ba27a-e0a1-4f2c-a363-e45ec612c967","ios":"levelo://app?vid=f35ba27a-e0a1-4f2c-a363-e45ec612c967"},"vehicle_type_id":"4","last_reported":1752181851,"current_range_meters":18000,"station_id":"ce4bh3p2rcd13ifvqdp0","pricing_plan_id":"cebpf4jnsgd1na2vs0mg"},{"bike_id":"46e76d63-dcce-4084-828e-9cffe437f4b6","system_id":"levelo_inurba_marseille","lat":43.28712,"lon":5.37922,"is_reserved":false,"is_disabled":false,"rental_uris":{"android":"levelo://app?vid=46e76d63-dcce-4084-828e-9cffe437f4b6","ios":"levelo://app?vid=46e76d63-dcce-4084-828e-9cffe437f4b6"},"vehicle_type_id":"4","last_reported":1752181851,"current_range_meters":18000,"station_id":"ce4bh9p2rcd13ifvqec0","pricing_plan_id":"cebpf4jnsgd1na2vs0mg"},{"bike_id":"2850cfd5-2110-4cbb-b6a3-2e06e17c78e6","system_id":"levelo_inurba_marseille","lat":43.25497,"lon":5.37651,"is_reserved":false,"is_disabled":true,"rental_uris":{"android":"levelo://app?vid=2850cfd5-2110-4cbb-b6a3-2e06e17c78e6","ios":"levelo://app?vid=2850cfd5-2110-4cbb-b6a3-2e06e17c78e6"},"vehicle_type_id":"4","last_reported":1752181851,"current_range_meters":18000,"station_id":"ce4bhh12rcd13ifvqff0","pricing_plan_id":"cebpf4jnsgd1na2vs0mg"},{"bike_id":"57313c57-453d-4a8c-a86b-40286a3caa72","system_id":"levelo_inurba_marseille","lat":43.29958,"lon":5.41319,"is_reserved":false,"is_disabled":false,"rental_uris":{"android":"levelo://app?vid=57313c57-453d-4a8c-a86b-40286a3caa72","ios":"levelo://app?vid=57313c57-453d-4a8c-a86b-40286a3caa72"},"vehicle_type_id":"4","last_reported":1752181851,"current_range_meters":17600,"station_id":"ce4bhp12rcd13ifvqh9g","pricing_plan_id":"cebpf4jnsgd1na2vs0mg"},{"bike_id":"03d285ad-fd72-47fb-9975-6f1db5bfd76f","system_id":"levelo_inurba_marseille","lat":43.29889,"lon":5.39745,"is_reserved":false,"is_disabled":true,"rental_uris":{"android":"levelo://app?vid=03d285ad-fd72-47fb-9975-6f1db5bfd76f","ios":"levelo://app?vid=03d285ad-fd72-47fb-9975-6f1db5bfd76f"},"vehicle_type_id":"4","last_reported":1752181851,"current_range_meters":18000,"station_id":"ce4bh0h2rcd13ifvqd50","pricing_plan_id":"cebpf4jnsgd1na2vs0mg"},{"bike_id":"e275427c-6ad5-43e6-9c47-545f3557b9cc","system_id":"levelo_inurba_marseille","lat":43.2885,"lon":5.39314,"is_reserved":false,"is_disabled":false,"rental_uris":{"android":"levelo://app?vid=e275427c-6ad5-43e6-9c47-545f3557b9cc","ios":"levelo://app?vid=e275427c-6ad5-43e6-9c47-545f3557b9cc"},"vehicle_type_id":"4","last_reported":1752181851,"current_range_meters":18000,"station_id":"ce4bh2p2rcd13ifvqdi0","pricing_plan_id":"cebpf4jnsgd1na2vs0mg"},{"bike_id":"bad0229e-8685-47cd-8aa3-9b8614be5286","system_id":"levelo_inurba_marseille","lat":43.292591,"lon":5.384556,"is_reserved":false,"is_disabled":false,"rental_uris":{"android":"levelo://app?vid=bad0229e-8685-47cd-8aa3-9b8614be5286","ios":"levelo://app?vid=bad0229e-8685-47cd-8aa3-9b8614be5286"},"vehicle_type_id":"4","last_reported":1752181851,"current_range_meters":18800,"station_id":"ce4bh692rcd13ifvqea0","pricing_plan_id":"cebpf4jnsgd1na2vs0mg"},{"bike_id":"caa7f1c1-2680-4f1a-95f6-25753930b50a","system_id":"levelo_inurba_marseille","lat":43.279647,"lon":5.387521,"is_reserved":false,"is_disabled":false,"rental_uris":{"android":"levelo://app?vid=caa7f1c1-2680-4f1a-95f6-25753930b50a","ios":"levelo://app?vid=caa7f1c1-2680-4f1a-95f6-25753930b50a"},"vehicle_type_id":"4","last_reported":1752181851,"current_range_meters":18800,"station_id":"ce4bhg12rcd13ifvqf80","pricing_plan_id":"cebpf4jnsgd1na2vs0mg"},{"bike_id":"d4f155da-0393-4b77-87b9-dcf1451aa77a","system_id":"levelo_inurba_marseille","lat":43.28711,"lon":5.37929,"is_reserved":false,"is_disabled":false,"rental_uris":{"android":"levelo://app?vid=d4f155da-0393-4b77-87b9-dcf1451aa77a","ios":"levelo://app?vid=d4f155da-0393-4b77-87b9-dcf1451aa77a"},"vehicle_type_id":"4","last_reported":1752181851,"current_range_meters":18800,"station_id":"ce4bh9p2rcd13ifvqec0","pricing_plan_id":"cebpf4jnsgd1na2vs0mg"},{"bike_id":"ecec5a70-47e2-4076-ac88-b63310387724","system_id":"levelo_inurba_marseille","lat":43.21746,"lon":5.34607,"is_reserved":false,"is_disabled":false,"rental_uris":{"android":"levelo://app?vid=ecec5a70-47e2-4076-ac88-b63310387724","ios":"levelo://app?vid=ecec5a70-47e2-4076-ac88-b63310387724"},"vehicle_type_id":"4","last_reported":1752181851,"current_range_meters":18800,"station_id":"st_cvj6r9ubvosntc0bgbag","pricing_plan_id":"cebpf4jnsgd1na2vs0mg"},{"bike_id":"1b3e4cd1-a210-41bb-9494-a81d6a8a9c94","system_id":"levelo_inurba_marseille","lat":43.28485,"lon":5.38418,"is_reserved":false,"is_disabled":false,"rental_uris":{"android":"levelo://app?vid=1b3e4cd1-a210-41bb-9494-a81d6a8a9c94","ios":"levelo://app?vid=1b3e4cd1-a210-41bb-9494-a81d6a8a9c94"},"vehicle_type_id":"4","last_reported":1752181851,"current_range_meters":18800,"station_id":"ce4bh512rcd13ifvqe3g","pricing_plan_id":"cebpf4jnsgd1na2vs0mg"},{"bike_id":"5a1ebe51-0feb-4bc8-bfb6-f899fcb73b87","system_id":"levelo_inurba_marseille","lat":43.29199,"lon":5.358004,"is_reserved":false,"is_disabled":true,"rental_uris":{"android":"levelo://app?vid=5a1ebe51-0feb-4bc8-bfb6-f899fcb73b87","ios":"levelo://app?vid=5a1ebe51-0feb-4bc8-bfb6-f899fcb73b87"},"vehicle_type_id":"4","last_reported":1752181851,"current_range_meters":18800,"station_id":"","pricing_plan_id":"cebpf4jnsgd1na2vs0mg"},{"bike_id":"b31893a9-68d5-49d3-9003-0f244b579474","system_id":"levelo_inurba_marseille","lat":43.28401,"lon":5.35019,"is_reserved":false,"is_disabled":false,"rental_uris":{"android":"levelo://app?vid=b31893a9-68d5-49d3-9003-0f244b579474","ios":"levelo://app?vid=b31893a9-68d5-49d3-9003-0f244b579474"},"vehicle_type_id":"4","last_reported":1752181851,"current_range_meters":18800,"station_id":"ce4bhbh2rcd13ifvqepg","pricing_plan_id":"cebpf4jnsgd1na2vs0mg"},{"bike_id":"dafa5a87-b26d-4379-9a6b-1f02133b78a6","system_id":"levelo_inurba_marseille","lat":43.211921,"lon":5.350745,"is_reserved":false,"is_disabled":false,"rental_uris":{"android":"levelo://app?vid=dafa5a87-b26d-4379-9a6b-1f02133b78a6","ios":"levelo://app?vid=dafa5a87-b26d-4379-9a6b-1f02133b78a6"},"vehicle_type_id":"4","last_reported":1752181851,"current_range_meters":18800,"station_id":"st_cvj6sg6p6f1abm77japg","pricing_plan_id":"cebpf4jnsgd1na2vs0mg"},{"bike_id":"db1f7418-5a19-4084-abc6-6761f4305f94","system_id":"levelo_inurba_marseille","lat":43.29606,"lon":5.36939,"is_reserved":false,"is_disabled":false,"rental_uris":{"android":"levelo://app?vid=db1f7418-5a19-4084-abc6-6761f4305f94","ios":"levelo://app?vid=db1f7418-5a19-4084-abc6-6761f4305f94"},"vehicle_type_id":"4","last_reported":1752181851,"current_range_meters":19200,"station_id":"","pricing_plan_id":"cebpf4jnsgd1na2vs0mg"},{"bike_id":"0f123936-03df-4807-bde5-6038fff4a211","system_id":"levelo_inurba_marseille","lat":43.30936,"lon":5.40126,"is_reserved":false,"is_disabled":false,"rental_uris":{"android":"levelo://app?vid=0f123936-03df-4807-bde5-6038fff4a211","ios":"levelo://app?vid=0f123936-03df-4807-bde5-6038fff4a211"},"vehicle_type_id":"4","last_reported":1752181851,"current_range_meters":18800,"station_id":"ce4bgvp2rcd13ifvqct0","pricing_plan_id":"cebpf4jnsgd1na2vs0mg"},{"bike_id":"2cbcb9f7-05f8-4b46-8898-625e7ac6f2e4","system_id":"levelo_inurba_marseille","lat":43.29984,"lon":5.38497,"is_reserved":false,"is_disabled":false,"rental_uris":{"android":"levelo://app?vid=2cbcb9f7-05f8-4b46-8898-625e7ac6f2e4","ios":"levelo://app?vid=2cbcb9f7-05f8-4b46-8898-625e7ac6f2e4"},"vehicle_type_id":"4","last_reported":1752181851,"current_range_meters":18800,"station_id":"ce4bgj92rcd13ifvqbd0","pricing_plan_id":"cebpf4jnsgd1na2vs0mg"},