{"last_updated":1730139183,"ttl":60,"version":"2.2","data":{"bikes":[{"bike_id":"5b6da0fb-5d65-41eb-8aa7-edd3cba55e1e","system_id":"levelo_inurba_marseille","lat":43.30179,"lon":5.40074,"is_reserved":false,"is_disabled":false,"rental_uris":{"android":"levelo://app?vid=5b6da0fb-5d65-41eb-8aa7-edd3cba55e1e","ios":"levelo://app?vid=5b6da0fb-5d65-41eb-8aa7-edd3cba55e1e"},"vehicle_type_id":"4","last_reported":1730139183,"current_range_meters":7200,"station_id":"ce4bgvh2rcd13ifvqcs0","pricing_plan_id":"cebpf4jnsgd1na2vs0mg"},{"bike_id":"9e4044e9-dd72-4f58-b85b-2423a1de6b75","system_id":"levelo_inurba_marseille","lat":43.27184,"lon":5.40998,"is_reserved":false,"is_disabled":false,"rental_uris":{"android":"levelo://app?vid=9e4044e9-dd72-4f58-b85b-2423a1de6b75","ios":"levelo://app?vid=9e4044e9-dd72-4f58-b85b-2423a1de6b75"},"vehicle_type_id":"4","last_reported":1730139183,"current_range_meters":10800,"station_id":"ce4bhl12rcd13ifvqgf0","pricing_plan_id":"cebpf4jnsgd1na2vs0mg"},{"bike_id":"4aebdb59-bbc7-456e-b060-33c91b8172d0","system_id":"levelo_inurba_marseille","lat":43.29911,"lon":5.38258,"is_reserved":false,"is_disabled":false,"rental_uris":{"android":"levelo://app?vid=4aebdb59-bbc7-456e-b060-33c91b8172d0","ios":"levelo://app?vid=4aebdb59-bbc7-456e-b060-33c91b8172d0"},"vehicle_type_id":"4","last_reported":1730139183,"current_range_meters":30000,"station_id":"","pricing_plan_id":"cebpf4jnsgd1na2vs0mg"},{"bike_id":"e4d1cd35-4221-4d90-8bf3-ff8059b8aeb1","system_id":"levelo_inurba_marseille","lat":43.33022,"lon":5.39045,"is_reserved":false,"is_disabled":false,"rental_uris":{"android":"levelo://app?vid=e4d1cd35-4221-4d90-8bf3-ff8059b8aeb1","ios":"levelo://app?vid=e4d1cd35-4221-4d90-8bf3-ff8059b8aeb1"},"vehicle_type_id":"4","last_reported":1730139183,"current_range_meters":24800,"station_id":"ce4bhr92rcd13ifvqhrg","pricing_plan_id":"cebpf4jnsgd1na2vs0mg"},{"bike_id":"d3ec8689-b8d2-4472-ad31-9123f3b51883","system_id":"levelo_inurba_marseille","lat":43.29279,"lon":5.40123,"is_reserved":false,"is_disabled":false,"rental_uris":{"android":"levelo://app?vid=d3ec8689-b8d2-4472-ad31-9123f3b51883","ios":"levelo://app?vid=d3ec8689-b8d2-4472-ad31-9123f3b51883"},"vehicle_type_id":"4","last_reported":1730139183,"current_range_meters":8400,"station_id":"ce4bh312rcd13ifvqdk0","pricing_plan_id":"cebpf4jnsgd1na2vs0mg"},{"bike_id":"41cc269b-2a6f-4882-97a4-3ee17581e23b","system_id":"levelo_inurba_marseille","lat":43.33023,"lon":5.39043,"is_reserved":false,"is_disabled":false,"rental_uris":{"android":"levelo://app?vid=41cc269b-2a6f-4882-97a4-3ee17581e23b","ios":"levelo://app?vid=41cc269b-2a6f-4882-97a4-3ee17581e23b"},"vehicle_type_id":"4","last_reported":1730139183,"current_range_meters":8000,"station_id":"ce4bhr92rcd13ifvqhrg","pricing_plan_id":"cebpf4jnsgd1na2vs0mg"},{"bike_id":"d7df649e-8ed2-480b-a05f-265d1242a675","system_id":"levelo_inurba_marseille","lat":43.29789,"lon":5.39341,"is_reserved":false,"is_disabled":false,"rental_uris":{"android":"levelo://app?vid=d7df649e-8ed2-480b-a05f-265d1242a675","ios":"levelo://app?vid=d7df649e-8ed2-480b-a05f-265d1242a675"},"vehicle_type_id":"4","last_reported":1730139183,"current_range_meters":14000,"station_id":"chh1huq6cuj3fo74tm60","pricing_plan_id":"cebpf4jnsgd1na2vs0mg"},{"bike_id":"d0c6206d-138d-45a9-a878-9886dd64267e","system_id":"levelo_inurba_marseille","lat":43.29555,"lon":5.4229,"is_reserved":false,"is_disabled":false,"rental_uris":{"android":"levelo://app?vid=d0c6206d-138d-45a9-a878-9886dd64267e","ios":"levelo://app?vid=d0c6206d-138d-45a9-a878-9886dd64267e"},"vehicle_type_id":"4","last_reported":1730139183,"current_range_meters":18800,"station_id":"ce4bhph2rcd13ifvqhdg","pricing_plan_id":"cebpf4jnsgd1na2vs0mg"},{"bike_id":"6b6df98e-b2cc-47ba-ae57-c47bf1f5d4e4","system_id":"levelo_inurba_marseille","lat":43.2886,"lon":5.35857,"is_reserved":false,"is_disabled":false,"rental_uris":{"android":"levelo://app?vid=6b6df98e-b2cc-47ba-ae57-c47bf1f5d4e4","ios":"levelo://app?vid=6b6df98e-b2cc-47ba-ae57-c47bf1f5d4e4"},"vehicle_type_id":"4","last_reported":1730139183,"current_range_meters":33600,"station_id":"ce4bhb12rcd13ifvqem0","pricing_plan_id":"cebpf4jnsgd1na2vs0mg"},{"bike_id":"8d191566-d8a6-44ba-bebe-2a9d6ff01fde","system_id":"levelo_inurba_marseille","lat":43.27239,"lon":5.387,"is_reserved":false,"is_disabled":false,"rental_uris":{"android":"levelo://app?vid=8d191566-d8a6-44ba-bebe-2a9d6ff01fde","ios":"levelo://app?vid=8d191566-d8a6-44ba-bebe-2a9d6ff01fde"},"vehicle_type_id":"4","last_reported":1730139183,"current_range_meters":27200,"station_id":"","pricing_plan_id":"cebpf4jnsgd1na2vs0mg"},{"bike_id":"2b1b4eb6-1740-4b41-9790-c4fc9c7ad639","system_id":"levelo_inurba_marseille","lat":43.28855,"lon":5.35841,"is_reserved":false,"is_disabled":false,"rental_uris":{"android":"levelo://app?vid=2b1b4eb6-1740-4b41-9790-c4fc9c7ad639","ios":"levelo://app?vid=2b1b4eb6-1740-4b41-9790-c4fc9c7ad639"},"vehicle_type_id":"4","last_reported":1730139183,"current_range_meters":15200,"station_id":"ce4bhb12rcd13ifvqem0","pricing_plan_id":"cebpf4jnsgd1na2vs0mg"},{"bike_id":"74e85234-ce6c-4c6b-9994-0feb2ff4b24c","system_id":"levelo_inurba_marseille","lat":43.29031,"lon":5.37574,"is_reserved":false,"is_disabled":false,"rental_uris":{"android":"levelo://app?vid=74e85234-ce6c-4c6b-9994-0feb2ff4b24c","ios":"levelo://app?vid=74e85234-ce6c-4c6b-9994-0feb2ff4b24c"},"vehicle_type_id":"4","last_reported":1730139183,"current_range_meters":24400,"station_id":"ce4bh692rcd13ifvqe90","pricing_plan_id":"cebpf4jnsgd1na2vs0mg"},{"bike_id":"d311ea8f-395c-49ba-8ea6-b3b1735a0ef4","system_id":"levelo_inurba_marseille","lat":43.24989,"lon":5.3893,"is_reserved":false,"is_disabled":false,"rental_uris":{"android":"levelo://app?vid=d311ea8f-395c-49ba-8ea6-b3b1735a0ef4","ios":"levelo://app?vid=d311ea8f-395c-49ba-8ea6-b3b1735a0ef4"},"vehicle_type_id":"4","last_reported":1730139183,"current_range_meters":10800,"station_id":"ce4bhgp2rcd13ifvqfd0","pricing_plan_id":"cebpf4jnsgd1na2vs0mg"},{"bike_id":"57f116d6-2ee5-45cf-9ead-4e7daae35aa0","system_id":"levelo_inurba_marseille","lat":43.29262,"lon":5.3844,"is_reserved":false,"is_disabled":false,"rental_uris":{"android":"levelo://app?vid=57f116d6-2ee5-45cf-9ead-4e7daae35aa0","ios":"levelo://app?vid=57f116d6-2ee5-45cf-9ead-4e7daae35aa0"},"vehicle_type_id":"4","last_reported":1730139183,"current_range_meters":32400,"station_id":"ce4bh692rcd13ifvqea0","pricing_plan_id":"cebpf4jnsgd1na2vs0mg"},{"bike_id":"5f6cfa0f-7a10-4704-b660-c54d5436493f","system_id":"levelo_inurba_marseille","lat":43.31236,"lon":5.4016,"is_reserved":false,"is_disabled":false,"rental_uris":{"android":"levelo://app?vid=5f6cfa0f-7a10-4704-b660-c54d5436493f","ios":"levelo://app?vid=5f6cfa0f-7a10-4704-b660-c54d5436493f"},"vehicle_type_id":"4","last_reported":1730139183,"current_range_meters":18800,"station_id":"ce4bh092rcd13ifvqd30","pricing_plan_id":"cebpf4jnsgd1na2vs0mg"},{"bike_id":"c27a42a2-ab65-4633-8691-45c1e1b48e02","system_id":"levelo_inurba_marseille","lat":43.29183,"lon":5.37141,"is_reserved":false,"is_disabled":false,"rental_uris":{"android":"levelo://app?vid=c27a42a2-ab65-4633-8691-45c1e1b48e02","ios":"levelo://app?vid=c27a42a2-ab65-4633-8691-45c1e1b48e02"},"vehicle_type_id":"4","last_reported":1730139183,"current_range_meters":8800,"station_id":"ce4bha92rcd13ifvqeh0","pricing_plan_id":"cebpf4jnsgd1na2vs0mg"},{"bike_id":"9c5b07c0-3d6d-4bbd-9de2-f3ea24926a82","system_id":"levelo_inurba_marseille","lat":43.29784,"lon":5.39336,"is_reserved":false,"is_disabled":false,"rental_uris":{"android":"levelo://app?vid=9c5b07c0-3d6d-4bbd-9de2-f3ea24926a82","ios":"levelo://app?vid=9c5b07c0-3d6d-4bbd-9de2-f3ea24926a82"},"vehicle_type_id":"4","last_reported":1730139183,"current_range_meters":36400,"station_id":"chh1huq6cuj3fo74tm60","pricing_plan_id":"cebpf4jnsgd1na2vs0mg"},{"bike_id":"b0cdc7be-b6e1-4c06-a780-6aa54595754a","system_id":"levelo_inurba_marseille","lat":43.31356,"lon":5.36711,"is_reserved":false,"is_disabled":false,"rental_uris":{"android":"levelo://app?vid=b0cdc7be-b6e1-4c06-a780-6aa54595754a","ios":"levelo://app?vid=b0cdc7be-b6e1-4c06-a780-6aa54595754a"},"vehicle_type_id":"4","last_reported":1730139183,"current_range_meters":28000,"station_id":"ce4bgr92rcd13ifvqc6g","pricing_plan_id":"cebpf4jnsgd1na2vs0mg"},{"bike_id":"d1dacee6-8f47-4ca5-823b-a2ea6c3413e8","system_id":"levelo_inurba_marseille","lat":43.23195,"lon":5.35559,"is_reserved":false,"is_disabled":false,"rental_uris":{"android":"levelo://app?vid=d1dacee6-8f47-4ca5-823b-a2ea6c3413e8","ios":"levelo://app?vid=d1dacee6-8f47-4ca5-823b-a2ea6c3413e8"},"vehicle_type_id":"4","last_reported":1730139183,"current_range_meters":39200,"station_id":"ce4bhu92rcd13ifvqi70","pricing_plan_id":"cebpf4jnsgd1na2vs0mg"},{"bike_id":"7a608df9-d38c-4539-9618-def54653a395","system_id":"levelo_inurba_marseille","lat":43.29796,"lon":5.37112,"is_reserved":false,"is_disabled":false,"rental_uris":{"android":"levelo://app?vid=7a608df9-d38c-4539-9618-def54653a395","ios":"levelo://app?vid=7a608df9-d38c-4539-9618-def54653a395"},"vehicle_type_id":"4","last_reported":1730139183,"current_range_meters":34000,"station_id":"ce4bgop2rcd13ifvqc1g","pricing_plan_id":"cebpf4jnsgd1na2vs0mg"},{"bike_id":"5122db4f-028f-43cf-a460-4eb25a10da04","system_id":"levelo_inurba_marseille","lat":43.290748,"lon":5.371578,"is_reserved":false,"is_disabled":false,"rental_uris":{"android":"levelo://app?vid=5122db4f-028f-43cf-a460-4eb25a10da04","ios":"levelo://app?vid=5122db4f-028f-43cf-a460-4eb25a10da04"},"vehicle_type_id":"4","last_reported":1730139183,"current_range_meters":11200,"station_id":"ce4bh5p2rcd13ifvqe4g","pricing_plan_id":"cebpf4jnsgd1na2vs0mg"},{"bike_id":"ff4fa59f-df4e-4303-83f9-bad00f804abe","system_id":"levelo_inurba_marseille","lat":43.28408,"lon":5.37504,"is_reserved":false,"is_disabled":false,"rental_uris":{"android":"levelo://app?vid=ff4fa59f-df4e-4303-83f9-bad00f804abe","ios":"levelo://app?vid=ff4fa59f-df4e-4303-83f9-bad00f804abe"},"vehicle_type_id":"4","last_reported":1730139183,"current_range_meters":12400,"station_id":"ce4bh412rcd13ifvqds0","pricing_plan_id":"cebpf4jnsgd1na2vs0mg"},{"bike_id":"53000e64-ed7e-43fe-89a9-2e87fcbd016c","system_id":"levelo_inurba_marseille","lat":43.27377,"lon":5.36263,"is_reserved":false,"is_disabled":false,"rental_uris":{"android":"levelo://app?vid=53000e64-ed7e-43fe-89a9-2e87fcbd016c","ios":"levelo://app?vid=53000e64-ed7e-43fe-89a9-2e87fcbd016c"},"vehicle_type_id":"4","last_reported":1730139183,"current_range_meters":10800,"station_id":"ce4bhbh2rcd13ifvqeo0","pricing_plan_id":"cebpf4jnsgd1na2vs0mg"},{"bike_id":"fa14b2a7-4808-4365-80f9-22f9fb213fb5","system_id":"levelo_inurba_marseille","lat":43.29789,"lon":5.37122,"is_reserved":false,"is_disabled":false,"rental_uris":{"android":"levelo://app?vid=fa14b2a7-4808-4365-80f9-22f9fb213fb5","ios":"levelo://app?vid=fa14b2a7-4808-4365-80f9-22f9fb213fb5"},"vehicle_type_id":"4","last_reported":1730139183,"current_range_meters":31200,"station_id":"ce4bgop2rcd13ifvqc1g","pricing_plan_id":"cebpf4jnsgd1na2vs0mg"},{"bike_id":"075cecf6-cdde-4de9-88c6-dbfc1fd79355","system_id":"levelo_inurba_marseille","lat":43.291,"lon":5.38117,"is_reserved":false,"is_disabled":false,"rental_uris":{"android":"levelo://app?vid=075cecf6-cdde-4de9-88c6-dbfc1fd79355","ios":"levelo://app?vid=075cecf6-cdde-4de9-88c6-dbfc1fd79355"},"vehicle_type_id":"4","last_reported":1730139183,"current_range_meters":8000,"station_id":"ce4bh512rcd13ifvqe2g","pricing_plan_id":"cebpf4jnsgd1na2vs0mg"},{"bike_id":"24144648-962c-46c1-934d-8a4138ea4d9a","system_id":"levelo_inurba_marseille","lat":43.31018,"lon":5.38959,"is_reserved":false,"is_disabled":false,"rental_uris":{"android":"levelo://app?vid=24144648-962c-46c1-934d-8a4138ea4d9a","ios":"levelo://app?vid=24144648-962c-46c1-934d-8a4138ea4d9a"},"vehicle_type_id":"4","last_reported":1730139183,"current_range_meters":24800,"station_id":"ce4bgv12rcd13ifvqcp0","pricing_plan_id":"cebpf4jnsgd1na2vs0mg"},{"bike_id":"59b2dd1b-b660-42a3-a43d-8e6aed7f2663","system_id":"levelo_inurba_marseille","lat":43.29256,"lon":5.38446,"is_reserved":false,"is_disabled":false,"rental_uris":{"android":"levelo://app?vid=59b2dd1b-b660-42a3-a43d-8e6aed7f2663","ios":"levelo://app?vid=59b2dd1b-b660-42a3-a43d-8e6aed7f2663"},"vehicle_type_id":"4","last_reported":1730139183,"current_range_meters":12000,"station_id":"ce4bh692rcd13ifvqea0","pricing_plan_id":"cebpf4jnsgd1na2vs0mg"},{"bike_id":"edee228c-76f1-4f9d-b4f7-5773b8a0b850","system_id":"levelo_inurba_marseille","lat":43.23193,"lon":5.35552,"is_reserved":false,"is_disabled":false,"rental_uris":{"android":"levelo://app?vid=edee228c-76f1-4f9d-b4f7-5773b8a0b850","ios":"levelo://app?vid=edee228c-76f1-4f9d-b4f7-5773b8a0b850"},"vehicle_type_id":"4","last_reported":1730139183,"current_range_meters":24400,"station_id":"ce4bhu92rcd13ifvqi70","pricing_plan_id":"cebpf4jnsgd1na2vs0mg"},{"bike_id":"be732738-dbca-47af-925c-5e855b0d396e","system_id":"levelo_inurba_marseille","lat":43.29203,"lon":5.39322,"is_reserved":false,"is_disabled":false,"rental_uris":{"android":"levelo://app?vid=be732738-dbca-47af-925c-5e855b0d396e","ios":"levelo://app?vid=be732738-dbca-47af-925c-5e855b0d396e"},"vehicle_type_id":"4","last_reported":1730139183,"current_range_meters":6400,"station_id":"ce4bh192rcd13ifvqdd0","pricing_plan_id":"cebpf4jnsgd1na2vs0mg"},{"bike_id":"27a3bee1-4ace-4ffd-b4ef-7e7fd88242e2","system_id":"levelo_inurba_marseille","lat":43.31118,"lon":5.37762,"is_reserved":false,"is_disabled":false,"rental_uris":{"android":"levelo://app?vid=27a3bee1-4ace-4ffd-b4ef-7e7fd88242e2","ios":"levelo://app?vid=27a3bee1-4ace-4ffd-b4ef-7e7fd88242e2"},"vehicle_type_id":"4","last_reported":1730139183,"current_range_meters":38000,"station_id":"ce4bgt92rcd13ifvqcg0","pricing_plan_id":"cebpf4jnsgd1na2vs0mg"},{"bike_id":"c5bda70f-8450-42d2-8ffa-619952f8f293","system_id":"levelo_inurba_marseille","lat":43.28341,"lon":5.38102,"is_reserved":false,"is_disabled":false,"rental_uris":{"android":"levelo://app?vid=c5bda70f-8450-42d2-8ffa-619952f8f293","ios":"levelo://app?vid=c5bda70f-8450-42d2-8ffa-619952f8f293"},"vehicle_type_id":"4","last_reported":1730139183,"current_range_meters":9600,"station_id":"ce4bh412rcd13ifvqdr0","pricing_plan_id":"cebpf4jnsgd1na2vs0mg"},{"bike_id":"2f921f60-1890-404a-898c-6dae28d2ff64","system_id":"levelo_inurba_marseille","lat":43.32108,"lon":5.36779,"is_reserved":false,"is_disabled":false,"rental_uris":{"android":"levelo://app?vid=2f921f60-1890-404a-898c-6dae28d2ff64","ios":"levelo://app?vid=2f921f60-1890-404a-898c-6dae28d2ff64"},"vehicle_type_id":"4","last_reported":1730139183,"current_range_meters":38800,"station_id":"ce4bhrh2rcd13ifvqhug","pricing_plan_id":"cebpf4jnsgd1na2vs0mg"},{"bike_id":"79226d2a-7d7c-4232-b251-c5a27e6cacb4","system_id":"levelo_inurba_marseille","lat":43.33026,"lon":5.39041,"is_reserved":false,"is_disabled":false,"rental_uris":{"android":"levelo://app?vid=79226d2a-7d7c-4232-b251-c5a27e6cacb4","ios":"levelo://app?vid=79226d2a-7d7c-4232-b251-c5a27e6cacb4"},"vehicle_type_id":"4","last_reported":1730139183,"current_range_meters":35200,"station_id":"ce4bhr92rcd13ifvqhrg","pricing_plan_id":"cebpf4jnsgd1na2vs0mg"},{"bike_id":"9989b398-ea1f-43b4-92f6-cb3a0e8d8247","system_id":"levelo_inurba_marseille","lat":43.313275,"lon":5.39689,"is_reserved":false,"is_disabled":false,"rental_uris":{"android":"levelo://app?vid=9989b398-ea1f-43b4-92f6-cb3a0e8d8247","ios":"levelo://app?vid=9989b398-ea1f-43b4-92f6-cb3a0e8d8247"},"vehicle_type_id":"4","last_reported":1730139183,"current_range_meters":38800,"station_id":"ce4bgvp2rcd13ifvqcu0","pricing_plan_id":"cebpf4jnsgd1na2vs0mg"},{"bike_id":"17c46d87-a312-41f7-93c7-3637b9f1c2fe","system_id":"levelo_inurba_marseille","lat":43.2952,"lon":5.39029,"is_reserved":false,"is_disabled":false,"rental_uris":{"android":"levelo://app?vid=17c46d87-a312-41f7-93c7-3637b9f1c2fe","ios":"levelo://app?vid=17c46d87-a312-41f7-93c7-3637b9f1c2fe"},"vehicle_type_id":"4","last_reported":1730139183,"current_range_meters":6000,"station_id":"ce4bh3p2rcd13ifvqdp0","pricing_plan_id":"cebpf4jnsgd1na2vs0mg"},{"bike_id":"cd8988cf-34e0-4cd8-92c1-67d3cd8c964e","system_id":"levelo_inurba_marseille","lat":43.23961,"lon":5.36628,"is_reserved":false,"is_disabled":false,"rental_uris":{"android":"levelo://app?vid=cd8988cf-34e0-4cd8-92c1-67d3cd8c964e","ios":"levelo://app?vid=cd8988cf-34e0-4cd8-92c1-67d3cd8c964e"},"vehicle_type_id":"4","last_reported":1730139183,"current_range_meters":9600,"station_id":"ce4bhi12rcd13ifvqfp0","pricing_plan_id":"cebpf4jnsgd1na2vs0mg"},{"bike_id":"58750843-dc43-4f10-8f78-8975e20a15ef","system_id":"levelo_inurba_marseille","lat":43.27183,"lon":5.4099,"is_reserved":false,"is_disabled":false,"rental_uris":{"android":"levelo://app?vid=58750843-dc43-4f10-8f78-8975e20a15ef","ios":"levelo://app?vid=58750843-dc43-4f10-8f78-8975e20a15ef"},"vehicle_type_id":"4","last_reported":1730139183,"current_range_meters":3600,"station_id":"ce4bhl12rcd13ifvqgf0","pricing_plan_id":"cebpf4jnsgd1na2vs0mg"},{"bike_id":"829b23d3-e634-4969-80ac-99f26bc6d5d6","system_id":"levelo_inurba_marseille","lat":43.29442,"lon":5.39749,"is_reserved":false,"is_disabled":false,"rental_uris":{"android":"levelo://app?vid=829b23d3-e634-4969-80ac-99f26bc6d5d6","ios":"levelo://app?vid=829b23d3-e634-4969-80ac-99f26bc6d5d6"},"vehicle_type_id":"4","last_reported":1730139183,"current_range_meters":20800,"station_id":"ce4bh3h2rcd13ifvqdo0","pricing_plan_id":"cebpf4jnsgd1na2vs0mg"},{"bike_id":"f01ef421-a5d6-47be-9be9-d36938802df2","system_id":"levelo_inurba_marseille","lat":43.28855,"lon":5.3932,"is_reserved":false,"is_disabled":false,"rental_uris":{"android":"levelo://app?vid=f01ef421-a5d6-47be-9be9-d36938802df2","ios":"levelo://app?vid=f01ef421-a5d6-47be-9be9-d36938802df2"},"vehicle_type_id":"4","last_reported":1730139183,"current_range_meters":4000,"station_id":"ce4bh2p2rcd13ifvqdi0","pricing_plan_id":"cebpf4jnsgd1na2vs0mg"},{"bike_id":"5e0986d2-51ae-4fb1-9a45-9c6ef05dcb70","system_id":"levelo_inurba_marseille","lat":43.29048,"lon":5.35916,"is_reserved":false,"is_disabled":false,"rental_uris":{"android":"levelo://app?vid=5e0986d2-51ae-4fb1-9a45-9c6ef05dcb70","ios":"levelo://app?vid=5e0986d2-51ae-4fb1-9a45-9c6ef05dcb70"},"vehicle_type_id":"4","last_reported":1730139183,"current_range_meters":38000,"station_id":"ce4bha92rcd13ifvqeg0","pricing_plan_id":"cebpf4jnsgd1na2vs0mg"},{"bike_id":"fe0f4ad9-8221-48ed-be5d-c64547a2f47a","system_id":"levelo_inurba_marseille","lat":43.286266,"lon":5.383502,"is_reserved":false,"is_disabled":false,"rental_uris":{"android":"levelo://app?vid=fe0f4ad9-8221-48ed-be5d-c64547a2f47a","ios":"levelo://app?vid=fe0f4ad9-8221-48ed-be5d-c64547a2f47a"},"vehicle_type_id":"4","last_reported":1730139183,"current_range_meters":20400,"station_id":"ce4bh4p2rcd13ifvqe1g","pricing_plan_id":"cebpf4jnsgd1na2vs0mg"},{"bike_id":"e0f724a6-f663-4c4f-a50c-c19c4d73c0a8","system_id":"levelo_inurba_marseille","lat":43.29565,"lon":5.39963,"is_reserved":false,"is_disabled":false,"rental_uris":{"android":"levelo://app?vid=e0f724a6-f663-4c4f-a50c-c19c4d73c0a8","ios":"levelo://app?vid=e0f724a6-f663-4c4f-a50c-c19c4d73c0a8"},"vehicle_type_id":"4","last_reported":1730139183,"current_range_meters":20800,"station_id":"ce4bh312rcd13ifvqdj0","pricing_plan_id":"cebpf4jnsgd1na2vs0mg"},{"bike_id":"a846678d-cd93-4890-9fdc-977c67090280","system_id":"levelo_inurba_marseille","lat":43.2841,"lon":5.37507,"is_reserved":false,"is_disabled":false,"rental_uris":{"android":"levelo://app?vid=a846678d-cd93-4890-9fdc-977c67090280","ios":"levelo://app?vid=a846678d-cd93-4890-9fdc-977c67090280"},"vehicle_type_id":"4","last_reported":1730139183,"current_range_meters":35200,"station_id":"ce4bh412rcd13ifvqds0","pricing_plan_id":"cebpf4jnsgd1na2vs0mg"},{"bike_id":"510cd635-66dc-4797-a0a9-b98b7216ce1b","system_id":"levelo_inurba_marseille","lat":43.29419,"lon":5.3862,"is_reserved":false,"is_disabled":false,"rental_uris":{"android":"levelo://app?vid=510cd635-66dc-4797-a0a9-b98b7216ce1b","ios":"levelo://app?vid=510cd635-66dc-4797-a0a9-b98b7216ce1b"},"vehicle_type_id":"4","last_reported":1730139183,"current_range_meters":8400,"station_id":"ce4bh2h2rcd13ifvqdh0","pricing_plan_id":"cebpf4jnsgd1na2vs0mg"},{"bike_id":"c103f3cf-a699-4d79-9cc1-df1ab22121e9","system_id":"levelo_inurba_marseille","lat":43.28654,"lon":5.3635,"is_reserved":false,"is_disabled":false,"rental_uris":{"android":"levelo://app?vid=c103f3cf-a699-4d79-9cc1-df1ab22121e9","ios":"levelo://app?vid=c103f3cf-a699-4d79-9cc1-df1ab22121e9"},"vehicle_type_id":"4","last_reported":1730139183,"current_range_meters":38000,"station_id":"ce4bhah2rcd13ifvqej0","pricing_plan_id":"cebpf4jnsgd1na2vs0mg"},{"bike_id":"667af4ab-e378-421e-99e5-61043e83c5c6","system_id":"levelo_inurba_marseille","lat":43.29553,"lon":5.42288,"is_reserved":false,"is_disabled":false,"rental_uris":{"android":"levelo://app?vid=667af4ab-e378-421e-99e5-61043e83c5c6","ios":"levelo://app?vid=667af4ab-e378-421e-99e5-61043e83c5c6"},"vehicle_type_id":"4","last_reported":1730139183,"current_range_meters":39200,"station_id":"ce4bhph2rcd13ifvqhdg","pricing_plan_id":"cebpf4jnsgd1na2vs0mg"},{"bike_id":"1abd4a60-3406-43a1-ad17-684628a47933","system_id":"levelo_inurba_marseille","lat":43.29416,"lon":5.38623,"is_reserved":false,"is_disabled":false,"rental_uris":{"android":"levelo://app?vid=1abd4a60-3406-43a1-ad17-684628a47933","ios":"levelo://app?vid=1abd4a60-3406-43a1-ad17-684628a47933"},"vehicle_type_id":"4","last_reported":1730139183,"current_range_meters":16400,"station_id":"ce4bh2h2rcd13ifvqdh0","pricing_plan_id":"cebpf4jnsgd1na2vs0mg"},{"bike_id":"aebdf355-a7c8-47ea-bd00-354c9c81bb2f","system_id":"levelo_inurba_marseille","lat":43.25588,"lon":5.3824,"is_reserved":false,"is_disabled":false,"rental_uris":{"android":"levelo://app?vid=aebdf355-a7c8-47ea-bd00-354c9c81bb2f","ios":"levelo://app?vid=aebdf355-a7c8-47ea-bd00-354c9c81bb2f"},"vehicle_type_id":"4","last_reported":1730139183,"current_range_meters":19600,"station_id":"ce4bhih2rcd13ifvqfs0","pricing_plan_id":"cebpf4jnsgd1na2vs0mg"},{"bike_id":"538d0707-8116-4738-bd45-7d149dd8ff9e","system_id":"levelo_inurba_marseille","lat":43.29621,"lon":5.3717,"is_reserved":false,"is_disabled":false,"rental_uris":{"android":"levelo://app?vid=538d0707-8116-4738-bd45-7d149dd8ff9e","ios":"levelo://app?vid=538d0707-8116-4738-bd45-7d149dd8ff9e"},"vehicle_type_id":"4","last_reported":1730139183,"current_range_meters":38400,"station_id":"ce4bgnh2rcd13ifvqc0g","pricing_plan_id":"cebpf4jnsgd1na2vs0mg"},{"bike_id":"ba8a527f-96ff-4815-82ed-886a3b876dc4","system_id":"levelo_inurba_marseille","lat":43.28723,"lon":5.3795,"is_reserved":false,"is_disabled":false,"rental_uris":{"android":"levelo://app?vid=ba8a527f-96ff-4815-82ed-886a3b876dc4","ios":"levelo://app?vid=ba8a527f-96ff-4815-82ed-886a3b876dc4"},"vehicle_type_id":"4","last_reported":1730139183,"current_range_meters":17600,"station_id":"ce4bh9p2rcd13ifvqec0","pricing_plan_id":"cebpf4jnsgd1na2vs0mg"},{"bike_id":"e113f747-4daa-44f7-a218-9e030daa2565","system_id":"levelo_inurba_marseille","lat":43.32105,"lon":5.36779,"is_reserved":false,"is_disabled":false,"rental_uris":{"android":"levelo://app?vid=e113f747-4daa-44f7-a218-9e030daa2565","ios":"levelo://app?vid=e113f747-4daa-44f7-a218-9e030daa2565"},"vehicle_type_id":"4","last_reported":1730139183,"current_range_meters":19600,"station_id":"ce4bhrh2rcd13ifvqhug","pricing_plan_id":"cebpf4jnsgd1na2vs0mg"},{"bike_id":"66e28388-948c-4989-b2c4-2a01d249c29c","system_id":"levelo_inurba_marseille","lat":43.29534,"lon":5.38536,"is_reserved":false,"is_disabled":false,"rental_uris":{"android":"levelo://app?vid=66e28388-948c-4989-b2c4-2a01d249c29c","ios":"levelo://app?vid=66e28388-948c-4989-b2c4-2a01d249c29c"},"vehicle_type_id":"4","last_reported":1730139183,"current_range_meters":22000,"station_id":"ce4bgih2rcd13ifvqba0","pricing_plan_id":"cebpf4jnsgd1na2vs0mg"},{"bike_id":"c83bf92a-895e-4031-90cc-0a4806604b3f","system_id":"levelo_inurba_marseille","lat":43.23054,"lon":5.35491,"is_reserved":false,"is_disabled":false,"rental_uris":{"android":"levelo://app?vid=c83bf92a-895e-4031-90cc-0a4806604b3f","ios":"levelo://app?vid=c83bf92a-895e-4031-90cc-0a4806604b3f"},"vehicle_type_id":"4","last_reported":1730139183,"current_range_meters":36400,"station_id":"cpo3342slgdg3j2ifvpg","pricing_plan_id":"cebpf4jnsgd1na2vs0mg"},{"bike_id":"3f4e9f7d-d364-447b-b7a3-5938ab5df8c4","system_id":"levelo_inurba_marseille","lat":43.3248,"lon":5.36569,"is_reserved":false,"is_disabled":false,"rental_uris":{"android":"levelo://app?vid=3f4e9f7d-d364-447b-b7a3-5938ab5df8c4","ios":"levelo://app?vid=3f4e9f7d-d364-447b-b7a3-5938ab5df8c4"},"vehicle_type_id":"4","last_reported":1730139183,"current_range_meters":9200,"station_id":"ce4bhs12rcd13ifvqhvg","pricing_plan_id":"cebpf4jnsgd1na2vs0mg"},{"bike_id":"9fd56fad-5f3d-42b4-b491-7b57b76bc0cf","system_id":"levelo_inurba_marseille","lat":43.27817,"lon":5.4072,"is_reserved":false,"is_disabled":false,"rental_uris":{"android":"levelo://app?vid=9fd56fad-5f3d-42b4-b491-7b57b76bc0cf","ios":"levelo://app?vid=9fd56fad-5f3d-42b4-b491-7b57b76bc0cf"},"vehicle_type_id":"4","last_reported":1730139183,"current_range_meters":16000,"station_id":"ce4bhnh2rcd13ifvqgtg","pricing_plan_id":"cebpf4jnsgd1na2vs0mg"},{"bike_id":"ae8e58b6-cadf-4ba2-ba19-c1a6e852eaa4","system_id":"levelo_inurba_marseille","lat":43.25825,"lon":5.39438,"is_reserved":false,"is_disabled":false,"rental_uris":{"android":"levelo://app?vid=ae8e58b6-cadf-4ba2-ba19-c1a6e852eaa4","ios":"levelo://app?vid=ae8e58b6-cadf-4ba2-ba19-c1a6e852eaa4"},"vehicle_type_id":"4","last_reported":1730139183,"current_range_meters":27600,"station_id":"ce4bhip2rcd13ifvqft0","pricing_plan_id":"cebpf4jnsgd1na2vs0mg"},{"bike_id":"817841de-45b8-450f-a0c6-5a2991569958","system_id":"levelo_inurba_marseille","lat":43.28937,"lon":5.36393,"is_reserved":false,"is_disabled":false,"rental_uris":{"android":"levelo://app?vid=817841de-45b8-450f-a0c6-5a2991569958","ios":"levelo://app?vid=817841de-45b8-450f-a0c6-5a2991569958"},"vehicle_type_id":"4","last_reported":1730139183,"current_range_meters":33200,"station_id":"ce4bhc92rcd13ifvqetg","pricing_plan_id":"cebpf4jnsgd1na2vs0mg"},{"bike_id":"86d2afd6-941c-416a-a958-01d3a8c8c057","system_id":"levelo_inurba_marseille","lat":43.239763,"lon":5.397025,"is_reserved":false,"is_disabled":false,"rental_uris":{"android":"levelo://app?vid=86d2afd6-941c-416a-a958-01d3a8c8c057","ios":"levelo://app?vid=86d2afd6-941c-416a-a958-01d3a8c8c057"},"vehicle_type_id":"4","last_reported":1730139183,"current_range_meters":19200,"station_id":"ce4bhl12rcd13ifvqgf0","pricing_plan_id":"cebpf4jnsgd1na2vs0mg"},{"bike_id":"d02854e0-ae39-49e8-bde0-60f3ac2caf3f","system_id":"levelo_inurba_marseille","lat":43.30206,"lon":5.39462,"is_reserved":false,"is_disabled":false,"rental_uris":{"android":"levelo://app?vid=d02854e0-ae39-49e8-bde0-60f3ac2caf3f","ios":"levelo://app?vid=d02854e0-ae39-49e8-bde0-60f3ac2caf3f"},"vehicle_type_id":"4","last_reported":1730139183,"current_range_meters":6800,"station_id":"ce4bh0p2rcd13ifvqd70","pricing_plan_id":"cebpf4jnsgd1na2vs0mg"},{"bike_id":"9d61ab69-2ac0-486f-aac9-513394e0d791","system_id":"levelo_inurba_marseille","lat":43.3266,"lon":5.40992,"is_reserved":false,"is_disabled":false,"rental_uris":{"android":"levelo://app?vid=9d61ab69-2ac0-486f-aac9-513394e0d791","ios":"levelo://app?vid=9d61ab69-2ac0-486f-aac9-513394e0d791"},"vehicle_type_id":"4","last_reported":1730139183,"current_range_meters":25200,"station_id":"ce4bhpp2rcd13ifvqhgg","pricing_plan_id":"cebpf4jnsgd1na2vs0mg"},{"bike_id":"9a734608-f5e5-48c6-916f-9b1e8ea134a7","system_id":"levelo_inurba_marseille","lat":43.29262,"lon":5.38437,"is_reserved":false,"is_disabled":false,"rental_uris":{"android":"levelo://app?vid=9a734608-f5e5-48c6-916f-9b1e8ea134a7","ios":"levelo://app?vid=9a734608-f5e5-48c6-916f-9b1e8ea134a7"},"vehicle_type_id":"4","last_reported":1730139183,"current_range_meters":4400,"station_id":"ce4bh692rcd13ifvqea0","pricing_plan_id":"cebpf4jnsgd1na2vs0mg"},{"bike_id":"60c3ba1f-799d-4b74-aa4f-8bd50ab37886","system_id":"levelo_inurba_marseille","lat":43.28464,"lon":5.35896,"is_reserved":false,"is_disabled":false,"rental_uris":{"android":"levelo://app?vid=60c3ba1f-799d-4b74-aa4f-8bd50ab37886","ios":"levelo://app?vid=60c3ba1f-799d-4b74-aa4f-8bd50ab37886"},"vehicle_type_id":"4","last_reported":1730139183,"current_range_meters":6400,"station_id":"ce4bhah2rcd13ifvqei0","pricing_plan_id":"cebpf4jnsgd1na2vs0mg"},{"bike_id":"8a7c75d5-d3cc-4d25-bd6f-729a1fc36820","system_id":"levelo_inurba_marseille","lat":43.31358,"lon":5.38496,"is_reserved":false,"is_disabled":false,"rental_uris":{"android":"levelo://app?vid=8a7c75d5-d3cc-4d25-bd6f-729a1fc36820","ios":"levelo://app?vid=8a7c75d5-d3cc-4d25-bd6f-729a1fc36820"},"vehicle_type_id":"4","last_reported":1730139183,"current_range_meters":3600,"station_id":"ce4bgt92rcd13ifvqcf0","pricing_plan_id":"cebpf4jnsgd1na2vs0mg"},{"bike_id":"fb23470d-7641-43ea-b4ed-3c02e42d147a","system_id":"levelo_inurba_marseille","lat":43.29032,"lon":5.3864,"is_reserved":false,"is_disabled":false,"rental_uris":{"android":"levelo://app?vid=fb23470d-7641-43ea-b4ed-3c02e42d147a","ios":"levelo://app?vid=fb23470d-7641-43ea-b4ed-3c02e42d147a"},"vehicle_type_id":"4","last_reported":1730139183,"current_range_meters":30400,"station_id":"ce4bh4p2rcd13ifvqe0g","pricing_plan_id":"cebpf4jnsgd1na2vs0mg"},{"bike_id":"f3b058ed-8a0e-4829-adb4-cf1ea18a2a53","system_id":"levelo_inurba_marseille","lat":43.29795,"lon":5.39341,"is_reserved":false,"is_disabled":false,"rental_uris":{"android":"levelo://app?vid=f3b058ed-8a0e-4829-adb4-cf1ea18a2a53","ios":"levelo://app?vid=f3b058ed-8a0e-4829-adb4-cf1ea18a2a53"},"vehicle_type_id":"4","last_reported":1730139183,"current_range_meters":11200,"station_id":"chh1huq6cuj3fo74tm60","pricing_plan_id":"cebpf4jnsgd1na2vs0mg"},{"bike_id":"a3de4eff-4f7a-4fb6-b7fa-f840a75639ca","system_id":"levelo_inurba_marseille","lat":43.2926,"lon":5.38445,"is_reserved":false,"is_disabled":false,"rental_uris":{"android":"levelo://app?vid=a3de4eff-4f7a-4fb6-b7fa-f840a75639ca","ios":"levelo://app?vid=a3de4eff-4f7a-4fb6-b7fa-f840a75639ca"},"vehicle_type_id":"4","last_reported":1730139183,"current_range_meters":21600,"station_id":"ce4bh692rcd13ifvqea0","pricing_plan_id":"cebpf4jnsgd1na2vs0mg"},{"bike_id":"0767fba8-2acc-437e-85a2-d8e45257d9b6","system_id":"levelo_inurba_marseille","lat":43.31333,"lon":5.39687,"is_reserved":false,"is_disabled":false,"rental_uris":{"android":"levelo://app?vid=0767fba8-2acc-437e-85a2-d8e45257d9b6","ios":"levelo://app?vid=0767fba8-2acc-437e-85a2-d8e45257d9b6"},"vehicle_type_id":"4","last_reported":1730139183,"current_range_meters":15200,"station_id":"ce4bgvp2rcd13ifvqcu0","pricing_plan_id":"cebpf4jnsgd1na2vs0mg"},{"bike_id":"f7a50275-88a4-4be4-ac33-5cce1242cfaa","system_id":"levelo_inurba_marseille","lat":43.31657,"lon":5.37687,"is_reserved":false,"is_disabled":false,"rental_uris":{"android":"levelo://app?vid=f7a50275-88a4-4be4-ac33-5cce1242cfaa","ios":"levelo://app?vid=f7a50275-88a4-4be4-ac33-5cce1242cfaa"},"vehicle_type_id":"4","last_reported":1730139183,"current_range_meters":38000,"station_id":"","pricing_plan_id":"cebpf4jnsgd1na2vs0mg"},{"bike_id":"d0349594-fc03-4c53-8328-2d46b1ff154b","system_id":"levelo_inurba_marseille","lat":43.28607,"lon":5.37065,"is_reserved":false,"is_disabled":false,"rental_uris":{"android":"levelo://app?vid=d0349594-fc03-4c53-8328-2d46b1ff154b","ios":"levelo://app?vid=d0349594-fc03-4c53-8328-2d46b1ff154b"},"vehicle_type_id":"4","last_reported":1730139183,"current_range_meters":27600,"station_id":"ce4bht12rcd13ifvqi60","pricing_plan_id":"cebpf4jnsgd1na2vs0mg"},{"bike_id":"73aa2041-6ed0-437f-9d18-29806d5051d5","system_id":"levelo_inurba_marseille","lat":43.29176,"lon":5.37144,"is_reserved":false,"is_disabled":false,"rental_uris":{"android":"levelo://app?vid=73aa2041-6ed0-437f-9d18-29806d5051d5","ios":"levelo://app?vid=73aa2041-6ed0-437f-9d18-29806d5051d5"},"vehicle_type_id":"4","last_reported":1730139183,"current_range_meters":38000,"station_id":"ce4bha92rcd13ifvqeh0","pricing_plan_id":"cebpf4jnsgd1na2vs0mg"},{"bike_id":"6627e12e-9cb1-4b91-ab1a-b51812344191","system_id":"levelo_inurba_marseille","lat":43.27073,"lon":5.42282,"is_reserved":false,"is_disabled":false,"rental_uris":{"android":"levelo://app?vid=6627e12e-9cb1-4b91-ab1a-b51812344191","ios":"levelo://app?vid=6627e12e-9cb1-4b91-ab1a-b51812344191"},"vehicle_type_id":"4","last_reported":1730139183,"current_range_meters":24000,"station_id":"ce4bhk92rcd13ifvqgb0","pricing_plan_id":"cebpf4jnsgd1na2vs0mg"},{"bike_id":"4a7d2e78-51b9-46d2-bf89-98a48709d13a","system_id":"levelo_inurba_marseille","lat":43.31722,"lon":5.42395,"is_reserved":false,"is_disabled":false,"rental_uris":{"android":"levelo://app?vid=4a7d2e78-51b9-46d2-bf89-98a48709d13a","ios":"levelo://app?vid=4a7d2e78-51b9-46d2-bf89-98a48709d13a"},"vehicle_type_id":"4","last_reported":1730139183,"current_range_meters":16400,"station_id":"ce4bhp92rcd13ifvqhbg","pricing_plan_id":"cebpf4jnsgd1na2vs0mg"},{"bike_id":"bdad40da-4714-4179-a84e-4bbe5a2c808e","system_id":"levelo_inurba_marseille","lat":43.268147,"lon":5.411201,"is_reserved":false,"is_disabled":false,"rental_uris":{"android":"levelo://app?vid=bdad40da-4714-4179-a84e-4bbe5a2c808e","ios":"levelo://app?vid=bdad40da-4714-4179-a84e-4bbe5a2c808e"},"vehicle_type_id":"4","last_reported":1730139183,"current_range_meters":23200,"station_id":"","pricing_plan_id":"cebpf4jnsgd1na2vs0mg"},{"bike_id":"b82adeb1-6062-4569-b6f3-d9bf96cace23","system_id":"levelo_inurba_marseille","lat":43.23149,"lon":5.43722,"is_reserved":false,"is_disabled":false,"rental_uris":{"android":"levelo://app?vid=b82adeb1-6062-4569-b6f3-d9bf96cace23","ios":"levelo://app?vid=b82adeb1-6062-4569-b6f3-d9bf96cace23"},"vehicle_type_id":"4","last_reported":1730139183,"current_range_meters":38800,"station_id":"ce4bhmp2rcd13ifvqgog","pricing_plan_id":"cebpf4jnsgd1na2vs0mg"},{"bike_id":"4f4567da-c55b-4425-9121-ef40bd15ca77","system_id":"levelo_inurba_marseille","lat":43.29449,"lon":5.39747,"is_reserved":false,"is_disabled":false,"rental_uris":{"android":"levelo://app?vid=4f4567da-c55b-4425-9121-ef40bd15ca77","ios":"levelo://app?vid=4f4567da-c55b-4425-9121-ef40bd15ca77"},"vehicle_type_id":"4","last_reported":1730139183,"current_range_meters":16000,"station_id":"ce4bh3h2rcd13ifvqdo0","pricing_plan_id":"cebpf4jnsgd1na2vs0mg"},{"bike_id":"6f487d93-ed54-4bc3-8917-f0af52bd63dd","system_id":"levelo_inurba_marseille","lat":43.27917,"lon":5.39578,"is_reserved":false,"is_disabled":false,"rental_uris":{"android":"levelo://app?vid=6f487d93-ed54-4bc3-8917-f0af52bd63dd","ios":"levelo://app?vid=6f487d93-ed54-4bc3-8917-f0af52bd63dd"},"vehicle_type_id":"4","last_reported":1730139183,"current_range_meters":4800,"station_id":"ce4bhf92rcd13ifvqf40","pricing_plan_id":"cebpf4jnsgd1na2vs0mg"},{"bike_id":"e82b99b5-c984-44d5-a147-8d05bf049e63","system_id":"levelo_inurba_marseille","lat":43.29444,"lon":5.3974,"is_reserved":false,"is_disabled":false,"rental_uris":{"android":"levelo://app?vid=e82b99b5-c984-44d5-a147-8d05bf049e63","ios":"levelo://app?vid=e82b99b5-c984-44d5-a147-8d05bf049e63"},"vehicle_type_id":"4","last_reported":1730139183,"current_range_meters":16800,"station_id":"ce4bh3h2rcd13ifvqdo0","pricing_plan_id":"cebpf4jnsgd1na2vs0mg"},{"bike_id":"9befed88-9f8c-464c-b07b-093bd97066bb","system_id":"levelo_inurba_marseille","lat":43.29805,"lon":5.37136,"is_reserved":false,"is_disabled":false,"rental_uris":{"android":"levelo://app?vid=9befed88-9f8c-464c-b07b-093bd97066bb","ios":"levelo://app?vid=9befed88-9f8c-464c-b07b-093bd97066bb"},"vehicle_type_id":"4","last_reported":1730139183,"current_range_meters":14400,"station_id":"","pricing_plan_id":"cebpf4jnsgd1na2vs0mg"},{"bike_id":"f37e3b02-a49c-4c4e-b112-f9c8c24edf90","system_id":"levelo_inurba_marseille","lat":43.235,"lon":5.35917,"is_reserved":false,"is_disabled":false,"rental_uris":{"android":"levelo://app?vid=f37e3b02-a49c-4c4e-b112-f9c8c24edf90","ios":"levelo://app?vid=f37e3b02-a49c-4c4e-b112-f9c8c24edf90"},"vehicle_type_id":"4","last_reported":1730139183,"current_range_meters":4400,"station_id":"ce4bhu92rcd13ifvqi70","pricing_plan_id":"cebpf4jnsgd1na2vs0mg"},{"bike_id":"3900b51d-33c5-4c58-af82-48a80269db8b","system_id":"levelo_inurba_marseille","lat":43.25087,"lon":5.39522,"is_reserved":false,"is_disabled":false,"rental_uris":{"android":"levelo://app?vid=3900b51d-33c5-4c58-af82-48a80269db8b","ios":"levelo://app?vid=3900b51d-33c5-4c58-af82-48a80269db8b"},"vehicle_type_id":"4","last_reported":1730139183,"current_range_meters":25200,"station_id":"ce4bhm12rcd13ifvqgkg","pricing_plan_id":"cebpf4jnsgd1na2vs0mg"},{"bike_id":"afc21eb3-7888-4a37-9556-c4e9c1a125a8","system_id":"levelo_inurba_marseille","lat":43.24807,"lon":5.37457,"is_reserved":false,"is_disabled":false,"rental_uris":{"android":"levelo://app?vid=afc21eb3-7888-4a37-9556-c4e9c1a125a8","ios":"levelo://app?vid=afc21eb3-7888-4a37-9556-c4e9c1a125a8"},"vehicle_type_id":"4","last_reported":1730139183,"current_range_meters":16000,"station_id":"ce4bhgh2rcd13ifvqfb0","pricing_plan_id":"cebpf4jnsgd1na2vs0mg"},{"bike_id":"ce6feaed-29ec-4a0b-a85e-d49a8cb7c1b6","system_id":"levelo_inurba_marseille","lat":43.29896,"lon":5.43668,"is_reserved":false,"is_disabled":false,"rental_uris":{"android":"levelo://app?vid=ce6feaed-29ec-4a0b-a85e-d49a8cb7c1b6","ios":"levelo://app?vid=ce6feaed-29ec-4a0b-a85e-d49a8cb7c1b6"},"vehicle_type_id":"4","last_reported":1730139183,"current_range_meters":26800,"station_id":"ce4bhpp2rcd13ifvqhfg","pricing_plan_id":"cebpf4jnsgd1na2vs0mg"},{"bike_id":"36c258b2-310f-4ff7-8342-92eaa5855b65","system_id":"levelo_inurba_marseille","lat":43.27945,"lon":5.41052,"is_reserved":false,"is_disabled":false,"rental_uris":{"android":"levelo://app?vid=36c258b2-310f-4ff7-8342-92eaa5855b65","ios":"levelo://app?vid=36c258b2-310f-4ff7-8342-92eaa5855b65"},"vehicle_type_id":"4","last_reported":1730139183,"current_range_meters":24400,"station_id":"ce4bhnp2rcd13ifvqh0g","pricing_plan_id":"cebpf4jnsgd1na2vs0mg"},{"bike_id":"0b1ba66c-8429-4bf3-83dd-bafde3a92231","system_id":"levelo_inurba_marseille","lat":43.3248,"lon":5.36555,"is_reserved":false,"is_disabled":false,"rental_uris":{"android":"levelo://app?vid=0b1ba66c-8429-4bf3-83dd-bafde3a92231","ios":"levelo://app?vid=0b1ba66c-8429-4bf3-83dd-bafde3a92231"},"vehicle_type_id":"4","last_reported":1730139183,"current_range_meters":24400,"station_id":"ce4bhs12rcd13ifvqhvg","pricing_plan_id":"cebpf4jnsgd1na2vs0mg"},{"bike_id":"5fdc3e1a-ad6b-4861-b809-17c931b02a50","system_id":"levelo_inurba_marseille","lat":43.29937,"lon":5.36553,"is_reserved":false,"is_disabled":false,"rental_uris":{"android":"levelo://app?vid=5fdc3e1a-ad6b-4861-b809-17c931b02a50","ios":"levelo://app?vid=5fdc3e1a-ad6b-4861-b809-17c931b02a50"},"vehicle_type_id":"4","last_reported":1730139183,"current_range_meters":29600,"station_id":"ce4bgm92rcd13ifvqbr0","pricing_plan_id":"cebpf4jnsgd1na2vs0mg"},{"bike_id":"b637d5f0-a436-4ec2-9135-8026c6413cd2","system_id":"levelo_inurba_marseille","lat":43.30301,"lon":5.39203,"is_reserved":false,"is_disabled":false,"rental_uris":{"android":"levelo://app?vid=b637d5f0-a436-4ec2-9135-8026c6413cd2","ios":"levelo://app?vid=b637d5f0-a436-4ec2-9135-8026c6413cd2"},"vehicle_type_id":"4","last_reported":1730139183,"current_range_meters":4800,"station_id":"ce4bgkh2rcd13ifvqbk0","pricing_plan_id":"cebpf4jnsgd1na2vs0mg"},{"bike_id":"2c561ad2-7097-4f3f-b151-f095129aaf6d","system_id":"levelo_inurba_marseille","lat":43.28361,"lon":5.38632,"is_reserved":false,"is_disabled":false,"rental_uris":{"android":"levelo://app?vid=2c561ad2-7097-4f3f-b151-f095129aaf6d","ios":"levelo://app?vid=2c561ad2-7097-4f3f-b151-f095129aaf6d"},"vehicle_type_id":"4","last_reported":1730139183,"current_range_meters":36400,"station_id":"ce4bh492rcd13ifvqdvg","pricing_plan_id":"cebpf4jnsgd1na2vs0mg"},{"bike_id":"b4fac066-85c7-4576-ad98-d98a7d7878f3","system_id":"levelo_inurba_marseille","lat":43.29301,"lon":5.3746,"is_reserved":false,"is_disabled":false,"rental_uris":{"android":"levelo://app?vid=b4fac066-85c7-4576-ad98-d98a7d7878f3","ios":"levelo://app?vid=b4fac066-85c7-4576-ad98-d98a7d7878f3"},"vehicle_type_id":"4","last_reported":1730139183,"current_range_meters":32400,"station_id":"ce4bgi12rcd13ifvqb70","pricing_plan_id":"cebpf4jnsgd1na2vs0mg"},{"bike_id":"152a8782-bb29-4efa-9396-126df537ab1d","system_id":"levelo_inurba_marseille","lat":43.29261,"lon":5.38438,"is_reserved":false,"is_disabled":false,"rental_uris":{"android":"levelo://app?vid=152a8782-bb29-4efa-9396-126df537ab1d","ios":"levelo://app?vid=152a8782-bb29-4efa-9396-126df537ab1d"},"vehicle_type_id":"4","last_reported":1730139183,"current_range_meters":6000,"station_id":"ce4bh692rcd13ifvqea0","pricing_plan_id":"cebpf4jnsgd1na2vs0mg"},{"bike_id":"e31650d1-6313-4c09-96ff-bc5a7403b852","system_id":"levelo_inurba_marseille","lat":43.323303,"lon":5.406317,"is_reserved":false,"is_disabled":false,"rental_uris":{"android":"levelo://app?vid=e31650d1-6313-4c09-96ff-bc5a7403b852","ios":"levelo://app?vid=e31650d1-6313-4c09-96ff-bc5a7403b852"},"vehicle_type_id":"4","last_reported":1730139183,"current_range_meters":38800,"station_id":"ce4bhq92rcd13ifvqhjg","pricing_plan_id":"cebpf4jnsgd1na2vs0mg"},{"bike_id":"aefac986-b0c6-43dd-b63b-a00cd751d12d","system_id":"levelo_inurba_marseille","lat":43.31988,"lon":5.38162,"is_reserved":false,"is_disabled":false,"rental_uris":{"android":"levelo://app?vid=aefac986-b0c6-43dd-b63b-a00cd751d12d","ios":"levelo://app?vid=aefac986-b0c6-43dd-b63b-a00cd751d12d"},"vehicle_type_id":"4","last_reported":1730139183,"current_range_meters":29600,"station_id":"ce4bhr12rcd13ifvqhpg","pricing_plan_id":"cebpf4jnsgd1na2vs0mg"},{"bike_id":"82f66400-600d-4daa-8d38-0f53d5f69db4","system_id":"levelo_inurba_marseille","lat":43.28462,"lon":5.35899,"is_reserved":false,"is_disabled":false,"rental_uris":{"android":"levelo://app?vid=82f66400-600d-4daa-8d38-0f53d5f69db4","ios":"levelo://app?vid=82f66400-600d-4daa-8d38-0f53d5f69db4"},"vehicle_type_id":"4","last_reported":1730139183,"current_range_meters":26000,"station_id":"ce4bhah2rcd13ifvqei0","pricing_plan_id":"cebpf4jnsgd1na2vs0mg"},{"bike_id":"f17c9183-80c3-45da-b707-f4d7856bd7c3","system_id":"levelo_inurba_marseille","lat":43.29271,"lon":5.38441,"is_reserved":false,"is_disabled":false,"rental_uris":{"android":"levelo://app?vid=f17c9183-80c3-45da-b707-f4d7856bd7c3","ios":"levelo://app?vid=f17c9183-80c3-45da-b707-f4d7856bd7c3"},"vehicle_type_id":"4","last_reported":1730139183,"current_range_meters":5600,"station_id":"ce4bh692rcd13ifvqea0","pricing_plan_id":"cebpf4jnsgd1na2vs0mg"},{"bike_id":"2f918fb7-3364-47e6-a4f0-9d10844c4908","system_id":"levelo_inurba_marseille","lat":43.2942,"lon":5.38626,"is_reserved":false,"is_disabled":false,"rental_uris":{"android":"levelo://app?vid=2f918fb7-3364-47e6-a4f0-9d10844c4908","ios":"levelo://app?vid=2f918fb7-3364-47e6-a4f0-9d10844c4908"},"vehicle_type_id":"4","last_reported":1730139183,"current_range_meters":7200,"station_id":"ce4bh2h2rcd13ifvqdh0","pricing_plan_id":"cebpf4jnsgd1na2vs0mg"},{"bike_id":"a115272b-d982-443a-87c0-8ebb7cafe252","system_id":"levelo_inurba_marseille","lat":43.24072,"lon":5.37762,"is_reserved":false,"is_disabled":false,"rental_uris":{"android":"levelo://app?vid=a115272b-d982-443a-87c0-8ebb7cafe252","ios":"levelo://app?vid=a115272b-d982-443a-87c0-8ebb7cafe252"},"vehicle_type_id":"4","last_reported":1730139183,"current_range_meters":27200,"station_id":"ce4bhnp2rcd13ifvqgvg","pricing_plan_id":"cebpf4jnsgd1na2vs0mg"},{"bike_id":"e9d21191-c6a6-4908-9641-483ac77be378","system_id":"levelo_inurba_marseille","lat":43.31699,"lon":5.37759,"is_reserved":false,"is_disabled":false,"rental_uris":{"android":"levelo://app?vid=e9d21191-c6a6-4908-9641-483ac77be378","ios":"levelo://app?vid=e9d21191-c6a6-4908-9641-483ac77be378"},"vehicle_type_id":"4","last_reported":1730139183,"current_range_meters":38000,"station_id":"ce4bgth2rcd13ifvqch0","pricing_plan_id":"cebpf4jnsgd1na2vs0mg"},{"bike_id":"3ba8f715-6eff-4ced-a678-b3ef5981ea02","system_id":"levelo_inurba_marseille","lat":43.29418,"lon":5.38619,"is_reserved":false,"is_disabled":false,"rental_uris":{"android":"levelo://app?vid=3ba8f715-6eff-4ced-a678-b3ef5981ea02","ios":"levelo://app?vid=3ba8f715-6eff-4ced-a678-b3ef5981ea02"},"vehicle_type_id":"4","last_reported":1730139183,"current_range_meters":30000,"station_id":"ce4bh2h2rcd13ifvqdh0","pricing_plan_id":"cebpf4jnsgd1na2vs0mg"},{"bike_id":"3e8fa5c3-4608-43c1-a939-c7a03ccb7de4","system_id":"levelo_inurba_marseille","lat":43.29297,"lon":5.37464,"is_reserved":false,"is_disabled":false,"rental_uris":{"android":"levelo://app?vid=3e8fa5c3-4608-43c1-a939-c7a03ccb7de4","ios":"levelo://app?vid=3e8fa5c3-4608-43c1-a939-c7a03ccb7de4"},"vehicle_type_id":"4","last_reported":1730139183,"current_range_meters":29600,"station_id":"ce4bgi12rcd13ifvqb70","pricing_plan_id":"cebpf4jnsgd1na2vs0mg"},{"bike_id":"0ba4cb7d-61e4-488a-b49a-562e7e6e9db0","system_id":"levelo_inurba_marseille","lat":43.25859,"lon":5.39904,"is_reserved":false,"is_disabled":false,"rental_uris":{"android":"levelo://app?vid=0ba4cb7d-61e4-488a-b49a-562e7e6e9db0","ios":"levelo://app?vid=0ba4cb7d-61e4-488a-b49a-562e7e6e9db0"},"vehicle_type_id":"4","last_reported":1730139183,"current_range_meters":22000,"station_id":"ce4bhl92rcd13ifvqghg","pricing_plan_id":"cebpf4jnsgd1na2vs0mg"},{"bike_id":"69c88f8f-1831-485c-9ac6-dbea15a91a6e","system_id":"levelo_inurba_marseille","lat":43.33024,"lon":5.39037,"is_reserved":false,"is_disabled":false,"rental_uris":{"android":"levelo://app?vid=69c88f8f-1831-485c-9ac6-dbea15a91a6e","ios":"levelo://app?vid=69c88f8f-1831-485c-9ac6-dbea15a91a6e"},"vehicle_type_id":"4","last_reported":1730139183,"current_range_meters":15200,"station_id":"ce4bhr92rcd13ifvqhrg","pricing_plan_id":"cebpf4jnsgd1na2vs0mg"},{"bike_id":"59c02f7a-a197-4cdb-9d2f-44e3d029e4ee","system_id":"levelo_inurba_marseille","lat":43.30136,"lon":5.39868,"is_reserved":false,"is_disabled":false,"rental_uris":{"android":"levelo://app?vid=59c02f7a-a197-4cdb-9d2f-44e3d029e4ee","ios":"levelo://app?vid=59c02f7a-a197-4cdb-9d2f-44e3d029e4ee"},"vehicle_type_id":"4","last_reported":1730139183,"current_range_meters":29600,"station_id":"ce4bh0h2rcd13ifvqd40","pricing_plan_id":"cebpf4jnsgd1na2vs0mg"},{"bike_id":"b675a34f-8b64-4047-bd7f-2a9b15c2df6b","system_id":"levelo_inurba_marseille","lat":43.29259,"lon":5.40906,"is_reserved":false,"is_disabled":false,"rental_uris":{"android":"levelo://app?vid=b675a34f-8b64-4047-bd7f-2a9b15c2df6b","ios":"levelo://app?vid=b675a34f-8b64-4047-bd7f-2a9b15c2df6b"},"vehicle_type_id":"4","last_reported":1730139183,"current_range_meters":3200,"station_id":"ce4bh192rcd13ifvqdc0","pricing_plan_id":"cebpf4jnsgd1na2vs0mg"},{"bike_id":"f70e53af-8952-402f-a11a-aa0bf0cc3a16","system_id":"levelo_inurba_marseille","lat":43.2737,"lon":5.36257,"is_reserved":false,"is_disabled":false,"rental_uris":{"android":"levelo://app?vid=f70e53af-8952-402f-a11a-aa0bf0cc3a16","ios":"levelo://app?vid=f70e53af-8952-402f-a11a-aa0bf0cc3a16"},"vehicle_type_id":"4","last_reported":1730139183,"current_range_meters":3200,"station_id":"ce4bhbh2rcd13ifvqeo0","pricing_plan_id":"cebpf4jnsgd1na2vs0mg"},{"bike_id":"b67f2486-0649-4fa3-8a2f-c0ca8a40328b","system_id":"levelo_inurba_marseille","lat":43.25117,"lon":5.40321,"is_reserved":false,"is_disabled":false,"rental_uris":{"android":"levelo://app?vid=b67f2486-0649-4fa3-8a2f-c0ca8a40328b","ios":"levelo://app?vid=b67f2486-0649-4fa3-8a2f-c0ca8a40328b"},"vehicle_type_id":"4","last_reported":1730139183,"current_range_meters":2000,"station_id":"ce4bhlh2rcd13ifvqgig","pricing_plan_id":"cebpf4jnsgd1na2vs0mg"},{"bike_id":"fd541e4a-7b9a-453a-8959-e0c3ee2ad888","system_id":"levelo_inurba_marseille","lat":43.29586,"lon":5.38109,"is_reserved":false,"is_disabled":false,"rental_uris":{"android":"levelo://app?vid=fd541e4a-7b9a-453a-8959-e0c3ee2ad888","ios":"levelo://app?vid=fd541e4a-7b9a-453a-8959-e0c3ee2ad888"},"vehicle_type_id":"4","last_reported":1730139183,"current_range_meters":38800,"station_id":"ce4bgl12rcd13ifvqbo0","pricing_plan_id":"cebpf4jnsgd1na2vs0mg"},{"bike_id":"5d820ce0-2d55-46e5-b74d-cc75a18e2e27","system_id":"levelo_inurba_marseille","lat":43.27004,"lon":5.39247,"is_reserved":false,"is_disabled":false,"rental_uris":{"android":"levelo://app?vid=5d820ce0-2d55-46e5-b74d-cc75a18e2e27","ios":"levelo://app?vid=5d820ce0-2d55-46e5-b74d-cc75a18e2e27"},"vehicle_type_id":"4","last_reported":1730139183,"current_range_meters":30400,"station_id":"ce4bgh92rcd13ifvqb40","pricing_plan_id":"cebpf4jnsgd1na2vs0mg"},{"bike_id":"b24a831c-ef0d-40d5-a8fe-1e3a7e37d24b","system_id":"levelo_inurba_marseille","lat":43.27881,"lon":5.38054,"is_reserved":false,"is_disabled":false,"rental_uris":{"android":"levelo://app?vid=b24a831c-ef0d-40d5-a8fe-1e3a7e37d24b","ios":"levelo://app?vid=b24a831c-ef0d-40d5-a8fe-1e3a7e37d24b"},"vehicle_type_id":"4","last_reported":1730139183,"current_range_meters":19200,"station_id":"ce4bhf92rcd13ifvqf50","pricing_plan_id":"cebpf4jnsgd1na2vs0mg"},{"bike_id":"ffc89e55-433f-4a2f-b009-b23cf888726a","system_id":"levelo_inurba_marseille","lat":43.306458,"lon":5.374341,"is_reserved":false,"is_disabled":false,"rental_uris":{"android":"levelo://app?vid=ffc89e55-433f-4a2f-b009-b23cf888726a","ios":"levelo://app?vid=ffc89e55-433f-4a2f-b009-b23cf888726a"},"vehicle_type_id":"4","last_reported":1730139183,"current_range_meters":6800,"station_id":"ce4bgv92rcd13ifvqcq0","pricing_plan_id":"cebpf4jnsgd1na2vs0mg"},{"bike_id":"b6613872-5a49-4f4f-b142-06b7be6e62ce","system_id":"levelo_inurba_marseille","lat":43.28607,"lon":5.37068,"is_reserved":false,"is_disabled":false,"rental_uris":{"android":"levelo://app?vid=b6613872-5a49-4f4f-b142-06b7be6e62ce","ios":"levelo://app?vid=b6613872-5a49-4f4f-b142-06b7be6e62ce"},"vehicle_type_id":"4","last_reported":1730139183,"current_range_meters":17200,"station_id":"ce4bht12rcd13ifvqi60","pricing_plan_id":"cebpf4jnsgd1na2vs0mg"},{"bike_id":"29bb8dec-c8af-47c2-98b0-a71e3304729d","system_id":"levelo_inurba_marseille","lat":43.28568,"lon":5.39497,"is_reserved":false,"is_disabled":false,"rental_uris":{"android":"levelo://app?vid=29bb8dec-c8af-47c2-98b0-a71e3304729d","ios":"levelo://app?vid=29bb8dec-c8af-47c2-98b0-a71e3304729d"},"vehicle_type_id":"4","last_reported":1730139183,"current_range_meters":8000,"station_id":"ce4bh292rcd13ifvqdg0","pricing_plan_id":"cebpf4jnsgd1na2vs0mg"},{"bike_id":"dfee07d2-64ef-4395-8700-21fef58a7eeb","system_id":"levelo_inurba_marseille","lat":43.24665,"lon":5.38161,"is_reserved":false,"is_disabled":false,"rental_uris":{"android":"levelo://app?vid=dfee07d2-64ef-4395-8700-21fef58a7eeb","ios":"levelo://app?vid=dfee07d2-64ef-4395-8700-21fef58a7eeb"},"vehicle_type_id":"4","last_reported":1730139183,"current_range_meters":3600,"station_id":"ce4bhih2rcd13ifvqfr0","pricing_plan_id":"cebpf4jnsgd1na2vs0mg"},{"bike_id":"7fda42aa-28d7-4fc7-858b-960ce986865c","system_id":"levelo_inurba_marseille","lat":43.23202,"lon":5.35548,"is_reserved":false,"is_disabled":false,"rental_uris":{"android":"levelo://app?vid=7fda42aa-28d7-4fc7-858b-960ce986865c","ios":"levelo://app?vid=7fda42aa-28d7-4fc7-858b-960ce986865c"},"vehicle_type_id":"4","last_reported":1730139183,"current_range_meters":22000,"station_id":"ce4bhu92rcd13ifvqi70","pricing_plan_id":"cebpf4jnsgd1na2vs0mg"},{"bike_id":"333c969b-8b2c-4bf3-abe2-e68068a12a11","system_id":"levelo_inurba_marseille","lat":43.29034,"lon":5.37567,"is_reserved":false,"is_disabled":false,"rental_uris":{"android":"levelo://app?vid=333c969b-8b2c-4bf3-abe2-e68068a12a11","ios":"levelo://app?vid=333c969b-8b2c-4bf3-abe2-e68068a12a11"},"vehicle_type_id":"4","last_reported":1730139183,"current_range_meters":3200,"station_id":"ce4bh692rcd13ifvqe90","pricing_plan_id":"cebpf4jnsgd1na2vs0mg"},{"bike_id":"972cccee-05b8-4cae-8ec1-f89a9bac358a","system_id":"levelo_inurba_marseille","lat":43.31069,"lon":5.40069,"is_reserved":false,"is_disabled":false,"rental_uris":{"android":"levelo://app?vid=972cccee-05b8-4cae-8ec1-f89a9bac358a","ios":"levelo://app?vid=972cccee-05b8-4cae-8ec1-f89a9bac358a"},"vehicle_type_id":"4","last_reported":1730139183,"current_range_meters":34800,"station_id":"ce4bgvp2rcd13ifvqct0","pricing_plan_id":"cebpf4jnsgd1na2vs0mg"},{"bike_id":"0e1d9b17-1018-43c0-97c2-8abf2fb98f56","system_id":"levelo_inurba_marseille","lat":43.27378,"lon":5.36253,"is_reserved":false,"is_disabled":false,"rental_uris":{"android":"levelo://app?vid=0e1d9b17-1018-43c0-97c2-8abf2fb98f56","ios":"levelo://app?vid=0e1d9b17-1018-43c0-97c2-8abf2fb98f56"},"vehicle_type_id":"4","last_reported":1730139183,"current_range_meters":32800,"station_id":"ce4bhbh2rcd13ifvqeo0","pricing_plan_id":"cebpf4jnsgd1na2vs0mg"},{"bike_id":"7dda08fd-e309-4635-82e1-215b961cf43f","system_id":"levelo_inurba_marseille","lat":43.30415,"lon":5.41273,"is_reserved":false,"is_disabled":false,"rental_uris":{"android":"levelo://app?vid=7dda08fd-e309-4635-82e1-215b961cf43f","ios":"levelo://app?vid=7dda08fd-e309-4635-82e1-215b961cf43f"},"vehicle_type_id":"4","last_reported":1730139183,"current_range_meters":9200,"station_id":"ce4bhop2rcd13ifvqh8g","pricing_plan_id":"cebpf4jnsgd1na2vs0mg"},{"bike_id":"9fcb6089-7406-43af-bee1-c142a90f597d","system_id":"levelo_inurba_marseille","lat":43.27499,"lon":5.42451,"is_reserved":false,"is_disabled":false,"rental_uris":{"android":"levelo://app?vid=9fcb6089-7406-43af-bee1-c142a90f597d","ios":"levelo://app?vid=9fcb6089-7406-43af-bee1-c142a90f597d"},"vehicle_type_id":"4","last_reported":1730139183,"current_range_meters":38000,"station_id":"ce4bhn92rcd13ifvqgrg","pricing_plan_id":"cebpf4jnsgd1na2vs0mg"},{"bike_id":"5c05f131-a563-4378-9457-751dbcbf2546","system_id":"levelo_inurba_marseille","lat":43.28859,"lon":5.35856,"is_reserved":false,"is_disabled":false,"rental_uris":{"android":"levelo://app?vid=5c05f131-a563-4378-9457-751dbcbf2546","ios":"levelo://app?vid=5c05f131-a563-4378-9457-751dbcbf2546"},"vehicle_type_id":"4","last_reported":1730139183,"current_range_meters":3600,"station_id":"ce4bhb12rcd13ifvqem0","pricing_plan_id":"cebpf4jnsgd1na2vs0mg"},{"bike_id":"9a56084d-d7a6-4cae-87b9-2a4a82b50085","system_id":"levelo_inurba_marseille","lat":43.28864,"lon":5.39318,"is_reserved":false,"is_disabled":false,"rental_uris":{"android":"levelo://app?vid=9a56084d-d7a6-4cae-87b9-2a4a82b50085","ios":"levelo://app?vid=9a56084d-d7a6-4cae-87b9-2a4a82b50085"},"vehicle_type_id":"4","last_reported":1730139183,"current_range_meters":12800,"station_id":"ce4bh2p2rcd13ifvqdi0","pricing_plan_id":"cebpf4jnsgd1na2vs0mg"},{"bike_id":"fb474121-63d8-404f-a3ca-0a6bfddf2201","system_id":"levelo_inurba_marseille","lat":43.28162,"lon":5.36356,"is_reserved":false,"is_disabled":false,"rental_uris":{"android":"levelo://app?vid=fb474121-63d8-404f-a3ca-0a6bfddf2201","ios":"levelo://app?vid=fb474121-63d8-404f-a3ca-0a6bfddf2201"},"vehicle_type_id":"4","last_reported":1730139183,"current_range_meters":36000,"station_id":"ce4bhah2rcd13ifvqej0","pricing_plan_id":"cebpf4jnsgd1na2vs0mg"},{"bike_id":"799b45d4-5579-44b5-be10-e300840734e4","system_id":"levelo_inurba_marseille","lat":43.31328,"lon":5.39694,"is_reserved":false,"is_disabled":false,"rental_uris":{"android":"levelo://app?vid=799b45d4-5579-44b5-be10-e300840734e4","ios":"levelo://app?vid=799b45d4-5579-44b5-be10-e300840734e4"},"vehicle_type_id":"4","last_reported":1730139183,"current_range_meters":8800,"station_id":"ce4bgvp2rcd13ifvqcu0","pricing_plan_id":"cebpf4jnsgd1na2vs0mg"},{"bike_id":"1fcd3223-ff2b-47b7-8567-0be995b0330f","system_id":"levelo_inurba_marseille","lat":43.27502,"lon":5.42452,"is_reserved":false,"is_disabled":false,"rental_uris":{"android":"levelo://app?vid=1fcd3223-ff2b-47b7-8567-0be995b0330f","ios":"levelo://app?vid=1fcd3223-ff2b-47b7-8567-0be995b0330f"},"vehicle_type_id":"4","last_reported":1730139183,"current_range_meters":37600,"station_id":"ce4bhn92rcd13ifvqgrg","pricing_plan_id":"cebpf4jnsgd1na2vs0mg"},{"bike_id":"e8b2bb51-9289-472d-ab6c-ec276581a131","system_id":"levelo_inurba_marseille","lat":43.28573,"lon":5.395,"is_reserved":false,"is_disabled":false,"rental_uris":{"android":"levelo://app?vid=e8b2bb51-9289-472d-ab6c-ec276581a131","ios":"levelo://app?vid=e8b2bb51-9289-472d-ab6c-ec276581a131"},"vehicle_type_id":"4","last_reported":1730139183,"current_range_meters":12000,"station_id":"ce4bh292rcd13ifvqdg0","pricing_plan_id":"cebpf4jnsgd1na2vs0mg"},{"bike_id":"0f017af1-3169-4012-ac5d-413600b767a9","system_id":"levelo_inurba_marseille","lat":43.29034,"lon":5.37564,"is_reserved":false,"is_disabled":false,"rental_uris":{"android":"levelo://app?vid=0f017af1-3169-4012-ac5d-413600b767a9","ios":"levelo://app?vid=0f017af1-3169-4012-ac5d-413600b767a9"},"vehicle_type_id":"4","last_reported":1730139183,"current_range_meters":9200,"station_id":"ce4bh692rcd13ifvqe90","pricing_plan_id":"cebpf4jnsgd1na2vs0mg"},{"bike_id":"b1d682a3-b183-4990-9110-109ef59d9970","system_id":"levelo_inurba_marseille","lat":43.29884,"lon":5.38903,"is_reserved":false,"is_disabled":false,"rental_uris":{"android":"levelo://app?vid=b1d682a3-b183-4990-9110-109ef59d9970","ios":"levelo://app?vid=b1d682a3-b183-4990-9110-109ef59d9970"},"vehicle_type_id":"4","last_reported":1730139183,"current_range_meters":39200,"station_id":"ce4bh392rcd13ifvqdl0","pricing_plan_id":"cebpf4jnsgd1na2vs0mg"},{"bike_id":"5ee787f4-b1e1-43d7-afec-192952f8f431","system_id":"levelo_inurba_marseille","lat":43.2397,"lon":5.36633,"is_reserved":false,"is_disabled":false,"rental_uris":{"android":"levelo://app?vid=5ee787f4-b1e1-43d7-afec-192952f8f431","ios":"levelo://app?vid=5ee787f4-b1e1-43d7-afec-192952f8f431"},"vehicle_type_id":"4","last_reported":1730139183,"current_range_meters":9600,"station_id":"ce4bhi12rcd13ifvqfp0","pricing_plan_id":"cebpf4jnsgd1na2vs0mg"},{"bike_id":"d45fa664-ae37-4972-aa8f-d1688205404e","system_id":"levelo_inurba_marseille","lat":43.30136,"lon":5.39871,"is_reserved":false,"is_disabled":false,"rental_uris":{"android":"levelo://app?vid=d45fa664-ae37-4972-aa8f-d1688205404e","ios":"levelo://app?vid=d45fa664-ae37-4972-aa8f-d1688205404e"},"vehicle_type_id":"4","last_reported":1730139183,"current_range_meters":12000,"station_id":"ce4bh0h2rcd13ifvqd40","pricing_plan_id":"cebpf4jnsgd1na2vs0mg"},{"bike_id":"d7898ffa-d311-4eed-a25c-07b2ada6bebc","system_id":"levelo_inurba_marseille","lat":43.27814,"lon":5.40706,"is_reserved":false,"is_disabled":false,"rental_uris":{"android":"levelo://app?vid=d7898ffa-d311-4eed-a25c-07b2ada6bebc","ios":"levelo://app?vid=d7898ffa-d311-4eed-a25c-07b2ada6bebc"},"vehicle_type_id":"4","last_reported":1730139183,"current_range_meters":17200,"station_id":"ce4bhnh2rcd13ifvqgtg","pricing_plan_id":"cebpf4jnsgd1na2vs0mg"},{"bike_id":"0d6f8086-a094-48d9-aa7d-0d7be1032614","system_id":"levelo_inurba_marseille","lat":43.2886,"lon":5.39332,"is_reserved":false,"is_disabled":false,"rental_uris":{"android":"levelo://app?vid=0d6f8086-a094-48d9-aa7d-0d7be1032614","ios":"levelo://app?vid=0d6f8086-a094-48d9-aa7d-0d7be1032614"},"vehicle_type_id":"4","last_reported":1730139183,"current_range_meters":30800,"station_id":"ce4bh2p2rcd13ifvqdi0","pricing_plan_id":"cebpf4jnsgd1na2vs0mg"},{"bike_id":"8fac999c-77b0-4bab-95c9-b9a6a3bb48b2","system_id":"levelo_inurba_marseille","lat":43.3128,"lon":5.40166,"is_reserved":false,"is_disabled":false,"rental_uris":{"android":"levelo://app?vid=8fac999c-77b0-4bab-95c9-b9a6a3bb48b2","ios":"levelo://app?vid=8fac999c-77b0-4bab-95c9-b9a6a3bb48b2"},"vehicle_type_id":"4","last_reported":1730139183,"current_range_meters":32000,"station_id":"ce4bh092rcd13ifvqd30","pricing_plan_id":"cebpf4jnsgd1na2vs0mg"},{"bike_id":"4f21f473-d6ef-4678-b028-ed29a51ab020","system_id":"levelo_inurba_marseille","lat":43.31685,"lon":5.43553,"is_reserved":false,"is_disabled":false,"rental_uris":{"android":"levelo://app?vid=4f21f473-d6ef-4678-b028-ed29a51ab020","ios":"levelo://app?vid=4f21f473-d6ef-4678-b028-ed29a51ab020"},"vehicle_type_id":"4","last_reported":1730139183,"current_range_meters":28000,"station_id":"","pricing_plan_id":"cebpf4jnsgd1na2vs0mg"},{"bike_id":"5b16d41b-0739-4f65-9404-ebc1b67b3282","system_id":"levelo_inurba_marseille","lat":43.28614,"lon":5.37063,"is_reserved":false,"is_disabled":false,"rental_uris":{"android":"levelo://app?vid=5b16d41b-0739-4f65-9404-ebc1b67b3282","ios":"levelo://app?vid=5b16d41b-0739-4f65-9404-ebc1b67b3282"},"vehicle_type_id":"4","last_reported":1730139183,"current_range_meters":12400,"station_id":"ce4bht12rcd13ifvqi60","pricing_plan_id":"cebpf4jnsgd1na2vs0mg"},{"bike_id":"d97d7e58-0bdb-4114-9249-8f863e0e9a7c","system_id":"levelo_inurba_marseille","lat":43.28414,"lon":5.37511,"is_reserved":false,"is_disabled":false,"rental_uris":{"android":"levelo://app?vid=d97d7e58-0bdb-4114-9249-8f863e0e9a7c","ios":"levelo://app?vid=d97d7e58-0bdb-4114-9249-8f863e0e9a7c"},"vehicle_type_id":"4","last_reported":1730139183,"current_range_meters":9600,"station_id":"ce4bh412rcd13ifvqds0","pricing_plan_id":"cebpf4jnsgd1na2vs0mg"},{"bike_id":"89b9d558-6858-46b3-932b-c2d5ba9df490","system_id":"levelo_inurba_marseille","lat":43.30143,"lon":5.37414,"is_reserved":false,"is_disabled":false,"rental_uris":{"android":"levelo://app?vid=89b9d558-6858-46b3-932b-c2d5ba9df490","ios":"levelo://app?vid=89b9d558-6858-46b3-932b-c2d5ba9df490"},"vehicle_type_id":"4","last_reported":1730139183,"current_range_meters":2800,"station_id":"ce4bgs92rcd13ifvqcc0","pricing_plan_id":"cebpf4jnsgd1na2vs0mg"},{"bike_id":"5bf6a128-2d17-4c41-adaa-5622797d3199","system_id":"levelo_inurba_marseille","lat":43.27418,"lon":5.39414,"is_reserved":false,"is_disabled":false,"rental_uris":{"android":"levelo://app?vid=5bf6a128-2d17-4c41-adaa-5622797d3199","ios":"levelo://app?vid=5bf6a128-2d17-4c41-adaa-5622797d3199"},"vehicle_type_id":"4","last_reported":1730139183,"current_range_meters":38000,"station_id":"ce4bhdp2rcd13ifvqf20","pricing_plan_id":"cebpf4jnsgd1na2vs0mg"},{"bike_id":"80336fa2-4def-47af-870d-80ea3350eb51","system_id":"levelo_inurba_marseille","lat":43.28103,"lon":5.37839,"is_reserved":false,"is_disabled":false,"rental_uris":{"android":"levelo://app?vid=80336fa2-4def-47af-870d-80ea3350eb51","ios":"levelo://app?vid=80336fa2-4def-47af-870d-80ea3350eb51"},"vehicle_type_id":"4","last_reported":1730139183,"current_range_meters":3600,"station_id":"ce4bha12rcd13ifvqee0","pricing_plan_id":"cebpf4jnsgd1na2vs0mg"},{"bike_id":"485e0259-3d67-4657-9025-d9c06817e0a1","system_id":"levelo_inurba_marseille","lat":43.29263,"lon":5.3843,"is_reserved":false,"is_disabled":false,"rental_uris":{"android":"levelo://app?vid=485e0259-3d67-4657-9025-d9c06817e0a1","ios":"levelo://app?vid=485e0259-3d67-4657-9025-d9c06817e0a1"},"vehicle_type_id":"4","last_reported":1730139183,"current_range_meters":30000,"station_id":"ce4bh692rcd13ifvqea0","pricing_plan_id":"cebpf4jnsgd1na2vs0mg"},{"bike_id":"debd500c-5f7c-48a3-b4ff-5fa6a1660b85","system_id":"levelo_inurba_marseille","lat":43.29296,"lon":5.37473,"is_reserved":false,"is_disabled":false,"rental_uris":{"android":"levelo://app?vid=debd500c-5f7c-48a3-b4ff-5fa6a1660b85","ios":"levelo://app?vid=debd500c-5f7c-48a3-b4ff-5fa6a1660b85"},"vehicle_type_id":"4","last_reported":1730139183,"current_range_meters":36000,"station_id":"ce4bgi12rcd13ifvqb70","pricing_plan_id":"cebpf4jnsgd1na2vs0mg"},{"bike_id":"b7cdb225-b8d2-428a-9659-1844801c9c20","system_id":"levelo_inurba_marseille","lat":43.31321,"lon":5.39696,"is_reserved":false,"is_disabled":false,"rental_uris":{"android":"levelo://app?vid=b7cdb225-b8d2-428a-9659-1844801c9c20","ios":"levelo://app?vid=b7cdb225-b8d2-428a-9659-1844801c9c20"},"vehicle_type_id":"4","last_reported":1730139183,"current_range_meters":36000,"station_id":"ce4bgvp2rcd13ifvqcu0","pricing_plan_id":"cebpf4jnsgd1na2vs0mg"},{"bike_id":"c49a313d-2669-42a2-b82e-e88f2ae4fe49","system_id":"levelo_inurba_marseille","lat":43.33024,"lon":5.39037,"is_reserved":false,"is_disabled":false,"rental_uris":{"android":"levelo://app?vid=c49a313d-2669-42a2-b82e-e88f2ae4fe49","ios":"levelo://app?vid=c49a313d-2669-42a2-b82e-e88f2ae4fe49"},"vehicle_type_id":"4","last_reported":1730139183,"current_range_meters":34000,"station_id":"ce4bhr92rcd13ifvqhrg","pricing_plan_id":"cebpf4jnsgd1na2vs0mg"},{"bike_id":"587f35f1-4ca3-4726-938e-103307e4500f","system_id":"levelo_inurba_marseille","lat":43.2895,"lon":5.36415,"is_reserved":false,"is_disabled":false,"rental_uris":{"android":"levelo://app?vid=587f35f1-4ca3-4726-938e-103307e4500f","ios":"levelo://app?vid=587f35f1-4ca3-4726-938e-103307e4500f"},"vehicle_type_id":"4","last_reported":1730139183,"current_range_meters":7200,"station_id":"ce4bhc92rcd13ifvqetg","pricing_plan_id":"cebpf4jnsgd1na2vs0mg"},{"bike_id":"924b6c1c-4862-4107-ab06-f3fde548e093","system_id":"levelo_inurba_marseille","lat":43.29896,"lon":5.43676,"is_reserved":false,"is_disabled":false,"rental_uris":{"android":"levelo://app?vid=924b6c1c-4862-4107-ab06-f3fde548e093","ios":"levelo://app?vid=924b6c1c-4862-4107-ab06-f3fde548e093"},"vehicle_type_id":"4","last_reported":1730139183,"current_range_meters":12400,"station_id":"ce4bhpp2rcd13ifvqhfg","pricing_plan_id":"cebpf4jnsgd1na2vs0mg"},{"bike_id":"2e132625-0bc6-4ffc-9b34-88db153bb307","system_id":"levelo_inurba_marseille","lat":43.28004,"lon":5.40011,"is_reserved":false,"is_disabled":false,"rental_uris":{"android":"levelo://app?vid=2e132625-0bc6-4ffc-9b34-88db153bb307","ios":"levelo://app?vid=2e132625-0bc6-4ffc-9b34-88db153bb307"},"vehicle_type_id":"4","last_reported":1730139183,"current_range_meters":38800,"station_id":"ce4bho92rcd13ifvqh4g","pricing_plan_id":"cebpf4jnsgd1na2vs0mg"},{"bike_id":"6f23eb03-a8f6-40f2-ae69-3286300ba613","system_id":"levelo_inurba_marseille","lat":43.29261,"lon":5.38436,"is_reserved":false,"is_disabled":false,"rental_uris":{"android":"levelo://app?vid=6f23eb03-a8f6-40f2-ae69-3286300ba613","ios":"levelo://app?vid=6f23eb03-a8f6-40f2-ae69-3286300ba613"},"vehicle_type_id":"4","last_reported":1730139183,"current_range_meters":17200,"station_id":"ce4bh692rcd13ifvqea0","pricing_plan_id":"cebpf4jnsgd1na2vs0mg"},{"bike_id":"f7a8f2b2-3455-4bff-876b-b28942be5dbe","system_id":"levelo_inurba_marseille","lat":43.29881,"lon":5.39734,"is_reserved":false,"is_disabled":false,"rental_uris":{"android":"levelo://app?vid=f7a8f2b2-3455-4bff-876b-b28942be5dbe","ios":"levelo://app?vid=f7a8f2b2-3455-4bff-876b-b28942be5dbe"},"vehicle_type_id":"4","last_reported":1730139183,"current_range_meters":35200,"station_id":"ce4bh0h2rcd13ifvqd50","pricing_plan_id":"cebpf4jnsgd1na2vs0mg"},{"bike_id":"df4da2d7-04e5-48a1-8925-07bc05ee873d","system_id":"levelo_inurba_marseille","lat":43.23965,"lon":5.36631,"is_reserved":false,"is_disabled":false,"rental_uris":{"android":"levelo://app?vid=df4da2d7-04e5-48a1-8925-07bc05ee873d","ios":"levelo://app?vid=df4da2d7-04e5-48a1-8925-07bc05ee873d"},"vehicle_type_id":"4","last_reported":1730139183,"current_range_meters":6000,"station_id":"ce4bhi12rcd13ifvqfp0","pricing_plan_id":"cebpf4jnsgd1na2vs0mg"},{"bike_id":"737837b8-7066-4d20-89f3-91917ea0193c","system_id":"levelo_inurba_marseille","lat":43.28478,"lon":5.35893,"is_reserved":false,"is_disabled":false,"rental_uris":{"android":"levelo://app?vid=737837b8-7066-4d20-89f3-91917ea0193c","ios":"levelo://app?vid=737837b8-7066-4d20-89f3-91917ea0193c"},"vehicle_type_id":"4","last_reported":1730139183,"current_range_meters":22800,"station_id":"ce4bhah2rcd13ifvqei0","pricing_plan_id":"cebpf4jnsgd1na2vs0mg"},{"bike_id":"b39dc5db-29ad-4504-b330-a28c8bc5e61f","system_id":"levelo_inurba_marseille","lat":43.27906,"lon":5.38015,"is_reserved":false,"is_disabled":false,"rental_uris":{"android":"levelo://app?vid=b39dc5db-29ad-4504-b330-a28c8bc5e61f","ios":"levelo://app?vid=b39dc5db-29ad-4504-b330-a28c8bc5e61f"},"vehicle_type_id":"4","last_reported":1730139183,"current_range_meters":6800,"station_id":"ce4bhf92rcd13ifvqf50","pricing_plan_id":"cebpf4jnsgd1na2vs0mg"},{"bike_id":"b3d19fe9-784a-4138-a42f-b8e41f21cf22","system_id":"levelo_inurba_marseille","lat":43.27944,"lon":5.41048,"is_reserved":false,"is_disabled":false,"rental_uris":{"android":"levelo://app?vid=b3d19fe9-784a-4138-a42f-b8e41f21cf22","ios":"levelo://app?vid=b3d19fe9-784a-4138-a42f-b8e41f21cf22"},"vehicle_type_id":"4","last_reported":1730139183,"current_range_meters":9200,"station_id":"ce4bhnp2rcd13ifvqh0g","pricing_plan_id":"cebpf4jnsgd1na2vs0mg"},{"bike_id":"1f02a00c-e697-4446-8389-72dcdacc9f45","system_id":"levelo_inurba_marseille","lat":43.3249,"lon":5.36569,"is_reserved":false,"is_disabled":false,"rental_uris":{"android":"levelo://app?vid=1f02a00c-e697-4446-8389-72dcdacc9f45","ios":"levelo://app?vid=1f02a00c-e697-4446-8389-72dcdacc9f45"},"vehicle_type_id":"4","last_reported":1730139183,"current_range_meters":32800,"station_id":"ce4bhs12rcd13ifvqhvg","pricing_plan_id":"cebpf4jnsgd1na2vs0mg"},{"bike_id":"b14eca41-8cc2-4bab-9946-881d53bf57a0","system_id":"levelo_inurba_marseille","lat":43.30533,"lon":5.36552,"is_reserved":false,"is_disabled":false,"rental_uris":{"android":"levelo://app?vid=b14eca41-8cc2-4bab-9946-881d53bf57a0","ios":"levelo://app?vid=b14eca41-8cc2-4bab-9946-881d53bf57a0"},"vehicle_type_id":"4","last_reported":1730139183,"current_range_meters":37600,"station_id":"ce4bgs12rcd13ifvqcag","pricing_plan_id":"cebpf4jnsgd1na2vs0mg"},{"bike_id":"8e93bc1b-1b4f-4129-bbbf-603daf4b7dff","system_id":"levelo_inurba_marseille","lat":43.29578,"lon":5.39968,"is_reserved":false,"is_disabled":false,"rental_uris":{"android":"levelo://app?vid=8e93bc1b-1b4f-4129-bbbf-603daf4b7dff","ios":"levelo://app?vid=8e93bc1b-1b4f-4129-bbbf-603daf4b7dff"},"vehicle_type_id":"4","last_reported":1730139183,"current_range_meters":38800,"station_id":"ce4bh312rcd13ifvqdj0","pricing_plan_id":"cebpf4jnsgd1na2vs0mg"},{"bike_id":"d5583317-a738-4684-89c9-8d05679500cb","system_id":"levelo_inurba_marseille","lat":43.29167,"lon":5.37166,"is_reserved":false,"is_disabled":false,"rental_uris":{"android":"levelo://app?vid=d5583317-a738-4684-89c9-8d05679500cb","ios":"levelo://app?vid=d5583317-a738-4684-89c9-8d05679500cb"},"vehicle_type_id":"4","last_reported":1730139183,"current_range_meters":25600,"station_id":"ce4bha92rcd13ifvqeh0","pricing_plan_id":"cebpf4jnsgd1na2vs0mg"},{"bike_id":"1f4fd4c0-d1e1-4d6d-b480-05b768eed1e5","system_id":"levelo_inurba_marseille","lat":43.30927,"lon":5.40146,"is_reserved":false,"is_disabled":false,"rental_uris":{"android":"levelo://app?vid=1f4fd4c0-d1e1-4d6d-b480-05b768eed1e5","ios":"levelo://app?vid=1f4fd4c0-d1e1-4d6d-b480-05b768eed1e5"},"vehicle_type_id":"4","last_reported":1730139183,"current_range_meters":19200,"station_id":"ce4bgvp2rcd13ifvqct0","pricing_plan_id":"cebpf4jnsgd1na2vs0mg"},{"bike_id":"9035fc14-4524-40a5-bd43-7fa7f5b045d5","system_id":"levelo_inurba_marseille","lat":43.29266,"lon":5.38439,"is_reserved":false,"is_disabled":false,"rental_uris":{"android":"levelo://app?vid=9035fc14-4524-40a5-bd43-7fa7f5b045d5","ios":"levelo://app?vid=9035fc14-4524-40a5-bd43-7fa7f5b045d5"},"vehicle_type_id":"4","last_reported":1730139183,"current_range_meters":24400,"station_id":"ce4bh692rcd13ifvqea0","pricing_plan_id":"cebpf4jnsgd1na2vs0mg"},{"bike_id":"b58344b2-0596-4519-acb1-31f568d12e30","system_id":"levelo_inurba_marseille","lat":43.298052,"lon":5.403728,"is_reserved":false,"is_disabled":false,"rental_uris":{"android":"levelo://app?vid=b58344b2-0596-4519-acb1-31f568d12e30","ios":"levelo://app?vid=b58344b2-0596-4519-acb1-31f568d12e30"},"vehicle_type_id":"4","last_reported":1730139183,"current_range_meters":21600,"station_id":"ce4bh112rcd13ifvqd90","pricing_plan_id":"cebpf4jnsgd1na2vs0mg"},{"bike_id":"6d92f4d9-0cdd-41cd-aecc-2b7f33713104","system_id":"levelo_inurba_marseille","lat":43.29116,"lon":5.41746,"is_reserved":false,"is_disabled":false,"rental_uris":{"android":"levelo://app?vid=6d92f4d9-0cdd-41cd-aecc-2b7f33713104","ios":"levelo://app?vid=6d92f4d9-0cdd-41cd-aecc-2b7f33713104"},"vehicle_type_id":"4","last_reported":1730139183,"current_range_meters":8800,"station_id":"","pricing_plan_id":"cebpf4jnsgd1na2vs0mg"},{"bike_id":"e3e19e32-57ec-4c9f-a8ff-d4f27e00e851","system_id":"levelo_inurba_marseille","lat":43.30919,"lon":5.40168,"is_reserved":false,"is_disabled":false,"rental_uris":{"android":"levelo://app?vid=e3e19e32-57ec-4c9f-a8ff-d4f27e00e851","ios":"levelo://app?vid=e3e19e32-57ec-4c9f-a8ff-d4f27e00e851"},"vehicle_type_id":"4","last_reported":1730139183,"current_range_meters":28000,"station_id":"ce4bh2h2rcd13ifvqdh0","pricing_plan_id":"cebpf4jnsgd1na2vs0mg"},{"bike_id":"67d199a0-5b50-49d9-a72b-b082af4b4a10","system_id":"levelo_inurba_marseille","lat":43.29277,"lon":5.38449,"is_reserved":false,"is_disabled":false,"rental_uris":{"android":"levelo://app?vid=67d199a0-5b50-49d9-a72b-b082af4b4a10","ios":"levelo://app?vid=67d199a0-5b50-49d9-a72b-b082af4b4a10"},"vehicle_type_id":"4","last_reported":1730139183,"current_range_meters":20400,"station_id":"ce4bh692rcd13ifvqea0","pricing_plan_id":"cebpf4jnsgd1na2vs0mg"},{"bike_id":"2cb25abe-a4bf-4a82-b770-8b7dc0456ae6","system_id":"levelo_inurba_marseille","lat":43.31276,"lon":5.40164,"is_reserved":false,"is_disabled":false,"rental_uris":{"android":"levelo://app?vid=2cb25abe-a4bf-4a82-b770-8b7dc0456ae6","ios":"levelo://app?vid=2cb25abe-a4bf-4a82-b770-8b7dc0456ae6"},"vehicle_type_id":"4","last_reported":1730139183,"current_range_meters":38800,"station_id":"ce4bh092rcd13ifvqd30","pricing_plan_id":"cebpf4jnsgd1na2vs0mg"},{"bike_id":"0bbdf646-65cf-4b5f-98cb-46a8b961e208","system_id":"levelo_inurba_marseille","lat":43.31083,"lon":5.42432,"is_reserved":false,"is_disabled":false,"rental_uris":{"android":"levelo://app?vid=0bbdf646-65cf-4b5f-98cb-46a8b961e208","ios":"levelo://app?vid=0bbdf646-65cf-4b5f-98cb-46a8b961e208"},"vehicle_type_id":"4","last_reported":1730139183,"current_range_meters":38800,"station_id":"ce4bhp92rcd13ifvqhag","pricing_plan_id":"cebpf4jnsgd1na2vs0mg"},{"bike_id":"13d02cf7-e920-4608-9791-e05ba7c3f2b5","system_id":"levelo_inurba_marseille","lat":43.29302,"lon":5.37472,"is_reserved":false,"is_disabled":false,"rental_uris":{"android":"levelo://app?vid=13d02cf7-e920-4608-9791-e05ba7c3f2b5","ios":"levelo://app?vid=13d02cf7-e920-4608-9791-e05ba7c3f2b5"},"vehicle_type_id":"4","last_reported":1730139183,"current_range_meters":9200,"station_id":"ce4bgi12rcd13ifvqb70","pricing_plan_id":"cebpf4jnsgd1na2vs0mg"},{"bike_id":"a3c986df-8bb4-4aa0-9365-ff741272c0c9","system_id":"levelo_inurba_marseille","lat":43.322913,"lon":5.38266,"is_reserved":false,"is_disabled":false,"rental_uris":{"android":"levelo://app?vid=a3c986df-8bb4-4aa0-9365-ff741272c0c9","ios":"levelo://app?vid=a3c986df-8bb4-4aa0-9365-ff741272c0c9"},"vehicle_type_id":"4","last_reported":1730139183,"current_range_meters":20000,"station_id":"ce4bhr12rcd13ifvqhqg","pricing_plan_id":"cebpf4jnsgd1na2vs0mg"},{"bike_id":"266575d8-09f9-4cd7-833a-204d10e502df","system_id":"levelo_inurba_marseille","lat":43.32105,"lon":5.36778,"is_reserved":false,"is_disabled":false,"rental_uris":{"android":"levelo://app?vid=266575d8-09f9-4cd7-833a-204d10e502df","ios":"levelo://app?vid=266575d8-09f9-4cd7-833a-204d10e502df"},"vehicle_type_id":"4","last_reported":1730139183,"current_range_meters":29600,"station_id":"ce4bhrh2rcd13ifvqhug","pricing_plan_id":"cebpf4jnsgd1na2vs0mg"},{"bike_id":"af069604-661a-4dbf-a1f4-460304fd5937","system_id":"levelo_inurba_marseille","lat":43.29879,"lon":5.39736,"is_reserved":false,"is_disabled":false,"rental_uris":{"android":"levelo://app?vid=af069604-661a-4dbf-a1f4-460304fd5937","ios":"levelo://app?vid=af069604-661a-4dbf-a1f4-460304fd5937"},"vehicle_type_id":"4","last_reported":1730139183,"current_range_meters":6400,"station_id":"ce4bh0h2rcd13ifvqd50","pricing_plan_id":"cebpf4jnsgd1na2vs0mg"},{"bike_id":"807fa058-ecd7-4f1b-b424-e72e0bb4512a","system_id":"levelo_inurba_marseille","lat":43.30873,"lon":5.39661,"is_reserved":false,"is_disabled":false,"rental_uris":{"android":"levelo://app?vid=807fa058-ecd7-4f1b-b424-e72e0bb4512a","ios":"levelo://app?vid=807fa058-ecd7-4f1b-b424-e72e0bb4512a"},"vehicle_type_id":"4","last_reported":1730139183,"current_range_meters":4800,"station_id":"ce4bh012rcd13ifvqcv0","pricing_plan_id":"cebpf4jnsgd1na2vs0mg"},{"bike_id":"ba965a3e-42ba-4be0-bd70-0b154edc87ac","system_id":"levelo_inurba_marseille","lat":43.30143,"lon":5.3988,"is_reserved":false,"is_disabled":false,"rental_uris":{"android":"levelo://app?vid=ba965a3e-42ba-4be0-bd70-0b154edc87ac","ios":"levelo://app?vid=ba965a3e-42ba-4be0-bd70-0b154edc87ac"},"vehicle_type_id":"4","last_reported":1730139183,"current_range_meters":31200,"station_id":"ce4bh0h2rcd13ifvqd40","pricing_plan_id":"cebpf4jnsgd1na2vs0mg"},{"bike_id":"df2bca57-7cbf-46bf-88ff-955763b41a77","system_id":"levelo_inurba_marseille","lat":43.29444,"lon":5.39756,"is_reserved":false,"is_disabled":false,"rental_uris":{"android":"levelo://app?vid=df2bca57-7cbf-46bf-88ff-955763b41a77","ios":"levelo://app?vid=df2bca57-7cbf-46bf-88ff-955763b41a77"},"vehicle_type_id":"4","last_reported":1730139183,"current_range_meters":6400,"station_id":"ce4bh3h2rcd13ifvqdo0","pricing_plan_id":"cebpf4jnsgd1na2vs0mg"},{"bike_id":"98e97d81-acd5-4be5-accb-f83e98ac5b8e","system_id":"levelo_inurba_marseille","lat":43.28855,"lon":5.35857,"is_reserved":false,"is_disabled":false,"rental_uris":{"android":"levelo://app?vid=98e97d81-acd5-4be5-accb-f83e98ac5b8e","ios":"levelo://app?vid=98e97d81-acd5-4be5-accb-f83e98ac5b8e"},"vehicle_type_id":"4","last_reported":1730139183,"current_range_meters":28000,"station_id":"ce4bhb12rcd13ifvqem0","pricing_plan_id":"cebpf4jnsgd1na2vs0mg"},{"bike_id":"c5d1f1b9-b0b1-4c41-ae8a-0aaa92a1dcbe","system_id":"levelo_inurba_marseille","lat":43.29577,"lon":5.3674,"is_reserved":false,"is_disabled":false,"rental_uris":{"android":"levelo://app?vid=c5d1f1b9-b0b1-4c41-ae8a-0aaa92a1dcbe","ios":"levelo://app?vid=c5d1f1b9-b0b1-4c41-ae8a-0aaa92a1dcbe"},"vehicle_type_id":"4","last_reported":1730139183,"current_range_meters":6800,"station_id":"ce4bgph2rcd13ifvqc2g","pricing_plan_id":"cebpf4jnsgd1na2vs0mg"},{"bike_id":"b7263d5e-97f6-4d31-9044-c1c0ca24c340","system_id":"levelo_inurba_marseille","lat":43.30142,"lon":5.3987,"is_reserved":false,"is_disabled":false,"rental_uris":{"android":"levelo://app?vid=b7263d5e-97f6-4d31-9044-c1c0ca24c340","ios":"levelo://app?vid=b7263d5e-97f6-4d31-9044-c1c0ca24c340"},"vehicle_type_id":"4","last_reported":1730139183,"current_range_meters":7200,"station_id":"ce4bh0h2rcd13ifvqd40","pricing_plan_id":"cebpf4jnsgd1na2vs0mg"},{"bike_id":"8646918b-f0de-4290-91e7-a5ad0de3f775","system_id":"levelo_inurba_marseille","lat":43.296209,"lon":5.40609,"is_reserved":false,"is_disabled":false,"rental_uris":{"android":"levelo://app?vid=8646918b-f0de-4290-91e7-a5ad0de3f775","ios":"levelo://app?vid=8646918b-f0de-4290-91e7-a5ad0de3f775"},"vehicle_type_id":"4","last_reported":1730139183,"current_range_meters":8400,"station_id":"ce4bh0h2rcd13ifvqd60","pricing_plan_id":"cebpf4jnsgd1na2vs0mg"},{"bike_id":"35655e99-f00a-4af7-b8e9-ace302edb71c","system_id":"levelo_inurba_marseille","lat":43.26192,"lon":5.37451,"is_reserved":false,"is_disabled":false,"rental_uris":{"android":"levelo://app?vid=35655e99-f00a-4af7-b8e9-ace302edb71c","ios":"levelo://app?vid=35655e99-f00a-4af7-b8e9-ace302edb71c"},"vehicle_type_id":"4","last_reported":1730139183,"current_range_meters":28000,"station_id":"ce4bhgp2rcd13ifvqfc0","pricing_plan_id":"cebpf4jnsgd1na2vs0mg"},{"bike_id":"6a66b1ae-6685-4f17-a8bd-618511eda9e2","system_id":"levelo_inurba_marseille","lat":43.32479,"lon":5.36561,"is_reserved":false,"is_disabled":false,"rental_uris":{"android":"levelo://app?vid=6a66b1ae-6685-4f17-a8bd-618511eda9e2","ios":"levelo://app?vid=6a66b1ae-6685-4f17-a8bd-618511eda9e2"},"vehicle_type_id":"4","last_reported":1730139183,"current_range_meters":38000,"station_id":"ce4bhs12rcd13ifvqhvg","pricing_plan_id":"cebpf4jnsgd1na2vs0mg"},{"bike_id":"7c7a8c41-18f6-4181-9c6f-cf54672304fd","system_id":"levelo_inurba_marseille","lat":43.3018,"lon":5.36631,"is_reserved":false,"is_disabled":false,"rental_uris":{"android":"levelo://app?vid=7c7a8c41-18f6-4181-9c6f-cf54672304fd","ios":"levelo://app?vid=7c7a8c41-18f6-4181-9c6f-cf54672304fd"},"vehicle_type_id":"4","last_reported":1730139183,"current_range_meters":25200,"station_id":"ce4bgrh2rcd13ifvqc8g","pricing_plan_id":"cebpf4jnsgd1na2vs0mg"},{"bike_id":"bfcad535-ef54-447e-85f7-14f022c7fbfa","system_id":"levelo_inurba_marseille","lat":43.31454,"lon":5.39212,"is_reserved":false,"is_disabled":false,"rental_uris":{"android":"levelo://app?vid=bfcad535-ef54-447e-85f7-14f022c7fbfa","ios":"levelo://app?vid=bfcad535-ef54-447e-85f7-14f022c7fbfa"},"vehicle_type_id":"4","last_reported":1730139183,"current_range_meters":8800,"station_id":"ce4bgvp2rcd13ifvqcu0","pricing_plan_id":"cebpf4jnsgd1na2vs0mg"},{"bike_id":"b9d9092e-6707-4814-9d1e-4b2ba57c061f","system_id":"levelo_inurba_marseille","lat":43.30882,"lon":5.39633,"is_reserved":false,"is_disabled":false,"rental_uris":{"android":"levelo://app?vid=b9d9092e-6707-4814-9d1e-4b2ba57c061f","ios":"levelo://app?vid=b9d9092e-6707-4814-9d1e-4b2ba57c061f"},"vehicle_type_id":"4","last_reported":1730139183,"current_range_meters":18000,"station_id":"ce4bh012rcd13ifvqcv0","pricing_plan_id":"cebpf4jnsgd1na2vs0mg"},{"bike_id":"03b89aea-1482-4224-9a9c-419d7e9d072e","system_id":"levelo_inurba_marseille","lat":43.26068,"lon":5.39399,"is_reserved":false,"is_disabled":false,"rental_uris":{"android":"levelo://app?vid=03b89aea-1482-4224-9a9c-419d7e9d072e","ios":"levelo://app?vid=03b89aea-1482-4224-9a9c-419d7e9d072e"},"vehicle_type_id":"4","last_reported":1730139183,"current_range_meters":10000,"station_id":"ce4bhh92rcd13ifvqfj0","pricing_plan_id":"cebpf4jnsgd1na2vs0mg"},{"bike_id":"a547a7a7-2160-46c8-825a-2bfcae044c5c","system_id":"levelo_inurba_marseille","lat":43.30463,"lon":5.37907,"is_reserved":false,"is_disabled":false,"rental_uris":{"android":"levelo://app?vid=a547a7a7-2160-46c8-825a-2bfcae044c5c","ios":"levelo://app?vid=a547a7a7-2160-46c8-825a-2bfcae044c5c"},"vehicle_type_id":"4","last_reported":1730139183,"current_range_meters":33200,"station_id":"ce4bgup2rcd13ifvqcn0","pricing_plan_id":"cebpf4jnsgd1na2vs0mg"},{"bike_id":"c02ff1c6-a4ad-4148-bd84-5056232f90dd","system_id":"levelo_inurba_marseille","lat":43.32109,"lon":5.36775,"is_reserved":false,"is_disabled":false,"rental_uris":{"android":"levelo://app?vid=c02ff1c6-a4ad-4148-bd84-5056232f90dd","ios":"levelo://app?vid=c02ff1c6-a4ad-4148-bd84-5056232f90dd"},"vehicle_type_id":"4","last_reported":1730139183,"current_range_meters":37600,"station_id":"ce4bhrh2rcd13ifvqhug","pricing_plan_id":"cebpf4jnsgd1na2vs0mg"},{"bike_id":"c282ac55-b4b2-4f9e-9b4b-42ee7ca7c6f5","system_id":"levelo_inurba_marseille","lat":43.23058,"lon":5.3549,"is_reserved":false,"is_disabled":false,"rental_uris":{"android":"levelo://app?vid=c282ac55-b4b2-4f9e-9b4b-42ee7ca7c6f5","ios":"levelo://app?vid=c282ac55-b4b2-4f9e-9b4b-42ee7ca7c6f5"},"vehicle_type_id":"4","last_reported":1730139183,"current_range_meters":24400,"station_id":"cpo3342slgdg3j2ifvpg","pricing_plan_id":"cebpf4jnsgd1na2vs0mg"},{"bike_id":"263050f5-c79e-4457-bca3-0869f7981420","system_id":"levelo_inurba_marseille","lat":43.27069,"lon":5.42279,"is_reserved":false,"is_disabled":false,"rental_uris":{"android":"levelo://app?vid=263050f5-c79e-4457-bca3-0869f7981420","ios":"levelo://app?vid=263050f5-c79e-4457-bca3-0869f7981420"},"vehicle_type_id":"4","last_reported":1730139183,"current_range_meters":8400,"station_id":"ce4bhk92rcd13ifvqgb0","pricing_plan_id":"cebpf4jnsgd1na2vs0mg"},{"bike_id":"166c1e33-b0b5-42c9-82ef-9b4861bf4056","system_id":"levelo_inurba_marseille","lat":43.29278,"lon":5.36846,"is_reserved":false,"is_disabled":false,"rental_uris":{"android":"levelo://app?vid=166c1e33-b0b5-42c9-82ef-9b4861bf4056","ios":"levelo://app?vid=166c1e33-b0b5-42c9-82ef-9b4861bf4056"},"vehicle_type_id":"4","last_reported":1730139183,"current_range_meters":27200,"station_id":"ce4bhbp2rcd13ifvqesg","pricing_plan_id":"cebpf4jnsgd1na2vs0mg"},{"bike_id":"98f2ea08-1af8-4ae1-958e-97035659dff0","system_id":"levelo_inurba_marseille","lat":43.28705,"lon":5.39987,"is_reserved":false,"is_disabled":false,"rental_uris":{"android":"levelo://app?vid=98f2ea08-1af8-4ae1-958e-97035659dff0","ios":"levelo://app?vid=98f2ea08-1af8-4ae1-958e-97035659dff0"},"vehicle_type_id":"4","last_reported":1730139183,"current_range_meters":19200,"station_id":"ce4bho92rcd13ifvqh3g","pricing_plan_id":"cebpf4jnsgd1na2vs0mg"},{"bike_id":"34712e57-f688-4f6c-a587-ad8cb12efcab","system_id":"levelo_inurba_marseille","lat":43.3302,"lon":5.39048,"is_reserved":false,"is_disabled":false,"rental_uris":{"android":"levelo://app?vid=34712e57-f688-4f6c-a587-ad8cb12efcab","ios":"levelo://app?vid=34712e57-f688-4f6c-a587-ad8cb12efcab"},"vehicle_type_id":"4","last_reported":1730139183,"current_range_meters":10000,"station_id":"ce4bhr92rcd13ifvqhrg","pricing_plan_id":"cebpf4jnsgd1na2vs0mg"},{"bike_id":"58dda38b-c0be-4534-bbcf-a675032c3f3f","system_id":"levelo_inurba_marseille","lat":43.28039,"lon":5.3695,"is_reserved":false,"is_disabled":false,"rental_uris":{"android":"levelo://app?vid=58dda38b-c0be-4534-bbcf-a675032c3f3f","ios":"levelo://app?vid=58dda38b-c0be-4534-bbcf-a675032c3f3f"},"vehicle_type_id":"4","last_reported":1730139183,"current_range_meters":20000,"station_id":"ce4bha12rcd13ifvqef0","pricing_plan_id":"cebpf4jnsgd1na2vs0mg"},{"bike_id":"0d18f842-dde9-4826-8b36-f189fafc54a6","system_id":"levelo_inurba_marseille","lat":43.27667,"lon":5.38873,"is_reserved":false,"is_disabled":false,"rental_uris":{"android":"levelo://app?vid=0d18f842-dde9-4826-8b36-f189fafc54a6","ios":"levelo://app?vid=0d18f842-dde9-4826-8b36-f189fafc54a6"},"vehicle_type_id":"4","last_reported":1730139183,"current_range_meters":9600,"station_id":"ce4bhi12rcd13ifvqfo0","pricing_plan_id":"cebpf4jnsgd1na2vs0mg"},{"bike_id":"23230845-a5ad-4f41-a19f-b1bd605752cd","system_id":"levelo_inurba_marseille","lat":43.32468,"lon":5.36572,"is_reserved":false,"is_disabled":false,"rental_uris":{"android":"levelo://app?vid=23230845-a5ad-4f41-a19f-b1bd605752cd","ios":"levelo://app?vid=23230845-a5ad-4f41-a19f-b1bd605752cd"},"vehicle_type_id":"4","last_reported":1730139183,"current_range_meters":14000,"station_id":"ce4bhs12rcd13ifvqhvg","pricing_plan_id":"cebpf4jnsgd1na2vs0mg"},{"bike_id":"5fd5af55-2e38-41ca-be76-c6ec08201071","system_id":"levelo_inurba_marseille","lat":43.240693,"lon":5.377647,"is_reserved":false,"is_disabled":false,"rental_uris":{"android":"levelo://app?vid=5fd5af55-2e38-41ca-be76-c6ec08201071","ios":"levelo://app?vid=5fd5af55-2e38-41ca-be76-c6ec08201071"},"vehicle_type_id":"4","last_reported":1730139183,"current_range_meters":16000,"station_id":"ce4bhnp2rcd13ifvqgvg","pricing_plan_id":"cebpf4jnsgd1na2vs0mg"},{"bike_id":"f4ad65d4-3d79-4291-a32f-017475ea2648","system_id":"levelo_inurba_marseille","lat":43.29538,"lon":5.38539,"is_reserved":false,"is_disabled":false,"rental_uris":{"android":"levelo://app?vid=f4ad65d4-3d79-4291-a32f-017475ea2648","ios":"levelo://app?vid=f4ad65d4-3d79-4291-a32f-017475ea2648"},"vehicle_type_id":"4","last_reported":1730139183,"current_range_meters":18000,"station_id":"ce4bgih2rcd13ifvqba0","pricing_plan_id":"cebpf4jnsgd1na2vs0mg"},{"bike_id":"b57aa44f-470e-49d9-93c3-a246626fe495","system_id":"levelo_inurba_marseille","lat":43.28418,"lon":5.37511,"is_reserved":false,"is_disabled":false,"rental_uris":{"android":"levelo://app?vid=b57aa44f-470e-49d9-93c3-a246626fe495","ios":"levelo://app?vid=b57aa44f-470e-49d9-93c3-a246626fe495"},"vehicle_type_id":"4","last_reported":1730139183,"current_range_meters":34800,"station_id":"ce4bh412rcd13ifvqds0","pricing_plan_id":"cebpf4jnsgd1na2vs0mg"},{"bike_id":"bca8274c-6c57-49b8-afeb-b0b6a88500c9","system_id":"levelo_inurba_marseille","lat":43.23959,"lon":5.36631,"is_reserved":false,"is_disabled":false,"rental_uris":{"android":"levelo://app?vid=bca8274c-6c57-49b8-afeb-b0b6a88500c9","ios":"levelo://app?vid=bca8274c-6c57-49b8-afeb-b0b6a88500c9"},"vehicle_type_id":"4","last_reported":1730139183,"current_range_meters":5600,"station_id":"ce4bhi12rcd13ifvqfp0","pricing_plan_id":"cebpf4jnsgd1na2vs0mg"},{"bike_id":"8f0ec6ae-07e2-42c7-ae61-2bb16feb3538","system_id":"levelo_inurba_marseille","lat":43.2795,"lon":5.41052,"is_reserved":false,"is_disabled":false,"rental_uris":{"android":"levelo://app?vid=8f0ec6ae-07e2-42c7-ae61-2bb16feb3538","ios":"levelo://app?vid=8f0ec6ae-07e2-42c7-ae61-2bb16feb3538"},"vehicle_type_id":"4","last_reported":1730139183,"current_range_meters":24400,"station_id":"ce4bhnp2rcd13ifvqh0g","pricing_plan_id":"cebpf4jnsgd1na2vs0mg"},{"bike_id":"973500b4-13e8-4709-b511-e5400cd1c24f","system_id":"levelo_inurba_marseille","lat":43.30929,"lon":5.4014,"is_reserved":false,"is_disabled":false,"rental_uris":{"android":"levelo://app?vid=973500b4-13e8-4709-b511-e5400cd1c24f","ios":"levelo://app?vid=973500b4-13e8-4709-b511-e5400cd1c24f"},"vehicle_type_id":"4","last_reported":1730139183,"current_range_meters":39200,"station_id":"ce4bgvp2rcd13ifvqct0","pricing_plan_id":"cebpf4jnsgd1na2vs0mg"},{"bike_id":"8b18072b-3116-40d8-aa39-44e16f2a06d9","system_id":"levelo_inurba_marseille","lat":43.30147,"lon":5.37428,"is_reserved":false,"is_disabled":false,"rental_uris":{"android":"levelo://app?vid=8b18072b-3116-40d8-aa39-44e16f2a06d9","ios":"levelo://app?vid=8b18072b-3116-40d8-aa39-44e16f2a06d9"},"vehicle_type_id":"4","last_reported":1730139183,"current_range_meters":39200,"station_id":"ce4bgs92rcd13ifvqcc0","pricing_plan_id":"cebpf4jnsgd1na2vs0mg"},{"bike_id":"241ecd04-7016-4c00-9406-26d98a6106d7","system_id":"levelo_inurba_marseille","lat":43.28702,"lon":5.37386,"is_reserved":false,"is_disabled":false,"rental_uris":{"android":"levelo://app?vid=241ecd04-7016-4c00-9406-26d98a6106d7","ios":"levelo://app?vid=241ecd04-7016-4c00-9406-26d98a6106d7"},"vehicle_type_id":"4","last_reported":1730139183,"current_range_meters":24400,"station_id":"ce4bh3p2rcd13ifvqdq0","pricing_plan_id":"cebpf4jnsgd1na2vs0mg"},{"bike_id":"36736813-88b5-476b-b4fd-e981003f5467","system_id":"levelo_inurba_marseille","lat":43.30303,"lon":5.39217,"is_reserved":false,"is_disabled":false,"rental_uris":{"android":"levelo://app?vid=36736813-88b5-476b-b4fd-e981003f5467","ios":"levelo://app?vid=36736813-88b5-476b-b4fd-e981003f5467"},"vehicle_type_id":"4","last_reported":1730139183,"current_range_meters":28800,"station_id":"ce4bgkh2rcd13ifvqbk0","pricing_plan_id":"cebpf4jnsgd1na2vs0mg"},{"bike_id":"25b526d7-a88c-4e44-bf73-fcfa0ac83e0e","system_id":"levelo_inurba_marseille","lat":43.23957,"lon":5.36628,"is_reserved":false,"is_disabled":false,"rental_uris":{"android":"levelo://app?vid=25b526d7-a88c-4e44-bf73-fcfa0ac83e0e","ios":"levelo://app?vid=25b526d7-a88c-4e44-bf73-fcfa0ac83e0e"},"vehicle_type_id":"4","last_reported":1730139183,"current_range_meters":38800,"station_id":"ce4bhi12rcd13ifvqfp0","pricing_plan_id":"cebpf4jnsgd1na2vs0mg"},{"bike_id":"25d3a39d-81a7-42a8-a3f5-1c34f3720877","system_id":"levelo_inurba_marseille","lat":43.24076,"lon":5.37756,"is_reserved":false,"is_disabled":false,"rental_uris":{"android":"levelo://app?vid=25d3a39d-81a7-42a8-a3f5-1c34f3720877","ios":"levelo://app?vid=25d3a39d-81a7-42a8-a3f5-1c34f3720877"},"vehicle_type_id":"4","last_reported":1730139183,"current_range_meters":22400,"station_id":"ce4bhnp2rcd13ifvqgvg","pricing_plan_id":"cebpf4jnsgd1na2vs0mg"},{"bike_id":"2fe3359a-3f8e-4001-a284-11b090c975b8","system_id":"levelo_inurba_marseille","lat":43.27622,"lon":5.3611,"is_reserved":false,"is_disabled":false,"rental_uris":{"android":"levelo://app?vid=2fe3359a-3f8e-4001-a284-11b090c975b8","ios":"levelo://app?vid=2fe3359a-3f8e-4001-a284-11b090c975b8"},"vehicle_type_id":"4","last_reported":1730139183,"current_range_meters":8400,"station_id":"ce4bgj92rcd13ifvqbe0","pricing_plan_id":"cebpf4jnsgd1na2vs0mg"},{"bike_id":"ef7a3fc5-5253-4f4f-8a93-0f5f2ed715ec","system_id":"levelo_inurba_marseille","lat":43.2718,"lon":5.42869,"is_reserved":false,"is_disabled":false,"rental_uris":{"android":"levelo://app?vid=ef7a3fc5-5253-4f4f-8a93-0f5f2ed715ec","ios":"levelo://app?vid=ef7a3fc5-5253-4f4f-8a93-0f5f2ed715ec"},"vehicle_type_id":"4","last_reported":1730139183,"current_range_meters":28800,"station_id":"ce4bhnh2rcd13ifvqgug","pricing_plan_id":"cebpf4jnsgd1na2vs0mg"},{"bike_id":"f550f88a-59a5-4674-996b-cc59f134c696","system_id":"levelo_inurba_marseille","lat":43.301989,"lon":5.366346,"is_reserved":false,"is_disabled":false,"rental_uris":{"android":"levelo://app?vid=f550f88a-59a5-4674-996b-cc59f134c696","ios":"levelo://app?vid=f550f88a-59a5-4674-996b-cc59f134c696"},"vehicle_type_id":"4","last_reported":1730139183,"current_range_meters":28000,"station_id":"ce4bgrh2rcd13ifvqc8g","pricing_plan_id":"cebpf4jnsgd1na2vs0mg"},{"bike_id":"b2a261f5-f377-496c-bcbb-bf760a1f05a0","system_id":"levelo_inurba_marseille","lat":43.31118,"lon":5.37767,"is_reserved":false,"is_disabled":false,"rental_uris":{"android":"levelo://app?vid=b2a261f5-f377-496c-bcbb-bf760a1f05a0","ios":"levelo://app?vid=b2a261f5-f377-496c-bcbb-bf760a1f05a0"},"vehicle_type_id":"4","last_reported":1730139183,"current_range_meters":28000,"station_id":"ce4bgt92rcd13ifvqcg0","pricing_plan_id":"cebpf4jnsgd1na2vs0mg"},{"bike_id":"9aef47f4-025c-49fe-966a-a53db44f9c2b","system_id":"levelo_inurba_marseille","lat":43.31712,"lon":5.37754,"is_reserved":false,"is_disabled":false,"rental_uris":{"android":"levelo://app?vid=9aef47f4-025c-49fe-966a-a53db44f9c2b","ios":"levelo://app?vid=9aef47f4-025c-49fe-966a-a53db44f9c2b"},"vehicle_type_id":"4","last_reported":1730139183,"current_range_meters":38000,"station_id":"ce4bgth2rcd13ifvqch0","pricing_plan_id":"cebpf4jnsgd1na2vs0mg"},{"bike_id":"907e2c12-ca4a-44dc-82e6-73f58bd53287","system_id":"levelo_inurba_marseille","lat":43.30302,"lon":5.38634,"is_reserved":false,"is_disabled":false,"rental_uris":{"android":"levelo://app?vid=907e2c12-ca4a-44dc-82e6-73f58bd53287","ios":"levelo://app?vid=907e2c12-ca4a-44dc-82e6-73f58bd53287"},"vehicle_type_id":"4","last_reported":1730139183,"current_range_meters":15200,"station_id":"","pricing_plan_id":"cebpf4jnsgd1na2vs0mg"},{"bike_id":"21f9e7eb-9435-42df-99a3-5496a1c5fbd7","system_id":"levelo_inurba_marseille","lat":43.29932,"lon":5.36553,"is_reserved":false,"is_disabled":false,"rental_uris":{"android":"levelo://app?vid=21f9e7eb-9435-42df-99a3-5496a1c5fbd7","ios":"levelo://app?vid=21f9e7eb-9435-42df-99a3-5496a1c5fbd7"},"vehicle_type_id":"4","last_reported":1730139183,"current_range_meters":28000,"station_id":"ce4bgm92rcd13ifvqbr0","pricing_plan_id":"cebpf4jnsgd1na2vs0mg"},{"bike_id":"ba05db3e-0516-4714-8ad9-ccbdca28b3e1","system_id":"levelo_inurba_marseille","lat":43.27816,"lon":5.40707,"is_reserved":false,"is_disabled":false,"rental_uris":{"android":"levelo://app?vid=ba05db3e-0516-4714-8ad9-ccbdca28b3e1","ios":"levelo://app?vid=ba05db3e-0516-4714-8ad9-ccbdca28b3e1"},"vehicle_type_id":"4","last_reported":1730139183,"current_range_meters":6000,"station_id":"ce4bhnh2rcd13ifvqgtg","pricing_plan_id":"cebpf4jnsgd1na2vs0mg"},{"bike_id":"060142e2-1d75-4f78-b8ff-7db993f8e8c5","system_id":"levelo_inurba_marseille","lat":43.29261,"lon":5.38432,"is_reserved":false,"is_disabled":false,"rental_uris":{"android":"levelo://app?vid=060142e2-1d75-4f78-b8ff-7db993f8e8c5","ios":"levelo://app?vid=060142e2-1d75-4f78-b8ff-7db993f8e8c5"},"vehicle_type_id":"4","last_reported":1730139183,"current_range_meters":5600,"station_id":"ce4bh692rcd13ifvqea0","pricing_plan_id":"cebpf4jnsgd1na2vs0mg"},{"bike_id":"b154a29a-5e41-4610-a732-cacf52428044","system_id":"levelo_inurba_marseille","lat":43.31072,"lon":5.38354,"is_reserved":false,"is_disabled":false,"rental_uris":{"android":"levelo://app?vid=b154a29a-5e41-4610-a732-cacf52428044","ios":"levelo://app?vid=b154a29a-5e41-4610-a732-cacf52428044"},"vehicle_type_id":"4","last_reported":1730139183,"current_range_meters":4800,"station_id":"ce4bgv92rcd13ifvqcr0","pricing_plan_id":"cebpf4jnsgd1na2vs0mg"},{"bike_id":"67434976-bbe1-45e6-8e0f-d7f12e7ab36d","system_id":"levelo_inurba_marseille","lat":43.33021,"lon":5.39051,"is_reserved":false,"is_disabled":false,"rental_uris":{"android":"levelo://app?vid=67434976-bbe1-45e6-8e0f-d7f12e7ab36d","ios":"levelo://app?vid=67434976-bbe1-45e6-8e0f-d7f12e7ab36d"},"vehicle_type_id":"4","last_reported":1730139183,"current_range_meters":38800,"station_id":"ce4bhr92rcd13ifvqhrg","pricing_plan_id":"cebpf4jnsgd1na2vs0mg"},{"bike_id":"2220a62e-ddb7-45d7-a976-d0262ecda1cb","system_id":"levelo_inurba_marseille","lat":43.23057,"lon":5.35491,"is_reserved":false,"is_disabled":false,"rental_uris":{"android":"levelo://app?vid=2220a62e-ddb7-45d7-a976-d0262ecda1cb","ios":"levelo://app?vid=2220a62e-ddb7-45d7-a976-d0262ecda1cb"},"vehicle_type_id":"4","last_reported":1730139183,"current_range_meters":4800,"station_id":"cpo3342slgdg3j2ifvpg","pricing_plan_id":"cebpf4jnsgd1na2vs0mg"},{"bike_id":"cc414279-400c-4e86-a452-398b7b9fcae2","system_id":"levelo_inurba_marseille","lat":43.24814,"lon":5.37461,"is_reserved":false,"is_disabled":false,"rental_uris":{"android":"levelo://app?vid=cc414279-400c-4e86-a452-398b7b9fcae2","ios":"levelo://app?vid=cc414279-400c-4e86-a452-398b7b9fcae2"},"vehicle_type_id":"4","last_reported":1730139183,"current_range_meters":33600,"station_id":"ce4bhgh2rcd13ifvqfb0","pricing_plan_id":"cebpf4jnsgd1na2vs0mg"},{"bike_id":"a05dcf63-e982-47aa-8f79-142a1b6d0240","system_id":"levelo_inurba_marseille","lat":43.268738,"lon":5.388833,"is_reserved":false,"is_disabled":false,"rental_uris":{"android":"levelo://app?vid=a05dcf63-e982-47aa-8f79-142a1b6d0240","ios":"levelo://app?vid=a05dcf63-e982-47aa-8f79-142a1b6d0240"},"vehicle_type_id":"4","last_reported":1730139183,"current_range_meters":30000,"station_id":"ce4bhhh2rcd13ifvqfl0","pricing_plan_id":"cebpf4jnsgd1na2vs0mg"},{"bike_id":"ae70d8bd-b5b9-41d0-a15d-80f75f99300f","system_id":"levelo_inurba_marseille","lat":43.29267,"lon":5.38436,"is_reserved":false,"is_disabled":false,"rental_uris":{"android":"levelo://app?vid=ae70d8bd-b5b9-41d0-a15d-80f75f99300f","ios":"levelo://app?vid=ae70d8bd-b5b9-41d0-a15d-80f75f99300f"},"vehicle_type_id":"4","last_reported":1730139183,"current_range_meters":23200,"station_id":"ce4bh692rcd13ifvqea0","pricing_plan_id":"cebpf4jnsgd1na2vs0mg"},{"bike_id":"aa07ac04-13d6-4d7f-a65f-096d426aaab4","system_id":"levelo_inurba_marseille","lat":43.27948,"lon":5.41058,"is_reserved":false,"is_disabled":false,"rental_uris":{"android":"levelo://app?vid=aa07ac04-13d6-4d7f-a65f-096d426aaab4","ios":"levelo://app?vid=aa07ac04-13d6-4d7f-a65f-096d426aaab4"},"vehicle_type_id":"4","last_reported":1730139183,"current_range_meters":2800,"station_id":"ce4bhnp2rcd13ifvqh0g","pricing_plan_id":"cebpf4jnsgd1na2vs0mg"},{"bike_id":"8755408e-134e-4cf8-9233-2bd1c941e99a","system_id":"levelo_inurba_marseille","lat":43.29634,"lon":5.40607,"is_reserved":false,"is_disabled":false,"rental_uris":{"android":"levelo://app?vid=8755408e-134e-4cf8-9233-2bd1c941e99a","ios":"levelo://app?vid=8755408e-134e-4cf8-9233-2bd1c941e99a"},"vehicle_type_id":"4","last_reported":1730139183,"current_range_meters":7200,"station_id":"ce4bh0h2rcd13ifvqd60","pricing_plan_id":"cebpf4jnsgd1na2vs0mg"},{"bike_id":"206fbbe0-b584-47ce-941b-46fc36c881c1","system_id":"levelo_inurba_marseille","lat":43.28998,"lon":5.37838,"is_reserved":false,"is_disabled":false,"rental_uris":{"android":"levelo://app?vid=206fbbe0-b584-47ce-941b-46fc36c881c1","ios":"levelo://app?vid=206fbbe0-b584-47ce-941b-46fc36c881c1"},"vehicle_type_id":"4","last_reported":1730139183,"current_range_meters":4800,"station_id":"ce4bh9p2rcd13ifvqed0","pricing_plan_id":"cebpf4jnsgd1na2vs0mg"},{"bike_id":"933a3078-974f-4d50-8121-9e000bf6644d","system_id":"levelo_inurba_marseille","lat":43.2895,"lon":5.3664,"is_reserved":false,"is_disabled":false,"rental_uris":{"android":"levelo://app?vid=933a3078-974f-4d50-8121-9e000bf6644d","ios":"levelo://app?vid=933a3078-974f-4d50-8121-9e000bf6644d"},"vehicle_type_id":"4","last_reported":1730139183,"current_range_meters":20400,"station_id":"ce4bhap2rcd13ifvqek0","pricing_plan_id":"cebpf4jnsgd1na2vs0mg"},{"bike_id":"e1a40805-d13e-46d4-bbd0-9b4c8eb56c26","system_id":"levelo_inurba_marseille","lat":43.29029,"lon":5.38647,"is_reserved":false,"is_disabled":false,"rental_uris":{"android":"levelo://app?vid=e1a40805-d13e-46d4-bbd0-9b4c8eb56c26","ios":"levelo://app?vid=e1a40805-d13e-46d4-bbd0-9b4c8eb56c26"},"vehicle_type_id":"4","last_reported":1730139183,"current_range_meters":11600,"station_id":"ce4bh4p2rcd13ifvqe0g","pricing_plan_id":"cebpf4jnsgd1na2vs0mg"},