{"last_updated":1716620812,"ttl":30,"version":"2.2","data":{"bikes":[{"bike_id":"c3f6cb8d-ae2a-4a6e-9cd0-7256f8272478","system_id":"levelo_inurba_marseille","lat":43.313391,"lon":5.36706,"is_reserved":false,"is_disabled":false,"rental_uris":{"android":"levelo://app?vid=c3f6cb8d-ae2a-4a6e-9cd0-7256f8272478","ios":"levelo://app?vid=c3f6cb8d-ae2a-4a6e-9cd0-7256f8272478"},"vehicle_type_id":"4","last_reported":1716620812,"current_range_meters":27600,"station_id":"ce4bgr92rcd13ifvqc6g","pricing_plan_id":"cebpf4jnsgd1na2vs0mg"},{"bike_id":"9eae48e7-852e-4532-b727-3400a7d50448","system_id":"levelo_inurba_marseille","lat":43.312239,"lon":5.368562,"is_reserved":false,"is_disabled":false,"rental_uris":{"android":"levelo://app?vid=9eae48e7-852e-4532-b727-3400a7d50448","ios":"levelo://app?vid=9eae48e7-852e-4532-b727-3400a7d50448"},"vehicle_type_id":"4","last_reported":1716620812,"current_range_meters":14800,"station_id":"ce4bgl92rcd13ifvqbq0","pricing_plan_id":"cebpf4jnsgd1na2vs0mg"},{"bike_id":"d2098cbc-70c7-462d-b455-d8cbeb2ff586","system_id":"levelo_inurba_marseille","lat":43.312239,"lon":5.368562,"is_reserved":false,"is_disabled":false,"rental_uris":{"android":"levelo://app?vid=d2098cbc-70c7-462d-b455-d8cbeb2ff586","ios":"levelo://app?vid=d2098cbc-70c7-462d-b455-d8cbeb2ff586"},"vehicle_type_id":"4","last_reported":1716620812,"current_range_meters":30400,"station_id":"ce4bgl92rcd13ifvqbq0","pricing_plan_id":"cebpf4jnsgd1na2vs0mg"},{"bike_id":"0ba26f5a-2e0d-422f-be20-8eebbcf5b33e","system_id":"levelo_inurba_marseille","lat":43.309076,"lon":5.368465,"is_reserved":false,"is_disabled":false,"rental_uris":{"android":"levelo://app?vid=0ba26f5a-2e0d-422f-be20-8eebbcf5b33e","ios":"levelo://app?vid=0ba26f5a-2e0d-422f-be20-8eebbcf5b33e"},"vehicle_type_id":"4","last_reported":1716620812,"current_range_meters":27600,"station_id":"ce4bgn92rcd13ifvqbvg","pricing_plan_id":"cebpf4jnsgd1na2vs0mg"},{"bike_id":"fd49aa92-4edb-4e5d-b909-cc5671805f45","system_id":"levelo_inurba_marseille","lat":43.314811,"lon":5.373103,"is_reserved":false,"is_disabled":false,"rental_uris":{"android":"levelo://app?vid=fd49aa92-4edb-4e5d-b909-cc5671805f45","ios":"levelo://app?vid=fd49aa92-4edb-4e5d-b909-cc5671805f45"},"vehicle_type_id":"4","last_reported":1716620812,"current_range_meters":24800,"station_id":"ce4bgt12rcd13ifvqcd0","pricing_plan_id":"cebpf4jnsgd1na2vs0mg"},{"bike_id":"28ef25c3-2750-48a3-a4a6-3ba706e652c7","system_id":"levelo_inurba_marseille","lat":43.314811,"lon":5.373104,"is_reserved":false,"is_disabled":false,"rental_uris":{"android":"levelo://app?vid=28ef25c3-2750-48a3-a4a6-3ba706e652c7","ios":"levelo://app?vid=28ef25c3-2750-48a3-a4a6-3ba706e652c7"},"vehicle_type_id":"4","last_reported":1716620812,"current_range_meters":30000,"station_id":"ce4bgt12rcd13ifvqcd0","pricing_plan_id":"cebpf4jnsgd1na2vs0mg"},{"bike_id":"797895c1-fd2a-47fb-827e-f8bae353946d","system_id":"levelo_inurba_marseille","lat":43.314811,"lon":5.373103,"is_reserved":false,"is_disabled":false,"rental_uris":{"android":"levelo://app?vid=797895c1-fd2a-47fb-827e-f8bae353946d","ios":"levelo://app?vid=797895c1-fd2a-47fb-827e-f8bae353946d"},"vehicle_type_id":"4","last_reported":1716620812,"current_range_meters":6400,"station_id":"ce4bgt12rcd13ifvqcd0","pricing_plan_id":"cebpf4jnsgd1na2vs0mg"},{"bike_id":"1f6a7c00-366d-4ed3-8993-902f039fde06","system_id":"levelo_inurba_marseille","lat":43.314811,"lon":5.373103,"is_reserved":false,"is_disabled":false,"rental_uris":{"android":"levelo://app?vid=1f6a7c00-366d-4ed3-8993-902f039fde06","ios":"levelo://app?vid=1f6a7c00-366d-4ed3-8993-902f039fde06"},"vehicle_type_id":"4","last_reported":1716620812,"current_range_meters":24400,"station_id":"ce4bgt12rcd13ifvqcd0","pricing_plan_id":"cebpf4jnsgd1na2vs0mg"},{"bike_id":"dcf0524c-5d1d-4f1f-b607-9e02b4ae3a2a","system_id":"levelo_inurba_marseille","lat":43.314811,"lon":5.373103,"is_reserved":false,"is_disabled":false,"rental_uris":{"android":"levelo://app?vid=dcf0524c-5d1d-4f1f-b607-9e02b4ae3a2a","ios":"levelo://app?vid=dcf0524c-5d1d-4f1f-b607-9e02b4ae3a2a"},"vehicle_type_id":"4","last_reported":1716620812,"current_range_meters":27600,"station_id":"ce4bgt12rcd13ifvqcd0","pricing_plan_id":"cebpf4jnsgd1na2vs0mg"},{"bike_id":"71f93766-9ea0-4dfb-a75b-3c21b385b317","system_id":"levelo_inurba_marseille","lat":43.314811,"lon":5.373104,"is_reserved":false,"is_disabled":false,"rental_uris":{"android":"levelo://app?vid=71f93766-9ea0-4dfb-a75b-3c21b385b317","ios":"levelo://app?vid=71f93766-9ea0-4dfb-a75b-3c21b385b317"},"vehicle_type_id":"4","last_reported":1716620812,"current_range_meters":31200,"station_id":"ce4bgt12rcd13ifvqcd0","pricing_plan_id":"cebpf4jnsgd1na2vs0mg"},{"bike_id":"27ef9674-fc8d-4214-9977-c7576292a90d","system_id":"levelo_inurba_marseille","lat":43.314811,"lon":5.373104,"is_reserved":false,"is_disabled":false,"rental_uris":{"android":"levelo://app?vid=27ef9674-fc8d-4214-9977-c7576292a90d","ios":"levelo://app?vid=27ef9674-fc8d-4214-9977-c7576292a90d"},"vehicle_type_id":"4","last_reported":1716620812,"current_range_meters":0,"station_id":"ce4bgt12rcd13ifvqcd0","pricing_plan_id":"cebpf4jnsgd1na2vs0mg"},{"bike_id":"32b14350-9d03-4948-8453-dd94dc3b99e2","system_id":"levelo_inurba_marseille","lat":43.314968,"lon":5.373067,"is_reserved":false,"is_disabled":false,"rental_uris":{"android":"levelo://app?vid=32b14350-9d03-4948-8453-dd94dc3b99e2","ios":"levelo://app?vid=32b14350-9d03-4948-8453-dd94dc3b99e2"},"vehicle_type_id":"4","last_reported":1716620812,"current_range_meters":8400,"station_id":"ce4bgt12rcd13ifvqcd0","pricing_plan_id":"cebpf4jnsgd1na2vs0mg"},{"bike_id":"4fbf9167-4f0e-433d-bfc3-3c009a69fa57","system_id":"levelo_inurba_marseille","lat":43.309039,"lon":5.371797,"is_reserved":false,"is_disabled":false,"rental_uris":{"android":"levelo://app?vid=4fbf9167-4f0e-433d-bfc3-3c009a69fa57","ios":"levelo://app?vid=4fbf9167-4f0e-433d-bfc3-3c009a69fa57"},"vehicle_type_id":"4","last_reported":1716620812,"current_range_meters":12000,"station_id":"ce4bguh2rcd13ifvqckg","pricing_plan_id":"cebpf4jnsgd1na2vs0mg"},{"bike_id":"f607a2d9-dea8-4867-a264-a375240e5b9a","system_id":"levelo_inurba_marseille","lat":43.31672,"lon":5.3722,"is_reserved":false,"is_disabled":false,"rental_uris":{"android":"levelo://app?vid=f607a2d9-dea8-4867-a264-a375240e5b9a","ios":"levelo://app?vid=f607a2d9-dea8-4867-a264-a375240e5b9a"},"vehicle_type_id":"4","last_reported":1716620812,"current_range_meters":400,"station_id":"","pricing_plan_id":"cebpf4jnsgd1na2vs0mg"},{"bike_id":"085f8808-1d82-4a31-a42a-8e58df7e3717","system_id":"levelo_inurba_marseille","lat":43.306696,"lon":5.372094,"is_reserved":false,"is_disabled":false,"rental_uris":{"android":"levelo://app?vid=085f8808-1d82-4a31-a42a-8e58df7e3717","ios":"levelo://app?vid=085f8808-1d82-4a31-a42a-8e58df7e3717"},"vehicle_type_id":"4","last_reported":1716620812,"current_range_meters":30800,"station_id":"","pricing_plan_id":"cebpf4jnsgd1na2vs0mg"},{"bike_id":"fcf32ef6-4fe3-4f1d-bf38-d8541a3f9679","system_id":"levelo_inurba_marseille","lat":43.30537,"lon":5.367345,"is_reserved":false,"is_disabled":false,"rental_uris":{"android":"levelo://app?vid=fcf32ef6-4fe3-4f1d-bf38-d8541a3f9679","ios":"levelo://app?vid=fcf32ef6-4fe3-4f1d-bf38-d8541a3f9679"},"vehicle_type_id":"4","last_reported":1716620812,"current_range_meters":14400,"station_id":"ce4bgrp2rcd13ifvqc9g","pricing_plan_id":"cebpf4jnsgd1na2vs0mg"},{"bike_id":"71e8f5f0-1a8f-44b1-9da7-433a60596dbc","system_id":"levelo_inurba_marseille","lat":43.30537,"lon":5.367345,"is_reserved":false,"is_disabled":false,"rental_uris":{"android":"levelo://app?vid=71e8f5f0-1a8f-44b1-9da7-433a60596dbc","ios":"levelo://app?vid=71e8f5f0-1a8f-44b1-9da7-433a60596dbc"},"vehicle_type_id":"4","last_reported":1716620812,"current_range_meters":23200,"station_id":"ce4bgrp2rcd13ifvqc9g","pricing_plan_id":"cebpf4jnsgd1na2vs0mg"},{"bike_id":"79d36780-b3a0-4776-b489-112940c1b38d","system_id":"levelo_inurba_marseille","lat":43.30537,"lon":5.367345,"is_reserved":false,"is_disabled":false,"rental_uris":{"android":"levelo://app?vid=79d36780-b3a0-4776-b489-112940c1b38d","ios":"levelo://app?vid=79d36780-b3a0-4776-b489-112940c1b38d"},"vehicle_type_id":"4","last_reported":1716620812,"current_range_meters":18800,"station_id":"ce4bgrp2rcd13ifvqc9g","pricing_plan_id":"cebpf4jnsgd1na2vs0mg"},{"bike_id":"19dc50d9-6f8a-4a03-a235-2879cfdbae3a","system_id":"levelo_inurba_marseille","lat":43.30537,"lon":5.367345,"is_reserved":false,"is_disabled":false,"rental_uris":{"android":"levelo://app?vid=19dc50d9-6f8a-4a03-a235-2879cfdbae3a","ios":"levelo://app?vid=19dc50d9-6f8a-4a03-a235-2879cfdbae3a"},"vehicle_type_id":"4","last_reported":1716620812,"current_range_meters":11600,"station_id":"ce4bgrp2rcd13ifvqc9g","pricing_plan_id":"cebpf4jnsgd1na2vs0mg"},{"bike_id":"64642949-bc7a-41f7-b1a2-fd9877b87c69","system_id":"levelo_inurba_marseille","lat":43.305368,"lon":5.367343,"is_reserved":false,"is_disabled":false,"rental_uris":{"android":"levelo://app?vid=64642949-bc7a-41f7-b1a2-fd9877b87c69","ios":"levelo://app?vid=64642949-bc7a-41f7-b1a2-fd9877b87c69"},"vehicle_type_id":"4","last_reported":1716620812,"current_range_meters":19200,"station_id":"ce4bgrp2rcd13ifvqc9g","pricing_plan_id":"cebpf4jnsgd1na2vs0mg"},{"bike_id":"b127a306-ed2d-496b-aed2-ed77c6e2026c","system_id":"levelo_inurba_marseille","lat":43.30537,"lon":5.367345,"is_reserved":false,"is_disabled":false,"rental_uris":{"android":"levelo://app?vid=b127a306-ed2d-496b-aed2-ed77c6e2026c","ios":"levelo://app?vid=b127a306-ed2d-496b-aed2-ed77c6e2026c"},"vehicle_type_id":"4","last_reported":1716620812,"current_range_meters":25600,"station_id":"ce4bgrp2rcd13ifvqc9g","pricing_plan_id":"cebpf4jnsgd1na2vs0mg"},{"bike_id":"a7f665d5-2df5-4e4b-aace-3ad78f9c90f0","system_id":"levelo_inurba_marseille","lat":43.305712,"lon":5.365641,"is_reserved":false,"is_disabled":false,"rental_uris":{"android":"levelo://app?vid=a7f665d5-2df5-4e4b-aace-3ad78f9c90f0","ios":"levelo://app?vid=a7f665d5-2df5-4e4b-aace-3ad78f9c90f0"},"vehicle_type_id":"4","last_reported":1716620812,"current_range_meters":9600,"station_id":"ce4bgs12rcd13ifvqcag","pricing_plan_id":"cebpf4jnsgd1na2vs0mg"},{"bike_id":"16ed7e7a-bc23-40b6-a2eb-1e185f29d2e6","system_id":"levelo_inurba_marseille","lat":43.305368,"lon":5.367343,"is_reserved":false,"is_disabled":false,"rental_uris":{"android":"levelo://app?vid=16ed7e7a-bc23-40b6-a2eb-1e185f29d2e6","ios":"levelo://app?vid=16ed7e7a-bc23-40b6-a2eb-1e185f29d2e6"},"vehicle_type_id":"4","last_reported":1716620812,"current_range_meters":28400,"station_id":"ce4bgrp2rcd13ifvqc9g","pricing_plan_id":"cebpf4jnsgd1na2vs0mg"},{"bike_id":"89d5fdc9-d50f-4e42-9a2b-098d485775e9","system_id":"levelo_inurba_marseille","lat":43.305706,"lon":5.365654,"is_reserved":false,"is_disabled":false,"rental_uris":{"android":"levelo://app?vid=89d5fdc9-d50f-4e42-9a2b-098d485775e9","ios":"levelo://app?vid=89d5fdc9-d50f-4e42-9a2b-098d485775e9"},"vehicle_type_id":"4","last_reported":1716620812,"current_range_meters":24400,"station_id":"ce4bgs12rcd13ifvqcag","pricing_plan_id":"cebpf4jnsgd1na2vs0mg"},{"bike_id":"08ebfbd5-e728-4fbc-9fb3-da07eb85f2f2","system_id":"levelo_inurba_marseille","lat":43.305706,"lon":5.365654,"is_reserved":false,"is_disabled":false,"rental_uris":{"android":"levelo://app?vid=08ebfbd5-e728-4fbc-9fb3-da07eb85f2f2","ios":"levelo://app?vid=08ebfbd5-e728-4fbc-9fb3-da07eb85f2f2"},"vehicle_type_id":"4","last_reported":1716620812,"current_range_meters":24800,"station_id":"ce4bgs12rcd13ifvqcag","pricing_plan_id":"cebpf4jnsgd1na2vs0mg"},{"bike_id":"7f0fee0b-4d26-464e-973a-ded706df8273","system_id":"levelo_inurba_marseille","lat":43.305706,"lon":5.365654,"is_reserved":false,"is_disabled":false,"rental_uris":{"android":"levelo://app?vid=7f0fee0b-4d26-464e-973a-ded706df8273","ios":"levelo://app?vid=7f0fee0b-4d26-464e-973a-ded706df8273"},"vehicle_type_id":"4","last_reported":1716620812,"current_range_meters":28000,"station_id":"ce4bgs12rcd13ifvqcag","pricing_plan_id":"cebpf4jnsgd1na2vs0mg"},{"bike_id":"9c9cb351-0b2d-46ca-980d-840eaff7e293","system_id":"levelo_inurba_marseille","lat":43.305706,"lon":5.365654,"is_reserved":false,"is_disabled":false,"rental_uris":{"android":"levelo://app?vid=9c9cb351-0b2d-46ca-980d-840eaff7e293","ios":"levelo://app?vid=9c9cb351-0b2d-46ca-980d-840eaff7e293"},"vehicle_type_id":"4","last_reported":1716620812,"current_range_meters":17200,"station_id":"ce4bgs12rcd13ifvqcag","pricing_plan_id":"cebpf4jnsgd1na2vs0mg"},{"bike_id":"a54156a2-f338-4e03-9589-6240bb667b2d","system_id":"levelo_inurba_marseille","lat":43.305989,"lon":5.37225,"is_reserved":false,"is_disabled":false,"rental_uris":{"android":"levelo://app?vid=a54156a2-f338-4e03-9589-6240bb667b2d","ios":"levelo://app?vid=a54156a2-f338-4e03-9589-6240bb667b2d"},"vehicle_type_id":"4","last_reported":1716620812,"current_range_meters":2800,"station_id":"ce4bgqh2rcd13ifvqc4g","pricing_plan_id":"cebpf4jnsgd1na2vs0mg"},{"bike_id":"f4914708-be4a-449d-8e46-783b1cbbb4bf","system_id":"levelo_inurba_marseille","lat":43.305989,"lon":5.37225,"is_reserved":false,"is_disabled":false,"rental_uris":{"android":"levelo://app?vid=f4914708-be4a-449d-8e46-783b1cbbb4bf","ios":"levelo://app?vid=f4914708-be4a-449d-8e46-783b1cbbb4bf"},"vehicle_type_id":"4","last_reported":1716620812,"current_range_meters":0,"station_id":"ce4bgqh2rcd13ifvqc4g","pricing_plan_id":"cebpf4jnsgd1na2vs0mg"},{"bike_id":"3065a195-273f-444f-a9f6-2248756f4043","system_id":"levelo_inurba_marseille","lat":43.305989,"lon":5.37225,"is_reserved":false,"is_disabled":false,"rental_uris":{"android":"levelo://app?vid=3065a195-273f-444f-a9f6-2248756f4043","ios":"levelo://app?vid=3065a195-273f-444f-a9f6-2248756f4043"},"vehicle_type_id":"4","last_reported":1716620812,"current_range_meters":16800,"station_id":"ce4bgqh2rcd13ifvqc4g","pricing_plan_id":"cebpf4jnsgd1na2vs0mg"},{"bike_id":"1cc43af9-bc8b-42af-b0b9-02e41cdadb7e","system_id":"levelo_inurba_marseille","lat":43.305989,"lon":5.37225,"is_reserved":false,"is_disabled":false,"rental_uris":{"android":"levelo://app?vid=1cc43af9-bc8b-42af-b0b9-02e41cdadb7e","ios":"levelo://app?vid=1cc43af9-bc8b-42af-b0b9-02e41cdadb7e"},"vehicle_type_id":"4","last_reported":1716620812,"current_range_meters":31200,"station_id":"ce4bgqh2rcd13ifvqc4g","pricing_plan_id":"cebpf4jnsgd1na2vs0mg"},{"bike_id":"db55dc7b-87ab-4a87-98fb-6c7c9f32a9e7","system_id":"levelo_inurba_marseille","lat":43.306003,"lon":5.372381,"is_reserved":false,"is_disabled":false,"rental_uris":{"android":"levelo://app?vid=db55dc7b-87ab-4a87-98fb-6c7c9f32a9e7","ios":"levelo://app?vid=db55dc7b-87ab-4a87-98fb-6c7c9f32a9e7"},"vehicle_type_id":"4","last_reported":1716620812,"current_range_meters":31200,"station_id":"ce4bgqh2rcd13ifvqc4g","pricing_plan_id":"cebpf4jnsgd1na2vs0mg"},{"bike_id":"e1a2f55d-8e8c-4f08-826c-8b9c366719af","system_id":"levelo_inurba_marseille","lat":43.305989,"lon":5.37225,"is_reserved":false,"is_disabled":false,"rental_uris":{"android":"levelo://app?vid=e1a2f55d-8e8c-4f08-826c-8b9c366719af","ios":"levelo://app?vid=e1a2f55d-8e8c-4f08-826c-8b9c366719af"},"vehicle_type_id":"4","last_reported":1716620812,"current_range_meters":24400,"station_id":"ce4bgqh2rcd13ifvqc4g","pricing_plan_id":"cebpf4jnsgd1na2vs0mg"},{"bike_id":"77d3738f-8a19-48a8-8607-711a84c3447d","system_id":"levelo_inurba_marseille","lat":43.305989,"lon":5.37225,"is_reserved":false,"is_disabled":false,"rental_uris":{"android":"levelo://app?vid=77d3738f-8a19-48a8-8607-711a84c3447d","ios":"levelo://app?vid=77d3738f-8a19-48a8-8607-711a84c3447d"},"vehicle_type_id":"4","last_reported":1716620812,"current_range_meters":26800,"station_id":"ce4bgqh2rcd13ifvqc4g","pricing_plan_id":"cebpf4jnsgd1na2vs0mg"},{"bike_id":"548a339a-c93f-4ce1-8f58-9188290e5272","system_id":"levelo_inurba_marseille","lat":43.311125,"lon":5.377624,"is_reserved":false,"is_disabled":false,"rental_uris":{"android":"levelo://app?vid=548a339a-c93f-4ce1-8f58-9188290e5272","ios":"levelo://app?vid=548a339a-c93f-4ce1-8f58-9188290e5272"},"vehicle_type_id":"4","last_reported":1716620812,"current_range_meters":30000,"station_id":"ce4bgt92rcd13ifvqcg0","pricing_plan_id":"cebpf4jnsgd1na2vs0mg"},{"bike_id":"4bf5fb1a-11f0-40e6-ae47-8839adeb758c","system_id":"levelo_inurba_marseille","lat":43.311129,"lon":5.377634,"is_reserved":false,"is_disabled":false,"rental_uris":{"android":"levelo://app?vid=4bf5fb1a-11f0-40e6-ae47-8839adeb758c","ios":"levelo://app?vid=4bf5fb1a-11f0-40e6-ae47-8839adeb758c"},"vehicle_type_id":"4","last_reported":1716620812,"current_range_meters":28000,"station_id":"ce4bgt92rcd13ifvqcg0","pricing_plan_id":"cebpf4jnsgd1na2vs0mg"},{"bike_id":"b6ce7c80-3477-4abd-97ce-f0f72679ba99","system_id":"levelo_inurba_marseille","lat":43.305712,"lon":5.365641,"is_reserved":false,"is_disabled":false,"rental_uris":{"android":"levelo://app?vid=b6ce7c80-3477-4abd-97ce-f0f72679ba99","ios":"levelo://app?vid=b6ce7c80-3477-4abd-97ce-f0f72679ba99"},"vehicle_type_id":"4","last_reported":1716620812,"current_range_meters":17200,"station_id":"ce4bgs12rcd13ifvqcag","pricing_plan_id":"cebpf4jnsgd1na2vs0mg"},{"bike_id":"86338e5b-b028-49b5-bd44-efddab3e4ea9","system_id":"levelo_inurba_marseille","lat":43.311484,"lon":5.378455,"is_reserved":false,"is_disabled":false,"rental_uris":{"android":"levelo://app?vid=86338e5b-b028-49b5-bd44-efddab3e4ea9","ios":"levelo://app?vid=86338e5b-b028-49b5-bd44-efddab3e4ea9"},"vehicle_type_id":"4","last_reported":1716620812,"current_range_meters":3600,"station_id":"ce4bgt92rcd13ifvqcg0","pricing_plan_id":"cebpf4jnsgd1na2vs0mg"},{"bike_id":"b2a1f932-65f5-44c0-8155-f3793f102c0b","system_id":"levelo_inurba_marseille","lat":43.307945,"lon":5.376487,"is_reserved":false,"is_disabled":false,"rental_uris":{"android":"levelo://app?vid=b2a1f932-65f5-44c0-8155-f3793f102c0b","ios":"levelo://app?vid=b2a1f932-65f5-44c0-8155-f3793f102c0b"},"vehicle_type_id":"4","last_reported":1716620812,"current_range_meters":29600,"station_id":"ce4bgv92rcd13ifvqcq0","pricing_plan_id":"cebpf4jnsgd1na2vs0mg"},{"bike_id":"76ed89f1-ccd7-4079-b501-723895d5f7ad","system_id":"levelo_inurba_marseille","lat":43.307945,"lon":5.376487,"is_reserved":false,"is_disabled":false,"rental_uris":{"android":"levelo://app?vid=76ed89f1-ccd7-4079-b501-723895d5f7ad","ios":"levelo://app?vid=76ed89f1-ccd7-4079-b501-723895d5f7ad"},"vehicle_type_id":"4","last_reported":1716620812,"current_range_meters":24000,"station_id":"ce4bgv92rcd13ifvqcq0","pricing_plan_id":"cebpf4jnsgd1na2vs0mg"},{"bike_id":"18f8fd91-62a3-41ab-948a-e023b1278043","system_id":"levelo_inurba_marseille","lat":43.307945,"lon":5.376487,"is_reserved":false,"is_disabled":false,"rental_uris":{"android":"levelo://app?vid=18f8fd91-62a3-41ab-948a-e023b1278043","ios":"levelo://app?vid=18f8fd91-62a3-41ab-948a-e023b1278043"},"vehicle_type_id":"4","last_reported":1716620812,"current_range_meters":22800,"station_id":"ce4bgv92rcd13ifvqcq0","pricing_plan_id":"cebpf4jnsgd1na2vs0mg"},{"bike_id":"e9a304c2-d6dc-4ed3-99fe-9eb52436b182","system_id":"levelo_inurba_marseille","lat":43.307945,"lon":5.376487,"is_reserved":false,"is_disabled":false,"rental_uris":{"android":"levelo://app?vid=e9a304c2-d6dc-4ed3-99fe-9eb52436b182","ios":"levelo://app?vid=e9a304c2-d6dc-4ed3-99fe-9eb52436b182"},"vehicle_type_id":"4","last_reported":1716620812,"current_range_meters":21200,"station_id":"ce4bgv92rcd13ifvqcq0","pricing_plan_id":"cebpf4jnsgd1na2vs0mg"},{"bike_id":"b9b5ac1d-a71c-4795-a6c3-48da35b32b4f","system_id":"levelo_inurba_marseille","lat":43.307945,"lon":5.376487,"is_reserved":false,"is_disabled":false,"rental_uris":{"android":"levelo://app?vid=b9b5ac1d-a71c-4795-a6c3-48da35b32b4f","ios":"levelo://app?vid=b9b5ac1d-a71c-4795-a6c3-48da35b32b4f"},"vehicle_type_id":"4","last_reported":1716620812,"current_range_meters":13600,"station_id":"ce4bgv92rcd13ifvqcq0","pricing_plan_id":"cebpf4jnsgd1na2vs0mg"},{"bike_id":"cf0373d4-5546-4bb0-9a22-aae04ecf6cb1","system_id":"levelo_inurba_marseille","lat":43.307945,"lon":5.376487,"is_reserved":false,"is_disabled":false,"rental_uris":{"android":"levelo://app?vid=cf0373d4-5546-4bb0-9a22-aae04ecf6cb1","ios":"levelo://app?vid=cf0373d4-5546-4bb0-9a22-aae04ecf6cb1"},"vehicle_type_id":"4","last_reported":1716620812,"current_range_meters":20000,"station_id":"ce4bgv92rcd13ifvqcq0","pricing_plan_id":"cebpf4jnsgd1na2vs0mg"},{"bike_id":"792b3e60-861e-469c-bc02-c61a8db188a8","system_id":"levelo_inurba_marseille","lat":43.30777,"lon":5.37651,"is_reserved":false,"is_disabled":false,"rental_uris":{"android":"levelo://app?vid=792b3e60-861e-469c-bc02-c61a8db188a8","ios":"levelo://app?vid=792b3e60-861e-469c-bc02-c61a8db188a8"},"vehicle_type_id":"4","last_reported":1716620812,"current_range_meters":11200,"station_id":"ce4bgv92rcd13ifvqcq0","pricing_plan_id":"cebpf4jnsgd1na2vs0mg"},{"bike_id":"5ad69bdc-997e-428a-8746-db9c458e056b","system_id":"levelo_inurba_marseille","lat":43.307945,"lon":5.376487,"is_reserved":false,"is_disabled":false,"rental_uris":{"android":"levelo://app?vid=5ad69bdc-997e-428a-8746-db9c458e056b","ios":"levelo://app?vid=5ad69bdc-997e-428a-8746-db9c458e056b"},"vehicle_type_id":"4","last_reported":1716620812,"current_range_meters":31600,"station_id":"ce4bgv92rcd13ifvqcq0","pricing_plan_id":"cebpf4jnsgd1na2vs0mg"},{"bike_id":"fb69dbfb-0178-4df3-a6e9-9c36d4d40919","system_id":"levelo_inurba_marseille","lat":43.307945,"lon":5.376487,"is_reserved":false,"is_disabled":false,"rental_uris":{"android":"levelo://app?vid=fb69dbfb-0178-4df3-a6e9-9c36d4d40919","ios":"levelo://app?vid=fb69dbfb-0178-4df3-a6e9-9c36d4d40919"},"vehicle_type_id":"4","last_reported":1716620812,"current_range_meters":13600,"station_id":"ce4bgv92rcd13ifvqcq0","pricing_plan_id":"cebpf4jnsgd1na2vs0mg"},{"bike_id":"ecc77447-4608-49b6-83c9-21bc5fef4a68","system_id":"levelo_inurba_marseille","lat":43.307945,"lon":5.376487,"is_reserved":false,"is_disabled":false,"rental_uris":{"android":"levelo://app?vid=ecc77447-4608-49b6-83c9-21bc5fef4a68","ios":"levelo://app?vid=ecc77447-4608-49b6-83c9-21bc5fef4a68"},"vehicle_type_id":"4","last_reported":1716620812,"current_range_meters":13600,"station_id":"ce4bgv92rcd13ifvqcq0","pricing_plan_id":"cebpf4jnsgd1na2vs0mg"},{"bike_id":"add2a82d-310e-4590-8dfd-5ae16ac2f080","system_id":"levelo_inurba_marseille","lat":43.307945,"lon":5.376487,"is_reserved":false,"is_disabled":false,"rental_uris":{"android":"levelo://app?vid=add2a82d-310e-4590-8dfd-5ae16ac2f080","ios":"levelo://app?vid=add2a82d-310e-4590-8dfd-5ae16ac2f080"},"vehicle_type_id":"4","last_reported":1716620812,"current_range_meters":26800,"station_id":"ce4bgv92rcd13ifvqcq0","pricing_plan_id":"cebpf4jnsgd1na2vs0mg"},{"bike_id":"43936a07-3987-4da2-8824-a81a584941ea","system_id":"levelo_inurba_marseille","lat":43.307945,"lon":5.376487,"is_reserved":false,"is_disabled":false,"rental_uris":{"android":"levelo://app?vid=43936a07-3987-4da2-8824-a81a584941ea","ios":"levelo://app?vid=43936a07-3987-4da2-8824-a81a584941ea"},"vehicle_type_id":"4","last_reported":1716620812,"current_range_meters":16000,"station_id":"ce4bgv92rcd13ifvqcq0","pricing_plan_id":"cebpf4jnsgd1na2vs0mg"},{"bike_id":"50dcf714-36b4-4001-9488-2bea3e505bb1","system_id":"levelo_inurba_marseille","lat":43.317075,"lon":5.377367,"is_reserved":false,"is_disabled":false,"rental_uris":{"android":"levelo://app?vid=50dcf714-36b4-4001-9488-2bea3e505bb1","ios":"levelo://app?vid=50dcf714-36b4-4001-9488-2bea3e505bb1"},"vehicle_type_id":"4","last_reported":1716620812,"current_range_meters":20000,"station_id":"ce4bgth2rcd13ifvqch0","pricing_plan_id":"cebpf4jnsgd1na2vs0mg"},{"bike_id":"6220b0c1-9e1f-46c2-bb4e-1f039223e595","system_id":"levelo_inurba_marseille","lat":43.315293,"lon":5.380349,"is_reserved":false,"is_disabled":false,"rental_uris":{"android":"levelo://app?vid=6220b0c1-9e1f-46c2-bb4e-1f039223e595","ios":"levelo://app?vid=6220b0c1-9e1f-46c2-bb4e-1f039223e595"},"vehicle_type_id":"4","last_reported":1716620812,"current_range_meters":26800,"station_id":"ce4bhsp2rcd13ifvqi50","pricing_plan_id":"cebpf4jnsgd1na2vs0mg"},{"bike_id":"6eb04054-5f6f-41af-8fbc-e03eddb897f7","system_id":"levelo_inurba_marseille","lat":43.31529,"lon":5.38036,"is_reserved":false,"is_disabled":false,"rental_uris":{"android":"levelo://app?vid=6eb04054-5f6f-41af-8fbc-e03eddb897f7","ios":"levelo://app?vid=6eb04054-5f6f-41af-8fbc-e03eddb897f7"},"vehicle_type_id":"4","last_reported":1716620812,"current_range_meters":20400,"station_id":"ce4bhsp2rcd13ifvqi50","pricing_plan_id":"cebpf4jnsgd1na2vs0mg"},{"bike_id":"833fd600-7297-4be0-a3cb-8b993f608ce2","system_id":"levelo_inurba_marseille","lat":43.301939,"lon":5.366286,"is_reserved":false,"is_disabled":false,"rental_uris":{"android":"levelo://app?vid=833fd600-7297-4be0-a3cb-8b993f608ce2","ios":"levelo://app?vid=833fd600-7297-4be0-a3cb-8b993f608ce2"},"vehicle_type_id":"4","last_reported":1716620812,"current_range_meters":9200,"station_id":"ce4bgrh2rcd13ifvqc8g","pricing_plan_id":"cebpf4jnsgd1na2vs0mg"},{"bike_id":"f9b377a2-36a6-4e7c-b57b-73c1a5008dc2","system_id":"levelo_inurba_marseille","lat":43.30795,"lon":5.38132,"is_reserved":false,"is_disabled":false,"rental_uris":{"android":"levelo://app?vid=f9b377a2-36a6-4e7c-b57b-73c1a5008dc2","ios":"levelo://app?vid=f9b377a2-36a6-4e7c-b57b-73c1a5008dc2"},"vehicle_type_id":"4","last_reported":1716620812,"current_range_meters":9600,"station_id":"ce4bgt12rcd13ifvqce0","pricing_plan_id":"cebpf4jnsgd1na2vs0mg"},{"bike_id":"d847937f-1e88-4ead-8508-fe6bf785dc15","system_id":"levelo_inurba_marseille","lat":43.30817,"lon":5.3815,"is_reserved":false,"is_disabled":false,"rental_uris":{"android":"levelo://app?vid=d847937f-1e88-4ead-8508-fe6bf785dc15","ios":"levelo://app?vid=d847937f-1e88-4ead-8508-fe6bf785dc15"},"vehicle_type_id":"4","last_reported":1716620812,"current_range_meters":23200,"station_id":"ce4bgt12rcd13ifvqce0","pricing_plan_id":"cebpf4jnsgd1na2vs0mg"},{"bike_id":"6b8ef727-6435-4f63-bb64-48da92d487f8","system_id":"levelo_inurba_marseille","lat":43.308039,"lon":5.381481,"is_reserved":false,"is_disabled":false,"rental_uris":{"android":"levelo://app?vid=6b8ef727-6435-4f63-bb64-48da92d487f8","ios":"levelo://app?vid=6b8ef727-6435-4f63-bb64-48da92d487f8"},"vehicle_type_id":"4","last_reported":1716620812,"current_range_meters":28400,"station_id":"ce4bgt12rcd13ifvqce0","pricing_plan_id":"cebpf4jnsgd1na2vs0mg"},{"bike_id":"8e8e0ed5-c2c1-483f-837a-c50b7e5f8e3c","system_id":"levelo_inurba_marseille","lat":43.308012,"lon":5.381511,"is_reserved":false,"is_disabled":false,"rental_uris":{"android":"levelo://app?vid=8e8e0ed5-c2c1-483f-837a-c50b7e5f8e3c","ios":"levelo://app?vid=8e8e0ed5-c2c1-483f-837a-c50b7e5f8e3c"},"vehicle_type_id":"4","last_reported":1716620812,"current_range_meters":32000,"station_id":"ce4bgt12rcd13ifvqce0","pricing_plan_id":"cebpf4jnsgd1na2vs0mg"},{"bike_id":"ae5a29b9-0558-4fbb-9cc2-b2a6843879ba","system_id":"levelo_inurba_marseille","lat":43.308012,"lon":5.381511,"is_reserved":false,"is_disabled":false,"rental_uris":{"android":"levelo://app?vid=ae5a29b9-0558-4fbb-9cc2-b2a6843879ba","ios":"levelo://app?vid=ae5a29b9-0558-4fbb-9cc2-b2a6843879ba"},"vehicle_type_id":"4","last_reported":1716620812,"current_range_meters":1600,"station_id":"ce4bgt12rcd13ifvqce0","pricing_plan_id":"cebpf4jnsgd1na2vs0mg"},{"bike_id":"91d439af-e9f2-40e0-8014-25efc7adc8ac","system_id":"levelo_inurba_marseille","lat":43.30799,"lon":5.38147,"is_reserved":false,"is_disabled":false,"rental_uris":{"android":"levelo://app?vid=91d439af-e9f2-40e0-8014-25efc7adc8ac","ios":"levelo://app?vid=91d439af-e9f2-40e0-8014-25efc7adc8ac"},"vehicle_type_id":"4","last_reported":1716620812,"current_range_meters":5600,"station_id":"ce4bgt12rcd13ifvqce0","pricing_plan_id":"cebpf4jnsgd1na2vs0mg"},{"bike_id":"6f537bbf-81d3-44b2-b87d-9f7a45243f1c","system_id":"levelo_inurba_marseille","lat":43.308012,"lon":5.381511,"is_reserved":false,"is_disabled":false,"rental_uris":{"android":"levelo://app?vid=6f537bbf-81d3-44b2-b87d-9f7a45243f1c","ios":"levelo://app?vid=6f537bbf-81d3-44b2-b87d-9f7a45243f1c"},"vehicle_type_id":"4","last_reported":1716620812,"current_range_meters":16800,"station_id":"ce4bgt12rcd13ifvqce0","pricing_plan_id":"cebpf4jnsgd1na2vs0mg"},{"bike_id":"576f8356-fed1-47a8-a6e1-f39cc50f3c9f","system_id":"levelo_inurba_marseille","lat":43.30803,"lon":5.38155,"is_reserved":false,"is_disabled":false,"rental_uris":{"android":"levelo://app?vid=576f8356-fed1-47a8-a6e1-f39cc50f3c9f","ios":"levelo://app?vid=576f8356-fed1-47a8-a6e1-f39cc50f3c9f"},"vehicle_type_id":"4","last_reported":1716620812,"current_range_meters":21200,"station_id":"ce4bgt12rcd13ifvqce0","pricing_plan_id":"cebpf4jnsgd1na2vs0mg"},{"bike_id":"8675078a-c9e1-4e04-9105-b20c79131258","system_id":"levelo_inurba_marseille","lat":43.308012,"lon":5.381511,"is_reserved":false,"is_disabled":false,"rental_uris":{"android":"levelo://app?vid=8675078a-c9e1-4e04-9105-b20c79131258","ios":"levelo://app?vid=8675078a-c9e1-4e04-9105-b20c79131258"},"vehicle_type_id":"4","last_reported":1716620812,"current_range_meters":24000,"station_id":"ce4bgt12rcd13ifvqce0","pricing_plan_id":"cebpf4jnsgd1na2vs0mg"},{"bike_id":"15d4c624-38da-4fee-855a-452ec0727b4a","system_id":"levelo_inurba_marseille","lat":43.304606,"lon":5.379026,"is_reserved":false,"is_disabled":false,"rental_uris":{"android":"levelo://app?vid=15d4c624-38da-4fee-855a-452ec0727b4a","ios":"levelo://app?vid=15d4c624-38da-4fee-855a-452ec0727b4a"},"vehicle_type_id":"4","last_reported":1716620812,"current_range_meters":24000,"station_id":"ce4bgup2rcd13ifvqcn0","pricing_plan_id":"cebpf4jnsgd1na2vs0mg"},{"bike_id":"1f0c3dad-db97-4249-8735-51fe213e088c","system_id":"levelo_inurba_marseille","lat":43.304606,"lon":5.379026,"is_reserved":false,"is_disabled":false,"rental_uris":{"android":"levelo://app?vid=1f0c3dad-db97-4249-8735-51fe213e088c","ios":"levelo://app?vid=1f0c3dad-db97-4249-8735-51fe213e088c"},"vehicle_type_id":"4","last_reported":1716620812,"current_range_meters":26400,"station_id":"ce4bgup2rcd13ifvqcn0","pricing_plan_id":"cebpf4jnsgd1na2vs0mg"},{"bike_id":"658362d6-4362-4ed3-a0f1-aac615e3a55b","system_id":"levelo_inurba_marseille","lat":43.304606,"lon":5.379026,"is_reserved":false,"is_disabled":false,"rental_uris":{"android":"levelo://app?vid=658362d6-4362-4ed3-a0f1-aac615e3a55b","ios":"levelo://app?vid=658362d6-4362-4ed3-a0f1-aac615e3a55b"},"vehicle_type_id":"4","last_reported":1716620812,"current_range_meters":4400,"station_id":"ce4bgup2rcd13ifvqcn0","pricing_plan_id":"cebpf4jnsgd1na2vs0mg"},{"bike_id":"4cd0568d-5f56-49fa-8713-719b17bf8980","system_id":"levelo_inurba_marseille","lat":43.304606,"lon":5.379026,"is_reserved":false,"is_disabled":false,"rental_uris":{"android":"levelo://app?vid=4cd0568d-5f56-49fa-8713-719b17bf8980","ios":"levelo://app?vid=4cd0568d-5f56-49fa-8713-719b17bf8980"},"vehicle_type_id":"4","last_reported":1716620812,"current_range_meters":27200,"station_id":"ce4bgup2rcd13ifvqcn0","pricing_plan_id":"cebpf4jnsgd1na2vs0mg"},{"bike_id":"dc989379-c210-45cf-93de-877077fce298","system_id":"levelo_inurba_marseille","lat":43.304606,"lon":5.379026,"is_reserved":false,"is_disabled":false,"rental_uris":{"android":"levelo://app?vid=dc989379-c210-45cf-93de-877077fce298","ios":"levelo://app?vid=dc989379-c210-45cf-93de-877077fce298"},"vehicle_type_id":"4","last_reported":1716620812,"current_range_meters":20800,"station_id":"ce4bgup2rcd13ifvqcn0","pricing_plan_id":"cebpf4jnsgd1na2vs0mg"},{"bike_id":"ed5959a3-b5a2-4236-aa5e-84ade5a58d53","system_id":"levelo_inurba_marseille","lat":43.30469,"lon":5.3791,"is_reserved":false,"is_disabled":false,"rental_uris":{"android":"levelo://app?vid=ed5959a3-b5a2-4236-aa5e-84ade5a58d53","ios":"levelo://app?vid=ed5959a3-b5a2-4236-aa5e-84ade5a58d53"},"vehicle_type_id":"4","last_reported":1716620812,"current_range_meters":19200,"station_id":"ce4bgup2rcd13ifvqcn0","pricing_plan_id":"cebpf4jnsgd1na2vs0mg"},{"bike_id":"d70e1d28-d3f3-4009-9ff1-ac33d8670a0b","system_id":"levelo_inurba_marseille","lat":43.30461,"lon":5.379,"is_reserved":false,"is_disabled":false,"rental_uris":{"android":"levelo://app?vid=d70e1d28-d3f3-4009-9ff1-ac33d8670a0b","ios":"levelo://app?vid=d70e1d28-d3f3-4009-9ff1-ac33d8670a0b"},"vehicle_type_id":"4","last_reported":1716620812,"current_range_meters":13600,"station_id":"ce4bgup2rcd13ifvqcn0","pricing_plan_id":"cebpf4jnsgd1na2vs0mg"},{"bike_id":"8c765e76-e2bd-4886-842a-5b8ec4e17787","system_id":"levelo_inurba_marseille","lat":43.304606,"lon":5.379026,"is_reserved":false,"is_disabled":false,"rental_uris":{"android":"levelo://app?vid=8c765e76-e2bd-4886-842a-5b8ec4e17787","ios":"levelo://app?vid=8c765e76-e2bd-4886-842a-5b8ec4e17787"},"vehicle_type_id":"4","last_reported":1716620812,"current_range_meters":31200,"station_id":"ce4bgup2rcd13ifvqcn0","pricing_plan_id":"cebpf4jnsgd1na2vs0mg"},{"bike_id":"4a2415ce-2df8-41e3-83a4-81d6a67d2ec1","system_id":"levelo_inurba_marseille","lat":43.304606,"lon":5.379026,"is_reserved":false,"is_disabled":false,"rental_uris":{"android":"levelo://app?vid=4a2415ce-2df8-41e3-83a4-81d6a67d2ec1","ios":"levelo://app?vid=4a2415ce-2df8-41e3-83a4-81d6a67d2ec1"},"vehicle_type_id":"4","last_reported":1716620812,"current_range_meters":29600,"station_id":"ce4bgup2rcd13ifvqcn0","pricing_plan_id":"cebpf4jnsgd1na2vs0mg"},{"bike_id":"26f599db-8b60-402b-887f-caaaad5f5389","system_id":"levelo_inurba_marseille","lat":43.304606,"lon":5.379026,"is_reserved":false,"is_disabled":false,"rental_uris":{"android":"levelo://app?vid=26f599db-8b60-402b-887f-caaaad5f5389","ios":"levelo://app?vid=26f599db-8b60-402b-887f-caaaad5f5389"},"vehicle_type_id":"4","last_reported":1716620812,"current_range_meters":23600,"station_id":"ce4bgup2rcd13ifvqcn0","pricing_plan_id":"cebpf4jnsgd1na2vs0mg"},{"bike_id":"94c58540-501f-4ed7-8e0a-5f6f3013b6f4","system_id":"levelo_inurba_marseille","lat":43.304606,"lon":5.379026,"is_reserved":false,"is_disabled":false,"rental_uris":{"android":"levelo://app?vid=94c58540-501f-4ed7-8e0a-5f6f3013b6f4","ios":"levelo://app?vid=94c58540-501f-4ed7-8e0a-5f6f3013b6f4"},"vehicle_type_id":"4","last_reported":1716620812,"current_range_meters":9600,"station_id":"ce4bgup2rcd13ifvqcn0","pricing_plan_id":"cebpf4jnsgd1na2vs0mg"},{"bike_id":"8131000a-3d1f-495a-b174-61358d1f6275","system_id":"levelo_inurba_marseille","lat":43.30463,"lon":5.37907,"is_reserved":false,"is_disabled":false,"rental_uris":{"android":"levelo://app?vid=8131000a-3d1f-495a-b174-61358d1f6275","ios":"levelo://app?vid=8131000a-3d1f-495a-b174-61358d1f6275"},"vehicle_type_id":"4","last_reported":1716620812,"current_range_meters":28400,"station_id":"ce4bgup2rcd13ifvqcn0","pricing_plan_id":"cebpf4jnsgd1na2vs0mg"},{"bike_id":"9585e2b8-5328-4209-aefa-0ebd80674c9f","system_id":"levelo_inurba_marseille","lat":43.304606,"lon":5.379026,"is_reserved":false,"is_disabled":false,"rental_uris":{"android":"levelo://app?vid=9585e2b8-5328-4209-aefa-0ebd80674c9f","ios":"levelo://app?vid=9585e2b8-5328-4209-aefa-0ebd80674c9f"},"vehicle_type_id":"4","last_reported":1716620812,"current_range_meters":31200,"station_id":"ce4bgup2rcd13ifvqcn0","pricing_plan_id":"cebpf4jnsgd1na2vs0mg"},{"bike_id":"2403f5b5-b293-4975-9113-e2d8ddf4ebb0","system_id":"levelo_inurba_marseille","lat":43.30464,"lon":5.37909,"is_reserved":false,"is_disabled":false,"rental_uris":{"android":"levelo://app?vid=2403f5b5-b293-4975-9113-e2d8ddf4ebb0","ios":"levelo://app?vid=2403f5b5-b293-4975-9113-e2d8ddf4ebb0"},"vehicle_type_id":"4","last_reported":1716620812,"current_range_meters":18400,"station_id":"ce4bgup2rcd13ifvqcn0","pricing_plan_id":"cebpf4jnsgd1na2vs0mg"},{"bike_id":"03b2d0ac-4855-463a-a2f0-be21041dc802","system_id":"levelo_inurba_marseille","lat":43.304606,"lon":5.379026,"is_reserved":false,"is_disabled":false,"rental_uris":{"android":"levelo://app?vid=03b2d0ac-4855-463a-a2f0-be21041dc802","ios":"levelo://app?vid=03b2d0ac-4855-463a-a2f0-be21041dc802"},"vehicle_type_id":"4","last_reported":1716620812,"current_range_meters":31200,"station_id":"ce4bgup2rcd13ifvqcn0","pricing_plan_id":"cebpf4jnsgd1na2vs0mg"},{"bike_id":"005ef6cb-c2c1-405d-977e-baab9d8a5ee2","system_id":"levelo_inurba_marseille","lat":43.304606,"lon":5.379026,"is_reserved":false,"is_disabled":false,"rental_uris":{"android":"levelo://app?vid=005ef6cb-c2c1-405d-977e-baab9d8a5ee2","ios":"levelo://app?vid=005ef6cb-c2c1-405d-977e-baab9d8a5ee2"},"vehicle_type_id":"4","last_reported":1716620812,"current_range_meters":9600,"station_id":"ce4bgup2rcd13ifvqcn0","pricing_plan_id":"cebpf4jnsgd1na2vs0mg"},{"bike_id":"a9d6654c-754a-436b-9a1f-a9892ac43b00","system_id":"levelo_inurba_marseille","lat":43.304606,"lon":5.379026,"is_reserved":false,"is_disabled":false,"rental_uris":{"android":"levelo://app?vid=a9d6654c-754a-436b-9a1f-a9892ac43b00","ios":"levelo://app?vid=a9d6654c-754a-436b-9a1f-a9892ac43b00"},"vehicle_type_id":"4","last_reported":1716620812,"current_range_meters":28400,"station_id":"ce4bgup2rcd13ifvqcn0","pricing_plan_id":"cebpf4jnsgd1na2vs0mg"},{"bike_id":"e55cad1c-0067-4ffb-8e7a-5736c84641be","system_id":"levelo_inurba_marseille","lat":43.30462,"lon":5.37908,"is_reserved":false,"is_disabled":false,"rental_uris":{"android":"levelo://app?vid=e55cad1c-0067-4ffb-8e7a-5736c84641be","ios":"levelo://app?vid=e55cad1c-0067-4ffb-8e7a-5736c84641be"},"vehicle_type_id":"4","last_reported":1716620812,"current_range_meters":14400,"station_id":"ce4bgup2rcd13ifvqcn0","pricing_plan_id":"cebpf4jnsgd1na2vs0mg"},{"bike_id":"de5f9f1c-b027-45aa-8c49-48a754f1800d","system_id":"levelo_inurba_marseille","lat":43.304606,"lon":5.379026,"is_reserved":false,"is_disabled":false,"rental_uris":{"android":"levelo://app?vid=de5f9f1c-b027-45aa-8c49-48a754f1800d","ios":"levelo://app?vid=de5f9f1c-b027-45aa-8c49-48a754f1800d"},"vehicle_type_id":"4","last_reported":1716620812,"current_range_meters":15600,"station_id":"ce4bgup2rcd13ifvqcn0","pricing_plan_id":"cebpf4jnsgd1na2vs0mg"},{"bike_id":"55d6ac72-967f-4c8d-adc9-db807dcb3fd1","system_id":"levelo_inurba_marseille","lat":43.304606,"lon":5.379026,"is_reserved":false,"is_disabled":false,"rental_uris":{"android":"levelo://app?vid=55d6ac72-967f-4c8d-adc9-db807dcb3fd1","ios":"levelo://app?vid=55d6ac72-967f-4c8d-adc9-db807dcb3fd1"},"vehicle_type_id":"4","last_reported":1716620812,"current_range_meters":15600,"station_id":"ce4bgup2rcd13ifvqcn0","pricing_plan_id":"cebpf4jnsgd1na2vs0mg"},{"bike_id":"42ea0d16-9442-43b8-9332-f911659b77d4","system_id":"levelo_inurba_marseille","lat":43.30463,"lon":5.3791,"is_reserved":false,"is_disabled":false,"rental_uris":{"android":"levelo://app?vid=42ea0d16-9442-43b8-9332-f911659b77d4","ios":"levelo://app?vid=42ea0d16-9442-43b8-9332-f911659b77d4"},"vehicle_type_id":"4","last_reported":1716620812,"current_range_meters":5600,"station_id":"ce4bgup2rcd13ifvqcn0","pricing_plan_id":"cebpf4jnsgd1na2vs0mg"},{"bike_id":"418fda83-e14f-4674-b2bc-54060768c816","system_id":"levelo_inurba_marseille","lat":43.30456,"lon":5.37902,"is_reserved":false,"is_disabled":false,"rental_uris":{"android":"levelo://app?vid=418fda83-e14f-4674-b2bc-54060768c816","ios":"levelo://app?vid=418fda83-e14f-4674-b2bc-54060768c816"},"vehicle_type_id":"4","last_reported":1716620812,"current_range_meters":19600,"station_id":"ce4bgup2rcd13ifvqcn0","pricing_plan_id":"cebpf4jnsgd1na2vs0mg"},{"bike_id":"117214a0-d5f2-43e5-8453-2b3351c180c1","system_id":"levelo_inurba_marseille","lat":43.304606,"lon":5.379026,"is_reserved":false,"is_disabled":false,"rental_uris":{"android":"levelo://app?vid=117214a0-d5f2-43e5-8453-2b3351c180c1","ios":"levelo://app?vid=117214a0-d5f2-43e5-8453-2b3351c180c1"},"vehicle_type_id":"4","last_reported":1716620812,"current_range_meters":16000,"station_id":"ce4bgup2rcd13ifvqcn0","pricing_plan_id":"cebpf4jnsgd1na2vs0mg"},{"bike_id":"e543afe7-3f21-4a19-a63e-580fcb10673a","system_id":"levelo_inurba_marseille","lat":43.304606,"lon":5.379026,"is_reserved":false,"is_disabled":false,"rental_uris":{"android":"levelo://app?vid=e543afe7-3f21-4a19-a63e-580fcb10673a","ios":"levelo://app?vid=e543afe7-3f21-4a19-a63e-580fcb10673a"},"vehicle_type_id":"4","last_reported":1716620812,"current_range_meters":18000,"station_id":"ce4bgup2rcd13ifvqcn0","pricing_plan_id":"cebpf4jnsgd1na2vs0mg"},{"bike_id":"1b1395f3-eec8-4a11-8ada-3b5eeedb727e","system_id":"levelo_inurba_marseille","lat":43.304606,"lon":5.379026,"is_reserved":false,"is_disabled":false,"rental_uris":{"android":"levelo://app?vid=1b1395f3-eec8-4a11-8ada-3b5eeedb727e","ios":"levelo://app?vid=1b1395f3-eec8-4a11-8ada-3b5eeedb727e"},"vehicle_type_id":"4","last_reported":1716620812,"current_range_meters":21200,"station_id":"ce4bgup2rcd13ifvqcn0","pricing_plan_id":"cebpf4jnsgd1na2vs0mg"},{"bike_id":"f5571666-9954-49e6-a125-02c569178d42","system_id":"levelo_inurba_marseille","lat":43.30461,"lon":5.37911,"is_reserved":false,"is_disabled":false,"rental_uris":{"android":"levelo://app?vid=f5571666-9954-49e6-a125-02c569178d42","ios":"levelo://app?vid=f5571666-9954-49e6-a125-02c569178d42"},"vehicle_type_id":"4","last_reported":1716620812,"current_range_meters":22400,"station_id":"ce4bgup2rcd13ifvqcn0","pricing_plan_id":"cebpf4jnsgd1na2vs0mg"},{"bike_id":"19d4cdae-f278-4b52-94a7-d246683c0d9f","system_id":"levelo_inurba_marseille","lat":43.304606,"lon":5.379026,"is_reserved":false,"is_disabled":false,"rental_uris":{"android":"levelo://app?vid=19d4cdae-f278-4b52-94a7-d246683c0d9f","ios":"levelo://app?vid=19d4cdae-f278-4b52-94a7-d246683c0d9f"},"vehicle_type_id":"4","last_reported":1716620812,"current_range_meters":24800,"station_id":"ce4bgup2rcd13ifvqcn0","pricing_plan_id":"cebpf4jnsgd1na2vs0mg"},{"bike_id":"343ce021-145c-40bd-8553-2a34c4b07a0e","system_id":"levelo_inurba_marseille","lat":43.30454,"lon":5.37903,"is_reserved":false,"is_disabled":false,"rental_uris":{"android":"levelo://app?vid=343ce021-145c-40bd-8553-2a34c4b07a0e","ios":"levelo://app?vid=343ce021-145c-40bd-8553-2a34c4b07a0e"},"vehicle_type_id":"4","last_reported":1716620812,"current_range_meters":16800,"station_id":"ce4bgup2rcd13ifvqcn0","pricing_plan_id":"cebpf4jnsgd1na2vs0mg"},{"bike_id":"eaae42c7-6016-4eb7-9b9e-4db3396b6134","system_id":"levelo_inurba_marseille","lat":43.304606,"lon":5.379026,"is_reserved":false,"is_disabled":false,"rental_uris":{"android":"levelo://app?vid=eaae42c7-6016-4eb7-9b9e-4db3396b6134","ios":"levelo://app?vid=eaae42c7-6016-4eb7-9b9e-4db3396b6134"},"vehicle_type_id":"4","last_reported":1716620812,"current_range_meters":27600,"station_id":"ce4bgup2rcd13ifvqcn0","pricing_plan_id":"cebpf4jnsgd1na2vs0mg"},{"bike_id":"65debb2b-28af-4e59-b51f-c6114f599c06","system_id":"levelo_inurba_marseille","lat":43.304606,"lon":5.379026,"is_reserved":false,"is_disabled":false,"rental_uris":{"android":"levelo://app?vid=65debb2b-28af-4e59-b51f-c6114f599c06","ios":"levelo://app?vid=65debb2b-28af-4e59-b51f-c6114f599c06"},"vehicle_type_id":"4","last_reported":1716620812,"current_range_meters":20000,"station_id":"ce4bgup2rcd13ifvqcn0","pricing_plan_id":"cebpf4jnsgd1na2vs0mg"},{"bike_id":"97aa767d-4a7c-4d81-b244-c5d3efb49efc","system_id":"levelo_inurba_marseille","lat":43.324771,"lon":5.36557,"is_reserved":false,"is_disabled":false,"rental_uris":{"android":"levelo://app?vid=97aa767d-4a7c-4d81-b244-c5d3efb49efc","ios":"levelo://app?vid=97aa767d-4a7c-4d81-b244-c5d3efb49efc"},"vehicle_type_id":"4","last_reported":1716620812,"current_range_meters":22800,"station_id":"ce4bhs12rcd13ifvqhvg","pricing_plan_id":"cebpf4jnsgd1na2vs0mg"},{"bike_id":"bd0d5bf2-9754-40b0-9529-6257b6cc39d0","system_id":"levelo_inurba_marseille","lat":43.304606,"lon":5.379026,"is_reserved":false,"is_disabled":false,"rental_uris":{"android":"levelo://app?vid=bd0d5bf2-9754-40b0-9529-6257b6cc39d0","ios":"levelo://app?vid=bd0d5bf2-9754-40b0-9529-6257b6cc39d0"},"vehicle_type_id":"4","last_reported":1716620812,"current_range_meters":24000,"station_id":"ce4bgup2rcd13ifvqcn0","pricing_plan_id":"cebpf4jnsgd1na2vs0mg"},{"bike_id":"deb306fe-c735-489b-a1b9-3d766f3b5cd2","system_id":"levelo_inurba_marseille","lat":43.304553,"lon":5.37912,"is_reserved":false,"is_disabled":false,"rental_uris":{"android":"levelo://app?vid=deb306fe-c735-489b-a1b9-3d766f3b5cd2","ios":"levelo://app?vid=deb306fe-c735-489b-a1b9-3d766f3b5cd2"},"vehicle_type_id":"4","last_reported":1716620812,"current_range_meters":8400,"station_id":"ce4bgup2rcd13ifvqcn0","pricing_plan_id":"cebpf4jnsgd1na2vs0mg"},{"bike_id":"742cf3eb-0ede-4447-aa0d-235083ddda48","system_id":"levelo_inurba_marseille","lat":43.324771,"lon":5.36557,"is_reserved":false,"is_disabled":false,"rental_uris":{"android":"levelo://app?vid=742cf3eb-0ede-4447-aa0d-235083ddda48","ios":"levelo://app?vid=742cf3eb-0ede-4447-aa0d-235083ddda48"},"vehicle_type_id":"4","last_reported":1716620812,"current_range_meters":31200,"station_id":"ce4bhs12rcd13ifvqhvg","pricing_plan_id":"cebpf4jnsgd1na2vs0mg"},{"bike_id":"649dc2ca-940f-4aa6-921e-cbec14ebb78e","system_id":"levelo_inurba_marseille","lat":43.324771,"lon":5.36557,"is_reserved":false,"is_disabled":false,"rental_uris":{"android":"levelo://app?vid=649dc2ca-940f-4aa6-921e-cbec14ebb78e","ios":"levelo://app?vid=649dc2ca-940f-4aa6-921e-cbec14ebb78e"},"vehicle_type_id":"4","last_reported":1716620812,"current_range_meters":29200,"station_id":"ce4bhs12rcd13ifvqhvg","pricing_plan_id":"cebpf4jnsgd1na2vs0mg"},{"bike_id":"eacf2fee-b3a5-4cc4-b0dc-f9903d7c3880","system_id":"levelo_inurba_marseille","lat":43.324771,"lon":5.36557,"is_reserved":false,"is_disabled":false,"rental_uris":{"android":"levelo://app?vid=eacf2fee-b3a5-4cc4-b0dc-f9903d7c3880","ios":"levelo://app?vid=eacf2fee-b3a5-4cc4-b0dc-f9903d7c3880"},"vehicle_type_id":"4","last_reported":1716620812,"current_range_meters":15600,"station_id":"ce4bhs12rcd13ifvqhvg","pricing_plan_id":"cebpf4jnsgd1na2vs0mg"},{"bike_id":"e95bb1bd-eeab-46c5-80d8-a7bc3ecd68a5","system_id":"levelo_inurba_marseille","lat":43.324771,"lon":5.36557,"is_reserved":false,"is_disabled":false,"rental_uris":{"android":"levelo://app?vid=e95bb1bd-eeab-46c5-80d8-a7bc3ecd68a5","ios":"levelo://app?vid=e95bb1bd-eeab-46c5-80d8-a7bc3ecd68a5"},"vehicle_type_id":"4","last_reported":1716620812,"current_range_meters":29600,"station_id":"ce4bhs12rcd13ifvqhvg","pricing_plan_id":"cebpf4jnsgd1na2vs0mg"},{"bike_id":"422760b1-0f8d-4539-91f0-f8016cd749b1","system_id":"levelo_inurba_marseille","lat":43.31066,"lon":5.38351,"is_reserved":false,"is_disabled":false,"rental_uris":{"android":"levelo://app?vid=422760b1-0f8d-4539-91f0-f8016cd749b1","ios":"levelo://app?vid=422760b1-0f8d-4539-91f0-f8016cd749b1"},"vehicle_type_id":"4","last_reported":1716620812,"current_range_meters":26000,"station_id":"ce4bgv92rcd13ifvqcr0","pricing_plan_id":"cebpf4jnsgd1na2vs0mg"},{"bike_id":"4135ddab-c3d7-4a73-92b2-2a832241c728","system_id":"levelo_inurba_marseille","lat":43.31074,"lon":5.38355,"is_reserved":false,"is_disabled":false,"rental_uris":{"android":"levelo://app?vid=4135ddab-c3d7-4a73-92b2-2a832241c728","ios":"levelo://app?vid=4135ddab-c3d7-4a73-92b2-2a832241c728"},"vehicle_type_id":"4","last_reported":1716620812,"current_range_meters":26400,"station_id":"ce4bgv92rcd13ifvqcr0","pricing_plan_id":"cebpf4jnsgd1na2vs0mg"},{"bike_id":"a777791b-1715-4075-8cff-8d612004d231","system_id":"levelo_inurba_marseille","lat":43.302784,"lon":5.377158,"is_reserved":false,"is_disabled":false,"rental_uris":{"android":"levelo://app?vid=a777791b-1715-4075-8cff-8d612004d231","ios":"levelo://app?vid=a777791b-1715-4075-8cff-8d612004d231"},"vehicle_type_id":"4","last_reported":1716620812,"current_range_meters":0,"station_id":"ce4bguh2rcd13ifvqcj0","pricing_plan_id":"cebpf4jnsgd1na2vs0mg"},{"bike_id":"4e5bba4b-f9f5-4d5c-a401-5331d227861a","system_id":"levelo_inurba_marseille","lat":43.302784,"lon":5.377158,"is_reserved":false,"is_disabled":false,"rental_uris":{"android":"levelo://app?vid=4e5bba4b-f9f5-4d5c-a401-5331d227861a","ios":"levelo://app?vid=4e5bba4b-f9f5-4d5c-a401-5331d227861a"},"vehicle_type_id":"4","last_reported":1716620812,"current_range_meters":16000,"station_id":"ce4bguh2rcd13ifvqcj0","pricing_plan_id":"cebpf4jnsgd1na2vs0mg"},{"bike_id":"cc872d77-fe40-47c2-bd64-a15bc5cef97e","system_id":"levelo_inurba_marseille","lat":43.302759,"lon":5.376966,"is_reserved":false,"is_disabled":false,"rental_uris":{"android":"levelo://app?vid=cc872d77-fe40-47c2-bd64-a15bc5cef97e","ios":"levelo://app?vid=cc872d77-fe40-47c2-bd64-a15bc5cef97e"},"vehicle_type_id":"4","last_reported":1716620812,"current_range_meters":1600,"station_id":"ce4bguh2rcd13ifvqcj0","pricing_plan_id":"cebpf4jnsgd1na2vs0mg"},{"bike_id":"47f52184-d95b-4541-8e21-0e62a43a6fc2","system_id":"levelo_inurba_marseille","lat":43.302784,"lon":5.377158,"is_reserved":false,"is_disabled":false,"rental_uris":{"android":"levelo://app?vid=47f52184-d95b-4541-8e21-0e62a43a6fc2","ios":"levelo://app?vid=47f52184-d95b-4541-8e21-0e62a43a6fc2"},"vehicle_type_id":"4","last_reported":1716620812,"current_range_meters":30800,"station_id":"ce4bguh2rcd13ifvqcj0","pricing_plan_id":"cebpf4jnsgd1na2vs0mg"},{"bike_id":"7820d013-7d69-49d7-bff1-02ce0ab76e19","system_id":"levelo_inurba_marseille","lat":43.302784,"lon":5.377158,"is_reserved":false,"is_disabled":false,"rental_uris":{"android":"levelo://app?vid=7820d013-7d69-49d7-bff1-02ce0ab76e19","ios":"levelo://app?vid=7820d013-7d69-49d7-bff1-02ce0ab76e19"},"vehicle_type_id":"4","last_reported":1716620812,"current_range_meters":30800,"station_id":"ce4bguh2rcd13ifvqcj0","pricing_plan_id":"cebpf4jnsgd1na2vs0mg"},{"bike_id":"f24d2251-671e-48a0-b8a1-6a31dc1b1ece","system_id":"levelo_inurba_marseille","lat":43.302784,"lon":5.377158,"is_reserved":false,"is_disabled":false,"rental_uris":{"android":"levelo://app?vid=f24d2251-671e-48a0-b8a1-6a31dc1b1ece","ios":"levelo://app?vid=f24d2251-671e-48a0-b8a1-6a31dc1b1ece"},"vehicle_type_id":"4","last_reported":1716620812,"current_range_meters":2800,"station_id":"ce4bguh2rcd13ifvqcj0","pricing_plan_id":"cebpf4jnsgd1na2vs0mg"},{"bike_id":"320ddb95-8697-4e1f-bef7-888b0e9d44b5","system_id":"levelo_inurba_marseille","lat":43.302784,"lon":5.377158,"is_reserved":false,"is_disabled":false,"rental_uris":{"android":"levelo://app?vid=320ddb95-8697-4e1f-bef7-888b0e9d44b5","ios":"levelo://app?vid=320ddb95-8697-4e1f-bef7-888b0e9d44b5"},"vehicle_type_id":"4","last_reported":1716620812,"current_range_meters":10000,"station_id":"ce4bguh2rcd13ifvqcj0","pricing_plan_id":"cebpf4jnsgd1na2vs0mg"},{"bike_id":"46d95da6-d186-40b2-b64e-e04f47b1a99c","system_id":"levelo_inurba_marseille","lat":43.302784,"lon":5.377158,"is_reserved":false,"is_disabled":false,"rental_uris":{"android":"levelo://app?vid=46d95da6-d186-40b2-b64e-e04f47b1a99c","ios":"levelo://app?vid=46d95da6-d186-40b2-b64e-e04f47b1a99c"},"vehicle_type_id":"4","last_reported":1716620812,"current_range_meters":24000,"station_id":"ce4bguh2rcd13ifvqcj0","pricing_plan_id":"cebpf4jnsgd1na2vs0mg"},{"bike_id":"7df70278-8c2b-42d5-8caa-f4c13960190c","system_id":"levelo_inurba_marseille","lat":43.30143,"lon":5.37413,"is_reserved":false,"is_disabled":false,"rental_uris":{"android":"levelo://app?vid=7df70278-8c2b-42d5-8caa-f4c13960190c","ios":"levelo://app?vid=7df70278-8c2b-42d5-8caa-f4c13960190c"},"vehicle_type_id":"4","last_reported":1716620812,"current_range_meters":25600,"station_id":"ce4bgs92rcd13ifvqcc0","pricing_plan_id":"cebpf4jnsgd1na2vs0mg"},{"bike_id":"8b0f9da1-0c8f-49ee-8eea-243728810987","system_id":"levelo_inurba_marseille","lat":43.30143,"lon":5.37413,"is_reserved":false,"is_disabled":false,"rental_uris":{"android":"levelo://app?vid=8b0f9da1-0c8f-49ee-8eea-243728810987","ios":"levelo://app?vid=8b0f9da1-0c8f-49ee-8eea-243728810987"},"vehicle_type_id":"4","last_reported":1716620812,"current_range_meters":16400,"station_id":"ce4bgs92rcd13ifvqcc0","pricing_plan_id":"cebpf4jnsgd1na2vs0mg"},{"bike_id":"65210f4c-80a5-4a21-9923-2d1cc7e67ed3","system_id":"levelo_inurba_marseille","lat":43.301429,"lon":5.37413,"is_reserved":false,"is_disabled":false,"rental_uris":{"android":"levelo://app?vid=65210f4c-80a5-4a21-9923-2d1cc7e67ed3","ios":"levelo://app?vid=65210f4c-80a5-4a21-9923-2d1cc7e67ed3"},"vehicle_type_id":"4","last_reported":1716620812,"current_range_meters":26400,"station_id":"ce4bgs92rcd13ifvqcc0","pricing_plan_id":"cebpf4jnsgd1na2vs0mg"},{"bike_id":"87e0e847-6d63-4499-864e-7377bcfdd13b","system_id":"levelo_inurba_marseille","lat":43.302784,"lon":5.377158,"is_reserved":false,"is_disabled":false,"rental_uris":{"android":"levelo://app?vid=87e0e847-6d63-4499-864e-7377bcfdd13b","ios":"levelo://app?vid=87e0e847-6d63-4499-864e-7377bcfdd13b"},"vehicle_type_id":"4","last_reported":1716620812,"current_range_meters":12800,"station_id":"ce4bguh2rcd13ifvqcj0","pricing_plan_id":"cebpf4jnsgd1na2vs0mg"},{"bike_id":"71369abf-e394-4940-97da-986f25abee8b","system_id":"levelo_inurba_marseille","lat":43.319935,"lon":5.381699,"is_reserved":false,"is_disabled":false,"rental_uris":{"android":"levelo://app?vid=71369abf-e394-4940-97da-986f25abee8b","ios":"levelo://app?vid=71369abf-e394-4940-97da-986f25abee8b"},"vehicle_type_id":"4","last_reported":1716620812,"current_range_meters":19200,"station_id":"ce4bhr12rcd13ifvqhpg","pricing_plan_id":"cebpf4jnsgd1na2vs0mg"},{"bike_id":"499c478b-ab5d-4200-b91f-7ded1224220f","system_id":"levelo_inurba_marseille","lat":43.319935,"lon":5.381699,"is_reserved":false,"is_disabled":false,"rental_uris":{"android":"levelo://app?vid=499c478b-ab5d-4200-b91f-7ded1224220f","ios":"levelo://app?vid=499c478b-ab5d-4200-b91f-7ded1224220f"},"vehicle_type_id":"4","last_reported":1716620812,"current_range_meters":19600,"station_id":"ce4bhr12rcd13ifvqhpg","pricing_plan_id":"cebpf4jnsgd1na2vs0mg"},{"bike_id":"8803f933-8c50-4215-9576-c5cb49ffd428","system_id":"levelo_inurba_marseille","lat":43.319935,"lon":5.381699,"is_reserved":false,"is_disabled":false,"rental_uris":{"android":"levelo://app?vid=8803f933-8c50-4215-9576-c5cb49ffd428","ios":"levelo://app?vid=8803f933-8c50-4215-9576-c5cb49ffd428"},"vehicle_type_id":"4","last_reported":1716620812,"current_range_meters":800,"station_id":"ce4bhr12rcd13ifvqhpg","pricing_plan_id":"cebpf4jnsgd1na2vs0mg"},{"bike_id":"013bc13a-9135-4232-8d5e-65d177d21292","system_id":"levelo_inurba_marseille","lat":43.304606,"lon":5.379026,"is_reserved":false,"is_disabled":false,"rental_uris":{"android":"levelo://app?vid=013bc13a-9135-4232-8d5e-65d177d21292","ios":"levelo://app?vid=013bc13a-9135-4232-8d5e-65d177d21292"},"vehicle_type_id":"4","last_reported":1716620812,"current_range_meters":8400,"station_id":"ce4bgup2rcd13ifvqcn0","pricing_plan_id":"cebpf4jnsgd1na2vs0mg"},{"bike_id":"20b80fdf-8217-462b-abf7-be479f03096d","system_id":"levelo_inurba_marseille","lat":43.31995,"lon":5.38149,"is_reserved":false,"is_disabled":false,"rental_uris":{"android":"levelo://app?vid=20b80fdf-8217-462b-abf7-be479f03096d","ios":"levelo://app?vid=20b80fdf-8217-462b-abf7-be479f03096d"},"vehicle_type_id":"4","last_reported":1716620812,"current_range_meters":1200,"station_id":"ce4bhr12rcd13ifvqhpg","pricing_plan_id":"cebpf4jnsgd1na2vs0mg"},{"bike_id":"e3ab1838-c864-47ce-8fd2-dce41b728620","system_id":"levelo_inurba_marseille","lat":43.319935,"lon":5.381699,"is_reserved":false,"is_disabled":false,"rental_uris":{"android":"levelo://app?vid=e3ab1838-c864-47ce-8fd2-dce41b728620","ios":"levelo://app?vid=e3ab1838-c864-47ce-8fd2-dce41b728620"},"vehicle_type_id":"4","last_reported":1716620812,"current_range_meters":400,"station_id":"ce4bhr12rcd13ifvqhpg","pricing_plan_id":"cebpf4jnsgd1na2vs0mg"},{"bike_id":"f7e8e15e-d40a-4ed5-a1bf-5aa868984791","system_id":"levelo_inurba_marseille","lat":43.298433,"lon":5.362774,"is_reserved":false,"is_disabled":false,"rental_uris":{"android":"levelo://app?vid=f7e8e15e-d40a-4ed5-a1bf-5aa868984791","ios":"levelo://app?vid=f7e8e15e-d40a-4ed5-a1bf-5aa868984791"},"vehicle_type_id":"4","last_reported":1716620812,"current_range_meters":23600,"station_id":"ce4bgpp2rcd13ifvqc3g","pricing_plan_id":"cebpf4jnsgd1na2vs0mg"},{"bike_id":"ab116dfa-04c9-449e-8ab1-d0504d038893","system_id":"levelo_inurba_marseille","lat":43.298433,"lon":5.362774,"is_reserved":false,"is_disabled":false,"rental_uris":{"android":"levelo://app?vid=ab116dfa-04c9-449e-8ab1-d0504d038893","ios":"levelo://app?vid=ab116dfa-04c9-449e-8ab1-d0504d038893"},"vehicle_type_id":"4","last_reported":1716620812,"current_range_meters":6000,"station_id":"ce4bgpp2rcd13ifvqc3g","pricing_plan_id":"cebpf4jnsgd1na2vs0mg"},{"bike_id":"d4eb5922-48de-4041-80d4-7d40fd1d305e","system_id":"levelo_inurba_marseille","lat":43.269467,"lon":5.386439,"is_reserved":false,"is_disabled":false,"rental_uris":{"android":"levelo://app?vid=d4eb5922-48de-4041-80d4-7d40fd1d305e","ios":"levelo://app?vid=d4eb5922-48de-4041-80d4-7d40fd1d305e"},"vehicle_type_id":"4","last_reported":1716620812,"current_range_meters":10400,"station_id":"ce4bhh92rcd13ifvqfh0","pricing_plan_id":"cebpf4jnsgd1na2vs0mg"},{"bike_id":"86157be3-6428-43fc-9bbd-a41828b55983","system_id":"levelo_inurba_marseille","lat":43.311722,"lon":5.387247,"is_reserved":false,"is_disabled":false,"rental_uris":{"android":"levelo://app?vid=86157be3-6428-43fc-9bbd-a41828b55983","ios":"levelo://app?vid=86157be3-6428-43fc-9bbd-a41828b55983"},"vehicle_type_id":"4","last_reported":1716620812,"current_range_meters":800,"station_id":"ce4bgv12rcd13ifvqcp0","pricing_plan_id":"cebpf4jnsgd1na2vs0mg"},{"bike_id":"ed492a4e-944e-43b3-bd26-4581a8e6f7a8","system_id":"levelo_inurba_marseille","lat":43.297774,"lon":5.370875,"is_reserved":false,"is_disabled":false,"rental_uris":{"android":"levelo://app?vid=ed492a4e-944e-43b3-bd26-4581a8e6f7a8","ios":"levelo://app?vid=ed492a4e-944e-43b3-bd26-4581a8e6f7a8"},"vehicle_type_id":"4","last_reported":1716620812,"current_range_meters":28800,"station_id":"ce4bgop2rcd13ifvqc1g","pricing_plan_id":"cebpf4jnsgd1na2vs0mg"},{"bike_id":"6873e7c2-315e-4a2d-a3b2-d2cd30c3d103","system_id":"levelo_inurba_marseille","lat":43.322872,"lon":5.382756,"is_reserved":false,"is_disabled":false,"rental_uris":{"android":"levelo://app?vid=6873e7c2-315e-4a2d-a3b2-d2cd30c3d103","ios":"levelo://app?vid=6873e7c2-315e-4a2d-a3b2-d2cd30c3d103"},"vehicle_type_id":"4","last_reported":1716620812,"current_range_meters":26000,"station_id":"ce4bhr12rcd13ifvqhqg","pricing_plan_id":"cebpf4jnsgd1na2vs0mg"},{"bike_id":"79f33001-a651-4b0f-b82e-f19ee71b8d0f","system_id":"levelo_inurba_marseille","lat":43.322872,"lon":5.382756,"is_reserved":false,"is_disabled":false,"rental_uris":{"android":"levelo://app?vid=79f33001-a651-4b0f-b82e-f19ee71b8d0f","ios":"levelo://app?vid=79f33001-a651-4b0f-b82e-f19ee71b8d0f"},"vehicle_type_id":"4","last_reported":1716620812,"current_range_meters":25600,"station_id":"ce4bhr12rcd13ifvqhqg","pricing_plan_id":"cebpf4jnsgd1na2vs0mg"},{"bike_id":"a281f011-7cc0-4b1c-9d34-3a0e8e58659c","system_id":"levelo_inurba_marseille","lat":43.322872,"lon":5.382756,"is_reserved":false,"is_disabled":false,"rental_uris":{"android":"levelo://app?vid=a281f011-7cc0-4b1c-9d34-3a0e8e58659c","ios":"levelo://app?vid=a281f011-7cc0-4b1c-9d34-3a0e8e58659c"},"vehicle_type_id":"4","last_reported":1716620812,"current_range_meters":31200,"station_id":"ce4bhr12rcd13ifvqhqg","pricing_plan_id":"cebpf4jnsgd1na2vs0mg"},{"bike_id":"66425d78-e730-4e03-8806-befd97dd7ae9","system_id":"levelo_inurba_marseille","lat":43.322872,"lon":5.382756,"is_reserved":false,"is_disabled":false,"rental_uris":{"android":"levelo://app?vid=66425d78-e730-4e03-8806-befd97dd7ae9","ios":"levelo://app?vid=66425d78-e730-4e03-8806-befd97dd7ae9"},"vehicle_type_id":"4","last_reported":1716620812,"current_range_meters":22000,"station_id":"ce4bhr12rcd13ifvqhqg","pricing_plan_id":"cebpf4jnsgd1na2vs0mg"},{"bike_id":"44991ac8-d706-4f51-9a70-e44937b720db","system_id":"levelo_inurba_marseille","lat":43.30219,"lon":5.38261,"is_reserved":false,"is_disabled":false,"rental_uris":{"android":"levelo://app?vid=44991ac8-d706-4f51-9a70-e44937b720db","ios":"levelo://app?vid=44991ac8-d706-4f51-9a70-e44937b720db"},"vehicle_type_id":"4","last_reported":1716620812,"current_range_meters":12000,"station_id":"","pricing_plan_id":"cebpf4jnsgd1na2vs0mg"},{"bike_id":"b0181dbd-d16d-4347-9382-b450da867146","system_id":"levelo_inurba_marseille","lat":43.29657,"lon":5.36162,"is_reserved":false,"is_disabled":false,"rental_uris":{"android":"levelo://app?vid=b0181dbd-d16d-4347-9382-b450da867146","ios":"levelo://app?vid=b0181dbd-d16d-4347-9382-b450da867146"},"vehicle_type_id":"4","last_reported":1716620812,"current_range_meters":9600,"station_id":"","pricing_plan_id":"cebpf4jnsgd1na2vs0mg"},{"bike_id":"e013db45-5929-4c9d-98da-b1b2181f1b9f","system_id":"levelo_inurba_marseille","lat":43.29573,"lon":5.367355,"is_reserved":false,"is_disabled":false,"rental_uris":{"android":"levelo://app?vid=e013db45-5929-4c9d-98da-b1b2181f1b9f","ios":"levelo://app?vid=e013db45-5929-4c9d-98da-b1b2181f1b9f"},"vehicle_type_id":"4","last_reported":1716620812,"current_range_meters":21600,"station_id":"ce4bgph2rcd13ifvqc2g","pricing_plan_id":"cebpf4jnsgd1na2vs0mg"},{"bike_id":"244f79b1-11a1-43cd-8526-a61e2cf599e6","system_id":"levelo_inurba_marseille","lat":43.29573,"lon":5.367355,"is_reserved":false,"is_disabled":false,"rental_uris":{"android":"levelo://app?vid=244f79b1-11a1-43cd-8526-a61e2cf599e6","ios":"levelo://app?vid=244f79b1-11a1-43cd-8526-a61e2cf599e6"},"vehicle_type_id":"4","last_reported":1716620812,"current_range_meters":19600,"station_id":"ce4bgph2rcd13ifvqc2g","pricing_plan_id":"cebpf4jnsgd1na2vs0mg"},{"bike_id":"4b3e9ea1-0e87-4eff-9fda-a86a5d0431ee","system_id":"levelo_inurba_marseille","lat":43.29573,"lon":5.367355,"is_reserved":false,"is_disabled":false,"rental_uris":{"android":"levelo://app?vid=4b3e9ea1-0e87-4eff-9fda-a86a5d0431ee","ios":"levelo://app?vid=4b3e9ea1-0e87-4eff-9fda-a86a5d0431ee"},"vehicle_type_id":"4","last_reported":1716620812,"current_range_meters":13600,"station_id":"ce4bgph2rcd13ifvqc2g","pricing_plan_id":"cebpf4jnsgd1na2vs0mg"},{"bike_id":"1589b93b-4012-4398-b5f6-01a2e0940e1e","system_id":"levelo_inurba_marseille","lat":43.29573,"lon":5.367355,"is_reserved":false,"is_disabled":false,"rental_uris":{"android":"levelo://app?vid=1589b93b-4012-4398-b5f6-01a2e0940e1e","ios":"levelo://app?vid=1589b93b-4012-4398-b5f6-01a2e0940e1e"},"vehicle_type_id":"4","last_reported":1716620812,"current_range_meters":14800,"station_id":"ce4bgph2rcd13ifvqc2g","pricing_plan_id":"cebpf4jnsgd1na2vs0mg"},{"bike_id":"e6b40196-5e9a-4784-89de-417dc9a9dd7b","system_id":"levelo_inurba_marseille","lat":43.29573,"lon":5.367355,"is_reserved":false,"is_disabled":false,"rental_uris":{"android":"levelo://app?vid=e6b40196-5e9a-4784-89de-417dc9a9dd7b","ios":"levelo://app?vid=e6b40196-5e9a-4784-89de-417dc9a9dd7b"},"vehicle_type_id":"4","last_reported":1716620812,"current_range_meters":15600,"station_id":"ce4bgph2rcd13ifvqc2g","pricing_plan_id":"cebpf4jnsgd1na2vs0mg"},{"bike_id":"7faa5956-3dc6-4ce0-b063-58614024ba18","system_id":"levelo_inurba_marseille","lat":43.296921,"lon":5.376579,"is_reserved":false,"is_disabled":false,"rental_uris":{"android":"levelo://app?vid=7faa5956-3dc6-4ce0-b063-58614024ba18","ios":"levelo://app?vid=7faa5956-3dc6-4ce0-b063-58614024ba18"},"vehicle_type_id":"4","last_reported":1716620812,"current_range_meters":26800,"station_id":"ce4bgkh2rcd13ifvqbl0","pricing_plan_id":"cebpf4jnsgd1na2vs0mg"},{"bike_id":"a5b632e4-6780-4944-8fbc-720a64b947a6","system_id":"levelo_inurba_marseille","lat":43.299028,"lon":5.381509,"is_reserved":false,"is_disabled":false,"rental_uris":{"android":"levelo://app?vid=a5b632e4-6780-4944-8fbc-720a64b947a6","ios":"levelo://app?vid=a5b632e4-6780-4944-8fbc-720a64b947a6"},"vehicle_type_id":"4","last_reported":1716620812,"current_range_meters":31200,"station_id":"ce4bgj12rcd13ifvqbc0","pricing_plan_id":"cebpf4jnsgd1na2vs0mg"},{"bike_id":"1ec90940-406a-4fbb-896b-66133e251731","system_id":"levelo_inurba_marseille","lat":43.296921,"lon":5.376579,"is_reserved":false,"is_disabled":false,"rental_uris":{"android":"levelo://app?vid=1ec90940-406a-4fbb-896b-66133e251731","ios":"levelo://app?vid=1ec90940-406a-4fbb-896b-66133e251731"},"vehicle_type_id":"4","last_reported":1716620812,"current_range_meters":29600,"station_id":"ce4bgkh2rcd13ifvqbl0","pricing_plan_id":"cebpf4jnsgd1na2vs0mg"},{"bike_id":"ac5db667-8878-40cc-bc76-e96fb0158ff2","system_id":"levelo_inurba_marseille","lat":43.317557,"lon":5.390173,"is_reserved":false,"is_disabled":false,"rental_uris":{"android":"levelo://app?vid=ac5db667-8878-40cc-bc76-e96fb0158ff2","ios":"levelo://app?vid=ac5db667-8878-40cc-bc76-e96fb0158ff2"},"vehicle_type_id":"4","last_reported":1716620812,"current_range_meters":30400,"station_id":"ce4bhqp2rcd13ifvqhng","pricing_plan_id":"cebpf4jnsgd1na2vs0mg"},{"bike_id":"a5f0f65a-8ea4-4b25-9eab-a1e28054ce6e","system_id":"levelo_inurba_marseille","lat":43.298037,"lon":5.381066,"is_reserved":false,"is_disabled":false,"rental_uris":{"android":"levelo://app?vid=a5f0f65a-8ea4-4b25-9eab-a1e28054ce6e","ios":"levelo://app?vid=a5f0f65a-8ea4-4b25-9eab-a1e28054ce6e"},"vehicle_type_id":"4","last_reported":1716620812,"current_range_meters":16000,"station_id":"ce4bgip2rcd13ifvqbb0","pricing_plan_id":"cebpf4jnsgd1na2vs0mg"},{"bike_id":"d5fd2186-e979-461c-afc8-52d18160ae9c","system_id":"levelo_inurba_marseille","lat":43.298037,"lon":5.381066,"is_reserved":false,"is_disabled":false,"rental_uris":{"android":"levelo://app?vid=d5fd2186-e979-461c-afc8-52d18160ae9c","ios":"levelo://app?vid=d5fd2186-e979-461c-afc8-52d18160ae9c"},"vehicle_type_id":"4","last_reported":1716620812,"current_range_meters":25600,"station_id":"ce4bgip2rcd13ifvqbb0","pricing_plan_id":"cebpf4jnsgd1na2vs0mg"},{"bike_id":"f5cc8a34-3f33-41e0-889a-91238a13b384","system_id":"levelo_inurba_marseille","lat":43.304274,"lon":5.388873,"is_reserved":false,"is_disabled":false,"rental_uris":{"android":"levelo://app?vid=f5cc8a34-3f33-41e0-889a-91238a13b384","ios":"levelo://app?vid=f5cc8a34-3f33-41e0-889a-91238a13b384"},"vehicle_type_id":"4","last_reported":1716620812,"current_range_meters":11600,"station_id":"ce4bgk12rcd13ifvqbi0","pricing_plan_id":"cebpf4jnsgd1na2vs0mg"},{"bike_id":"069f1ae1-48bc-4124-8ffc-986c10d2aeee","system_id":"levelo_inurba_marseille","lat":43.29575,"lon":5.375,"is_reserved":false,"is_disabled":false,"rental_uris":{"android":"levelo://app?vid=069f1ae1-48bc-4124-8ffc-986c10d2aeee","ios":"levelo://app?vid=069f1ae1-48bc-4124-8ffc-986c10d2aeee"},"vehicle_type_id":"4","last_reported":1716620812,"current_range_meters":22400,"station_id":"","pricing_plan_id":"cebpf4jnsgd1na2vs0mg"},{"bike_id":"e3eead24-3803-4204-934b-1a112a7d4bdd","system_id":"levelo_inurba_marseille","lat":43.295748,"lon":5.37522,"is_reserved":false,"is_disabled":false,"rental_uris":{"android":"levelo://app?vid=e3eead24-3803-4204-934b-1a112a7d4bdd","ios":"levelo://app?vid=e3eead24-3803-4204-934b-1a112a7d4bdd"},"vehicle_type_id":"4","last_reported":1716620812,"current_range_meters":25200,"station_id":"ce4bgh92rcd13ifvqb50","pricing_plan_id":"cebpf4jnsgd1na2vs0mg"},{"bike_id":"12bdaf3e-1b8c-4493-bd07-c5d0e0169c70","system_id":"levelo_inurba_marseille","lat":43.298037,"lon":5.381066,"is_reserved":false,"is_disabled":false,"rental_uris":{"android":"levelo://app?vid=12bdaf3e-1b8c-4493-bd07-c5d0e0169c70","ios":"levelo://app?vid=12bdaf3e-1b8c-4493-bd07-c5d0e0169c70"},"vehicle_type_id":"4","last_reported":1716620812,"current_range_meters":17600,"station_id":"ce4bgip2rcd13ifvqbb0","pricing_plan_id":"cebpf4jnsgd1na2vs0mg"},{"bike_id":"3a15553b-bf02-46a7-8e87-da58071f41de","system_id":"levelo_inurba_marseille","lat":43.304274,"lon":5.388873,"is_reserved":false,"is_disabled":false,"rental_uris":{"android":"levelo://app?vid=3a15553b-bf02-46a7-8e87-da58071f41de","ios":"levelo://app?vid=3a15553b-bf02-46a7-8e87-da58071f41de"},"vehicle_type_id":"4","last_reported":1716620812,"current_range_meters":30000,"station_id":"ce4bgk12rcd13ifvqbi0","pricing_plan_id":"cebpf4jnsgd1na2vs0mg"},{"bike_id":"fc200573-3ca3-4853-8e25-98a5b0771dac","system_id":"levelo_inurba_marseille","lat":43.295748,"lon":5.37522,"is_reserved":false,"is_disabled":false,"rental_uris":{"android":"levelo://app?vid=fc200573-3ca3-4853-8e25-98a5b0771dac","ios":"levelo://app?vid=fc200573-3ca3-4853-8e25-98a5b0771dac"},"vehicle_type_id":"4","last_reported":1716620812,"current_range_meters":28800,"station_id":"ce4bgh92rcd13ifvqb50","pricing_plan_id":"cebpf4jnsgd1na2vs0mg"},{"bike_id":"97bdfc54-f315-4aec-b649-7ad4584193bb","system_id":"levelo_inurba_marseille","lat":43.298037,"lon":5.381066,"is_reserved":false,"is_disabled":false,"rental_uris":{"android":"levelo://app?vid=97bdfc54-f315-4aec-b649-7ad4584193bb","ios":"levelo://app?vid=97bdfc54-f315-4aec-b649-7ad4584193bb"},"vehicle_type_id":"4","last_reported":1716620812,"current_range_meters":28000,"station_id":"ce4bgip2rcd13ifvqbb0","pricing_plan_id":"cebpf4jnsgd1na2vs0mg"},{"bike_id":"3649335c-72dc-4009-b4f6-f38a4b8bd750","system_id":"levelo_inurba_marseille","lat":43.298037,"lon":5.381066,"is_reserved":false,"is_disabled":false,"rental_uris":{"android":"levelo://app?vid=3649335c-72dc-4009-b4f6-f38a4b8bd750","ios":"levelo://app?vid=3649335c-72dc-4009-b4f6-f38a4b8bd750"},"vehicle_type_id":"4","last_reported":1716620812,"current_range_meters":24800,"station_id":"ce4bgip2rcd13ifvqbb0","pricing_plan_id":"cebpf4jnsgd1na2vs0mg"},{"bike_id":"c0b388a2-5918-48ac-9823-f72c713ca3a3","system_id":"levelo_inurba_marseille","lat":43.304274,"lon":5.388873,"is_reserved":false,"is_disabled":false,"rental_uris":{"android":"levelo://app?vid=c0b388a2-5918-48ac-9823-f72c713ca3a3","ios":"levelo://app?vid=c0b388a2-5918-48ac-9823-f72c713ca3a3"},"vehicle_type_id":"4","last_reported":1716620812,"current_range_meters":12000,"station_id":"ce4bgk12rcd13ifvqbi0","pricing_plan_id":"cebpf4jnsgd1na2vs0mg"},{"bike_id":"b03beaa0-485d-4a35-abb6-8fd91fac28af","system_id":"levelo_inurba_marseille","lat":43.296263,"lon":5.377094,"is_reserved":false,"is_disabled":false,"rental_uris":{"android":"levelo://app?vid=b03beaa0-485d-4a35-abb6-8fd91fac28af","ios":"levelo://app?vid=b03beaa0-485d-4a35-abb6-8fd91fac28af"},"vehicle_type_id":"4","last_reported":1716620812,"current_range_meters":0,"station_id":"ce4bgi92rcd13ifvqb90","pricing_plan_id":"cebpf4jnsgd1na2vs0mg"},{"bike_id":"d57d771f-e330-4347-8529-61cf1f228159","system_id":"levelo_inurba_marseille","lat":43.298037,"lon":5.381066,"is_reserved":false,"is_disabled":false,"rental_uris":{"android":"levelo://app?vid=d57d771f-e330-4347-8529-61cf1f228159","ios":"levelo://app?vid=d57d771f-e330-4347-8529-61cf1f228159"},"vehicle_type_id":"4","last_reported":1716620812,"current_range_meters":22000,"station_id":"ce4bgip2rcd13ifvqbb0","pricing_plan_id":"cebpf4jnsgd1na2vs0mg"},{"bike_id":"f52200c6-6d45-414e-9d90-470525871527","system_id":"levelo_inurba_marseille","lat":43.296277,"lon":5.377108,"is_reserved":false,"is_disabled":false,"rental_uris":{"android":"levelo://app?vid=f52200c6-6d45-414e-9d90-470525871527","ios":"levelo://app?vid=f52200c6-6d45-414e-9d90-470525871527"},"vehicle_type_id":"4","last_reported":1716620812,"current_range_meters":16000,"station_id":"ce4bgi92rcd13ifvqb90","pricing_plan_id":"cebpf4jnsgd1na2vs0mg"},{"bike_id":"932e7378-07bd-4e37-884e-2e7084f6c662","system_id":"levelo_inurba_marseille","lat":43.295748,"lon":5.37522,"is_reserved":false,"is_disabled":false,"rental_uris":{"android":"levelo://app?vid=932e7378-07bd-4e37-884e-2e7084f6c662","ios":"levelo://app?vid=932e7378-07bd-4e37-884e-2e7084f6c662"},"vehicle_type_id":"4","last_reported":1716620812,"current_range_meters":26800,"station_id":"ce4bgh92rcd13ifvqb50","pricing_plan_id":"cebpf4jnsgd1na2vs0mg"},{"bike_id":"0ec0cd18-ffd3-4aac-aa3b-4c81ecff60f9","system_id":"levelo_inurba_marseille","lat":43.296263,"lon":5.377094,"is_reserved":false,"is_disabled":false,"rental_uris":{"android":"levelo://app?vid=0ec0cd18-ffd3-4aac-aa3b-4c81ecff60f9","ios":"levelo://app?vid=0ec0cd18-ffd3-4aac-aa3b-4c81ecff60f9"},"vehicle_type_id":"4","last_reported":1716620812,"current_range_meters":10400,"station_id":"ce4bgi92rcd13ifvqb90","pricing_plan_id":"cebpf4jnsgd1na2vs0mg"},{"bike_id":"e128b261-9217-4187-81d9-e26d5c3a6e32","system_id":"levelo_inurba_marseille","lat":43.296277,"lon":5.377108,"is_reserved":false,"is_disabled":false,"rental_uris":{"android":"levelo://app?vid=e128b261-9217-4187-81d9-e26d5c3a6e32","ios":"levelo://app?vid=e128b261-9217-4187-81d9-e26d5c3a6e32"},"vehicle_type_id":"4","last_reported":1716620812,"current_range_meters":29600,"station_id":"ce4bgi92rcd13ifvqb90","pricing_plan_id":"cebpf4jnsgd1na2vs0mg"},{"bike_id":"a86466fd-2ffd-4d5e-bfc5-e13fd9195e1b","system_id":"levelo_inurba_marseille","lat":43.296277,"lon":5.377108,"is_reserved":false,"is_disabled":false,"rental_uris":{"android":"levelo://app?vid=a86466fd-2ffd-4d5e-bfc5-e13fd9195e1b","ios":"levelo://app?vid=a86466fd-2ffd-4d5e-bfc5-e13fd9195e1b"},"vehicle_type_id":"4","last_reported":1716620812,"current_range_meters":27600,"station_id":"ce4bgi92rcd13ifvqb90","pricing_plan_id":"cebpf4jnsgd1na2vs0mg"},{"bike_id":"a18d9b61-55f8-4411-ac85-3cd47ea12f4a","system_id":"levelo_inurba_marseille","lat":43.296277,"lon":5.377108,"is_reserved":false,"is_disabled":false,"rental_uris":{"android":"levelo://app?vid=a18d9b61-55f8-4411-ac85-3cd47ea12f4a","ios":"levelo://app?vid=a18d9b61-55f8-4411-ac85-3cd47ea12f4a"},"vehicle_type_id":"4","last_reported":1716620812,"current_range_meters":12800,"station_id":"ce4bgi92rcd13ifvqb90","pricing_plan_id":"cebpf4jnsgd1na2vs0mg"},{"bike_id":"efdd6c76-556b-4120-bd32-0ffa2a60ed79","system_id":"levelo_inurba_marseille","lat":43.295279,"lon":5.375048,"is_reserved":false,"is_disabled":false,"rental_uris":{"android":"levelo://app?vid=efdd6c76-556b-4120-bd32-0ffa2a60ed79","ios":"levelo://app?vid=efdd6c76-556b-4120-bd32-0ffa2a60ed79"},"vehicle_type_id":"4","last_reported":1716620812,"current_range_meters":22800,"station_id":"ce4bgkp2rcd13ifvqbmg","pricing_plan_id":"cebpf4jnsgd1na2vs0mg"},{"bike_id":"d014cf3e-048b-41f0-8f75-4b7171a47831","system_id":"levelo_inurba_marseille","lat":43.299717,"lon":5.384845,"is_reserved":false,"is_disabled":false,"rental_uris":{"android":"levelo://app?vid=d014cf3e-048b-41f0-8f75-4b7171a47831","ios":"levelo://app?vid=d014cf3e-048b-41f0-8f75-4b7171a47831"},"vehicle_type_id":"4","last_reported":1716620812,"current_range_meters":31200,"station_id":"ce4bgj92rcd13ifvqbd0","pricing_plan_id":"cebpf4jnsgd1na2vs0mg"},{"bike_id":"ea5c8d42-c861-4802-a2ac-9f57d3bd183f","system_id":"levelo_inurba_marseille","lat":43.299724,"lon":5.384848,"is_reserved":false,"is_disabled":false,"rental_uris":{"android":"levelo://app?vid=ea5c8d42-c861-4802-a2ac-9f57d3bd183f","ios":"levelo://app?vid=ea5c8d42-c861-4802-a2ac-9f57d3bd183f"},"vehicle_type_id":"4","last_reported":1716620812,"current_range_meters":31600,"station_id":"ce4bgj92rcd13ifvqbd0","pricing_plan_id":"cebpf4jnsgd1na2vs0mg"},{"bike_id":"aefcfb66-7917-4845-a116-8c1e5de6823c","system_id":"levelo_inurba_marseille","lat":43.299724,"lon":5.384848,"is_reserved":false,"is_disabled":false,"rental_uris":{"android":"levelo://app?vid=aefcfb66-7917-4845-a116-8c1e5de6823c","ios":"levelo://app?vid=aefcfb66-7917-4845-a116-8c1e5de6823c"},"vehicle_type_id":"4","last_reported":1716620812,"current_range_meters":27200,"station_id":"ce4bgj92rcd13ifvqbd0","pricing_plan_id":"cebpf4jnsgd1na2vs0mg"},{"bike_id":"adec0a5c-8bbe-4fc4-815b-cebc5f7ef7e7","system_id":"levelo_inurba_marseille","lat":43.295279,"lon":5.375048,"is_reserved":false,"is_disabled":false,"rental_uris":{"android":"levelo://app?vid=adec0a5c-8bbe-4fc4-815b-cebc5f7ef7e7","ios":"levelo://app?vid=adec0a5c-8bbe-4fc4-815b-cebc5f7ef7e7"},"vehicle_type_id":"4","last_reported":1716620812,"current_range_meters":4000,"station_id":"ce4bgkp2rcd13ifvqbmg","pricing_plan_id":"cebpf4jnsgd1na2vs0mg"},{"bike_id":"9daa018f-b89d-4733-9ed9-c8caa0827dba","system_id":"levelo_inurba_marseille","lat":43.299724,"lon":5.384848,"is_reserved":false,"is_disabled":false,"rental_uris":{"android":"levelo://app?vid=9daa018f-b89d-4733-9ed9-c8caa0827dba","ios":"levelo://app?vid=9daa018f-b89d-4733-9ed9-c8caa0827dba"},"vehicle_type_id":"4","last_reported":1716620812,"current_range_meters":16000,"station_id":"ce4bgj92rcd13ifvqbd0","pricing_plan_id":"cebpf4jnsgd1na2vs0mg"},{"bike_id":"78252e3e-8eff-4ccb-a142-6526e4cc39f4","system_id":"levelo_inurba_marseille","lat":43.30089,"lon":5.38729,"is_reserved":false,"is_disabled":false,"rental_uris":{"android":"levelo://app?vid=78252e3e-8eff-4ccb-a142-6526e4cc39f4","ios":"levelo://app?vid=78252e3e-8eff-4ccb-a142-6526e4cc39f4"},"vehicle_type_id":"4","last_reported":1716620812,"current_range_meters":1600,"station_id":"","pricing_plan_id":"cebpf4jnsgd1na2vs0mg"},{"bike_id":"c692fd75-9972-42e1-92a8-4ac7cce47a41","system_id":"levelo_inurba_marseille","lat":43.299243,"lon":5.37481,"is_reserved":false,"is_disabled":false,"rental_uris":{"android":"levelo://app?vid=c692fd75-9972-42e1-92a8-4ac7cce47a41","ios":"levelo://app?vid=c692fd75-9972-42e1-92a8-4ac7cce47a41"},"vehicle_type_id":"4","last_reported":1716620812,"current_range_meters":12800,"station_id":"ce4bgjh2rcd13ifvqbg0","pricing_plan_id":"cebpf4jnsgd1na2vs0mg"},{"bike_id":"489823e6-287e-4f39-a689-3db2a123fd25","system_id":"levelo_inurba_marseille","lat":43.32364,"lon":5.3888,"is_reserved":false,"is_disabled":false,"rental_uris":{"android":"levelo://app?vid=489823e6-287e-4f39-a689-3db2a123fd25","ios":"levelo://app?vid=489823e6-287e-4f39-a689-3db2a123fd25"},"vehicle_type_id":"4","last_reported":1716620812,"current_range_meters":6000,"station_id":"ce4bhqp2rcd13ifvqhog","pricing_plan_id":"cebpf4jnsgd1na2vs0mg"},{"bike_id":"468755de-5a10-46b7-a431-fd1d15d1e67d","system_id":"levelo_inurba_marseille","lat":43.32367,"lon":5.388836,"is_reserved":false,"is_disabled":false,"rental_uris":{"android":"levelo://app?vid=468755de-5a10-46b7-a431-fd1d15d1e67d","ios":"levelo://app?vid=468755de-5a10-46b7-a431-fd1d15d1e67d"},"vehicle_type_id":"4","last_reported":1716620812,"current_range_meters":7600,"station_id":"ce4bhqp2rcd13ifvqhog","pricing_plan_id":"cebpf4jnsgd1na2vs0mg"},{"bike_id":"418e94cd-3484-4584-a11f-e9dc130a9122","system_id":"levelo_inurba_marseille","lat":43.32367,"lon":5.388836,"is_reserved":false,"is_disabled":false,"rental_uris":{"android":"levelo://app?vid=418e94cd-3484-4584-a11f-e9dc130a9122","ios":"levelo://app?vid=418e94cd-3484-4584-a11f-e9dc130a9122"},"vehicle_type_id":"4","last_reported":1716620812,"current_range_meters":14400,"station_id":"ce4bhqp2rcd13ifvqhog","pricing_plan_id":"cebpf4jnsgd1na2vs0mg"},{"bike_id":"e92e25e1-e223-4671-8f1d-779fda31ecaa","system_id":"levelo_inurba_marseille","lat":43.311146,"lon":5.393453,"is_reserved":false,"is_disabled":false,"rental_uris":{"android":"levelo://app?vid=e92e25e1-e223-4671-8f1d-779fda31ecaa","ios":"levelo://app?vid=e92e25e1-e223-4671-8f1d-779fda31ecaa"},"vehicle_type_id":"4","last_reported":1716620812,"current_range_meters":17200,"station_id":"","pricing_plan_id":"cebpf4jnsgd1na2vs0mg"},{"bike_id":"f265d22e-41c2-4cbf-8c0e-ab5e506a4c2a","system_id":"levelo_inurba_marseille","lat":43.292749,"lon":5.368402,"is_reserved":false,"is_disabled":false,"rental_uris":{"android":"levelo://app?vid=f265d22e-41c2-4cbf-8c0e-ab5e506a4c2a","ios":"levelo://app?vid=f265d22e-41c2-4cbf-8c0e-ab5e506a4c2a"},"vehicle_type_id":"4","last_reported":1716620812,"current_range_meters":25600,"station_id":"ce4bhbp2rcd13ifvqesg","pricing_plan_id":"cebpf4jnsgd1na2vs0mg"},{"bike_id":"825e9d5e-1e56-4abb-9ef1-9d422f5c3ebe","system_id":"levelo_inurba_marseille","lat":43.292749,"lon":5.368402,"is_reserved":false,"is_disabled":false,"rental_uris":{"android":"levelo://app?vid=825e9d5e-1e56-4abb-9ef1-9d422f5c3ebe","ios":"levelo://app?vid=825e9d5e-1e56-4abb-9ef1-9d422f5c3ebe"},"vehicle_type_id":"4","last_reported":1716620812,"current_range_meters":19600,"station_id":"ce4bhbp2rcd13ifvqesg","pricing_plan_id":"cebpf4jnsgd1na2vs0mg"},{"bike_id":"5c3f1cd4-228e-4fbc-afd8-b475d9775af7","system_id":"levelo_inurba_marseille","lat":43.292749,"lon":5.368402,"is_reserved":false,"is_disabled":false,"rental_uris":{"android":"levelo://app?vid=5c3f1cd4-228e-4fbc-afd8-b475d9775af7","ios":"levelo://app?vid=5c3f1cd4-228e-4fbc-afd8-b475d9775af7"},"vehicle_type_id":"4","last_reported":1716620812,"current_range_meters":24800,"station_id":"ce4bhbp2rcd13ifvqesg","pricing_plan_id":"cebpf4jnsgd1na2vs0mg"},{"bike_id":"139fb4ae-6f2d-4919-970d-e35887fcdfdb","system_id":"levelo_inurba_marseille","lat":43.293009,"lon":5.374584,"is_reserved":false,"is_disabled":false,"rental_uris":{"android":"levelo://app?vid=139fb4ae-6f2d-4919-970d-e35887fcdfdb","ios":"levelo://app?vid=139fb4ae-6f2d-4919-970d-e35887fcdfdb"},"vehicle_type_id":"4","last_reported":1716620812,"current_range_meters":0,"station_id":"ce4bgi12rcd13ifvqb70","pricing_plan_id":"cebpf4jnsgd1na2vs0mg"},{"bike_id":"78af390e-b926-4437-9cb2-f821a08786b4","system_id":"levelo_inurba_marseille","lat":43.305994,"lon":5.393687,"is_reserved":false,"is_disabled":false,"rental_uris":{"android":"levelo://app?vid=78af390e-b926-4437-9cb2-f821a08786b4","ios":"levelo://app?vid=78af390e-b926-4437-9cb2-f821a08786b4"},"vehicle_type_id":"4","last_reported":1716620812,"current_range_meters":4000,"station_id":"ce4bh0p2rcd13ifvqd80","pricing_plan_id":"cebpf4jnsgd1na2vs0mg"},{"bike_id":"4069f780-1419-4360-8ec3-0eada2873849","system_id":"levelo_inurba_marseille","lat":43.305994,"lon":5.393687,"is_reserved":false,"is_disabled":false,"rental_uris":{"android":"levelo://app?vid=4069f780-1419-4360-8ec3-0eada2873849","ios":"levelo://app?vid=4069f780-1419-4360-8ec3-0eada2873849"},"vehicle_type_id":"4","last_reported":1716620812,"current_range_meters":30800,"station_id":"ce4bh0p2rcd13ifvqd80","pricing_plan_id":"cebpf4jnsgd1na2vs0mg"},{"bike_id":"cfc9f110-33fb-40ab-afb3-9280166ed474","system_id":"levelo_inurba_marseille","lat":43.305994,"lon":5.393687,"is_reserved":false,"is_disabled":false,"rental_uris":{"android":"levelo://app?vid=cfc9f110-33fb-40ab-afb3-9280166ed474","ios":"levelo://app?vid=cfc9f110-33fb-40ab-afb3-9280166ed474"},"vehicle_type_id":"4","last_reported":1716620812,"current_range_meters":16800,"station_id":"ce4bh0p2rcd13ifvqd80","pricing_plan_id":"cebpf4jnsgd1na2vs0mg"},{"bike_id":"ec4c0185-e8f3-443e-9d75-85a086bd66e3","system_id":"levelo_inurba_marseille","lat":43.305994,"lon":5.393687,"is_reserved":false,"is_disabled":false,"rental_uris":{"android":"levelo://app?vid=ec4c0185-e8f3-443e-9d75-85a086bd66e3","ios":"levelo://app?vid=ec4c0185-e8f3-443e-9d75-85a086bd66e3"},"vehicle_type_id":"4","last_reported":1716620812,"current_range_meters":4000,"station_id":"ce4bh0p2rcd13ifvqd80","pricing_plan_id":"cebpf4jnsgd1na2vs0mg"},{"bike_id":"5cc2e57f-26a3-49b1-a41f-0e758cdc490d","system_id":"levelo_inurba_marseille","lat":43.293009,"lon":5.374584,"is_reserved":false,"is_disabled":false,"rental_uris":{"android":"levelo://app?vid=5cc2e57f-26a3-49b1-a41f-0e758cdc490d","ios":"levelo://app?vid=5cc2e57f-26a3-49b1-a41f-0e758cdc490d"},"vehicle_type_id":"4","last_reported":1716620812,"current_range_meters":30400,"station_id":"ce4bgi12rcd13ifvqb70","pricing_plan_id":"cebpf4jnsgd1na2vs0mg"},{"bike_id":"b605c0a6-2aeb-4870-935b-1a09e2aab92b","system_id":"levelo_inurba_marseille","lat":43.303002,"lon":5.392142,"is_reserved":false,"is_disabled":false,"rental_uris":{"android":"levelo://app?vid=b605c0a6-2aeb-4870-935b-1a09e2aab92b","ios":"levelo://app?vid=b605c0a6-2aeb-4870-935b-1a09e2aab92b"},"vehicle_type_id":"4","last_reported":1716620812,"current_range_meters":17600,"station_id":"ce4bgkh2rcd13ifvqbk0","pricing_plan_id":"cebpf4jnsgd1na2vs0mg"},{"bike_id":"f403de37-35b9-4dc4-8cb5-87c278b02f1b","system_id":"levelo_inurba_marseille","lat":43.302992,"lon":5.392136,"is_reserved":false,"is_disabled":false,"rental_uris":{"android":"levelo://app?vid=f403de37-35b9-4dc4-8cb5-87c278b02f1b","ios":"levelo://app?vid=f403de37-35b9-4dc4-8cb5-87c278b02f1b"},"vehicle_type_id":"4","last_reported":1716620812,"current_range_meters":18400,"station_id":"ce4bgkh2rcd13ifvqbk0","pricing_plan_id":"cebpf4jnsgd1na2vs0mg"},{"bike_id":"a158489b-45fd-4a19-978f-6deec0fa9061","system_id":"levelo_inurba_marseille","lat":43.29363,"lon":5.37825,"is_reserved":false,"is_disabled":false,"rental_uris":{"android":"levelo://app?vid=a158489b-45fd-4a19-978f-6deec0fa9061","ios":"levelo://app?vid=a158489b-45fd-4a19-978f-6deec0fa9061"},"vehicle_type_id":"4","last_reported":1716620812,"current_range_meters":16400,"station_id":"ce4bgjh2rcd13ifvqbf0","pricing_plan_id":"cebpf4jnsgd1na2vs0mg"},{"bike_id":"54ebf362-d02b-46ae-b1b2-2aaec852095e","system_id":"levelo_inurba_marseille","lat":43.2936,"lon":5.37835,"is_reserved":false,"is_disabled":false,"rental_uris":{"android":"levelo://app?vid=54ebf362-d02b-46ae-b1b2-2aaec852095e","ios":"levelo://app?vid=54ebf362-d02b-46ae-b1b2-2aaec852095e"},"vehicle_type_id":"4","last_reported":1716620812,"current_range_meters":26800,"station_id":"ce4bgjh2rcd13ifvqbf0","pricing_plan_id":"cebpf4jnsgd1na2vs0mg"},{"bike_id":"bef8f182-fc29-475b-a342-307292db7fa5","system_id":"levelo_inurba_marseille","lat":43.292311,"lon":5.360731,"is_reserved":false,"is_disabled":false,"rental_uris":{"android":"levelo://app?vid=bef8f182-fc29-475b-a342-307292db7fa5","ios":"levelo://app?vid=bef8f182-fc29-475b-a342-307292db7fa5"},"vehicle_type_id":"4","last_reported":1716620812,"current_range_meters":24800,"station_id":"ce4bhbh2rcd13ifvqeqg","pricing_plan_id":"cebpf4jnsgd1na2vs0mg"},{"bike_id":"23f79f2d-e349-413b-ae78-c3b7f633e079","system_id":"levelo_inurba_marseille","lat":43.3008,"lon":5.39097,"is_reserved":false,"is_disabled":false,"rental_uris":{"android":"levelo://app?vid=23f79f2d-e349-413b-ae78-c3b7f633e079","ios":"levelo://app?vid=23f79f2d-e349-413b-ae78-c3b7f633e079"},"vehicle_type_id":"4","last_reported":1716620812,"current_range_meters":16000,"station_id":"ce4bh192rcd13ifvqdb0","pricing_plan_id":"cebpf4jnsgd1na2vs0mg"},{"bike_id":"3f70dd04-182c-472d-a157-813d4033137d","system_id":"levelo_inurba_marseille","lat":43.291675,"lon":5.371583,"is_reserved":false,"is_disabled":false,"rental_uris":{"android":"levelo://app?vid=3f70dd04-182c-472d-a157-813d4033137d","ios":"levelo://app?vid=3f70dd04-182c-472d-a157-813d4033137d"},"vehicle_type_id":"4","last_reported":1716620812,"current_range_meters":22400,"station_id":"ce4bha92rcd13ifvqeh0","pricing_plan_id":"cebpf4jnsgd1na2vs0mg"},{"bike_id":"eefe2cf0-06c9-4eda-94a3-d9445a8ec588","system_id":"levelo_inurba_marseille","lat":43.29169,"lon":5.371499,"is_reserved":false,"is_disabled":false,"rental_uris":{"android":"levelo://app?vid=eefe2cf0-06c9-4eda-94a3-d9445a8ec588","ios":"levelo://app?vid=eefe2cf0-06c9-4eda-94a3-d9445a8ec588"},"vehicle_type_id":"4","last_reported":1716620812,"current_range_meters":22400,"station_id":"ce4bha92rcd13ifvqeh0","pricing_plan_id":"cebpf4jnsgd1na2vs0mg"},{"bike_id":"677d7e85-b910-4901-9077-7c23e009224a","system_id":"levelo_inurba_marseille","lat":43.298764,"lon":5.388973,"is_reserved":false,"is_disabled":false,"rental_uris":{"android":"levelo://app?vid=677d7e85-b910-4901-9077-7c23e009224a","ios":"levelo://app?vid=677d7e85-b910-4901-9077-7c23e009224a"},"vehicle_type_id":"4","last_reported":1716620812,"current_range_meters":0,"station_id":"ce4bh392rcd13ifvqdl0","pricing_plan_id":"cebpf4jnsgd1na2vs0mg"},{"bike_id":"2efb71b7-77a2-4d3d-803e-8b215b94a634","system_id":"levelo_inurba_marseille","lat":43.291671,"lon":5.371575,"is_reserved":false,"is_disabled":false,"rental_uris":{"android":"levelo://app?vid=2efb71b7-77a2-4d3d-803e-8b215b94a634","ios":"levelo://app?vid=2efb71b7-77a2-4d3d-803e-8b215b94a634"},"vehicle_type_id":"4","last_reported":1716620812,"current_range_meters":23600,"station_id":"ce4bha92rcd13ifvqeh0","pricing_plan_id":"cebpf4jnsgd1na2vs0mg"},{"bike_id":"51fd34ec-0e3f-4187-9bea-ccf8b28391c9","system_id":"levelo_inurba_marseille","lat":43.291675,"lon":5.371583,"is_reserved":false,"is_disabled":false,"rental_uris":{"android":"levelo://app?vid=51fd34ec-0e3f-4187-9bea-ccf8b28391c9","ios":"levelo://app?vid=51fd34ec-0e3f-4187-9bea-ccf8b28391c9"},"vehicle_type_id":"4","last_reported":1716620812,"current_range_meters":30800,"station_id":"ce4bha92rcd13ifvqeh0","pricing_plan_id":"cebpf4jnsgd1na2vs0mg"},{"bike_id":"bb2bc7d0-6121-4cbc-878b-9160d133dac4","system_id":"levelo_inurba_marseille","lat":43.291671,"lon":5.371575,"is_reserved":false,"is_disabled":false,"rental_uris":{"android":"levelo://app?vid=bb2bc7d0-6121-4cbc-878b-9160d133dac4","ios":"levelo://app?vid=bb2bc7d0-6121-4cbc-878b-9160d133dac4"},"vehicle_type_id":"4","last_reported":1716620812,"current_range_meters":22400,"station_id":"ce4bha92rcd13ifvqeh0","pricing_plan_id":"cebpf4jnsgd1na2vs0mg"},{"bike_id":"409bb9cc-0757-4469-8d45-c70a57d20b6f","system_id":"levelo_inurba_marseille","lat":43.291675,"lon":5.371583,"is_reserved":false,"is_disabled":false,"rental_uris":{"android":"levelo://app?vid=409bb9cc-0757-4469-8d45-c70a57d20b6f","ios":"levelo://app?vid=409bb9cc-0757-4469-8d45-c70a57d20b6f"},"vehicle_type_id":"4","last_reported":1716620812,"current_range_meters":20400,"station_id":"ce4bha92rcd13ifvqeh0","pricing_plan_id":"cebpf4jnsgd1na2vs0mg"},{"bike_id":"35809d7a-11e3-4f60-bd07-3768f16d2180","system_id":"levelo_inurba_marseille","lat":43.291675,"lon":5.371583,"is_reserved":false,"is_disabled":false,"rental_uris":{"android":"levelo://app?vid=35809d7a-11e3-4f60-bd07-3768f16d2180","ios":"levelo://app?vid=35809d7a-11e3-4f60-bd07-3768f16d2180"},"vehicle_type_id":"4","last_reported":1716620812,"current_range_meters":5600,"station_id":"ce4bha92rcd13ifvqeh0","pricing_plan_id":"cebpf4jnsgd1na2vs0mg"},{"bike_id":"f0f19433-8de6-43d7-adfd-f73ce6c0543f","system_id":"levelo_inurba_marseille","lat":43.30881,"lon":5.3963,"is_reserved":false,"is_disabled":false,"rental_uris":{"android":"levelo://app?vid=f0f19433-8de6-43d7-adfd-f73ce6c0543f","ios":"levelo://app?vid=f0f19433-8de6-43d7-adfd-f73ce6c0543f"},"vehicle_type_id":"4","last_reported":1716620812,"current_range_meters":30800,"station_id":"ce4bh012rcd13ifvqcv0","pricing_plan_id":"cebpf4jnsgd1na2vs0mg"},{"bike_id":"e357b7d1-79be-4dd6-837c-37db48bfcc05","system_id":"levelo_inurba_marseille","lat":43.30886,"lon":5.39634,"is_reserved":false,"is_disabled":false,"rental_uris":{"android":"levelo://app?vid=e357b7d1-79be-4dd6-837c-37db48bfcc05","ios":"levelo://app?vid=e357b7d1-79be-4dd6-837c-37db48bfcc05"},"vehicle_type_id":"4","last_reported":1716620812,"current_range_meters":31200,"station_id":"ce4bh012rcd13ifvqcv0","pricing_plan_id":"cebpf4jnsgd1na2vs0mg"},{"bike_id":"ec59b6d1-6bfd-408a-9870-098c9360e55d","system_id":"levelo_inurba_marseille","lat":43.309038,"lon":5.396546,"is_reserved":false,"is_disabled":false,"rental_uris":{"android":"levelo://app?vid=ec59b6d1-6bfd-408a-9870-098c9360e55d","ios":"levelo://app?vid=ec59b6d1-6bfd-408a-9870-098c9360e55d"},"vehicle_type_id":"4","last_reported":1716620812,"current_range_meters":24400,"station_id":"ce4bh012rcd13ifvqcv0","pricing_plan_id":"cebpf4jnsgd1na2vs0mg"},{"bike_id":"ae75661b-db85-4c01-9d6a-02a6f1845bc7","system_id":"levelo_inurba_marseille","lat":43.309038,"lon":5.396546,"is_reserved":false,"is_disabled":false,"rental_uris":{"android":"levelo://app?vid=ae75661b-db85-4c01-9d6a-02a6f1845bc7","ios":"levelo://app?vid=ae75661b-db85-4c01-9d6a-02a6f1845bc7"},"vehicle_type_id":"4","last_reported":1716620812,"current_range_meters":7600,"station_id":"ce4bh012rcd13ifvqcv0","pricing_plan_id":"cebpf4jnsgd1na2vs0mg"},{"bike_id":"23b2c6bb-9e8b-4dc0-af95-a4d4c60b6804","system_id":"levelo_inurba_marseille","lat":43.30871,"lon":5.39634,"is_reserved":false,"is_disabled":false,"rental_uris":{"android":"levelo://app?vid=23b2c6bb-9e8b-4dc0-af95-a4d4c60b6804","ios":"levelo://app?vid=23b2c6bb-9e8b-4dc0-af95-a4d4c60b6804"},"vehicle_type_id":"4","last_reported":1716620812,"current_range_meters":10400,"station_id":"ce4bh012rcd13ifvqcv0","pricing_plan_id":"cebpf4jnsgd1na2vs0mg"},{"bike_id":"98d087a9-5b75-4322-9783-8d994b2eb7f6","system_id":"levelo_inurba_marseille","lat":43.309038,"lon":5.396546,"is_reserved":false,"is_disabled":false,"rental_uris":{"android":"levelo://app?vid=98d087a9-5b75-4322-9783-8d994b2eb7f6","ios":"levelo://app?vid=98d087a9-5b75-4322-9783-8d994b2eb7f6"},"vehicle_type_id":"4","last_reported":1716620812,"current_range_meters":18400,"station_id":"ce4bh012rcd13ifvqcv0","pricing_plan_id":"cebpf4jnsgd1na2vs0mg"},{"bike_id":"a183f657-e1cc-4d29-b80d-097b4738790e","system_id":"levelo_inurba_marseille","lat":43.309038,"lon":5.396546,"is_reserved":false,"is_disabled":false,"rental_uris":{"android":"levelo://app?vid=a183f657-e1cc-4d29-b80d-097b4738790e","ios":"levelo://app?vid=a183f657-e1cc-4d29-b80d-097b4738790e"},"vehicle_type_id":"4","last_reported":1716620812,"current_range_meters":18800,"station_id":"ce4bh012rcd13ifvqcv0","pricing_plan_id":"cebpf4jnsgd1na2vs0mg"},{"bike_id":"0d614f45-4a3e-4c77-b35b-61ac04329d09","system_id":"levelo_inurba_marseille","lat":43.313291,"lon":5.396838,"is_reserved":false,"is_disabled":false,"rental_uris":{"android":"levelo://app?vid=0d614f45-4a3e-4c77-b35b-61ac04329d09","ios":"levelo://app?vid=0d614f45-4a3e-4c77-b35b-61ac04329d09"},"vehicle_type_id":"4","last_reported":1716620812,"current_range_meters":28000,"station_id":"ce4bgvp2rcd13ifvqcu0","pricing_plan_id":"cebpf4jnsgd1na2vs0mg"},{"bike_id":"964b3eca-d91c-4ba9-bf0a-62398cc69aad","system_id":"levelo_inurba_marseille","lat":43.309038,"lon":5.396546,"is_reserved":false,"is_disabled":false,"rental_uris":{"android":"levelo://app?vid=964b3eca-d91c-4ba9-bf0a-62398cc69aad","ios":"levelo://app?vid=964b3eca-d91c-4ba9-bf0a-62398cc69aad"},"vehicle_type_id":"4","last_reported":1716620812,"current_range_meters":20400,"station_id":"ce4bh012rcd13ifvqcv0","pricing_plan_id":"cebpf4jnsgd1na2vs0mg"},{"bike_id":"988a5247-a39d-4b0c-9db7-a00012c2d01d","system_id":"levelo_inurba_marseille","lat":43.308874,"lon":5.396407,"is_reserved":false,"is_disabled":false,"rental_uris":{"android":"levelo://app?vid=988a5247-a39d-4b0c-9db7-a00012c2d01d","ios":"levelo://app?vid=988a5247-a39d-4b0c-9db7-a00012c2d01d"},"vehicle_type_id":"4","last_reported":1716620812,"current_range_meters":13600,"station_id":"ce4bh012rcd13ifvqcv0","pricing_plan_id":"cebpf4jnsgd1na2vs0mg"},{"bike_id":"59decc30-6395-4e93-80e8-909dc76fc4bb","system_id":"levelo_inurba_marseille","lat":43.309038,"lon":5.396546,"is_reserved":false,"is_disabled":false,"rental_uris":{"android":"levelo://app?vid=59decc30-6395-4e93-80e8-909dc76fc4bb","ios":"levelo://app?vid=59decc30-6395-4e93-80e8-909dc76fc4bb"},"vehicle_type_id":"4","last_reported":1716620812,"current_range_meters":12800,"station_id":"ce4bh012rcd13ifvqcv0","pricing_plan_id":"cebpf4jnsgd1na2vs0mg"},{"bike_id":"9f4d8e70-b0f0-4f43-bfcd-3052910ad99e","system_id":"levelo_inurba_marseille","lat":43.309038,"lon":5.396546,"is_reserved":false,"is_disabled":false,"rental_uris":{"android":"levelo://app?vid=9f4d8e70-b0f0-4f43-bfcd-3052910ad99e","ios":"levelo://app?vid=9f4d8e70-b0f0-4f43-bfcd-3052910ad99e"},"vehicle_type_id":"4","last_reported":1716620812,"current_range_meters":24400,"station_id":"ce4bh012rcd13ifvqcv0","pricing_plan_id":"cebpf4jnsgd1na2vs0mg"},{"bike_id":"4c9562dd-0b77-4172-8d6c-9b2616517abe","system_id":"levelo_inurba_marseille","lat":43.313291,"lon":5.396838,"is_reserved":false,"is_disabled":false,"rental_uris":{"android":"levelo://app?vid=4c9562dd-0b77-4172-8d6c-9b2616517abe","ios":"levelo://app?vid=4c9562dd-0b77-4172-8d6c-9b2616517abe"},"vehicle_type_id":"4","last_reported":1716620812,"current_range_meters":21200,"station_id":"ce4bgvp2rcd13ifvqcu0","pricing_plan_id":"cebpf4jnsgd1na2vs0mg"},{"bike_id":"bd9e45e2-54dd-4637-b3c1-2ad580b97e94","system_id":"levelo_inurba_marseille","lat":43.30868,"lon":5.39638,"is_reserved":false,"is_disabled":false,"rental_uris":{"android":"levelo://app?vid=bd9e45e2-54dd-4637-b3c1-2ad580b97e94","ios":"levelo://app?vid=bd9e45e2-54dd-4637-b3c1-2ad580b97e94"},"vehicle_type_id":"4","last_reported":1716620812,"current_range_meters":18400,"station_id":"ce4bh012rcd13ifvqcv0","pricing_plan_id":"cebpf4jnsgd1na2vs0mg"},{"bike_id":"4a9a19c5-6f52-41dd-9046-5b4c617f43a2","system_id":"levelo_inurba_marseille","lat":43.313291,"lon":5.396838,"is_reserved":false,"is_disabled":false,"rental_uris":{"android":"levelo://app?vid=4a9a19c5-6f52-41dd-9046-5b4c617f43a2","ios":"levelo://app?vid=4a9a19c5-6f52-41dd-9046-5b4c617f43a2"},"vehicle_type_id":"4","last_reported":1716620812,"current_range_meters":18400,"station_id":"ce4bgvp2rcd13ifvqcu0","pricing_plan_id":"cebpf4jnsgd1na2vs0mg"},{"bike_id":"7a08653e-86cf-4cd9-83cc-078e3c4369ed","system_id":"levelo_inurba_marseille","lat":43.309047,"lon":5.396551,"is_reserved":false,"is_disabled":false,"rental_uris":{"android":"levelo://app?vid=7a08653e-86cf-4cd9-83cc-078e3c4369ed","ios":"levelo://app?vid=7a08653e-86cf-4cd9-83cc-078e3c4369ed"},"vehicle_type_id":"4","last_reported":1716620812,"current_range_meters":27600,"station_id":"ce4bh012rcd13ifvqcv0","pricing_plan_id":"cebpf4jnsgd1na2vs0mg"},{"bike_id":"2e858605-2a8c-4a34-adbf-65ab3dff9cb8","system_id":"levelo_inurba_marseille","lat":43.309038,"lon":5.396546,"is_reserved":false,"is_disabled":false,"rental_uris":{"android":"levelo://app?vid=2e858605-2a8c-4a34-adbf-65ab3dff9cb8","ios":"levelo://app?vid=2e858605-2a8c-4a34-adbf-65ab3dff9cb8"},"vehicle_type_id":"4","last_reported":1716620812,"current_range_meters":31200,"station_id":"ce4bh012rcd13ifvqcv0","pricing_plan_id":"cebpf4jnsgd1na2vs0mg"},{"bike_id":"cb592116-3aba-439c-9b7a-5b9ff6e05e34","system_id":"levelo_inurba_marseille","lat":43.309038,"lon":5.396546,"is_reserved":false,"is_disabled":false,"rental_uris":{"android":"levelo://app?vid=cb592116-3aba-439c-9b7a-5b9ff6e05e34","ios":"levelo://app?vid=cb592116-3aba-439c-9b7a-5b9ff6e05e34"},"vehicle_type_id":"4","last_reported":1716620812,"current_range_meters":15200,"station_id":"ce4bh012rcd13ifvqcv0","pricing_plan_id":"cebpf4jnsgd1na2vs0mg"},{"bike_id":"6341570f-fcef-49d8-bca1-aaa10c839958","system_id":"levelo_inurba_marseille","lat":43.308855,"lon":5.396444,"is_reserved":false,"is_disabled":false,"rental_uris":{"android":"levelo://app?vid=6341570f-fcef-49d8-bca1-aaa10c839958","ios":"levelo://app?vid=6341570f-fcef-49d8-bca1-aaa10c839958"},"vehicle_type_id":"4","last_reported":1716620812,"current_range_meters":15600,"station_id":"ce4bh012rcd13ifvqcv0","pricing_plan_id":"cebpf4jnsgd1na2vs0mg"},{"bike_id":"fe3b9eac-46b8-440b-84d5-bc6d3708d814","system_id":"levelo_inurba_marseille","lat":43.292005,"lon":5.357875,"is_reserved":false,"is_disabled":false,"rental_uris":{"android":"levelo://app?vid=fe3b9eac-46b8-440b-84d5-bc6d3708d814","ios":"levelo://app?vid=fe3b9eac-46b8-440b-84d5-bc6d3708d814"},"vehicle_type_id":"4","last_reported":1716620812,"current_range_meters":30800,"station_id":"ce4bhb12rcd13ifvqel0","pricing_plan_id":"cebpf4jnsgd1na2vs0mg"},{"bike_id":"b3ce6dfb-e622-4323-bb51-91058d490c6e","system_id":"levelo_inurba_marseille","lat":43.308857,"lon":5.396448,"is_reserved":false,"is_disabled":false,"rental_uris":{"android":"levelo://app?vid=b3ce6dfb-e622-4323-bb51-91058d490c6e","ios":"levelo://app?vid=b3ce6dfb-e622-4323-bb51-91058d490c6e"},"vehicle_type_id":"4","last_reported":1716620812,"current_range_meters":15200,"station_id":"ce4bh012rcd13ifvqcv0","pricing_plan_id":"cebpf4jnsgd1na2vs0mg"},{"bike_id":"1af39281-77af-4f10-996e-d5575c5addd4","system_id":"levelo_inurba_marseille","lat":43.313291,"lon":5.396838,"is_reserved":false,"is_disabled":false,"rental_uris":{"android":"levelo://app?vid=1af39281-77af-4f10-996e-d5575c5addd4","ios":"levelo://app?vid=1af39281-77af-4f10-996e-d5575c5addd4"},"vehicle_type_id":"4","last_reported":1716620812,"current_range_meters":28800,"station_id":"ce4bgvp2rcd13ifvqcu0","pricing_plan_id":"cebpf4jnsgd1na2vs0mg"},{"bike_id":"ade796d9-2a29-47b0-a115-1ed1388d8f3d","system_id":"levelo_inurba_marseille","lat":43.313291,"lon":5.396838,"is_reserved":false,"is_disabled":false,"rental_uris":{"android":"levelo://app?vid=ade796d9-2a29-47b0-a115-1ed1388d8f3d","ios":"levelo://app?vid=ade796d9-2a29-47b0-a115-1ed1388d8f3d"},"vehicle_type_id":"4","last_reported":1716620812,"current_range_meters":31200,"station_id":"ce4bgvp2rcd13ifvqcu0","pricing_plan_id":"cebpf4jnsgd1na2vs0mg"},{"bike_id":"d7790d29-c803-44cb-8ba4-b02d65e22b32","system_id":"levelo_inurba_marseille","lat":43.309047,"lon":5.396551,"is_reserved":false,"is_disabled":false,"rental_uris":{"android":"levelo://app?vid=d7790d29-c803-44cb-8ba4-b02d65e22b32","ios":"levelo://app?vid=d7790d29-c803-44cb-8ba4-b02d65e22b32"},"vehicle_type_id":"4","last_reported":1716620812,"current_range_meters":30000,"station_id":"ce4bh012rcd13ifvqcv0","pricing_plan_id":"cebpf4jnsgd1na2vs0mg"},