{"last_updated":1733379287,"ttl":60,"version":"2.2","data":{"bikes":[{"bike_id":"ded4ccce-ef33-4150-be34-864d499fb5c3","system_id":"levelo_inurba_marseille","lat":43.30543,"lon":5.36558,"is_reserved":false,"is_disabled":false,"rental_uris":{"android":"levelo://app?vid=ded4ccce-ef33-4150-be34-864d499fb5c3","ios":"levelo://app?vid=ded4ccce-ef33-4150-be34-864d499fb5c3"},"vehicle_type_id":"4","last_reported":1733379287,"current_range_meters":16000,"station_id":"ce4bgs12rcd13ifvqcag","pricing_plan_id":"cebpf4jnsgd1na2vs0mg"},{"bike_id":"a91fa1e8-32b4-471d-9ab1-72d0db7092c4","system_id":"levelo_inurba_marseille","lat":43.27314,"lon":5.42313,"is_reserved":false,"is_disabled":false,"rental_uris":{"android":"levelo://app?vid=a91fa1e8-32b4-471d-9ab1-72d0db7092c4","ios":"levelo://app?vid=a91fa1e8-32b4-471d-9ab1-72d0db7092c4"},"vehicle_type_id":"4","last_reported":1733379287,"current_range_meters":36400,"station_id":"ce4bhm92rcd13ifvqglg","pricing_plan_id":"cebpf4jnsgd1na2vs0mg"},{"bike_id":"a97ff103-80f4-4af0-ab5e-92bafcd223d0","system_id":"levelo_inurba_marseille","lat":43.27916,"lon":5.39578,"is_reserved":false,"is_disabled":false,"rental_uris":{"android":"levelo://app?vid=a97ff103-80f4-4af0-ab5e-92bafcd223d0","ios":"levelo://app?vid=a97ff103-80f4-4af0-ab5e-92bafcd223d0"},"vehicle_type_id":"4","last_reported":1733379287,"current_range_meters":38000,"station_id":"ce4bhf92rcd13ifvqf40","pricing_plan_id":"cebpf4jnsgd1na2vs0mg"},{"bike_id":"df479c2c-35ac-44ad-b9d6-81c89ed769ce","system_id":"levelo_inurba_marseille","lat":43.29699,"lon":5.37054,"is_reserved":false,"is_disabled":true,"rental_uris":{"android":"levelo://app?vid=df479c2c-35ac-44ad-b9d6-81c89ed769ce","ios":"levelo://app?vid=df479c2c-35ac-44ad-b9d6-81c89ed769ce"},"vehicle_type_id":"4","last_reported":1733379287,"current_range_meters":0,"station_id":"","pricing_plan_id":"cebpf4jnsgd1na2vs0mg"},{"bike_id":"8e029eaf-e104-4c5d-858d-6cd39de73d09","system_id":"levelo_inurba_marseille","lat":43.24169,"lon":5.36405,"is_reserved":false,"is_disabled":false,"rental_uris":{"android":"levelo://app?vid=8e029eaf-e104-4c5d-858d-6cd39de73d09","ios":"levelo://app?vid=8e029eaf-e104-4c5d-858d-6cd39de73d09"},"vehicle_type_id":"4","last_reported":1733379287,"current_range_meters":7200,"station_id":"cpo36qri1sfpv3e86is0","pricing_plan_id":"cebpf4jnsgd1na2vs0mg"},{"bike_id":"e49ee992-5b21-4aad-a650-dd206eac45c1","system_id":"levelo_inurba_marseille","lat":43.28668,"lon":5.38672,"is_reserved":false,"is_disabled":false,"rental_uris":{"android":"levelo://app?vid=e49ee992-5b21-4aad-a650-dd206eac45c1","ios":"levelo://app?vid=e49ee992-5b21-4aad-a650-dd206eac45c1"},"vehicle_type_id":"4","last_reported":1733379287,"current_range_meters":37600,"station_id":"ce4bh492rcd13ifvqdug","pricing_plan_id":"cebpf4jnsgd1na2vs0mg"},{"bike_id":"fd85f247-bc9f-4512-8957-89e7641ccdee","system_id":"levelo_inurba_marseille","lat":43.32476,"lon":5.36575,"is_reserved":false,"is_disabled":false,"rental_uris":{"android":"levelo://app?vid=fd85f247-bc9f-4512-8957-89e7641ccdee","ios":"levelo://app?vid=fd85f247-bc9f-4512-8957-89e7641ccdee"},"vehicle_type_id":"4","last_reported":1733379287,"current_range_meters":31200,"station_id":"ce4bhs12rcd13ifvqhvg","pricing_plan_id":"cebpf4jnsgd1na2vs0mg"},{"bike_id":"2b3abd02-dc37-4d98-8425-83c48f853bb9","system_id":"levelo_inurba_marseille","lat":43.27811,"lon":5.40711,"is_reserved":false,"is_disabled":false,"rental_uris":{"android":"levelo://app?vid=2b3abd02-dc37-4d98-8425-83c48f853bb9","ios":"levelo://app?vid=2b3abd02-dc37-4d98-8425-83c48f853bb9"},"vehicle_type_id":"4","last_reported":1733379287,"current_range_meters":29600,"station_id":"ce4bhnh2rcd13ifvqgtg","pricing_plan_id":"cebpf4jnsgd1na2vs0mg"},{"bike_id":"4f001944-ebd8-4c49-90db-2d6f9239e64d","system_id":"levelo_inurba_marseille","lat":43.26559,"lon":5.37292,"is_reserved":false,"is_disabled":false,"rental_uris":{"android":"levelo://app?vid=4f001944-ebd8-4c49-90db-2d6f9239e64d","ios":"levelo://app?vid=4f001944-ebd8-4c49-90db-2d6f9239e64d"},"vehicle_type_id":"4","last_reported":1733379287,"current_range_meters":12400,"station_id":"ce4bhg12rcd13ifvqf70","pricing_plan_id":"cebpf4jnsgd1na2vs0mg"},{"bike_id":"09016331-8199-4b96-8644-9fffcf138801","system_id":"levelo_inurba_marseille","lat":43.28156,"lon":5.42649,"is_reserved":false,"is_disabled":false,"rental_uris":{"android":"levelo://app?vid=09016331-8199-4b96-8644-9fffcf138801","ios":"levelo://app?vid=09016331-8199-4b96-8644-9fffcf138801"},"vehicle_type_id":"4","last_reported":1733379287,"current_range_meters":14400,"station_id":"ce4bhnh2rcd13ifvqgug","pricing_plan_id":"cebpf4jnsgd1na2vs0mg"},{"bike_id":"b03a6a4e-535b-4e1a-a28b-ae3d5f12709c","system_id":"levelo_inurba_marseille","lat":43.3026,"lon":5.38937,"is_reserved":false,"is_disabled":false,"rental_uris":{"android":"levelo://app?vid=b03a6a4e-535b-4e1a-a28b-ae3d5f12709c","ios":"levelo://app?vid=b03a6a4e-535b-4e1a-a28b-ae3d5f12709c"},"vehicle_type_id":"4","last_reported":1733379287,"current_range_meters":17200,"station_id":"","pricing_plan_id":"cebpf4jnsgd1na2vs0mg"},{"bike_id":"be407bbe-d1ce-48de-8db2-09114af9efd7","system_id":"levelo_inurba_marseille","lat":43.32365,"lon":5.36762,"is_reserved":false,"is_disabled":false,"rental_uris":{"android":"levelo://app?vid=be407bbe-d1ce-48de-8db2-09114af9efd7","ios":"levelo://app?vid=be407bbe-d1ce-48de-8db2-09114af9efd7"},"vehicle_type_id":"4","last_reported":1733379287,"current_range_meters":30400,"station_id":"ce4bhsh2rcd13ifvqi2g","pricing_plan_id":"cebpf4jnsgd1na2vs0mg"},{"bike_id":"2deb87bb-c3ca-431b-995a-86ed2e6ed434","system_id":"levelo_inurba_marseille","lat":43.28398,"lon":5.37519,"is_reserved":false,"is_disabled":false,"rental_uris":{"android":"levelo://app?vid=2deb87bb-c3ca-431b-995a-86ed2e6ed434","ios":"levelo://app?vid=2deb87bb-c3ca-431b-995a-86ed2e6ed434"},"vehicle_type_id":"4","last_reported":1733379287,"current_range_meters":8000,"station_id":"ce4bh412rcd13ifvqds0","pricing_plan_id":"cebpf4jnsgd1na2vs0mg"},{"bike_id":"d15f865a-2215-4241-a130-e2aef5448854","system_id":"levelo_inurba_marseille","lat":43.27615,"lon":5.36112,"is_reserved":false,"is_disabled":false,"rental_uris":{"android":"levelo://app?vid=d15f865a-2215-4241-a130-e2aef5448854","ios":"levelo://app?vid=d15f865a-2215-4241-a130-e2aef5448854"},"vehicle_type_id":"4","last_reported":1733379287,"current_range_meters":35200,"station_id":"ce4bgj92rcd13ifvqbe0","pricing_plan_id":"cebpf4jnsgd1na2vs0mg"},{"bike_id":"9af68dd8-43e3-42f5-baeb-b051cdb8a37f","system_id":"levelo_inurba_marseille","lat":43.284611,"lon":5.358874,"is_reserved":false,"is_disabled":false,"rental_uris":{"android":"levelo://app?vid=9af68dd8-43e3-42f5-baeb-b051cdb8a37f","ios":"levelo://app?vid=9af68dd8-43e3-42f5-baeb-b051cdb8a37f"},"vehicle_type_id":"4","last_reported":1733379287,"current_range_meters":18000,"station_id":"ce4bhah2rcd13ifvqei0","pricing_plan_id":"cebpf4jnsgd1na2vs0mg"},{"bike_id":"8bd642b2-0279-44c7-9ee2-fc3b57332c83","system_id":"levelo_inurba_marseille","lat":43.27455,"lon":5.40073,"is_reserved":false,"is_disabled":true,"rental_uris":{"android":"levelo://app?vid=8bd642b2-0279-44c7-9ee2-fc3b57332c83","ios":"levelo://app?vid=8bd642b2-0279-44c7-9ee2-fc3b57332c83"},"vehicle_type_id":"4","last_reported":1733379287,"current_range_meters":0,"station_id":"","pricing_plan_id":"cebpf4jnsgd1na2vs0mg"},{"bike_id":"e092f375-5b54-4e37-b620-820befc91920","system_id":"levelo_inurba_marseille","lat":43.257274,"lon":5.411093,"is_reserved":false,"is_disabled":false,"rental_uris":{"android":"levelo://app?vid=e092f375-5b54-4e37-b620-820befc91920","ios":"levelo://app?vid=e092f375-5b54-4e37-b620-820befc91920"},"vehicle_type_id":"4","last_reported":1733379287,"current_range_meters":38800,"station_id":"ce4bhkp2rcd13ifvqgd0","pricing_plan_id":"cebpf4jnsgd1na2vs0mg"},{"bike_id":"8b8f980d-c5d7-4b33-9b6a-f0498c43413a","system_id":"levelo_inurba_marseille","lat":43.29919,"lon":5.38139,"is_reserved":false,"is_disabled":false,"rental_uris":{"android":"levelo://app?vid=8b8f980d-c5d7-4b33-9b6a-f0498c43413a","ios":"levelo://app?vid=8b8f980d-c5d7-4b33-9b6a-f0498c43413a"},"vehicle_type_id":"4","last_reported":1733379287,"current_range_meters":26000,"station_id":"ce4bgj12rcd13ifvqbc0","pricing_plan_id":"cebpf4jnsgd1na2vs0mg"},{"bike_id":"a38d416c-c733-49a8-b698-89470c0b9587","system_id":"levelo_inurba_marseille","lat":43.30466,"lon":5.37906,"is_reserved":false,"is_disabled":false,"rental_uris":{"android":"levelo://app?vid=a38d416c-c733-49a8-b698-89470c0b9587","ios":"levelo://app?vid=a38d416c-c733-49a8-b698-89470c0b9587"},"vehicle_type_id":"4","last_reported":1733379287,"current_range_meters":10000,"station_id":"ce4bgup2rcd13ifvqcn0","pricing_plan_id":"cebpf4jnsgd1na2vs0mg"},{"bike_id":"2beaa8cc-584c-47bc-90b5-73036e8362a8","system_id":"levelo_inurba_marseille","lat":43.30416,"lon":5.41283,"is_reserved":false,"is_disabled":false,"rental_uris":{"android":"levelo://app?vid=2beaa8cc-584c-47bc-90b5-73036e8362a8","ios":"levelo://app?vid=2beaa8cc-584c-47bc-90b5-73036e8362a8"},"vehicle_type_id":"4","last_reported":1733379287,"current_range_meters":22800,"station_id":"ce4bhop2rcd13ifvqh8g","pricing_plan_id":"cebpf4jnsgd1na2vs0mg"},{"bike_id":"d388679b-ab2a-4818-b7c1-c42d71da239b","system_id":"levelo_inurba_marseille","lat":43.25717,"lon":5.4112,"is_reserved":false,"is_disabled":false,"rental_uris":{"android":"levelo://app?vid=d388679b-ab2a-4818-b7c1-c42d71da239b","ios":"levelo://app?vid=d388679b-ab2a-4818-b7c1-c42d71da239b"},"vehicle_type_id":"4","last_reported":1733379287,"current_range_meters":4000,"station_id":"ce4bhkp2rcd13ifvqgd0","pricing_plan_id":"cebpf4jnsgd1na2vs0mg"},{"bike_id":"1cc0f07d-da32-4337-a111-c49c0dc81e69","system_id":"levelo_inurba_marseille","lat":43.29973,"lon":5.3816,"is_reserved":false,"is_disabled":false,"rental_uris":{"android":"levelo://app?vid=1cc0f07d-da32-4337-a111-c49c0dc81e69","ios":"levelo://app?vid=1cc0f07d-da32-4337-a111-c49c0dc81e69"},"vehicle_type_id":"4","last_reported":1733379287,"current_range_meters":31200,"station_id":"","pricing_plan_id":"cebpf4jnsgd1na2vs0mg"},{"bike_id":"a18b4934-8c0c-4c61-b008-883eebb45560","system_id":"levelo_inurba_marseille","lat":43.23177,"lon":5.3999,"is_reserved":false,"is_disabled":false,"rental_uris":{"android":"levelo://app?vid=a18b4934-8c0c-4c61-b008-883eebb45560","ios":"levelo://app?vid=a18b4934-8c0c-4c61-b008-883eebb45560"},"vehicle_type_id":"4","last_reported":1733379287,"current_range_meters":39200,"station_id":"ce4bhn12rcd13ifvqgqg","pricing_plan_id":"cebpf4jnsgd1na2vs0mg"},{"bike_id":"276dc8d0-d07c-4097-ade0-8d3c2e00a69d","system_id":"levelo_inurba_marseille","lat":43.30981,"lon":5.37527,"is_reserved":false,"is_disabled":true,"rental_uris":{"android":"levelo://app?vid=276dc8d0-d07c-4097-ade0-8d3c2e00a69d","ios":"levelo://app?vid=276dc8d0-d07c-4097-ade0-8d3c2e00a69d"},"vehicle_type_id":"4","last_reported":1733379287,"current_range_meters":0,"station_id":"","pricing_plan_id":"cebpf4jnsgd1na2vs0mg"},{"bike_id":"ca59a84d-615b-4b32-9791-d7f33ba95c21","system_id":"levelo_inurba_marseille","lat":43.27971,"lon":5.38743,"is_reserved":false,"is_disabled":false,"rental_uris":{"android":"levelo://app?vid=ca59a84d-615b-4b32-9791-d7f33ba95c21","ios":"levelo://app?vid=ca59a84d-615b-4b32-9791-d7f33ba95c21"},"vehicle_type_id":"4","last_reported":1733379287,"current_range_meters":36800,"station_id":"ce4bhg12rcd13ifvqf80","pricing_plan_id":"cebpf4jnsgd1na2vs0mg"},{"bike_id":"c529a87f-8cbd-4a8f-adc0-6bfbdfeae49a","system_id":"levelo_inurba_marseille","lat":43.30433,"lon":5.38893,"is_reserved":false,"is_disabled":false,"rental_uris":{"android":"levelo://app?vid=c529a87f-8cbd-4a8f-adc0-6bfbdfeae49a","ios":"levelo://app?vid=c529a87f-8cbd-4a8f-adc0-6bfbdfeae49a"},"vehicle_type_id":"4","last_reported":1733379287,"current_range_meters":38800,"station_id":"ce4bgk12rcd13ifvqbi0","pricing_plan_id":"cebpf4jnsgd1na2vs0mg"},{"bike_id":"28b52837-d828-49e4-b4be-cfbac010c328","system_id":"levelo_inurba_marseille","lat":43.33716,"lon":5.39203,"is_reserved":false,"is_disabled":false,"rental_uris":{"android":"levelo://app?vid=28b52837-d828-49e4-b4be-cfbac010c328","ios":"levelo://app?vid=28b52837-d828-49e4-b4be-cfbac010c328"},"vehicle_type_id":"4","last_reported":1733379287,"current_range_meters":31200,"station_id":"ce4bhr92rcd13ifvqhsg","pricing_plan_id":"cebpf4jnsgd1na2vs0mg"},{"bike_id":"b3f478ac-3b05-4edf-bdbf-76399090f8e9","system_id":"levelo_inurba_marseille","lat":43.29994,"lon":5.37639,"is_reserved":false,"is_disabled":true,"rental_uris":{"android":"levelo://app?vid=b3f478ac-3b05-4edf-bdbf-76399090f8e9","ios":"levelo://app?vid=b3f478ac-3b05-4edf-bdbf-76399090f8e9"},"vehicle_type_id":"4","last_reported":1733379287,"current_range_meters":0,"station_id":"","pricing_plan_id":"cebpf4jnsgd1na2vs0mg"},{"bike_id":"c3587c28-5435-41c6-a9b7-aa468e6b19aa","system_id":"levelo_inurba_marseille","lat":43.29746,"lon":5.37916,"is_reserved":false,"is_disabled":true,"rental_uris":{"android":"levelo://app?vid=c3587c28-5435-41c6-a9b7-aa468e6b19aa","ios":"levelo://app?vid=c3587c28-5435-41c6-a9b7-aa468e6b19aa"},"vehicle_type_id":"4","last_reported":1733379287,"current_range_meters":0,"station_id":"","pricing_plan_id":"cebpf4jnsgd1na2vs0mg"},{"bike_id":"75c4f34a-89f4-4145-a2e2-7dafbc1cdf90","system_id":"levelo_inurba_marseille","lat":43.29012,"lon":5.37258,"is_reserved":false,"is_disabled":true,"rental_uris":{"android":"levelo://app?vid=75c4f34a-89f4-4145-a2e2-7dafbc1cdf90","ios":"levelo://app?vid=75c4f34a-89f4-4145-a2e2-7dafbc1cdf90"},"vehicle_type_id":"4","last_reported":1733379287,"current_range_meters":0,"station_id":"","pricing_plan_id":"cebpf4jnsgd1na2vs0mg"},{"bike_id":"c65db16c-e810-4d3a-bd65-1dac7e477222","system_id":"levelo_inurba_marseille","lat":43.31709,"lon":5.43705,"is_reserved":false,"is_disabled":false,"rental_uris":{"android":"levelo://app?vid=c65db16c-e810-4d3a-bd65-1dac7e477222","ios":"levelo://app?vid=c65db16c-e810-4d3a-bd65-1dac7e477222"},"vehicle_type_id":"4","last_reported":1733379287,"current_range_meters":37600,"station_id":"ce4bhp92rcd13ifvqhcg","pricing_plan_id":"cebpf4jnsgd1na2vs0mg"},{"bike_id":"2055a716-8890-43aa-97b9-7cf5d2d2e20d","system_id":"levelo_inurba_marseille","lat":43.2837,"lon":5.386357,"is_reserved":false,"is_disabled":false,"rental_uris":{"android":"levelo://app?vid=2055a716-8890-43aa-97b9-7cf5d2d2e20d","ios":"levelo://app?vid=2055a716-8890-43aa-97b9-7cf5d2d2e20d"},"vehicle_type_id":"4","last_reported":1733379287,"current_range_meters":38800,"station_id":"ce4bh492rcd13ifvqdvg","pricing_plan_id":"cebpf4jnsgd1na2vs0mg"},{"bike_id":"e8d9fcd3-6c4c-4c2e-a87e-41c5e4dfa6d0","system_id":"levelo_inurba_marseille","lat":43.25438,"lon":5.38158,"is_reserved":false,"is_disabled":true,"rental_uris":{"android":"levelo://app?vid=e8d9fcd3-6c4c-4c2e-a87e-41c5e4dfa6d0","ios":"levelo://app?vid=e8d9fcd3-6c4c-4c2e-a87e-41c5e4dfa6d0"},"vehicle_type_id":"4","last_reported":1733379287,"current_range_meters":0,"station_id":"","pricing_plan_id":"cebpf4jnsgd1na2vs0mg"},{"bike_id":"e7c2b082-ef91-42b1-9ef0-9e4329cee9cb","system_id":"levelo_inurba_marseille","lat":43.2992,"lon":5.40347,"is_reserved":false,"is_disabled":true,"rental_uris":{"android":"levelo://app?vid=e7c2b082-ef91-42b1-9ef0-9e4329cee9cb","ios":"levelo://app?vid=e7c2b082-ef91-42b1-9ef0-9e4329cee9cb"},"vehicle_type_id":"4","last_reported":1733379287,"current_range_meters":0,"station_id":"","pricing_plan_id":"cebpf4jnsgd1na2vs0mg"},{"bike_id":"1193e2de-f4a1-40ed-9859-1770abcb2343","system_id":"levelo_inurba_marseille","lat":43.29551,"lon":5.42291,"is_reserved":false,"is_disabled":false,"rental_uris":{"android":"levelo://app?vid=1193e2de-f4a1-40ed-9859-1770abcb2343","ios":"levelo://app?vid=1193e2de-f4a1-40ed-9859-1770abcb2343"},"vehicle_type_id":"4","last_reported":1733379287,"current_range_meters":14400,"station_id":"ce4bhph2rcd13ifvqhdg","pricing_plan_id":"cebpf4jnsgd1na2vs0mg"},{"bike_id":"7e8fc6cf-f0f2-4700-8557-beaab027395f","system_id":"levelo_inurba_marseille","lat":43.31485,"lon":5.37306,"is_reserved":false,"is_disabled":false,"rental_uris":{"android":"levelo://app?vid=7e8fc6cf-f0f2-4700-8557-beaab027395f","ios":"levelo://app?vid=7e8fc6cf-f0f2-4700-8557-beaab027395f"},"vehicle_type_id":"4","last_reported":1733379287,"current_range_meters":10800,"station_id":"ce4bgt12rcd13ifvqcd0","pricing_plan_id":"cebpf4jnsgd1na2vs0mg"},{"bike_id":"0fefa0dc-edeb-4cf0-b2e7-27e58965422f","system_id":"levelo_inurba_marseille","lat":43.31168,"lon":5.38718,"is_reserved":false,"is_disabled":false,"rental_uris":{"android":"levelo://app?vid=0fefa0dc-edeb-4cf0-b2e7-27e58965422f","ios":"levelo://app?vid=0fefa0dc-edeb-4cf0-b2e7-27e58965422f"},"vehicle_type_id":"4","last_reported":1733379287,"current_range_meters":38800,"station_id":"ce4bgv12rcd13ifvqcp0","pricing_plan_id":"cebpf4jnsgd1na2vs0mg"},{"bike_id":"63bbf9db-f670-4808-82d3-3fbcefc33022","system_id":"levelo_inurba_marseille","lat":43.255816,"lon":5.382389,"is_reserved":false,"is_disabled":false,"rental_uris":{"android":"levelo://app?vid=63bbf9db-f670-4808-82d3-3fbcefc33022","ios":"levelo://app?vid=63bbf9db-f670-4808-82d3-3fbcefc33022"},"vehicle_type_id":"4","last_reported":1733379287,"current_range_meters":38800,"station_id":"ce4bhih2rcd13ifvqfs0","pricing_plan_id":"cebpf4jnsgd1na2vs0mg"},{"bike_id":"4a116253-96aa-4bc7-9dd6-fad740af4a82","system_id":"levelo_inurba_marseille","lat":43.30457,"lon":5.37917,"is_reserved":false,"is_disabled":false,"rental_uris":{"android":"levelo://app?vid=4a116253-96aa-4bc7-9dd6-fad740af4a82","ios":"levelo://app?vid=4a116253-96aa-4bc7-9dd6-fad740af4a82"},"vehicle_type_id":"4","last_reported":1733379287,"current_range_meters":13600,"station_id":"ce4bgup2rcd13ifvqcn0","pricing_plan_id":"cebpf4jnsgd1na2vs0mg"},{"bike_id":"0e362fdf-2190-4f82-92dc-6596ff333c58","system_id":"levelo_inurba_marseille","lat":43.30306,"lon":5.36892,"is_reserved":false,"is_disabled":true,"rental_uris":{"android":"levelo://app?vid=0e362fdf-2190-4f82-92dc-6596ff333c58","ios":"levelo://app?vid=0e362fdf-2190-4f82-92dc-6596ff333c58"},"vehicle_type_id":"4","last_reported":1733379287,"current_range_meters":1600,"station_id":"ce4bgqh2rcd13ifvqc5g","pricing_plan_id":"cebpf4jnsgd1na2vs0mg"},{"bike_id":"47446314-3377-4eeb-ac99-7c7c1d340bea","system_id":"levelo_inurba_marseille","lat":43.2781,"lon":5.40701,"is_reserved":false,"is_disabled":true,"rental_uris":{"android":"levelo://app?vid=47446314-3377-4eeb-ac99-7c7c1d340bea","ios":"levelo://app?vid=47446314-3377-4eeb-ac99-7c7c1d340bea"},"vehicle_type_id":"4","last_reported":1733379287,"current_range_meters":0,"station_id":"ce4bhnh2rcd13ifvqgtg","pricing_plan_id":"cebpf4jnsgd1na2vs0mg"},{"bike_id":"109660c6-05f4-4ce9-88d9-d7417358eeaa","system_id":"levelo_inurba_marseille","lat":43.29629,"lon":5.40589,"is_reserved":false,"is_disabled":false,"rental_uris":{"android":"levelo://app?vid=109660c6-05f4-4ce9-88d9-d7417358eeaa","ios":"levelo://app?vid=109660c6-05f4-4ce9-88d9-d7417358eeaa"},"vehicle_type_id":"4","last_reported":1733379287,"current_range_meters":33600,"station_id":"ce4bh0h2rcd13ifvqd60","pricing_plan_id":"cebpf4jnsgd1na2vs0mg"},{"bike_id":"0f30e837-871f-4a2c-aeff-7fec469dda07","system_id":"levelo_inurba_marseille","lat":43.29895,"lon":5.43663,"is_reserved":false,"is_disabled":false,"rental_uris":{"android":"levelo://app?vid=0f30e837-871f-4a2c-aeff-7fec469dda07","ios":"levelo://app?vid=0f30e837-871f-4a2c-aeff-7fec469dda07"},"vehicle_type_id":"4","last_reported":1733379287,"current_range_meters":8000,"station_id":"ce4bhpp2rcd13ifvqhfg","pricing_plan_id":"cebpf4jnsgd1na2vs0mg"},{"bike_id":"dfdab842-6863-4af8-9afd-054176295b2d","system_id":"levelo_inurba_marseille","lat":43.24671,"lon":5.3817,"is_reserved":false,"is_disabled":false,"rental_uris":{"android":"levelo://app?vid=dfdab842-6863-4af8-9afd-054176295b2d","ios":"levelo://app?vid=dfdab842-6863-4af8-9afd-054176295b2d"},"vehicle_type_id":"4","last_reported":1733379287,"current_range_meters":37600,"station_id":"ce4bhih2rcd13ifvqfr0","pricing_plan_id":"cebpf4jnsgd1na2vs0mg"},{"bike_id":"132970a3-ee02-48dc-a0cb-b3140e3325a4","system_id":"levelo_inurba_marseille","lat":43.266818,"lon":5.382764,"is_reserved":false,"is_disabled":false,"rental_uris":{"android":"levelo://app?vid=132970a3-ee02-48dc-a0cb-b3140e3325a4","ios":"levelo://app?vid=132970a3-ee02-48dc-a0cb-b3140e3325a4"},"vehicle_type_id":"4","last_reported":1733379287,"current_range_meters":38400,"station_id":"ce4bhg92rcd13ifvqf90","pricing_plan_id":"cebpf4jnsgd1na2vs0mg"},{"bike_id":"2f3968e7-9336-4ee4-ba78-8e92c0a818cc","system_id":"levelo_inurba_marseille","lat":43.31322,"lon":5.36647,"is_reserved":false,"is_disabled":true,"rental_uris":{"android":"levelo://app?vid=2f3968e7-9336-4ee4-ba78-8e92c0a818cc","ios":"levelo://app?vid=2f3968e7-9336-4ee4-ba78-8e92c0a818cc"},"vehicle_type_id":"4","last_reported":1733379287,"current_range_meters":0,"station_id":"","pricing_plan_id":"cebpf4jnsgd1na2vs0mg"},{"bike_id":"2c43b9b6-72f3-4f56-8966-abacd134a219","system_id":"levelo_inurba_marseille","lat":43.30804,"lon":5.38162,"is_reserved":false,"is_disabled":false,"rental_uris":{"android":"levelo://app?vid=2c43b9b6-72f3-4f56-8966-abacd134a219","ios":"levelo://app?vid=2c43b9b6-72f3-4f56-8966-abacd134a219"},"vehicle_type_id":"4","last_reported":1733379287,"current_range_meters":38800,"station_id":"ce4bgt12rcd13ifvqce0","pricing_plan_id":"cebpf4jnsgd1na2vs0mg"},{"bike_id":"16bea42d-3248-41fd-8b51-39fb3d7ec2c4","system_id":"levelo_inurba_marseille","lat":43.26471,"lon":5.38525,"is_reserved":false,"is_disabled":true,"rental_uris":{"android":"levelo://app?vid=16bea42d-3248-41fd-8b51-39fb3d7ec2c4","ios":"levelo://app?vid=16bea42d-3248-41fd-8b51-39fb3d7ec2c4"},"vehicle_type_id":"4","last_reported":1733379287,"current_range_meters":0,"station_id":"","pricing_plan_id":"cebpf4jnsgd1na2vs0mg"},{"bike_id":"c3e5569f-7c48-4ae2-aa1a-b9bb23c0f500","system_id":"levelo_inurba_marseille","lat":43.28397,"lon":5.37522,"is_reserved":false,"is_disabled":false,"rental_uris":{"android":"levelo://app?vid=c3e5569f-7c48-4ae2-aa1a-b9bb23c0f500","ios":"levelo://app?vid=c3e5569f-7c48-4ae2-aa1a-b9bb23c0f500"},"vehicle_type_id":"4","last_reported":1733379287,"current_range_meters":12800,"station_id":"ce4bh412rcd13ifvqds0","pricing_plan_id":"cebpf4jnsgd1na2vs0mg"},{"bike_id":"46abd456-a608-490b-ad32-48b13f8b3891","system_id":"levelo_inurba_marseille","lat":43.28728,"lon":5.36089,"is_reserved":false,"is_disabled":false,"rental_uris":{"android":"levelo://app?vid=46abd456-a608-490b-ad32-48b13f8b3891","ios":"levelo://app?vid=46abd456-a608-490b-ad32-48b13f8b3891"},"vehicle_type_id":"4","last_reported":1733379287,"current_range_meters":37600,"station_id":"cki0cbj6b192h4jlfktg","pricing_plan_id":"cebpf4jnsgd1na2vs0mg"},{"bike_id":"fefed06f-f77c-4003-83aa-4b7097b9e66e","system_id":"levelo_inurba_marseille","lat":43.25561,"lon":5.40982,"is_reserved":false,"is_disabled":false,"rental_uris":{"android":"levelo://app?vid=fefed06f-f77c-4003-83aa-4b7097b9e66e","ios":"levelo://app?vid=fefed06f-f77c-4003-83aa-4b7097b9e66e"},"vehicle_type_id":"4","last_reported":1733379287,"current_range_meters":34800,"station_id":"","pricing_plan_id":"cebpf4jnsgd1na2vs0mg"},{"bike_id":"7e00f221-e10c-4cec-94db-d74cfbedeac9","system_id":"levelo_inurba_marseille","lat":43.31529,"lon":5.38025,"is_reserved":false,"is_disabled":false,"rental_uris":{"android":"levelo://app?vid=7e00f221-e10c-4cec-94db-d74cfbedeac9","ios":"levelo://app?vid=7e00f221-e10c-4cec-94db-d74cfbedeac9"},"vehicle_type_id":"4","last_reported":1733379287,"current_range_meters":18800,"station_id":"ce4bhsp2rcd13ifvqi50","pricing_plan_id":"cebpf4jnsgd1na2vs0mg"},{"bike_id":"46865911-cde1-4521-bcd4-daccf5547995","system_id":"levelo_inurba_marseille","lat":43.31528,"lon":5.38039,"is_reserved":false,"is_disabled":false,"rental_uris":{"android":"levelo://app?vid=46865911-cde1-4521-bcd4-daccf5547995","ios":"levelo://app?vid=46865911-cde1-4521-bcd4-daccf5547995"},"vehicle_type_id":"4","last_reported":1733379287,"current_range_meters":38000,"station_id":"ce4bhsp2rcd13ifvqi50","pricing_plan_id":"cebpf4jnsgd1na2vs0mg"},{"bike_id":"5cc8c754-8826-4cbd-9278-2bfeb85ea349","system_id":"levelo_inurba_marseille","lat":43.29442,"lon":5.39759,"is_reserved":false,"is_disabled":false,"rental_uris":{"android":"levelo://app?vid=5cc8c754-8826-4cbd-9278-2bfeb85ea349","ios":"levelo://app?vid=5cc8c754-8826-4cbd-9278-2bfeb85ea349"},"vehicle_type_id":"4","last_reported":1733379287,"current_range_meters":37600,"station_id":"ce4bh3h2rcd13ifvqdo0","pricing_plan_id":"cebpf4jnsgd1na2vs0mg"},{"bike_id":"bc17f359-3933-45c8-ad56-9925f6a38dca","system_id":"levelo_inurba_marseille","lat":43.32348,"lon":5.40622,"is_reserved":false,"is_disabled":false,"rental_uris":{"android":"levelo://app?vid=bc17f359-3933-45c8-ad56-9925f6a38dca","ios":"levelo://app?vid=bc17f359-3933-45c8-ad56-9925f6a38dca"},"vehicle_type_id":"4","last_reported":1733379287,"current_range_meters":24400,"station_id":"ce4bhq92rcd13ifvqhjg","pricing_plan_id":"cebpf4jnsgd1na2vs0mg"},{"bike_id":"35e6606b-c4b2-4e1a-a245-327bce29fe37","system_id":"levelo_inurba_marseille","lat":43.27812,"lon":5.40705,"is_reserved":false,"is_disabled":true,"rental_uris":{"android":"levelo://app?vid=35e6606b-c4b2-4e1a-a245-327bce29fe37","ios":"levelo://app?vid=35e6606b-c4b2-4e1a-a245-327bce29fe37"},"vehicle_type_id":"4","last_reported":1733379287,"current_range_meters":0,"station_id":"ce4bhnh2rcd13ifvqgtg","pricing_plan_id":"cebpf4jnsgd1na2vs0mg"},{"bike_id":"b0025f03-f4b7-4e1f-b2ae-d738bfb01f75","system_id":"levelo_inurba_marseille","lat":43.31537,"lon":5.3891,"is_reserved":false,"is_disabled":false,"rental_uris":{"android":"levelo://app?vid=b0025f03-f4b7-4e1f-b2ae-d738bfb01f75","ios":"levelo://app?vid=b0025f03-f4b7-4e1f-b2ae-d738bfb01f75"},"vehicle_type_id":"4","last_reported":1733379287,"current_range_meters":38000,"station_id":"","pricing_plan_id":"cebpf4jnsgd1na2vs0mg"},{"bike_id":"f414f406-3c0e-4948-b1a8-40f60759094e","system_id":"levelo_inurba_marseille","lat":43.28711,"lon":5.37386,"is_reserved":false,"is_disabled":false,"rental_uris":{"android":"levelo://app?vid=f414f406-3c0e-4948-b1a8-40f60759094e","ios":"levelo://app?vid=f414f406-3c0e-4948-b1a8-40f60759094e"},"vehicle_type_id":"4","last_reported":1733379287,"current_range_meters":36800,"station_id":"ce4bh3p2rcd13ifvqdq0","pricing_plan_id":"cebpf4jnsgd1na2vs0mg"},{"bike_id":"6f1f4c8f-b22d-4d1d-88ae-6f2707bae092","system_id":"levelo_inurba_marseille","lat":43.26938,"lon":5.40327,"is_reserved":false,"is_disabled":false,"rental_uris":{"android":"levelo://app?vid=6f1f4c8f-b22d-4d1d-88ae-6f2707bae092","ios":"levelo://app?vid=6f1f4c8f-b22d-4d1d-88ae-6f2707bae092"},"vehicle_type_id":"4","last_reported":1733379287,"current_range_meters":38400,"station_id":"","pricing_plan_id":"cebpf4jnsgd1na2vs0mg"},{"bike_id":"4156462a-4735-45ee-8da0-a9945ed8f6d7","system_id":"levelo_inurba_marseille","lat":43.30635,"lon":5.40078,"is_reserved":false,"is_disabled":false,"rental_uris":{"android":"levelo://app?vid=4156462a-4735-45ee-8da0-a9945ed8f6d7","ios":"levelo://app?vid=4156462a-4735-45ee-8da0-a9945ed8f6d7"},"vehicle_type_id":"4","last_reported":1733379287,"current_range_meters":27600,"station_id":"ce4bh112rcd13ifvqda0","pricing_plan_id":"cebpf4jnsgd1na2vs0mg"},{"bike_id":"360e6e30-e776-44bf-9d86-62236c7bc39f","system_id":"levelo_inurba_marseille","lat":43.31266,"lon":5.40173,"is_reserved":false,"is_disabled":false,"rental_uris":{"android":"levelo://app?vid=360e6e30-e776-44bf-9d86-62236c7bc39f","ios":"levelo://app?vid=360e6e30-e776-44bf-9d86-62236c7bc39f"},"vehicle_type_id":"4","last_reported":1733379287,"current_range_meters":28400,"station_id":"ce4bh092rcd13ifvqd30","pricing_plan_id":"cebpf4jnsgd1na2vs0mg"},{"bike_id":"5a50557a-331c-47f8-82cc-e12807c908db","system_id":"levelo_inurba_marseille","lat":43.33023,"lon":5.39039,"is_reserved":false,"is_disabled":false,"rental_uris":{"android":"levelo://app?vid=5a50557a-331c-47f8-82cc-e12807c908db","ios":"levelo://app?vid=5a50557a-331c-47f8-82cc-e12807c908db"},"vehicle_type_id":"4","last_reported":1733379287,"current_range_meters":38000,"station_id":"ce4bhr92rcd13ifvqhrg","pricing_plan_id":"cebpf4jnsgd1na2vs0mg"},{"bike_id":"366d0bb1-a271-494d-9d9f-fc3c7c162cdd","system_id":"levelo_inurba_marseille","lat":43.26559,"lon":5.39008,"is_reserved":false,"is_disabled":false,"rental_uris":{"android":"levelo://app?vid=366d0bb1-a271-494d-9d9f-fc3c7c162cdd","ios":"levelo://app?vid=366d0bb1-a271-494d-9d9f-fc3c7c162cdd"},"vehicle_type_id":"4","last_reported":1733379287,"current_range_meters":31200,"station_id":"ce4bhe12rcd13ifvqf30","pricing_plan_id":"cebpf4jnsgd1na2vs0mg"},{"bike_id":"64cef5ac-e0ad-43ec-8d81-ef1e6eb0acd4","system_id":"levelo_inurba_marseille","lat":43.29953,"lon":5.37022,"is_reserved":false,"is_disabled":false,"rental_uris":{"android":"levelo://app?vid=64cef5ac-e0ad-43ec-8d81-ef1e6eb0acd4","ios":"levelo://app?vid=64cef5ac-e0ad-43ec-8d81-ef1e6eb0acd4"},"vehicle_type_id":"4","last_reported":1733379287,"current_range_meters":5600,"station_id":"","pricing_plan_id":"cebpf4jnsgd1na2vs0mg"},{"bike_id":"9108fa6d-fa85-4a83-a690-1bbae5f75069","system_id":"levelo_inurba_marseille","lat":43.2809,"lon":5.39631,"is_reserved":false,"is_disabled":false,"rental_uris":{"android":"levelo://app?vid=9108fa6d-fa85-4a83-a690-1bbae5f75069","ios":"levelo://app?vid=9108fa6d-fa85-4a83-a690-1bbae5f75069"},"vehicle_type_id":"4","last_reported":1733379287,"current_range_meters":39200,"station_id":"ce4bho12rcd13ifvqh2g","pricing_plan_id":"cebpf4jnsgd1na2vs0mg"},{"bike_id":"083c0f74-65cd-4a47-a359-33d01e265a9c","system_id":"levelo_inurba_marseille","lat":43.28708,"lon":5.37943,"is_reserved":false,"is_disabled":true,"rental_uris":{"android":"levelo://app?vid=083c0f74-65cd-4a47-a359-33d01e265a9c","ios":"levelo://app?vid=083c0f74-65cd-4a47-a359-33d01e265a9c"},"vehicle_type_id":"4","last_reported":1733379287,"current_range_meters":27200,"station_id":"ce4bh9p2rcd13ifvqec0","pricing_plan_id":"cebpf4jnsgd1na2vs0mg"},{"bike_id":"e14bb60d-52dc-49c6-8312-cecc6af9d01f","system_id":"levelo_inurba_marseille","lat":43.31328,"lon":5.39697,"is_reserved":false,"is_disabled":false,"rental_uris":{"android":"levelo://app?vid=e14bb60d-52dc-49c6-8312-cecc6af9d01f","ios":"levelo://app?vid=e14bb60d-52dc-49c6-8312-cecc6af9d01f"},"vehicle_type_id":"4","last_reported":1733379287,"current_range_meters":8400,"station_id":"ce4bgvp2rcd13ifvqcu0","pricing_plan_id":"cebpf4jnsgd1na2vs0mg"},{"bike_id":"ef8dccf7-5c02-4648-910c-2c64ce488a65","system_id":"levelo_inurba_marseille","lat":43.28151,"lon":5.42794,"is_reserved":false,"is_disabled":false,"rental_uris":{"android":"levelo://app?vid=ef8dccf7-5c02-4648-910c-2c64ce488a65","ios":"levelo://app?vid=ef8dccf7-5c02-4648-910c-2c64ce488a65"},"vehicle_type_id":"4","last_reported":1733379287,"current_range_meters":8000,"station_id":"","pricing_plan_id":"cebpf4jnsgd1na2vs0mg"},{"bike_id":"afddb0ff-7658-4984-b285-b427f08dacd1","system_id":"levelo_inurba_marseille","lat":43.25109,"lon":5.40323,"is_reserved":false,"is_disabled":false,"rental_uris":{"android":"levelo://app?vid=afddb0ff-7658-4984-b285-b427f08dacd1","ios":"levelo://app?vid=afddb0ff-7658-4984-b285-b427f08dacd1"},"vehicle_type_id":"4","last_reported":1733379287,"current_range_meters":37600,"station_id":"ce4bhlh2rcd13ifvqgig","pricing_plan_id":"cebpf4jnsgd1na2vs0mg"},{"bike_id":"b73386f2-fa04-4fae-98be-ff0e17efea9c","system_id":"levelo_inurba_marseille","lat":43.32364,"lon":5.38882,"is_reserved":false,"is_disabled":false,"rental_uris":{"android":"levelo://app?vid=b73386f2-fa04-4fae-98be-ff0e17efea9c","ios":"levelo://app?vid=b73386f2-fa04-4fae-98be-ff0e17efea9c"},"vehicle_type_id":"4","last_reported":1733379287,"current_range_meters":38400,"station_id":"ce4bhqp2rcd13ifvqhog","pricing_plan_id":"cebpf4jnsgd1na2vs0mg"},{"bike_id":"dfa76f4c-3d3f-4fb1-90ed-007fee43e839","system_id":"levelo_inurba_marseille","lat":43.284354,"lon":5.391858,"is_reserved":false,"is_disabled":false,"rental_uris":{"android":"levelo://app?vid=dfa76f4c-3d3f-4fb1-90ed-007fee43e839","ios":"levelo://app?vid=dfa76f4c-3d3f-4fb1-90ed-007fee43e839"},"vehicle_type_id":"4","last_reported":1733379287,"current_range_meters":18800,"station_id":"ce4bhoh2rcd13ifvqh5g","pricing_plan_id":"cebpf4jnsgd1na2vs0mg"},{"bike_id":"5cef358c-4d33-4f46-b1a1-56f6f4f255fd","system_id":"levelo_inurba_marseille","lat":43.295712,"lon":5.43926,"is_reserved":false,"is_disabled":true,"rental_uris":{"android":"levelo://app?vid=5cef358c-4d33-4f46-b1a1-56f6f4f255fd","ios":"levelo://app?vid=5cef358c-4d33-4f46-b1a1-56f6f4f255fd"},"vehicle_type_id":"4","last_reported":1733379287,"current_range_meters":0,"station_id":"","pricing_plan_id":"cebpf4jnsgd1na2vs0mg"},{"bike_id":"ea1954bd-411b-45a7-99ea-739a18e3eb98","system_id":"levelo_inurba_marseille","lat":43.25112,"lon":5.40325,"is_reserved":false,"is_disabled":false,"rental_uris":{"android":"levelo://app?vid=ea1954bd-411b-45a7-99ea-739a18e3eb98","ios":"levelo://app?vid=ea1954bd-411b-45a7-99ea-739a18e3eb98"},"vehicle_type_id":"4","last_reported":1733379287,"current_range_meters":24400,"station_id":"ce4bhlh2rcd13ifvqgig","pricing_plan_id":"cebpf4jnsgd1na2vs0mg"},{"bike_id":"734d07dc-217f-41dd-93a2-1bef235667d0","system_id":"levelo_inurba_marseille","lat":43.24392,"lon":5.37063,"is_reserved":false,"is_disabled":true,"rental_uris":{"android":"levelo://app?vid=734d07dc-217f-41dd-93a2-1bef235667d0","ios":"levelo://app?vid=734d07dc-217f-41dd-93a2-1bef235667d0"},"vehicle_type_id":"4","last_reported":1733379287,"current_range_meters":7200,"station_id":"ce4bhhh2rcd13ifvqfk0","pricing_plan_id":"cebpf4jnsgd1na2vs0mg"},{"bike_id":"a7d859c0-78c7-463e-ab07-a585b3e37645","system_id":"levelo_inurba_marseille","lat":43.33024,"lon":5.39042,"is_reserved":false,"is_disabled":false,"rental_uris":{"android":"levelo://app?vid=a7d859c0-78c7-463e-ab07-a585b3e37645","ios":"levelo://app?vid=a7d859c0-78c7-463e-ab07-a585b3e37645"},"vehicle_type_id":"4","last_reported":1733379287,"current_range_meters":38800,"station_id":"ce4bhr92rcd13ifvqhrg","pricing_plan_id":"cebpf4jnsgd1na2vs0mg"},{"bike_id":"1d70f409-b50f-4206-b677-42f317569530","system_id":"levelo_inurba_marseille","lat":43.26682,"lon":5.38263,"is_reserved":false,"is_disabled":false,"rental_uris":{"android":"levelo://app?vid=1d70f409-b50f-4206-b677-42f317569530","ios":"levelo://app?vid=1d70f409-b50f-4206-b677-42f317569530"},"vehicle_type_id":"4","last_reported":1733379287,"current_range_meters":35600,"station_id":"ce4bhg92rcd13ifvqf90","pricing_plan_id":"cebpf4jnsgd1na2vs0mg"},{"bike_id":"129a4210-2541-4275-959b-7a3a4cdc5c56","system_id":"levelo_inurba_marseille","lat":43.30885,"lon":5.39642,"is_reserved":false,"is_disabled":false,"rental_uris":{"android":"levelo://app?vid=129a4210-2541-4275-959b-7a3a4cdc5c56","ios":"levelo://app?vid=129a4210-2541-4275-959b-7a3a4cdc5c56"},"vehicle_type_id":"4","last_reported":1733379287,"current_range_meters":38800,"station_id":"ce4bh012rcd13ifvqcv0","pricing_plan_id":"cebpf4jnsgd1na2vs0mg"},{"bike_id":"c4f8bc1f-6186-4b67-be08-a149c4ecdce7","system_id":"levelo_inurba_marseille","lat":43.28571,"lon":5.39493,"is_reserved":false,"is_disabled":false,"rental_uris":{"android":"levelo://app?vid=c4f8bc1f-6186-4b67-be08-a149c4ecdce7","ios":"levelo://app?vid=c4f8bc1f-6186-4b67-be08-a149c4ecdce7"},"vehicle_type_id":"4","last_reported":1733379287,"current_range_meters":35200,"station_id":"ce4bh292rcd13ifvqdg0","pricing_plan_id":"cebpf4jnsgd1na2vs0mg"},{"bike_id":"cdfe6590-4984-4014-86c8-6dd70747c27a","system_id":"levelo_inurba_marseille","lat":43.29737,"lon":5.37434,"is_reserved":false,"is_disabled":true,"rental_uris":{"android":"levelo://app?vid=cdfe6590-4984-4014-86c8-6dd70747c27a","ios":"levelo://app?vid=cdfe6590-4984-4014-86c8-6dd70747c27a"},"vehicle_type_id":"4","last_reported":1733379287,"current_range_meters":0,"station_id":"","pricing_plan_id":"cebpf4jnsgd1na2vs0mg"},{"bike_id":"2c494ab0-5e4c-43e9-96eb-82c7ed0a30e3","system_id":"levelo_inurba_marseille","lat":43.2681,"lon":5.40267,"is_reserved":false,"is_disabled":false,"rental_uris":{"android":"levelo://app?vid=2c494ab0-5e4c-43e9-96eb-82c7ed0a30e3","ios":"levelo://app?vid=2c494ab0-5e4c-43e9-96eb-82c7ed0a30e3"},"vehicle_type_id":"4","last_reported":1733379287,"current_range_meters":28400,"station_id":"ce501612rcd8frsf0b60","pricing_plan_id":"cebpf4jnsgd1na2vs0mg"},{"bike_id":"9309313e-316d-4707-816e-67df9a39a867","system_id":"levelo_inurba_marseille","lat":43.28936,"lon":5.36387,"is_reserved":false,"is_disabled":true,"rental_uris":{"android":"levelo://app?vid=9309313e-316d-4707-816e-67df9a39a867","ios":"levelo://app?vid=9309313e-316d-4707-816e-67df9a39a867"},"vehicle_type_id":"4","last_reported":1733379287,"current_range_meters":6000,"station_id":"ce4bhc92rcd13ifvqetg","pricing_plan_id":"cebpf4jnsgd1na2vs0mg"},{"bike_id":"22afe0c7-1925-4dd9-b606-f466a1f3c103","system_id":"levelo_inurba_marseille","lat":43.30802,"lon":5.38162,"is_reserved":false,"is_disabled":false,"rental_uris":{"android":"levelo://app?vid=22afe0c7-1925-4dd9-b606-f466a1f3c103","ios":"levelo://app?vid=22afe0c7-1925-4dd9-b606-f466a1f3c103"},"vehicle_type_id":"4","last_reported":1733379287,"current_range_meters":36400,"station_id":"ce4bgt12rcd13ifvqce0","pricing_plan_id":"cebpf4jnsgd1na2vs0mg"},{"bike_id":"caf70388-0ffb-4416-a246-70f3bb62d163","system_id":"levelo_inurba_marseille","lat":43.29227,"lon":5.3608,"is_reserved":false,"is_disabled":false,"rental_uris":{"android":"levelo://app?vid=caf70388-0ffb-4416-a246-70f3bb62d163","ios":"levelo://app?vid=caf70388-0ffb-4416-a246-70f3bb62d163"},"vehicle_type_id":"4","last_reported":1733379287,"current_range_meters":32800,"station_id":"ce4bhbh2rcd13ifvqeqg","pricing_plan_id":"cebpf4jnsgd1na2vs0mg"},{"bike_id":"189d41e8-50bb-4f05-9a34-8bbecbbc54a5","system_id":"levelo_inurba_marseille","lat":43.26029,"lon":5.37553,"is_reserved":false,"is_disabled":false,"rental_uris":{"android":"levelo://app?vid=189d41e8-50bb-4f05-9a34-8bbecbbc54a5","ios":"levelo://app?vid=189d41e8-50bb-4f05-9a34-8bbecbbc54a5"},"vehicle_type_id":"4","last_reported":1733379287,"current_range_meters":18000,"station_id":"ce4bhgh2rcd13ifvqfa0","pricing_plan_id":"cebpf4jnsgd1na2vs0mg"},{"bike_id":"987a5ab4-d60c-480c-94b6-7cab38975402","system_id":"levelo_inurba_marseille","lat":43.29748,"lon":5.37971,"is_reserved":false,"is_disabled":true,"rental_uris":{"android":"levelo://app?vid=987a5ab4-d60c-480c-94b6-7cab38975402","ios":"levelo://app?vid=987a5ab4-d60c-480c-94b6-7cab38975402"},"vehicle_type_id":"4","last_reported":1733379287,"current_range_meters":0,"station_id":"","pricing_plan_id":"cebpf4jnsgd1na2vs0mg"},{"bike_id":"2c4596ad-0ad9-4016-b92b-0093349de2b4","system_id":"levelo_inurba_marseille","lat":43.30755,"lon":5.38187,"is_reserved":false,"is_disabled":true,"rental_uris":{"android":"levelo://app?vid=2c4596ad-0ad9-4016-b92b-0093349de2b4","ios":"levelo://app?vid=2c4596ad-0ad9-4016-b92b-0093349de2b4"},"vehicle_type_id":"4","last_reported":1733379287,"current_range_meters":0,"station_id":"","pricing_plan_id":"cebpf4jnsgd1na2vs0mg"},{"bike_id":"2aa384f5-7137-4fd5-996e-93539d4a3fa0","system_id":"levelo_inurba_marseille","lat":43.25111,"lon":5.40342,"is_reserved":false,"is_disabled":false,"rental_uris":{"android":"levelo://app?vid=2aa384f5-7137-4fd5-996e-93539d4a3fa0","ios":"levelo://app?vid=2aa384f5-7137-4fd5-996e-93539d4a3fa0"},"vehicle_type_id":"4","last_reported":1733379287,"current_range_meters":38000,"station_id":"ce4bhlh2rcd13ifvqgig","pricing_plan_id":"cebpf4jnsgd1na2vs0mg"},{"bike_id":"a672da76-8052-47c4-9703-2dbdba0bf9fc","system_id":"levelo_inurba_marseille","lat":43.309259,"lon":5.401555,"is_reserved":false,"is_disabled":false,"rental_uris":{"android":"levelo://app?vid=a672da76-8052-47c4-9703-2dbdba0bf9fc","ios":"levelo://app?vid=a672da76-8052-47c4-9703-2dbdba0bf9fc"},"vehicle_type_id":"4","last_reported":1733379287,"current_range_meters":30800,"station_id":"ce4bgvp2rcd13ifvqct0","pricing_plan_id":"cebpf4jnsgd1na2vs0mg"},{"bike_id":"b7ab8c01-033f-4395-8276-23c850ad3d02","system_id":"levelo_inurba_marseille","lat":43.30348,"lon":5.36626,"is_reserved":false,"is_disabled":true,"rental_uris":{"android":"levelo://app?vid=b7ab8c01-033f-4395-8276-23c850ad3d02","ios":"levelo://app?vid=b7ab8c01-033f-4395-8276-23c850ad3d02"},"vehicle_type_id":"4","last_reported":1733379287,"current_range_meters":0,"station_id":"","pricing_plan_id":"cebpf4jnsgd1na2vs0mg"},{"bike_id":"3e5094fe-36c8-4f4a-9a18-d38d46ff20f4","system_id":"levelo_inurba_marseille","lat":43.32362,"lon":5.38887,"is_reserved":false,"is_disabled":false,"rental_uris":{"android":"levelo://app?vid=3e5094fe-36c8-4f4a-9a18-d38d46ff20f4","ios":"levelo://app?vid=3e5094fe-36c8-4f4a-9a18-d38d46ff20f4"},"vehicle_type_id":"4","last_reported":1733379287,"current_range_meters":9200,"station_id":"ce4bhqp2rcd13ifvqhog","pricing_plan_id":"cebpf4jnsgd1na2vs0mg"},{"bike_id":"ddafa27c-f89b-4fc5-b3c3-a6b5e0f1f975","system_id":"levelo_inurba_marseille","lat":43.25825,"lon":5.39427,"is_reserved":false,"is_disabled":false,"rental_uris":{"android":"levelo://app?vid=ddafa27c-f89b-4fc5-b3c3-a6b5e0f1f975","ios":"levelo://app?vid=ddafa27c-f89b-4fc5-b3c3-a6b5e0f1f975"},"vehicle_type_id":"4","last_reported":1733379287,"current_range_meters":38000,"station_id":"ce4bhip2rcd13ifvqft0","pricing_plan_id":"cebpf4jnsgd1na2vs0mg"},{"bike_id":"d25acaba-d8d4-43f2-8aeb-8bfae5e50811","system_id":"levelo_inurba_marseille","lat":43.25108,"lon":5.40326,"is_reserved":false,"is_disabled":false,"rental_uris":{"android":"levelo://app?vid=d25acaba-d8d4-43f2-8aeb-8bfae5e50811","ios":"levelo://app?vid=d25acaba-d8d4-43f2-8aeb-8bfae5e50811"},"vehicle_type_id":"4","last_reported":1733379287,"current_range_meters":39200,"station_id":"ce4bhlh2rcd13ifvqgig","pricing_plan_id":"cebpf4jnsgd1na2vs0mg"},{"bike_id":"19d2ce59-2b75-48a1-9810-172e15ca151e","system_id":"levelo_inurba_marseille","lat":43.231978,"lon":5.355444,"is_reserved":false,"is_disabled":false,"rental_uris":{"android":"levelo://app?vid=19d2ce59-2b75-48a1-9810-172e15ca151e","ios":"levelo://app?vid=19d2ce59-2b75-48a1-9810-172e15ca151e"},"vehicle_type_id":"4","last_reported":1733379287,"current_range_meters":4800,"station_id":"ce4bhu92rcd13ifvqi70","pricing_plan_id":"cebpf4jnsgd1na2vs0mg"},{"bike_id":"fc90e273-34df-4045-867f-0a7dd4cd8316","system_id":"levelo_inurba_marseille","lat":43.320353,"lon":5.415623,"is_reserved":false,"is_disabled":false,"rental_uris":{"android":"levelo://app?vid=fc90e273-34df-4045-867f-0a7dd4cd8316","ios":"levelo://app?vid=fc90e273-34df-4045-867f-0a7dd4cd8316"},"vehicle_type_id":"4","last_reported":1733379287,"current_range_meters":25600,"station_id":"ce4bhq92rcd13ifvqhkg","pricing_plan_id":"cebpf4jnsgd1na2vs0mg"},{"bike_id":"fa2aaae2-9d60-4403-857a-340eb96269a4","system_id":"levelo_inurba_marseille","lat":43.24677,"lon":5.381687,"is_reserved":false,"is_disabled":false,"rental_uris":{"android":"levelo://app?vid=fa2aaae2-9d60-4403-857a-340eb96269a4","ios":"levelo://app?vid=fa2aaae2-9d60-4403-857a-340eb96269a4"},"vehicle_type_id":"4","last_reported":1733379287,"current_range_meters":34000,"station_id":"ce4bhih2rcd13ifvqfr0","pricing_plan_id":"cebpf4jnsgd1na2vs0mg"},{"bike_id":"d0426c29-6df4-4b73-8ea6-873c543c606f","system_id":"levelo_inurba_marseille","lat":43.28419,"lon":5.34991,"is_reserved":false,"is_disabled":false,"rental_uris":{"android":"levelo://app?vid=d0426c29-6df4-4b73-8ea6-873c543c606f","ios":"levelo://app?vid=d0426c29-6df4-4b73-8ea6-873c543c606f"},"vehicle_type_id":"4","last_reported":1733379287,"current_range_meters":37600,"station_id":"ce4bhbh2rcd13ifvqepg","pricing_plan_id":"cebpf4jnsgd1na2vs0mg"},{"bike_id":"21b56b2e-fd94-4a3a-b1a2-bdbe6900866e","system_id":"levelo_inurba_marseille","lat":43.31323,"lon":5.39701,"is_reserved":false,"is_disabled":false,"rental_uris":{"android":"levelo://app?vid=21b56b2e-fd94-4a3a-b1a2-bdbe6900866e","ios":"levelo://app?vid=21b56b2e-fd94-4a3a-b1a2-bdbe6900866e"},"vehicle_type_id":"4","last_reported":1733379287,"current_range_meters":38400,"station_id":"ce4bgvp2rcd13ifvqcu0","pricing_plan_id":"cebpf4jnsgd1na2vs0mg"},{"bike_id":"6cc6805f-c0ca-4585-bdf1-b5a0339762b0","system_id":"levelo_inurba_marseille","lat":43.29019,"lon":5.428,"is_reserved":false,"is_disabled":true,"rental_uris":{"android":"levelo://app?vid=6cc6805f-c0ca-4585-bdf1-b5a0339762b0","ios":"levelo://app?vid=6cc6805f-c0ca-4585-bdf1-b5a0339762b0"},"vehicle_type_id":"4","last_reported":1733379287,"current_range_meters":0,"station_id":"","pricing_plan_id":"cebpf4jnsgd1na2vs0mg"},{"bike_id":"e8480245-4616-4c0d-a70f-61d962df8a47","system_id":"levelo_inurba_marseille","lat":43.25935,"lon":5.40906,"is_reserved":false,"is_disabled":false,"rental_uris":{"android":"levelo://app?vid=e8480245-4616-4c0d-a70f-61d962df8a47","ios":"levelo://app?vid=e8480245-4616-4c0d-a70f-61d962df8a47"},"vehicle_type_id":"4","last_reported":1733379287,"current_range_meters":33600,"station_id":"ce4bhm92rcd13ifvqglg","pricing_plan_id":"cebpf4jnsgd1na2vs0mg"},{"bike_id":"0bfb3d4e-359d-4927-881b-5e84aa873cc8","system_id":"levelo_inurba_marseille","lat":43.32357,"lon":5.36737,"is_reserved":false,"is_disabled":false,"rental_uris":{"android":"levelo://app?vid=0bfb3d4e-359d-4927-881b-5e84aa873cc8","ios":"levelo://app?vid=0bfb3d4e-359d-4927-881b-5e84aa873cc8"},"vehicle_type_id":"4","last_reported":1733379287,"current_range_meters":16000,"station_id":"ce4bhsh2rcd13ifvqi2g","pricing_plan_id":"cebpf4jnsgd1na2vs0mg"},{"bike_id":"8d1c8b92-79bb-4181-b0d2-5e94db1a14d0","system_id":"levelo_inurba_marseille","lat":43.300115,"lon":5.382636,"is_reserved":false,"is_disabled":true,"rental_uris":{"android":"levelo://app?vid=8d1c8b92-79bb-4181-b0d2-5e94db1a14d0","ios":"levelo://app?vid=8d1c8b92-79bb-4181-b0d2-5e94db1a14d0"},"vehicle_type_id":"4","last_reported":1733379287,"current_range_meters":0,"station_id":"","pricing_plan_id":"cebpf4jnsgd1na2vs0mg"},{"bike_id":"fb5d3d84-2a9a-4652-a461-f86ac70bf0ac","system_id":"levelo_inurba_marseille","lat":43.24663,"lon":5.38176,"is_reserved":false,"is_disabled":false,"rental_uris":{"android":"levelo://app?vid=fb5d3d84-2a9a-4652-a461-f86ac70bf0ac","ios":"levelo://app?vid=fb5d3d84-2a9a-4652-a461-f86ac70bf0ac"},"vehicle_type_id":"4","last_reported":1733379287,"current_range_meters":34800,"station_id":"ce4bhih2rcd13ifvqfr0","pricing_plan_id":"cebpf4jnsgd1na2vs0mg"},{"bike_id":"61c40bd2-6da6-4b59-9b84-22d70b5e4ddf","system_id":"levelo_inurba_marseille","lat":43.31534,"lon":5.38039,"is_reserved":false,"is_disabled":false,"rental_uris":{"android":"levelo://app?vid=61c40bd2-6da6-4b59-9b84-22d70b5e4ddf","ios":"levelo://app?vid=61c40bd2-6da6-4b59-9b84-22d70b5e4ddf"},"vehicle_type_id":"4","last_reported":1733379287,"current_range_meters":24800,"station_id":"ce4bhsp2rcd13ifvqi50","pricing_plan_id":"cebpf4jnsgd1na2vs0mg"},{"bike_id":"a31c9352-d2bc-47d9-ab77-c8a6ff16a3b5","system_id":"levelo_inurba_marseille","lat":43.24809,"lon":5.3746,"is_reserved":false,"is_disabled":false,"rental_uris":{"android":"levelo://app?vid=a31c9352-d2bc-47d9-ab77-c8a6ff16a3b5","ios":"levelo://app?vid=a31c9352-d2bc-47d9-ab77-c8a6ff16a3b5"},"vehicle_type_id":"4","last_reported":1733379287,"current_range_meters":28000,"station_id":"ce4bhgh2rcd13ifvqfb0","pricing_plan_id":"cebpf4jnsgd1na2vs0mg"},{"bike_id":"1d327b1b-12d4-4ffc-95ec-43f973a2cb6c","system_id":"levelo_inurba_marseille","lat":43.23962,"lon":5.36637,"is_reserved":false,"is_disabled":false,"rental_uris":{"android":"levelo://app?vid=1d327b1b-12d4-4ffc-95ec-43f973a2cb6c","ios":"levelo://app?vid=1d327b1b-12d4-4ffc-95ec-43f973a2cb6c"},"vehicle_type_id":"4","last_reported":1733379287,"current_range_meters":12800,"station_id":"ce4bhi12rcd13ifvqfp0","pricing_plan_id":"cebpf4jnsgd1na2vs0mg"},{"bike_id":"8e60d928-fa91-4dca-8f4f-5745e666577c","system_id":"levelo_inurba_marseille","lat":43.28438,"lon":5.3919,"is_reserved":false,"is_disabled":false,"rental_uris":{"android":"levelo://app?vid=8e60d928-fa91-4dca-8f4f-5745e666577c","ios":"levelo://app?vid=8e60d928-fa91-4dca-8f4f-5745e666577c"},"vehicle_type_id":"4","last_reported":1733379287,"current_range_meters":21600,"station_id":"ce4bhoh2rcd13ifvqh5g","pricing_plan_id":"cebpf4jnsgd1na2vs0mg"},{"bike_id":"f99c98c7-6fcb-4f53-a391-e37ebd732f79","system_id":"levelo_inurba_marseille","lat":43.3093,"lon":5.40144,"is_reserved":false,"is_disabled":false,"rental_uris":{"android":"levelo://app?vid=f99c98c7-6fcb-4f53-a391-e37ebd732f79","ios":"levelo://app?vid=f99c98c7-6fcb-4f53-a391-e37ebd732f79"},"vehicle_type_id":"4","last_reported":1733379287,"current_range_meters":28800,"station_id":"ce4bgvp2rcd13ifvqct0","pricing_plan_id":"cebpf4jnsgd1na2vs0mg"},{"bike_id":"7f43cefb-5210-48cf-bf38-e6e32eddcac6","system_id":"levelo_inurba_marseille","lat":43.28456,"lon":5.3589,"is_reserved":false,"is_disabled":false,"rental_uris":{"android":"levelo://app?vid=7f43cefb-5210-48cf-bf38-e6e32eddcac6","ios":"levelo://app?vid=7f43cefb-5210-48cf-bf38-e6e32eddcac6"},"vehicle_type_id":"4","last_reported":1733379287,"current_range_meters":16000,"station_id":"ce4bhah2rcd13ifvqei0","pricing_plan_id":"cebpf4jnsgd1na2vs0mg"},{"bike_id":"a9e4e6c1-371c-48c2-a3c3-04f2bcfd31a1","system_id":"levelo_inurba_marseille","lat":43.29535,"lon":5.38549,"is_reserved":false,"is_disabled":true,"rental_uris":{"android":"levelo://app?vid=a9e4e6c1-371c-48c2-a3c3-04f2bcfd31a1","ios":"levelo://app?vid=a9e4e6c1-371c-48c2-a3c3-04f2bcfd31a1"},"vehicle_type_id":"4","last_reported":1733379287,"current_range_meters":4800,"station_id":"ce4bgih2rcd13ifvqba0","pricing_plan_id":"cebpf4jnsgd1na2vs0mg"},{"bike_id":"b3ed838e-36ad-4325-824a-a738f0ef27dd","system_id":"levelo_inurba_marseille","lat":43.26551,"lon":5.37293,"is_reserved":false,"is_disabled":false,"rental_uris":{"android":"levelo://app?vid=b3ed838e-36ad-4325-824a-a738f0ef27dd","ios":"levelo://app?vid=b3ed838e-36ad-4325-824a-a738f0ef27dd"},"vehicle_type_id":"4","last_reported":1733379287,"current_range_meters":22400,"station_id":"ce4bhg12rcd13ifvqf70","pricing_plan_id":"cebpf4jnsgd1na2vs0mg"},{"bike_id":"b8821311-6b32-4d27-97a0-f8f1a010cf20","system_id":"levelo_inurba_marseille","lat":43.27322,"lon":5.39079,"is_reserved":false,"is_disabled":false,"rental_uris":{"android":"levelo://app?vid=b8821311-6b32-4d27-97a0-f8f1a010cf20","ios":"levelo://app?vid=b8821311-6b32-4d27-97a0-f8f1a010cf20"},"vehicle_type_id":"4","last_reported":1733379287,"current_range_meters":32000,"station_id":"ce4bhgp2rcd13ifvqfe0","pricing_plan_id":"cebpf4jnsgd1na2vs0mg"},{"bike_id":"1ca0aca0-4ca4-4bf8-9b1d-054345c3a341","system_id":"levelo_inurba_marseille","lat":43.28875,"lon":5.39998,"is_reserved":false,"is_disabled":false,"rental_uris":{"android":"levelo://app?vid=1ca0aca0-4ca4-4bf8-9b1d-054345c3a341","ios":"levelo://app?vid=1ca0aca0-4ca4-4bf8-9b1d-054345c3a341"},"vehicle_type_id":"4","last_reported":1733379287,"current_range_meters":25200,"station_id":"","pricing_plan_id":"cebpf4jnsgd1na2vs0mg"},{"bike_id":"b59b1f3b-114f-40a5-a7c7-20476d80dcf7","system_id":"levelo_inurba_marseille","lat":43.27946,"lon":5.41044,"is_reserved":false,"is_disabled":false,"rental_uris":{"android":"levelo://app?vid=b59b1f3b-114f-40a5-a7c7-20476d80dcf7","ios":"levelo://app?vid=b59b1f3b-114f-40a5-a7c7-20476d80dcf7"},"vehicle_type_id":"4","last_reported":1733379287,"current_range_meters":25600,"station_id":"ce4bhnp2rcd13ifvqh0g","pricing_plan_id":"cebpf4jnsgd1na2vs0mg"},{"bike_id":"b18eb3bb-eb3e-4729-aa22-60070211bacb","system_id":"levelo_inurba_marseille","lat":43.308024,"lon":5.38156,"is_reserved":false,"is_disabled":false,"rental_uris":{"android":"levelo://app?vid=b18eb3bb-eb3e-4729-aa22-60070211bacb","ios":"levelo://app?vid=b18eb3bb-eb3e-4729-aa22-60070211bacb"},"vehicle_type_id":"4","last_reported":1733379287,"current_range_meters":33600,"station_id":"ce4bgt12rcd13ifvqce0","pricing_plan_id":"cebpf4jnsgd1na2vs0mg"},{"bike_id":"fbcb3ea9-4a15-4ba8-82fb-a0348ff2b258","system_id":"levelo_inurba_marseille","lat":43.28166,"lon":5.42648,"is_reserved":false,"is_disabled":false,"rental_uris":{"android":"levelo://app?vid=fbcb3ea9-4a15-4ba8-82fb-a0348ff2b258","ios":"levelo://app?vid=fbcb3ea9-4a15-4ba8-82fb-a0348ff2b258"},"vehicle_type_id":"4","last_reported":1733379287,"current_range_meters":24800,"station_id":"","pricing_plan_id":"cebpf4jnsgd1na2vs0mg"},{"bike_id":"31e6fc3b-f821-47c0-8265-070531f4b97c","system_id":"levelo_inurba_marseille","lat":43.2417,"lon":5.39725,"is_reserved":false,"is_disabled":false,"rental_uris":{"android":"levelo://app?vid=31e6fc3b-f821-47c0-8265-070531f4b97c","ios":"levelo://app?vid=31e6fc3b-f821-47c0-8265-070531f4b97c"},"vehicle_type_id":"4","last_reported":1733379287,"current_range_meters":36400,"station_id":"ce4bhn12rcd13ifvqgpg","pricing_plan_id":"cebpf4jnsgd1na2vs0mg"},{"bike_id":"eafd2cab-5ced-4422-81d0-d3d803524573","system_id":"levelo_inurba_marseille","lat":43.30868,"lon":5.39626,"is_reserved":false,"is_disabled":false,"rental_uris":{"android":"levelo://app?vid=eafd2cab-5ced-4422-81d0-d3d803524573","ios":"levelo://app?vid=eafd2cab-5ced-4422-81d0-d3d803524573"},"vehicle_type_id":"4","last_reported":1733379287,"current_range_meters":20000,"station_id":"ce4bh012rcd13ifvqcv0","pricing_plan_id":"cebpf4jnsgd1na2vs0mg"},{"bike_id":"cc97291d-dd54-42f5-bf82-a33e785df71f","system_id":"levelo_inurba_marseille","lat":43.29225,"lon":5.36057,"is_reserved":false,"is_disabled":false,"rental_uris":{"android":"levelo://app?vid=cc97291d-dd54-42f5-bf82-a33e785df71f","ios":"levelo://app?vid=cc97291d-dd54-42f5-bf82-a33e785df71f"},"vehicle_type_id":"4","last_reported":1733379287,"current_range_meters":25200,"station_id":"ce4bhbh2rcd13ifvqeqg","pricing_plan_id":"cebpf4jnsgd1na2vs0mg"},{"bike_id":"ab05039b-da25-4171-883f-dbeac8d952e7","system_id":"levelo_inurba_marseille","lat":43.32368,"lon":5.38881,"is_reserved":false,"is_disabled":false,"rental_uris":{"android":"levelo://app?vid=ab05039b-da25-4171-883f-dbeac8d952e7","ios":"levelo://app?vid=ab05039b-da25-4171-883f-dbeac8d952e7"},"vehicle_type_id":"4","last_reported":1733379287,"current_range_meters":22800,"station_id":"ce4bhqp2rcd13ifvqhog","pricing_plan_id":"cebpf4jnsgd1na2vs0mg"},{"bike_id":"fabe9ee1-41e3-4884-8c7e-baeae1d862e2","system_id":"levelo_inurba_marseille","lat":43.2895,"lon":5.364,"is_reserved":false,"is_disabled":false,"rental_uris":{"android":"levelo://app?vid=fabe9ee1-41e3-4884-8c7e-baeae1d862e2","ios":"levelo://app?vid=fabe9ee1-41e3-4884-8c7e-baeae1d862e2"},"vehicle_type_id":"4","last_reported":1733379287,"current_range_meters":32800,"station_id":"ce4bhc92rcd13ifvqetg","pricing_plan_id":"cebpf4jnsgd1na2vs0mg"},{"bike_id":"bb6b53dd-4494-4182-a216-6003a45ab165","system_id":"levelo_inurba_marseille","lat":43.25002,"lon":5.38929,"is_reserved":false,"is_disabled":false,"rental_uris":{"android":"levelo://app?vid=bb6b53dd-4494-4182-a216-6003a45ab165","ios":"levelo://app?vid=bb6b53dd-4494-4182-a216-6003a45ab165"},"vehicle_type_id":"4","last_reported":1733379287,"current_range_meters":36800,"station_id":"ce4bhgp2rcd13ifvqfd0","pricing_plan_id":"cebpf4jnsgd1na2vs0mg"},{"bike_id":"9c77a68d-2e99-44e9-b903-950fb6644d35","system_id":"levelo_inurba_marseille","lat":43.25265,"lon":5.39465,"is_reserved":false,"is_disabled":true,"rental_uris":{"android":"levelo://app?vid=9c77a68d-2e99-44e9-b903-950fb6644d35","ios":"levelo://app?vid=9c77a68d-2e99-44e9-b903-950fb6644d35"},"vehicle_type_id":"4","last_reported":1733379287,"current_range_meters":0,"station_id":"","pricing_plan_id":"cebpf4jnsgd1na2vs0mg"},{"bike_id":"dce3be87-90c1-4c6d-92e0-cf09314d921e","system_id":"levelo_inurba_marseille","lat":43.297839,"lon":5.381135,"is_reserved":false,"is_disabled":true,"rental_uris":{"android":"levelo://app?vid=dce3be87-90c1-4c6d-92e0-cf09314d921e","ios":"levelo://app?vid=dce3be87-90c1-4c6d-92e0-cf09314d921e"},"vehicle_type_id":"4","last_reported":1733379287,"current_range_meters":22800,"station_id":"ce4bgip2rcd13ifvqbb0","pricing_plan_id":"cebpf4jnsgd1na2vs0mg"},{"bike_id":"58650582-f8e9-49b9-8dc5-fce796e3df79","system_id":"levelo_inurba_marseille","lat":43.25726,"lon":5.41116,"is_reserved":false,"is_disabled":false,"rental_uris":{"android":"levelo://app?vid=58650582-f8e9-49b9-8dc5-fce796e3df79","ios":"levelo://app?vid=58650582-f8e9-49b9-8dc5-fce796e3df79"},"vehicle_type_id":"4","last_reported":1733379287,"current_range_meters":14800,"station_id":"ce4bhkp2rcd13ifvqgd0","pricing_plan_id":"cebpf4jnsgd1na2vs0mg"},{"bike_id":"440d7dd7-8c77-43eb-bfd9-d6f4e1e4a6e4","system_id":"levelo_inurba_marseille","lat":43.308869,"lon":5.396429,"is_reserved":false,"is_disabled":true,"rental_uris":{"android":"levelo://app?vid=440d7dd7-8c77-43eb-bfd9-d6f4e1e4a6e4","ios":"levelo://app?vid=440d7dd7-8c77-43eb-bfd9-d6f4e1e4a6e4"},"vehicle_type_id":"4","last_reported":1733379287,"current_range_meters":0,"station_id":"ce4bh012rcd13ifvqcv0","pricing_plan_id":"cebpf4jnsgd1na2vs0mg"},{"bike_id":"6ed6104a-cb7d-4889-82fa-acac97c6f644","system_id":"levelo_inurba_marseille","lat":43.32335,"lon":5.406227,"is_reserved":false,"is_disabled":false,"rental_uris":{"android":"levelo://app?vid=6ed6104a-cb7d-4889-82fa-acac97c6f644","ios":"levelo://app?vid=6ed6104a-cb7d-4889-82fa-acac97c6f644"},"vehicle_type_id":"4","last_reported":1733379287,"current_range_meters":35200,"station_id":"ce4bhq92rcd13ifvqhjg","pricing_plan_id":"cebpf4jnsgd1na2vs0mg"},{"bike_id":"83985555-c848-4b28-808f-8a7e7cf8519e","system_id":"levelo_inurba_marseille","lat":43.28115,"lon":5.43955,"is_reserved":false,"is_disabled":true,"rental_uris":{"android":"levelo://app?vid=83985555-c848-4b28-808f-8a7e7cf8519e","ios":"levelo://app?vid=83985555-c848-4b28-808f-8a7e7cf8519e"},"vehicle_type_id":"4","last_reported":1733379287,"current_range_meters":0,"station_id":"","pricing_plan_id":"cebpf4jnsgd1na2vs0mg"},{"bike_id":"46e1791d-2e1f-42a3-8520-b35f41b873ad","system_id":"levelo_inurba_marseille","lat":43.30358,"lon":5.41876,"is_reserved":false,"is_disabled":false,"rental_uris":{"android":"levelo://app?vid=46e1791d-2e1f-42a3-8520-b35f41b873ad","ios":"levelo://app?vid=46e1791d-2e1f-42a3-8520-b35f41b873ad"},"vehicle_type_id":"4","last_reported":1733379287,"current_range_meters":19200,"station_id":"ce4bhop2rcd13ifvqh7g","pricing_plan_id":"cebpf4jnsgd1na2vs0mg"},{"bike_id":"daf264e1-1131-47f2-a065-9eb6add9ede3","system_id":"levelo_inurba_marseille","lat":43.28699,"lon":5.37392,"is_reserved":false,"is_disabled":true,"rental_uris":{"android":"levelo://app?vid=daf264e1-1131-47f2-a065-9eb6add9ede3","ios":"levelo://app?vid=daf264e1-1131-47f2-a065-9eb6add9ede3"},"vehicle_type_id":"4","last_reported":1733379287,"current_range_meters":1200,"station_id":"ce4bh3p2rcd13ifvqdq0","pricing_plan_id":"cebpf4jnsgd1na2vs0mg"},{"bike_id":"903ec8f1-f4c3-441f-a117-ff7454fcb959","system_id":"levelo_inurba_marseille","lat":43.29467,"lon":5.39434,"is_reserved":false,"is_disabled":true,"rental_uris":{"android":"levelo://app?vid=903ec8f1-f4c3-441f-a117-ff7454fcb959","ios":"levelo://app?vid=903ec8f1-f4c3-441f-a117-ff7454fcb959"},"vehicle_type_id":"4","last_reported":1733379287,"current_range_meters":0,"station_id":"","pricing_plan_id":"cebpf4jnsgd1na2vs0mg"},{"bike_id":"07a60b7f-80b7-470a-9515-22fa33d21dee","system_id":"levelo_inurba_marseille","lat":43.30287,"lon":5.39671,"is_reserved":false,"is_disabled":true,"rental_uris":{"android":"levelo://app?vid=07a60b7f-80b7-470a-9515-22fa33d21dee","ios":"levelo://app?vid=07a60b7f-80b7-470a-9515-22fa33d21dee"},"vehicle_type_id":"4","last_reported":1733379287,"current_range_meters":0,"station_id":"","pricing_plan_id":"cebpf4jnsgd1na2vs0mg"},{"bike_id":"15851dbe-baab-4737-adcd-0fbd265038e4","system_id":"levelo_inurba_marseille","lat":43.255794,"lon":5.382426,"is_reserved":false,"is_disabled":false,"rental_uris":{"android":"levelo://app?vid=15851dbe-baab-4737-adcd-0fbd265038e4","ios":"levelo://app?vid=15851dbe-baab-4737-adcd-0fbd265038e4"},"vehicle_type_id":"4","last_reported":1733379287,"current_range_meters":30400,"station_id":"ce4bhih2rcd13ifvqfs0","pricing_plan_id":"cebpf4jnsgd1na2vs0mg"},{"bike_id":"47aa3a4c-c572-4770-b78e-a70e304e4d39","system_id":"levelo_inurba_marseille","lat":43.2509,"lon":5.39525,"is_reserved":false,"is_disabled":false,"rental_uris":{"android":"levelo://app?vid=47aa3a4c-c572-4770-b78e-a70e304e4d39","ios":"levelo://app?vid=47aa3a4c-c572-4770-b78e-a70e304e4d39"},"vehicle_type_id":"4","last_reported":1733379287,"current_range_meters":10000,"station_id":"ce4bhm12rcd13ifvqgkg","pricing_plan_id":"cebpf4jnsgd1na2vs0mg"},{"bike_id":"69c3c435-a250-4180-bdeb-d5747c470a1a","system_id":"levelo_inurba_marseille","lat":43.28037,"lon":5.3695,"is_reserved":false,"is_disabled":false,"rental_uris":{"android":"levelo://app?vid=69c3c435-a250-4180-bdeb-d5747c470a1a","ios":"levelo://app?vid=69c3c435-a250-4180-bdeb-d5747c470a1a"},"vehicle_type_id":"4","last_reported":1733379287,"current_range_meters":38800,"station_id":"ce4bha12rcd13ifvqef0","pricing_plan_id":"cebpf4jnsgd1na2vs0mg"},{"bike_id":"0ec757e7-0315-41b2-8511-1ce3016f1897","system_id":"levelo_inurba_marseille","lat":43.3137,"lon":5.38506,"is_reserved":false,"is_disabled":false,"rental_uris":{"android":"levelo://app?vid=0ec757e7-0315-41b2-8511-1ce3016f1897","ios":"levelo://app?vid=0ec757e7-0315-41b2-8511-1ce3016f1897"},"vehicle_type_id":"4","last_reported":1733379287,"current_range_meters":17200,"station_id":"ce4bgt92rcd13ifvqcf0","pricing_plan_id":"cebpf4jnsgd1na2vs0mg"},{"bike_id":"eb21963f-de7e-4534-aca6-bda405f0be1e","system_id":"levelo_inurba_marseille","lat":43.29879,"lon":5.39763,"is_reserved":false,"is_disabled":false,"rental_uris":{"android":"levelo://app?vid=eb21963f-de7e-4534-aca6-bda405f0be1e","ios":"levelo://app?vid=eb21963f-de7e-4534-aca6-bda405f0be1e"},"vehicle_type_id":"4","last_reported":1733379287,"current_range_meters":32800,"station_id":"ce4bh0h2rcd13ifvqd50","pricing_plan_id":"cebpf4jnsgd1na2vs0mg"},{"bike_id":"020719d4-c29b-4e35-be4b-81ca932ddaa9","system_id":"levelo_inurba_marseille","lat":43.30236,"lon":5.4008,"is_reserved":false,"is_disabled":true,"rental_uris":{"android":"levelo://app?vid=020719d4-c29b-4e35-be4b-81ca932ddaa9","ios":"levelo://app?vid=020719d4-c29b-4e35-be4b-81ca932ddaa9"},"vehicle_type_id":"4","last_reported":1733379287,"current_range_meters":32800,"station_id":"ce4bgvh2rcd13ifvqcs0","pricing_plan_id":"cebpf4jnsgd1na2vs0mg"},{"bike_id":"890eb10a-f73d-4de8-8bdf-80b07d254f3c","system_id":"levelo_inurba_marseille","lat":43.26226,"lon":5.37941,"is_reserved":false,"is_disabled":false,"rental_uris":{"android":"levelo://app?vid=890eb10a-f73d-4de8-8bdf-80b07d254f3c","ios":"levelo://app?vid=890eb10a-f73d-4de8-8bdf-80b07d254f3c"},"vehicle_type_id":"4","last_reported":1733379287,"current_range_meters":39200,"station_id":"ce4bhjp2rcd13ifvqg90","pricing_plan_id":"cebpf4jnsgd1na2vs0mg"},{"bike_id":"94644262-5e4f-4327-8fd3-f8c1bf384e95","system_id":"levelo_inurba_marseille","lat":43.30355,"lon":5.41877,"is_reserved":false,"is_disabled":false,"rental_uris":{"android":"levelo://app?vid=94644262-5e4f-4327-8fd3-f8c1bf384e95","ios":"levelo://app?vid=94644262-5e4f-4327-8fd3-f8c1bf384e95"},"vehicle_type_id":"4","last_reported":1733379287,"current_range_meters":38800,"station_id":"ce4bhop2rcd13ifvqh7g","pricing_plan_id":"cebpf4jnsgd1na2vs0mg"},{"bike_id":"2cd8bcc2-6973-4bbb-a4df-236cf5858163","system_id":"levelo_inurba_marseille","lat":43.23195,"lon":5.3555,"is_reserved":false,"is_disabled":false,"rental_uris":{"android":"levelo://app?vid=2cd8bcc2-6973-4bbb-a4df-236cf5858163","ios":"levelo://app?vid=2cd8bcc2-6973-4bbb-a4df-236cf5858163"},"vehicle_type_id":"4","last_reported":1733379287,"current_range_meters":38800,"station_id":"ce4bhu92rcd13ifvqi70","pricing_plan_id":"cebpf4jnsgd1na2vs0mg"},{"bike_id":"bc355e08-5dbf-4adb-a402-88d99158c2fe","system_id":"levelo_inurba_marseille","lat":43.28445,"lon":5.39179,"is_reserved":false,"is_disabled":false,"rental_uris":{"android":"levelo://app?vid=bc355e08-5dbf-4adb-a402-88d99158c2fe","ios":"levelo://app?vid=bc355e08-5dbf-4adb-a402-88d99158c2fe"},"vehicle_type_id":"4","last_reported":1733379287,"current_range_meters":25600,"station_id":"ce4bhoh2rcd13ifvqh5g","pricing_plan_id":"cebpf4jnsgd1na2vs0mg"},{"bike_id":"791686e6-811e-43c8-ba63-00aeb6e257fa","system_id":"levelo_inurba_marseille","lat":43.2737,"lon":5.36259,"is_reserved":false,"is_disabled":false,"rental_uris":{"android":"levelo://app?vid=791686e6-811e-43c8-ba63-00aeb6e257fa","ios":"levelo://app?vid=791686e6-811e-43c8-ba63-00aeb6e257fa"},"vehicle_type_id":"4","last_reported":1733379287,"current_range_meters":6800,"station_id":"ce4bhbh2rcd13ifvqeo0","pricing_plan_id":"cebpf4jnsgd1na2vs0mg"},{"bike_id":"86e0770a-7d53-4f07-bfce-77b15f85fac6","system_id":"levelo_inurba_marseille","lat":43.29594,"lon":5.38106,"is_reserved":false,"is_disabled":true,"rental_uris":{"android":"levelo://app?vid=86e0770a-7d53-4f07-bfce-77b15f85fac6","ios":"levelo://app?vid=86e0770a-7d53-4f07-bfce-77b15f85fac6"},"vehicle_type_id":"4","last_reported":1733379287,"current_range_meters":3600,"station_id":"ce4bgl12rcd13ifvqbo0","pricing_plan_id":"cebpf4jnsgd1na2vs0mg"},{"bike_id":"dc24279f-f126-4126-97d7-1ef0fe43b4e9","system_id":"levelo_inurba_marseille","lat":43.273684,"lon":5.362584,"is_reserved":false,"is_disabled":false,"rental_uris":{"android":"levelo://app?vid=dc24279f-f126-4126-97d7-1ef0fe43b4e9","ios":"levelo://app?vid=dc24279f-f126-4126-97d7-1ef0fe43b4e9"},"vehicle_type_id":"4","last_reported":1733379287,"current_range_meters":24400,"station_id":"ce4bhbh2rcd13ifvqeo0","pricing_plan_id":"cebpf4jnsgd1na2vs0mg"},{"bike_id":"1a9c3581-331f-42e7-8b9f-2cdd7828100c","system_id":"levelo_inurba_marseille","lat":43.26951,"lon":5.38628,"is_reserved":false,"is_disabled":false,"rental_uris":{"android":"levelo://app?vid=1a9c3581-331f-42e7-8b9f-2cdd7828100c","ios":"levelo://app?vid=1a9c3581-331f-42e7-8b9f-2cdd7828100c"},"vehicle_type_id":"4","last_reported":1733379287,"current_range_meters":37600,"station_id":"ce4bhh92rcd13ifvqfh0","pricing_plan_id":"cebpf4jnsgd1na2vs0mg"},{"bike_id":"506c09f4-6c9b-4fb3-996c-4c7f86dd75a8","system_id":"levelo_inurba_marseille","lat":43.25492,"lon":5.37652,"is_reserved":false,"is_disabled":true,"rental_uris":{"android":"levelo://app?vid=506c09f4-6c9b-4fb3-996c-4c7f86dd75a8","ios":"levelo://app?vid=506c09f4-6c9b-4fb3-996c-4c7f86dd75a8"},"vehicle_type_id":"4","last_reported":1733379287,"current_range_meters":0,"station_id":"","pricing_plan_id":"cebpf4jnsgd1na2vs0mg"},{"bike_id":"91ce04db-2714-450f-b5b6-ab07058eade5","system_id":"levelo_inurba_marseille","lat":43.29631,"lon":5.40597,"is_reserved":false,"is_disabled":true,"rental_uris":{"android":"levelo://app?vid=91ce04db-2714-450f-b5b6-ab07058eade5","ios":"levelo://app?vid=91ce04db-2714-450f-b5b6-ab07058eade5"},"vehicle_type_id":"4","last_reported":1733379287,"current_range_meters":0,"station_id":"ce4bh0h2rcd13ifvqd60","pricing_plan_id":"cebpf4jnsgd1na2vs0mg"},{"bike_id":"fc552c93-2f1d-4095-a6f0-81c1980cde9c","system_id":"levelo_inurba_marseille","lat":43.298336,"lon":5.411463,"is_reserved":false,"is_disabled":false,"rental_uris":{"android":"levelo://app?vid=fc552c93-2f1d-4095-a6f0-81c1980cde9c","ios":"levelo://app?vid=fc552c93-2f1d-4095-a6f0-81c1980cde9c"},"vehicle_type_id":"4","last_reported":1733379287,"current_range_meters":37600,"station_id":"ce4bhop2rcd13ifvqh7g","pricing_plan_id":"cebpf4jnsgd1na2vs0mg"},{"bike_id":"9202c63e-372c-4469-a5c1-8e35757d1940","system_id":"levelo_inurba_marseille","lat":43.30053,"lon":5.38832,"is_reserved":false,"is_disabled":true,"rental_uris":{"android":"levelo://app?vid=9202c63e-372c-4469-a5c1-8e35757d1940","ios":"levelo://app?vid=9202c63e-372c-4469-a5c1-8e35757d1940"},"vehicle_type_id":"4","last_reported":1733379287,"current_range_meters":0,"station_id":"","pricing_plan_id":"cebpf4jnsgd1na2vs0mg"},{"bike_id":"fb669fc9-1ad6-46f8-9a6e-c301ceec0398","system_id":"levelo_inurba_marseille","lat":43.25078,"lon":5.39516,"is_reserved":false,"is_disabled":false,"rental_uris":{"android":"levelo://app?vid=fb669fc9-1ad6-46f8-9a6e-c301ceec0398","ios":"levelo://app?vid=fb669fc9-1ad6-46f8-9a6e-c301ceec0398"},"vehicle_type_id":"4","last_reported":1733379287,"current_range_meters":38800,"station_id":"ce4bhm12rcd13ifvqgkg","pricing_plan_id":"cebpf4jnsgd1na2vs0mg"},{"bike_id":"0b1b3914-eaf8-4e61-a0b8-cc49f041fb1f","system_id":"levelo_inurba_marseille","lat":43.32056,"lon":5.4162,"is_reserved":false,"is_disabled":false,"rental_uris":{"android":"levelo://app?vid=0b1b3914-eaf8-4e61-a0b8-cc49f041fb1f","ios":"levelo://app?vid=0b1b3914-eaf8-4e61-a0b8-cc49f041fb1f"},"vehicle_type_id":"4","last_reported":1733379287,"current_range_meters":37600,"station_id":"ce4bhq92rcd13ifvqhkg","pricing_plan_id":"cebpf4jnsgd1na2vs0mg"},{"bike_id":"75d0abab-06bc-437f-955e-17ad8bc515a7","system_id":"levelo_inurba_marseille","lat":43.30881,"lon":5.39639,"is_reserved":false,"is_disabled":false,"rental_uris":{"android":"levelo://app?vid=75d0abab-06bc-437f-955e-17ad8bc515a7","ios":"levelo://app?vid=75d0abab-06bc-437f-955e-17ad8bc515a7"},"vehicle_type_id":"4","last_reported":1733379287,"current_range_meters":27600,"station_id":"ce4bh012rcd13ifvqcv0","pricing_plan_id":"cebpf4jnsgd1na2vs0mg"},{"bike_id":"9d4c14dd-e2d3-413c-b94a-d2f6cb7c1141","system_id":"levelo_inurba_marseille","lat":43.28101,"lon":5.37857,"is_reserved":false,"is_disabled":false,"rental_uris":{"android":"levelo://app?vid=9d4c14dd-e2d3-413c-b94a-d2f6cb7c1141","ios":"levelo://app?vid=9d4c14dd-e2d3-413c-b94a-d2f6cb7c1141"},"vehicle_type_id":"4","last_reported":1733379287,"current_range_meters":24400,"station_id":"ce4bha12rcd13ifvqee0","pricing_plan_id":"cebpf4jnsgd1na2vs0mg"},{"bike_id":"617ae246-a2b4-4e1a-a737-88537a672a91","system_id":"levelo_inurba_marseille","lat":43.286781,"lon":5.386687,"is_reserved":false,"is_disabled":true,"rental_uris":{"android":"levelo://app?vid=617ae246-a2b4-4e1a-a737-88537a672a91","ios":"levelo://app?vid=617ae246-a2b4-4e1a-a737-88537a672a91"},"vehicle_type_id":"4","last_reported":1733379287,"current_range_meters":400,"station_id":"ce4bh492rcd13ifvqdug","pricing_plan_id":"cebpf4jnsgd1na2vs0mg"},{"bike_id":"cf3e6ea0-09ff-406c-b357-28a6a6117f94","system_id":"levelo_inurba_marseille","lat":43.22933,"lon":5.35383,"is_reserved":false,"is_disabled":false,"rental_uris":{"android":"levelo://app?vid=cf3e6ea0-09ff-406c-b357-28a6a6117f94","ios":"levelo://app?vid=cf3e6ea0-09ff-406c-b357-28a6a6117f94"},"vehicle_type_id":"4","last_reported":1733379287,"current_range_meters":38800,"station_id":"cpo3532slgdg3j2ikp40","pricing_plan_id":"cebpf4jnsgd1na2vs0mg"},{"bike_id":"fd7dea6a-aa83-4656-baae-4085b6e7d8d6","system_id":"levelo_inurba_marseille","lat":43.33727,"lon":5.39182,"is_reserved":false,"is_disabled":false,"rental_uris":{"android":"levelo://app?vid=fd7dea6a-aa83-4656-baae-4085b6e7d8d6","ios":"levelo://app?vid=fd7dea6a-aa83-4656-baae-4085b6e7d8d6"},"vehicle_type_id":"4","last_reported":1733379287,"current_range_meters":18800,"station_id":"ce4bhr92rcd13ifvqhsg","pricing_plan_id":"cebpf4jnsgd1na2vs0mg"},{"bike_id":"33b6defc-0259-40c1-8c7c-b5f4200fa144","system_id":"levelo_inurba_marseille","lat":43.23961,"lon":5.36644,"is_reserved":false,"is_disabled":false,"rental_uris":{"android":"levelo://app?vid=33b6defc-0259-40c1-8c7c-b5f4200fa144","ios":"levelo://app?vid=33b6defc-0259-40c1-8c7c-b5f4200fa144"},"vehicle_type_id":"4","last_reported":1733379287,"current_range_meters":8800,"station_id":"ce4bhi12rcd13ifvqfp0","pricing_plan_id":"cebpf4jnsgd1na2vs0mg"},{"bike_id":"14ce0945-4a24-4444-9f1e-7194f83f3f58","system_id":"levelo_inurba_marseille","lat":43.2895,"lon":5.36398,"is_reserved":false,"is_disabled":false,"rental_uris":{"android":"levelo://app?vid=14ce0945-4a24-4444-9f1e-7194f83f3f58","ios":"levelo://app?vid=14ce0945-4a24-4444-9f1e-7194f83f3f58"},"vehicle_type_id":"4","last_reported":1733379287,"current_range_meters":6800,"station_id":"ce4bhc92rcd13ifvqetg","pricing_plan_id":"cebpf4jnsgd1na2vs0mg"},{"bike_id":"32e3b939-48c3-4ea5-b418-6c25d78f8737","system_id":"levelo_inurba_marseille","lat":43.23964,"lon":5.36637,"is_reserved":false,"is_disabled":true,"rental_uris":{"android":"levelo://app?vid=32e3b939-48c3-4ea5-b418-6c25d78f8737","ios":"levelo://app?vid=32e3b939-48c3-4ea5-b418-6c25d78f8737"},"vehicle_type_id":"4","last_reported":1733379287,"current_range_meters":2000,"station_id":"ce4bhi12rcd13ifvqfp0","pricing_plan_id":"cebpf4jnsgd1na2vs0mg"},{"bike_id":"719e509a-25e4-4b1b-9830-f708d85d7593","system_id":"levelo_inurba_marseille","lat":43.29283,"lon":5.37397,"is_reserved":false,"is_disabled":true,"rental_uris":{"android":"levelo://app?vid=719e509a-25e4-4b1b-9830-f708d85d7593","ios":"levelo://app?vid=719e509a-25e4-4b1b-9830-f708d85d7593"},"vehicle_type_id":"4","last_reported":1733379287,"current_range_meters":0,"station_id":"","pricing_plan_id":"cebpf4jnsgd1na2vs0mg"},{"bike_id":"78b86d60-b25a-4760-b201-4c9ff2e9ac05","system_id":"levelo_inurba_marseille","lat":43.29035,"lon":5.39977,"is_reserved":false,"is_disabled":false,"rental_uris":{"android":"levelo://app?vid=78b86d60-b25a-4760-b201-4c9ff2e9ac05","ios":"levelo://app?vid=78b86d60-b25a-4760-b201-4c9ff2e9ac05"},"vehicle_type_id":"4","last_reported":1733379287,"current_range_meters":23200,"station_id":"ce4bh392rcd13ifvqdm0","pricing_plan_id":"cebpf4jnsgd1na2vs0mg"},{"bike_id":"9524b159-b4ce-452d-96ec-e3d7294532ae","system_id":"levelo_inurba_marseille","lat":43.30786,"lon":5.3765,"is_reserved":false,"is_disabled":false,"rental_uris":{"android":"levelo://app?vid=9524b159-b4ce-452d-96ec-e3d7294532ae","ios":"levelo://app?vid=9524b159-b4ce-452d-96ec-e3d7294532ae"},"vehicle_type_id":"4","last_reported":1733379287,"current_range_meters":38800,"station_id":"ce4bgv92rcd13ifvqcq0","pricing_plan_id":"cebpf4jnsgd1na2vs0mg"},{"bike_id":"88cf5d38-2133-4cb6-b0af-6f70467e5c19","system_id":"levelo_inurba_marseille","lat":43.3016,"lon":5.38083,"is_reserved":false,"is_disabled":false,"rental_uris":{"android":"levelo://app?vid=88cf5d38-2133-4cb6-b0af-6f70467e5c19","ios":"levelo://app?vid=88cf5d38-2133-4cb6-b0af-6f70467e5c19"},"vehicle_type_id":"4","last_reported":1733379287,"current_range_meters":30000,"station_id":"ce4bgjp2rcd13ifvqbh0","pricing_plan_id":"cebpf4jnsgd1na2vs0mg"},{"bike_id":"8f29d0b4-a369-4bf4-a7e4-66462f797d71","system_id":"levelo_inurba_marseille","lat":43.30539,"lon":5.3844,"is_reserved":false,"is_disabled":true,"rental_uris":{"android":"levelo://app?vid=8f29d0b4-a369-4bf4-a7e4-66462f797d71","ios":"levelo://app?vid=8f29d0b4-a369-4bf4-a7e4-66462f797d71"},"vehicle_type_id":"4","last_reported":1733379287,"current_range_meters":0,"station_id":"ce4bgg92rcd13ifvqb30","pricing_plan_id":"cebpf4jnsgd1na2vs0mg"},{"bike_id":"8d825ab3-a9cd-4865-97d2-0dacf9994034","system_id":"levelo_inurba_marseille","lat":43.26198,"lon":5.37929,"is_reserved":false,"is_disabled":false,"rental_uris":{"android":"levelo://app?vid=8d825ab3-a9cd-4865-97d2-0dacf9994034","ios":"levelo://app?vid=8d825ab3-a9cd-4865-97d2-0dacf9994034"},"vehicle_type_id":"4","last_reported":1733379287,"current_range_meters":39200,"station_id":"ce4bhjp2rcd13ifvqg90","pricing_plan_id":"cebpf4jnsgd1na2vs0mg"},{"bike_id":"72a10fc3-397f-43c3-878e-ac242a0d793c","system_id":"levelo_inurba_marseille","lat":43.26555,"lon":5.37283,"is_reserved":false,"is_disabled":false,"rental_uris":{"android":"levelo://app?vid=72a10fc3-397f-43c3-878e-ac242a0d793c","ios":"levelo://app?vid=72a10fc3-397f-43c3-878e-ac242a0d793c"},"vehicle_type_id":"4","last_reported":1733379287,"current_range_meters":35200,"station_id":"ce4bhg12rcd13ifvqf70","pricing_plan_id":"cebpf4jnsgd1na2vs0mg"},{"bike_id":"e2313035-0a27-419c-b06b-36a49898f917","system_id":"levelo_inurba_marseille","lat":43.27991,"lon":5.41657,"is_reserved":false,"is_disabled":false,"rental_uris":{"android":"levelo://app?vid=e2313035-0a27-419c-b06b-36a49898f917","ios":"levelo://app?vid=e2313035-0a27-419c-b06b-36a49898f917"},"vehicle_type_id":"4","last_reported":1733379287,"current_range_meters":12800,"station_id":"ce4bho12rcd13ifvqh1g","pricing_plan_id":"cebpf4jnsgd1na2vs0mg"},{"bike_id":"21f26508-a7b8-4e21-ae23-6bae799b0b4e","system_id":"levelo_inurba_marseille","lat":43.30637,"lon":5.40071,"is_reserved":false,"is_disabled":false,"rental_uris":{"android":"levelo://app?vid=21f26508-a7b8-4e21-ae23-6bae799b0b4e","ios":"levelo://app?vid=21f26508-a7b8-4e21-ae23-6bae799b0b4e"},"vehicle_type_id":"4","last_reported":1733379287,"current_range_meters":37600,"station_id":"ce4bh112rcd13ifvqda0","pricing_plan_id":"cebpf4jnsgd1na2vs0mg"},{"bike_id":"91d392a2-2fa0-4138-844b-2778296cb275","system_id":"levelo_inurba_marseille","lat":43.28434,"lon":5.39189,"is_reserved":false,"is_disabled":false,"rental_uris":{"android":"levelo://app?vid=91d392a2-2fa0-4138-844b-2778296cb275","ios":"levelo://app?vid=91d392a2-2fa0-4138-844b-2778296cb275"},"vehicle_type_id":"4","last_reported":1733379287,"current_range_meters":39200,"station_id":"ce4bhoh2rcd13ifvqh5g","pricing_plan_id":"cebpf4jnsgd1na2vs0mg"},{"bike_id":"417a239a-7f58-4756-b21f-36ef0f311ef4","system_id":"levelo_inurba_marseille","lat":43.281049,"lon":5.378309,"is_reserved":false,"is_disabled":false,"rental_uris":{"android":"levelo://app?vid=417a239a-7f58-4756-b21f-36ef0f311ef4","ios":"levelo://app?vid=417a239a-7f58-4756-b21f-36ef0f311ef4"},"vehicle_type_id":"4","last_reported":1733379287,"current_range_meters":23200,"station_id":"ce4bha12rcd13ifvqee0","pricing_plan_id":"cebpf4jnsgd1na2vs0mg"},{"bike_id":"84143cd6-1baa-4afc-adaf-6f8d04a0c1bc","system_id":"levelo_inurba_marseille","lat":43.31062,"lon":5.38365,"is_reserved":false,"is_disabled":false,"rental_uris":{"android":"levelo://app?vid=84143cd6-1baa-4afc-adaf-6f8d04a0c1bc","ios":"levelo://app?vid=84143cd6-1baa-4afc-adaf-6f8d04a0c1bc"},"vehicle_type_id":"4","last_reported":1733379287,"current_range_meters":20800,"station_id":"ce4bgv92rcd13ifvqcr0","pricing_plan_id":"cebpf4jnsgd1na2vs0mg"},{"bike_id":"8e0f273f-4c0b-4910-acd1-10a70595b103","system_id":"levelo_inurba_marseille","lat":43.30872,"lon":5.3721,"is_reserved":false,"is_disabled":false,"rental_uris":{"android":"levelo://app?vid=8e0f273f-4c0b-4910-acd1-10a70595b103","ios":"levelo://app?vid=8e0f273f-4c0b-4910-acd1-10a70595b103"},"vehicle_type_id":"4","last_reported":1733379287,"current_range_meters":18000,"station_id":"ce4bguh2rcd13ifvqckg","pricing_plan_id":"cebpf4jnsgd1na2vs0mg"},{"bike_id":"b01ba929-1580-401b-973d-e4a15d746d4a","system_id":"levelo_inurba_marseille","lat":43.22931,"lon":5.3538,"is_reserved":false,"is_disabled":false,"rental_uris":{"android":"levelo://app?vid=b01ba929-1580-401b-973d-e4a15d746d4a","ios":"levelo://app?vid=b01ba929-1580-401b-973d-e4a15d746d4a"},"vehicle_type_id":"4","last_reported":1733379287,"current_range_meters":17600,"station_id":"cpo3532slgdg3j2ikp40","pricing_plan_id":"cebpf4jnsgd1na2vs0mg"},{"bike_id":"726abc6e-2003-49a0-a34b-6f7f86ad3459","system_id":"levelo_inurba_marseille","lat":43.27066,"lon":5.42274,"is_reserved":false,"is_disabled":false,"rental_uris":{"android":"levelo://app?vid=726abc6e-2003-49a0-a34b-6f7f86ad3459","ios":"levelo://app?vid=726abc6e-2003-49a0-a34b-6f7f86ad3459"},"vehicle_type_id":"4","last_reported":1733379287,"current_range_meters":33200,"station_id":"ce4bhk92rcd13ifvqgb0","pricing_plan_id":"cebpf4jnsgd1na2vs0mg"},{"bike_id":"85b8393d-bfad-48b6-9a69-8e2f0146d992","system_id":"levelo_inurba_marseille","lat":43.31125,"lon":5.37767,"is_reserved":false,"is_disabled":false,"rental_uris":{"android":"levelo://app?vid=85b8393d-bfad-48b6-9a69-8e2f0146d992","ios":"levelo://app?vid=85b8393d-bfad-48b6-9a69-8e2f0146d992"},"vehicle_type_id":"4","last_reported":1733379287,"current_range_meters":28400,"station_id":"ce4bgt92rcd13ifvqcg0","pricing_plan_id":"cebpf4jnsgd1na2vs0mg"},{"bike_id":"7421c3ba-1a99-44e9-abab-694b1418d897","system_id":"levelo_inurba_marseille","lat":43.27947,"lon":5.41041,"is_reserved":false,"is_disabled":false,"rental_uris":{"android":"levelo://app?vid=7421c3ba-1a99-44e9-abab-694b1418d897","ios":"levelo://app?vid=7421c3ba-1a99-44e9-abab-694b1418d897"},"vehicle_type_id":"4","last_reported":1733379287,"current_range_meters":8400,"station_id":"ce4bhnp2rcd13ifvqh0g","pricing_plan_id":"cebpf4jnsgd1na2vs0mg"},{"bike_id":"b5d215dc-6fe1-43b1-a5b0-f1031ea82c0a","system_id":"levelo_inurba_marseille","lat":43.28925,"lon":5.36415,"is_reserved":false,"is_disabled":false,"rental_uris":{"android":"levelo://app?vid=b5d215dc-6fe1-43b1-a5b0-f1031ea82c0a","ios":"levelo://app?vid=b5d215dc-6fe1-43b1-a5b0-f1031ea82c0a"},"vehicle_type_id":"4","last_reported":1733379287,"current_range_meters":32800,"station_id":"ce4bhc92rcd13ifvqetg","pricing_plan_id":"cebpf4jnsgd1na2vs0mg"},{"bike_id":"930d8115-8e00-4e20-8d65-0044e0e8900d","system_id":"levelo_inurba_marseille","lat":43.23197,"lon":5.39989,"is_reserved":false,"is_disabled":false,"rental_uris":{"android":"levelo://app?vid=930d8115-8e00-4e20-8d65-0044e0e8900d","ios":"levelo://app?vid=930d8115-8e00-4e20-8d65-0044e0e8900d"},"vehicle_type_id":"4","last_reported":1733379287,"current_range_meters":32000,"station_id":"ce4bhn12rcd13ifvqgqg","pricing_plan_id":"cebpf4jnsgd1na2vs0mg"},{"bike_id":"39fb8aca-6d92-4bb3-a3d5-ec93bb1cad52","system_id":"levelo_inurba_marseille","lat":43.24676,"lon":5.38165,"is_reserved":false,"is_disabled":false,"rental_uris":{"android":"levelo://app?vid=39fb8aca-6d92-4bb3-a3d5-ec93bb1cad52","ios":"levelo://app?vid=39fb8aca-6d92-4bb3-a3d5-ec93bb1cad52"},"vehicle_type_id":"4","last_reported":1733379287,"current_range_meters":38000,"station_id":"ce4bhih2rcd13ifvqfr0","pricing_plan_id":"cebpf4jnsgd1na2vs0mg"},{"bike_id":"010f1ddc-a5dd-4595-9905-ebf82317a65f","system_id":"levelo_inurba_marseille","lat":43.33019,"lon":5.39037,"is_reserved":false,"is_disabled":false,"rental_uris":{"android":"levelo://app?vid=010f1ddc-a5dd-4595-9905-ebf82317a65f","ios":"levelo://app?vid=010f1ddc-a5dd-4595-9905-ebf82317a65f"},"vehicle_type_id":"4","last_reported":1733379287,"current_range_meters":38800,"station_id":"ce4bhr92rcd13ifvqhrg","pricing_plan_id":"cebpf4jnsgd1na2vs0mg"},{"bike_id":"c03e15fe-1fa9-45ab-8749-9b85acac2715","system_id":"levelo_inurba_marseille","lat":43.30145,"lon":5.37413,"is_reserved":false,"is_disabled":false,"rental_uris":{"android":"levelo://app?vid=c03e15fe-1fa9-45ab-8749-9b85acac2715","ios":"levelo://app?vid=c03e15fe-1fa9-45ab-8749-9b85acac2715"},"vehicle_type_id":"4","last_reported":1733379287,"current_range_meters":37600,"station_id":"ce4bgs92rcd13ifvqcc0","pricing_plan_id":"cebpf4jnsgd1na2vs0mg"},{"bike_id":"13a7f40b-b270-485b-af20-999740871f73","system_id":"levelo_inurba_marseille","lat":43.30924,"lon":5.40154,"is_reserved":false,"is_disabled":false,"rental_uris":{"android":"levelo://app?vid=13a7f40b-b270-485b-af20-999740871f73","ios":"levelo://app?vid=13a7f40b-b270-485b-af20-999740871f73"},"vehicle_type_id":"4","last_reported":1733379287,"current_range_meters":33200,"station_id":"ce4bgvp2rcd13ifvqct0","pricing_plan_id":"cebpf4jnsgd1na2vs0mg"},{"bike_id":"41fdf70c-0ba6-4325-9d9a-fe313bf81f9e","system_id":"levelo_inurba_marseille","lat":43.27416,"lon":5.39416,"is_reserved":false,"is_disabled":false,"rental_uris":{"android":"levelo://app?vid=41fdf70c-0ba6-4325-9d9a-fe313bf81f9e","ios":"levelo://app?vid=41fdf70c-0ba6-4325-9d9a-fe313bf81f9e"},"vehicle_type_id":"4","last_reported":1733379287,"current_range_meters":38000,"station_id":"ce4bhdp2rcd13ifvqf20","pricing_plan_id":"cebpf4jnsgd1na2vs0mg"},{"bike_id":"d5d85f9f-a0ad-420c-b735-16273f277a96","system_id":"levelo_inurba_marseille","lat":43.22923,"lon":5.35382,"is_reserved":false,"is_disabled":false,"rental_uris":{"android":"levelo://app?vid=d5d85f9f-a0ad-420c-b735-16273f277a96","ios":"levelo://app?vid=d5d85f9f-a0ad-420c-b735-16273f277a96"},"vehicle_type_id":"4","last_reported":1733379287,"current_range_meters":26800,"station_id":"cpo3532slgdg3j2ikp40","pricing_plan_id":"cebpf4jnsgd1na2vs0mg"},{"bike_id":"41776b6e-9d3f-445f-b068-5523c904169f","system_id":"levelo_inurba_marseille","lat":43.26943,"lon":5.40251,"is_reserved":false,"is_disabled":false,"rental_uris":{"android":"levelo://app?vid=41776b6e-9d3f-445f-b068-5523c904169f","ios":"levelo://app?vid=41776b6e-9d3f-445f-b068-5523c904169f"},"vehicle_type_id":"4","last_reported":1733379287,"current_range_meters":38000,"station_id":"cjm6bp8fraef2m0cb0m0","pricing_plan_id":"cebpf4jnsgd1na2vs0mg"},{"bike_id":"79c8ea6d-5102-4a1e-b941-afdabc095945","system_id":"levelo_inurba_marseille","lat":43.29073,"lon":5.38341,"is_reserved":false,"is_disabled":true,"rental_uris":{"android":"levelo://app?vid=79c8ea6d-5102-4a1e-b941-afdabc095945","ios":"levelo://app?vid=79c8ea6d-5102-4a1e-b941-afdabc095945"},"vehicle_type_id":"4","last_reported":1733379287,"current_range_meters":16000,"station_id":"","pricing_plan_id":"cebpf4jnsgd1na2vs0mg"},{"bike_id":"84a2915d-c6ef-4af0-8c6d-2fcd615fa6c7","system_id":"levelo_inurba_marseille","lat":43.333466,"lon":5.42023,"is_reserved":false,"is_disabled":true,"rental_uris":{"android":"levelo://app?vid=84a2915d-c6ef-4af0-8c6d-2fcd615fa6c7","ios":"levelo://app?vid=84a2915d-c6ef-4af0-8c6d-2fcd615fa6c7"},"vehicle_type_id":"4","last_reported":1733379287,"current_range_meters":0,"station_id":"","pricing_plan_id":"cebpf4jnsgd1na2vs0mg"},{"bike_id":"7d7a5256-0b29-49cb-8991-991c96c156e4","system_id":"levelo_inurba_marseille","lat":43.29636,"lon":5.40595,"is_reserved":false,"is_disabled":false,"rental_uris":{"android":"levelo://app?vid=7d7a5256-0b29-49cb-8991-991c96c156e4","ios":"levelo://app?vid=7d7a5256-0b29-49cb-8991-991c96c156e4"},"vehicle_type_id":"4","last_reported":1733379287,"current_range_meters":20000,"station_id":"ce4bh0h2rcd13ifvqd60","pricing_plan_id":"cebpf4jnsgd1na2vs0mg"},{"bike_id":"db6c3c15-f860-4ed9-a653-670dca70a50a","system_id":"levelo_inurba_marseille","lat":43.31506,"lon":5.37252,"is_reserved":false,"is_disabled":false,"rental_uris":{"android":"levelo://app?vid=db6c3c15-f860-4ed9-a653-670dca70a50a","ios":"levelo://app?vid=db6c3c15-f860-4ed9-a653-670dca70a50a"},"vehicle_type_id":"4","last_reported":1733379287,"current_range_meters":24800,"station_id":"ce4bgt12rcd13ifvqcd0","pricing_plan_id":"cebpf4jnsgd1na2vs0mg"},{"bike_id":"f9af7297-60c8-43d7-a968-0426c218f11f","system_id":"levelo_inurba_marseille","lat":43.25485,"lon":5.3766,"is_reserved":false,"is_disabled":true,"rental_uris":{"android":"levelo://app?vid=f9af7297-60c8-43d7-a968-0426c218f11f","ios":"levelo://app?vid=f9af7297-60c8-43d7-a968-0426c218f11f"},"vehicle_type_id":"4","last_reported":1733379287,"current_range_meters":12000,"station_id":"ce4bhh12rcd13ifvqff0","pricing_plan_id":"cebpf4jnsgd1na2vs0mg"},{"bike_id":"e688a6cb-a73f-4e44-bb2e-e02be83caf7c","system_id":"levelo_inurba_marseille","lat":43.30088,"lon":5.38207,"is_reserved":false,"is_disabled":false,"rental_uris":{"android":"levelo://app?vid=e688a6cb-a73f-4e44-bb2e-e02be83caf7c","ios":"levelo://app?vid=e688a6cb-a73f-4e44-bb2e-e02be83caf7c"},"vehicle_type_id":"4","last_reported":1733379287,"current_range_meters":33200,"station_id":"ce4bh292rcd13ifvqdf0","pricing_plan_id":"cebpf4jnsgd1na2vs0mg"},{"bike_id":"e3a0c7b3-9cbe-4191-84c4-9cd8f64fe8c8","system_id":"levelo_inurba_marseille","lat":43.28426,"lon":5.34989,"is_reserved":false,"is_disabled":false,"rental_uris":{"android":"levelo://app?vid=e3a0c7b3-9cbe-4191-84c4-9cd8f64fe8c8","ios":"levelo://app?vid=e3a0c7b3-9cbe-4191-84c4-9cd8f64fe8c8"},"vehicle_type_id":"4","last_reported":1733379287,"current_range_meters":38800,"station_id":"ce4bhbh2rcd13ifvqepg","pricing_plan_id":"cebpf4jnsgd1na2vs0mg"},{"bike_id":"78f27d57-2bc9-4ace-bee5-4bfa35944afd","system_id":"levelo_inurba_marseille","lat":43.28439,"lon":5.39186,"is_reserved":false,"is_disabled":false,"rental_uris":{"android":"levelo://app?vid=78f27d57-2bc9-4ace-bee5-4bfa35944afd","ios":"levelo://app?vid=78f27d57-2bc9-4ace-bee5-4bfa35944afd"},"vehicle_type_id":"4","last_reported":1733379287,"current_range_meters":39200,"station_id":"ce4bhoh2rcd13ifvqh5g","pricing_plan_id":"cebpf4jnsgd1na2vs0mg"},{"bike_id":"704edf0a-9774-4ca2-8fd4-44a2b86045e9","system_id":"levelo_inurba_marseille","lat":43.273774,"lon":5.362616,"is_reserved":false,"is_disabled":false,"rental_uris":{"android":"levelo://app?vid=704edf0a-9774-4ca2-8fd4-44a2b86045e9","ios":"levelo://app?vid=704edf0a-9774-4ca2-8fd4-44a2b86045e9"},"vehicle_type_id":"4","last_reported":1733379287,"current_range_meters":21600,"station_id":"ce4bhbh2rcd13ifvqeo0","pricing_plan_id":"cebpf4jnsgd1na2vs0mg"},{"bike_id":"6cbba370-4cb2-4753-957d-8c3113d16189","system_id":"levelo_inurba_marseille","lat":43.32477,"lon":5.36562,"is_reserved":false,"is_disabled":false,"rental_uris":{"android":"levelo://app?vid=6cbba370-4cb2-4753-957d-8c3113d16189","ios":"levelo://app?vid=6cbba370-4cb2-4753-957d-8c3113d16189"},"vehicle_type_id":"4","last_reported":1733379287,"current_range_meters":38800,"station_id":"ce4bhs12rcd13ifvqhvg","pricing_plan_id":"cebpf4jnsgd1na2vs0mg"},{"bike_id":"a0d5a94e-aa69-479b-aabb-c319c34ff52e","system_id":"levelo_inurba_marseille","lat":43.31363,"lon":5.384961,"is_reserved":false,"is_disabled":false,"rental_uris":{"android":"levelo://app?vid=a0d5a94e-aa69-479b-aabb-c319c34ff52e","ios":"levelo://app?vid=a0d5a94e-aa69-479b-aabb-c319c34ff52e"},"vehicle_type_id":"4","last_reported":1733379287,"current_range_meters":22000,"station_id":"ce4bgt92rcd13ifvqcf0","pricing_plan_id":"cebpf4jnsgd1na2vs0mg"},{"bike_id":"a4b9e425-64b8-4ce2-a5ab-5fcc5d1230a4","system_id":"levelo_inurba_marseille","lat":43.32106,"lon":5.36781,"is_reserved":false,"is_disabled":false,"rental_uris":{"android":"levelo://app?vid=a4b9e425-64b8-4ce2-a5ab-5fcc5d1230a4","ios":"levelo://app?vid=a4b9e425-64b8-4ce2-a5ab-5fcc5d1230a4"},"vehicle_type_id":"4","last_reported":1733379287,"current_range_meters":36400,"station_id":"ce4bhrh2rcd13ifvqhug","pricing_plan_id":"cebpf4jnsgd1na2vs0mg"},{"bike_id":"c2c60ae5-8a06-46dd-8518-74b6fd30f85e","system_id":"levelo_inurba_marseille","lat":43.26569,"lon":5.39015,"is_reserved":false,"is_disabled":false,"rental_uris":{"android":"levelo://app?vid=c2c60ae5-8a06-46dd-8518-74b6fd30f85e","ios":"levelo://app?vid=c2c60ae5-8a06-46dd-8518-74b6fd30f85e"},"vehicle_type_id":"4","last_reported":1733379287,"current_range_meters":29600,"station_id":"ce4bhe12rcd13ifvqf30","pricing_plan_id":"cebpf4jnsgd1na2vs0mg"},{"bike_id":"b4460782-1b14-4d20-bfb1-42d0a60d64f7","system_id":"levelo_inurba_marseille","lat":43.28453,"lon":5.35882,"is_reserved":false,"is_disabled":false,"rental_uris":{"android":"levelo://app?vid=b4460782-1b14-4d20-bfb1-42d0a60d64f7","ios":"levelo://app?vid=b4460782-1b14-4d20-bfb1-42d0a60d64f7"},"vehicle_type_id":"4","last_reported":1733379287,"current_range_meters":38800,"station_id":"ce4bhah2rcd13ifvqei0","pricing_plan_id":"cebpf4jnsgd1na2vs0mg"},{"bike_id":"e9825e22-a219-4419-9c42-05f082b516ed","system_id":"levelo_inurba_marseille","lat":43.29794,"lon":5.39351,"is_reserved":false,"is_disabled":true,"rental_uris":{"android":"levelo://app?vid=e9825e22-a219-4419-9c42-05f082b516ed","ios":"levelo://app?vid=e9825e22-a219-4419-9c42-05f082b516ed"},"vehicle_type_id":"4","last_reported":1733379287,"current_range_meters":0,"station_id":"chh1huq6cuj3fo74tm60","pricing_plan_id":"cebpf4jnsgd1na2vs0mg"},{"bike_id":"4d1af05b-ec97-4a6e-909f-18d1b0d39a77","system_id":"levelo_inurba_marseille","lat":43.28676,"lon":5.38655,"is_reserved":false,"is_disabled":false,"rental_uris":{"android":"levelo://app?vid=4d1af05b-ec97-4a6e-909f-18d1b0d39a77","ios":"levelo://app?vid=4d1af05b-ec97-4a6e-909f-18d1b0d39a77"},"vehicle_type_id":"4","last_reported":1733379287,"current_range_meters":34000,"station_id":"ce4bh492rcd13ifvqdug","pricing_plan_id":"cebpf4jnsgd1na2vs0mg"},{"bike_id":"fc02bf7c-fa30-4850-9eb4-c1c04eeef081","system_id":"levelo_inurba_marseille","lat":43.330171,"lon":5.390406,"is_reserved":false,"is_disabled":false,"rental_uris":{"android":"levelo://app?vid=fc02bf7c-fa30-4850-9eb4-c1c04eeef081","ios":"levelo://app?vid=fc02bf7c-fa30-4850-9eb4-c1c04eeef081"},"vehicle_type_id":"4","last_reported":1733379287,"current_range_meters":26000,"station_id":"ce4bhr92rcd13ifvqhrg","pricing_plan_id":"cebpf4jnsgd1na2vs0mg"},{"bike_id":"c2d8a1c2-d166-4a36-b32f-beec95c93bd5","system_id":"levelo_inurba_marseille","lat":43.33756,"lon":5.37459,"is_reserved":false,"is_disabled":false,"rental_uris":{"android":"levelo://app?vid=c2d8a1c2-d166-4a36-b32f-beec95c93bd5","ios":"levelo://app?vid=c2d8a1c2-d166-4a36-b32f-beec95c93bd5"},"vehicle_type_id":"4","last_reported":1733379287,"current_range_meters":10800,"station_id":"","pricing_plan_id":"cebpf4jnsgd1na2vs0mg"},{"bike_id":"28be3190-da6b-4322-bbb3-b059c0124282","system_id":"levelo_inurba_marseille","lat":43.27994,"lon":5.40018,"is_reserved":false,"is_disabled":false,"rental_uris":{"android":"levelo://app?vid=28be3190-da6b-4322-bbb3-b059c0124282","ios":"levelo://app?vid=28be3190-da6b-4322-bbb3-b059c0124282"},"vehicle_type_id":"4","last_reported":1733379287,"current_range_meters":28800,"station_id":"ce4bho92rcd13ifvqh4g","pricing_plan_id":"cebpf4jnsgd1na2vs0mg"},{"bike_id":"6fa0e8b3-75cc-49ca-b10f-cd9cb83b8878","system_id":"levelo_inurba_marseille","lat":43.31056,"lon":5.38351,"is_reserved":false,"is_disabled":false,"rental_uris":{"android":"levelo://app?vid=6fa0e8b3-75cc-49ca-b10f-cd9cb83b8878","ios":"levelo://app?vid=6fa0e8b3-75cc-49ca-b10f-cd9cb83b8878"},"vehicle_type_id":"4","last_reported":1733379287,"current_range_meters":6400,"station_id":"ce4bgv92rcd13ifvqcr0","pricing_plan_id":"cebpf4jnsgd1na2vs0mg"},{"bike_id":"135a61d9-0198-4325-86b0-f76226ad33d8","system_id":"levelo_inurba_marseille","lat":43.24387,"lon":5.37054,"is_reserved":false,"is_disabled":false,"rental_uris":{"android":"levelo://app?vid=135a61d9-0198-4325-86b0-f76226ad33d8","ios":"levelo://app?vid=135a61d9-0198-4325-86b0-f76226ad33d8"},"vehicle_type_id":"4","last_reported":1733379287,"current_range_meters":38000,"station_id":"ce4bhhh2rcd13ifvqfk0","pricing_plan_id":"cebpf4jnsgd1na2vs0mg"},{"bike_id":"460ec171-3843-41d5-8f4e-34f1342cace5","system_id":"levelo_inurba_marseille","lat":43.30162,"lon":5.37412,"is_reserved":false,"is_disabled":false,"rental_uris":{"android":"levelo://app?vid=460ec171-3843-41d5-8f4e-34f1342cace5","ios":"levelo://app?vid=460ec171-3843-41d5-8f4e-34f1342cace5"},"vehicle_type_id":"4","last_reported":1733379287,"current_range_meters":38800,"station_id":"ce4bgs92rcd13ifvqcc0","pricing_plan_id":"cebpf4jnsgd1na2vs0mg"},{"bike_id":"5f4b7b33-9066-484c-9c20-b70c39338231","system_id":"levelo_inurba_marseille","lat":43.26804,"lon":5.40268,"is_reserved":false,"is_disabled":false,"rental_uris":{"android":"levelo://app?vid=5f4b7b33-9066-484c-9c20-b70c39338231","ios":"levelo://app?vid=5f4b7b33-9066-484c-9c20-b70c39338231"},"vehicle_type_id":"4","last_reported":1733379287,"current_range_meters":6000,"station_id":"ce501612rcd8frsf0b60","pricing_plan_id":"cebpf4jnsgd1na2vs0mg"},{"bike_id":"6cb0d7b1-f509-4b8f-a2d8-e08152953ff5","system_id":"levelo_inurba_marseille","lat":43.24808,"lon":5.37458,"is_reserved":false,"is_disabled":false,"rental_uris":{"android":"levelo://app?vid=6cb0d7b1-f509-4b8f-a2d8-e08152953ff5","ios":"levelo://app?vid=6cb0d7b1-f509-4b8f-a2d8-e08152953ff5"},"vehicle_type_id":"4","last_reported":1733379287,"current_range_meters":38800,"station_id":"ce4bhgh2rcd13ifvqfb0","pricing_plan_id":"cebpf4jnsgd1na2vs0mg"},{"bike_id":"5605d362-7a6b-439d-b82f-b1eebcb406f8","system_id":"levelo_inurba_marseille","lat":43.26681,"lon":5.38276,"is_reserved":false,"is_disabled":false,"rental_uris":{"android":"levelo://app?vid=5605d362-7a6b-439d-b82f-b1eebcb406f8","ios":"levelo://app?vid=5605d362-7a6b-439d-b82f-b1eebcb406f8"},"vehicle_type_id":"4","last_reported":1733379287,"current_range_meters":38800,"station_id":"ce4bhg92rcd13ifvqf90","pricing_plan_id":"cebpf4jnsgd1na2vs0mg"},{"bike_id":"eb670d23-f40a-48c6-89e8-aaf1982cb889","system_id":"levelo_inurba_marseille","lat":43.26815,"lon":5.40262,"is_reserved":false,"is_disabled":false,"rental_uris":{"android":"levelo://app?vid=eb670d23-f40a-48c6-89e8-aaf1982cb889","ios":"levelo://app?vid=eb670d23-f40a-48c6-89e8-aaf1982cb889"},"vehicle_type_id":"4","last_reported":1733379287,"current_range_meters":38800,"station_id":"ce501612rcd8frsf0b60","pricing_plan_id":"cebpf4jnsgd1na2vs0mg"},{"bike_id":"756a9192-aa58-4f72-b244-29c95fb55dd5","system_id":"levelo_inurba_marseille","lat":43.30471,"lon":5.37911,"is_reserved":false,"is_disabled":false,"rental_uris":{"android":"levelo://app?vid=756a9192-aa58-4f72-b244-29c95fb55dd5","ios":"levelo://app?vid=756a9192-aa58-4f72-b244-29c95fb55dd5"},"vehicle_type_id":"4","last_reported":1733379287,"current_range_meters":26000,"station_id":"ce4bgup2rcd13ifvqcn0","pricing_plan_id":"cebpf4jnsgd1na2vs0mg"},{"bike_id":"cd0eaa41-1235-44ff-ad90-46e68c1bc335","system_id":"levelo_inurba_marseille","lat":43.33008,"lon":5.39011,"is_reserved":false,"is_disabled":false,"rental_uris":{"android":"levelo://app?vid=cd0eaa41-1235-44ff-ad90-46e68c1bc335","ios":"levelo://app?vid=cd0eaa41-1235-44ff-ad90-46e68c1bc335"},"vehicle_type_id":"4","last_reported":1733379287,"current_range_meters":16400,"station_id":"ce4bhr92rcd13ifvqhrg","pricing_plan_id":"cebpf4jnsgd1na2vs0mg"},{"bike_id":"062c48bc-ce6b-4e53-bc0e-240815d75010","system_id":"levelo_inurba_marseille","lat":43.28458,"lon":5.35901,"is_reserved":false,"is_disabled":false,"rental_uris":{"android":"levelo://app?vid=062c48bc-ce6b-4e53-bc0e-240815d75010","ios":"levelo://app?vid=062c48bc-ce6b-4e53-bc0e-240815d75010"},"vehicle_type_id":"4","last_reported":1733379287,"current_range_meters":28800,"station_id":"ce4bhah2rcd13ifvqei0","pricing_plan_id":"cebpf4jnsgd1na2vs0mg"},{"bike_id":"5607fc22-1610-4e43-ade6-c565bf3d9fde","system_id":"levelo_inurba_marseille","lat":43.29004,"lon":5.35615,"is_reserved":false,"is_disabled":false,"rental_uris":{"android":"levelo://app?vid=5607fc22-1610-4e43-ade6-c565bf3d9fde","ios":"levelo://app?vid=5607fc22-1610-4e43-ade6-c565bf3d9fde"},"vehicle_type_id":"4","last_reported":1733379287,"current_range_meters":37600,"station_id":"ce4bhb92rcd13ifvqen0","pricing_plan_id":"cebpf4jnsgd1na2vs0mg"},{"bike_id":"261220fd-5dcf-4647-a7b7-e8a521af2bec","system_id":"levelo_inurba_marseille","lat":43.27908,"lon":5.37996,"is_reserved":false,"is_disabled":false,"rental_uris":{"android":"levelo://app?vid=261220fd-5dcf-4647-a7b7-e8a521af2bec","ios":"levelo://app?vid=261220fd-5dcf-4647-a7b7-e8a521af2bec"},"vehicle_type_id":"4","last_reported":1733379287,"current_range_meters":38800,"station_id":"ce4bhf92rcd13ifvqf50","pricing_plan_id":"cebpf4jnsgd1na2vs0mg"},{"bike_id":"f423e0a3-fc0c-4e8c-a742-55c7b9f5f0ba","system_id":"levelo_inurba_marseille","lat":43.32361,"lon":5.38882,"is_reserved":false,"is_disabled":false,"rental_uris":{"android":"levelo://app?vid=f423e0a3-fc0c-4e8c-a742-55c7b9f5f0ba","ios":"levelo://app?vid=f423e0a3-fc0c-4e8c-a742-55c7b9f5f0ba"},"vehicle_type_id":"4","last_reported":1733379287,"current_range_meters":36800,"station_id":"ce4bhqp2rcd13ifvqhog","pricing_plan_id":"cebpf4jnsgd1na2vs0mg"},{"bike_id":"637a2191-0b99-4ddd-8d5c-313c825e67ee","system_id":"levelo_inurba_marseille","lat":43.33023,"lon":5.39038,"is_reserved":false,"is_disabled":false,"rental_uris":{"android":"levelo://app?vid=637a2191-0b99-4ddd-8d5c-313c825e67ee","ios":"levelo://app?vid=637a2191-0b99-4ddd-8d5c-313c825e67ee"},"vehicle_type_id":"4","last_reported":1733379287,"current_range_meters":38400,"station_id":"ce4bhr92rcd13ifvqhrg","pricing_plan_id":"cebpf4jnsgd1na2vs0mg"},{"bike_id":"86b60ccf-05be-4f97-a287-9ff7e739c073","system_id":"levelo_inurba_marseille","lat":43.31365,"lon":5.3849,"is_reserved":false,"is_disabled":false,"rental_uris":{"android":"levelo://app?vid=86b60ccf-05be-4f97-a287-9ff7e739c073","ios":"levelo://app?vid=86b60ccf-05be-4f97-a287-9ff7e739c073"},"vehicle_type_id":"4","last_reported":1733379287,"current_range_meters":38800,"station_id":"ce4bgt92rcd13ifvqcf0","pricing_plan_id":"cebpf4jnsgd1na2vs0mg"},{"bike_id":"566d3863-5d3d-46e1-8560-48de365cc9d0","system_id":"levelo_inurba_marseille","lat":43.26552,"lon":5.37287,"is_reserved":false,"is_disabled":false,"rental_uris":{"android":"levelo://app?vid=566d3863-5d3d-46e1-8560-48de365cc9d0","ios":"levelo://app?vid=566d3863-5d3d-46e1-8560-48de365cc9d0"},"vehicle_type_id":"4","last_reported":1733379287,"current_range_meters":8400,"station_id":"ce4bhg12rcd13ifvqf70","pricing_plan_id":"cebpf4jnsgd1na2vs0mg"},