{"last_updated":1746529732,"ttl":60,"version":"2.2","data":{"bikes":[{"bike_id":"545631c8-05b7-4070-95e3-52dc096addb5","system_id":"levelo_inurba_marseille","lat":43.271917,"lon":5.364785,"is_reserved":false,"is_disabled":true,"rental_uris":{"android":"levelo://app?vid=545631c8-05b7-4070-95e3-52dc096addb5","ios":"levelo://app?vid=545631c8-05b7-4070-95e3-52dc096addb5"},"vehicle_type_id":"4","last_reported":1746529732,"current_range_meters":0,"station_id":"","pricing_plan_id":"cebpf4jnsgd1na2vs0mg"},{"bike_id":"a0ce76ea-4a3e-456b-8981-6ea420463480","system_id":"levelo_inurba_marseille","lat":43.30071,"lon":5.37705,"is_reserved":false,"is_disabled":true,"rental_uris":{"android":"levelo://app?vid=a0ce76ea-4a3e-456b-8981-6ea420463480","ios":"levelo://app?vid=a0ce76ea-4a3e-456b-8981-6ea420463480"},"vehicle_type_id":"4","last_reported":1746529732,"current_range_meters":0,"station_id":"","pricing_plan_id":"cebpf4jnsgd1na2vs0mg"},{"bike_id":"64a99dee-e5f5-406c-bb57-3c1dd0084469","system_id":"levelo_inurba_marseille","lat":43.23667,"lon":5.39143,"is_reserved":false,"is_disabled":true,"rental_uris":{"android":"levelo://app?vid=64a99dee-e5f5-406c-bb57-3c1dd0084469","ios":"levelo://app?vid=64a99dee-e5f5-406c-bb57-3c1dd0084469"},"vehicle_type_id":"4","last_reported":1746529732,"current_range_meters":0,"station_id":"","pricing_plan_id":"cebpf4jnsgd1na2vs0mg"},{"bike_id":"b56eeeb9-9ded-4dd2-9efa-c8d4f8a5e387","system_id":"levelo_inurba_marseille","lat":43.27361,"lon":5.42218,"is_reserved":false,"is_disabled":true,"rental_uris":{"android":"levelo://app?vid=b56eeeb9-9ded-4dd2-9efa-c8d4f8a5e387","ios":"levelo://app?vid=b56eeeb9-9ded-4dd2-9efa-c8d4f8a5e387"},"vehicle_type_id":"4","last_reported":1746529732,"current_range_meters":0,"station_id":"","pricing_plan_id":"cebpf4jnsgd1na2vs0mg"},{"bike_id":"4a2906fd-25b2-4be5-811e-9d84d28e283d","system_id":"levelo_inurba_marseille","lat":43.25394,"lon":5.42404,"is_reserved":false,"is_disabled":true,"rental_uris":{"android":"levelo://app?vid=4a2906fd-25b2-4be5-811e-9d84d28e283d","ios":"levelo://app?vid=4a2906fd-25b2-4be5-811e-9d84d28e283d"},"vehicle_type_id":"4","last_reported":1746529732,"current_range_meters":0,"station_id":"","pricing_plan_id":"cebpf4jnsgd1na2vs0mg"},{"bike_id":"bd0343b0-6217-4fba-908d-102d5a986183","system_id":"levelo_inurba_marseille","lat":43.298889,"lon":5.365059,"is_reserved":false,"is_disabled":true,"rental_uris":{"android":"levelo://app?vid=bd0343b0-6217-4fba-908d-102d5a986183","ios":"levelo://app?vid=bd0343b0-6217-4fba-908d-102d5a986183"},"vehicle_type_id":"4","last_reported":1746529732,"current_range_meters":0,"station_id":"ce4bgn12rcd13ifvqbt0","pricing_plan_id":"cebpf4jnsgd1na2vs0mg"},{"bike_id":"ed6258ed-261a-4d19-955b-6d7627cf1fdf","system_id":"levelo_inurba_marseille","lat":43.309596,"lon":5.390657,"is_reserved":false,"is_disabled":true,"rental_uris":{"android":"levelo://app?vid=ed6258ed-261a-4d19-955b-6d7627cf1fdf","ios":"levelo://app?vid=ed6258ed-261a-4d19-955b-6d7627cf1fdf"},"vehicle_type_id":"4","last_reported":1746529732,"current_range_meters":0,"station_id":"ce4bgup2rcd13ifvqco0","pricing_plan_id":"cebpf4jnsgd1na2vs0mg"},{"bike_id":"b87fcc11-5d9b-4133-b88b-6a899275794f","system_id":"levelo_inurba_marseille","lat":43.337444,"lon":5.374475,"is_reserved":false,"is_disabled":true,"rental_uris":{"android":"levelo://app?vid=b87fcc11-5d9b-4133-b88b-6a899275794f","ios":"levelo://app?vid=b87fcc11-5d9b-4133-b88b-6a899275794f"},"vehicle_type_id":"4","last_reported":1746529732,"current_range_meters":0,"station_id":"ce4bgvp2rcd13ifvqct0","pricing_plan_id":"cebpf4jnsgd1na2vs0mg"},{"bike_id":"63faf308-2859-4fdb-9dac-3557590439db","system_id":"levelo_inurba_marseille","lat":43.29288,"lon":5.40109,"is_reserved":false,"is_disabled":true,"rental_uris":{"android":"levelo://app?vid=63faf308-2859-4fdb-9dac-3557590439db","ios":"levelo://app?vid=63faf308-2859-4fdb-9dac-3557590439db"},"vehicle_type_id":"4","last_reported":1746529732,"current_range_meters":0,"station_id":"ce4bh312rcd13ifvqdk0","pricing_plan_id":"cebpf4jnsgd1na2vs0mg"},{"bike_id":"7e664dc8-734e-459b-8338-7dd07e5a4212","system_id":"levelo_inurba_marseille","lat":43.2893,"lon":5.38385,"is_reserved":false,"is_disabled":true,"rental_uris":{"android":"levelo://app?vid=7e664dc8-734e-459b-8338-7dd07e5a4212","ios":"levelo://app?vid=7e664dc8-734e-459b-8338-7dd07e5a4212"},"vehicle_type_id":"4","last_reported":1746529732,"current_range_meters":0,"station_id":"ce4bh612rcd13ifvqe6g","pricing_plan_id":"cebpf4jnsgd1na2vs0mg"},{"bike_id":"01afc410-881d-4d91-b8e9-1e82fd6fefae","system_id":"levelo_inurba_marseille","lat":43.26229,"lon":5.40456,"is_reserved":false,"is_disabled":true,"rental_uris":{"android":"levelo://app?vid=01afc410-881d-4d91-b8e9-1e82fd6fefae","ios":"levelo://app?vid=01afc410-881d-4d91-b8e9-1e82fd6fefae"},"vehicle_type_id":"4","last_reported":1746529732,"current_range_meters":0,"station_id":"ce4bhmh2rcd13ifvqgmg","pricing_plan_id":"cebpf4jnsgd1na2vs0mg"},{"bike_id":"5b384506-5726-408b-bd5f-6e6adbd54599","system_id":"levelo_inurba_marseille","lat":43.27496,"lon":5.42479,"is_reserved":false,"is_disabled":true,"rental_uris":{"android":"levelo://app?vid=5b384506-5726-408b-bd5f-6e6adbd54599","ios":"levelo://app?vid=5b384506-5726-408b-bd5f-6e6adbd54599"},"vehicle_type_id":"4","last_reported":1746529732,"current_range_meters":0,"station_id":"ce4bhn92rcd13ifvqgrg","pricing_plan_id":"cebpf4jnsgd1na2vs0mg"},{"bike_id":"2e28428a-8cc0-4d5b-b486-8f8adfb318f9","system_id":"levelo_inurba_marseille","lat":43.24068,"lon":5.37766,"is_reserved":false,"is_disabled":true,"rental_uris":{"android":"levelo://app?vid=2e28428a-8cc0-4d5b-b486-8f8adfb318f9","ios":"levelo://app?vid=2e28428a-8cc0-4d5b-b486-8f8adfb318f9"},"vehicle_type_id":"4","last_reported":1746529732,"current_range_meters":0,"station_id":"ce4bhnp2rcd13ifvqgvg","pricing_plan_id":"cebpf4jnsgd1na2vs0mg"},{"bike_id":"de665182-5d20-4f12-86b8-f2becad9139b","system_id":"levelo_inurba_marseille","lat":43.325376,"lon":5.414292,"is_reserved":false,"is_disabled":true,"rental_uris":{"android":"levelo://app?vid=de665182-5d20-4f12-86b8-f2becad9139b","ios":"levelo://app?vid=de665182-5d20-4f12-86b8-f2becad9139b"},"vehicle_type_id":"4","last_reported":1746529732,"current_range_meters":0,"station_id":"ce4bhq12rcd13ifvqhhg","pricing_plan_id":"cebpf4jnsgd1na2vs0mg"},{"bike_id":"713addbb-83ed-4bb4-8953-037e3c486bd4","system_id":"levelo_inurba_marseille","lat":43.24167,"lon":5.36389,"is_reserved":false,"is_disabled":true,"rental_uris":{"android":"levelo://app?vid=713addbb-83ed-4bb4-8953-037e3c486bd4","ios":"levelo://app?vid=713addbb-83ed-4bb4-8953-037e3c486bd4"},"vehicle_type_id":"4","last_reported":1746529732,"current_range_meters":0,"station_id":"cpo36qri1sfpv3e86is0","pricing_plan_id":"cebpf4jnsgd1na2vs0mg"},{"bike_id":"81eff0ee-a78e-40ed-af3f-ae0e834a33f4","system_id":"levelo_inurba_marseille","lat":43.30534,"lon":5.38435,"is_reserved":false,"is_disabled":true,"rental_uris":{"android":"levelo://app?vid=81eff0ee-a78e-40ed-af3f-ae0e834a33f4","ios":"levelo://app?vid=81eff0ee-a78e-40ed-af3f-ae0e834a33f4"},"vehicle_type_id":"4","last_reported":1746529732,"current_range_meters":400,"station_id":"ce4bgg92rcd13ifvqb30","pricing_plan_id":"cebpf4jnsgd1na2vs0mg"},{"bike_id":"7ab66daa-39ab-4b8c-9ddf-3b1965d819db","system_id":"levelo_inurba_marseille","lat":43.302765,"lon":5.377082,"is_reserved":false,"is_disabled":true,"rental_uris":{"android":"levelo://app?vid=7ab66daa-39ab-4b8c-9ddf-3b1965d819db","ios":"levelo://app?vid=7ab66daa-39ab-4b8c-9ddf-3b1965d819db"},"vehicle_type_id":"4","last_reported":1746529732,"current_range_meters":800,"station_id":"ce4bguh2rcd13ifvqcj0","pricing_plan_id":"cebpf4jnsgd1na2vs0mg"},{"bike_id":"7e410c7f-2788-4310-9f9e-7a2c5d708a42","system_id":"levelo_inurba_marseille","lat":43.30468,"lon":5.37904,"is_reserved":false,"is_disabled":true,"rental_uris":{"android":"levelo://app?vid=7e410c7f-2788-4310-9f9e-7a2c5d708a42","ios":"levelo://app?vid=7e410c7f-2788-4310-9f9e-7a2c5d708a42"},"vehicle_type_id":"4","last_reported":1746529732,"current_range_meters":800,"station_id":"ce4bgup2rcd13ifvqcn0","pricing_plan_id":"cebpf4jnsgd1na2vs0mg"},{"bike_id":"44c46bf0-329a-4d52-a389-18a6bc7c597b","system_id":"levelo_inurba_marseille","lat":43.30123,"lon":5.39863,"is_reserved":false,"is_disabled":false,"rental_uris":{"android":"levelo://app?vid=44c46bf0-329a-4d52-a389-18a6bc7c597b","ios":"levelo://app?vid=44c46bf0-329a-4d52-a389-18a6bc7c597b"},"vehicle_type_id":"4","last_reported":1746529732,"current_range_meters":800,"station_id":"ce4bh0h2rcd13ifvqd40","pricing_plan_id":"cebpf4jnsgd1na2vs0mg"},{"bike_id":"6a4a2701-edb9-4bad-81fb-670cae08956e","system_id":"levelo_inurba_marseille","lat":43.29016,"lon":5.38126,"is_reserved":false,"is_disabled":true,"rental_uris":{"android":"levelo://app?vid=6a4a2701-edb9-4bad-81fb-670cae08956e","ios":"levelo://app?vid=6a4a2701-edb9-4bad-81fb-670cae08956e"},"vehicle_type_id":"4","last_reported":1746529732,"current_range_meters":800,"station_id":"ce4bh4p2rcd13ifvqe1g","pricing_plan_id":"cebpf4jnsgd1na2vs0mg"},{"bike_id":"e8b5d2b5-b67c-4efe-aee2-e116b5d3ba2e","system_id":"levelo_inurba_marseille","lat":43.2315,"lon":5.43709,"is_reserved":false,"is_disabled":true,"rental_uris":{"android":"levelo://app?vid=e8b5d2b5-b67c-4efe-aee2-e116b5d3ba2e","ios":"levelo://app?vid=e8b5d2b5-b67c-4efe-aee2-e116b5d3ba2e"},"vehicle_type_id":"4","last_reported":1746529732,"current_range_meters":1200,"station_id":"ce4bhmp2rcd13ifvqgog","pricing_plan_id":"cebpf4jnsgd1na2vs0mg"},{"bike_id":"5775e9d6-a7de-451b-b382-9c87b6443313","system_id":"levelo_inurba_marseille","lat":43.29225,"lon":5.36067,"is_reserved":false,"is_disabled":true,"rental_uris":{"android":"levelo://app?vid=5775e9d6-a7de-451b-b382-9c87b6443313","ios":"levelo://app?vid=5775e9d6-a7de-451b-b382-9c87b6443313"},"vehicle_type_id":"4","last_reported":1746529732,"current_range_meters":1600,"station_id":"ce4bhbh2rcd13ifvqeqg","pricing_plan_id":"cebpf4jnsgd1na2vs0mg"},{"bike_id":"417fabf7-9a7a-4441-b1e0-ddc11d5ef206","system_id":"levelo_inurba_marseille","lat":43.30345,"lon":5.41874,"is_reserved":false,"is_disabled":true,"rental_uris":{"android":"levelo://app?vid=417fabf7-9a7a-4441-b1e0-ddc11d5ef206","ios":"levelo://app?vid=417fabf7-9a7a-4441-b1e0-ddc11d5ef206"},"vehicle_type_id":"4","last_reported":1746529732,"current_range_meters":1600,"station_id":"ce4bhop2rcd13ifvqh7g","pricing_plan_id":"cebpf4jnsgd1na2vs0mg"},{"bike_id":"cad06dbf-30de-4399-a8bd-2a10a32eda08","system_id":"levelo_inurba_marseille","lat":43.211923,"lon":5.35068,"is_reserved":false,"is_disabled":true,"rental_uris":{"android":"levelo://app?vid=cad06dbf-30de-4399-a8bd-2a10a32eda08","ios":"levelo://app?vid=cad06dbf-30de-4399-a8bd-2a10a32eda08"},"vehicle_type_id":"4","last_reported":1746529732,"current_range_meters":1600,"station_id":"st_cvj6sg6p6f1abm77japg","pricing_plan_id":"cebpf4jnsgd1na2vs0mg"},{"bike_id":"8251072b-5ef3-4546-9834-fbdef52e2368","system_id":"levelo_inurba_marseille","lat":43.29368,"lon":5.37835,"is_reserved":false,"is_disabled":false,"rental_uris":{"android":"levelo://app?vid=8251072b-5ef3-4546-9834-fbdef52e2368","ios":"levelo://app?vid=8251072b-5ef3-4546-9834-fbdef52e2368"},"vehicle_type_id":"4","last_reported":1746529732,"current_range_meters":2000,"station_id":"ce4bgjh2rcd13ifvqbf0","pricing_plan_id":"cebpf4jnsgd1na2vs0mg"},{"bike_id":"910a440f-c2cf-479f-bec5-6cfb05f2a79e","system_id":"levelo_inurba_marseille","lat":43.292816,"lon":5.401151,"is_reserved":false,"is_disabled":true,"rental_uris":{"android":"levelo://app?vid=910a440f-c2cf-479f-bec5-6cfb05f2a79e","ios":"levelo://app?vid=910a440f-c2cf-479f-bec5-6cfb05f2a79e"},"vehicle_type_id":"4","last_reported":1746529732,"current_range_meters":2000,"station_id":"ce4bh312rcd13ifvqdk0","pricing_plan_id":"cebpf4jnsgd1na2vs0mg"},{"bike_id":"a1215f87-443f-4f60-9382-d9bf6a56bdf7","system_id":"levelo_inurba_marseille","lat":43.28269,"lon":5.35069,"is_reserved":false,"is_disabled":true,"rental_uris":{"android":"levelo://app?vid=a1215f87-443f-4f60-9382-d9bf6a56bdf7","ios":"levelo://app?vid=a1215f87-443f-4f60-9382-d9bf6a56bdf7"},"vehicle_type_id":"4","last_reported":1746529732,"current_range_meters":2000,"station_id":"ce4bhbp2rcd13ifvqerg","pricing_plan_id":"cebpf4jnsgd1na2vs0mg"},{"bike_id":"49000559-f74d-4c2e-a2b8-307fc4c1cc93","system_id":"levelo_inurba_marseille","lat":43.29877,"lon":5.39736,"is_reserved":false,"is_disabled":false,"rental_uris":{"android":"levelo://app?vid=49000559-f74d-4c2e-a2b8-307fc4c1cc93","ios":"levelo://app?vid=49000559-f74d-4c2e-a2b8-307fc4c1cc93"},"vehicle_type_id":"4","last_reported":1746529732,"current_range_meters":2800,"station_id":"ce4bh0h2rcd13ifvqd50","pricing_plan_id":"cebpf4jnsgd1na2vs0mg"},{"bike_id":"66b646b3-6352-44bb-9bfb-21570512e3e5","system_id":"levelo_inurba_marseille","lat":43.281227,"lon":5.403958,"is_reserved":false,"is_disabled":false,"rental_uris":{"android":"levelo://app?vid=66b646b3-6352-44bb-9bfb-21570512e3e5","ios":"levelo://app?vid=66b646b3-6352-44bb-9bfb-21570512e3e5"},"vehicle_type_id":"4","last_reported":1746529732,"current_range_meters":3600,"station_id":"","pricing_plan_id":"cebpf4jnsgd1na2vs0mg"},{"bike_id":"0103fbce-e8c6-4792-9746-2c7780eb3f37","system_id":"levelo_inurba_marseille","lat":43.28365,"lon":5.38636,"is_reserved":false,"is_disabled":false,"rental_uris":{"android":"levelo://app?vid=0103fbce-e8c6-4792-9746-2c7780eb3f37","ios":"levelo://app?vid=0103fbce-e8c6-4792-9746-2c7780eb3f37"},"vehicle_type_id":"4","last_reported":1746529732,"current_range_meters":3600,"station_id":"ce4bh492rcd13ifvqdvg","pricing_plan_id":"cebpf4jnsgd1na2vs0mg"},{"bike_id":"61c35a3d-d8a9-4b6d-94b5-e4d94d7890e3","system_id":"levelo_inurba_marseille","lat":43.2923,"lon":5.36063,"is_reserved":false,"is_disabled":false,"rental_uris":{"android":"levelo://app?vid=61c35a3d-d8a9-4b6d-94b5-e4d94d7890e3","ios":"levelo://app?vid=61c35a3d-d8a9-4b6d-94b5-e4d94d7890e3"},"vehicle_type_id":"4","last_reported":1746529732,"current_range_meters":4000,"station_id":"ce4bhbh2rcd13ifvqeqg","pricing_plan_id":"cebpf4jnsgd1na2vs0mg"},{"bike_id":"649e0235-434b-4c76-a7ec-800ad052b31d","system_id":"levelo_inurba_marseille","lat":43.24805,"lon":5.37454,"is_reserved":false,"is_disabled":false,"rental_uris":{"android":"levelo://app?vid=649e0235-434b-4c76-a7ec-800ad052b31d","ios":"levelo://app?vid=649e0235-434b-4c76-a7ec-800ad052b31d"},"vehicle_type_id":"4","last_reported":1746529732,"current_range_meters":4000,"station_id":"ce4bhgh2rcd13ifvqfb0","pricing_plan_id":"cebpf4jnsgd1na2vs0mg"},{"bike_id":"a1e34125-472f-4374-a553-309ebcd0c60b","system_id":"levelo_inurba_marseille","lat":43.3117,"lon":5.38721,"is_reserved":false,"is_disabled":false,"rental_uris":{"android":"levelo://app?vid=a1e34125-472f-4374-a553-309ebcd0c60b","ios":"levelo://app?vid=a1e34125-472f-4374-a553-309ebcd0c60b"},"vehicle_type_id":"4","last_reported":1746529732,"current_range_meters":4400,"station_id":"ce4bgv12rcd13ifvqcp0","pricing_plan_id":"cebpf4jnsgd1na2vs0mg"},{"bike_id":"b3b34caa-1457-4d67-81f0-4494f72e1d82","system_id":"levelo_inurba_marseille","lat":43.28682,"lon":5.38664,"is_reserved":false,"is_disabled":false,"rental_uris":{"android":"levelo://app?vid=b3b34caa-1457-4d67-81f0-4494f72e1d82","ios":"levelo://app?vid=b3b34caa-1457-4d67-81f0-4494f72e1d82"},"vehicle_type_id":"4","last_reported":1746529732,"current_range_meters":4400,"station_id":"ce4bh492rcd13ifvqdug","pricing_plan_id":"cebpf4jnsgd1na2vs0mg"},{"bike_id":"b3570c36-bcf5-4a1e-b46f-4992e19c537b","system_id":"levelo_inurba_marseille","lat":43.27926,"lon":5.39578,"is_reserved":false,"is_disabled":false,"rental_uris":{"android":"levelo://app?vid=b3570c36-bcf5-4a1e-b46f-4992e19c537b","ios":"levelo://app?vid=b3570c36-bcf5-4a1e-b46f-4992e19c537b"},"vehicle_type_id":"4","last_reported":1746529732,"current_range_meters":4400,"station_id":"ce4bhf92rcd13ifvqf40","pricing_plan_id":"cebpf4jnsgd1na2vs0mg"},{"bike_id":"c5418f3e-05ad-4a8e-8bf0-0f8ff25eb4c2","system_id":"levelo_inurba_marseille","lat":43.29041,"lon":5.3996,"is_reserved":false,"is_disabled":false,"rental_uris":{"android":"levelo://app?vid=c5418f3e-05ad-4a8e-8bf0-0f8ff25eb4c2","ios":"levelo://app?vid=c5418f3e-05ad-4a8e-8bf0-0f8ff25eb4c2"},"vehicle_type_id":"4","last_reported":1746529732,"current_range_meters":4800,"station_id":"ce4bh392rcd13ifvqdm0","pricing_plan_id":"cebpf4jnsgd1na2vs0mg"},{"bike_id":"f7b096b0-f50b-4bdf-8682-c7f827baf5c6","system_id":"levelo_inurba_marseille","lat":43.25107,"lon":5.40336,"is_reserved":false,"is_disabled":false,"rental_uris":{"android":"levelo://app?vid=f7b096b0-f50b-4bdf-8682-c7f827baf5c6","ios":"levelo://app?vid=f7b096b0-f50b-4bdf-8682-c7f827baf5c6"},"vehicle_type_id":"4","last_reported":1746529732,"current_range_meters":4800,"station_id":"ce4bhlh2rcd13ifvqgig","pricing_plan_id":"cebpf4jnsgd1na2vs0mg"},{"bike_id":"da7597de-6e19-428b-9c45-737c82ce4d05","system_id":"levelo_inurba_marseille","lat":43.28937,"lon":5.36395,"is_reserved":false,"is_disabled":false,"rental_uris":{"android":"levelo://app?vid=da7597de-6e19-428b-9c45-737c82ce4d05","ios":"levelo://app?vid=da7597de-6e19-428b-9c45-737c82ce4d05"},"vehicle_type_id":"4","last_reported":1746529732,"current_range_meters":5600,"station_id":"ce4bhc92rcd13ifvqetg","pricing_plan_id":"cebpf4jnsgd1na2vs0mg"},{"bike_id":"5c7249a3-596f-4101-8dbd-1087a1f3b438","system_id":"levelo_inurba_marseille","lat":43.231876,"lon":5.35557,"is_reserved":false,"is_disabled":false,"rental_uris":{"android":"levelo://app?vid=5c7249a3-596f-4101-8dbd-1087a1f3b438","ios":"levelo://app?vid=5c7249a3-596f-4101-8dbd-1087a1f3b438"},"vehicle_type_id":"4","last_reported":1746529732,"current_range_meters":5600,"station_id":"ce4bhu92rcd13ifvqi70","pricing_plan_id":"cebpf4jnsgd1na2vs0mg"},{"bike_id":"903ace5d-b1d6-4b6c-9fdc-25cc75342bd1","system_id":"levelo_inurba_marseille","lat":43.265657,"lon":5.38995,"is_reserved":false,"is_disabled":false,"rental_uris":{"android":"levelo://app?vid=903ace5d-b1d6-4b6c-9fdc-25cc75342bd1","ios":"levelo://app?vid=903ace5d-b1d6-4b6c-9fdc-25cc75342bd1"},"vehicle_type_id":"4","last_reported":1746529732,"current_range_meters":6000,"station_id":"ce4bhe12rcd13ifvqf30","pricing_plan_id":"cebpf4jnsgd1na2vs0mg"},{"bike_id":"482344f1-460c-48ea-83dd-01b9a385e5cf","system_id":"levelo_inurba_marseille","lat":43.30663,"lon":5.36849,"is_reserved":false,"is_disabled":false,"rental_uris":{"android":"levelo://app?vid=482344f1-460c-48ea-83dd-01b9a385e5cf","ios":"levelo://app?vid=482344f1-460c-48ea-83dd-01b9a385e5cf"},"vehicle_type_id":"4","last_reported":1746529732,"current_range_meters":6400,"station_id":"","pricing_plan_id":"cebpf4jnsgd1na2vs0mg"},{"bike_id":"3065250a-ba89-4ebc-9fb6-763712865e70","system_id":"levelo_inurba_marseille","lat":43.31486,"lon":5.37306,"is_reserved":false,"is_disabled":false,"rental_uris":{"android":"levelo://app?vid=3065250a-ba89-4ebc-9fb6-763712865e70","ios":"levelo://app?vid=3065250a-ba89-4ebc-9fb6-763712865e70"},"vehicle_type_id":"4","last_reported":1746529732,"current_range_meters":6400,"station_id":"ce4bgt12rcd13ifvqcd0","pricing_plan_id":"cebpf4jnsgd1na2vs0mg"},{"bike_id":"425cb4b0-b6a5-43ce-b396-03d145c11c50","system_id":"levelo_inurba_marseille","lat":43.28265,"lon":5.35064,"is_reserved":false,"is_disabled":false,"rental_uris":{"android":"levelo://app?vid=425cb4b0-b6a5-43ce-b396-03d145c11c50","ios":"levelo://app?vid=425cb4b0-b6a5-43ce-b396-03d145c11c50"},"vehicle_type_id":"4","last_reported":1746529732,"current_range_meters":6400,"station_id":"ce4bhbp2rcd13ifvqerg","pricing_plan_id":"cebpf4jnsgd1na2vs0mg"},{"bike_id":"9ff93f25-60bb-42b0-812a-125825f37fb9","system_id":"levelo_inurba_marseille","lat":43.26937,"lon":5.38919,"is_reserved":false,"is_disabled":false,"rental_uris":{"android":"levelo://app?vid=9ff93f25-60bb-42b0-812a-125825f37fb9","ios":"levelo://app?vid=9ff93f25-60bb-42b0-812a-125825f37fb9"},"vehicle_type_id":"4","last_reported":1746529732,"current_range_meters":6400,"station_id":"ce4bhhh2rcd13ifvqfl0","pricing_plan_id":"cebpf4jnsgd1na2vs0mg"},{"bike_id":"ac63e74b-4488-48c9-97a3-fa06519df3ef","system_id":"levelo_inurba_marseille","lat":43.31331,"lon":5.36718,"is_reserved":false,"is_disabled":false,"rental_uris":{"android":"levelo://app?vid=ac63e74b-4488-48c9-97a3-fa06519df3ef","ios":"levelo://app?vid=ac63e74b-4488-48c9-97a3-fa06519df3ef"},"vehicle_type_id":"4","last_reported":1746529732,"current_range_meters":6800,"station_id":"ce4bgr92rcd13ifvqc6g","pricing_plan_id":"cebpf4jnsgd1na2vs0mg"},{"bike_id":"d8b28899-beb2-4fed-90ec-740853b41530","system_id":"levelo_inurba_marseille","lat":43.31324,"lon":5.36718,"is_reserved":false,"is_disabled":false,"rental_uris":{"android":"levelo://app?vid=d8b28899-beb2-4fed-90ec-740853b41530","ios":"levelo://app?vid=d8b28899-beb2-4fed-90ec-740853b41530"},"vehicle_type_id":"4","last_reported":1746529732,"current_range_meters":6800,"station_id":"ce4bgr92rcd13ifvqc6g","pricing_plan_id":"cebpf4jnsgd1na2vs0mg"},{"bike_id":"5f75a000-5412-4dcc-9930-718ca33b8fe7","system_id":"levelo_inurba_marseille","lat":43.31422,"lon":5.36724,"is_reserved":false,"is_disabled":false,"rental_uris":{"android":"levelo://app?vid=5f75a000-5412-4dcc-9930-718ca33b8fe7","ios":"levelo://app?vid=5f75a000-5412-4dcc-9930-718ca33b8fe7"},"vehicle_type_id":"4","last_reported":1746529732,"current_range_meters":7200,"station_id":"","pricing_plan_id":"cebpf4jnsgd1na2vs0mg"},{"bike_id":"cab39b07-6d6e-4370-af03-f46bc482f4d0","system_id":"levelo_inurba_marseille","lat":43.334517,"lon":5.420577,"is_reserved":false,"is_disabled":false,"rental_uris":{"android":"levelo://app?vid=cab39b07-6d6e-4370-af03-f46bc482f4d0","ios":"levelo://app?vid=cab39b07-6d6e-4370-af03-f46bc482f4d0"},"vehicle_type_id":"4","last_reported":1746529732,"current_range_meters":7200,"station_id":"","pricing_plan_id":"cebpf4jnsgd1na2vs0mg"},{"bike_id":"5513a6b5-c8d9-446e-b644-5fea494e8d28","system_id":"levelo_inurba_marseille","lat":43.29095,"lon":5.38148,"is_reserved":false,"is_disabled":false,"rental_uris":{"android":"levelo://app?vid=5513a6b5-c8d9-446e-b644-5fea494e8d28","ios":"levelo://app?vid=5513a6b5-c8d9-446e-b644-5fea494e8d28"},"vehicle_type_id":"4","last_reported":1746529732,"current_range_meters":7200,"station_id":"ce4bh512rcd13ifvqe2g","pricing_plan_id":"cebpf4jnsgd1na2vs0mg"},{"bike_id":"bb3770c0-c8de-4e1a-98a3-90598e8ca104","system_id":"levelo_inurba_marseille","lat":43.28419,"lon":5.34975,"is_reserved":false,"is_disabled":false,"rental_uris":{"android":"levelo://app?vid=bb3770c0-c8de-4e1a-98a3-90598e8ca104","ios":"levelo://app?vid=bb3770c0-c8de-4e1a-98a3-90598e8ca104"},"vehicle_type_id":"4","last_reported":1746529732,"current_range_meters":7200,"station_id":"ce4bhbh2rcd13ifvqepg","pricing_plan_id":"cebpf4jnsgd1na2vs0mg"},{"bike_id":"d5a40544-afc9-4ec8-864b-499051f2d40a","system_id":"levelo_inurba_marseille","lat":43.24802,"lon":5.37452,"is_reserved":false,"is_disabled":false,"rental_uris":{"android":"levelo://app?vid=d5a40544-afc9-4ec8-864b-499051f2d40a","ios":"levelo://app?vid=d5a40544-afc9-4ec8-864b-499051f2d40a"},"vehicle_type_id":"4","last_reported":1746529732,"current_range_meters":7200,"station_id":"ce4bhgh2rcd13ifvqfb0","pricing_plan_id":"cebpf4jnsgd1na2vs0mg"},{"bike_id":"416f578b-a76d-4698-b5ca-69135ef4b579","system_id":"levelo_inurba_marseille","lat":43.24166,"lon":5.36393,"is_reserved":false,"is_disabled":false,"rental_uris":{"android":"levelo://app?vid=416f578b-a76d-4698-b5ca-69135ef4b579","ios":"levelo://app?vid=416f578b-a76d-4698-b5ca-69135ef4b579"},"vehicle_type_id":"4","last_reported":1746529732,"current_range_meters":7200,"station_id":"cpo36qri1sfpv3e86is0","pricing_plan_id":"cebpf4jnsgd1na2vs0mg"},{"bike_id":"860a60a3-686c-4fe4-a3d3-6db1e54f61c1","system_id":"levelo_inurba_marseille","lat":43.21189,"lon":5.3507,"is_reserved":false,"is_disabled":false,"rental_uris":{"android":"levelo://app?vid=860a60a3-686c-4fe4-a3d3-6db1e54f61c1","ios":"levelo://app?vid=860a60a3-686c-4fe4-a3d3-6db1e54f61c1"},"vehicle_type_id":"4","last_reported":1746529732,"current_range_meters":7200,"station_id":"st_cvj6sg6p6f1abm77japg","pricing_plan_id":"cebpf4jnsgd1na2vs0mg"},{"bike_id":"82ec88bf-220c-4066-90bb-e4bc85e1118f","system_id":"levelo_inurba_marseille","lat":43.2682,"lon":5.40198,"is_reserved":false,"is_disabled":false,"rental_uris":{"android":"levelo://app?vid=82ec88bf-220c-4066-90bb-e4bc85e1118f","ios":"levelo://app?vid=82ec88bf-220c-4066-90bb-e4bc85e1118f"},"vehicle_type_id":"4","last_reported":1746529732,"current_range_meters":8000,"station_id":"","pricing_plan_id":"cebpf4jnsgd1na2vs0mg"},{"bike_id":"f201e35f-0887-46ff-bb2e-950f0791d4ee","system_id":"levelo_inurba_marseille","lat":43.26565,"lon":5.37286,"is_reserved":false,"is_disabled":false,"rental_uris":{"android":"levelo://app?vid=f201e35f-0887-46ff-bb2e-950f0791d4ee","ios":"levelo://app?vid=f201e35f-0887-46ff-bb2e-950f0791d4ee"},"vehicle_type_id":"4","last_reported":1746529732,"current_range_meters":8000,"station_id":"ce4bhg12rcd13ifvqf70","pricing_plan_id":"cebpf4jnsgd1na2vs0mg"},{"bike_id":"7f0ec2ea-3f01-465d-b18d-da112fb9f66c","system_id":"levelo_inurba_marseille","lat":43.27562,"lon":5.3841,"is_reserved":false,"is_disabled":false,"rental_uris":{"android":"levelo://app?vid=7f0ec2ea-3f01-465d-b18d-da112fb9f66c","ios":"levelo://app?vid=7f0ec2ea-3f01-465d-b18d-da112fb9f66c"},"vehicle_type_id":"4","last_reported":1746529732,"current_range_meters":8000,"station_id":"ce4bhh92rcd13ifvqfi0","pricing_plan_id":"cebpf4jnsgd1na2vs0mg"},{"bike_id":"a9fab241-c819-47d3-928b-961443970db4","system_id":"levelo_inurba_marseille","lat":43.28154,"lon":5.42644,"is_reserved":false,"is_disabled":false,"rental_uris":{"android":"levelo://app?vid=a9fab241-c819-47d3-928b-961443970db4","ios":"levelo://app?vid=a9fab241-c819-47d3-928b-961443970db4"},"vehicle_type_id":"4","last_reported":1746529732,"current_range_meters":8000,"station_id":"ce4bhnh2rcd13ifvqgug","pricing_plan_id":"cebpf4jnsgd1na2vs0mg"},{"bike_id":"f9ea3bfb-75a2-45bb-95a9-f45a4ee44106","system_id":"levelo_inurba_marseille","lat":43.29366,"lon":5.37813,"is_reserved":false,"is_disabled":false,"rental_uris":{"android":"levelo://app?vid=f9ea3bfb-75a2-45bb-95a9-f45a4ee44106","ios":"levelo://app?vid=f9ea3bfb-75a2-45bb-95a9-f45a4ee44106"},"vehicle_type_id":"4","last_reported":1746529732,"current_range_meters":8400,"station_id":"ce4bgjh2rcd13ifvqbf0","pricing_plan_id":"cebpf4jnsgd1na2vs0mg"},{"bike_id":"1252e240-003e-43b0-937f-123019c1ead2","system_id":"levelo_inurba_marseille","lat":43.2315,"lon":5.43711,"is_reserved":false,"is_disabled":false,"rental_uris":{"android":"levelo://app?vid=1252e240-003e-43b0-937f-123019c1ead2","ios":"levelo://app?vid=1252e240-003e-43b0-937f-123019c1ead2"},"vehicle_type_id":"4","last_reported":1746529732,"current_range_meters":8400,"station_id":"ce4bhmp2rcd13ifvqgog","pricing_plan_id":"cebpf4jnsgd1na2vs0mg"},{"bike_id":"f004685a-5a52-437a-8236-6ce8ccf6b459","system_id":"levelo_inurba_marseille","lat":43.27808,"lon":5.40715,"is_reserved":false,"is_disabled":false,"rental_uris":{"android":"levelo://app?vid=f004685a-5a52-437a-8236-6ce8ccf6b459","ios":"levelo://app?vid=f004685a-5a52-437a-8236-6ce8ccf6b459"},"vehicle_type_id":"4","last_reported":1746529732,"current_range_meters":8400,"station_id":"ce4bhnh2rcd13ifvqgtg","pricing_plan_id":"cebpf4jnsgd1na2vs0mg"},{"bike_id":"517b37f5-9aa1-4cbf-9cba-c9dd1b32e0f4","system_id":"levelo_inurba_marseille","lat":43.25107,"lon":5.395151,"is_reserved":false,"is_disabled":false,"rental_uris":{"android":"levelo://app?vid=517b37f5-9aa1-4cbf-9cba-c9dd1b32e0f4","ios":"levelo://app?vid=517b37f5-9aa1-4cbf-9cba-c9dd1b32e0f4"},"vehicle_type_id":"4","last_reported":1746529732,"current_range_meters":8800,"station_id":"","pricing_plan_id":"cebpf4jnsgd1na2vs0mg"},{"bike_id":"d0b59acc-b2e8-4a43-bbd2-62698135a51d","system_id":"levelo_inurba_marseille","lat":43.295773,"lon":5.3674,"is_reserved":false,"is_disabled":false,"rental_uris":{"android":"levelo://app?vid=d0b59acc-b2e8-4a43-bbd2-62698135a51d","ios":"levelo://app?vid=d0b59acc-b2e8-4a43-bbd2-62698135a51d"},"vehicle_type_id":"4","last_reported":1746529732,"current_range_meters":8800,"station_id":"ce4bgph2rcd13ifvqc2g","pricing_plan_id":"cebpf4jnsgd1na2vs0mg"},{"bike_id":"47973f84-2701-4169-9ec0-e15ee0bce526","system_id":"levelo_inurba_marseille","lat":43.298739,"lon":5.397191,"is_reserved":false,"is_disabled":false,"rental_uris":{"android":"levelo://app?vid=47973f84-2701-4169-9ec0-e15ee0bce526","ios":"levelo://app?vid=47973f84-2701-4169-9ec0-e15ee0bce526"},"vehicle_type_id":"4","last_reported":1746529732,"current_range_meters":8800,"station_id":"ce4bh0h2rcd13ifvqd50","pricing_plan_id":"cebpf4jnsgd1na2vs0mg"},{"bike_id":"5fe5efc0-e10c-44a1-b431-26656b48d262","system_id":"levelo_inurba_marseille","lat":43.28352,"lon":5.38622,"is_reserved":false,"is_disabled":false,"rental_uris":{"android":"levelo://app?vid=5fe5efc0-e10c-44a1-b431-26656b48d262","ios":"levelo://app?vid=5fe5efc0-e10c-44a1-b431-26656b48d262"},"vehicle_type_id":"4","last_reported":1746529732,"current_range_meters":8800,"station_id":"ce4bh492rcd13ifvqdvg","pricing_plan_id":"cebpf4jnsgd1na2vs0mg"},{"bike_id":"9d8f73eb-df09-4699-86a7-d631e2319093","system_id":"levelo_inurba_marseille","lat":43.26271,"lon":5.3745,"is_reserved":false,"is_disabled":false,"rental_uris":{"android":"levelo://app?vid=9d8f73eb-df09-4699-86a7-d631e2319093","ios":"levelo://app?vid=9d8f73eb-df09-4699-86a7-d631e2319093"},"vehicle_type_id":"4","last_reported":1746529732,"current_range_meters":9200,"station_id":"","pricing_plan_id":"cebpf4jnsgd1na2vs0mg"},{"bike_id":"62bfa9fa-531f-4d2b-9e57-eb50b2d48c8c","system_id":"levelo_inurba_marseille","lat":43.24278,"lon":5.380055,"is_reserved":false,"is_disabled":false,"rental_uris":{"android":"levelo://app?vid=62bfa9fa-531f-4d2b-9e57-eb50b2d48c8c","ios":"levelo://app?vid=62bfa9fa-531f-4d2b-9e57-eb50b2d48c8c"},"vehicle_type_id":"4","last_reported":1746529732,"current_range_meters":9200,"station_id":"","pricing_plan_id":"cebpf4jnsgd1na2vs0mg"},{"bike_id":"3446311b-cb36-4aa4-8116-2c3851bdf3eb","system_id":"levelo_inurba_marseille","lat":43.28718,"lon":5.37934,"is_reserved":false,"is_disabled":false,"rental_uris":{"android":"levelo://app?vid=3446311b-cb36-4aa4-8116-2c3851bdf3eb","ios":"levelo://app?vid=3446311b-cb36-4aa4-8116-2c3851bdf3eb"},"vehicle_type_id":"4","last_reported":1746529732,"current_range_meters":9200,"station_id":"ce4bh9p2rcd13ifvqec0","pricing_plan_id":"cebpf4jnsgd1na2vs0mg"},{"bike_id":"097e2b35-6e8f-4aed-8e9f-9f492bf1ff9e","system_id":"levelo_inurba_marseille","lat":43.26952,"lon":5.3863,"is_reserved":false,"is_disabled":false,"rental_uris":{"android":"levelo://app?vid=097e2b35-6e8f-4aed-8e9f-9f492bf1ff9e","ios":"levelo://app?vid=097e2b35-6e8f-4aed-8e9f-9f492bf1ff9e"},"vehicle_type_id":"4","last_reported":1746529732,"current_range_meters":9200,"station_id":"ce4bhh92rcd13ifvqfh0","pricing_plan_id":"cebpf4jnsgd1na2vs0mg"},{"bike_id":"0c377d9d-9a3a-47a7-9944-6039314b5e15","system_id":"levelo_inurba_marseille","lat":43.245891,"lon":5.404871,"is_reserved":false,"is_disabled":false,"rental_uris":{"android":"levelo://app?vid=0c377d9d-9a3a-47a7-9944-6039314b5e15","ios":"levelo://app?vid=0c377d9d-9a3a-47a7-9944-6039314b5e15"},"vehicle_type_id":"4","last_reported":1746529732,"current_range_meters":9600,"station_id":"","pricing_plan_id":"cebpf4jnsgd1na2vs0mg"},{"bike_id":"05a84f69-0592-442a-b098-6253d0b70e9e","system_id":"levelo_inurba_marseille","lat":43.29996,"lon":5.37247,"is_reserved":false,"is_disabled":false,"rental_uris":{"android":"levelo://app?vid=05a84f69-0592-442a-b098-6253d0b70e9e","ios":"levelo://app?vid=05a84f69-0592-442a-b098-6253d0b70e9e"},"vehicle_type_id":"4","last_reported":1746529732,"current_range_meters":9600,"station_id":"","pricing_plan_id":"cebpf4jnsgd1na2vs0mg"},{"bike_id":"f527aadb-6e41-4811-8d83-84000b3b1b0f","system_id":"levelo_inurba_marseille","lat":43.29388,"lon":5.37843,"is_reserved":false,"is_disabled":false,"rental_uris":{"android":"levelo://app?vid=f527aadb-6e41-4811-8d83-84000b3b1b0f","ios":"levelo://app?vid=f527aadb-6e41-4811-8d83-84000b3b1b0f"},"vehicle_type_id":"4","last_reported":1746529732,"current_range_meters":9600,"station_id":"ce4bgjh2rcd13ifvqbf0","pricing_plan_id":"cebpf4jnsgd1na2vs0mg"},{"bike_id":"06998ae7-95ef-4484-977d-89dd7f12e1a0","system_id":"levelo_inurba_marseille","lat":43.26217,"lon":5.37439,"is_reserved":false,"is_disabled":false,"rental_uris":{"android":"levelo://app?vid=06998ae7-95ef-4484-977d-89dd7f12e1a0","ios":"levelo://app?vid=06998ae7-95ef-4484-977d-89dd7f12e1a0"},"vehicle_type_id":"4","last_reported":1746529732,"current_range_meters":9600,"station_id":"ce4bhgp2rcd13ifvqfc0","pricing_plan_id":"cebpf4jnsgd1na2vs0mg"},{"bike_id":"d75e25b4-10a3-408e-a3fe-3720cb7d9d33","system_id":"levelo_inurba_marseille","lat":43.24659,"lon":5.38168,"is_reserved":false,"is_disabled":false,"rental_uris":{"android":"levelo://app?vid=d75e25b4-10a3-408e-a3fe-3720cb7d9d33","ios":"levelo://app?vid=d75e25b4-10a3-408e-a3fe-3720cb7d9d33"},"vehicle_type_id":"4","last_reported":1746529732,"current_range_meters":9600,"station_id":"ce4bhih2rcd13ifvqfr0","pricing_plan_id":"cebpf4jnsgd1na2vs0mg"},{"bike_id":"b5581828-3236-4a60-aaa4-3b424fc90817","system_id":"levelo_inurba_marseille","lat":43.23143,"lon":5.43729,"is_reserved":false,"is_disabled":false,"rental_uris":{"android":"levelo://app?vid=b5581828-3236-4a60-aaa4-3b424fc90817","ios":"levelo://app?vid=b5581828-3236-4a60-aaa4-3b424fc90817"},"vehicle_type_id":"4","last_reported":1746529732,"current_range_meters":9600,"station_id":"ce4bhmp2rcd13ifvqgog","pricing_plan_id":"cebpf4jnsgd1na2vs0mg"},{"bike_id":"fbda12d9-6999-44a5-a236-2a288c2ac07c","system_id":"levelo_inurba_marseille","lat":43.24065,"lon":5.37758,"is_reserved":false,"is_disabled":false,"rental_uris":{"android":"levelo://app?vid=fbda12d9-6999-44a5-a236-2a288c2ac07c","ios":"levelo://app?vid=fbda12d9-6999-44a5-a236-2a288c2ac07c"},"vehicle_type_id":"4","last_reported":1746529732,"current_range_meters":9600,"station_id":"ce4bhnp2rcd13ifvqgvg","pricing_plan_id":"cebpf4jnsgd1na2vs0mg"},{"bike_id":"503569af-07db-461f-918e-29f89d0c1c24","system_id":"levelo_inurba_marseille","lat":43.22486,"lon":5.34824,"is_reserved":false,"is_disabled":false,"rental_uris":{"android":"levelo://app?vid=503569af-07db-461f-918e-29f89d0c1c24","ios":"levelo://app?vid=503569af-07db-461f-918e-29f89d0c1c24"},"vehicle_type_id":"4","last_reported":1746529732,"current_range_meters":9600,"station_id":"st_cvj5dfep6f1abm77gieg","pricing_plan_id":"cebpf4jnsgd1na2vs0mg"},{"bike_id":"ad41a725-8426-4d2c-9ca7-17e5bd07d601","system_id":"levelo_inurba_marseille","lat":43.31688,"lon":5.40458,"is_reserved":false,"is_disabled":false,"rental_uris":{"android":"levelo://app?vid=ad41a725-8426-4d2c-9ca7-17e5bd07d601","ios":"levelo://app?vid=ad41a725-8426-4d2c-9ca7-17e5bd07d601"},"vehicle_type_id":"4","last_reported":1746529732,"current_range_meters":10000,"station_id":"ce4bh012rcd13ifvqd00","pricing_plan_id":"cebpf4jnsgd1na2vs0mg"},{"bike_id":"3ffb72b3-3870-4ecb-bb52-bfefa0d19a50","system_id":"levelo_inurba_marseille","lat":43.27061,"lon":5.42247,"is_reserved":false,"is_disabled":false,"rental_uris":{"android":"levelo://app?vid=3ffb72b3-3870-4ecb-bb52-bfefa0d19a50","ios":"levelo://app?vid=3ffb72b3-3870-4ecb-bb52-bfefa0d19a50"},"vehicle_type_id":"4","last_reported":1746529732,"current_range_meters":10000,"station_id":"ce4bhk92rcd13ifvqgb0","pricing_plan_id":"cebpf4jnsgd1na2vs0mg"},{"bike_id":"fbd53a5a-2b81-4c17-9958-098a782415e7","system_id":"levelo_inurba_marseille","lat":43.25114,"lon":5.40337,"is_reserved":false,"is_disabled":false,"rental_uris":{"android":"levelo://app?vid=fbd53a5a-2b81-4c17-9958-098a782415e7","ios":"levelo://app?vid=fbd53a5a-2b81-4c17-9958-098a782415e7"},"vehicle_type_id":"4","last_reported":1746529732,"current_range_meters":10000,"station_id":"ce4bhlh2rcd13ifvqgig","pricing_plan_id":"cebpf4jnsgd1na2vs0mg"},{"bike_id":"f458f65d-c5e8-4730-850e-2ff831642423","system_id":"levelo_inurba_marseille","lat":43.23148,"lon":5.43708,"is_reserved":false,"is_disabled":false,"rental_uris":{"android":"levelo://app?vid=f458f65d-c5e8-4730-850e-2ff831642423","ios":"levelo://app?vid=f458f65d-c5e8-4730-850e-2ff831642423"},"vehicle_type_id":"4","last_reported":1746529732,"current_range_meters":10000,"station_id":"ce4bhmp2rcd13ifvqgog","pricing_plan_id":"cebpf4jnsgd1na2vs0mg"},{"bike_id":"db607aba-0db6-423b-a818-c23224727203","system_id":"levelo_inurba_marseille","lat":43.231534,"lon":5.436977,"is_reserved":false,"is_disabled":false,"rental_uris":{"android":"levelo://app?vid=db607aba-0db6-423b-a818-c23224727203","ios":"levelo://app?vid=db607aba-0db6-423b-a818-c23224727203"},"vehicle_type_id":"4","last_reported":1746529732,"current_range_meters":10000,"station_id":"ce4bhmp2rcd13ifvqgog","pricing_plan_id":"cebpf4jnsgd1na2vs0mg"},{"bike_id":"b0fc5514-2bfd-4a9b-bcd2-257ce06b0d10","system_id":"levelo_inurba_marseille","lat":43.28372,"lon":5.38625,"is_reserved":false,"is_disabled":false,"rental_uris":{"android":"levelo://app?vid=b0fc5514-2bfd-4a9b-bcd2-257ce06b0d10","ios":"levelo://app?vid=b0fc5514-2bfd-4a9b-bcd2-257ce06b0d10"},"vehicle_type_id":"4","last_reported":1746529732,"current_range_meters":10800,"station_id":"ce4bh492rcd13ifvqdvg","pricing_plan_id":"cebpf4jnsgd1na2vs0mg"},{"bike_id":"6973b457-be36-40ce-a99b-6a461c1b4cb6","system_id":"levelo_inurba_marseille","lat":43.28472,"lon":5.3856,"is_reserved":false,"is_disabled":false,"rental_uris":{"android":"levelo://app?vid=6973b457-be36-40ce-a99b-6a461c1b4cb6","ios":"levelo://app?vid=6973b457-be36-40ce-a99b-6a461c1b4cb6"},"vehicle_type_id":"4","last_reported":1746529732,"current_range_meters":10800,"station_id":"ce4bh8p2rcd13ifvqeb0","pricing_plan_id":"cebpf4jnsgd1na2vs0mg"},{"bike_id":"6bf11e5f-fa32-4c4a-9d21-69ab81034e6f","system_id":"levelo_inurba_marseille","lat":43.26198,"lon":5.37931,"is_reserved":false,"is_disabled":false,"rental_uris":{"android":"levelo://app?vid=6bf11e5f-fa32-4c4a-9d21-69ab81034e6f","ios":"levelo://app?vid=6bf11e5f-fa32-4c4a-9d21-69ab81034e6f"},"vehicle_type_id":"4","last_reported":1746529732,"current_range_meters":10800,"station_id":"ce4bhjp2rcd13ifvqg90","pricing_plan_id":"cebpf4jnsgd1na2vs0mg"},{"bike_id":"e0eebb06-5c98-44a4-9f84-563b62ed60fe","system_id":"levelo_inurba_marseille","lat":43.25946,"lon":5.40881,"is_reserved":false,"is_disabled":false,"rental_uris":{"android":"levelo://app?vid=e0eebb06-5c98-44a4-9f84-563b62ed60fe","ios":"levelo://app?vid=e0eebb06-5c98-44a4-9f84-563b62ed60fe"},"vehicle_type_id":"4","last_reported":1746529732,"current_range_meters":10800,"station_id":"ce4bhm92rcd13ifvqglg","pricing_plan_id":"cebpf4jnsgd1na2vs0mg"},{"bike_id":"fa37bfe9-0fcc-4f35-84b9-67041a093339","system_id":"levelo_inurba_marseille","lat":43.24089,"lon":5.37735,"is_reserved":false,"is_disabled":false,"rental_uris":{"android":"levelo://app?vid=fa37bfe9-0fcc-4f35-84b9-67041a093339","ios":"levelo://app?vid=fa37bfe9-0fcc-4f35-84b9-67041a093339"},"vehicle_type_id":"4","last_reported":1746529732,"current_range_meters":10800,"station_id":"ce4bhnp2rcd13ifvqgvg","pricing_plan_id":"cebpf4jnsgd1na2vs0mg"},{"bike_id":"a46b5721-597c-404e-8ddb-3ba6469f967d","system_id":"levelo_inurba_marseille","lat":43.23192,"lon":5.35544,"is_reserved":false,"is_disabled":false,"rental_uris":{"android":"levelo://app?vid=a46b5721-597c-404e-8ddb-3ba6469f967d","ios":"levelo://app?vid=a46b5721-597c-404e-8ddb-3ba6469f967d"},"vehicle_type_id":"4","last_reported":1746529732,"current_range_meters":10800,"station_id":"ce4bhu92rcd13ifvqi70","pricing_plan_id":"cebpf4jnsgd1na2vs0mg"},{"bike_id":"c9592205-9409-4f74-aed1-7c4141a58caa","system_id":"levelo_inurba_marseille","lat":43.2714,"lon":5.3636,"is_reserved":false,"is_disabled":false,"rental_uris":{"android":"levelo://app?vid=c9592205-9409-4f74-aed1-7c4141a58caa","ios":"levelo://app?vid=c9592205-9409-4f74-aed1-7c4141a58caa"},"vehicle_type_id":"4","last_reported":1746529732,"current_range_meters":11200,"station_id":"","pricing_plan_id":"cebpf4jnsgd1na2vs0mg"},{"bike_id":"24f4f0ca-f9de-45f4-868e-492d5e9e8035","system_id":"levelo_inurba_marseille","lat":43.30555,"lon":5.39298,"is_reserved":false,"is_disabled":false,"rental_uris":{"android":"levelo://app?vid=24f4f0ca-f9de-45f4-868e-492d5e9e8035","ios":"levelo://app?vid=24f4f0ca-f9de-45f4-868e-492d5e9e8035"},"vehicle_type_id":"4","last_reported":1746529732,"current_range_meters":11200,"station_id":"ce4bh0p2rcd13ifvqd80","pricing_plan_id":"cebpf4jnsgd1na2vs0mg"},{"bike_id":"08d1f746-8482-44f5-b0d6-ff9a0505a934","system_id":"levelo_inurba_marseille","lat":43.24547,"lon":5.39523,"is_reserved":false,"is_disabled":false,"rental_uris":{"android":"levelo://app?vid=08d1f746-8482-44f5-b0d6-ff9a0505a934","ios":"levelo://app?vid=08d1f746-8482-44f5-b0d6-ff9a0505a934"},"vehicle_type_id":"4","last_reported":1746529732,"current_range_meters":11200,"station_id":"ce4bhlp2rcd13ifvqgjg","pricing_plan_id":"cebpf4jnsgd1na2vs0mg"},{"bike_id":"4d695941-4743-4262-bfb8-d490d12cf77c","system_id":"levelo_inurba_marseille","lat":43.2439,"lon":5.37066,"is_reserved":false,"is_disabled":false,"rental_uris":{"android":"levelo://app?vid=4d695941-4743-4262-bfb8-d490d12cf77c","ios":"levelo://app?vid=4d695941-4743-4262-bfb8-d490d12cf77c"},"vehicle_type_id":"4","last_reported":1746529732,"current_range_meters":11600,"station_id":"ce4bhhh2rcd13ifvqfk0","pricing_plan_id":"cebpf4jnsgd1na2vs0mg"},{"bike_id":"3223feab-30ad-42ff-9b4f-1f1a74cd54fb","system_id":"levelo_inurba_marseille","lat":43.2315,"lon":5.43707,"is_reserved":false,"is_disabled":false,"rental_uris":{"android":"levelo://app?vid=3223feab-30ad-42ff-9b4f-1f1a74cd54fb","ios":"levelo://app?vid=3223feab-30ad-42ff-9b4f-1f1a74cd54fb"},"vehicle_type_id":"4","last_reported":1746529732,"current_range_meters":12000,"station_id":"ce4bhmp2rcd13ifvqgog","pricing_plan_id":"cebpf4jnsgd1na2vs0mg"},{"bike_id":"d2125939-b570-4b67-9cb5-f5a5bc562ba6","system_id":"levelo_inurba_marseille","lat":43.31704,"lon":5.43713,"is_reserved":false,"is_disabled":false,"rental_uris":{"android":"levelo://app?vid=d2125939-b570-4b67-9cb5-f5a5bc562ba6","ios":"levelo://app?vid=d2125939-b570-4b67-9cb5-f5a5bc562ba6"},"vehicle_type_id":"4","last_reported":1746529732,"current_range_meters":12000,"station_id":"ce4bhp92rcd13ifvqhcg","pricing_plan_id":"cebpf4jnsgd1na2vs0mg"},{"bike_id":"d7dfc659-27f1-47e8-9170-66ebe85bbd48","system_id":"levelo_inurba_marseille","lat":43.330299,"lon":5.390166,"is_reserved":false,"is_disabled":false,"rental_uris":{"android":"levelo://app?vid=d7dfc659-27f1-47e8-9170-66ebe85bbd48","ios":"levelo://app?vid=d7dfc659-27f1-47e8-9170-66ebe85bbd48"},"vehicle_type_id":"4","last_reported":1746529732,"current_range_meters":12000,"station_id":"ce4bhr92rcd13ifvqhrg","pricing_plan_id":"cebpf4jnsgd1na2vs0mg"},{"bike_id":"93f9c31a-33af-443e-bb0a-ed7cb8358a5c","system_id":"levelo_inurba_marseille","lat":43.32111,"lon":5.36769,"is_reserved":false,"is_disabled":false,"rental_uris":{"android":"levelo://app?vid=93f9c31a-33af-443e-bb0a-ed7cb8358a5c","ios":"levelo://app?vid=93f9c31a-33af-443e-bb0a-ed7cb8358a5c"},"vehicle_type_id":"4","last_reported":1746529732,"current_range_meters":12000,"station_id":"ce4bhrh2rcd13ifvqhug","pricing_plan_id":"cebpf4jnsgd1na2vs0mg"},{"bike_id":"7ca09d8d-51db-4057-abe2-e9c1bdbcdfac","system_id":"levelo_inurba_marseille","lat":43.22926,"lon":5.35386,"is_reserved":false,"is_disabled":false,"rental_uris":{"android":"levelo://app?vid=7ca09d8d-51db-4057-abe2-e9c1bdbcdfac","ios":"levelo://app?vid=7ca09d8d-51db-4057-abe2-e9c1bdbcdfac"},"vehicle_type_id":"4","last_reported":1746529732,"current_range_meters":12000,"station_id":"cpo3532slgdg3j2ikp40","pricing_plan_id":"cebpf4jnsgd1na2vs0mg"},{"bike_id":"3f84d55c-f7b3-443f-a8ba-1f83ba8291a2","system_id":"levelo_inurba_marseille","lat":43.21191,"lon":5.35076,"is_reserved":false,"is_disabled":false,"rental_uris":{"android":"levelo://app?vid=3f84d55c-f7b3-443f-a8ba-1f83ba8291a2","ios":"levelo://app?vid=3f84d55c-f7b3-443f-a8ba-1f83ba8291a2"},"vehicle_type_id":"4","last_reported":1746529732,"current_range_meters":12000,"station_id":"st_cvj6sg6p6f1abm77japg","pricing_plan_id":"cebpf4jnsgd1na2vs0mg"},{"bike_id":"51ad38b1-8abf-44a6-9886-7c085983dde1","system_id":"levelo_inurba_marseille","lat":43.239631,"lon":5.366286,"is_reserved":false,"is_disabled":false,"rental_uris":{"android":"levelo://app?vid=51ad38b1-8abf-44a6-9886-7c085983dde1","ios":"levelo://app?vid=51ad38b1-8abf-44a6-9886-7c085983dde1"},"vehicle_type_id":"4","last_reported":1746529732,"current_range_meters":12400,"station_id":"ce4bhi12rcd13ifvqfp0","pricing_plan_id":"cebpf4jnsgd1na2vs0mg"},{"bike_id":"76b92891-1d2a-41fc-b164-fcbac28eaead","system_id":"levelo_inurba_marseille","lat":43.23148,"lon":5.43713,"is_reserved":false,"is_disabled":false,"rental_uris":{"android":"levelo://app?vid=76b92891-1d2a-41fc-b164-fcbac28eaead","ios":"levelo://app?vid=76b92891-1d2a-41fc-b164-fcbac28eaead"},"vehicle_type_id":"4","last_reported":1746529732,"current_range_meters":12400,"station_id":"ce4bhmp2rcd13ifvqgog","pricing_plan_id":"cebpf4jnsgd1na2vs0mg"},{"bike_id":"62edaaea-1956-4cfc-bf6e-a3813befece2","system_id":"levelo_inurba_marseille","lat":43.33026,"lon":5.39033,"is_reserved":false,"is_disabled":false,"rental_uris":{"android":"levelo://app?vid=62edaaea-1956-4cfc-bf6e-a3813befece2","ios":"levelo://app?vid=62edaaea-1956-4cfc-bf6e-a3813befece2"},"vehicle_type_id":"4","last_reported":1746529732,"current_range_meters":12400,"station_id":"ce4bhr92rcd13ifvqhrg","pricing_plan_id":"cebpf4jnsgd1na2vs0mg"},{"bike_id":"05eb0ef8-714a-4e86-bdb3-3999c3231594","system_id":"levelo_inurba_marseille","lat":43.32484,"lon":5.36564,"is_reserved":false,"is_disabled":false,"rental_uris":{"android":"levelo://app?vid=05eb0ef8-714a-4e86-bdb3-3999c3231594","ios":"levelo://app?vid=05eb0ef8-714a-4e86-bdb3-3999c3231594"},"vehicle_type_id":"4","last_reported":1746529732,"current_range_meters":12400,"station_id":"ce4bhs12rcd13ifvqhvg","pricing_plan_id":"cebpf4jnsgd1na2vs0mg"},{"bike_id":"07936cf5-8ca3-48e9-a506-ee96d13e7bf2","system_id":"levelo_inurba_marseille","lat":43.3158,"lon":5.38892,"is_reserved":false,"is_disabled":false,"rental_uris":{"android":"levelo://app?vid=07936cf5-8ca3-48e9-a506-ee96d13e7bf2","ios":"levelo://app?vid=07936cf5-8ca3-48e9-a506-ee96d13e7bf2"},"vehicle_type_id":"4","last_reported":1746529732,"current_range_meters":12800,"station_id":"","pricing_plan_id":"cebpf4jnsgd1na2vs0mg"},{"bike_id":"63e7b4d4-6c68-4a11-813d-d3448ba3d88f","system_id":"levelo_inurba_marseille","lat":43.31691,"lon":5.37752,"is_reserved":false,"is_disabled":false,"rental_uris":{"android":"levelo://app?vid=63e7b4d4-6c68-4a11-813d-d3448ba3d88f","ios":"levelo://app?vid=63e7b4d4-6c68-4a11-813d-d3448ba3d88f"},"vehicle_type_id":"4","last_reported":1746529732,"current_range_meters":12800,"station_id":"ce4bgth2rcd13ifvqch0","pricing_plan_id":"cebpf4jnsgd1na2vs0mg"},{"bike_id":"c26def66-049d-410e-9ea6-844da93123b9","system_id":"levelo_inurba_marseille","lat":43.24662,"lon":5.38167,"is_reserved":false,"is_disabled":false,"rental_uris":{"android":"levelo://app?vid=c26def66-049d-410e-9ea6-844da93123b9","ios":"levelo://app?vid=c26def66-049d-410e-9ea6-844da93123b9"},"vehicle_type_id":"4","last_reported":1746529732,"current_range_meters":12800,"station_id":"ce4bhih2rcd13ifvqfr0","pricing_plan_id":"cebpf4jnsgd1na2vs0mg"},{"bike_id":"2cf21b4d-a372-4aef-ae47-c8ae1507ebb7","system_id":"levelo_inurba_marseille","lat":43.25099,"lon":5.40318,"is_reserved":false,"is_disabled":false,"rental_uris":{"android":"levelo://app?vid=2cf21b4d-a372-4aef-ae47-c8ae1507ebb7","ios":"levelo://app?vid=2cf21b4d-a372-4aef-ae47-c8ae1507ebb7"},"vehicle_type_id":"4","last_reported":1746529732,"current_range_meters":12800,"station_id":"ce4bhlh2rcd13ifvqgig","pricing_plan_id":"cebpf4jnsgd1na2vs0mg"},{"bike_id":"ea9f7f36-7cd9-4c1e-9fe2-b11be71dcbdc","system_id":"levelo_inurba_marseille","lat":43.25933,"lon":5.40911,"is_reserved":false,"is_disabled":false,"rental_uris":{"android":"levelo://app?vid=ea9f7f36-7cd9-4c1e-9fe2-b11be71dcbdc","ios":"levelo://app?vid=ea9f7f36-7cd9-4c1e-9fe2-b11be71dcbdc"},"vehicle_type_id":"4","last_reported":1746529732,"current_range_meters":12800,"station_id":"ce4bhm92rcd13ifvqglg","pricing_plan_id":"cebpf4jnsgd1na2vs0mg"},{"bike_id":"d7b1e4d8-f726-4ea7-bc51-7e6d351a33c5","system_id":"levelo_inurba_marseille","lat":43.2407,"lon":5.37768,"is_reserved":false,"is_disabled":false,"rental_uris":{"android":"levelo://app?vid=d7b1e4d8-f726-4ea7-bc51-7e6d351a33c5","ios":"levelo://app?vid=d7b1e4d8-f726-4ea7-bc51-7e6d351a33c5"},"vehicle_type_id":"4","last_reported":1746529732,"current_range_meters":12800,"station_id":"ce4bhnp2rcd13ifvqgvg","pricing_plan_id":"cebpf4jnsgd1na2vs0mg"},{"bike_id":"419b2f68-e3f7-43f8-bdc0-639ad79f4aa9","system_id":"levelo_inurba_marseille","lat":43.2816,"lon":5.42656,"is_reserved":false,"is_disabled":false,"rental_uris":{"android":"levelo://app?vid=419b2f68-e3f7-43f8-bdc0-639ad79f4aa9","ios":"levelo://app?vid=419b2f68-e3f7-43f8-bdc0-639ad79f4aa9"},"vehicle_type_id":"4","last_reported":1746529732,"current_range_meters":13600,"station_id":"ce4bhnh2rcd13ifvqgug","pricing_plan_id":"cebpf4jnsgd1na2vs0mg"},{"bike_id":"13ebfc6a-b3e8-4bd2-9055-317da3a3d7f6","system_id":"levelo_inurba_marseille","lat":43.24087,"lon":5.37759,"is_reserved":false,"is_disabled":false,"rental_uris":{"android":"levelo://app?vid=13ebfc6a-b3e8-4bd2-9055-317da3a3d7f6","ios":"levelo://app?vid=13ebfc6a-b3e8-4bd2-9055-317da3a3d7f6"},"vehicle_type_id":"4","last_reported":1746529732,"current_range_meters":13600,"station_id":"ce4bhnp2rcd13ifvqgvg","pricing_plan_id":"cebpf4jnsgd1na2vs0mg"},{"bike_id":"583cbb13-c145-4efe-a6f1-2cbe82bb0914","system_id":"levelo_inurba_marseille","lat":43.30721,"lon":5.37289,"is_reserved":false,"is_disabled":false,"rental_uris":{"android":"levelo://app?vid=583cbb13-c145-4efe-a6f1-2cbe82bb0914","ios":"levelo://app?vid=583cbb13-c145-4efe-a6f1-2cbe82bb0914"},"vehicle_type_id":"4","last_reported":1746529732,"current_range_meters":14000,"station_id":"","pricing_plan_id":"cebpf4jnsgd1na2vs0mg"},{"bike_id":"edf4a8cd-ff1a-4b17-bf8e-a65d5b0ec89f","system_id":"levelo_inurba_marseille","lat":43.30135,"lon":5.38789,"is_reserved":false,"is_disabled":false,"rental_uris":{"android":"levelo://app?vid=edf4a8cd-ff1a-4b17-bf8e-a65d5b0ec89f","ios":"levelo://app?vid=edf4a8cd-ff1a-4b17-bf8e-a65d5b0ec89f"},"vehicle_type_id":"4","last_reported":1746529732,"current_range_meters":14000,"station_id":"ce4bghh2rcd13ifvqb60","pricing_plan_id":"cebpf4jnsgd1na2vs0mg"},{"bike_id":"73297002-6407-425f-adb6-638ff58e7409","system_id":"levelo_inurba_marseille","lat":43.31318,"lon":5.36749,"is_reserved":false,"is_disabled":false,"rental_uris":{"android":"levelo://app?vid=73297002-6407-425f-adb6-638ff58e7409","ios":"levelo://app?vid=73297002-6407-425f-adb6-638ff58e7409"},"vehicle_type_id":"4","last_reported":1746529732,"current_range_meters":14000,"station_id":"ce4bgr92rcd13ifvqc6g","pricing_plan_id":"cebpf4jnsgd1na2vs0mg"},{"bike_id":"3b2bd084-4733-49ab-bb8c-8d8100308bc7","system_id":"levelo_inurba_marseille","lat":43.30591,"lon":5.39347,"is_reserved":false,"is_disabled":false,"rental_uris":{"android":"levelo://app?vid=3b2bd084-4733-49ab-bb8c-8d8100308bc7","ios":"levelo://app?vid=3b2bd084-4733-49ab-bb8c-8d8100308bc7"},"vehicle_type_id":"4","last_reported":1746529732,"current_range_meters":14000,"station_id":"ce4bh0p2rcd13ifvqd80","pricing_plan_id":"cebpf4jnsgd1na2vs0mg"},{"bike_id":"6884004a-e1aa-4639-95ae-1ff9c2053390","system_id":"levelo_inurba_marseille","lat":43.24387,"lon":5.37062,"is_reserved":false,"is_disabled":false,"rental_uris":{"android":"levelo://app?vid=6884004a-e1aa-4639-95ae-1ff9c2053390","ios":"levelo://app?vid=6884004a-e1aa-4639-95ae-1ff9c2053390"},"vehicle_type_id":"4","last_reported":1746529732,"current_range_meters":14000,"station_id":"ce4bhhh2rcd13ifvqfk0","pricing_plan_id":"cebpf4jnsgd1na2vs0mg"},{"bike_id":"319b3e78-ac34-432a-bbd5-e58d21164ca7","system_id":"levelo_inurba_marseille","lat":43.23147,"lon":5.43721,"is_reserved":false,"is_disabled":false,"rental_uris":{"android":"levelo://app?vid=319b3e78-ac34-432a-bbd5-e58d21164ca7","ios":"levelo://app?vid=319b3e78-ac34-432a-bbd5-e58d21164ca7"},"vehicle_type_id":"4","last_reported":1746529732,"current_range_meters":14000,"station_id":"ce4bhmp2rcd13ifvqgog","pricing_plan_id":"cebpf4jnsgd1na2vs0mg"},{"bike_id":"221d52d4-2247-4dbf-bd7f-e835fffa2d8d","system_id":"levelo_inurba_marseille","lat":43.29298,"lon":5.37452,"is_reserved":false,"is_disabled":false,"rental_uris":{"android":"levelo://app?vid=221d52d4-2247-4dbf-bd7f-e835fffa2d8d","ios":"levelo://app?vid=221d52d4-2247-4dbf-bd7f-e835fffa2d8d"},"vehicle_type_id":"4","last_reported":1746529732,"current_range_meters":14400,"station_id":"ce4bgi12rcd13ifvqb70","pricing_plan_id":"cebpf4jnsgd1na2vs0mg"},{"bike_id":"10b6831b-2f85-4c99-b038-702270ceda18","system_id":"levelo_inurba_marseille","lat":43.26569,"lon":5.38999,"is_reserved":false,"is_disabled":false,"rental_uris":{"android":"levelo://app?vid=10b6831b-2f85-4c99-b038-702270ceda18","ios":"levelo://app?vid=10b6831b-2f85-4c99-b038-702270ceda18"},"vehicle_type_id":"4","last_reported":1746529732,"current_range_meters":14400,"station_id":"ce4bhe12rcd13ifvqf30","pricing_plan_id":"cebpf4jnsgd1na2vs0mg"},{"bike_id":"73e87944-81c9-4ab9-8632-b9303756acfa","system_id":"levelo_inurba_marseille","lat":43.302,"lon":5.36587,"is_reserved":false,"is_disabled":false,"rental_uris":{"android":"levelo://app?vid=73e87944-81c9-4ab9-8632-b9303756acfa","ios":"levelo://app?vid=73e87944-81c9-4ab9-8632-b9303756acfa"},"vehicle_type_id":"4","last_reported":1746529732,"current_range_meters":14800,"station_id":"ce4bgrh2rcd13ifvqc8g","pricing_plan_id":"cebpf4jnsgd1na2vs0mg"},{"bike_id":"5ba9d774-19ce-4d28-8f99-c13fc10e00b2","system_id":"levelo_inurba_marseille","lat":43.28266,"lon":5.35056,"is_reserved":false,"is_disabled":false,"rental_uris":{"android":"levelo://app?vid=5ba9d774-19ce-4d28-8f99-c13fc10e00b2","ios":"levelo://app?vid=5ba9d774-19ce-4d28-8f99-c13fc10e00b2"},"vehicle_type_id":"4","last_reported":1746529732,"current_range_meters":14800,"station_id":"ce4bhbp2rcd13ifvqerg","pricing_plan_id":"cebpf4jnsgd1na2vs0mg"},{"bike_id":"8628899e-76bf-4794-9773-2f5cc2bf87c0","system_id":"levelo_inurba_marseille","lat":43.27171,"lon":5.40986,"is_reserved":false,"is_disabled":false,"rental_uris":{"android":"levelo://app?vid=8628899e-76bf-4794-9773-2f5cc2bf87c0","ios":"levelo://app?vid=8628899e-76bf-4794-9773-2f5cc2bf87c0"},"vehicle_type_id":"4","last_reported":1746529732,"current_range_meters":14800,"station_id":"ce4bhl12rcd13ifvqgf0","pricing_plan_id":"cebpf4jnsgd1na2vs0mg"},{"bike_id":"a5dda706-8026-4c53-b2ba-e3dffff3a10b","system_id":"levelo_inurba_marseille","lat":43.29363,"lon":5.37821,"is_reserved":false,"is_disabled":false,"rental_uris":{"android":"levelo://app?vid=a5dda706-8026-4c53-b2ba-e3dffff3a10b","ios":"levelo://app?vid=a5dda706-8026-4c53-b2ba-e3dffff3a10b"},"vehicle_type_id":"4","last_reported":1746529732,"current_range_meters":15200,"station_id":"ce4bgjh2rcd13ifvqbf0","pricing_plan_id":"cebpf4jnsgd1na2vs0mg"},{"bike_id":"e77f2bb2-ecfd-404d-9062-d0bf870b3424","system_id":"levelo_inurba_marseille","lat":43.3053,"lon":5.36552,"is_reserved":false,"is_disabled":false,"rental_uris":{"android":"levelo://app?vid=e77f2bb2-ecfd-404d-9062-d0bf870b3424","ios":"levelo://app?vid=e77f2bb2-ecfd-404d-9062-d0bf870b3424"},"vehicle_type_id":"4","last_reported":1746529732,"current_range_meters":15200,"station_id":"ce4bgs12rcd13ifvqcag","pricing_plan_id":"cebpf4jnsgd1na2vs0mg"},{"bike_id":"c84747a6-533f-4a7d-a8b8-645336edcbc8","system_id":"levelo_inurba_marseille","lat":43.2782,"lon":5.40713,"is_reserved":false,"is_disabled":false,"rental_uris":{"android":"levelo://app?vid=c84747a6-533f-4a7d-a8b8-645336edcbc8","ios":"levelo://app?vid=c84747a6-533f-4a7d-a8b8-645336edcbc8"},"vehicle_type_id":"4","last_reported":1746529732,"current_range_meters":15200,"station_id":"ce4bhnh2rcd13ifvqgtg","pricing_plan_id":"cebpf4jnsgd1na2vs0mg"},{"bike_id":"6f9f22c7-9c99-4195-a9b8-1c11633b8c24","system_id":"levelo_inurba_marseille","lat":43.28149,"lon":5.42647,"is_reserved":false,"is_disabled":false,"rental_uris":{"android":"levelo://app?vid=6f9f22c7-9c99-4195-a9b8-1c11633b8c24","ios":"levelo://app?vid=6f9f22c7-9c99-4195-a9b8-1c11633b8c24"},"vehicle_type_id":"4","last_reported":1746529732,"current_range_meters":15200,"station_id":"ce4bhnh2rcd13ifvqgug","pricing_plan_id":"cebpf4jnsgd1na2vs0mg"},{"bike_id":"1900e395-19ba-404e-aa6a-262b7656599d","system_id":"levelo_inurba_marseille","lat":43.2888,"lon":5.43707,"is_reserved":false,"is_disabled":false,"rental_uris":{"android":"levelo://app?vid=1900e395-19ba-404e-aa6a-262b7656599d","ios":"levelo://app?vid=1900e395-19ba-404e-aa6a-262b7656599d"},"vehicle_type_id":"4","last_reported":1746529732,"current_range_meters":16000,"station_id":"","pricing_plan_id":"cebpf4jnsgd1na2vs0mg"},{"bike_id":"200745fa-fb76-476a-b7a2-47e3e813b060","system_id":"levelo_inurba_marseille","lat":43.3052,"lon":5.36685,"is_reserved":false,"is_disabled":false,"rental_uris":{"android":"levelo://app?vid=200745fa-fb76-476a-b7a2-47e3e813b060","ios":"levelo://app?vid=200745fa-fb76-476a-b7a2-47e3e813b060"},"vehicle_type_id":"4","last_reported":1746529732,"current_range_meters":16000,"station_id":"ce4bgrp2rcd13ifvqc9g","pricing_plan_id":"cebpf4jnsgd1na2vs0mg"},{"bike_id":"c9ee4a54-8a12-4c1c-b1ce-c3e3efd72104","system_id":"levelo_inurba_marseille","lat":43.31152,"lon":5.38727,"is_reserved":false,"is_disabled":false,"rental_uris":{"android":"levelo://app?vid=c9ee4a54-8a12-4c1c-b1ce-c3e3efd72104","ios":"levelo://app?vid=c9ee4a54-8a12-4c1c-b1ce-c3e3efd72104"},"vehicle_type_id":"4","last_reported":1746529732,"current_range_meters":16000,"station_id":"ce4bgv12rcd13ifvqcp0","pricing_plan_id":"cebpf4jnsgd1na2vs0mg"},{"bike_id":"03bb5049-51e5-461e-8353-3cc13edfbfb8","system_id":"levelo_inurba_marseille","lat":43.23974,"lon":5.36574,"is_reserved":false,"is_disabled":false,"rental_uris":{"android":"levelo://app?vid=03bb5049-51e5-461e-8353-3cc13edfbfb8","ios":"levelo://app?vid=03bb5049-51e5-461e-8353-3cc13edfbfb8"},"vehicle_type_id":"4","last_reported":1746529732,"current_range_meters":16000,"station_id":"ce4bhi12rcd13ifvqfp0","pricing_plan_id":"cebpf4jnsgd1na2vs0mg"},{"bike_id":"e0a0fb85-9539-4fb6-b21f-392540fb8a26","system_id":"levelo_inurba_marseille","lat":43.3235,"lon":5.36726,"is_reserved":false,"is_disabled":false,"rental_uris":{"android":"levelo://app?vid=e0a0fb85-9539-4fb6-b21f-392540fb8a26","ios":"levelo://app?vid=e0a0fb85-9539-4fb6-b21f-392540fb8a26"},"vehicle_type_id":"4","last_reported":1746529732,"current_range_meters":16000,"station_id":"ce4bhsh2rcd13ifvqi2g","pricing_plan_id":"cebpf4jnsgd1na2vs0mg"},{"bike_id":"741922f7-49ff-4751-a228-5a73f2c8c24d","system_id":"levelo_inurba_marseille","lat":43.241698,"lon":5.364012,"is_reserved":false,"is_disabled":false,"rental_uris":{"android":"levelo://app?vid=741922f7-49ff-4751-a228-5a73f2c8c24d","ios":"levelo://app?vid=741922f7-49ff-4751-a228-5a73f2c8c24d"},"vehicle_type_id":"4","last_reported":1746529732,"current_range_meters":16000,"station_id":"cpo36qri1sfpv3e86is0","pricing_plan_id":"cebpf4jnsgd1na2vs0mg"},{"bike_id":"27563f88-1268-4b98-bc06-44e98c7ca400","system_id":"levelo_inurba_marseille","lat":43.32088,"lon":5.44103,"is_reserved":false,"is_disabled":false,"rental_uris":{"android":"levelo://app?vid=27563f88-1268-4b98-bc06-44e98c7ca400","ios":"levelo://app?vid=27563f88-1268-4b98-bc06-44e98c7ca400"},"vehicle_type_id":"4","last_reported":1746529732,"current_range_meters":16400,"station_id":"","pricing_plan_id":"cebpf4jnsgd1na2vs0mg"},{"bike_id":"eabd25f6-4f67-4964-ba2a-314855a9c91b","system_id":"levelo_inurba_marseille","lat":43.30803,"lon":5.38154,"is_reserved":false,"is_disabled":false,"rental_uris":{"android":"levelo://app?vid=eabd25f6-4f67-4964-ba2a-314855a9c91b","ios":"levelo://app?vid=eabd25f6-4f67-4964-ba2a-314855a9c91b"},"vehicle_type_id":"4","last_reported":1746529732,"current_range_meters":16400,"station_id":"ce4bgt12rcd13ifvqce0","pricing_plan_id":"cebpf4jnsgd1na2vs0mg"},{"bike_id":"3bd99c17-288f-4f8b-ac78-34f62e68cfa1","system_id":"levelo_inurba_marseille","lat":43.31078,"lon":5.38361,"is_reserved":false,"is_disabled":false,"rental_uris":{"android":"levelo://app?vid=3bd99c17-288f-4f8b-ac78-34f62e68cfa1","ios":"levelo://app?vid=3bd99c17-288f-4f8b-ac78-34f62e68cfa1"},"vehicle_type_id":"4","last_reported":1746529732,"current_range_meters":16400,"station_id":"ce4bgv92rcd13ifvqcr0","pricing_plan_id":"cebpf4jnsgd1na2vs0mg"},{"bike_id":"d400f056-c923-4dab-82b1-18e5db6f1844","system_id":"levelo_inurba_marseille","lat":43.29272,"lon":5.36851,"is_reserved":false,"is_disabled":false,"rental_uris":{"android":"levelo://app?vid=d400f056-c923-4dab-82b1-18e5db6f1844","ios":"levelo://app?vid=d400f056-c923-4dab-82b1-18e5db6f1844"},"vehicle_type_id":"4","last_reported":1746529732,"current_range_meters":16400,"station_id":"ce4bhbp2rcd13ifvqesg","pricing_plan_id":"cebpf4jnsgd1na2vs0mg"},{"bike_id":"af3be748-cc61-4c02-9356-74fe05d82ad2","system_id":"levelo_inurba_marseille","lat":43.24384,"lon":5.37058,"is_reserved":false,"is_disabled":false,"rental_uris":{"android":"levelo://app?vid=af3be748-cc61-4c02-9356-74fe05d82ad2","ios":"levelo://app?vid=af3be748-cc61-4c02-9356-74fe05d82ad2"},"vehicle_type_id":"4","last_reported":1746529732,"current_range_meters":16400,"station_id":"ce4bhhh2rcd13ifvqfk0","pricing_plan_id":"cebpf4jnsgd1na2vs0mg"},{"bike_id":"46a428a1-3a45-4310-8fc1-8ac5239110b0","system_id":"levelo_inurba_marseille","lat":43.25822,"lon":5.39432,"is_reserved":false,"is_disabled":false,"rental_uris":{"android":"levelo://app?vid=46a428a1-3a45-4310-8fc1-8ac5239110b0","ios":"levelo://app?vid=46a428a1-3a45-4310-8fc1-8ac5239110b0"},"vehicle_type_id":"4","last_reported":1746529732,"current_range_meters":16400,"station_id":"ce4bhip2rcd13ifvqft0","pricing_plan_id":"cebpf4jnsgd1na2vs0mg"},{"bike_id":"b4bac287-3615-423a-bca2-a11fb80cb066","system_id":"levelo_inurba_marseille","lat":43.23073,"lon":5.355,"is_reserved":false,"is_disabled":false,"rental_uris":{"android":"levelo://app?vid=b4bac287-3615-423a-bca2-a11fb80cb066","ios":"levelo://app?vid=b4bac287-3615-423a-bca2-a11fb80cb066"},"vehicle_type_id":"4","last_reported":1746529732,"current_range_meters":16400,"station_id":"cpo3342slgdg3j2ifvpg","pricing_plan_id":"cebpf4jnsgd1na2vs0mg"},{"bike_id":"76d0b8fe-60f0-42f9-a0a4-6ea510416f06","system_id":"levelo_inurba_marseille","lat":43.23152,"lon":5.4371,"is_reserved":false,"is_disabled":false,"rental_uris":{"android":"levelo://app?vid=76d0b8fe-60f0-42f9-a0a4-6ea510416f06","ios":"levelo://app?vid=76d0b8fe-60f0-42f9-a0a4-6ea510416f06"},"vehicle_type_id":"4","last_reported":1746529732,"current_range_meters":16800,"station_id":"ce4bhmp2rcd13ifvqgog","pricing_plan_id":"cebpf4jnsgd1na2vs0mg"},{"bike_id":"2714f713-c769-4f6a-ac44-441a635e9cba","system_id":"levelo_inurba_marseille","lat":43.21627,"lon":5.34237,"is_reserved":false,"is_disabled":false,"rental_uris":{"android":"levelo://app?vid=2714f713-c769-4f6a-ac44-441a635e9cba","ios":"levelo://app?vid=2714f713-c769-4f6a-ac44-441a635e9cba"},"vehicle_type_id":"4","last_reported":1746529732,"current_range_meters":17200,"station_id":"","pricing_plan_id":"cebpf4jnsgd1na2vs0mg"},{"bike_id":"d1ff1da7-940e-4266-8cf7-6f7502aa6bf1","system_id":"levelo_inurba_marseille","lat":43.26556,"lon":5.37286,"is_reserved":false,"is_disabled":false,"rental_uris":{"android":"levelo://app?vid=d1ff1da7-940e-4266-8cf7-6f7502aa6bf1","ios":"levelo://app?vid=d1ff1da7-940e-4266-8cf7-6f7502aa6bf1"},"vehicle_type_id":"4","last_reported":1746529732,"current_range_meters":17200,"station_id":"ce4bhg12rcd13ifvqf70","pricing_plan_id":"cebpf4jnsgd1na2vs0mg"},{"bike_id":"0f2a663c-6ace-436d-97d8-95f5e70e6b9d","system_id":"levelo_inurba_marseille","lat":43.29107,"lon":5.38125,"is_reserved":false,"is_disabled":false,"rental_uris":{"android":"levelo://app?vid=0f2a663c-6ace-436d-97d8-95f5e70e6b9d","ios":"levelo://app?vid=0f2a663c-6ace-436d-97d8-95f5e70e6b9d"},"vehicle_type_id":"4","last_reported":1746529732,"current_range_meters":17600,"station_id":"ce4bh512rcd13ifvqe2g","pricing_plan_id":"cebpf4jnsgd1na2vs0mg"},{"bike_id":"2377a625-f3da-4217-ab4b-fe3854a1754c","system_id":"levelo_inurba_marseille","lat":43.24384,"lon":5.37061,"is_reserved":false,"is_disabled":false,"rental_uris":{"android":"levelo://app?vid=2377a625-f3da-4217-ab4b-fe3854a1754c","ios":"levelo://app?vid=2377a625-f3da-4217-ab4b-fe3854a1754c"},"vehicle_type_id":"4","last_reported":1746529732,"current_range_meters":17600,"station_id":"ce4bhhh2rcd13ifvqfk0","pricing_plan_id":"cebpf4jnsgd1na2vs0mg"},{"bike_id":"1816c279-4e1c-447d-bf17-e3e96c262e03","system_id":"levelo_inurba_marseille","lat":43.24681,"lon":5.38156,"is_reserved":false,"is_disabled":false,"rental_uris":{"android":"levelo://app?vid=1816c279-4e1c-447d-bf17-e3e96c262e03","ios":"levelo://app?vid=1816c279-4e1c-447d-bf17-e3e96c262e03"},"vehicle_type_id":"4","last_reported":1746529732,"current_range_meters":17600,"station_id":"ce4bhih2rcd13ifvqfr0","pricing_plan_id":"cebpf4jnsgd1na2vs0mg"},{"bike_id":"5638fae2-2e1b-469b-8abd-91d7d799618a","system_id":"levelo_inurba_marseille","lat":43.3208,"lon":5.36799,"is_reserved":false,"is_disabled":false,"rental_uris":{"android":"levelo://app?vid=5638fae2-2e1b-469b-8abd-91d7d799618a","ios":"levelo://app?vid=5638fae2-2e1b-469b-8abd-91d7d799618a"},"vehicle_type_id":"4","last_reported":1746529732,"current_range_meters":17600,"station_id":"ce4bhrh2rcd13ifvqhug","pricing_plan_id":"cebpf4jnsgd1na2vs0mg"},{"bike_id":"4fd6bfff-2fba-4479-9355-04d32eaca128","system_id":"levelo_inurba_marseille","lat":43.231942,"lon":5.355444,"is_reserved":false,"is_disabled":false,"rental_uris":{"android":"levelo://app?vid=4fd6bfff-2fba-4479-9355-04d32eaca128","ios":"levelo://app?vid=4fd6bfff-2fba-4479-9355-04d32eaca128"},"vehicle_type_id":"4","last_reported":1746529732,"current_range_meters":17600,"station_id":"ce4bhu92rcd13ifvqi70","pricing_plan_id":"cebpf4jnsgd1na2vs0mg"},{"bike_id":"62f1efef-dd18-48ab-b7a9-8e4ce326b9a0","system_id":"levelo_inurba_marseille","lat":43.29373,"lon":5.37854,"is_reserved":false,"is_disabled":false,"rental_uris":{"android":"levelo://app?vid=62f1efef-dd18-48ab-b7a9-8e4ce326b9a0","ios":"levelo://app?vid=62f1efef-dd18-48ab-b7a9-8e4ce326b9a0"},"vehicle_type_id":"4","last_reported":1746529732,"current_range_meters":18000,"station_id":"ce4bgjh2rcd13ifvqbf0","pricing_plan_id":"cebpf4jnsgd1na2vs0mg"},{"bike_id":"93a163d0-7ef0-4f56-81ca-1f600930d069","system_id":"levelo_inurba_marseille","lat":43.308014,"lon":5.381745,"is_reserved":false,"is_disabled":false,"rental_uris":{"android":"levelo://app?vid=93a163d0-7ef0-4f56-81ca-1f600930d069","ios":"levelo://app?vid=93a163d0-7ef0-4f56-81ca-1f600930d069"},"vehicle_type_id":"4","last_reported":1746529732,"current_range_meters":18000,"station_id":"ce4bgt12rcd13ifvqce0","pricing_plan_id":"cebpf4jnsgd1na2vs0mg"},{"bike_id":"099b47f3-c321-4741-87dd-a0f37abaf307","system_id":"levelo_inurba_marseille","lat":43.28348,"lon":5.38099,"is_reserved":false,"is_disabled":false,"rental_uris":{"android":"levelo://app?vid=099b47f3-c321-4741-87dd-a0f37abaf307","ios":"levelo://app?vid=099b47f3-c321-4741-87dd-a0f37abaf307"},"vehicle_type_id":"4","last_reported":1746529732,"current_range_meters":18000,"station_id":"ce4bh412rcd13ifvqdr0","pricing_plan_id":"cebpf4jnsgd1na2vs0mg"},{"bike_id":"b07a2b15-6a8b-41e8-aada-ae46a1842b62","system_id":"levelo_inurba_marseille","lat":43.23154,"lon":5.43696,"is_reserved":false,"is_disabled":false,"rental_uris":{"android":"levelo://app?vid=b07a2b15-6a8b-41e8-aada-ae46a1842b62","ios":"levelo://app?vid=b07a2b15-6a8b-41e8-aada-ae46a1842b62"},"vehicle_type_id":"4","last_reported":1746529732,"current_range_meters":18000,"station_id":"ce4bhmp2rcd13ifvqgog","pricing_plan_id":"cebpf4jnsgd1na2vs0mg"},{"bike_id":"f7733ce9-a803-4724-939a-476c986ad258","system_id":"levelo_inurba_marseille","lat":43.24079,"lon":5.37738,"is_reserved":false,"is_disabled":false,"rental_uris":{"android":"levelo://app?vid=f7733ce9-a803-4724-939a-476c986ad258","ios":"levelo://app?vid=f7733ce9-a803-4724-939a-476c986ad258"},"vehicle_type_id":"4","last_reported":1746529732,"current_range_meters":18000,"station_id":"ce4bhnp2rcd13ifvqgvg","pricing_plan_id":"cebpf4jnsgd1na2vs0mg"},{"bike_id":"b4216838-733b-46cd-aae7-8693e0287a61","system_id":"levelo_inurba_marseille","lat":43.22939,"lon":5.35355,"is_reserved":false,"is_disabled":false,"rental_uris":{"android":"levelo://app?vid=b4216838-733b-46cd-aae7-8693e0287a61","ios":"levelo://app?vid=b4216838-733b-46cd-aae7-8693e0287a61"},"vehicle_type_id":"4","last_reported":1746529732,"current_range_meters":18000,"station_id":"cpo3532slgdg3j2ikp40","pricing_plan_id":"cebpf4jnsgd1na2vs0mg"},{"bike_id":"f45321ad-a54b-404d-981b-802d3c9e0607","system_id":"levelo_inurba_marseille","lat":43.21191,"lon":5.35072,"is_reserved":false,"is_disabled":false,"rental_uris":{"android":"levelo://app?vid=f45321ad-a54b-404d-981b-802d3c9e0607","ios":"levelo://app?vid=f45321ad-a54b-404d-981b-802d3c9e0607"},"vehicle_type_id":"4","last_reported":1746529732,"current_range_meters":18000,"station_id":"st_cvj6sg6p6f1abm77japg","pricing_plan_id":"cebpf4jnsgd1na2vs0mg"},{"bike_id":"49e3425a-89f1-4752-a399-3b53f82de516","system_id":"levelo_inurba_marseille","lat":43.29535,"lon":5.38538,"is_reserved":false,"is_disabled":false,"rental_uris":{"android":"levelo://app?vid=49e3425a-89f1-4752-a399-3b53f82de516","ios":"levelo://app?vid=49e3425a-89f1-4752-a399-3b53f82de516"},"vehicle_type_id":"4","last_reported":1746529732,"current_range_meters":18800,"station_id":"ce4bgih2rcd13ifvqba0","pricing_plan_id":"cebpf4jnsgd1na2vs0mg"},{"bike_id":"dbe2d0c9-0901-475b-bd50-eeb9dc6c06fa","system_id":"levelo_inurba_marseille","lat":43.270679,"lon":5.422769,"is_reserved":false,"is_disabled":false,"rental_uris":{"android":"levelo://app?vid=dbe2d0c9-0901-475b-bd50-eeb9dc6c06fa","ios":"levelo://app?vid=dbe2d0c9-0901-475b-bd50-eeb9dc6c06fa"},"vehicle_type_id":"4","last_reported":1746529732,"current_range_meters":18800,"station_id":"ce4bhk92rcd13ifvqgb0","pricing_plan_id":"cebpf4jnsgd1na2vs0mg"},{"bike_id":"06eeba0d-4034-4683-9f94-7ab934fde759","system_id":"levelo_inurba_marseille","lat":43.23162,"lon":5.43694,"is_reserved":false,"is_disabled":false,"rental_uris":{"android":"levelo://app?vid=06eeba0d-4034-4683-9f94-7ab934fde759","ios":"levelo://app?vid=06eeba0d-4034-4683-9f94-7ab934fde759"},"vehicle_type_id":"4","last_reported":1746529732,"current_range_meters":18800,"station_id":"ce4bhmp2rcd13ifvqgog","pricing_plan_id":"cebpf4jnsgd1na2vs0mg"},{"bike_id":"72ebbbdb-13e1-4c88-ab3c-b8b2bc65db3e","system_id":"levelo_inurba_marseille","lat":43.24075,"lon":5.37762,"is_reserved":false,"is_disabled":false,"rental_uris":{"android":"levelo://app?vid=72ebbbdb-13e1-4c88-ab3c-b8b2bc65db3e","ios":"levelo://app?vid=72ebbbdb-13e1-4c88-ab3c-b8b2bc65db3e"},"vehicle_type_id":"4","last_reported":1746529732,"current_range_meters":18800,"station_id":"ce4bhnp2rcd13ifvqgvg","pricing_plan_id":"cebpf4jnsgd1na2vs0mg"},{"bike_id":"c7c4d5c8-8979-44ce-8d89-7f7638348727","system_id":"levelo_inurba_marseille","lat":43.28079,"lon":5.39656,"is_reserved":false,"is_disabled":false,"rental_uris":{"android":"levelo://app?vid=c7c4d5c8-8979-44ce-8d89-7f7638348727","ios":"levelo://app?vid=c7c4d5c8-8979-44ce-8d89-7f7638348727"},"vehicle_type_id":"4","last_reported":1746529732,"current_range_meters":18800,"station_id":"ce4bho12rcd13ifvqh2g","pricing_plan_id":"cebpf4jnsgd1na2vs0mg"},{"bike_id":"425474cb-1503-45db-9cb7-1dc966f15e48","system_id":"levelo_inurba_marseille","lat":43.31746,"lon":5.38997,"is_reserved":false,"is_disabled":false,"rental_uris":{"android":"levelo://app?vid=425474cb-1503-45db-9cb7-1dc966f15e48","ios":"levelo://app?vid=425474cb-1503-45db-9cb7-1dc966f15e48"},"vehicle_type_id":"4","last_reported":1746529732,"current_range_meters":18800,"station_id":"ce4bhqp2rcd13ifvqhng","pricing_plan_id":"cebpf4jnsgd1na2vs0mg"},{"bike_id":"ac700e2e-c129-4f82-a3c3-f628077933a6","system_id":"levelo_inurba_marseille","lat":43.2121,"lon":5.35079,"is_reserved":false,"is_disabled":false,"rental_uris":{"android":"levelo://app?vid=ac700e2e-c129-4f82-a3c3-f628077933a6","ios":"levelo://app?vid=ac700e2e-c129-4f82-a3c3-f628077933a6"},"vehicle_type_id":"4","last_reported":1746529732,"current_range_meters":18800,"station_id":"st_cvj6sg6p6f1abm77japg","pricing_plan_id":"cebpf4jnsgd1na2vs0mg"},{"bike_id":"256645b8-5d92-4612-96a0-2293dd0590d0","system_id":"levelo_inurba_marseille","lat":43.31327,"lon":5.39691,"is_reserved":false,"is_disabled":false,"rental_uris":{"android":"levelo://app?vid=256645b8-5d92-4612-96a0-2293dd0590d0","ios":"levelo://app?vid=256645b8-5d92-4612-96a0-2293dd0590d0"},"vehicle_type_id":"4","last_reported":1746529732,"current_range_meters":19200,"station_id":"ce4bgvp2rcd13ifvqcu0","pricing_plan_id":"cebpf4jnsgd1na2vs0mg"},{"bike_id":"76d2a9e6-49ed-4a42-b494-5b09826e1035","system_id":"levelo_inurba_marseille","lat":43.2439,"lon":5.37062,"is_reserved":false,"is_disabled":false,"rental_uris":{"android":"levelo://app?vid=76d2a9e6-49ed-4a42-b494-5b09826e1035","ios":"levelo://app?vid=76d2a9e6-49ed-4a42-b494-5b09826e1035"},"vehicle_type_id":"4","last_reported":1746529732,"current_range_meters":19200,"station_id":"ce4bhhh2rcd13ifvqfk0","pricing_plan_id":"cebpf4jnsgd1na2vs0mg"},{"bike_id":"5afbf1b1-f083-451e-a06f-c31bde7921bb","system_id":"levelo_inurba_marseille","lat":43.330244,"lon":5.390428,"is_reserved":false,"is_disabled":false,"rental_uris":{"android":"levelo://app?vid=5afbf1b1-f083-451e-a06f-c31bde7921bb","ios":"levelo://app?vid=5afbf1b1-f083-451e-a06f-c31bde7921bb"},"vehicle_type_id":"4","last_reported":1746529732,"current_range_meters":19200,"station_id":"ce4bhr92rcd13ifvqhrg","pricing_plan_id":"cebpf4jnsgd1na2vs0mg"},{"bike_id":"0e87f288-e8c8-42f7-9b45-5d07827eac14","system_id":"levelo_inurba_marseille","lat":43.323601,"lon":5.367649,"is_reserved":false,"is_disabled":false,"rental_uris":{"android":"levelo://app?vid=0e87f288-e8c8-42f7-9b45-5d07827eac14","ios":"levelo://app?vid=0e87f288-e8c8-42f7-9b45-5d07827eac14"},"vehicle_type_id":"4","last_reported":1746529732,"current_range_meters":19200,"station_id":"ce4bhsh2rcd13ifvqi2g","pricing_plan_id":"cebpf4jnsgd1na2vs0mg"},{"bike_id":"dafa7804-f54d-464e-8f67-ac22e32e0fce","system_id":"levelo_inurba_marseille","lat":43.2963,"lon":5.40602,"is_reserved":false,"is_disabled":false,"rental_uris":{"android":"levelo://app?vid=dafa7804-f54d-464e-8f67-ac22e32e0fce","ios":"levelo://app?vid=dafa7804-f54d-464e-8f67-ac22e32e0fce"},"vehicle_type_id":"4","last_reported":1746529732,"current_range_meters":19600,"station_id":"ce4bh0h2rcd13ifvqd60","pricing_plan_id":"cebpf4jnsgd1na2vs0mg"},{"bike_id":"754bc045-b2ac-4e37-840d-392ad4e7818d","system_id":"levelo_inurba_marseille","lat":43.29037,"lon":5.39961,"is_reserved":false,"is_disabled":false,"rental_uris":{"android":"levelo://app?vid=754bc045-b2ac-4e37-840d-392ad4e7818d","ios":"levelo://app?vid=754bc045-b2ac-4e37-840d-392ad4e7818d"},"vehicle_type_id":"4","last_reported":1746529732,"current_range_meters":19600,"station_id":"ce4bh392rcd13ifvqdm0","pricing_plan_id":"cebpf4jnsgd1na2vs0mg"},{"bike_id":"4fa44a4d-c738-41bc-9022-213fbeae4065","system_id":"levelo_inurba_marseille","lat":43.23197,"lon":5.39982,"is_reserved":false,"is_disabled":false,"rental_uris":{"android":"levelo://app?vid=4fa44a4d-c738-41bc-9022-213fbeae4065","ios":"levelo://app?vid=4fa44a4d-c738-41bc-9022-213fbeae4065"},"vehicle_type_id":"4","last_reported":1746529732,"current_range_meters":19600,"station_id":"ce4bhn12rcd13ifvqgqg","pricing_plan_id":"cebpf4jnsgd1na2vs0mg"},{"bike_id":"813536a0-ef60-47f5-af21-421699b20abb","system_id":"levelo_inurba_marseille","lat":43.29294,"lon":5.37467,"is_reserved":false,"is_disabled":false,"rental_uris":{"android":"levelo://app?vid=813536a0-ef60-47f5-af21-421699b20abb","ios":"levelo://app?vid=813536a0-ef60-47f5-af21-421699b20abb"},"vehicle_type_id":"4","last_reported":1746529732,"current_range_meters":20000,"station_id":"ce4bgi12rcd13ifvqb70","pricing_plan_id":"cebpf4jnsgd1na2vs0mg"},{"bike_id":"5403979b-d6a0-40c8-b80e-9f27c702dba8","system_id":"levelo_inurba_marseille","lat":43.31495,"lon":5.37316,"is_reserved":false,"is_disabled":false,"rental_uris":{"android":"levelo://app?vid=5403979b-d6a0-40c8-b80e-9f27c702dba8","ios":"levelo://app?vid=5403979b-d6a0-40c8-b80e-9f27c702dba8"},"vehicle_type_id":"4","last_reported":1746529732,"current_range_meters":20000,"station_id":"ce4bgt12rcd13ifvqcd0","pricing_plan_id":"cebpf4jnsgd1na2vs0mg"},{"bike_id":"eda76ab5-d60e-4e66-beef-f1daa063e8fc","system_id":"levelo_inurba_marseille","lat":43.25109,"lon":5.40338,"is_reserved":false,"is_disabled":false,"rental_uris":{"android":"levelo://app?vid=eda76ab5-d60e-4e66-beef-f1daa063e8fc","ios":"levelo://app?vid=eda76ab5-d60e-4e66-beef-f1daa063e8fc"},"vehicle_type_id":"4","last_reported":1746529732,"current_range_meters":20000,"station_id":"ce4bhlh2rcd13ifvqgig","pricing_plan_id":"cebpf4jnsgd1na2vs0mg"},{"bike_id":"2d681e3a-2beb-4980-ae98-d93c0b6af1c3","system_id":"levelo_inurba_marseille","lat":43.24048,"lon":5.37712,"is_reserved":false,"is_disabled":false,"rental_uris":{"android":"levelo://app?vid=2d681e3a-2beb-4980-ae98-d93c0b6af1c3","ios":"levelo://app?vid=2d681e3a-2beb-4980-ae98-d93c0b6af1c3"},"vehicle_type_id":"4","last_reported":1746529732,"current_range_meters":20000,"station_id":"ce4bhnp2rcd13ifvqgvg","pricing_plan_id":"cebpf4jnsgd1na2vs0mg"},{"bike_id":"81dd1c4b-6a3b-4570-b1e2-1c9b93ab7410","system_id":"levelo_inurba_marseille","lat":43.22502,"lon":5.34785,"is_reserved":false,"is_disabled":false,"rental_uris":{"android":"levelo://app?vid=81dd1c4b-6a3b-4570-b1e2-1c9b93ab7410","ios":"levelo://app?vid=81dd1c4b-6a3b-4570-b1e2-1c9b93ab7410"},"vehicle_type_id":"4","last_reported":1746529732,"current_range_meters":20400,"station_id":"","pricing_plan_id":"cebpf4jnsgd1na2vs0mg"},{"bike_id":"d79ee6bb-90e0-4542-96b3-b4095d0b2f45","system_id":"levelo_inurba_marseille","lat":43.29601,"lon":5.38105,"is_reserved":false,"is_disabled":false,"rental_uris":{"android":"levelo://app?vid=d79ee6bb-90e0-4542-96b3-b4095d0b2f45","ios":"levelo://app?vid=d79ee6bb-90e0-4542-96b3-b4095d0b2f45"},"vehicle_type_id":"4","last_reported":1746529732,"current_range_meters":20400,"station_id":"ce4bgl12rcd13ifvqbo0","pricing_plan_id":"cebpf4jnsgd1na2vs0mg"},{"bike_id":"8b1f972e-09f9-46f3-846d-8329c49cc39c","system_id":"levelo_inurba_marseille","lat":43.27991,"lon":5.41651,"is_reserved":false,"is_disabled":false,"rental_uris":{"android":"levelo://app?vid=8b1f972e-09f9-46f3-846d-8329c49cc39c","ios":"levelo://app?vid=8b1f972e-09f9-46f3-846d-8329c49cc39c"},"vehicle_type_id":"4","last_reported":1746529732,"current_range_meters":20400,"station_id":"ce4bho12rcd13ifvqh1g","pricing_plan_id":"cebpf4jnsgd1na2vs0mg"},{"bike_id":"24384f0e-408a-42ee-9dc0-46996d573e79","system_id":"levelo_inurba_marseille","lat":43.225125,"lon":5.348256,"is_reserved":false,"is_disabled":false,"rental_uris":{"android":"levelo://app?vid=24384f0e-408a-42ee-9dc0-46996d573e79","ios":"levelo://app?vid=24384f0e-408a-42ee-9dc0-46996d573e79"},"vehicle_type_id":"4","last_reported":1746529732,"current_range_meters":20800,"station_id":"","pricing_plan_id":"cebpf4jnsgd1na2vs0mg"},{"bike_id":"62b74d60-7e08-4319-b155-9fc4a1d86183","system_id":"levelo_inurba_marseille","lat":43.30781,"lon":5.37649,"is_reserved":false,"is_disabled":false,"rental_uris":{"android":"levelo://app?vid=62b74d60-7e08-4319-b155-9fc4a1d86183","ios":"levelo://app?vid=62b74d60-7e08-4319-b155-9fc4a1d86183"},"vehicle_type_id":"4","last_reported":1746529732,"current_range_meters":20800,"station_id":"ce4bgv92rcd13ifvqcq0","pricing_plan_id":"cebpf4jnsgd1na2vs0mg"},{"bike_id":"b89b3b2b-f2e7-4fc4-96df-f4eb8b726bbc","system_id":"levelo_inurba_marseille","lat":43.30784,"lon":5.37645,"is_reserved":false,"is_disabled":false,"rental_uris":{"android":"levelo://app?vid=b89b3b2b-f2e7-4fc4-96df-f4eb8b726bbc","ios":"levelo://app?vid=b89b3b2b-f2e7-4fc4-96df-f4eb8b726bbc"},"vehicle_type_id":"4","last_reported":1746529732,"current_range_meters":20800,"station_id":"ce4bgv92rcd13ifvqcq0","pricing_plan_id":"cebpf4jnsgd1na2vs0mg"},{"bike_id":"f3ea60fc-1d37-4d99-8078-a468fcc01dc2","system_id":"levelo_inurba_marseille","lat":43.29273,"lon":5.38449,"is_reserved":false,"is_disabled":false,"rental_uris":{"android":"levelo://app?vid=f3ea60fc-1d37-4d99-8078-a468fcc01dc2","ios":"levelo://app?vid=f3ea60fc-1d37-4d99-8078-a468fcc01dc2"},"vehicle_type_id":"4","last_reported":1746529732,"current_range_meters":20800,"station_id":"ce4bh692rcd13ifvqea0","pricing_plan_id":"cebpf4jnsgd1na2vs0mg"},{"bike_id":"4a1f5aa5-888b-4966-90a8-87cb28bab7dd","system_id":"levelo_inurba_marseille","lat":43.2917,"lon":5.37165,"is_reserved":false,"is_disabled":false,"rental_uris":{"android":"levelo://app?vid=4a1f5aa5-888b-4966-90a8-87cb28bab7dd","ios":"levelo://app?vid=4a1f5aa5-888b-4966-90a8-87cb28bab7dd"},"vehicle_type_id":"4","last_reported":1746529732,"current_range_meters":20800,"station_id":"ce4bha92rcd13ifvqeh0","pricing_plan_id":"cebpf4jnsgd1na2vs0mg"},{"bike_id":"f6a10d81-0c78-49ed-b9ce-e5bb13c311ea","system_id":"levelo_inurba_marseille","lat":43.289364,"lon":5.366454,"is_reserved":false,"is_disabled":false,"rental_uris":{"android":"levelo://app?vid=f6a10d81-0c78-49ed-b9ce-e5bb13c311ea","ios":"levelo://app?vid=f6a10d81-0c78-49ed-b9ce-e5bb13c311ea"},"vehicle_type_id":"4","last_reported":1746529732,"current_range_meters":20800,"station_id":"ce4bhap2rcd13ifvqek0","pricing_plan_id":"cebpf4jnsgd1na2vs0mg"},{"bike_id":"ea567cab-46d0-4114-bb2a-46d20020d541","system_id":"levelo_inurba_marseille","lat":43.23153,"lon":5.43718,"is_reserved":false,"is_disabled":false,"rental_uris":{"android":"levelo://app?vid=ea567cab-46d0-4114-bb2a-46d20020d541","ios":"levelo://app?vid=ea567cab-46d0-4114-bb2a-46d20020d541"},"vehicle_type_id":"4","last_reported":1746529732,"current_range_meters":20800,"station_id":"ce4bhmp2rcd13ifvqgog","pricing_plan_id":"cebpf4jnsgd1na2vs0mg"},{"bike_id":"692f8d92-71c5-40ef-ba09-04c8680b96d1","system_id":"levelo_inurba_marseille","lat":43.30192,"lon":5.36628,"is_reserved":false,"is_disabled":false,"rental_uris":{"android":"levelo://app?vid=692f8d92-71c5-40ef-ba09-04c8680b96d1","ios":"levelo://app?vid=692f8d92-71c5-40ef-ba09-04c8680b96d1"},"vehicle_type_id":"4","last_reported":1746529732,"current_range_meters":21600,"station_id":"ce4bgrh2rcd13ifvqc8g","pricing_plan_id":"cebpf4jnsgd1na2vs0mg"},{"bike_id":"b15e24b1-90ca-404b-aa0f-2af935cf44d6","system_id":"levelo_inurba_marseille","lat":43.31484,"lon":5.37307,"is_reserved":false,"is_disabled":false,"rental_uris":{"android":"levelo://app?vid=b15e24b1-90ca-404b-aa0f-2af935cf44d6","ios":"levelo://app?vid=b15e24b1-90ca-404b-aa0f-2af935cf44d6"},"vehicle_type_id":"4","last_reported":1746529732,"current_range_meters":21600,"station_id":"ce4bgt12rcd13ifvqcd0","pricing_plan_id":"cebpf4jnsgd1na2vs0mg"},{"bike_id":"9250dc50-a518-49ef-b4c7-538c0f0eb28e","system_id":"levelo_inurba_marseille","lat":43.29039,"lon":5.39974,"is_reserved":false,"is_disabled":false,"rental_uris":{"android":"levelo://app?vid=9250dc50-a518-49ef-b4c7-538c0f0eb28e","ios":"levelo://app?vid=9250dc50-a518-49ef-b4c7-538c0f0eb28e"},"vehicle_type_id":"4","last_reported":1746529732,"current_range_meters":21600,"station_id":"ce4bh392rcd13ifvqdm0","pricing_plan_id":"cebpf4jnsgd1na2vs0mg"},{"bike_id":"758e3a08-53e0-4ba9-a193-f3d31e968334","system_id":"levelo_inurba_marseille","lat":43.27498,"lon":5.42448,"is_reserved":false,"is_disabled":false,"rental_uris":{"android":"levelo://app?vid=758e3a08-53e0-4ba9-a193-f3d31e968334","ios":"levelo://app?vid=758e3a08-53e0-4ba9-a193-f3d31e968334"},"vehicle_type_id":"4","last_reported":1746529732,"current_range_meters":21600,"station_id":"ce4bhn92rcd13ifvqgrg","pricing_plan_id":"cebpf4jnsgd1na2vs0mg"},{"bike_id":"a6e22750-a6db-4d46-8a63-7f3556eae5ac","system_id":"levelo_inurba_marseille","lat":43.30422,"lon":5.41285,"is_reserved":false,"is_disabled":false,"rental_uris":{"android":"levelo://app?vid=a6e22750-a6db-4d46-8a63-7f3556eae5ac","ios":"levelo://app?vid=a6e22750-a6db-4d46-8a63-7f3556eae5ac"},"vehicle_type_id":"4","last_reported":1746529732,"current_range_meters":21600,"station_id":"ce4bhop2rcd13ifvqh8g","pricing_plan_id":"cebpf4jnsgd1na2vs0mg"},{"bike_id":"9b687aca-0ad8-4e90-9042-bed881fded6c","system_id":"levelo_inurba_marseille","lat":43.23194,"lon":5.35549,"is_reserved":false,"is_disabled":false,"rental_uris":{"android":"levelo://app?vid=9b687aca-0ad8-4e90-9042-bed881fded6c","ios":"levelo://app?vid=9b687aca-0ad8-4e90-9042-bed881fded6c"},"vehicle_type_id":"4","last_reported":1746529732,"current_range_meters":21600,"station_id":"ce4bhu92rcd13ifvqi70","pricing_plan_id":"cebpf4jnsgd1na2vs0mg"},{"bike_id":"9e399378-affa-4675-8b4d-c259726694da","system_id":"levelo_inurba_marseille","lat":43.2995,"lon":5.36581,"is_reserved":false,"is_disabled":false,"rental_uris":{"android":"levelo://app?vid=9e399378-affa-4675-8b4d-c259726694da","ios":"levelo://app?vid=9e399378-affa-4675-8b4d-c259726694da"},"vehicle_type_id":"4","last_reported":1746529732,"current_range_meters":22000,"station_id":"ce4bgm92rcd13ifvqbr0","pricing_plan_id":"cebpf4jnsgd1na2vs0mg"},{"bike_id":"8b7c92ca-9ac7-4138-9048-6eb59e93efa5","system_id":"levelo_inurba_marseille","lat":43.30523,"lon":5.36679,"is_reserved":false,"is_disabled":false,"rental_uris":{"android":"levelo://app?vid=8b7c92ca-9ac7-4138-9048-6eb59e93efa5","ios":"levelo://app?vid=8b7c92ca-9ac7-4138-9048-6eb59e93efa5"},"vehicle_type_id":"4","last_reported":1746529732,"current_range_meters":22000,"station_id":"ce4bgrp2rcd13ifvqc9g","pricing_plan_id":"cebpf4jnsgd1na2vs0mg"},{"bike_id":"5fbab11a-d443-4c65-affd-6d659e48821f","system_id":"levelo_inurba_marseille","lat":43.30547,"lon":5.36524,"is_reserved":false,"is_disabled":false,"rental_uris":{"android":"levelo://app?vid=5fbab11a-d443-4c65-affd-6d659e48821f","ios":"levelo://app?vid=5fbab11a-d443-4c65-affd-6d659e48821f"},"vehicle_type_id":"4","last_reported":1746529732,"current_range_meters":22000,"station_id":"ce4bgs12rcd13ifvqcag","pricing_plan_id":"cebpf4jnsgd1na2vs0mg"},{"bike_id":"f2c261aa-50a0-417a-a68b-eb2c23d0c862","system_id":"levelo_inurba_marseille","lat":43.2439,"lon":5.37061,"is_reserved":false,"is_disabled":false,"rental_uris":{"android":"levelo://app?vid=f2c261aa-50a0-417a-a68b-eb2c23d0c862","ios":"levelo://app?vid=f2c261aa-50a0-417a-a68b-eb2c23d0c862"},"vehicle_type_id":"4","last_reported":1746529732,"current_range_meters":22000,"station_id":"ce4bhhh2rcd13ifvqfk0","pricing_plan_id":"cebpf4jnsgd1na2vs0mg"},{"bike_id":"b988b822-4987-4623-ac7e-b75666030013","system_id":"levelo_inurba_marseille","lat":43.283508,"lon":5.381047,"is_reserved":false,"is_disabled":false,"rental_uris":{"android":"levelo://app?vid=b988b822-4987-4623-ac7e-b75666030013","ios":"levelo://app?vid=b988b822-4987-4623-ac7e-b75666030013"},"vehicle_type_id":"4","last_reported":1746529732,"current_range_meters":22400,"station_id":"ce4bh412rcd13ifvqdr0","pricing_plan_id":"cebpf4jnsgd1na2vs0mg"},{"bike_id":"1d1c68e0-6f55-4702-a4e1-2e40927ff9eb","system_id":"levelo_inurba_marseille","lat":43.28723,"lon":5.37933,"is_reserved":false,"is_disabled":false,"rental_uris":{"android":"levelo://app?vid=1d1c68e0-6f55-4702-a4e1-2e40927ff9eb","ios":"levelo://app?vid=1d1c68e0-6f55-4702-a4e1-2e40927ff9eb"},"vehicle_type_id":"4","last_reported":1746529732,"current_range_meters":22400,"station_id":"ce4bh9p2rcd13ifvqec0","pricing_plan_id":"cebpf4jnsgd1na2vs0mg"},{"bike_id":"e05029fe-7ca8-466a-af82-cc0f8c0449aa","system_id":"levelo_inurba_marseille","lat":43.28101,"lon":5.37829,"is_reserved":false,"is_disabled":false,"rental_uris":{"android":"levelo://app?vid=e05029fe-7ca8-466a-af82-cc0f8c0449aa","ios":"levelo://app?vid=e05029fe-7ca8-466a-af82-cc0f8c0449aa"},"vehicle_type_id":"4","last_reported":1746529732,"current_range_meters":22400,"station_id":"ce4bha12rcd13ifvqee0","pricing_plan_id":"cebpf4jnsgd1na2vs0mg"},{"bike_id":"24cb5bd8-1a1f-4a28-9427-7490b45f8762","system_id":"levelo_inurba_marseille","lat":43.21189,"lon":5.35069,"is_reserved":false,"is_disabled":false,"rental_uris":{"android":"levelo://app?vid=24cb5bd8-1a1f-4a28-9427-7490b45f8762","ios":"levelo://app?vid=24cb5bd8-1a1f-4a28-9427-7490b45f8762"},"vehicle_type_id":"4","last_reported":1746529732,"current_range_meters":22400,"station_id":"st_cvj6sg6p6f1abm77japg","pricing_plan_id":"cebpf4jnsgd1na2vs0mg"},{"bike_id":"58baf068-27fe-47f2-88f9-842407a793d0","system_id":"levelo_inurba_marseille","lat":43.29374,"lon":5.37845,"is_reserved":false,"is_disabled":false,"rental_uris":{"android":"levelo://app?vid=58baf068-27fe-47f2-88f9-842407a793d0","ios":"levelo://app?vid=58baf068-27fe-47f2-88f9-842407a793d0"},"vehicle_type_id":"4","last_reported":1746529732,"current_range_meters":22800,"station_id":"ce4bgjh2rcd13ifvqbf0","pricing_plan_id":"cebpf4jnsgd1na2vs0mg"},{"bike_id":"bb17b34c-1a39-4c91-9d80-c0007c499974","system_id":"levelo_inurba_marseille","lat":43.30597,"lon":5.39349,"is_reserved":false,"is_disabled":false,"rental_uris":{"android":"levelo://app?vid=bb17b34c-1a39-4c91-9d80-c0007c499974","ios":"levelo://app?vid=bb17b34c-1a39-4c91-9d80-c0007c499974"},"vehicle_type_id":"4","last_reported":1746529732,"current_range_meters":22800,"station_id":"ce4bh0p2rcd13ifvqd80","pricing_plan_id":"cebpf4jnsgd1na2vs0mg"},{"bike_id":"7e73cd29-f55d-4b45-a0d5-8864d04f4fcc","system_id":"levelo_inurba_marseille","lat":43.2757,"lon":5.38405,"is_reserved":false,"is_disabled":false,"rental_uris":{"android":"levelo://app?vid=7e73cd29-f55d-4b45-a0d5-8864d04f4fcc","ios":"levelo://app?vid=7e73cd29-f55d-4b45-a0d5-8864d04f4fcc"},"vehicle_type_id":"4","last_reported":1746529732,"current_range_meters":22800,"station_id":"ce4bhh92rcd13ifvqfi0","pricing_plan_id":"cebpf4jnsgd1na2vs0mg"},{"bike_id":"0ea70d19-4ed7-4071-a4a9-e4d2871feeeb","system_id":"levelo_inurba_marseille","lat":43.25869,"lon":5.39899,"is_reserved":false,"is_disabled":false,"rental_uris":{"android":"levelo://app?vid=0ea70d19-4ed7-4071-a4a9-e4d2871feeeb","ios":"levelo://app?vid=0ea70d19-4ed7-4071-a4a9-e4d2871feeeb"},"vehicle_type_id":"4","last_reported":1746529732,"current_range_meters":22800,"station_id":"ce4bhl92rcd13ifvqghg","pricing_plan_id":"cebpf4jnsgd1na2vs0mg"},{"bike_id":"bac7f684-2423-4e2b-8fd4-078a9a398e21","system_id":"levelo_inurba_marseille","lat":43.24081,"lon":5.3771,"is_reserved":false,"is_disabled":false,"rental_uris":{"android":"levelo://app?vid=bac7f684-2423-4e2b-8fd4-078a9a398e21","ios":"levelo://app?vid=bac7f684-2423-4e2b-8fd4-078a9a398e21"},"vehicle_type_id":"4","last_reported":1746529732,"current_range_meters":22800,"station_id":"ce4bhnp2rcd13ifvqgvg","pricing_plan_id":"cebpf4jnsgd1na2vs0mg"},{"bike_id":"4c92ddfb-82c6-411c-8a4c-50ec62be918b","system_id":"levelo_inurba_marseille","lat":43.24074,"lon":5.37754,"is_reserved":false,"is_disabled":false,"rental_uris":{"android":"levelo://app?vid=4c92ddfb-82c6-411c-8a4c-50ec62be918b","ios":"levelo://app?vid=4c92ddfb-82c6-411c-8a4c-50ec62be918b"},"vehicle_type_id":"4","last_reported":1746529732,"current_range_meters":22800,"station_id":"ce4bhnp2rcd13ifvqgvg","pricing_plan_id":"cebpf4jnsgd1na2vs0mg"},{"bike_id":"96175c6b-7676-4c4f-8523-d41df33ea507","system_id":"levelo_inurba_marseille","lat":43.24095,"lon":5.3777,"is_reserved":false,"is_disabled":false,"rental_uris":{"android":"levelo://app?vid=96175c6b-7676-4c4f-8523-d41df33ea507","ios":"levelo://app?vid=96175c6b-7676-4c4f-8523-d41df33ea507"},"vehicle_type_id":"4","last_reported":1746529732,"current_range_meters":22800,"station_id":"ce4bhnp2rcd13ifvqgvg","pricing_plan_id":"cebpf4jnsgd1na2vs0mg"},{"bike_id":"459bd0d7-016b-4f6d-a097-d77c59da6a01","system_id":"levelo_inurba_marseille","lat":43.30526,"lon":5.3671,"is_reserved":false,"is_disabled":false,"rental_uris":{"android":"levelo://app?vid=459bd0d7-016b-4f6d-a097-d77c59da6a01","ios":"levelo://app?vid=459bd0d7-016b-4f6d-a097-d77c59da6a01"},"vehicle_type_id":"4","last_reported":1746529732,"current_range_meters":23200,"station_id":"ce4bgrp2rcd13ifvqc9g","pricing_plan_id":"cebpf4jnsgd1na2vs0mg"},{"bike_id":"2abed1df-20a6-4b3a-bc3b-ce3655dcf2dc","system_id":"levelo_inurba_marseille","lat":43.30535,"lon":5.36549,"is_reserved":false,"is_disabled":false,"rental_uris":{"android":"levelo://app?vid=2abed1df-20a6-4b3a-bc3b-ce3655dcf2dc","ios":"levelo://app?vid=2abed1df-20a6-4b3a-bc3b-ce3655dcf2dc"},"vehicle_type_id":"4","last_reported":1746529732,"current_range_meters":23200,"station_id":"ce4bgs12rcd13ifvqcag","pricing_plan_id":"cebpf4jnsgd1na2vs0mg"},{"bike_id":"aa6e7dec-5dd2-47b3-a39a-774018df75c1","system_id":"levelo_inurba_marseille","lat":43.29267,"lon":5.38439,"is_reserved":false,"is_disabled":false,"rental_uris":{"android":"levelo://app?vid=aa6e7dec-5dd2-47b3-a39a-774018df75c1","ios":"levelo://app?vid=aa6e7dec-5dd2-47b3-a39a-774018df75c1"},"vehicle_type_id":"4","last_reported":1746529732,"current_range_meters":23200,"station_id":"ce4bh692rcd13ifvqea0","pricing_plan_id":"cebpf4jnsgd1na2vs0mg"},{"bike_id":"93e986ba-15b2-4d48-9367-64c6f9705230","system_id":"levelo_inurba_marseille","lat":43.28265,"lon":5.35065,"is_reserved":false,"is_disabled":false,"rental_uris":{"android":"levelo://app?vid=93e986ba-15b2-4d48-9367-64c6f9705230","ios":"levelo://app?vid=93e986ba-15b2-4d48-9367-64c6f9705230"},"vehicle_type_id":"4","last_reported":1746529732,"current_range_meters":23200,"station_id":"ce4bhbp2rcd13ifvqerg","pricing_plan_id":"cebpf4jnsgd1na2vs0mg"},{"bike_id":"d757cc46-6904-4096-8db6-c5c7a9f7b253","system_id":"levelo_inurba_marseille","lat":43.25496,"lon":5.37648,"is_reserved":false,"is_disabled":false,"rental_uris":{"android":"levelo://app?vid=d757cc46-6904-4096-8db6-c5c7a9f7b253","ios":"levelo://app?vid=d757cc46-6904-4096-8db6-c5c7a9f7b253"},"vehicle_type_id":"4","last_reported":1746529732,"current_range_meters":23200,"station_id":"ce4bhh12rcd13ifvqff0","pricing_plan_id":"cebpf4jnsgd1na2vs0mg"},{"bike_id":"d5ab06e3-e77d-4b7f-a195-6a14c71353d9","system_id":"levelo_inurba_marseille","lat":43.26217,"lon":5.40473,"is_reserved":false,"is_disabled":false,"rental_uris":{"android":"levelo://app?vid=d5ab06e3-e77d-4b7f-a195-6a14c71353d9","ios":"levelo://app?vid=d5ab06e3-e77d-4b7f-a195-6a14c71353d9"},"vehicle_type_id":"4","last_reported":1746529732,"current_range_meters":23200,"station_id":"ce4bhmh2rcd13ifvqgmg","pricing_plan_id":"cebpf4jnsgd1na2vs0mg"},{"bike_id":"9733186d-f668-4456-bc86-7447dcd9ce11","system_id":"levelo_inurba_marseille","lat":43.27959,"lon":5.41001,"is_reserved":false,"is_disabled":false,"rental_uris":{"android":"levelo://app?vid=9733186d-f668-4456-bc86-7447dcd9ce11","ios":"levelo://app?vid=9733186d-f668-4456-bc86-7447dcd9ce11"},"vehicle_type_id":"4","last_reported":1746529732,"current_range_meters":23200,"station_id":"ce4bhnp2rcd13ifvqh0g","pricing_plan_id":"cebpf4jnsgd1na2vs0mg"},{"bike_id":"0df3111c-fd99-4e63-915e-e7763d46bb1b","system_id":"levelo_inurba_marseille","lat":43.28491,"lon":5.37074,"is_reserved":false,"is_disabled":false,"rental_uris":{"android":"levelo://app?vid=0df3111c-fd99-4e63-915e-e7763d46bb1b","ios":"levelo://app?vid=0df3111c-fd99-4e63-915e-e7763d46bb1b"},"vehicle_type_id":"4","last_reported":1746529732,"current_range_meters":24000,"station_id":"","pricing_plan_id":"cebpf4jnsgd1na2vs0mg"},{"bike_id":"8e2b134c-a027-4eb4-8589-90520d4a43a0","system_id":"levelo_inurba_marseille","lat":43.231537,"lon":5.437153,"is_reserved":false,"is_disabled":false,"rental_uris":{"android":"levelo://app?vid=8e2b134c-a027-4eb4-8589-90520d4a43a0","ios":"levelo://app?vid=8e2b134c-a027-4eb4-8589-90520d4a43a0"},"vehicle_type_id":"4","last_reported":1746529732,"current_range_meters":24000,"station_id":"","pricing_plan_id":"cebpf4jnsgd1na2vs0mg"},{"bike_id":"a6f11497-5c8f-4265-816c-3c67aaf3f670","system_id":"levelo_inurba_marseille","lat":43.29934,"lon":5.36545,"is_reserved":false,"is_disabled":false,"rental_uris":{"android":"levelo://app?vid=a6f11497-5c8f-4265-816c-3c67aaf3f670","ios":"levelo://app?vid=a6f11497-5c8f-4265-816c-3c67aaf3f670"},"vehicle_type_id":"4","last_reported":1746529732,"current_range_meters":24000,"station_id":"ce4bgm92rcd13ifvqbr0","pricing_plan_id":"cebpf4jnsgd1na2vs0mg"},{"bike_id":"b1f25447-51fe-4495-9de9-b6bcf8a4e616","system_id":"levelo_inurba_marseille","lat":43.31168,"lon":5.3871,"is_reserved":false,"is_disabled":false,"rental_uris":{"android":"levelo://app?vid=b1f25447-51fe-4495-9de9-b6bcf8a4e616","ios":"levelo://app?vid=b1f25447-51fe-4495-9de9-b6bcf8a4e616"},"vehicle_type_id":"4","last_reported":1746529732,"current_range_meters":24000,"station_id":"ce4bgv12rcd13ifvqcp0","pricing_plan_id":"cebpf4jnsgd1na2vs0mg"},{"bike_id":"aa115ff6-1d87-4e0a-aac9-7bbfbdafd381","system_id":"levelo_inurba_marseille","lat":43.29093,"lon":5.38151,"is_reserved":false,"is_disabled":false,"rental_uris":{"android":"levelo://app?vid=aa115ff6-1d87-4e0a-aac9-7bbfbdafd381","ios":"levelo://app?vid=aa115ff6-1d87-4e0a-aac9-7bbfbdafd381"},"vehicle_type_id":"4","last_reported":1746529732,"current_range_meters":24000,"station_id":"ce4bh512rcd13ifvqe2g","pricing_plan_id":"cebpf4jnsgd1na2vs0mg"},{"bike_id":"9526d8cc-2e22-40b5-b1d1-07ee533d9747","system_id":"levelo_inurba_marseille","lat":43.29279,"lon":5.3685,"is_reserved":false,"is_disabled":false,"rental_uris":{"android":"levelo://app?vid=9526d8cc-2e22-40b5-b1d1-07ee533d9747","ios":"levelo://app?vid=9526d8cc-2e22-40b5-b1d1-07ee533d9747"},"vehicle_type_id":"4","last_reported":1746529732,"current_range_meters":24000,"station_id":"ce4bhbp2rcd13ifvqesg","pricing_plan_id":"cebpf4jnsgd1na2vs0mg"},{"bike_id":"f4ccab48-0138-4057-b4c2-eb947b5ce3fe","system_id":"levelo_inurba_marseille","lat":43.323358,"lon":5.406251,"is_reserved":false,"is_disabled":false,"rental_uris":{"android":"levelo://app?vid=f4ccab48-0138-4057-b4c2-eb947b5ce3fe","ios":"levelo://app?vid=f4ccab48-0138-4057-b4c2-eb947b5ce3fe"},"vehicle_type_id":"4","last_reported":1746529732,"current_range_meters":24000,"station_id":"ce4bhq92rcd13ifvqhjg","pricing_plan_id":"cebpf4jnsgd1na2vs0mg"},{"bike_id":"3e84c101-5db4-4f72-a6b3-c7fadc549b13","system_id":"levelo_inurba_marseille","lat":43.3043,"lon":5.3889,"is_reserved":false,"is_disabled":false,"rental_uris":{"android":"levelo://app?vid=3e84c101-5db4-4f72-a6b3-c7fadc549b13","ios":"levelo://app?vid=3e84c101-5db4-4f72-a6b3-c7fadc549b13"},"vehicle_type_id":"4","last_reported":1746529732,"current_range_meters":24400,"station_id":"ce4bgk12rcd13ifvqbi0","pricing_plan_id":"cebpf4jnsgd1na2vs0mg"},{"bike_id":"eebcfdd3-4a32-466a-b065-7c11d3da70eb","system_id":"levelo_inurba_marseille","lat":43.24654,"lon":5.38895,"is_reserved":false,"is_disabled":false,"rental_uris":{"android":"levelo://app?vid=eebcfdd3-4a32-466a-b065-7c11d3da70eb","ios":"levelo://app?vid=eebcfdd3-4a32-466a-b065-7c11d3da70eb"},"vehicle_type_id":"4","last_reported":1746529732,"current_range_meters":24400,"station_id":"ce4bhg12rcd13ifvqf60","pricing_plan_id":"cebpf4jnsgd1na2vs0mg"},{"bike_id":"57a075ab-58f9-4336-b622-3fa123a6cf43","system_id":"levelo_inurba_marseille","lat":43.26562,"lon":5.37281,"is_reserved":false,"is_disabled":false,"rental_uris":{"android":"levelo://app?vid=57a075ab-58f9-4336-b622-3fa123a6cf43","ios":"levelo://app?vid=57a075ab-58f9-4336-b622-3fa123a6cf43"},"vehicle_type_id":"4","last_reported":1746529732,"current_range_meters":24400,"station_id":"ce4bhg12rcd13ifvqf70","pricing_plan_id":"cebpf4jnsgd1na2vs0mg"},{"bike_id":"60832423-0bb6-48d4-8bb2-5bd12eb7bfae","system_id":"levelo_inurba_marseille","lat":43.25927,"lon":5.40899,"is_reserved":false,"is_disabled":false,"rental_uris":{"android":"levelo://app?vid=60832423-0bb6-48d4-8bb2-5bd12eb7bfae","ios":"levelo://app?vid=60832423-0bb6-48d4-8bb2-5bd12eb7bfae"},"vehicle_type_id":"4","last_reported":1746529732,"current_range_meters":24400,"station_id":"ce4bhm92rcd13ifvqglg","pricing_plan_id":"cebpf4jnsgd1na2vs0mg"},{"bike_id":"3679c836-7ea8-44ee-9ccd-614597e34aa0","system_id":"levelo_inurba_marseille","lat":43.30375,"lon":5.42487,"is_reserved":false,"is_disabled":false,"rental_uris":{"android":"levelo://app?vid=3679c836-7ea8-44ee-9ccd-614597e34aa0","ios":"levelo://app?vid=3679c836-7ea8-44ee-9ccd-614597e34aa0"},"vehicle_type_id":"4","last_reported":1746529732,"current_range_meters":24400,"station_id":"ce4bhoh2rcd13ifvqh6g","pricing_plan_id":"cebpf4jnsgd1na2vs0mg"},