{"last_updated":1728047814,"ttl":60,"version":"2.2","data":{"bikes":[{"bike_id":"478ab0ef-668f-4908-96fd-68a2e8ed216b","system_id":"levelo_inurba_marseille","lat":43.2971,"lon":5.37687,"is_reserved":false,"is_disabled":false,"rental_uris":{"android":"levelo://app?vid=478ab0ef-668f-4908-96fd-68a2e8ed216b","ios":"levelo://app?vid=478ab0ef-668f-4908-96fd-68a2e8ed216b"},"vehicle_type_id":"4","last_reported":1728047814,"current_range_meters":3200,"station_id":"ce4bgkh2rcd13ifvqbl0","pricing_plan_id":"cebpf4jnsgd1na2vs0mg"},{"bike_id":"086b36b2-8fa9-4a21-a966-d0afeb3875cc","system_id":"levelo_inurba_marseille","lat":43.30159,"lon":5.38084,"is_reserved":false,"is_disabled":false,"rental_uris":{"android":"levelo://app?vid=086b36b2-8fa9-4a21-a966-d0afeb3875cc","ios":"levelo://app?vid=086b36b2-8fa9-4a21-a966-d0afeb3875cc"},"vehicle_type_id":"4","last_reported":1728047814,"current_range_meters":36000,"station_id":"ce4bgjp2rcd13ifvqbh0","pricing_plan_id":"cebpf4jnsgd1na2vs0mg"},{"bike_id":"6a7ce1a9-98f8-4576-a51e-b65c70440a27","system_id":"levelo_inurba_marseille","lat":43.29634,"lon":5.40591,"is_reserved":false,"is_disabled":false,"rental_uris":{"android":"levelo://app?vid=6a7ce1a9-98f8-4576-a51e-b65c70440a27","ios":"levelo://app?vid=6a7ce1a9-98f8-4576-a51e-b65c70440a27"},"vehicle_type_id":"4","last_reported":1728047814,"current_range_meters":38000,"station_id":"ce4bh0h2rcd13ifvqd60","pricing_plan_id":"cebpf4jnsgd1na2vs0mg"},{"bike_id":"ea1c4b47-df71-47c6-91fa-b3b8c49b241b","system_id":"levelo_inurba_marseille","lat":43.3016,"lon":5.38079,"is_reserved":false,"is_disabled":false,"rental_uris":{"android":"levelo://app?vid=ea1c4b47-df71-47c6-91fa-b3b8c49b241b","ios":"levelo://app?vid=ea1c4b47-df71-47c6-91fa-b3b8c49b241b"},"vehicle_type_id":"4","last_reported":1728047814,"current_range_meters":12000,"station_id":"ce4bgjp2rcd13ifvqbh0","pricing_plan_id":"cebpf4jnsgd1na2vs0mg"},{"bike_id":"a5a0ca94-afab-4777-8b5b-bbc7c61265e5","system_id":"levelo_inurba_marseille","lat":43.29181,"lon":5.37149,"is_reserved":false,"is_disabled":false,"rental_uris":{"android":"levelo://app?vid=a5a0ca94-afab-4777-8b5b-bbc7c61265e5","ios":"levelo://app?vid=a5a0ca94-afab-4777-8b5b-bbc7c61265e5"},"vehicle_type_id":"4","last_reported":1728047814,"current_range_meters":2800,"station_id":"ce4bha92rcd13ifvqeh0","pricing_plan_id":"cebpf4jnsgd1na2vs0mg"},{"bike_id":"756088e4-bd38-4606-aa6f-cbbf1461af00","system_id":"levelo_inurba_marseille","lat":43.229366,"lon":5.353793,"is_reserved":false,"is_disabled":false,"rental_uris":{"android":"levelo://app?vid=756088e4-bd38-4606-aa6f-cbbf1461af00","ios":"levelo://app?vid=756088e4-bd38-4606-aa6f-cbbf1461af00"},"vehicle_type_id":"4","last_reported":1728047814,"current_range_meters":12400,"station_id":"cpo3532slgdg3j2ikp40","pricing_plan_id":"cebpf4jnsgd1na2vs0mg"},{"bike_id":"b55713ae-e46a-46b9-b649-ec204bdca1f5","system_id":"levelo_inurba_marseille","lat":43.29846,"lon":5.36262,"is_reserved":false,"is_disabled":false,"rental_uris":{"android":"levelo://app?vid=b55713ae-e46a-46b9-b649-ec204bdca1f5","ios":"levelo://app?vid=b55713ae-e46a-46b9-b649-ec204bdca1f5"},"vehicle_type_id":"4","last_reported":1728047814,"current_range_meters":30800,"station_id":"ce4bgpp2rcd13ifvqc3g","pricing_plan_id":"cebpf4jnsgd1na2vs0mg"},{"bike_id":"64ed675a-7e74-4a3b-8e49-81bef5ed819d","system_id":"levelo_inurba_marseille","lat":43.28414,"lon":5.34972,"is_reserved":false,"is_disabled":false,"rental_uris":{"android":"levelo://app?vid=64ed675a-7e74-4a3b-8e49-81bef5ed819d","ios":"levelo://app?vid=64ed675a-7e74-4a3b-8e49-81bef5ed819d"},"vehicle_type_id":"4","last_reported":1728047814,"current_range_meters":38000,"station_id":"ce4bhbh2rcd13ifvqepg","pricing_plan_id":"cebpf4jnsgd1na2vs0mg"},{"bike_id":"4bd76817-ccb5-49e3-b292-b597fc400de9","system_id":"levelo_inurba_marseille","lat":43.303,"lon":5.36892,"is_reserved":false,"is_disabled":false,"rental_uris":{"android":"levelo://app?vid=4bd76817-ccb5-49e3-b292-b597fc400de9","ios":"levelo://app?vid=4bd76817-ccb5-49e3-b292-b597fc400de9"},"vehicle_type_id":"4","last_reported":1728047814,"current_range_meters":18000,"station_id":"ce4bgqh2rcd13ifvqc5g","pricing_plan_id":"cebpf4jnsgd1na2vs0mg"},{"bike_id":"d670dfb8-d2ba-4938-ab00-8a24d634781b","system_id":"levelo_inurba_marseille","lat":43.25113,"lon":5.40319,"is_reserved":false,"is_disabled":false,"rental_uris":{"android":"levelo://app?vid=d670dfb8-d2ba-4938-ab00-8a24d634781b","ios":"levelo://app?vid=d670dfb8-d2ba-4938-ab00-8a24d634781b"},"vehicle_type_id":"4","last_reported":1728047814,"current_range_meters":20400,"station_id":"ce4bhlh2rcd13ifvqgig","pricing_plan_id":"cebpf4jnsgd1na2vs0mg"},{"bike_id":"83337427-f753-4d0b-9aa8-e6fbd75ac9ef","system_id":"levelo_inurba_marseille","lat":43.27973,"lon":5.3876,"is_reserved":false,"is_disabled":false,"rental_uris":{"android":"levelo://app?vid=83337427-f753-4d0b-9aa8-e6fbd75ac9ef","ios":"levelo://app?vid=83337427-f753-4d0b-9aa8-e6fbd75ac9ef"},"vehicle_type_id":"4","last_reported":1728047814,"current_range_meters":6800,"station_id":"ce4bhg12rcd13ifvqf80","pricing_plan_id":"cebpf4jnsgd1na2vs0mg"},{"bike_id":"5c68a0ab-2eb8-4e35-b1d0-fe83f6c92a47","system_id":"levelo_inurba_marseille","lat":43.2318,"lon":5.39986,"is_reserved":false,"is_disabled":false,"rental_uris":{"android":"levelo://app?vid=5c68a0ab-2eb8-4e35-b1d0-fe83f6c92a47","ios":"levelo://app?vid=5c68a0ab-2eb8-4e35-b1d0-fe83f6c92a47"},"vehicle_type_id":"4","last_reported":1728047814,"current_range_meters":7200,"station_id":"ce4bhn12rcd13ifvqgqg","pricing_plan_id":"cebpf4jnsgd1na2vs0mg"},{"bike_id":"125ed039-c670-4333-9387-7371c3ad48db","system_id":"levelo_inurba_marseille","lat":43.29725,"lon":5.37686,"is_reserved":false,"is_disabled":false,"rental_uris":{"android":"levelo://app?vid=125ed039-c670-4333-9387-7371c3ad48db","ios":"levelo://app?vid=125ed039-c670-4333-9387-7371c3ad48db"},"vehicle_type_id":"4","last_reported":1728047814,"current_range_meters":11200,"station_id":"ce4bgkh2rcd13ifvqbl0","pricing_plan_id":"cebpf4jnsgd1na2vs0mg"},{"bike_id":"54ccd8dd-364d-4d54-85ab-be94cef05a11","system_id":"levelo_inurba_marseille","lat":43.28705,"lon":5.37376,"is_reserved":false,"is_disabled":false,"rental_uris":{"android":"levelo://app?vid=54ccd8dd-364d-4d54-85ab-be94cef05a11","ios":"levelo://app?vid=54ccd8dd-364d-4d54-85ab-be94cef05a11"},"vehicle_type_id":"4","last_reported":1728047814,"current_range_meters":16800,"station_id":"ce4bh3p2rcd13ifvqdq0","pricing_plan_id":"cebpf4jnsgd1na2vs0mg"},{"bike_id":"bfe1639e-1355-4b28-a259-4d88f752c6f8","system_id":"levelo_inurba_marseille","lat":43.27987,"lon":5.41654,"is_reserved":false,"is_disabled":false,"rental_uris":{"android":"levelo://app?vid=bfe1639e-1355-4b28-a259-4d88f752c6f8","ios":"levelo://app?vid=bfe1639e-1355-4b28-a259-4d88f752c6f8"},"vehicle_type_id":"4","last_reported":1728047814,"current_range_meters":24400,"station_id":"ce4bho12rcd13ifvqh1g","pricing_plan_id":"cebpf4jnsgd1na2vs0mg"},{"bike_id":"132ef156-b9be-486c-9262-2c510bcb6d48","system_id":"levelo_inurba_marseille","lat":43.29165,"lon":5.37153,"is_reserved":false,"is_disabled":false,"rental_uris":{"android":"levelo://app?vid=132ef156-b9be-486c-9262-2c510bcb6d48","ios":"levelo://app?vid=132ef156-b9be-486c-9262-2c510bcb6d48"},"vehicle_type_id":"4","last_reported":1728047814,"current_range_meters":28000,"station_id":"ce4bha92rcd13ifvqeh0","pricing_plan_id":"cebpf4jnsgd1na2vs0mg"},{"bike_id":"a99e0887-fb66-4880-8761-33fdb36b8615","system_id":"levelo_inurba_marseille","lat":43.23187,"lon":5.39985,"is_reserved":false,"is_disabled":false,"rental_uris":{"android":"levelo://app?vid=a99e0887-fb66-4880-8761-33fdb36b8615","ios":"levelo://app?vid=a99e0887-fb66-4880-8761-33fdb36b8615"},"vehicle_type_id":"4","last_reported":1728047814,"current_range_meters":10000,"station_id":"ce4bhn12rcd13ifvqgqg","pricing_plan_id":"cebpf4jnsgd1na2vs0mg"},{"bike_id":"cec46fd7-d9e5-47df-87c7-fbcd217fe57d","system_id":"levelo_inurba_marseille","lat":43.28732,"lon":5.36081,"is_reserved":false,"is_disabled":false,"rental_uris":{"android":"levelo://app?vid=cec46fd7-d9e5-47df-87c7-fbcd217fe57d","ios":"levelo://app?vid=cec46fd7-d9e5-47df-87c7-fbcd217fe57d"},"vehicle_type_id":"4","last_reported":1728047814,"current_range_meters":34800,"station_id":"cki0cbj6b192h4jlfktg","pricing_plan_id":"cebpf4jnsgd1na2vs0mg"},{"bike_id":"8ac9c18a-52bf-4c34-a715-8196ca5a8336","system_id":"levelo_inurba_marseille","lat":43.29789,"lon":5.38093,"is_reserved":false,"is_disabled":false,"rental_uris":{"android":"levelo://app?vid=8ac9c18a-52bf-4c34-a715-8196ca5a8336","ios":"levelo://app?vid=8ac9c18a-52bf-4c34-a715-8196ca5a8336"},"vehicle_type_id":"4","last_reported":1728047814,"current_range_meters":38400,"station_id":"ce4bgip2rcd13ifvqbb0","pricing_plan_id":"cebpf4jnsgd1na2vs0mg"},{"bike_id":"5d457fea-746b-46d8-82a0-9408e9fb45d0","system_id":"levelo_inurba_marseille","lat":43.29223,"lon":5.36058,"is_reserved":false,"is_disabled":false,"rental_uris":{"android":"levelo://app?vid=5d457fea-746b-46d8-82a0-9408e9fb45d0","ios":"levelo://app?vid=5d457fea-746b-46d8-82a0-9408e9fb45d0"},"vehicle_type_id":"4","last_reported":1728047814,"current_range_meters":4400,"station_id":"ce4bhbh2rcd13ifvqeqg","pricing_plan_id":"cebpf4jnsgd1na2vs0mg"},{"bike_id":"ea51b868-2e15-4cf6-a474-e34ad755fbb8","system_id":"levelo_inurba_marseille","lat":43.29898,"lon":5.38138,"is_reserved":false,"is_disabled":false,"rental_uris":{"android":"levelo://app?vid=ea51b868-2e15-4cf6-a474-e34ad755fbb8","ios":"levelo://app?vid=ea51b868-2e15-4cf6-a474-e34ad755fbb8"},"vehicle_type_id":"4","last_reported":1728047814,"current_range_meters":37600,"station_id":"ce4bgj12rcd13ifvqbc0","pricing_plan_id":"cebpf4jnsgd1na2vs0mg"},{"bike_id":"cb92aba5-4872-4e7f-a488-965e8c3995a3","system_id":"levelo_inurba_marseille","lat":43.29895,"lon":5.43665,"is_reserved":false,"is_disabled":false,"rental_uris":{"android":"levelo://app?vid=cb92aba5-4872-4e7f-a488-965e8c3995a3","ios":"levelo://app?vid=cb92aba5-4872-4e7f-a488-965e8c3995a3"},"vehicle_type_id":"4","last_reported":1728047814,"current_range_meters":30800,"station_id":"ce4bhpp2rcd13ifvqhfg","pricing_plan_id":"cebpf4jnsgd1na2vs0mg"},{"bike_id":"1cfb68e9-ae90-4ad3-833a-f1c7784a486f","system_id":"levelo_inurba_marseille","lat":43.28073,"lon":5.39654,"is_reserved":false,"is_disabled":false,"rental_uris":{"android":"levelo://app?vid=1cfb68e9-ae90-4ad3-833a-f1c7784a486f","ios":"levelo://app?vid=1cfb68e9-ae90-4ad3-833a-f1c7784a486f"},"vehicle_type_id":"4","last_reported":1728047814,"current_range_meters":38800,"station_id":"ce4bho12rcd13ifvqh2g","pricing_plan_id":"cebpf4jnsgd1na2vs0mg"},{"bike_id":"a7f19ffd-08ab-44c8-9d23-cda5c7c6be60","system_id":"levelo_inurba_marseille","lat":43.29299,"lon":5.37161,"is_reserved":false,"is_disabled":false,"rental_uris":{"android":"levelo://app?vid=a7f19ffd-08ab-44c8-9d23-cda5c7c6be60","ios":"levelo://app?vid=a7f19ffd-08ab-44c8-9d23-cda5c7c6be60"},"vehicle_type_id":"4","last_reported":1728047814,"current_range_meters":38800,"station_id":"ce4bgh92rcd13ifvqb40","pricing_plan_id":"cebpf4jnsgd1na2vs0mg"},{"bike_id":"bbe16d9f-1398-4ae8-9389-fdd330196eb0","system_id":"levelo_inurba_marseille","lat":43.28421,"lon":5.34981,"is_reserved":false,"is_disabled":false,"rental_uris":{"android":"levelo://app?vid=bbe16d9f-1398-4ae8-9389-fdd330196eb0","ios":"levelo://app?vid=bbe16d9f-1398-4ae8-9389-fdd330196eb0"},"vehicle_type_id":"4","last_reported":1728047814,"current_range_meters":38800,"station_id":"ce4bhbh2rcd13ifvqepg","pricing_plan_id":"cebpf4jnsgd1na2vs0mg"},{"bike_id":"e6b2df58-b4a0-4aec-933d-a62e42f34d34","system_id":"levelo_inurba_marseille","lat":43.337226,"lon":5.391972,"is_reserved":false,"is_disabled":false,"rental_uris":{"android":"levelo://app?vid=e6b2df58-b4a0-4aec-933d-a62e42f34d34","ios":"levelo://app?vid=e6b2df58-b4a0-4aec-933d-a62e42f34d34"},"vehicle_type_id":"4","last_reported":1728047814,"current_range_meters":19600,"station_id":"ce4bhr92rcd13ifvqhsg","pricing_plan_id":"cebpf4jnsgd1na2vs0mg"},{"bike_id":"403b9a65-80d1-462a-86d2-ae897d65bc96","system_id":"levelo_inurba_marseille","lat":43.30148,"lon":5.38085,"is_reserved":false,"is_disabled":false,"rental_uris":{"android":"levelo://app?vid=403b9a65-80d1-462a-86d2-ae897d65bc96","ios":"levelo://app?vid=403b9a65-80d1-462a-86d2-ae897d65bc96"},"vehicle_type_id":"4","last_reported":1728047814,"current_range_meters":38000,"station_id":"ce4bgjp2rcd13ifvqbh0","pricing_plan_id":"cebpf4jnsgd1na2vs0mg"},{"bike_id":"ada2653a-ddab-40dc-80c1-0ffd925a7ebf","system_id":"levelo_inurba_marseille","lat":43.29889,"lon":5.38144,"is_reserved":false,"is_disabled":false,"rental_uris":{"android":"levelo://app?vid=ada2653a-ddab-40dc-80c1-0ffd925a7ebf","ios":"levelo://app?vid=ada2653a-ddab-40dc-80c1-0ffd925a7ebf"},"vehicle_type_id":"4","last_reported":1728047814,"current_range_meters":38000,"station_id":"ce4bgj12rcd13ifvqbc0","pricing_plan_id":"cebpf4jnsgd1na2vs0mg"},{"bike_id":"d77938b7-ff1e-465c-a8b9-4b07085a5cc9","system_id":"levelo_inurba_marseille","lat":43.23064,"lon":5.35496,"is_reserved":false,"is_disabled":false,"rental_uris":{"android":"levelo://app?vid=d77938b7-ff1e-465c-a8b9-4b07085a5cc9","ios":"levelo://app?vid=d77938b7-ff1e-465c-a8b9-4b07085a5cc9"},"vehicle_type_id":"4","last_reported":1728047814,"current_range_meters":20400,"station_id":"cpo3342slgdg3j2ifvpg","pricing_plan_id":"cebpf4jnsgd1na2vs0mg"},{"bike_id":"69c4eb56-058e-4af1-b352-7ce95220b25e","system_id":"levelo_inurba_marseille","lat":43.33757,"lon":5.37431,"is_reserved":false,"is_disabled":false,"rental_uris":{"android":"levelo://app?vid=69c4eb56-058e-4af1-b352-7ce95220b25e","ios":"levelo://app?vid=69c4eb56-058e-4af1-b352-7ce95220b25e"},"vehicle_type_id":"4","last_reported":1728047814,"current_range_meters":38800,"station_id":"","pricing_plan_id":"cebpf4jnsgd1na2vs0mg"},{"bike_id":"7eb7bc80-f0fe-4232-abbb-663f28d31718","system_id":"levelo_inurba_marseille","lat":43.24993,"lon":5.38937,"is_reserved":false,"is_disabled":false,"rental_uris":{"android":"levelo://app?vid=7eb7bc80-f0fe-4232-abbb-663f28d31718","ios":"levelo://app?vid=7eb7bc80-f0fe-4232-abbb-663f28d31718"},"vehicle_type_id":"4","last_reported":1728047814,"current_range_meters":24000,"station_id":"ce4bhgp2rcd13ifvqfd0","pricing_plan_id":"cebpf4jnsgd1na2vs0mg"},{"bike_id":"93978eb6-71a5-437d-b515-02510a67330a","system_id":"levelo_inurba_marseille","lat":43.29274,"lon":5.36846,"is_reserved":false,"is_disabled":false,"rental_uris":{"android":"levelo://app?vid=93978eb6-71a5-437d-b515-02510a67330a","ios":"levelo://app?vid=93978eb6-71a5-437d-b515-02510a67330a"},"vehicle_type_id":"4","last_reported":1728047814,"current_range_meters":38800,"station_id":"ce4bhbp2rcd13ifvqesg","pricing_plan_id":"cebpf4jnsgd1na2vs0mg"},{"bike_id":"566a9cf0-f209-4c9f-9e1e-a43a024de395","system_id":"levelo_inurba_marseille","lat":43.27379,"lon":5.36248,"is_reserved":false,"is_disabled":false,"rental_uris":{"android":"levelo://app?vid=566a9cf0-f209-4c9f-9e1e-a43a024de395","ios":"levelo://app?vid=566a9cf0-f209-4c9f-9e1e-a43a024de395"},"vehicle_type_id":"4","last_reported":1728047814,"current_range_meters":25600,"station_id":"ce4bhbh2rcd13ifvqeo0","pricing_plan_id":"cebpf4jnsgd1na2vs0mg"},{"bike_id":"b73551f1-4737-42f3-8efd-5f2fca843848","system_id":"levelo_inurba_marseille","lat":43.29897,"lon":5.43665,"is_reserved":false,"is_disabled":false,"rental_uris":{"android":"levelo://app?vid=b73551f1-4737-42f3-8efd-5f2fca843848","ios":"levelo://app?vid=b73551f1-4737-42f3-8efd-5f2fca843848"},"vehicle_type_id":"4","last_reported":1728047814,"current_range_meters":17600,"station_id":"ce4bhpp2rcd13ifvqhfg","pricing_plan_id":"cebpf4jnsgd1na2vs0mg"},{"bike_id":"998e1e96-d589-4646-9b9c-6f6d89a4cafd","system_id":"levelo_inurba_marseille","lat":43.31885,"lon":5.40734,"is_reserved":false,"is_disabled":false,"rental_uris":{"android":"levelo://app?vid=998e1e96-d589-4646-9b9c-6f6d89a4cafd","ios":"levelo://app?vid=998e1e96-d589-4646-9b9c-6f6d89a4cafd"},"vehicle_type_id":"4","last_reported":1728047814,"current_range_meters":15200,"station_id":"ce4bhq12rcd13ifvqhig","pricing_plan_id":"cebpf4jnsgd1na2vs0mg"},{"bike_id":"8cbcbce5-76c7-479a-bb54-ab697e3b28de","system_id":"levelo_inurba_marseille","lat":43.29895,"lon":5.43659,"is_reserved":false,"is_disabled":false,"rental_uris":{"android":"levelo://app?vid=8cbcbce5-76c7-479a-bb54-ab697e3b28de","ios":"levelo://app?vid=8cbcbce5-76c7-479a-bb54-ab697e3b28de"},"vehicle_type_id":"4","last_reported":1728047814,"current_range_meters":10000,"station_id":"ce4bhpp2rcd13ifvqhfg","pricing_plan_id":"cebpf4jnsgd1na2vs0mg"},{"bike_id":"ced8fe06-3d6b-4e7c-8b8b-9959d1da2c45","system_id":"levelo_inurba_marseille","lat":43.29028,"lon":5.37562,"is_reserved":false,"is_disabled":false,"rental_uris":{"android":"levelo://app?vid=ced8fe06-3d6b-4e7c-8b8b-9959d1da2c45","ios":"levelo://app?vid=ced8fe06-3d6b-4e7c-8b8b-9959d1da2c45"},"vehicle_type_id":"4","last_reported":1728047814,"current_range_meters":38000,"station_id":"ce4bh692rcd13ifvqe90","pricing_plan_id":"cebpf4jnsgd1na2vs0mg"},{"bike_id":"69af7250-1889-4145-a514-3000ce363c9e","system_id":"levelo_inurba_marseille","lat":43.28459,"lon":5.38423,"is_reserved":false,"is_disabled":false,"rental_uris":{"android":"levelo://app?vid=69af7250-1889-4145-a514-3000ce363c9e","ios":"levelo://app?vid=69af7250-1889-4145-a514-3000ce363c9e"},"vehicle_type_id":"4","last_reported":1728047814,"current_range_meters":24800,"station_id":"ce4bh512rcd13ifvqe3g","pricing_plan_id":"cebpf4jnsgd1na2vs0mg"},{"bike_id":"5066fb3e-3c49-4c72-8370-e52313ab58c2","system_id":"levelo_inurba_marseille","lat":43.30913,"lon":5.36847,"is_reserved":false,"is_disabled":false,"rental_uris":{"android":"levelo://app?vid=5066fb3e-3c49-4c72-8370-e52313ab58c2","ios":"levelo://app?vid=5066fb3e-3c49-4c72-8370-e52313ab58c2"},"vehicle_type_id":"4","last_reported":1728047814,"current_range_meters":14800,"station_id":"ce4bgn92rcd13ifvqbvg","pricing_plan_id":"cebpf4jnsgd1na2vs0mg"},{"bike_id":"1e0f3adb-61e6-4c18-b68a-68e0fd432f6c","system_id":"levelo_inurba_marseille","lat":43.30302,"lon":5.36899,"is_reserved":false,"is_disabled":false,"rental_uris":{"android":"levelo://app?vid=1e0f3adb-61e6-4c18-b68a-68e0fd432f6c","ios":"levelo://app?vid=1e0f3adb-61e6-4c18-b68a-68e0fd432f6c"},"vehicle_type_id":"4","last_reported":1728047814,"current_range_meters":32800,"station_id":"ce4bgqh2rcd13ifvqc5g","pricing_plan_id":"cebpf4jnsgd1na2vs0mg"},{"bike_id":"7a2271af-91aa-451f-b265-78de9ec5d8b8","system_id":"levelo_inurba_marseille","lat":43.29281,"lon":5.40133,"is_reserved":false,"is_disabled":false,"rental_uris":{"android":"levelo://app?vid=7a2271af-91aa-451f-b265-78de9ec5d8b8","ios":"levelo://app?vid=7a2271af-91aa-451f-b265-78de9ec5d8b8"},"vehicle_type_id":"4","last_reported":1728047814,"current_range_meters":9600,"station_id":"ce4bh312rcd13ifvqdk0","pricing_plan_id":"cebpf4jnsgd1na2vs0mg"},{"bike_id":"3f70306f-1741-4d2d-8040-398f49a11dda","system_id":"levelo_inurba_marseille","lat":43.23968,"lon":5.36622,"is_reserved":false,"is_disabled":false,"rental_uris":{"android":"levelo://app?vid=3f70306f-1741-4d2d-8040-398f49a11dda","ios":"levelo://app?vid=3f70306f-1741-4d2d-8040-398f49a11dda"},"vehicle_type_id":"4","last_reported":1728047814,"current_range_meters":39200,"station_id":"ce4bhi12rcd13ifvqfp0","pricing_plan_id":"cebpf4jnsgd1na2vs0mg"},{"bike_id":"e94ef389-8f41-4ef3-979b-ef3392751861","system_id":"levelo_inurba_marseille","lat":43.25116,"lon":5.40319,"is_reserved":false,"is_disabled":false,"rental_uris":{"android":"levelo://app?vid=e94ef389-8f41-4ef3-979b-ef3392751861","ios":"levelo://app?vid=e94ef389-8f41-4ef3-979b-ef3392751861"},"vehicle_type_id":"4","last_reported":1728047814,"current_range_meters":6800,"station_id":"ce4bhlh2rcd13ifvqgig","pricing_plan_id":"cebpf4jnsgd1na2vs0mg"},{"bike_id":"86a59fdf-5419-4bd8-a9ed-c91c60731103","system_id":"levelo_inurba_marseille","lat":43.30304,"lon":5.37911,"is_reserved":false,"is_disabled":false,"rental_uris":{"android":"levelo://app?vid=86a59fdf-5419-4bd8-a9ed-c91c60731103","ios":"levelo://app?vid=86a59fdf-5419-4bd8-a9ed-c91c60731103"},"vehicle_type_id":"4","last_reported":1728047814,"current_range_meters":17600,"station_id":"","pricing_plan_id":"cebpf4jnsgd1na2vs0mg"},{"bike_id":"8415ea03-c99e-45ae-a548-d6dca9836e16","system_id":"levelo_inurba_marseille","lat":43.25105,"lon":5.40325,"is_reserved":false,"is_disabled":false,"rental_uris":{"android":"levelo://app?vid=8415ea03-c99e-45ae-a548-d6dca9836e16","ios":"levelo://app?vid=8415ea03-c99e-45ae-a548-d6dca9836e16"},"vehicle_type_id":"4","last_reported":1728047814,"current_range_meters":33200,"station_id":"ce4bhlh2rcd13ifvqgig","pricing_plan_id":"cebpf4jnsgd1na2vs0mg"},{"bike_id":"aec95a22-ab80-4f47-abbb-194a060b590b","system_id":"levelo_inurba_marseille","lat":43.27568,"lon":5.3842,"is_reserved":false,"is_disabled":false,"rental_uris":{"android":"levelo://app?vid=aec95a22-ab80-4f47-abbb-194a060b590b","ios":"levelo://app?vid=aec95a22-ab80-4f47-abbb-194a060b590b"},"vehicle_type_id":"4","last_reported":1728047814,"current_range_meters":16400,"station_id":"ce4bhh92rcd13ifvqfi0","pricing_plan_id":"cebpf4jnsgd1na2vs0mg"},{"bike_id":"8a7e30ae-f0da-4bf9-973e-b088899cdba8","system_id":"levelo_inurba_marseille","lat":43.28273,"lon":5.35058,"is_reserved":false,"is_disabled":false,"rental_uris":{"android":"levelo://app?vid=8a7e30ae-f0da-4bf9-973e-b088899cdba8","ios":"levelo://app?vid=8a7e30ae-f0da-4bf9-973e-b088899cdba8"},"vehicle_type_id":"4","last_reported":1728047814,"current_range_meters":17600,"station_id":"ce4bhbp2rcd13ifvqerg","pricing_plan_id":"cebpf4jnsgd1na2vs0mg"},{"bike_id":"370a207e-4106-4ac5-be2b-998af9608169","system_id":"levelo_inurba_marseille","lat":43.28032,"lon":5.36954,"is_reserved":false,"is_disabled":false,"rental_uris":{"android":"levelo://app?vid=370a207e-4106-4ac5-be2b-998af9608169","ios":"levelo://app?vid=370a207e-4106-4ac5-be2b-998af9608169"},"vehicle_type_id":"4","last_reported":1728047814,"current_range_meters":35600,"station_id":"ce4bha12rcd13ifvqef0","pricing_plan_id":"cebpf4jnsgd1na2vs0mg"},{"bike_id":"6102bacc-0bb3-4c79-854a-2d4ec81b21c1","system_id":"levelo_inurba_marseille","lat":43.31715,"lon":5.42395,"is_reserved":false,"is_disabled":false,"rental_uris":{"android":"levelo://app?vid=6102bacc-0bb3-4c79-854a-2d4ec81b21c1","ios":"levelo://app?vid=6102bacc-0bb3-4c79-854a-2d4ec81b21c1"},"vehicle_type_id":"4","last_reported":1728047814,"current_range_meters":30000,"station_id":"ce4bhp92rcd13ifvqhbg","pricing_plan_id":"cebpf4jnsgd1na2vs0mg"},{"bike_id":"6af614a6-478f-4fb6-a274-79aed3fdf505","system_id":"levelo_inurba_marseille","lat":43.26562,"lon":5.37282,"is_reserved":false,"is_disabled":false,"rental_uris":{"android":"levelo://app?vid=6af614a6-478f-4fb6-a274-79aed3fdf505","ios":"levelo://app?vid=6af614a6-478f-4fb6-a274-79aed3fdf505"},"vehicle_type_id":"4","last_reported":1728047814,"current_range_meters":26000,"station_id":"ce4bhg12rcd13ifvqf70","pricing_plan_id":"cebpf4jnsgd1na2vs0mg"},{"bike_id":"17dfb840-f8c0-4bc2-9c91-6aeef1a89e62","system_id":"levelo_inurba_marseille","lat":43.325423,"lon":5.41439,"is_reserved":false,"is_disabled":false,"rental_uris":{"android":"levelo://app?vid=17dfb840-f8c0-4bc2-9c91-6aeef1a89e62","ios":"levelo://app?vid=17dfb840-f8c0-4bc2-9c91-6aeef1a89e62"},"vehicle_type_id":"4","last_reported":1728047814,"current_range_meters":38800,"station_id":"ce4bhq12rcd13ifvqhhg","pricing_plan_id":"cebpf4jnsgd1na2vs0mg"},{"bike_id":"1e430b5e-9a43-47b1-af80-af8ede15b62d","system_id":"levelo_inurba_marseille","lat":43.29566,"lon":5.37504,"is_reserved":false,"is_disabled":false,"rental_uris":{"android":"levelo://app?vid=1e430b5e-9a43-47b1-af80-af8ede15b62d","ios":"levelo://app?vid=1e430b5e-9a43-47b1-af80-af8ede15b62d"},"vehicle_type_id":"4","last_reported":1728047814,"current_range_meters":38000,"station_id":"ce4bgh92rcd13ifvqb50","pricing_plan_id":"cebpf4jnsgd1na2vs0mg"},{"bike_id":"35347ff9-1df5-4143-a126-6d01f12fc425","system_id":"levelo_inurba_marseille","lat":43.28607,"lon":5.3706,"is_reserved":false,"is_disabled":false,"rental_uris":{"android":"levelo://app?vid=35347ff9-1df5-4143-a126-6d01f12fc425","ios":"levelo://app?vid=35347ff9-1df5-4143-a126-6d01f12fc425"},"vehicle_type_id":"4","last_reported":1728047814,"current_range_meters":8000,"station_id":"ce4bht12rcd13ifvqi60","pricing_plan_id":"cebpf4jnsgd1na2vs0mg"},{"bike_id":"4116a42b-3a07-4938-b83d-07bec4a2d803","system_id":"levelo_inurba_marseille","lat":43.306,"lon":5.37207,"is_reserved":false,"is_disabled":false,"rental_uris":{"android":"levelo://app?vid=4116a42b-3a07-4938-b83d-07bec4a2d803","ios":"levelo://app?vid=4116a42b-3a07-4938-b83d-07bec4a2d803"},"vehicle_type_id":"4","last_reported":1728047814,"current_range_meters":38000,"station_id":"ce4bgqh2rcd13ifvqc4g","pricing_plan_id":"cebpf4jnsgd1na2vs0mg"},{"bike_id":"558d3d8e-b73c-4b4a-93ce-9380c9336712","system_id":"levelo_inurba_marseille","lat":43.24386,"lon":5.37064,"is_reserved":false,"is_disabled":false,"rental_uris":{"android":"levelo://app?vid=558d3d8e-b73c-4b4a-93ce-9380c9336712","ios":"levelo://app?vid=558d3d8e-b73c-4b4a-93ce-9380c9336712"},"vehicle_type_id":"4","last_reported":1728047814,"current_range_meters":4800,"station_id":"ce4bhhh2rcd13ifvqfk0","pricing_plan_id":"cebpf4jnsgd1na2vs0mg"},{"bike_id":"85a60867-0292-479f-99a9-23810b153b98","system_id":"levelo_inurba_marseille","lat":43.27072,"lon":5.42277,"is_reserved":false,"is_disabled":false,"rental_uris":{"android":"levelo://app?vid=85a60867-0292-479f-99a9-23810b153b98","ios":"levelo://app?vid=85a60867-0292-479f-99a9-23810b153b98"},"vehicle_type_id":"4","last_reported":1728047814,"current_range_meters":8800,"station_id":"ce4bhk92rcd13ifvqgb0","pricing_plan_id":"cebpf4jnsgd1na2vs0mg"},{"bike_id":"e08c062f-61a2-493a-875d-6e296e2965d6","system_id":"levelo_inurba_marseille","lat":43.33746,"lon":5.37448,"is_reserved":false,"is_disabled":false,"rental_uris":{"android":"levelo://app?vid=e08c062f-61a2-493a-875d-6e296e2965d6","ios":"levelo://app?vid=e08c062f-61a2-493a-875d-6e296e2965d6"},"vehicle_type_id":"4","last_reported":1728047814,"current_range_meters":35600,"station_id":"","pricing_plan_id":"cebpf4jnsgd1na2vs0mg"},{"bike_id":"fa3d6ca4-2f87-4548-92ec-46dd58791c3a","system_id":"levelo_inurba_marseille","lat":43.2315,"lon":5.43717,"is_reserved":false,"is_disabled":false,"rental_uris":{"android":"levelo://app?vid=fa3d6ca4-2f87-4548-92ec-46dd58791c3a","ios":"levelo://app?vid=fa3d6ca4-2f87-4548-92ec-46dd58791c3a"},"vehicle_type_id":"4","last_reported":1728047814,"current_range_meters":8400,"station_id":"ce4bhmp2rcd13ifvqgog","pricing_plan_id":"cebpf4jnsgd1na2vs0mg"},{"bike_id":"4c81f33e-1ced-4cd3-9243-352462c111d0","system_id":"levelo_inurba_marseille","lat":43.28268,"lon":5.35068,"is_reserved":false,"is_disabled":false,"rental_uris":{"android":"levelo://app?vid=4c81f33e-1ced-4cd3-9243-352462c111d0","ios":"levelo://app?vid=4c81f33e-1ced-4cd3-9243-352462c111d0"},"vehicle_type_id":"4","last_reported":1728047814,"current_range_meters":40000,"station_id":"ce4bhbp2rcd13ifvqerg","pricing_plan_id":"cebpf4jnsgd1na2vs0mg"},{"bike_id":"d2940846-8984-465b-bbaa-9e158fa700fd","system_id":"levelo_inurba_marseille","lat":43.23966,"lon":5.36633,"is_reserved":false,"is_disabled":false,"rental_uris":{"android":"levelo://app?vid=d2940846-8984-465b-bbaa-9e158fa700fd","ios":"levelo://app?vid=d2940846-8984-465b-bbaa-9e158fa700fd"},"vehicle_type_id":"4","last_reported":1728047814,"current_range_meters":22400,"station_id":"ce4bhi12rcd13ifvqfp0","pricing_plan_id":"cebpf4jnsgd1na2vs0mg"},{"bike_id":"ff2045c5-fc80-4774-b188-81eaeafac69c","system_id":"levelo_inurba_marseille","lat":43.30319,"lon":5.39184,"is_reserved":false,"is_disabled":false,"rental_uris":{"android":"levelo://app?vid=ff2045c5-fc80-4774-b188-81eaeafac69c","ios":"levelo://app?vid=ff2045c5-fc80-4774-b188-81eaeafac69c"},"vehicle_type_id":"4","last_reported":1728047814,"current_range_meters":4400,"station_id":"ce4bgkh2rcd13ifvqbk0","pricing_plan_id":"cebpf4jnsgd1na2vs0mg"},{"bike_id":"b3404529-2fc0-49b4-84f0-b644e8a2b421","system_id":"levelo_inurba_marseille","lat":43.25107,"lon":5.40323,"is_reserved":false,"is_disabled":false,"rental_uris":{"android":"levelo://app?vid=b3404529-2fc0-49b4-84f0-b644e8a2b421","ios":"levelo://app?vid=b3404529-2fc0-49b4-84f0-b644e8a2b421"},"vehicle_type_id":"4","last_reported":1728047814,"current_range_meters":33200,"station_id":"ce4bhlh2rcd13ifvqgig","pricing_plan_id":"cebpf4jnsgd1na2vs0mg"},{"bike_id":"12014e5f-9061-4078-ba17-f5b4421eab0c","system_id":"levelo_inurba_marseille","lat":43.23148,"lon":5.43724,"is_reserved":false,"is_disabled":false,"rental_uris":{"android":"levelo://app?vid=12014e5f-9061-4078-ba17-f5b4421eab0c","ios":"levelo://app?vid=12014e5f-9061-4078-ba17-f5b4421eab0c"},"vehicle_type_id":"4","last_reported":1728047814,"current_range_meters":12400,"station_id":"ce4bhmp2rcd13ifvqgog","pricing_plan_id":"cebpf4jnsgd1na2vs0mg"},{"bike_id":"bbd40da7-16cc-45b9-b7f6-1d1a216d2467","system_id":"levelo_inurba_marseille","lat":43.3046,"lon":5.37905,"is_reserved":false,"is_disabled":false,"rental_uris":{"android":"levelo://app?vid=bbd40da7-16cc-45b9-b7f6-1d1a216d2467","ios":"levelo://app?vid=bbd40da7-16cc-45b9-b7f6-1d1a216d2467"},"vehicle_type_id":"4","last_reported":1728047814,"current_range_meters":3200,"station_id":"ce4bgup2rcd13ifvqcn0","pricing_plan_id":"cebpf4jnsgd1na2vs0mg"},{"bike_id":"4379b577-9b77-4f2e-b661-de2336d24d10","system_id":"levelo_inurba_marseille","lat":43.25869,"lon":5.39899,"is_reserved":false,"is_disabled":false,"rental_uris":{"android":"levelo://app?vid=4379b577-9b77-4f2e-b661-de2336d24d10","ios":"levelo://app?vid=4379b577-9b77-4f2e-b661-de2336d24d10"},"vehicle_type_id":"4","last_reported":1728047814,"current_range_meters":34800,"station_id":"ce4bhl92rcd13ifvqghg","pricing_plan_id":"cebpf4jnsgd1na2vs0mg"},{"bike_id":"8177d871-84a4-4bd8-aaa5-89dd1070a8e6","system_id":"levelo_inurba_marseille","lat":43.269085,"lon":5.388271,"is_reserved":false,"is_disabled":false,"rental_uris":{"android":"levelo://app?vid=8177d871-84a4-4bd8-aaa5-89dd1070a8e6","ios":"levelo://app?vid=8177d871-84a4-4bd8-aaa5-89dd1070a8e6"},"vehicle_type_id":"4","last_reported":1728047814,"current_range_meters":24000,"station_id":"ce4bhgp2rcd13ifvqfe0","pricing_plan_id":"cebpf4jnsgd1na2vs0mg"},{"bike_id":"56aa0623-2519-4545-8604-6e7cabb82806","system_id":"levelo_inurba_marseille","lat":43.24072,"lon":5.37748,"is_reserved":false,"is_disabled":false,"rental_uris":{"android":"levelo://app?vid=56aa0623-2519-4545-8604-6e7cabb82806","ios":"levelo://app?vid=56aa0623-2519-4545-8604-6e7cabb82806"},"vehicle_type_id":"4","last_reported":1728047814,"current_range_meters":38800,"station_id":"ce4bhl92rcd13ifvqghg","pricing_plan_id":"cebpf4jnsgd1na2vs0mg"},{"bike_id":"a8d4ceec-1148-4bb5-9909-ced0135a6d98","system_id":"levelo_inurba_marseille","lat":43.31056,"lon":5.38344,"is_reserved":false,"is_disabled":false,"rental_uris":{"android":"levelo://app?vid=a8d4ceec-1148-4bb5-9909-ced0135a6d98","ios":"levelo://app?vid=a8d4ceec-1148-4bb5-9909-ced0135a6d98"},"vehicle_type_id":"4","last_reported":1728047814,"current_range_meters":17200,"station_id":"ce4bgv92rcd13ifvqcr0","pricing_plan_id":"cebpf4jnsgd1na2vs0mg"},{"bike_id":"f8ed632c-c457-46f0-9bd3-99ae6d0f74e3","system_id":"levelo_inurba_marseille","lat":43.307843,"lon":5.37653,"is_reserved":false,"is_disabled":false,"rental_uris":{"android":"levelo://app?vid=f8ed632c-c457-46f0-9bd3-99ae6d0f74e3","ios":"levelo://app?vid=f8ed632c-c457-46f0-9bd3-99ae6d0f74e3"},"vehicle_type_id":"4","last_reported":1728047814,"current_range_meters":4800,"station_id":"ce4bgv92rcd13ifvqcq0","pricing_plan_id":"cebpf4jnsgd1na2vs0mg"},{"bike_id":"fd872ba7-9877-4e67-9269-d8995abba644","system_id":"levelo_inurba_marseille","lat":43.22936,"lon":5.35378,"is_reserved":false,"is_disabled":false,"rental_uris":{"android":"levelo://app?vid=fd872ba7-9877-4e67-9269-d8995abba644","ios":"levelo://app?vid=fd872ba7-9877-4e67-9269-d8995abba644"},"vehicle_type_id":"4","last_reported":1728047814,"current_range_meters":20000,"station_id":"cpo3532slgdg3j2ikp40","pricing_plan_id":"cebpf4jnsgd1na2vs0mg"},{"bike_id":"52af29a4-55c3-42aa-ab23-9ee0e7444d9e","system_id":"levelo_inurba_marseille","lat":43.3025,"lon":5.40064,"is_reserved":false,"is_disabled":false,"rental_uris":{"android":"levelo://app?vid=52af29a4-55c3-42aa-ab23-9ee0e7444d9e","ios":"levelo://app?vid=52af29a4-55c3-42aa-ab23-9ee0e7444d9e"},"vehicle_type_id":"4","last_reported":1728047814,"current_range_meters":36800,"station_id":"ce4bgvh2rcd13ifvqcs0","pricing_plan_id":"cebpf4jnsgd1na2vs0mg"},{"bike_id":"0147d471-4371-4269-a71f-755e4aa0ce02","system_id":"levelo_inurba_marseille","lat":43.298012,"lon":5.381117,"is_reserved":false,"is_disabled":false,"rental_uris":{"android":"levelo://app?vid=0147d471-4371-4269-a71f-755e4aa0ce02","ios":"levelo://app?vid=0147d471-4371-4269-a71f-755e4aa0ce02"},"vehicle_type_id":"4","last_reported":1728047814,"current_range_meters":4800,"station_id":"ce4bgip2rcd13ifvqbb0","pricing_plan_id":"cebpf4jnsgd1na2vs0mg"},{"bike_id":"2dfb3d86-3719-42ce-bc7a-ec3481b43e0a","system_id":"levelo_inurba_marseille","lat":43.30196,"lon":5.36619,"is_reserved":false,"is_disabled":false,"rental_uris":{"android":"levelo://app?vid=2dfb3d86-3719-42ce-bc7a-ec3481b43e0a","ios":"levelo://app?vid=2dfb3d86-3719-42ce-bc7a-ec3481b43e0a"},"vehicle_type_id":"4","last_reported":1728047814,"current_range_meters":32000,"station_id":"ce4bgrh2rcd13ifvqc8g","pricing_plan_id":"cebpf4jnsgd1na2vs0mg"},{"bike_id":"4d759cc2-49f1-4fba-8bc1-c1bbfc259f27","system_id":"levelo_inurba_marseille","lat":43.32333,"lon":5.40624,"is_reserved":false,"is_disabled":false,"rental_uris":{"android":"levelo://app?vid=4d759cc2-49f1-4fba-8bc1-c1bbfc259f27","ios":"levelo://app?vid=4d759cc2-49f1-4fba-8bc1-c1bbfc259f27"},"vehicle_type_id":"4","last_reported":1728047814,"current_range_meters":38800,"station_id":"ce4bhq92rcd13ifvqhjg","pricing_plan_id":"cebpf4jnsgd1na2vs0mg"},{"bike_id":"0fbc28cc-82c7-454d-a6f4-134207a966fc","system_id":"levelo_inurba_marseille","lat":43.2762,"lon":5.36114,"is_reserved":false,"is_disabled":false,"rental_uris":{"android":"levelo://app?vid=0fbc28cc-82c7-454d-a6f4-134207a966fc","ios":"levelo://app?vid=0fbc28cc-82c7-454d-a6f4-134207a966fc"},"vehicle_type_id":"4","last_reported":1728047814,"current_range_meters":39200,"station_id":"ce4bgj92rcd13ifvqbe0","pricing_plan_id":"cebpf4jnsgd1na2vs0mg"},{"bike_id":"1bc92027-ac2e-4520-a864-04a618dd4292","system_id":"levelo_inurba_marseille","lat":43.27211,"lon":5.39177,"is_reserved":false,"is_disabled":false,"rental_uris":{"android":"levelo://app?vid=1bc92027-ac2e-4520-a864-04a618dd4292","ios":"levelo://app?vid=1bc92027-ac2e-4520-a864-04a618dd4292"},"vehicle_type_id":"4","last_reported":1728047814,"current_range_meters":15200,"station_id":"ce4bhhp2rcd13ifvqfm0","pricing_plan_id":"cebpf4jnsgd1na2vs0mg"},{"bike_id":"294c9d5c-e674-4ee2-aa5d-646145ca34dd","system_id":"levelo_inurba_marseille","lat":43.29227,"lon":5.36072,"is_reserved":false,"is_disabled":false,"rental_uris":{"android":"levelo://app?vid=294c9d5c-e674-4ee2-aa5d-646145ca34dd","ios":"levelo://app?vid=294c9d5c-e674-4ee2-aa5d-646145ca34dd"},"vehicle_type_id":"4","last_reported":1728047814,"current_range_meters":32800,"station_id":"ce4bhbh2rcd13ifvqeqg","pricing_plan_id":"cebpf4jnsgd1na2vs0mg"},{"bike_id":"f14f5b95-ab50-4a4f-9148-7334256808c8","system_id":"levelo_inurba_marseille","lat":43.291962,"lon":5.393197,"is_reserved":false,"is_disabled":false,"rental_uris":{"android":"levelo://app?vid=f14f5b95-ab50-4a4f-9148-7334256808c8","ios":"levelo://app?vid=f14f5b95-ab50-4a4f-9148-7334256808c8"},"vehicle_type_id":"4","last_reported":1728047814,"current_range_meters":36000,"station_id":"ce4bh192rcd13ifvqdd0","pricing_plan_id":"cebpf4jnsgd1na2vs0mg"},{"bike_id":"1a8a68f5-e3c3-4796-918c-de45d61f59bb","system_id":"levelo_inurba_marseille","lat":43.29275,"lon":5.40121,"is_reserved":false,"is_disabled":false,"rental_uris":{"android":"levelo://app?vid=1a8a68f5-e3c3-4796-918c-de45d61f59bb","ios":"levelo://app?vid=1a8a68f5-e3c3-4796-918c-de45d61f59bb"},"vehicle_type_id":"4","last_reported":1728047814,"current_range_meters":15200,"station_id":"ce4bh312rcd13ifvqdk0","pricing_plan_id":"cebpf4jnsgd1na2vs0mg"},{"bike_id":"2a2abcd2-161e-4c0a-bd7f-44cf66014eda","system_id":"levelo_inurba_marseille","lat":43.26685,"lon":5.38276,"is_reserved":false,"is_disabled":false,"rental_uris":{"android":"levelo://app?vid=2a2abcd2-161e-4c0a-bd7f-44cf66014eda","ios":"levelo://app?vid=2a2abcd2-161e-4c0a-bd7f-44cf66014eda"},"vehicle_type_id":"4","last_reported":1728047814,"current_range_meters":24800,"station_id":"ce4bhg92rcd13ifvqf90","pricing_plan_id":"cebpf4jnsgd1na2vs0mg"},{"bike_id":"13f72c53-17a8-4ab9-b94c-3c5bc1b3e032","system_id":"levelo_inurba_marseille","lat":43.29527,"lon":5.38541,"is_reserved":false,"is_disabled":false,"rental_uris":{"android":"levelo://app?vid=13f72c53-17a8-4ab9-b94c-3c5bc1b3e032","ios":"levelo://app?vid=13f72c53-17a8-4ab9-b94c-3c5bc1b3e032"},"vehicle_type_id":"4","last_reported":1728047814,"current_range_meters":8000,"station_id":"ce4bgih2rcd13ifvqba0","pricing_plan_id":"cebpf4jnsgd1na2vs0mg"},{"bike_id":"84f47de8-145d-480f-963c-e2c861a79d26","system_id":"levelo_inurba_marseille","lat":43.28974,"lon":5.37835,"is_reserved":false,"is_disabled":false,"rental_uris":{"android":"levelo://app?vid=84f47de8-145d-480f-963c-e2c861a79d26","ios":"levelo://app?vid=84f47de8-145d-480f-963c-e2c861a79d26"},"vehicle_type_id":"4","last_reported":1728047814,"current_range_meters":39200,"station_id":"ce4bh9p2rcd13ifvqed0","pricing_plan_id":"cebpf4jnsgd1na2vs0mg"},{"bike_id":"d5f6a3d9-4099-48fe-9d92-5b5542a792da","system_id":"levelo_inurba_marseille","lat":43.32333,"lon":5.4062,"is_reserved":false,"is_disabled":false,"rental_uris":{"android":"levelo://app?vid=d5f6a3d9-4099-48fe-9d92-5b5542a792da","ios":"levelo://app?vid=d5f6a3d9-4099-48fe-9d92-5b5542a792da"},"vehicle_type_id":"4","last_reported":1728047814,"current_range_meters":36800,"station_id":"ce4bhq92rcd13ifvqhjg","pricing_plan_id":"cebpf4jnsgd1na2vs0mg"},{"bike_id":"7ac19322-2e6f-44f1-b1f4-2cb8b9ddadba","system_id":"levelo_inurba_marseille","lat":43.3091,"lon":5.36851,"is_reserved":false,"is_disabled":false,"rental_uris":{"android":"levelo://app?vid=7ac19322-2e6f-44f1-b1f4-2cb8b9ddadba","ios":"levelo://app?vid=7ac19322-2e6f-44f1-b1f4-2cb8b9ddadba"},"vehicle_type_id":"4","last_reported":1728047814,"current_range_meters":38000,"station_id":"ce4bgn92rcd13ifvqbvg","pricing_plan_id":"cebpf4jnsgd1na2vs0mg"},{"bike_id":"8406ff50-7e29-4474-8a1e-a6057ee4017c","system_id":"levelo_inurba_marseille","lat":43.31358,"lon":5.36691,"is_reserved":false,"is_disabled":false,"rental_uris":{"android":"levelo://app?vid=8406ff50-7e29-4474-8a1e-a6057ee4017c","ios":"levelo://app?vid=8406ff50-7e29-4474-8a1e-a6057ee4017c"},"vehicle_type_id":"4","last_reported":1728047814,"current_range_meters":12000,"station_id":"ce4bgr92rcd13ifvqc6g","pricing_plan_id":"cebpf4jnsgd1na2vs0mg"},{"bike_id":"50e6aeb8-7e25-4c09-9781-24c9f5d23dff","system_id":"levelo_inurba_marseille","lat":43.33752,"lon":5.37448,"is_reserved":false,"is_disabled":false,"rental_uris":{"android":"levelo://app?vid=50e6aeb8-7e25-4c09-9781-24c9f5d23dff","ios":"levelo://app?vid=50e6aeb8-7e25-4c09-9781-24c9f5d23dff"},"vehicle_type_id":"4","last_reported":1728047814,"current_range_meters":32400,"station_id":"","pricing_plan_id":"cebpf4jnsgd1na2vs0mg"},{"bike_id":"4061a425-0fa8-4b85-ba2e-dd23d5b416e9","system_id":"levelo_inurba_marseille","lat":43.288468,"lon":5.35842,"is_reserved":false,"is_disabled":false,"rental_uris":{"android":"levelo://app?vid=4061a425-0fa8-4b85-ba2e-dd23d5b416e9","ios":"levelo://app?vid=4061a425-0fa8-4b85-ba2e-dd23d5b416e9"},"vehicle_type_id":"4","last_reported":1728047814,"current_range_meters":32000,"station_id":"ce4bhb12rcd13ifvqem0","pricing_plan_id":"cebpf4jnsgd1na2vs0mg"},{"bike_id":"385d7ce0-6f24-41b6-ba28-53fc0c7b9350","system_id":"levelo_inurba_marseille","lat":43.292932,"lon":5.374724,"is_reserved":false,"is_disabled":false,"rental_uris":{"android":"levelo://app?vid=385d7ce0-6f24-41b6-ba28-53fc0c7b9350","ios":"levelo://app?vid=385d7ce0-6f24-41b6-ba28-53fc0c7b9350"},"vehicle_type_id":"4","last_reported":1728047814,"current_range_meters":36800,"station_id":"ce4bgi12rcd13ifvqb70","pricing_plan_id":"cebpf4jnsgd1na2vs0mg"},{"bike_id":"2fa80a2d-1591-492e-b225-696fcb5c87fd","system_id":"levelo_inurba_marseille","lat":43.2656,"lon":5.37289,"is_reserved":false,"is_disabled":false,"rental_uris":{"android":"levelo://app?vid=2fa80a2d-1591-492e-b225-696fcb5c87fd","ios":"levelo://app?vid=2fa80a2d-1591-492e-b225-696fcb5c87fd"},"vehicle_type_id":"4","last_reported":1728047814,"current_range_meters":30000,"station_id":"ce4bhg12rcd13ifvqf70","pricing_plan_id":"cebpf4jnsgd1na2vs0mg"},{"bike_id":"4021fd9a-5036-4b88-9998-f4be984c87e4","system_id":"levelo_inurba_marseille","lat":43.30603,"lon":5.37223,"is_reserved":false,"is_disabled":false,"rental_uris":{"android":"levelo://app?vid=4021fd9a-5036-4b88-9998-f4be984c87e4","ios":"levelo://app?vid=4021fd9a-5036-4b88-9998-f4be984c87e4"},"vehicle_type_id":"4","last_reported":1728047814,"current_range_meters":4800,"station_id":"ce4bgqh2rcd13ifvqc4g","pricing_plan_id":"cebpf4jnsgd1na2vs0mg"},{"bike_id":"7d688d7b-461f-4c73-864b-9e4e4bb476ee","system_id":"levelo_inurba_marseille","lat":43.31701,"lon":5.37722,"is_reserved":false,"is_disabled":false,"rental_uris":{"android":"levelo://app?vid=7d688d7b-461f-4c73-864b-9e4e4bb476ee","ios":"levelo://app?vid=7d688d7b-461f-4c73-864b-9e4e4bb476ee"},"vehicle_type_id":"4","last_reported":1728047814,"current_range_meters":30800,"station_id":"ce4bgth2rcd13ifvqch0","pricing_plan_id":"cebpf4jnsgd1na2vs0mg"},{"bike_id":"4e006db8-3c54-4fa9-9772-d925fdfb2d1e","system_id":"levelo_inurba_marseille","lat":43.30942,"lon":5.39013,"is_reserved":false,"is_disabled":false,"rental_uris":{"android":"levelo://app?vid=4e006db8-3c54-4fa9-9772-d925fdfb2d1e","ios":"levelo://app?vid=4e006db8-3c54-4fa9-9772-d925fdfb2d1e"},"vehicle_type_id":"4","last_reported":1728047814,"current_range_meters":30800,"station_id":"ce4bgup2rcd13ifvqco0","pricing_plan_id":"cebpf4jnsgd1na2vs0mg"},{"bike_id":"8ca57b7a-0b51-4e5f-b8e2-ecf2be8680bf","system_id":"levelo_inurba_marseille","lat":43.250026,"lon":5.389307,"is_reserved":false,"is_disabled":false,"rental_uris":{"android":"levelo://app?vid=8ca57b7a-0b51-4e5f-b8e2-ecf2be8680bf","ios":"levelo://app?vid=8ca57b7a-0b51-4e5f-b8e2-ecf2be8680bf"},"vehicle_type_id":"4","last_reported":1728047814,"current_range_meters":7200,"station_id":"ce4bhgp2rcd13ifvqfd0","pricing_plan_id":"cebpf4jnsgd1na2vs0mg"},{"bike_id":"296d1e43-be60-4f11-b5c4-f5a90f535aac","system_id":"levelo_inurba_marseille","lat":43.29225,"lon":5.36055,"is_reserved":false,"is_disabled":false,"rental_uris":{"android":"levelo://app?vid=296d1e43-be60-4f11-b5c4-f5a90f535aac","ios":"levelo://app?vid=296d1e43-be60-4f11-b5c4-f5a90f535aac"},"vehicle_type_id":"4","last_reported":1728047814,"current_range_meters":24000,"station_id":"ce4bhbh2rcd13ifvqeqg","pricing_plan_id":"cebpf4jnsgd1na2vs0mg"},{"bike_id":"01b44d4b-37cf-4cbe-a547-4c2508cea865","system_id":"levelo_inurba_marseille","lat":43.30928,"lon":5.40139,"is_reserved":false,"is_disabled":false,"rental_uris":{"android":"levelo://app?vid=01b44d4b-37cf-4cbe-a547-4c2508cea865","ios":"levelo://app?vid=01b44d4b-37cf-4cbe-a547-4c2508cea865"},"vehicle_type_id":"4","last_reported":1728047814,"current_range_meters":38000,"station_id":"ce4bgvp2rcd13ifvqct0","pricing_plan_id":"cebpf4jnsgd1na2vs0mg"},{"bike_id":"f8ed13ba-0f92-4c24-a66c-ce1d50a499a4","system_id":"levelo_inurba_marseille","lat":43.3091,"lon":5.3685,"is_reserved":false,"is_disabled":false,"rental_uris":{"android":"levelo://app?vid=f8ed13ba-0f92-4c24-a66c-ce1d50a499a4","ios":"levelo://app?vid=f8ed13ba-0f92-4c24-a66c-ce1d50a499a4"},"vehicle_type_id":"4","last_reported":1728047814,"current_range_meters":16400,"station_id":"ce4bgn92rcd13ifvqbvg","pricing_plan_id":"cebpf4jnsgd1na2vs0mg"},{"bike_id":"9049e8a5-da48-4a47-9b09-a0e480493ed9","system_id":"levelo_inurba_marseille","lat":43.3032,"lon":5.36899,"is_reserved":false,"is_disabled":false,"rental_uris":{"android":"levelo://app?vid=9049e8a5-da48-4a47-9b09-a0e480493ed9","ios":"levelo://app?vid=9049e8a5-da48-4a47-9b09-a0e480493ed9"},"vehicle_type_id":"4","last_reported":1728047814,"current_range_meters":2800,"station_id":"ce4bgqh2rcd13ifvqc5g","pricing_plan_id":"cebpf4jnsgd1na2vs0mg"},{"bike_id":"a3824d28-62a1-444e-90fa-f0f15aa0a303","system_id":"levelo_inurba_marseille","lat":43.25858,"lon":5.39893,"is_reserved":false,"is_disabled":false,"rental_uris":{"android":"levelo://app?vid=a3824d28-62a1-444e-90fa-f0f15aa0a303","ios":"levelo://app?vid=a3824d28-62a1-444e-90fa-f0f15aa0a303"},"vehicle_type_id":"4","last_reported":1728047814,"current_range_meters":9200,"station_id":"ce4bhl92rcd13ifvqghg","pricing_plan_id":"cebpf4jnsgd1na2vs0mg"},{"bike_id":"6ce60676-3f86-4aaa-a5df-572436c32ad4","system_id":"levelo_inurba_marseille","lat":43.23194,"lon":5.35551,"is_reserved":false,"is_disabled":false,"rental_uris":{"android":"levelo://app?vid=6ce60676-3f86-4aaa-a5df-572436c32ad4","ios":"levelo://app?vid=6ce60676-3f86-4aaa-a5df-572436c32ad4"},"vehicle_type_id":"4","last_reported":1728047814,"current_range_meters":14800,"station_id":"ce4bhu92rcd13ifvqi70","pricing_plan_id":"cebpf4jnsgd1na2vs0mg"},{"bike_id":"d7787627-7ccb-4bf2-abe1-7661586a6aa3","system_id":"levelo_inurba_marseille","lat":43.29026,"lon":5.38638,"is_reserved":false,"is_disabled":false,"rental_uris":{"android":"levelo://app?vid=d7787627-7ccb-4bf2-abe1-7661586a6aa3","ios":"levelo://app?vid=d7787627-7ccb-4bf2-abe1-7661586a6aa3"},"vehicle_type_id":"4","last_reported":1728047814,"current_range_meters":30000,"station_id":"ce4bh4p2rcd13ifvqe0g","pricing_plan_id":"cebpf4jnsgd1na2vs0mg"},{"bike_id":"305a5ebb-ea62-46a6-a448-f08576d0d0eb","system_id":"levelo_inurba_marseille","lat":43.31107,"lon":5.37805,"is_reserved":false,"is_disabled":false,"rental_uris":{"android":"levelo://app?vid=305a5ebb-ea62-46a6-a448-f08576d0d0eb","ios":"levelo://app?vid=305a5ebb-ea62-46a6-a448-f08576d0d0eb"},"vehicle_type_id":"4","last_reported":1728047814,"current_range_meters":8400,"station_id":"ce4bgt92rcd13ifvqcg0","pricing_plan_id":"cebpf4jnsgd1na2vs0mg"},{"bike_id":"dc7d0138-42ae-4eac-862d-213ecca61547","system_id":"levelo_inurba_marseille","lat":43.29967,"lon":5.38487,"is_reserved":false,"is_disabled":false,"rental_uris":{"android":"levelo://app?vid=dc7d0138-42ae-4eac-862d-213ecca61547","ios":"levelo://app?vid=dc7d0138-42ae-4eac-862d-213ecca61547"},"vehicle_type_id":"4","last_reported":1728047814,"current_range_meters":34800,"station_id":"ce4bgj92rcd13ifvqbd0","pricing_plan_id":"cebpf4jnsgd1na2vs0mg"},{"bike_id":"d57e7260-8cf3-4e2f-b9b8-11b973fd6147","system_id":"levelo_inurba_marseille","lat":43.305604,"lon":5.365588,"is_reserved":false,"is_disabled":false,"rental_uris":{"android":"levelo://app?vid=d57e7260-8cf3-4e2f-b9b8-11b973fd6147","ios":"levelo://app?vid=d57e7260-8cf3-4e2f-b9b8-11b973fd6147"},"vehicle_type_id":"4","last_reported":1728047814,"current_range_meters":4400,"station_id":"ce4bh292rcd13ifvqdg0","pricing_plan_id":"cebpf4jnsgd1na2vs0mg"},{"bike_id":"d08e055a-f3b3-478a-b145-75801e3e079f","system_id":"levelo_inurba_marseille","lat":43.30267,"lon":5.37703,"is_reserved":false,"is_disabled":false,"rental_uris":{"android":"levelo://app?vid=d08e055a-f3b3-478a-b145-75801e3e079f","ios":"levelo://app?vid=d08e055a-f3b3-478a-b145-75801e3e079f"},"vehicle_type_id":"4","last_reported":1728047814,"current_range_meters":28000,"station_id":"ce4bguh2rcd13ifvqcj0","pricing_plan_id":"cebpf4jnsgd1na2vs0mg"},{"bike_id":"c1e9db9e-a7ce-401a-9ae0-6a471f4af865","system_id":"levelo_inurba_marseille","lat":43.2951,"lon":5.37504,"is_reserved":false,"is_disabled":false,"rental_uris":{"android":"levelo://app?vid=c1e9db9e-a7ce-401a-9ae0-6a471f4af865","ios":"levelo://app?vid=c1e9db9e-a7ce-401a-9ae0-6a471f4af865"},"vehicle_type_id":"4","last_reported":1728047814,"current_range_meters":4800,"station_id":"ce4bgkp2rcd13ifvqbmg","pricing_plan_id":"cebpf4jnsgd1na2vs0mg"},{"bike_id":"0ebc3d93-fb15-4652-a054-2171ebeb1015","system_id":"levelo_inurba_marseille","lat":43.30793,"lon":5.38152,"is_reserved":false,"is_disabled":false,"rental_uris":{"android":"levelo://app?vid=0ebc3d93-fb15-4652-a054-2171ebeb1015","ios":"levelo://app?vid=0ebc3d93-fb15-4652-a054-2171ebeb1015"},"vehicle_type_id":"4","last_reported":1728047814,"current_range_meters":36400,"station_id":"ce4bgt12rcd13ifvqce0","pricing_plan_id":"cebpf4jnsgd1na2vs0mg"},{"bike_id":"ac491eed-1fef-4832-b4ca-d42b5b54f337","system_id":"levelo_inurba_marseille","lat":43.284177,"lon":5.349847,"is_reserved":false,"is_disabled":false,"rental_uris":{"android":"levelo://app?vid=ac491eed-1fef-4832-b4ca-d42b5b54f337","ios":"levelo://app?vid=ac491eed-1fef-4832-b4ca-d42b5b54f337"},"vehicle_type_id":"4","last_reported":1728047814,"current_range_meters":36800,"station_id":"ce4bhbh2rcd13ifvqepg","pricing_plan_id":"cebpf4jnsgd1na2vs0mg"},{"bike_id":"8ac44faa-93cd-4332-8102-f81a297dd504","system_id":"levelo_inurba_marseille","lat":43.29952,"lon":5.41312,"is_reserved":false,"is_disabled":false,"rental_uris":{"android":"levelo://app?vid=8ac44faa-93cd-4332-8102-f81a297dd504","ios":"levelo://app?vid=8ac44faa-93cd-4332-8102-f81a297dd504"},"vehicle_type_id":"4","last_reported":1728047814,"current_range_meters":35200,"station_id":"ce4bhp12rcd13ifvqh9g","pricing_plan_id":"cebpf4jnsgd1na2vs0mg"},{"bike_id":"bb5f5452-4b9b-417d-b148-b396a874f3d9","system_id":"levelo_inurba_marseille","lat":43.33753,"lon":5.3741,"is_reserved":false,"is_disabled":false,"rental_uris":{"android":"levelo://app?vid=bb5f5452-4b9b-417d-b148-b396a874f3d9","ios":"levelo://app?vid=bb5f5452-4b9b-417d-b148-b396a874f3d9"},"vehicle_type_id":"4","last_reported":1728047814,"current_range_meters":36800,"station_id":"","pricing_plan_id":"cebpf4jnsgd1na2vs0mg"},{"bike_id":"0a59fef2-d212-4155-9925-108d390ac81f","system_id":"levelo_inurba_marseille","lat":43.23157,"lon":5.43701,"is_reserved":false,"is_disabled":false,"rental_uris":{"android":"levelo://app?vid=0a59fef2-d212-4155-9925-108d390ac81f","ios":"levelo://app?vid=0a59fef2-d212-4155-9925-108d390ac81f"},"vehicle_type_id":"4","last_reported":1728047814,"current_range_meters":35600,"station_id":"ce4bhmp2rcd13ifvqgog","pricing_plan_id":"cebpf4jnsgd1na2vs0mg"},{"bike_id":"cf8146e0-1b81-4d90-aaae-cb4ff9b4541a","system_id":"levelo_inurba_marseille","lat":43.29633,"lon":5.40592,"is_reserved":false,"is_disabled":false,"rental_uris":{"android":"levelo://app?vid=cf8146e0-1b81-4d90-aaae-cb4ff9b4541a","ios":"levelo://app?vid=cf8146e0-1b81-4d90-aaae-cb4ff9b4541a"},"vehicle_type_id":"4","last_reported":1728047814,"current_range_meters":8400,"station_id":"ce4bh0h2rcd13ifvqd60","pricing_plan_id":"cebpf4jnsgd1na2vs0mg"},{"bike_id":"d7a0298f-5c2b-438d-ab05-5d6a7ac83160","system_id":"levelo_inurba_marseille","lat":43.30788,"lon":5.43533,"is_reserved":false,"is_disabled":false,"rental_uris":{"android":"levelo://app?vid=d7a0298f-5c2b-438d-ab05-5d6a7ac83160","ios":"levelo://app?vid=d7a0298f-5c2b-438d-ab05-5d6a7ac83160"},"vehicle_type_id":"4","last_reported":1728047814,"current_range_meters":38800,"station_id":"ce4bhph2rcd13ifvqheg","pricing_plan_id":"cebpf4jnsgd1na2vs0mg"},{"bike_id":"dd9a8e27-9e75-4d65-b7f9-fd1b28ca7f6e","system_id":"levelo_inurba_marseille","lat":43.2315,"lon":5.43713,"is_reserved":false,"is_disabled":false,"rental_uris":{"android":"levelo://app?vid=dd9a8e27-9e75-4d65-b7f9-fd1b28ca7f6e","ios":"levelo://app?vid=dd9a8e27-9e75-4d65-b7f9-fd1b28ca7f6e"},"vehicle_type_id":"4","last_reported":1728047814,"current_range_meters":29600,"station_id":"ce4bhmp2rcd13ifvqgog","pricing_plan_id":"cebpf4jnsgd1na2vs0mg"},{"bike_id":"f28532ab-2844-4c68-acee-baaa073b03fa","system_id":"levelo_inurba_marseille","lat":43.32487,"lon":5.36573,"is_reserved":false,"is_disabled":false,"rental_uris":{"android":"levelo://app?vid=f28532ab-2844-4c68-acee-baaa073b03fa","ios":"levelo://app?vid=f28532ab-2844-4c68-acee-baaa073b03fa"},"vehicle_type_id":"4","last_reported":1728047814,"current_range_meters":37600,"station_id":"ce4bhs12rcd13ifvqhvg","pricing_plan_id":"cebpf4jnsgd1na2vs0mg"},{"bike_id":"d602bb9e-b75e-4df7-8d65-c5a2586c9b89","system_id":"levelo_inurba_marseille","lat":43.29847,"lon":5.36283,"is_reserved":false,"is_disabled":false,"rental_uris":{"android":"levelo://app?vid=d602bb9e-b75e-4df7-8d65-c5a2586c9b89","ios":"levelo://app?vid=d602bb9e-b75e-4df7-8d65-c5a2586c9b89"},"vehicle_type_id":"4","last_reported":1728047814,"current_range_meters":28400,"station_id":"ce4bgpp2rcd13ifvqc3g","pricing_plan_id":"cebpf4jnsgd1na2vs0mg"},{"bike_id":"0df22634-8a99-4927-af03-09431c9e9149","system_id":"levelo_inurba_marseille","lat":43.25485,"lon":5.37648,"is_reserved":false,"is_disabled":false,"rental_uris":{"android":"levelo://app?vid=0df22634-8a99-4927-af03-09431c9e9149","ios":"levelo://app?vid=0df22634-8a99-4927-af03-09431c9e9149"},"vehicle_type_id":"4","last_reported":1728047814,"current_range_meters":20400,"station_id":"ce4bhh12rcd13ifvqff0","pricing_plan_id":"cebpf4jnsgd1na2vs0mg"},{"bike_id":"4a6d82ea-4a93-4702-b867-6ab3478675d0","system_id":"levelo_inurba_marseille","lat":43.30139,"lon":5.38084,"is_reserved":false,"is_disabled":false,"rental_uris":{"android":"levelo://app?vid=4a6d82ea-4a93-4702-b867-6ab3478675d0","ios":"levelo://app?vid=4a6d82ea-4a93-4702-b867-6ab3478675d0"},"vehicle_type_id":"4","last_reported":1728047814,"current_range_meters":36800,"station_id":"ce4bgjp2rcd13ifvqbh0","pricing_plan_id":"cebpf4jnsgd1na2vs0mg"},{"bike_id":"4aa2d78a-2df8-40f1-b44e-a41cc0b2e120","system_id":"levelo_inurba_marseille","lat":43.30529,"lon":5.36699,"is_reserved":false,"is_disabled":false,"rental_uris":{"android":"levelo://app?vid=4aa2d78a-2df8-40f1-b44e-a41cc0b2e120","ios":"levelo://app?vid=4aa2d78a-2df8-40f1-b44e-a41cc0b2e120"},"vehicle_type_id":"4","last_reported":1728047814,"current_range_meters":3600,"station_id":"ce4bgrp2rcd13ifvqc9g","pricing_plan_id":"cebpf4jnsgd1na2vs0mg"},{"bike_id":"f9d607c6-4b22-4ba1-851a-5071c906c7ad","system_id":"levelo_inurba_marseille","lat":43.254979,"lon":5.376515,"is_reserved":false,"is_disabled":false,"rental_uris":{"android":"levelo://app?vid=f9d607c6-4b22-4ba1-851a-5071c906c7ad","ios":"levelo://app?vid=f9d607c6-4b22-4ba1-851a-5071c906c7ad"},"vehicle_type_id":"4","last_reported":1728047814,"current_range_meters":38400,"station_id":"ce4bhh12rcd13ifvqff0","pricing_plan_id":"cebpf4jnsgd1na2vs0mg"},{"bike_id":"26e591a2-512f-4737-8ce5-02a636d114e4","system_id":"levelo_inurba_marseille","lat":43.29848,"lon":5.36285,"is_reserved":false,"is_disabled":false,"rental_uris":{"android":"levelo://app?vid=26e591a2-512f-4737-8ce5-02a636d114e4","ios":"levelo://app?vid=26e591a2-512f-4737-8ce5-02a636d114e4"},"vehicle_type_id":"4","last_reported":1728047814,"current_range_meters":8000,"station_id":"ce4bgpp2rcd13ifvqc3g","pricing_plan_id":"cebpf4jnsgd1na2vs0mg"},{"bike_id":"c8e4ff73-620c-4248-92f7-758d5098242c","system_id":"levelo_inurba_marseille","lat":43.22931,"lon":5.35376,"is_reserved":false,"is_disabled":false,"rental_uris":{"android":"levelo://app?vid=c8e4ff73-620c-4248-92f7-758d5098242c","ios":"levelo://app?vid=c8e4ff73-620c-4248-92f7-758d5098242c"},"vehicle_type_id":"4","last_reported":1728047814,"current_range_meters":20800,"station_id":"cpo3532slgdg3j2ikp40","pricing_plan_id":"cebpf4jnsgd1na2vs0mg"},{"bike_id":"583eb2a3-c703-4842-8648-2706b2b88008","system_id":"levelo_inurba_marseille","lat":43.28152,"lon":5.42642,"is_reserved":false,"is_disabled":false,"rental_uris":{"android":"levelo://app?vid=583eb2a3-c703-4842-8648-2706b2b88008","ios":"levelo://app?vid=583eb2a3-c703-4842-8648-2706b2b88008"},"vehicle_type_id":"4","last_reported":1728047814,"current_range_meters":4400,"station_id":"ce4bhnh2rcd13ifvqgug","pricing_plan_id":"cebpf4jnsgd1na2vs0mg"},{"bike_id":"d5158089-3a37-467c-a561-c8a0186135db","system_id":"levelo_inurba_marseille","lat":43.28412,"lon":5.34973,"is_reserved":false,"is_disabled":false,"rental_uris":{"android":"levelo://app?vid=d5158089-3a37-467c-a561-c8a0186135db","ios":"levelo://app?vid=d5158089-3a37-467c-a561-c8a0186135db"},"vehicle_type_id":"4","last_reported":1728047814,"current_range_meters":4000,"station_id":"ce4bhbh2rcd13ifvqepg","pricing_plan_id":"cebpf4jnsgd1na2vs0mg"},{"bike_id":"37b44b47-52b8-4ef0-a6a6-9df18033c732","system_id":"levelo_inurba_marseille","lat":43.29864,"lon":5.39722,"is_reserved":false,"is_disabled":false,"rental_uris":{"android":"levelo://app?vid=37b44b47-52b8-4ef0-a6a6-9df18033c732","ios":"levelo://app?vid=37b44b47-52b8-4ef0-a6a6-9df18033c732"},"vehicle_type_id":"4","last_reported":1728047814,"current_range_meters":36800,"station_id":"ce4bh0h2rcd13ifvqd50","pricing_plan_id":"cebpf4jnsgd1na2vs0mg"},{"bike_id":"e67617bc-7688-46a1-8dc7-3f0ddb1d3d19","system_id":"levelo_inurba_marseille","lat":43.30805,"lon":5.3816,"is_reserved":false,"is_disabled":false,"rental_uris":{"android":"levelo://app?vid=e67617bc-7688-46a1-8dc7-3f0ddb1d3d19","ios":"levelo://app?vid=e67617bc-7688-46a1-8dc7-3f0ddb1d3d19"},"vehicle_type_id":"4","last_reported":1728047814,"current_range_meters":36400,"station_id":"ce4bgt12rcd13ifvqce0","pricing_plan_id":"cebpf4jnsgd1na2vs0mg"},{"bike_id":"77c59eab-5250-44c4-be86-099c0defe9c4","system_id":"levelo_inurba_marseille","lat":43.33742,"lon":5.37445,"is_reserved":false,"is_disabled":false,"rental_uris":{"android":"levelo://app?vid=77c59eab-5250-44c4-be86-099c0defe9c4","ios":"levelo://app?vid=77c59eab-5250-44c4-be86-099c0defe9c4"},"vehicle_type_id":"4","last_reported":1728047814,"current_range_meters":30800,"station_id":"","pricing_plan_id":"cebpf4jnsgd1na2vs0mg"},{"bike_id":"d39fe60d-adbe-4ff4-9a70-44533f0060ba","system_id":"levelo_inurba_marseille","lat":43.26947,"lon":5.40245,"is_reserved":false,"is_disabled":false,"rental_uris":{"android":"levelo://app?vid=d39fe60d-adbe-4ff4-9a70-44533f0060ba","ios":"levelo://app?vid=d39fe60d-adbe-4ff4-9a70-44533f0060ba"},"vehicle_type_id":"4","last_reported":1728047814,"current_range_meters":38800,"station_id":"cjm6bp8fraef2m0cb0m0","pricing_plan_id":"cebpf4jnsgd1na2vs0mg"},{"bike_id":"350c1224-6ed4-4965-8eec-69b36197e594","system_id":"levelo_inurba_marseille","lat":43.301446,"lon":5.374272,"is_reserved":false,"is_disabled":false,"rental_uris":{"android":"levelo://app?vid=350c1224-6ed4-4965-8eec-69b36197e594","ios":"levelo://app?vid=350c1224-6ed4-4965-8eec-69b36197e594"},"vehicle_type_id":"4","last_reported":1728047814,"current_range_meters":36800,"station_id":"ce4bgs92rcd13ifvqcc0","pricing_plan_id":"cebpf4jnsgd1na2vs0mg"},{"bike_id":"93098334-5766-41ec-9f29-124ede017eb4","system_id":"levelo_inurba_marseille","lat":43.31351,"lon":5.36711,"is_reserved":false,"is_disabled":false,"rental_uris":{"android":"levelo://app?vid=93098334-5766-41ec-9f29-124ede017eb4","ios":"levelo://app?vid=93098334-5766-41ec-9f29-124ede017eb4"},"vehicle_type_id":"4","last_reported":1728047814,"current_range_meters":35200,"station_id":"ce4bgr92rcd13ifvqc6g","pricing_plan_id":"cebpf4jnsgd1na2vs0mg"},{"bike_id":"eef9dc6c-fbf4-448a-83e4-d866d99ffa6f","system_id":"levelo_inurba_marseille","lat":43.26776,"lon":5.39412,"is_reserved":false,"is_disabled":false,"rental_uris":{"android":"levelo://app?vid=eef9dc6c-fbf4-448a-83e4-d866d99ffa6f","ios":"levelo://app?vid=eef9dc6c-fbf4-448a-83e4-d866d99ffa6f"},"vehicle_type_id":"4","last_reported":1728047814,"current_range_meters":32000,"station_id":"ce4bhh12rcd13ifvqfg0","pricing_plan_id":"cebpf4jnsgd1na2vs0mg"},{"bike_id":"141d4c76-0791-46ef-9f99-31d55180248e","system_id":"levelo_inurba_marseille","lat":43.26486,"lon":5.3953,"is_reserved":false,"is_disabled":false,"rental_uris":{"android":"levelo://app?vid=141d4c76-0791-46ef-9f99-31d55180248e","ios":"levelo://app?vid=141d4c76-0791-46ef-9f99-31d55180248e"},"vehicle_type_id":"4","last_reported":1728047814,"current_range_meters":25600,"station_id":"ce4bhi12rcd13ifvqfq0","pricing_plan_id":"cebpf4jnsgd1na2vs0mg"},{"bike_id":"83623599-9828-4154-b0da-6db73f040383","system_id":"levelo_inurba_marseille","lat":43.31478,"lon":5.37301,"is_reserved":false,"is_disabled":false,"rental_uris":{"android":"levelo://app?vid=83623599-9828-4154-b0da-6db73f040383","ios":"levelo://app?vid=83623599-9828-4154-b0da-6db73f040383"},"vehicle_type_id":"4","last_reported":1728047814,"current_range_meters":16400,"station_id":"ce4bgt12rcd13ifvqcd0","pricing_plan_id":"cebpf4jnsgd1na2vs0mg"},{"bike_id":"f228c5b7-4041-4938-8514-6b8d621ace3a","system_id":"levelo_inurba_marseille","lat":43.31533,"lon":5.38027,"is_reserved":false,"is_disabled":false,"rental_uris":{"android":"levelo://app?vid=f228c5b7-4041-4938-8514-6b8d621ace3a","ios":"levelo://app?vid=f228c5b7-4041-4938-8514-6b8d621ace3a"},"vehicle_type_id":"4","last_reported":1728047814,"current_range_meters":38000,"station_id":"ce4bhsp2rcd13ifvqi50","pricing_plan_id":"cebpf4jnsgd1na2vs0mg"},{"bike_id":"430b0534-c0a3-4c25-ab6f-2bad06c8960d","system_id":"levelo_inurba_marseille","lat":43.23158,"lon":5.437,"is_reserved":false,"is_disabled":false,"rental_uris":{"android":"levelo://app?vid=430b0534-c0a3-4c25-ab6f-2bad06c8960d","ios":"levelo://app?vid=430b0534-c0a3-4c25-ab6f-2bad06c8960d"},"vehicle_type_id":"4","last_reported":1728047814,"current_range_meters":10000,"station_id":"ce4bhmp2rcd13ifvqgog","pricing_plan_id":"cebpf4jnsgd1na2vs0mg"},{"bike_id":"f34833af-9c50-4ded-b015-e20d6de55c39","system_id":"levelo_inurba_marseille","lat":43.31757,"lon":5.39019,"is_reserved":false,"is_disabled":false,"rental_uris":{"android":"levelo://app?vid=f34833af-9c50-4ded-b015-e20d6de55c39","ios":"levelo://app?vid=f34833af-9c50-4ded-b015-e20d6de55c39"},"vehicle_type_id":"4","last_reported":1728047814,"current_range_meters":28000,"station_id":"ce4bhqp2rcd13ifvqhng","pricing_plan_id":"cebpf4jnsgd1na2vs0mg"},{"bike_id":"01d5ad83-6245-4acf-9f24-4bd24dca0486","system_id":"levelo_inurba_marseille","lat":43.25582,"lon":5.38236,"is_reserved":false,"is_disabled":false,"rental_uris":{"android":"levelo://app?vid=01d5ad83-6245-4acf-9f24-4bd24dca0486","ios":"levelo://app?vid=01d5ad83-6245-4acf-9f24-4bd24dca0486"},"vehicle_type_id":"4","last_reported":1728047814,"current_range_meters":12400,"station_id":"ce4bhih2rcd13ifvqfs0","pricing_plan_id":"cebpf4jnsgd1na2vs0mg"},{"bike_id":"88d9570e-3833-458c-9e92-04428c7f9085","system_id":"levelo_inurba_marseille","lat":43.30875,"lon":5.39634,"is_reserved":false,"is_disabled":false,"rental_uris":{"android":"levelo://app?vid=88d9570e-3833-458c-9e92-04428c7f9085","ios":"levelo://app?vid=88d9570e-3833-458c-9e92-04428c7f9085"},"vehicle_type_id":"4","last_reported":1728047814,"current_range_meters":30400,"station_id":"ce4bh012rcd13ifvqcv0","pricing_plan_id":"cebpf4jnsgd1na2vs0mg"},{"bike_id":"fdb68aa5-0a31-4ff3-9837-ee5d5fa5bae6","system_id":"levelo_inurba_marseille","lat":43.23152,"lon":5.43702,"is_reserved":false,"is_disabled":false,"rental_uris":{"android":"levelo://app?vid=fdb68aa5-0a31-4ff3-9837-ee5d5fa5bae6","ios":"levelo://app?vid=fdb68aa5-0a31-4ff3-9837-ee5d5fa5bae6"},"vehicle_type_id":"4","last_reported":1728047814,"current_range_meters":40000,"station_id":"ce4bhmp2rcd13ifvqgog","pricing_plan_id":"cebpf4jnsgd1na2vs0mg"},{"bike_id":"1bb16e86-9cd8-4c34-b590-d657ac831893","system_id":"levelo_inurba_marseille","lat":43.31681,"lon":5.40487,"is_reserved":false,"is_disabled":false,"rental_uris":{"android":"levelo://app?vid=1bb16e86-9cd8-4c34-b590-d657ac831893","ios":"levelo://app?vid=1bb16e86-9cd8-4c34-b590-d657ac831893"},"vehicle_type_id":"4","last_reported":1728047814,"current_range_meters":6000,"station_id":"ce4bh012rcd13ifvqd00","pricing_plan_id":"cebpf4jnsgd1na2vs0mg"},{"bike_id":"b417a8d0-1fac-4a2b-9294-35cea48e57c1","system_id":"levelo_inurba_marseille","lat":43.33022,"lon":5.39035,"is_reserved":false,"is_disabled":false,"rental_uris":{"android":"levelo://app?vid=b417a8d0-1fac-4a2b-9294-35cea48e57c1","ios":"levelo://app?vid=b417a8d0-1fac-4a2b-9294-35cea48e57c1"},"vehicle_type_id":"4","last_reported":1728047814,"current_range_meters":32800,"station_id":"ce4bhr92rcd13ifvqhrg","pricing_plan_id":"cebpf4jnsgd1na2vs0mg"},{"bike_id":"cd4bb195-6ace-4918-bb91-0bb2a48ddbfe","system_id":"levelo_inurba_marseille","lat":43.24798,"lon":5.37447,"is_reserved":false,"is_disabled":false,"rental_uris":{"android":"levelo://app?vid=cd4bb195-6ace-4918-bb91-0bb2a48ddbfe","ios":"levelo://app?vid=cd4bb195-6ace-4918-bb91-0bb2a48ddbfe"},"vehicle_type_id":"4","last_reported":1728047814,"current_range_meters":38400,"station_id":"ce4bhgh2rcd13ifvqfb0","pricing_plan_id":"cebpf4jnsgd1na2vs0mg"},{"bike_id":"81135a2f-3484-4943-8cb1-e9f527d2c044","system_id":"levelo_inurba_marseille","lat":43.23187,"lon":5.39974,"is_reserved":false,"is_disabled":false,"rental_uris":{"android":"levelo://app?vid=81135a2f-3484-4943-8cb1-e9f527d2c044","ios":"levelo://app?vid=81135a2f-3484-4943-8cb1-e9f527d2c044"},"vehicle_type_id":"4","last_reported":1728047814,"current_range_meters":38000,"station_id":"ce4bhn12rcd13ifvqgqg","pricing_plan_id":"cebpf4jnsgd1na2vs0mg"},{"bike_id":"c8e8265a-4e35-4304-bc30-1eaf48ba054a","system_id":"levelo_inurba_marseille","lat":43.30597,"lon":5.37213,"is_reserved":false,"is_disabled":false,"rental_uris":{"android":"levelo://app?vid=c8e8265a-4e35-4304-bc30-1eaf48ba054a","ios":"levelo://app?vid=c8e8265a-4e35-4304-bc30-1eaf48ba054a"},"vehicle_type_id":"4","last_reported":1728047814,"current_range_meters":33200,"station_id":"ce4bgqh2rcd13ifvqc4g","pricing_plan_id":"cebpf4jnsgd1na2vs0mg"},{"bike_id":"476a6893-5de7-415b-ace0-e025751606f2","system_id":"levelo_inurba_marseille","lat":43.24995,"lon":5.38925,"is_reserved":false,"is_disabled":false,"rental_uris":{"android":"levelo://app?vid=476a6893-5de7-415b-ace0-e025751606f2","ios":"levelo://app?vid=476a6893-5de7-415b-ace0-e025751606f2"},"vehicle_type_id":"4","last_reported":1728047814,"current_range_meters":28000,"station_id":"ce4bhgp2rcd13ifvqfd0","pricing_plan_id":"cebpf4jnsgd1na2vs0mg"},{"bike_id":"e5c69734-b227-4a25-8547-1b388bd2b646","system_id":"levelo_inurba_marseille","lat":43.27064,"lon":5.42279,"is_reserved":false,"is_disabled":false,"rental_uris":{"android":"levelo://app?vid=e5c69734-b227-4a25-8547-1b388bd2b646","ios":"levelo://app?vid=e5c69734-b227-4a25-8547-1b388bd2b646"},"vehicle_type_id":"4","last_reported":1728047814,"current_range_meters":30800,"station_id":"ce4bhk92rcd13ifvqgb0","pricing_plan_id":"cebpf4jnsgd1na2vs0mg"},{"bike_id":"ed9fb650-701f-49a9-8122-9169b9b1897f","system_id":"levelo_inurba_marseille","lat":43.28262,"lon":5.3506,"is_reserved":false,"is_disabled":false,"rental_uris":{"android":"levelo://app?vid=ed9fb650-701f-49a9-8122-9169b9b1897f","ios":"levelo://app?vid=ed9fb650-701f-49a9-8122-9169b9b1897f"},"vehicle_type_id":"4","last_reported":1728047814,"current_range_meters":24800,"station_id":"ce4bhbp2rcd13ifvqerg","pricing_plan_id":"cebpf4jnsgd1na2vs0mg"},{"bike_id":"3d743f14-6bda-4d52-ac79-3261a0662f90","system_id":"levelo_inurba_marseille","lat":43.25082,"lon":5.39513,"is_reserved":false,"is_disabled":false,"rental_uris":{"android":"levelo://app?vid=3d743f14-6bda-4d52-ac79-3261a0662f90","ios":"levelo://app?vid=3d743f14-6bda-4d52-ac79-3261a0662f90"},"vehicle_type_id":"4","last_reported":1728047814,"current_range_meters":39200,"station_id":"ce4bhm12rcd13ifvqgkg","pricing_plan_id":"cebpf4jnsgd1na2vs0mg"},{"bike_id":"37b17847-0748-48b2-bb7e-835b8c23a08e","system_id":"levelo_inurba_marseille","lat":43.28846,"lon":5.35878,"is_reserved":false,"is_disabled":false,"rental_uris":{"android":"levelo://app?vid=37b17847-0748-48b2-bb7e-835b8c23a08e","ios":"levelo://app?vid=37b17847-0748-48b2-bb7e-835b8c23a08e"},"vehicle_type_id":"4","last_reported":1728047814,"current_range_meters":6800,"station_id":"ce4bhb12rcd13ifvqem0","pricing_plan_id":"cebpf4jnsgd1na2vs0mg"},{"bike_id":"1e4b9dd3-b33a-4d2a-8266-ed32618ab5b8","system_id":"levelo_inurba_marseille","lat":43.23151,"lon":5.4372,"is_reserved":false,"is_disabled":false,"rental_uris":{"android":"levelo://app?vid=1e4b9dd3-b33a-4d2a-8266-ed32618ab5b8","ios":"levelo://app?vid=1e4b9dd3-b33a-4d2a-8266-ed32618ab5b8"},"vehicle_type_id":"4","last_reported":1728047814,"current_range_meters":20000,"station_id":"ce4bhmp2rcd13ifvqgog","pricing_plan_id":"cebpf4jnsgd1na2vs0mg"},{"bike_id":"618dbd70-d2c5-4e8c-b885-8315978f5f74","system_id":"levelo_inurba_marseille","lat":43.29581,"lon":5.36734,"is_reserved":false,"is_disabled":false,"rental_uris":{"android":"levelo://app?vid=618dbd70-d2c5-4e8c-b885-8315978f5f74","ios":"levelo://app?vid=618dbd70-d2c5-4e8c-b885-8315978f5f74"},"vehicle_type_id":"4","last_reported":1728047814,"current_range_meters":36800,"station_id":"ce4bgph2rcd13ifvqc2g","pricing_plan_id":"cebpf4jnsgd1na2vs0mg"},{"bike_id":"dee4e989-4d03-41b2-a491-4a63612b2c5b","system_id":"levelo_inurba_marseille","lat":43.31995,"lon":5.38155,"is_reserved":false,"is_disabled":false,"rental_uris":{"android":"levelo://app?vid=dee4e989-4d03-41b2-a491-4a63612b2c5b","ios":"levelo://app?vid=dee4e989-4d03-41b2-a491-4a63612b2c5b"},"vehicle_type_id":"4","last_reported":1728047814,"current_range_meters":8800,"station_id":"ce4bhr12rcd13ifvqhpg","pricing_plan_id":"cebpf4jnsgd1na2vs0mg"},{"bike_id":"91f5d4d0-29b4-416e-b80a-21fa1cdd290c","system_id":"levelo_inurba_marseille","lat":43.25027,"lon":5.375498,"is_reserved":false,"is_disabled":false,"rental_uris":{"android":"levelo://app?vid=91f5d4d0-29b4-416e-b80a-21fa1cdd290c","ios":"levelo://app?vid=91f5d4d0-29b4-416e-b80a-21fa1cdd290c"},"vehicle_type_id":"4","last_reported":1728047814,"current_range_meters":16800,"station_id":"","pricing_plan_id":"cebpf4jnsgd1na2vs0mg"},{"bike_id":"411a622e-0c64-4ae7-ab3a-3b4f2603408c","system_id":"levelo_inurba_marseille","lat":43.29893,"lon":5.4367,"is_reserved":false,"is_disabled":false,"rental_uris":{"android":"levelo://app?vid=411a622e-0c64-4ae7-ab3a-3b4f2603408c","ios":"levelo://app?vid=411a622e-0c64-4ae7-ab3a-3b4f2603408c"},"vehicle_type_id":"4","last_reported":1728047814,"current_range_meters":38000,"station_id":"ce4bhpp2rcd13ifvqhfg","pricing_plan_id":"cebpf4jnsgd1na2vs0mg"},{"bike_id":"d9513a24-3235-43a7-b9a5-1c5cfe37603f","system_id":"levelo_inurba_marseille","lat":43.23056,"lon":5.35493,"is_reserved":false,"is_disabled":false,"rental_uris":{"android":"levelo://app?vid=d9513a24-3235-43a7-b9a5-1c5cfe37603f","ios":"levelo://app?vid=d9513a24-3235-43a7-b9a5-1c5cfe37603f"},"vehicle_type_id":"4","last_reported":1728047814,"current_range_meters":25200,"station_id":"cpo3342slgdg3j2ifvpg","pricing_plan_id":"cebpf4jnsgd1na2vs0mg"},{"bike_id":"9c0cb0e5-99bc-4919-8413-fe427a72a8c2","system_id":"levelo_inurba_marseille","lat":43.30798,"lon":5.4352,"is_reserved":false,"is_disabled":false,"rental_uris":{"android":"levelo://app?vid=9c0cb0e5-99bc-4919-8413-fe427a72a8c2","ios":"levelo://app?vid=9c0cb0e5-99bc-4919-8413-fe427a72a8c2"},"vehicle_type_id":"4","last_reported":1728047814,"current_range_meters":38800,"station_id":"ce4bhph2rcd13ifvqheg","pricing_plan_id":"cebpf4jnsgd1na2vs0mg"},{"bike_id":"94e4dd2d-e7bd-49e1-b37f-aa1436b68abc","system_id":"levelo_inurba_marseille","lat":43.30795,"lon":5.38144,"is_reserved":false,"is_disabled":false,"rental_uris":{"android":"levelo://app?vid=94e4dd2d-e7bd-49e1-b37f-aa1436b68abc","ios":"levelo://app?vid=94e4dd2d-e7bd-49e1-b37f-aa1436b68abc"},"vehicle_type_id":"4","last_reported":1728047814,"current_range_meters":23200,"station_id":"ce4bgt12rcd13ifvqce0","pricing_plan_id":"cebpf4jnsgd1na2vs0mg"},{"bike_id":"88114b20-8121-430c-b67e-84a045347081","system_id":"levelo_inurba_marseille","lat":43.28611,"lon":5.37061,"is_reserved":false,"is_disabled":false,"rental_uris":{"android":"levelo://app?vid=88114b20-8121-430c-b67e-84a045347081","ios":"levelo://app?vid=88114b20-8121-430c-b67e-84a045347081"},"vehicle_type_id":"4","last_reported":1728047814,"current_range_meters":21600,"station_id":"ce4bht12rcd13ifvqi60","pricing_plan_id":"cebpf4jnsgd1na2vs0mg"},{"bike_id":"4bd008e2-ced4-419f-9986-7bdf08969ddd","system_id":"levelo_inurba_marseille","lat":43.30912,"lon":5.36851,"is_reserved":false,"is_disabled":false,"rental_uris":{"android":"levelo://app?vid=4bd008e2-ced4-419f-9986-7bdf08969ddd","ios":"levelo://app?vid=4bd008e2-ced4-419f-9986-7bdf08969ddd"},"vehicle_type_id":"4","last_reported":1728047814,"current_range_meters":36400,"station_id":"ce4bgn92rcd13ifvqbvg","pricing_plan_id":"cebpf4jnsgd1na2vs0mg"},{"bike_id":"8a0e0700-6a9b-403f-8a8f-341648bd54d3","system_id":"levelo_inurba_marseille","lat":43.30135,"lon":5.37407,"is_reserved":false,"is_disabled":false,"rental_uris":{"android":"levelo://app?vid=8a0e0700-6a9b-403f-8a8f-341648bd54d3","ios":"levelo://app?vid=8a0e0700-6a9b-403f-8a8f-341648bd54d3"},"vehicle_type_id":"4","last_reported":1728047814,"current_range_meters":12000,"station_id":"ce4bgs92rcd13ifvqcc0","pricing_plan_id":"cebpf4jnsgd1na2vs0mg"},{"bike_id":"3d6cbcbd-1ad6-468a-9880-5d5b87f6109b","system_id":"levelo_inurba_marseille","lat":43.29037,"lon":5.39962,"is_reserved":false,"is_disabled":false,"rental_uris":{"android":"levelo://app?vid=3d6cbcbd-1ad6-468a-9880-5d5b87f6109b","ios":"levelo://app?vid=3d6cbcbd-1ad6-468a-9880-5d5b87f6109b"},"vehicle_type_id":"4","last_reported":1728047814,"current_range_meters":37600,"station_id":"ce4bh392rcd13ifvqdm0","pricing_plan_id":"cebpf4jnsgd1na2vs0mg"},{"bike_id":"4e0c83a2-b0c3-4894-8559-e509681998d3","system_id":"levelo_inurba_marseille","lat":43.31108,"lon":5.38318,"is_reserved":false,"is_disabled":false,"rental_uris":{"android":"levelo://app?vid=4e0c83a2-b0c3-4894-8559-e509681998d3","ios":"levelo://app?vid=4e0c83a2-b0c3-4894-8559-e509681998d3"},"vehicle_type_id":"4","last_reported":1728047814,"current_range_meters":23200,"station_id":"ce4bgv92rcd13ifvqcr0","pricing_plan_id":"cebpf4jnsgd1na2vs0mg"},{"bike_id":"dc852ba8-32f2-497f-a66a-6178eae58d48","system_id":"levelo_inurba_marseille","lat":43.32485,"lon":5.36565,"is_reserved":false,"is_disabled":false,"rental_uris":{"android":"levelo://app?vid=dc852ba8-32f2-497f-a66a-6178eae58d48","ios":"levelo://app?vid=dc852ba8-32f2-497f-a66a-6178eae58d48"},"vehicle_type_id":"4","last_reported":1728047814,"current_range_meters":11200,"station_id":"ce4bhs12rcd13ifvqhvg","pricing_plan_id":"cebpf4jnsgd1na2vs0mg"},{"bike_id":"701c6d99-5cc9-4f4a-aff8-cbd84ddd36e7","system_id":"levelo_inurba_marseille","lat":43.25108,"lon":5.40321,"is_reserved":false,"is_disabled":false,"rental_uris":{"android":"levelo://app?vid=701c6d99-5cc9-4f4a-aff8-cbd84ddd36e7","ios":"levelo://app?vid=701c6d99-5cc9-4f4a-aff8-cbd84ddd36e7"},"vehicle_type_id":"4","last_reported":1728047814,"current_range_meters":40000,"station_id":"ce4bhlh2rcd13ifvqgig","pricing_plan_id":"cebpf4jnsgd1na2vs0mg"},{"bike_id":"5f60b9e4-e570-490a-9730-1ebc72374f47","system_id":"levelo_inurba_marseille","lat":43.28718,"lon":5.37932,"is_reserved":false,"is_disabled":false,"rental_uris":{"android":"levelo://app?vid=5f60b9e4-e570-490a-9730-1ebc72374f47","ios":"levelo://app?vid=5f60b9e4-e570-490a-9730-1ebc72374f47"},"vehicle_type_id":"4","last_reported":1728047814,"current_range_meters":38800,"station_id":"ce4bh9p2rcd13ifvqec0","pricing_plan_id":"cebpf4jnsgd1na2vs0mg"},{"bike_id":"745956e2-85a4-4e28-8a9f-f9dc9abb062e","system_id":"levelo_inurba_marseille","lat":43.31076,"lon":5.40079,"is_reserved":false,"is_disabled":false,"rental_uris":{"android":"levelo://app?vid=745956e2-85a4-4e28-8a9f-f9dc9abb062e","ios":"levelo://app?vid=745956e2-85a4-4e28-8a9f-f9dc9abb062e"},"vehicle_type_id":"4","last_reported":1728047814,"current_range_meters":8400,"station_id":"","pricing_plan_id":"cebpf4jnsgd1na2vs0mg"},{"bike_id":"b378dfd1-c1cc-4a36-864e-c1a62b564295","system_id":"levelo_inurba_marseille","lat":43.23157,"lon":5.43704,"is_reserved":false,"is_disabled":false,"rental_uris":{"android":"levelo://app?vid=b378dfd1-c1cc-4a36-864e-c1a62b564295","ios":"levelo://app?vid=b378dfd1-c1cc-4a36-864e-c1a62b564295"},"vehicle_type_id":"4","last_reported":1728047814,"current_range_meters":28800,"station_id":"ce4bhmp2rcd13ifvqgog","pricing_plan_id":"cebpf4jnsgd1na2vs0mg"},{"bike_id":"cc8612c2-298f-4c0f-9e0f-914f9ab06767","system_id":"levelo_inurba_marseille","lat":43.2465,"lon":5.38891,"is_reserved":false,"is_disabled":false,"rental_uris":{"android":"levelo://app?vid=cc8612c2-298f-4c0f-9e0f-914f9ab06767","ios":"levelo://app?vid=cc8612c2-298f-4c0f-9e0f-914f9ab06767"},"vehicle_type_id":"4","last_reported":1728047814,"current_range_meters":25600,"station_id":"ce4bhg12rcd13ifvqf60","pricing_plan_id":"cebpf4jnsgd1na2vs0mg"},{"bike_id":"eb387d80-1a2b-4338-9dfc-d920fff731e3","system_id":"levelo_inurba_marseille","lat":43.23143,"lon":5.43721,"is_reserved":false,"is_disabled":false,"rental_uris":{"android":"levelo://app?vid=eb387d80-1a2b-4338-9dfc-d920fff731e3","ios":"levelo://app?vid=eb387d80-1a2b-4338-9dfc-d920fff731e3"},"vehicle_type_id":"4","last_reported":1728047814,"current_range_meters":38800,"station_id":"ce4bhmp2rcd13ifvqgog","pricing_plan_id":"cebpf4jnsgd1na2vs0mg"},{"bike_id":"1b2227e2-5f5b-450a-8f39-8a3945325ec8","system_id":"levelo_inurba_marseille","lat":43.31226,"lon":5.36854,"is_reserved":false,"is_disabled":false,"rental_uris":{"android":"levelo://app?vid=1b2227e2-5f5b-450a-8f39-8a3945325ec8","ios":"levelo://app?vid=1b2227e2-5f5b-450a-8f39-8a3945325ec8"},"vehicle_type_id":"4","last_reported":1728047814,"current_range_meters":38000,"station_id":"ce4bgl92rcd13ifvqbq0","pricing_plan_id":"cebpf4jnsgd1na2vs0mg"},{"bike_id":"3a592867-9d22-4d83-aeeb-a6898d779c97","system_id":"levelo_inurba_marseille","lat":43.30942,"lon":5.3904,"is_reserved":false,"is_disabled":false,"rental_uris":{"android":"levelo://app?vid=3a592867-9d22-4d83-aeeb-a6898d779c97","ios":"levelo://app?vid=3a592867-9d22-4d83-aeeb-a6898d779c97"},"vehicle_type_id":"4","last_reported":1728047814,"current_range_meters":16000,"station_id":"ce4bgup2rcd13ifvqco0","pricing_plan_id":"cebpf4jnsgd1na2vs0mg"},{"bike_id":"a19f2af5-e5c1-4afa-a61f-81fe89da72d7","system_id":"levelo_inurba_marseille","lat":43.30884,"lon":5.3965,"is_reserved":false,"is_disabled":false,"rental_uris":{"android":"levelo://app?vid=a19f2af5-e5c1-4afa-a61f-81fe89da72d7","ios":"levelo://app?vid=a19f2af5-e5c1-4afa-a61f-81fe89da72d7"},"vehicle_type_id":"4","last_reported":1728047814,"current_range_meters":9200,"station_id":"ce4bh012rcd13ifvqcv0","pricing_plan_id":"cebpf4jnsgd1na2vs0mg"},{"bike_id":"a66780f4-b8e0-4580-9798-e131236db77c","system_id":"levelo_inurba_marseille","lat":43.29564,"lon":5.37499,"is_reserved":false,"is_disabled":false,"rental_uris":{"android":"levelo://app?vid=a66780f4-b8e0-4580-9798-e131236db77c","ios":"levelo://app?vid=a66780f4-b8e0-4580-9798-e131236db77c"},"vehicle_type_id":"4","last_reported":1728047814,"current_range_meters":36800,"station_id":"ce4bgh92rcd13ifvqb50","pricing_plan_id":"cebpf4jnsgd1na2vs0mg"},{"bike_id":"b7b282c2-aca8-406d-92cf-f5f263d9f36d","system_id":"levelo_inurba_marseille","lat":43.27208,"lon":5.39176,"is_reserved":false,"is_disabled":false,"rental_uris":{"android":"levelo://app?vid=b7b282c2-aca8-406d-92cf-f5f263d9f36d","ios":"levelo://app?vid=b7b282c2-aca8-406d-92cf-f5f263d9f36d"},"vehicle_type_id":"4","last_reported":1728047814,"current_range_meters":34800,"station_id":"ce4bhhp2rcd13ifvqfm0","pricing_plan_id":"cebpf4jnsgd1na2vs0mg"},{"bike_id":"21cb7f3b-0c74-4a25-9118-73cb82a75413","system_id":"levelo_inurba_marseille","lat":43.3149,"lon":5.37308,"is_reserved":false,"is_disabled":false,"rental_uris":{"android":"levelo://app?vid=21cb7f3b-0c74-4a25-9118-73cb82a75413","ios":"levelo://app?vid=21cb7f3b-0c74-4a25-9118-73cb82a75413"},"vehicle_type_id":"4","last_reported":1728047814,"current_range_meters":38400,"station_id":"ce4bgt12rcd13ifvqcd0","pricing_plan_id":"cebpf4jnsgd1na2vs0mg"},{"bike_id":"613dddd7-b6d5-4ce7-b0cc-11c99bc21e50","system_id":"levelo_inurba_marseille","lat":43.30536,"lon":5.36701,"is_reserved":false,"is_disabled":false,"rental_uris":{"android":"levelo://app?vid=613dddd7-b6d5-4ce7-b0cc-11c99bc21e50","ios":"levelo://app?vid=613dddd7-b6d5-4ce7-b0cc-11c99bc21e50"},"vehicle_type_id":"4","last_reported":1728047814,"current_range_meters":32400,"station_id":"ce4bgrp2rcd13ifvqc9g","pricing_plan_id":"cebpf4jnsgd1na2vs0mg"},{"bike_id":"abedcaca-ce9a-464c-8437-8a94d42dcb16","system_id":"levelo_inurba_marseille","lat":43.29843,"lon":5.36277,"is_reserved":false,"is_disabled":false,"rental_uris":{"android":"levelo://app?vid=abedcaca-ce9a-464c-8437-8a94d42dcb16","ios":"levelo://app?vid=abedcaca-ce9a-464c-8437-8a94d42dcb16"},"vehicle_type_id":"4","last_reported":1728047814,"current_range_meters":38000,"station_id":"ce4bgpp2rcd13ifvqc3g","pricing_plan_id":"cebpf4jnsgd1na2vs0mg"},{"bike_id":"6fd45567-17cd-49ef-956d-8b4fdba63ffe","system_id":"levelo_inurba_marseille","lat":43.330255,"lon":5.390386,"is_reserved":false,"is_disabled":false,"rental_uris":{"android":"levelo://app?vid=6fd45567-17cd-49ef-956d-8b4fdba63ffe","ios":"levelo://app?vid=6fd45567-17cd-49ef-956d-8b4fdba63ffe"},"vehicle_type_id":"4","last_reported":1728047814,"current_range_meters":16000,"station_id":"ce4bhr92rcd13ifvqhrg","pricing_plan_id":"cebpf4jnsgd1na2vs0mg"},{"bike_id":"650262df-c1d1-46ae-ad74-907bc1d8f23e","system_id":"levelo_inurba_marseille","lat":43.28445,"lon":5.39188,"is_reserved":false,"is_disabled":false,"rental_uris":{"android":"levelo://app?vid=650262df-c1d1-46ae-ad74-907bc1d8f23e","ios":"levelo://app?vid=650262df-c1d1-46ae-ad74-907bc1d8f23e"},"vehicle_type_id":"4","last_reported":1728047814,"current_range_meters":20400,"station_id":"ce4bhoh2rcd13ifvqh5g","pricing_plan_id":"cebpf4jnsgd1na2vs0mg"},{"bike_id":"68b3e916-c982-44c4-afa0-77802fb0cdfd","system_id":"levelo_inurba_marseille","lat":43.28264,"lon":5.35065,"is_reserved":false,"is_disabled":false,"rental_uris":{"android":"levelo://app?vid=68b3e916-c982-44c4-afa0-77802fb0cdfd","ios":"levelo://app?vid=68b3e916-c982-44c4-afa0-77802fb0cdfd"},"vehicle_type_id":"4","last_reported":1728047814,"current_range_meters":28000,"station_id":"ce4bhbp2rcd13ifvqerg","pricing_plan_id":"cebpf4jnsgd1na2vs0mg"},{"bike_id":"bb86483c-4535-4020-be25-bbceecb6c5a9","system_id":"levelo_inurba_marseille","lat":43.285153,"lon":5.38392,"is_reserved":false,"is_disabled":false,"rental_uris":{"android":"levelo://app?vid=bb86483c-4535-4020-be25-bbceecb6c5a9","ios":"levelo://app?vid=bb86483c-4535-4020-be25-bbceecb6c5a9"},"vehicle_type_id":"4","last_reported":1728047814,"current_range_meters":24800,"station_id":"ce4bh512rcd13ifvqe3g","pricing_plan_id":"cebpf4jnsgd1na2vs0mg"},{"bike_id":"44d5888e-6cd0-40e3-ae27-81bcd75122e8","system_id":"levelo_inurba_marseille","lat":43.27888,"lon":5.38281,"is_reserved":false,"is_disabled":false,"rental_uris":{"android":"levelo://app?vid=44d5888e-6cd0-40e3-ae27-81bcd75122e8","ios":"levelo://app?vid=44d5888e-6cd0-40e3-ae27-81bcd75122e8"},"vehicle_type_id":"4","last_reported":1728047814,"current_range_meters":28800,"station_id":"","pricing_plan_id":"cebpf4jnsgd1na2vs0mg"},{"bike_id":"27e7f6f4-9bfa-4304-b709-0da03928d44d","system_id":"levelo_inurba_marseille","lat":43.29958,"lon":5.41318,"is_reserved":false,"is_disabled":false,"rental_uris":{"android":"levelo://app?vid=27e7f6f4-9bfa-4304-b709-0da03928d44d","ios":"levelo://app?vid=27e7f6f4-9bfa-4304-b709-0da03928d44d"},"vehicle_type_id":"4","last_reported":1728047814,"current_range_meters":39200,"station_id":"ce4bhp12rcd13ifvqh9g","pricing_plan_id":"cebpf4jnsgd1na2vs0mg"},{"bike_id":"645654cd-45ca-4e94-8102-c011dccf5ed2","system_id":"levelo_inurba_marseille","lat":43.26067,"lon":5.39396,"is_reserved":false,"is_disabled":false,"rental_uris":{"android":"levelo://app?vid=645654cd-45ca-4e94-8102-c011dccf5ed2","ios":"levelo://app?vid=645654cd-45ca-4e94-8102-c011dccf5ed2"},"vehicle_type_id":"4","last_reported":1728047814,"current_range_meters":22400,"station_id":"ce4bhh92rcd13ifvqfj0","pricing_plan_id":"cebpf4jnsgd1na2vs0mg"},{"bike_id":"9748f88d-bbc5-459f-b5bd-293888336fb9","system_id":"levelo_inurba_marseille","lat":43.30537,"lon":5.36713,"is_reserved":false,"is_disabled":false,"rental_uris":{"android":"levelo://app?vid=9748f88d-bbc5-459f-b5bd-293888336fb9","ios":"levelo://app?vid=9748f88d-bbc5-459f-b5bd-293888336fb9"},"vehicle_type_id":"4","last_reported":1728047814,"current_range_meters":21600,"station_id":"ce4bgrp2rcd13ifvqc9g","pricing_plan_id":"cebpf4jnsgd1na2vs0mg"},{"bike_id":"da159afb-d6ad-4bc8-a3de-e348ce2b41eb","system_id":"levelo_inurba_marseille","lat":43.324791,"lon":5.365663,"is_reserved":false,"is_disabled":false,"rental_uris":{"android":"levelo://app?vid=da159afb-d6ad-4bc8-a3de-e348ce2b41eb","ios":"levelo://app?vid=da159afb-d6ad-4bc8-a3de-e348ce2b41eb"},"vehicle_type_id":"4","last_reported":1728047814,"current_range_meters":38000,"station_id":"ce4bhs12rcd13ifvqhvg","pricing_plan_id":"cebpf4jnsgd1na2vs0mg"},{"bike_id":"26f290bb-1447-4f43-ab6d-1590e2a06a4b","system_id":"levelo_inurba_marseille","lat":43.31457,"lon":5.3737,"is_reserved":false,"is_disabled":false,"rental_uris":{"android":"levelo://app?vid=26f290bb-1447-4f43-ab6d-1590e2a06a4b","ios":"levelo://app?vid=26f290bb-1447-4f43-ab6d-1590e2a06a4b"},"vehicle_type_id":"4","last_reported":1728047814,"current_range_meters":39200,"station_id":"ce4bgt12rcd13ifvqcd0","pricing_plan_id":"cebpf4jnsgd1na2vs0mg"},{"bike_id":"a8fbdfd9-61c0-44e5-8910-8c7f587455af","system_id":"levelo_inurba_marseille","lat":43.25078,"lon":5.39514,"is_reserved":false,"is_disabled":false,"rental_uris":{"android":"levelo://app?vid=a8fbdfd9-61c0-44e5-8910-8c7f587455af","ios":"levelo://app?vid=a8fbdfd9-61c0-44e5-8910-8c7f587455af"},"vehicle_type_id":"4","last_reported":1728047814,"current_range_meters":33200,"station_id":"ce4bhm12rcd13ifvqgkg","pricing_plan_id":"cebpf4jnsgd1na2vs0mg"},{"bike_id":"8fc3284d-14ca-48d1-bb61-4f08380ceb42","system_id":"levelo_inurba_marseille","lat":43.26684,"lon":5.38267,"is_reserved":false,"is_disabled":false,"rental_uris":{"android":"levelo://app?vid=8fc3284d-14ca-48d1-bb61-4f08380ceb42","ios":"levelo://app?vid=8fc3284d-14ca-48d1-bb61-4f08380ceb42"},"vehicle_type_id":"4","last_reported":1728047814,"current_range_meters":36800,"station_id":"ce4bhg92rcd13ifvqf90","pricing_plan_id":"cebpf4jnsgd1na2vs0mg"},{"bike_id":"7279784c-61d8-4dfc-9c18-93dcb1dbe107","system_id":"levelo_inurba_marseille","lat":43.32627,"lon":5.41011,"is_reserved":false,"is_disabled":false,"rental_uris":{"android":"levelo://app?vid=7279784c-61d8-4dfc-9c18-93dcb1dbe107","ios":"levelo://app?vid=7279784c-61d8-4dfc-9c18-93dcb1dbe107"},"vehicle_type_id":"4","last_reported":1728047814,"current_range_meters":20800,"station_id":"ce4bhpp2rcd13ifvqhgg","pricing_plan_id":"cebpf4jnsgd1na2vs0mg"},{"bike_id":"40eee244-96c8-4790-ae6d-dd0cb3dac76d","system_id":"levelo_inurba_marseille","lat":43.33742,"lon":5.39186,"is_reserved":false,"is_disabled":false,"rental_uris":{"android":"levelo://app?vid=40eee244-96c8-4790-ae6d-dd0cb3dac76d","ios":"levelo://app?vid=40eee244-96c8-4790-ae6d-dd0cb3dac76d"},"vehicle_type_id":"4","last_reported":1728047814,"current_range_meters":33600,"station_id":"ce4bhr92rcd13ifvqhsg","pricing_plan_id":"cebpf4jnsgd1na2vs0mg"},{"bike_id":"9153b943-6af7-4c89-a75b-407ef7290292","system_id":"levelo_inurba_marseille","lat":43.33715,"lon":5.3919,"is_reserved":false,"is_disabled":false,"rental_uris":{"android":"levelo://app?vid=9153b943-6af7-4c89-a75b-407ef7290292","ios":"levelo://app?vid=9153b943-6af7-4c89-a75b-407ef7290292"},"vehicle_type_id":"4","last_reported":1728047814,"current_range_meters":39200,"station_id":"ce4bhr92rcd13ifvqhsg","pricing_plan_id":"cebpf4jnsgd1na2vs0mg"},{"bike_id":"945db574-611e-44bd-b7af-2308ff04fc92","system_id":"levelo_inurba_marseille","lat":43.3015,"lon":5.38078,"is_reserved":false,"is_disabled":false,"rental_uris":{"android":"levelo://app?vid=945db574-611e-44bd-b7af-2308ff04fc92","ios":"levelo://app?vid=945db574-611e-44bd-b7af-2308ff04fc92"},"vehicle_type_id":"4","last_reported":1728047814,"current_range_meters":26000,"station_id":"ce4bgjp2rcd13ifvqbh0","pricing_plan_id":"cebpf4jnsgd1na2vs0mg"},{"bike_id":"4a2bcbd7-99f0-4bdc-9b30-db0c2aba643c","system_id":"levelo_inurba_marseille","lat":43.31763,"lon":5.39008,"is_reserved":false,"is_disabled":false,"rental_uris":{"android":"levelo://app?vid=4a2bcbd7-99f0-4bdc-9b30-db0c2aba643c","ios":"levelo://app?vid=4a2bcbd7-99f0-4bdc-9b30-db0c2aba643c"},"vehicle_type_id":"4","last_reported":1728047814,"current_range_meters":26800,"station_id":"ce4bhqp2rcd13ifvqhng","pricing_plan_id":"cebpf4jnsgd1na2vs0mg"},{"bike_id":"1255a080-8387-47c7-a9c4-0bf43b64c52c","system_id":"levelo_inurba_marseille","lat":43.27828,"lon":5.392,"is_reserved":false,"is_disabled":false,"rental_uris":{"android":"levelo://app?vid=1255a080-8387-47c7-a9c4-0bf43b64c52c","ios":"levelo://app?vid=1255a080-8387-47c7-a9c4-0bf43b64c52c"},"vehicle_type_id":"4","last_reported":1728047814,"current_range_meters":39200,"station_id":"ce4bhjp2rcd13ifvqga0","pricing_plan_id":"cebpf4jnsgd1na2vs0mg"},{"bike_id":"ae229e5d-8ad4-42d5-9cbc-c0a68f71fa5b","system_id":"levelo_inurba_marseille","lat":43.30523,"lon":5.3842,"is_reserved":false,"is_disabled":false,"rental_uris":{"android":"levelo://app?vid=ae229e5d-8ad4-42d5-9cbc-c0a68f71fa5b","ios":"levelo://app?vid=ae229e5d-8ad4-42d5-9cbc-c0a68f71fa5b"},"vehicle_type_id":"4","last_reported":1728047814,"current_range_meters":9600,"station_id":"ce4bgg92rcd13ifvqb30","pricing_plan_id":"cebpf4jnsgd1na2vs0mg"},{"bike_id":"a08e25cb-c89a-42c5-80aa-c12e870f274e","system_id":"levelo_inurba_marseille","lat":43.29811,"lon":5.381,"is_reserved":false,"is_disabled":false,"rental_uris":{"android":"levelo://app?vid=a08e25cb-c89a-42c5-80aa-c12e870f274e","ios":"levelo://app?vid=a08e25cb-c89a-42c5-80aa-c12e870f274e"},"vehicle_type_id":"4","last_reported":1728047814,"current_range_meters":36400,"station_id":"ce4bgip2rcd13ifvqbb0","pricing_plan_id":"cebpf4jnsgd1na2vs0mg"},{"bike_id":"c27bd2ec-b1b8-4f9c-839d-c8e88bc7ec66","system_id":"levelo_inurba_marseille","lat":43.29844,"lon":5.36267,"is_reserved":false,"is_disabled":false,"rental_uris":{"android":"levelo://app?vid=c27bd2ec-b1b8-4f9c-839d-c8e88bc7ec66","ios":"levelo://app?vid=c27bd2ec-b1b8-4f9c-839d-c8e88bc7ec66"},"vehicle_type_id":"4","last_reported":1728047814,"current_range_meters":39200,"station_id":"ce4bgpp2rcd13ifvqc3g","pricing_plan_id":"cebpf4jnsgd1na2vs0mg"},{"bike_id":"4148e8aa-8fcd-47ee-a60d-9fd21dc27ded","system_id":"levelo_inurba_marseille","lat":43.29224,"lon":5.3607,"is_reserved":false,"is_disabled":false,"rental_uris":{"android":"levelo://app?vid=4148e8aa-8fcd-47ee-a60d-9fd21dc27ded","ios":"levelo://app?vid=4148e8aa-8fcd-47ee-a60d-9fd21dc27ded"},"vehicle_type_id":"4","last_reported":1728047814,"current_range_meters":32000,"station_id":"ce4bhbh2rcd13ifvqeqg","pricing_plan_id":"cebpf4jnsgd1na2vs0mg"},{"bike_id":"cfd799c5-7a77-48af-a92f-ac3363e7a66b","system_id":"levelo_inurba_marseille","lat":43.33019,"lon":5.39045,"is_reserved":false,"is_disabled":false,"rental_uris":{"android":"levelo://app?vid=cfd799c5-7a77-48af-a92f-ac3363e7a66b","ios":"levelo://app?vid=cfd799c5-7a77-48af-a92f-ac3363e7a66b"},"vehicle_type_id":"4","last_reported":1728047814,"current_range_meters":30800,"station_id":"ce4bhr92rcd13ifvqhrg","pricing_plan_id":"cebpf4jnsgd1na2vs0mg"},{"bike_id":"40e27bd2-1780-4061-b64e-a496814e2637","system_id":"levelo_inurba_marseille","lat":43.31601,"lon":5.37584,"is_reserved":false,"is_disabled":false,"rental_uris":{"android":"levelo://app?vid=40e27bd2-1780-4061-b64e-a496814e2637","ios":"levelo://app?vid=40e27bd2-1780-4061-b64e-a496814e2637"},"vehicle_type_id":"4","last_reported":1728047814,"current_range_meters":32000,"station_id":"","pricing_plan_id":"cebpf4jnsgd1na2vs0mg"},{"bike_id":"0cb9acb2-15eb-485b-842c-a3f570e8e7c5","system_id":"levelo_inurba_marseille","lat":43.22937,"lon":5.35378,"is_reserved":false,"is_disabled":false,"rental_uris":{"android":"levelo://app?vid=0cb9acb2-15eb-485b-842c-a3f570e8e7c5","ios":"levelo://app?vid=0cb9acb2-15eb-485b-842c-a3f570e8e7c5"},"vehicle_type_id":"4","last_reported":1728047814,"current_range_meters":21600,"station_id":"cpo3532slgdg3j2ikp40","pricing_plan_id":"cebpf4jnsgd1na2vs0mg"},{"bike_id":"eabea0cc-ed7c-4925-9ee3-ea7a749fd05f","system_id":"levelo_inurba_marseille","lat":43.28269,"lon":5.35073,"is_reserved":false,"is_disabled":false,"rental_uris":{"android":"levelo://app?vid=eabea0cc-ed7c-4925-9ee3-ea7a749fd05f","ios":"levelo://app?vid=eabea0cc-ed7c-4925-9ee3-ea7a749fd05f"},"vehicle_type_id":"4","last_reported":1728047814,"current_range_meters":24400,"station_id":"ce4bhbp2rcd13ifvqerg","pricing_plan_id":"cebpf4jnsgd1na2vs0mg"},{"bike_id":"0442b36e-b7c6-4d47-9a74-35f1527734ce","system_id":"levelo_inurba_marseille","lat":43.30938,"lon":5.40145,"is_reserved":false,"is_disabled":false,"rental_uris":{"android":"levelo://app?vid=0442b36e-b7c6-4d47-9a74-35f1527734ce","ios":"levelo://app?vid=0442b36e-b7c6-4d47-9a74-35f1527734ce"},"vehicle_type_id":"4","last_reported":1728047814,"current_range_meters":25200,"station_id":"ce4bgvp2rcd13ifvqct0","pricing_plan_id":"cebpf4jnsgd1na2vs0mg"},{"bike_id":"cad53f51-6242-4ac5-a905-67a3970ffb9f","system_id":"levelo_inurba_marseille","lat":43.25116,"lon":5.40326,"is_reserved":false,"is_disabled":false,"rental_uris":{"android":"levelo://app?vid=cad53f51-6242-4ac5-a905-67a3970ffb9f","ios":"levelo://app?vid=cad53f51-6242-4ac5-a905-67a3970ffb9f"},"vehicle_type_id":"4","last_reported":1728047814,"current_range_meters":24400,"station_id":"ce4bhlh2rcd13ifvqgig","pricing_plan_id":"cebpf4jnsgd1na2vs0mg"},{"bike_id":"e9bc8e34-7fc9-401e-8798-81c511b3e3c8","system_id":"levelo_inurba_marseille","lat":43.33391,"lon":5.41056,"is_reserved":false,"is_disabled":false,"rental_uris":{"android":"levelo://app?vid=e9bc8e34-7fc9-401e-8798-81c511b3e3c8","ios":"levelo://app?vid=e9bc8e34-7fc9-401e-8798-81c511b3e3c8"},"vehicle_type_id":"4","last_reported":1728047814,"current_range_meters":10800,"station_id":"","pricing_plan_id":"cebpf4jnsgd1na2vs0mg"},{"bike_id":"21bc227c-8827-4b19-862b-cafd112c570f","system_id":"levelo_inurba_marseille","lat":43.30888,"lon":5.39649,"is_reserved":false,"is_disabled":false,"rental_uris":{"android":"levelo://app?vid=21bc227c-8827-4b19-862b-cafd112c570f","ios":"levelo://app?vid=21bc227c-8827-4b19-862b-cafd112c570f"},"vehicle_type_id":"4","last_reported":1728047814,"current_range_meters":36000,"station_id":"ce4bh012rcd13ifvqcv0","pricing_plan_id":"cebpf4jnsgd1na2vs0mg"},{"bike_id":"daae8a2c-3086-4f9c-beb7-44106cbf1785","system_id":"levelo_inurba_marseille","lat":43.308,"lon":5.38149,"is_reserved":false,"is_disabled":false,"rental_uris":{"android":"levelo://app?vid=daae8a2c-3086-4f9c-beb7-44106cbf1785","ios":"levelo://app?vid=daae8a2c-3086-4f9c-beb7-44106cbf1785"},"vehicle_type_id":"4","last_reported":1728047814,"current_range_meters":9200,"station_id":"ce4bgt12rcd13ifvqce0","pricing_plan_id":"cebpf4jnsgd1na2vs0mg"},{"bike_id":"c8e00c6d-b748-4ab1-a04a-08bff7f1c61e","system_id":"levelo_inurba_marseille","lat":43.29845,"lon":5.36263,"is_reserved":false,"is_disabled":false,"rental_uris":{"android":"levelo://app?vid=c8e00c6d-b748-4ab1-a04a-08bff7f1c61e","ios":"levelo://app?vid=c8e00c6d-b748-4ab1-a04a-08bff7f1c61e"},"vehicle_type_id":"4","last_reported":1728047814,"current_range_meters":40000,"station_id":"ce4bgpp2rcd13ifvqc3g","pricing_plan_id":"cebpf4jnsgd1na2vs0mg"},{"bike_id":"48cdf92a-7c1a-42b1-ad27-c3adb0f177c3","system_id":"levelo_inurba_marseille","lat":43.33764,"lon":5.3744,"is_reserved":false,"is_disabled":false,"rental_uris":{"android":"levelo://app?vid=48cdf92a-7c1a-42b1-ad27-c3adb0f177c3","ios":"levelo://app?vid=48cdf92a-7c1a-42b1-ad27-c3adb0f177c3"},"vehicle_type_id":"4","last_reported":1728047814,"current_range_meters":35600,"station_id":"","pricing_plan_id":"cebpf4jnsgd1na2vs0mg"},{"bike_id":"fb46c388-758b-408a-a875-488544be0fd3","system_id":"levelo_inurba_marseille","lat":43.32592,"lon":5.40558,"is_reserved":false,"is_disabled":false,"rental_uris":{"android":"levelo://app?vid=fb46c388-758b-408a-a875-488544be0fd3","ios":"levelo://app?vid=fb46c388-758b-408a-a875-488544be0fd3"},"vehicle_type_id":"4","last_reported":1728047814,"current_range_meters":36000,"station_id":"","pricing_plan_id":"cebpf4jnsgd1na2vs0mg"},{"bike_id":"51f22627-a9ed-499f-a6c6-a2efc49aca17","system_id":"levelo_inurba_marseille","lat":43.26217,"lon":5.37438,"is_reserved":false,"is_disabled":false,"rental_uris":{"android":"levelo://app?vid=51f22627-a9ed-499f-a6c6-a2efc49aca17","ios":"levelo://app?vid=51f22627-a9ed-499f-a6c6-a2efc49aca17"},"vehicle_type_id":"4","last_reported":1728047814,"current_range_meters":20000,"station_id":"ce4bhgp2rcd13ifvqfc0","pricing_plan_id":"cebpf4jnsgd1na2vs0mg"},{"bike_id":"64bd957e-b978-44cb-a85c-928d627d24ec","system_id":"levelo_inurba_marseille","lat":43.35479,"lon":5.35867,"is_reserved":false,"is_disabled":false,"rental_uris":{"android":"levelo://app?vid=64bd957e-b978-44cb-a85c-928d627d24ec","ios":"levelo://app?vid=64bd957e-b978-44cb-a85c-928d627d24ec"},"vehicle_type_id":"4","last_reported":1728047814,"current_range_meters":9200,"station_id":"","pricing_plan_id":"cebpf4jnsgd1na2vs0mg"},{"bike_id":"38a690d7-e99e-4de5-bdfe-f410e85adf9a","system_id":"levelo_inurba_marseille","lat":43.305453,"lon":5.367038,"is_reserved":false,"is_disabled":false,"rental_uris":{"android":"levelo://app?vid=38a690d7-e99e-4de5-bdfe-f410e85adf9a","ios":"levelo://app?vid=38a690d7-e99e-4de5-bdfe-f410e85adf9a"},"vehicle_type_id":"4","last_reported":1728047814,"current_range_meters":14000,"station_id":"ce4bgrp2rcd13ifvqc9g","pricing_plan_id":"cebpf4jnsgd1na2vs0mg"},{"bike_id":"96070feb-0a73-4a7b-bd83-e31609c1f27e","system_id":"levelo_inurba_marseille","lat":43.27322,"lon":5.39092,"is_reserved":false,"is_disabled":false,"rental_uris":{"android":"levelo://app?vid=96070feb-0a73-4a7b-bd83-e31609c1f27e","ios":"levelo://app?vid=96070feb-0a73-4a7b-bd83-e31609c1f27e"},"vehicle_type_id":"4","last_reported":1728047814,"current_range_meters":38800,"station_id":"ce4bhgp2rcd13ifvqfe0","pricing_plan_id":"cebpf4jnsgd1na2vs0mg"},{"bike_id":"41c2fbc0-7d0c-492c-a8ba-81839acac35a","system_id":"levelo_inurba_marseille","lat":43.29033,"lon":5.37565,"is_reserved":false,"is_disabled":false,"rental_uris":{"android":"levelo://app?vid=41c2fbc0-7d0c-492c-a8ba-81839acac35a","ios":"levelo://app?vid=41c2fbc0-7d0c-492c-a8ba-81839acac35a"},"vehicle_type_id":"4","last_reported":1728047814,"current_range_meters":20400,"station_id":"ce4bh692rcd13ifvqe90","pricing_plan_id":"cebpf4jnsgd1na2vs0mg"},{"bike_id":"db237d03-be85-492e-b96e-e2bcdd9a79da","system_id":"levelo_inurba_marseille","lat":43.28276,"lon":5.35054,"is_reserved":false,"is_disabled":false,"rental_uris":{"android":"levelo://app?vid=db237d03-be85-492e-b96e-e2bcdd9a79da","ios":"levelo://app?vid=db237d03-be85-492e-b96e-e2bcdd9a79da"},"vehicle_type_id":"4","last_reported":1728047814,"current_range_meters":24800,"station_id":"ce4bhbp2rcd13ifvqerg","pricing_plan_id":"cebpf4jnsgd1na2vs0mg"},{"bike_id":"f7996fbb-5131-416d-b924-7318969fc0ec","system_id":"levelo_inurba_marseille","lat":43.284455,"lon":5.392129,"is_reserved":false,"is_disabled":false,"rental_uris":{"android":"levelo://app?vid=f7996fbb-5131-416d-b924-7318969fc0ec","ios":"levelo://app?vid=f7996fbb-5131-416d-b924-7318969fc0ec"},"vehicle_type_id":"4","last_reported":1728047814,"current_range_meters":16800,"station_id":"ce4bhoh2rcd13ifvqh5g","pricing_plan_id":"cebpf4jnsgd1na2vs0mg"},{"bike_id":"e7bf4173-70cf-4158-8eeb-98d1fb7c9f18","system_id":"levelo_inurba_marseille","lat":43.28711,"lon":5.37941,"is_reserved":false,"is_disabled":false,"rental_uris":{"android":"levelo://app?vid=e7bf4173-70cf-4158-8eeb-98d1fb7c9f18","ios":"levelo://app?vid=e7bf4173-70cf-4158-8eeb-98d1fb7c9f18"},"vehicle_type_id":"4","last_reported":1728047814,"current_range_meters":36800,"station_id":"ce4bh9p2rcd13ifvqec0","pricing_plan_id":"cebpf4jnsgd1na2vs0mg"},{"bike_id":"1dfde707-53e4-4bf5-bc92-042569e60e45","system_id":"levelo_inurba_marseille","lat":43.30152,"lon":5.38097,"is_reserved":false,"is_disabled":false,"rental_uris":{"android":"levelo://app?vid=1dfde707-53e4-4bf5-bc92-042569e60e45","ios":"levelo://app?vid=1dfde707-53e4-4bf5-bc92-042569e60e45"},"vehicle_type_id":"4","last_reported":1728047814,"current_range_meters":28000,"station_id":"ce4bgjp2rcd13ifvqbh0","pricing_plan_id":"cebpf4jnsgd1na2vs0mg"},