{"last_updated":1685570773,"ttl":30,"version":"2.2","data":{"bikes":[{"bike_id":"e2085d7e-f03c-4b34-84b4-b83e37f0633a","system_id":"levelo_inurba_marseille","lat":43.314811,"lon":5.373104,"is_reserved":false,"is_disabled":false,"rental_uris":{"android":"levelo://app?vid=e2085d7e-f03c-4b34-84b4-b83e37f0633a","ios":"levelo://app?vid=e2085d7e-f03c-4b34-84b4-b83e37f0633a"},"vehicle_type_id":"4","last_reported":1685570773,"current_range_meters":31200,"station_id":"ce4bgt12rcd13ifvqcd0","pricing_plan_id":"free"},{"bike_id":"afbda4ff-70e4-4c80-9729-ee6d1516a115","system_id":"levelo_inurba_marseille","lat":43.314811,"lon":5.373103,"is_reserved":false,"is_disabled":false,"rental_uris":{"android":"levelo://app?vid=afbda4ff-70e4-4c80-9729-ee6d1516a115","ios":"levelo://app?vid=afbda4ff-70e4-4c80-9729-ee6d1516a115"},"vehicle_type_id":"4","last_reported":1685570773,"current_range_meters":31200,"station_id":"ce4bgt12rcd13ifvqcd0","pricing_plan_id":"free"},{"bike_id":"f69a3f8a-adab-435a-ad98-4302ca7a3c35","system_id":"levelo_inurba_marseille","lat":43.3172,"lon":5.37099,"is_reserved":false,"is_disabled":false,"rental_uris":{"android":"levelo://app?vid=f69a3f8a-adab-435a-ad98-4302ca7a3c35","ios":"levelo://app?vid=f69a3f8a-adab-435a-ad98-4302ca7a3c35"},"vehicle_type_id":"4","last_reported":1685570773,"current_range_meters":16000,"station_id":"","pricing_plan_id":"free"},{"bike_id":"2e436361-2164-4679-b061-d77fbd415422","system_id":"levelo_inurba_marseille","lat":43.31825,"lon":5.37425,"is_reserved":false,"is_disabled":false,"rental_uris":{"android":"levelo://app?vid=2e436361-2164-4679-b061-d77fbd415422","ios":"levelo://app?vid=2e436361-2164-4679-b061-d77fbd415422"},"vehicle_type_id":"4","last_reported":1685570773,"current_range_meters":21200,"station_id":"","pricing_plan_id":"free"},{"bike_id":"42f36a66-dc1a-49cf-a20b-e09efbf94d08","system_id":"levelo_inurba_marseille","lat":43.305989,"lon":5.37225,"is_reserved":false,"is_disabled":false,"rental_uris":{"android":"levelo://app?vid=42f36a66-dc1a-49cf-a20b-e09efbf94d08","ios":"levelo://app?vid=42f36a66-dc1a-49cf-a20b-e09efbf94d08"},"vehicle_type_id":"4","last_reported":1685570773,"current_range_meters":3600,"station_id":"ce4bgqh2rcd13ifvqc4g","pricing_plan_id":"free"},{"bike_id":"1f048376-828c-4a20-8a23-00faf626485a","system_id":"levelo_inurba_marseille","lat":43.305989,"lon":5.37225,"is_reserved":false,"is_disabled":false,"rental_uris":{"android":"levelo://app?vid=1f048376-828c-4a20-8a23-00faf626485a","ios":"levelo://app?vid=1f048376-828c-4a20-8a23-00faf626485a"},"vehicle_type_id":"4","last_reported":1685570773,"current_range_meters":29200,"station_id":"ce4bgqh2rcd13ifvqc4g","pricing_plan_id":"free"},{"bike_id":"6f56a23a-190a-4f1c-9443-2e3c1ccda3c9","system_id":"levelo_inurba_marseille","lat":43.305989,"lon":5.37225,"is_reserved":false,"is_disabled":false,"rental_uris":{"android":"levelo://app?vid=6f56a23a-190a-4f1c-9443-2e3c1ccda3c9","ios":"levelo://app?vid=6f56a23a-190a-4f1c-9443-2e3c1ccda3c9"},"vehicle_type_id":"4","last_reported":1685570773,"current_range_meters":6400,"station_id":"ce4bgqh2rcd13ifvqc4g","pricing_plan_id":"free"},{"bike_id":"56213e47-32ff-4d66-b150-4d1426339e82","system_id":"levelo_inurba_marseille","lat":43.305989,"lon":5.37225,"is_reserved":false,"is_disabled":false,"rental_uris":{"android":"levelo://app?vid=56213e47-32ff-4d66-b150-4d1426339e82","ios":"levelo://app?vid=56213e47-32ff-4d66-b150-4d1426339e82"},"vehicle_type_id":"4","last_reported":1685570773,"current_range_meters":18000,"station_id":"ce4bgqh2rcd13ifvqc4g","pricing_plan_id":"free"},{"bike_id":"a2d4c44a-88d1-47b8-b51c-d0215d770009","system_id":"levelo_inurba_marseille","lat":43.305989,"lon":5.37225,"is_reserved":false,"is_disabled":false,"rental_uris":{"android":"levelo://app?vid=a2d4c44a-88d1-47b8-b51c-d0215d770009","ios":"levelo://app?vid=a2d4c44a-88d1-47b8-b51c-d0215d770009"},"vehicle_type_id":"4","last_reported":1685570773,"current_range_meters":31200,"station_id":"ce4bgqh2rcd13ifvqc4g","pricing_plan_id":"free"},{"bike_id":"44970321-6a3b-4d0d-82c4-4de8d0722cdc","system_id":"levelo_inurba_marseille","lat":43.305989,"lon":5.37225,"is_reserved":false,"is_disabled":false,"rental_uris":{"android":"levelo://app?vid=44970321-6a3b-4d0d-82c4-4de8d0722cdc","ios":"levelo://app?vid=44970321-6a3b-4d0d-82c4-4de8d0722cdc"},"vehicle_type_id":"4","last_reported":1685570773,"current_range_meters":8800,"station_id":"ce4bgqh2rcd13ifvqc4g","pricing_plan_id":"free"},{"bike_id":"5a48ed31-516c-410a-b504-37cecb4b62b7","system_id":"levelo_inurba_marseille","lat":43.305989,"lon":5.37225,"is_reserved":false,"is_disabled":false,"rental_uris":{"android":"levelo://app?vid=5a48ed31-516c-410a-b504-37cecb4b62b7","ios":"levelo://app?vid=5a48ed31-516c-410a-b504-37cecb4b62b7"},"vehicle_type_id":"4","last_reported":1685570773,"current_range_meters":13600,"station_id":"ce4bgqh2rcd13ifvqc4g","pricing_plan_id":"free"},{"bike_id":"b64a73b1-16ae-4b97-aa49-e9a59869b34f","system_id":"levelo_inurba_marseille","lat":43.305989,"lon":5.37225,"is_reserved":false,"is_disabled":false,"rental_uris":{"android":"levelo://app?vid=b64a73b1-16ae-4b97-aa49-e9a59869b34f","ios":"levelo://app?vid=b64a73b1-16ae-4b97-aa49-e9a59869b34f"},"vehicle_type_id":"4","last_reported":1685570773,"current_range_meters":26000,"station_id":"ce4bgqh2rcd13ifvqc4g","pricing_plan_id":"free"},{"bike_id":"ba07bce7-222b-4beb-855b-b595236c1bb9","system_id":"levelo_inurba_marseille","lat":43.311131,"lon":5.377651,"is_reserved":false,"is_disabled":false,"rental_uris":{"android":"levelo://app?vid=ba07bce7-222b-4beb-855b-b595236c1bb9","ios":"levelo://app?vid=ba07bce7-222b-4beb-855b-b595236c1bb9"},"vehicle_type_id":"4","last_reported":1685570773,"current_range_meters":31200,"station_id":"ce4bgt92rcd13ifvqcg0","pricing_plan_id":"free"},{"bike_id":"e8adbadf-7a03-4183-9434-b7cde7e134f0","system_id":"levelo_inurba_marseille","lat":43.311131,"lon":5.377651,"is_reserved":false,"is_disabled":false,"rental_uris":{"android":"levelo://app?vid=e8adbadf-7a03-4183-9434-b7cde7e134f0","ios":"levelo://app?vid=e8adbadf-7a03-4183-9434-b7cde7e134f0"},"vehicle_type_id":"4","last_reported":1685570773,"current_range_meters":18800,"station_id":"ce4bgt92rcd13ifvqcg0","pricing_plan_id":"free"},{"bike_id":"bec223d4-cce1-4e94-b328-1fe0a741b333","system_id":"levelo_inurba_marseille","lat":43.311125,"lon":5.377624,"is_reserved":false,"is_disabled":false,"rental_uris":{"android":"levelo://app?vid=bec223d4-cce1-4e94-b328-1fe0a741b333","ios":"levelo://app?vid=bec223d4-cce1-4e94-b328-1fe0a741b333"},"vehicle_type_id":"4","last_reported":1685570773,"current_range_meters":0,"station_id":"ce4bgt92rcd13ifvqcg0","pricing_plan_id":"free"},{"bike_id":"7e4bfe88-08b6-4683-958b-fec7684b32f3","system_id":"levelo_inurba_marseille","lat":43.311131,"lon":5.377651,"is_reserved":false,"is_disabled":false,"rental_uris":{"android":"levelo://app?vid=7e4bfe88-08b6-4683-958b-fec7684b32f3","ios":"levelo://app?vid=7e4bfe88-08b6-4683-958b-fec7684b32f3"},"vehicle_type_id":"4","last_reported":1685570773,"current_range_meters":22800,"station_id":"ce4bgt92rcd13ifvqcg0","pricing_plan_id":"free"},{"bike_id":"dc58f958-a228-4b35-be48-7e9ec1791273","system_id":"levelo_inurba_marseille","lat":43.317075,"lon":5.377367,"is_reserved":false,"is_disabled":false,"rental_uris":{"android":"levelo://app?vid=dc58f958-a228-4b35-be48-7e9ec1791273","ios":"levelo://app?vid=dc58f958-a228-4b35-be48-7e9ec1791273"},"vehicle_type_id":"4","last_reported":1685570773,"current_range_meters":3600,"station_id":"ce4bgth2rcd13ifvqch0","pricing_plan_id":"free"},{"bike_id":"997919aa-2218-4b0d-ab25-41179850189a","system_id":"levelo_inurba_marseille","lat":43.30445,"lon":5.37094,"is_reserved":false,"is_disabled":false,"rental_uris":{"android":"levelo://app?vid=997919aa-2218-4b0d-ab25-41179850189a","ios":"levelo://app?vid=997919aa-2218-4b0d-ab25-41179850189a"},"vehicle_type_id":"4","last_reported":1685570773,"current_range_meters":2800,"station_id":"","pricing_plan_id":"free"},{"bike_id":"20fb1e6b-ef22-41d8-9250-11513a095df8","system_id":"levelo_inurba_marseille","lat":43.31002,"lon":5.38021,"is_reserved":false,"is_disabled":false,"rental_uris":{"android":"levelo://app?vid=20fb1e6b-ef22-41d8-9250-11513a095df8","ios":"levelo://app?vid=20fb1e6b-ef22-41d8-9250-11513a095df8"},"vehicle_type_id":"4","last_reported":1685570773,"current_range_meters":7200,"station_id":"","pricing_plan_id":"free"},{"bike_id":"85376b9d-4814-4e31-9fb2-4d6de196f247","system_id":"levelo_inurba_marseille","lat":43.315289,"lon":5.380349,"is_reserved":false,"is_disabled":false,"rental_uris":{"android":"levelo://app?vid=85376b9d-4814-4e31-9fb2-4d6de196f247","ios":"levelo://app?vid=85376b9d-4814-4e31-9fb2-4d6de196f247"},"vehicle_type_id":"4","last_reported":1685570773,"current_range_meters":0,"station_id":"ce4bhsp2rcd13ifvqi50","pricing_plan_id":"free"},{"bike_id":"579a51c3-f230-4ccd-8937-7113e22eab55","system_id":"levelo_inurba_marseille","lat":43.315289,"lon":5.380349,"is_reserved":false,"is_disabled":false,"rental_uris":{"android":"levelo://app?vid=579a51c3-f230-4ccd-8937-7113e22eab55","ios":"levelo://app?vid=579a51c3-f230-4ccd-8937-7113e22eab55"},"vehicle_type_id":"4","last_reported":1685570773,"current_range_meters":3600,"station_id":"ce4bhsp2rcd13ifvqi50","pricing_plan_id":"free"},{"bike_id":"b6b372ab-3420-4dc6-98e9-1e46f4668c70","system_id":"levelo_inurba_marseille","lat":43.308012,"lon":5.381511,"is_reserved":false,"is_disabled":false,"rental_uris":{"android":"levelo://app?vid=b6b372ab-3420-4dc6-98e9-1e46f4668c70","ios":"levelo://app?vid=b6b372ab-3420-4dc6-98e9-1e46f4668c70"},"vehicle_type_id":"4","last_reported":1685570773,"current_range_meters":0,"station_id":"ce4bgt12rcd13ifvqce0","pricing_plan_id":"free"},{"bike_id":"2dcc5246-91f6-4cb7-aa3f-5b0eb3b97880","system_id":"levelo_inurba_marseille","lat":43.308012,"lon":5.381511,"is_reserved":false,"is_disabled":false,"rental_uris":{"android":"levelo://app?vid=2dcc5246-91f6-4cb7-aa3f-5b0eb3b97880","ios":"levelo://app?vid=2dcc5246-91f6-4cb7-aa3f-5b0eb3b97880"},"vehicle_type_id":"4","last_reported":1685570773,"current_range_meters":4800,"station_id":"ce4bgt12rcd13ifvqce0","pricing_plan_id":"free"},{"bike_id":"454d47a4-f9d5-4e0f-9c57-6676bd9547f6","system_id":"levelo_inurba_marseille","lat":43.308012,"lon":5.381511,"is_reserved":false,"is_disabled":false,"rental_uris":{"android":"levelo://app?vid=454d47a4-f9d5-4e0f-9c57-6676bd9547f6","ios":"levelo://app?vid=454d47a4-f9d5-4e0f-9c57-6676bd9547f6"},"vehicle_type_id":"4","last_reported":1685570773,"current_range_meters":12400,"station_id":"ce4bgt12rcd13ifvqce0","pricing_plan_id":"free"},{"bike_id":"9a2b642c-642f-47b6-b1e8-1f9de3e09708","system_id":"levelo_inurba_marseille","lat":43.308012,"lon":5.381511,"is_reserved":false,"is_disabled":false,"rental_uris":{"android":"levelo://app?vid=9a2b642c-642f-47b6-b1e8-1f9de3e09708","ios":"levelo://app?vid=9a2b642c-642f-47b6-b1e8-1f9de3e09708"},"vehicle_type_id":"4","last_reported":1685570773,"current_range_meters":13200,"station_id":"ce4bgt12rcd13ifvqce0","pricing_plan_id":"free"},{"bike_id":"7a0a3d25-a537-4a65-94e8-285913e9f66b","system_id":"levelo_inurba_marseille","lat":43.308012,"lon":5.381511,"is_reserved":false,"is_disabled":false,"rental_uris":{"android":"levelo://app?vid=7a0a3d25-a537-4a65-94e8-285913e9f66b","ios":"levelo://app?vid=7a0a3d25-a537-4a65-94e8-285913e9f66b"},"vehicle_type_id":"4","last_reported":1685570773,"current_range_meters":17200,"station_id":"ce4bgt12rcd13ifvqce0","pricing_plan_id":"free"},{"bike_id":"7bfb929d-9cb0-4942-a456-c25293c2b027","system_id":"levelo_inurba_marseille","lat":43.308012,"lon":5.381511,"is_reserved":false,"is_disabled":false,"rental_uris":{"android":"levelo://app?vid=7bfb929d-9cb0-4942-a456-c25293c2b027","ios":"levelo://app?vid=7bfb929d-9cb0-4942-a456-c25293c2b027"},"vehicle_type_id":"4","last_reported":1685570773,"current_range_meters":4800,"station_id":"ce4bgt12rcd13ifvqce0","pricing_plan_id":"free"},{"bike_id":"a3a67a57-072f-4b49-b134-613485aa4f8b","system_id":"levelo_inurba_marseille","lat":43.308012,"lon":5.381511,"is_reserved":false,"is_disabled":false,"rental_uris":{"android":"levelo://app?vid=a3a67a57-072f-4b49-b134-613485aa4f8b","ios":"levelo://app?vid=a3a67a57-072f-4b49-b134-613485aa4f8b"},"vehicle_type_id":"4","last_reported":1685570773,"current_range_meters":5600,"station_id":"ce4bgt12rcd13ifvqce0","pricing_plan_id":"free"},{"bike_id":"7a8cd430-dd37-4a8d-b5ff-3141c9f698f4","system_id":"levelo_inurba_marseille","lat":43.31793,"lon":5.38152,"is_reserved":false,"is_disabled":false,"rental_uris":{"android":"levelo://app?vid=7a8cd430-dd37-4a8d-b5ff-3141c9f698f4","ios":"levelo://app?vid=7a8cd430-dd37-4a8d-b5ff-3141c9f698f4"},"vehicle_type_id":"4","last_reported":1685570773,"current_range_meters":3600,"station_id":"","pricing_plan_id":"free"},{"bike_id":"c4276daf-0211-485f-a822-26c3ab061cf5","system_id":"levelo_inurba_marseille","lat":43.30203,"lon":5.37451,"is_reserved":false,"is_disabled":false,"rental_uris":{"android":"levelo://app?vid=c4276daf-0211-485f-a822-26c3ab061cf5","ios":"levelo://app?vid=c4276daf-0211-485f-a822-26c3ab061cf5"},"vehicle_type_id":"4","last_reported":1685570773,"current_range_meters":12800,"station_id":"","pricing_plan_id":"free"},{"bike_id":"9c4eb06a-e32f-4fed-8974-3a073e4fe459","system_id":"levelo_inurba_marseille","lat":43.319935,"lon":5.381699,"is_reserved":false,"is_disabled":false,"rental_uris":{"android":"levelo://app?vid=9c4eb06a-e32f-4fed-8974-3a073e4fe459","ios":"levelo://app?vid=9c4eb06a-e32f-4fed-8974-3a073e4fe459"},"vehicle_type_id":"4","last_reported":1685570773,"current_range_meters":9200,"station_id":"ce4bhr12rcd13ifvqhpg","pricing_plan_id":"free"},{"bike_id":"8122b6a2-1897-433f-8d73-049d77b58160","system_id":"levelo_inurba_marseille","lat":43.319935,"lon":5.381699,"is_reserved":false,"is_disabled":false,"rental_uris":{"android":"levelo://app?vid=8122b6a2-1897-433f-8d73-049d77b58160","ios":"levelo://app?vid=8122b6a2-1897-433f-8d73-049d77b58160"},"vehicle_type_id":"4","last_reported":1685570773,"current_range_meters":2000,"station_id":"ce4bhr12rcd13ifvqhpg","pricing_plan_id":"free"},{"bike_id":"d81a4dd2-5496-4ddd-ba80-4324dc22f878","system_id":"levelo_inurba_marseille","lat":43.31774,"lon":5.38353,"is_reserved":false,"is_disabled":false,"rental_uris":{"android":"levelo://app?vid=d81a4dd2-5496-4ddd-ba80-4324dc22f878","ios":"levelo://app?vid=d81a4dd2-5496-4ddd-ba80-4324dc22f878"},"vehicle_type_id":"4","last_reported":1685570773,"current_range_meters":22400,"station_id":"","pricing_plan_id":"free"},{"bike_id":"a5d2cd5a-cbe5-4fc2-95aa-a7dda521e460","system_id":"levelo_inurba_marseille","lat":43.313571,"lon":5.384829,"is_reserved":false,"is_disabled":false,"rental_uris":{"android":"levelo://app?vid=a5d2cd5a-cbe5-4fc2-95aa-a7dda521e460","ios":"levelo://app?vid=a5d2cd5a-cbe5-4fc2-95aa-a7dda521e460"},"vehicle_type_id":"4","last_reported":1685570773,"current_range_meters":16000,"station_id":"ce4bgt92rcd13ifvqcf0","pricing_plan_id":"free"},{"bike_id":"05e88466-9a75-4db7-a1ad-89fce4915a68","system_id":"levelo_inurba_marseille","lat":43.313571,"lon":5.384829,"is_reserved":false,"is_disabled":false,"rental_uris":{"android":"levelo://app?vid=05e88466-9a75-4db7-a1ad-89fce4915a68","ios":"levelo://app?vid=05e88466-9a75-4db7-a1ad-89fce4915a68"},"vehicle_type_id":"4","last_reported":1685570773,"current_range_meters":13600,"station_id":"ce4bgt92rcd13ifvqcf0","pricing_plan_id":"free"},{"bike_id":"b57cca7d-5d95-4784-8bfd-05e65547db16","system_id":"levelo_inurba_marseille","lat":43.311722,"lon":5.387247,"is_reserved":false,"is_disabled":false,"rental_uris":{"android":"levelo://app?vid=b57cca7d-5d95-4784-8bfd-05e65547db16","ios":"levelo://app?vid=b57cca7d-5d95-4784-8bfd-05e65547db16"},"vehicle_type_id":"4","last_reported":1685570773,"current_range_meters":13200,"station_id":"ce4bgv12rcd13ifvqcp0","pricing_plan_id":"free"},{"bike_id":"e5eaccbe-89dc-4f2e-9cce-2dd8e6a89f25","system_id":"levelo_inurba_marseille","lat":43.311722,"lon":5.387247,"is_reserved":false,"is_disabled":false,"rental_uris":{"android":"levelo://app?vid=e5eaccbe-89dc-4f2e-9cce-2dd8e6a89f25","ios":"levelo://app?vid=e5eaccbe-89dc-4f2e-9cce-2dd8e6a89f25"},"vehicle_type_id":"4","last_reported":1685570773,"current_range_meters":24400,"station_id":"ce4bgv12rcd13ifvqcp0","pricing_plan_id":"free"},{"bike_id":"cbbb12ac-de9d-4ebb-88be-876c8c162830","system_id":"levelo_inurba_marseille","lat":43.299243,"lon":5.374807,"is_reserved":false,"is_disabled":false,"rental_uris":{"android":"levelo://app?vid=cbbb12ac-de9d-4ebb-88be-876c8c162830","ios":"levelo://app?vid=cbbb12ac-de9d-4ebb-88be-876c8c162830"},"vehicle_type_id":"4","last_reported":1685570773,"current_range_meters":16800,"station_id":"ce4bgjh2rcd13ifvqbg0","pricing_plan_id":"free"},{"bike_id":"ef9b071a-ec22-4d73-ab72-a278da68b85d","system_id":"levelo_inurba_marseille","lat":43.311722,"lon":5.387247,"is_reserved":false,"is_disabled":false,"rental_uris":{"android":"levelo://app?vid=ef9b071a-ec22-4d73-ab72-a278da68b85d","ios":"levelo://app?vid=ef9b071a-ec22-4d73-ab72-a278da68b85d"},"vehicle_type_id":"4","last_reported":1685570773,"current_range_meters":28400,"station_id":"ce4bgv12rcd13ifvqcp0","pricing_plan_id":"free"},{"bike_id":"70391df2-0953-4070-ae8f-f32d5ed59daf","system_id":"levelo_inurba_marseille","lat":43.311722,"lon":5.387247,"is_reserved":false,"is_disabled":false,"rental_uris":{"android":"levelo://app?vid=70391df2-0953-4070-ae8f-f32d5ed59daf","ios":"levelo://app?vid=70391df2-0953-4070-ae8f-f32d5ed59daf"},"vehicle_type_id":"4","last_reported":1685570773,"current_range_meters":9200,"station_id":"ce4bgv12rcd13ifvqcp0","pricing_plan_id":"free"},{"bike_id":"a2cd6ad4-78f9-4f7a-a40a-1873a2f55e3b","system_id":"levelo_inurba_marseille","lat":43.297774,"lon":5.370875,"is_reserved":false,"is_disabled":false,"rental_uris":{"android":"levelo://app?vid=a2cd6ad4-78f9-4f7a-a40a-1873a2f55e3b","ios":"levelo://app?vid=a2cd6ad4-78f9-4f7a-a40a-1873a2f55e3b"},"vehicle_type_id":"4","last_reported":1685570773,"current_range_meters":10400,"station_id":"ce4bgop2rcd13ifvqc1g","pricing_plan_id":"free"},{"bike_id":"7c009b87-e835-4534-bfc0-40404c5c0199","system_id":"levelo_inurba_marseille","lat":43.32836,"lon":5.36684,"is_reserved":false,"is_disabled":false,"rental_uris":{"android":"levelo://app?vid=7c009b87-e835-4534-bfc0-40404c5c0199","ios":"levelo://app?vid=7c009b87-e835-4534-bfc0-40404c5c0199"},"vehicle_type_id":"4","last_reported":1685570773,"current_range_meters":19200,"station_id":"ce4bhs92rcd13ifvqi0g","pricing_plan_id":"free"},{"bike_id":"fd718ae2-bd99-428e-bbb7-a79d5a12d726","system_id":"levelo_inurba_marseille","lat":43.30178,"lon":5.38285,"is_reserved":false,"is_disabled":false,"rental_uris":{"android":"levelo://app?vid=fd718ae2-bd99-428e-bbb7-a79d5a12d726","ios":"levelo://app?vid=fd718ae2-bd99-428e-bbb7-a79d5a12d726"},"vehicle_type_id":"4","last_reported":1685570773,"current_range_meters":11600,"station_id":"","pricing_plan_id":"free"},{"bike_id":"8c831443-7c11-494f-bd59-cd62383b4d6b","system_id":"levelo_inurba_marseille","lat":43.29633,"lon":5.36859,"is_reserved":false,"is_disabled":false,"rental_uris":{"android":"levelo://app?vid=8c831443-7c11-494f-bd59-cd62383b4d6b","ios":"levelo://app?vid=8c831443-7c11-494f-bd59-cd62383b4d6b"},"vehicle_type_id":"4","last_reported":1685570773,"current_range_meters":26000,"station_id":"","pricing_plan_id":"free"},{"bike_id":"34345437-e016-4824-a450-f600709f5ad4","system_id":"levelo_inurba_marseille","lat":43.29904,"lon":5.38136,"is_reserved":false,"is_disabled":false,"rental_uris":{"android":"levelo://app?vid=34345437-e016-4824-a450-f600709f5ad4","ios":"levelo://app?vid=34345437-e016-4824-a450-f600709f5ad4"},"vehicle_type_id":"4","last_reported":1685570773,"current_range_meters":0,"station_id":"ce4bgj12rcd13ifvqbc0","pricing_plan_id":"free"},{"bike_id":"7ca6454c-0ccc-48f9-929c-19961b90a964","system_id":"levelo_inurba_marseille","lat":43.29705,"lon":5.37691,"is_reserved":false,"is_disabled":false,"rental_uris":{"android":"levelo://app?vid=7ca6454c-0ccc-48f9-929c-19961b90a964","ios":"levelo://app?vid=7ca6454c-0ccc-48f9-929c-19961b90a964"},"vehicle_type_id":"4","last_reported":1685570773,"current_range_meters":28000,"station_id":"","pricing_plan_id":"free"},{"bike_id":"460670cd-eced-4d38-93b3-e1e18ca47848","system_id":"levelo_inurba_marseille","lat":43.309589,"lon":5.390258,"is_reserved":false,"is_disabled":false,"rental_uris":{"android":"levelo://app?vid=460670cd-eced-4d38-93b3-e1e18ca47848","ios":"levelo://app?vid=460670cd-eced-4d38-93b3-e1e18ca47848"},"vehicle_type_id":"4","last_reported":1685570773,"current_range_meters":26800,"station_id":"ce4bgup2rcd13ifvqco0","pricing_plan_id":"free"},{"bike_id":"eb563228-0193-49ec-8167-30f5fa9e686c","system_id":"levelo_inurba_marseille","lat":43.296921,"lon":5.376579,"is_reserved":false,"is_disabled":false,"rental_uris":{"android":"levelo://app?vid=eb563228-0193-49ec-8167-30f5fa9e686c","ios":"levelo://app?vid=eb563228-0193-49ec-8167-30f5fa9e686c"},"vehicle_type_id":"4","last_reported":1685570773,"current_range_meters":4000,"station_id":"ce4bgkh2rcd13ifvqbl0","pricing_plan_id":"free"},{"bike_id":"ff79cac9-a0c2-47f5-bca3-f4edf658c89e","system_id":"levelo_inurba_marseille","lat":43.317557,"lon":5.390173,"is_reserved":false,"is_disabled":false,"rental_uris":{"android":"levelo://app?vid=ff79cac9-a0c2-47f5-bca3-f4edf658c89e","ios":"levelo://app?vid=ff79cac9-a0c2-47f5-bca3-f4edf658c89e"},"vehicle_type_id":"4","last_reported":1685570773,"current_range_meters":1200,"station_id":"ce4bhqp2rcd13ifvqhng","pricing_plan_id":"free"},{"bike_id":"36ae8566-3707-41ea-8f0f-31c724853eee","system_id":"levelo_inurba_marseille","lat":43.31756,"lon":5.3902,"is_reserved":false,"is_disabled":false,"rental_uris":{"android":"levelo://app?vid=36ae8566-3707-41ea-8f0f-31c724853eee","ios":"levelo://app?vid=36ae8566-3707-41ea-8f0f-31c724853eee"},"vehicle_type_id":"4","last_reported":1685570773,"current_range_meters":19200,"station_id":"ce4bhqp2rcd13ifvqhng","pricing_plan_id":"free"},{"bike_id":"4b267e26-2f55-4cdc-9bd9-970d121ad656","system_id":"levelo_inurba_marseille","lat":43.31759,"lon":5.39021,"is_reserved":false,"is_disabled":false,"rental_uris":{"android":"levelo://app?vid=4b267e26-2f55-4cdc-9bd9-970d121ad656","ios":"levelo://app?vid=4b267e26-2f55-4cdc-9bd9-970d121ad656"},"vehicle_type_id":"4","last_reported":1685570773,"current_range_meters":2400,"station_id":"ce4bhqp2rcd13ifvqhng","pricing_plan_id":"free"},{"bike_id":"f770f405-5f96-48f1-a8f7-d86863a7c3e8","system_id":"levelo_inurba_marseille","lat":43.31762,"lon":5.3902,"is_reserved":false,"is_disabled":false,"rental_uris":{"android":"levelo://app?vid=f770f405-5f96-48f1-a8f7-d86863a7c3e8","ios":"levelo://app?vid=f770f405-5f96-48f1-a8f7-d86863a7c3e8"},"vehicle_type_id":"4","last_reported":1685570773,"current_range_meters":0,"station_id":"ce4bhqp2rcd13ifvqhng","pricing_plan_id":"free"},{"bike_id":"a608eb4a-1121-492f-8445-08c05e0a3f81","system_id":"levelo_inurba_marseille","lat":43.29504,"lon":5.3633,"is_reserved":false,"is_disabled":false,"rental_uris":{"android":"levelo://app?vid=a608eb4a-1121-492f-8445-08c05e0a3f81","ios":"levelo://app?vid=a608eb4a-1121-492f-8445-08c05e0a3f81"},"vehicle_type_id":"4","last_reported":1685570773,"current_range_meters":10400,"station_id":"","pricing_plan_id":"free"},{"bike_id":"1acccbb7-9822-4998-b043-caed80ce9dfd","system_id":"levelo_inurba_marseille","lat":43.295675,"lon":5.375256,"is_reserved":false,"is_disabled":false,"rental_uris":{"android":"levelo://app?vid=1acccbb7-9822-4998-b043-caed80ce9dfd","ios":"levelo://app?vid=1acccbb7-9822-4998-b043-caed80ce9dfd"},"vehicle_type_id":"4","last_reported":1685570773,"current_range_meters":4800,"station_id":"","pricing_plan_id":"free"},{"bike_id":"5dd726c3-6d88-42ef-94cb-0ce562381509","system_id":"levelo_inurba_marseille","lat":43.298037,"lon":5.381066,"is_reserved":false,"is_disabled":false,"rental_uris":{"android":"levelo://app?vid=5dd726c3-6d88-42ef-94cb-0ce562381509","ios":"levelo://app?vid=5dd726c3-6d88-42ef-94cb-0ce562381509"},"vehicle_type_id":"4","last_reported":1685570773,"current_range_meters":13600,"station_id":"ce4bgip2rcd13ifvqbb0","pricing_plan_id":"free"},{"bike_id":"d3a6f8fe-cb75-45b8-91cd-785992833351","system_id":"levelo_inurba_marseille","lat":43.295279,"lon":5.375048,"is_reserved":false,"is_disabled":false,"rental_uris":{"android":"levelo://app?vid=d3a6f8fe-cb75-45b8-91cd-785992833351","ios":"levelo://app?vid=d3a6f8fe-cb75-45b8-91cd-785992833351"},"vehicle_type_id":"4","last_reported":1685570773,"current_range_meters":1200,"station_id":"ce4bgkp2rcd13ifvqbmg","pricing_plan_id":"free"},{"bike_id":"5c1ae803-bb83-4405-b753-5d2604b52519","system_id":"levelo_inurba_marseille","lat":43.305059,"lon":5.391047,"is_reserved":false,"is_disabled":false,"rental_uris":{"android":"levelo://app?vid=5c1ae803-bb83-4405-b753-5d2604b52519","ios":"levelo://app?vid=5c1ae803-bb83-4405-b753-5d2604b52519"},"vehicle_type_id":"4","last_reported":1685570773,"current_range_meters":6800,"station_id":"","pricing_plan_id":"free"},{"bike_id":"16209ad7-f1bb-4dc9-90e2-f941f70c6718","system_id":"levelo_inurba_marseille","lat":43.31429,"lon":5.39323,"is_reserved":false,"is_disabled":false,"rental_uris":{"android":"levelo://app?vid=16209ad7-f1bb-4dc9-90e2-f941f70c6718","ios":"levelo://app?vid=16209ad7-f1bb-4dc9-90e2-f941f70c6718"},"vehicle_type_id":"4","last_reported":1685570773,"current_range_meters":400,"station_id":"","pricing_plan_id":"free"},{"bike_id":"fc2d505d-ec8a-4ee8-be56-159f01226b32","system_id":"levelo_inurba_marseille","lat":43.32367,"lon":5.388836,"is_reserved":false,"is_disabled":false,"rental_uris":{"android":"levelo://app?vid=fc2d505d-ec8a-4ee8-be56-159f01226b32","ios":"levelo://app?vid=fc2d505d-ec8a-4ee8-be56-159f01226b32"},"vehicle_type_id":"4","last_reported":1685570773,"current_range_meters":11600,"station_id":"ce4bhqp2rcd13ifvqhog","pricing_plan_id":"free"},{"bike_id":"44437fa6-a312-44d3-bb14-1b6ba0aa8ca4","system_id":"levelo_inurba_marseille","lat":43.32367,"lon":5.388836,"is_reserved":false,"is_disabled":false,"rental_uris":{"android":"levelo://app?vid=44437fa6-a312-44d3-bb14-1b6ba0aa8ca4","ios":"levelo://app?vid=44437fa6-a312-44d3-bb14-1b6ba0aa8ca4"},"vehicle_type_id":"4","last_reported":1685570773,"current_range_meters":11600,"station_id":"ce4bhqp2rcd13ifvqhog","pricing_plan_id":"free"},{"bike_id":"f823caa4-8853-45ce-8a51-a76fb6658442","system_id":"levelo_inurba_marseille","lat":43.32367,"lon":5.388836,"is_reserved":false,"is_disabled":false,"rental_uris":{"android":"levelo://app?vid=f823caa4-8853-45ce-8a51-a76fb6658442","ios":"levelo://app?vid=f823caa4-8853-45ce-8a51-a76fb6658442"},"vehicle_type_id":"4","last_reported":1685570773,"current_range_meters":4800,"station_id":"ce4bhqp2rcd13ifvqhog","pricing_plan_id":"free"},{"bike_id":"e7b5c29b-8a9f-4e14-b026-09394ecb58f0","system_id":"levelo_inurba_marseille","lat":43.32367,"lon":5.388836,"is_reserved":false,"is_disabled":false,"rental_uris":{"android":"levelo://app?vid=e7b5c29b-8a9f-4e14-b026-09394ecb58f0","ios":"levelo://app?vid=e7b5c29b-8a9f-4e14-b026-09394ecb58f0"},"vehicle_type_id":"4","last_reported":1685570773,"current_range_meters":11200,"station_id":"ce4bhqp2rcd13ifvqhog","pricing_plan_id":"free"},{"bike_id":"bd3d7178-6daa-4b22-b9a0-679e8b7fd598","system_id":"levelo_inurba_marseille","lat":43.32367,"lon":5.388836,"is_reserved":false,"is_disabled":false,"rental_uris":{"android":"levelo://app?vid=bd3d7178-6daa-4b22-b9a0-679e8b7fd598","ios":"levelo://app?vid=bd3d7178-6daa-4b22-b9a0-679e8b7fd598"},"vehicle_type_id":"4","last_reported":1685570773,"current_range_meters":18800,"station_id":"ce4bhqp2rcd13ifvqhog","pricing_plan_id":"free"},{"bike_id":"aa27ea23-1a5b-4b89-94c0-8bcd95e16977","system_id":"levelo_inurba_marseille","lat":43.32367,"lon":5.388836,"is_reserved":false,"is_disabled":false,"rental_uris":{"android":"levelo://app?vid=aa27ea23-1a5b-4b89-94c0-8bcd95e16977","ios":"levelo://app?vid=aa27ea23-1a5b-4b89-94c0-8bcd95e16977"},"vehicle_type_id":"4","last_reported":1685570773,"current_range_meters":8800,"station_id":"ce4bhqp2rcd13ifvqhog","pricing_plan_id":"free"},{"bike_id":"8a8eb0b7-fc16-44b6-96e6-eb923e795629","system_id":"levelo_inurba_marseille","lat":43.32367,"lon":5.38885,"is_reserved":false,"is_disabled":false,"rental_uris":{"android":"levelo://app?vid=8a8eb0b7-fc16-44b6-96e6-eb923e795629","ios":"levelo://app?vid=8a8eb0b7-fc16-44b6-96e6-eb923e795629"},"vehicle_type_id":"4","last_reported":1685570773,"current_range_meters":3200,"station_id":"ce4bhqp2rcd13ifvqhog","pricing_plan_id":"free"},{"bike_id":"a214d54c-3887-45b9-9b9d-8de90d05aaa7","system_id":"levelo_inurba_marseille","lat":43.292749,"lon":5.368402,"is_reserved":false,"is_disabled":false,"rental_uris":{"android":"levelo://app?vid=a214d54c-3887-45b9-9b9d-8de90d05aaa7","ios":"levelo://app?vid=a214d54c-3887-45b9-9b9d-8de90d05aaa7"},"vehicle_type_id":"4","last_reported":1685570773,"current_range_meters":3200,"station_id":"ce4bhbp2rcd13ifvqesg","pricing_plan_id":"free"},{"bike_id":"55a4c24f-7b05-4933-9711-fe0d1669cfe3","system_id":"levelo_inurba_marseille","lat":43.292749,"lon":5.368402,"is_reserved":false,"is_disabled":false,"rental_uris":{"android":"levelo://app?vid=55a4c24f-7b05-4933-9711-fe0d1669cfe3","ios":"levelo://app?vid=55a4c24f-7b05-4933-9711-fe0d1669cfe3"},"vehicle_type_id":"4","last_reported":1685570773,"current_range_meters":0,"station_id":"ce4bhbp2rcd13ifvqesg","pricing_plan_id":"free"},{"bike_id":"0b13fb16-df1c-4d90-9b32-64e421796472","system_id":"levelo_inurba_marseille","lat":43.305994,"lon":5.393687,"is_reserved":false,"is_disabled":false,"rental_uris":{"android":"levelo://app?vid=0b13fb16-df1c-4d90-9b32-64e421796472","ios":"levelo://app?vid=0b13fb16-df1c-4d90-9b32-64e421796472"},"vehicle_type_id":"4","last_reported":1685570773,"current_range_meters":2000,"station_id":"ce4bh0p2rcd13ifvqd80","pricing_plan_id":"free"},{"bike_id":"26376895-be1e-4aca-85f6-dd42e5bb2970","system_id":"levelo_inurba_marseille","lat":43.305994,"lon":5.393687,"is_reserved":false,"is_disabled":false,"rental_uris":{"android":"levelo://app?vid=26376895-be1e-4aca-85f6-dd42e5bb2970","ios":"levelo://app?vid=26376895-be1e-4aca-85f6-dd42e5bb2970"},"vehicle_type_id":"4","last_reported":1685570773,"current_range_meters":8400,"station_id":"ce4bh0p2rcd13ifvqd80","pricing_plan_id":"free"},{"bike_id":"f92c5e94-29fb-4655-be29-867e8a6daee1","system_id":"levelo_inurba_marseille","lat":43.30301,"lon":5.39205,"is_reserved":false,"is_disabled":false,"rental_uris":{"android":"levelo://app?vid=f92c5e94-29fb-4655-be29-867e8a6daee1","ios":"levelo://app?vid=f92c5e94-29fb-4655-be29-867e8a6daee1"},"vehicle_type_id":"4","last_reported":1685570773,"current_range_meters":0,"station_id":"ce4bgkh2rcd13ifvqbk0","pricing_plan_id":"free"},{"bike_id":"4b358f8f-91ce-4a50-ab3a-8f18076272fb","system_id":"levelo_inurba_marseille","lat":43.303002,"lon":5.392142,"is_reserved":false,"is_disabled":false,"rental_uris":{"android":"levelo://app?vid=4b358f8f-91ce-4a50-ab3a-8f18076272fb","ios":"levelo://app?vid=4b358f8f-91ce-4a50-ab3a-8f18076272fb"},"vehicle_type_id":"4","last_reported":1685570773,"current_range_meters":21600,"station_id":"ce4bgkh2rcd13ifvqbk0","pricing_plan_id":"free"},{"bike_id":"1858718f-3568-4f54-a03f-a6ce30497187","system_id":"levelo_inurba_marseille","lat":43.300852,"lon":5.390859,"is_reserved":false,"is_disabled":false,"rental_uris":{"android":"levelo://app?vid=1858718f-3568-4f54-a03f-a6ce30497187","ios":"levelo://app?vid=1858718f-3568-4f54-a03f-a6ce30497187"},"vehicle_type_id":"4","last_reported":1685570773,"current_range_meters":3200,"station_id":"ce4bh192rcd13ifvqdb0","pricing_plan_id":"free"},{"bike_id":"23f0f68f-0901-442b-abfa-adc27c543e84","system_id":"levelo_inurba_marseille","lat":43.30089,"lon":5.39078,"is_reserved":false,"is_disabled":false,"rental_uris":{"android":"levelo://app?vid=23f0f68f-0901-442b-abfa-adc27c543e84","ios":"levelo://app?vid=23f0f68f-0901-442b-abfa-adc27c543e84"},"vehicle_type_id":"4","last_reported":1685570773,"current_range_meters":800,"station_id":"ce4bh192rcd13ifvqdb0","pricing_plan_id":"free"},{"bike_id":"3e7cc03e-1a66-4e75-a172-6aac9c856fb0","system_id":"levelo_inurba_marseille","lat":43.292311,"lon":5.360731,"is_reserved":false,"is_disabled":false,"rental_uris":{"android":"levelo://app?vid=3e7cc03e-1a66-4e75-a172-6aac9c856fb0","ios":"levelo://app?vid=3e7cc03e-1a66-4e75-a172-6aac9c856fb0"},"vehicle_type_id":"4","last_reported":1685570773,"current_range_meters":3200,"station_id":"ce4bhbh2rcd13ifvqeqg","pricing_plan_id":"free"},{"bike_id":"d7a39ad4-b024-42ee-b071-56489df0d5a1","system_id":"levelo_inurba_marseille","lat":43.33228,"lon":5.37859,"is_reserved":false,"is_disabled":false,"rental_uris":{"android":"levelo://app?vid=d7a39ad4-b024-42ee-b071-56489df0d5a1","ios":"levelo://app?vid=d7a39ad4-b024-42ee-b071-56489df0d5a1"},"vehicle_type_id":"4","last_reported":1685570773,"current_range_meters":400,"station_id":"","pricing_plan_id":"free"},{"bike_id":"cf8c79c3-5f71-448f-af06-c106cdd30302","system_id":"levelo_inurba_marseille","lat":43.298764,"lon":5.388973,"is_reserved":false,"is_disabled":false,"rental_uris":{"android":"levelo://app?vid=cf8c79c3-5f71-448f-af06-c106cdd30302","ios":"levelo://app?vid=cf8c79c3-5f71-448f-af06-c106cdd30302"},"vehicle_type_id":"4","last_reported":1685570773,"current_range_meters":2400,"station_id":"ce4bh392rcd13ifvqdl0","pricing_plan_id":"free"},{"bike_id":"5b1155f9-9f98-4f89-bdcf-34ff32bf4ddb","system_id":"levelo_inurba_marseille","lat":43.31923,"lon":5.39554,"is_reserved":false,"is_disabled":false,"rental_uris":{"android":"levelo://app?vid=5b1155f9-9f98-4f89-bdcf-34ff32bf4ddb","ios":"levelo://app?vid=5b1155f9-9f98-4f89-bdcf-34ff32bf4ddb"},"vehicle_type_id":"4","last_reported":1685570773,"current_range_meters":10400,"station_id":"","pricing_plan_id":"free"},{"bike_id":"e8bd221c-0364-463b-b9fb-acb41a81effe","system_id":"levelo_inurba_marseille","lat":43.31327,"lon":5.39689,"is_reserved":false,"is_disabled":false,"rental_uris":{"android":"levelo://app?vid=e8bd221c-0364-463b-b9fb-acb41a81effe","ios":"levelo://app?vid=e8bd221c-0364-463b-b9fb-acb41a81effe"},"vehicle_type_id":"4","last_reported":1685570773,"current_range_meters":2000,"station_id":"ce4bgvp2rcd13ifvqcu0","pricing_plan_id":"free"},{"bike_id":"84125dcd-4e7d-4d8c-bd73-b8aecc39155a","system_id":"levelo_inurba_marseille","lat":43.313291,"lon":5.396838,"is_reserved":false,"is_disabled":false,"rental_uris":{"android":"levelo://app?vid=84125dcd-4e7d-4d8c-bd73-b8aecc39155a","ios":"levelo://app?vid=84125dcd-4e7d-4d8c-bd73-b8aecc39155a"},"vehicle_type_id":"4","last_reported":1685570773,"current_range_meters":21600,"station_id":"ce4bgvp2rcd13ifvqcu0","pricing_plan_id":"free"},{"bike_id":"48bf913a-1ea2-4658-bb85-9ae89d5f37b5","system_id":"levelo_inurba_marseille","lat":43.309038,"lon":5.396546,"is_reserved":false,"is_disabled":false,"rental_uris":{"android":"levelo://app?vid=48bf913a-1ea2-4658-bb85-9ae89d5f37b5","ios":"levelo://app?vid=48bf913a-1ea2-4658-bb85-9ae89d5f37b5"},"vehicle_type_id":"4","last_reported":1685570773,"current_range_meters":13600,"station_id":"ce4bh012rcd13ifvqcv0","pricing_plan_id":"free"},{"bike_id":"d2f774ae-fc60-41e7-825a-1ea807f96c7c","system_id":"levelo_inurba_marseille","lat":43.30889,"lon":5.39653,"is_reserved":false,"is_disabled":false,"rental_uris":{"android":"levelo://app?vid=d2f774ae-fc60-41e7-825a-1ea807f96c7c","ios":"levelo://app?vid=d2f774ae-fc60-41e7-825a-1ea807f96c7c"},"vehicle_type_id":"4","last_reported":1685570773,"current_range_meters":400,"station_id":"ce4bh012rcd13ifvqcv0","pricing_plan_id":"free"},{"bike_id":"0df635b8-8310-4a9c-ae00-a5892cdf0f39","system_id":"levelo_inurba_marseille","lat":43.309038,"lon":5.396546,"is_reserved":false,"is_disabled":false,"rental_uris":{"android":"levelo://app?vid=0df635b8-8310-4a9c-ae00-a5892cdf0f39","ios":"levelo://app?vid=0df635b8-8310-4a9c-ae00-a5892cdf0f39"},"vehicle_type_id":"4","last_reported":1685570773,"current_range_meters":9600,"station_id":"ce4bh012rcd13ifvqcv0","pricing_plan_id":"free"},{"bike_id":"81ae9b2b-442e-4931-a31e-af84ee6e4a93","system_id":"levelo_inurba_marseille","lat":43.29529,"lon":5.385581,"is_reserved":false,"is_disabled":false,"rental_uris":{"android":"levelo://app?vid=81ae9b2b-442e-4931-a31e-af84ee6e4a93","ios":"levelo://app?vid=81ae9b2b-442e-4931-a31e-af84ee6e4a93"},"vehicle_type_id":"4","last_reported":1685570773,"current_range_meters":2800,"station_id":"ce4bgih2rcd13ifvqba0","pricing_plan_id":"free"},{"bike_id":"12c7115b-09c7-4479-98bd-dce30439e768","system_id":"levelo_inurba_marseille","lat":43.290624,"lon":5.359245,"is_reserved":false,"is_disabled":false,"rental_uris":{"android":"levelo://app?vid=12c7115b-09c7-4479-98bd-dce30439e768","ios":"levelo://app?vid=12c7115b-09c7-4479-98bd-dce30439e768"},"vehicle_type_id":"4","last_reported":1685570773,"current_range_meters":22000,"station_id":"ce4bha92rcd13ifvqeg0","pricing_plan_id":"free"},{"bike_id":"1cdede8e-d158-460a-8bfd-933a7c43058e","system_id":"levelo_inurba_marseille","lat":43.289184,"lon":5.366408,"is_reserved":false,"is_disabled":false,"rental_uris":{"android":"levelo://app?vid=1cdede8e-d158-460a-8bfd-933a7c43058e","ios":"levelo://app?vid=1cdede8e-d158-460a-8bfd-933a7c43058e"},"vehicle_type_id":"4","last_reported":1685570773,"current_range_meters":22000,"station_id":"ce4bhap2rcd13ifvqek0","pricing_plan_id":"free"},{"bike_id":"c8e53bc6-e03d-4ad5-9e1e-d936842e0ce6","system_id":"levelo_inurba_marseille","lat":43.289184,"lon":5.366408,"is_reserved":false,"is_disabled":false,"rental_uris":{"android":"levelo://app?vid=c8e53bc6-e03d-4ad5-9e1e-d936842e0ce6","ios":"levelo://app?vid=c8e53bc6-e03d-4ad5-9e1e-d936842e0ce6"},"vehicle_type_id":"4","last_reported":1685570773,"current_range_meters":4400,"station_id":"ce4bhap2rcd13ifvqek0","pricing_plan_id":"free"},{"bike_id":"a33bd27d-9dad-4052-8b7e-2ca9018c3205","system_id":"levelo_inurba_marseille","lat":43.289184,"lon":5.366408,"is_reserved":false,"is_disabled":false,"rental_uris":{"android":"levelo://app?vid=a33bd27d-9dad-4052-8b7e-2ca9018c3205","ios":"levelo://app?vid=a33bd27d-9dad-4052-8b7e-2ca9018c3205"},"vehicle_type_id":"4","last_reported":1685570773,"current_range_meters":11600,"station_id":"ce4bhap2rcd13ifvqek0","pricing_plan_id":"free"},{"bike_id":"5097489b-c941-48a4-bfd5-d80a38eb4f28","system_id":"levelo_inurba_marseille","lat":43.289184,"lon":5.366408,"is_reserved":false,"is_disabled":false,"rental_uris":{"android":"levelo://app?vid=5097489b-c941-48a4-bfd5-d80a38eb4f28","ios":"levelo://app?vid=5097489b-c941-48a4-bfd5-d80a38eb4f28"},"vehicle_type_id":"4","last_reported":1685570773,"current_range_meters":30000,"station_id":"ce4bhap2rcd13ifvqek0","pricing_plan_id":"free"},{"bike_id":"4cffe551-31a4-41be-903e-5624bc0ad10b","system_id":"levelo_inurba_marseille","lat":43.289184,"lon":5.366408,"is_reserved":false,"is_disabled":false,"rental_uris":{"android":"levelo://app?vid=4cffe551-31a4-41be-903e-5624bc0ad10b","ios":"levelo://app?vid=4cffe551-31a4-41be-903e-5624bc0ad10b"},"vehicle_type_id":"4","last_reported":1685570773,"current_range_meters":14000,"station_id":"ce4bhap2rcd13ifvqek0","pricing_plan_id":"free"},{"bike_id":"15032fdb-e0be-4d75-bc53-af6b76f45445","system_id":"levelo_inurba_marseille","lat":43.28938,"lon":5.36635,"is_reserved":false,"is_disabled":false,"rental_uris":{"android":"levelo://app?vid=15032fdb-e0be-4d75-bc53-af6b76f45445","ios":"levelo://app?vid=15032fdb-e0be-4d75-bc53-af6b76f45445"},"vehicle_type_id":"4","last_reported":1685570773,"current_range_meters":11200,"station_id":"ce4bhap2rcd13ifvqek0","pricing_plan_id":"free"},{"bike_id":"e4fe744f-3f53-4cfb-a57a-d2370593cc54","system_id":"levelo_inurba_marseille","lat":43.289184,"lon":5.366408,"is_reserved":false,"is_disabled":false,"rental_uris":{"android":"levelo://app?vid=e4fe744f-3f53-4cfb-a57a-d2370593cc54","ios":"levelo://app?vid=e4fe744f-3f53-4cfb-a57a-d2370593cc54"},"vehicle_type_id":"4","last_reported":1685570773,"current_range_meters":20000,"station_id":"ce4bhap2rcd13ifvqek0","pricing_plan_id":"free"},{"bike_id":"1049fd3c-61ad-4eef-a74e-b2f2b0bb5505","system_id":"levelo_inurba_marseille","lat":43.28937,"lon":5.36634,"is_reserved":false,"is_disabled":false,"rental_uris":{"android":"levelo://app?vid=1049fd3c-61ad-4eef-a74e-b2f2b0bb5505","ios":"levelo://app?vid=1049fd3c-61ad-4eef-a74e-b2f2b0bb5505"},"vehicle_type_id":"4","last_reported":1685570773,"current_range_meters":2000,"station_id":"ce4bhap2rcd13ifvqek0","pricing_plan_id":"free"},{"bike_id":"cf76b3a3-49ba-443c-95a1-e0154c59c009","system_id":"levelo_inurba_marseille","lat":43.289184,"lon":5.366408,"is_reserved":false,"is_disabled":false,"rental_uris":{"android":"levelo://app?vid=cf76b3a3-49ba-443c-95a1-e0154c59c009","ios":"levelo://app?vid=cf76b3a3-49ba-443c-95a1-e0154c59c009"},"vehicle_type_id":"4","last_reported":1685570773,"current_range_meters":12000,"station_id":"ce4bhap2rcd13ifvqek0","pricing_plan_id":"free"},{"bike_id":"5dc09008-9e94-4aa1-b95b-94a13d1a2d48","system_id":"levelo_inurba_marseille","lat":43.28935,"lon":5.36635,"is_reserved":false,"is_disabled":false,"rental_uris":{"android":"levelo://app?vid=5dc09008-9e94-4aa1-b95b-94a13d1a2d48","ios":"levelo://app?vid=5dc09008-9e94-4aa1-b95b-94a13d1a2d48"},"vehicle_type_id":"4","last_reported":1685570773,"current_range_meters":8400,"station_id":"ce4bhap2rcd13ifvqek0","pricing_plan_id":"free"},{"bike_id":"772473ec-3d2c-4253-844b-c77be1da3150","system_id":"levelo_inurba_marseille","lat":43.289184,"lon":5.366408,"is_reserved":false,"is_disabled":false,"rental_uris":{"android":"levelo://app?vid=772473ec-3d2c-4253-844b-c77be1da3150","ios":"levelo://app?vid=772473ec-3d2c-4253-844b-c77be1da3150"},"vehicle_type_id":"4","last_reported":1685570773,"current_range_meters":27200,"station_id":"ce4bhap2rcd13ifvqek0","pricing_plan_id":"free"},{"bike_id":"9e54946c-739f-445b-b118-c0761b0f5163","system_id":"levelo_inurba_marseille","lat":43.289184,"lon":5.366408,"is_reserved":false,"is_disabled":false,"rental_uris":{"android":"levelo://app?vid=9e54946c-739f-445b-b118-c0761b0f5163","ios":"levelo://app?vid=9e54946c-739f-445b-b118-c0761b0f5163"},"vehicle_type_id":"4","last_reported":1685570773,"current_range_meters":31200,"station_id":"ce4bhap2rcd13ifvqek0","pricing_plan_id":"free"},{"bike_id":"e4dc9e53-7503-4a4c-8c43-f49a00c79ada","system_id":"levelo_inurba_marseille","lat":43.329862,"lon":5.389192,"is_reserved":false,"is_disabled":false,"rental_uris":{"android":"levelo://app?vid=e4dc9e53-7503-4a4c-8c43-f49a00c79ada","ios":"levelo://app?vid=e4dc9e53-7503-4a4c-8c43-f49a00c79ada"},"vehicle_type_id":"4","last_reported":1685570773,"current_range_meters":14000,"station_id":"","pricing_plan_id":"free"},{"bike_id":"fe902818-9785-4482-8a61-9adfa26a5d85","system_id":"levelo_inurba_marseille","lat":43.292642,"lon":5.384254,"is_reserved":false,"is_disabled":false,"rental_uris":{"android":"levelo://app?vid=fe902818-9785-4482-8a61-9adfa26a5d85","ios":"levelo://app?vid=fe902818-9785-4482-8a61-9adfa26a5d85"},"vehicle_type_id":"4","last_reported":1685570773,"current_range_meters":10800,"station_id":"ce4bh692rcd13ifvqea0","pricing_plan_id":"free"},{"bike_id":"943f1edd-0699-4c59-91bd-be015231347e","system_id":"levelo_inurba_marseille","lat":43.33043,"lon":5.38916,"is_reserved":false,"is_disabled":false,"rental_uris":{"android":"levelo://app?vid=943f1edd-0699-4c59-91bd-be015231347e","ios":"levelo://app?vid=943f1edd-0699-4c59-91bd-be015231347e"},"vehicle_type_id":"4","last_reported":1685570773,"current_range_meters":0,"station_id":"ce4bhr92rcd13ifvqhrg","pricing_plan_id":"free"},{"bike_id":"a97597ab-b3ef-458f-8f98-96fbd0b7add5","system_id":"levelo_inurba_marseille","lat":43.33045,"lon":5.38917,"is_reserved":false,"is_disabled":false,"rental_uris":{"android":"levelo://app?vid=a97597ab-b3ef-458f-8f98-96fbd0b7add5","ios":"levelo://app?vid=a97597ab-b3ef-458f-8f98-96fbd0b7add5"},"vehicle_type_id":"4","last_reported":1685570773,"current_range_meters":24000,"station_id":"ce4bhr92rcd13ifvqhrg","pricing_plan_id":"free"},{"bike_id":"e61e4c95-8a63-47af-8142-7de9fbfc5a6e","system_id":"levelo_inurba_marseille","lat":43.33048,"lon":5.38916,"is_reserved":false,"is_disabled":false,"rental_uris":{"android":"levelo://app?vid=e61e4c95-8a63-47af-8142-7de9fbfc5a6e","ios":"levelo://app?vid=e61e4c95-8a63-47af-8142-7de9fbfc5a6e"},"vehicle_type_id":"4","last_reported":1685570773,"current_range_meters":5600,"station_id":"ce4bhr92rcd13ifvqhrg","pricing_plan_id":"free"},{"bike_id":"8da7bbf6-b999-4b8f-8628-f7bfa76d9363","system_id":"levelo_inurba_marseille","lat":43.3305,"lon":5.38915,"is_reserved":false,"is_disabled":false,"rental_uris":{"android":"levelo://app?vid=8da7bbf6-b999-4b8f-8628-f7bfa76d9363","ios":"levelo://app?vid=8da7bbf6-b999-4b8f-8628-f7bfa76d9363"},"vehicle_type_id":"4","last_reported":1685570773,"current_range_meters":22400,"station_id":"ce4bhr92rcd13ifvqhrg","pricing_plan_id":"free"},{"bike_id":"2080181f-b51e-4b97-8b54-d0c1dab956f5","system_id":"levelo_inurba_marseille","lat":43.297814,"lon":5.393513,"is_reserved":false,"is_disabled":false,"rental_uris":{"android":"levelo://app?vid=2080181f-b51e-4b97-8b54-d0c1dab956f5","ios":"levelo://app?vid=2080181f-b51e-4b97-8b54-d0c1dab956f5"},"vehicle_type_id":"4","last_reported":1685570773,"current_range_meters":0,"station_id":"chh1huq6cuj3fo74tm60","pricing_plan_id":"free"},{"bike_id":"4b4b5e29-68e8-4588-802b-a957500b04c1","system_id":"levelo_inurba_marseille","lat":43.28856,"lon":5.358371,"is_reserved":false,"is_disabled":false,"rental_uris":{"android":"levelo://app?vid=4b4b5e29-68e8-4588-802b-a957500b04c1","ios":"levelo://app?vid=4b4b5e29-68e8-4588-802b-a957500b04c1"},"vehicle_type_id":"4","last_reported":1685570773,"current_range_meters":15600,"station_id":"ce4bhb12rcd13ifvqem0","pricing_plan_id":"free"},{"bike_id":"7a61d8c9-14c9-4711-80a6-b3c8aceea5a4","system_id":"levelo_inurba_marseille","lat":43.28856,"lon":5.358371,"is_reserved":false,"is_disabled":false,"rental_uris":{"android":"levelo://app?vid=7a61d8c9-14c9-4711-80a6-b3c8aceea5a4","ios":"levelo://app?vid=7a61d8c9-14c9-4711-80a6-b3c8aceea5a4"},"vehicle_type_id":"4","last_reported":1685570773,"current_range_meters":14800,"station_id":"ce4bhb12rcd13ifvqem0","pricing_plan_id":"free"},{"bike_id":"141c14ea-594b-43ee-894e-8c44af1dcd73","system_id":"levelo_inurba_marseille","lat":43.33741,"lon":5.37457,"is_reserved":false,"is_disabled":false,"rental_uris":{"android":"levelo://app?vid=141c14ea-594b-43ee-894e-8c44af1dcd73","ios":"levelo://app?vid=141c14ea-594b-43ee-894e-8c44af1dcd73"},"vehicle_type_id":"4","last_reported":1685570773,"current_range_meters":24000,"station_id":"","pricing_plan_id":"free"},{"bike_id":"09d851e0-31be-41a5-9af2-5d089e94030d","system_id":"levelo_inurba_marseille","lat":43.30933,"lon":5.40139,"is_reserved":false,"is_disabled":false,"rental_uris":{"android":"levelo://app?vid=09d851e0-31be-41a5-9af2-5d089e94030d","ios":"levelo://app?vid=09d851e0-31be-41a5-9af2-5d089e94030d"},"vehicle_type_id":"4","last_reported":1685570773,"current_range_meters":19600,"station_id":"","pricing_plan_id":"free"},{"bike_id":"c7942551-36a2-48f0-86d3-473949af1ed6","system_id":"levelo_inurba_marseille","lat":43.33748,"lon":5.3743,"is_reserved":false,"is_disabled":false,"rental_uris":{"android":"levelo://app?vid=c7942551-36a2-48f0-86d3-473949af1ed6","ios":"levelo://app?vid=c7942551-36a2-48f0-86d3-473949af1ed6"},"vehicle_type_id":"4","last_reported":1685570773,"current_range_meters":29200,"station_id":"","pricing_plan_id":"free"},{"bike_id":"556c6db1-2600-4c2b-9521-aae8453517c1","system_id":"levelo_inurba_marseille","lat":43.33748,"lon":5.37445,"is_reserved":false,"is_disabled":false,"rental_uris":{"android":"levelo://app?vid=556c6db1-2600-4c2b-9521-aae8453517c1","ios":"levelo://app?vid=556c6db1-2600-4c2b-9521-aae8453517c1"},"vehicle_type_id":"4","last_reported":1685570773,"current_range_meters":4800,"station_id":"","pricing_plan_id":"free"},{"bike_id":"10c35a87-3b77-4d43-9f56-06c04f8ea76d","system_id":"levelo_inurba_marseille","lat":43.30653,"lon":5.40076,"is_reserved":false,"is_disabled":false,"rental_uris":{"android":"levelo://app?vid=10c35a87-3b77-4d43-9f56-06c04f8ea76d","ios":"levelo://app?vid=10c35a87-3b77-4d43-9f56-06c04f8ea76d"},"vehicle_type_id":"4","last_reported":1685570773,"current_range_meters":15200,"station_id":"ce4bh112rcd13ifvqda0","pricing_plan_id":"free"},{"bike_id":"d8112de5-3496-43cb-8ba9-437621514779","system_id":"levelo_inurba_marseille","lat":43.33756,"lon":5.37439,"is_reserved":false,"is_disabled":false,"rental_uris":{"android":"levelo://app?vid=d8112de5-3496-43cb-8ba9-437621514779","ios":"levelo://app?vid=d8112de5-3496-43cb-8ba9-437621514779"},"vehicle_type_id":"4","last_reported":1685570773,"current_range_meters":29200,"station_id":"","pricing_plan_id":"free"},{"bike_id":"124b13d2-6454-4e12-b0c9-1fa204d1f78c","system_id":"levelo_inurba_marseille","lat":43.33758,"lon":5.3743,"is_reserved":false,"is_disabled":false,"rental_uris":{"android":"levelo://app?vid=124b13d2-6454-4e12-b0c9-1fa204d1f78c","ios":"levelo://app?vid=124b13d2-6454-4e12-b0c9-1fa204d1f78c"},"vehicle_type_id":"4","last_reported":1685570773,"current_range_meters":28400,"station_id":"","pricing_plan_id":"free"},{"bike_id":"6e22d9d1-08b9-43bf-8efb-c62ead4b6932","system_id":"levelo_inurba_marseille","lat":43.3376,"lon":5.37426,"is_reserved":false,"is_disabled":false,"rental_uris":{"android":"levelo://app?vid=6e22d9d1-08b9-43bf-8efb-c62ead4b6932","ios":"levelo://app?vid=6e22d9d1-08b9-43bf-8efb-c62ead4b6932"},"vehicle_type_id":"4","last_reported":1685570773,"current_range_meters":31200,"station_id":"","pricing_plan_id":"free"},{"bike_id":"6d678481-0e0b-436a-aa94-9d12fa2c91f5","system_id":"levelo_inurba_marseille","lat":43.33762,"lon":5.37428,"is_reserved":false,"is_disabled":false,"rental_uris":{"android":"levelo://app?vid=6d678481-0e0b-436a-aa94-9d12fa2c91f5","ios":"levelo://app?vid=6d678481-0e0b-436a-aa94-9d12fa2c91f5"},"vehicle_type_id":"4","last_reported":1685570773,"current_range_meters":30000,"station_id":"","pricing_plan_id":"free"},{"bike_id":"c1da147f-158b-4733-bb7b-fe75e1162cb9","system_id":"levelo_inurba_marseille","lat":43.33762,"lon":5.37453,"is_reserved":false,"is_disabled":false,"rental_uris":{"android":"levelo://app?vid=c1da147f-158b-4733-bb7b-fe75e1162cb9","ios":"levelo://app?vid=c1da147f-158b-4733-bb7b-fe75e1162cb9"},"vehicle_type_id":"4","last_reported":1685570773,"current_range_meters":30000,"station_id":"","pricing_plan_id":"free"},{"bike_id":"276a87da-3953-4ae3-9df3-51f3436e0c00","system_id":"levelo_inurba_marseille","lat":43.30642,"lon":5.401031,"is_reserved":false,"is_disabled":false,"rental_uris":{"android":"levelo://app?vid=276a87da-3953-4ae3-9df3-51f3436e0c00","ios":"levelo://app?vid=276a87da-3953-4ae3-9df3-51f3436e0c00"},"vehicle_type_id":"4","last_reported":1685570773,"current_range_meters":29200,"station_id":"ce4bh112rcd13ifvqda0","pricing_plan_id":"free"},{"bike_id":"bb799a97-3014-4dcf-b257-d4025dc1546d","system_id":"levelo_inurba_marseille","lat":43.33776,"lon":5.37438,"is_reserved":false,"is_disabled":false,"rental_uris":{"android":"levelo://app?vid=bb799a97-3014-4dcf-b257-d4025dc1546d","ios":"levelo://app?vid=bb799a97-3014-4dcf-b257-d4025dc1546d"},"vehicle_type_id":"4","last_reported":1685570773,"current_range_meters":24400,"station_id":"","pricing_plan_id":"free"},{"bike_id":"be70abc3-9b45-4799-9578-b8b91a7f51b2","system_id":"levelo_inurba_marseille","lat":43.28728,"lon":5.37097,"is_reserved":false,"is_disabled":false,"rental_uris":{"android":"levelo://app?vid=be70abc3-9b45-4799-9578-b8b91a7f51b2","ios":"levelo://app?vid=be70abc3-9b45-4799-9578-b8b91a7f51b2"},"vehicle_type_id":"4","last_reported":1685570773,"current_range_meters":25200,"station_id":"","pricing_plan_id":"free"},{"bike_id":"ccbf84a2-23b4-43f1-bb35-5fec376ba0c1","system_id":"levelo_inurba_marseille","lat":43.301117,"lon":5.398795,"is_reserved":false,"is_disabled":false,"rental_uris":{"android":"levelo://app?vid=ccbf84a2-23b4-43f1-bb35-5fec376ba0c1","ios":"levelo://app?vid=ccbf84a2-23b4-43f1-bb35-5fec376ba0c1"},"vehicle_type_id":"4","last_reported":1685570773,"current_range_meters":3200,"station_id":"ce4bh0h2rcd13ifvqd40","pricing_plan_id":"free"},{"bike_id":"45bae6c4-f0d0-4460-9f78-cc35c8b82f80","system_id":"levelo_inurba_marseille","lat":43.28709,"lon":5.37391,"is_reserved":false,"is_disabled":false,"rental_uris":{"android":"levelo://app?vid=45bae6c4-f0d0-4460-9f78-cc35c8b82f80","ios":"levelo://app?vid=45bae6c4-f0d0-4460-9f78-cc35c8b82f80"},"vehicle_type_id":"4","last_reported":1685570773,"current_range_meters":27600,"station_id":"","pricing_plan_id":"free"},{"bike_id":"89136b9c-8497-4fe1-9209-0dc7bc93dacf","system_id":"levelo_inurba_marseille","lat":43.298681,"lon":5.397225,"is_reserved":false,"is_disabled":false,"rental_uris":{"android":"levelo://app?vid=89136b9c-8497-4fe1-9209-0dc7bc93dacf","ios":"levelo://app?vid=89136b9c-8497-4fe1-9209-0dc7bc93dacf"},"vehicle_type_id":"4","last_reported":1685570773,"current_range_meters":3200,"station_id":"ce4bh0h2rcd13ifvqd50","pricing_plan_id":"free"},{"bike_id":"6d65a1d8-3f67-4ca4-9742-9e0fc1d5785c","system_id":"levelo_inurba_marseille","lat":43.286591,"lon":5.363346,"is_reserved":false,"is_disabled":false,"rental_uris":{"android":"levelo://app?vid=6d65a1d8-3f67-4ca4-9742-9e0fc1d5785c","ios":"levelo://app?vid=6d65a1d8-3f67-4ca4-9742-9e0fc1d5785c"},"vehicle_type_id":"4","last_reported":1685570773,"current_range_meters":2800,"station_id":"ce4bhah2rcd13ifvqej0","pricing_plan_id":"free"},{"bike_id":"80222697-d436-4145-983a-05c8a246729c","system_id":"levelo_inurba_marseille","lat":43.286591,"lon":5.363346,"is_reserved":false,"is_disabled":false,"rental_uris":{"android":"levelo://app?vid=80222697-d436-4145-983a-05c8a246729c","ios":"levelo://app?vid=80222697-d436-4145-983a-05c8a246729c"},"vehicle_type_id":"4","last_reported":1685570773,"current_range_meters":1600,"station_id":"ce4bhah2rcd13ifvqej0","pricing_plan_id":"free"},{"bike_id":"00826fa9-bdae-4287-ab20-d106d2e5d966","system_id":"levelo_inurba_marseille","lat":43.286591,"lon":5.363346,"is_reserved":false,"is_disabled":false,"rental_uris":{"android":"levelo://app?vid=00826fa9-bdae-4287-ab20-d106d2e5d966","ios":"levelo://app?vid=00826fa9-bdae-4287-ab20-d106d2e5d966"},"vehicle_type_id":"4","last_reported":1685570773,"current_range_meters":31200,"station_id":"ce4bhah2rcd13ifvqej0","pricing_plan_id":"free"},{"bike_id":"265b1323-5b4d-4ef8-abf2-ebd34fe138f0","system_id":"levelo_inurba_marseille","lat":43.28701,"lon":5.37384,"is_reserved":false,"is_disabled":false,"rental_uris":{"android":"levelo://app?vid=265b1323-5b4d-4ef8-abf2-ebd34fe138f0","ios":"levelo://app?vid=265b1323-5b4d-4ef8-abf2-ebd34fe138f0"},"vehicle_type_id":"4","last_reported":1685570773,"current_range_meters":6800,"station_id":"","pricing_plan_id":"free"},{"bike_id":"9850b2ed-7e6b-4e87-a424-358528ed1b58","system_id":"levelo_inurba_marseille","lat":43.286593,"lon":5.363346,"is_reserved":false,"is_disabled":false,"rental_uris":{"android":"levelo://app?vid=9850b2ed-7e6b-4e87-a424-358528ed1b58","ios":"levelo://app?vid=9850b2ed-7e6b-4e87-a424-358528ed1b58"},"vehicle_type_id":"4","last_reported":1685570773,"current_range_meters":17600,"station_id":"ce4bhah2rcd13ifvqej0","pricing_plan_id":"free"},{"bike_id":"8c69e759-627b-4381-85a1-dbbb2e58a01e","system_id":"levelo_inurba_marseille","lat":43.286593,"lon":5.363346,"is_reserved":false,"is_disabled":false,"rental_uris":{"android":"levelo://app?vid=8c69e759-627b-4381-85a1-dbbb2e58a01e","ios":"levelo://app?vid=8c69e759-627b-4381-85a1-dbbb2e58a01e"},"vehicle_type_id":"4","last_reported":1685570773,"current_range_meters":26000,"station_id":"ce4bhah2rcd13ifvqej0","pricing_plan_id":"free"},{"bike_id":"39e010b7-1a0d-4554-80c5-a9821e22c901","system_id":"levelo_inurba_marseille","lat":43.286591,"lon":5.363346,"is_reserved":false,"is_disabled":false,"rental_uris":{"android":"levelo://app?vid=39e010b7-1a0d-4554-80c5-a9821e22c901","ios":"levelo://app?vid=39e010b7-1a0d-4554-80c5-a9821e22c901"},"vehicle_type_id":"4","last_reported":1685570773,"current_range_meters":400,"station_id":"ce4bhah2rcd13ifvqej0","pricing_plan_id":"free"},{"bike_id":"85dc95d9-9295-4654-a705-a7acfa51794f","system_id":"levelo_inurba_marseille","lat":43.286593,"lon":5.363346,"is_reserved":false,"is_disabled":false,"rental_uris":{"android":"levelo://app?vid=85dc95d9-9295-4654-a705-a7acfa51794f","ios":"levelo://app?vid=85dc95d9-9295-4654-a705-a7acfa51794f"},"vehicle_type_id":"4","last_reported":1685570773,"current_range_meters":30400,"station_id":"ce4bhah2rcd13ifvqej0","pricing_plan_id":"free"},{"bike_id":"2c15b66d-4d17-4faf-81a4-92799e9ba6fd","system_id":"levelo_inurba_marseille","lat":43.286593,"lon":5.363346,"is_reserved":false,"is_disabled":false,"rental_uris":{"android":"levelo://app?vid=2c15b66d-4d17-4faf-81a4-92799e9ba6fd","ios":"levelo://app?vid=2c15b66d-4d17-4faf-81a4-92799e9ba6fd"},"vehicle_type_id":"4","last_reported":1685570773,"current_range_meters":26800,"station_id":"ce4bhah2rcd13ifvqej0","pricing_plan_id":"free"},{"bike_id":"d535c997-c3cd-4e9d-83d9-9b0be1b22ab9","system_id":"levelo_inurba_marseille","lat":43.286591,"lon":5.363346,"is_reserved":false,"is_disabled":false,"rental_uris":{"android":"levelo://app?vid=d535c997-c3cd-4e9d-83d9-9b0be1b22ab9","ios":"levelo://app?vid=d535c997-c3cd-4e9d-83d9-9b0be1b22ab9"},"vehicle_type_id":"4","last_reported":1685570773,"current_range_meters":17200,"station_id":"ce4bhah2rcd13ifvqej0","pricing_plan_id":"free"},{"bike_id":"ddbfe616-03c8-4f77-b838-83ebec52b2f5","system_id":"levelo_inurba_marseille","lat":43.286039,"lon":5.370679,"is_reserved":false,"is_disabled":false,"rental_uris":{"android":"levelo://app?vid=ddbfe616-03c8-4f77-b838-83ebec52b2f5","ios":"levelo://app?vid=ddbfe616-03c8-4f77-b838-83ebec52b2f5"},"vehicle_type_id":"4","last_reported":1685570773,"current_range_meters":28800,"station_id":"ce4bht12rcd13ifvqi60","pricing_plan_id":"free"},{"bike_id":"de5e1364-4f56-4964-a939-cddc8f45dec7","system_id":"levelo_inurba_marseille","lat":43.287184,"lon":5.37937,"is_reserved":false,"is_disabled":false,"rental_uris":{"android":"levelo://app?vid=de5e1364-4f56-4964-a939-cddc8f45dec7","ios":"levelo://app?vid=de5e1364-4f56-4964-a939-cddc8f45dec7"},"vehicle_type_id":"4","last_reported":1685570773,"current_range_meters":28400,"station_id":"ce4bh9p2rcd13ifvqec0","pricing_plan_id":"free"},{"bike_id":"1639e42d-a9f3-4655-8035-cc5acfaf2daa","system_id":"levelo_inurba_marseille","lat":43.287184,"lon":5.37937,"is_reserved":false,"is_disabled":false,"rental_uris":{"android":"levelo://app?vid=1639e42d-a9f3-4655-8035-cc5acfaf2daa","ios":"levelo://app?vid=1639e42d-a9f3-4655-8035-cc5acfaf2daa"},"vehicle_type_id":"4","last_reported":1685570773,"current_range_meters":22000,"station_id":"ce4bh9p2rcd13ifvqec0","pricing_plan_id":"free"},{"bike_id":"d9c5be3b-4d9e-4f17-a4e3-8dcfb97cacee","system_id":"levelo_inurba_marseille","lat":43.287185,"lon":5.379373,"is_reserved":false,"is_disabled":false,"rental_uris":{"android":"levelo://app?vid=d9c5be3b-4d9e-4f17-a4e3-8dcfb97cacee","ios":"levelo://app?vid=d9c5be3b-4d9e-4f17-a4e3-8dcfb97cacee"},"vehicle_type_id":"4","last_reported":1685570773,"current_range_meters":14000,"station_id":"ce4bh9p2rcd13ifvqec0","pricing_plan_id":"free"},{"bike_id":"ba5ee574-329e-4e5c-9e17-a7ffa161218f","system_id":"levelo_inurba_marseille","lat":43.316517,"lon":5.404375,"is_reserved":false,"is_disabled":false,"rental_uris":{"android":"levelo://app?vid=ba5ee574-329e-4e5c-9e17-a7ffa161218f","ios":"levelo://app?vid=ba5ee574-329e-4e5c-9e17-a7ffa161218f"},"vehicle_type_id":"4","last_reported":1685570773,"current_range_meters":0,"station_id":"ce4bh012rcd13ifvqd00","pricing_plan_id":"free"},{"bike_id":"4c44211f-50d9-4fb5-903e-5e8a7cdbdd4a","system_id":"levelo_inurba_marseille","lat":43.316523,"lon":5.404367,"is_reserved":false,"is_disabled":false,"rental_uris":{"android":"levelo://app?vid=4c44211f-50d9-4fb5-903e-5e8a7cdbdd4a","ios":"levelo://app?vid=4c44211f-50d9-4fb5-903e-5e8a7cdbdd4a"},"vehicle_type_id":"4","last_reported":1685570773,"current_range_meters":4000,"station_id":"ce4bh012rcd13ifvqd00","pricing_plan_id":"free"},{"bike_id":"bff91eae-6023-48e2-bb1b-e8aca893a79e","system_id":"levelo_inurba_marseille","lat":43.316523,"lon":5.404367,"is_reserved":false,"is_disabled":false,"rental_uris":{"android":"levelo://app?vid=bff91eae-6023-48e2-bb1b-e8aca893a79e","ios":"levelo://app?vid=bff91eae-6023-48e2-bb1b-e8aca893a79e"},"vehicle_type_id":"4","last_reported":1685570773,"current_range_meters":14800,"station_id":"ce4bh012rcd13ifvqd00","pricing_plan_id":"free"},{"bike_id":"5022d178-8aef-4346-890f-20103fb39def","system_id":"levelo_inurba_marseille","lat":43.316517,"lon":5.404375,"is_reserved":false,"is_disabled":false,"rental_uris":{"android":"levelo://app?vid=5022d178-8aef-4346-890f-20103fb39def","ios":"levelo://app?vid=5022d178-8aef-4346-890f-20103fb39def"},"vehicle_type_id":"4","last_reported":1685570773,"current_range_meters":22000,"station_id":"ce4bh012rcd13ifvqd00","pricing_plan_id":"free"},{"bike_id":"4319241e-7e7c-4808-866f-a5b7afe97bd6","system_id":"levelo_inurba_marseille","lat":43.316517,"lon":5.404375,"is_reserved":false,"is_disabled":false,"rental_uris":{"android":"levelo://app?vid=4319241e-7e7c-4808-866f-a5b7afe97bd6","ios":"levelo://app?vid=4319241e-7e7c-4808-866f-a5b7afe97bd6"},"vehicle_type_id":"4","last_reported":1685570773,"current_range_meters":0,"station_id":"ce4bh012rcd13ifvqd00","pricing_plan_id":"free"},{"bike_id":"2791305c-c3f9-4d49-b165-c3e4d4b4f460","system_id":"levelo_inurba_marseille","lat":43.316523,"lon":5.404367,"is_reserved":false,"is_disabled":false,"rental_uris":{"android":"levelo://app?vid=2791305c-c3f9-4d49-b165-c3e4d4b4f460","ios":"levelo://app?vid=2791305c-c3f9-4d49-b165-c3e4d4b4f460"},"vehicle_type_id":"4","last_reported":1685570773,"current_range_meters":8000,"station_id":"ce4bh012rcd13ifvqd00","pricing_plan_id":"free"},{"bike_id":"04c83b4d-e038-4c84-9eb5-d4b080a79d94","system_id":"levelo_inurba_marseille","lat":43.316523,"lon":5.404367,"is_reserved":false,"is_disabled":false,"rental_uris":{"android":"levelo://app?vid=04c83b4d-e038-4c84-9eb5-d4b080a79d94","ios":"levelo://app?vid=04c83b4d-e038-4c84-9eb5-d4b080a79d94"},"vehicle_type_id":"4","last_reported":1685570773,"current_range_meters":4800,"station_id":"ce4bh012rcd13ifvqd00","pricing_plan_id":"free"},{"bike_id":"67328675-8b1f-42ff-8090-7adbe9881f9e","system_id":"levelo_inurba_marseille","lat":43.316517,"lon":5.404375,"is_reserved":false,"is_disabled":false,"rental_uris":{"android":"levelo://app?vid=67328675-8b1f-42ff-8090-7adbe9881f9e","ios":"levelo://app?vid=67328675-8b1f-42ff-8090-7adbe9881f9e"},"vehicle_type_id":"4","last_reported":1685570773,"current_range_meters":0,"station_id":"ce4bh012rcd13ifvqd00","pricing_plan_id":"free"},{"bike_id":"afbedbbe-544a-41f0-8e1d-6bd03c5f24ef","system_id":"levelo_inurba_marseille","lat":43.316523,"lon":5.404367,"is_reserved":false,"is_disabled":false,"rental_uris":{"android":"levelo://app?vid=afbedbbe-544a-41f0-8e1d-6bd03c5f24ef","ios":"levelo://app?vid=afbedbbe-544a-41f0-8e1d-6bd03c5f24ef"},"vehicle_type_id":"4","last_reported":1685570773,"current_range_meters":8000,"station_id":"ce4bh012rcd13ifvqd00","pricing_plan_id":"free"},{"bike_id":"36f32bad-80f5-452a-a9f1-c10365a61de9","system_id":"levelo_inurba_marseille","lat":43.284534,"lon":5.358662,"is_reserved":false,"is_disabled":false,"rental_uris":{"android":"levelo://app?vid=36f32bad-80f5-452a-a9f1-c10365a61de9","ios":"levelo://app?vid=36f32bad-80f5-452a-a9f1-c10365a61de9"},"vehicle_type_id":"4","last_reported":1685570773,"current_range_meters":2400,"station_id":"ce4bhah2rcd13ifvqei0","pricing_plan_id":"free"},{"bike_id":"c92dabd0-48ee-4905-b2c3-f1f3eb64680d","system_id":"levelo_inurba_marseille","lat":43.284534,"lon":5.358662,"is_reserved":false,"is_disabled":false,"rental_uris":{"android":"levelo://app?vid=c92dabd0-48ee-4905-b2c3-f1f3eb64680d","ios":"levelo://app?vid=c92dabd0-48ee-4905-b2c3-f1f3eb64680d"},"vehicle_type_id":"4","last_reported":1685570773,"current_range_meters":21200,"station_id":"ce4bhah2rcd13ifvqei0","pricing_plan_id":"free"},{"bike_id":"a27fe220-3868-45ac-91c2-799f1cab2742","system_id":"levelo_inurba_marseille","lat":43.284534,"lon":5.358662,"is_reserved":false,"is_disabled":false,"rental_uris":{"android":"levelo://app?vid=a27fe220-3868-45ac-91c2-799f1cab2742","ios":"levelo://app?vid=a27fe220-3868-45ac-91c2-799f1cab2742"},"vehicle_type_id":"4","last_reported":1685570773,"current_range_meters":8000,"station_id":"ce4bhah2rcd13ifvqei0","pricing_plan_id":"free"},{"bike_id":"e14eba04-78fc-4e65-8e98-81c29c5765fb","system_id":"levelo_inurba_marseille","lat":43.284534,"lon":5.358662,"is_reserved":false,"is_disabled":false,"rental_uris":{"android":"levelo://app?vid=e14eba04-78fc-4e65-8e98-81c29c5765fb","ios":"levelo://app?vid=e14eba04-78fc-4e65-8e98-81c29c5765fb"},"vehicle_type_id":"4","last_reported":1685570773,"current_range_meters":400,"station_id":"ce4bhah2rcd13ifvqei0","pricing_plan_id":"free"},{"bike_id":"b53b9376-b988-485d-b626-659df460cf30","system_id":"levelo_inurba_marseille","lat":43.284534,"lon":5.358662,"is_reserved":false,"is_disabled":false,"rental_uris":{"android":"levelo://app?vid=b53b9376-b988-485d-b626-659df460cf30","ios":"levelo://app?vid=b53b9376-b988-485d-b626-659df460cf30"},"vehicle_type_id":"4","last_reported":1685570773,"current_range_meters":5600,"station_id":"ce4bhah2rcd13ifvqei0","pricing_plan_id":"free"},{"bike_id":"670ec2d7-25d3-4181-a684-3f7d430f0bc7","system_id":"levelo_inurba_marseille","lat":43.284534,"lon":5.358662,"is_reserved":false,"is_disabled":false,"rental_uris":{"android":"levelo://app?vid=670ec2d7-25d3-4181-a684-3f7d430f0bc7","ios":"levelo://app?vid=670ec2d7-25d3-4181-a684-3f7d430f0bc7"},"vehicle_type_id":"4","last_reported":1685570773,"current_range_meters":12000,"station_id":"ce4bhah2rcd13ifvqei0","pricing_plan_id":"free"},{"bike_id":"3dfc30b0-5c9d-450f-87e5-a0bc9d5b383e","system_id":"levelo_inurba_marseille","lat":43.284534,"lon":5.358662,"is_reserved":false,"is_disabled":false,"rental_uris":{"android":"levelo://app?vid=3dfc30b0-5c9d-450f-87e5-a0bc9d5b383e","ios":"levelo://app?vid=3dfc30b0-5c9d-450f-87e5-a0bc9d5b383e"},"vehicle_type_id":"4","last_reported":1685570773,"current_range_meters":7200,"station_id":"ce4bhah2rcd13ifvqei0","pricing_plan_id":"free"},{"bike_id":"51911100-8e9b-4df7-83a8-ad5d9e42bffe","system_id":"levelo_inurba_marseille","lat":43.284534,"lon":5.358662,"is_reserved":false,"is_disabled":false,"rental_uris":{"android":"levelo://app?vid=51911100-8e9b-4df7-83a8-ad5d9e42bffe","ios":"levelo://app?vid=51911100-8e9b-4df7-83a8-ad5d9e42bffe"},"vehicle_type_id":"4","last_reported":1685570773,"current_range_meters":7600,"station_id":"ce4bhah2rcd13ifvqei0","pricing_plan_id":"free"},{"bike_id":"03c7e3f6-1422-4064-a0db-6183d54f9c58","system_id":"levelo_inurba_marseille","lat":43.284534,"lon":5.358662,"is_reserved":false,"is_disabled":false,"rental_uris":{"android":"levelo://app?vid=03c7e3f6-1422-4064-a0db-6183d54f9c58","ios":"levelo://app?vid=03c7e3f6-1422-4064-a0db-6183d54f9c58"},"vehicle_type_id":"4","last_reported":1685570773,"current_range_meters":0,"station_id":"ce4bhah2rcd13ifvqei0","pricing_plan_id":"free"},{"bike_id":"a1956d1b-3bdd-46aa-98e8-96d9c2b8a09b","system_id":"levelo_inurba_marseille","lat":43.284534,"lon":5.358662,"is_reserved":false,"is_disabled":false,"rental_uris":{"android":"levelo://app?vid=a1956d1b-3bdd-46aa-98e8-96d9c2b8a09b","ios":"levelo://app?vid=a1956d1b-3bdd-46aa-98e8-96d9c2b8a09b"},"vehicle_type_id":"4","last_reported":1685570773,"current_range_meters":6400,"station_id":"ce4bhah2rcd13ifvqei0","pricing_plan_id":"free"},{"bike_id":"1a599400-9a43-4b97-8491-210dcf23ea4c","system_id":"levelo_inurba_marseille","lat":43.295713,"lon":5.399639,"is_reserved":false,"is_disabled":false,"rental_uris":{"android":"levelo://app?vid=1a599400-9a43-4b97-8491-210dcf23ea4c","ios":"levelo://app?vid=1a599400-9a43-4b97-8491-210dcf23ea4c"},"vehicle_type_id":"4","last_reported":1685570773,"current_range_meters":31200,"station_id":"ce4bh312rcd13ifvqdj0","pricing_plan_id":"free"},{"bike_id":"4b32522f-54ca-48c5-b13f-3f679aec00ff","system_id":"levelo_inurba_marseille","lat":43.295713,"lon":5.399639,"is_reserved":false,"is_disabled":false,"rental_uris":{"android":"levelo://app?vid=4b32522f-54ca-48c5-b13f-3f679aec00ff","ios":"levelo://app?vid=4b32522f-54ca-48c5-b13f-3f679aec00ff"},"vehicle_type_id":"4","last_reported":1685570773,"current_range_meters":27600,"station_id":"ce4bh312rcd13ifvqdj0","pricing_plan_id":"free"},{"bike_id":"2890b552-4f5d-4513-95b2-9f20be1f369f","system_id":"levelo_inurba_marseille","lat":43.295713,"lon":5.399639,"is_reserved":false,"is_disabled":false,"rental_uris":{"android":"levelo://app?vid=2890b552-4f5d-4513-95b2-9f20be1f369f","ios":"levelo://app?vid=2890b552-4f5d-4513-95b2-9f20be1f369f"},"vehicle_type_id":"4","last_reported":1685570773,"current_range_meters":4400,"station_id":"ce4bh312rcd13ifvqdj0","pricing_plan_id":"free"},{"bike_id":"d937361b-51a2-4d7e-9914-6c706dda02df","system_id":"levelo_inurba_marseille","lat":43.28659,"lon":5.38667,"is_reserved":false,"is_disabled":false,"rental_uris":{"android":"levelo://app?vid=d937361b-51a2-4d7e-9914-6c706dda02df","ios":"levelo://app?vid=d937361b-51a2-4d7e-9914-6c706dda02df"},"vehicle_type_id":"4","last_reported":1685570773,"current_range_meters":1600,"station_id":"ce4bh492rcd13ifvqdug","pricing_plan_id":"free"},{"bike_id":"5df871e9-80d6-4175-966d-d1ced8a5ad6c","system_id":"levelo_inurba_marseille","lat":43.32693,"lon":5.40377,"is_reserved":false,"is_disabled":false,"rental_uris":{"android":"levelo://app?vid=5df871e9-80d6-4175-966d-d1ced8a5ad6c","ios":"levelo://app?vid=5df871e9-80d6-4175-966d-d1ced8a5ad6c"},"vehicle_type_id":"4","last_reported":1685570773,"current_range_meters":28400,"station_id":"","pricing_plan_id":"free"},{"bike_id":"d9ea3df6-2ed5-484b-8383-f02458ecd94e","system_id":"levelo_inurba_marseille","lat":43.283494,"lon":5.380945,"is_reserved":false,"is_disabled":false,"rental_uris":{"android":"levelo://app?vid=d9ea3df6-2ed5-484b-8383-f02458ecd94e","ios":"levelo://app?vid=d9ea3df6-2ed5-484b-8383-f02458ecd94e"},"vehicle_type_id":"4","last_reported":1685570773,"current_range_meters":17600,"station_id":"ce4bh412rcd13ifvqdr0","pricing_plan_id":"free"},{"bike_id":"d78fe7fc-5c9e-4600-be88-97d3a38f9133","system_id":"levelo_inurba_marseille","lat":43.283498,"lon":5.380948,"is_reserved":false,"is_disabled":false,"rental_uris":{"android":"levelo://app?vid=d78fe7fc-5c9e-4600-be88-97d3a38f9133","ios":"levelo://app?vid=d78fe7fc-5c9e-4600-be88-97d3a38f9133"},"vehicle_type_id":"4","last_reported":1685570773,"current_range_meters":22800,"station_id":"ce4bh412rcd13ifvqdr0","pricing_plan_id":"free"},{"bike_id":"6cba784a-f3e1-433d-b0c4-7328b6b84df9","system_id":"levelo_inurba_marseille","lat":43.284209,"lon":5.349719,"is_reserved":false,"is_disabled":false,"rental_uris":{"android":"levelo://app?vid=6cba784a-f3e1-433d-b0c4-7328b6b84df9","ios":"levelo://app?vid=6cba784a-f3e1-433d-b0c4-7328b6b84df9"},"vehicle_type_id":"4","last_reported":1685570773,"current_range_meters":27200,"station_id":"ce4bhbh2rcd13ifvqepg","pricing_plan_id":"free"},{"bike_id":"e4fff84c-62d5-4cce-a458-5a6daef24eb2","system_id":"levelo_inurba_marseille","lat":43.289363,"lon":5.396322,"is_reserved":false,"is_disabled":false,"rental_uris":{"android":"levelo://app?vid=e4fff84c-62d5-4cce-a458-5a6daef24eb2","ios":"levelo://app?vid=e4fff84c-62d5-4cce-a458-5a6daef24eb2"},"vehicle_type_id":"4","last_reported":1685570773,"current_range_meters":16400,"station_id":"ce4bh3h2rcd13ifvqdn0","pricing_plan_id":"free"},{"bike_id":"b522684c-3d4b-4a66-9300-7c671f9aa14f","system_id":"levelo_inurba_marseille","lat":43.289363,"lon":5.396322,"is_reserved":false,"is_disabled":false,"rental_uris":{"android":"levelo://app?vid=b522684c-3d4b-4a66-9300-7c671f9aa14f","ios":"levelo://app?vid=b522684c-3d4b-4a66-9300-7c671f9aa14f"},"vehicle_type_id":"4","last_reported":1685570773,"current_range_meters":21600,"station_id":"ce4bh3h2rcd13ifvqdn0","pricing_plan_id":"free"},{"bike_id":"ac495573-1362-4a38-8899-5a88cd804b0e","system_id":"levelo_inurba_marseille","lat":43.28039,"lon":5.369297,"is_reserved":false,"is_disabled":false,"rental_uris":{"android":"levelo://app?vid=ac495573-1362-4a38-8899-5a88cd804b0e","ios":"levelo://app?vid=ac495573-1362-4a38-8899-5a88cd804b0e"},"vehicle_type_id":"4","last_reported":1685570773,"current_range_meters":18000,"station_id":"ce4bha12rcd13ifvqef0","pricing_plan_id":"free"},{"bike_id":"371adcff-ad87-497b-a588-aaf713cd74ca","system_id":"levelo_inurba_marseille","lat":43.282754,"lon":5.350519,"is_reserved":false,"is_disabled":false,"rental_uris":{"android":"levelo://app?vid=371adcff-ad87-497b-a588-aaf713cd74ca","ios":"levelo://app?vid=371adcff-ad87-497b-a588-aaf713cd74ca"},"vehicle_type_id":"4","last_reported":1685570773,"current_range_meters":17600,"station_id":"ce4bhbp2rcd13ifvqerg","pricing_plan_id":"free"},{"bike_id":"a95757a3-1805-49aa-a4fb-d8c0ceae5dd4","system_id":"levelo_inurba_marseille","lat":43.28039,"lon":5.369297,"is_reserved":false,"is_disabled":false,"rental_uris":{"android":"levelo://app?vid=a95757a3-1805-49aa-a4fb-d8c0ceae5dd4","ios":"levelo://app?vid=a95757a3-1805-49aa-a4fb-d8c0ceae5dd4"},"vehicle_type_id":"4","last_reported":1685570773,"current_range_meters":12400,"station_id":"ce4bha12rcd13ifvqef0","pricing_plan_id":"free"},{"bike_id":"75496124-6b4b-44a4-983a-829a46d7cf18","system_id":"levelo_inurba_marseille","lat":43.281044,"lon":5.378308,"is_reserved":false,"is_disabled":false,"rental_uris":{"android":"levelo://app?vid=75496124-6b4b-44a4-983a-829a46d7cf18","ios":"levelo://app?vid=75496124-6b4b-44a4-983a-829a46d7cf18"},"vehicle_type_id":"4","last_reported":1685570773,"current_range_meters":2800,"station_id":"ce4bha12rcd13ifvqee0","pricing_plan_id":"free"},{"bike_id":"ef96b259-4ff2-4502-a467-43d7edac6ad2","system_id":"levelo_inurba_marseille","lat":43.28039,"lon":5.369297,"is_reserved":false,"is_disabled":false,"rental_uris":{"android":"levelo://app?vid=ef96b259-4ff2-4502-a467-43d7edac6ad2","ios":"levelo://app?vid=ef96b259-4ff2-4502-a467-43d7edac6ad2"},"vehicle_type_id":"4","last_reported":1685570773,"current_range_meters":27600,"station_id":"ce4bha12rcd13ifvqef0","pricing_plan_id":"free"},{"bike_id":"bc68d47c-b697-43a9-bdea-96161767fd00","system_id":"levelo_inurba_marseille","lat":43.28039,"lon":5.369297,"is_reserved":false,"is_disabled":false,"rental_uris":{"android":"levelo://app?vid=bc68d47c-b697-43a9-bdea-96161767fd00","ios":"levelo://app?vid=bc68d47c-b697-43a9-bdea-96161767fd00"},"vehicle_type_id":"4","last_reported":1685570773,"current_range_meters":26800,"station_id":"ce4bha12rcd13ifvqef0","pricing_plan_id":"free"},{"bike_id":"5149f031-ad70-4944-a1a3-cec9f2411d20","system_id":"levelo_inurba_marseille","lat":43.28039,"lon":5.369297,"is_reserved":false,"is_disabled":false,"rental_uris":{"android":"levelo://app?vid=5149f031-ad70-4944-a1a3-cec9f2411d20","ios":"levelo://app?vid=5149f031-ad70-4944-a1a3-cec9f2411d20"},"vehicle_type_id":"4","last_reported":1685570773,"current_range_meters":25200,"station_id":"ce4bha12rcd13ifvqef0","pricing_plan_id":"free"},{"bike_id":"0f213988-6999-4b7e-ab8f-0f979e1d06ab","system_id":"levelo_inurba_marseille","lat":43.28039,"lon":5.369297,"is_reserved":false,"is_disabled":false,"rental_uris":{"android":"levelo://app?vid=0f213988-6999-4b7e-ab8f-0f979e1d06ab","ios":"levelo://app?vid=0f213988-6999-4b7e-ab8f-0f979e1d06ab"},"vehicle_type_id":"4","last_reported":1685570773,"current_range_meters":5600,"station_id":"ce4bha12rcd13ifvqef0","pricing_plan_id":"free"},{"bike_id":"8b9b3b02-de53-4208-8b5e-14d80f1328bd","system_id":"levelo_inurba_marseille","lat":43.28039,"lon":5.369297,"is_reserved":false,"is_disabled":false,"rental_uris":{"android":"levelo://app?vid=8b9b3b02-de53-4208-8b5e-14d80f1328bd","ios":"levelo://app?vid=8b9b3b02-de53-4208-8b5e-14d80f1328bd"},"vehicle_type_id":"4","last_reported":1685570773,"current_range_meters":17600,"station_id":"ce4bha12rcd13ifvqef0","pricing_plan_id":"free"},{"bike_id":"1a50fe55-58d4-4477-b617-b326e2a7a605","system_id":"levelo_inurba_marseille","lat":43.28039,"lon":5.369297,"is_reserved":false,"is_disabled":false,"rental_uris":{"android":"levelo://app?vid=1a50fe55-58d4-4477-b617-b326e2a7a605","ios":"levelo://app?vid=1a50fe55-58d4-4477-b617-b326e2a7a605"},"vehicle_type_id":"4","last_reported":1685570773,"current_range_meters":31600,"station_id":"ce4bha12rcd13ifvqef0","pricing_plan_id":"free"},{"bike_id":"6d4dad9f-6dfd-4c51-bc93-ffb5d56ead3e","system_id":"levelo_inurba_marseille","lat":43.281044,"lon":5.378308,"is_reserved":false,"is_disabled":false,"rental_uris":{"android":"levelo://app?vid=6d4dad9f-6dfd-4c51-bc93-ffb5d56ead3e","ios":"levelo://app?vid=6d4dad9f-6dfd-4c51-bc93-ffb5d56ead3e"},"vehicle_type_id":"4","last_reported":1685570773,"current_range_meters":16400,"station_id":"ce4bha12rcd13ifvqee0","pricing_plan_id":"free"},{"bike_id":"d172a3e9-5711-4f2c-9958-1e904bfde297","system_id":"levelo_inurba_marseille","lat":43.281044,"lon":5.378308,"is_reserved":false,"is_disabled":false,"rental_uris":{"android":"levelo://app?vid=d172a3e9-5711-4f2c-9958-1e904bfde297","ios":"levelo://app?vid=d172a3e9-5711-4f2c-9958-1e904bfde297"},"vehicle_type_id":"4","last_reported":1685570773,"current_range_meters":0,"station_id":"ce4bha12rcd13ifvqee0","pricing_plan_id":"free"},{"bike_id":"7649e1a1-c8e0-45ce-bdfc-d6dfa4629e61","system_id":"levelo_inurba_marseille","lat":43.281044,"lon":5.378308,"is_reserved":false,"is_disabled":false,"rental_uris":{"android":"levelo://app?vid=7649e1a1-c8e0-45ce-bdfc-d6dfa4629e61","ios":"levelo://app?vid=7649e1a1-c8e0-45ce-bdfc-d6dfa4629e61"},"vehicle_type_id":"4","last_reported":1685570773,"current_range_meters":7600,"station_id":"ce4bha12rcd13ifvqee0","pricing_plan_id":"free"},{"bike_id":"48051df3-1cb6-4453-b66d-b20667d1a764","system_id":"levelo_inurba_marseille","lat":43.281044,"lon":5.378308,"is_reserved":false,"is_disabled":false,"rental_uris":{"android":"levelo://app?vid=48051df3-1cb6-4453-b66d-b20667d1a764","ios":"levelo://app?vid=48051df3-1cb6-4453-b66d-b20667d1a764"},"vehicle_type_id":"4","last_reported":1685570773,"current_range_meters":10800,"station_id":"ce4bha12rcd13ifvqee0","pricing_plan_id":"free"},{"bike_id":"d928577e-0cd2-4d9e-a2c6-e4e53bca980d","system_id":"levelo_inurba_marseille","lat":43.281044,"lon":5.378308,"is_reserved":false,"is_disabled":false,"rental_uris":{"android":"levelo://app?vid=d928577e-0cd2-4d9e-a2c6-e4e53bca980d","ios":"levelo://app?vid=d928577e-0cd2-4d9e-a2c6-e4e53bca980d"},"vehicle_type_id":"4","last_reported":1685570773,"current_range_meters":18800,"station_id":"ce4bha12rcd13ifvqee0","pricing_plan_id":"free"},{"bike_id":"96ae64e8-7f6c-4b3d-a83b-64975503bc93","system_id":"levelo_inurba_marseille","lat":43.296263,"lon":5.40601,"is_reserved":false,"is_disabled":false,"rental_uris":{"android":"levelo://app?vid=96ae64e8-7f6c-4b3d-a83b-64975503bc93","ios":"levelo://app?vid=96ae64e8-7f6c-4b3d-a83b-64975503bc93"},"vehicle_type_id":"4","last_reported":1685570773,"current_range_meters":3200,"station_id":"ce4bh0h2rcd13ifvqd60","pricing_plan_id":"free"},{"bike_id":"84dea320-3e03-457c-85fa-efc45b63474d","system_id":"levelo_inurba_marseille","lat":43.281044,"lon":5.378308,"is_reserved":false,"is_disabled":false,"rental_uris":{"android":"levelo://app?vid=84dea320-3e03-457c-85fa-efc45b63474d","ios":"levelo://app?vid=84dea320-3e03-457c-85fa-efc45b63474d"},"vehicle_type_id":"4","last_reported":1685570773,"current_range_meters":3600,"station_id":"ce4bha12rcd13ifvqee0","pricing_plan_id":"free"},{"bike_id":"62fdfdc5-ebdf-450f-b1e2-df243853d6f0","system_id":"levelo_inurba_marseille","lat":43.28101,"lon":5.37843,"is_reserved":false,"is_disabled":false,"rental_uris":{"android":"levelo://app?vid=62fdfdc5-ebdf-450f-b1e2-df243853d6f0","ios":"levelo://app?vid=62fdfdc5-ebdf-450f-b1e2-df243853d6f0"},"vehicle_type_id":"4","last_reported":1685570773,"current_range_meters":14000,"station_id":"ce4bha12rcd13ifvqee0","pricing_plan_id":"free"},{"bike_id":"ebf0a8ac-814b-4e3e-bd8e-c6784a5f93de","system_id":"levelo_inurba_marseille","lat":43.296263,"lon":5.40601,"is_reserved":false,"is_disabled":false,"rental_uris":{"android":"levelo://app?vid=ebf0a8ac-814b-4e3e-bd8e-c6784a5f93de","ios":"levelo://app?vid=ebf0a8ac-814b-4e3e-bd8e-c6784a5f93de"},"vehicle_type_id":"4","last_reported":1685570773,"current_range_meters":12400,"station_id":"ce4bh0h2rcd13ifvqd60","pricing_plan_id":"free"},{"bike_id":"5288a41a-b81d-4877-8b96-c664e8432afd","system_id":"levelo_inurba_marseille","lat":43.32631,"lon":5.40914,"is_reserved":false,"is_disabled":false,"rental_uris":{"android":"levelo://app?vid=5288a41a-b81d-4877-8b96-c664e8432afd","ios":"levelo://app?vid=5288a41a-b81d-4877-8b96-c664e8432afd"},"vehicle_type_id":"4","last_reported":1685570773,"current_range_meters":24400,"station_id":"","pricing_plan_id":"free"},{"bike_id":"972bf760-e4d9-473e-8884-ab883b22212a","system_id":"levelo_inurba_marseille","lat":43.284462,"lon":5.392121,"is_reserved":false,"is_disabled":false,"rental_uris":{"android":"levelo://app?vid=972bf760-e4d9-473e-8884-ab883b22212a","ios":"levelo://app?vid=972bf760-e4d9-473e-8884-ab883b22212a"},"vehicle_type_id":"4","last_reported":1685570773,"current_range_meters":4000,"station_id":"ce4bhoh2rcd13ifvqh5g","pricing_plan_id":"free"},{"bike_id":"5ddc29c7-48dc-4026-8e5b-a0671c46b6c0","system_id":"levelo_inurba_marseille","lat":43.284462,"lon":5.392121,"is_reserved":false,"is_disabled":false,"rental_uris":{"android":"levelo://app?vid=5ddc29c7-48dc-4026-8e5b-a0671c46b6c0","ios":"levelo://app?vid=5ddc29c7-48dc-4026-8e5b-a0671c46b6c0"},"vehicle_type_id":"4","last_reported":1685570773,"current_range_meters":16000,"station_id":"ce4bhoh2rcd13ifvqh5g","pricing_plan_id":"free"},{"bike_id":"3fd3b47a-be82-4b48-a2ce-57a6185169a8","system_id":"levelo_inurba_marseille","lat":43.284462,"lon":5.392121,"is_reserved":false,"is_disabled":false,"rental_uris":{"android":"levelo://app?vid=3fd3b47a-be82-4b48-a2ce-57a6185169a8","ios":"levelo://app?vid=3fd3b47a-be82-4b48-a2ce-57a6185169a8"},"vehicle_type_id":"4","last_reported":1685570773,"current_range_meters":16400,"station_id":"ce4bhoh2rcd13ifvqh5g","pricing_plan_id":"free"},{"bike_id":"77472bec-bd1d-4b96-8744-e7fdadcbb2d0","system_id":"levelo_inurba_marseille","lat":43.284462,"lon":5.392121,"is_reserved":false,"is_disabled":false,"rental_uris":{"android":"levelo://app?vid=77472bec-bd1d-4b96-8744-e7fdadcbb2d0","ios":"levelo://app?vid=77472bec-bd1d-4b96-8744-e7fdadcbb2d0"},"vehicle_type_id":"4","last_reported":1685570773,"current_range_meters":0,"station_id":"ce4bhoh2rcd13ifvqh5g","pricing_plan_id":"free"},{"bike_id":"3b6ceb24-05aa-4ff7-9627-07d06cccd75c","system_id":"levelo_inurba_marseille","lat":43.285742,"lon":5.395004,"is_reserved":false,"is_disabled":false,"rental_uris":{"android":"levelo://app?vid=3b6ceb24-05aa-4ff7-9627-07d06cccd75c","ios":"levelo://app?vid=3b6ceb24-05aa-4ff7-9627-07d06cccd75c"},"vehicle_type_id":"4","last_reported":1685570773,"current_range_meters":25600,"station_id":"ce4bh292rcd13ifvqdg0","pricing_plan_id":"free"},{"bike_id":"dcc9d557-b9e3-4bcc-88a7-d46020c66cdb","system_id":"levelo_inurba_marseille","lat":43.28573,"lon":5.394992,"is_reserved":false,"is_disabled":false,"rental_uris":{"android":"levelo://app?vid=dcc9d557-b9e3-4bcc-88a7-d46020c66cdb","ios":"levelo://app?vid=dcc9d557-b9e3-4bcc-88a7-d46020c66cdb"},"vehicle_type_id":"4","last_reported":1685570773,"current_range_meters":5600,"station_id":"ce4bh292rcd13ifvqdg0","pricing_plan_id":"free"},{"bike_id":"b97c96db-b8a0-406f-9469-ec52d8e69fb6","system_id":"levelo_inurba_marseille","lat":43.28568,"lon":5.39496,"is_reserved":false,"is_disabled":false,"rental_uris":{"android":"levelo://app?vid=b97c96db-b8a0-406f-9469-ec52d8e69fb6","ios":"levelo://app?vid=b97c96db-b8a0-406f-9469-ec52d8e69fb6"},"vehicle_type_id":"4","last_reported":1685570773,"current_range_meters":18400,"station_id":"ce4bh292rcd13ifvqdg0","pricing_plan_id":"free"},{"bike_id":"2b81a3eb-38c2-4512-bedc-8d98ba4f9180","system_id":"levelo_inurba_marseille","lat":43.28573,"lon":5.39624,"is_reserved":false,"is_disabled":false,"rental_uris":{"android":"levelo://app?vid=2b81a3eb-38c2-4512-bedc-8d98ba4f9180","ios":"levelo://app?vid=2b81a3eb-38c2-4512-bedc-8d98ba4f9180"},"vehicle_type_id":"4","last_reported":1685570773,"current_range_meters":800,"station_id":"","pricing_plan_id":"free"},{"bike_id":"ffc72560-4563-4723-aa74-e9045fa3cd60","system_id":"levelo_inurba_marseille","lat":43.241782,"lon":5.397261,"is_reserved":false,"is_disabled":false,"rental_uris":{"android":"levelo://app?vid=ffc72560-4563-4723-aa74-e9045fa3cd60","ios":"levelo://app?vid=ffc72560-4563-4723-aa74-e9045fa3cd60"},"vehicle_type_id":"4","last_reported":1685570773,"current_range_meters":15200,"station_id":"ce4bhn12rcd13ifvqgpg","pricing_plan_id":"free"},{"bike_id":"c6048c7c-2837-48b9-98df-7d42be2948ab","system_id":"levelo_inurba_marseille","lat":43.27902,"lon":5.38008,"is_reserved":false,"is_disabled":false,"rental_uris":{"android":"levelo://app?vid=c6048c7c-2837-48b9-98df-7d42be2948ab","ios":"levelo://app?vid=c6048c7c-2837-48b9-98df-7d42be2948ab"},"vehicle_type_id":"4","last_reported":1685570773,"current_range_meters":16000,"station_id":"","pricing_plan_id":"free"},{"bike_id":"c68c4f80-5956-48f8-846e-9582e0907ea8","system_id":"levelo_inurba_marseille","lat":43.27893,"lon":5.37993,"is_reserved":false,"is_disabled":false,"rental_uris":{"android":"levelo://app?vid=c68c4f80-5956-48f8-846e-9582e0907ea8","ios":"levelo://app?vid=c68c4f80-5956-48f8-846e-9582e0907ea8"},"vehicle_type_id":"4","last_reported":1685570773,"current_range_meters":12800,"station_id":"","pricing_plan_id":"free"},{"bike_id":"b3d5ab30-2a2a-43c5-8f6f-8c88166fde38","system_id":"levelo_inurba_marseille","lat":43.28694,"lon":5.39984,"is_reserved":false,"is_disabled":false,"rental_uris":{"android":"levelo://app?vid=b3d5ab30-2a2a-43c5-8f6f-8c88166fde38","ios":"levelo://app?vid=b3d5ab30-2a2a-43c5-8f6f-8c88166fde38"},"vehicle_type_id":"4","last_reported":1685570773,"current_range_meters":400,"station_id":"ce4bho92rcd13ifvqh3g","pricing_plan_id":"free"},{"bike_id":"0750bb3d-9fd9-41e3-88f6-6782c1a72c6a","system_id":"levelo_inurba_marseille","lat":43.320045,"lon":5.415046,"is_reserved":false,"is_disabled":false,"rental_uris":{"android":"levelo://app?vid=0750bb3d-9fd9-41e3-88f6-6782c1a72c6a","ios":"levelo://app?vid=0750bb3d-9fd9-41e3-88f6-6782c1a72c6a"},"vehicle_type_id":"4","last_reported":1685570773,"current_range_meters":5600,"station_id":"ce4bhq92rcd13ifvqhkg","pricing_plan_id":"free"},{"bike_id":"6831c670-6fa1-48e4-9870-e13279e17df3","system_id":"levelo_inurba_marseille","lat":43.320045,"lon":5.415046,"is_reserved":false,"is_disabled":false,"rental_uris":{"android":"levelo://app?vid=6831c670-6fa1-48e4-9870-e13279e17df3","ios":"levelo://app?vid=6831c670-6fa1-48e4-9870-e13279e17df3"},"vehicle_type_id":"4","last_reported":1685570773,"current_range_meters":31200,"station_id":"ce4bhq92rcd13ifvqhkg","pricing_plan_id":"free"},{"bike_id":"dd602990-43c8-44cd-95ed-5d1a0457189b","system_id":"levelo_inurba_marseille","lat":43.32036,"lon":5.41562,"is_reserved":false,"is_disabled":false,"rental_uris":{"android":"levelo://app?vid=dd602990-43c8-44cd-95ed-5d1a0457189b","ios":"levelo://app?vid=dd602990-43c8-44cd-95ed-5d1a0457189b"},"vehicle_type_id":"4","last_reported":1685570773,"current_range_meters":28400,"station_id":"","pricing_plan_id":"free"},{"bike_id":"62ef0267-84c6-4cc1-8dba-83a77a168cf5","system_id":"levelo_inurba_marseille","lat":43.320294,"lon":5.415698,"is_reserved":false,"is_disabled":false,"rental_uris":{"android":"levelo://app?vid=62ef0267-84c6-4cc1-8dba-83a77a168cf5","ios":"levelo://app?vid=62ef0267-84c6-4cc1-8dba-83a77a168cf5"},"vehicle_type_id":"4","last_reported":1685570773,"current_range_meters":26000,"station_id":"","pricing_plan_id":"free"},{"bike_id":"7fc6d43d-5248-4181-b14d-5c0a8953830f","system_id":"levelo_inurba_marseille","lat":43.320045,"lon":5.415046,"is_reserved":false,"is_disabled":false,"rental_uris":{"android":"levelo://app?vid=7fc6d43d-5248-4181-b14d-5c0a8953830f","ios":"levelo://app?vid=7fc6d43d-5248-4181-b14d-5c0a8953830f"},"vehicle_type_id":"4","last_reported":1685570773,"current_range_meters":28000,"station_id":"ce4bhq92rcd13ifvqhkg","pricing_plan_id":"free"},{"bike_id":"b92a1e5d-f474-49da-80ff-ea2bcc340262","system_id":"levelo_inurba_marseille","lat":43.32064,"lon":5.41573,"is_reserved":false,"is_disabled":false,"rental_uris":{"android":"levelo://app?vid=b92a1e5d-f474-49da-80ff-ea2bcc340262","ios":"levelo://app?vid=b92a1e5d-f474-49da-80ff-ea2bcc340262"},"vehicle_type_id":"4","last_reported":1685570773,"current_range_meters":29600,"station_id":"","pricing_plan_id":"free"},{"bike_id":"86a825b7-31b4-4209-a8fa-7eb80efbee2b","system_id":"levelo_inurba_marseille","lat":43.3254,"lon":5.41447,"is_reserved":false,"is_disabled":false,"rental_uris":{"android":"levelo://app?vid=86a825b7-31b4-4209-a8fa-7eb80efbee2b","ios":"levelo://app?vid=86a825b7-31b4-4209-a8fa-7eb80efbee2b"},"vehicle_type_id":"4","last_reported":1685570773,"current_range_meters":27200,"station_id":"ce4bhq12rcd13ifvqhhg","pricing_plan_id":"free"},{"bike_id":"54a5789f-230d-4d81-9866-d44b91d0297e","system_id":"levelo_inurba_marseille","lat":43.29796,"lon":5.41477,"is_reserved":false,"is_disabled":false,"rental_uris":{"android":"levelo://app?vid=54a5789f-230d-4d81-9866-d44b91d0297e","ios":"levelo://app?vid=54a5789f-230d-4d81-9866-d44b91d0297e"},"vehicle_type_id":"4","last_reported":1685570773,"current_range_meters":800,"station_id":"","pricing_plan_id":"free"},{"bike_id":"e575d9cc-477e-483f-a0ba-7402850465df","system_id":"levelo_inurba_marseille","lat":43.280784,"lon":5.396622,"is_reserved":false,"is_disabled":false,"rental_uris":{"android":"levelo://app?vid=e575d9cc-477e-483f-a0ba-7402850465df","ios":"levelo://app?vid=e575d9cc-477e-483f-a0ba-7402850465df"},"vehicle_type_id":"4","last_reported":1685570773,"current_range_meters":26400,"station_id":"ce4bho12rcd13ifvqh2g","pricing_plan_id":"free"},{"bike_id":"62ef1cbb-27b0-4109-af85-23ec6bdfe10f","system_id":"levelo_inurba_marseille","lat":43.27824,"lon":5.39208,"is_reserved":false,"is_disabled":false,"rental_uris":{"android":"levelo://app?vid=62ef1cbb-27b0-4109-af85-23ec6bdfe10f","ios":"levelo://app?vid=62ef1cbb-27b0-4109-af85-23ec6bdfe10f"},"vehicle_type_id":"4","last_reported":1685570773,"current_range_meters":0,"station_id":"ce4bhjp2rcd13ifvqga0","pricing_plan_id":"free"},{"bike_id":"ac25212b-a672-4802-9b4e-08f04a56a599","system_id":"levelo_inurba_marseille","lat":43.278401,"lon":5.392152,"is_reserved":false,"is_disabled":false,"rental_uris":{"android":"levelo://app?vid=ac25212b-a672-4802-9b4e-08f04a56a599","ios":"levelo://app?vid=ac25212b-a672-4802-9b4e-08f04a56a599"},"vehicle_type_id":"4","last_reported":1685570773,"current_range_meters":11600,"station_id":"ce4bhjp2rcd13ifvqga0","pricing_plan_id":"free"},{"bike_id":"cc234879-9a85-4449-bfa3-9f802734799f","system_id":"levelo_inurba_marseille","lat":43.27377,"lon":5.36252,"is_reserved":false,"is_disabled":false,"rental_uris":{"android":"levelo://app?vid=cc234879-9a85-4449-bfa3-9f802734799f","ios":"levelo://app?vid=cc234879-9a85-4449-bfa3-9f802734799f"},"vehicle_type_id":"4","last_reported":1685570773,"current_range_meters":2400,"station_id":"ce4bhbh2rcd13ifvqeo0","pricing_plan_id":"free"},{"bike_id":"59c8b631-ef25-4978-aef3-eb25f3901a9f","system_id":"levelo_inurba_marseille","lat":43.33609,"lon":5.41019,"is_reserved":false,"is_disabled":false,"rental_uris":{"android":"levelo://app?vid=59c8b631-ef25-4978-aef3-eb25f3901a9f","ios":"levelo://app?vid=59c8b631-ef25-4978-aef3-eb25f3901a9f"},"vehicle_type_id":"4","last_reported":1685570773,"current_range_meters":30800,"station_id":"ce4bhqh2rcd13ifvqhmg","pricing_plan_id":"free"},{"bike_id":"32f8ee35-2246-491f-a0dc-90d3b6a309ed","system_id":"levelo_inurba_marseille","lat":43.33605,"lon":5.41029,"is_reserved":false,"is_disabled":false,"rental_uris":{"android":"levelo://app?vid=32f8ee35-2246-491f-a0dc-90d3b6a309ed","ios":"levelo://app?vid=32f8ee35-2246-491f-a0dc-90d3b6a309ed"},"vehicle_type_id":"4","last_reported":1685570773,"current_range_meters":26000,"station_id":"ce4bhqh2rcd13ifvqhmg","pricing_plan_id":"free"},{"bike_id":"487d32e7-0d2e-4f2b-8219-05756dfc1b9b","system_id":"levelo_inurba_marseille","lat":43.33607,"lon":5.41027,"is_reserved":false,"is_disabled":false,"rental_uris":{"android":"levelo://app?vid=487d32e7-0d2e-4f2b-8219-05756dfc1b9b","ios":"levelo://app?vid=487d32e7-0d2e-4f2b-8219-05756dfc1b9b"},"vehicle_type_id":"4","last_reported":1685570773,"current_range_meters":28000,"station_id":"ce4bhqh2rcd13ifvqhmg","pricing_plan_id":"free"},{"bike_id":"f43d0078-10fc-4950-9724-8c9e43c3bd96","system_id":"levelo_inurba_marseille","lat":43.33605,"lon":5.4103,"is_reserved":false,"is_disabled":false,"rental_uris":{"android":"levelo://app?vid=f43d0078-10fc-4950-9724-8c9e43c3bd96","ios":"levelo://app?vid=f43d0078-10fc-4950-9724-8c9e43c3bd96"},"vehicle_type_id":"4","last_reported":1685570773,"current_range_meters":23200,"station_id":"ce4bhqh2rcd13ifvqhmg","pricing_plan_id":"free"},{"bike_id":"1d3a6eff-d99d-4718-a9de-0f1c1782317c","system_id":"levelo_inurba_marseille","lat":43.33606,"lon":5.41031,"is_reserved":false,"is_disabled":false,"rental_uris":{"android":"levelo://app?vid=1d3a6eff-d99d-4718-a9de-0f1c1782317c","ios":"levelo://app?vid=1d3a6eff-d99d-4718-a9de-0f1c1782317c"},"vehicle_type_id":"4","last_reported":1685570773,"current_range_meters":20000,"station_id":"ce4bhqh2rcd13ifvqhmg","pricing_plan_id":"free"},{"bike_id":"d14de20a-5071-4d26-a04c-f8d2a296aee4","system_id":"levelo_inurba_marseille","lat":43.336134,"lon":5.410341,"is_reserved":false,"is_disabled":false,"rental_uris":{"android":"levelo://app?vid=d14de20a-5071-4d26-a04c-f8d2a296aee4","ios":"levelo://app?vid=d14de20a-5071-4d26-a04c-f8d2a296aee4"},"vehicle_type_id":"4","last_reported":1685570773,"current_range_meters":24400,"station_id":"ce4bhqh2rcd13ifvqhmg","pricing_plan_id":"free"},{"bike_id":"659880bb-da7a-44ae-a267-7be35aa7c16c","system_id":"levelo_inurba_marseille","lat":43.33609,"lon":5.4103,"is_reserved":false,"is_disabled":false,"rental_uris":{"android":"levelo://app?vid=659880bb-da7a-44ae-a267-7be35aa7c16c","ios":"levelo://app?vid=659880bb-da7a-44ae-a267-7be35aa7c16c"},"vehicle_type_id":"4","last_reported":1685570773,"current_range_meters":25600,"station_id":"ce4bhqh2rcd13ifvqhmg","pricing_plan_id":"free"},{"bike_id":"da9f6603-7c1e-410d-9524-4d74986f535b","system_id":"levelo_inurba_marseille","lat":43.33606,"lon":5.41034,"is_reserved":false,"is_disabled":false,"rental_uris":{"android":"levelo://app?vid=da9f6603-7c1e-410d-9524-4d74986f535b","ios":"levelo://app?vid=da9f6603-7c1e-410d-9524-4d74986f535b"},"vehicle_type_id":"4","last_reported":1685570773,"current_range_meters":30800,"station_id":"ce4bhqh2rcd13ifvqhmg","pricing_plan_id":"free"},{"bike_id":"a5e9752a-9733-48e5-a602-84e5ddad9bbb","system_id":"levelo_inurba_marseille","lat":43.33612,"lon":5.410321,"is_reserved":false,"is_disabled":false,"rental_uris":{"android":"levelo://app?vid=a5e9752a-9733-48e5-a602-84e5ddad9bbb","ios":"levelo://app?vid=a5e9752a-9733-48e5-a602-84e5ddad9bbb"},"vehicle_type_id":"4","last_reported":1685570773,"current_range_meters":14400,"station_id":"ce4bhqh2rcd13ifvqhmg","pricing_plan_id":"free"},{"bike_id":"b1f2f564-8da8-4d79-90d9-b3008f3df236","system_id":"levelo_inurba_marseille","lat":43.33607,"lon":5.41034,"is_reserved":false,"is_disabled":false,"rental_uris":{"android":"levelo://app?vid=b1f2f564-8da8-4d79-90d9-b3008f3df236","ios":"levelo://app?vid=b1f2f564-8da8-4d79-90d9-b3008f3df236"},"vehicle_type_id":"4","last_reported":1685570773,"current_range_meters":10800,"station_id":"ce4bhqh2rcd13ifvqhmg","pricing_plan_id":"free"},{"bike_id":"4c2b386b-dcfb-4a1b-8130-9ed30bc3556c","system_id":"levelo_inurba_marseille","lat":43.336134,"lon":5.410341,"is_reserved":false,"is_disabled":false,"rental_uris":{"android":"levelo://app?vid=4c2b386b-dcfb-4a1b-8130-9ed30bc3556c","ios":"levelo://app?vid=4c2b386b-dcfb-4a1b-8130-9ed30bc3556c"},"vehicle_type_id":"4","last_reported":1685570773,"current_range_meters":13600,"station_id":"ce4bhqh2rcd13ifvqhmg","pricing_plan_id":"free"},{"bike_id":"e382073c-fc51-4a86-baac-27ae67ad18f3","system_id":"levelo_inurba_marseille","lat":43.336134,"lon":5.410341,"is_reserved":false,"is_disabled":false,"rental_uris":{"android":"levelo://app?vid=e382073c-fc51-4a86-baac-27ae67ad18f3","ios":"levelo://app?vid=e382073c-fc51-4a86-baac-27ae67ad18f3"},"vehicle_type_id":"4","last_reported":1685570773,"current_range_meters":21200,"station_id":"ce4bhqh2rcd13ifvqhmg","pricing_plan_id":"free"},{"bike_id":"a550b150-2750-4080-8f17-f493d6d2e333","system_id":"levelo_inurba_marseille","lat":43.336134,"lon":5.410341,"is_reserved":false,"is_disabled":false,"rental_uris":{"android":"levelo://app?vid=a550b150-2750-4080-8f17-f493d6d2e333","ios":"levelo://app?vid=a550b150-2750-4080-8f17-f493d6d2e333"},"vehicle_type_id":"4","last_reported":1685570773,"current_range_meters":26800,"station_id":"ce4bhqh2rcd13ifvqhmg","pricing_plan_id":"free"},{"bike_id":"464f0ca3-16af-41bd-97ca-d5ed98c6000f","system_id":"levelo_inurba_marseille","lat":43.336134,"lon":5.410341,"is_reserved":false,"is_disabled":false,"rental_uris":{"android":"levelo://app?vid=464f0ca3-16af-41bd-97ca-d5ed98c6000f","ios":"levelo://app?vid=464f0ca3-16af-41bd-97ca-d5ed98c6000f"},"vehicle_type_id":"4","last_reported":1685570773,"current_range_meters":31200,"station_id":"ce4bhqh2rcd13ifvqhmg","pricing_plan_id":"free"},{"bike_id":"b73b3552-9071-4a45-adf9-eac5f20cf46d","system_id":"levelo_inurba_marseille","lat":43.276771,"lon":5.388799,"is_reserved":false,"is_disabled":false,"rental_uris":{"android":"levelo://app?vid=b73b3552-9071-4a45-adf9-eac5f20cf46d","ios":"levelo://app?vid=b73b3552-9071-4a45-adf9-eac5f20cf46d"},"vehicle_type_id":"4","last_reported":1685570773,"current_range_meters":1200,"station_id":"ce4bhi12rcd13ifvqfo0","pricing_plan_id":"free"},{"bike_id":"d2912307-fa62-4ac5-9ae5-7566f1d786a2","system_id":"levelo_inurba_marseille","lat":43.317121,"lon":5.423936,"is_reserved":false,"is_disabled":false,"rental_uris":{"android":"levelo://app?vid=d2912307-fa62-4ac5-9ae5-7566f1d786a2","ios":"levelo://app?vid=d2912307-fa62-4ac5-9ae5-7566f1d786a2"},"vehicle_type_id":"4","last_reported":1685570773,"current_range_meters":31200,"station_id":"ce4bhp92rcd13ifvqhbg","pricing_plan_id":"free"},{"bike_id":"8e7693a4-b07a-40ba-a479-5e2df611fff1","system_id":"levelo_inurba_marseille","lat":43.317121,"lon":5.423936,"is_reserved":false,"is_disabled":false,"rental_uris":{"android":"levelo://app?vid=8e7693a4-b07a-40ba-a479-5e2df611fff1","ios":"levelo://app?vid=8e7693a4-b07a-40ba-a479-5e2df611fff1"},"vehicle_type_id":"4","last_reported":1685570773,"current_range_meters":21600,"station_id":"ce4bhp92rcd13ifvqhbg","pricing_plan_id":"free"},{"bike_id":"b20f50cf-315d-4e37-9295-bcccdf0456f1","system_id":"levelo_inurba_marseille","lat":43.310785,"lon":5.424305,"is_reserved":false,"is_disabled":false,"rental_uris":{"android":"levelo://app?vid=b20f50cf-315d-4e37-9295-bcccdf0456f1","ios":"levelo://app?vid=b20f50cf-315d-4e37-9295-bcccdf0456f1"},"vehicle_type_id":"4","last_reported":1685570773,"current_range_meters":8000,"station_id":"ce4bhp92rcd13ifvqhag","pricing_plan_id":"free"},{"bike_id":"41514864-e104-4b1d-a21c-d9dcbf98d1b1","system_id":"levelo_inurba_marseille","lat":43.310785,"lon":5.424305,"is_reserved":false,"is_disabled":false,"rental_uris":{"android":"levelo://app?vid=41514864-e104-4b1d-a21c-d9dcbf98d1b1","ios":"levelo://app?vid=41514864-e104-4b1d-a21c-d9dcbf98d1b1"},"vehicle_type_id":"4","last_reported":1685570773,"current_range_meters":28800,"station_id":"ce4bhp92rcd13ifvqhag","pricing_plan_id":"free"},{"bike_id":"7bb996a3-ba08-4c4f-bd56-99b561acf289","system_id":"levelo_inurba_marseille","lat":43.310785,"lon":5.424305,"is_reserved":false,"is_disabled":false,"rental_uris":{"android":"levelo://app?vid=7bb996a3-ba08-4c4f-bd56-99b561acf289","ios":"levelo://app?vid=7bb996a3-ba08-4c4f-bd56-99b561acf289"},"vehicle_type_id":"4","last_reported":1685570773,"current_range_meters":16400,"station_id":"ce4bhp92rcd13ifvqhag","pricing_plan_id":"free"},