{"last_updated":1757837527,"ttl":60,"version":"2.2","data":{"bikes":[{"bike_id":"3258e62d-d54e-423a-82f8-b3e66399dbec","system_id":"levelo_inurba_marseille","lat":43.29807,"lon":5.38085,"is_reserved":false,"is_disabled":true,"rental_uris":{"android":"levelo://app?vid=3258e62d-d54e-423a-82f8-b3e66399dbec","ios":"levelo://app?vid=3258e62d-d54e-423a-82f8-b3e66399dbec"},"vehicle_type_id":"4","last_reported":1757837527,"current_range_meters":2800,"station_id":"ce4bgip2rcd13ifvqbb0","pricing_plan_id":"cebpf4jnsgd1na2vs0mg"},{"bike_id":"b10ca0dd-9e39-4b62-a493-9142be54880b","system_id":"levelo_inurba_marseille","lat":43.30242,"lon":5.40029,"is_reserved":false,"is_disabled":false,"rental_uris":{"android":"levelo://app?vid=b10ca0dd-9e39-4b62-a493-9142be54880b","ios":"levelo://app?vid=b10ca0dd-9e39-4b62-a493-9142be54880b"},"vehicle_type_id":"4","last_reported":1757837527,"current_range_meters":2800,"station_id":"ce4bgvh2rcd13ifvqcs0","pricing_plan_id":"cebpf4jnsgd1na2vs0mg"},{"bike_id":"e16d9f4b-76b3-42e8-8f97-2b013296f322","system_id":"levelo_inurba_marseille","lat":43.265479,"lon":5.372858,"is_reserved":false,"is_disabled":true,"rental_uris":{"android":"levelo://app?vid=e16d9f4b-76b3-42e8-8f97-2b013296f322","ios":"levelo://app?vid=e16d9f4b-76b3-42e8-8f97-2b013296f322"},"vehicle_type_id":"4","last_reported":1757837527,"current_range_meters":3200,"station_id":"ce4bhg12rcd13ifvqf70","pricing_plan_id":"cebpf4jnsgd1na2vs0mg"},{"bike_id":"92e6d496-1c77-4692-81f5-394014d57567","system_id":"levelo_inurba_marseille","lat":43.287207,"lon":5.399637,"is_reserved":false,"is_disabled":false,"rental_uris":{"android":"levelo://app?vid=92e6d496-1c77-4692-81f5-394014d57567","ios":"levelo://app?vid=92e6d496-1c77-4692-81f5-394014d57567"},"vehicle_type_id":"4","last_reported":1757837527,"current_range_meters":3600,"station_id":"ce4bho92rcd13ifvqh3g","pricing_plan_id":"cebpf4jnsgd1na2vs0mg"},{"bike_id":"a05fdb49-e038-4a84-8ea1-52f3eaaf07b1","system_id":"levelo_inurba_marseille","lat":43.22552,"lon":5.41634,"is_reserved":false,"is_disabled":false,"rental_uris":{"android":"levelo://app?vid=a05fdb49-e038-4a84-8ea1-52f3eaaf07b1","ios":"levelo://app?vid=a05fdb49-e038-4a84-8ea1-52f3eaaf07b1"},"vehicle_type_id":"4","last_reported":1757837527,"current_range_meters":4800,"station_id":"st_d2o4gvlbi1j2169b742g","pricing_plan_id":"cebpf4jnsgd1na2vs0mg"},{"bike_id":"972b4c5f-3a00-4bb2-9116-b81f2cecc9f2","system_id":"levelo_inurba_marseille","lat":43.33764,"lon":5.37483,"is_reserved":false,"is_disabled":false,"rental_uris":{"android":"levelo://app?vid=972b4c5f-3a00-4bb2-9116-b81f2cecc9f2","ios":"levelo://app?vid=972b4c5f-3a00-4bb2-9116-b81f2cecc9f2"},"vehicle_type_id":"4","last_reported":1757837527,"current_range_meters":5600,"station_id":"","pricing_plan_id":"cebpf4jnsgd1na2vs0mg"},{"bike_id":"6a5ca146-0047-4a1a-a54c-3fad7a2a1821","system_id":"levelo_inurba_marseille","lat":43.3237,"lon":5.36768,"is_reserved":false,"is_disabled":false,"rental_uris":{"android":"levelo://app?vid=6a5ca146-0047-4a1a-a54c-3fad7a2a1821","ios":"levelo://app?vid=6a5ca146-0047-4a1a-a54c-3fad7a2a1821"},"vehicle_type_id":"4","last_reported":1757837527,"current_range_meters":5600,"station_id":"ce4bhsh2rcd13ifvqi2g","pricing_plan_id":"cebpf4jnsgd1na2vs0mg"},{"bike_id":"3bd595b7-af3b-43b1-8697-1bcb2a61af6f","system_id":"levelo_inurba_marseille","lat":43.280016,"lon":5.400009,"is_reserved":false,"is_disabled":true,"rental_uris":{"android":"levelo://app?vid=3bd595b7-af3b-43b1-8697-1bcb2a61af6f","ios":"levelo://app?vid=3bd595b7-af3b-43b1-8697-1bcb2a61af6f"},"vehicle_type_id":"4","last_reported":1757837527,"current_range_meters":6000,"station_id":"ce4bho92rcd13ifvqh4g","pricing_plan_id":"cebpf4jnsgd1na2vs0mg"},{"bike_id":"a3977072-5f91-4a68-b0d6-dc3cb909a337","system_id":"levelo_inurba_marseille","lat":43.33775,"lon":5.37498,"is_reserved":false,"is_disabled":false,"rental_uris":{"android":"levelo://app?vid=a3977072-5f91-4a68-b0d6-dc3cb909a337","ios":"levelo://app?vid=a3977072-5f91-4a68-b0d6-dc3cb909a337"},"vehicle_type_id":"4","last_reported":1757837527,"current_range_meters":6400,"station_id":"","pricing_plan_id":"cebpf4jnsgd1na2vs0mg"},{"bike_id":"775af279-8ac9-4585-9121-809be9b13265","system_id":"levelo_inurba_marseille","lat":43.337775,"lon":5.374412,"is_reserved":false,"is_disabled":false,"rental_uris":{"android":"levelo://app?vid=775af279-8ac9-4585-9121-809be9b13265","ios":"levelo://app?vid=775af279-8ac9-4585-9121-809be9b13265"},"vehicle_type_id":"4","last_reported":1757837527,"current_range_meters":6800,"station_id":"","pricing_plan_id":"cebpf4jnsgd1na2vs0mg"},{"bike_id":"617a17ad-9ae1-4c6e-90ed-a504f4232a24","system_id":"levelo_inurba_marseille","lat":43.28277,"lon":5.35071,"is_reserved":false,"is_disabled":false,"rental_uris":{"android":"levelo://app?vid=617a17ad-9ae1-4c6e-90ed-a504f4232a24","ios":"levelo://app?vid=617a17ad-9ae1-4c6e-90ed-a504f4232a24"},"vehicle_type_id":"4","last_reported":1757837527,"current_range_meters":6800,"station_id":"ce4bhbp2rcd13ifvqerg","pricing_plan_id":"cebpf4jnsgd1na2vs0mg"},{"bike_id":"ae2200e0-55fa-4d16-87bf-72ca65d67371","system_id":"levelo_inurba_marseille","lat":43.28387,"lon":5.38479,"is_reserved":false,"is_disabled":true,"rental_uris":{"android":"levelo://app?vid=ae2200e0-55fa-4d16-87bf-72ca65d67371","ios":"levelo://app?vid=ae2200e0-55fa-4d16-87bf-72ca65d67371"},"vehicle_type_id":"4","last_reported":1757837527,"current_range_meters":7200,"station_id":"","pricing_plan_id":"cebpf4jnsgd1na2vs0mg"},{"bike_id":"eaa220fb-5349-44c0-849a-e1e199bab0e0","system_id":"levelo_inurba_marseille","lat":43.30457,"lon":5.36701,"is_reserved":false,"is_disabled":true,"rental_uris":{"android":"levelo://app?vid=eaa220fb-5349-44c0-849a-e1e199bab0e0","ios":"levelo://app?vid=eaa220fb-5349-44c0-849a-e1e199bab0e0"},"vehicle_type_id":"4","last_reported":1757837527,"current_range_meters":8000,"station_id":"","pricing_plan_id":"cebpf4jnsgd1na2vs0mg"},{"bike_id":"c5d0a267-63b8-45b1-8db4-f64d80554eb4","system_id":"levelo_inurba_marseille","lat":43.28606,"lon":5.37053,"is_reserved":false,"is_disabled":true,"rental_uris":{"android":"levelo://app?vid=c5d0a267-63b8-45b1-8db4-f64d80554eb4","ios":"levelo://app?vid=c5d0a267-63b8-45b1-8db4-f64d80554eb4"},"vehicle_type_id":"4","last_reported":1757837527,"current_range_meters":8000,"station_id":"ce4bht12rcd13ifvqi60","pricing_plan_id":"cebpf4jnsgd1na2vs0mg"},{"bike_id":"b5006f1b-be5c-4ee4-b14e-f96804d5f21d","system_id":"levelo_inurba_marseille","lat":43.27979,"lon":5.38743,"is_reserved":false,"is_disabled":false,"rental_uris":{"android":"levelo://app?vid=b5006f1b-be5c-4ee4-b14e-f96804d5f21d","ios":"levelo://app?vid=b5006f1b-be5c-4ee4-b14e-f96804d5f21d"},"vehicle_type_id":"4","last_reported":1757837527,"current_range_meters":7200,"station_id":"ce4bhg12rcd13ifvqf80","pricing_plan_id":"cebpf4jnsgd1na2vs0mg"},{"bike_id":"89724e0f-d6a6-4e81-9dc8-40ed9db09b04","system_id":"levelo_inurba_marseille","lat":43.28603,"lon":5.37071,"is_reserved":false,"is_disabled":false,"rental_uris":{"android":"levelo://app?vid=89724e0f-d6a6-4e81-9dc8-40ed9db09b04","ios":"levelo://app?vid=89724e0f-d6a6-4e81-9dc8-40ed9db09b04"},"vehicle_type_id":"4","last_reported":1757837527,"current_range_meters":8000,"station_id":"ce4bht12rcd13ifvqi60","pricing_plan_id":"cebpf4jnsgd1na2vs0mg"},{"bike_id":"fd023a40-d69c-4361-9109-4126162693f0","system_id":"levelo_inurba_marseille","lat":43.27772,"lon":5.37845,"is_reserved":false,"is_disabled":false,"rental_uris":{"android":"levelo://app?vid=fd023a40-d69c-4361-9109-4126162693f0","ios":"levelo://app?vid=fd023a40-d69c-4361-9109-4126162693f0"},"vehicle_type_id":"4","last_reported":1757837527,"current_range_meters":8400,"station_id":"","pricing_plan_id":"cebpf4jnsgd1na2vs0mg"},{"bike_id":"fbcaa5be-76d1-41b1-8be1-f8ff6820e3ae","system_id":"levelo_inurba_marseille","lat":43.32361,"lon":5.4063,"is_reserved":false,"is_disabled":false,"rental_uris":{"android":"levelo://app?vid=fbcaa5be-76d1-41b1-8be1-f8ff6820e3ae","ios":"levelo://app?vid=fbcaa5be-76d1-41b1-8be1-f8ff6820e3ae"},"vehicle_type_id":"4","last_reported":1757837527,"current_range_meters":8400,"station_id":"ce4bhq92rcd13ifvqhjg","pricing_plan_id":"cebpf4jnsgd1na2vs0mg"},{"bike_id":"a24c4696-920b-4645-847f-87e0b46915a6","system_id":"levelo_inurba_marseille","lat":43.32443,"lon":5.42504,"is_reserved":false,"is_disabled":false,"rental_uris":{"android":"levelo://app?vid=a24c4696-920b-4645-847f-87e0b46915a6","ios":"levelo://app?vid=a24c4696-920b-4645-847f-87e0b46915a6"},"vehicle_type_id":"4","last_reported":1757837527,"current_range_meters":8400,"station_id":"","pricing_plan_id":"cebpf4jnsgd1na2vs0mg"},{"bike_id":"0eac0c05-dbf1-4c0b-af6d-53c5df91e290","system_id":"levelo_inurba_marseille","lat":43.29709,"lon":5.37127,"is_reserved":false,"is_disabled":false,"rental_uris":{"android":"levelo://app?vid=0eac0c05-dbf1-4c0b-af6d-53c5df91e290","ios":"levelo://app?vid=0eac0c05-dbf1-4c0b-af6d-53c5df91e290"},"vehicle_type_id":"4","last_reported":1757837527,"current_range_meters":8400,"station_id":"","pricing_plan_id":"cebpf4jnsgd1na2vs0mg"},{"bike_id":"fe8ea19a-9452-430b-9391-4bd937dd3622","system_id":"levelo_inurba_marseille","lat":43.28153,"lon":5.39071,"is_reserved":false,"is_disabled":false,"rental_uris":{"android":"levelo://app?vid=fe8ea19a-9452-430b-9391-4bd937dd3622","ios":"levelo://app?vid=fe8ea19a-9452-430b-9391-4bd937dd3622"},"vehicle_type_id":"4","last_reported":1757837527,"current_range_meters":8400,"station_id":"","pricing_plan_id":"cebpf4jnsgd1na2vs0mg"},{"bike_id":"72ecfdf4-24e1-4d21-b6f0-ea4846497a4f","system_id":"levelo_inurba_marseille","lat":43.28731,"lon":5.39965,"is_reserved":false,"is_disabled":false,"rental_uris":{"android":"levelo://app?vid=72ecfdf4-24e1-4d21-b6f0-ea4846497a4f","ios":"levelo://app?vid=72ecfdf4-24e1-4d21-b6f0-ea4846497a4f"},"vehicle_type_id":"4","last_reported":1757837527,"current_range_meters":8400,"station_id":"ce4bho92rcd13ifvqh3g","pricing_plan_id":"cebpf4jnsgd1na2vs0mg"},{"bike_id":"c50abdd5-291b-4939-a921-e220d7da5098","system_id":"levelo_inurba_marseille","lat":43.297893,"lon":5.381151,"is_reserved":false,"is_disabled":true,"rental_uris":{"android":"levelo://app?vid=c50abdd5-291b-4939-a921-e220d7da5098","ios":"levelo://app?vid=c50abdd5-291b-4939-a921-e220d7da5098"},"vehicle_type_id":"4","last_reported":1757837527,"current_range_meters":8800,"station_id":"ce4bgip2rcd13ifvqbb0","pricing_plan_id":"cebpf4jnsgd1na2vs0mg"},{"bike_id":"8c2c4ca1-e2d8-4cf6-94d6-963467695610","system_id":"levelo_inurba_marseille","lat":43.31107,"lon":5.38555,"is_reserved":false,"is_disabled":false,"rental_uris":{"android":"levelo://app?vid=8c2c4ca1-e2d8-4cf6-94d6-963467695610","ios":"levelo://app?vid=8c2c4ca1-e2d8-4cf6-94d6-963467695610"},"vehicle_type_id":"4","last_reported":1757837527,"current_range_meters":8800,"station_id":"","pricing_plan_id":"cebpf4jnsgd1na2vs0mg"},{"bike_id":"4891d751-b66c-4a3d-89d5-78926b795844","system_id":"levelo_inurba_marseille","lat":43.30128,"lon":5.44982,"is_reserved":false,"is_disabled":false,"rental_uris":{"android":"levelo://app?vid=4891d751-b66c-4a3d-89d5-78926b795844","ios":"levelo://app?vid=4891d751-b66c-4a3d-89d5-78926b795844"},"vehicle_type_id":"4","last_reported":1757837527,"current_range_meters":8800,"station_id":"","pricing_plan_id":"cebpf4jnsgd1na2vs0mg"},{"bike_id":"463345a6-2d4f-4448-8488-9cab1efda713","system_id":"levelo_inurba_marseille","lat":43.254452,"lon":5.401158,"is_reserved":false,"is_disabled":false,"rental_uris":{"android":"levelo://app?vid=463345a6-2d4f-4448-8488-9cab1efda713","ios":"levelo://app?vid=463345a6-2d4f-4448-8488-9cab1efda713"},"vehicle_type_id":"4","last_reported":1757837527,"current_range_meters":8800,"station_id":"","pricing_plan_id":"cebpf4jnsgd1na2vs0mg"},{"bike_id":"2c19a37a-6c9a-46fc-8301-7a6bf4f22a69","system_id":"levelo_inurba_marseille","lat":43.2315,"lon":5.43725,"is_reserved":false,"is_disabled":false,"rental_uris":{"android":"levelo://app?vid=2c19a37a-6c9a-46fc-8301-7a6bf4f22a69","ios":"levelo://app?vid=2c19a37a-6c9a-46fc-8301-7a6bf4f22a69"},"vehicle_type_id":"4","last_reported":1757837527,"current_range_meters":8800,"station_id":"ce4bhmp2rcd13ifvqgog","pricing_plan_id":"cebpf4jnsgd1na2vs0mg"},{"bike_id":"84c8fb15-5b5b-46a3-b92a-7de6406f90b3","system_id":"levelo_inurba_marseille","lat":43.26794,"lon":5.39432,"is_reserved":false,"is_disabled":true,"rental_uris":{"android":"levelo://app?vid=84c8fb15-5b5b-46a3-b92a-7de6406f90b3","ios":"levelo://app?vid=84c8fb15-5b5b-46a3-b92a-7de6406f90b3"},"vehicle_type_id":"4","last_reported":1757837527,"current_range_meters":9200,"station_id":"ce4bhh12rcd13ifvqfg0","pricing_plan_id":"cebpf4jnsgd1na2vs0mg"},{"bike_id":"46e4a299-4230-4bb0-8613-af062640e195","system_id":"levelo_inurba_marseille","lat":43.27621,"lon":5.361,"is_reserved":false,"is_disabled":false,"rental_uris":{"android":"levelo://app?vid=46e4a299-4230-4bb0-8613-af062640e195","ios":"levelo://app?vid=46e4a299-4230-4bb0-8613-af062640e195"},"vehicle_type_id":"4","last_reported":1757837527,"current_range_meters":9600,"station_id":"ce4bgj92rcd13ifvqbe0","pricing_plan_id":"cebpf4jnsgd1na2vs0mg"},{"bike_id":"4d61f140-cedf-4e43-b897-52b69966c221","system_id":"levelo_inurba_marseille","lat":43.28368,"lon":5.38643,"is_reserved":false,"is_disabled":false,"rental_uris":{"android":"levelo://app?vid=4d61f140-cedf-4e43-b897-52b69966c221","ios":"levelo://app?vid=4d61f140-cedf-4e43-b897-52b69966c221"},"vehicle_type_id":"4","last_reported":1757837527,"current_range_meters":9600,"station_id":"ce4bh492rcd13ifvqdvg","pricing_plan_id":"cebpf4jnsgd1na2vs0mg"},{"bike_id":"100249e1-bc8b-4e85-86ce-ba06f741d307","system_id":"levelo_inurba_marseille","lat":43.31341,"lon":5.36733,"is_reserved":false,"is_disabled":false,"rental_uris":{"android":"levelo://app?vid=100249e1-bc8b-4e85-86ce-ba06f741d307","ios":"levelo://app?vid=100249e1-bc8b-4e85-86ce-ba06f741d307"},"vehicle_type_id":"4","last_reported":1757837527,"current_range_meters":7200,"station_id":"ce4bgr92rcd13ifvqc6g","pricing_plan_id":"cebpf4jnsgd1na2vs0mg"},{"bike_id":"84be000e-b186-4e60-8aaa-b7a0f42a7175","system_id":"levelo_inurba_marseille","lat":43.337616,"lon":5.374353,"is_reserved":false,"is_disabled":false,"rental_uris":{"android":"levelo://app?vid=84be000e-b186-4e60-8aaa-b7a0f42a7175","ios":"levelo://app?vid=84be000e-b186-4e60-8aaa-b7a0f42a7175"},"vehicle_type_id":"4","last_reported":1757837527,"current_range_meters":9600,"station_id":"","pricing_plan_id":"cebpf4jnsgd1na2vs0mg"},{"bike_id":"08dd149f-234d-4257-9742-8ea8a2f2658d","system_id":"levelo_inurba_marseille","lat":43.28403,"lon":5.37512,"is_reserved":false,"is_disabled":true,"rental_uris":{"android":"levelo://app?vid=08dd149f-234d-4257-9742-8ea8a2f2658d","ios":"levelo://app?vid=08dd149f-234d-4257-9742-8ea8a2f2658d"},"vehicle_type_id":"4","last_reported":1757837527,"current_range_meters":9600,"station_id":"ce4bh412rcd13ifvqds0","pricing_plan_id":"cebpf4jnsgd1na2vs0mg"},{"bike_id":"d5c98035-fc72-4062-a3ec-13203f68e8ed","system_id":"levelo_inurba_marseille","lat":43.28866,"lon":5.42516,"is_reserved":false,"is_disabled":false,"rental_uris":{"android":"levelo://app?vid=d5c98035-fc72-4062-a3ec-13203f68e8ed","ios":"levelo://app?vid=d5c98035-fc72-4062-a3ec-13203f68e8ed"},"vehicle_type_id":"4","last_reported":1757837527,"current_range_meters":9600,"station_id":"","pricing_plan_id":"cebpf4jnsgd1na2vs0mg"},{"bike_id":"77882dd1-4c95-455c-b658-db43e266015a","system_id":"levelo_inurba_marseille","lat":43.30334,"lon":5.40434,"is_reserved":false,"is_disabled":false,"rental_uris":{"android":"levelo://app?vid=77882dd1-4c95-455c-b658-db43e266015a","ios":"levelo://app?vid=77882dd1-4c95-455c-b658-db43e266015a"},"vehicle_type_id":"4","last_reported":1757837527,"current_range_meters":10000,"station_id":"ce4bh012rcd13ifvqd10","pricing_plan_id":"cebpf4jnsgd1na2vs0mg"},{"bike_id":"41120d9e-63be-48eb-8e3d-971f6bd8e73f","system_id":"levelo_inurba_marseille","lat":43.26207,"lon":5.37939,"is_reserved":false,"is_disabled":false,"rental_uris":{"android":"levelo://app?vid=41120d9e-63be-48eb-8e3d-971f6bd8e73f","ios":"levelo://app?vid=41120d9e-63be-48eb-8e3d-971f6bd8e73f"},"vehicle_type_id":"4","last_reported":1757837527,"current_range_meters":10000,"station_id":"ce4bhjp2rcd13ifvqg90","pricing_plan_id":"cebpf4jnsgd1na2vs0mg"},{"bike_id":"62f771b2-4873-460c-a103-d249fe08d9a3","system_id":"levelo_inurba_marseille","lat":43.28462,"lon":5.35897,"is_reserved":false,"is_disabled":true,"rental_uris":{"android":"levelo://app?vid=62f771b2-4873-460c-a103-d249fe08d9a3","ios":"levelo://app?vid=62f771b2-4873-460c-a103-d249fe08d9a3"},"vehicle_type_id":"4","last_reported":1757837527,"current_range_meters":10000,"station_id":"ce4bhah2rcd13ifvqei0","pricing_plan_id":"cebpf4jnsgd1na2vs0mg"},{"bike_id":"beb6189c-c21e-4836-b631-6b5c31a632d8","system_id":"levelo_inurba_marseille","lat":43.22558,"lon":5.4163,"is_reserved":false,"is_disabled":false,"rental_uris":{"android":"levelo://app?vid=beb6189c-c21e-4836-b631-6b5c31a632d8","ios":"levelo://app?vid=beb6189c-c21e-4836-b631-6b5c31a632d8"},"vehicle_type_id":"4","last_reported":1757837527,"current_range_meters":10000,"station_id":"st_d2o4gvlbi1j2169b742g","pricing_plan_id":"cebpf4jnsgd1na2vs0mg"},{"bike_id":"3510d789-ae1f-4c67-ae2b-5d51a86b5480","system_id":"levelo_inurba_marseille","lat":43.31128,"lon":5.37781,"is_reserved":false,"is_disabled":false,"rental_uris":{"android":"levelo://app?vid=3510d789-ae1f-4c67-ae2b-5d51a86b5480","ios":"levelo://app?vid=3510d789-ae1f-4c67-ae2b-5d51a86b5480"},"vehicle_type_id":"4","last_reported":1757837527,"current_range_meters":10000,"station_id":"ce4bgt92rcd13ifvqcg0","pricing_plan_id":"cebpf4jnsgd1na2vs0mg"},{"bike_id":"b68d3ec6-309a-49f8-95d8-f452d348bf7f","system_id":"levelo_inurba_marseille","lat":43.32367,"lon":5.38894,"is_reserved":false,"is_disabled":false,"rental_uris":{"android":"levelo://app?vid=b68d3ec6-309a-49f8-95d8-f452d348bf7f","ios":"levelo://app?vid=b68d3ec6-309a-49f8-95d8-f452d348bf7f"},"vehicle_type_id":"4","last_reported":1757837527,"current_range_meters":10000,"station_id":"ce4bhqp2rcd13ifvqhog","pricing_plan_id":"cebpf4jnsgd1na2vs0mg"},{"bike_id":"d5fe8587-d577-4927-9f03-bf5f1fa338f3","system_id":"levelo_inurba_marseille","lat":43.3257,"lon":5.37593,"is_reserved":false,"is_disabled":false,"rental_uris":{"android":"levelo://app?vid=d5fe8587-d577-4927-9f03-bf5f1fa338f3","ios":"levelo://app?vid=d5fe8587-d577-4927-9f03-bf5f1fa338f3"},"vehicle_type_id":"4","last_reported":1757837527,"current_range_meters":10000,"station_id":"","pricing_plan_id":"cebpf4jnsgd1na2vs0mg"},{"bike_id":"2a7bc07a-c148-4a25-b2c5-5233e29560f5","system_id":"levelo_inurba_marseille","lat":43.286031,"lon":5.370758,"is_reserved":false,"is_disabled":false,"rental_uris":{"android":"levelo://app?vid=2a7bc07a-c148-4a25-b2c5-5233e29560f5","ios":"levelo://app?vid=2a7bc07a-c148-4a25-b2c5-5233e29560f5"},"vehicle_type_id":"4","last_reported":1757837527,"current_range_meters":10000,"station_id":"ce4bht12rcd13ifvqi60","pricing_plan_id":"cebpf4jnsgd1na2vs0mg"},{"bike_id":"02dbb44c-70e3-4a7a-b86e-6159cc35ba47","system_id":"levelo_inurba_marseille","lat":43.29587,"lon":5.38689,"is_reserved":false,"is_disabled":false,"rental_uris":{"android":"levelo://app?vid=02dbb44c-70e3-4a7a-b86e-6159cc35ba47","ios":"levelo://app?vid=02dbb44c-70e3-4a7a-b86e-6159cc35ba47"},"vehicle_type_id":"4","last_reported":1757837527,"current_range_meters":10000,"station_id":"ce4bgih2rcd13ifvqba0","pricing_plan_id":"cebpf4jnsgd1na2vs0mg"},{"bike_id":"6515536f-56de-4109-b7a1-24c742aed225","system_id":"levelo_inurba_marseille","lat":43.31997,"lon":5.37234,"is_reserved":false,"is_disabled":false,"rental_uris":{"android":"levelo://app?vid=6515536f-56de-4109-b7a1-24c742aed225","ios":"levelo://app?vid=6515536f-56de-4109-b7a1-24c742aed225"},"vehicle_type_id":"4","last_reported":1757837527,"current_range_meters":10800,"station_id":"","pricing_plan_id":"cebpf4jnsgd1na2vs0mg"},{"bike_id":"55d59e02-f5a5-4e1a-9360-556e842fa2a4","system_id":"levelo_inurba_marseille","lat":43.33764,"lon":5.37496,"is_reserved":false,"is_disabled":false,"rental_uris":{"android":"levelo://app?vid=55d59e02-f5a5-4e1a-9360-556e842fa2a4","ios":"levelo://app?vid=55d59e02-f5a5-4e1a-9360-556e842fa2a4"},"vehicle_type_id":"4","last_reported":1757837527,"current_range_meters":10800,"station_id":"","pricing_plan_id":"cebpf4jnsgd1na2vs0mg"},{"bike_id":"ee42c31a-b74b-4b2d-917a-cd50dc10c6ce","system_id":"levelo_inurba_marseille","lat":43.33057,"lon":5.39018,"is_reserved":false,"is_disabled":false,"rental_uris":{"android":"levelo://app?vid=ee42c31a-b74b-4b2d-917a-cd50dc10c6ce","ios":"levelo://app?vid=ee42c31a-b74b-4b2d-917a-cd50dc10c6ce"},"vehicle_type_id":"4","last_reported":1757837527,"current_range_meters":10800,"station_id":"ce4bhr92rcd13ifvqhrg","pricing_plan_id":"cebpf4jnsgd1na2vs0mg"},{"bike_id":"8bf23ae7-e101-4f94-825d-1c56fb1efde9","system_id":"levelo_inurba_marseille","lat":43.28483,"lon":5.38565,"is_reserved":false,"is_disabled":false,"rental_uris":{"android":"levelo://app?vid=8bf23ae7-e101-4f94-825d-1c56fb1efde9","ios":"levelo://app?vid=8bf23ae7-e101-4f94-825d-1c56fb1efde9"},"vehicle_type_id":"4","last_reported":1757837527,"current_range_meters":10800,"station_id":"ce4bh8p2rcd13ifvqeb0","pricing_plan_id":"cebpf4jnsgd1na2vs0mg"},{"bike_id":"d9c11a94-d122-4240-b95b-24fdee8810ac","system_id":"levelo_inurba_marseille","lat":43.28287,"lon":5.39921,"is_reserved":false,"is_disabled":false,"rental_uris":{"android":"levelo://app?vid=d9c11a94-d122-4240-b95b-24fdee8810ac","ios":"levelo://app?vid=d9c11a94-d122-4240-b95b-24fdee8810ac"},"vehicle_type_id":"4","last_reported":1757837527,"current_range_meters":10800,"station_id":"","pricing_plan_id":"cebpf4jnsgd1na2vs0mg"},{"bike_id":"31f4578e-18c6-48fb-9fec-123fce0578f9","system_id":"levelo_inurba_marseille","lat":43.337579,"lon":5.374402,"is_reserved":false,"is_disabled":false,"rental_uris":{"android":"levelo://app?vid=31f4578e-18c6-48fb-9fec-123fce0578f9","ios":"levelo://app?vid=31f4578e-18c6-48fb-9fec-123fce0578f9"},"vehicle_type_id":"4","last_reported":1757837527,"current_range_meters":10800,"station_id":"","pricing_plan_id":"cebpf4jnsgd1na2vs0mg"},{"bike_id":"54756892-40fc-40da-862a-36f475f86070","system_id":"levelo_inurba_marseille","lat":43.29665,"lon":5.37154,"is_reserved":false,"is_disabled":false,"rental_uris":{"android":"levelo://app?vid=54756892-40fc-40da-862a-36f475f86070","ios":"levelo://app?vid=54756892-40fc-40da-862a-36f475f86070"},"vehicle_type_id":"4","last_reported":1757837527,"current_range_meters":10800,"station_id":"","pricing_plan_id":"cebpf4jnsgd1na2vs0mg"},{"bike_id":"067f89cf-36d4-43fb-a2d1-306a7bffd796","system_id":"levelo_inurba_marseille","lat":43.21752,"lon":5.34601,"is_reserved":false,"is_disabled":false,"rental_uris":{"android":"levelo://app?vid=067f89cf-36d4-43fb-a2d1-306a7bffd796","ios":"levelo://app?vid=067f89cf-36d4-43fb-a2d1-306a7bffd796"},"vehicle_type_id":"4","last_reported":1757837527,"current_range_meters":10800,"station_id":"st_cvj6r9ubvosntc0bgbag","pricing_plan_id":"cebpf4jnsgd1na2vs0mg"},{"bike_id":"67a46200-96e7-4b1b-a046-4f776b681e7a","system_id":"levelo_inurba_marseille","lat":43.30291,"lon":5.37732,"is_reserved":false,"is_disabled":false,"rental_uris":{"android":"levelo://app?vid=67a46200-96e7-4b1b-a046-4f776b681e7a","ios":"levelo://app?vid=67a46200-96e7-4b1b-a046-4f776b681e7a"},"vehicle_type_id":"4","last_reported":1757837527,"current_range_meters":11200,"station_id":"ce4bguh2rcd13ifvqcj0","pricing_plan_id":"cebpf4jnsgd1na2vs0mg"},{"bike_id":"cd104b68-7370-4e88-ba9c-1edeee0f6c77","system_id":"levelo_inurba_marseille","lat":43.25223,"lon":5.42481,"is_reserved":false,"is_disabled":true,"rental_uris":{"android":"levelo://app?vid=cd104b68-7370-4e88-ba9c-1edeee0f6c77","ios":"levelo://app?vid=cd104b68-7370-4e88-ba9c-1edeee0f6c77"},"vehicle_type_id":"4","last_reported":1757837527,"current_range_meters":11200,"station_id":"","pricing_plan_id":"cebpf4jnsgd1na2vs0mg"},{"bike_id":"b5e6492f-c6f6-4862-a7a2-5eb9440d5281","system_id":"levelo_inurba_marseille","lat":43.27995,"lon":5.40005,"is_reserved":false,"is_disabled":false,"rental_uris":{"android":"levelo://app?vid=b5e6492f-c6f6-4862-a7a2-5eb9440d5281","ios":"levelo://app?vid=b5e6492f-c6f6-4862-a7a2-5eb9440d5281"},"vehicle_type_id":"4","last_reported":1757837527,"current_range_meters":11200,"station_id":"ce4bho92rcd13ifvqh4g","pricing_plan_id":"cebpf4jnsgd1na2vs0mg"},{"bike_id":"7e6f8834-af2a-4c33-8175-0cff373c8e02","system_id":"levelo_inurba_marseille","lat":43.28372,"lon":5.38658,"is_reserved":false,"is_disabled":true,"rental_uris":{"android":"levelo://app?vid=7e6f8834-af2a-4c33-8175-0cff373c8e02","ios":"levelo://app?vid=7e6f8834-af2a-4c33-8175-0cff373c8e02"},"vehicle_type_id":"4","last_reported":1757837527,"current_range_meters":11200,"station_id":"ce4bh492rcd13ifvqdvg","pricing_plan_id":"cebpf4jnsgd1na2vs0mg"},{"bike_id":"7ef51be2-3bc4-430d-a2dc-d4cd73e2713a","system_id":"levelo_inurba_marseille","lat":43.29033,"lon":5.39972,"is_reserved":false,"is_disabled":false,"rental_uris":{"android":"levelo://app?vid=7ef51be2-3bc4-430d-a2dc-d4cd73e2713a","ios":"levelo://app?vid=7ef51be2-3bc4-430d-a2dc-d4cd73e2713a"},"vehicle_type_id":"4","last_reported":1757837527,"current_range_meters":12800,"station_id":"ce4bh392rcd13ifvqdm0","pricing_plan_id":"cebpf4jnsgd1na2vs0mg"},{"bike_id":"3bb6dbb8-82e2-4ba8-8625-08d6cf9c1c43","system_id":"levelo_inurba_marseille","lat":43.293055,"lon":5.371821,"is_reserved":false,"is_disabled":true,"rental_uris":{"android":"levelo://app?vid=3bb6dbb8-82e2-4ba8-8625-08d6cf9c1c43","ios":"levelo://app?vid=3bb6dbb8-82e2-4ba8-8625-08d6cf9c1c43"},"vehicle_type_id":"4","last_reported":1757837527,"current_range_meters":11200,"station_id":"ce4bgh92rcd13ifvqb40","pricing_plan_id":"cebpf4jnsgd1na2vs0mg"},{"bike_id":"40207740-3997-48f7-a3a9-b19ccf0a0c3b","system_id":"levelo_inurba_marseille","lat":43.30403,"lon":5.41282,"is_reserved":false,"is_disabled":false,"rental_uris":{"android":"levelo://app?vid=40207740-3997-48f7-a3a9-b19ccf0a0c3b","ios":"levelo://app?vid=40207740-3997-48f7-a3a9-b19ccf0a0c3b"},"vehicle_type_id":"4","last_reported":1757837527,"current_range_meters":11200,"station_id":"ce4bhop2rcd13ifvqh8g","pricing_plan_id":"cebpf4jnsgd1na2vs0mg"},{"bike_id":"2ae0e295-9731-4f6a-85b5-1b8420ea7571","system_id":"levelo_inurba_marseille","lat":43.24635,"lon":5.43159,"is_reserved":false,"is_disabled":false,"rental_uris":{"android":"levelo://app?vid=2ae0e295-9731-4f6a-85b5-1b8420ea7571","ios":"levelo://app?vid=2ae0e295-9731-4f6a-85b5-1b8420ea7571"},"vehicle_type_id":"4","last_reported":1757837527,"current_range_meters":11600,"station_id":"st_d2m6c4gdas8pm72e190g","pricing_plan_id":"cebpf4jnsgd1na2vs0mg"},{"bike_id":"c86afea0-8a19-46b1-9ed7-c5ebf3e07efc","system_id":"levelo_inurba_marseille","lat":43.24382,"lon":5.37083,"is_reserved":false,"is_disabled":false,"rental_uris":{"android":"levelo://app?vid=c86afea0-8a19-46b1-9ed7-c5ebf3e07efc","ios":"levelo://app?vid=c86afea0-8a19-46b1-9ed7-c5ebf3e07efc"},"vehicle_type_id":"4","last_reported":1757837527,"current_range_meters":11600,"station_id":"ce4bhhh2rcd13ifvqfk0","pricing_plan_id":"cebpf4jnsgd1na2vs0mg"},{"bike_id":"1fd0839a-5871-4f14-8b02-5a5126ced4cd","system_id":"levelo_inurba_marseille","lat":43.231889,"lon":5.399981,"is_reserved":false,"is_disabled":false,"rental_uris":{"android":"levelo://app?vid=1fd0839a-5871-4f14-8b02-5a5126ced4cd","ios":"levelo://app?vid=1fd0839a-5871-4f14-8b02-5a5126ced4cd"},"vehicle_type_id":"4","last_reported":1757837527,"current_range_meters":11600,"station_id":"ce4bhn12rcd13ifvqgqg","pricing_plan_id":"cebpf4jnsgd1na2vs0mg"},{"bike_id":"f07d1a34-6972-4c1d-8ed8-100dd0fc1e78","system_id":"levelo_inurba_marseille","lat":43.32985,"lon":5.39052,"is_reserved":false,"is_disabled":false,"rental_uris":{"android":"levelo://app?vid=f07d1a34-6972-4c1d-8ed8-100dd0fc1e78","ios":"levelo://app?vid=f07d1a34-6972-4c1d-8ed8-100dd0fc1e78"},"vehicle_type_id":"4","last_reported":1757837527,"current_range_meters":11600,"station_id":"ce4bhr92rcd13ifvqhrg","pricing_plan_id":"cebpf4jnsgd1na2vs0mg"},{"bike_id":"b87f131c-e399-4d9f-8ad2-9be0f1143f7b","system_id":"levelo_inurba_marseille","lat":43.2623,"lon":5.40423,"is_reserved":false,"is_disabled":false,"rental_uris":{"android":"levelo://app?vid=b87f131c-e399-4d9f-8ad2-9be0f1143f7b","ios":"levelo://app?vid=b87f131c-e399-4d9f-8ad2-9be0f1143f7b"},"vehicle_type_id":"4","last_reported":1757837527,"current_range_meters":11600,"station_id":"ce4bhmh2rcd13ifvqgmg","pricing_plan_id":"cebpf4jnsgd1na2vs0mg"},{"bike_id":"df41bfb5-751e-4d4d-9862-e3f77512c772","system_id":"levelo_inurba_marseille","lat":43.29536,"lon":5.42297,"is_reserved":false,"is_disabled":false,"rental_uris":{"android":"levelo://app?vid=df41bfb5-751e-4d4d-9862-e3f77512c772","ios":"levelo://app?vid=df41bfb5-751e-4d4d-9862-e3f77512c772"},"vehicle_type_id":"4","last_reported":1757837527,"current_range_meters":12000,"station_id":"ce4bhph2rcd13ifvqhdg","pricing_plan_id":"cebpf4jnsgd1na2vs0mg"},{"bike_id":"0418ed23-d4c6-49db-b310-d4f985bd3bc3","system_id":"levelo_inurba_marseille","lat":43.32127,"lon":5.36764,"is_reserved":false,"is_disabled":false,"rental_uris":{"android":"levelo://app?vid=0418ed23-d4c6-49db-b310-d4f985bd3bc3","ios":"levelo://app?vid=0418ed23-d4c6-49db-b310-d4f985bd3bc3"},"vehicle_type_id":"4","last_reported":1757837527,"current_range_meters":12000,"station_id":"ce4bhrh2rcd13ifvqhug","pricing_plan_id":"cebpf4jnsgd1na2vs0mg"},{"bike_id":"7607f31d-c3d9-44c7-87c6-9a55e064f73f","system_id":"levelo_inurba_marseille","lat":43.24661,"lon":5.38164,"is_reserved":false,"is_disabled":false,"rental_uris":{"android":"levelo://app?vid=7607f31d-c3d9-44c7-87c6-9a55e064f73f","ios":"levelo://app?vid=7607f31d-c3d9-44c7-87c6-9a55e064f73f"},"vehicle_type_id":"4","last_reported":1757837527,"current_range_meters":12000,"station_id":"ce4bhih2rcd13ifvqfr0","pricing_plan_id":"cebpf4jnsgd1na2vs0mg"},{"bike_id":"3edab8b5-08ab-4bd7-a8e3-46e14fec2b69","system_id":"levelo_inurba_marseille","lat":43.22562,"lon":5.41626,"is_reserved":false,"is_disabled":false,"rental_uris":{"android":"levelo://app?vid=3edab8b5-08ab-4bd7-a8e3-46e14fec2b69","ios":"levelo://app?vid=3edab8b5-08ab-4bd7-a8e3-46e14fec2b69"},"vehicle_type_id":"4","last_reported":1757837527,"current_range_meters":12000,"station_id":"st_d2o4gvlbi1j2169b742g","pricing_plan_id":"cebpf4jnsgd1na2vs0mg"},{"bike_id":"9613ee4d-bd84-40ec-a183-9abb4af6a1b6","system_id":"levelo_inurba_marseille","lat":43.32372,"lon":5.36762,"is_reserved":false,"is_disabled":false,"rental_uris":{"android":"levelo://app?vid=9613ee4d-bd84-40ec-a183-9abb4af6a1b6","ios":"levelo://app?vid=9613ee4d-bd84-40ec-a183-9abb4af6a1b6"},"vehicle_type_id":"4","last_reported":1757837527,"current_range_meters":12000,"station_id":"ce4bhsh2rcd13ifvqi2g","pricing_plan_id":"cebpf4jnsgd1na2vs0mg"},{"bike_id":"e6995fc2-0841-49ae-82ed-044445cc294f","system_id":"levelo_inurba_marseille","lat":43.29304,"lon":5.37467,"is_reserved":false,"is_disabled":false,"rental_uris":{"android":"levelo://app?vid=e6995fc2-0841-49ae-82ed-044445cc294f","ios":"levelo://app?vid=e6995fc2-0841-49ae-82ed-044445cc294f"},"vehicle_type_id":"4","last_reported":1757837527,"current_range_meters":12000,"station_id":"ce4bgi12rcd13ifvqb70","pricing_plan_id":"cebpf4jnsgd1na2vs0mg"},{"bike_id":"c5cba6d7-e282-4417-a818-5fc0802dcb08","system_id":"levelo_inurba_marseille","lat":43.33761,"lon":5.3745,"is_reserved":false,"is_disabled":false,"rental_uris":{"android":"levelo://app?vid=c5cba6d7-e282-4417-a818-5fc0802dcb08","ios":"levelo://app?vid=c5cba6d7-e282-4417-a818-5fc0802dcb08"},"vehicle_type_id":"4","last_reported":1757837527,"current_range_meters":12000,"station_id":"","pricing_plan_id":"cebpf4jnsgd1na2vs0mg"},{"bike_id":"f054a220-2a11-4bfe-9898-2b390f50b412","system_id":"levelo_inurba_marseille","lat":43.28469,"lon":5.38436,"is_reserved":false,"is_disabled":true,"rental_uris":{"android":"levelo://app?vid=f054a220-2a11-4bfe-9898-2b390f50b412","ios":"levelo://app?vid=f054a220-2a11-4bfe-9898-2b390f50b412"},"vehicle_type_id":"4","last_reported":1757837527,"current_range_meters":12000,"station_id":"ce4bh512rcd13ifvqe3g","pricing_plan_id":"cebpf4jnsgd1na2vs0mg"},{"bike_id":"7970a715-5b02-4b3d-8748-3f1c4b7d6148","system_id":"levelo_inurba_marseille","lat":43.30772,"lon":5.37641,"is_reserved":false,"is_disabled":false,"rental_uris":{"android":"levelo://app?vid=7970a715-5b02-4b3d-8748-3f1c4b7d6148","ios":"levelo://app?vid=7970a715-5b02-4b3d-8748-3f1c4b7d6148"},"vehicle_type_id":"4","last_reported":1757837527,"current_range_meters":12000,"station_id":"ce4bgv92rcd13ifvqcq0","pricing_plan_id":"cebpf4jnsgd1na2vs0mg"},{"bike_id":"e7a329bd-ed66-4ac7-aaba-63f2810ddd86","system_id":"levelo_inurba_marseille","lat":43.31917,"lon":5.37203,"is_reserved":false,"is_disabled":false,"rental_uris":{"android":"levelo://app?vid=e7a329bd-ed66-4ac7-aaba-63f2810ddd86","ios":"levelo://app?vid=e7a329bd-ed66-4ac7-aaba-63f2810ddd86"},"vehicle_type_id":"4","last_reported":1757837527,"current_range_meters":12400,"station_id":"","pricing_plan_id":"cebpf4jnsgd1na2vs0mg"},{"bike_id":"16572620-16f0-40a6-8afc-79d0b1846f64","system_id":"levelo_inurba_marseille","lat":43.28166,"lon":5.42638,"is_reserved":false,"is_disabled":false,"rental_uris":{"android":"levelo://app?vid=16572620-16f0-40a6-8afc-79d0b1846f64","ios":"levelo://app?vid=16572620-16f0-40a6-8afc-79d0b1846f64"},"vehicle_type_id":"4","last_reported":1757837527,"current_range_meters":12400,"station_id":"ce4bhnh2rcd13ifvqgug","pricing_plan_id":"cebpf4jnsgd1na2vs0mg"},{"bike_id":"d16230ff-2955-426b-a6aa-84f8e2e13648","system_id":"levelo_inurba_marseille","lat":43.28864,"lon":5.42515,"is_reserved":false,"is_disabled":false,"rental_uris":{"android":"levelo://app?vid=d16230ff-2955-426b-a6aa-84f8e2e13648","ios":"levelo://app?vid=d16230ff-2955-426b-a6aa-84f8e2e13648"},"vehicle_type_id":"4","last_reported":1757837527,"current_range_meters":12400,"station_id":"","pricing_plan_id":"cebpf4jnsgd1na2vs0mg"},{"bike_id":"c682ef70-00bc-4415-9b10-9a35bd5ddcc1","system_id":"levelo_inurba_marseille","lat":43.274931,"lon":5.424499,"is_reserved":false,"is_disabled":false,"rental_uris":{"android":"levelo://app?vid=c682ef70-00bc-4415-9b10-9a35bd5ddcc1","ios":"levelo://app?vid=c682ef70-00bc-4415-9b10-9a35bd5ddcc1"},"vehicle_type_id":"4","last_reported":1757837527,"current_range_meters":12800,"station_id":"ce4bhn92rcd13ifvqgrg","pricing_plan_id":"cebpf4jnsgd1na2vs0mg"},{"bike_id":"1fa9cf8a-cbc2-4f66-a5af-49139eedcffa","system_id":"levelo_inurba_marseille","lat":43.31684,"lon":5.40482,"is_reserved":false,"is_disabled":false,"rental_uris":{"android":"levelo://app?vid=1fa9cf8a-cbc2-4f66-a5af-49139eedcffa","ios":"levelo://app?vid=1fa9cf8a-cbc2-4f66-a5af-49139eedcffa"},"vehicle_type_id":"4","last_reported":1757837527,"current_range_meters":12800,"station_id":"ce4bh012rcd13ifvqd00","pricing_plan_id":"cebpf4jnsgd1na2vs0mg"},{"bike_id":"ffab450d-4c81-4d44-8256-678a72cf8297","system_id":"levelo_inurba_marseille","lat":43.31705,"lon":5.40446,"is_reserved":false,"is_disabled":false,"rental_uris":{"android":"levelo://app?vid=ffab450d-4c81-4d44-8256-678a72cf8297","ios":"levelo://app?vid=ffab450d-4c81-4d44-8256-678a72cf8297"},"vehicle_type_id":"4","last_reported":1757837527,"current_range_meters":12800,"station_id":"ce4bh012rcd13ifvqd00","pricing_plan_id":"cebpf4jnsgd1na2vs0mg"},{"bike_id":"76044b47-22ff-4054-b180-0d72b52b8bee","system_id":"levelo_inurba_marseille","lat":43.24619,"lon":5.43167,"is_reserved":false,"is_disabled":false,"rental_uris":{"android":"levelo://app?vid=76044b47-22ff-4054-b180-0d72b52b8bee","ios":"levelo://app?vid=76044b47-22ff-4054-b180-0d72b52b8bee"},"vehicle_type_id":"4","last_reported":1757837527,"current_range_meters":12800,"station_id":"st_d2m6c4gdas8pm72e190g","pricing_plan_id":"cebpf4jnsgd1na2vs0mg"},{"bike_id":"96fe0828-14a5-48de-9d76-144a90217a1c","system_id":"levelo_inurba_marseille","lat":43.30267,"lon":5.3772,"is_reserved":false,"is_disabled":false,"rental_uris":{"android":"levelo://app?vid=96fe0828-14a5-48de-9d76-144a90217a1c","ios":"levelo://app?vid=96fe0828-14a5-48de-9d76-144a90217a1c"},"vehicle_type_id":"4","last_reported":1757837527,"current_range_meters":12800,"station_id":"ce4bguh2rcd13ifvqcj0","pricing_plan_id":"cebpf4jnsgd1na2vs0mg"},{"bike_id":"fea14aba-8bf9-4329-9493-7fc9afa28ad8","system_id":"levelo_inurba_marseille","lat":43.23156,"lon":5.43717,"is_reserved":false,"is_disabled":false,"rental_uris":{"android":"levelo://app?vid=fea14aba-8bf9-4329-9493-7fc9afa28ad8","ios":"levelo://app?vid=fea14aba-8bf9-4329-9493-7fc9afa28ad8"},"vehicle_type_id":"4","last_reported":1757837527,"current_range_meters":12800,"station_id":"ce4bhmp2rcd13ifvqgog","pricing_plan_id":"cebpf4jnsgd1na2vs0mg"},{"bike_id":"3bc338fd-b3c5-4caa-b6e6-3c70a52689ba","system_id":"levelo_inurba_marseille","lat":43.31603,"lon":5.38955,"is_reserved":false,"is_disabled":false,"rental_uris":{"android":"levelo://app?vid=3bc338fd-b3c5-4caa-b6e6-3c70a52689ba","ios":"levelo://app?vid=3bc338fd-b3c5-4caa-b6e6-3c70a52689ba"},"vehicle_type_id":"4","last_reported":1757837527,"current_range_meters":12800,"station_id":"","pricing_plan_id":"cebpf4jnsgd1na2vs0mg"},{"bike_id":"5b08033c-e596-407a-ada4-49eb3a516099","system_id":"levelo_inurba_marseille","lat":43.25817,"lon":5.39427,"is_reserved":false,"is_disabled":false,"rental_uris":{"android":"levelo://app?vid=5b08033c-e596-407a-ada4-49eb3a516099","ios":"levelo://app?vid=5b08033c-e596-407a-ada4-49eb3a516099"},"vehicle_type_id":"4","last_reported":1757837527,"current_range_meters":13600,"station_id":"ce4bhip2rcd13ifvqft0","pricing_plan_id":"cebpf4jnsgd1na2vs0mg"},{"bike_id":"8edfe76f-af25-4a21-a4d5-120dc07bd9f2","system_id":"levelo_inurba_marseille","lat":43.28672,"lon":5.36361,"is_reserved":false,"is_disabled":false,"rental_uris":{"android":"levelo://app?vid=8edfe76f-af25-4a21-a4d5-120dc07bd9f2","ios":"levelo://app?vid=8edfe76f-af25-4a21-a4d5-120dc07bd9f2"},"vehicle_type_id":"4","last_reported":1757837527,"current_range_meters":13600,"station_id":"ce4bhah2rcd13ifvqej0","pricing_plan_id":"cebpf4jnsgd1na2vs0mg"},{"bike_id":"e8930cfa-2c36-4dbf-ab3e-6afdedf38824","system_id":"levelo_inurba_marseille","lat":43.22569,"lon":5.41623,"is_reserved":false,"is_disabled":false,"rental_uris":{"android":"levelo://app?vid=e8930cfa-2c36-4dbf-ab3e-6afdedf38824","ios":"levelo://app?vid=e8930cfa-2c36-4dbf-ab3e-6afdedf38824"},"vehicle_type_id":"4","last_reported":1757837527,"current_range_meters":13600,"station_id":"st_d2o4gvlbi1j2169b742g","pricing_plan_id":"cebpf4jnsgd1na2vs0mg"},{"bike_id":"95460cbd-17ab-4565-982a-640d24ee3c43","system_id":"levelo_inurba_marseille","lat":43.24818,"lon":5.37477,"is_reserved":false,"is_disabled":false,"rental_uris":{"android":"levelo://app?vid=95460cbd-17ab-4565-982a-640d24ee3c43","ios":"levelo://app?vid=95460cbd-17ab-4565-982a-640d24ee3c43"},"vehicle_type_id":"4","last_reported":1757837527,"current_range_meters":13600,"station_id":"ce4bhgh2rcd13ifvqfb0","pricing_plan_id":"cebpf4jnsgd1na2vs0mg"},{"bike_id":"0bbe3047-fb7e-4c9c-a92f-f8991d515662","system_id":"levelo_inurba_marseille","lat":43.2792,"lon":5.39609,"is_reserved":false,"is_disabled":false,"rental_uris":{"android":"levelo://app?vid=0bbe3047-fb7e-4c9c-a92f-f8991d515662","ios":"levelo://app?vid=0bbe3047-fb7e-4c9c-a92f-f8991d515662"},"vehicle_type_id":"4","last_reported":1757837527,"current_range_meters":14000,"station_id":"ce4bhf92rcd13ifvqf40","pricing_plan_id":"cebpf4jnsgd1na2vs0mg"},{"bike_id":"9a82a076-639f-4293-9983-5ad5f42712a6","system_id":"levelo_inurba_marseille","lat":43.3147,"lon":5.37251,"is_reserved":false,"is_disabled":false,"rental_uris":{"android":"levelo://app?vid=9a82a076-639f-4293-9983-5ad5f42712a6","ios":"levelo://app?vid=9a82a076-639f-4293-9983-5ad5f42712a6"},"vehicle_type_id":"4","last_reported":1757837527,"current_range_meters":14000,"station_id":"ce4bgt12rcd13ifvqcd0","pricing_plan_id":"cebpf4jnsgd1na2vs0mg"},{"bike_id":"c75bfa20-483b-42f7-8a25-5f10e08a57b0","system_id":"levelo_inurba_marseille","lat":43.32119,"lon":5.36779,"is_reserved":false,"is_disabled":false,"rental_uris":{"android":"levelo://app?vid=c75bfa20-483b-42f7-8a25-5f10e08a57b0","ios":"levelo://app?vid=c75bfa20-483b-42f7-8a25-5f10e08a57b0"},"vehicle_type_id":"4","last_reported":1757837527,"current_range_meters":14000,"station_id":"ce4bhrh2rcd13ifvqhug","pricing_plan_id":"cebpf4jnsgd1na2vs0mg"},{"bike_id":"5476d906-b0c2-4d37-81e0-6fc56d7abe48","system_id":"levelo_inurba_marseille","lat":43.31729,"lon":5.3764,"is_reserved":false,"is_disabled":false,"rental_uris":{"android":"levelo://app?vid=5476d906-b0c2-4d37-81e0-6fc56d7abe48","ios":"levelo://app?vid=5476d906-b0c2-4d37-81e0-6fc56d7abe48"},"vehicle_type_id":"4","last_reported":1757837527,"current_range_meters":14400,"station_id":"","pricing_plan_id":"cebpf4jnsgd1na2vs0mg"},{"bike_id":"0db1212c-b38c-47f5-8e41-37749d8fc729","system_id":"levelo_inurba_marseille","lat":43.2899,"lon":5.38665,"is_reserved":false,"is_disabled":false,"rental_uris":{"android":"levelo://app?vid=0db1212c-b38c-47f5-8e41-37749d8fc729","ios":"levelo://app?vid=0db1212c-b38c-47f5-8e41-37749d8fc729"},"vehicle_type_id":"4","last_reported":1757837527,"current_range_meters":14400,"station_id":"","pricing_plan_id":"cebpf4jnsgd1na2vs0mg"},{"bike_id":"ad692218-e8f6-4ef9-85c2-0d7631a20b6d","system_id":"levelo_inurba_marseille","lat":43.24971,"lon":5.40517,"is_reserved":false,"is_disabled":false,"rental_uris":{"android":"levelo://app?vid=ad692218-e8f6-4ef9-85c2-0d7631a20b6d","ios":"levelo://app?vid=ad692218-e8f6-4ef9-85c2-0d7631a20b6d"},"vehicle_type_id":"4","last_reported":1757837527,"current_range_meters":14800,"station_id":"st_d2ngiaodas8pm72gd1h0","pricing_plan_id":"cebpf4jnsgd1na2vs0mg"},{"bike_id":"d579cc07-d434-46af-b565-a505c0c022ce","system_id":"levelo_inurba_marseille","lat":43.31118,"lon":5.37763,"is_reserved":false,"is_disabled":false,"rental_uris":{"android":"levelo://app?vid=d579cc07-d434-46af-b565-a505c0c022ce","ios":"levelo://app?vid=d579cc07-d434-46af-b565-a505c0c022ce"},"vehicle_type_id":"4","last_reported":1757837527,"current_range_meters":14800,"station_id":"ce4bgt92rcd13ifvqcg0","pricing_plan_id":"cebpf4jnsgd1na2vs0mg"},{"bike_id":"8ab60a89-bd14-40d7-b359-020ea126cfef","system_id":"levelo_inurba_marseille","lat":43.3237,"lon":5.36773,"is_reserved":false,"is_disabled":false,"rental_uris":{"android":"levelo://app?vid=8ab60a89-bd14-40d7-b359-020ea126cfef","ios":"levelo://app?vid=8ab60a89-bd14-40d7-b359-020ea126cfef"},"vehicle_type_id":"4","last_reported":1757837527,"current_range_meters":14800,"station_id":"ce4bhsh2rcd13ifvqi2g","pricing_plan_id":"cebpf4jnsgd1na2vs0mg"},{"bike_id":"b404de30-d322-4500-841b-ba6ec39653f0","system_id":"levelo_inurba_marseille","lat":43.26546,"lon":5.37312,"is_reserved":false,"is_disabled":false,"rental_uris":{"android":"levelo://app?vid=b404de30-d322-4500-841b-ba6ec39653f0","ios":"levelo://app?vid=b404de30-d322-4500-841b-ba6ec39653f0"},"vehicle_type_id":"4","last_reported":1757837527,"current_range_meters":14800,"station_id":"ce4bhg12rcd13ifvqf70","pricing_plan_id":"cebpf4jnsgd1na2vs0mg"},{"bike_id":"d0a1739a-c22f-4203-9f71-a089f4b367e4","system_id":"levelo_inurba_marseille","lat":43.32012,"lon":5.38205,"is_reserved":false,"is_disabled":true,"rental_uris":{"android":"levelo://app?vid=d0a1739a-c22f-4203-9f71-a089f4b367e4","ios":"levelo://app?vid=d0a1739a-c22f-4203-9f71-a089f4b367e4"},"vehicle_type_id":"4","last_reported":1757837527,"current_range_meters":15200,"station_id":"ce4bhr12rcd13ifvqhpg","pricing_plan_id":"cebpf4jnsgd1na2vs0mg"},{"bike_id":"d9c4202c-de13-4428-8c40-40d90faf1618","system_id":"levelo_inurba_marseille","lat":43.31356,"lon":5.3707,"is_reserved":false,"is_disabled":false,"rental_uris":{"android":"levelo://app?vid=d9c4202c-de13-4428-8c40-40d90faf1618","ios":"levelo://app?vid=d9c4202c-de13-4428-8c40-40d90faf1618"},"vehicle_type_id":"4","last_reported":1757837527,"current_range_meters":15200,"station_id":"","pricing_plan_id":"cebpf4jnsgd1na2vs0mg"},{"bike_id":"85db8ab9-6b24-4c23-8762-109e948df9cd","system_id":"levelo_inurba_marseille","lat":43.30622,"lon":5.40451,"is_reserved":false,"is_disabled":false,"rental_uris":{"android":"levelo://app?vid=85db8ab9-6b24-4c23-8762-109e948df9cd","ios":"levelo://app?vid=85db8ab9-6b24-4c23-8762-109e948df9cd"},"vehicle_type_id":"4","last_reported":1757837527,"current_range_meters":15200,"station_id":"","pricing_plan_id":"cebpf4jnsgd1na2vs0mg"},{"bike_id":"a1f81f3e-26ba-4227-be1a-02f4ec463c81","system_id":"levelo_inurba_marseille","lat":43.2656,"lon":5.37283,"is_reserved":false,"is_disabled":false,"rental_uris":{"android":"levelo://app?vid=a1f81f3e-26ba-4227-be1a-02f4ec463c81","ios":"levelo://app?vid=a1f81f3e-26ba-4227-be1a-02f4ec463c81"},"vehicle_type_id":"4","last_reported":1757837527,"current_range_meters":15200,"station_id":"ce4bhg12rcd13ifvqf70","pricing_plan_id":"cebpf4jnsgd1na2vs0mg"},{"bike_id":"8e3a9e83-812e-4b5d-8c7b-5119699e81be","system_id":"levelo_inurba_marseille","lat":43.31559,"lon":5.40604,"is_reserved":false,"is_disabled":false,"rental_uris":{"android":"levelo://app?vid=8e3a9e83-812e-4b5d-8c7b-5119699e81be","ios":"levelo://app?vid=8e3a9e83-812e-4b5d-8c7b-5119699e81be"},"vehicle_type_id":"4","last_reported":1757837527,"current_range_meters":15200,"station_id":"","pricing_plan_id":"cebpf4jnsgd1na2vs0mg"},{"bike_id":"53ca0467-edde-4dd1-8d5d-12207e9fdf32","system_id":"levelo_inurba_marseille","lat":43.30156,"lon":5.38086,"is_reserved":false,"is_disabled":false,"rental_uris":{"android":"levelo://app?vid=53ca0467-edde-4dd1-8d5d-12207e9fdf32","ios":"levelo://app?vid=53ca0467-edde-4dd1-8d5d-12207e9fdf32"},"vehicle_type_id":"4","last_reported":1757837527,"current_range_meters":15200,"station_id":"ce4bgjp2rcd13ifvqbh0","pricing_plan_id":"cebpf4jnsgd1na2vs0mg"},{"bike_id":"1f397755-19fc-4a35-90c0-d44ee03af488","system_id":"levelo_inurba_marseille","lat":43.26558,"lon":5.37278,"is_reserved":false,"is_disabled":false,"rental_uris":{"android":"levelo://app?vid=1f397755-19fc-4a35-90c0-d44ee03af488","ios":"levelo://app?vid=1f397755-19fc-4a35-90c0-d44ee03af488"},"vehicle_type_id":"4","last_reported":1757837527,"current_range_meters":16000,"station_id":"ce4bhg12rcd13ifvqf70","pricing_plan_id":"cebpf4jnsgd1na2vs0mg"},{"bike_id":"4d6e6605-7f16-44fa-a19a-c138ee7cb360","system_id":"levelo_inurba_marseille","lat":43.33799,"lon":5.37446,"is_reserved":false,"is_disabled":false,"rental_uris":{"android":"levelo://app?vid=4d6e6605-7f16-44fa-a19a-c138ee7cb360","ios":"levelo://app?vid=4d6e6605-7f16-44fa-a19a-c138ee7cb360"},"vehicle_type_id":"4","last_reported":1757837527,"current_range_meters":16000,"station_id":"","pricing_plan_id":"cebpf4jnsgd1na2vs0mg"},{"bike_id":"ef94e107-b5fd-44f7-a023-fb0854a2be56","system_id":"levelo_inurba_marseille","lat":43.28631,"lon":5.35107,"is_reserved":false,"is_disabled":false,"rental_uris":{"android":"levelo://app?vid=ef94e107-b5fd-44f7-a023-fb0854a2be56","ios":"levelo://app?vid=ef94e107-b5fd-44f7-a023-fb0854a2be56"},"vehicle_type_id":"4","last_reported":1757837527,"current_range_meters":16000,"station_id":"ce4bhch2rcd13ifvqeug","pricing_plan_id":"cebpf4jnsgd1na2vs0mg"},{"bike_id":"e06d2e94-3ae2-4b4b-9d7e-05d3f806365a","system_id":"levelo_inurba_marseille","lat":43.25824,"lon":5.39384,"is_reserved":false,"is_disabled":false,"rental_uris":{"android":"levelo://app?vid=e06d2e94-3ae2-4b4b-9d7e-05d3f806365a","ios":"levelo://app?vid=e06d2e94-3ae2-4b4b-9d7e-05d3f806365a"},"vehicle_type_id":"4","last_reported":1757837527,"current_range_meters":16000,"station_id":"ce4bhip2rcd13ifvqft0","pricing_plan_id":"cebpf4jnsgd1na2vs0mg"},{"bike_id":"d1ad9e74-b19f-4662-8f79-c32c6974f30e","system_id":"levelo_inurba_marseille","lat":43.33615,"lon":5.40986,"is_reserved":false,"is_disabled":false,"rental_uris":{"android":"levelo://app?vid=d1ad9e74-b19f-4662-8f79-c32c6974f30e","ios":"levelo://app?vid=d1ad9e74-b19f-4662-8f79-c32c6974f30e"},"vehicle_type_id":"4","last_reported":1757837527,"current_range_meters":16000,"station_id":"ce4bhqh2rcd13ifvqhmg","pricing_plan_id":"cebpf4jnsgd1na2vs0mg"},{"bike_id":"62ba075c-45a6-4886-9952-db064028ab8e","system_id":"levelo_inurba_marseille","lat":43.23969,"lon":5.36628,"is_reserved":false,"is_disabled":false,"rental_uris":{"android":"levelo://app?vid=62ba075c-45a6-4886-9952-db064028ab8e","ios":"levelo://app?vid=62ba075c-45a6-4886-9952-db064028ab8e"},"vehicle_type_id":"4","last_reported":1757837527,"current_range_meters":16000,"station_id":"ce4bhi12rcd13ifvqfp0","pricing_plan_id":"cebpf4jnsgd1na2vs0mg"},{"bike_id":"fe15a549-1ad3-4f28-a028-5a06d9fb4748","system_id":"levelo_inurba_marseille","lat":43.27986,"lon":5.41656,"is_reserved":false,"is_disabled":false,"rental_uris":{"android":"levelo://app?vid=fe15a549-1ad3-4f28-a028-5a06d9fb4748","ios":"levelo://app?vid=fe15a549-1ad3-4f28-a028-5a06d9fb4748"},"vehicle_type_id":"4","last_reported":1757837527,"current_range_meters":16400,"station_id":"ce4bho12rcd13ifvqh1g","pricing_plan_id":"cebpf4jnsgd1na2vs0mg"},{"bike_id":"b505f297-5b71-4914-ab25-632cb7ddff7c","system_id":"levelo_inurba_marseille","lat":43.30287,"lon":5.37717,"is_reserved":false,"is_disabled":false,"rental_uris":{"android":"levelo://app?vid=b505f297-5b71-4914-ab25-632cb7ddff7c","ios":"levelo://app?vid=b505f297-5b71-4914-ab25-632cb7ddff7c"},"vehicle_type_id":"4","last_reported":1757837527,"current_range_meters":16400,"station_id":"ce4bguh2rcd13ifvqcj0","pricing_plan_id":"cebpf4jnsgd1na2vs0mg"},{"bike_id":"c79f98a5-b132-4d8b-b050-5e48074dc6fe","system_id":"levelo_inurba_marseille","lat":43.31701,"lon":5.40458,"is_reserved":false,"is_disabled":false,"rental_uris":{"android":"levelo://app?vid=c79f98a5-b132-4d8b-b050-5e48074dc6fe","ios":"levelo://app?vid=c79f98a5-b132-4d8b-b050-5e48074dc6fe"},"vehicle_type_id":"4","last_reported":1757837527,"current_range_meters":16400,"station_id":"ce4bh012rcd13ifvqd00","pricing_plan_id":"cebpf4jnsgd1na2vs0mg"},{"bike_id":"085edb60-d839-48e0-b8de-631ca8722e6a","system_id":"levelo_inurba_marseille","lat":43.24081,"lon":5.37764,"is_reserved":false,"is_disabled":false,"rental_uris":{"android":"levelo://app?vid=085edb60-d839-48e0-b8de-631ca8722e6a","ios":"levelo://app?vid=085edb60-d839-48e0-b8de-631ca8722e6a"},"vehicle_type_id":"4","last_reported":1757837527,"current_range_meters":16400,"station_id":"ce4bhnp2rcd13ifvqgvg","pricing_plan_id":"cebpf4jnsgd1na2vs0mg"},{"bike_id":"c02c8a2c-8146-4676-a4b6-4f6f8645f6c0","system_id":"levelo_inurba_marseille","lat":43.28704,"lon":5.39963,"is_reserved":false,"is_disabled":false,"rental_uris":{"android":"levelo://app?vid=c02c8a2c-8146-4676-a4b6-4f6f8645f6c0","ios":"levelo://app?vid=c02c8a2c-8146-4676-a4b6-4f6f8645f6c0"},"vehicle_type_id":"4","last_reported":1757837527,"current_range_meters":16400,"station_id":"ce4bho92rcd13ifvqh3g","pricing_plan_id":"cebpf4jnsgd1na2vs0mg"},{"bike_id":"7f2cab8d-9605-4acc-b977-095740fe0911","system_id":"levelo_inurba_marseille","lat":43.29846,"lon":5.36277,"is_reserved":false,"is_disabled":false,"rental_uris":{"android":"levelo://app?vid=7f2cab8d-9605-4acc-b977-095740fe0911","ios":"levelo://app?vid=7f2cab8d-9605-4acc-b977-095740fe0911"},"vehicle_type_id":"4","last_reported":1757837527,"current_range_meters":16400,"station_id":"ce4bgpp2rcd13ifvqc3g","pricing_plan_id":"cebpf4jnsgd1na2vs0mg"},{"bike_id":"380fcabe-4fed-43cb-8f1a-eefddbcbd369","system_id":"levelo_inurba_marseille","lat":43.21196,"lon":5.35077,"is_reserved":false,"is_disabled":false,"rental_uris":{"android":"levelo://app?vid=380fcabe-4fed-43cb-8f1a-eefddbcbd369","ios":"levelo://app?vid=380fcabe-4fed-43cb-8f1a-eefddbcbd369"},"vehicle_type_id":"4","last_reported":1757837527,"current_range_meters":16800,"station_id":"","pricing_plan_id":"cebpf4jnsgd1na2vs0mg"},{"bike_id":"14e2496b-54f5-4a71-8a7b-f668d23f2674","system_id":"levelo_inurba_marseille","lat":43.25715,"lon":5.41113,"is_reserved":false,"is_disabled":false,"rental_uris":{"android":"levelo://app?vid=14e2496b-54f5-4a71-8a7b-f668d23f2674","ios":"levelo://app?vid=14e2496b-54f5-4a71-8a7b-f668d23f2674"},"vehicle_type_id":"4","last_reported":1757837527,"current_range_meters":16800,"station_id":"ce4bhkp2rcd13ifvqgd0","pricing_plan_id":"cebpf4jnsgd1na2vs0mg"},{"bike_id":"6709a939-6666-49a9-9a64-2085ae5300c6","system_id":"levelo_inurba_marseille","lat":43.28213,"lon":5.39057,"is_reserved":false,"is_disabled":false,"rental_uris":{"android":"levelo://app?vid=6709a939-6666-49a9-9a64-2085ae5300c6","ios":"levelo://app?vid=6709a939-6666-49a9-9a64-2085ae5300c6"},"vehicle_type_id":"4","last_reported":1757837527,"current_range_meters":16800,"station_id":"ce4bhn92rcd13ifvqgsg","pricing_plan_id":"cebpf4jnsgd1na2vs0mg"},{"bike_id":"16ef31c1-2e5b-4605-8b2a-c02c4f7600b2","system_id":"levelo_inurba_marseille","lat":43.2417,"lon":5.39722,"is_reserved":false,"is_disabled":false,"rental_uris":{"android":"levelo://app?vid=16ef31c1-2e5b-4605-8b2a-c02c4f7600b2","ios":"levelo://app?vid=16ef31c1-2e5b-4605-8b2a-c02c4f7600b2"},"vehicle_type_id":"4","last_reported":1757837527,"current_range_meters":16800,"station_id":"ce4bhn12rcd13ifvqgpg","pricing_plan_id":"cebpf4jnsgd1na2vs0mg"},{"bike_id":"2285a77d-e572-43a6-a219-f35b836d0546","system_id":"levelo_inurba_marseille","lat":43.28587,"lon":5.37062,"is_reserved":false,"is_disabled":false,"rental_uris":{"android":"levelo://app?vid=2285a77d-e572-43a6-a219-f35b836d0546","ios":"levelo://app?vid=2285a77d-e572-43a6-a219-f35b836d0546"},"vehicle_type_id":"4","last_reported":1757837527,"current_range_meters":16800,"station_id":"ce4bht12rcd13ifvqi60","pricing_plan_id":"cebpf4jnsgd1na2vs0mg"},{"bike_id":"9f79a3f7-ce96-4399-9d48-3227fd64f8c5","system_id":"levelo_inurba_marseille","lat":43.231479,"lon":5.437132,"is_reserved":false,"is_disabled":false,"rental_uris":{"android":"levelo://app?vid=9f79a3f7-ce96-4399-9d48-3227fd64f8c5","ios":"levelo://app?vid=9f79a3f7-ce96-4399-9d48-3227fd64f8c5"},"vehicle_type_id":"4","last_reported":1757837527,"current_range_meters":16800,"station_id":"ce4bhmp2rcd13ifvqgog","pricing_plan_id":"cebpf4jnsgd1na2vs0mg"},{"bike_id":"192659f7-4223-444d-8ff2-c405098492e5","system_id":"levelo_inurba_marseille","lat":43.33635,"lon":5.41002,"is_reserved":false,"is_disabled":false,"rental_uris":{"android":"levelo://app?vid=192659f7-4223-444d-8ff2-c405098492e5","ios":"levelo://app?vid=192659f7-4223-444d-8ff2-c405098492e5"},"vehicle_type_id":"4","last_reported":1757837527,"current_range_meters":17200,"station_id":"ce4bhqh2rcd13ifvqhmg","pricing_plan_id":"cebpf4jnsgd1na2vs0mg"},{"bike_id":"c9fe3721-b4b2-49d9-9f78-b3cc2b99e3d6","system_id":"levelo_inurba_marseille","lat":43.23203,"lon":5.3557,"is_reserved":false,"is_disabled":false,"rental_uris":{"android":"levelo://app?vid=c9fe3721-b4b2-49d9-9f78-b3cc2b99e3d6","ios":"levelo://app?vid=c9fe3721-b4b2-49d9-9f78-b3cc2b99e3d6"},"vehicle_type_id":"4","last_reported":1757837527,"current_range_meters":17200,"station_id":"ce4bhu92rcd13ifvqi70","pricing_plan_id":"cebpf4jnsgd1na2vs0mg"},{"bike_id":"15c12f1b-150c-43be-9134-ac05fb9a1bef","system_id":"levelo_inurba_marseille","lat":43.29046,"lon":5.37145,"is_reserved":false,"is_disabled":true,"rental_uris":{"android":"levelo://app?vid=15c12f1b-150c-43be-9134-ac05fb9a1bef","ios":"levelo://app?vid=15c12f1b-150c-43be-9134-ac05fb9a1bef"},"vehicle_type_id":"4","last_reported":1757837527,"current_range_meters":17200,"station_id":"ce4bh5p2rcd13ifvqe4g","pricing_plan_id":"cebpf4jnsgd1na2vs0mg"},{"bike_id":"f75319f4-d3a6-440f-9c89-5af7f4acd041","system_id":"levelo_inurba_marseille","lat":43.22565,"lon":5.41632,"is_reserved":false,"is_disabled":false,"rental_uris":{"android":"levelo://app?vid=f75319f4-d3a6-440f-9c89-5af7f4acd041","ios":"levelo://app?vid=f75319f4-d3a6-440f-9c89-5af7f4acd041"},"vehicle_type_id":"4","last_reported":1757837527,"current_range_meters":17200,"station_id":"st_d2o4gvlbi1j2169b742g","pricing_plan_id":"cebpf4jnsgd1na2vs0mg"},{"bike_id":"b002a392-08fa-4b2e-b212-3e002cd96c5d","system_id":"levelo_inurba_marseille","lat":43.23961,"lon":5.36644,"is_reserved":false,"is_disabled":false,"rental_uris":{"android":"levelo://app?vid=b002a392-08fa-4b2e-b212-3e002cd96c5d","ios":"levelo://app?vid=b002a392-08fa-4b2e-b212-3e002cd96c5d"},"vehicle_type_id":"4","last_reported":1757837527,"current_range_meters":17200,"station_id":"ce4bhi12rcd13ifvqfp0","pricing_plan_id":"cebpf4jnsgd1na2vs0mg"},{"bike_id":"b6e71227-cf24-477c-a6b4-dcaf891c7903","system_id":"levelo_inurba_marseille","lat":43.25574,"lon":5.38228,"is_reserved":false,"is_disabled":false,"rental_uris":{"android":"levelo://app?vid=b6e71227-cf24-477c-a6b4-dcaf891c7903","ios":"levelo://app?vid=b6e71227-cf24-477c-a6b4-dcaf891c7903"},"vehicle_type_id":"4","last_reported":1757837527,"current_range_meters":17200,"station_id":"ce4bhih2rcd13ifvqfs0","pricing_plan_id":"cebpf4jnsgd1na2vs0mg"},{"bike_id":"d9a7c4bd-53f2-4cde-a7f4-552208dff846","system_id":"levelo_inurba_marseille","lat":43.25096,"lon":5.39507,"is_reserved":false,"is_disabled":false,"rental_uris":{"android":"levelo://app?vid=d9a7c4bd-53f2-4cde-a7f4-552208dff846","ios":"levelo://app?vid=d9a7c4bd-53f2-4cde-a7f4-552208dff846"},"vehicle_type_id":"4","last_reported":1757837527,"current_range_meters":17200,"station_id":"ce4bhm12rcd13ifvqgkg","pricing_plan_id":"cebpf4jnsgd1na2vs0mg"},{"bike_id":"e54a1e7f-72fe-4f72-999a-0b938621ab02","system_id":"levelo_inurba_marseille","lat":43.23155,"lon":5.43689,"is_reserved":false,"is_disabled":false,"rental_uris":{"android":"levelo://app?vid=e54a1e7f-72fe-4f72-999a-0b938621ab02","ios":"levelo://app?vid=e54a1e7f-72fe-4f72-999a-0b938621ab02"},"vehicle_type_id":"4","last_reported":1757837527,"current_range_meters":17200,"station_id":"ce4bhmp2rcd13ifvqgog","pricing_plan_id":"cebpf4jnsgd1na2vs0mg"},{"bike_id":"621390e6-0ecc-4174-8f39-9e72a2d9da76","system_id":"levelo_inurba_marseille","lat":43.293365,"lon":5.374498,"is_reserved":false,"is_disabled":false,"rental_uris":{"android":"levelo://app?vid=621390e6-0ecc-4174-8f39-9e72a2d9da76","ios":"levelo://app?vid=621390e6-0ecc-4174-8f39-9e72a2d9da76"},"vehicle_type_id":"4","last_reported":1757837527,"current_range_meters":17200,"station_id":"ce4bgi12rcd13ifvqb70","pricing_plan_id":"cebpf4jnsgd1na2vs0mg"},{"bike_id":"02594d6e-8b3a-46a1-9a87-cb6dfa238731","system_id":"levelo_inurba_marseille","lat":43.30167,"lon":5.38097,"is_reserved":false,"is_disabled":false,"rental_uris":{"android":"levelo://app?vid=02594d6e-8b3a-46a1-9a87-cb6dfa238731","ios":"levelo://app?vid=02594d6e-8b3a-46a1-9a87-cb6dfa238731"},"vehicle_type_id":"4","last_reported":1757837527,"current_range_meters":17600,"station_id":"ce4bgjp2rcd13ifvqbh0","pricing_plan_id":"cebpf4jnsgd1na2vs0mg"},{"bike_id":"950a5f0c-6122-4d8d-a42b-4763023d14f2","system_id":"levelo_inurba_marseille","lat":43.2548,"lon":5.37668,"is_reserved":false,"is_disabled":true,"rental_uris":{"android":"levelo://app?vid=950a5f0c-6122-4d8d-a42b-4763023d14f2","ios":"levelo://app?vid=950a5f0c-6122-4d8d-a42b-4763023d14f2"},"vehicle_type_id":"4","last_reported":1757837527,"current_range_meters":17600,"station_id":"ce4bhh12rcd13ifvqff0","pricing_plan_id":"cebpf4jnsgd1na2vs0mg"},{"bike_id":"fc59cc99-c778-4d76-aabe-1a633232d6bf","system_id":"levelo_inurba_marseille","lat":43.2408,"lon":5.37774,"is_reserved":false,"is_disabled":false,"rental_uris":{"android":"levelo://app?vid=fc59cc99-c778-4d76-aabe-1a633232d6bf","ios":"levelo://app?vid=fc59cc99-c778-4d76-aabe-1a633232d6bf"},"vehicle_type_id":"4","last_reported":1757837527,"current_range_meters":17600,"station_id":"ce4bhnp2rcd13ifvqgvg","pricing_plan_id":"cebpf4jnsgd1na2vs0mg"},{"bike_id":"5a99ee1e-45f4-4641-890f-b103493481c0","system_id":"levelo_inurba_marseille","lat":43.31702,"lon":5.40467,"is_reserved":false,"is_disabled":false,"rental_uris":{"android":"levelo://app?vid=5a99ee1e-45f4-4641-890f-b103493481c0","ios":"levelo://app?vid=5a99ee1e-45f4-4641-890f-b103493481c0"},"vehicle_type_id":"4","last_reported":1757837527,"current_range_meters":17600,"station_id":"ce4bh012rcd13ifvqd00","pricing_plan_id":"cebpf4jnsgd1na2vs0mg"},{"bike_id":"95251c11-6699-4aa0-8909-a444151e2dc9","system_id":"levelo_inurba_marseille","lat":43.24079,"lon":5.37774,"is_reserved":false,"is_disabled":false,"rental_uris":{"android":"levelo://app?vid=95251c11-6699-4aa0-8909-a444151e2dc9","ios":"levelo://app?vid=95251c11-6699-4aa0-8909-a444151e2dc9"},"vehicle_type_id":"4","last_reported":1757837527,"current_range_meters":17600,"station_id":"ce4bhnp2rcd13ifvqgvg","pricing_plan_id":"cebpf4jnsgd1na2vs0mg"},{"bike_id":"d218c5c8-561a-4a42-b2aa-19b6c9da74fb","system_id":"levelo_inurba_marseille","lat":43.31701,"lon":5.40456,"is_reserved":false,"is_disabled":false,"rental_uris":{"android":"levelo://app?vid=d218c5c8-561a-4a42-b2aa-19b6c9da74fb","ios":"levelo://app?vid=d218c5c8-561a-4a42-b2aa-19b6c9da74fb"},"vehicle_type_id":"4","last_reported":1757837527,"current_range_meters":17600,"station_id":"ce4bh012rcd13ifvqd00","pricing_plan_id":"cebpf4jnsgd1na2vs0mg"},{"bike_id":"40b93dab-e6b1-40d5-9133-e6db4ba694b1","system_id":"levelo_inurba_marseille","lat":43.28151,"lon":5.42647,"is_reserved":false,"is_disabled":false,"rental_uris":{"android":"levelo://app?vid=40b93dab-e6b1-40d5-9133-e6db4ba694b1","ios":"levelo://app?vid=40b93dab-e6b1-40d5-9133-e6db4ba694b1"},"vehicle_type_id":"4","last_reported":1757837527,"current_range_meters":17600,"station_id":"ce4bhnh2rcd13ifvqgug","pricing_plan_id":"cebpf4jnsgd1na2vs0mg"},{"bike_id":"d4872768-29b4-4a0c-af32-7e886d10eff6","system_id":"levelo_inurba_marseille","lat":43.32364,"lon":5.40616,"is_reserved":false,"is_disabled":false,"rental_uris":{"android":"levelo://app?vid=d4872768-29b4-4a0c-af32-7e886d10eff6","ios":"levelo://app?vid=d4872768-29b4-4a0c-af32-7e886d10eff6"},"vehicle_type_id":"4","last_reported":1757837527,"current_range_meters":17600,"station_id":"ce4bhq92rcd13ifvqhjg","pricing_plan_id":"cebpf4jnsgd1na2vs0mg"},{"bike_id":"3970b1ae-b9ce-4046-bb45-e207423d2c07","system_id":"levelo_inurba_marseille","lat":43.24396,"lon":5.37619,"is_reserved":false,"is_disabled":false,"rental_uris":{"android":"levelo://app?vid=3970b1ae-b9ce-4046-bb45-e207423d2c07","ios":"levelo://app?vid=3970b1ae-b9ce-4046-bb45-e207423d2c07"},"vehicle_type_id":"4","last_reported":1757837527,"current_range_meters":17600,"station_id":"","pricing_plan_id":"cebpf4jnsgd1na2vs0mg"},{"bike_id":"2971d29a-ae8b-4927-8aad-52c7dcae0d3a","system_id":"levelo_inurba_marseille","lat":43.29268,"lon":5.37639,"is_reserved":false,"is_disabled":false,"rental_uris":{"android":"levelo://app?vid=2971d29a-ae8b-4927-8aad-52c7dcae0d3a","ios":"levelo://app?vid=2971d29a-ae8b-4927-8aad-52c7dcae0d3a"},"vehicle_type_id":"4","last_reported":1757837527,"current_range_meters":17600,"station_id":"ce4bgi12rcd13ifvqb80","pricing_plan_id":"cebpf4jnsgd1na2vs0mg"},{"bike_id":"b0ab0859-f423-4140-863b-75f28e2bd622","system_id":"levelo_inurba_marseille","lat":43.32375,"lon":5.38895,"is_reserved":false,"is_disabled":false,"rental_uris":{"android":"levelo://app?vid=b0ab0859-f423-4140-863b-75f28e2bd622","ios":"levelo://app?vid=b0ab0859-f423-4140-863b-75f28e2bd622"},"vehicle_type_id":"4","last_reported":1757837527,"current_range_meters":18000,"station_id":"ce4bhqp2rcd13ifvqhog","pricing_plan_id":"cebpf4jnsgd1na2vs0mg"},{"bike_id":"d27a5be8-d7fd-4827-a8b4-c4cbf1e10c7d","system_id":"levelo_inurba_marseille","lat":43.27394,"lon":5.3625,"is_reserved":false,"is_disabled":false,"rental_uris":{"android":"levelo://app?vid=d27a5be8-d7fd-4827-a8b4-c4cbf1e10c7d","ios":"levelo://app?vid=d27a5be8-d7fd-4827-a8b4-c4cbf1e10c7d"},"vehicle_type_id":"4","last_reported":1757837527,"current_range_meters":18000,"station_id":"ce4bhbh2rcd13ifvqeo0","pricing_plan_id":"cebpf4jnsgd1na2vs0mg"},{"bike_id":"175c8e73-b36d-466c-9a0e-cf702b6c036a","system_id":"levelo_inurba_marseille","lat":43.32361,"lon":5.38901,"is_reserved":false,"is_disabled":false,"rental_uris":{"android":"levelo://app?vid=175c8e73-b36d-466c-9a0e-cf702b6c036a","ios":"levelo://app?vid=175c8e73-b36d-466c-9a0e-cf702b6c036a"},"vehicle_type_id":"4","last_reported":1757837527,"current_range_meters":18000,"station_id":"ce4bhqp2rcd13ifvqhog","pricing_plan_id":"cebpf4jnsgd1na2vs0mg"},{"bike_id":"c9f82b86-7ced-43c5-8bc4-fa83f1b9c33c","system_id":"levelo_inurba_marseille","lat":43.24669,"lon":5.38171,"is_reserved":false,"is_disabled":false,"rental_uris":{"android":"levelo://app?vid=c9f82b86-7ced-43c5-8bc4-fa83f1b9c33c","ios":"levelo://app?vid=c9f82b86-7ced-43c5-8bc4-fa83f1b9c33c"},"vehicle_type_id":"4","last_reported":1757837527,"current_range_meters":18000,"station_id":"ce4bhih2rcd13ifvqfr0","pricing_plan_id":"cebpf4jnsgd1na2vs0mg"},{"bike_id":"317135fc-9036-47fe-bb4c-f0c058437b80","system_id":"levelo_inurba_marseille","lat":43.30154,"lon":5.38092,"is_reserved":false,"is_disabled":false,"rental_uris":{"android":"levelo://app?vid=317135fc-9036-47fe-bb4c-f0c058437b80","ios":"levelo://app?vid=317135fc-9036-47fe-bb4c-f0c058437b80"},"vehicle_type_id":"4","last_reported":1757837527,"current_range_meters":18000,"station_id":"ce4bgjp2rcd13ifvqbh0","pricing_plan_id":"cebpf4jnsgd1na2vs0mg"},{"bike_id":"777ff417-3a86-45a9-9277-be4920b499e5","system_id":"levelo_inurba_marseille","lat":43.24813,"lon":5.37463,"is_reserved":false,"is_disabled":false,"rental_uris":{"android":"levelo://app?vid=777ff417-3a86-45a9-9277-be4920b499e5","ios":"levelo://app?vid=777ff417-3a86-45a9-9277-be4920b499e5"},"vehicle_type_id":"4","last_reported":1757837527,"current_range_meters":18000,"station_id":"ce4bhgh2rcd13ifvqfb0","pricing_plan_id":"cebpf4jnsgd1na2vs0mg"},{"bike_id":"d820b9ba-6d75-45da-b3d3-123f12057990","system_id":"levelo_inurba_marseille","lat":43.30476,"lon":5.3789,"is_reserved":false,"is_disabled":true,"rental_uris":{"android":"levelo://app?vid=d820b9ba-6d75-45da-b3d3-123f12057990","ios":"levelo://app?vid=d820b9ba-6d75-45da-b3d3-123f12057990"},"vehicle_type_id":"4","last_reported":1757837527,"current_range_meters":18000,"station_id":"ce4bgup2rcd13ifvqcn0","pricing_plan_id":"cebpf4jnsgd1na2vs0mg"},{"bike_id":"0bba1876-97de-4136-a6fe-cc9547e6fe55","system_id":"levelo_inurba_marseille","lat":43.29048,"lon":5.39936,"is_reserved":false,"is_disabled":true,"rental_uris":{"android":"levelo://app?vid=0bba1876-97de-4136-a6fe-cc9547e6fe55","ios":"levelo://app?vid=0bba1876-97de-4136-a6fe-cc9547e6fe55"},"vehicle_type_id":"4","last_reported":1757837527,"current_range_meters":18000,"station_id":"ce4bh392rcd13ifvqdm0","pricing_plan_id":"cebpf4jnsgd1na2vs0mg"},{"bike_id":"cf66a869-3e1a-4e03-ab83-74d7d635d0b8","system_id":"levelo_inurba_marseille","lat":43.29253,"lon":5.40928,"is_reserved":false,"is_disabled":true,"rental_uris":{"android":"levelo://app?vid=cf66a869-3e1a-4e03-ab83-74d7d635d0b8","ios":"levelo://app?vid=cf66a869-3e1a-4e03-ab83-74d7d635d0b8"},"vehicle_type_id":"4","last_reported":1757837527,"current_range_meters":18800,"station_id":"ce4bh192rcd13ifvqdc0","pricing_plan_id":"cebpf4jnsgd1na2vs0mg"},{"bike_id":"0c6fe877-1024-4901-84e8-0fbaefe45584","system_id":"levelo_inurba_marseille","lat":43.3342,"lon":5.40052,"is_reserved":false,"is_disabled":false,"rental_uris":{"android":"levelo://app?vid=0c6fe877-1024-4901-84e8-0fbaefe45584","ios":"levelo://app?vid=0c6fe877-1024-4901-84e8-0fbaefe45584"},"vehicle_type_id":"4","last_reported":1757837527,"current_range_meters":18800,"station_id":"","pricing_plan_id":"cebpf4jnsgd1na2vs0mg"},{"bike_id":"ebc28d3f-48e0-4c19-84dd-0c3a04a1ca62","system_id":"levelo_inurba_marseille","lat":43.25863,"lon":5.39931,"is_reserved":false,"is_disabled":true,"rental_uris":{"android":"levelo://app?vid=ebc28d3f-48e0-4c19-84dd-0c3a04a1ca62","ios":"levelo://app?vid=ebc28d3f-48e0-4c19-84dd-0c3a04a1ca62"},"vehicle_type_id":"4","last_reported":1757837527,"current_range_meters":18800,"station_id":"ce4bhl92rcd13ifvqghg","pricing_plan_id":"cebpf4jnsgd1na2vs0mg"},{"bike_id":"322c1f5a-85db-4ef6-bcd4-1b5c417c8ee0","system_id":"levelo_inurba_marseille","lat":43.3377,"lon":5.37488,"is_reserved":false,"is_disabled":false,"rental_uris":{"android":"levelo://app?vid=322c1f5a-85db-4ef6-bcd4-1b5c417c8ee0","ios":"levelo://app?vid=322c1f5a-85db-4ef6-bcd4-1b5c417c8ee0"},"vehicle_type_id":"4","last_reported":1757837527,"current_range_meters":18800,"station_id":"","pricing_plan_id":"cebpf4jnsgd1na2vs0mg"},{"bike_id":"3d28619e-729d-4321-b9ed-1498012de61e","system_id":"levelo_inurba_marseille","lat":43.31713,"lon":5.437061,"is_reserved":false,"is_disabled":false,"rental_uris":{"android":"levelo://app?vid=3d28619e-729d-4321-b9ed-1498012de61e","ios":"levelo://app?vid=3d28619e-729d-4321-b9ed-1498012de61e"},"vehicle_type_id":"4","last_reported":1757837527,"current_range_meters":18000,"station_id":"ce4bhp92rcd13ifvqhcg","pricing_plan_id":"cebpf4jnsgd1na2vs0mg"},{"bike_id":"ee3dcfba-18aa-4b9c-9dce-a651ed791982","system_id":"levelo_inurba_marseille","lat":43.2257,"lon":5.41625,"is_reserved":false,"is_disabled":false,"rental_uris":{"android":"levelo://app?vid=ee3dcfba-18aa-4b9c-9dce-a651ed791982","ios":"levelo://app?vid=ee3dcfba-18aa-4b9c-9dce-a651ed791982"},"vehicle_type_id":"4","last_reported":1757837527,"current_range_meters":18800,"station_id":"st_d2o4gvlbi1j2169b742g","pricing_plan_id":"cebpf4jnsgd1na2vs0mg"},{"bike_id":"6d6dd1cb-2a9b-4225-a761-51a8e76d5c64","system_id":"levelo_inurba_marseille","lat":43.29627,"lon":5.37723,"is_reserved":false,"is_disabled":false,"rental_uris":{"android":"levelo://app?vid=6d6dd1cb-2a9b-4225-a761-51a8e76d5c64","ios":"levelo://app?vid=6d6dd1cb-2a9b-4225-a761-51a8e76d5c64"},"vehicle_type_id":"4","last_reported":1757837527,"current_range_meters":18800,"station_id":"ce4bgi92rcd13ifvqb90","pricing_plan_id":"cebpf4jnsgd1na2vs0mg"},{"bike_id":"7725cd0d-2dbc-4d16-a079-87c99a373660","system_id":"levelo_inurba_marseille","lat":43.30165,"lon":5.38065,"is_reserved":false,"is_disabled":false,"rental_uris":{"android":"levelo://app?vid=7725cd0d-2dbc-4d16-a079-87c99a373660","ios":"levelo://app?vid=7725cd0d-2dbc-4d16-a079-87c99a373660"},"vehicle_type_id":"4","last_reported":1757837527,"current_range_meters":18800,"station_id":"ce4bgjp2rcd13ifvqbh0","pricing_plan_id":"cebpf4jnsgd1na2vs0mg"},{"bike_id":"60df5be0-868d-496d-a7cc-2e097de1a47a","system_id":"levelo_inurba_marseille","lat":43.22552,"lon":5.41632,"is_reserved":false,"is_disabled":false,"rental_uris":{"android":"levelo://app?vid=60df5be0-868d-496d-a7cc-2e097de1a47a","ios":"levelo://app?vid=60df5be0-868d-496d-a7cc-2e097de1a47a"},"vehicle_type_id":"4","last_reported":1757837527,"current_range_meters":18800,"station_id":"st_d2o4gvlbi1j2169b742g","pricing_plan_id":"cebpf4jnsgd1na2vs0mg"},{"bike_id":"8111d312-f652-436e-963c-4c6d7f148d64","system_id":"levelo_inurba_marseille","lat":43.29027,"lon":5.38621,"is_reserved":false,"is_disabled":true,"rental_uris":{"android":"levelo://app?vid=8111d312-f652-436e-963c-4c6d7f148d64","ios":"levelo://app?vid=8111d312-f652-436e-963c-4c6d7f148d64"},"vehicle_type_id":"4","last_reported":1757837527,"current_range_meters":19200,"station_id":"ce4bh4p2rcd13ifvqe0g","pricing_plan_id":"cebpf4jnsgd1na2vs0mg"},{"bike_id":"a4b8a481-76d2-4e6f-9c40-3ea71209e251","system_id":"levelo_inurba_marseille","lat":43.28609,"lon":5.37054,"is_reserved":false,"is_disabled":false,"rental_uris":{"android":"levelo://app?vid=a4b8a481-76d2-4e6f-9c40-3ea71209e251","ios":"levelo://app?vid=a4b8a481-76d2-4e6f-9c40-3ea71209e251"},"vehicle_type_id":"4","last_reported":1757837527,"current_range_meters":19200,"station_id":"ce4bht12rcd13ifvqi60","pricing_plan_id":"cebpf4jnsgd1na2vs0mg"},{"bike_id":"43c8f188-1573-427d-b190-8cd8f447d67a","system_id":"levelo_inurba_marseille","lat":43.28424,"lon":5.34975,"is_reserved":false,"is_disabled":false,"rental_uris":{"android":"levelo://app?vid=43c8f188-1573-427d-b190-8cd8f447d67a","ios":"levelo://app?vid=43c8f188-1573-427d-b190-8cd8f447d67a"},"vehicle_type_id":"4","last_reported":1757837527,"current_range_meters":19200,"station_id":"ce4bhbh2rcd13ifvqepg","pricing_plan_id":"cebpf4jnsgd1na2vs0mg"},{"bike_id":"84a5505b-1c70-4fbd-8713-1aeafa411c7d","system_id":"levelo_inurba_marseille","lat":43.23194,"lon":5.35554,"is_reserved":false,"is_disabled":false,"rental_uris":{"android":"levelo://app?vid=84a5505b-1c70-4fbd-8713-1aeafa411c7d","ios":"levelo://app?vid=84a5505b-1c70-4fbd-8713-1aeafa411c7d"},"vehicle_type_id":"4","last_reported":1757837527,"current_range_meters":19200,"station_id":"ce4bhu92rcd13ifvqi70","pricing_plan_id":"cebpf4jnsgd1na2vs0mg"},{"bike_id":"d27a3574-c668-415b-ad3b-c0a1e10e6cf4","system_id":"levelo_inurba_marseille","lat":43.337444,"lon":5.374475,"is_reserved":false,"is_disabled":false,"rental_uris":{"android":"levelo://app?vid=d27a3574-c668-415b-ad3b-c0a1e10e6cf4","ios":"levelo://app?vid=d27a3574-c668-415b-ad3b-c0a1e10e6cf4"},"vehicle_type_id":"4","last_reported":1757837527,"current_range_meters":19200,"station_id":"","pricing_plan_id":"cebpf4jnsgd1na2vs0mg"},{"bike_id":"4ad27db4-057a-4e34-a1a9-e6d57a57d450","system_id":"levelo_inurba_marseille","lat":43.31887,"lon":5.40731,"is_reserved":false,"is_disabled":false,"rental_uris":{"android":"levelo://app?vid=4ad27db4-057a-4e34-a1a9-e6d57a57d450","ios":"levelo://app?vid=4ad27db4-057a-4e34-a1a9-e6d57a57d450"},"vehicle_type_id":"4","last_reported":1757837527,"current_range_meters":19200,"station_id":"ce4bhq12rcd13ifvqhig","pricing_plan_id":"cebpf4jnsgd1na2vs0mg"},{"bike_id":"a155e67d-bec0-4326-ae57-c035ef5e1c81","system_id":"levelo_inurba_marseille","lat":43.29911,"lon":5.43676,"is_reserved":false,"is_disabled":false,"rental_uris":{"android":"levelo://app?vid=a155e67d-bec0-4326-ae57-c035ef5e1c81","ios":"levelo://app?vid=a155e67d-bec0-4326-ae57-c035ef5e1c81"},"vehicle_type_id":"4","last_reported":1757837527,"current_range_meters":19600,"station_id":"ce4bhpp2rcd13ifvqhfg","pricing_plan_id":"cebpf4jnsgd1na2vs0mg"},{"bike_id":"e05ee47d-8ce4-4bdb-8641-25d22c894ba6","system_id":"levelo_inurba_marseille","lat":43.29231,"lon":5.36072,"is_reserved":false,"is_disabled":false,"rental_uris":{"android":"levelo://app?vid=e05ee47d-8ce4-4bdb-8641-25d22c894ba6","ios":"levelo://app?vid=e05ee47d-8ce4-4bdb-8641-25d22c894ba6"},"vehicle_type_id":"4","last_reported":1757837527,"current_range_meters":19600,"station_id":"ce4bhbh2rcd13ifvqeqg","pricing_plan_id":"cebpf4jnsgd1na2vs0mg"},{"bike_id":"9a2079f0-cb92-4514-af84-ae103494971c","system_id":"levelo_inurba_marseille","lat":43.2923,"lon":5.36062,"is_reserved":false,"is_disabled":false,"rental_uris":{"android":"levelo://app?vid=9a2079f0-cb92-4514-af84-ae103494971c","ios":"levelo://app?vid=9a2079f0-cb92-4514-af84-ae103494971c"},"vehicle_type_id":"4","last_reported":1757837527,"current_range_meters":19600,"station_id":"ce4bhbh2rcd13ifvqeqg","pricing_plan_id":"cebpf4jnsgd1na2vs0mg"},{"bike_id":"e73470b2-f46f-4f87-989f-53f8372e4317","system_id":"levelo_inurba_marseille","lat":43.33338,"lon":5.39827,"is_reserved":false,"is_disabled":false,"rental_uris":{"android":"levelo://app?vid=e73470b2-f46f-4f87-989f-53f8372e4317","ios":"levelo://app?vid=e73470b2-f46f-4f87-989f-53f8372e4317"},"vehicle_type_id":"4","last_reported":1757837527,"current_range_meters":19600,"station_id":"","pricing_plan_id":"cebpf4jnsgd1na2vs0mg"},{"bike_id":"2d79e5b7-f9cd-4880-a3ef-9ec8934cdc30","system_id":"levelo_inurba_marseille","lat":43.27938,"lon":5.41056,"is_reserved":false,"is_disabled":false,"rental_uris":{"android":"levelo://app?vid=2d79e5b7-f9cd-4880-a3ef-9ec8934cdc30","ios":"levelo://app?vid=2d79e5b7-f9cd-4880-a3ef-9ec8934cdc30"},"vehicle_type_id":"4","last_reported":1757837527,"current_range_meters":20000,"station_id":"ce4bhnp2rcd13ifvqh0g","pricing_plan_id":"cebpf4jnsgd1na2vs0mg"},{"bike_id":"a8ea547b-3ee3-4aaf-b7c3-ad4d8d632aaf","system_id":"levelo_inurba_marseille","lat":43.23236,"lon":5.35586,"is_reserved":false,"is_disabled":false,"rental_uris":{"android":"levelo://app?vid=a8ea547b-3ee3-4aaf-b7c3-ad4d8d632aaf","ios":"levelo://app?vid=a8ea547b-3ee3-4aaf-b7c3-ad4d8d632aaf"},"vehicle_type_id":"4","last_reported":1757837527,"current_range_meters":20000,"station_id":"","pricing_plan_id":"cebpf4jnsgd1na2vs0mg"},{"bike_id":"17417908-6f31-4153-becd-a65062c04d72","system_id":"levelo_inurba_marseille","lat":43.31701,"lon":5.40466,"is_reserved":false,"is_disabled":false,"rental_uris":{"android":"levelo://app?vid=17417908-6f31-4153-becd-a65062c04d72","ios":"levelo://app?vid=17417908-6f31-4153-becd-a65062c04d72"},"vehicle_type_id":"4","last_reported":1757837527,"current_range_meters":20000,"station_id":"ce4bh012rcd13ifvqd00","pricing_plan_id":"cebpf4jnsgd1na2vs0mg"},{"bike_id":"3bd0fb81-f566-4f20-a54b-baa7d0407b07","system_id":"levelo_inurba_marseille","lat":43.24959,"lon":5.40511,"is_reserved":false,"is_disabled":false,"rental_uris":{"android":"levelo://app?vid=3bd0fb81-f566-4f20-a54b-baa7d0407b07","ios":"levelo://app?vid=3bd0fb81-f566-4f20-a54b-baa7d0407b07"},"vehicle_type_id":"4","last_reported":1757837527,"current_range_meters":20000,"station_id":"st_d2ngiaodas8pm72gd1h0","pricing_plan_id":"cebpf4jnsgd1na2vs0mg"},{"bike_id":"3b92d29e-b618-4db7-bf39-b2ee8b79f3bc","system_id":"levelo_inurba_marseille","lat":43.2994,"lon":5.36545,"is_reserved":false,"is_disabled":false,"rental_uris":{"android":"levelo://app?vid=3b92d29e-b618-4db7-bf39-b2ee8b79f3bc","ios":"levelo://app?vid=3b92d29e-b618-4db7-bf39-b2ee8b79f3bc"},"vehicle_type_id":"4","last_reported":1757837527,"current_range_meters":20000,"station_id":"ce4bgm92rcd13ifvqbr0","pricing_plan_id":"cebpf4jnsgd1na2vs0mg"},{"bike_id":"41de12a2-5382-4da2-9751-1300a8df4dc1","system_id":"levelo_inurba_marseille","lat":43.22559,"lon":5.41629,"is_reserved":false,"is_disabled":false,"rental_uris":{"android":"levelo://app?vid=41de12a2-5382-4da2-9751-1300a8df4dc1","ios":"levelo://app?vid=41de12a2-5382-4da2-9751-1300a8df4dc1"},"vehicle_type_id":"4","last_reported":1757837527,"current_range_meters":20000,"station_id":"st_d2o4gvlbi1j2169b742g","pricing_plan_id":"cebpf4jnsgd1na2vs0mg"},{"bike_id":"c5603eaf-2478-48ee-abe3-30c44bd59d5c","system_id":"levelo_inurba_marseille","lat":43.307347,"lon":5.42449,"is_reserved":false,"is_disabled":false,"rental_uris":{"android":"levelo://app?vid=c5603eaf-2478-48ee-abe3-30c44bd59d5c","ios":"levelo://app?vid=c5603eaf-2478-48ee-abe3-30c44bd59d5c"},"vehicle_type_id":"4","last_reported":1757837527,"current_range_meters":20400,"station_id":"st_cvj6ca6bvosntc0bfgr0","pricing_plan_id":"cebpf4jnsgd1na2vs0mg"},{"bike_id":"2c1fcf59-7309-4ce2-b05e-21630f6df671","system_id":"levelo_inurba_marseille","lat":43.30899,"lon":5.40157,"is_reserved":false,"is_disabled":false,"rental_uris":{"android":"levelo://app?vid=2c1fcf59-7309-4ce2-b05e-21630f6df671","ios":"levelo://app?vid=2c1fcf59-7309-4ce2-b05e-21630f6df671"},"vehicle_type_id":"4","last_reported":1757837527,"current_range_meters":20400,"station_id":"ce4bgvp2rcd13ifvqct0","pricing_plan_id":"cebpf4jnsgd1na2vs0mg"},{"bike_id":"248b4cfd-9de6-4e8d-a978-188e8a67f556","system_id":"levelo_inurba_marseille","lat":43.31114,"lon":5.37754,"is_reserved":false,"is_disabled":false,"rental_uris":{"android":"levelo://app?vid=248b4cfd-9de6-4e8d-a978-188e8a67f556","ios":"levelo://app?vid=248b4cfd-9de6-4e8d-a978-188e8a67f556"},"vehicle_type_id":"4","last_reported":1757837527,"current_range_meters":20400,"station_id":"ce4bgt92rcd13ifvqcg0","pricing_plan_id":"cebpf4jnsgd1na2vs0mg"},{"bike_id":"71f161a8-210e-4cf1-9153-fc96dfd2e575","system_id":"levelo_inurba_marseille","lat":43.28616,"lon":5.37078,"is_reserved":false,"is_disabled":false,"rental_uris":{"android":"levelo://app?vid=71f161a8-210e-4cf1-9153-fc96dfd2e575","ios":"levelo://app?vid=71f161a8-210e-4cf1-9153-fc96dfd2e575"},"vehicle_type_id":"4","last_reported":1757837527,"current_range_meters":20400,"station_id":"ce4bht12rcd13ifvqi60","pricing_plan_id":"cebpf4jnsgd1na2vs0mg"},{"bike_id":"b65bdfe5-df02-45d3-8204-7ab1ad909426","system_id":"levelo_inurba_marseille","lat":43.27941,"lon":5.41048,"is_reserved":false,"is_disabled":false,"rental_uris":{"android":"levelo://app?vid=b65bdfe5-df02-45d3-8204-7ab1ad909426","ios":"levelo://app?vid=b65bdfe5-df02-45d3-8204-7ab1ad909426"},"vehicle_type_id":"4","last_reported":1757837527,"current_range_meters":20400,"station_id":"ce4bhnp2rcd13ifvqh0g","pricing_plan_id":"cebpf4jnsgd1na2vs0mg"},{"bike_id":"5c41d517-3ad2-4101-a729-0e18d8ac940e","system_id":"levelo_inurba_marseille","lat":43.272037,"lon":5.391855,"is_reserved":false,"is_disabled":true,"rental_uris":{"android":"levelo://app?vid=5c41d517-3ad2-4101-a729-0e18d8ac940e","ios":"levelo://app?vid=5c41d517-3ad2-4101-a729-0e18d8ac940e"},"vehicle_type_id":"4","last_reported":1757837527,"current_range_meters":20400,"station_id":"","pricing_plan_id":"cebpf4jnsgd1na2vs0mg"},{"bike_id":"6db94eaa-f783-43b7-9250-2581f1b5d003","system_id":"levelo_inurba_marseille","lat":43.292664,"lon":5.376342,"is_reserved":false,"is_disabled":false,"rental_uris":{"android":"levelo://app?vid=6db94eaa-f783-43b7-9250-2581f1b5d003","ios":"levelo://app?vid=6db94eaa-f783-43b7-9250-2581f1b5d003"},"vehicle_type_id":"4","last_reported":1757837527,"current_range_meters":20400,"station_id":"ce4bgi12rcd13ifvqb80","pricing_plan_id":"cebpf4jnsgd1na2vs0mg"},{"bike_id":"5b1cd7c8-c08f-4756-b385-bacba5c452b5","system_id":"levelo_inurba_marseille","lat":43.28427,"lon":5.34998,"is_reserved":false,"is_disabled":false,"rental_uris":{"android":"levelo://app?vid=5b1cd7c8-c08f-4756-b385-bacba5c452b5","ios":"levelo://app?vid=5b1cd7c8-c08f-4756-b385-bacba5c452b5"},"vehicle_type_id":"4","last_reported":1757837527,"current_range_meters":20400,"station_id":"ce4bhbh2rcd13ifvqepg","pricing_plan_id":"cebpf4jnsgd1na2vs0mg"},{"bike_id":"f7f2c16e-e822-4dc2-b70c-6f01b7378fc4","system_id":"levelo_inurba_marseille","lat":43.25093,"lon":5.39573,"is_reserved":false,"is_disabled":false,"rental_uris":{"android":"levelo://app?vid=f7f2c16e-e822-4dc2-b70c-6f01b7378fc4","ios":"levelo://app?vid=f7f2c16e-e822-4dc2-b70c-6f01b7378fc4"},"vehicle_type_id":"4","last_reported":1757837527,"current_range_meters":20400,"station_id":"ce4bhm12rcd13ifvqgkg","pricing_plan_id":"cebpf4jnsgd1na2vs0mg"},{"bike_id":"2d6aad19-6aca-4a34-bbb2-22f8c64b6a1e","system_id":"levelo_inurba_marseille","lat":43.31885,"lon":5.40735,"is_reserved":false,"is_disabled":false,"rental_uris":{"android":"levelo://app?vid=2d6aad19-6aca-4a34-bbb2-22f8c64b6a1e","ios":"levelo://app?vid=2d6aad19-6aca-4a34-bbb2-22f8c64b6a1e"},"vehicle_type_id":"4","last_reported":1757837527,"current_range_meters":20800,"station_id":"ce4bhq12rcd13ifvqhig","pricing_plan_id":"cebpf4jnsgd1na2vs0mg"},{"bike_id":"f4b758f5-b238-4819-86de-2c05f9386f2d","system_id":"levelo_inurba_marseille","lat":43.21193,"lon":5.35078,"is_reserved":false,"is_disabled":false,"rental_uris":{"android":"levelo://app?vid=f4b758f5-b238-4819-86de-2c05f9386f2d","ios":"levelo://app?vid=f4b758f5-b238-4819-86de-2c05f9386f2d"},"vehicle_type_id":"4","last_reported":1757837527,"current_range_meters":20800,"station_id":"","pricing_plan_id":"cebpf4jnsgd1na2vs0mg"},{"bike_id":"7713b745-a0fd-493e-b2f2-ad45f6607a76","system_id":"levelo_inurba_marseille","lat":43.28864,"lon":5.42539,"is_reserved":false,"is_disabled":false,"rental_uris":{"android":"levelo://app?vid=7713b745-a0fd-493e-b2f2-ad45f6607a76","ios":"levelo://app?vid=7713b745-a0fd-493e-b2f2-ad45f6607a76"},"vehicle_type_id":"4","last_reported":1757837527,"current_range_meters":20800,"station_id":"","pricing_plan_id":"cebpf4jnsgd1na2vs0mg"},{"bike_id":"d433f65c-48c2-4aa1-b7a0-61a992e3054a","system_id":"levelo_inurba_marseille","lat":43.29185,"lon":5.39311,"is_reserved":false,"is_disabled":true,"rental_uris":{"android":"levelo://app?vid=d433f65c-48c2-4aa1-b7a0-61a992e3054a","ios":"levelo://app?vid=d433f65c-48c2-4aa1-b7a0-61a992e3054a"},"vehicle_type_id":"4","last_reported":1757837527,"current_range_meters":20800,"station_id":"ce4bh192rcd13ifvqdd0","pricing_plan_id":"cebpf4jnsgd1na2vs0mg"},{"bike_id":"343da20b-c4e5-468a-bede-bf16e639f469","system_id":"levelo_inurba_marseille","lat":43.24546,"lon":5.39528,"is_reserved":false,"is_disabled":false,"rental_uris":{"android":"levelo://app?vid=343da20b-c4e5-468a-bede-bf16e639f469","ios":"levelo://app?vid=343da20b-c4e5-468a-bede-bf16e639f469"},"vehicle_type_id":"4","last_reported":1757837527,"current_range_meters":20800,"station_id":"ce4bhlp2rcd13ifvqgjg","pricing_plan_id":"cebpf4jnsgd1na2vs0mg"},{"bike_id":"1aafb4a9-8da4-4784-bd05-53fa610f2fcb","system_id":"levelo_inurba_marseille","lat":43.25103,"lon":5.40322,"is_reserved":false,"is_disabled":false,"rental_uris":{"android":"levelo://app?vid=1aafb4a9-8da4-4784-bd05-53fa610f2fcb","ios":"levelo://app?vid=1aafb4a9-8da4-4784-bd05-53fa610f2fcb"},"vehicle_type_id":"4","last_reported":1757837527,"current_range_meters":20800,"station_id":"ce4bhlh2rcd13ifvqgig","pricing_plan_id":"cebpf4jnsgd1na2vs0mg"},{"bike_id":"9f73b079-ee9b-4958-b56a-032ed2044e3c","system_id":"levelo_inurba_marseille","lat":43.26571,"lon":5.39018,"is_reserved":false,"is_disabled":false,"rental_uris":{"android":"levelo://app?vid=9f73b079-ee9b-4958-b56a-032ed2044e3c","ios":"levelo://app?vid=9f73b079-ee9b-4958-b56a-032ed2044e3c"},"vehicle_type_id":"4","last_reported":1757837527,"current_range_meters":20800,"station_id":"ce4bhe12rcd13ifvqf30","pricing_plan_id":"cebpf4jnsgd1na2vs0mg"},{"bike_id":"961db1b7-057e-4168-875c-58aba44c6c16","system_id":"levelo_inurba_marseille","lat":43.24633,"lon":5.43148,"is_reserved":false,"is_disabled":false,"rental_uris":{"android":"levelo://app?vid=961db1b7-057e-4168-875c-58aba44c6c16","ios":"levelo://app?vid=961db1b7-057e-4168-875c-58aba44c6c16"},"vehicle_type_id":"4","last_reported":1757837527,"current_range_meters":21600,"station_id":"st_d2m6c4gdas8pm72e190g","pricing_plan_id":"cebpf4jnsgd1na2vs0mg"},{"bike_id":"3b5c65fd-2177-4f9a-86ff-3d98441fca04","system_id":"levelo_inurba_marseille","lat":43.290222,"lon":5.381313,"is_reserved":false,"is_disabled":false,"rental_uris":{"android":"levelo://app?vid=3b5c65fd-2177-4f9a-86ff-3d98441fca04","ios":"levelo://app?vid=3b5c65fd-2177-4f9a-86ff-3d98441fca04"},"vehicle_type_id":"4","last_reported":1757837527,"current_range_meters":21600,"station_id":"ce4bh4p2rcd13ifvqe1g","pricing_plan_id":"cebpf4jnsgd1na2vs0mg"},{"bike_id":"d73ebff0-d957-41dc-a638-29b88edc4926","system_id":"levelo_inurba_marseille","lat":43.22565,"lon":5.41636,"is_reserved":false,"is_disabled":false,"rental_uris":{"android":"levelo://app?vid=d73ebff0-d957-41dc-a638-29b88edc4926","ios":"levelo://app?vid=d73ebff0-d957-41dc-a638-29b88edc4926"},"vehicle_type_id":"4","last_reported":1757837527,"current_range_meters":21600,"station_id":"st_d2o4gvlbi1j2169b742g","pricing_plan_id":"cebpf4jnsgd1na2vs0mg"},{"bike_id":"a5aa7ed1-3ddd-4ef9-92b6-adcfff9878c2","system_id":"levelo_inurba_marseille","lat":43.29798,"lon":5.38126,"is_reserved":false,"is_disabled":true,"rental_uris":{"android":"levelo://app?vid=a5aa7ed1-3ddd-4ef9-92b6-adcfff9878c2","ios":"levelo://app?vid=a5aa7ed1-3ddd-4ef9-92b6-adcfff9878c2"},"vehicle_type_id":"4","last_reported":1757837527,"current_range_meters":21600,"station_id":"ce4bgip2rcd13ifvqbb0","pricing_plan_id":"cebpf4jnsgd1na2vs0mg"},{"bike_id":"54027134-c05f-4c88-a0cc-76a16a6ca11d","system_id":"levelo_inurba_marseille","lat":43.2175,"lon":5.346,"is_reserved":false,"is_disabled":false,"rental_uris":{"android":"levelo://app?vid=54027134-c05f-4c88-a0cc-76a16a6ca11d","ios":"levelo://app?vid=54027134-c05f-4c88-a0cc-76a16a6ca11d"},"vehicle_type_id":"4","last_reported":1757837527,"current_range_meters":20800,"station_id":"st_cvj6r9ubvosntc0bgbag","pricing_plan_id":"cebpf4jnsgd1na2vs0mg"},{"bike_id":"1323e9ac-8cee-43cc-a3dc-35a519a21f26","system_id":"levelo_inurba_marseille","lat":43.239661,"lon":5.366318,"is_reserved":false,"is_disabled":false,"rental_uris":{"android":"levelo://app?vid=1323e9ac-8cee-43cc-a3dc-35a519a21f26","ios":"levelo://app?vid=1323e9ac-8cee-43cc-a3dc-35a519a21f26"},"vehicle_type_id":"4","last_reported":1757837527,"current_range_meters":21600,"station_id":"ce4bhi12rcd13ifvqfp0","pricing_plan_id":"cebpf4jnsgd1na2vs0mg"},{"bike_id":"39a395ba-ebb2-4a42-9718-7158aecf3573","system_id":"levelo_inurba_marseille","lat":43.2293,"lon":5.35373,"is_reserved":false,"is_disabled":false,"rental_uris":{"android":"levelo://app?vid=39a395ba-ebb2-4a42-9718-7158aecf3573","ios":"levelo://app?vid=39a395ba-ebb2-4a42-9718-7158aecf3573"},"vehicle_type_id":"4","last_reported":1757837527,"current_range_meters":21600,"station_id":"cpo3532slgdg3j2ikp40","pricing_plan_id":"cebpf4jnsgd1na2vs0mg"},{"bike_id":"ec237f0f-d751-4b66-88b5-1354f5179305","system_id":"levelo_inurba_marseille","lat":43.25941,"lon":5.40895,"is_reserved":false,"is_disabled":false,"rental_uris":{"android":"levelo://app?vid=ec237f0f-d751-4b66-88b5-1354f5179305","ios":"levelo://app?vid=ec237f0f-d751-4b66-88b5-1354f5179305"},"vehicle_type_id":"4","last_reported":1757837527,"current_range_meters":21600,"station_id":"ce4bhm92rcd13ifvqglg","pricing_plan_id":"cebpf4jnsgd1na2vs0mg"},{"bike_id":"f8980ff8-d494-4bb4-b7dd-f0429765a9e3","system_id":"levelo_inurba_marseille","lat":43.3009,"lon":5.3907,"is_reserved":false,"is_disabled":false,"rental_uris":{"android":"levelo://app?vid=f8980ff8-d494-4bb4-b7dd-f0429765a9e3","ios":"levelo://app?vid=f8980ff8-d494-4bb4-b7dd-f0429765a9e3"},"vehicle_type_id":"4","last_reported":1757837527,"current_range_meters":21600,"station_id":"ce4bh192rcd13ifvqdb0","pricing_plan_id":"cebpf4jnsgd1na2vs0mg"},{"bike_id":"b1d4770d-ecf9-4c2e-8826-a87a82e2e1de","system_id":"levelo_inurba_marseille","lat":43.29881,"lon":5.39754,"is_reserved":false,"is_disabled":true,"rental_uris":{"android":"levelo://app?vid=b1d4770d-ecf9-4c2e-8826-a87a82e2e1de","ios":"levelo://app?vid=b1d4770d-ecf9-4c2e-8826-a87a82e2e1de"},"vehicle_type_id":"4","last_reported":1757837527,"current_range_meters":22000,"station_id":"ce4bh0h2rcd13ifvqd50","pricing_plan_id":"cebpf4jnsgd1na2vs0mg"},{"bike_id":"d5a6cce7-5ba9-49db-9021-30c2fd04026a","system_id":"levelo_inurba_marseille","lat":43.32044,"lon":5.40933,"is_reserved":false,"is_disabled":false,"rental_uris":{"android":"levelo://app?vid=d5a6cce7-5ba9-49db-9021-30c2fd04026a","ios":"levelo://app?vid=d5a6cce7-5ba9-49db-9021-30c2fd04026a"},"vehicle_type_id":"4","last_reported":1757837527,"current_range_meters":22000,"station_id":"","pricing_plan_id":"cebpf4jnsgd1na2vs0mg"},{"bike_id":"046ba709-b940-4fa3-9690-1d81db536e4b","system_id":"levelo_inurba_marseille","lat":43.22562,"lon":5.4164,"is_reserved":false,"is_disabled":false,"rental_uris":{"android":"levelo://app?vid=046ba709-b940-4fa3-9690-1d81db536e4b","ios":"levelo://app?vid=046ba709-b940-4fa3-9690-1d81db536e4b"},"vehicle_type_id":"4","last_reported":1757837527,"current_range_meters":22000,"station_id":"st_d2o4gvlbi1j2169b742g","pricing_plan_id":"cebpf4jnsgd1na2vs0mg"},{"bike_id":"44b06d27-b38f-4db0-b059-b6a958b47766","system_id":"levelo_inurba_marseille","lat":43.24074,"lon":5.37803,"is_reserved":false,"is_disabled":false,"rental_uris":{"android":"levelo://app?vid=44b06d27-b38f-4db0-b059-b6a958b47766","ios":"levelo://app?vid=44b06d27-b38f-4db0-b059-b6a958b47766"},"vehicle_type_id":"4","last_reported":1757837527,"current_range_meters":22000,"station_id":"ce4bhnp2rcd13ifvqgvg","pricing_plan_id":"cebpf4jnsgd1na2vs0mg"},{"bike_id":"6954d745-c0b3-4f6f-b09f-a891ee8ecf66","system_id":"levelo_inurba_marseille","lat":43.31695,"lon":5.4045,"is_reserved":false,"is_disabled":false,"rental_uris":{"android":"levelo://app?vid=6954d745-c0b3-4f6f-b09f-a891ee8ecf66","ios":"levelo://app?vid=6954d745-c0b3-4f6f-b09f-a891ee8ecf66"},"vehicle_type_id":"4","last_reported":1757837527,"current_range_meters":22000,"station_id":"ce4bh012rcd13ifvqd00","pricing_plan_id":"cebpf4jnsgd1na2vs0mg"},{"bike_id":"ed9cd55d-db1b-4ea4-a427-079776b26f66","system_id":"levelo_inurba_marseille","lat":43.24809,"lon":5.37468,"is_reserved":false,"is_disabled":false,"rental_uris":{"android":"levelo://app?vid=ed9cd55d-db1b-4ea4-a427-079776b26f66","ios":"levelo://app?vid=ed9cd55d-db1b-4ea4-a427-079776b26f66"},"vehicle_type_id":"4","last_reported":1757837527,"current_range_meters":22000,"station_id":"ce4bhgh2rcd13ifvqfb0","pricing_plan_id":"cebpf4jnsgd1na2vs0mg"},{"bike_id":"2e3637cf-f74b-4917-a4ca-97231656118e","system_id":"levelo_inurba_marseille","lat":43.33764,"lon":5.37475,"is_reserved":false,"is_disabled":false,"rental_uris":{"android":"levelo://app?vid=2e3637cf-f74b-4917-a4ca-97231656118e","ios":"levelo://app?vid=2e3637cf-f74b-4917-a4ca-97231656118e"},"vehicle_type_id":"4","last_reported":1757837527,"current_range_meters":22400,"station_id":"","pricing_plan_id":"cebpf4jnsgd1na2vs0mg"},{"bike_id":"27fbfeae-e6b7-4fdd-accb-fff8b7bc8745","system_id":"levelo_inurba_marseille","lat":43.28166,"lon":5.42666,"is_reserved":false,"is_disabled":false,"rental_uris":{"android":"levelo://app?vid=27fbfeae-e6b7-4fdd-accb-fff8b7bc8745","ios":"levelo://app?vid=27fbfeae-e6b7-4fdd-accb-fff8b7bc8745"},"vehicle_type_id":"4","last_reported":1757837527,"current_range_meters":22400,"station_id":"ce4bhnh2rcd13ifvqgug","pricing_plan_id":"cebpf4jnsgd1na2vs0mg"},{"bike_id":"b685894a-28a1-415e-b0c1-944b52e57185","system_id":"levelo_inurba_marseille","lat":43.26557,"lon":5.37284,"is_reserved":false,"is_disabled":false,"rental_uris":{"android":"levelo://app?vid=b685894a-28a1-415e-b0c1-944b52e57185","ios":"levelo://app?vid=b685894a-28a1-415e-b0c1-944b52e57185"},"vehicle_type_id":"4","last_reported":1757837527,"current_range_meters":22400,"station_id":"ce4bhg12rcd13ifvqf70","pricing_plan_id":"cebpf4jnsgd1na2vs0mg"},{"bike_id":"424ef86b-c112-48d4-b896-1255eaa12918","system_id":"levelo_inurba_marseille","lat":43.30357,"lon":5.41878,"is_reserved":false,"is_disabled":false,"rental_uris":{"android":"levelo://app?vid=424ef86b-c112-48d4-b896-1255eaa12918","ios":"levelo://app?vid=424ef86b-c112-48d4-b896-1255eaa12918"},"vehicle_type_id":"4","last_reported":1757837527,"current_range_meters":22400,"station_id":"ce4bhop2rcd13ifvqh7g","pricing_plan_id":"cebpf4jnsgd1na2vs0mg"},{"bike_id":"ded0aa9c-9217-4c74-8432-91fce6a1b084","system_id":"levelo_inurba_marseille","lat":43.27072,"lon":5.42278,"is_reserved":false,"is_disabled":false,"rental_uris":{"android":"levelo://app?vid=ded0aa9c-9217-4c74-8432-91fce6a1b084","ios":"levelo://app?vid=ded0aa9c-9217-4c74-8432-91fce6a1b084"},"vehicle_type_id":"4","last_reported":1757837527,"current_range_meters":22400,"station_id":"ce4bhk92rcd13ifvqgb0","pricing_plan_id":"cebpf4jnsgd1na2vs0mg"},{"bike_id":"c80adb64-22bf-429e-abbe-d24fd152508c","system_id":"levelo_inurba_marseille","lat":43.28814,"lon":5.38569,"is_reserved":false,"is_disabled":false,"rental_uris":{"android":"levelo://app?vid=c80adb64-22bf-429e-abbe-d24fd152508c","ios":"levelo://app?vid=c80adb64-22bf-429e-abbe-d24fd152508c"},"vehicle_type_id":"4","last_reported":1757837527,"current_range_meters":22400,"station_id":"","pricing_plan_id":"cebpf4jnsgd1na2vs0mg"},{"bike_id":"28a0b5c6-c61d-4c20-947d-31bcb80343f5","system_id":"levelo_inurba_marseille","lat":43.2494,"lon":5.40489,"is_reserved":false,"is_disabled":false,"rental_uris":{"android":"levelo://app?vid=28a0b5c6-c61d-4c20-947d-31bcb80343f5","ios":"levelo://app?vid=28a0b5c6-c61d-4c20-947d-31bcb80343f5"},"vehicle_type_id":"4","last_reported":1757837527,"current_range_meters":22400,"station_id":"st_d2ngiaodas8pm72gd1h0","pricing_plan_id":"cebpf4jnsgd1na2vs0mg"},{"bike_id":"00769fb4-f8e5-45af-bc12-f8f4b0007c0d","system_id":"levelo_inurba_marseille","lat":43.28707,"lon":5.40014,"is_reserved":false,"is_disabled":true,"rental_uris":{"android":"levelo://app?vid=00769fb4-f8e5-45af-bc12-f8f4b0007c0d","ios":"levelo://app?vid=00769fb4-f8e5-45af-bc12-f8f4b0007c0d"},"vehicle_type_id":"4","last_reported":1757837527,"current_range_meters":22400,"station_id":"ce4bho92rcd13ifvqh3g","pricing_plan_id":"cebpf4jnsgd1na2vs0mg"},{"bike_id":"6bcb245c-11b1-447b-8afc-f33df6703715","system_id":"levelo_inurba_marseille","lat":43.270696,"lon":5.422735,"is_reserved":false,"is_disabled":false,"rental_uris":{"android":"levelo://app?vid=6bcb245c-11b1-447b-8afc-f33df6703715","ios":"levelo://app?vid=6bcb245c-11b1-447b-8afc-f33df6703715"},"vehicle_type_id":"4","last_reported":1757837527,"current_range_meters":22400,"station_id":"ce4bhk92rcd13ifvqgb0","pricing_plan_id":"cebpf4jnsgd1na2vs0mg"},{"bike_id":"8677930c-582e-4b2f-bbcf-28274d7042f5","system_id":"levelo_inurba_marseille","lat":43.28244,"lon":5.4305,"is_reserved":false,"is_disabled":false,"rental_uris":{"android":"levelo://app?vid=8677930c-582e-4b2f-bbcf-28274d7042f5","ios":"levelo://app?vid=8677930c-582e-4b2f-bbcf-28274d7042f5"},"vehicle_type_id":"4","last_reported":1757837527,"current_range_meters":26800,"station_id":"","pricing_plan_id":"cebpf4jnsgd1na2vs0mg"},{"bike_id":"a321d74c-da7a-405a-9ad2-ce57fee766ac","system_id":"levelo_inurba_marseille","lat":43.23961,"lon":5.36623,"is_reserved":false,"is_disabled":false,"rental_uris":{"android":"levelo://app?vid=a321d74c-da7a-405a-9ad2-ce57fee766ac","ios":"levelo://app?vid=a321d74c-da7a-405a-9ad2-ce57fee766ac"},"vehicle_type_id":"4","last_reported":1757837527,"current_range_meters":22400,"station_id":"ce4bhi12rcd13ifvqfp0","pricing_plan_id":"cebpf4jnsgd1na2vs0mg"},{"bike_id":"e5226851-9b8f-416e-922a-19ba380da3c0","system_id":"levelo_inurba_marseille","lat":43.28708,"lon":5.39993,"is_reserved":false,"is_disabled":false,"rental_uris":{"android":"levelo://app?vid=e5226851-9b8f-416e-922a-19ba380da3c0","ios":"levelo://app?vid=e5226851-9b8f-416e-922a-19ba380da3c0"},"vehicle_type_id":"4","last_reported":1757837527,"current_range_meters":22400,"station_id":"ce4bho92rcd13ifvqh3g","pricing_plan_id":"cebpf4jnsgd1na2vs0mg"},{"bike_id":"f826adc0-3815-4cd6-a42b-fc5a229ab953","system_id":"levelo_inurba_marseille","lat":43.22555,"lon":5.41625,"is_reserved":false,"is_disabled":false,"rental_uris":{"android":"levelo://app?vid=f826adc0-3815-4cd6-a42b-fc5a229ab953","ios":"levelo://app?vid=f826adc0-3815-4cd6-a42b-fc5a229ab953"},"vehicle_type_id":"4","last_reported":1757837527,"current_range_meters":22400,"station_id":"st_d2o4gvlbi1j2169b742g","pricing_plan_id":"cebpf4jnsgd1na2vs0mg"},{"bike_id":"758045a4-f6c3-4d3e-9912-144a8888c099","system_id":"levelo_inurba_marseille","lat":43.24668,"lon":5.38179,"is_reserved":false,"is_disabled":false,"rental_uris":{"android":"levelo://app?vid=758045a4-f6c3-4d3e-9912-144a8888c099","ios":"levelo://app?vid=758045a4-f6c3-4d3e-9912-144a8888c099"},"vehicle_type_id":"4","last_reported":1757837527,"current_range_meters":22800,"station_id":"ce4bhih2rcd13ifvqfr0","pricing_plan_id":"cebpf4jnsgd1na2vs0mg"},{"bike_id":"08d84b2e-f66e-4937-85d6-10ca7354e28c","system_id":"levelo_inurba_marseille","lat":43.30159,"lon":5.38083,"is_reserved":false,"is_disabled":false,"rental_uris":{"android":"levelo://app?vid=08d84b2e-f66e-4937-85d6-10ca7354e28c","ios":"levelo://app?vid=08d84b2e-f66e-4937-85d6-10ca7354e28c"},"vehicle_type_id":"4","last_reported":1757837527,"current_range_meters":22800,"station_id":"ce4bgjp2rcd13ifvqbh0","pricing_plan_id":"cebpf4jnsgd1na2vs0mg"},{"bike_id":"901f9719-303d-451b-b808-47afbdc45491","system_id":"levelo_inurba_marseille","lat":43.30318,"lon":5.40443,"is_reserved":false,"is_disabled":false,"rental_uris":{"android":"levelo://app?vid=901f9719-303d-451b-b808-47afbdc45491","ios":"levelo://app?vid=901f9719-303d-451b-b808-47afbdc45491"},"vehicle_type_id":"4","last_reported":1757837527,"current_range_meters":22800,"station_id":"ce4bh012rcd13ifvqd10","pricing_plan_id":"cebpf4jnsgd1na2vs0mg"},{"bike_id":"6c13615d-1db7-4941-bc6a-f5f49fbe1a63","system_id":"levelo_inurba_marseille","lat":43.2656,"lon":5.40335,"is_reserved":false,"is_disabled":false,"rental_uris":{"android":"levelo://app?vid=6c13615d-1db7-4941-bc6a-f5f49fbe1a63","ios":"levelo://app?vid=6c13615d-1db7-4941-bc6a-f5f49fbe1a63"},"vehicle_type_id":"4","last_reported":1757837527,"current_range_meters":22800,"station_id":"ce4bhmp2rcd13ifvqgng","pricing_plan_id":"cebpf4jnsgd1na2vs0mg"},{"bike_id":"7a556fdf-0cae-469c-afaa-e16ecb69380a","system_id":"levelo_inurba_marseille","lat":43.28293,"lon":5.43243,"is_reserved":false,"is_disabled":false,"rental_uris":{"android":"levelo://app?vid=7a556fdf-0cae-469c-afaa-e16ecb69380a","ios":"levelo://app?vid=7a556fdf-0cae-469c-afaa-e16ecb69380a"},"vehicle_type_id":"4","last_reported":1757837527,"current_range_meters":23200,"station_id":"","pricing_plan_id":"cebpf4jnsgd1na2vs0mg"},{"bike_id":"90bb69b8-d6f0-41da-8498-95bc61b2fb76","system_id":"levelo_inurba_marseille","lat":43.29047,"lon":5.38672,"is_reserved":false,"is_disabled":true,"rental_uris":{"android":"levelo://app?vid=90bb69b8-d6f0-41da-8498-95bc61b2fb76","ios":"levelo://app?vid=90bb69b8-d6f0-41da-8498-95bc61b2fb76"},