{"last_updated":1701436242,"ttl":30,"version":"2.2","data":{"bikes":[{"bike_id":"3c9dc2f8-75a6-46c6-8514-31eddab1ff34","system_id":"levelo_inurba_marseille","lat":43.31341,"lon":5.367098,"is_reserved":false,"is_disabled":false,"rental_uris":{"android":"levelo://app?vid=3c9dc2f8-75a6-46c6-8514-31eddab1ff34","ios":"levelo://app?vid=3c9dc2f8-75a6-46c6-8514-31eddab1ff34"},"vehicle_type_id":"4","last_reported":1701436242,"current_range_meters":31200,"station_id":"ce4bgr92rcd13ifvqc6g","pricing_plan_id":"free"},{"bike_id":"aebb5f1f-3a1e-4323-a4f0-ae83e0b78d14","system_id":"levelo_inurba_marseille","lat":43.313521,"lon":5.367538,"is_reserved":false,"is_disabled":false,"rental_uris":{"android":"levelo://app?vid=aebb5f1f-3a1e-4323-a4f0-ae83e0b78d14","ios":"levelo://app?vid=aebb5f1f-3a1e-4323-a4f0-ae83e0b78d14"},"vehicle_type_id":"4","last_reported":1701436242,"current_range_meters":20800,"station_id":"","pricing_plan_id":"free"},{"bike_id":"4c6d022e-5b36-455b-bfc4-ee751daae2ed","system_id":"levelo_inurba_marseille","lat":43.314811,"lon":5.373103,"is_reserved":false,"is_disabled":false,"rental_uris":{"android":"levelo://app?vid=4c6d022e-5b36-455b-bfc4-ee751daae2ed","ios":"levelo://app?vid=4c6d022e-5b36-455b-bfc4-ee751daae2ed"},"vehicle_type_id":"4","last_reported":1701436242,"current_range_meters":22800,"station_id":"ce4bgt12rcd13ifvqcd0","pricing_plan_id":"free"},{"bike_id":"7bdbcfe9-924e-49e5-849f-fb7276f261aa","system_id":"levelo_inurba_marseille","lat":43.310576,"lon":5.377469,"is_reserved":false,"is_disabled":false,"rental_uris":{"android":"levelo://app?vid=7bdbcfe9-924e-49e5-849f-fb7276f261aa","ios":"levelo://app?vid=7bdbcfe9-924e-49e5-849f-fb7276f261aa"},"vehicle_type_id":"4","last_reported":1701436242,"current_range_meters":10800,"station_id":"","pricing_plan_id":"free"},{"bike_id":"727d231a-d425-4d8f-ad3f-99b5a47572e8","system_id":"levelo_inurba_marseille","lat":43.30439,"lon":5.36753,"is_reserved":false,"is_disabled":false,"rental_uris":{"android":"levelo://app?vid=727d231a-d425-4d8f-ad3f-99b5a47572e8","ios":"levelo://app?vid=727d231a-d425-4d8f-ad3f-99b5a47572e8"},"vehicle_type_id":"4","last_reported":1701436242,"current_range_meters":28000,"station_id":"","pricing_plan_id":"free"},{"bike_id":"341fc437-c6c4-441e-abf5-b52adae9cbab","system_id":"levelo_inurba_marseille","lat":43.307945,"lon":5.376487,"is_reserved":false,"is_disabled":false,"rental_uris":{"android":"levelo://app?vid=341fc437-c6c4-441e-abf5-b52adae9cbab","ios":"levelo://app?vid=341fc437-c6c4-441e-abf5-b52adae9cbab"},"vehicle_type_id":"4","last_reported":1701436242,"current_range_meters":18800,"station_id":"ce4bgv92rcd13ifvqcq0","pricing_plan_id":"free"},{"bike_id":"f427a2c3-6e4a-446b-ae2f-9be8aa7f4122","system_id":"levelo_inurba_marseille","lat":43.31719,"lon":5.376813,"is_reserved":false,"is_disabled":false,"rental_uris":{"android":"levelo://app?vid=f427a2c3-6e4a-446b-ae2f-9be8aa7f4122","ios":"levelo://app?vid=f427a2c3-6e4a-446b-ae2f-9be8aa7f4122"},"vehicle_type_id":"4","last_reported":1701436242,"current_range_meters":1600,"station_id":"","pricing_plan_id":"free"},{"bike_id":"e913f328-1e31-4c22-bd87-f809ea246de4","system_id":"levelo_inurba_marseille","lat":43.317168,"lon":5.376883,"is_reserved":false,"is_disabled":false,"rental_uris":{"android":"levelo://app?vid=e913f328-1e31-4c22-bd87-f809ea246de4","ios":"levelo://app?vid=e913f328-1e31-4c22-bd87-f809ea246de4"},"vehicle_type_id":"4","last_reported":1701436242,"current_range_meters":4000,"station_id":"","pricing_plan_id":"free"},{"bike_id":"dd0363a1-0424-44bd-876f-8200a1de1701","system_id":"levelo_inurba_marseille","lat":43.3081,"lon":5.376763,"is_reserved":false,"is_disabled":false,"rental_uris":{"android":"levelo://app?vid=dd0363a1-0424-44bd-876f-8200a1de1701","ios":"levelo://app?vid=dd0363a1-0424-44bd-876f-8200a1de1701"},"vehicle_type_id":"4","last_reported":1701436242,"current_range_meters":22000,"station_id":"ce4bgv92rcd13ifvqcq0","pricing_plan_id":"free"},{"bike_id":"e13931ef-e117-4f73-9bcb-fef6c96afa1a","system_id":"levelo_inurba_marseille","lat":43.317075,"lon":5.377367,"is_reserved":false,"is_disabled":false,"rental_uris":{"android":"levelo://app?vid=e13931ef-e117-4f73-9bcb-fef6c96afa1a","ios":"levelo://app?vid=e13931ef-e117-4f73-9bcb-fef6c96afa1a"},"vehicle_type_id":"4","last_reported":1701436242,"current_range_meters":18800,"station_id":"ce4bgth2rcd13ifvqch0","pricing_plan_id":"free"},{"bike_id":"caecca47-b7ac-452c-b011-257aea52ee78","system_id":"levelo_inurba_marseille","lat":43.303046,"lon":5.368981,"is_reserved":false,"is_disabled":false,"rental_uris":{"android":"levelo://app?vid=caecca47-b7ac-452c-b011-257aea52ee78","ios":"levelo://app?vid=caecca47-b7ac-452c-b011-257aea52ee78"},"vehicle_type_id":"4","last_reported":1701436242,"current_range_meters":27600,"station_id":"ce4bgqh2rcd13ifvqc5g","pricing_plan_id":"free"},{"bike_id":"e43cf204-a771-4d68-acc9-a4f45ed1d9d8","system_id":"levelo_inurba_marseille","lat":43.30304,"lon":5.368987,"is_reserved":false,"is_disabled":false,"rental_uris":{"android":"levelo://app?vid=e43cf204-a771-4d68-acc9-a4f45ed1d9d8","ios":"levelo://app?vid=e43cf204-a771-4d68-acc9-a4f45ed1d9d8"},"vehicle_type_id":"4","last_reported":1701436242,"current_range_meters":26800,"station_id":"ce4bgqh2rcd13ifvqc5g","pricing_plan_id":"free"},{"bike_id":"1fa11e18-56bb-41a1-ab19-2f1df73f63b0","system_id":"levelo_inurba_marseille","lat":43.31528,"lon":5.38041,"is_reserved":false,"is_disabled":false,"rental_uris":{"android":"levelo://app?vid=1fa11e18-56bb-41a1-ab19-2f1df73f63b0","ios":"levelo://app?vid=1fa11e18-56bb-41a1-ab19-2f1df73f63b0"},"vehicle_type_id":"4","last_reported":1701436242,"current_range_meters":25600,"station_id":"ce4bhsp2rcd13ifvqi50","pricing_plan_id":"free"},{"bike_id":"780fbf52-1a6f-4510-8308-a1c7c87b26c5","system_id":"levelo_inurba_marseille","lat":43.301939,"lon":5.366286,"is_reserved":false,"is_disabled":false,"rental_uris":{"android":"levelo://app?vid=780fbf52-1a6f-4510-8308-a1c7c87b26c5","ios":"levelo://app?vid=780fbf52-1a6f-4510-8308-a1c7c87b26c5"},"vehicle_type_id":"4","last_reported":1701436242,"current_range_meters":16800,"station_id":"ce4bgrh2rcd13ifvqc8g","pricing_plan_id":"free"},{"bike_id":"31403651-79e9-44e7-be8f-01db53f070f8","system_id":"levelo_inurba_marseille","lat":43.301939,"lon":5.366286,"is_reserved":false,"is_disabled":false,"rental_uris":{"android":"levelo://app?vid=31403651-79e9-44e7-be8f-01db53f070f8","ios":"levelo://app?vid=31403651-79e9-44e7-be8f-01db53f070f8"},"vehicle_type_id":"4","last_reported":1701436242,"current_range_meters":24000,"station_id":"ce4bgrh2rcd13ifvqc8g","pricing_plan_id":"free"},{"bike_id":"60e68e38-dd85-41ef-bffe-b31e99def34e","system_id":"levelo_inurba_marseille","lat":43.301939,"lon":5.366286,"is_reserved":false,"is_disabled":false,"rental_uris":{"android":"levelo://app?vid=60e68e38-dd85-41ef-bffe-b31e99def34e","ios":"levelo://app?vid=60e68e38-dd85-41ef-bffe-b31e99def34e"},"vehicle_type_id":"4","last_reported":1701436242,"current_range_meters":24000,"station_id":"ce4bgrh2rcd13ifvqc8g","pricing_plan_id":"free"},{"bike_id":"34e9cf78-3e29-4dbd-af43-3caf4d3444f7","system_id":"levelo_inurba_marseille","lat":43.301939,"lon":5.366286,"is_reserved":false,"is_disabled":false,"rental_uris":{"android":"levelo://app?vid=34e9cf78-3e29-4dbd-af43-3caf4d3444f7","ios":"levelo://app?vid=34e9cf78-3e29-4dbd-af43-3caf4d3444f7"},"vehicle_type_id":"4","last_reported":1701436242,"current_range_meters":20800,"station_id":"ce4bgrh2rcd13ifvqc8g","pricing_plan_id":"free"},{"bike_id":"0ad95991-6bdb-442f-bac2-6fdf90782adc","system_id":"levelo_inurba_marseille","lat":43.304606,"lon":5.379026,"is_reserved":false,"is_disabled":false,"rental_uris":{"android":"levelo://app?vid=0ad95991-6bdb-442f-bac2-6fdf90782adc","ios":"levelo://app?vid=0ad95991-6bdb-442f-bac2-6fdf90782adc"},"vehicle_type_id":"4","last_reported":1701436242,"current_range_meters":20800,"station_id":"ce4bgup2rcd13ifvqcn0","pricing_plan_id":"free"},{"bike_id":"26ebbe67-7d56-4e5d-8144-1c5ac86d4958","system_id":"levelo_inurba_marseille","lat":43.304606,"lon":5.379026,"is_reserved":false,"is_disabled":false,"rental_uris":{"android":"levelo://app?vid=26ebbe67-7d56-4e5d-8144-1c5ac86d4958","ios":"levelo://app?vid=26ebbe67-7d56-4e5d-8144-1c5ac86d4958"},"vehicle_type_id":"4","last_reported":1701436242,"current_range_meters":30000,"station_id":"ce4bgup2rcd13ifvqcn0","pricing_plan_id":"free"},{"bike_id":"0a2d3cdd-79f4-4b30-9046-61819f0eb4dd","system_id":"levelo_inurba_marseille","lat":43.304606,"lon":5.379026,"is_reserved":false,"is_disabled":false,"rental_uris":{"android":"levelo://app?vid=0a2d3cdd-79f4-4b30-9046-61819f0eb4dd","ios":"levelo://app?vid=0a2d3cdd-79f4-4b30-9046-61819f0eb4dd"},"vehicle_type_id":"4","last_reported":1701436242,"current_range_meters":16800,"station_id":"ce4bgup2rcd13ifvqcn0","pricing_plan_id":"free"},{"bike_id":"d8ed7526-a7e6-4ae7-8a4a-64aebc9563db","system_id":"levelo_inurba_marseille","lat":43.304588,"lon":5.379098,"is_reserved":false,"is_disabled":false,"rental_uris":{"android":"levelo://app?vid=d8ed7526-a7e6-4ae7-8a4a-64aebc9563db","ios":"levelo://app?vid=d8ed7526-a7e6-4ae7-8a4a-64aebc9563db"},"vehicle_type_id":"4","last_reported":1701436242,"current_range_meters":31600,"station_id":"ce4bgup2rcd13ifvqcn0","pricing_plan_id":"free"},{"bike_id":"c4a93a3c-76f9-4806-a633-49cbde6edd55","system_id":"levelo_inurba_marseille","lat":43.30143,"lon":5.37413,"is_reserved":false,"is_disabled":false,"rental_uris":{"android":"levelo://app?vid=c4a93a3c-76f9-4806-a633-49cbde6edd55","ios":"levelo://app?vid=c4a93a3c-76f9-4806-a633-49cbde6edd55"},"vehicle_type_id":"4","last_reported":1701436242,"current_range_meters":23600,"station_id":"ce4bgs92rcd13ifvqcc0","pricing_plan_id":"free"},{"bike_id":"8968ca78-acab-4504-91dc-0951e177566e","system_id":"levelo_inurba_marseille","lat":43.301429,"lon":5.37413,"is_reserved":false,"is_disabled":false,"rental_uris":{"android":"levelo://app?vid=8968ca78-acab-4504-91dc-0951e177566e","ios":"levelo://app?vid=8968ca78-acab-4504-91dc-0951e177566e"},"vehicle_type_id":"4","last_reported":1701436242,"current_range_meters":23600,"station_id":"ce4bgs92rcd13ifvqcc0","pricing_plan_id":"free"},{"bike_id":"6cddcbc0-6c01-47fe-a65d-46051bf1741a","system_id":"levelo_inurba_marseille","lat":43.302784,"lon":5.377158,"is_reserved":false,"is_disabled":false,"rental_uris":{"android":"levelo://app?vid=6cddcbc0-6c01-47fe-a65d-46051bf1741a","ios":"levelo://app?vid=6cddcbc0-6c01-47fe-a65d-46051bf1741a"},"vehicle_type_id":"4","last_reported":1701436242,"current_range_meters":3200,"station_id":"ce4bguh2rcd13ifvqcj0","pricing_plan_id":"free"},{"bike_id":"cf9a70ef-e212-460b-a212-dbc30aa8c878","system_id":"levelo_inurba_marseille","lat":43.31992,"lon":5.38156,"is_reserved":false,"is_disabled":false,"rental_uris":{"android":"levelo://app?vid=cf9a70ef-e212-460b-a212-dbc30aa8c878","ios":"levelo://app?vid=cf9a70ef-e212-460b-a212-dbc30aa8c878"},"vehicle_type_id":"4","last_reported":1701436242,"current_range_meters":24400,"station_id":"ce4bhr12rcd13ifvqhpg","pricing_plan_id":"free"},{"bike_id":"2275aca5-3158-4c2c-8022-ca5d2714bc86","system_id":"levelo_inurba_marseille","lat":43.319997,"lon":5.381594,"is_reserved":false,"is_disabled":false,"rental_uris":{"android":"levelo://app?vid=2275aca5-3158-4c2c-8022-ca5d2714bc86","ios":"levelo://app?vid=2275aca5-3158-4c2c-8022-ca5d2714bc86"},"vehicle_type_id":"4","last_reported":1701436242,"current_range_meters":19200,"station_id":"ce4bhr12rcd13ifvqhpg","pricing_plan_id":"free"},{"bike_id":"d500ea78-5425-4d85-b226-c39d5c1f8fa6","system_id":"levelo_inurba_marseille","lat":43.313571,"lon":5.384829,"is_reserved":false,"is_disabled":false,"rental_uris":{"android":"levelo://app?vid=d500ea78-5425-4d85-b226-c39d5c1f8fa6","ios":"levelo://app?vid=d500ea78-5425-4d85-b226-c39d5c1f8fa6"},"vehicle_type_id":"4","last_reported":1701436242,"current_range_meters":21200,"station_id":"ce4bgt92rcd13ifvqcf0","pricing_plan_id":"free"},{"bike_id":"76781f56-b65c-4c5e-92b0-1852bf5638c3","system_id":"levelo_inurba_marseille","lat":43.299724,"lon":5.371829,"is_reserved":false,"is_disabled":false,"rental_uris":{"android":"levelo://app?vid=76781f56-b65c-4c5e-92b0-1852bf5638c3","ios":"levelo://app?vid=76781f56-b65c-4c5e-92b0-1852bf5638c3"},"vehicle_type_id":"4","last_reported":1701436242,"current_range_meters":7600,"station_id":"ce4bgr92rcd13ifvqc7g","pricing_plan_id":"free"},{"bike_id":"5cb258f0-7660-409f-b410-0293ad794474","system_id":"levelo_inurba_marseille","lat":43.2993,"lon":5.36546,"is_reserved":false,"is_disabled":false,"rental_uris":{"android":"levelo://app?vid=5cb258f0-7660-409f-b410-0293ad794474","ios":"levelo://app?vid=5cb258f0-7660-409f-b410-0293ad794474"},"vehicle_type_id":"4","last_reported":1701436242,"current_range_meters":10400,"station_id":"ce4bgm92rcd13ifvqbr0","pricing_plan_id":"free"},{"bike_id":"ac2ee484-6aa6-4632-9e4d-391789df19c3","system_id":"levelo_inurba_marseille","lat":43.299724,"lon":5.371829,"is_reserved":false,"is_disabled":false,"rental_uris":{"android":"levelo://app?vid=ac2ee484-6aa6-4632-9e4d-391789df19c3","ios":"levelo://app?vid=ac2ee484-6aa6-4632-9e4d-391789df19c3"},"vehicle_type_id":"4","last_reported":1701436242,"current_range_meters":20400,"station_id":"ce4bgr92rcd13ifvqc7g","pricing_plan_id":"free"},{"bike_id":"748d12ab-8e09-4ecd-b2d2-cbe0ea9624f6","system_id":"levelo_inurba_marseille","lat":43.298478,"lon":5.367597,"is_reserved":false,"is_disabled":false,"rental_uris":{"android":"levelo://app?vid=748d12ab-8e09-4ecd-b2d2-cbe0ea9624f6","ios":"levelo://app?vid=748d12ab-8e09-4ecd-b2d2-cbe0ea9624f6"},"vehicle_type_id":"4","last_reported":1701436242,"current_range_meters":11200,"station_id":"","pricing_plan_id":"free"},{"bike_id":"37a54eb9-d83f-4438-a58a-458cff93b07b","system_id":"levelo_inurba_marseille","lat":43.298433,"lon":5.362774,"is_reserved":false,"is_disabled":false,"rental_uris":{"android":"levelo://app?vid=37a54eb9-d83f-4438-a58a-458cff93b07b","ios":"levelo://app?vid=37a54eb9-d83f-4438-a58a-458cff93b07b"},"vehicle_type_id":"4","last_reported":1701436242,"current_range_meters":1600,"station_id":"ce4bgpp2rcd13ifvqc3g","pricing_plan_id":"free"},{"bike_id":"6bdacd60-ba7d-4446-9972-722733827050","system_id":"levelo_inurba_marseille","lat":43.305364,"lon":5.384119,"is_reserved":false,"is_disabled":false,"rental_uris":{"android":"levelo://app?vid=6bdacd60-ba7d-4446-9972-722733827050","ios":"levelo://app?vid=6bdacd60-ba7d-4446-9972-722733827050"},"vehicle_type_id":"4","last_reported":1701436242,"current_range_meters":17600,"station_id":"ce4bgg92rcd13ifvqb30","pricing_plan_id":"free"},{"bike_id":"20ae1f33-3d3e-4748-a98a-be8ceb2cace5","system_id":"levelo_inurba_marseille","lat":43.299243,"lon":5.37481,"is_reserved":false,"is_disabled":false,"rental_uris":{"android":"levelo://app?vid=20ae1f33-3d3e-4748-a98a-be8ceb2cace5","ios":"levelo://app?vid=20ae1f33-3d3e-4748-a98a-be8ceb2cace5"},"vehicle_type_id":"4","last_reported":1701436242,"current_range_meters":14000,"station_id":"ce4bgjh2rcd13ifvqbg0","pricing_plan_id":"free"},{"bike_id":"87841ea5-3431-4695-98a4-f1c826b1bbe7","system_id":"levelo_inurba_marseille","lat":43.2991,"lon":5.374686,"is_reserved":false,"is_disabled":false,"rental_uris":{"android":"levelo://app?vid=87841ea5-3431-4695-98a4-f1c826b1bbe7","ios":"levelo://app?vid=87841ea5-3431-4695-98a4-f1c826b1bbe7"},"vehicle_type_id":"4","last_reported":1701436242,"current_range_meters":0,"station_id":"ce4bgjh2rcd13ifvqbg0","pricing_plan_id":"free"},{"bike_id":"11a55d36-b019-4d16-99aa-0f09da95c4d8","system_id":"levelo_inurba_marseille","lat":43.298433,"lon":5.362774,"is_reserved":false,"is_disabled":false,"rental_uris":{"android":"levelo://app?vid=11a55d36-b019-4d16-99aa-0f09da95c4d8","ios":"levelo://app?vid=11a55d36-b019-4d16-99aa-0f09da95c4d8"},"vehicle_type_id":"4","last_reported":1701436242,"current_range_meters":30400,"station_id":"ce4bgpp2rcd13ifvqc3g","pricing_plan_id":"free"},{"bike_id":"6bbf2247-d83c-46d8-956a-4cf127a9ceb7","system_id":"levelo_inurba_marseille","lat":43.297794,"lon":5.370888,"is_reserved":false,"is_disabled":false,"rental_uris":{"android":"levelo://app?vid=6bbf2247-d83c-46d8-956a-4cf127a9ceb7","ios":"levelo://app?vid=6bbf2247-d83c-46d8-956a-4cf127a9ceb7"},"vehicle_type_id":"4","last_reported":1701436242,"current_range_meters":14800,"station_id":"ce4bgop2rcd13ifvqc1g","pricing_plan_id":"free"},{"bike_id":"65073be3-64d5-4947-9113-fd11101b78dd","system_id":"levelo_inurba_marseille","lat":43.322872,"lon":5.382756,"is_reserved":false,"is_disabled":false,"rental_uris":{"android":"levelo://app?vid=65073be3-64d5-4947-9113-fd11101b78dd","ios":"levelo://app?vid=65073be3-64d5-4947-9113-fd11101b78dd"},"vehicle_type_id":"4","last_reported":1701436242,"current_range_meters":12800,"station_id":"ce4bhr12rcd13ifvqhqg","pricing_plan_id":"free"},{"bike_id":"044199e5-3443-4984-b151-477a87db8a3e","system_id":"levelo_inurba_marseille","lat":43.32812,"lon":5.36668,"is_reserved":false,"is_disabled":false,"rental_uris":{"android":"levelo://app?vid=044199e5-3443-4984-b151-477a87db8a3e","ios":"levelo://app?vid=044199e5-3443-4984-b151-477a87db8a3e"},"vehicle_type_id":"4","last_reported":1701436242,"current_range_meters":28800,"station_id":"ce4bhs92rcd13ifvqi0g","pricing_plan_id":"free"},{"bike_id":"b81c152a-3a7b-43db-b20c-219f460d3477","system_id":"levelo_inurba_marseille","lat":43.3283,"lon":5.36695,"is_reserved":false,"is_disabled":false,"rental_uris":{"android":"levelo://app?vid=b81c152a-3a7b-43db-b20c-219f460d3477","ios":"levelo://app?vid=b81c152a-3a7b-43db-b20c-219f460d3477"},"vehicle_type_id":"4","last_reported":1701436242,"current_range_meters":17600,"station_id":"ce4bhs92rcd13ifvqi0g","pricing_plan_id":"free"},{"bike_id":"b79c00e9-2e26-4f63-a6b2-e6d49a437cf5","system_id":"levelo_inurba_marseille","lat":43.32831,"lon":5.36686,"is_reserved":false,"is_disabled":false,"rental_uris":{"android":"levelo://app?vid=b79c00e9-2e26-4f63-a6b2-e6d49a437cf5","ios":"levelo://app?vid=b79c00e9-2e26-4f63-a6b2-e6d49a437cf5"},"vehicle_type_id":"4","last_reported":1701436242,"current_range_meters":8800,"station_id":"ce4bhs92rcd13ifvqi0g","pricing_plan_id":"free"},{"bike_id":"f945d9d0-2f7b-494f-b7c7-a35b691c1891","system_id":"levelo_inurba_marseille","lat":43.328371,"lon":5.366909,"is_reserved":false,"is_disabled":false,"rental_uris":{"android":"levelo://app?vid=f945d9d0-2f7b-494f-b7c7-a35b691c1891","ios":"levelo://app?vid=f945d9d0-2f7b-494f-b7c7-a35b691c1891"},"vehicle_type_id":"4","last_reported":1701436242,"current_range_meters":17600,"station_id":"ce4bhs92rcd13ifvqi0g","pricing_plan_id":"free"},{"bike_id":"07888275-36c5-45f1-b842-fc521ca19014","system_id":"levelo_inurba_marseille","lat":43.29703,"lon":5.36613,"is_reserved":false,"is_disabled":false,"rental_uris":{"android":"levelo://app?vid=07888275-36c5-45f1-b842-fc521ca19014","ios":"levelo://app?vid=07888275-36c5-45f1-b842-fc521ca19014"},"vehicle_type_id":"4","last_reported":1701436242,"current_range_meters":16800,"station_id":"ce4bgn12rcd13ifvqbt0","pricing_plan_id":"free"},{"bike_id":"5983625d-69f5-485f-a399-daec2999c965","system_id":"levelo_inurba_marseille","lat":43.321513,"lon":5.385717,"is_reserved":false,"is_disabled":false,"rental_uris":{"android":"levelo://app?vid=5983625d-69f5-485f-a399-daec2999c965","ios":"levelo://app?vid=5983625d-69f5-485f-a399-daec2999c965"},"vehicle_type_id":"4","last_reported":1701436242,"current_range_meters":6400,"station_id":"","pricing_plan_id":"free"},{"bike_id":"d068864e-3768-4cb7-8f2c-e01febcf4d60","system_id":"levelo_inurba_marseille","lat":43.296196,"lon":5.365052,"is_reserved":false,"is_disabled":false,"rental_uris":{"android":"levelo://app?vid=d068864e-3768-4cb7-8f2c-e01febcf4d60","ios":"levelo://app?vid=d068864e-3768-4cb7-8f2c-e01febcf4d60"},"vehicle_type_id":"4","last_reported":1701436242,"current_range_meters":7600,"station_id":"","pricing_plan_id":"free"},{"bike_id":"eaa0e7e7-2390-47fa-909b-7b240952cbef","system_id":"levelo_inurba_marseille","lat":43.318387,"lon":5.38964,"is_reserved":false,"is_disabled":false,"rental_uris":{"android":"levelo://app?vid=eaa0e7e7-2390-47fa-909b-7b240952cbef","ios":"levelo://app?vid=eaa0e7e7-2390-47fa-909b-7b240952cbef"},"vehicle_type_id":"4","last_reported":1701436242,"current_range_meters":18800,"station_id":"","pricing_plan_id":"free"},{"bike_id":"dfe5d0d6-c0dd-497a-8054-150ba06cd4ab","system_id":"levelo_inurba_marseille","lat":43.298037,"lon":5.381066,"is_reserved":false,"is_disabled":false,"rental_uris":{"android":"levelo://app?vid=dfe5d0d6-c0dd-497a-8054-150ba06cd4ab","ios":"levelo://app?vid=dfe5d0d6-c0dd-497a-8054-150ba06cd4ab"},"vehicle_type_id":"4","last_reported":1701436242,"current_range_meters":28000,"station_id":"ce4bgip2rcd13ifvqbb0","pricing_plan_id":"free"},{"bike_id":"885f73c8-93a4-48b0-ba22-da48a568f7a6","system_id":"levelo_inurba_marseille","lat":43.304278,"lon":5.388868,"is_reserved":false,"is_disabled":false,"rental_uris":{"android":"levelo://app?vid=885f73c8-93a4-48b0-ba22-da48a568f7a6","ios":"levelo://app?vid=885f73c8-93a4-48b0-ba22-da48a568f7a6"},"vehicle_type_id":"4","last_reported":1701436242,"current_range_meters":1600,"station_id":"ce4bgk12rcd13ifvqbi0","pricing_plan_id":"free"},{"bike_id":"72fc28ae-8239-4a40-8c4e-328f7bfda84d","system_id":"levelo_inurba_marseille","lat":43.296263,"lon":5.377094,"is_reserved":false,"is_disabled":false,"rental_uris":{"android":"levelo://app?vid=72fc28ae-8239-4a40-8c4e-328f7bfda84d","ios":"levelo://app?vid=72fc28ae-8239-4a40-8c4e-328f7bfda84d"},"vehicle_type_id":"4","last_reported":1701436242,"current_range_meters":0,"station_id":"ce4bgi92rcd13ifvqb90","pricing_plan_id":"free"},{"bike_id":"c55478b1-6210-4021-8551-3b196d1b8bc7","system_id":"levelo_inurba_marseille","lat":43.295279,"lon":5.375048,"is_reserved":false,"is_disabled":false,"rental_uris":{"android":"levelo://app?vid=c55478b1-6210-4021-8551-3b196d1b8bc7","ios":"levelo://app?vid=c55478b1-6210-4021-8551-3b196d1b8bc7"},"vehicle_type_id":"4","last_reported":1701436242,"current_range_meters":23600,"station_id":"ce4bgkp2rcd13ifvqbmg","pricing_plan_id":"free"},{"bike_id":"81c81765-686e-4ef8-8ba0-60d7276501a3","system_id":"levelo_inurba_marseille","lat":43.32359,"lon":5.38882,"is_reserved":false,"is_disabled":false,"rental_uris":{"android":"levelo://app?vid=81c81765-686e-4ef8-8ba0-60d7276501a3","ios":"levelo://app?vid=81c81765-686e-4ef8-8ba0-60d7276501a3"},"vehicle_type_id":"4","last_reported":1701436242,"current_range_meters":26400,"station_id":"ce4bhqp2rcd13ifvqhog","pricing_plan_id":"free"},{"bike_id":"5337ee0d-7aa6-41d8-948d-27434e81f796","system_id":"levelo_inurba_marseille","lat":43.29601,"lon":5.381084,"is_reserved":false,"is_disabled":false,"rental_uris":{"android":"levelo://app?vid=5337ee0d-7aa6-41d8-948d-27434e81f796","ios":"levelo://app?vid=5337ee0d-7aa6-41d8-948d-27434e81f796"},"vehicle_type_id":"4","last_reported":1701436242,"current_range_meters":6400,"station_id":"ce4bgl12rcd13ifvqbo0","pricing_plan_id":"free"},{"bike_id":"a3587054-4cdc-4a26-b195-2b6cf590ad4a","system_id":"levelo_inurba_marseille","lat":43.292749,"lon":5.368402,"is_reserved":false,"is_disabled":false,"rental_uris":{"android":"levelo://app?vid=a3587054-4cdc-4a26-b195-2b6cf590ad4a","ios":"levelo://app?vid=a3587054-4cdc-4a26-b195-2b6cf590ad4a"},"vehicle_type_id":"4","last_reported":1701436242,"current_range_meters":14800,"station_id":"ce4bhbp2rcd13ifvqesg","pricing_plan_id":"free"},{"bike_id":"228943fd-5c6a-42fa-b500-2b4bccb40cc2","system_id":"levelo_inurba_marseille","lat":43.293009,"lon":5.374584,"is_reserved":false,"is_disabled":false,"rental_uris":{"android":"levelo://app?vid=228943fd-5c6a-42fa-b500-2b4bccb40cc2","ios":"levelo://app?vid=228943fd-5c6a-42fa-b500-2b4bccb40cc2"},"vehicle_type_id":"4","last_reported":1701436242,"current_range_meters":26800,"station_id":"ce4bgi12rcd13ifvqb70","pricing_plan_id":"free"},{"bike_id":"f922e0f9-9ab7-458e-88d9-79fc7d79707a","system_id":"levelo_inurba_marseille","lat":43.2936,"lon":5.37835,"is_reserved":false,"is_disabled":false,"rental_uris":{"android":"levelo://app?vid=f922e0f9-9ab7-458e-88d9-79fc7d79707a","ios":"levelo://app?vid=f922e0f9-9ab7-458e-88d9-79fc7d79707a"},"vehicle_type_id":"4","last_reported":1701436242,"current_range_meters":28000,"station_id":"ce4bgjh2rcd13ifvqbf0","pricing_plan_id":"free"},{"bike_id":"ff8ed2ba-bc4e-4d03-8c64-f639a3b8e5d5","system_id":"levelo_inurba_marseille","lat":43.302992,"lon":5.392136,"is_reserved":false,"is_disabled":false,"rental_uris":{"android":"levelo://app?vid=ff8ed2ba-bc4e-4d03-8c64-f639a3b8e5d5","ios":"levelo://app?vid=ff8ed2ba-bc4e-4d03-8c64-f639a3b8e5d5"},"vehicle_type_id":"4","last_reported":1701436242,"current_range_meters":12000,"station_id":"ce4bgkh2rcd13ifvqbk0","pricing_plan_id":"free"},{"bike_id":"4e2c3175-c896-4e36-a51e-a72895c81d86","system_id":"levelo_inurba_marseille","lat":43.2936,"lon":5.37835,"is_reserved":false,"is_disabled":false,"rental_uris":{"android":"levelo://app?vid=4e2c3175-c896-4e36-a51e-a72895c81d86","ios":"levelo://app?vid=4e2c3175-c896-4e36-a51e-a72895c81d86"},"vehicle_type_id":"4","last_reported":1701436242,"current_range_meters":30400,"station_id":"ce4bgjh2rcd13ifvqbf0","pricing_plan_id":"free"},{"bike_id":"fd8f3499-8f3e-4941-b17c-bf865677e727","system_id":"levelo_inurba_marseille","lat":43.300852,"lon":5.390859,"is_reserved":false,"is_disabled":false,"rental_uris":{"android":"levelo://app?vid=fd8f3499-8f3e-4941-b17c-bf865677e727","ios":"levelo://app?vid=fd8f3499-8f3e-4941-b17c-bf865677e727"},"vehicle_type_id":"4","last_reported":1701436242,"current_range_meters":19600,"station_id":"ce4bh192rcd13ifvqdb0","pricing_plan_id":"free"},{"bike_id":"62ae446f-92f8-468b-8be2-c395f3944879","system_id":"levelo_inurba_marseille","lat":43.30085,"lon":5.390856,"is_reserved":false,"is_disabled":false,"rental_uris":{"android":"levelo://app?vid=62ae446f-92f8-468b-8be2-c395f3944879","ios":"levelo://app?vid=62ae446f-92f8-468b-8be2-c395f3944879"},"vehicle_type_id":"4","last_reported":1701436242,"current_range_meters":6000,"station_id":"ce4bh192rcd13ifvqdb0","pricing_plan_id":"free"},{"bike_id":"3f42d553-a274-48ad-a1da-59d870655082","system_id":"levelo_inurba_marseille","lat":43.30085,"lon":5.390856,"is_reserved":false,"is_disabled":false,"rental_uris":{"android":"levelo://app?vid=3f42d553-a274-48ad-a1da-59d870655082","ios":"levelo://app?vid=3f42d553-a274-48ad-a1da-59d870655082"},"vehicle_type_id":"4","last_reported":1701436242,"current_range_meters":15600,"station_id":"ce4bh192rcd13ifvqdb0","pricing_plan_id":"free"},{"bike_id":"caf755f7-0d2b-4a03-89b0-d74d349d3975","system_id":"levelo_inurba_marseille","lat":43.29867,"lon":5.389247,"is_reserved":false,"is_disabled":false,"rental_uris":{"android":"levelo://app?vid=caf755f7-0d2b-4a03-89b0-d74d349d3975","ios":"levelo://app?vid=caf755f7-0d2b-4a03-89b0-d74d349d3975"},"vehicle_type_id":"4","last_reported":1701436242,"current_range_meters":22800,"station_id":"ce4bh392rcd13ifvqdl0","pricing_plan_id":"free"},{"bike_id":"c913a146-1d2f-4b29-a597-07acb820bb50","system_id":"levelo_inurba_marseille","lat":43.309038,"lon":5.396546,"is_reserved":false,"is_disabled":false,"rental_uris":{"android":"levelo://app?vid=c913a146-1d2f-4b29-a597-07acb820bb50","ios":"levelo://app?vid=c913a146-1d2f-4b29-a597-07acb820bb50"},"vehicle_type_id":"4","last_reported":1701436242,"current_range_meters":400,"station_id":"ce4bh012rcd13ifvqcv0","pricing_plan_id":"free"},{"bike_id":"4004bd6f-a0af-4efb-a2a1-a531f5c8bfae","system_id":"levelo_inurba_marseille","lat":43.290779,"lon":5.371482,"is_reserved":false,"is_disabled":false,"rental_uris":{"android":"levelo://app?vid=4004bd6f-a0af-4efb-a2a1-a531f5c8bfae","ios":"levelo://app?vid=4004bd6f-a0af-4efb-a2a1-a531f5c8bfae"},"vehicle_type_id":"4","last_reported":1701436242,"current_range_meters":26800,"station_id":"ce4bh5p2rcd13ifvqe4g","pricing_plan_id":"free"},{"bike_id":"ffa9d789-4d9d-41b1-b3c3-7f5c5fb8dd63","system_id":"levelo_inurba_marseille","lat":43.302008,"lon":5.394694,"is_reserved":false,"is_disabled":false,"rental_uris":{"android":"levelo://app?vid=ffa9d789-4d9d-41b1-b3c3-7f5c5fb8dd63","ios":"levelo://app?vid=ffa9d789-4d9d-41b1-b3c3-7f5c5fb8dd63"},"vehicle_type_id":"4","last_reported":1701436242,"current_range_meters":15600,"station_id":"ce4bh0p2rcd13ifvqd70","pricing_plan_id":"free"},{"bike_id":"c6104509-f456-4b7d-8a51-d3ba77c46af4","system_id":"levelo_inurba_marseille","lat":43.312239,"lon":5.368562,"is_reserved":false,"is_disabled":false,"rental_uris":{"android":"levelo://app?vid=c6104509-f456-4b7d-8a51-d3ba77c46af4","ios":"levelo://app?vid=c6104509-f456-4b7d-8a51-d3ba77c46af4"},"vehicle_type_id":"4","last_reported":1701436242,"current_range_meters":7600,"station_id":"ce4bgl92rcd13ifvqbq0","pricing_plan_id":"free"},{"bike_id":"e7b1d9f9-f6e5-467f-b4cd-42e325c4724e","system_id":"levelo_inurba_marseille","lat":43.294162,"lon":5.386292,"is_reserved":false,"is_disabled":false,"rental_uris":{"android":"levelo://app?vid=e7b1d9f9-f6e5-467f-b4cd-42e325c4724e","ios":"levelo://app?vid=e7b1d9f9-f6e5-467f-b4cd-42e325c4724e"},"vehicle_type_id":"4","last_reported":1701436242,"current_range_meters":400,"station_id":"ce4bh2h2rcd13ifvqdh0","pricing_plan_id":"free"},{"bike_id":"87509941-ae7e-41fb-8a41-289f924665a1","system_id":"levelo_inurba_marseille","lat":43.289184,"lon":5.366408,"is_reserved":false,"is_disabled":false,"rental_uris":{"android":"levelo://app?vid=87509941-ae7e-41fb-8a41-289f924665a1","ios":"levelo://app?vid=87509941-ae7e-41fb-8a41-289f924665a1"},"vehicle_type_id":"4","last_reported":1701436242,"current_range_meters":6800,"station_id":"ce4bhap2rcd13ifvqek0","pricing_plan_id":"free"},{"bike_id":"6bad7b66-515b-4400-8c8b-29b816134588","system_id":"levelo_inurba_marseille","lat":43.304274,"lon":5.397513,"is_reserved":false,"is_disabled":false,"rental_uris":{"android":"levelo://app?vid=6bad7b66-515b-4400-8c8b-29b816134588","ios":"levelo://app?vid=6bad7b66-515b-4400-8c8b-29b816134588"},"vehicle_type_id":"4","last_reported":1701436242,"current_range_meters":20800,"station_id":"ce4bh092rcd13ifvqd20","pricing_plan_id":"free"},{"bike_id":"473943db-1e7a-46f1-8dbb-75227a588d30","system_id":"levelo_inurba_marseille","lat":43.304274,"lon":5.397513,"is_reserved":false,"is_disabled":false,"rental_uris":{"android":"levelo://app?vid=473943db-1e7a-46f1-8dbb-75227a588d30","ios":"levelo://app?vid=473943db-1e7a-46f1-8dbb-75227a588d30"},"vehicle_type_id":"4","last_reported":1701436242,"current_range_meters":21200,"station_id":"ce4bh092rcd13ifvqd20","pricing_plan_id":"free"},{"bike_id":"21eb5054-4875-451a-82d4-6ec77e015e53","system_id":"levelo_inurba_marseille","lat":43.304274,"lon":5.397513,"is_reserved":false,"is_disabled":false,"rental_uris":{"android":"levelo://app?vid=21eb5054-4875-451a-82d4-6ec77e015e53","ios":"levelo://app?vid=21eb5054-4875-451a-82d4-6ec77e015e53"},"vehicle_type_id":"4","last_reported":1701436242,"current_range_meters":18000,"station_id":"ce4bh092rcd13ifvqd20","pricing_plan_id":"free"},{"bike_id":"8c712f77-a28d-465b-acf4-ce02dbd6fc49","system_id":"levelo_inurba_marseille","lat":43.290104,"lon":5.356111,"is_reserved":false,"is_disabled":false,"rental_uris":{"android":"levelo://app?vid=8c712f77-a28d-465b-acf4-ce02dbd6fc49","ios":"levelo://app?vid=8c712f77-a28d-465b-acf4-ce02dbd6fc49"},"vehicle_type_id":"4","last_reported":1701436242,"current_range_meters":14000,"station_id":"ce4bhb92rcd13ifvqen0","pricing_plan_id":"free"},{"bike_id":"433c11ae-8306-4bbf-850d-086e9b9b8b2e","system_id":"levelo_inurba_marseille","lat":43.2909,"lon":5.381212,"is_reserved":false,"is_disabled":false,"rental_uris":{"android":"levelo://app?vid=433c11ae-8306-4bbf-850d-086e9b9b8b2e","ios":"levelo://app?vid=433c11ae-8306-4bbf-850d-086e9b9b8b2e"},"vehicle_type_id":"4","last_reported":1701436242,"current_range_meters":14400,"station_id":"ce4bh512rcd13ifvqe2g","pricing_plan_id":"free"},{"bike_id":"fdc2fc9e-2f29-4c49-bcea-7a560d4446be","system_id":"levelo_inurba_marseille","lat":43.3305,"lon":5.3905,"is_reserved":false,"is_disabled":false,"rental_uris":{"android":"levelo://app?vid=fdc2fc9e-2f29-4c49-bcea-7a560d4446be","ios":"levelo://app?vid=fdc2fc9e-2f29-4c49-bcea-7a560d4446be"},"vehicle_type_id":"4","last_reported":1701436242,"current_range_meters":13200,"station_id":"","pricing_plan_id":"free"},{"bike_id":"f71bec80-1512-44cd-95d2-3d7fdee5df30","system_id":"levelo_inurba_marseille","lat":43.33053,"lon":5.390633,"is_reserved":false,"is_disabled":false,"rental_uris":{"android":"levelo://app?vid=f71bec80-1512-44cd-95d2-3d7fdee5df30","ios":"levelo://app?vid=f71bec80-1512-44cd-95d2-3d7fdee5df30"},"vehicle_type_id":"4","last_reported":1701436242,"current_range_meters":16000,"station_id":"","pricing_plan_id":"free"},{"bike_id":"1b6aa3ec-60db-44b9-865c-8e0f3068a5b1","system_id":"levelo_inurba_marseille","lat":43.28864,"lon":5.35869,"is_reserved":false,"is_disabled":false,"rental_uris":{"android":"levelo://app?vid=1b6aa3ec-60db-44b9-865c-8e0f3068a5b1","ios":"levelo://app?vid=1b6aa3ec-60db-44b9-865c-8e0f3068a5b1"},"vehicle_type_id":"4","last_reported":1701436242,"current_range_meters":0,"station_id":"ce4bhb12rcd13ifvqem0","pricing_plan_id":"free"},{"bike_id":"83c91fad-e2de-4ef0-9c61-1c4ed46a62dc","system_id":"levelo_inurba_marseille","lat":43.312609,"lon":5.401662,"is_reserved":false,"is_disabled":false,"rental_uris":{"android":"levelo://app?vid=83c91fad-e2de-4ef0-9c61-1c4ed46a62dc","ios":"levelo://app?vid=83c91fad-e2de-4ef0-9c61-1c4ed46a62dc"},"vehicle_type_id":"4","last_reported":1701436242,"current_range_meters":400,"station_id":"ce4bh092rcd13ifvqd30","pricing_plan_id":"free"},{"bike_id":"ddf324ce-1876-48e6-b8e9-9af1eb60fa98","system_id":"levelo_inurba_marseille","lat":43.286961,"lon":5.373785,"is_reserved":false,"is_disabled":false,"rental_uris":{"android":"levelo://app?vid=ddf324ce-1876-48e6-b8e9-9af1eb60fa98","ios":"levelo://app?vid=ddf324ce-1876-48e6-b8e9-9af1eb60fa98"},"vehicle_type_id":"4","last_reported":1701436242,"current_range_meters":1200,"station_id":"ce4bh3p2rcd13ifvqdq0","pricing_plan_id":"free"},{"bike_id":"a89d3e42-d7d0-4d0a-8706-9b695d674613","system_id":"levelo_inurba_marseille","lat":43.298681,"lon":5.397225,"is_reserved":false,"is_disabled":false,"rental_uris":{"android":"levelo://app?vid=a89d3e42-d7d0-4d0a-8706-9b695d674613","ios":"levelo://app?vid=a89d3e42-d7d0-4d0a-8706-9b695d674613"},"vehicle_type_id":"4","last_reported":1701436242,"current_range_meters":10400,"station_id":"ce4bh0h2rcd13ifvqd50","pricing_plan_id":"free"},{"bike_id":"010012b5-bd98-4b6d-9c58-0908c338ecc7","system_id":"levelo_inurba_marseille","lat":43.286961,"lon":5.373785,"is_reserved":false,"is_disabled":false,"rental_uris":{"android":"levelo://app?vid=010012b5-bd98-4b6d-9c58-0908c338ecc7","ios":"levelo://app?vid=010012b5-bd98-4b6d-9c58-0908c338ecc7"},"vehicle_type_id":"4","last_reported":1701436242,"current_range_meters":24400,"station_id":"ce4bh3p2rcd13ifvqdq0","pricing_plan_id":"free"},{"bike_id":"635f8bf0-27b9-4948-b4dc-2c4c81439771","system_id":"levelo_inurba_marseille","lat":43.290345,"lon":5.38646,"is_reserved":false,"is_disabled":false,"rental_uris":{"android":"levelo://app?vid=635f8bf0-27b9-4948-b4dc-2c4c81439771","ios":"levelo://app?vid=635f8bf0-27b9-4948-b4dc-2c4c81439771"},"vehicle_type_id":"4","last_reported":1701436242,"current_range_meters":29200,"station_id":"ce4bh4p2rcd13ifvqe0g","pricing_plan_id":"free"},{"bike_id":"d9b38789-d8d9-42e3-9472-5975faac7a58","system_id":"levelo_inurba_marseille","lat":43.29028,"lon":5.3864,"is_reserved":false,"is_disabled":false,"rental_uris":{"android":"levelo://app?vid=d9b38789-d8d9-42e3-9472-5975faac7a58","ios":"levelo://app?vid=d9b38789-d8d9-42e3-9472-5975faac7a58"},"vehicle_type_id":"4","last_reported":1701436242,"current_range_meters":24000,"station_id":"ce4bh4p2rcd13ifvqe0g","pricing_plan_id":"free"},{"bike_id":"3ae5b0de-fc7a-4297-9507-e987927576b3","system_id":"levelo_inurba_marseille","lat":43.290336,"lon":5.386425,"is_reserved":false,"is_disabled":false,"rental_uris":{"android":"levelo://app?vid=3ae5b0de-fc7a-4297-9507-e987927576b3","ios":"levelo://app?vid=3ae5b0de-fc7a-4297-9507-e987927576b3"},"vehicle_type_id":"4","last_reported":1701436242,"current_range_meters":0,"station_id":"ce4bh4p2rcd13ifvqe0g","pricing_plan_id":"free"},{"bike_id":"f8f55555-00d9-484a-90f0-889b96b956e2","system_id":"levelo_inurba_marseille","lat":43.290336,"lon":5.386425,"is_reserved":false,"is_disabled":false,"rental_uris":{"android":"levelo://app?vid=f8f55555-00d9-484a-90f0-889b96b956e2","ios":"levelo://app?vid=f8f55555-00d9-484a-90f0-889b96b956e2"},"vehicle_type_id":"4","last_reported":1701436242,"current_range_meters":800,"station_id":"ce4bh4p2rcd13ifvqe0g","pricing_plan_id":"free"},{"bike_id":"0dcfe0e6-13e9-4bd6-9fce-9c703fa09a25","system_id":"levelo_inurba_marseille","lat":43.29027,"lon":5.38648,"is_reserved":false,"is_disabled":false,"rental_uris":{"android":"levelo://app?vid=0dcfe0e6-13e9-4bd6-9fce-9c703fa09a25","ios":"levelo://app?vid=0dcfe0e6-13e9-4bd6-9fce-9c703fa09a25"},"vehicle_type_id":"4","last_reported":1701436242,"current_range_meters":22400,"station_id":"ce4bh4p2rcd13ifvqe0g","pricing_plan_id":"free"},{"bike_id":"888a61e1-0eba-4525-bd7b-3db928d4ca23","system_id":"levelo_inurba_marseille","lat":43.286039,"lon":5.370681,"is_reserved":false,"is_disabled":false,"rental_uris":{"android":"levelo://app?vid=888a61e1-0eba-4525-bd7b-3db928d4ca23","ios":"levelo://app?vid=888a61e1-0eba-4525-bd7b-3db928d4ca23"},"vehicle_type_id":"4","last_reported":1701436242,"current_range_meters":4000,"station_id":"ce4bht12rcd13ifvqi60","pricing_plan_id":"free"},{"bike_id":"51e80092-f709-463a-96a2-8b25587b914d","system_id":"levelo_inurba_marseille","lat":43.286039,"lon":5.370681,"is_reserved":false,"is_disabled":false,"rental_uris":{"android":"levelo://app?vid=51e80092-f709-463a-96a2-8b25587b914d","ios":"levelo://app?vid=51e80092-f709-463a-96a2-8b25587b914d"},"vehicle_type_id":"4","last_reported":1701436242,"current_range_meters":28800,"station_id":"ce4bht12rcd13ifvqi60","pricing_plan_id":"free"},{"bike_id":"90bd8bee-0df8-4af5-ab15-9b1704225f85","system_id":"levelo_inurba_marseille","lat":43.287185,"lon":5.379373,"is_reserved":false,"is_disabled":false,"rental_uris":{"android":"levelo://app?vid=90bd8bee-0df8-4af5-ab15-9b1704225f85","ios":"levelo://app?vid=90bd8bee-0df8-4af5-ab15-9b1704225f85"},"vehicle_type_id":"4","last_reported":1701436242,"current_range_meters":21200,"station_id":"ce4bh9p2rcd13ifvqec0","pricing_plan_id":"free"},{"bike_id":"04e58d72-3321-49fe-a8ec-9ad0387ec0d9","system_id":"levelo_inurba_marseille","lat":43.287185,"lon":5.379373,"is_reserved":false,"is_disabled":false,"rental_uris":{"android":"levelo://app?vid=04e58d72-3321-49fe-a8ec-9ad0387ec0d9","ios":"levelo://app?vid=04e58d72-3321-49fe-a8ec-9ad0387ec0d9"},"vehicle_type_id":"4","last_reported":1701436242,"current_range_meters":14800,"station_id":"ce4bh9p2rcd13ifvqec0","pricing_plan_id":"free"},{"bike_id":"5fa516a7-b0bf-4148-aa3d-82dd4ce65216","system_id":"levelo_inurba_marseille","lat":43.28615,"lon":5.35109,"is_reserved":false,"is_disabled":false,"rental_uris":{"android":"levelo://app?vid=5fa516a7-b0bf-4148-aa3d-82dd4ce65216","ios":"levelo://app?vid=5fa516a7-b0bf-4148-aa3d-82dd4ce65216"},"vehicle_type_id":"4","last_reported":1701436242,"current_range_meters":25600,"station_id":"ce4bhch2rcd13ifvqeug","pricing_plan_id":"free"},{"bike_id":"8bd62e75-e347-4664-b3bd-a65a87dc7af9","system_id":"levelo_inurba_marseille","lat":43.28611,"lon":5.35108,"is_reserved":false,"is_disabled":false,"rental_uris":{"android":"levelo://app?vid=8bd62e75-e347-4664-b3bd-a65a87dc7af9","ios":"levelo://app?vid=8bd62e75-e347-4664-b3bd-a65a87dc7af9"},"vehicle_type_id":"4","last_reported":1701436242,"current_range_meters":26400,"station_id":"ce4bhch2rcd13ifvqeug","pricing_plan_id":"free"},{"bike_id":"1b9febfb-554b-4c95-87ba-3cb1e6843195","system_id":"levelo_inurba_marseille","lat":43.283998,"lon":5.375062,"is_reserved":false,"is_disabled":false,"rental_uris":{"android":"levelo://app?vid=1b9febfb-554b-4c95-87ba-3cb1e6843195","ios":"levelo://app?vid=1b9febfb-554b-4c95-87ba-3cb1e6843195"},"vehicle_type_id":"4","last_reported":1701436242,"current_range_meters":25200,"station_id":"ce4bh412rcd13ifvqds0","pricing_plan_id":"free"},{"bike_id":"6e4060fd-94ab-4439-9b61-b8883bdb992a","system_id":"levelo_inurba_marseille","lat":43.284787,"lon":5.384116,"is_reserved":false,"is_disabled":false,"rental_uris":{"android":"levelo://app?vid=6e4060fd-94ab-4439-9b61-b8883bdb992a","ios":"levelo://app?vid=6e4060fd-94ab-4439-9b61-b8883bdb992a"},"vehicle_type_id":"4","last_reported":1701436242,"current_range_meters":24800,"station_id":"ce4bh512rcd13ifvqe3g","pricing_plan_id":"free"},{"bike_id":"0fc00636-6350-43b5-a172-3fd7e10876d0","system_id":"levelo_inurba_marseille","lat":43.284793,"lon":5.384119,"is_reserved":false,"is_disabled":false,"rental_uris":{"android":"levelo://app?vid=0fc00636-6350-43b5-a172-3fd7e10876d0","ios":"levelo://app?vid=0fc00636-6350-43b5-a172-3fd7e10876d0"},"vehicle_type_id":"4","last_reported":1701436242,"current_range_meters":7600,"station_id":"ce4bh512rcd13ifvqe3g","pricing_plan_id":"free"},{"bike_id":"872ec6cd-1cf2-42bd-92a9-aeb5ad59370e","system_id":"levelo_inurba_marseille","lat":43.28348,"lon":5.38106,"is_reserved":false,"is_disabled":false,"rental_uris":{"android":"levelo://app?vid=872ec6cd-1cf2-42bd-92a9-aeb5ad59370e","ios":"levelo://app?vid=872ec6cd-1cf2-42bd-92a9-aeb5ad59370e"},"vehicle_type_id":"4","last_reported":1701436242,"current_range_meters":27200,"station_id":"ce4bh412rcd13ifvqdr0","pricing_plan_id":"free"},{"bike_id":"6f1a2a99-12b9-4800-bd16-1e7e3636cb58","system_id":"levelo_inurba_marseille","lat":43.288583,"lon":5.39392,"is_reserved":false,"is_disabled":false,"rental_uris":{"android":"levelo://app?vid=6f1a2a99-12b9-4800-bd16-1e7e3636cb58","ios":"levelo://app?vid=6f1a2a99-12b9-4800-bd16-1e7e3636cb58"},"vehicle_type_id":"4","last_reported":1701436242,"current_range_meters":21600,"station_id":"","pricing_plan_id":"free"},{"bike_id":"51a6dde1-3259-428b-bc60-361517ede212","system_id":"levelo_inurba_marseille","lat":43.282754,"lon":5.350519,"is_reserved":false,"is_disabled":false,"rental_uris":{"android":"levelo://app?vid=51a6dde1-3259-428b-bc60-361517ede212","ios":"levelo://app?vid=51a6dde1-3259-428b-bc60-361517ede212"},"vehicle_type_id":"4","last_reported":1701436242,"current_range_meters":0,"station_id":"ce4bhbp2rcd13ifvqerg","pricing_plan_id":"free"},{"bike_id":"a681b935-b017-420a-875d-272d9a5f3e76","system_id":"levelo_inurba_marseille","lat":43.282754,"lon":5.350519,"is_reserved":false,"is_disabled":false,"rental_uris":{"android":"levelo://app?vid=a681b935-b017-420a-875d-272d9a5f3e76","ios":"levelo://app?vid=a681b935-b017-420a-875d-272d9a5f3e76"},"vehicle_type_id":"4","last_reported":1701436242,"current_range_meters":18400,"station_id":"ce4bhbp2rcd13ifvqerg","pricing_plan_id":"free"},{"bike_id":"ed6543bf-fd9e-4f5a-92db-a444621acb1f","system_id":"levelo_inurba_marseille","lat":43.28039,"lon":5.369297,"is_reserved":false,"is_disabled":false,"rental_uris":{"android":"levelo://app?vid=ed6543bf-fd9e-4f5a-92db-a444621acb1f","ios":"levelo://app?vid=ed6543bf-fd9e-4f5a-92db-a444621acb1f"},"vehicle_type_id":"4","last_reported":1701436242,"current_range_meters":14000,"station_id":"ce4bha12rcd13ifvqef0","pricing_plan_id":"free"},{"bike_id":"0435c72c-99c1-4b79-9272-a29da422113c","system_id":"levelo_inurba_marseille","lat":43.280382,"lon":5.369291,"is_reserved":false,"is_disabled":false,"rental_uris":{"android":"levelo://app?vid=0435c72c-99c1-4b79-9272-a29da422113c","ios":"levelo://app?vid=0435c72c-99c1-4b79-9272-a29da422113c"},"vehicle_type_id":"4","last_reported":1701436242,"current_range_meters":18400,"station_id":"ce4bha12rcd13ifvqef0","pricing_plan_id":"free"},{"bike_id":"a61f9949-e31f-4447-9136-eee42a400807","system_id":"levelo_inurba_marseille","lat":43.28039,"lon":5.369297,"is_reserved":false,"is_disabled":false,"rental_uris":{"android":"levelo://app?vid=a61f9949-e31f-4447-9136-eee42a400807","ios":"levelo://app?vid=a61f9949-e31f-4447-9136-eee42a400807"},"vehicle_type_id":"4","last_reported":1701436242,"current_range_meters":22800,"station_id":"ce4bha12rcd13ifvqef0","pricing_plan_id":"free"},{"bike_id":"dfdb0cc9-017f-403e-83e2-2b3e70f1ec86","system_id":"levelo_inurba_marseille","lat":43.29041,"lon":5.399634,"is_reserved":false,"is_disabled":false,"rental_uris":{"android":"levelo://app?vid=dfdb0cc9-017f-403e-83e2-2b3e70f1ec86","ios":"levelo://app?vid=dfdb0cc9-017f-403e-83e2-2b3e70f1ec86"},"vehicle_type_id":"4","last_reported":1701436242,"current_range_meters":13200,"station_id":"ce4bh392rcd13ifvqdm0","pricing_plan_id":"free"},{"bike_id":"c6521118-6648-4d31-825b-6ae5feaf3981","system_id":"levelo_inurba_marseille","lat":43.281044,"lon":5.378308,"is_reserved":false,"is_disabled":false,"rental_uris":{"android":"levelo://app?vid=c6521118-6648-4d31-825b-6ae5feaf3981","ios":"levelo://app?vid=c6521118-6648-4d31-825b-6ae5feaf3981"},"vehicle_type_id":"4","last_reported":1701436242,"current_range_meters":22400,"station_id":"ce4bha12rcd13ifvqee0","pricing_plan_id":"free"},{"bike_id":"023daa2e-a5aa-4b9d-938b-750b0100bb10","system_id":"levelo_inurba_marseille","lat":43.281044,"lon":5.378308,"is_reserved":false,"is_disabled":false,"rental_uris":{"android":"levelo://app?vid=023daa2e-a5aa-4b9d-938b-750b0100bb10","ios":"levelo://app?vid=023daa2e-a5aa-4b9d-938b-750b0100bb10"},"vehicle_type_id":"4","last_reported":1701436242,"current_range_meters":18000,"station_id":"ce4bha12rcd13ifvqee0","pricing_plan_id":"free"},{"bike_id":"9fdb7f97-586d-42d2-befd-15216ba2e422","system_id":"levelo_inurba_marseille","lat":43.284317,"lon":5.391844,"is_reserved":false,"is_disabled":false,"rental_uris":{"android":"levelo://app?vid=9fdb7f97-586d-42d2-befd-15216ba2e422","ios":"levelo://app?vid=9fdb7f97-586d-42d2-befd-15216ba2e422"},"vehicle_type_id":"4","last_reported":1701436242,"current_range_meters":0,"station_id":"ce4bhoh2rcd13ifvqh5g","pricing_plan_id":"free"},{"bike_id":"edccd163-f6e1-4e7d-bc68-768d7ebe881c","system_id":"levelo_inurba_marseille","lat":43.325403,"lon":5.410787,"is_reserved":false,"is_disabled":false,"rental_uris":{"android":"levelo://app?vid=edccd163-f6e1-4e7d-bc68-768d7ebe881c","ios":"levelo://app?vid=edccd163-f6e1-4e7d-bc68-768d7ebe881c"},"vehicle_type_id":"4","last_reported":1701436242,"current_range_meters":26000,"station_id":"","pricing_plan_id":"free"},{"bike_id":"e0367411-c0e3-483c-a497-38f72c8f34ac","system_id":"levelo_inurba_marseille","lat":43.320045,"lon":5.415048,"is_reserved":false,"is_disabled":false,"rental_uris":{"android":"levelo://app?vid=e0367411-c0e3-483c-a497-38f72c8f34ac","ios":"levelo://app?vid=e0367411-c0e3-483c-a497-38f72c8f34ac"},"vehicle_type_id":"4","last_reported":1701436242,"current_range_meters":23600,"station_id":"ce4bhq92rcd13ifvqhkg","pricing_plan_id":"free"},{"bike_id":"4cc83c2a-5694-4140-adfa-932108362197","system_id":"levelo_inurba_marseille","lat":43.292569,"lon":5.409107,"is_reserved":false,"is_disabled":false,"rental_uris":{"android":"levelo://app?vid=4cc83c2a-5694-4140-adfa-932108362197","ios":"levelo://app?vid=4cc83c2a-5694-4140-adfa-932108362197"},"vehicle_type_id":"4","last_reported":1701436242,"current_range_meters":26000,"station_id":"ce4bh192rcd13ifvqdc0","pricing_plan_id":"free"},{"bike_id":"991dd8f3-65e5-4357-b04d-043f3c67fa59","system_id":"levelo_inurba_marseille","lat":43.325243,"lon":5.414326,"is_reserved":false,"is_disabled":false,"rental_uris":{"android":"levelo://app?vid=991dd8f3-65e5-4357-b04d-043f3c67fa59","ios":"levelo://app?vid=991dd8f3-65e5-4357-b04d-043f3c67fa59"},"vehicle_type_id":"4","last_reported":1701436242,"current_range_meters":25600,"station_id":"ce4bhq12rcd13ifvqhhg","pricing_plan_id":"free"},{"bike_id":"1e9ad550-fc59-446f-8867-22f46c82a517","system_id":"levelo_inurba_marseille","lat":43.27621,"lon":5.361068,"is_reserved":false,"is_disabled":false,"rental_uris":{"android":"levelo://app?vid=1e9ad550-fc59-446f-8867-22f46c82a517","ios":"levelo://app?vid=1e9ad550-fc59-446f-8867-22f46c82a517"},"vehicle_type_id":"4","last_reported":1701436242,"current_range_meters":20800,"station_id":"","pricing_plan_id":"free"},{"bike_id":"22fd65f7-f94c-42ed-9f22-756dac99466f","system_id":"levelo_inurba_marseille","lat":43.2762,"lon":5.36104,"is_reserved":false,"is_disabled":false,"rental_uris":{"android":"levelo://app?vid=22fd65f7-f94c-42ed-9f22-756dac99466f","ios":"levelo://app?vid=22fd65f7-f94c-42ed-9f22-756dac99466f"},"vehicle_type_id":"4","last_reported":1701436242,"current_range_meters":20000,"station_id":"ce4bgj92rcd13ifvqbe0","pricing_plan_id":"free"},{"bike_id":"22abe6fb-4de7-41e4-aead-f443e9bc4fc6","system_id":"levelo_inurba_marseille","lat":43.27617,"lon":5.36109,"is_reserved":false,"is_disabled":false,"rental_uris":{"android":"levelo://app?vid=22abe6fb-4de7-41e4-aead-f443e9bc4fc6","ios":"levelo://app?vid=22abe6fb-4de7-41e4-aead-f443e9bc4fc6"},"vehicle_type_id":"4","last_reported":1701436242,"current_range_meters":14000,"station_id":"ce4bgj92rcd13ifvqbe0","pricing_plan_id":"free"},{"bike_id":"d431635f-5bb4-4c2b-9bb6-1513e1030d35","system_id":"levelo_inurba_marseille","lat":43.276087,"lon":5.361123,"is_reserved":false,"is_disabled":false,"rental_uris":{"android":"levelo://app?vid=d431635f-5bb4-4c2b-9bb6-1513e1030d35","ios":"levelo://app?vid=d431635f-5bb4-4c2b-9bb6-1513e1030d35"},"vehicle_type_id":"4","last_reported":1701436242,"current_range_meters":17200,"station_id":"ce4bgj92rcd13ifvqbe0","pricing_plan_id":"free"},{"bike_id":"8f8b3915-736f-4eec-8be6-145991019211","system_id":"levelo_inurba_marseille","lat":43.326605,"lon":5.409903,"is_reserved":false,"is_disabled":false,"rental_uris":{"android":"levelo://app?vid=8f8b3915-736f-4eec-8be6-145991019211","ios":"levelo://app?vid=8f8b3915-736f-4eec-8be6-145991019211"},"vehicle_type_id":"4","last_reported":1701436242,"current_range_meters":16800,"station_id":"ce4bhpp2rcd13ifvqhgg","pricing_plan_id":"free"},{"bike_id":"5229d6c3-48ba-4303-87c7-db4af5222240","system_id":"levelo_inurba_marseille","lat":43.303837,"lon":5.418724,"is_reserved":false,"is_disabled":false,"rental_uris":{"android":"levelo://app?vid=5229d6c3-48ba-4303-87c7-db4af5222240","ios":"levelo://app?vid=5229d6c3-48ba-4303-87c7-db4af5222240"},"vehicle_type_id":"4","last_reported":1701436242,"current_range_meters":22800,"station_id":"ce4bhop2rcd13ifvqh7g","pricing_plan_id":"free"},{"bike_id":"c9501d22-b887-4cf8-a7c2-55711a0654d6","system_id":"levelo_inurba_marseille","lat":43.33612,"lon":5.410321,"is_reserved":false,"is_disabled":false,"rental_uris":{"android":"levelo://app?vid=c9501d22-b887-4cf8-a7c2-55711a0654d6","ios":"levelo://app?vid=c9501d22-b887-4cf8-a7c2-55711a0654d6"},"vehicle_type_id":"4","last_reported":1701436242,"current_range_meters":16400,"station_id":"ce4bhqh2rcd13ifvqhmg","pricing_plan_id":"free"},{"bike_id":"1e813f89-e27e-49c2-a322-ba5b93ef6d08","system_id":"levelo_inurba_marseille","lat":43.275625,"lon":5.384392,"is_reserved":false,"is_disabled":false,"rental_uris":{"android":"levelo://app?vid=1e813f89-e27e-49c2-a322-ba5b93ef6d08","ios":"levelo://app?vid=1e813f89-e27e-49c2-a322-ba5b93ef6d08"},"vehicle_type_id":"4","last_reported":1701436242,"current_range_meters":3200,"station_id":"ce4bhh92rcd13ifvqfi0","pricing_plan_id":"free"},{"bike_id":"0029be66-516e-4359-a498-4b2b1b2b9dac","system_id":"levelo_inurba_marseille","lat":43.273609,"lon":5.362708,"is_reserved":false,"is_disabled":false,"rental_uris":{"android":"levelo://app?vid=0029be66-516e-4359-a498-4b2b1b2b9dac","ios":"levelo://app?vid=0029be66-516e-4359-a498-4b2b1b2b9dac"},"vehicle_type_id":"4","last_reported":1701436242,"current_range_meters":18000,"station_id":"ce4bhbh2rcd13ifvqeo0","pricing_plan_id":"free"},{"bike_id":"17a8b121-d877-4af5-8d97-92d1a5404eba","system_id":"levelo_inurba_marseille","lat":43.33612,"lon":5.410321,"is_reserved":false,"is_disabled":false,"rental_uris":{"android":"levelo://app?vid=17a8b121-d877-4af5-8d97-92d1a5404eba","ios":"levelo://app?vid=17a8b121-d877-4af5-8d97-92d1a5404eba"},"vehicle_type_id":"4","last_reported":1701436242,"current_range_meters":26800,"station_id":"ce4bhqh2rcd13ifvqhmg","pricing_plan_id":"free"},{"bike_id":"98cd0248-12ba-4e2e-96ec-8232dc07d32d","system_id":"levelo_inurba_marseille","lat":43.275625,"lon":5.384392,"is_reserved":false,"is_disabled":false,"rental_uris":{"android":"levelo://app?vid=98cd0248-12ba-4e2e-96ec-8232dc07d32d","ios":"levelo://app?vid=98cd0248-12ba-4e2e-96ec-8232dc07d32d"},"vehicle_type_id":"4","last_reported":1701436242,"current_range_meters":24800,"station_id":"ce4bhh92rcd13ifvqfi0","pricing_plan_id":"free"},{"bike_id":"765d5068-c9a3-4f63-9c8d-61ce6a8e61ed","system_id":"levelo_inurba_marseille","lat":43.275625,"lon":5.384392,"is_reserved":false,"is_disabled":false,"rental_uris":{"android":"levelo://app?vid=765d5068-c9a3-4f63-9c8d-61ce6a8e61ed","ios":"levelo://app?vid=765d5068-c9a3-4f63-9c8d-61ce6a8e61ed"},"vehicle_type_id":"4","last_reported":1701436242,"current_range_meters":30400,"station_id":"ce4bhh92rcd13ifvqfi0","pricing_plan_id":"free"},{"bike_id":"db7ffdb9-f10e-41dc-9854-cecf34a3d463","system_id":"levelo_inurba_marseille","lat":43.279952,"lon":5.400085,"is_reserved":false,"is_disabled":false,"rental_uris":{"android":"levelo://app?vid=db7ffdb9-f10e-41dc-9854-cecf34a3d463","ios":"levelo://app?vid=db7ffdb9-f10e-41dc-9854-cecf34a3d463"},"vehicle_type_id":"4","last_reported":1701436242,"current_range_meters":4000,"station_id":"ce4bho92rcd13ifvqh4g","pricing_plan_id":"free"},{"bike_id":"8b95fa19-34cb-496e-ada5-cf4ce57829c5","system_id":"levelo_inurba_marseille","lat":43.279952,"lon":5.400085,"is_reserved":false,"is_disabled":false,"rental_uris":{"android":"levelo://app?vid=8b95fa19-34cb-496e-ada5-cf4ce57829c5","ios":"levelo://app?vid=8b95fa19-34cb-496e-ada5-cf4ce57829c5"},"vehicle_type_id":"4","last_reported":1701436242,"current_range_meters":8400,"station_id":"ce4bho92rcd13ifvqh4g","pricing_plan_id":"free"},{"bike_id":"e87b923d-18f9-4508-8bef-e743842ea6fc","system_id":"levelo_inurba_marseille","lat":43.317121,"lon":5.423936,"is_reserved":false,"is_disabled":false,"rental_uris":{"android":"levelo://app?vid=e87b923d-18f9-4508-8bef-e743842ea6fc","ios":"levelo://app?vid=e87b923d-18f9-4508-8bef-e743842ea6fc"},"vehicle_type_id":"4","last_reported":1701436242,"current_range_meters":23200,"station_id":"ce4bhp92rcd13ifvqhbg","pricing_plan_id":"free"},{"bike_id":"d6cd08ef-c934-44a0-a330-510b886d15f8","system_id":"levelo_inurba_marseille","lat":43.310785,"lon":5.424305,"is_reserved":false,"is_disabled":false,"rental_uris":{"android":"levelo://app?vid=d6cd08ef-c934-44a0-a330-510b886d15f8","ios":"levelo://app?vid=d6cd08ef-c934-44a0-a330-510b886d15f8"},"vehicle_type_id":"4","last_reported":1701436242,"current_range_meters":31200,"station_id":"ce4bhp92rcd13ifvqhag","pricing_plan_id":"free"},{"bike_id":"27cd22d2-4dd6-4219-ada6-84d0bf6a97f2","system_id":"levelo_inurba_marseille","lat":43.340804,"lon":5.410219,"is_reserved":false,"is_disabled":false,"rental_uris":{"android":"levelo://app?vid=27cd22d2-4dd6-4219-ada6-84d0bf6a97f2","ios":"levelo://app?vid=27cd22d2-4dd6-4219-ada6-84d0bf6a97f2"},"vehicle_type_id":"4","last_reported":1701436242,"current_range_meters":28800,"station_id":"ce4bhqh2rcd13ifvqhlg","pricing_plan_id":"free"},{"bike_id":"24ea50b7-1a79-4708-b774-184aeb36cb7c","system_id":"levelo_inurba_marseille","lat":43.30408,"lon":5.42546,"is_reserved":false,"is_disabled":false,"rental_uris":{"android":"levelo://app?vid=24ea50b7-1a79-4708-b774-184aeb36cb7c","ios":"levelo://app?vid=24ea50b7-1a79-4708-b774-184aeb36cb7c"},"vehicle_type_id":"4","last_reported":1701436242,"current_range_meters":30400,"station_id":"ce4bhoh2rcd13ifvqh6g","pricing_plan_id":"free"},{"bike_id":"ad319ad3-5072-496b-979f-e5645940bdaf","system_id":"levelo_inurba_marseille","lat":43.29548,"lon":5.42285,"is_reserved":false,"is_disabled":false,"rental_uris":{"android":"levelo://app?vid=ad319ad3-5072-496b-979f-e5645940bdaf","ios":"levelo://app?vid=ad319ad3-5072-496b-979f-e5645940bdaf"},"vehicle_type_id":"4","last_reported":1701436242,"current_range_meters":22000,"station_id":"ce4bhph2rcd13ifvqhdg","pricing_plan_id":"free"},{"bike_id":"5c762d5a-af0e-4d2e-aa44-d4ffc0034ac2","system_id":"levelo_inurba_marseille","lat":43.29556,"lon":5.42291,"is_reserved":false,"is_disabled":false,"rental_uris":{"android":"levelo://app?vid=5c762d5a-af0e-4d2e-aa44-d4ffc0034ac2","ios":"levelo://app?vid=5c762d5a-af0e-4d2e-aa44-d4ffc0034ac2"},"vehicle_type_id":"4","last_reported":1701436242,"current_range_meters":8400,"station_id":"ce4bhph2rcd13ifvqhdg","pricing_plan_id":"free"},{"bike_id":"70c1da2b-27c6-4c46-9ad2-2a49f4867526","system_id":"levelo_inurba_marseille","lat":43.295511,"lon":5.422926,"is_reserved":false,"is_disabled":false,"rental_uris":{"android":"levelo://app?vid=70c1da2b-27c6-4c46-9ad2-2a49f4867526","ios":"levelo://app?vid=70c1da2b-27c6-4c46-9ad2-2a49f4867526"},"vehicle_type_id":"4","last_reported":1701436242,"current_range_meters":16000,"station_id":"ce4bhph2rcd13ifvqhdg","pricing_plan_id":"free"},{"bike_id":"6c4ec707-b162-47ad-a6e5-3b572f4cceb7","system_id":"levelo_inurba_marseille","lat":43.269597,"lon":5.38517,"is_reserved":false,"is_disabled":false,"rental_uris":{"android":"levelo://app?vid=6c4ec707-b162-47ad-a6e5-3b572f4cceb7","ios":"levelo://app?vid=6c4ec707-b162-47ad-a6e5-3b572f4cceb7"},"vehicle_type_id":"4","last_reported":1701436242,"current_range_meters":16000,"station_id":"","pricing_plan_id":"free"},{"bike_id":"512e2d18-8c96-4e8e-9e86-1f627f59e10e","system_id":"levelo_inurba_marseille","lat":43.278128,"lon":5.407195,"is_reserved":false,"is_disabled":false,"rental_uris":{"android":"levelo://app?vid=512e2d18-8c96-4e8e-9e86-1f627f59e10e","ios":"levelo://app?vid=512e2d18-8c96-4e8e-9e86-1f627f59e10e"},"vehicle_type_id":"4","last_reported":1701436242,"current_range_meters":13200,"station_id":"ce4bhnh2rcd13ifvqgtg","pricing_plan_id":"free"},{"bike_id":"b394b96b-7141-4dd3-8278-a6b92d790f21","system_id":"levelo_inurba_marseille","lat":43.269467,"lon":5.386439,"is_reserved":false,"is_disabled":false,"rental_uris":{"android":"levelo://app?vid=b394b96b-7141-4dd3-8278-a6b92d790f21","ios":"levelo://app?vid=b394b96b-7141-4dd3-8278-a6b92d790f21"},"vehicle_type_id":"4","last_reported":1701436242,"current_range_meters":19600,"station_id":"ce4bhh92rcd13ifvqfh0","pricing_plan_id":"free"},{"bike_id":"f28d8653-b6af-4258-934b-4265c80d9e1f","system_id":"levelo_inurba_marseille","lat":43.269467,"lon":5.386439,"is_reserved":false,"is_disabled":false,"rental_uris":{"android":"levelo://app?vid=f28d8653-b6af-4258-934b-4265c80d9e1f","ios":"levelo://app?vid=f28d8653-b6af-4258-934b-4265c80d9e1f"},"vehicle_type_id":"4","last_reported":1701436242,"current_range_meters":29200,"station_id":"ce4bhh92rcd13ifvqfh0","pricing_plan_id":"free"},{"bike_id":"5687d575-7d8a-469a-b8e1-e56ebcf01a93","system_id":"levelo_inurba_marseille","lat":43.269467,"lon":5.386439,"is_reserved":false,"is_disabled":false,"rental_uris":{"android":"levelo://app?vid=5687d575-7d8a-469a-b8e1-e56ebcf01a93","ios":"levelo://app?vid=5687d575-7d8a-469a-b8e1-e56ebcf01a93"},"vehicle_type_id":"4","last_reported":1701436242,"current_range_meters":15200,"station_id":"ce4bhh92rcd13ifvqfh0","pricing_plan_id":"free"},{"bike_id":"a6d3857a-ce82-480d-bf38-04b264ea5ce2","system_id":"levelo_inurba_marseille","lat":43.269467,"lon":5.386439,"is_reserved":false,"is_disabled":false,"rental_uris":{"android":"levelo://app?vid=a6d3857a-ce82-480d-bf38-04b264ea5ce2","ios":"levelo://app?vid=a6d3857a-ce82-480d-bf38-04b264ea5ce2"},"vehicle_type_id":"4","last_reported":1701436242,"current_range_meters":2000,"station_id":"ce4bhh92rcd13ifvqfh0","pricing_plan_id":"free"},{"bike_id":"d3e86ee0-25cc-46da-9490-2861495a5777","system_id":"levelo_inurba_marseille","lat":43.27025,"lon":5.39294,"is_reserved":false,"is_disabled":false,"rental_uris":{"android":"levelo://app?vid=d3e86ee0-25cc-46da-9490-2861495a5777","ios":"levelo://app?vid=d3e86ee0-25cc-46da-9490-2861495a5777"},"vehicle_type_id":"4","last_reported":1701436242,"current_range_meters":24000,"station_id":"","pricing_plan_id":"free"},{"bike_id":"6f2ba546-e1dd-442a-8039-34d9402ccd8f","system_id":"levelo_inurba_marseille","lat":43.26681,"lon":5.382694,"is_reserved":false,"is_disabled":false,"rental_uris":{"android":"levelo://app?vid=6f2ba546-e1dd-442a-8039-34d9402ccd8f","ios":"levelo://app?vid=6f2ba546-e1dd-442a-8039-34d9402ccd8f"},"vehicle_type_id":"4","last_reported":1701436242,"current_range_meters":20000,"station_id":"ce4bhg92rcd13ifvqf90","pricing_plan_id":"free"},{"bike_id":"8e7abd0e-5ca6-4a3e-936a-ec1560dba3fb","system_id":"levelo_inurba_marseille","lat":43.26557,"lon":5.37284,"is_reserved":false,"is_disabled":false,"rental_uris":{"android":"levelo://app?vid=8e7abd0e-5ca6-4a3e-936a-ec1560dba3fb","ios":"levelo://app?vid=8e7abd0e-5ca6-4a3e-936a-ec1560dba3fb"},"vehicle_type_id":"4","last_reported":1701436242,"current_range_meters":31600,"station_id":"ce4bhg12rcd13ifvqf70","pricing_plan_id":"free"},{"bike_id":"b286a044-8f4a-4729-bffb-2baa00edc703","system_id":"levelo_inurba_marseille","lat":43.26681,"lon":5.382694,"is_reserved":false,"is_disabled":false,"rental_uris":{"android":"levelo://app?vid=b286a044-8f4a-4729-bffb-2baa00edc703","ios":"levelo://app?vid=b286a044-8f4a-4729-bffb-2baa00edc703"},"vehicle_type_id":"4","last_reported":1701436242,"current_range_meters":24000,"station_id":"ce4bhg92rcd13ifvqf90","pricing_plan_id":"free"},{"bike_id":"fbd97ec0-fb28-40f8-bedf-5e1ff8d2df1d","system_id":"levelo_inurba_marseille","lat":43.267966,"lon":5.393976,"is_reserved":false,"is_disabled":false,"rental_uris":{"android":"levelo://app?vid=fbd97ec0-fb28-40f8-bedf-5e1ff8d2df1d","ios":"levelo://app?vid=fbd97ec0-fb28-40f8-bedf-5e1ff8d2df1d"},"vehicle_type_id":"4","last_reported":1701436242,"current_range_meters":400,"station_id":"ce4bhh12rcd13ifvqfg0","pricing_plan_id":"free"},{"bike_id":"371e6925-97d2-4b3c-865d-bbfa01250ac3","system_id":"levelo_inurba_marseille","lat":43.26563,"lon":5.39017,"is_reserved":false,"is_disabled":false,"rental_uris":{"android":"levelo://app?vid=371e6925-97d2-4b3c-865d-bbfa01250ac3","ios":"levelo://app?vid=371e6925-97d2-4b3c-865d-bbfa01250ac3"},"vehicle_type_id":"4","last_reported":1701436242,"current_range_meters":21200,"station_id":"ce4bhe12rcd13ifvqf30","pricing_plan_id":"free"},{"bike_id":"875cd11e-80f0-4d2c-b8b3-7f9d6adafcc4","system_id":"levelo_inurba_marseille","lat":43.261782,"lon":5.374515,"is_reserved":false,"is_disabled":false,"rental_uris":{"android":"levelo://app?vid=875cd11e-80f0-4d2c-b8b3-7f9d6adafcc4","ios":"levelo://app?vid=875cd11e-80f0-4d2c-b8b3-7f9d6adafcc4"},"vehicle_type_id":"4","last_reported":1701436242,"current_range_meters":8000,"station_id":"ce4bhgp2rcd13ifvqfc0","pricing_plan_id":"free"},{"bike_id":"6394474e-85a8-4fc5-ba69-bca97359fd9e","system_id":"levelo_inurba_marseille","lat":43.317104,"lon":5.436818,"is_reserved":false,"is_disabled":false,"rental_uris":{"android":"levelo://app?vid=6394474e-85a8-4fc5-ba69-bca97359fd9e","ios":"levelo://app?vid=6394474e-85a8-4fc5-ba69-bca97359fd9e"},"vehicle_type_id":"4","last_reported":1701436242,"current_range_meters":27200,"station_id":"ce4bhp92rcd13ifvqhcg","pricing_plan_id":"free"},{"bike_id":"6d5827bb-e379-4067-bb3f-6136611daee9","system_id":"levelo_inurba_marseille","lat":43.298768,"lon":5.43643,"is_reserved":false,"is_disabled":false,"rental_uris":{"android":"levelo://app?vid=6d5827bb-e379-4067-bb3f-6136611daee9","ios":"levelo://app?vid=6d5827bb-e379-4067-bb3f-6136611daee9"},"vehicle_type_id":"4","last_reported":1701436242,"current_range_meters":23600,"station_id":"ce4bhpp2rcd13ifvqhfg","pricing_plan_id":"free"},{"bike_id":"100ae370-6cba-4ca9-a0bb-2b0f01dee277","system_id":"levelo_inurba_marseille","lat":43.260225,"lon":5.375455,"is_reserved":false,"is_disabled":false,"rental_uris":{"android":"levelo://app?vid=100ae370-6cba-4ca9-a0bb-2b0f01dee277","ios":"levelo://app?vid=100ae370-6cba-4ca9-a0bb-2b0f01dee277"},"vehicle_type_id":"4","last_reported":1701436242,"current_range_meters":23200,"station_id":"ce4bhgh2rcd13ifvqfa0","pricing_plan_id":"free"},{"bike_id":"3e4fb47e-33e8-4ee2-bfc1-1bd948cfa529","system_id":"levelo_inurba_marseille","lat":43.281548,"lon":5.42643,"is_reserved":false,"is_disabled":false,"rental_uris":{"android":"levelo://app?vid=3e4fb47e-33e8-4ee2-bfc1-1bd948cfa529","ios":"levelo://app?vid=3e4fb47e-33e8-4ee2-bfc1-1bd948cfa529"},"vehicle_type_id":"4","last_reported":1701436242,"current_range_meters":31200,"station_id":"ce4bhnh2rcd13ifvqgug","pricing_plan_id":"free"},{"bike_id":"a265f57d-2203-4406-8278-bc194922c399","system_id":"levelo_inurba_marseille","lat":43.28151,"lon":5.42639,"is_reserved":false,"is_disabled":false,"rental_uris":{"android":"levelo://app?vid=a265f57d-2203-4406-8278-bc194922c399","ios":"levelo://app?vid=a265f57d-2203-4406-8278-bc194922c399"},"vehicle_type_id":"4","last_reported":1701436242,"current_range_meters":31200,"station_id":"ce4bhnh2rcd13ifvqgug","pricing_plan_id":"free"},{"bike_id":"d3df04f1-aa36-401c-b9f0-16ea3bba87de","system_id":"levelo_inurba_marseille","lat":43.281548,"lon":5.42643,"is_reserved":false,"is_disabled":false,"rental_uris":{"android":"levelo://app?vid=d3df04f1-aa36-401c-b9f0-16ea3bba87de","ios":"levelo://app?vid=d3df04f1-aa36-401c-b9f0-16ea3bba87de"},"vehicle_type_id":"4","last_reported":1701436242,"current_range_meters":17600,"station_id":"ce4bhnh2rcd13ifvqgug","pricing_plan_id":"free"},{"bike_id":"b802834e-51f4-41a4-96cb-c31681473515","system_id":"levelo_inurba_marseille","lat":43.281548,"lon":5.42643,"is_reserved":false,"is_disabled":false,"rental_uris":{"android":"levelo://app?vid=b802834e-51f4-41a4-96cb-c31681473515","ios":"levelo://app?vid=b802834e-51f4-41a4-96cb-c31681473515"},"vehicle_type_id":"4","last_reported":1701436242,"current_range_meters":27600,"station_id":"ce4bhnh2rcd13ifvqgug","pricing_plan_id":"free"},{"bike_id":"16e3cf12-314c-4e26-8315-bcc6e17dd084","system_id":"levelo_inurba_marseille","lat":43.281548,"lon":5.42643,"is_reserved":false,"is_disabled":false,"rental_uris":{"android":"levelo://app?vid=16e3cf12-314c-4e26-8315-bcc6e17dd084","ios":"levelo://app?vid=16e3cf12-314c-4e26-8315-bcc6e17dd084"},"vehicle_type_id":"4","last_reported":1701436242,"current_range_meters":7600,"station_id":"ce4bhnh2rcd13ifvqgug","pricing_plan_id":"free"},{"bike_id":"3532a786-7312-4db1-88be-2e5e8a274941","system_id":"levelo_inurba_marseille","lat":43.281548,"lon":5.42643,"is_reserved":false,"is_disabled":false,"rental_uris":{"android":"levelo://app?vid=3532a786-7312-4db1-88be-2e5e8a274941","ios":"levelo://app?vid=3532a786-7312-4db1-88be-2e5e8a274941"},"vehicle_type_id":"4","last_reported":1701436242,"current_range_meters":27200,"station_id":"ce4bhnh2rcd13ifvqgug","pricing_plan_id":"free"},{"bike_id":"e897c865-d5bf-4bae-b25c-bf70705cfcce","system_id":"levelo_inurba_marseille","lat":43.2607,"lon":5.393983,"is_reserved":false,"is_disabled":false,"rental_uris":{"android":"levelo://app?vid=e897c865-d5bf-4bae-b25c-bf70705cfcce","ios":"levelo://app?vid=e897c865-d5bf-4bae-b25c-bf70705cfcce"},"vehicle_type_id":"4","last_reported":1701436242,"current_range_meters":29600,"station_id":"ce4bhh92rcd13ifvqfj0","pricing_plan_id":"free"},{"bike_id":"92a86688-4275-4960-bcc7-a40160c945a3","system_id":"levelo_inurba_marseille","lat":43.275028,"lon":5.424534,"is_reserved":false,"is_disabled":false,"rental_uris":{"android":"levelo://app?vid=92a86688-4275-4960-bcc7-a40160c945a3","ios":"levelo://app?vid=92a86688-4275-4960-bcc7-a40160c945a3"},"vehicle_type_id":"4","last_reported":1701436242,"current_range_meters":24000,"station_id":"ce4bhn92rcd13ifvqgrg","pricing_plan_id":"free"},{"bike_id":"997c4a61-eb45-497d-88b2-e74327270d89","system_id":"levelo_inurba_marseille","lat":43.275028,"lon":5.424534,"is_reserved":false,"is_disabled":false,"rental_uris":{"android":"levelo://app?vid=997c4a61-eb45-497d-88b2-e74327270d89","ios":"levelo://app?vid=997c4a61-eb45-497d-88b2-e74327270d89"},"vehicle_type_id":"4","last_reported":1701436242,"current_range_meters":0,"station_id":"ce4bhn92rcd13ifvqgrg","pricing_plan_id":"free"},{"bike_id":"cfff7a30-2625-4daf-9d36-7d745e9019b1","system_id":"levelo_inurba_marseille","lat":43.275028,"lon":5.424534,"is_reserved":false,"is_disabled":false,"rental_uris":{"android":"levelo://app?vid=cfff7a30-2625-4daf-9d36-7d745e9019b1","ios":"levelo://app?vid=cfff7a30-2625-4daf-9d36-7d745e9019b1"},"vehicle_type_id":"4","last_reported":1701436242,"current_range_meters":21200,"station_id":"ce4bhn92rcd13ifvqgrg","pricing_plan_id":"free"},{"bike_id":"07a7a856-04f3-437c-98e5-d2b42f2af020","system_id":"levelo_inurba_marseille","lat":43.25585,"lon":5.38235,"is_reserved":false,"is_disabled":false,"rental_uris":{"android":"levelo://app?vid=07a7a856-04f3-437c-98e5-d2b42f2af020","ios":"levelo://app?vid=07a7a856-04f3-437c-98e5-d2b42f2af020"},"vehicle_type_id":"4","last_reported":1701436242,"current_range_meters":0,"station_id":"ce4bhih2rcd13ifvqfs0","pricing_plan_id":"free"},{"bike_id":"d6a20b9d-6fd2-44d6-9885-8e4a6386beee","system_id":"levelo_inurba_marseille","lat":43.25585,"lon":5.38242,"is_reserved":false,"is_disabled":false,"rental_uris":{"android":"levelo://app?vid=d6a20b9d-6fd2-44d6-9885-8e4a6386beee","ios":"levelo://app?vid=d6a20b9d-6fd2-44d6-9885-8e4a6386beee"},"vehicle_type_id":"4","last_reported":1701436242,"current_range_meters":6800,"station_id":"ce4bhih2rcd13ifvqfs0","pricing_plan_id":"free"},{"bike_id":"668ae39e-1e7e-4aa5-a699-60db3f9b1e60","system_id":"levelo_inurba_marseille","lat":43.255825,"lon":5.382312,"is_reserved":false,"is_disabled":false,"rental_uris":{"android":"levelo://app?vid=668ae39e-1e7e-4aa5-a699-60db3f9b1e60","ios":"levelo://app?vid=668ae39e-1e7e-4aa5-a699-60db3f9b1e60"},"vehicle_type_id":"4","last_reported":1701436242,"current_range_meters":25200,"station_id":"ce4bhgh2rcd13ifvqfb0","pricing_plan_id":"free"},{"bike_id":"3480dbc9-a158-4570-98c6-7ad69e1c4b0b","system_id":"levelo_inurba_marseille","lat":43.270721,"lon":5.422764,"is_reserved":false,"is_disabled":false,"rental_uris":{"android":"levelo://app?vid=3480dbc9-a158-4570-98c6-7ad69e1c4b0b","ios":"levelo://app?vid=3480dbc9-a158-4570-98c6-7ad69e1c4b0b"},"vehicle_type_id":"4","last_reported":1701436242,"current_range_meters":22000,"station_id":"ce4bhk92rcd13ifvqgb0","pricing_plan_id":"free"},{"bike_id":"7fcccf5d-09f8-4848-b8cb-3973328e2d9a","system_id":"levelo_inurba_marseille","lat":43.258658,"lon":5.398935,"is_reserved":false,"is_disabled":false,"rental_uris":{"android":"levelo://app?vid=7fcccf5d-09f8-4848-b8cb-3973328e2d9a","ios":"levelo://app?vid=7fcccf5d-09f8-4848-b8cb-3973328e2d9a"},"vehicle_type_id":"4","last_reported":1701436242,"current_range_meters":28800,"station_id":"ce4bhl92rcd13ifvqghg","pricing_plan_id":"free"},{"bike_id":"e7c297ee-7be0-477a-9a13-e63a82c1e58d","system_id":"levelo_inurba_marseille","lat":43.258658,"lon":5.398935,"is_reserved":false,"is_disabled":false,"rental_uris":{"android":"levelo://app?vid=e7c297ee-7be0-477a-9a13-e63a82c1e58d","ios":"levelo://app?vid=e7c297ee-7be0-477a-9a13-e63a82c1e58d"},"vehicle_type_id":"4","last_reported":1701436242,"current_range_meters":1200,"station_id":"ce4bhl92rcd13ifvqghg","pricing_plan_id":"free"},{"bike_id":"dc650cf6-963c-46bd-9ecf-ef4e317c235a","system_id":"levelo_inurba_marseille","lat":43.258658,"lon":5.398935,"is_reserved":false,"is_disabled":false,"rental_uris":{"android":"levelo://app?vid=dc650cf6-963c-46bd-9ecf-ef4e317c235a","ios":"levelo://app?vid=dc650cf6-963c-46bd-9ecf-ef4e317c235a"},"vehicle_type_id":"4","last_reported":1701436242,"current_range_meters":26400,"station_id":"ce4bhl92rcd13ifvqghg","pricing_plan_id":"free"},{"bike_id":"4cd35f40-9384-4ad1-9e15-1367ec615b3f","system_id":"levelo_inurba_marseille","lat":43.259344,"lon":5.409154,"is_reserved":false,"is_disabled":false,"rental_uris":{"android":"levelo://app?vid=4cd35f40-9384-4ad1-9e15-1367ec615b3f","ios":"levelo://app?vid=4cd35f40-9384-4ad1-9e15-1367ec615b3f"},"vehicle_type_id":"4","last_reported":1701436242,"current_range_meters":400,"station_id":"ce4bhm92rcd13ifvqglg","pricing_plan_id":"free"},{"bike_id":"454b32b6-6c51-4155-aabd-f3eef94120bc","system_id":"levelo_inurba_marseille","lat":43.259013,"lon":5.409301,"is_reserved":false,"is_disabled":false,"rental_uris":{"android":"levelo://app?vid=454b32b6-6c51-4155-aabd-f3eef94120bc","ios":"levelo://app?vid=454b32b6-6c51-4155-aabd-f3eef94120bc"},"vehicle_type_id":"4","last_reported":1701436242,"current_range_meters":18800,"station_id":"ce4bhm92rcd13ifvqglg","pricing_plan_id":"free"},{"bike_id":"86073f2d-e122-4f90-b490-8d608613938c","system_id":"levelo_inurba_marseille","lat":43.250023,"lon":5.38919,"is_reserved":false,"is_disabled":false,"rental_uris":{"android":"levelo://app?vid=86073f2d-e122-4f90-b490-8d608613938c","ios":"levelo://app?vid=86073f2d-e122-4f90-b490-8d608613938c"},"vehicle_type_id":"4","last_reported":1701436242,"current_range_meters":10800,"station_id":"ce4bhgp2rcd13ifvqfd0","pricing_plan_id":"free"},{"bike_id":"f7b4bbe4-c469-4d3a-a280-82d7b6c8e3d8","system_id":"levelo_inurba_marseille","lat":43.250023,"lon":5.38919,"is_reserved":false,"is_disabled":false,"rental_uris":{"android":"levelo://app?vid=f7b4bbe4-c469-4d3a-a280-82d7b6c8e3d8","ios":"levelo://app?vid=f7b4bbe4-c469-4d3a-a280-82d7b6c8e3d8"},"vehicle_type_id":"4","last_reported":1701436242,"current_range_meters":27200,"station_id":"ce4bhgp2rcd13ifvqfd0","pricing_plan_id":"free"},{"bike_id":"44c2071e-c208-415b-b839-136309ad79d7","system_id":"levelo_inurba_marseille","lat":43.250009,"lon":5.389195,"is_reserved":false,"is_disabled":false,"rental_uris":{"android":"levelo://app?vid=44c2071e-c208-415b-b839-136309ad79d7","ios":"levelo://app?vid=44c2071e-c208-415b-b839-136309ad79d7"},"vehicle_type_id":"4","last_reported":1701436242,"current_range_meters":16000,"station_id":"ce4bhgp2rcd13ifvqfd0","pricing_plan_id":"free"},{"bike_id":"e78e8cd3-6b4b-45f2-8330-c80ce0324655","system_id":"levelo_inurba_marseille","lat":43.250023,"lon":5.38919,"is_reserved":false,"is_disabled":false,"rental_uris":{"android":"levelo://app?vid=e78e8cd3-6b4b-45f2-8330-c80ce0324655","ios":"levelo://app?vid=e78e8cd3-6b4b-45f2-8330-c80ce0324655"},"vehicle_type_id":"4","last_reported":1701436242,"current_range_meters":28000,"station_id":"ce4bhgp2rcd13ifvqfd0","pricing_plan_id":"free"},{"bike_id":"171c4876-247d-487d-add8-6e60eccd0e47","system_id":"levelo_inurba_marseille","lat":43.250966,"lon":5.395186,"is_reserved":false,"is_disabled":false,"rental_uris":{"android":"levelo://app?vid=171c4876-247d-487d-add8-6e60eccd0e47","ios":"levelo://app?vid=171c4876-247d-487d-add8-6e60eccd0e47"},"vehicle_type_id":"4","last_reported":1701436242,"current_range_meters":1200,"station_id":"ce4bhm12rcd13ifvqgkg","pricing_plan_id":"free"},{"bike_id":"96188db5-7e7a-4b9f-8178-9ca92be6e49a","system_id":"levelo_inurba_marseille","lat":43.250966,"lon":5.395186,"is_reserved":false,"is_disabled":false,"rental_uris":{"android":"levelo://app?vid=96188db5-7e7a-4b9f-8178-9ca92be6e49a","ios":"levelo://app?vid=96188db5-7e7a-4b9f-8178-9ca92be6e49a"},"vehicle_type_id":"4","last_reported":1701436242,"current_range_meters":16800,"station_id":"ce4bhm12rcd13ifvqgkg","pricing_plan_id":"free"},{"bike_id":"998c1174-99ab-4094-9df0-d6eb3f8f43c1","system_id":"levelo_inurba_marseille","lat":43.250966,"lon":5.395186,"is_reserved":false,"is_disabled":false,"rental_uris":{"android":"levelo://app?vid=998c1174-99ab-4094-9df0-d6eb3f8f43c1","ios":"levelo://app?vid=998c1174-99ab-4094-9df0-d6eb3f8f43c1"},"vehicle_type_id":"4","last_reported":1701436242,"current_range_meters":31600,"station_id":"ce4bhm12rcd13ifvqgkg","pricing_plan_id":"free"},{"bike_id":"4ad8402d-d2b7-4b5f-a1c3-14b9dfd024cf","system_id":"levelo_inurba_marseille","lat":43.250966,"lon":5.395186,"is_reserved":false,"is_disabled":false,"rental_uris":{"android":"levelo://app?vid=4ad8402d-d2b7-4b5f-a1c3-14b9dfd024cf","ios":"levelo://app?vid=4ad8402d-d2b7-4b5f-a1c3-14b9dfd024cf"},"vehicle_type_id":"4","last_reported":1701436242,"current_range_meters":28800,"station_id":"ce4bhm12rcd13ifvqgkg","pricing_plan_id":"free"},{"bike_id":"59cf6d6b-d7f0-4625-8cd9-7b7a3fc5ea32","system_id":"levelo_inurba_marseille","lat":43.25102,"lon":5.403214,"is_reserved":false,"is_disabled":false,"rental_uris":{"android":"levelo://app?vid=59cf6d6b-d7f0-4625-8cd9-7b7a3fc5ea32","ios":"levelo://app?vid=59cf6d6b-d7f0-4625-8cd9-7b7a3fc5ea32"},"vehicle_type_id":"4","last_reported":1701436242,"current_range_meters":28400,"station_id":"ce4bhlh2rcd13ifvqgig","pricing_plan_id":"free"},{"bike_id":"a6fb93bb-27c3-4cc3-95bf-e4dbd1c05b01","system_id":"levelo_inurba_marseille","lat":43.25102,"lon":5.403214,"is_reserved":false,"is_disabled":false,"rental_uris":{"android":"levelo://app?vid=a6fb93bb-27c3-4cc3-95bf-e4dbd1c05b01","ios":"levelo://app?vid=a6fb93bb-27c3-4cc3-95bf-e4dbd1c05b01"},"vehicle_type_id":"4","last_reported":1701436242,"current_range_meters":31200,"station_id":"ce4bhlh2rcd13ifvqgig","pricing_plan_id":"free"},{"bike_id":"f72b8901-ea18-45f6-8a9c-2dd287ab16d2","system_id":"levelo_inurba_marseille","lat":43.25102,"lon":5.403214,"is_reserved":false,"is_disabled":false,"rental_uris":{"android":"levelo://app?vid=f72b8901-ea18-45f6-8a9c-2dd287ab16d2","ios":"levelo://app?vid=f72b8901-ea18-45f6-8a9c-2dd287ab16d2"},"vehicle_type_id":"4","last_reported":1701436242,"current_range_meters":28400,"station_id":"ce4bhlh2rcd13ifvqgig","pricing_plan_id":"free"},{"bike_id":"edc0e680-2548-4339-8fb5-1532d40e4393","system_id":"levelo_inurba_marseille","lat":43.25102,"lon":5.403214,"is_reserved":false,"is_disabled":false,"rental_uris":{"android":"levelo://app?vid=edc0e680-2548-4339-8fb5-1532d40e4393","ios":"levelo://app?vid=edc0e680-2548-4339-8fb5-1532d40e4393"},"vehicle_type_id":"4","last_reported":1701436242,"current_range_meters":29200,"station_id":"ce4bhlh2rcd13ifvqgig","pricing_plan_id":"free"},{"bike_id":"6592a534-7815-4189-bdc1-5b7b67138438","system_id":"levelo_inurba_marseille","lat":43.24693,"lon":5.382096,"is_reserved":false,"is_disabled":false,"rental_uris":{"android":"levelo://app?vid=6592a534-7815-4189-bdc1-5b7b67138438","ios":"levelo://app?vid=6592a534-7815-4189-bdc1-5b7b67138438"},"vehicle_type_id":"4","last_reported":1701436242,"current_range_meters":0,"station_id":"ce4bhih2rcd13ifvqfr0","pricing_plan_id":"free"},{"bike_id":"e791f8d3-8957-42b4-8101-aea576b91388","system_id":"levelo_inurba_marseille","lat":43.25102,"lon":5.403214,"is_reserved":false,"is_disabled":false,"rental_uris":{"android":"levelo://app?vid=e791f8d3-8957-42b4-8101-aea576b91388","ios":"levelo://app?vid=e791f8d3-8957-42b4-8101-aea576b91388"},"vehicle_type_id":"4","last_reported":1701436242,"current_range_meters":30800,"station_id":"ce4bhlh2rcd13ifvqgig","pricing_plan_id":"free"},{"bike_id":"fd3461e4-1744-459a-9a63-ffaaba8fe639","system_id":"levelo_inurba_marseille","lat":43.25102,"lon":5.403214,"is_reserved":false,"is_disabled":false,"rental_uris":{"android":"levelo://app?vid=fd3461e4-1744-459a-9a63-ffaaba8fe639","ios":"levelo://app?vid=fd3461e4-1744-459a-9a63-ffaaba8fe639"},"vehicle_type_id":"4","last_reported":1701436242,"current_range_meters":5200,"station_id":"ce4bhlh2rcd13ifvqgig","pricing_plan_id":"free"},{"bike_id":"c2f1e999-97d1-4144-8d54-51ab8659f27c","system_id":"levelo_inurba_marseille","lat":43.25102,"lon":5.403214,"is_reserved":false,"is_disabled":false,"rental_uris":{"android":"levelo://app?vid=c2f1e999-97d1-4144-8d54-51ab8659f27c","ios":"levelo://app?vid=c2f1e999-97d1-4144-8d54-51ab8659f27c"},"vehicle_type_id":"4","last_reported":1701436242,"current_range_meters":21600,"station_id":"ce4bhlh2rcd13ifvqgig","pricing_plan_id":"free"},{"bike_id":"c0e62aaa-5463-40b9-b530-ba2c8260d22b","system_id":"levelo_inurba_marseille","lat":43.25102,"lon":5.403214,"is_reserved":false,"is_disabled":false,"rental_uris":{"android":"levelo://app?vid=c0e62aaa-5463-40b9-b530-ba2c8260d22b","ios":"levelo://app?vid=c0e62aaa-5463-40b9-b530-ba2c8260d22b"},"vehicle_type_id":"4","last_reported":1701436242,"current_range_meters":28000,"station_id":"ce4bhlh2rcd13ifvqgig","pricing_plan_id":"free"},{"bike_id":"e7aad632-367b-4496-9cef-bcfeaf0ec9a0","system_id":"levelo_inurba_marseille","lat":43.246461,"lon":5.389014,"is_reserved":false,"is_disabled":false,"rental_uris":{"android":"levelo://app?vid=e7aad632-367b-4496-9cef-bcfeaf0ec9a0","ios":"levelo://app?vid=e7aad632-367b-4496-9cef-bcfeaf0ec9a0"},"vehicle_type_id":"4","last_reported":1701436242,"current_range_meters":27200,"station_id":"ce4bhg12rcd13ifvqf60","pricing_plan_id":"free"},{"bike_id":"48120d6f-a5ad-4b77-aa78-a715e967e174","system_id":"levelo_inurba_marseille","lat":43.246467,"lon":5.388984,"is_reserved":false,"is_disabled":false,"rental_uris":{"android":"levelo://app?vid=48120d6f-a5ad-4b77-aa78-a715e967e174","ios":"levelo://app?vid=48120d6f-a5ad-4b77-aa78-a715e967e174"},"vehicle_type_id":"4","last_reported":1701436242,"current_range_meters":12000,"station_id":"ce4bhg12rcd13ifvqf60","pricing_plan_id":"free"},{"bike_id":"55972aea-1e08-41ae-a249-b19d00024dc4","system_id":"levelo_inurba_marseille","lat":43.243883,"lon":5.370578,"is_reserved":false,"is_disabled":false,"rental_uris":{"android":"levelo://app?vid=55972aea-1e08-41ae-a249-b19d00024dc4","ios":"levelo://app?vid=55972aea-1e08-41ae-a249-b19d00024dc4"},"vehicle_type_id":"4","last_reported":1701436242,"current_range_meters":26400,"station_id":"ce4bhnp2rcd13ifvqgvg","pricing_plan_id":"free"},{"bike_id":"6761e75f-105b-45d8-825e-33a0faf4a485","system_id":"levelo_inurba_marseille","lat":43.246461,"lon":5.389014,"is_reserved":false,"is_disabled":false,"rental_uris":{"android":"levelo://app?vid=6761e75f-105b-45d8-825e-33a0faf4a485","ios":"levelo://app?vid=6761e75f-105b-45d8-825e-33a0faf4a485"},"vehicle_type_id":"4","last_reported":1701436242,"current_range_meters":15600,"station_id":"ce4bhg12rcd13ifvqf60","pricing_plan_id":"free"},{"bike_id":"489645aa-b661-4e96-97a5-5741bba912cf","system_id":"levelo_inurba_marseille","lat":43.245581,"lon":5.395069,"is_reserved":false,"is_disabled":false,"rental_uris":{"android":"levelo://app?vid=489645aa-b661-4e96-97a5-5741bba912cf","ios":"levelo://app?vid=489645aa-b661-4e96-97a5-5741bba912cf"},"vehicle_type_id":"4","last_reported":1701436242,"current_range_meters":25200,"station_id":"ce4bhlp2rcd13ifvqgjg","pricing_plan_id":"free"},{"bike_id":"5edb046d-225a-48e0-8d93-b55c8b38eaf3","system_id":"levelo_inurba_marseille","lat":43.240623,"lon":5.377642,"is_reserved":false,"is_disabled":false,"rental_uris":{"android":"levelo://app?vid=5edb046d-225a-48e0-8d93-b55c8b38eaf3","ios":"levelo://app?vid=5edb046d-225a-48e0-8d93-b55c8b38eaf3"},"vehicle_type_id":"4","last_reported":1701436242,"current_range_meters":21200,"station_id":"ce4bhnp2rcd13ifvqgvg","pricing_plan_id":"free"},{"bike_id":"1e892780-4b2c-4922-b79a-0b02c1397385","system_id":"levelo_inurba_marseille","lat":43.24075,"lon":5.3776,"is_reserved":false,"is_disabled":false,"rental_uris":{"android":"levelo://app?vid=1e892780-4b2c-4922-b79a-0b02c1397385","ios":"levelo://app?vid=1e892780-4b2c-4922-b79a-0b02c1397385"},"vehicle_type_id":"4","last_reported":1701436242,"current_range_meters":8800,"station_id":"ce4bhnp2rcd13ifvqgvg","pricing_plan_id":"free"},{"bike_id":"1f7a4a46-b363-4288-a015-eb15d7fd62d8","system_id":"levelo_inurba_marseille","lat":43.240623,"lon":5.377642,"is_reserved":false,"is_disabled":false,"rental_uris":{"android":"levelo://app?vid=1f7a4a46-b363-4288-a015-eb15d7fd62d8","ios":"levelo://app?vid=1f7a4a46-b363-4288-a015-eb15d7fd62d8"},"vehicle_type_id":"4","last_reported":1701436242,"current_range_meters":18000,"station_id":"ce4bhnp2rcd13ifvqgvg","pricing_plan_id":"free"},{"bike_id":"81c09cca-d601-4e28-a05e-741e7272df3b","system_id":"levelo_inurba_marseille","lat":43.239588,"lon":5.366238,"is_reserved":false,"is_disabled":false,"rental_uris":{"android":"levelo://app?vid=81c09cca-d601-4e28-a05e-741e7272df3b","ios":"levelo://app?vid=81c09cca-d601-4e28-a05e-741e7272df3b"},"vehicle_type_id":"4","last_reported":1701436242,"current_range_meters":18800,"station_id":"ce4bhi12rcd13ifvqfp0","pricing_plan_id":"free"},{"bike_id":"88e346b8-dbb1-41e8-8eb0-8de3f18a6871","system_id":"levelo_inurba_marseille","lat":43.241782,"lon":5.397261,"is_reserved":false,"is_disabled":false,"rental_uris":{"android":"levelo://app?vid=88e346b8-dbb1-41e8-8eb0-8de3f18a6871","ios":"levelo://app?vid=88e346b8-dbb1-41e8-8eb0-8de3f18a6871"},"vehicle_type_id":"4","last_reported":1701436242,"current_range_meters":24800,"station_id":"ce4bhn12rcd13ifvqgpg","pricing_plan_id":"free"},{"bike_id":"a5de75b2-12b6-466e-876e-f5f6e97aa98c","system_id":"levelo_inurba_marseille","lat":43.241782,"lon":5.397261,"is_reserved":false,"is_disabled":false,"rental_uris":{"android":"levelo://app?vid=a5de75b2-12b6-466e-876e-f5f6e97aa98c","ios":"levelo://app?vid=a5de75b2-12b6-466e-876e-f5f6e97aa98c"},"vehicle_type_id":"4","last_reported":1701436242,"current_range_meters":26400,"station_id":"ce4bhn12rcd13ifvqgpg","pricing_plan_id":"free"},{"bike_id":"4111570b-803d-4f6e-af3f-96998b345c90","system_id":"levelo_inurba_marseille","lat":43.2418,"lon":5.39734,"is_reserved":false,"is_disabled":false,"rental_uris":{"android":"levelo://app?vid=4111570b-803d-4f6e-af3f-96998b345c90","ios":"levelo://app?vid=4111570b-803d-4f6e-af3f-96998b345c90"},"vehicle_type_id":"4","last_reported":1701436242,"current_range_meters":29200,"station_id":"ce4bhn12rcd13ifvqgpg","pricing_plan_id":"free"},{"bike_id":"2b87974a-d432-4d0d-9e2e-39ef327a82c9","system_id":"levelo_inurba_marseille","lat":43.241782,"lon":5.397261,"is_reserved":false,"is_disabled":false,"rental_uris":{"android":"levelo://app?vid=2b87974a-d432-4d0d-9e2e-39ef327a82c9","ios":"levelo://app?vid=2b87974a-d432-4d0d-9e2e-39ef327a82c9"},"vehicle_type_id":"4","last_reported":1701436242,"current_range_meters":9600,"station_id":"ce4bhn12rcd13ifvqgpg","pricing_plan_id":"free"},{"bike_id":"460ff11d-43d6-4fa0-9381-c598ad26d49a","system_id":"levelo_inurba_marseille","lat":43.241782,"lon":5.397261,"is_reserved":false,"is_disabled":false,"rental_uris":{"android":"levelo://app?vid=460ff11d-43d6-4fa0-9381-c598ad26d49a","ios":"levelo://app?vid=460ff11d-43d6-4fa0-9381-c598ad26d49a"},"vehicle_type_id":"4","last_reported":1701436242,"current_range_meters":28800,"station_id":"ce4bhn12rcd13ifvqgpg","pricing_plan_id":"free"},{"bike_id":"6382809b-45d0-4ad2-8be7-697249f82077","system_id":"levelo_inurba_marseille","lat":43.231919,"lon":5.355532,"is_reserved":false,"is_disabled":false,"rental_uris":{"android":"levelo://app?vid=6382809b-45d0-4ad2-8be7-697249f82077","ios":"levelo://app?vid=6382809b-45d0-4ad2-8be7-697249f82077"},"vehicle_type_id":"4","last_reported":1701436242,"current_range_meters":31200,"station_id":"ce4bhu92rcd13ifvqi70","pricing_plan_id":"free"},{"bike_id":"d1703505-b125-4a98-a807-11024241bc04","system_id":"levelo_inurba_marseille","lat":43.231923,"lon":5.355545,"is_reserved":false,"is_disabled":false,"rental_uris":{"android":"levelo://app?vid=d1703505-b125-4a98-a807-11024241bc04","ios":"levelo://app?vid=d1703505-b125-4a98-a807-11024241bc04"},"vehicle_type_id":"4","last_reported":1701436242,"current_range_meters":31600,"station_id":"ce4bhu92rcd13ifvqi70","pricing_plan_id":"free"},{"bike_id":"3ed8aab0-8075-4621-8453-065c420c9ecf","system_id":"levelo_inurba_marseille","lat":43.231923,"lon":5.355545,"is_reserved":false,"is_disabled":false,"rental_uris":{"android":"levelo://app?vid=3ed8aab0-8075-4621-8453-065c420c9ecf","ios":"levelo://app?vid=3ed8aab0-8075-4621-8453-065c420c9ecf"},"vehicle_type_id":"4","last_reported":1701436242,"current_range_meters":9200,"station_id":"ce4bhu92rcd13ifvqi70","pricing_plan_id":"free"},{"bike_id":"cf3102c4-88e0-4a41-86b7-69a76932d3e6","system_id":"levelo_inurba_marseille","lat":43.231923,"lon":5.355545,"is_reserved":false,"is_disabled":false,"rental_uris":{"android":"levelo://app?vid=cf3102c4-88e0-4a41-86b7-69a76932d3e6","ios":"levelo://app?vid=cf3102c4-88e0-4a41-86b7-69a76932d3e6"},"vehicle_type_id":"4","last_reported":1701436242,"current_range_meters":31600,"station_id":"ce4bhu92rcd13ifvqi70","pricing_plan_id":"free"},{"bike_id":"7f5af501-e128-4f28-933c-8a3eca0e52cd","system_id":"levelo_inurba_marseille","lat":43.231919,"lon":5.355532,"is_reserved":false,"is_disabled":false,"rental_uris":{"android":"levelo://app?vid=7f5af501-e128-4f28-933c-8a3eca0e52cd","ios":"levelo://app?vid=7f5af501-e128-4f28-933c-8a3eca0e52cd"},"vehicle_type_id":"4","last_reported":1701436242,"current_range_meters":20000,"station_id":"ce4bhu92rcd13ifvqi70","pricing_plan_id":"free"},{"bike_id":"cdfcf9d8-5b42-40a1-9c86-605bac4b94e5","system_id":"levelo_inurba_marseille","lat":43.23186,"lon":5.3999,"is_reserved":false,"is_disabled":false,"rental_uris":{"android":"levelo://app?vid=cdfcf9d8-5b42-40a1-9c86-605bac4b94e5","ios":"levelo://app?vid=cdfcf9d8-5b42-40a1-9c86-605bac4b94e5"},"vehicle_type_id":"4","last_reported":1701436242,"current_range_meters":22000,"station_id":"ce4bhn12rcd13ifvqgqg","pricing_plan_id":"free"},{"bike_id":"a440b27c-2293-40e6-88b6-083c56fe7409","system_id":"levelo_inurba_marseille","lat":43.231818,"lon":5.399835,"is_reserved":false,"is_disabled":false,"rental_uris":{"android":"levelo://app?vid=a440b27c-2293-40e6-88b6-083c56fe7409","ios":"levelo://app?vid=a440b27c-2293-40e6-88b6-083c56fe7409"},"vehicle_type_id":"4","last_reported":1701436242,"current_range_meters":11600,"station_id":"","pricing_plan_id":"free"},{"bike_id":"1eeab9a5-d341-4bc8-8d21-ee151ff9d9b2","system_id":"levelo_inurba_marseille","lat":43.231817,"lon":5.399923,"is_reserved":false,"is_disabled":false,"rental_uris":{"android":"levelo://app?vid=1eeab9a5-d341-4bc8-8d21-ee151ff9d9b2","ios":"levelo://app?vid=1eeab9a5-d341-4bc8-8d21-ee151ff9d9b2"},"vehicle_type_id":"4","last_reported":1701436242,"current_range_meters":23200,"station_id":"ce4bhn12rcd13ifvqgqg","pricing_plan_id":"free"},{"bike_id":"22bd98e3-c33f-4c44-ae2b-f96729d36f4f","system_id":"levelo_inurba_marseille","lat":43.23167,"lon":5.40012,"is_reserved":false,"is_disabled":false,"rental_uris":{"android":"levelo://app?vid=22bd98e3-c33f-4c44-ae2b-f96729d36f4f","ios":"levelo://app?vid=22bd98e3-c33f-4c44-ae2b-f96729d36f4f"},"vehicle_type_id":"4","last_reported":1701436242,"current_range_meters":0,"station_id":"ce4bhn12rcd13ifvqgqg","pricing_plan_id":"free"},{"bike_id":"a16c4306-025a-4fd8-97c3-2b13abc3d7b4","system_id":"levelo_inurba_marseille","lat":43.231562,"lon":5.436933,"is_reserved":false,"is_disabled":false,"rental_uris":{"android":"levelo://app?vid=a16c4306-025a-4fd8-97c3-2b13abc3d7b4","ios":"levelo://app?vid=a16c4306-025a-4fd8-97c3-2b13abc3d7b4"},"vehicle_type_id":"4","last_reported":1701436242,"current_range_meters":16400,"station_id":"ce4bhmp2rcd13ifvqgog","pricing_plan_id":"free"},{"bike_id":"0a30b9cb-118e-4b72-9b41-2cc8ae55b8b1","system_id":"levelo_inurba_marseille","lat":43.231562,"lon":5.436933,"is_reserved":false,"is_disabled":false,"rental_uris":{"android":"levelo://app?vid=0a30b9cb-118e-4b72-9b41-2cc8ae55b8b1","ios":"levelo://app?vid=0a30b9cb-118e-4b72-9b41-2cc8ae55b8b1"},"vehicle_type_id":"4","last_reported":1701436242,"current_range_meters":4800,"station_id":"ce4bhmp2rcd13ifvqgog","pricing_plan_id":"free"},{"bike_id":"16142c69-3ea7-4628-8f42-f75831211f2c","system_id":"levelo_inurba_marseille","lat":43.231562,"lon":5.436933,"is_reserved":false,"is_disabled":false,"rental_uris":{"android":"levelo://app?vid=16142c69-3ea7-4628-8f42-f75831211f2c","ios":"levelo://app?vid=16142c69-3ea7-4628-8f42-f75831211f2c"},"vehicle_type_id":"4","last_reported":1701436242,"current_range_meters":10800,"station_id":"ce4bhmp2rcd13ifvqgog","pricing_plan_id":"free"},{"bike_id":"e04516ba-b63b-4a67-8c7e-6cf3e98ec1f3","system_id":"levelo_inurba_marseille","lat":43.231562,"lon":5.436933,"is_reserved":false,"is_disabled":false,"rental_uris":{"android":"levelo://app?vid=e04516ba-b63b-4a67-8c7e-6cf3e98ec1f3","ios":"levelo://app?vid=e04516ba-b63b-4a67-8c7e-6cf3e98ec1f3"},"vehicle_type_id":"4","last_reported":1701436242,"current_range_meters":400,"station_id":"ce4bhmp2rcd13ifvqgog","pricing_plan_id":"free"},{"bike_id":"e860733d-32b2-4530-9269-159d78c73731","system_id":"levelo_inurba_marseille","lat":43.23148,"lon":5.43715,"is_reserved":false,"is_disabled":false,"rental_uris":{"android":"levelo://app?vid=e860733d-32b2-4530-9269-159d78c73731","ios":"levelo://app?vid=e860733d-32b2-4530-9269-159d78c73731"},"vehicle_type_id":"4","last_reported":1701436242,"current_range_meters":27600,"station_id":"ce4bhmp2rcd13ifvqgog","pricing_plan_id":"free"},{"bike_id":"7161324f-2e2a-42a6-8086-e831f0830dc4","system_id":"levelo_inurba_marseille","lat":43.231562,"lon":5.436933,"is_reserved":false,"is_disabled":false,"rental_uris":{"android":"levelo://app?vid=7161324f-2e2a-42a6-8086-e831f0830dc4","ios":"levelo://app?vid=7161324f-2e2a-42a6-8086-e831f0830dc4"},"vehicle_type_id":"4","last_reported":1701436242,"current_range_meters":11600,"station_id":"ce4bhmp2rcd13ifvqgog","pricing_plan_id":"free"},{"bike_id":"3981a8fd-24c6-4214-aeb3-6399f0bdb1e3","system_id":"levelo_inurba_marseille","lat":43.231562,"lon":5.436933,"is_reserved":false,"is_disabled":false,"rental_uris":{"android":"levelo://app?vid=3981a8fd-24c6-4214-aeb3-6399f0bdb1e3","ios":"levelo://app?vid=3981a8fd-24c6-4214-aeb3-6399f0bdb1e3"},"vehicle_type_id":"4","last_reported":1701436242,"current_range_meters":31600,"station_id":"ce4bhmp2rcd13ifvqgog","pricing_plan_id":"free"},{"bike_id":"c4f38bf1-74e2-4260-84d5-17e2966fdd01","system_id":"levelo_inurba_marseille","lat":43.231562,"lon":5.436933,"is_reserved":false,"is_disabled":false,"rental_uris":{"android":"levelo://app?vid=c4f38bf1-74e2-4260-84d5-17e2966fdd01","ios":"levelo://app?vid=c4f38bf1-74e2-4260-84d5-17e2966fdd01"},"vehicle_type_id":"4","last_reported":1701436242,"current_range_meters":800,"station_id":"ce4bhmp2rcd13ifvqgog","pricing_plan_id":"free"},{"bike_id":"1b49a464-cf33-4093-a58f-a6ea95f6dcf1","system_id":"levelo_inurba_marseille","lat":43.23148,"lon":5.43722,"is_reserved":false,"is_disabled":false,"rental_uris":{"android":"levelo://app?vid=1b49a464-cf33-4093-a58f-a6ea95f6dcf1","ios":"levelo://app?vid=1b49a464-cf33-4093-a58f-a6ea95f6dcf1"},"vehicle_type_id":"4","last_reported":1701436242,"current_range_meters":11600,"station_id":"ce4bhmp2rcd13ifvqgog","pricing_plan_id":"free"},{"bike_id":"8f7bf4bc-06c1-4fe0-9dd1-fbfece98a6a0","system_id":"levelo_inurba_marseille","lat":43.231562,"lon":5.436933,"is_reserved":false,"is_disabled":false,"rental_uris":{"android":"levelo://app?vid=8f7bf4bc-06c1-4fe0-9dd1-fbfece98a6a0","ios":"levelo://app?vid=8f7bf4bc-06c1-4fe0-9dd1-fbfece98a6a0"},"vehicle_type_id":"4","last_reported":1701436242,"current_range_meters":18000,"station_id":"ce4bhmp2rcd13ifvqgog","pricing_plan_id":"free"},{"bike_id":"9b2f92f0-7b31-452f-80c7-f6e0e9fd621d","system_id":"levelo_inurba_marseille","lat":43.231562,"lon":5.436933,"is_reserved":false,"is_disabled":false,"rental_uris":{"android":"levelo://app?vid=9b2f92f0-7b31-452f-80c7-f6e0e9fd621d","ios":"levelo://app?vid=9b2f92f0-7b31-452f-80c7-f6e0e9fd621d"},"vehicle_type_id":"4","last_reported":1701436242,"current_range_meters":18000,"station_id":"ce4bhmp2rcd13ifvqgog","pricing_plan_id":"free"}]}}