{"last_updated":1730286464,"ttl":60,"version":"2.2","data":{"bikes":[{"bike_id":"e0594c9b-1912-4f09-958a-91f8a4561c29","system_id":"levelo_inurba_marseille","lat":43.24389,"lon":5.37045,"is_reserved":false,"is_disabled":false,"rental_uris":{"android":"levelo://app?vid=e0594c9b-1912-4f09-958a-91f8a4561c29","ios":"levelo://app?vid=e0594c9b-1912-4f09-958a-91f8a4561c29"},"vehicle_type_id":"4","last_reported":1730286464,"current_range_meters":39200,"station_id":"ce4bhhh2rcd13ifvqfk0","pricing_plan_id":"cebpf4jnsgd1na2vs0mg"},{"bike_id":"c57ce94c-04f2-4bfe-aaf7-3e4fb68771ea","system_id":"levelo_inurba_marseille","lat":43.27322,"lon":5.39072,"is_reserved":false,"is_disabled":false,"rental_uris":{"android":"levelo://app?vid=c57ce94c-04f2-4bfe-aaf7-3e4fb68771ea","ios":"levelo://app?vid=c57ce94c-04f2-4bfe-aaf7-3e4fb68771ea"},"vehicle_type_id":"4","last_reported":1730286464,"current_range_meters":1600,"station_id":"ce4bhgp2rcd13ifvqfe0","pricing_plan_id":"cebpf4jnsgd1na2vs0mg"},{"bike_id":"9932cb1a-63a4-4e1c-a11b-c6a6ee00d266","system_id":"levelo_inurba_marseille","lat":43.31227,"lon":5.36831,"is_reserved":false,"is_disabled":false,"rental_uris":{"android":"levelo://app?vid=9932cb1a-63a4-4e1c-a11b-c6a6ee00d266","ios":"levelo://app?vid=9932cb1a-63a4-4e1c-a11b-c6a6ee00d266"},"vehicle_type_id":"4","last_reported":1730286464,"current_range_meters":11600,"station_id":"ce4bgl92rcd13ifvqbq0","pricing_plan_id":"cebpf4jnsgd1na2vs0mg"},{"bike_id":"6daefb7d-890b-4927-bca4-1e9b57c2727d","system_id":"levelo_inurba_marseille","lat":43.27181,"lon":5.40997,"is_reserved":false,"is_disabled":false,"rental_uris":{"android":"levelo://app?vid=6daefb7d-890b-4927-bca4-1e9b57c2727d","ios":"levelo://app?vid=6daefb7d-890b-4927-bca4-1e9b57c2727d"},"vehicle_type_id":"4","last_reported":1730286464,"current_range_meters":36800,"station_id":"ce4bhl12rcd13ifvqgf0","pricing_plan_id":"cebpf4jnsgd1na2vs0mg"},{"bike_id":"e1d18b81-986d-4e87-b61a-22535be9c7fe","system_id":"levelo_inurba_marseille","lat":43.27067,"lon":5.42276,"is_reserved":false,"is_disabled":false,"rental_uris":{"android":"levelo://app?vid=e1d18b81-986d-4e87-b61a-22535be9c7fe","ios":"levelo://app?vid=e1d18b81-986d-4e87-b61a-22535be9c7fe"},"vehicle_type_id":"4","last_reported":1730286464,"current_range_meters":39200,"station_id":"ce4bhk92rcd13ifvqgb0","pricing_plan_id":"cebpf4jnsgd1na2vs0mg"},{"bike_id":"a1bb42ca-48af-4ecf-84af-9ae8e4bb73f6","system_id":"levelo_inurba_marseille","lat":43.28614,"lon":5.35107,"is_reserved":false,"is_disabled":false,"rental_uris":{"android":"levelo://app?vid=a1bb42ca-48af-4ecf-84af-9ae8e4bb73f6","ios":"levelo://app?vid=a1bb42ca-48af-4ecf-84af-9ae8e4bb73f6"},"vehicle_type_id":"4","last_reported":1730286464,"current_range_meters":32800,"station_id":"ce4bhbh2rcd13ifvqepg","pricing_plan_id":"cebpf4jnsgd1na2vs0mg"},{"bike_id":"389a0521-41ae-44e7-b647-f0e587e1b12f","system_id":"levelo_inurba_marseille","lat":43.24183,"lon":5.3973,"is_reserved":false,"is_disabled":false,"rental_uris":{"android":"levelo://app?vid=389a0521-41ae-44e7-b647-f0e587e1b12f","ios":"levelo://app?vid=389a0521-41ae-44e7-b647-f0e587e1b12f"},"vehicle_type_id":"4","last_reported":1730286464,"current_range_meters":10000,"station_id":"ce4bhn12rcd13ifvqgpg","pricing_plan_id":"cebpf4jnsgd1na2vs0mg"},{"bike_id":"d2176af4-4cab-487a-abac-e74d2464f415","system_id":"levelo_inurba_marseille","lat":43.30542,"lon":5.36524,"is_reserved":false,"is_disabled":false,"rental_uris":{"android":"levelo://app?vid=d2176af4-4cab-487a-abac-e74d2464f415","ios":"levelo://app?vid=d2176af4-4cab-487a-abac-e74d2464f415"},"vehicle_type_id":"4","last_reported":1730286464,"current_range_meters":38800,"station_id":"ce4bgs12rcd13ifvqcag","pricing_plan_id":"cebpf4jnsgd1na2vs0mg"},{"bike_id":"c2ecbc14-02c3-4dbc-a9a3-d9fab4006dd4","system_id":"levelo_inurba_marseille","lat":43.29731,"lon":5.37685,"is_reserved":false,"is_disabled":false,"rental_uris":{"android":"levelo://app?vid=c2ecbc14-02c3-4dbc-a9a3-d9fab4006dd4","ios":"levelo://app?vid=c2ecbc14-02c3-4dbc-a9a3-d9fab4006dd4"},"vehicle_type_id":"4","last_reported":1730286464,"current_range_meters":22400,"station_id":"ce4bgkh2rcd13ifvqbl0","pricing_plan_id":"cebpf4jnsgd1na2vs0mg"},{"bike_id":"28ebbb1d-8af2-4a3a-a040-b8e7f776133c","system_id":"levelo_inurba_marseille","lat":43.29603,"lon":5.381,"is_reserved":false,"is_disabled":false,"rental_uris":{"android":"levelo://app?vid=28ebbb1d-8af2-4a3a-a040-b8e7f776133c","ios":"levelo://app?vid=28ebbb1d-8af2-4a3a-a040-b8e7f776133c"},"vehicle_type_id":"4","last_reported":1730286464,"current_range_meters":33200,"station_id":"ce4bgl12rcd13ifvqbo0","pricing_plan_id":"cebpf4jnsgd1na2vs0mg"},{"bike_id":"a0f5d9ec-bdca-49ed-9410-eea9bb121fec","system_id":"levelo_inurba_marseille","lat":43.32659,"lon":5.40988,"is_reserved":false,"is_disabled":false,"rental_uris":{"android":"levelo://app?vid=a0f5d9ec-bdca-49ed-9410-eea9bb121fec","ios":"levelo://app?vid=a0f5d9ec-bdca-49ed-9410-eea9bb121fec"},"vehicle_type_id":"4","last_reported":1730286464,"current_range_meters":37600,"station_id":"ce4bhpp2rcd13ifvqhgg","pricing_plan_id":"cebpf4jnsgd1na2vs0mg"},{"bike_id":"122308d7-9770-4e4b-b7e7-f3f1e6c322cb","system_id":"levelo_inurba_marseille","lat":43.29728,"lon":5.37682,"is_reserved":false,"is_disabled":false,"rental_uris":{"android":"levelo://app?vid=122308d7-9770-4e4b-b7e7-f3f1e6c322cb","ios":"levelo://app?vid=122308d7-9770-4e4b-b7e7-f3f1e6c322cb"},"vehicle_type_id":"4","last_reported":1730286464,"current_range_meters":34000,"station_id":"ce4bgkh2rcd13ifvqbl0","pricing_plan_id":"cebpf4jnsgd1na2vs0mg"},{"bike_id":"b240039e-c50d-4884-bbaf-45c1fe416cf2","system_id":"levelo_inurba_marseille","lat":43.24164,"lon":5.36393,"is_reserved":false,"is_disabled":false,"rental_uris":{"android":"levelo://app?vid=b240039e-c50d-4884-bbaf-45c1fe416cf2","ios":"levelo://app?vid=b240039e-c50d-4884-bbaf-45c1fe416cf2"},"vehicle_type_id":"4","last_reported":1730286464,"current_range_meters":32400,"station_id":"cpo36qri1sfpv3e86is0","pricing_plan_id":"cebpf4jnsgd1na2vs0mg"},{"bike_id":"0f237200-9f2c-4569-b096-745ca33d76d3","system_id":"levelo_inurba_marseille","lat":43.30546,"lon":5.36513,"is_reserved":false,"is_disabled":false,"rental_uris":{"android":"levelo://app?vid=0f237200-9f2c-4569-b096-745ca33d76d3","ios":"levelo://app?vid=0f237200-9f2c-4569-b096-745ca33d76d3"},"vehicle_type_id":"4","last_reported":1730286464,"current_range_meters":30400,"station_id":"ce4bgs12rcd13ifvqcag","pricing_plan_id":"cebpf4jnsgd1na2vs0mg"},{"bike_id":"98af7aaf-680f-4013-9acb-3127feae2bb0","system_id":"levelo_inurba_marseille","lat":43.33018,"lon":5.39039,"is_reserved":false,"is_disabled":false,"rental_uris":{"android":"levelo://app?vid=98af7aaf-680f-4013-9acb-3127feae2bb0","ios":"levelo://app?vid=98af7aaf-680f-4013-9acb-3127feae2bb0"},"vehicle_type_id":"4","last_reported":1730286464,"current_range_meters":39200,"station_id":"ce4bhr92rcd13ifvqhrg","pricing_plan_id":"cebpf4jnsgd1na2vs0mg"},{"bike_id":"58ce08b5-61d6-4053-a653-c68db61c2fa6","system_id":"levelo_inurba_marseille","lat":43.23194,"lon":5.3998,"is_reserved":false,"is_disabled":false,"rental_uris":{"android":"levelo://app?vid=58ce08b5-61d6-4053-a653-c68db61c2fa6","ios":"levelo://app?vid=58ce08b5-61d6-4053-a653-c68db61c2fa6"},"vehicle_type_id":"4","last_reported":1730286464,"current_range_meters":10000,"station_id":"ce4bhn12rcd13ifvqgqg","pricing_plan_id":"cebpf4jnsgd1na2vs0mg"},{"bike_id":"e22f8387-965a-4dfc-b6d5-51df35555a1d","system_id":"levelo_inurba_marseille","lat":43.24667,"lon":5.3816,"is_reserved":false,"is_disabled":false,"rental_uris":{"android":"levelo://app?vid=e22f8387-965a-4dfc-b6d5-51df35555a1d","ios":"levelo://app?vid=e22f8387-965a-4dfc-b6d5-51df35555a1d"},"vehicle_type_id":"4","last_reported":1730286464,"current_range_meters":33200,"station_id":"ce4bhih2rcd13ifvqfr0","pricing_plan_id":"cebpf4jnsgd1na2vs0mg"},{"bike_id":"a374ab18-c8cc-4f7a-810c-cb9e611a50df","system_id":"levelo_inurba_marseille","lat":43.26807,"lon":5.40268,"is_reserved":false,"is_disabled":false,"rental_uris":{"android":"levelo://app?vid=a374ab18-c8cc-4f7a-810c-cb9e611a50df","ios":"levelo://app?vid=a374ab18-c8cc-4f7a-810c-cb9e611a50df"},"vehicle_type_id":"4","last_reported":1730286464,"current_range_meters":26800,"station_id":"ce501612rcd8frsf0b60","pricing_plan_id":"cebpf4jnsgd1na2vs0mg"},{"bike_id":"28243c0e-3d63-467c-bb0d-eacbbfdd097d","system_id":"levelo_inurba_marseille","lat":43.27915,"lon":5.39583,"is_reserved":false,"is_disabled":false,"rental_uris":{"android":"levelo://app?vid=28243c0e-3d63-467c-bb0d-eacbbfdd097d","ios":"levelo://app?vid=28243c0e-3d63-467c-bb0d-eacbbfdd097d"},"vehicle_type_id":"4","last_reported":1730286464,"current_range_meters":17200,"station_id":"ce4bhf92rcd13ifvqf40","pricing_plan_id":"cebpf4jnsgd1na2vs0mg"},{"bike_id":"0c074560-8ac3-46f4-bbf6-3d47e9833728","system_id":"levelo_inurba_marseille","lat":43.25007,"lon":5.38924,"is_reserved":false,"is_disabled":false,"rental_uris":{"android":"levelo://app?vid=0c074560-8ac3-46f4-bbf6-3d47e9833728","ios":"levelo://app?vid=0c074560-8ac3-46f4-bbf6-3d47e9833728"},"vehicle_type_id":"4","last_reported":1730286464,"current_range_meters":37600,"station_id":"ce4bhgp2rcd13ifvqfd0","pricing_plan_id":"cebpf4jnsgd1na2vs0mg"},{"bike_id":"d8cc2a82-9c7b-414e-999b-520bd5d9b121","system_id":"levelo_inurba_marseille","lat":43.30796,"lon":5.39221,"is_reserved":false,"is_disabled":false,"rental_uris":{"android":"levelo://app?vid=d8cc2a82-9c7b-414e-999b-520bd5d9b121","ios":"levelo://app?vid=d8cc2a82-9c7b-414e-999b-520bd5d9b121"},"vehicle_type_id":"4","last_reported":1730286464,"current_range_meters":36400,"station_id":"","pricing_plan_id":"cebpf4jnsgd1na2vs0mg"},{"bike_id":"fc8a8b80-934e-4729-8982-ed8c2ff44c4b","system_id":"levelo_inurba_marseille","lat":43.308917,"lon":5.372001,"is_reserved":false,"is_disabled":false,"rental_uris":{"android":"levelo://app?vid=fc8a8b80-934e-4729-8982-ed8c2ff44c4b","ios":"levelo://app?vid=fc8a8b80-934e-4729-8982-ed8c2ff44c4b"},"vehicle_type_id":"4","last_reported":1730286464,"current_range_meters":16800,"station_id":"ce4bguh2rcd13ifvqckg","pricing_plan_id":"cebpf4jnsgd1na2vs0mg"},{"bike_id":"1cd8d7e3-0ce1-40bb-812b-9a4e1822ff6c","system_id":"levelo_inurba_marseille","lat":43.32488,"lon":5.36564,"is_reserved":false,"is_disabled":false,"rental_uris":{"android":"levelo://app?vid=1cd8d7e3-0ce1-40bb-812b-9a4e1822ff6c","ios":"levelo://app?vid=1cd8d7e3-0ce1-40bb-812b-9a4e1822ff6c"},"vehicle_type_id":"4","last_reported":1730286464,"current_range_meters":34000,"station_id":"ce4bhs12rcd13ifvqhvg","pricing_plan_id":"cebpf4jnsgd1na2vs0mg"},{"bike_id":"89aa9320-e671-45f6-8b3e-0d673563b4d9","system_id":"levelo_inurba_marseille","lat":43.25587,"lon":5.38216,"is_reserved":false,"is_disabled":false,"rental_uris":{"android":"levelo://app?vid=89aa9320-e671-45f6-8b3e-0d673563b4d9","ios":"levelo://app?vid=89aa9320-e671-45f6-8b3e-0d673563b4d9"},"vehicle_type_id":"4","last_reported":1730286464,"current_range_meters":32400,"station_id":"ce4bhih2rcd13ifvqfs0","pricing_plan_id":"cebpf4jnsgd1na2vs0mg"},{"bike_id":"c6b8984c-4dca-4296-9a56-9a3d0a2c06e8","system_id":"levelo_inurba_marseille","lat":43.2656,"lon":5.37282,"is_reserved":false,"is_disabled":false,"rental_uris":{"android":"levelo://app?vid=c6b8984c-4dca-4296-9a56-9a3d0a2c06e8","ios":"levelo://app?vid=c6b8984c-4dca-4296-9a56-9a3d0a2c06e8"},"vehicle_type_id":"4","last_reported":1730286464,"current_range_meters":14800,"station_id":"ce4bhg12rcd13ifvqf70","pricing_plan_id":"cebpf4jnsgd1na2vs0mg"},{"bike_id":"f6572077-93fc-435f-9911-97eaf2c82e29","system_id":"levelo_inurba_marseille","lat":43.296077,"lon":5.377223,"is_reserved":false,"is_disabled":false,"rental_uris":{"android":"levelo://app?vid=f6572077-93fc-435f-9911-97eaf2c82e29","ios":"levelo://app?vid=f6572077-93fc-435f-9911-97eaf2c82e29"},"vehicle_type_id":"4","last_reported":1730286464,"current_range_meters":39200,"station_id":"ce4bgi92rcd13ifvqb90","pricing_plan_id":"cebpf4jnsgd1na2vs0mg"},{"bike_id":"caf349c8-ed3b-4304-909b-160d602b00a5","system_id":"levelo_inurba_marseille","lat":43.317,"lon":5.37749,"is_reserved":false,"is_disabled":false,"rental_uris":{"android":"levelo://app?vid=caf349c8-ed3b-4304-909b-160d602b00a5","ios":"levelo://app?vid=caf349c8-ed3b-4304-909b-160d602b00a5"},"vehicle_type_id":"4","last_reported":1730286464,"current_range_meters":18000,"station_id":"ce4bgth2rcd13ifvqch0","pricing_plan_id":"cebpf4jnsgd1na2vs0mg"},{"bike_id":"74df42bc-22c9-4384-8bbc-4904bc13c3d1","system_id":"levelo_inurba_marseille","lat":43.31464,"lon":5.37383,"is_reserved":false,"is_disabled":false,"rental_uris":{"android":"levelo://app?vid=74df42bc-22c9-4384-8bbc-4904bc13c3d1","ios":"levelo://app?vid=74df42bc-22c9-4384-8bbc-4904bc13c3d1"},"vehicle_type_id":"4","last_reported":1730286464,"current_range_meters":33200,"station_id":"","pricing_plan_id":"cebpf4jnsgd1na2vs0mg"},{"bike_id":"8d1620e7-e5ab-4df0-827f-1b7a5189e865","system_id":"levelo_inurba_marseille","lat":43.28002,"lon":5.40014,"is_reserved":false,"is_disabled":false,"rental_uris":{"android":"levelo://app?vid=8d1620e7-e5ab-4df0-827f-1b7a5189e865","ios":"levelo://app?vid=8d1620e7-e5ab-4df0-827f-1b7a5189e865"},"vehicle_type_id":"4","last_reported":1730286464,"current_range_meters":38000,"station_id":"ce4bho92rcd13ifvqh4g","pricing_plan_id":"cebpf4jnsgd1na2vs0mg"},{"bike_id":"82a16fa2-3542-4820-b609-018ed6790cc4","system_id":"levelo_inurba_marseille","lat":43.25588,"lon":5.38234,"is_reserved":false,"is_disabled":false,"rental_uris":{"android":"levelo://app?vid=82a16fa2-3542-4820-b609-018ed6790cc4","ios":"levelo://app?vid=82a16fa2-3542-4820-b609-018ed6790cc4"},"vehicle_type_id":"4","last_reported":1730286464,"current_range_meters":34800,"station_id":"ce4bhih2rcd13ifvqfs0","pricing_plan_id":"cebpf4jnsgd1na2vs0mg"},{"bike_id":"dd165a69-5b48-419c-b74f-cc9a877f7dcc","system_id":"levelo_inurba_marseille","lat":43.313177,"lon":5.371424,"is_reserved":false,"is_disabled":false,"rental_uris":{"android":"levelo://app?vid=dd165a69-5b48-419c-b74f-cc9a877f7dcc","ios":"levelo://app?vid=dd165a69-5b48-419c-b74f-cc9a877f7dcc"},"vehicle_type_id":"4","last_reported":1730286464,"current_range_meters":33600,"station_id":"ce4bgt12rcd13ifvqcd0","pricing_plan_id":"cebpf4jnsgd1na2vs0mg"},{"bike_id":"83e8370a-0578-402b-b179-be4cd80c393d","system_id":"levelo_inurba_marseille","lat":43.31377,"lon":5.38492,"is_reserved":false,"is_disabled":false,"rental_uris":{"android":"levelo://app?vid=83e8370a-0578-402b-b179-be4cd80c393d","ios":"levelo://app?vid=83e8370a-0578-402b-b179-be4cd80c393d"},"vehicle_type_id":"4","last_reported":1730286464,"current_range_meters":35600,"station_id":"ce4bgt92rcd13ifvqcf0","pricing_plan_id":"cebpf4jnsgd1na2vs0mg"},{"bike_id":"745d30f1-b6be-4e1a-83a3-fef9196720fa","system_id":"levelo_inurba_marseille","lat":43.304199,"lon":5.381144,"is_reserved":false,"is_disabled":false,"rental_uris":{"android":"levelo://app?vid=745d30f1-b6be-4e1a-83a3-fef9196720fa","ios":"levelo://app?vid=745d30f1-b6be-4e1a-83a3-fef9196720fa"},"vehicle_type_id":"4","last_reported":1730286464,"current_range_meters":33200,"station_id":"ce4bgi92rcd13ifvqb90","pricing_plan_id":"cebpf4jnsgd1na2vs0mg"},{"bike_id":"caf36e4d-6aae-46a9-b322-2924c3931910","system_id":"levelo_inurba_marseille","lat":43.27177,"lon":5.40997,"is_reserved":false,"is_disabled":false,"rental_uris":{"android":"levelo://app?vid=caf36e4d-6aae-46a9-b322-2924c3931910","ios":"levelo://app?vid=caf36e4d-6aae-46a9-b322-2924c3931910"},"vehicle_type_id":"4","last_reported":1730286464,"current_range_meters":23200,"station_id":"ce4bhl12rcd13ifvqgf0","pricing_plan_id":"cebpf4jnsgd1na2vs0mg"},{"bike_id":"c2ca085f-b204-4824-8fac-269bf8983484","system_id":"levelo_inurba_marseille","lat":43.27613,"lon":5.3611,"is_reserved":false,"is_disabled":false,"rental_uris":{"android":"levelo://app?vid=c2ca085f-b204-4824-8fac-269bf8983484","ios":"levelo://app?vid=c2ca085f-b204-4824-8fac-269bf8983484"},"vehicle_type_id":"4","last_reported":1730286464,"current_range_meters":33600,"station_id":"ce4bgj92rcd13ifvqbe0","pricing_plan_id":"cebpf4jnsgd1na2vs0mg"},{"bike_id":"b716834f-53c4-426a-ae7f-a08629dee012","system_id":"levelo_inurba_marseille","lat":43.23059,"lon":5.35494,"is_reserved":false,"is_disabled":false,"rental_uris":{"android":"levelo://app?vid=b716834f-53c4-426a-ae7f-a08629dee012","ios":"levelo://app?vid=b716834f-53c4-426a-ae7f-a08629dee012"},"vehicle_type_id":"4","last_reported":1730286464,"current_range_meters":20000,"station_id":"cpo3342slgdg3j2ifvpg","pricing_plan_id":"cebpf4jnsgd1na2vs0mg"},{"bike_id":"34630d18-75dd-4aec-9bb1-0ce7aab0afdf","system_id":"levelo_inurba_marseille","lat":43.24663,"lon":5.38163,"is_reserved":false,"is_disabled":false,"rental_uris":{"android":"levelo://app?vid=34630d18-75dd-4aec-9bb1-0ce7aab0afdf","ios":"levelo://app?vid=34630d18-75dd-4aec-9bb1-0ce7aab0afdf"},"vehicle_type_id":"4","last_reported":1730286464,"current_range_meters":38800,"station_id":"ce4bhih2rcd13ifvqfr0","pricing_plan_id":"cebpf4jnsgd1na2vs0mg"},{"bike_id":"fca70fb1-2c2b-46bb-a35c-c4971041e2df","system_id":"levelo_inurba_marseille","lat":43.2319,"lon":5.39976,"is_reserved":false,"is_disabled":false,"rental_uris":{"android":"levelo://app?vid=fca70fb1-2c2b-46bb-a35c-c4971041e2df","ios":"levelo://app?vid=fca70fb1-2c2b-46bb-a35c-c4971041e2df"},"vehicle_type_id":"4","last_reported":1730286464,"current_range_meters":21600,"station_id":"ce4bhn12rcd13ifvqgqg","pricing_plan_id":"cebpf4jnsgd1na2vs0mg"},{"bike_id":"94ddc1d2-b94e-412d-840b-da90f0ce712c","system_id":"levelo_inurba_marseille","lat":43.30535,"lon":5.36522,"is_reserved":false,"is_disabled":false,"rental_uris":{"android":"levelo://app?vid=94ddc1d2-b94e-412d-840b-da90f0ce712c","ios":"levelo://app?vid=94ddc1d2-b94e-412d-840b-da90f0ce712c"},"vehicle_type_id":"4","last_reported":1730286464,"current_range_meters":39200,"station_id":"ce4bgs12rcd13ifvqcag","pricing_plan_id":"cebpf4jnsgd1na2vs0mg"},{"bike_id":"c5ab8f86-3c93-447c-b767-f885bdebd2ff","system_id":"levelo_inurba_marseille","lat":43.27071,"lon":5.42276,"is_reserved":false,"is_disabled":false,"rental_uris":{"android":"levelo://app?vid=c5ab8f86-3c93-447c-b767-f885bdebd2ff","ios":"levelo://app?vid=c5ab8f86-3c93-447c-b767-f885bdebd2ff"},"vehicle_type_id":"4","last_reported":1730286464,"current_range_meters":39200,"station_id":"ce4bhk92rcd13ifvqgb0","pricing_plan_id":"cebpf4jnsgd1na2vs0mg"},{"bike_id":"70bb78fe-4bef-4d56-a833-affc0bdfc9f3","system_id":"levelo_inurba_marseille","lat":43.23202,"lon":5.35558,"is_reserved":false,"is_disabled":false,"rental_uris":{"android":"levelo://app?vid=70bb78fe-4bef-4d56-a833-affc0bdfc9f3","ios":"levelo://app?vid=70bb78fe-4bef-4d56-a833-affc0bdfc9f3"},"vehicle_type_id":"4","last_reported":1730286464,"current_range_meters":37600,"station_id":"ce4bhu92rcd13ifvqi70","pricing_plan_id":"cebpf4jnsgd1na2vs0mg"},{"bike_id":"71e63771-7f8f-4359-9c17-bb1c07499de8","system_id":"levelo_inurba_marseille","lat":43.287231,"lon":5.379312,"is_reserved":false,"is_disabled":false,"rental_uris":{"android":"levelo://app?vid=71e63771-7f8f-4359-9c17-bb1c07499de8","ios":"levelo://app?vid=71e63771-7f8f-4359-9c17-bb1c07499de8"},"vehicle_type_id":"4","last_reported":1730286464,"current_range_meters":27600,"station_id":"ce4bh9p2rcd13ifvqec0","pricing_plan_id":"cebpf4jnsgd1na2vs0mg"},{"bike_id":"e3cc769d-46d1-4b4e-873f-f54b7b625ef7","system_id":"levelo_inurba_marseille","lat":43.28443,"lon":5.39206,"is_reserved":false,"is_disabled":false,"rental_uris":{"android":"levelo://app?vid=e3cc769d-46d1-4b4e-873f-f54b7b625ef7","ios":"levelo://app?vid=e3cc769d-46d1-4b4e-873f-f54b7b625ef7"},"vehicle_type_id":"4","last_reported":1730286464,"current_range_meters":36400,"station_id":"ce4bhoh2rcd13ifvqh5g","pricing_plan_id":"cebpf4jnsgd1na2vs0mg"},{"bike_id":"9c4e8573-fe6e-4614-b7af-9a36717ed9b9","system_id":"levelo_inurba_marseille","lat":43.27917,"lon":5.39582,"is_reserved":false,"is_disabled":false,"rental_uris":{"android":"levelo://app?vid=9c4e8573-fe6e-4614-b7af-9a36717ed9b9","ios":"levelo://app?vid=9c4e8573-fe6e-4614-b7af-9a36717ed9b9"},"vehicle_type_id":"4","last_reported":1730286464,"current_range_meters":22800,"station_id":"ce4bhf92rcd13ifvqf40","pricing_plan_id":"cebpf4jnsgd1na2vs0mg"},{"bike_id":"5c244c3d-8fd7-4c95-b825-2f7fe2f15994","system_id":"levelo_inurba_marseille","lat":43.23206,"lon":5.35552,"is_reserved":false,"is_disabled":false,"rental_uris":{"android":"levelo://app?vid=5c244c3d-8fd7-4c95-b825-2f7fe2f15994","ios":"levelo://app?vid=5c244c3d-8fd7-4c95-b825-2f7fe2f15994"},"vehicle_type_id":"4","last_reported":1730286464,"current_range_meters":39200,"station_id":"ce4bhu92rcd13ifvqi70","pricing_plan_id":"cebpf4jnsgd1na2vs0mg"},{"bike_id":"be6afad7-a581-477d-ad64-38e62933f67b","system_id":"levelo_inurba_marseille","lat":43.29572,"lon":5.39956,"is_reserved":false,"is_disabled":false,"rental_uris":{"android":"levelo://app?vid=be6afad7-a581-477d-ad64-38e62933f67b","ios":"levelo://app?vid=be6afad7-a581-477d-ad64-38e62933f67b"},"vehicle_type_id":"4","last_reported":1730286464,"current_range_meters":34000,"station_id":"ce4bh312rcd13ifvqdj0","pricing_plan_id":"cebpf4jnsgd1na2vs0mg"},{"bike_id":"3e0948da-6f39-4582-8f72-c4da8f8b1667","system_id":"levelo_inurba_marseille","lat":43.28339,"lon":5.38105,"is_reserved":false,"is_disabled":false,"rental_uris":{"android":"levelo://app?vid=3e0948da-6f39-4582-8f72-c4da8f8b1667","ios":"levelo://app?vid=3e0948da-6f39-4582-8f72-c4da8f8b1667"},"vehicle_type_id":"4","last_reported":1730286464,"current_range_meters":9200,"station_id":"ce4bh412rcd13ifvqdr0","pricing_plan_id":"cebpf4jnsgd1na2vs0mg"},{"bike_id":"5efd5148-f738-4c82-8164-c1739863b28d","system_id":"levelo_inurba_marseille","lat":43.26941,"lon":5.40241,"is_reserved":false,"is_disabled":false,"rental_uris":{"android":"levelo://app?vid=5efd5148-f738-4c82-8164-c1739863b28d","ios":"levelo://app?vid=5efd5148-f738-4c82-8164-c1739863b28d"},"vehicle_type_id":"4","last_reported":1730286464,"current_range_meters":16000,"station_id":"cjm6bp8fraef2m0cb0m0","pricing_plan_id":"cebpf4jnsgd1na2vs0mg"},{"bike_id":"4a1235b1-bb61-4daf-9457-66a37b2298fb","system_id":"levelo_inurba_marseille","lat":43.30538,"lon":5.36554,"is_reserved":false,"is_disabled":false,"rental_uris":{"android":"levelo://app?vid=4a1235b1-bb61-4daf-9457-66a37b2298fb","ios":"levelo://app?vid=4a1235b1-bb61-4daf-9457-66a37b2298fb"},"vehicle_type_id":"4","last_reported":1730286464,"current_range_meters":25200,"station_id":"ce4bh492rcd13ifvqdug","pricing_plan_id":"cebpf4jnsgd1na2vs0mg"},{"bike_id":"5b1bc621-d31c-4d57-8fd4-6a0e83b3abf9","system_id":"levelo_inurba_marseille","lat":43.25116,"lon":5.4032,"is_reserved":false,"is_disabled":false,"rental_uris":{"android":"levelo://app?vid=5b1bc621-d31c-4d57-8fd4-6a0e83b3abf9","ios":"levelo://app?vid=5b1bc621-d31c-4d57-8fd4-6a0e83b3abf9"},"vehicle_type_id":"4","last_reported":1730286464,"current_range_meters":8800,"station_id":"ce4bhlh2rcd13ifvqgig","pricing_plan_id":"cebpf4jnsgd1na2vs0mg"},{"bike_id":"c6472a4b-15fb-475c-a800-9db188055ce2","system_id":"levelo_inurba_marseille","lat":43.25827,"lon":5.39427,"is_reserved":false,"is_disabled":false,"rental_uris":{"android":"levelo://app?vid=c6472a4b-15fb-475c-a800-9db188055ce2","ios":"levelo://app?vid=c6472a4b-15fb-475c-a800-9db188055ce2"},"vehicle_type_id":"4","last_reported":1730286464,"current_range_meters":12800,"station_id":"ce4bhip2rcd13ifvqft0","pricing_plan_id":"cebpf4jnsgd1na2vs0mg"},{"bike_id":"d03916c0-c18b-46e1-b784-1fb7ad97936b","system_id":"levelo_inurba_marseille","lat":43.296814,"lon":5.372219,"is_reserved":false,"is_disabled":false,"rental_uris":{"android":"levelo://app?vid=d03916c0-c18b-46e1-b784-1fb7ad97936b","ios":"levelo://app?vid=d03916c0-c18b-46e1-b784-1fb7ad97936b"},"vehicle_type_id":"4","last_reported":1730286464,"current_range_meters":9200,"station_id":"ce4bgk12rcd13ifvqbj0","pricing_plan_id":"cebpf4jnsgd1na2vs0mg"},{"bike_id":"56dc04b7-06b7-4e88-ac29-730a7abdd49b","system_id":"levelo_inurba_marseille","lat":43.31372,"lon":5.38492,"is_reserved":false,"is_disabled":false,"rental_uris":{"android":"levelo://app?vid=56dc04b7-06b7-4e88-ac29-730a7abdd49b","ios":"levelo://app?vid=56dc04b7-06b7-4e88-ac29-730a7abdd49b"},"vehicle_type_id":"4","last_reported":1730286464,"current_range_meters":38800,"station_id":"ce4bgt92rcd13ifvqcf0","pricing_plan_id":"cebpf4jnsgd1na2vs0mg"},{"bike_id":"92adf987-4779-4b78-ad9c-8e29ab9175f3","system_id":"levelo_inurba_marseille","lat":43.23197,"lon":5.35554,"is_reserved":false,"is_disabled":false,"rental_uris":{"android":"levelo://app?vid=92adf987-4779-4b78-ad9c-8e29ab9175f3","ios":"levelo://app?vid=92adf987-4779-4b78-ad9c-8e29ab9175f3"},"vehicle_type_id":"4","last_reported":1730286464,"current_range_meters":12800,"station_id":"ce4bhu92rcd13ifvqi70","pricing_plan_id":"cebpf4jnsgd1na2vs0mg"},{"bike_id":"fcdefb32-7ad9-41ee-82ce-0512d087f8dc","system_id":"levelo_inurba_marseille","lat":43.31776,"lon":5.39009,"is_reserved":false,"is_disabled":false,"rental_uris":{"android":"levelo://app?vid=fcdefb32-7ad9-41ee-82ce-0512d087f8dc","ios":"levelo://app?vid=fcdefb32-7ad9-41ee-82ce-0512d087f8dc"},"vehicle_type_id":"4","last_reported":1730286464,"current_range_meters":38400,"station_id":"ce4bhqp2rcd13ifvqhng","pricing_plan_id":"cebpf4jnsgd1na2vs0mg"},{"bike_id":"bf6f39e3-218c-41b9-9e94-1a8f2bb4fc1d","system_id":"levelo_inurba_marseille","lat":43.27622,"lon":5.36112,"is_reserved":false,"is_disabled":false,"rental_uris":{"android":"levelo://app?vid=bf6f39e3-218c-41b9-9e94-1a8f2bb4fc1d","ios":"levelo://app?vid=bf6f39e3-218c-41b9-9e94-1a8f2bb4fc1d"},"vehicle_type_id":"4","last_reported":1730286464,"current_range_meters":36000,"station_id":"ce4bgj92rcd13ifvqbe0","pricing_plan_id":"cebpf4jnsgd1na2vs0mg"},{"bike_id":"269a4193-03a6-4fe1-93c0-2b8610ca1e7f","system_id":"levelo_inurba_marseille","lat":43.24393,"lon":5.37054,"is_reserved":false,"is_disabled":false,"rental_uris":{"android":"levelo://app?vid=269a4193-03a6-4fe1-93c0-2b8610ca1e7f","ios":"levelo://app?vid=269a4193-03a6-4fe1-93c0-2b8610ca1e7f"},"vehicle_type_id":"4","last_reported":1730286464,"current_range_meters":18000,"station_id":"ce4bhhh2rcd13ifvqfk0","pricing_plan_id":"cebpf4jnsgd1na2vs0mg"},{"bike_id":"3928d2b2-5322-4bfc-935c-f02931565366","system_id":"levelo_inurba_marseille","lat":43.27992,"lon":5.41649,"is_reserved":false,"is_disabled":false,"rental_uris":{"android":"levelo://app?vid=3928d2b2-5322-4bfc-935c-f02931565366","ios":"levelo://app?vid=3928d2b2-5322-4bfc-935c-f02931565366"},"vehicle_type_id":"4","last_reported":1730286464,"current_range_meters":10800,"station_id":"ce4bho12rcd13ifvqh1g","pricing_plan_id":"cebpf4jnsgd1na2vs0mg"},{"bike_id":"48006ff9-0d9a-4c0a-984e-0769fc1900b6","system_id":"levelo_inurba_marseille","lat":43.30424,"lon":5.38875,"is_reserved":false,"is_disabled":false,"rental_uris":{"android":"levelo://app?vid=48006ff9-0d9a-4c0a-984e-0769fc1900b6","ios":"levelo://app?vid=48006ff9-0d9a-4c0a-984e-0769fc1900b6"},"vehicle_type_id":"4","last_reported":1730286464,"current_range_meters":38800,"station_id":"ce4bgk12rcd13ifvqbi0","pricing_plan_id":"cebpf4jnsgd1na2vs0mg"},{"bike_id":"87d4cda7-2b7e-47cf-854a-98224e62b405","system_id":"levelo_inurba_marseille","lat":43.312232,"lon":5.368564,"is_reserved":false,"is_disabled":false,"rental_uris":{"android":"levelo://app?vid=87d4cda7-2b7e-47cf-854a-98224e62b405","ios":"levelo://app?vid=87d4cda7-2b7e-47cf-854a-98224e62b405"},"vehicle_type_id":"4","last_reported":1730286464,"current_range_meters":39200,"station_id":"ce4bgl92rcd13ifvqbq0","pricing_plan_id":"cebpf4jnsgd1na2vs0mg"},{"bike_id":"cc855eba-35d1-4e86-a06b-48f4f48e424a","system_id":"levelo_inurba_marseille","lat":43.27988,"lon":5.41658,"is_reserved":false,"is_disabled":false,"rental_uris":{"android":"levelo://app?vid=cc855eba-35d1-4e86-a06b-48f4f48e424a","ios":"levelo://app?vid=cc855eba-35d1-4e86-a06b-48f4f48e424a"},"vehicle_type_id":"4","last_reported":1730286464,"current_range_meters":30800,"station_id":"ce4bho12rcd13ifvqh1g","pricing_plan_id":"cebpf4jnsgd1na2vs0mg"},{"bike_id":"d7012743-7323-4d36-a6a0-94c8a1e5fc2c","system_id":"levelo_inurba_marseille","lat":43.28421,"lon":5.34981,"is_reserved":false,"is_disabled":false,"rental_uris":{"android":"levelo://app?vid=d7012743-7323-4d36-a6a0-94c8a1e5fc2c","ios":"levelo://app?vid=d7012743-7323-4d36-a6a0-94c8a1e5fc2c"},"vehicle_type_id":"4","last_reported":1730286464,"current_range_meters":28800,"station_id":"ce4bhbh2rcd13ifvqepg","pricing_plan_id":"cebpf4jnsgd1na2vs0mg"},{"bike_id":"e86fb38e-1e6b-4ff6-a66b-b9ff93ed1621","system_id":"levelo_inurba_marseille","lat":43.30435,"lon":5.38884,"is_reserved":false,"is_disabled":false,"rental_uris":{"android":"levelo://app?vid=e86fb38e-1e6b-4ff6-a66b-b9ff93ed1621","ios":"levelo://app?vid=e86fb38e-1e6b-4ff6-a66b-b9ff93ed1621"},"vehicle_type_id":"4","last_reported":1730286464,"current_range_meters":38800,"station_id":"ce4bgk12rcd13ifvqbi0","pricing_plan_id":"cebpf4jnsgd1na2vs0mg"},{"bike_id":"a9cb9816-4291-465d-8bba-6d7e7f9731d6","system_id":"levelo_inurba_marseille","lat":43.26793,"lon":5.39408,"is_reserved":false,"is_disabled":false,"rental_uris":{"android":"levelo://app?vid=a9cb9816-4291-465d-8bba-6d7e7f9731d6","ios":"levelo://app?vid=a9cb9816-4291-465d-8bba-6d7e7f9731d6"},"vehicle_type_id":"4","last_reported":1730286464,"current_range_meters":28400,"station_id":"ce4bhh12rcd13ifvqfg0","pricing_plan_id":"cebpf4jnsgd1na2vs0mg"},{"bike_id":"defdda9f-a11b-4b2f-8fc8-580691ee0a13","system_id":"levelo_inurba_marseille","lat":43.30545,"lon":5.36526,"is_reserved":false,"is_disabled":false,"rental_uris":{"android":"levelo://app?vid=defdda9f-a11b-4b2f-8fc8-580691ee0a13","ios":"levelo://app?vid=defdda9f-a11b-4b2f-8fc8-580691ee0a13"},"vehicle_type_id":"4","last_reported":1730286464,"current_range_meters":38800,"station_id":"ce4bgs12rcd13ifvqcag","pricing_plan_id":"cebpf4jnsgd1na2vs0mg"},{"bike_id":"c1b9fa0c-e0b0-4d90-965f-49343b4b8c16","system_id":"levelo_inurba_marseille","lat":43.31229,"lon":5.36851,"is_reserved":false,"is_disabled":false,"rental_uris":{"android":"levelo://app?vid=c1b9fa0c-e0b0-4d90-965f-49343b4b8c16","ios":"levelo://app?vid=c1b9fa0c-e0b0-4d90-965f-49343b4b8c16"},"vehicle_type_id":"4","last_reported":1730286464,"current_range_meters":39200,"station_id":"ce4bgl92rcd13ifvqbq0","pricing_plan_id":"cebpf4jnsgd1na2vs0mg"},{"bike_id":"92b1fee1-36c3-45ad-8fd9-216ac48d3c8b","system_id":"levelo_inurba_marseille","lat":43.32546,"lon":5.41449,"is_reserved":false,"is_disabled":false,"rental_uris":{"android":"levelo://app?vid=92b1fee1-36c3-45ad-8fd9-216ac48d3c8b","ios":"levelo://app?vid=92b1fee1-36c3-45ad-8fd9-216ac48d3c8b"},"vehicle_type_id":"4","last_reported":1730286464,"current_range_meters":18000,"station_id":"ce4bhq12rcd13ifvqhhg","pricing_plan_id":"cebpf4jnsgd1na2vs0mg"},{"bike_id":"38b8d321-8fd9-4111-be22-688ce65298c2","system_id":"levelo_inurba_marseille","lat":43.26581,"lon":5.39022,"is_reserved":false,"is_disabled":false,"rental_uris":{"android":"levelo://app?vid=38b8d321-8fd9-4111-be22-688ce65298c2","ios":"levelo://app?vid=38b8d321-8fd9-4111-be22-688ce65298c2"},"vehicle_type_id":"4","last_reported":1730286464,"current_range_meters":26000,"station_id":"ce4bhe12rcd13ifvqf30","pricing_plan_id":"cebpf4jnsgd1na2vs0mg"},{"bike_id":"2370a04e-d358-4a29-b67a-890bf50b34fd","system_id":"levelo_inurba_marseille","lat":43.24176,"lon":5.36394,"is_reserved":false,"is_disabled":false,"rental_uris":{"android":"levelo://app?vid=2370a04e-d358-4a29-b67a-890bf50b34fd","ios":"levelo://app?vid=2370a04e-d358-4a29-b67a-890bf50b34fd"},"vehicle_type_id":"4","last_reported":1730286464,"current_range_meters":7200,"station_id":"cpo36qri1sfpv3e86is0","pricing_plan_id":"cebpf4jnsgd1na2vs0mg"},{"bike_id":"fa5c07d4-c5e1-4556-9bd8-5e1b9e05ed3c","system_id":"levelo_inurba_marseille","lat":43.27076,"lon":5.4228,"is_reserved":false,"is_disabled":false,"rental_uris":{"android":"levelo://app?vid=fa5c07d4-c5e1-4556-9bd8-5e1b9e05ed3c","ios":"levelo://app?vid=fa5c07d4-c5e1-4556-9bd8-5e1b9e05ed3c"},"vehicle_type_id":"4","last_reported":1730286464,"current_range_meters":35600,"station_id":"ce4bhk92rcd13ifvqgb0","pricing_plan_id":"cebpf4jnsgd1na2vs0mg"},{"bike_id":"600389c4-29fc-42ba-8b4d-4f9279be7602","system_id":"levelo_inurba_marseille","lat":43.29172,"lon":5.37165,"is_reserved":false,"is_disabled":false,"rental_uris":{"android":"levelo://app?vid=600389c4-29fc-42ba-8b4d-4f9279be7602","ios":"levelo://app?vid=600389c4-29fc-42ba-8b4d-4f9279be7602"},"vehicle_type_id":"4","last_reported":1730286464,"current_range_meters":39200,"station_id":"ce4bha92rcd13ifvqeh0","pricing_plan_id":"cebpf4jnsgd1na2vs0mg"},{"bike_id":"767555bf-3af2-492a-8c45-114526287e8f","system_id":"levelo_inurba_marseille","lat":43.30542,"lon":5.36536,"is_reserved":false,"is_disabled":false,"rental_uris":{"android":"levelo://app?vid=767555bf-3af2-492a-8c45-114526287e8f","ios":"levelo://app?vid=767555bf-3af2-492a-8c45-114526287e8f"},"vehicle_type_id":"4","last_reported":1730286464,"current_range_meters":34800,"station_id":"ce4bgs12rcd13ifvqcag","pricing_plan_id":"cebpf4jnsgd1na2vs0mg"},{"bike_id":"538c6c97-8738-4e40-afde-1ced2fc6b778","system_id":"levelo_inurba_marseille","lat":43.33726,"lon":5.391784,"is_reserved":false,"is_disabled":false,"rental_uris":{"android":"levelo://app?vid=538c6c97-8738-4e40-afde-1ced2fc6b778","ios":"levelo://app?vid=538c6c97-8738-4e40-afde-1ced2fc6b778"},"vehicle_type_id":"4","last_reported":1730286464,"current_range_meters":36800,"station_id":"ce4bhr92rcd13ifvqhsg","pricing_plan_id":"cebpf4jnsgd1na2vs0mg"},{"bike_id":"be7afb61-27ce-4e68-9aaf-922ad079a50b","system_id":"levelo_inurba_marseille","lat":43.29102,"lon":5.38136,"is_reserved":false,"is_disabled":false,"rental_uris":{"android":"levelo://app?vid=be7afb61-27ce-4e68-9aaf-922ad079a50b","ios":"levelo://app?vid=be7afb61-27ce-4e68-9aaf-922ad079a50b"},"vehicle_type_id":"4","last_reported":1730286464,"current_range_meters":33200,"station_id":"ce4bh512rcd13ifvqe2g","pricing_plan_id":"cebpf4jnsgd1na2vs0mg"},{"bike_id":"ba9f94e2-ba1b-4b8f-b7f1-62670c392268","system_id":"levelo_inurba_marseille","lat":43.29314,"lon":5.37166,"is_reserved":false,"is_disabled":false,"rental_uris":{"android":"levelo://app?vid=ba9f94e2-ba1b-4b8f-b7f1-62670c392268","ios":"levelo://app?vid=ba9f94e2-ba1b-4b8f-b7f1-62670c392268"},"vehicle_type_id":"4","last_reported":1730286464,"current_range_meters":10000,"station_id":"ce4bgh92rcd13ifvqb40","pricing_plan_id":"cebpf4jnsgd1na2vs0mg"},{"bike_id":"03e26363-1adc-494c-8098-91070571fba5","system_id":"levelo_inurba_marseille","lat":43.23202,"lon":5.35546,"is_reserved":false,"is_disabled":false,"rental_uris":{"android":"levelo://app?vid=03e26363-1adc-494c-8098-91070571fba5","ios":"levelo://app?vid=03e26363-1adc-494c-8098-91070571fba5"},"vehicle_type_id":"4","last_reported":1730286464,"current_range_meters":30800,"station_id":"ce4bhu92rcd13ifvqi70","pricing_plan_id":"cebpf4jnsgd1na2vs0mg"},{"bike_id":"c497513d-9d1d-4320-a1e3-875a8b21d4c5","system_id":"levelo_inurba_marseille","lat":43.27173,"lon":5.41001,"is_reserved":false,"is_disabled":false,"rental_uris":{"android":"levelo://app?vid=c497513d-9d1d-4320-a1e3-875a8b21d4c5","ios":"levelo://app?vid=c497513d-9d1d-4320-a1e3-875a8b21d4c5"},"vehicle_type_id":"4","last_reported":1730286464,"current_range_meters":32800,"station_id":"ce4bhl12rcd13ifvqgf0","pricing_plan_id":"cebpf4jnsgd1na2vs0mg"},{"bike_id":"3f296890-19ce-46b6-884b-d2e34dba8783","system_id":"levelo_inurba_marseille","lat":43.24809,"lon":5.37453,"is_reserved":false,"is_disabled":false,"rental_uris":{"android":"levelo://app?vid=3f296890-19ce-46b6-884b-d2e34dba8783","ios":"levelo://app?vid=3f296890-19ce-46b6-884b-d2e34dba8783"},"vehicle_type_id":"4","last_reported":1730286464,"current_range_meters":37600,"station_id":"ce4bhgh2rcd13ifvqfb0","pricing_plan_id":"cebpf4jnsgd1na2vs0mg"},{"bike_id":"454b4309-2021-41e5-80f3-844d5245adae","system_id":"levelo_inurba_marseille","lat":43.25503,"lon":5.37648,"is_reserved":false,"is_disabled":false,"rental_uris":{"android":"levelo://app?vid=454b4309-2021-41e5-80f3-844d5245adae","ios":"levelo://app?vid=454b4309-2021-41e5-80f3-844d5245adae"},"vehicle_type_id":"4","last_reported":1730286464,"current_range_meters":18800,"station_id":"ce4bhh12rcd13ifvqff0","pricing_plan_id":"cebpf4jnsgd1na2vs0mg"},{"bike_id":"81e191dc-36a3-4dd3-a48a-138cae2d571f","system_id":"levelo_inurba_marseille","lat":43.23152,"lon":5.43708,"is_reserved":false,"is_disabled":false,"rental_uris":{"android":"levelo://app?vid=81e191dc-36a3-4dd3-a48a-138cae2d571f","ios":"levelo://app?vid=81e191dc-36a3-4dd3-a48a-138cae2d571f"},"vehicle_type_id":"4","last_reported":1730286464,"current_range_meters":38800,"station_id":"ce4bhmp2rcd13ifvqgog","pricing_plan_id":"cebpf4jnsgd1na2vs0mg"},{"bike_id":"e9141b44-30ab-459c-94b2-99dbe6b7a845","system_id":"levelo_inurba_marseille","lat":43.2955,"lon":5.42284,"is_reserved":false,"is_disabled":false,"rental_uris":{"android":"levelo://app?vid=e9141b44-30ab-459c-94b2-99dbe6b7a845","ios":"levelo://app?vid=e9141b44-30ab-459c-94b2-99dbe6b7a845"},"vehicle_type_id":"4","last_reported":1730286464,"current_range_meters":36400,"station_id":"ce4bhph2rcd13ifvqhdg","pricing_plan_id":"cebpf4jnsgd1na2vs0mg"},{"bike_id":"be4d4f41-b393-4640-b9f4-c766cc4df8b1","system_id":"levelo_inurba_marseille","lat":43.32541,"lon":5.41455,"is_reserved":false,"is_disabled":false,"rental_uris":{"android":"levelo://app?vid=be4d4f41-b393-4640-b9f4-c766cc4df8b1","ios":"levelo://app?vid=be4d4f41-b393-4640-b9f4-c766cc4df8b1"},"vehicle_type_id":"4","last_reported":1730286464,"current_range_meters":11200,"station_id":"ce4bhq12rcd13ifvqhhg","pricing_plan_id":"cebpf4jnsgd1na2vs0mg"},{"bike_id":"8fc8f69f-228e-4754-8013-e3713d197b92","system_id":"levelo_inurba_marseille","lat":43.24668,"lon":5.38155,"is_reserved":false,"is_disabled":false,"rental_uris":{"android":"levelo://app?vid=8fc8f69f-228e-4754-8013-e3713d197b92","ios":"levelo://app?vid=8fc8f69f-228e-4754-8013-e3713d197b92"},"vehicle_type_id":"4","last_reported":1730286464,"current_range_meters":38800,"station_id":"ce4bhih2rcd13ifvqfr0","pricing_plan_id":"cebpf4jnsgd1na2vs0mg"},{"bike_id":"bb2a7d96-9d28-4524-aeb4-a1488923c01a","system_id":"levelo_inurba_marseille","lat":43.30153,"lon":5.38099,"is_reserved":false,"is_disabled":false,"rental_uris":{"android":"levelo://app?vid=bb2a7d96-9d28-4524-aeb4-a1488923c01a","ios":"levelo://app?vid=bb2a7d96-9d28-4524-aeb4-a1488923c01a"},"vehicle_type_id":"4","last_reported":1730286464,"current_range_meters":38800,"station_id":"ce4bgjp2rcd13ifvqbh0","pricing_plan_id":"cebpf4jnsgd1na2vs0mg"},{"bike_id":"a306c469-7544-4489-af82-e9fb1e9b4215","system_id":"levelo_inurba_marseille","lat":43.23188,"lon":5.39976,"is_reserved":false,"is_disabled":false,"rental_uris":{"android":"levelo://app?vid=a306c469-7544-4489-af82-e9fb1e9b4215","ios":"levelo://app?vid=a306c469-7544-4489-af82-e9fb1e9b4215"},"vehicle_type_id":"4","last_reported":1730286464,"current_range_meters":38800,"station_id":"ce4bhn12rcd13ifvqgqg","pricing_plan_id":"cebpf4jnsgd1na2vs0mg"},{"bike_id":"51ce7708-6232-4849-9a5b-5d3f5a2437a6","system_id":"levelo_inurba_marseille","lat":43.289734,"lon":5.366243,"is_reserved":false,"is_disabled":false,"rental_uris":{"android":"levelo://app?vid=51ce7708-6232-4849-9a5b-5d3f5a2437a6","ios":"levelo://app?vid=51ce7708-6232-4849-9a5b-5d3f5a2437a6"},"vehicle_type_id":"4","last_reported":1730286464,"current_range_meters":29600,"station_id":"ce4bhap2rcd13ifvqek0","pricing_plan_id":"cebpf4jnsgd1na2vs0mg"},{"bike_id":"b72913b6-9d4a-45c6-9992-146504dc2537","system_id":"levelo_inurba_marseille","lat":43.31224,"lon":5.3684,"is_reserved":false,"is_disabled":false,"rental_uris":{"android":"levelo://app?vid=b72913b6-9d4a-45c6-9992-146504dc2537","ios":"levelo://app?vid=b72913b6-9d4a-45c6-9992-146504dc2537"},"vehicle_type_id":"4","last_reported":1730286464,"current_range_meters":28400,"station_id":"ce4bgl92rcd13ifvqbq0","pricing_plan_id":"cebpf4jnsgd1na2vs0mg"},{"bike_id":"1c8653b8-822d-4908-8cf4-86271b095a05","system_id":"levelo_inurba_marseille","lat":43.23149,"lon":5.437,"is_reserved":false,"is_disabled":false,"rental_uris":{"android":"levelo://app?vid=1c8653b8-822d-4908-8cf4-86271b095a05","ios":"levelo://app?vid=1c8653b8-822d-4908-8cf4-86271b095a05"},"vehicle_type_id":"4","last_reported":1730286464,"current_range_meters":38800,"station_id":"ce4bhmp2rcd13ifvqgog","pricing_plan_id":"cebpf4jnsgd1na2vs0mg"},{"bike_id":"28be2e90-3ac6-4686-ae54-ecfc500be0fc","system_id":"levelo_inurba_marseille","lat":43.24807,"lon":5.3745,"is_reserved":false,"is_disabled":false,"rental_uris":{"android":"levelo://app?vid=28be2e90-3ac6-4686-ae54-ecfc500be0fc","ios":"levelo://app?vid=28be2e90-3ac6-4686-ae54-ecfc500be0fc"},"vehicle_type_id":"4","last_reported":1730286464,"current_range_meters":39200,"station_id":"ce4bhgh2rcd13ifvqfb0","pricing_plan_id":"cebpf4jnsgd1na2vs0mg"},{"bike_id":"d8727bac-17ee-4f4a-ac67-5aef09323d56","system_id":"levelo_inurba_marseille","lat":43.313375,"lon":5.367257,"is_reserved":false,"is_disabled":false,"rental_uris":{"android":"levelo://app?vid=d8727bac-17ee-4f4a-ac67-5aef09323d56","ios":"levelo://app?vid=d8727bac-17ee-4f4a-ac67-5aef09323d56"},"vehicle_type_id":"4","last_reported":1730286464,"current_range_meters":4800,"station_id":"ce4bgr92rcd13ifvqc6g","pricing_plan_id":"cebpf4jnsgd1na2vs0mg"},{"bike_id":"829d8f5c-87a3-4c2a-92be-f2bab3fcdd57","system_id":"levelo_inurba_marseille","lat":43.292134,"lon":5.392266,"is_reserved":false,"is_disabled":false,"rental_uris":{"android":"levelo://app?vid=829d8f5c-87a3-4c2a-92be-f2bab3fcdd57","ios":"levelo://app?vid=829d8f5c-87a3-4c2a-92be-f2bab3fcdd57"},"vehicle_type_id":"4","last_reported":1730286464,"current_range_meters":20000,"station_id":"ce4bh192rcd13ifvqdc0","pricing_plan_id":"cebpf4jnsgd1na2vs0mg"},{"bike_id":"6dee3266-0755-4265-be10-4381ef02751e","system_id":"levelo_inurba_marseille","lat":43.337444,"lon":5.374475,"is_reserved":false,"is_disabled":false,"rental_uris":{"android":"levelo://app?vid=6dee3266-0755-4265-be10-4381ef02751e","ios":"levelo://app?vid=6dee3266-0755-4265-be10-4381ef02751e"},"vehicle_type_id":"4","last_reported":1730286464,"current_range_meters":39200,"station_id":"ce4bgr92rcd13ifvqc6g","pricing_plan_id":"cebpf4jnsgd1na2vs0mg"},{"bike_id":"ba131206-8f98-4bcf-a0d2-5799b4b8f3ac","system_id":"levelo_inurba_marseille","lat":43.23158,"lon":5.437,"is_reserved":false,"is_disabled":false,"rental_uris":{"android":"levelo://app?vid=ba131206-8f98-4bcf-a0d2-5799b4b8f3ac","ios":"levelo://app?vid=ba131206-8f98-4bcf-a0d2-5799b4b8f3ac"},"vehicle_type_id":"4","last_reported":1730286464,"current_range_meters":18800,"station_id":"ce4bhmp2rcd13ifvqgog","pricing_plan_id":"cebpf4jnsgd1na2vs0mg"},{"bike_id":"f87d0bf8-2422-4893-ad7f-055d32c4368f","system_id":"levelo_inurba_marseille","lat":43.25576,"lon":5.38234,"is_reserved":false,"is_disabled":false,"rental_uris":{"android":"levelo://app?vid=f87d0bf8-2422-4893-ad7f-055d32c4368f","ios":"levelo://app?vid=f87d0bf8-2422-4893-ad7f-055d32c4368f"},"vehicle_type_id":"4","last_reported":1730286464,"current_range_meters":28400,"station_id":"ce4bh412rcd13ifvqds0","pricing_plan_id":"cebpf4jnsgd1na2vs0mg"},{"bike_id":"67c82576-6467-4908-923a-54ed28549ca5","system_id":"levelo_inurba_marseille","lat":43.32484,"lon":5.36553,"is_reserved":false,"is_disabled":false,"rental_uris":{"android":"levelo://app?vid=67c82576-6467-4908-923a-54ed28549ca5","ios":"levelo://app?vid=67c82576-6467-4908-923a-54ed28549ca5"},"vehicle_type_id":"4","last_reported":1730286464,"current_range_meters":38400,"station_id":"ce4bhs12rcd13ifvqhvg","pricing_plan_id":"cebpf4jnsgd1na2vs0mg"},{"bike_id":"936cc317-de1f-4987-bdce-fb8d77ce485e","system_id":"levelo_inurba_marseille","lat":43.30422,"lon":5.39758,"is_reserved":false,"is_disabled":false,"rental_uris":{"android":"levelo://app?vid=936cc317-de1f-4987-bdce-fb8d77ce485e","ios":"levelo://app?vid=936cc317-de1f-4987-bdce-fb8d77ce485e"},"vehicle_type_id":"4","last_reported":1730286464,"current_range_meters":16400,"station_id":"ce4bh092rcd13ifvqd20","pricing_plan_id":"cebpf4jnsgd1na2vs0mg"},{"bike_id":"5eba2c8e-aaff-41af-9181-494c30a08700","system_id":"levelo_inurba_marseille","lat":43.29875,"lon":5.39729,"is_reserved":false,"is_disabled":false,"rental_uris":{"android":"levelo://app?vid=5eba2c8e-aaff-41af-9181-494c30a08700","ios":"levelo://app?vid=5eba2c8e-aaff-41af-9181-494c30a08700"},"vehicle_type_id":"4","last_reported":1730286464,"current_range_meters":38800,"station_id":"ce4bh0h2rcd13ifvqd50","pricing_plan_id":"cebpf4jnsgd1na2vs0mg"},{"bike_id":"1a2a801e-4a88-461b-bdc4-c2998b90b7e4","system_id":"levelo_inurba_marseille","lat":43.3092,"lon":5.36842,"is_reserved":false,"is_disabled":false,"rental_uris":{"android":"levelo://app?vid=1a2a801e-4a88-461b-bdc4-c2998b90b7e4","ios":"levelo://app?vid=1a2a801e-4a88-461b-bdc4-c2998b90b7e4"},"vehicle_type_id":"4","last_reported":1730286464,"current_range_meters":37600,"station_id":"ce4bgn92rcd13ifvqbvg","pricing_plan_id":"cebpf4jnsgd1na2vs0mg"},{"bike_id":"54318b4d-2bd8-476e-86ff-b5b79fc04a8d","system_id":"levelo_inurba_marseille","lat":43.27948,"lon":5.41046,"is_reserved":false,"is_disabled":false,"rental_uris":{"android":"levelo://app?vid=54318b4d-2bd8-476e-86ff-b5b79fc04a8d","ios":"levelo://app?vid=54318b4d-2bd8-476e-86ff-b5b79fc04a8d"},"vehicle_type_id":"4","last_reported":1730286464,"current_range_meters":20800,"station_id":"ce4bhnp2rcd13ifvqh0g","pricing_plan_id":"cebpf4jnsgd1na2vs0mg"},{"bike_id":"d445c6a4-0f84-4b9c-af2f-2482b2939351","system_id":"levelo_inurba_marseille","lat":43.24075,"lon":5.37755,"is_reserved":false,"is_disabled":false,"rental_uris":{"android":"levelo://app?vid=d445c6a4-0f84-4b9c-af2f-2482b2939351","ios":"levelo://app?vid=d445c6a4-0f84-4b9c-af2f-2482b2939351"},"vehicle_type_id":"4","last_reported":1730286464,"current_range_meters":21600,"station_id":"ce4bhnp2rcd13ifvqgvg","pricing_plan_id":"cebpf4jnsgd1na2vs0mg"},{"bike_id":"5f0c1f6e-db1c-47f0-ad65-4da59ea5f4d0","system_id":"levelo_inurba_marseille","lat":43.26056,"lon":5.39395,"is_reserved":false,"is_disabled":false,"rental_uris":{"android":"levelo://app?vid=5f0c1f6e-db1c-47f0-ad65-4da59ea5f4d0","ios":"levelo://app?vid=5f0c1f6e-db1c-47f0-ad65-4da59ea5f4d0"},"vehicle_type_id":"4","last_reported":1730286464,"current_range_meters":36800,"station_id":"ce4bhh92rcd13ifvqfj0","pricing_plan_id":"cebpf4jnsgd1na2vs0mg"},{"bike_id":"4ed80fb7-6d84-478e-be7b-5d1d98b59246","system_id":"levelo_inurba_marseille","lat":43.30157,"lon":5.3808,"is_reserved":false,"is_disabled":false,"rental_uris":{"android":"levelo://app?vid=4ed80fb7-6d84-478e-be7b-5d1d98b59246","ios":"levelo://app?vid=4ed80fb7-6d84-478e-be7b-5d1d98b59246"},"vehicle_type_id":"4","last_reported":1730286464,"current_range_meters":31200,"station_id":"ce4bgjp2rcd13ifvqbh0","pricing_plan_id":"cebpf4jnsgd1na2vs0mg"},{"bike_id":"87d23bf7-4e73-43b2-8adf-83be3477f5aa","system_id":"levelo_inurba_marseille","lat":43.23194,"lon":5.35548,"is_reserved":false,"is_disabled":false,"rental_uris":{"android":"levelo://app?vid=87d23bf7-4e73-43b2-8adf-83be3477f5aa","ios":"levelo://app?vid=87d23bf7-4e73-43b2-8adf-83be3477f5aa"},"vehicle_type_id":"4","last_reported":1730286464,"current_range_meters":33600,"station_id":"ce4bhu92rcd13ifvqi70","pricing_plan_id":"cebpf4jnsgd1na2vs0mg"},{"bike_id":"fd0d976a-73d1-484c-8c91-4d17ecf850a3","system_id":"levelo_inurba_marseille","lat":43.25873,"lon":5.39895,"is_reserved":false,"is_disabled":false,"rental_uris":{"android":"levelo://app?vid=fd0d976a-73d1-484c-8c91-4d17ecf850a3","ios":"levelo://app?vid=fd0d976a-73d1-484c-8c91-4d17ecf850a3"},"vehicle_type_id":"4","last_reported":1730286464,"current_range_meters":16400,"station_id":"ce4bhl92rcd13ifvqghg","pricing_plan_id":"cebpf4jnsgd1na2vs0mg"},{"bike_id":"c25f12b5-8556-4de3-856b-65a2f951174f","system_id":"levelo_inurba_marseille","lat":43.3012,"lon":5.37166,"is_reserved":false,"is_disabled":false,"rental_uris":{"android":"levelo://app?vid=c25f12b5-8556-4de3-856b-65a2f951174f","ios":"levelo://app?vid=c25f12b5-8556-4de3-856b-65a2f951174f"},"vehicle_type_id":"4","last_reported":1730286464,"current_range_meters":24800,"station_id":"","pricing_plan_id":"cebpf4jnsgd1na2vs0mg"},{"bike_id":"f01d5525-578f-4e58-8182-ddfaec96571d","system_id":"levelo_inurba_marseille","lat":43.26489,"lon":5.39534,"is_reserved":false,"is_disabled":false,"rental_uris":{"android":"levelo://app?vid=f01d5525-578f-4e58-8182-ddfaec96571d","ios":"levelo://app?vid=f01d5525-578f-4e58-8182-ddfaec96571d"},"vehicle_type_id":"4","last_reported":1730286464,"current_range_meters":9600,"station_id":"ce4bhi12rcd13ifvqfq0","pricing_plan_id":"cebpf4jnsgd1na2vs0mg"},{"bike_id":"249f4139-b1bb-4fc2-87b9-dd8c4909e5b1","system_id":"levelo_inurba_marseille","lat":43.29555,"lon":5.42287,"is_reserved":false,"is_disabled":false,"rental_uris":{"android":"levelo://app?vid=249f4139-b1bb-4fc2-87b9-dd8c4909e5b1","ios":"levelo://app?vid=249f4139-b1bb-4fc2-87b9-dd8c4909e5b1"},"vehicle_type_id":"4","last_reported":1730286464,"current_range_meters":38800,"station_id":"ce4bhph2rcd13ifvqhdg","pricing_plan_id":"cebpf4jnsgd1na2vs0mg"},{"bike_id":"c5afe16f-7def-4586-9817-4e344bbe5e26","system_id":"levelo_inurba_marseille","lat":43.25589,"lon":5.38232,"is_reserved":false,"is_disabled":false,"rental_uris":{"android":"levelo://app?vid=c5afe16f-7def-4586-9817-4e344bbe5e26","ios":"levelo://app?vid=c5afe16f-7def-4586-9817-4e344bbe5e26"},"vehicle_type_id":"4","last_reported":1730286464,"current_range_meters":24800,"station_id":"ce4bhih2rcd13ifvqfs0","pricing_plan_id":"cebpf4jnsgd1na2vs0mg"},{"bike_id":"15e517f1-ebec-47c6-9ffd-2a035f728a02","system_id":"levelo_inurba_marseille","lat":43.24809,"lon":5.37456,"is_reserved":false,"is_disabled":false,"rental_uris":{"android":"levelo://app?vid=15e517f1-ebec-47c6-9ffd-2a035f728a02","ios":"levelo://app?vid=15e517f1-ebec-47c6-9ffd-2a035f728a02"},"vehicle_type_id":"4","last_reported":1730286464,"current_range_meters":26800,"station_id":"ce4bhgh2rcd13ifvqfb0","pricing_plan_id":"cebpf4jnsgd1na2vs0mg"},{"bike_id":"5fd2da48-ab65-460e-9920-cb9714a7db10","system_id":"levelo_inurba_marseille","lat":43.30138,"lon":5.39857,"is_reserved":false,"is_disabled":false,"rental_uris":{"android":"levelo://app?vid=5fd2da48-ab65-460e-9920-cb9714a7db10","ios":"levelo://app?vid=5fd2da48-ab65-460e-9920-cb9714a7db10"},"vehicle_type_id":"4","last_reported":1730286464,"current_range_meters":35600,"station_id":"ce4bh0h2rcd13ifvqd40","pricing_plan_id":"cebpf4jnsgd1na2vs0mg"},{"bike_id":"97619a53-0647-49d4-b65f-b58ca5c8563c","system_id":"levelo_inurba_marseille","lat":43.292708,"lon":5.368409,"is_reserved":false,"is_disabled":false,"rental_uris":{"android":"levelo://app?vid=97619a53-0647-49d4-b65f-b58ca5c8563c","ios":"levelo://app?vid=97619a53-0647-49d4-b65f-b58ca5c8563c"},"vehicle_type_id":"4","last_reported":1730286464,"current_range_meters":36000,"station_id":"ce4bhbp2rcd13ifvqesg","pricing_plan_id":"cebpf4jnsgd1na2vs0mg"},{"bike_id":"69cb97dc-4f09-4220-a6b3-1f4ec023971f","system_id":"levelo_inurba_marseille","lat":43.29259,"lon":5.38436,"is_reserved":false,"is_disabled":false,"rental_uris":{"android":"levelo://app?vid=69cb97dc-4f09-4220-a6b3-1f4ec023971f","ios":"levelo://app?vid=69cb97dc-4f09-4220-a6b3-1f4ec023971f"},"vehicle_type_id":"4","last_reported":1730286464,"current_range_meters":19200,"station_id":"ce4bh692rcd13ifvqea0","pricing_plan_id":"cebpf4jnsgd1na2vs0mg"},{"bike_id":"d47819c3-51d4-4dcb-a42a-72b2e32e4709","system_id":"levelo_inurba_marseille","lat":43.33024,"lon":5.39042,"is_reserved":false,"is_disabled":false,"rental_uris":{"android":"levelo://app?vid=d47819c3-51d4-4dcb-a42a-72b2e32e4709","ios":"levelo://app?vid=d47819c3-51d4-4dcb-a42a-72b2e32e4709"},"vehicle_type_id":"4","last_reported":1730286464,"current_range_meters":14800,"station_id":"ce4bhr92rcd13ifvqhrg","pricing_plan_id":"cebpf4jnsgd1na2vs0mg"},{"bike_id":"4564a1c3-0ba6-4fa0-8e91-39bdc9edc0a4","system_id":"levelo_inurba_marseille","lat":43.299057,"lon":5.363315,"is_reserved":false,"is_disabled":false,"rental_uris":{"android":"levelo://app?vid=4564a1c3-0ba6-4fa0-8e91-39bdc9edc0a4","ios":"levelo://app?vid=4564a1c3-0ba6-4fa0-8e91-39bdc9edc0a4"},"vehicle_type_id":"4","last_reported":1730286464,"current_range_meters":20400,"station_id":"","pricing_plan_id":"cebpf4jnsgd1na2vs0mg"},{"bike_id":"fc9f95a3-8743-452e-a5e9-f50e54844cf6","system_id":"levelo_inurba_marseille","lat":43.2994,"lon":5.36545,"is_reserved":false,"is_disabled":false,"rental_uris":{"android":"levelo://app?vid=fc9f95a3-8743-452e-a5e9-f50e54844cf6","ios":"levelo://app?vid=fc9f95a3-8743-452e-a5e9-f50e54844cf6"},"vehicle_type_id":"4","last_reported":1730286464,"current_range_meters":30000,"station_id":"ce4bgm92rcd13ifvqbr0","pricing_plan_id":"cebpf4jnsgd1na2vs0mg"},{"bike_id":"17e4e832-2157-43cb-9df4-90146eb57330","system_id":"levelo_inurba_marseille","lat":43.29025,"lon":5.38626,"is_reserved":false,"is_disabled":false,"rental_uris":{"android":"levelo://app?vid=17e4e832-2157-43cb-9df4-90146eb57330","ios":"levelo://app?vid=17e4e832-2157-43cb-9df4-90146eb57330"},"vehicle_type_id":"4","last_reported":1730286464,"current_range_meters":33200,"station_id":"ce4bh4p2rcd13ifvqe0g","pricing_plan_id":"cebpf4jnsgd1na2vs0mg"},{"bike_id":"ba95326f-14d1-4dbf-a03e-21c6813d0699","system_id":"levelo_inurba_marseille","lat":43.29895,"lon":5.38155,"is_reserved":false,"is_disabled":false,"rental_uris":{"android":"levelo://app?vid=ba95326f-14d1-4dbf-a03e-21c6813d0699","ios":"levelo://app?vid=ba95326f-14d1-4dbf-a03e-21c6813d0699"},"vehicle_type_id":"4","last_reported":1730286464,"current_range_meters":40000,"station_id":"ce4bgj12rcd13ifvqbc0","pricing_plan_id":"cebpf4jnsgd1na2vs0mg"},{"bike_id":"9445a670-8cad-4552-a342-d1a968da3c5a","system_id":"levelo_inurba_marseille","lat":43.3204,"lon":5.41542,"is_reserved":false,"is_disabled":false,"rental_uris":{"android":"levelo://app?vid=9445a670-8cad-4552-a342-d1a968da3c5a","ios":"levelo://app?vid=9445a670-8cad-4552-a342-d1a968da3c5a"},"vehicle_type_id":"4","last_reported":1730286464,"current_range_meters":38800,"station_id":"ce4bhq92rcd13ifvqhkg","pricing_plan_id":"cebpf4jnsgd1na2vs0mg"},{"bike_id":"79a9d8a5-aae3-4086-95c4-4f56865306f1","system_id":"levelo_inurba_marseille","lat":43.29517,"lon":5.3751,"is_reserved":false,"is_disabled":false,"rental_uris":{"android":"levelo://app?vid=79a9d8a5-aae3-4086-95c4-4f56865306f1","ios":"levelo://app?vid=79a9d8a5-aae3-4086-95c4-4f56865306f1"},"vehicle_type_id":"4","last_reported":1730286464,"current_range_meters":36800,"station_id":"ce4bgkp2rcd13ifvqbmg","pricing_plan_id":"cebpf4jnsgd1na2vs0mg"},{"bike_id":"5a9ea6a9-408c-4fd5-946a-c4dec84f55ec","system_id":"levelo_inurba_marseille","lat":43.29597,"lon":5.38098,"is_reserved":false,"is_disabled":false,"rental_uris":{"android":"levelo://app?vid=5a9ea6a9-408c-4fd5-946a-c4dec84f55ec","ios":"levelo://app?vid=5a9ea6a9-408c-4fd5-946a-c4dec84f55ec"},"vehicle_type_id":"4","last_reported":1730286464,"current_range_meters":20000,"station_id":"ce4bgl12rcd13ifvqbo0","pricing_plan_id":"cebpf4jnsgd1na2vs0mg"},{"bike_id":"f7a46ee1-8232-43a2-bb85-f0a61eb6f3ff","system_id":"levelo_inurba_marseille","lat":43.29602,"lon":5.37722,"is_reserved":false,"is_disabled":false,"rental_uris":{"android":"levelo://app?vid=f7a46ee1-8232-43a2-bb85-f0a61eb6f3ff","ios":"levelo://app?vid=f7a46ee1-8232-43a2-bb85-f0a61eb6f3ff"},"vehicle_type_id":"4","last_reported":1730286464,"current_range_meters":32000,"station_id":"ce4bgi92rcd13ifvqb90","pricing_plan_id":"cebpf4jnsgd1na2vs0mg"},{"bike_id":"a3380b74-d7c1-4a05-98d2-dd31ab032453","system_id":"levelo_inurba_marseille","lat":43.26944,"lon":5.36718,"is_reserved":false,"is_disabled":false,"rental_uris":{"android":"levelo://app?vid=a3380b74-d7c1-4a05-98d2-dd31ab032453","ios":"levelo://app?vid=a3380b74-d7c1-4a05-98d2-dd31ab032453"},"vehicle_type_id":"4","last_reported":1730286464,"current_range_meters":30400,"station_id":"","pricing_plan_id":"cebpf4jnsgd1na2vs0mg"},{"bike_id":"e4ff3c52-73dc-458c-8024-1873c8f5875c","system_id":"levelo_inurba_marseille","lat":43.26796,"lon":5.39414,"is_reserved":false,"is_disabled":false,"rental_uris":{"android":"levelo://app?vid=e4ff3c52-73dc-458c-8024-1873c8f5875c","ios":"levelo://app?vid=e4ff3c52-73dc-458c-8024-1873c8f5875c"},"vehicle_type_id":"4","last_reported":1730286464,"current_range_meters":28400,"station_id":"ce4bhh12rcd13ifvqfg0","pricing_plan_id":"cebpf4jnsgd1na2vs0mg"},{"bike_id":"fc013c53-7dfe-4b4b-99fd-b5bbd0306ece","system_id":"levelo_inurba_marseille","lat":43.33782,"lon":5.37438,"is_reserved":false,"is_disabled":false,"rental_uris":{"android":"levelo://app?vid=fc013c53-7dfe-4b4b-99fd-b5bbd0306ece","ios":"levelo://app?vid=fc013c53-7dfe-4b4b-99fd-b5bbd0306ece"},"vehicle_type_id":"4","last_reported":1730286464,"current_range_meters":38800,"station_id":"","pricing_plan_id":"cebpf4jnsgd1na2vs0mg"},{"bike_id":"766801a5-7dbd-464a-bc56-398e14b9cf78","system_id":"levelo_inurba_marseille","lat":43.29805,"lon":5.37136,"is_reserved":false,"is_disabled":false,"rental_uris":{"android":"levelo://app?vid=766801a5-7dbd-464a-bc56-398e14b9cf78","ios":"levelo://app?vid=766801a5-7dbd-464a-bc56-398e14b9cf78"},"vehicle_type_id":"4","last_reported":1730286464,"current_range_meters":6400,"station_id":"","pricing_plan_id":"cebpf4jnsgd1na2vs0mg"},{"bike_id":"afc8a59e-718c-432c-b226-d6be0903e5fb","system_id":"levelo_inurba_marseille","lat":43.24388,"lon":5.3706,"is_reserved":false,"is_disabled":false,"rental_uris":{"android":"levelo://app?vid=afc8a59e-718c-432c-b226-d6be0903e5fb","ios":"levelo://app?vid=afc8a59e-718c-432c-b226-d6be0903e5fb"},"vehicle_type_id":"4","last_reported":1730286464,"current_range_meters":33600,"station_id":"ce4bhhh2rcd13ifvqfk0","pricing_plan_id":"cebpf4jnsgd1na2vs0mg"},{"bike_id":"67493f69-7a41-4316-b5cf-cbdacdbde3e5","system_id":"levelo_inurba_marseille","lat":43.30545,"lon":5.36531,"is_reserved":false,"is_disabled":false,"rental_uris":{"android":"levelo://app?vid=67493f69-7a41-4316-b5cf-cbdacdbde3e5","ios":"levelo://app?vid=67493f69-7a41-4316-b5cf-cbdacdbde3e5"},"vehicle_type_id":"4","last_reported":1730286464,"current_range_meters":38800,"station_id":"ce4bgs12rcd13ifvqcag","pricing_plan_id":"cebpf4jnsgd1na2vs0mg"},{"bike_id":"72e37474-1bc8-4568-aec8-ce5464e6b828","system_id":"levelo_inurba_marseille","lat":43.231896,"lon":5.355454,"is_reserved":false,"is_disabled":false,"rental_uris":{"android":"levelo://app?vid=72e37474-1bc8-4568-aec8-ce5464e6b828","ios":"levelo://app?vid=72e37474-1bc8-4568-aec8-ce5464e6b828"},"vehicle_type_id":"4","last_reported":1730286464,"current_range_meters":28800,"station_id":"ce4bhu92rcd13ifvqi70","pricing_plan_id":"cebpf4jnsgd1na2vs0mg"},{"bike_id":"f60c22c9-8859-4064-a562-7bc4d70b8b13","system_id":"levelo_inurba_marseille","lat":43.28419,"lon":5.34985,"is_reserved":false,"is_disabled":false,"rental_uris":{"android":"levelo://app?vid=f60c22c9-8859-4064-a562-7bc4d70b8b13","ios":"levelo://app?vid=f60c22c9-8859-4064-a562-7bc4d70b8b13"},"vehicle_type_id":"4","last_reported":1730286464,"current_range_meters":38800,"station_id":"ce4bhbh2rcd13ifvqepg","pricing_plan_id":"cebpf4jnsgd1na2vs0mg"},{"bike_id":"87bfafc4-0640-4ef7-8be0-b54cbb7f1415","system_id":"levelo_inurba_marseille","lat":43.29606,"lon":5.37722,"is_reserved":false,"is_disabled":false,"rental_uris":{"android":"levelo://app?vid=87bfafc4-0640-4ef7-8be0-b54cbb7f1415","ios":"levelo://app?vid=87bfafc4-0640-4ef7-8be0-b54cbb7f1415"},"vehicle_type_id":"4","last_reported":1730286464,"current_range_meters":32400,"station_id":"ce4bgi92rcd13ifvqb90","pricing_plan_id":"cebpf4jnsgd1na2vs0mg"},{"bike_id":"c2964dd9-86d7-477b-837f-6d5fbdb82788","system_id":"levelo_inurba_marseille","lat":43.24392,"lon":5.37052,"is_reserved":false,"is_disabled":false,"rental_uris":{"android":"levelo://app?vid=c2964dd9-86d7-477b-837f-6d5fbdb82788","ios":"levelo://app?vid=c2964dd9-86d7-477b-837f-6d5fbdb82788"},"vehicle_type_id":"4","last_reported":1730286464,"current_range_meters":16800,"station_id":"ce4bhhh2rcd13ifvqfk0","pricing_plan_id":"cebpf4jnsgd1na2vs0mg"},{"bike_id":"2ea71955-6051-4269-9f86-67c2a03c3878","system_id":"levelo_inurba_marseille","lat":43.27317,"lon":5.39069,"is_reserved":false,"is_disabled":false,"rental_uris":{"android":"levelo://app?vid=2ea71955-6051-4269-9f86-67c2a03c3878","ios":"levelo://app?vid=2ea71955-6051-4269-9f86-67c2a03c3878"},"vehicle_type_id":"4","last_reported":1730286464,"current_range_meters":21600,"station_id":"ce4bhap2rcd13ifvqek0","pricing_plan_id":"cebpf4jnsgd1na2vs0mg"},{"bike_id":"cf1bf93e-b987-4f03-9549-b984bb838aa3","system_id":"levelo_inurba_marseille","lat":43.26783,"lon":5.39417,"is_reserved":false,"is_disabled":false,"rental_uris":{"android":"levelo://app?vid=cf1bf93e-b987-4f03-9549-b984bb838aa3","ios":"levelo://app?vid=cf1bf93e-b987-4f03-9549-b984bb838aa3"},"vehicle_type_id":"4","last_reported":1730286464,"current_range_meters":38000,"station_id":"ce4bhh12rcd13ifvqfg0","pricing_plan_id":"cebpf4jnsgd1na2vs0mg"},{"bike_id":"b76a38e9-45ec-4afc-b514-c5026792aa86","system_id":"levelo_inurba_marseille","lat":43.24076,"lon":5.37753,"is_reserved":false,"is_disabled":false,"rental_uris":{"android":"levelo://app?vid=b76a38e9-45ec-4afc-b514-c5026792aa86","ios":"levelo://app?vid=b76a38e9-45ec-4afc-b514-c5026792aa86"},"vehicle_type_id":"4","last_reported":1730286464,"current_range_meters":32400,"station_id":"ce4bhnp2rcd13ifvqgvg","pricing_plan_id":"cebpf4jnsgd1na2vs0mg"},{"bike_id":"3e7ccb55-c2c4-4413-99cd-f5ca3288a764","system_id":"levelo_inurba_marseille","lat":43.30147,"lon":5.37416,"is_reserved":false,"is_disabled":false,"rental_uris":{"android":"levelo://app?vid=3e7ccb55-c2c4-4413-99cd-f5ca3288a764","ios":"levelo://app?vid=3e7ccb55-c2c4-4413-99cd-f5ca3288a764"},"vehicle_type_id":"4","last_reported":1730286464,"current_range_meters":30000,"station_id":"ce4bgs92rcd13ifvqcc0","pricing_plan_id":"cebpf4jnsgd1na2vs0mg"},{"bike_id":"ed4542ec-a766-43c5-bc78-9617bcbbe71c","system_id":"levelo_inurba_marseille","lat":43.2587,"lon":5.39899,"is_reserved":false,"is_disabled":false,"rental_uris":{"android":"levelo://app?vid=ed4542ec-a766-43c5-bc78-9617bcbbe71c","ios":"levelo://app?vid=ed4542ec-a766-43c5-bc78-9617bcbbe71c"},"vehicle_type_id":"4","last_reported":1730286464,"current_range_meters":9200,"station_id":"ce4bhl92rcd13ifvqghg","pricing_plan_id":"cebpf4jnsgd1na2vs0mg"},{"bike_id":"1a26b0a7-636b-4c1d-b8c6-572aa8dd1043","system_id":"levelo_inurba_marseille","lat":43.30094,"lon":5.3908,"is_reserved":false,"is_disabled":false,"rental_uris":{"android":"levelo://app?vid=1a26b0a7-636b-4c1d-b8c6-572aa8dd1043","ios":"levelo://app?vid=1a26b0a7-636b-4c1d-b8c6-572aa8dd1043"},"vehicle_type_id":"4","last_reported":1730286464,"current_range_meters":38800,"station_id":"ce4bh192rcd13ifvqdb0","pricing_plan_id":"cebpf4jnsgd1na2vs0mg"},{"bike_id":"1f675603-396f-4c29-99b8-e658a198ceb9","system_id":"levelo_inurba_marseille","lat":43.30415,"lon":5.41283,"is_reserved":false,"is_disabled":false,"rental_uris":{"android":"levelo://app?vid=1f675603-396f-4c29-99b8-e658a198ceb9","ios":"levelo://app?vid=1f675603-396f-4c29-99b8-e658a198ceb9"},"vehicle_type_id":"4","last_reported":1730286464,"current_range_meters":38800,"station_id":"ce4bhop2rcd13ifvqh8g","pricing_plan_id":"cebpf4jnsgd1na2vs0mg"},{"bike_id":"586be2bd-1094-425b-a7f1-57736469de57","system_id":"levelo_inurba_marseille","lat":43.26944,"lon":5.40255,"is_reserved":false,"is_disabled":false,"rental_uris":{"android":"levelo://app?vid=586be2bd-1094-425b-a7f1-57736469de57","ios":"levelo://app?vid=586be2bd-1094-425b-a7f1-57736469de57"},"vehicle_type_id":"4","last_reported":1730286464,"current_range_meters":8400,"station_id":"cjm6bp8fraef2m0cb0m0","pricing_plan_id":"cebpf4jnsgd1na2vs0mg"},{"bike_id":"0a053515-f462-46db-9e16-b5c2cb1a5c55","system_id":"levelo_inurba_marseille","lat":43.3056,"lon":5.36726,"is_reserved":false,"is_disabled":false,"rental_uris":{"android":"levelo://app?vid=0a053515-f462-46db-9e16-b5c2cb1a5c55","ios":"levelo://app?vid=0a053515-f462-46db-9e16-b5c2cb1a5c55"},"vehicle_type_id":"4","last_reported":1730286464,"current_range_meters":16400,"station_id":"ce4bgrp2rcd13ifvqc9g","pricing_plan_id":"cebpf4jnsgd1na2vs0mg"},{"bike_id":"e7a565d8-771d-41d3-b79b-485e6e8cdb0e","system_id":"levelo_inurba_marseille","lat":43.33765,"lon":5.37458,"is_reserved":false,"is_disabled":false,"rental_uris":{"android":"levelo://app?vid=e7a565d8-771d-41d3-b79b-485e6e8cdb0e","ios":"levelo://app?vid=e7a565d8-771d-41d3-b79b-485e6e8cdb0e"},"vehicle_type_id":"4","last_reported":1730286464,"current_range_meters":38000,"station_id":"","pricing_plan_id":"cebpf4jnsgd1na2vs0mg"},{"bike_id":"90b87ab5-0676-4c7a-bd4c-c425937fd4a5","system_id":"levelo_inurba_marseille","lat":43.29941,"lon":5.36557,"is_reserved":false,"is_disabled":false,"rental_uris":{"android":"levelo://app?vid=90b87ab5-0676-4c7a-bd4c-c425937fd4a5","ios":"levelo://app?vid=90b87ab5-0676-4c7a-bd4c-c425937fd4a5"},"vehicle_type_id":"4","last_reported":1730286464,"current_range_meters":20800,"station_id":"ce4bgm92rcd13ifvqbr0","pricing_plan_id":"cebpf4jnsgd1na2vs0mg"},{"bike_id":"d3834406-5180-48ae-986e-7eca8f9a66e3","system_id":"levelo_inurba_marseille","lat":43.27066,"lon":5.42269,"is_reserved":false,"is_disabled":false,"rental_uris":{"android":"levelo://app?vid=d3834406-5180-48ae-986e-7eca8f9a66e3","ios":"levelo://app?vid=d3834406-5180-48ae-986e-7eca8f9a66e3"},"vehicle_type_id":"4","last_reported":1730286464,"current_range_meters":20400,"station_id":"ce4bhk92rcd13ifvqgb0","pricing_plan_id":"cebpf4jnsgd1na2vs0mg"},{"bike_id":"d51c6f07-1ebd-4864-91eb-9f24132ea960","system_id":"levelo_inurba_marseille","lat":43.3013,"lon":5.3879,"is_reserved":false,"is_disabled":false,"rental_uris":{"android":"levelo://app?vid=d51c6f07-1ebd-4864-91eb-9f24132ea960","ios":"levelo://app?vid=d51c6f07-1ebd-4864-91eb-9f24132ea960"},"vehicle_type_id":"4","last_reported":1730286464,"current_range_meters":38400,"station_id":"ce4bghh2rcd13ifvqb60","pricing_plan_id":"cebpf4jnsgd1na2vs0mg"},{"bike_id":"1995d42f-9bb2-423e-a419-1706f5fab24e","system_id":"levelo_inurba_marseille","lat":43.27068,"lon":5.42275,"is_reserved":false,"is_disabled":false,"rental_uris":{"android":"levelo://app?vid=1995d42f-9bb2-423e-a419-1706f5fab24e","ios":"levelo://app?vid=1995d42f-9bb2-423e-a419-1706f5fab24e"},"vehicle_type_id":"4","last_reported":1730286464,"current_range_meters":34000,"station_id":"ce4bhk92rcd13ifvqgb0","pricing_plan_id":"cebpf4jnsgd1na2vs0mg"},{"bike_id":"5b54ae5c-2f67-41f3-8035-2314f9596429","system_id":"levelo_inurba_marseille","lat":43.23153,"lon":5.43716,"is_reserved":false,"is_disabled":false,"rental_uris":{"android":"levelo://app?vid=5b54ae5c-2f67-41f3-8035-2314f9596429","ios":"levelo://app?vid=5b54ae5c-2f67-41f3-8035-2314f9596429"},"vehicle_type_id":"4","last_reported":1730286464,"current_range_meters":30800,"station_id":"ce4bhmp2rcd13ifvqgog","pricing_plan_id":"cebpf4jnsgd1na2vs0mg"},{"bike_id":"4e202761-f484-4f98-a2c5-f29995d30b81","system_id":"levelo_inurba_marseille","lat":43.2622,"lon":5.37441,"is_reserved":false,"is_disabled":false,"rental_uris":{"android":"levelo://app?vid=4e202761-f484-4f98-a2c5-f29995d30b81","ios":"levelo://app?vid=4e202761-f484-4f98-a2c5-f29995d30b81"},"vehicle_type_id":"4","last_reported":1730286464,"current_range_meters":18800,"station_id":"ce4bhgp2rcd13ifvqfc0","pricing_plan_id":"cebpf4jnsgd1na2vs0mg"},{"bike_id":"13c85d59-c7cb-409d-b7e2-9aa757f7035f","system_id":"levelo_inurba_marseille","lat":43.32657,"lon":5.40996,"is_reserved":false,"is_disabled":false,"rental_uris":{"android":"levelo://app?vid=13c85d59-c7cb-409d-b7e2-9aa757f7035f","ios":"levelo://app?vid=13c85d59-c7cb-409d-b7e2-9aa757f7035f"},"vehicle_type_id":"4","last_reported":1730286464,"current_range_meters":7200,"station_id":"ce4bhpp2rcd13ifvqhgg","pricing_plan_id":"cebpf4jnsgd1na2vs0mg"},{"bike_id":"cf6e46fb-07e4-4259-8796-fece3f1717ca","system_id":"levelo_inurba_marseille","lat":43.26577,"lon":5.39008,"is_reserved":false,"is_disabled":false,"rental_uris":{"android":"levelo://app?vid=cf6e46fb-07e4-4259-8796-fece3f1717ca","ios":"levelo://app?vid=cf6e46fb-07e4-4259-8796-fece3f1717ca"},"vehicle_type_id":"4","last_reported":1730286464,"current_range_meters":38800,"station_id":"ce4bhe12rcd13ifvqf30","pricing_plan_id":"cebpf4jnsgd1na2vs0mg"},{"bike_id":"64d8ff8a-aa58-4e92-8583-66cacaf77234","system_id":"levelo_inurba_marseille","lat":43.25871,"lon":5.39892,"is_reserved":false,"is_disabled":false,"rental_uris":{"android":"levelo://app?vid=64d8ff8a-aa58-4e92-8583-66cacaf77234","ios":"levelo://app?vid=64d8ff8a-aa58-4e92-8583-66cacaf77234"},"vehicle_type_id":"4","last_reported":1730286464,"current_range_meters":37600,"station_id":"ce4bhl92rcd13ifvqghg","pricing_plan_id":"cebpf4jnsgd1na2vs0mg"},{"bike_id":"2be9bc22-5c5c-4737-9da1-744ca95ac8b4","system_id":"levelo_inurba_marseille","lat":43.32662,"lon":5.40992,"is_reserved":false,"is_disabled":false,"rental_uris":{"android":"levelo://app?vid=2be9bc22-5c5c-4737-9da1-744ca95ac8b4","ios":"levelo://app?vid=2be9bc22-5c5c-4737-9da1-744ca95ac8b4"},"vehicle_type_id":"4","last_reported":1730286464,"current_range_meters":5600,"station_id":"ce4bhpp2rcd13ifvqhgg","pricing_plan_id":"cebpf4jnsgd1na2vs0mg"},{"bike_id":"59c7403a-36af-4ab9-a8fb-4e8f180bdcbe","system_id":"levelo_inurba_marseille","lat":43.2408,"lon":5.37748,"is_reserved":false,"is_disabled":false,"rental_uris":{"android":"levelo://app?vid=59c7403a-36af-4ab9-a8fb-4e8f180bdcbe","ios":"levelo://app?vid=59c7403a-36af-4ab9-a8fb-4e8f180bdcbe"},"vehicle_type_id":"4","last_reported":1730286464,"current_range_meters":8000,"station_id":"ce4bhnp2rcd13ifvqgvg","pricing_plan_id":"cebpf4jnsgd1na2vs0mg"},{"bike_id":"319628af-6ed0-4c6b-85da-8e8cbc64e217","system_id":"levelo_inurba_marseille","lat":43.24394,"lon":5.37061,"is_reserved":false,"is_disabled":false,"rental_uris":{"android":"levelo://app?vid=319628af-6ed0-4c6b-85da-8e8cbc64e217","ios":"levelo://app?vid=319628af-6ed0-4c6b-85da-8e8cbc64e217"},"vehicle_type_id":"4","last_reported":1730286464,"current_range_meters":36800,"station_id":"ce4bhhh2rcd13ifvqfk0","pricing_plan_id":"cebpf4jnsgd1na2vs0mg"},{"bike_id":"96f1fe2b-27b3-45a5-8e58-f339dd6c49b1","system_id":"levelo_inurba_marseille","lat":43.30552,"lon":5.36515,"is_reserved":false,"is_disabled":false,"rental_uris":{"android":"levelo://app?vid=96f1fe2b-27b3-45a5-8e58-f339dd6c49b1","ios":"levelo://app?vid=96f1fe2b-27b3-45a5-8e58-f339dd6c49b1"},"vehicle_type_id":"4","last_reported":1730286464,"current_range_meters":32000,"station_id":"ce4bgs12rcd13ifvqcag","pricing_plan_id":"cebpf4jnsgd1na2vs0mg"},{"bike_id":"9093d695-bec2-4727-9c9c-01c6d9e2075a","system_id":"levelo_inurba_marseille","lat":43.25938,"lon":5.40899,"is_reserved":false,"is_disabled":false,"rental_uris":{"android":"levelo://app?vid=9093d695-bec2-4727-9c9c-01c6d9e2075a","ios":"levelo://app?vid=9093d695-bec2-4727-9c9c-01c6d9e2075a"},"vehicle_type_id":"4","last_reported":1730286464,"current_range_meters":29600,"station_id":"ce4bhm92rcd13ifvqglg","pricing_plan_id":"cebpf4jnsgd1na2vs0mg"},{"bike_id":"2a59e468-664b-4487-a13d-372ee2a99421","system_id":"levelo_inurba_marseille","lat":43.30289,"lon":5.37699,"is_reserved":false,"is_disabled":false,"rental_uris":{"android":"levelo://app?vid=2a59e468-664b-4487-a13d-372ee2a99421","ios":"levelo://app?vid=2a59e468-664b-4487-a13d-372ee2a99421"},"vehicle_type_id":"4","last_reported":1730286464,"current_range_meters":39200,"station_id":"ce4bguh2rcd13ifvqcj0","pricing_plan_id":"cebpf4jnsgd1na2vs0mg"},{"bike_id":"9dacdad8-0a44-49eb-98f5-702daced0b65","system_id":"levelo_inurba_marseille","lat":43.28276,"lon":5.35066,"is_reserved":false,"is_disabled":false,"rental_uris":{"android":"levelo://app?vid=9dacdad8-0a44-49eb-98f5-702daced0b65","ios":"levelo://app?vid=9dacdad8-0a44-49eb-98f5-702daced0b65"},"vehicle_type_id":"4","last_reported":1730286464,"current_range_meters":27200,"station_id":"ce4bhbp2rcd13ifvqerg","pricing_plan_id":"cebpf4jnsgd1na2vs0mg"},{"bike_id":"5e40d3bd-7a44-4c2e-ac56-490293d581b4","system_id":"levelo_inurba_marseille","lat":43.29896,"lon":5.43664,"is_reserved":false,"is_disabled":false,"rental_uris":{"android":"levelo://app?vid=5e40d3bd-7a44-4c2e-ac56-490293d581b4","ios":"levelo://app?vid=5e40d3bd-7a44-4c2e-ac56-490293d581b4"},"vehicle_type_id":"4","last_reported":1730286464,"current_range_meters":13600,"station_id":"ce4bhpp2rcd13ifvqhfg","pricing_plan_id":"cebpf4jnsgd1na2vs0mg"},{"bike_id":"b9c91710-69f4-453f-904a-59c525bb62f6","system_id":"levelo_inurba_marseille","lat":43.28616,"lon":5.351,"is_reserved":false,"is_disabled":false,"rental_uris":{"android":"levelo://app?vid=b9c91710-69f4-453f-904a-59c525bb62f6","ios":"levelo://app?vid=b9c91710-69f4-453f-904a-59c525bb62f6"},"vehicle_type_id":"4","last_reported":1730286464,"current_range_meters":27600,"station_id":"ce4bhch2rcd13ifvqeug","pricing_plan_id":"cebpf4jnsgd1na2vs0mg"},{"bike_id":"9fe288c9-fe9f-4c89-b717-b20c89225f06","system_id":"levelo_inurba_marseille","lat":43.299,"lon":5.38146,"is_reserved":false,"is_disabled":false,"rental_uris":{"android":"levelo://app?vid=9fe288c9-fe9f-4c89-b717-b20c89225f06","ios":"levelo://app?vid=9fe288c9-fe9f-4c89-b717-b20c89225f06"},"vehicle_type_id":"4","last_reported":1730286464,"current_range_meters":38400,"station_id":"ce4bgj12rcd13ifvqbc0","pricing_plan_id":"cebpf4jnsgd1na2vs0mg"},{"bike_id":"a748a2f6-ee5a-4bca-ab77-3c6fe7ccd943","system_id":"levelo_inurba_marseille","lat":43.296054,"lon":5.381018,"is_reserved":false,"is_disabled":false,"rental_uris":{"android":"levelo://app?vid=a748a2f6-ee5a-4bca-ab77-3c6fe7ccd943","ios":"levelo://app?vid=a748a2f6-ee5a-4bca-ab77-3c6fe7ccd943"},"vehicle_type_id":"4","last_reported":1730286464,"current_range_meters":26000,"station_id":"ce4bgl12rcd13ifvqbo0","pricing_plan_id":"cebpf4jnsgd1na2vs0mg"},{"bike_id":"ef6030a9-a206-4b6d-a0ab-0ac110fdd1e0","system_id":"levelo_inurba_marseille","lat":43.29026,"lon":5.38636,"is_reserved":false,"is_disabled":false,"rental_uris":{"android":"levelo://app?vid=ef6030a9-a206-4b6d-a0ab-0ac110fdd1e0","ios":"levelo://app?vid=ef6030a9-a206-4b6d-a0ab-0ac110fdd1e0"},"vehicle_type_id":"4","last_reported":1730286464,"current_range_meters":39200,"station_id":"ce4bh4p2rcd13ifvqe0g","pricing_plan_id":"cebpf4jnsgd1na2vs0mg"},{"bike_id":"7ebe09a1-0af3-42f0-80f7-74a1c92aad5f","system_id":"levelo_inurba_marseille","lat":43.26949,"lon":5.38972,"is_reserved":false,"is_disabled":false,"rental_uris":{"android":"levelo://app?vid=7ebe09a1-0af3-42f0-80f7-74a1c92aad5f","ios":"levelo://app?vid=7ebe09a1-0af3-42f0-80f7-74a1c92aad5f"},"vehicle_type_id":"4","last_reported":1730286464,"current_range_meters":38000,"station_id":"ce4bhhh2rcd13ifvqfl0","pricing_plan_id":"cebpf4jnsgd1na2vs0mg"},{"bike_id":"90d46870-9f40-4b4b-88a4-7acd7fb37a95","system_id":"levelo_inurba_marseille","lat":43.30529,"lon":5.36536,"is_reserved":false,"is_disabled":false,"rental_uris":{"android":"levelo://app?vid=90d46870-9f40-4b4b-88a4-7acd7fb37a95","ios":"levelo://app?vid=90d46870-9f40-4b4b-88a4-7acd7fb37a95"},"vehicle_type_id":"4","last_reported":1730286464,"current_range_meters":27600,"station_id":"ce4bgs12rcd13ifvqcag","pricing_plan_id":"cebpf4jnsgd1na2vs0mg"},{"bike_id":"d721ff6d-485d-48c6-84c6-b1a6b8d95c72","system_id":"levelo_inurba_marseille","lat":43.30531,"lon":5.36541,"is_reserved":false,"is_disabled":false,"rental_uris":{"android":"levelo://app?vid=d721ff6d-485d-48c6-84c6-b1a6b8d95c72","ios":"levelo://app?vid=d721ff6d-485d-48c6-84c6-b1a6b8d95c72"},"vehicle_type_id":"4","last_reported":1730286464,"current_range_meters":38800,"station_id":"ce4bgs12rcd13ifvqcag","pricing_plan_id":"cebpf4jnsgd1na2vs0mg"},{"bike_id":"530b4c9e-7cc0-45d9-ba93-2257caff9046","system_id":"levelo_inurba_marseille","lat":43.27813,"lon":5.40722,"is_reserved":false,"is_disabled":false,"rental_uris":{"android":"levelo://app?vid=530b4c9e-7cc0-45d9-ba93-2257caff9046","ios":"levelo://app?vid=530b4c9e-7cc0-45d9-ba93-2257caff9046"},"vehicle_type_id":"4","last_reported":1730286464,"current_range_meters":22800,"station_id":"ce4bhnh2rcd13ifvqgtg","pricing_plan_id":"cebpf4jnsgd1na2vs0mg"},{"bike_id":"314231aa-d7df-4961-a2cd-c0251d1a7cb3","system_id":"levelo_inurba_marseille","lat":43.290924,"lon":5.381276,"is_reserved":false,"is_disabled":false,"rental_uris":{"android":"levelo://app?vid=314231aa-d7df-4961-a2cd-c0251d1a7cb3","ios":"levelo://app?vid=314231aa-d7df-4961-a2cd-c0251d1a7cb3"},"vehicle_type_id":"4","last_reported":1730286464,"current_range_meters":25600,"station_id":"ce4bh512rcd13ifvqe2g","pricing_plan_id":"cebpf4jnsgd1na2vs0mg"},{"bike_id":"988e0a49-e802-42cf-abe7-99dd75b0a3dd","system_id":"levelo_inurba_marseille","lat":43.30137,"lon":5.37426,"is_reserved":false,"is_disabled":false,"rental_uris":{"android":"levelo://app?vid=988e0a49-e802-42cf-abe7-99dd75b0a3dd","ios":"levelo://app?vid=988e0a49-e802-42cf-abe7-99dd75b0a3dd"},"vehicle_type_id":"4","last_reported":1730286464,"current_range_meters":36000,"station_id":"ce4bgs92rcd13ifvqcc0","pricing_plan_id":"cebpf4jnsgd1na2vs0mg"},{"bike_id":"ef476bbf-9157-487e-af84-5d299b6ce732","system_id":"levelo_inurba_marseille","lat":43.28729,"lon":5.36091,"is_reserved":false,"is_disabled":false,"rental_uris":{"android":"levelo://app?vid=ef476bbf-9157-487e-af84-5d299b6ce732","ios":"levelo://app?vid=ef476bbf-9157-487e-af84-5d299b6ce732"},"vehicle_type_id":"4","last_reported":1730286464,"current_range_meters":32000,"station_id":"cki0cbj6b192h4jlfktg","pricing_plan_id":"cebpf4jnsgd1na2vs0mg"},{"bike_id":"6cc66733-83a3-4a51-a9b7-0f2bd0fd0c94","system_id":"levelo_inurba_marseille","lat":43.28276,"lon":5.35075,"is_reserved":false,"is_disabled":false,"rental_uris":{"android":"levelo://app?vid=6cc66733-83a3-4a51-a9b7-0f2bd0fd0c94","ios":"levelo://app?vid=6cc66733-83a3-4a51-a9b7-0f2bd0fd0c94"},"vehicle_type_id":"4","last_reported":1730286464,"current_range_meters":25600,"station_id":"ce4bhbp2rcd13ifvqerg","pricing_plan_id":"cebpf4jnsgd1na2vs0mg"},{"bike_id":"2a22ab5d-3cfc-4b9d-ba17-826da44c0927","system_id":"levelo_inurba_marseille","lat":43.30909,"lon":5.36841,"is_reserved":false,"is_disabled":false,"rental_uris":{"android":"levelo://app?vid=2a22ab5d-3cfc-4b9d-ba17-826da44c0927","ios":"levelo://app?vid=2a22ab5d-3cfc-4b9d-ba17-826da44c0927"},"vehicle_type_id":"4","last_reported":1730286464,"current_range_meters":17600,"station_id":"ce4bgn92rcd13ifvqbvg","pricing_plan_id":"cebpf4jnsgd1na2vs0mg"},{"bike_id":"e1d5344e-a6d4-4068-bf2e-e347a3432fb0","system_id":"levelo_inurba_marseille","lat":43.30295,"lon":5.37697,"is_reserved":false,"is_disabled":false,"rental_uris":{"android":"levelo://app?vid=e1d5344e-a6d4-4068-bf2e-e347a3432fb0","ios":"levelo://app?vid=e1d5344e-a6d4-4068-bf2e-e347a3432fb0"},"vehicle_type_id":"4","last_reported":1730286464,"current_range_meters":35600,"station_id":"ce4bguh2rcd13ifvqcj0","pricing_plan_id":"cebpf4jnsgd1na2vs0mg"},{"bike_id":"03f9e53e-7a03-4a95-9ef4-373c86c54ed6","system_id":"levelo_inurba_marseille","lat":43.25939,"lon":5.40902,"is_reserved":false,"is_disabled":false,"rental_uris":{"android":"levelo://app?vid=03f9e53e-7a03-4a95-9ef4-373c86c54ed6","ios":"levelo://app?vid=03f9e53e-7a03-4a95-9ef4-373c86c54ed6"},"vehicle_type_id":"4","last_reported":1730286464,"current_range_meters":36800,"station_id":"ce4bhm92rcd13ifvqglg","pricing_plan_id":"cebpf4jnsgd1na2vs0mg"},{"bike_id":"e3baddfa-96f0-46ad-b708-ceb31993a23c","system_id":"levelo_inurba_marseille","lat":43.33768,"lon":5.37428,"is_reserved":false,"is_disabled":false,"rental_uris":{"android":"levelo://app?vid=e3baddfa-96f0-46ad-b708-ceb31993a23c","ios":"levelo://app?vid=e3baddfa-96f0-46ad-b708-ceb31993a23c"},"vehicle_type_id":"4","last_reported":1730286464,"current_range_meters":28000,"station_id":"","pricing_plan_id":"cebpf4jnsgd1na2vs0mg"},{"bike_id":"a0a2b278-3c52-4c26-9330-91fb0b590d02","system_id":"levelo_inurba_marseille","lat":43.30155,"lon":5.38084,"is_reserved":false,"is_disabled":false,"rental_uris":{"android":"levelo://app?vid=a0a2b278-3c52-4c26-9330-91fb0b590d02","ios":"levelo://app?vid=a0a2b278-3c52-4c26-9330-91fb0b590d02"},"vehicle_type_id":"4","last_reported":1730286464,"current_range_meters":32000,"station_id":"ce4bgjp2rcd13ifvqbh0","pricing_plan_id":"cebpf4jnsgd1na2vs0mg"},{"bike_id":"ca471b80-8d95-48df-88a2-5ea37fef7ad5","system_id":"levelo_inurba_marseille","lat":43.25117,"lon":5.40321,"is_reserved":false,"is_disabled":false,"rental_uris":{"android":"levelo://app?vid=ca471b80-8d95-48df-88a2-5ea37fef7ad5","ios":"levelo://app?vid=ca471b80-8d95-48df-88a2-5ea37fef7ad5"},"vehicle_type_id":"4","last_reported":1730286464,"current_range_meters":14000,"station_id":"ce4bhlh2rcd13ifvqgig","pricing_plan_id":"cebpf4jnsgd1na2vs0mg"},{"bike_id":"160c3125-d109-49e3-a687-ede78b99dea2","system_id":"levelo_inurba_marseille","lat":43.23198,"lon":5.35546,"is_reserved":false,"is_disabled":false,"rental_uris":{"android":"levelo://app?vid=160c3125-d109-49e3-a687-ede78b99dea2","ios":"levelo://app?vid=160c3125-d109-49e3-a687-ede78b99dea2"},"vehicle_type_id":"4","last_reported":1730286464,"current_range_meters":11200,"station_id":"ce4bhu92rcd13ifvqi70","pricing_plan_id":"cebpf4jnsgd1na2vs0mg"},{"bike_id":"3054340c-845a-4df9-b569-a774141e4930","system_id":"levelo_inurba_marseille","lat":43.24081,"lon":5.37757,"is_reserved":false,"is_disabled":false,"rental_uris":{"android":"levelo://app?vid=3054340c-845a-4df9-b569-a774141e4930","ios":"levelo://app?vid=3054340c-845a-4df9-b569-a774141e4930"},"vehicle_type_id":"4","last_reported":1730286464,"current_range_meters":2000,"station_id":"ce4bhnp2rcd13ifvqgvg","pricing_plan_id":"cebpf4jnsgd1na2vs0mg"},{"bike_id":"d15e5a3a-5812-42ae-8a22-b064b9e316b7","system_id":"levelo_inurba_marseille","lat":43.27994,"lon":5.40014,"is_reserved":false,"is_disabled":false,"rental_uris":{"android":"levelo://app?vid=d15e5a3a-5812-42ae-8a22-b064b9e316b7","ios":"levelo://app?vid=d15e5a3a-5812-42ae-8a22-b064b9e316b7"},"vehicle_type_id":"4","last_reported":1730286464,"current_range_meters":36400,"station_id":"ce4bho92rcd13ifvqh4g","pricing_plan_id":"cebpf4jnsgd1na2vs0mg"},{"bike_id":"739b4853-178e-41f7-83b4-94764ed98225","system_id":"levelo_inurba_marseille","lat":43.29034,"lon":5.37569,"is_reserved":false,"is_disabled":false,"rental_uris":{"android":"levelo://app?vid=739b4853-178e-41f7-83b4-94764ed98225","ios":"levelo://app?vid=739b4853-178e-41f7-83b4-94764ed98225"},"vehicle_type_id":"4","last_reported":1730286464,"current_range_meters":24000,"station_id":"ce4bh692rcd13ifvqe90","pricing_plan_id":"cebpf4jnsgd1na2vs0mg"},{"bike_id":"aaa47e63-dbe8-4c23-8ac9-ecbf6a01743a","system_id":"levelo_inurba_marseille","lat":43.28271,"lon":5.35062,"is_reserved":false,"is_disabled":false,"rental_uris":{"android":"levelo://app?vid=aaa47e63-dbe8-4c23-8ac9-ecbf6a01743a","ios":"levelo://app?vid=aaa47e63-dbe8-4c23-8ac9-ecbf6a01743a"},"vehicle_type_id":"4","last_reported":1730286464,"current_range_meters":31200,"station_id":"ce4bhbp2rcd13ifvqerg","pricing_plan_id":"cebpf4jnsgd1na2vs0mg"},{"bike_id":"d52a8635-92da-4c36-8f67-114da5a249e0","system_id":"levelo_inurba_marseille","lat":43.29526,"lon":5.39041,"is_reserved":false,"is_disabled":false,"rental_uris":{"android":"levelo://app?vid=d52a8635-92da-4c36-8f67-114da5a249e0","ios":"levelo://app?vid=d52a8635-92da-4c36-8f67-114da5a249e0"},"vehicle_type_id":"4","last_reported":1730286464,"current_range_meters":32400,"station_id":"ce4bh3p2rcd13ifvqdp0","pricing_plan_id":"cebpf4jnsgd1na2vs0mg"},{"bike_id":"e95f9327-9823-4802-a5a3-242fcbf51713","system_id":"levelo_inurba_marseille","lat":43.28075,"lon":5.39645,"is_reserved":false,"is_disabled":false,"rental_uris":{"android":"levelo://app?vid=e95f9327-9823-4802-a5a3-242fcbf51713","ios":"levelo://app?vid=e95f9327-9823-4802-a5a3-242fcbf51713"},"vehicle_type_id":"4","last_reported":1730286464,"current_range_meters":14400,"station_id":"ce4bho12rcd13ifvqh2g","pricing_plan_id":"cebpf4jnsgd1na2vs0mg"},{"bike_id":"76ae65e7-1304-4c14-b23b-fa35af4a2ade","system_id":"levelo_inurba_marseille","lat":43.28424,"lon":5.34992,"is_reserved":false,"is_disabled":false,"rental_uris":{"android":"levelo://app?vid=76ae65e7-1304-4c14-b23b-fa35af4a2ade","ios":"levelo://app?vid=76ae65e7-1304-4c14-b23b-fa35af4a2ade"},"vehicle_type_id":"4","last_reported":1730286464,"current_range_meters":38400,"station_id":"ce4bhbh2rcd13ifvqepg","pricing_plan_id":"cebpf4jnsgd1na2vs0mg"},{"bike_id":"ccdfd319-6908-4ad8-9315-50628bb4a478","system_id":"levelo_inurba_marseille","lat":43.27173,"lon":5.40987,"is_reserved":false,"is_disabled":false,"rental_uris":{"android":"levelo://app?vid=ccdfd319-6908-4ad8-9315-50628bb4a478","ios":"levelo://app?vid=ccdfd319-6908-4ad8-9315-50628bb4a478"},"vehicle_type_id":"4","last_reported":1730286464,"current_range_meters":38800,"station_id":"ce4bhl12rcd13ifvqgf0","pricing_plan_id":"cebpf4jnsgd1na2vs0mg"},{"bike_id":"7d7c7b0a-2e7f-435e-9a0b-9fedc54eb71b","system_id":"levelo_inurba_marseille","lat":43.32542,"lon":5.41441,"is_reserved":false,"is_disabled":false,"rental_uris":{"android":"levelo://app?vid=7d7c7b0a-2e7f-435e-9a0b-9fedc54eb71b","ios":"levelo://app?vid=7d7c7b0a-2e7f-435e-9a0b-9fedc54eb71b"},"vehicle_type_id":"4","last_reported":1730286464,"current_range_meters":20000,"station_id":"ce4bhq12rcd13ifvqhhg","pricing_plan_id":"cebpf4jnsgd1na2vs0mg"},{"bike_id":"72607bf4-bf02-4d9e-a724-b2a1cbfa169d","system_id":"levelo_inurba_marseille","lat":43.24074,"lon":5.37756,"is_reserved":false,"is_disabled":false,"rental_uris":{"android":"levelo://app?vid=72607bf4-bf02-4d9e-a724-b2a1cbfa169d","ios":"levelo://app?vid=72607bf4-bf02-4d9e-a724-b2a1cbfa169d"},"vehicle_type_id":"4","last_reported":1730286464,"current_range_meters":38800,"station_id":"ce4bhnp2rcd13ifvqgvg","pricing_plan_id":"cebpf4jnsgd1na2vs0mg"},{"bike_id":"b1a99226-ccc1-4db9-a7fd-eb25c9449489","system_id":"levelo_inurba_marseille","lat":43.320608,"lon":5.41541,"is_reserved":false,"is_disabled":false,"rental_uris":{"android":"levelo://app?vid=b1a99226-ccc1-4db9-a7fd-eb25c9449489","ios":"levelo://app?vid=b1a99226-ccc1-4db9-a7fd-eb25c9449489"},"vehicle_type_id":"4","last_reported":1730286464,"current_range_meters":30800,"station_id":"ce4bhq92rcd13ifvqhkg","pricing_plan_id":"cebpf4jnsgd1na2vs0mg"},{"bike_id":"83346ad2-1f5f-479d-843e-899ab63acbfd","system_id":"levelo_inurba_marseille","lat":43.30895,"lon":5.3719,"is_reserved":false,"is_disabled":false,"rental_uris":{"android":"levelo://app?vid=83346ad2-1f5f-479d-843e-899ab63acbfd","ios":"levelo://app?vid=83346ad2-1f5f-479d-843e-899ab63acbfd"},"vehicle_type_id":"4","last_reported":1730286464,"current_range_meters":10000,"station_id":"ce4bguh2rcd13ifvqckg","pricing_plan_id":"cebpf4jnsgd1na2vs0mg"},{"bike_id":"1cdad1e0-5255-4c69-973d-12b025ca8c3e","system_id":"levelo_inurba_marseille","lat":43.2695,"lon":5.38634,"is_reserved":false,"is_disabled":false,"rental_uris":{"android":"levelo://app?vid=1cdad1e0-5255-4c69-973d-12b025ca8c3e","ios":"levelo://app?vid=1cdad1e0-5255-4c69-973d-12b025ca8c3e"},"vehicle_type_id":"4","last_reported":1730286464,"current_range_meters":32000,"station_id":"ce4bhh92rcd13ifvqfh0","pricing_plan_id":"cebpf4jnsgd1na2vs0mg"},{"bike_id":"fd121420-66a3-47db-81e3-d4751a43951a","system_id":"levelo_inurba_marseille","lat":43.29523,"lon":5.3904,"is_reserved":false,"is_disabled":false,"rental_uris":{"android":"levelo://app?vid=fd121420-66a3-47db-81e3-d4751a43951a","ios":"levelo://app?vid=fd121420-66a3-47db-81e3-d4751a43951a"},"vehicle_type_id":"4","last_reported":1730286464,"current_range_meters":28000,"station_id":"ce4bh3p2rcd13ifvqdp0","pricing_plan_id":"cebpf4jnsgd1na2vs0mg"},{"bike_id":"509c1a13-0b4f-4f63-aa2c-bd14ea6d8358","system_id":"levelo_inurba_marseille","lat":43.2594,"lon":5.40898,"is_reserved":false,"is_disabled":false,"rental_uris":{"android":"levelo://app?vid=509c1a13-0b4f-4f63-aa2c-bd14ea6d8358","ios":"levelo://app?vid=509c1a13-0b4f-4f63-aa2c-bd14ea6d8358"},"vehicle_type_id":"4","last_reported":1730286464,"current_range_meters":36800,"station_id":"ce4bhm92rcd13ifvqglg","pricing_plan_id":"cebpf4jnsgd1na2vs0mg"},{"bike_id":"76b0aea6-9091-40e4-b634-52334cde1bc8","system_id":"levelo_inurba_marseille","lat":43.30959,"lon":5.39035,"is_reserved":false,"is_disabled":false,"rental_uris":{"android":"levelo://app?vid=76b0aea6-9091-40e4-b634-52334cde1bc8","ios":"levelo://app?vid=76b0aea6-9091-40e4-b634-52334cde1bc8"},"vehicle_type_id":"4","last_reported":1730286464,"current_range_meters":13600,"station_id":"ce4bgup2rcd13ifvqco0","pricing_plan_id":"cebpf4jnsgd1na2vs0mg"},{"bike_id":"2b7478b7-886e-4bf0-9251-71e385d862fb","system_id":"levelo_inurba_marseille","lat":43.29558,"lon":5.42281,"is_reserved":false,"is_disabled":false,"rental_uris":{"android":"levelo://app?vid=2b7478b7-886e-4bf0-9251-71e385d862fb","ios":"levelo://app?vid=2b7478b7-886e-4bf0-9251-71e385d862fb"},"vehicle_type_id":"4","last_reported":1730286464,"current_range_meters":37600,"station_id":"ce4bhph2rcd13ifvqhdg","pricing_plan_id":"cebpf4jnsgd1na2vs0mg"},{"bike_id":"bfb1a2f2-5dd7-404a-90bb-be56759f829f","system_id":"levelo_inurba_marseille","lat":43.27997,"lon":5.4165,"is_reserved":false,"is_disabled":false,"rental_uris":{"android":"levelo://app?vid=bfb1a2f2-5dd7-404a-90bb-be56759f829f","ios":"levelo://app?vid=bfb1a2f2-5dd7-404a-90bb-be56759f829f"},"vehicle_type_id":"4","last_reported":1730286464,"current_range_meters":37600,"station_id":"ce4bho12rcd13ifvqh1g","pricing_plan_id":"cebpf4jnsgd1na2vs0mg"},{"bike_id":"dc7045d2-bec0-4322-a3c4-87bbcb88bc25","system_id":"levelo_inurba_marseille","lat":43.26787,"lon":5.39418,"is_reserved":false,"is_disabled":false,"rental_uris":{"android":"levelo://app?vid=dc7045d2-bec0-4322-a3c4-87bbcb88bc25","ios":"levelo://app?vid=dc7045d2-bec0-4322-a3c4-87bbcb88bc25"},"vehicle_type_id":"4","last_reported":1730286464,"current_range_meters":35200,"station_id":"ce4bhh12rcd13ifvqfg0","pricing_plan_id":"cebpf4jnsgd1na2vs0mg"},{"bike_id":"b9dd1c6c-c848-47b0-bff3-cb8927556545","system_id":"levelo_inurba_marseille","lat":43.29021,"lon":5.37552,"is_reserved":false,"is_disabled":false,"rental_uris":{"android":"levelo://app?vid=b9dd1c6c-c848-47b0-bff3-cb8927556545","ios":"levelo://app?vid=b9dd1c6c-c848-47b0-bff3-cb8927556545"},"vehicle_type_id":"4","last_reported":1730286464,"current_range_meters":37600,"station_id":"ce4bh692rcd13ifvqe90","pricing_plan_id":"cebpf4jnsgd1na2vs0mg"},{"bike_id":"e004cf0e-1b3b-4f8a-9d93-ac4bcfc19912","system_id":"levelo_inurba_marseille","lat":43.30957,"lon":5.3904,"is_reserved":false,"is_disabled":false,"rental_uris":{"android":"levelo://app?vid=e004cf0e-1b3b-4f8a-9d93-ac4bcfc19912","ios":"levelo://app?vid=e004cf0e-1b3b-4f8a-9d93-ac4bcfc19912"},"vehicle_type_id":"4","last_reported":1730286464,"current_range_meters":39200,"station_id":"ce4bgup2rcd13ifvqco0","pricing_plan_id":"cebpf4jnsgd1na2vs0mg"},{"bike_id":"869db611-0582-461b-98e3-3c6128f46b9f","system_id":"levelo_inurba_marseille","lat":43.29006,"lon":5.35608,"is_reserved":false,"is_disabled":false,"rental_uris":{"android":"levelo://app?vid=869db611-0582-461b-98e3-3c6128f46b9f","ios":"levelo://app?vid=869db611-0582-461b-98e3-3c6128f46b9f"},"vehicle_type_id":"4","last_reported":1730286464,"current_range_meters":36800,"station_id":"ce4bhb92rcd13ifvqen0","pricing_plan_id":"cebpf4jnsgd1na2vs0mg"},{"bike_id":"dd31be35-09f9-4b89-b149-3ff9cdce4487","system_id":"levelo_inurba_marseille","lat":43.27844,"lon":5.39205,"is_reserved":false,"is_disabled":false,"rental_uris":{"android":"levelo://app?vid=dd31be35-09f9-4b89-b149-3ff9cdce4487","ios":"levelo://app?vid=dd31be35-09f9-4b89-b149-3ff9cdce4487"},"vehicle_type_id":"4","last_reported":1730286464,"current_range_meters":12800,"station_id":"ce4bhjp2rcd13ifvqga0","pricing_plan_id":"cebpf4jnsgd1na2vs0mg"},{"bike_id":"c7752396-b637-4d30-8864-16e880416660","system_id":"levelo_inurba_marseille","lat":43.24664,"lon":5.3816,"is_reserved":false,"is_disabled":false,"rental_uris":{"android":"levelo://app?vid=c7752396-b637-4d30-8864-16e880416660","ios":"levelo://app?vid=c7752396-b637-4d30-8864-16e880416660"},"vehicle_type_id":"4","last_reported":1730286464,"current_range_meters":10800,"station_id":"ce4bhih2rcd13ifvqfr0","pricing_plan_id":"cebpf4jnsgd1na2vs0mg"},{"bike_id":"2fec06cf-9d64-4a42-8b48-e61a5f55109c","system_id":"levelo_inurba_marseille","lat":43.31994,"lon":5.38153,"is_reserved":false,"is_disabled":false,"rental_uris":{"android":"levelo://app?vid=2fec06cf-9d64-4a42-8b48-e61a5f55109c","ios":"levelo://app?vid=2fec06cf-9d64-4a42-8b48-e61a5f55109c"},"vehicle_type_id":"4","last_reported":1730286464,"current_range_meters":38000,"station_id":"ce4bhr12rcd13ifvqhpg","pricing_plan_id":"cebpf4jnsgd1na2vs0mg"},{"bike_id":"0af11032-507c-4c4e-8310-2cb274997220","system_id":"levelo_inurba_marseille","lat":43.30957,"lon":5.39045,"is_reserved":false,"is_disabled":false,"rental_uris":{"android":"levelo://app?vid=0af11032-507c-4c4e-8310-2cb274997220","ios":"levelo://app?vid=0af11032-507c-4c4e-8310-2cb274997220"},"vehicle_type_id":"4","last_reported":1730286464,"current_range_meters":27600,"station_id":"ce4bgup2rcd13ifvqco0","pricing_plan_id":"cebpf4jnsgd1na2vs0mg"},{"bike_id":"9a79c046-ffbd-430c-9b08-0a56da8292f5","system_id":"levelo_inurba_marseille","lat":43.231767,"lon":5.399797,"is_reserved":false,"is_disabled":false,"rental_uris":{"android":"levelo://app?vid=9a79c046-ffbd-430c-9b08-0a56da8292f5","ios":"levelo://app?vid=9a79c046-ffbd-430c-9b08-0a56da8292f5"},"vehicle_type_id":"4","last_reported":1730286464,"current_range_meters":38800,"station_id":"ce4bhn12rcd13ifvqgqg","pricing_plan_id":"cebpf4jnsgd1na2vs0mg"},{"bike_id":"00570a9a-70dc-4fd9-a21d-b33665529146","system_id":"levelo_inurba_marseille","lat":43.23968,"lon":5.36634,"is_reserved":false,"is_disabled":false,"rental_uris":{"android":"levelo://app?vid=00570a9a-70dc-4fd9-a21d-b33665529146","ios":"levelo://app?vid=00570a9a-70dc-4fd9-a21d-b33665529146"},"vehicle_type_id":"4","last_reported":1730286464,"current_range_meters":38800,"station_id":"ce4bhi12rcd13ifvqfp0","pricing_plan_id":"cebpf4jnsgd1na2vs0mg"},{"bike_id":"13733b6d-2562-481b-8b69-d205523f08c4","system_id":"levelo_inurba_marseille","lat":43.32059,"lon":5.41541,"is_reserved":false,"is_disabled":false,"rental_uris":{"android":"levelo://app?vid=13733b6d-2562-481b-8b69-d205523f08c4","ios":"levelo://app?vid=13733b6d-2562-481b-8b69-d205523f08c4"},"vehicle_type_id":"4","last_reported":1730286464,"current_range_meters":37600,"station_id":"ce4bhq92rcd13ifvqhkg","pricing_plan_id":"cebpf4jnsgd1na2vs0mg"},{"bike_id":"9592eb1a-4a46-4535-b3fe-0af141dace43","system_id":"levelo_inurba_marseille","lat":43.239673,"lon":5.36625,"is_reserved":false,"is_disabled":false,"rental_uris":{"android":"levelo://app?vid=9592eb1a-4a46-4535-b3fe-0af141dace43","ios":"levelo://app?vid=9592eb1a-4a46-4535-b3fe-0af141dace43"},"vehicle_type_id":"4","last_reported":1730286464,"current_range_meters":32000,"station_id":"ce4bhi12rcd13ifvqfp0","pricing_plan_id":"cebpf4jnsgd1na2vs0mg"},{"bike_id":"d1794a4f-f44b-40d7-9bf1-bf2695d62421","system_id":"levelo_inurba_marseille","lat":43.3036,"lon":5.41866,"is_reserved":false,"is_disabled":false,"rental_uris":{"android":"levelo://app?vid=d1794a4f-f44b-40d7-9bf1-bf2695d62421","ios":"levelo://app?vid=d1794a4f-f44b-40d7-9bf1-bf2695d62421"},"vehicle_type_id":"4","last_reported":1730286464,"current_range_meters":35600,"station_id":"ce4bhop2rcd13ifvqh7g","pricing_plan_id":"cebpf4jnsgd1na2vs0mg"},{"bike_id":"222a4be3-636f-4777-ac4c-ca7ad7606c3a","system_id":"levelo_inurba_marseille","lat":43.29633,"lon":5.40605,"is_reserved":false,"is_disabled":false,"rental_uris":{"android":"levelo://app?vid=222a4be3-636f-4777-ac4c-ca7ad7606c3a","ios":"levelo://app?vid=222a4be3-636f-4777-ac4c-ca7ad7606c3a"},"vehicle_type_id":"4","last_reported":1730286464,"current_range_meters":38400,"station_id":"ce4bh0h2rcd13ifvqd60","pricing_plan_id":"cebpf4jnsgd1na2vs0mg"},{"bike_id":"9e46708d-d725-4de5-b98b-401586e420e4","system_id":"levelo_inurba_marseille","lat":43.32537,"lon":5.41446,"is_reserved":false,"is_disabled":false,"rental_uris":{"android":"levelo://app?vid=9e46708d-d725-4de5-b98b-401586e420e4","ios":"levelo://app?vid=9e46708d-d725-4de5-b98b-401586e420e4"},"vehicle_type_id":"4","last_reported":1730286464,"current_range_meters":20000,"station_id":"ce4bhq12rcd13ifvqhhg","pricing_plan_id":"cebpf4jnsgd1na2vs0mg"},{"bike_id":"ff03f98f-1300-4c07-8fcd-78b5b03883bd","system_id":"levelo_inurba_marseille","lat":43.29811,"lon":5.38086,"is_reserved":false,"is_disabled":false,"rental_uris":{"android":"levelo://app?vid=ff03f98f-1300-4c07-8fcd-78b5b03883bd","ios":"levelo://app?vid=ff03f98f-1300-4c07-8fcd-78b5b03883bd"},"vehicle_type_id":"4","last_reported":1730286464,"current_range_meters":38800,"station_id":"ce4bgip2rcd13ifvqbb0","pricing_plan_id":"cebpf4jnsgd1na2vs0mg"},{"bike_id":"b8d0303d-abed-418a-bba4-b9e591c0e5d6","system_id":"levelo_inurba_marseille","lat":43.30357,"lon":5.41884,"is_reserved":false,"is_disabled":false,"rental_uris":{"android":"levelo://app?vid=b8d0303d-abed-418a-bba4-b9e591c0e5d6","ios":"levelo://app?vid=b8d0303d-abed-418a-bba4-b9e591c0e5d6"},"vehicle_type_id":"4","last_reported":1730286464,"current_range_meters":36800,"station_id":"ce4bhop2rcd13ifvqh7g","pricing_plan_id":"cebpf4jnsgd1na2vs0mg"},{"bike_id":"21d8cab5-b890-49ff-b193-0034e262f2ef","system_id":"levelo_inurba_marseille","lat":43.2293,"lon":5.35378,"is_reserved":false,"is_disabled":false,"rental_uris":{"android":"levelo://app?vid=21d8cab5-b890-49ff-b193-0034e262f2ef","ios":"levelo://app?vid=21d8cab5-b890-49ff-b193-0034e262f2ef"},"vehicle_type_id":"4","last_reported":1730286464,"current_range_meters":24400,"station_id":"cpo3532slgdg3j2ikp40","pricing_plan_id":"cebpf4jnsgd1na2vs0mg"},{"bike_id":"52cd4322-da47-43f1-b749-147e77e1a70f","system_id":"levelo_inurba_marseille","lat":43.24067,"lon":5.37763,"is_reserved":false,"is_disabled":false,"rental_uris":{"android":"levelo://app?vid=52cd4322-da47-43f1-b749-147e77e1a70f","ios":"levelo://app?vid=52cd4322-da47-43f1-b749-147e77e1a70f"},"vehicle_type_id":"4","last_reported":1730286464,"current_range_meters":38000,"station_id":"ce4bhnp2rcd13ifvqgvg","pricing_plan_id":"cebpf4jnsgd1na2vs0mg"},{"bike_id":"86632fbd-1050-451a-aadc-43c32ca89234","system_id":"levelo_inurba_marseille","lat":43.33751,"lon":5.37448,"is_reserved":false,"is_disabled":false,"rental_uris":{"android":"levelo://app?vid=86632fbd-1050-451a-aadc-43c32ca89234","ios":"levelo://app?vid=86632fbd-1050-451a-aadc-43c32ca89234"},"vehicle_type_id":"4","last_reported":1730286464,"current_range_meters":19600,"station_id":"","pricing_plan_id":"cebpf4jnsgd1na2vs0mg"},{"bike_id":"00230415-7e52-4c44-be9f-c7b241250dcc","system_id":"levelo_inurba_marseille","lat":43.26572,"lon":5.39026,"is_reserved":false,"is_disabled":false,"rental_uris":{"android":"levelo://app?vid=00230415-7e52-4c44-be9f-c7b241250dcc","ios":"levelo://app?vid=00230415-7e52-4c44-be9f-c7b241250dcc"},"vehicle_type_id":"4","last_reported":1730286464,"current_range_meters":38800,"station_id":"ce4bhe12rcd13ifvqf30","pricing_plan_id":"cebpf4jnsgd1na2vs0mg"},{"bike_id":"f8eed8c0-3ee9-4ecd-b4af-c1ae7a7b4c67","system_id":"levelo_inurba_marseille","lat":43.27818,"lon":5.40716,"is_reserved":false,"is_disabled":false,"rental_uris":{"android":"levelo://app?vid=f8eed8c0-3ee9-4ecd-b4af-c1ae7a7b4c67","ios":"levelo://app?vid=f8eed8c0-3ee9-4ecd-b4af-c1ae7a7b4c67"},"vehicle_type_id":"4","last_reported":1730286464,"current_range_meters":32400,"station_id":"ce4bhnh2rcd13ifvqgtg","pricing_plan_id":"cebpf4jnsgd1na2vs0mg"},{"bike_id":"20c86bf3-6a79-4d4e-8c7d-34a050ed8920","system_id":"levelo_inurba_marseille","lat":43.30549,"lon":5.36524,"is_reserved":false,"is_disabled":false,"rental_uris":{"android":"levelo://app?vid=20c86bf3-6a79-4d4e-8c7d-34a050ed8920","ios":"levelo://app?vid=20c86bf3-6a79-4d4e-8c7d-34a050ed8920"},"vehicle_type_id":"4","last_reported":1730286464,"current_range_meters":38800,"station_id":"ce4bgs12rcd13ifvqcag","pricing_plan_id":"cebpf4jnsgd1na2vs0mg"},{"bike_id":"1715798e-dce0-4392-b96b-7eddea84d311","system_id":"levelo_inurba_marseille","lat":43.24075,"lon":5.37759,"is_reserved":false,"is_disabled":false,"rental_uris":{"android":"levelo://app?vid=1715798e-dce0-4392-b96b-7eddea84d311","ios":"levelo://app?vid=1715798e-dce0-4392-b96b-7eddea84d311"},"vehicle_type_id":"4","last_reported":1730286464,"current_range_meters":8800,"station_id":"ce4bhnp2rcd13ifvqgvg","pricing_plan_id":"cebpf4jnsgd1na2vs0mg"},