{"last_updated":1771483684,"ttl":60,"version":"2.2","data":{"bikes":[{"bike_id":"f172b5b3-c333-47ea-9d5e-14a1e1c1e1bd","system_id":"levelo_inurba_marseille","lat":43.265073,"lon":5.395727,"is_reserved":false,"is_disabled":false,"rental_uris":{"android":"levelo://app?vid=f172b5b3-c333-47ea-9d5e-14a1e1c1e1bd","ios":"levelo://app?vid=f172b5b3-c333-47ea-9d5e-14a1e1c1e1bd"},"vehicle_type_id":"4","last_reported":1771483684,"current_range_meters":29600,"station_id":"ce4bhi12rcd13ifvqfq0","pricing_plan_id":"cebpf4jnsgd1na2vs0mg"},{"bike_id":"082c18e4-001a-495d-847f-c5ad36f2a9ff","system_id":"levelo_inurba_marseille","lat":43.25104,"lon":5.40338,"is_reserved":false,"is_disabled":false,"rental_uris":{"android":"levelo://app?vid=082c18e4-001a-495d-847f-c5ad36f2a9ff","ios":"levelo://app?vid=082c18e4-001a-495d-847f-c5ad36f2a9ff"},"vehicle_type_id":"4","last_reported":1771483684,"current_range_meters":8400,"station_id":"ce4bhlh2rcd13ifvqgig","pricing_plan_id":"cebpf4jnsgd1na2vs0mg"},{"bike_id":"d2556e92-2ca9-4a78-9f71-9255354e5fd9","system_id":"levelo_inurba_marseille","lat":43.28842,"lon":5.39332,"is_reserved":false,"is_disabled":true,"rental_uris":{"android":"levelo://app?vid=d2556e92-2ca9-4a78-9f71-9255354e5fd9","ios":"levelo://app?vid=d2556e92-2ca9-4a78-9f71-9255354e5fd9"},"vehicle_type_id":"4","last_reported":1771483684,"current_range_meters":30000,"station_id":"ce4bh2p2rcd13ifvqdi0","pricing_plan_id":"cebpf4jnsgd1na2vs0mg"},{"bike_id":"d8078990-2633-4921-9e81-c73d420fcb12","system_id":"levelo_inurba_marseille","lat":43.28405,"lon":5.37542,"is_reserved":false,"is_disabled":true,"rental_uris":{"android":"levelo://app?vid=d8078990-2633-4921-9e81-c73d420fcb12","ios":"levelo://app?vid=d8078990-2633-4921-9e81-c73d420fcb12"},"vehicle_type_id":"4","last_reported":1771483684,"current_range_meters":19600,"station_id":"ce4bh412rcd13ifvqds0","pricing_plan_id":"cebpf4jnsgd1na2vs0mg"},{"bike_id":"f56469d6-156e-4dc9-9c3e-3416ed76c4ba","system_id":"levelo_inurba_marseille","lat":43.33163,"lon":5.37687,"is_reserved":false,"is_disabled":false,"rental_uris":{"android":"levelo://app?vid=f56469d6-156e-4dc9-9c3e-3416ed76c4ba","ios":"levelo://app?vid=f56469d6-156e-4dc9-9c3e-3416ed76c4ba"},"vehicle_type_id":"4","last_reported":1771483684,"current_range_meters":24000,"station_id":"st_d46cu089ee8s73dldbu0","pricing_plan_id":"cebpf4jnsgd1na2vs0mg"},{"bike_id":"dc672bbc-e8e0-4270-8b4d-a25daca74390","system_id":"levelo_inurba_marseille","lat":43.30649,"lon":5.40107,"is_reserved":false,"is_disabled":false,"rental_uris":{"android":"levelo://app?vid=dc672bbc-e8e0-4270-8b4d-a25daca74390","ios":"levelo://app?vid=dc672bbc-e8e0-4270-8b4d-a25daca74390"},"vehicle_type_id":"4","last_reported":1771483684,"current_range_meters":32800,"station_id":"ce4bh112rcd13ifvqda0","pricing_plan_id":"cebpf4jnsgd1na2vs0mg"},{"bike_id":"491d9612-0510-42b7-9315-95ae0bf87c4b","system_id":"levelo_inurba_marseille","lat":43.24661,"lon":5.3891,"is_reserved":false,"is_disabled":false,"rental_uris":{"android":"levelo://app?vid=491d9612-0510-42b7-9315-95ae0bf87c4b","ios":"levelo://app?vid=491d9612-0510-42b7-9315-95ae0bf87c4b"},"vehicle_type_id":"4","last_reported":1771483684,"current_range_meters":38400,"station_id":"ce4bhg12rcd13ifvqf60","pricing_plan_id":"cebpf4jnsgd1na2vs0mg"},{"bike_id":"ec3c2263-3477-484f-b296-a0baddece9fc","system_id":"levelo_inurba_marseille","lat":43.31683,"lon":5.40478,"is_reserved":false,"is_disabled":false,"rental_uris":{"android":"levelo://app?vid=ec3c2263-3477-484f-b296-a0baddece9fc","ios":"levelo://app?vid=ec3c2263-3477-484f-b296-a0baddece9fc"},"vehicle_type_id":"4","last_reported":1771483684,"current_range_meters":38800,"station_id":"ce4bh012rcd13ifvqd00","pricing_plan_id":"cebpf4jnsgd1na2vs0mg"},{"bike_id":"1d13cd77-d7b2-41db-9ccc-f0852a66c40e","system_id":"levelo_inurba_marseille","lat":43.27838,"lon":5.39218,"is_reserved":false,"is_disabled":false,"rental_uris":{"android":"levelo://app?vid=1d13cd77-d7b2-41db-9ccc-f0852a66c40e","ios":"levelo://app?vid=1d13cd77-d7b2-41db-9ccc-f0852a66c40e"},"vehicle_type_id":"4","last_reported":1771483684,"current_range_meters":33200,"station_id":"ce4bhjp2rcd13ifvqga0","pricing_plan_id":"cebpf4jnsgd1na2vs0mg"},{"bike_id":"37b7f341-16d7-4eb9-9d63-c0dc411fcc94","system_id":"levelo_inurba_marseille","lat":43.24174,"lon":5.39717,"is_reserved":false,"is_disabled":false,"rental_uris":{"android":"levelo://app?vid=37b7f341-16d7-4eb9-9d63-c0dc411fcc94","ios":"levelo://app?vid=37b7f341-16d7-4eb9-9d63-c0dc411fcc94"},"vehicle_type_id":"4","last_reported":1771483684,"current_range_meters":19600,"station_id":"ce4bhn12rcd13ifvqgpg","pricing_plan_id":"cebpf4jnsgd1na2vs0mg"},{"bike_id":"d2bb17c7-6558-4b9c-ae8a-0d2292552853","system_id":"levelo_inurba_marseille","lat":43.28482,"lon":5.48399,"is_reserved":false,"is_disabled":false,"rental_uris":{"android":"levelo://app?vid=d2bb17c7-6558-4b9c-ae8a-0d2292552853","ios":"levelo://app?vid=d2bb17c7-6558-4b9c-ae8a-0d2292552853"},"vehicle_type_id":"4","last_reported":1771483684,"current_range_meters":36000,"station_id":"","pricing_plan_id":"cebpf4jnsgd1na2vs0mg"},{"bike_id":"da4093a5-6673-43a8-b7ee-b4859a45cac4","system_id":"levelo_inurba_marseille","lat":43.24397,"lon":5.3708,"is_reserved":false,"is_disabled":false,"rental_uris":{"android":"levelo://app?vid=da4093a5-6673-43a8-b7ee-b4859a45cac4","ios":"levelo://app?vid=da4093a5-6673-43a8-b7ee-b4859a45cac4"},"vehicle_type_id":"4","last_reported":1771483684,"current_range_meters":7200,"station_id":"ce4bhhh2rcd13ifvqfk0","pricing_plan_id":"cebpf4jnsgd1na2vs0mg"},{"bike_id":"d0efee54-ca3b-413f-be50-86575cf0614e","system_id":"levelo_inurba_marseille","lat":43.30277,"lon":5.40101,"is_reserved":false,"is_disabled":true,"rental_uris":{"android":"levelo://app?vid=d0efee54-ca3b-413f-be50-86575cf0614e","ios":"levelo://app?vid=d0efee54-ca3b-413f-be50-86575cf0614e"},"vehicle_type_id":"4","last_reported":1771483684,"current_range_meters":7200,"station_id":"ce4bgvh2rcd13ifvqcs0","pricing_plan_id":"cebpf4jnsgd1na2vs0mg"},{"bike_id":"7cc7ae6d-fe1b-4556-aa28-0dd3a5e0cb66","system_id":"levelo_inurba_marseille","lat":43.28723,"lon":5.36097,"is_reserved":false,"is_disabled":false,"rental_uris":{"android":"levelo://app?vid=7cc7ae6d-fe1b-4556-aa28-0dd3a5e0cb66","ios":"levelo://app?vid=7cc7ae6d-fe1b-4556-aa28-0dd3a5e0cb66"},"vehicle_type_id":"4","last_reported":1771483684,"current_range_meters":37600,"station_id":"cki0cbj6b192h4jlfktg","pricing_plan_id":"cebpf4jnsgd1na2vs0mg"},{"bike_id":"e6c1de9c-2deb-4b67-aa84-2176530c24d5","system_id":"levelo_inurba_marseille","lat":43.28844,"lon":5.3932,"is_reserved":false,"is_disabled":false,"rental_uris":{"android":"levelo://app?vid=e6c1de9c-2deb-4b67-aa84-2176530c24d5","ios":"levelo://app?vid=e6c1de9c-2deb-4b67-aa84-2176530c24d5"},"vehicle_type_id":"4","last_reported":1771483684,"current_range_meters":38000,"station_id":"ce4bh2p2rcd13ifvqdi0","pricing_plan_id":"cebpf4jnsgd1na2vs0mg"},{"bike_id":"91416439-b37a-4b2d-b98e-28f7d27e0074","system_id":"levelo_inurba_marseille","lat":43.26557,"lon":5.39038,"is_reserved":false,"is_disabled":false,"rental_uris":{"android":"levelo://app?vid=91416439-b37a-4b2d-b98e-28f7d27e0074","ios":"levelo://app?vid=91416439-b37a-4b2d-b98e-28f7d27e0074"},"vehicle_type_id":"4","last_reported":1771483684,"current_range_meters":32400,"station_id":"ce4bhe12rcd13ifvqf30","pricing_plan_id":"cebpf4jnsgd1na2vs0mg"},{"bike_id":"0755867f-5640-414a-b41f-a3c933ce811e","system_id":"levelo_inurba_marseille","lat":43.29026,"lon":5.3812,"is_reserved":false,"is_disabled":false,"rental_uris":{"android":"levelo://app?vid=0755867f-5640-414a-b41f-a3c933ce811e","ios":"levelo://app?vid=0755867f-5640-414a-b41f-a3c933ce811e"},"vehicle_type_id":"4","last_reported":1771483684,"current_range_meters":33600,"station_id":"ce4bh4p2rcd13ifvqe1g","pricing_plan_id":"cebpf4jnsgd1na2vs0mg"},{"bike_id":"351bcd66-96e5-4e62-ae12-2c87a2f81846","system_id":"levelo_inurba_marseille","lat":43.27539,"lon":5.38425,"is_reserved":false,"is_disabled":false,"rental_uris":{"android":"levelo://app?vid=351bcd66-96e5-4e62-ae12-2c87a2f81846","ios":"levelo://app?vid=351bcd66-96e5-4e62-ae12-2c87a2f81846"},"vehicle_type_id":"4","last_reported":1771483684,"current_range_meters":39200,"station_id":"ce4bhh92rcd13ifvqfi0","pricing_plan_id":"cebpf4jnsgd1na2vs0mg"},{"bike_id":"1c09d9bd-54fb-4be8-81ee-d9e761e8a40a","system_id":"levelo_inurba_marseille","lat":43.324468,"lon":5.404481,"is_reserved":false,"is_disabled":false,"rental_uris":{"android":"levelo://app?vid=1c09d9bd-54fb-4be8-81ee-d9e761e8a40a","ios":"levelo://app?vid=1c09d9bd-54fb-4be8-81ee-d9e761e8a40a"},"vehicle_type_id":"4","last_reported":1771483684,"current_range_meters":29600,"station_id":"","pricing_plan_id":"cebpf4jnsgd1na2vs0mg"},{"bike_id":"995dd4aa-d943-4547-aee8-c3325bdb05ae","system_id":"levelo_inurba_marseille","lat":43.31269,"lon":5.40174,"is_reserved":false,"is_disabled":true,"rental_uris":{"android":"levelo://app?vid=995dd4aa-d943-4547-aee8-c3325bdb05ae","ios":"levelo://app?vid=995dd4aa-d943-4547-aee8-c3325bdb05ae"},"vehicle_type_id":"4","last_reported":1771483684,"current_range_meters":22800,"station_id":"ce4bh092rcd13ifvqd30","pricing_plan_id":"cebpf4jnsgd1na2vs0mg"},{"bike_id":"b7e66e04-df8a-47f2-bad3-fe275c5c95e1","system_id":"levelo_inurba_marseille","lat":43.30879,"lon":5.39635,"is_reserved":false,"is_disabled":false,"rental_uris":{"android":"levelo://app?vid=b7e66e04-df8a-47f2-bad3-fe275c5c95e1","ios":"levelo://app?vid=b7e66e04-df8a-47f2-bad3-fe275c5c95e1"},"vehicle_type_id":"4","last_reported":1771483684,"current_range_meters":38800,"station_id":"ce4bh012rcd13ifvqcv0","pricing_plan_id":"cebpf4jnsgd1na2vs0mg"},{"bike_id":"0d556e9f-0611-4f3c-8a2c-f68279a59dec","system_id":"levelo_inurba_marseille","lat":43.286141,"lon":5.351014,"is_reserved":false,"is_disabled":false,"rental_uris":{"android":"levelo://app?vid=0d556e9f-0611-4f3c-8a2c-f68279a59dec","ios":"levelo://app?vid=0d556e9f-0611-4f3c-8a2c-f68279a59dec"},"vehicle_type_id":"4","last_reported":1771483684,"current_range_meters":29600,"station_id":"ce4bhch2rcd13ifvqeug","pricing_plan_id":"cebpf4jnsgd1na2vs0mg"},{"bike_id":"2bc11330-0c0c-49bb-9a81-5405a305d1d2","system_id":"levelo_inurba_marseille","lat":43.2848,"lon":5.3844,"is_reserved":false,"is_disabled":false,"rental_uris":{"android":"levelo://app?vid=2bc11330-0c0c-49bb-9a81-5405a305d1d2","ios":"levelo://app?vid=2bc11330-0c0c-49bb-9a81-5405a305d1d2"},"vehicle_type_id":"4","last_reported":1771483684,"current_range_meters":39200,"station_id":"ce4bh512rcd13ifvqe3g","pricing_plan_id":"cebpf4jnsgd1na2vs0mg"},{"bike_id":"97e5b8bb-9ce2-4a3e-b4a9-8b7acc5a9dcc","system_id":"levelo_inurba_marseille","lat":43.292111,"lon":5.360806,"is_reserved":false,"is_disabled":false,"rental_uris":{"android":"levelo://app?vid=97e5b8bb-9ce2-4a3e-b4a9-8b7acc5a9dcc","ios":"levelo://app?vid=97e5b8bb-9ce2-4a3e-b4a9-8b7acc5a9dcc"},"vehicle_type_id":"4","last_reported":1771483684,"current_range_meters":38000,"station_id":"ce4bhbh2rcd13ifvqeqg","pricing_plan_id":"cebpf4jnsgd1na2vs0mg"},{"bike_id":"420c5861-db94-4f0d-a547-0e7febfa4863","system_id":"levelo_inurba_marseille","lat":43.29533,"lon":5.38604,"is_reserved":false,"is_disabled":false,"rental_uris":{"android":"levelo://app?vid=420c5861-db94-4f0d-a547-0e7febfa4863","ios":"levelo://app?vid=420c5861-db94-4f0d-a547-0e7febfa4863"},"vehicle_type_id":"4","last_reported":1771483684,"current_range_meters":20000,"station_id":"ce4bgih2rcd13ifvqba0","pricing_plan_id":"cebpf4jnsgd1na2vs0mg"},{"bike_id":"f61767a7-647a-4b75-b892-1e88aebefcb5","system_id":"levelo_inurba_marseille","lat":43.281514,"lon":5.426339,"is_reserved":false,"is_disabled":false,"rental_uris":{"android":"levelo://app?vid=f61767a7-647a-4b75-b892-1e88aebefcb5","ios":"levelo://app?vid=f61767a7-647a-4b75-b892-1e88aebefcb5"},"vehicle_type_id":"4","last_reported":1771483684,"current_range_meters":39200,"station_id":"ce4bhnh2rcd13ifvqgug","pricing_plan_id":"cebpf4jnsgd1na2vs0mg"},{"bike_id":"9daa25c7-d524-46ae-8d41-0a3c36c8c2a4","system_id":"levelo_inurba_marseille","lat":43.29051,"lon":5.39938,"is_reserved":false,"is_disabled":true,"rental_uris":{"android":"levelo://app?vid=9daa25c7-d524-46ae-8d41-0a3c36c8c2a4","ios":"levelo://app?vid=9daa25c7-d524-46ae-8d41-0a3c36c8c2a4"},"vehicle_type_id":"4","last_reported":1771483684,"current_range_meters":16800,"station_id":"ce4bh392rcd13ifvqdm0","pricing_plan_id":"cebpf4jnsgd1na2vs0mg"},{"bike_id":"748e0f94-1d84-4e99-a2d8-3ed4f6188416","system_id":"levelo_inurba_marseille","lat":43.25107,"lon":5.40325,"is_reserved":false,"is_disabled":false,"rental_uris":{"android":"levelo://app?vid=748e0f94-1d84-4e99-a2d8-3ed4f6188416","ios":"levelo://app?vid=748e0f94-1d84-4e99-a2d8-3ed4f6188416"},"vehicle_type_id":"4","last_reported":1771483684,"current_range_meters":33200,"station_id":"ce4bhlh2rcd13ifvqgig","pricing_plan_id":"cebpf4jnsgd1na2vs0mg"},{"bike_id":"27ff9886-ae8f-4983-bb6a-dbb7908dc149","system_id":"levelo_inurba_marseille","lat":43.31278,"lon":5.40175,"is_reserved":false,"is_disabled":false,"rental_uris":{"android":"levelo://app?vid=27ff9886-ae8f-4983-bb6a-dbb7908dc149","ios":"levelo://app?vid=27ff9886-ae8f-4983-bb6a-dbb7908dc149"},"vehicle_type_id":"4","last_reported":1771483684,"current_range_meters":35600,"station_id":"ce4bh092rcd13ifvqd30","pricing_plan_id":"cebpf4jnsgd1na2vs0mg"},{"bike_id":"2738c3bf-3292-418f-9c60-ee3edd706454","system_id":"levelo_inurba_marseille","lat":43.27921,"lon":5.39587,"is_reserved":false,"is_disabled":false,"rental_uris":{"android":"levelo://app?vid=2738c3bf-3292-418f-9c60-ee3edd706454","ios":"levelo://app?vid=2738c3bf-3292-418f-9c60-ee3edd706454"},"vehicle_type_id":"4","last_reported":1771483684,"current_range_meters":28800,"station_id":"ce4bhf92rcd13ifvqf40","pricing_plan_id":"cebpf4jnsgd1na2vs0mg"},{"bike_id":"f2d30de6-4c83-468b-9ea0-b4022ee843f0","system_id":"levelo_inurba_marseille","lat":43.32349,"lon":5.36748,"is_reserved":false,"is_disabled":false,"rental_uris":{"android":"levelo://app?vid=f2d30de6-4c83-468b-9ea0-b4022ee843f0","ios":"levelo://app?vid=f2d30de6-4c83-468b-9ea0-b4022ee843f0"},"vehicle_type_id":"4","last_reported":1771483684,"current_range_meters":26000,"station_id":"ce4bhsh2rcd13ifvqi2g","pricing_plan_id":"cebpf4jnsgd1na2vs0mg"},{"bike_id":"33078ca6-9567-490e-bc47-6fc9c5383b7f","system_id":"levelo_inurba_marseille","lat":43.30466,"lon":5.37913,"is_reserved":false,"is_disabled":false,"rental_uris":{"android":"levelo://app?vid=33078ca6-9567-490e-bc47-6fc9c5383b7f","ios":"levelo://app?vid=33078ca6-9567-490e-bc47-6fc9c5383b7f"},"vehicle_type_id":"4","last_reported":1771483684,"current_range_meters":22000,"station_id":"ce4bgup2rcd13ifvqcn0","pricing_plan_id":"cebpf4jnsgd1na2vs0mg"},{"bike_id":"a6d502c5-4522-456f-b40b-d357949369ec","system_id":"levelo_inurba_marseille","lat":43.25143,"lon":5.40256,"is_reserved":false,"is_disabled":false,"rental_uris":{"android":"levelo://app?vid=a6d502c5-4522-456f-b40b-d357949369ec","ios":"levelo://app?vid=a6d502c5-4522-456f-b40b-d357949369ec"},"vehicle_type_id":"4","last_reported":1771483684,"current_range_meters":39200,"station_id":"ce4bhlh2rcd13ifvqgig","pricing_plan_id":"cebpf4jnsgd1na2vs0mg"},{"bike_id":"e071cb6b-00dd-46cc-bbae-0c336769674f","system_id":"levelo_inurba_marseille","lat":43.26476,"lon":5.39575,"is_reserved":false,"is_disabled":false,"rental_uris":{"android":"levelo://app?vid=e071cb6b-00dd-46cc-bbae-0c336769674f","ios":"levelo://app?vid=e071cb6b-00dd-46cc-bbae-0c336769674f"},"vehicle_type_id":"4","last_reported":1771483684,"current_range_meters":30000,"station_id":"ce4bhi12rcd13ifvqfq0","pricing_plan_id":"cebpf4jnsgd1na2vs0mg"},{"bike_id":"01c62984-a2ae-4489-84a9-6a173aa3a0f3","system_id":"levelo_inurba_marseille","lat":43.31228,"lon":5.3687,"is_reserved":false,"is_disabled":true,"rental_uris":{"android":"levelo://app?vid=01c62984-a2ae-4489-84a9-6a173aa3a0f3","ios":"levelo://app?vid=01c62984-a2ae-4489-84a9-6a173aa3a0f3"},"vehicle_type_id":"4","last_reported":1771483684,"current_range_meters":27200,"station_id":"ce4bgl92rcd13ifvqbq0","pricing_plan_id":"cebpf4jnsgd1na2vs0mg"},{"bike_id":"0f10428a-bdc4-429e-8e33-e4cb0dd1ce62","system_id":"levelo_inurba_marseille","lat":43.27962,"lon":5.38668,"is_reserved":false,"is_disabled":false,"rental_uris":{"android":"levelo://app?vid=0f10428a-bdc4-429e-8e33-e4cb0dd1ce62","ios":"levelo://app?vid=0f10428a-bdc4-429e-8e33-e4cb0dd1ce62"},"vehicle_type_id":"4","last_reported":1771483684,"current_range_meters":38800,"station_id":"","pricing_plan_id":"cebpf4jnsgd1na2vs0mg"},{"bike_id":"e9c8c195-4938-4494-9005-66aa872cbce1","system_id":"levelo_inurba_marseille","lat":43.31219,"lon":5.36886,"is_reserved":false,"is_disabled":false,"rental_uris":{"android":"levelo://app?vid=e9c8c195-4938-4494-9005-66aa872cbce1","ios":"levelo://app?vid=e9c8c195-4938-4494-9005-66aa872cbce1"},"vehicle_type_id":"4","last_reported":1771483684,"current_range_meters":18000,"station_id":"ce4bgl92rcd13ifvqbq0","pricing_plan_id":"cebpf4jnsgd1na2vs0mg"},{"bike_id":"e4ed0b5d-881b-4b60-82dc-fcefb5f5d430","system_id":"levelo_inurba_marseille","lat":43.2955,"lon":5.42284,"is_reserved":false,"is_disabled":false,"rental_uris":{"android":"levelo://app?vid=e4ed0b5d-881b-4b60-82dc-fcefb5f5d430","ios":"levelo://app?vid=e4ed0b5d-881b-4b60-82dc-fcefb5f5d430"},"vehicle_type_id":"4","last_reported":1771483684,"current_range_meters":38800,"station_id":"ce4bhph2rcd13ifvqhdg","pricing_plan_id":"cebpf4jnsgd1na2vs0mg"},{"bike_id":"ec4307b6-1774-4d2c-a688-1693e5100784","system_id":"levelo_inurba_marseille","lat":43.28858,"lon":5.35861,"is_reserved":false,"is_disabled":false,"rental_uris":{"android":"levelo://app?vid=ec4307b6-1774-4d2c-a688-1693e5100784","ios":"levelo://app?vid=ec4307b6-1774-4d2c-a688-1693e5100784"},"vehicle_type_id":"4","last_reported":1771483684,"current_range_meters":39200,"station_id":"ce4bhb12rcd13ifvqem0","pricing_plan_id":"cebpf4jnsgd1na2vs0mg"},{"bike_id":"a2aac6db-ff2a-410f-9224-52b6b4391027","system_id":"levelo_inurba_marseille","lat":43.2511,"lon":5.40331,"is_reserved":false,"is_disabled":false,"rental_uris":{"android":"levelo://app?vid=a2aac6db-ff2a-410f-9224-52b6b4391027","ios":"levelo://app?vid=a2aac6db-ff2a-410f-9224-52b6b4391027"},"vehicle_type_id":"4","last_reported":1771483684,"current_range_meters":25600,"station_id":"ce4bhlh2rcd13ifvqgig","pricing_plan_id":"cebpf4jnsgd1na2vs0mg"},{"bike_id":"609c74ba-21e0-4164-b080-f0e7f3b8e9b0","system_id":"levelo_inurba_marseille","lat":43.24539,"lon":5.39498,"is_reserved":false,"is_disabled":false,"rental_uris":{"android":"levelo://app?vid=609c74ba-21e0-4164-b080-f0e7f3b8e9b0","ios":"levelo://app?vid=609c74ba-21e0-4164-b080-f0e7f3b8e9b0"},"vehicle_type_id":"4","last_reported":1771483684,"current_range_meters":22400,"station_id":"ce4bhlp2rcd13ifvqgjg","pricing_plan_id":"cebpf4jnsgd1na2vs0mg"},{"bike_id":"25ab6116-5868-4bf3-9091-6af92cd3fff5","system_id":"levelo_inurba_marseille","lat":43.28996,"lon":5.35619,"is_reserved":false,"is_disabled":false,"rental_uris":{"android":"levelo://app?vid=25ab6116-5868-4bf3-9091-6af92cd3fff5","ios":"levelo://app?vid=25ab6116-5868-4bf3-9091-6af92cd3fff5"},"vehicle_type_id":"4","last_reported":1771483684,"current_range_meters":30400,"station_id":"ce4bhb92rcd13ifvqen0","pricing_plan_id":"cebpf4jnsgd1na2vs0mg"},{"bike_id":"81d0320a-a61a-4244-81e4-d2e5c4269b7c","system_id":"levelo_inurba_marseille","lat":43.25571,"lon":5.3824,"is_reserved":false,"is_disabled":false,"rental_uris":{"android":"levelo://app?vid=81d0320a-a61a-4244-81e4-d2e5c4269b7c","ios":"levelo://app?vid=81d0320a-a61a-4244-81e4-d2e5c4269b7c"},"vehicle_type_id":"4","last_reported":1771483684,"current_range_meters":10800,"station_id":"ce4bhih2rcd13ifvqfs0","pricing_plan_id":"cebpf4jnsgd1na2vs0mg"},{"bike_id":"06df2014-e9a7-4eea-a10c-90e91f6aa7ca","system_id":"levelo_inurba_marseille","lat":43.2649,"lon":5.39554,"is_reserved":false,"is_disabled":false,"rental_uris":{"android":"levelo://app?vid=06df2014-e9a7-4eea-a10c-90e91f6aa7ca","ios":"levelo://app?vid=06df2014-e9a7-4eea-a10c-90e91f6aa7ca"},"vehicle_type_id":"4","last_reported":1771483684,"current_range_meters":28400,"station_id":"ce4bhi12rcd13ifvqfq0","pricing_plan_id":"cebpf4jnsgd1na2vs0mg"},{"bike_id":"d2fb2733-88e8-46aa-a903-dc7e062bbe51","system_id":"levelo_inurba_marseille","lat":43.26076,"lon":5.3939,"is_reserved":false,"is_disabled":true,"rental_uris":{"android":"levelo://app?vid=d2fb2733-88e8-46aa-a903-dc7e062bbe51","ios":"levelo://app?vid=d2fb2733-88e8-46aa-a903-dc7e062bbe51"},"vehicle_type_id":"4","last_reported":1771483684,"current_range_meters":2800,"station_id":"ce4bhh92rcd13ifvqfj0","pricing_plan_id":"cebpf4jnsgd1na2vs0mg"},{"bike_id":"091f7dbf-a446-496b-9e4a-a29b4a835f56","system_id":"levelo_inurba_marseille","lat":43.27695,"lon":5.3895,"is_reserved":false,"is_disabled":true,"rental_uris":{"android":"levelo://app?vid=091f7dbf-a446-496b-9e4a-a29b4a835f56","ios":"levelo://app?vid=091f7dbf-a446-496b-9e4a-a29b4a835f56"},"vehicle_type_id":"4","last_reported":1771483684,"current_range_meters":10000,"station_id":"","pricing_plan_id":"cebpf4jnsgd1na2vs0mg"},{"bike_id":"659923c1-de2a-425b-b089-253fcf51c04f","system_id":"levelo_inurba_marseille","lat":43.24167,"lon":5.36413,"is_reserved":false,"is_disabled":false,"rental_uris":{"android":"levelo://app?vid=659923c1-de2a-425b-b089-253fcf51c04f","ios":"levelo://app?vid=659923c1-de2a-425b-b089-253fcf51c04f"},"vehicle_type_id":"4","last_reported":1771483684,"current_range_meters":25200,"station_id":"cpo36qri1sfpv3e86is0","pricing_plan_id":"cebpf4jnsgd1na2vs0mg"},{"bike_id":"388b1bc2-2ad3-42a2-a7e4-94066aa5b495","system_id":"levelo_inurba_marseille","lat":43.29959,"lon":5.38506,"is_reserved":false,"is_disabled":true,"rental_uris":{"android":"levelo://app?vid=388b1bc2-2ad3-42a2-a7e4-94066aa5b495","ios":"levelo://app?vid=388b1bc2-2ad3-42a2-a7e4-94066aa5b495"},"vehicle_type_id":"4","last_reported":1771483684,"current_range_meters":38800,"station_id":"ce4bgj92rcd13ifvqbd0","pricing_plan_id":"cebpf4jnsgd1na2vs0mg"},{"bike_id":"74c885ab-64ab-448e-99c0-d2dd694de67f","system_id":"levelo_inurba_marseille","lat":43.28145,"lon":5.42634,"is_reserved":false,"is_disabled":false,"rental_uris":{"android":"levelo://app?vid=74c885ab-64ab-448e-99c0-d2dd694de67f","ios":"levelo://app?vid=74c885ab-64ab-448e-99c0-d2dd694de67f"},"vehicle_type_id":"4","last_reported":1771483684,"current_range_meters":14400,"station_id":"ce4bhnh2rcd13ifvqgug","pricing_plan_id":"cebpf4jnsgd1na2vs0mg"},{"bike_id":"7a15b882-a18b-490f-bd79-31c4f4320458","system_id":"levelo_inurba_marseille","lat":43.30586,"lon":5.37194,"is_reserved":false,"is_disabled":false,"rental_uris":{"android":"levelo://app?vid=7a15b882-a18b-490f-bd79-31c4f4320458","ios":"levelo://app?vid=7a15b882-a18b-490f-bd79-31c4f4320458"},"vehicle_type_id":"4","last_reported":1771483684,"current_range_meters":28400,"station_id":"ce4bgqh2rcd13ifvqc4g","pricing_plan_id":"cebpf4jnsgd1na2vs0mg"},{"bike_id":"9711b1e4-7edd-43ea-be74-00f2c718403c","system_id":"levelo_inurba_marseille","lat":43.30136,"lon":5.39868,"is_reserved":false,"is_disabled":false,"rental_uris":{"android":"levelo://app?vid=9711b1e4-7edd-43ea-be74-00f2c718403c","ios":"levelo://app?vid=9711b1e4-7edd-43ea-be74-00f2c718403c"},"vehicle_type_id":"4","last_reported":1771483684,"current_range_meters":16400,"station_id":"ce4bh0h2rcd13ifvqd40","pricing_plan_id":"cebpf4jnsgd1na2vs0mg"},{"bike_id":"19d3787d-1c8e-4249-902d-f5e776447478","system_id":"levelo_inurba_marseille","lat":43.25511,"lon":5.37671,"is_reserved":false,"is_disabled":false,"rental_uris":{"android":"levelo://app?vid=19d3787d-1c8e-4249-902d-f5e776447478","ios":"levelo://app?vid=19d3787d-1c8e-4249-902d-f5e776447478"},"vehicle_type_id":"4","last_reported":1771483684,"current_range_meters":28400,"station_id":"ce4bhh12rcd13ifvqff0","pricing_plan_id":"cebpf4jnsgd1na2vs0mg"},{"bike_id":"5c0952e3-3469-48d1-b0ac-88596b084e30","system_id":"levelo_inurba_marseille","lat":43.33757,"lon":5.37498,"is_reserved":false,"is_disabled":false,"rental_uris":{"android":"levelo://app?vid=5c0952e3-3469-48d1-b0ac-88596b084e30","ios":"levelo://app?vid=5c0952e3-3469-48d1-b0ac-88596b084e30"},"vehicle_type_id":"4","last_reported":1771483684,"current_range_meters":38400,"station_id":"","pricing_plan_id":"cebpf4jnsgd1na2vs0mg"},{"bike_id":"5a1af070-86ca-48c8-b37d-4c3389211551","system_id":"levelo_inurba_marseille","lat":43.3077,"lon":5.38327,"is_reserved":false,"is_disabled":false,"rental_uris":{"android":"levelo://app?vid=5a1af070-86ca-48c8-b37d-4c3389211551","ios":"levelo://app?vid=5a1af070-86ca-48c8-b37d-4c3389211551"},"vehicle_type_id":"4","last_reported":1771483684,"current_range_meters":24800,"station_id":"","pricing_plan_id":"cebpf4jnsgd1na2vs0mg"},{"bike_id":"3e519729-731e-4802-89f2-ee8668e3d7db","system_id":"levelo_inurba_marseille","lat":43.29926,"lon":5.3817,"is_reserved":false,"is_disabled":false,"rental_uris":{"android":"levelo://app?vid=3e519729-731e-4802-89f2-ee8668e3d7db","ios":"levelo://app?vid=3e519729-731e-4802-89f2-ee8668e3d7db"},"vehicle_type_id":"4","last_reported":1771483684,"current_range_meters":38000,"station_id":"ce4bgj12rcd13ifvqbc0","pricing_plan_id":"cebpf4jnsgd1na2vs0mg"},{"bike_id":"bed41149-38f8-408d-8611-69a2e9969374","system_id":"levelo_inurba_marseille","lat":43.29516,"lon":5.39036,"is_reserved":false,"is_disabled":false,"rental_uris":{"android":"levelo://app?vid=bed41149-38f8-408d-8611-69a2e9969374","ios":"levelo://app?vid=bed41149-38f8-408d-8611-69a2e9969374"},"vehicle_type_id":"4","last_reported":1771483684,"current_range_meters":24000,"station_id":"ce4bh3p2rcd13ifvqdp0","pricing_plan_id":"cebpf4jnsgd1na2vs0mg"},{"bike_id":"36520353-f70b-4430-b210-525b848ee0f2","system_id":"levelo_inurba_marseille","lat":43.28924,"lon":5.36688,"is_reserved":false,"is_disabled":false,"rental_uris":{"android":"levelo://app?vid=36520353-f70b-4430-b210-525b848ee0f2","ios":"levelo://app?vid=36520353-f70b-4430-b210-525b848ee0f2"},"vehicle_type_id":"4","last_reported":1771483684,"current_range_meters":16800,"station_id":"ce4bhap2rcd13ifvqek0","pricing_plan_id":"cebpf4jnsgd1na2vs0mg"},{"bike_id":"fb88335b-6930-4438-a3ac-11dea9610ee4","system_id":"levelo_inurba_marseille","lat":43.28144,"lon":5.42644,"is_reserved":false,"is_disabled":false,"rental_uris":{"android":"levelo://app?vid=fb88335b-6930-4438-a3ac-11dea9610ee4","ios":"levelo://app?vid=fb88335b-6930-4438-a3ac-11dea9610ee4"},"vehicle_type_id":"4","last_reported":1771483684,"current_range_meters":18000,"station_id":"ce4bhnh2rcd13ifvqgug","pricing_plan_id":"cebpf4jnsgd1na2vs0mg"},{"bike_id":"166e35c4-ba58-48ae-81a6-945bb5d753ca","system_id":"levelo_inurba_marseille","lat":43.24641,"lon":5.38898,"is_reserved":false,"is_disabled":false,"rental_uris":{"android":"levelo://app?vid=166e35c4-ba58-48ae-81a6-945bb5d753ca","ios":"levelo://app?vid=166e35c4-ba58-48ae-81a6-945bb5d753ca"},"vehicle_type_id":"4","last_reported":1771483684,"current_range_meters":12000,"station_id":"ce4bhg12rcd13ifvqf60","pricing_plan_id":"cebpf4jnsgd1na2vs0mg"},{"bike_id":"e52969ea-e41a-4b4f-8b3e-e0a9baa48bf6","system_id":"levelo_inurba_marseille","lat":43.29484,"lon":5.43321,"is_reserved":false,"is_disabled":false,"rental_uris":{"android":"levelo://app?vid=e52969ea-e41a-4b4f-8b3e-e0a9baa48bf6","ios":"levelo://app?vid=e52969ea-e41a-4b4f-8b3e-e0a9baa48bf6"},"vehicle_type_id":"4","last_reported":1771483684,"current_range_meters":38000,"station_id":"st_d3j5ugp08ojc73fj9d10","pricing_plan_id":"cebpf4jnsgd1na2vs0mg"},{"bike_id":"1e69471d-55ba-4e91-81c1-2c61c1be7739","system_id":"levelo_inurba_marseille","lat":43.26361,"lon":5.41035,"is_reserved":false,"is_disabled":false,"rental_uris":{"android":"levelo://app?vid=1e69471d-55ba-4e91-81c1-2c61c1be7739","ios":"levelo://app?vid=1e69471d-55ba-4e91-81c1-2c61c1be7739"},"vehicle_type_id":"4","last_reported":1771483684,"current_range_meters":33200,"station_id":"st_d4e5ca6na9uc73bfl5fg","pricing_plan_id":"cebpf4jnsgd1na2vs0mg"},{"bike_id":"2cbbc2f5-92a3-4c38-a0e2-181ee10ae410","system_id":"levelo_inurba_marseille","lat":43.275,"lon":5.42448,"is_reserved":false,"is_disabled":false,"rental_uris":{"android":"levelo://app?vid=2cbbc2f5-92a3-4c38-a0e2-181ee10ae410","ios":"levelo://app?vid=2cbbc2f5-92a3-4c38-a0e2-181ee10ae410"},"vehicle_type_id":"4","last_reported":1771483684,"current_range_meters":36400,"station_id":"ce4bhn92rcd13ifvqgrg","pricing_plan_id":"cebpf4jnsgd1na2vs0mg"},{"bike_id":"77c84e28-a226-4c9d-bcc9-76b7f8c0d11c","system_id":"levelo_inurba_marseille","lat":43.24583,"lon":5.39527,"is_reserved":false,"is_disabled":true,"rental_uris":{"android":"levelo://app?vid=77c84e28-a226-4c9d-bcc9-76b7f8c0d11c","ios":"levelo://app?vid=77c84e28-a226-4c9d-bcc9-76b7f8c0d11c"},"vehicle_type_id":"4","last_reported":1771483684,"current_range_meters":36000,"station_id":"ce4bhlp2rcd13ifvqgjg","pricing_plan_id":"cebpf4jnsgd1na2vs0mg"},{"bike_id":"c9b743d2-ea19-486c-9150-6905c9d98a27","system_id":"levelo_inurba_marseille","lat":43.26549,"lon":5.40331,"is_reserved":false,"is_disabled":false,"rental_uris":{"android":"levelo://app?vid=c9b743d2-ea19-486c-9150-6905c9d98a27","ios":"levelo://app?vid=c9b743d2-ea19-486c-9150-6905c9d98a27"},"vehicle_type_id":"4","last_reported":1771483684,"current_range_meters":23200,"station_id":"ce4bhmp2rcd13ifvqgng","pricing_plan_id":"cebpf4jnsgd1na2vs0mg"},{"bike_id":"bc4aca59-1548-4c6c-9b4b-d48c12a614aa","system_id":"levelo_inurba_marseille","lat":43.30288,"lon":5.40027,"is_reserved":false,"is_disabled":false,"rental_uris":{"android":"levelo://app?vid=bc4aca59-1548-4c6c-9b4b-d48c12a614aa","ios":"levelo://app?vid=bc4aca59-1548-4c6c-9b4b-d48c12a614aa"},"vehicle_type_id":"4","last_reported":1771483684,"current_range_meters":38800,"station_id":"ce4bgvh2rcd13ifvqcs0","pricing_plan_id":"cebpf4jnsgd1na2vs0mg"},{"bike_id":"55e798b8-c3a1-4483-a648-b2dc68f4f4d3","system_id":"levelo_inurba_marseille","lat":43.24654,"lon":5.38159,"is_reserved":false,"is_disabled":false,"rental_uris":{"android":"levelo://app?vid=55e798b8-c3a1-4483-a648-b2dc68f4f4d3","ios":"levelo://app?vid=55e798b8-c3a1-4483-a648-b2dc68f4f4d3"},"vehicle_type_id":"4","last_reported":1771483684,"current_range_meters":10000,"station_id":"ce4bhih2rcd13ifvqfr0","pricing_plan_id":"cebpf4jnsgd1na2vs0mg"},{"bike_id":"fc1aa6b8-6e5e-467f-92e9-aae02099ae9d","system_id":"levelo_inurba_marseille","lat":43.24641,"lon":5.43145,"is_reserved":false,"is_disabled":false,"rental_uris":{"android":"levelo://app?vid=fc1aa6b8-6e5e-467f-92e9-aae02099ae9d","ios":"levelo://app?vid=fc1aa6b8-6e5e-467f-92e9-aae02099ae9d"},"vehicle_type_id":"4","last_reported":1771483684,"current_range_meters":8400,"station_id":"st_d2m6c4gdas8pm72e190g","pricing_plan_id":"cebpf4jnsgd1na2vs0mg"},{"bike_id":"67285332-5652-4c2b-b8be-d99c6194277d","system_id":"levelo_inurba_marseille","lat":43.26058,"lon":5.39401,"is_reserved":false,"is_disabled":false,"rental_uris":{"android":"levelo://app?vid=67285332-5652-4c2b-b8be-d99c6194277d","ios":"levelo://app?vid=67285332-5652-4c2b-b8be-d99c6194277d"},"vehicle_type_id":"4","last_reported":1771483684,"current_range_meters":24800,"station_id":"ce4bhh92rcd13ifvqfj0","pricing_plan_id":"cebpf4jnsgd1na2vs0mg"},{"bike_id":"247929ef-06db-4867-a845-71bf576c71e1","system_id":"levelo_inurba_marseille","lat":43.28866,"lon":5.42511,"is_reserved":false,"is_disabled":false,"rental_uris":{"android":"levelo://app?vid=247929ef-06db-4867-a845-71bf576c71e1","ios":"levelo://app?vid=247929ef-06db-4867-a845-71bf576c71e1"},"vehicle_type_id":"4","last_reported":1771483684,"current_range_meters":37600,"station_id":"st_d3b462108ojc7389ooeg","pricing_plan_id":"cebpf4jnsgd1na2vs0mg"},{"bike_id":"4585df67-5569-4771-aa03-6e87fdd568df","system_id":"levelo_inurba_marseille","lat":43.23145,"lon":5.43736,"is_reserved":false,"is_disabled":false,"rental_uris":{"android":"levelo://app?vid=4585df67-5569-4771-aa03-6e87fdd568df","ios":"levelo://app?vid=4585df67-5569-4771-aa03-6e87fdd568df"},"vehicle_type_id":"4","last_reported":1771483684,"current_range_meters":27600,"station_id":"ce4bhmp2rcd13ifvqgog","pricing_plan_id":"cebpf4jnsgd1na2vs0mg"},{"bike_id":"1bdf262b-5b53-4108-b666-339efbe4431c","system_id":"levelo_inurba_marseille","lat":43.29032,"lon":5.38152,"is_reserved":false,"is_disabled":true,"rental_uris":{"android":"levelo://app?vid=1bdf262b-5b53-4108-b666-339efbe4431c","ios":"levelo://app?vid=1bdf262b-5b53-4108-b666-339efbe4431c"},"vehicle_type_id":"4","last_reported":1771483684,"current_range_meters":34800,"station_id":"ce4bh4p2rcd13ifvqe1g","pricing_plan_id":"cebpf4jnsgd1na2vs0mg"},{"bike_id":"57723f7a-061e-46b7-a0ae-b6210e118d77","system_id":"levelo_inurba_marseille","lat":43.30931,"lon":5.36818,"is_reserved":false,"is_disabled":false,"rental_uris":{"android":"levelo://app?vid=57723f7a-061e-46b7-a0ae-b6210e118d77","ios":"levelo://app?vid=57723f7a-061e-46b7-a0ae-b6210e118d77"},"vehicle_type_id":"4","last_reported":1771483684,"current_range_meters":30800,"station_id":"ce4bgn92rcd13ifvqbvg","pricing_plan_id":"cebpf4jnsgd1na2vs0mg"},{"bike_id":"c1b26ae8-8837-4bd2-b0e2-b890b8516fff","system_id":"levelo_inurba_marseille","lat":43.31231,"lon":5.36843,"is_reserved":false,"is_disabled":false,"rental_uris":{"android":"levelo://app?vid=c1b26ae8-8837-4bd2-b0e2-b890b8516fff","ios":"levelo://app?vid=c1b26ae8-8837-4bd2-b0e2-b890b8516fff"},"vehicle_type_id":"4","last_reported":1771483684,"current_range_meters":38000,"station_id":"ce4bgl92rcd13ifvqbq0","pricing_plan_id":"cebpf4jnsgd1na2vs0mg"},{"bike_id":"f740c6ea-cfef-4385-96b9-1c52eba70bc8","system_id":"levelo_inurba_marseille","lat":43.2901,"lon":5.38147,"is_reserved":false,"is_disabled":false,"rental_uris":{"android":"levelo://app?vid=f740c6ea-cfef-4385-96b9-1c52eba70bc8","ios":"levelo://app?vid=f740c6ea-cfef-4385-96b9-1c52eba70bc8"},"vehicle_type_id":"4","last_reported":1771483684,"current_range_meters":37600,"station_id":"ce4bh4p2rcd13ifvqe1g","pricing_plan_id":"cebpf4jnsgd1na2vs0mg"},{"bike_id":"f4b72c32-b078-47bf-bd6e-2a4cf9260d45","system_id":"levelo_inurba_marseille","lat":43.2869,"lon":5.35523,"is_reserved":false,"is_disabled":true,"rental_uris":{"android":"levelo://app?vid=f4b72c32-b078-47bf-bd6e-2a4cf9260d45","ios":"levelo://app?vid=f4b72c32-b078-47bf-bd6e-2a4cf9260d45"},"vehicle_type_id":"4","last_reported":1771483684,"current_range_meters":32400,"station_id":"","pricing_plan_id":"cebpf4jnsgd1na2vs0mg"},{"bike_id":"786db946-01e6-401d-825a-5be2365421b8","system_id":"levelo_inurba_marseille","lat":43.25574,"lon":5.38259,"is_reserved":false,"is_disabled":false,"rental_uris":{"android":"levelo://app?vid=786db946-01e6-401d-825a-5be2365421b8","ios":"levelo://app?vid=786db946-01e6-401d-825a-5be2365421b8"},"vehicle_type_id":"4","last_reported":1771483684,"current_range_meters":18000,"station_id":"ce4bhih2rcd13ifvqfs0","pricing_plan_id":"cebpf4jnsgd1na2vs0mg"},{"bike_id":"cdc99c23-84d2-4e46-9c6b-c07a65ce86fb","system_id":"levelo_inurba_marseille","lat":43.27415,"lon":5.39345,"is_reserved":false,"is_disabled":false,"rental_uris":{"android":"levelo://app?vid=cdc99c23-84d2-4e46-9c6b-c07a65ce86fb","ios":"levelo://app?vid=cdc99c23-84d2-4e46-9c6b-c07a65ce86fb"},"vehicle_type_id":"4","last_reported":1771483684,"current_range_meters":12800,"station_id":"ce4bhdp2rcd13ifvqf20","pricing_plan_id":"cebpf4jnsgd1na2vs0mg"},{"bike_id":"f5d22547-d06e-4fad-85c6-2cbbdcd29ad4","system_id":"levelo_inurba_marseille","lat":43.29168,"lon":5.3722,"is_reserved":false,"is_disabled":false,"rental_uris":{"android":"levelo://app?vid=f5d22547-d06e-4fad-85c6-2cbbdcd29ad4","ios":"levelo://app?vid=f5d22547-d06e-4fad-85c6-2cbbdcd29ad4"},"vehicle_type_id":"4","last_reported":1771483684,"current_range_meters":28800,"station_id":"","pricing_plan_id":"cebpf4jnsgd1na2vs0mg"},{"bike_id":"b7832889-4ff5-4ee2-9a8d-e7dc3953a51e","system_id":"levelo_inurba_marseille","lat":43.24809,"lon":5.37441,"is_reserved":false,"is_disabled":false,"rental_uris":{"android":"levelo://app?vid=b7832889-4ff5-4ee2-9a8d-e7dc3953a51e","ios":"levelo://app?vid=b7832889-4ff5-4ee2-9a8d-e7dc3953a51e"},"vehicle_type_id":"4","last_reported":1771483684,"current_range_meters":20000,"station_id":"ce4bhgh2rcd13ifvqfb0","pricing_plan_id":"cebpf4jnsgd1na2vs0mg"},{"bike_id":"6946a672-f062-4471-84f8-45eb3b2d6e19","system_id":"levelo_inurba_marseille","lat":43.27463,"lon":5.42439,"is_reserved":false,"is_disabled":false,"rental_uris":{"android":"levelo://app?vid=6946a672-f062-4471-84f8-45eb3b2d6e19","ios":"levelo://app?vid=6946a672-f062-4471-84f8-45eb3b2d6e19"},"vehicle_type_id":"4","last_reported":1771483684,"current_range_meters":4800,"station_id":"ce4bhn92rcd13ifvqgrg","pricing_plan_id":"cebpf4jnsgd1na2vs0mg"},{"bike_id":"207cc079-ea04-402c-b4a5-126924b6429c","system_id":"levelo_inurba_marseille","lat":43.31279,"lon":5.40166,"is_reserved":false,"is_disabled":false,"rental_uris":{"android":"levelo://app?vid=207cc079-ea04-402c-b4a5-126924b6429c","ios":"levelo://app?vid=207cc079-ea04-402c-b4a5-126924b6429c"},"vehicle_type_id":"4","last_reported":1771483684,"current_range_meters":39200,"station_id":"ce4bh092rcd13ifvqd30","pricing_plan_id":"cebpf4jnsgd1na2vs0mg"},{"bike_id":"becfc6a0-43e9-4656-918f-689d3f6fdabf","system_id":"levelo_inurba_marseille","lat":43.29003,"lon":5.35606,"is_reserved":false,"is_disabled":false,"rental_uris":{"android":"levelo://app?vid=becfc6a0-43e9-4656-918f-689d3f6fdabf","ios":"levelo://app?vid=becfc6a0-43e9-4656-918f-689d3f6fdabf"},"vehicle_type_id":"4","last_reported":1771483684,"current_range_meters":39200,"station_id":"ce4bhb92rcd13ifvqen0","pricing_plan_id":"cebpf4jnsgd1na2vs0mg"},{"bike_id":"a2b17400-8e5c-4ea2-af80-074b6e160bbc","system_id":"levelo_inurba_marseille","lat":43.31487,"lon":5.37301,"is_reserved":false,"is_disabled":false,"rental_uris":{"android":"levelo://app?vid=a2b17400-8e5c-4ea2-af80-074b6e160bbc","ios":"levelo://app?vid=a2b17400-8e5c-4ea2-af80-074b6e160bbc"},"vehicle_type_id":"4","last_reported":1771483684,"current_range_meters":36400,"station_id":"ce4bgt12rcd13ifvqcd0","pricing_plan_id":"cebpf4jnsgd1na2vs0mg"},{"bike_id":"a3badfd2-e294-48f5-aca1-3aa5e2d516be","system_id":"levelo_inurba_marseille","lat":43.27832,"lon":5.39211,"is_reserved":false,"is_disabled":false,"rental_uris":{"android":"levelo://app?vid=a3badfd2-e294-48f5-aca1-3aa5e2d516be","ios":"levelo://app?vid=a3badfd2-e294-48f5-aca1-3aa5e2d516be"},"vehicle_type_id":"4","last_reported":1771483684,"current_range_meters":16000,"station_id":"ce4bhjp2rcd13ifvqga0","pricing_plan_id":"cebpf4jnsgd1na2vs0mg"},{"bike_id":"8e88b741-7fc5-4239-947a-128f1d311f8c","system_id":"levelo_inurba_marseille","lat":43.29965,"lon":5.36558,"is_reserved":false,"is_disabled":false,"rental_uris":{"android":"levelo://app?vid=8e88b741-7fc5-4239-947a-128f1d311f8c","ios":"levelo://app?vid=8e88b741-7fc5-4239-947a-128f1d311f8c"},"vehicle_type_id":"4","last_reported":1771483684,"current_range_meters":37600,"station_id":"ce4bgm92rcd13ifvqbr0","pricing_plan_id":"cebpf4jnsgd1na2vs0mg"},{"bike_id":"b07295b1-0c1c-4c35-bcba-b8a6b9615bef","system_id":"levelo_inurba_marseille","lat":43.30647,"lon":5.40063,"is_reserved":false,"is_disabled":false,"rental_uris":{"android":"levelo://app?vid=b07295b1-0c1c-4c35-bcba-b8a6b9615bef","ios":"levelo://app?vid=b07295b1-0c1c-4c35-bcba-b8a6b9615bef"},"vehicle_type_id":"4","last_reported":1771483684,"current_range_meters":38400,"station_id":"ce4bh112rcd13ifvqda0","pricing_plan_id":"cebpf4jnsgd1na2vs0mg"},{"bike_id":"cdcd8c42-d26a-4e42-9873-59170e37aa87","system_id":"levelo_inurba_marseille","lat":43.23064,"lon":5.35493,"is_reserved":false,"is_disabled":false,"rental_uris":{"android":"levelo://app?vid=cdcd8c42-d26a-4e42-9873-59170e37aa87","ios":"levelo://app?vid=cdcd8c42-d26a-4e42-9873-59170e37aa87"},"vehicle_type_id":"4","last_reported":1771483684,"current_range_meters":39200,"station_id":"cpo3342slgdg3j2ifvpg","pricing_plan_id":"cebpf4jnsgd1na2vs0mg"},{"bike_id":"12ad18fd-3d3e-4eb8-9bf9-145233c696a5","system_id":"levelo_inurba_marseille","lat":43.26044,"lon":5.39391,"is_reserved":false,"is_disabled":false,"rental_uris":{"android":"levelo://app?vid=12ad18fd-3d3e-4eb8-9bf9-145233c696a5","ios":"levelo://app?vid=12ad18fd-3d3e-4eb8-9bf9-145233c696a5"},"vehicle_type_id":"4","last_reported":1771483684,"current_range_meters":38800,"station_id":"ce4bhh92rcd13ifvqfj0","pricing_plan_id":"cebpf4jnsgd1na2vs0mg"},{"bike_id":"f65535c8-8441-4751-9327-7be029472e84","system_id":"levelo_inurba_marseille","lat":43.29383,"lon":5.3786,"is_reserved":false,"is_disabled":false,"rental_uris":{"android":"levelo://app?vid=f65535c8-8441-4751-9327-7be029472e84","ios":"levelo://app?vid=f65535c8-8441-4751-9327-7be029472e84"},"vehicle_type_id":"4","last_reported":1771483684,"current_range_meters":22800,"station_id":"ce4bgjh2rcd13ifvqbf0","pricing_plan_id":"cebpf4jnsgd1na2vs0mg"},{"bike_id":"1f253e4b-dee3-46d2-a7df-441486233365","system_id":"levelo_inurba_marseille","lat":43.28849,"lon":5.35875,"is_reserved":false,"is_disabled":true,"rental_uris":{"android":"levelo://app?vid=1f253e4b-dee3-46d2-a7df-441486233365","ios":"levelo://app?vid=1f253e4b-dee3-46d2-a7df-441486233365"},"vehicle_type_id":"4","last_reported":1771483684,"current_range_meters":8400,"station_id":"ce4bhb12rcd13ifvqem0","pricing_plan_id":"cebpf4jnsgd1na2vs0mg"},{"bike_id":"91f95071-cb44-4294-8d05-12a1be58ba9d","system_id":"levelo_inurba_marseille","lat":43.25115,"lon":5.40322,"is_reserved":false,"is_disabled":false,"rental_uris":{"android":"levelo://app?vid=91f95071-cb44-4294-8d05-12a1be58ba9d","ios":"levelo://app?vid=91f95071-cb44-4294-8d05-12a1be58ba9d"},"vehicle_type_id":"4","last_reported":1771483684,"current_range_meters":35200,"station_id":"ce4bhlh2rcd13ifvqgig","pricing_plan_id":"cebpf4jnsgd1na2vs0mg"},{"bike_id":"db431b3d-08ce-49b0-a879-1bdede527f7e","system_id":"levelo_inurba_marseille","lat":43.311699,"lon":5.387043,"is_reserved":false,"is_disabled":false,"rental_uris":{"android":"levelo://app?vid=db431b3d-08ce-49b0-a879-1bdede527f7e","ios":"levelo://app?vid=db431b3d-08ce-49b0-a879-1bdede527f7e"},"vehicle_type_id":"4","last_reported":1771483684,"current_range_meters":8800,"station_id":"ce4bgv12rcd13ifvqcp0","pricing_plan_id":"cebpf4jnsgd1na2vs0mg"},{"bike_id":"ed62a73a-4bd7-49f5-ba79-79b7cfcd0252","system_id":"levelo_inurba_marseille","lat":43.28426,"lon":5.34985,"is_reserved":false,"is_disabled":true,"rental_uris":{"android":"levelo://app?vid=ed62a73a-4bd7-49f5-ba79-79b7cfcd0252","ios":"levelo://app?vid=ed62a73a-4bd7-49f5-ba79-79b7cfcd0252"},"vehicle_type_id":"4","last_reported":1771483684,"current_range_meters":27600,"station_id":"ce4bhbh2rcd13ifvqepg","pricing_plan_id":"cebpf4jnsgd1na2vs0mg"},{"bike_id":"42b6100a-41f2-4d60-944d-8dd96a15e3d1","system_id":"levelo_inurba_marseille","lat":43.31415,"lon":5.37361,"is_reserved":false,"is_disabled":false,"rental_uris":{"android":"levelo://app?vid=42b6100a-41f2-4d60-944d-8dd96a15e3d1","ios":"levelo://app?vid=42b6100a-41f2-4d60-944d-8dd96a15e3d1"},"vehicle_type_id":"4","last_reported":1771483684,"current_range_meters":36400,"station_id":"","pricing_plan_id":"cebpf4jnsgd1na2vs0mg"},{"bike_id":"11c6bfff-c339-43fd-bdd1-865eec75b1f4","system_id":"levelo_inurba_marseille","lat":43.24951,"lon":5.40523,"is_reserved":false,"is_disabled":false,"rental_uris":{"android":"levelo://app?vid=11c6bfff-c339-43fd-bdd1-865eec75b1f4","ios":"levelo://app?vid=11c6bfff-c339-43fd-bdd1-865eec75b1f4"},"vehicle_type_id":"4","last_reported":1771483684,"current_range_meters":30400,"station_id":"st_d2ngiaodas8pm72gd1h0","pricing_plan_id":"cebpf4jnsgd1na2vs0mg"},{"bike_id":"99b21152-e766-4b5f-b9a3-a676677d8462","system_id":"levelo_inurba_marseille","lat":43.24385,"lon":5.37037,"is_reserved":false,"is_disabled":false,"rental_uris":{"android":"levelo://app?vid=99b21152-e766-4b5f-b9a3-a676677d8462","ios":"levelo://app?vid=99b21152-e766-4b5f-b9a3-a676677d8462"},"vehicle_type_id":"4","last_reported":1771483684,"current_range_meters":27200,"station_id":"ce4bhhh2rcd13ifvqfk0","pricing_plan_id":"cebpf4jnsgd1na2vs0mg"},{"bike_id":"ed801aba-6299-4abc-846c-98c2ac128308","system_id":"levelo_inurba_marseille","lat":43.24391,"lon":5.3708,"is_reserved":false,"is_disabled":false,"rental_uris":{"android":"levelo://app?vid=ed801aba-6299-4abc-846c-98c2ac128308","ios":"levelo://app?vid=ed801aba-6299-4abc-846c-98c2ac128308"},"vehicle_type_id":"4","last_reported":1771483684,"current_range_meters":20400,"station_id":"ce4bhhh2rcd13ifvqfk0","pricing_plan_id":"cebpf4jnsgd1na2vs0mg"},{"bike_id":"56cf30c4-0067-4cff-a00b-5b1e50f96bc3","system_id":"levelo_inurba_marseille","lat":43.30584,"lon":5.37228,"is_reserved":false,"is_disabled":false,"rental_uris":{"android":"levelo://app?vid=56cf30c4-0067-4cff-a00b-5b1e50f96bc3","ios":"levelo://app?vid=56cf30c4-0067-4cff-a00b-5b1e50f96bc3"},"vehicle_type_id":"4","last_reported":1771483684,"current_range_meters":21600,"station_id":"ce4bgqh2rcd13ifvqc4g","pricing_plan_id":"cebpf4jnsgd1na2vs0mg"},{"bike_id":"28aec728-99a3-4550-b591-e5f70c11fc16","system_id":"levelo_inurba_marseille","lat":43.28699,"lon":5.39998,"is_reserved":false,"is_disabled":false,"rental_uris":{"android":"levelo://app?vid=28aec728-99a3-4550-b591-e5f70c11fc16","ios":"levelo://app?vid=28aec728-99a3-4550-b591-e5f70c11fc16"},"vehicle_type_id":"4","last_reported":1771483684,"current_range_meters":38800,"station_id":"ce4bho92rcd13ifvqh3g","pricing_plan_id":"cebpf4jnsgd1na2vs0mg"},{"bike_id":"bcb5c2f0-34f3-4d59-a83f-d2e5fc0fddae","system_id":"levelo_inurba_marseille","lat":43.24043,"lon":5.37752,"is_reserved":false,"is_disabled":false,"rental_uris":{"android":"levelo://app?vid=bcb5c2f0-34f3-4d59-a83f-d2e5fc0fddae","ios":"levelo://app?vid=bcb5c2f0-34f3-4d59-a83f-d2e5fc0fddae"},"vehicle_type_id":"4","last_reported":1771483684,"current_range_meters":36800,"station_id":"ce4bhnp2rcd13ifvqgvg","pricing_plan_id":"cebpf4jnsgd1na2vs0mg"},{"bike_id":"e59f665b-ca8e-40ab-a2ed-9455369e7fbf","system_id":"levelo_inurba_marseille","lat":43.284784,"lon":5.483941,"is_reserved":false,"is_disabled":false,"rental_uris":{"android":"levelo://app?vid=e59f665b-ca8e-40ab-a2ed-9455369e7fbf","ios":"levelo://app?vid=e59f665b-ca8e-40ab-a2ed-9455369e7fbf"},"vehicle_type_id":"4","last_reported":1771483684,"current_range_meters":26000,"station_id":"","pricing_plan_id":"cebpf4jnsgd1na2vs0mg"},{"bike_id":"c2f7603f-62b4-4a9b-9088-a52a3dabc7aa","system_id":"levelo_inurba_marseille","lat":43.25501,"lon":5.37654,"is_reserved":false,"is_disabled":false,"rental_uris":{"android":"levelo://app?vid=c2f7603f-62b4-4a9b-9088-a52a3dabc7aa","ios":"levelo://app?vid=c2f7603f-62b4-4a9b-9088-a52a3dabc7aa"},"vehicle_type_id":"4","last_reported":1771483684,"current_range_meters":38400,"station_id":"ce4bhh12rcd13ifvqff0","pricing_plan_id":"cebpf4jnsgd1na2vs0mg"},{"bike_id":"7b8c7193-f1f2-43c9-91a4-a4cc93269862","system_id":"levelo_inurba_marseille","lat":43.29549,"lon":5.42273,"is_reserved":false,"is_disabled":false,"rental_uris":{"android":"levelo://app?vid=7b8c7193-f1f2-43c9-91a4-a4cc93269862","ios":"levelo://app?vid=7b8c7193-f1f2-43c9-91a4-a4cc93269862"},"vehicle_type_id":"4","last_reported":1771483684,"current_range_meters":39200,"station_id":"ce4bhph2rcd13ifvqhdg","pricing_plan_id":"cebpf4jnsgd1na2vs0mg"},{"bike_id":"b0008639-ff90-4492-beeb-42210ff9b3c5","system_id":"levelo_inurba_marseille","lat":43.2799,"lon":5.4002,"is_reserved":false,"is_disabled":false,"rental_uris":{"android":"levelo://app?vid=b0008639-ff90-4492-beeb-42210ff9b3c5","ios":"levelo://app?vid=b0008639-ff90-4492-beeb-42210ff9b3c5"},"vehicle_type_id":"4","last_reported":1771483684,"current_range_meters":35600,"station_id":"ce4bho92rcd13ifvqh4g","pricing_plan_id":"cebpf4jnsgd1na2vs0mg"},{"bike_id":"ae1526ac-94c0-4471-b06e-92c0bff1ac42","system_id":"levelo_inurba_marseille","lat":43.28079,"lon":5.39649,"is_reserved":false,"is_disabled":false,"rental_uris":{"android":"levelo://app?vid=ae1526ac-94c0-4471-b06e-92c0bff1ac42","ios":"levelo://app?vid=ae1526ac-94c0-4471-b06e-92c0bff1ac42"},"vehicle_type_id":"4","last_reported":1771483684,"current_range_meters":23200,"station_id":"ce4bho12rcd13ifvqh2g","pricing_plan_id":"cebpf4jnsgd1na2vs0mg"},{"bike_id":"14a17353-bb50-4bd9-8cc0-7441881f4266","system_id":"levelo_inurba_marseille","lat":43.29284,"lon":5.40197,"is_reserved":false,"is_disabled":false,"rental_uris":{"android":"levelo://app?vid=14a17353-bb50-4bd9-8cc0-7441881f4266","ios":"levelo://app?vid=14a17353-bb50-4bd9-8cc0-7441881f4266"},"vehicle_type_id":"4","last_reported":1771483684,"current_range_meters":16800,"station_id":"","pricing_plan_id":"cebpf4jnsgd1na2vs0mg"},{"bike_id":"6a073e53-b7ba-45d5-a82b-20ab8b7b8e96","system_id":"levelo_inurba_marseille","lat":43.33546,"lon":5.37477,"is_reserved":false,"is_disabled":false,"rental_uris":{"android":"levelo://app?vid=6a073e53-b7ba-45d5-a82b-20ab8b7b8e96","ios":"levelo://app?vid=6a073e53-b7ba-45d5-a82b-20ab8b7b8e96"},"vehicle_type_id":"4","last_reported":1771483684,"current_range_meters":18800,"station_id":"st_d46tts09ee8s73dlu43g","pricing_plan_id":"cebpf4jnsgd1na2vs0mg"},{"bike_id":"26102047-b65b-42a3-844a-c690a7086e50","system_id":"levelo_inurba_marseille","lat":43.28953,"lon":5.3785,"is_reserved":false,"is_disabled":false,"rental_uris":{"android":"levelo://app?vid=26102047-b65b-42a3-844a-c690a7086e50","ios":"levelo://app?vid=26102047-b65b-42a3-844a-c690a7086e50"},"vehicle_type_id":"4","last_reported":1771483684,"current_range_meters":37600,"station_id":"ce4bh9p2rcd13ifvqed0","pricing_plan_id":"cebpf4jnsgd1na2vs0mg"},{"bike_id":"27586e15-78a0-41b9-981d-e5de2751a5b3","system_id":"levelo_inurba_marseille","lat":43.30306,"lon":5.36886,"is_reserved":false,"is_disabled":false,"rental_uris":{"android":"levelo://app?vid=27586e15-78a0-41b9-981d-e5de2751a5b3","ios":"levelo://app?vid=27586e15-78a0-41b9-981d-e5de2751a5b3"},"vehicle_type_id":"4","last_reported":1771483684,"current_range_meters":16400,"station_id":"ce4bgqh2rcd13ifvqc5g","pricing_plan_id":"cebpf4jnsgd1na2vs0mg"},{"bike_id":"4e6ae03e-50eb-4e46-ad3a-b607c4b7ae2f","system_id":"levelo_inurba_marseille","lat":43.26952,"lon":5.40255,"is_reserved":false,"is_disabled":false,"rental_uris":{"android":"levelo://app?vid=4e6ae03e-50eb-4e46-ad3a-b607c4b7ae2f","ios":"levelo://app?vid=4e6ae03e-50eb-4e46-ad3a-b607c4b7ae2f"},"vehicle_type_id":"4","last_reported":1771483684,"current_range_meters":38000,"station_id":"cjm6bp8fraef2m0cb0m0","pricing_plan_id":"cebpf4jnsgd1na2vs0mg"},{"bike_id":"3ccb6134-eac1-45ce-be50-f0bf3ac2efba","system_id":"levelo_inurba_marseille","lat":43.2872,"lon":5.37963,"is_reserved":false,"is_disabled":false,"rental_uris":{"android":"levelo://app?vid=3ccb6134-eac1-45ce-be50-f0bf3ac2efba","ios":"levelo://app?vid=3ccb6134-eac1-45ce-be50-f0bf3ac2efba"},"vehicle_type_id":"4","last_reported":1771483684,"current_range_meters":35600,"station_id":"ce4bh9p2rcd13ifvqec0","pricing_plan_id":"cebpf4jnsgd1na2vs0mg"},{"bike_id":"13f19fd6-a0d1-4054-9f38-916998844fdb","system_id":"levelo_inurba_marseille","lat":43.273735,"lon":5.362646,"is_reserved":false,"is_disabled":true,"rental_uris":{"android":"levelo://app?vid=13f19fd6-a0d1-4054-9f38-916998844fdb","ios":"levelo://app?vid=13f19fd6-a0d1-4054-9f38-916998844fdb"},"vehicle_type_id":"4","last_reported":1771483684,"current_range_meters":17200,"station_id":"ce4bgj92rcd13ifvqbe0","pricing_plan_id":"cebpf4jnsgd1na2vs0mg"},{"bike_id":"0ebc98c8-f07d-4c48-bf72-81f2f635fa85","system_id":"levelo_inurba_marseille","lat":43.30345,"lon":5.40455,"is_reserved":false,"is_disabled":false,"rental_uris":{"android":"levelo://app?vid=0ebc98c8-f07d-4c48-bf72-81f2f635fa85","ios":"levelo://app?vid=0ebc98c8-f07d-4c48-bf72-81f2f635fa85"},"vehicle_type_id":"4","last_reported":1771483684,"current_range_meters":22400,"station_id":"ce4bh012rcd13ifvqd10","pricing_plan_id":"cebpf4jnsgd1na2vs0mg"},{"bike_id":"cdedfe68-8f81-48b1-a1d4-83bdd88645c6","system_id":"levelo_inurba_marseille","lat":43.22919,"lon":5.3538,"is_reserved":false,"is_disabled":false,"rental_uris":{"android":"levelo://app?vid=cdedfe68-8f81-48b1-a1d4-83bdd88645c6","ios":"levelo://app?vid=cdedfe68-8f81-48b1-a1d4-83bdd88645c6"},"vehicle_type_id":"4","last_reported":1771483684,"current_range_meters":29600,"station_id":"cpo3532slgdg3j2ikp40","pricing_plan_id":"cebpf4jnsgd1na2vs0mg"},{"bike_id":"968dae4e-8aca-414d-a7c1-653683bf25c2","system_id":"levelo_inurba_marseille","lat":43.28692,"lon":5.37427,"is_reserved":false,"is_disabled":false,"rental_uris":{"android":"levelo://app?vid=968dae4e-8aca-414d-a7c1-653683bf25c2","ios":"levelo://app?vid=968dae4e-8aca-414d-a7c1-653683bf25c2"},"vehicle_type_id":"4","last_reported":1771483684,"current_range_meters":39200,"station_id":"ce4bh3p2rcd13ifvqdq0","pricing_plan_id":"cebpf4jnsgd1na2vs0mg"},{"bike_id":"ff683388-df4a-4ccb-820c-cd909e4395d0","system_id":"levelo_inurba_marseille","lat":43.28423,"lon":5.39157,"is_reserved":false,"is_disabled":false,"rental_uris":{"android":"levelo://app?vid=ff683388-df4a-4ccb-820c-cd909e4395d0","ios":"levelo://app?vid=ff683388-df4a-4ccb-820c-cd909e4395d0"},"vehicle_type_id":"4","last_reported":1771483684,"current_range_meters":10800,"station_id":"","pricing_plan_id":"cebpf4jnsgd1na2vs0mg"},{"bike_id":"baf8fe1b-1a50-459b-b3d6-7e1439165198","system_id":"levelo_inurba_marseille","lat":43.29277,"lon":5.40117,"is_reserved":false,"is_disabled":false,"rental_uris":{"android":"levelo://app?vid=baf8fe1b-1a50-459b-b3d6-7e1439165198","ios":"levelo://app?vid=baf8fe1b-1a50-459b-b3d6-7e1439165198"},"vehicle_type_id":"4","last_reported":1771483684,"current_range_meters":30400,"station_id":"ce4bh312rcd13ifvqdk0","pricing_plan_id":"cebpf4jnsgd1na2vs0mg"},{"bike_id":"f517654c-a6a9-4555-8fea-acf0cc86afa5","system_id":"levelo_inurba_marseille","lat":43.30787,"lon":5.37651,"is_reserved":false,"is_disabled":false,"rental_uris":{"android":"levelo://app?vid=f517654c-a6a9-4555-8fea-acf0cc86afa5","ios":"levelo://app?vid=f517654c-a6a9-4555-8fea-acf0cc86afa5"},"vehicle_type_id":"4","last_reported":1771483684,"current_range_meters":19600,"station_id":"ce4bgv92rcd13ifvqcq0","pricing_plan_id":"cebpf4jnsgd1na2vs0mg"},{"bike_id":"12673977-5b25-450a-8cdc-00ac951258dd","system_id":"levelo_inurba_marseille","lat":43.31047,"lon":5.37176,"is_reserved":false,"is_disabled":true,"rental_uris":{"android":"levelo://app?vid=12673977-5b25-450a-8cdc-00ac951258dd","ios":"levelo://app?vid=12673977-5b25-450a-8cdc-00ac951258dd"},"vehicle_type_id":"4","last_reported":1771483684,"current_range_meters":33600,"station_id":"st_d4kl2rp97mjs73e7tdfg","pricing_plan_id":"cebpf4jnsgd1na2vs0mg"},{"bike_id":"745c1141-3bbe-42a5-a9c8-72b5fcca6c85","system_id":"levelo_inurba_marseille","lat":43.28461,"lon":5.3589,"is_reserved":false,"is_disabled":false,"rental_uris":{"android":"levelo://app?vid=745c1141-3bbe-42a5-a9c8-72b5fcca6c85","ios":"levelo://app?vid=745c1141-3bbe-42a5-a9c8-72b5fcca6c85"},"vehicle_type_id":"4","last_reported":1771483684,"current_range_meters":40000,"station_id":"ce4bhah2rcd13ifvqei0","pricing_plan_id":"cebpf4jnsgd1na2vs0mg"},{"bike_id":"c3b83cd0-cb15-4df1-a612-db6baab524fe","system_id":"levelo_inurba_marseille","lat":43.28007,"lon":5.40001,"is_reserved":false,"is_disabled":false,"rental_uris":{"android":"levelo://app?vid=c3b83cd0-cb15-4df1-a612-db6baab524fe","ios":"levelo://app?vid=c3b83cd0-cb15-4df1-a612-db6baab524fe"},"vehicle_type_id":"4","last_reported":1771483684,"current_range_meters":39200,"station_id":"ce4bho92rcd13ifvqh4g","pricing_plan_id":"cebpf4jnsgd1na2vs0mg"},{"bike_id":"c1305435-7ac9-4c1c-bdb9-e901200687d8","system_id":"levelo_inurba_marseille","lat":43.29235,"lon":5.38319,"is_reserved":false,"is_disabled":false,"rental_uris":{"android":"levelo://app?vid=c1305435-7ac9-4c1c-bdb9-e901200687d8","ios":"levelo://app?vid=c1305435-7ac9-4c1c-bdb9-e901200687d8"},"vehicle_type_id":"4","last_reported":1771483684,"current_range_meters":20800,"station_id":"","pricing_plan_id":"cebpf4jnsgd1na2vs0mg"},{"bike_id":"201ca36c-c632-433f-8e63-028103426023","system_id":"levelo_inurba_marseille","lat":43.284798,"lon":5.484004,"is_reserved":false,"is_disabled":false,"rental_uris":{"android":"levelo://app?vid=201ca36c-c632-433f-8e63-028103426023","ios":"levelo://app?vid=201ca36c-c632-433f-8e63-028103426023"},"vehicle_type_id":"4","last_reported":1771483684,"current_range_meters":11600,"station_id":"","pricing_plan_id":"cebpf4jnsgd1na2vs0mg"},{"bike_id":"ef70ce12-fd44-42a0-88ed-3b2ca489b7fa","system_id":"levelo_inurba_marseille","lat":43.28872,"lon":5.42545,"is_reserved":false,"is_disabled":false,"rental_uris":{"android":"levelo://app?vid=ef70ce12-fd44-42a0-88ed-3b2ca489b7fa","ios":"levelo://app?vid=ef70ce12-fd44-42a0-88ed-3b2ca489b7fa"},"vehicle_type_id":"4","last_reported":1771483684,"current_range_meters":37600,"station_id":"st_d3b462108ojc7389ooeg","pricing_plan_id":"cebpf4jnsgd1na2vs0mg"},{"bike_id":"ec6770e7-ed64-4495-878f-8ee65c0e3087","system_id":"levelo_inurba_marseille","lat":43.279,"lon":5.38006,"is_reserved":false,"is_disabled":true,"rental_uris":{"android":"levelo://app?vid=ec6770e7-ed64-4495-878f-8ee65c0e3087","ios":"levelo://app?vid=ec6770e7-ed64-4495-878f-8ee65c0e3087"},"vehicle_type_id":"4","last_reported":1771483684,"current_range_meters":800,"station_id":"ce4bhf92rcd13ifvqf50","pricing_plan_id":"cebpf4jnsgd1na2vs0mg"},{"bike_id":"402fb316-de29-4c6c-b0e2-48c631932a53","system_id":"levelo_inurba_marseille","lat":43.24674,"lon":5.38152,"is_reserved":false,"is_disabled":false,"rental_uris":{"android":"levelo://app?vid=402fb316-de29-4c6c-b0e2-48c631932a53","ios":"levelo://app?vid=402fb316-de29-4c6c-b0e2-48c631932a53"},"vehicle_type_id":"4","last_reported":1771483684,"current_range_meters":18000,"station_id":"ce4bhih2rcd13ifvqfr0","pricing_plan_id":"cebpf4jnsgd1na2vs0mg"},{"bike_id":"0a19b8ea-5646-43e3-9c33-b9ffd92b9fe4","system_id":"levelo_inurba_marseille","lat":43.28469,"lon":5.3846,"is_reserved":false,"is_disabled":true,"rental_uris":{"android":"levelo://app?vid=0a19b8ea-5646-43e3-9c33-b9ffd92b9fe4","ios":"levelo://app?vid=0a19b8ea-5646-43e3-9c33-b9ffd92b9fe4"},"vehicle_type_id":"4","last_reported":1771483684,"current_range_meters":18800,"station_id":"ce4bh512rcd13ifvqe3g","pricing_plan_id":"cebpf4jnsgd1na2vs0mg"},{"bike_id":"d0abb789-81b8-4337-b2d5-c5035ae1dd42","system_id":"levelo_inurba_marseille","lat":43.29665,"lon":5.36615,"is_reserved":false,"is_disabled":false,"rental_uris":{"android":"levelo://app?vid=d0abb789-81b8-4337-b2d5-c5035ae1dd42","ios":"levelo://app?vid=d0abb789-81b8-4337-b2d5-c5035ae1dd42"},"vehicle_type_id":"4","last_reported":1771483684,"current_range_meters":19200,"station_id":"ce4bgn12rcd13ifvqbt0","pricing_plan_id":"cebpf4jnsgd1na2vs0mg"},{"bike_id":"2869ecff-d536-4cb2-8e34-6173355891f6","system_id":"levelo_inurba_marseille","lat":43.31208,"lon":5.36902,"is_reserved":false,"is_disabled":false,"rental_uris":{"android":"levelo://app?vid=2869ecff-d536-4cb2-8e34-6173355891f6","ios":"levelo://app?vid=2869ecff-d536-4cb2-8e34-6173355891f6"},"vehicle_type_id":"4","last_reported":1771483684,"current_range_meters":20400,"station_id":"ce4bgl92rcd13ifvqbq0","pricing_plan_id":"cebpf4jnsgd1na2vs0mg"},{"bike_id":"e6dcc18a-88f9-4a06-a9ba-f44311cce2a6","system_id":"levelo_inurba_marseille","lat":43.26787,"lon":5.40265,"is_reserved":false,"is_disabled":false,"rental_uris":{"android":"levelo://app?vid=e6dcc18a-88f9-4a06-a9ba-f44311cce2a6","ios":"levelo://app?vid=e6dcc18a-88f9-4a06-a9ba-f44311cce2a6"},"vehicle_type_id":"4","last_reported":1771483684,"current_range_meters":38400,"station_id":"ce501612rcd8frsf0b60","pricing_plan_id":"cebpf4jnsgd1na2vs0mg"},{"bike_id":"5b012de4-7e8b-4538-86be-6640a0946719","system_id":"levelo_inurba_marseille","lat":43.24052,"lon":5.36499,"is_reserved":false,"is_disabled":true,"rental_uris":{"android":"levelo://app?vid=5b012de4-7e8b-4538-86be-6640a0946719","ios":"levelo://app?vid=5b012de4-7e8b-4538-86be-6640a0946719"},"vehicle_type_id":"4","last_reported":1771483684,"current_range_meters":12400,"station_id":"cpo36qri1sfpv3e86is0","pricing_plan_id":"cebpf4jnsgd1na2vs0mg"},{"bike_id":"73a0f084-2b1d-4d97-97da-f814106cb099","system_id":"levelo_inurba_marseille","lat":43.24662,"lon":5.38908,"is_reserved":false,"is_disabled":false,"rental_uris":{"android":"levelo://app?vid=73a0f084-2b1d-4d97-97da-f814106cb099","ios":"levelo://app?vid=73a0f084-2b1d-4d97-97da-f814106cb099"},"vehicle_type_id":"4","last_reported":1771483684,"current_range_meters":39200,"station_id":"ce4bhg12rcd13ifvqf60","pricing_plan_id":"cebpf4jnsgd1na2vs0mg"},{"bike_id":"4455645d-a31e-4811-bd5e-9830c8ef57b4","system_id":"levelo_inurba_marseille","lat":43.30526,"lon":5.3656,"is_reserved":false,"is_disabled":false,"rental_uris":{"android":"levelo://app?vid=4455645d-a31e-4811-bd5e-9830c8ef57b4","ios":"levelo://app?vid=4455645d-a31e-4811-bd5e-9830c8ef57b4"},"vehicle_type_id":"4","last_reported":1771483684,"current_range_meters":38400,"station_id":"ce4bgs12rcd13ifvqcag","pricing_plan_id":"cebpf4jnsgd1na2vs0mg"},{"bike_id":"e1ecfb97-6fd8-4299-87fb-43ecbd52f574","system_id":"levelo_inurba_marseille","lat":43.2827,"lon":5.35077,"is_reserved":false,"is_disabled":false,"rental_uris":{"android":"levelo://app?vid=e1ecfb97-6fd8-4299-87fb-43ecbd52f574","ios":"levelo://app?vid=e1ecfb97-6fd8-4299-87fb-43ecbd52f574"},"vehicle_type_id":"4","last_reported":1771483684,"current_range_meters":12000,"station_id":"ce4bhbp2rcd13ifvqerg","pricing_plan_id":"cebpf4jnsgd1na2vs0mg"},{"bike_id":"46a41969-eea7-42a6-85eb-509b667e3cd9","system_id":"levelo_inurba_marseille","lat":43.3031,"lon":5.40427,"is_reserved":false,"is_disabled":false,"rental_uris":{"android":"levelo://app?vid=46a41969-eea7-42a6-85eb-509b667e3cd9","ios":"levelo://app?vid=46a41969-eea7-42a6-85eb-509b667e3cd9"},"vehicle_type_id":"4","last_reported":1771483684,"current_range_meters":14400,"station_id":"ce4bh012rcd13ifvqd10","pricing_plan_id":"cebpf4jnsgd1na2vs0mg"},{"bike_id":"96438059-8ec7-4cad-b18f-887d9f3a4374","system_id":"levelo_inurba_marseille","lat":43.31497,"lon":5.37306,"is_reserved":false,"is_disabled":false,"rental_uris":{"android":"levelo://app?vid=96438059-8ec7-4cad-b18f-887d9f3a4374","ios":"levelo://app?vid=96438059-8ec7-4cad-b18f-887d9f3a4374"},"vehicle_type_id":"4","last_reported":1771483684,"current_range_meters":33600,"station_id":"ce4bgt12rcd13ifvqcd0","pricing_plan_id":"cebpf4jnsgd1na2vs0mg"},{"bike_id":"65b90786-eaff-4bba-b947-7726467f0166","system_id":"levelo_inurba_marseille","lat":43.28089,"lon":5.37895,"is_reserved":false,"is_disabled":false,"rental_uris":{"android":"levelo://app?vid=65b90786-eaff-4bba-b947-7726467f0166","ios":"levelo://app?vid=65b90786-eaff-4bba-b947-7726467f0166"},"vehicle_type_id":"4","last_reported":1771483684,"current_range_meters":18800,"station_id":"","pricing_plan_id":"cebpf4jnsgd1na2vs0mg"},{"bike_id":"f3d259b4-25e0-49a8-aeac-3a893d02b8fe","system_id":"levelo_inurba_marseille","lat":43.29881,"lon":5.38875,"is_reserved":false,"is_disabled":false,"rental_uris":{"android":"levelo://app?vid=f3d259b4-25e0-49a8-aeac-3a893d02b8fe","ios":"levelo://app?vid=f3d259b4-25e0-49a8-aeac-3a893d02b8fe"},"vehicle_type_id":"4","last_reported":1771483684,"current_range_meters":18000,"station_id":"ce4bh392rcd13ifvqdl0","pricing_plan_id":"cebpf4jnsgd1na2vs0mg"},{"bike_id":"ba43fe86-105f-4d57-9b53-a869ad7ae289","system_id":"levelo_inurba_marseille","lat":43.2903,"lon":5.3863,"is_reserved":false,"is_disabled":false,"rental_uris":{"android":"levelo://app?vid=ba43fe86-105f-4d57-9b53-a869ad7ae289","ios":"levelo://app?vid=ba43fe86-105f-4d57-9b53-a869ad7ae289"},"vehicle_type_id":"4","last_reported":1771483684,"current_range_meters":20000,"station_id":"ce4bh4p2rcd13ifvqe0g","pricing_plan_id":"cebpf4jnsgd1na2vs0mg"},{"bike_id":"5d548b5a-d083-456a-b004-5924aa531bf8","system_id":"levelo_inurba_marseille","lat":43.29722,"lon":5.37706,"is_reserved":false,"is_disabled":false,"rental_uris":{"android":"levelo://app?vid=5d548b5a-d083-456a-b004-5924aa531bf8","ios":"levelo://app?vid=5d548b5a-d083-456a-b004-5924aa531bf8"},"vehicle_type_id":"4","last_reported":1771483684,"current_range_meters":39200,"station_id":"ce4bgkh2rcd13ifvqbl0","pricing_plan_id":"cebpf4jnsgd1na2vs0mg"},{"bike_id":"60d19533-d916-46e5-9e83-963557cfb5f0","system_id":"levelo_inurba_marseille","lat":43.30901,"lon":5.36859,"is_reserved":false,"is_disabled":false,"rental_uris":{"android":"levelo://app?vid=60d19533-d916-46e5-9e83-963557cfb5f0","ios":"levelo://app?vid=60d19533-d916-46e5-9e83-963557cfb5f0"},"vehicle_type_id":"4","last_reported":1771483684,"current_range_meters":33600,"station_id":"ce4bgn92rcd13ifvqbvg","pricing_plan_id":"cebpf4jnsgd1na2vs0mg"},{"bike_id":"200f07f2-6ab6-46ed-9f22-639cf1d5ab95","system_id":"levelo_inurba_marseille","lat":43.27047,"lon":5.4232,"is_reserved":false,"is_disabled":false,"rental_uris":{"android":"levelo://app?vid=200f07f2-6ab6-46ed-9f22-639cf1d5ab95","ios":"levelo://app?vid=200f07f2-6ab6-46ed-9f22-639cf1d5ab95"},"vehicle_type_id":"4","last_reported":1771483684,"current_range_meters":30800,"station_id":"ce4bhk92rcd13ifvqgb0","pricing_plan_id":"cebpf4jnsgd1na2vs0mg"},{"bike_id":"a8c134fb-7dd4-48bb-8009-86b393d03db7","system_id":"levelo_inurba_marseille","lat":43.28095,"lon":5.37822,"is_reserved":false,"is_disabled":false,"rental_uris":{"android":"levelo://app?vid=a8c134fb-7dd4-48bb-8009-86b393d03db7","ios":"levelo://app?vid=a8c134fb-7dd4-48bb-8009-86b393d03db7"},"vehicle_type_id":"4","last_reported":1771483684,"current_range_meters":26800,"station_id":"ce4bha12rcd13ifvqee0","pricing_plan_id":"cebpf4jnsgd1na2vs0mg"},{"bike_id":"7dbed4a4-6963-4ee2-855d-a74bfee58ad8","system_id":"levelo_inurba_marseille","lat":43.309383,"lon":5.401484,"is_reserved":false,"is_disabled":false,"rental_uris":{"android":"levelo://app?vid=7dbed4a4-6963-4ee2-855d-a74bfee58ad8","ios":"levelo://app?vid=7dbed4a4-6963-4ee2-855d-a74bfee58ad8"},"vehicle_type_id":"4","last_reported":1771483684,"current_range_meters":32400,"station_id":"ce4bgvp2rcd13ifvqct0","pricing_plan_id":"cebpf4jnsgd1na2vs0mg"},{"bike_id":"004e9efc-41b9-4ccd-9660-b4076f684882","system_id":"levelo_inurba_marseille","lat":43.28606,"lon":5.37057,"is_reserved":false,"is_disabled":false,"rental_uris":{"android":"levelo://app?vid=004e9efc-41b9-4ccd-9660-b4076f684882","ios":"levelo://app?vid=004e9efc-41b9-4ccd-9660-b4076f684882"},"vehicle_type_id":"4","last_reported":1771483684,"current_range_meters":26000,"station_id":"ce4bht12rcd13ifvqi60","pricing_plan_id":"cebpf4jnsgd1na2vs0mg"},{"bike_id":"f6041667-a189-4c35-8328-024fab0e230c","system_id":"levelo_inurba_marseille","lat":43.26489,"lon":5.39566,"is_reserved":false,"is_disabled":false,"rental_uris":{"android":"levelo://app?vid=f6041667-a189-4c35-8328-024fab0e230c","ios":"levelo://app?vid=f6041667-a189-4c35-8328-024fab0e230c"},"vehicle_type_id":"4","last_reported":1771483684,"current_range_meters":10800,"station_id":"ce4bhi12rcd13ifvqfq0","pricing_plan_id":"cebpf4jnsgd1na2vs0mg"},{"bike_id":"9da307a9-6eeb-417a-bd1a-5a2bc5ec4b21","system_id":"levelo_inurba_marseille","lat":43.297003,"lon":5.376916,"is_reserved":false,"is_disabled":false,"rental_uris":{"android":"levelo://app?vid=9da307a9-6eeb-417a-bd1a-5a2bc5ec4b21","ios":"levelo://app?vid=9da307a9-6eeb-417a-bd1a-5a2bc5ec4b21"},"vehicle_type_id":"4","last_reported":1771483684,"current_range_meters":27200,"station_id":"ce4bh4p2rcd13ifvqe1g","pricing_plan_id":"cebpf4jnsgd1na2vs0mg"},{"bike_id":"c7d2b54a-d383-408d-9a81-b600a9105a37","system_id":"levelo_inurba_marseille","lat":43.33534,"lon":5.37468,"is_reserved":false,"is_disabled":false,"rental_uris":{"android":"levelo://app?vid=c7d2b54a-d383-408d-9a81-b600a9105a37","ios":"levelo://app?vid=c7d2b54a-d383-408d-9a81-b600a9105a37"},"vehicle_type_id":"4","last_reported":1771483684,"current_range_meters":20800,"station_id":"st_d46tts09ee8s73dlu43g","pricing_plan_id":"cebpf4jnsgd1na2vs0mg"},{"bike_id":"73d0170e-f6fe-4467-a0f3-e54fb14b4066","system_id":"levelo_inurba_marseille","lat":43.30176,"lon":5.3808,"is_reserved":false,"is_disabled":false,"rental_uris":{"android":"levelo://app?vid=73d0170e-f6fe-4467-a0f3-e54fb14b4066","ios":"levelo://app?vid=73d0170e-f6fe-4467-a0f3-e54fb14b4066"},"vehicle_type_id":"4","last_reported":1771483684,"current_range_meters":36000,"station_id":"ce4bgjp2rcd13ifvqbh0","pricing_plan_id":"cebpf4jnsgd1na2vs0mg"},{"bike_id":"653fefb1-91ea-420b-b248-bbec1ccc7e05","system_id":"levelo_inurba_marseille","lat":43.24466,"lon":5.42526,"is_reserved":false,"is_disabled":false,"rental_uris":{"android":"levelo://app?vid=653fefb1-91ea-420b-b248-bbec1ccc7e05","ios":"levelo://app?vid=653fefb1-91ea-420b-b248-bbec1ccc7e05"},"vehicle_type_id":"4","last_reported":1771483684,"current_range_meters":20400,"station_id":"st_d4a3vfp97mjs738cd8kg","pricing_plan_id":"cebpf4jnsgd1na2vs0mg"},{"bike_id":"efb9e55d-6339-4234-b54e-3b02633a2c15","system_id":"levelo_inurba_marseille","lat":43.2572,"lon":5.41112,"is_reserved":false,"is_disabled":false,"rental_uris":{"android":"levelo://app?vid=efb9e55d-6339-4234-b54e-3b02633a2c15","ios":"levelo://app?vid=efb9e55d-6339-4234-b54e-3b02633a2c15"},"vehicle_type_id":"4","last_reported":1771483684,"current_range_meters":38400,"station_id":"ce4bhkp2rcd13ifvqgd0","pricing_plan_id":"cebpf4jnsgd1na2vs0mg"},{"bike_id":"435dcea6-6b0b-4966-b7dc-7de8bf556c3d","system_id":"levelo_inurba_marseille","lat":43.29871,"lon":5.38919,"is_reserved":false,"is_disabled":false,"rental_uris":{"android":"levelo://app?vid=435dcea6-6b0b-4966-b7dc-7de8bf556c3d","ios":"levelo://app?vid=435dcea6-6b0b-4966-b7dc-7de8bf556c3d"},"vehicle_type_id":"4","last_reported":1771483684,"current_range_meters":22800,"station_id":"ce4bh392rcd13ifvqdl0","pricing_plan_id":"cebpf4jnsgd1na2vs0mg"},{"bike_id":"bc33fc08-f85a-4f32-84fb-8b24d5daa10d","system_id":"levelo_inurba_marseille","lat":43.28008,"lon":5.41683,"is_reserved":false,"is_disabled":false,"rental_uris":{"android":"levelo://app?vid=bc33fc08-f85a-4f32-84fb-8b24d5daa10d","ios":"levelo://app?vid=bc33fc08-f85a-4f32-84fb-8b24d5daa10d"},"vehicle_type_id":"4","last_reported":1771483684,"current_range_meters":32000,"station_id":"ce4bho12rcd13ifvqh1g","pricing_plan_id":"cebpf4jnsgd1na2vs0mg"},{"bike_id":"544deb22-07df-4fdd-bd0c-219473175ad5","system_id":"levelo_inurba_marseille","lat":43.246683,"lon":5.381531,"is_reserved":false,"is_disabled":false,"rental_uris":{"android":"levelo://app?vid=544deb22-07df-4fdd-bd0c-219473175ad5","ios":"levelo://app?vid=544deb22-07df-4fdd-bd0c-219473175ad5"},"vehicle_type_id":"4","last_reported":1771483684,"current_range_meters":16000,"station_id":"ce4bhih2rcd13ifvqfr0","pricing_plan_id":"cebpf4jnsgd1na2vs0mg"},{"bike_id":"b56380f9-a759-4bad-ae97-ee9b0c34fdbe","system_id":"levelo_inurba_marseille","lat":43.33543,"lon":5.3746,"is_reserved":false,"is_disabled":false,"rental_uris":{"android":"levelo://app?vid=b56380f9-a759-4bad-ae97-ee9b0c34fdbe","ios":"levelo://app?vid=b56380f9-a759-4bad-ae97-ee9b0c34fdbe"},"vehicle_type_id":"4","last_reported":1771483684,"current_range_meters":22400,"station_id":"st_d46tts09ee8s73dlu43g","pricing_plan_id":"cebpf4jnsgd1na2vs0mg"},{"bike_id":"155527d1-8bf8-4e26-a360-b9d52b17b6e1","system_id":"levelo_inurba_marseille","lat":43.28368,"lon":5.38635,"is_reserved":false,"is_disabled":false,"rental_uris":{"android":"levelo://app?vid=155527d1-8bf8-4e26-a360-b9d52b17b6e1","ios":"levelo://app?vid=155527d1-8bf8-4e26-a360-b9d52b17b6e1"},"vehicle_type_id":"4","last_reported":1771483684,"current_range_meters":30400,"station_id":"ce4bh492rcd13ifvqdvg","pricing_plan_id":"cebpf4jnsgd1na2vs0mg"},{"bike_id":"e4f15f52-9f9b-46f0-9586-df31c8479f98","system_id":"levelo_inurba_marseille","lat":43.29043,"lon":5.39926,"is_reserved":false,"is_disabled":false,"rental_uris":{"android":"levelo://app?vid=e4f15f52-9f9b-46f0-9586-df31c8479f98","ios":"levelo://app?vid=e4f15f52-9f9b-46f0-9586-df31c8479f98"},"vehicle_type_id":"4","last_reported":1771483684,"current_range_meters":15200,"station_id":"ce4bh392rcd13ifvqdm0","pricing_plan_id":"cebpf4jnsgd1na2vs0mg"},{"bike_id":"e5c37de4-5b20-40fe-851e-2d0c03d75c93","system_id":"levelo_inurba_marseille","lat":43.33125,"lon":5.39271,"is_reserved":false,"is_disabled":false,"rental_uris":{"android":"levelo://app?vid=e5c37de4-5b20-40fe-851e-2d0c03d75c93","ios":"levelo://app?vid=e5c37de4-5b20-40fe-851e-2d0c03d75c93"},"vehicle_type_id":"4","last_reported":1771483684,"current_range_meters":12800,"station_id":"","pricing_plan_id":"cebpf4jnsgd1na2vs0mg"},{"bike_id":"07b0f432-5e82-4f8c-81ee-67d93dfdf4d8","system_id":"levelo_inurba_marseille","lat":43.28589,"lon":5.35119,"is_reserved":false,"is_disabled":false,"rental_uris":{"android":"levelo://app?vid=07b0f432-5e82-4f8c-81ee-67d93dfdf4d8","ios":"levelo://app?vid=07b0f432-5e82-4f8c-81ee-67d93dfdf4d8"},"vehicle_type_id":"4","last_reported":1771483684,"current_range_meters":6800,"station_id":"ce4bhch2rcd13ifvqeug","pricing_plan_id":"cebpf4jnsgd1na2vs0mg"},{"bike_id":"127677c5-4cab-4685-9cfe-a1e546a48838","system_id":"levelo_inurba_marseille","lat":43.32102,"lon":5.36778,"is_reserved":false,"is_disabled":false,"rental_uris":{"android":"levelo://app?vid=127677c5-4cab-4685-9cfe-a1e546a48838","ios":"levelo://app?vid=127677c5-4cab-4685-9cfe-a1e546a48838"},"vehicle_type_id":"4","last_reported":1771483684,"current_range_meters":16800,"station_id":"ce4bhrh2rcd13ifvqhug","pricing_plan_id":"cebpf4jnsgd1na2vs0mg"},{"bike_id":"dcd0cf55-ffb3-4ae8-85bc-3fda68997124","system_id":"levelo_inurba_marseille","lat":43.26937,"lon":5.38633,"is_reserved":false,"is_disabled":true,"rental_uris":{"android":"levelo://app?vid=dcd0cf55-ffb3-4ae8-85bc-3fda68997124","ios":"levelo://app?vid=dcd0cf55-ffb3-4ae8-85bc-3fda68997124"},"vehicle_type_id":"4","last_reported":1771483684,"current_range_meters":8000,"station_id":"ce4bhh92rcd13ifvqfh0","pricing_plan_id":"cebpf4jnsgd1na2vs0mg"},{"bike_id":"d1682903-23d0-41b7-b77c-699ad608165c","system_id":"levelo_inurba_marseille","lat":43.28721,"lon":5.36101,"is_reserved":false,"is_disabled":false,"rental_uris":{"android":"levelo://app?vid=d1682903-23d0-41b7-b77c-699ad608165c","ios":"levelo://app?vid=d1682903-23d0-41b7-b77c-699ad608165c"},"vehicle_type_id":"4","last_reported":1771483684,"current_range_meters":14800,"station_id":"cki0cbj6b192h4jlfktg","pricing_plan_id":"cebpf4jnsgd1na2vs0mg"},{"bike_id":"2b5f883f-0bb8-4808-97c3-e9d5a5ddb872","system_id":"levelo_inurba_marseille","lat":43.30628,"lon":5.40083,"is_reserved":false,"is_disabled":false,"rental_uris":{"android":"levelo://app?vid=2b5f883f-0bb8-4808-97c3-e9d5a5ddb872","ios":"levelo://app?vid=2b5f883f-0bb8-4808-97c3-e9d5a5ddb872"},"vehicle_type_id":"4","last_reported":1771483684,"current_range_meters":33600,"station_id":"ce4bh112rcd13ifvqda0","pricing_plan_id":"cebpf4jnsgd1na2vs0mg"},{"bike_id":"47788a9b-3d71-4615-adaa-2c88572889ac","system_id":"levelo_inurba_marseille","lat":43.31495,"lon":5.37332,"is_reserved":false,"is_disabled":false,"rental_uris":{"android":"levelo://app?vid=47788a9b-3d71-4615-adaa-2c88572889ac","ios":"levelo://app?vid=47788a9b-3d71-4615-adaa-2c88572889ac"},"vehicle_type_id":"4","last_reported":1771483684,"current_range_meters":32000,"station_id":"ce4bgt12rcd13ifvqcd0","pricing_plan_id":"cebpf4jnsgd1na2vs0mg"},{"bike_id":"fb4c81e1-59ab-4a96-ad75-2e8d74c036e5","system_id":"levelo_inurba_marseille","lat":43.31162,"lon":5.38587,"is_reserved":false,"is_disabled":false,"rental_uris":{"android":"levelo://app?vid=fb4c81e1-59ab-4a96-ad75-2e8d74c036e5","ios":"levelo://app?vid=fb4c81e1-59ab-4a96-ad75-2e8d74c036e5"},"vehicle_type_id":"4","last_reported":1771483684,"current_range_meters":11200,"station_id":"","pricing_plan_id":"cebpf4jnsgd1na2vs0mg"},{"bike_id":"fe61620a-8630-4808-bdbe-e17dd1aaecfb","system_id":"levelo_inurba_marseille","lat":43.24387,"lon":5.37067,"is_reserved":false,"is_disabled":false,"rental_uris":{"android":"levelo://app?vid=fe61620a-8630-4808-bdbe-e17dd1aaecfb","ios":"levelo://app?vid=fe61620a-8630-4808-bdbe-e17dd1aaecfb"},"vehicle_type_id":"4","last_reported":1771483684,"current_range_meters":35600,"station_id":"ce4bhhh2rcd13ifvqfk0","pricing_plan_id":"cebpf4jnsgd1na2vs0mg"},{"bike_id":"1dfc9df6-efc3-44e1-bfa7-eabdccc695a9","system_id":"levelo_inurba_marseille","lat":43.33533,"lon":5.37471,"is_reserved":false,"is_disabled":false,"rental_uris":{"android":"levelo://app?vid=1dfc9df6-efc3-44e1-bfa7-eabdccc695a9","ios":"levelo://app?vid=1dfc9df6-efc3-44e1-bfa7-eabdccc695a9"},"vehicle_type_id":"4","last_reported":1771483684,"current_range_meters":11200,"station_id":"st_d46tts09ee8s73dlu43g","pricing_plan_id":"cebpf4jnsgd1na2vs0mg"},{"bike_id":"16fc34bf-65ec-4c81-ba21-ad880e0c1ac1","system_id":"levelo_inurba_marseille","lat":43.298516,"lon":5.362871,"is_reserved":false,"is_disabled":true,"rental_uris":{"android":"levelo://app?vid=16fc34bf-65ec-4c81-ba21-ad880e0c1ac1","ios":"levelo://app?vid=16fc34bf-65ec-4c81-ba21-ad880e0c1ac1"},"vehicle_type_id":"4","last_reported":1771483684,"current_range_meters":6400,"station_id":"ce4bgpp2rcd13ifvqc3g","pricing_plan_id":"cebpf4jnsgd1na2vs0mg"},{"bike_id":"feddf533-e694-4295-8a00-2ac5034dd517","system_id":"levelo_inurba_marseille","lat":43.26947,"lon":5.40257,"is_reserved":false,"is_disabled":false,"rental_uris":{"android":"levelo://app?vid=feddf533-e694-4295-8a00-2ac5034dd517","ios":"levelo://app?vid=feddf533-e694-4295-8a00-2ac5034dd517"},"vehicle_type_id":"4","last_reported":1771483684,"current_range_meters":38000,"station_id":"cjm6bp8fraef2m0cb0m0","pricing_plan_id":"cebpf4jnsgd1na2vs0mg"},{"bike_id":"14867868-6aed-41c1-9296-5792e4f862f8","system_id":"levelo_inurba_marseille","lat":43.25326,"lon":5.42149,"is_reserved":false,"is_disabled":false,"rental_uris":{"android":"levelo://app?vid=14867868-6aed-41c1-9296-5792e4f862f8","ios":"levelo://app?vid=14867868-6aed-41c1-9296-5792e4f862f8"},"vehicle_type_id":"4","last_reported":1771483684,"current_range_meters":25600,"station_id":"st_d2m65c5bi1j21697t3ng","pricing_plan_id":"cebpf4jnsgd1na2vs0mg"},{"bike_id":"2f84c6f6-1af1-4f12-9943-f4b364371f34","system_id":"levelo_inurba_marseille","lat":43.305502,"lon":5.365259,"is_reserved":false,"is_disabled":false,"rental_uris":{"android":"levelo://app?vid=2f84c6f6-1af1-4f12-9943-f4b364371f34","ios":"levelo://app?vid=2f84c6f6-1af1-4f12-9943-f4b364371f34"},"vehicle_type_id":"4","last_reported":1771483684,"current_range_meters":14000,"station_id":"ce4bgs12rcd13ifvqcag","pricing_plan_id":"cebpf4jnsgd1na2vs0mg"},{"bike_id":"baf5634a-458e-4f5a-a6f0-61ff3624b257","system_id":"levelo_inurba_marseille","lat":43.275653,"lon":5.384173,"is_reserved":false,"is_disabled":false,"rental_uris":{"android":"levelo://app?vid=baf5634a-458e-4f5a-a6f0-61ff3624b257","ios":"levelo://app?vid=baf5634a-458e-4f5a-a6f0-61ff3624b257"},"vehicle_type_id":"4","last_reported":1771483684,"current_range_meters":33200,"station_id":"ce4bhh92rcd13ifvqfi0","pricing_plan_id":"cebpf4jnsgd1na2vs0mg"},{"bike_id":"e5ddf298-59a6-48a6-9f22-1ea1820e4aeb","system_id":"levelo_inurba_marseille","lat":43.28083,"lon":5.39659,"is_reserved":false,"is_disabled":false,"rental_uris":{"android":"levelo://app?vid=e5ddf298-59a6-48a6-9f22-1ea1820e4aeb","ios":"levelo://app?vid=e5ddf298-59a6-48a6-9f22-1ea1820e4aeb"},"vehicle_type_id":"4","last_reported":1771483684,"current_range_meters":38000,"station_id":"ce4bho12rcd13ifvqh2g","pricing_plan_id":"cebpf4jnsgd1na2vs0mg"},{"bike_id":"a064d16f-bc47-4f73-afc0-71fb9fcd9d35","system_id":"levelo_inurba_marseille","lat":43.25113,"lon":5.40331,"is_reserved":false,"is_disabled":false,"rental_uris":{"android":"levelo://app?vid=a064d16f-bc47-4f73-afc0-71fb9fcd9d35","ios":"levelo://app?vid=a064d16f-bc47-4f73-afc0-71fb9fcd9d35"},"vehicle_type_id":"4","last_reported":1771483684,"current_range_meters":38400,"station_id":"ce4bhlh2rcd13ifvqgig","pricing_plan_id":"cebpf4jnsgd1na2vs0mg"},{"bike_id":"7874f1f9-e545-4dd5-834e-ebed784af39f","system_id":"levelo_inurba_marseille","lat":43.276691,"lon":5.388716,"is_reserved":false,"is_disabled":false,"rental_uris":{"android":"levelo://app?vid=7874f1f9-e545-4dd5-834e-ebed784af39f","ios":"levelo://app?vid=7874f1f9-e545-4dd5-834e-ebed784af39f"},"vehicle_type_id":"4","last_reported":1771483684,"current_range_meters":24800,"station_id":"ce4bhi12rcd13ifvqfo0","pricing_plan_id":"cebpf4jnsgd1na2vs0mg"},{"bike_id":"0a9805da-4766-4522-9e65-e3830b56acec","system_id":"levelo_inurba_marseille","lat":43.246694,"lon":5.381528,"is_reserved":false,"is_disabled":false,"rental_uris":{"android":"levelo://app?vid=0a9805da-4766-4522-9e65-e3830b56acec","ios":"levelo://app?vid=0a9805da-4766-4522-9e65-e3830b56acec"},"vehicle_type_id":"4","last_reported":1771483684,"current_range_meters":37600,"station_id":"ce4bhih2rcd13ifvqfr0","pricing_plan_id":"cebpf4jnsgd1na2vs0mg"},{"bike_id":"e33b8697-55e7-43d6-b3d0-b51a51b70e9f","system_id":"levelo_inurba_marseille","lat":43.30223,"lon":5.40014,"is_reserved":false,"is_disabled":false,"rental_uris":{"android":"levelo://app?vid=e33b8697-55e7-43d6-b3d0-b51a51b70e9f","ios":"levelo://app?vid=e33b8697-55e7-43d6-b3d0-b51a51b70e9f"},"vehicle_type_id":"4","last_reported":1771483684,"current_range_meters":28800,"station_id":"","pricing_plan_id":"cebpf4jnsgd1na2vs0mg"},{"bike_id":"a390b538-2807-40e2-95f9-4ed175e72a0b","system_id":"levelo_inurba_marseille","lat":43.24973,"lon":5.40504,"is_reserved":false,"is_disabled":false,"rental_uris":{"android":"levelo://app?vid=a390b538-2807-40e2-95f9-4ed175e72a0b","ios":"levelo://app?vid=a390b538-2807-40e2-95f9-4ed175e72a0b"},"vehicle_type_id":"4","last_reported":1771483684,"current_range_meters":23200,"station_id":"st_d2ngiaodas8pm72gd1h0","pricing_plan_id":"cebpf4jnsgd1na2vs0mg"},{"bike_id":"822a37e9-cc86-4db6-b810-29ef8016af0b","system_id":"levelo_inurba_marseille","lat":43.29823,"lon":5.44016,"is_reserved":false,"is_disabled":false,"rental_uris":{"android":"levelo://app?vid=822a37e9-cc86-4db6-b810-29ef8016af0b","ios":"levelo://app?vid=822a37e9-cc86-4db6-b810-29ef8016af0b"},"vehicle_type_id":"4","last_reported":1771483684,"current_range_meters":21600,"station_id":"st_d3jp68qikq2c7381ktn0","pricing_plan_id":"cebpf4jnsgd1na2vs0mg"},{"bike_id":"3886e246-de3b-4bd8-9bb1-b4fd43c2effc","system_id":"levelo_inurba_marseille","lat":43.30594,"lon":5.37233,"is_reserved":false,"is_disabled":false,"rental_uris":{"android":"levelo://app?vid=3886e246-de3b-4bd8-9bb1-b4fd43c2effc","ios":"levelo://app?vid=3886e246-de3b-4bd8-9bb1-b4fd43c2effc"},"vehicle_type_id":"4","last_reported":1771483684,"current_range_meters":38000,"station_id":"ce4bgqh2rcd13ifvqc4g","pricing_plan_id":"cebpf4jnsgd1na2vs0mg"},{"bike_id":"03aee3db-9f4f-47df-b3ec-8d0bacddcdbc","system_id":"levelo_inurba_marseille","lat":43.27161,"lon":5.40982,"is_reserved":false,"is_disabled":false,"rental_uris":{"android":"levelo://app?vid=03aee3db-9f4f-47df-b3ec-8d0bacddcdbc","ios":"levelo://app?vid=03aee3db-9f4f-47df-b3ec-8d0bacddcdbc"},"vehicle_type_id":"4","last_reported":1771483684,"current_range_meters":35200,"station_id":"ce4bhl12rcd13ifvqgf0","pricing_plan_id":"cebpf4jnsgd1na2vs0mg"},{"bike_id":"55eb0aad-f6b5-4ef8-8c2b-ee220d251165","system_id":"levelo_inurba_marseille","lat":43.26934,"lon":5.40281,"is_reserved":false,"is_disabled":false,"rental_uris":{"android":"levelo://app?vid=55eb0aad-f6b5-4ef8-8c2b-ee220d251165","ios":"levelo://app?vid=55eb0aad-f6b5-4ef8-8c2b-ee220d251165"},"vehicle_type_id":"4","last_reported":1771483684,"current_range_meters":30000,"station_id":"cjm6bp8fraef2m0cb0m0","pricing_plan_id":"cebpf4jnsgd1na2vs0mg"},{"bike_id":"59aabee3-6211-4f8a-9630-29cde1e1b3d7","system_id":"levelo_inurba_marseille","lat":43.29541,"lon":5.37488,"is_reserved":false,"is_disabled":false,"rental_uris":{"android":"levelo://app?vid=59aabee3-6211-4f8a-9630-29cde1e1b3d7","ios":"levelo://app?vid=59aabee3-6211-4f8a-9630-29cde1e1b3d7"},"vehicle_type_id":"4","last_reported":1771483684,"current_range_meters":17200,"station_id":"ce4bgkp2rcd13ifvqbmg","pricing_plan_id":"cebpf4jnsgd1na2vs0mg"},{"bike_id":"89b3e01c-4867-4ddb-b4c3-f53bd946fe77","system_id":"levelo_inurba_marseille","lat":43.29166,"lon":5.36025,"is_reserved":false,"is_disabled":false,"rental_uris":{"android":"levelo://app?vid=89b3e01c-4867-4ddb-b4c3-f53bd946fe77","ios":"levelo://app?vid=89b3e01c-4867-4ddb-b4c3-f53bd946fe77"},"vehicle_type_id":"4","last_reported":1771483684,"current_range_meters":11200,"station_id":"ce4bhbh2rcd13ifvqeqg","pricing_plan_id":"cebpf4jnsgd1na2vs0mg"},{"bike_id":"012436c7-b0d2-44f6-9f1e-20d7a40c23a6","system_id":"levelo_inurba_marseille","lat":43.26196,"lon":5.40524,"is_reserved":false,"is_disabled":false,"rental_uris":{"android":"levelo://app?vid=012436c7-b0d2-44f6-9f1e-20d7a40c23a6","ios":"levelo://app?vid=012436c7-b0d2-44f6-9f1e-20d7a40c23a6"},"vehicle_type_id":"4","last_reported":1771483684,"current_range_meters":36400,"station_id":"","pricing_plan_id":"cebpf4jnsgd1na2vs0mg"},{"bike_id":"ddb35e99-7580-4184-b1a3-39dee08fd05d","system_id":"levelo_inurba_marseille","lat":43.29559,"lon":5.43923,"is_reserved":false,"is_disabled":false,"rental_uris":{"android":"levelo://app?vid=ddb35e99-7580-4184-b1a3-39dee08fd05d","ios":"levelo://app?vid=ddb35e99-7580-4184-b1a3-39dee08fd05d"},"vehicle_type_id":"4","last_reported":1771483684,"current_range_meters":11600,"station_id":"","pricing_plan_id":"cebpf4jnsgd1na2vs0mg"},{"bike_id":"4d976bf5-f813-4b36-99cd-ae82b3487f1d","system_id":"levelo_inurba_marseille","lat":43.27994,"lon":5.41686,"is_reserved":false,"is_disabled":false,"rental_uris":{"android":"levelo://app?vid=4d976bf5-f813-4b36-99cd-ae82b3487f1d","ios":"levelo://app?vid=4d976bf5-f813-4b36-99cd-ae82b3487f1d"},"vehicle_type_id":"4","last_reported":1771483684,"current_range_meters":8000,"station_id":"ce4bho12rcd13ifvqh1g","pricing_plan_id":"cebpf4jnsgd1na2vs0mg"},{"bike_id":"827af7a8-8b57-41eb-99ae-02b02347eaab","system_id":"levelo_inurba_marseille","lat":43.29248,"lon":5.38459,"is_reserved":false,"is_disabled":false,"rental_uris":{"android":"levelo://app?vid=827af7a8-8b57-41eb-99ae-02b02347eaab","ios":"levelo://app?vid=827af7a8-8b57-41eb-99ae-02b02347eaab"},"vehicle_type_id":"4","last_reported":1771483684,"current_range_meters":28400,"station_id":"ce4bh692rcd13ifvqea0","pricing_plan_id":"cebpf4jnsgd1na2vs0mg"},{"bike_id":"9f3630eb-dbc9-48cb-9dc8-34da35d113eb","system_id":"levelo_inurba_marseille","lat":43.28612,"lon":5.35108,"is_reserved":false,"is_disabled":false,"rental_uris":{"android":"levelo://app?vid=9f3630eb-dbc9-48cb-9dc8-34da35d113eb","ios":"levelo://app?vid=9f3630eb-dbc9-48cb-9dc8-34da35d113eb"},"vehicle_type_id":"4","last_reported":1771483684,"current_range_meters":29600,"station_id":"ce4bhch2rcd13ifvqeug","pricing_plan_id":"cebpf4jnsgd1na2vs0mg"},{"bike_id":"4e4a9dab-9cef-4b15-af20-700cc63ae5ad","system_id":"levelo_inurba_marseille","lat":43.30313,"lon":5.40441,"is_reserved":false,"is_disabled":false,"rental_uris":{"android":"levelo://app?vid=4e4a9dab-9cef-4b15-af20-700cc63ae5ad","ios":"levelo://app?vid=4e4a9dab-9cef-4b15-af20-700cc63ae5ad"},"vehicle_type_id":"4","last_reported":1771483684,"current_range_meters":39200,"station_id":"ce4bh012rcd13ifvqd10","pricing_plan_id":"cebpf4jnsgd1na2vs0mg"},{"bike_id":"e20c4760-3d10-4402-8539-0046b00120e2","system_id":"levelo_inurba_marseille","lat":43.25719,"lon":5.41119,"is_reserved":false,"is_disabled":false,"rental_uris":{"android":"levelo://app?vid=e20c4760-3d10-4402-8539-0046b00120e2","ios":"levelo://app?vid=e20c4760-3d10-4402-8539-0046b00120e2"},"vehicle_type_id":"4","last_reported":1771483684,"current_range_meters":38800,"station_id":"ce4bhkp2rcd13ifvqgd0","pricing_plan_id":"cebpf4jnsgd1na2vs0mg"},{"bike_id":"7c12a7a0-d571-4b14-a374-66210b2e0664","system_id":"levelo_inurba_marseille","lat":43.31492,"lon":5.37286,"is_reserved":false,"is_disabled":false,"rental_uris":{"android":"levelo://app?vid=7c12a7a0-d571-4b14-a374-66210b2e0664","ios":"levelo://app?vid=7c12a7a0-d571-4b14-a374-66210b2e0664"},"vehicle_type_id":"4","last_reported":1771483684,"current_range_meters":32000,"station_id":"ce4bgt12rcd13ifvqcd0","pricing_plan_id":"cebpf4jnsgd1na2vs0mg"},{"bike_id":"a99f4834-6397-4852-872f-80cdc766c1ad","system_id":"levelo_inurba_marseille","lat":43.26776,"lon":5.39417,"is_reserved":false,"is_disabled":true,"rental_uris":{"android":"levelo://app?vid=a99f4834-6397-4852-872f-80cdc766c1ad","ios":"levelo://app?vid=a99f4834-6397-4852-872f-80cdc766c1ad"},"vehicle_type_id":"4","last_reported":1771483684,"current_range_meters":38400,"station_id":"ce4bhh12rcd13ifvqfg0","pricing_plan_id":"cebpf4jnsgd1na2vs0mg"},{"bike_id":"fe6f5b89-f23b-49b2-9ff6-1649351eda2e","system_id":"levelo_inurba_marseille","lat":43.28548,"lon":5.39504,"is_reserved":false,"is_disabled":false,"rental_uris":{"android":"levelo://app?vid=fe6f5b89-f23b-49b2-9ff6-1649351eda2e","ios":"levelo://app?vid=fe6f5b89-f23b-49b2-9ff6-1649351eda2e"},"vehicle_type_id":"4","last_reported":1771483684,"current_range_meters":24400,"station_id":"ce4bh292rcd13ifvqdg0","pricing_plan_id":"cebpf4jnsgd1na2vs0mg"},{"bike_id":"9971219d-0a3d-4a1e-b734-3277b1a94a28","system_id":"levelo_inurba_marseille","lat":43.2928,"lon":5.38436,"is_reserved":false,"is_disabled":false,"rental_uris":{"android":"levelo://app?vid=9971219d-0a3d-4a1e-b734-3277b1a94a28","ios":"levelo://app?vid=9971219d-0a3d-4a1e-b734-3277b1a94a28"},"vehicle_type_id":"4","last_reported":1771483684,"current_range_meters":8400,"station_id":"ce4bh692rcd13ifvqea0","pricing_plan_id":"cebpf4jnsgd1na2vs0mg"},{"bike_id":"38e495d8-5a5e-48d0-96cb-ae45ae824053","system_id":"levelo_inurba_marseille","lat":43.30143,"lon":5.38087,"is_reserved":false,"is_disabled":false,"rental_uris":{"android":"levelo://app?vid=38e495d8-5a5e-48d0-96cb-ae45ae824053","ios":"levelo://app?vid=38e495d8-5a5e-48d0-96cb-ae45ae824053"},"vehicle_type_id":"4","last_reported":1771483684,"current_range_meters":4800,"station_id":"ce4bgjp2rcd13ifvqbh0","pricing_plan_id":"cebpf4jnsgd1na2vs0mg"},{"bike_id":"759f0a09-9669-46dc-9822-7ecc825b93de","system_id":"levelo_inurba_marseille","lat":43.305465,"lon":5.365267,"is_reserved":false,"is_disabled":false,"rental_uris":{"android":"levelo://app?vid=759f0a09-9669-46dc-9822-7ecc825b93de","ios":"levelo://app?vid=759f0a09-9669-46dc-9822-7ecc825b93de"},"vehicle_type_id":"4","last_reported":1771483684,"current_range_meters":36400,"station_id":"ce4bgs12rcd13ifvqcag","pricing_plan_id":"cebpf4jnsgd1na2vs0mg"},{"bike_id":"22f60e52-680b-4726-b274-1761335afe87","system_id":"levelo_inurba_marseille","lat":43.29295,"lon":5.37466,"is_reserved":false,"is_disabled":false,"rental_uris":{"android":"levelo://app?vid=22f60e52-680b-4726-b274-1761335afe87","ios":"levelo://app?vid=22f60e52-680b-4726-b274-1761335afe87"},"vehicle_type_id":"4","last_reported":1771483684,"current_range_meters":25600,"station_id":"ce4bgi12rcd13ifvqb70","pricing_plan_id":"cebpf4jnsgd1na2vs0mg"},{"bike_id":"52f61550-53ac-43ca-b4ac-25520a40692b","system_id":"levelo_inurba_marseille","lat":43.26237,"lon":5.40452,"is_reserved":false,"is_disabled":false,"rental_uris":{"android":"levelo://app?vid=52f61550-53ac-43ca-b4ac-25520a40692b","ios":"levelo://app?vid=52f61550-53ac-43ca-b4ac-25520a40692b"},"vehicle_type_id":"4","last_reported":1771483684,"current_range_meters":11200,"station_id":"ce4bhmh2rcd13ifvqgmg","pricing_plan_id":"cebpf4jnsgd1na2vs0mg"},{"bike_id":"3a873bc2-b7d0-4d1b-9923-a0ee1c01ea72","system_id":"levelo_inurba_marseille","lat":43.308055,"lon":5.381551,"is_reserved":false,"is_disabled":true,"rental_uris":{"android":"levelo://app?vid=3a873bc2-b7d0-4d1b-9923-a0ee1c01ea72","ios":"levelo://app?vid=3a873bc2-b7d0-4d1b-9923-a0ee1c01ea72"},"vehicle_type_id":"4","last_reported":1771483684,"current_range_meters":37600,"station_id":"ce4bgt12rcd13ifvqce0","pricing_plan_id":"cebpf4jnsgd1na2vs0mg"},{"bike_id":"84b0b670-200d-4214-99d4-bfcf30c671d6","system_id":"levelo_inurba_marseille","lat":43.27946,"lon":5.41047,"is_reserved":false,"is_disabled":false,"rental_uris":{"android":"levelo://app?vid=84b0b670-200d-4214-99d4-bfcf30c671d6","ios":"levelo://app?vid=84b0b670-200d-4214-99d4-bfcf30c671d6"},"vehicle_type_id":"4","last_reported":1771483684,"current_range_meters":15200,"station_id":"ce4bhnp2rcd13ifvqh0g","pricing_plan_id":"cebpf4jnsgd1na2vs0mg"},{"bike_id":"17f7ca05-9ff1-4847-81f4-6f637ce906bc","system_id":"levelo_inurba_marseille","lat":43.25332,"lon":5.42151,"is_reserved":false,"is_disabled":true,"rental_uris":{"android":"levelo://app?vid=17f7ca05-9ff1-4847-81f4-6f637ce906bc","ios":"levelo://app?vid=17f7ca05-9ff1-4847-81f4-6f637ce906bc"},"vehicle_type_id":"4","last_reported":1771483684,"current_range_meters":0,"station_id":"st_d2m65c5bi1j21697t3ng","pricing_plan_id":"cebpf4jnsgd1na2vs0mg"},{"bike_id":"2878521b-d6c1-4b3c-ba46-d42287228df6","system_id":"levelo_inurba_marseille","lat":43.308828,"lon":5.396314,"is_reserved":false,"is_disabled":false,"rental_uris":{"android":"levelo://app?vid=2878521b-d6c1-4b3c-ba46-d42287228df6","ios":"levelo://app?vid=2878521b-d6c1-4b3c-ba46-d42287228df6"},"vehicle_type_id":"4","last_reported":1771483684,"current_range_meters":3200,"station_id":"ce4bh012rcd13ifvqcv0","pricing_plan_id":"cebpf4jnsgd1na2vs0mg"},{"bike_id":"381b48ff-a239-4b84-a925-72ce7d4961eb","system_id":"levelo_inurba_marseille","lat":43.28727,"lon":5.36087,"is_reserved":false,"is_disabled":false,"rental_uris":{"android":"levelo://app?vid=381b48ff-a239-4b84-a925-72ce7d4961eb","ios":"levelo://app?vid=381b48ff-a239-4b84-a925-72ce7d4961eb"},"vehicle_type_id":"4","last_reported":1771483684,"current_range_meters":36000,"station_id":"cki0cbj6b192h4jlfktg","pricing_plan_id":"cebpf4jnsgd1na2vs0mg"},{"bike_id":"49627cd9-1184-47d5-9b5a-c6d586072709","system_id":"levelo_inurba_marseille","lat":43.27181,"lon":5.41019,"is_reserved":false,"is_disabled":false,"rental_uris":{"android":"levelo://app?vid=49627cd9-1184-47d5-9b5a-c6d586072709","ios":"levelo://app?vid=49627cd9-1184-47d5-9b5a-c6d586072709"},"vehicle_type_id":"4","last_reported":1771483684,"current_range_meters":39200,"station_id":"ce4bhl12rcd13ifvqgf0","pricing_plan_id":"cebpf4jnsgd1na2vs0mg"},{"bike_id":"783b5e66-d78c-4ae3-9d04-cbcffaa3b0ab","system_id":"levelo_inurba_marseille","lat":43.24389,"lon":5.37054,"is_reserved":false,"is_disabled":false,"rental_uris":{"android":"levelo://app?vid=783b5e66-d78c-4ae3-9d04-cbcffaa3b0ab","ios":"levelo://app?vid=783b5e66-d78c-4ae3-9d04-cbcffaa3b0ab"},"vehicle_type_id":"4","last_reported":1771483684,"current_range_meters":12400,"station_id":"ce4bhhh2rcd13ifvqfk0","pricing_plan_id":"cebpf4jnsgd1na2vs0mg"},{"bike_id":"d784bea9-82a5-430c-9ec4-f5350b864266","system_id":"levelo_inurba_marseille","lat":43.24068,"lon":5.3778,"is_reserved":false,"is_disabled":false,"rental_uris":{"android":"levelo://app?vid=d784bea9-82a5-430c-9ec4-f5350b864266","ios":"levelo://app?vid=d784bea9-82a5-430c-9ec4-f5350b864266"},"vehicle_type_id":"4","last_reported":1771483684,"current_range_meters":9600,"station_id":"ce4bhnp2rcd13ifvqgvg","pricing_plan_id":"cebpf4jnsgd1na2vs0mg"},{"bike_id":"00fcc252-a609-4cef-8bbc-4e701d14566c","system_id":"levelo_inurba_marseille","lat":43.30589,"lon":5.39365,"is_reserved":false,"is_disabled":false,"rental_uris":{"android":"levelo://app?vid=00fcc252-a609-4cef-8bbc-4e701d14566c","ios":"levelo://app?vid=00fcc252-a609-4cef-8bbc-4e701d14566c"},"vehicle_type_id":"4","last_reported":1771483684,"current_range_meters":39200,"station_id":"ce4bh0p2rcd13ifvqd80","pricing_plan_id":"cebpf4jnsgd1na2vs0mg"},{"bike_id":"ff7c6076-03ef-481d-ba9a-a74982616a5f","system_id":"levelo_inurba_marseille","lat":43.28721,"lon":5.3794,"is_reserved":false,"is_disabled":false,"rental_uris":{"android":"levelo://app?vid=ff7c6076-03ef-481d-ba9a-a74982616a5f","ios":"levelo://app?vid=ff7c6076-03ef-481d-ba9a-a74982616a5f"},"vehicle_type_id":"4","last_reported":1771483684,"current_range_meters":39200,"station_id":"ce4bh9p2rcd13ifvqec0","pricing_plan_id":"cebpf4jnsgd1na2vs0mg"},{"bike_id":"883ef81b-2398-40c3-8b0c-1943ff78bd3f","system_id":"levelo_inurba_marseille","lat":43.24668,"lon":5.3816,"is_reserved":false,"is_disabled":true,"rental_uris":{"android":"levelo://app?vid=883ef81b-2398-40c3-8b0c-1943ff78bd3f","ios":"levelo://app?vid=883ef81b-2398-40c3-8b0c-1943ff78bd3f"},"vehicle_type_id":"4","last_reported":1771483684,"current_range_meters":38400,"station_id":"ce4bhih2rcd13ifvqfr0","pricing_plan_id":"cebpf4jnsgd1na2vs0mg"},{"bike_id":"6490eec2-c2e9-42ad-aca0-95d82ccfc451","system_id":"levelo_inurba_marseille","lat":43.292299,"lon":5.360697,"is_reserved":false,"is_disabled":false,"rental_uris":{"android":"levelo://app?vid=6490eec2-c2e9-42ad-aca0-95d82ccfc451","ios":"levelo://app?vid=6490eec2-c2e9-42ad-aca0-95d82ccfc451"},"vehicle_type_id":"4","last_reported":1771483684,"current_range_meters":9600,"station_id":"ce4bhbh2rcd13ifvqeqg","pricing_plan_id":"cebpf4jnsgd1na2vs0mg"},{"bike_id":"fac37d59-7173-486d-84e4-f215994ed327","system_id":"levelo_inurba_marseille","lat":43.262048,"lon":5.379252,"is_reserved":false,"is_disabled":false,"rental_uris":{"android":"levelo://app?vid=fac37d59-7173-486d-84e4-f215994ed327","ios":"levelo://app?vid=fac37d59-7173-486d-84e4-f215994ed327"},"vehicle_type_id":"4","last_reported":1771483684,"current_range_meters":22800,"station_id":"ce4bhjp2rcd13ifvqg90","pricing_plan_id":"cebpf4jnsgd1na2vs0mg"},{"bike_id":"10a2dea5-76af-489d-bde2-bf96f99e6687","system_id":"levelo_inurba_marseille","lat":43.29569,"lon":5.39928,"is_reserved":false,"is_disabled":true,"rental_uris":{"android":"levelo://app?vid=10a2dea5-76af-489d-bde2-bf96f99e6687","ios":"levelo://app?vid=10a2dea5-76af-489d-bde2-bf96f99e6687"},"vehicle_type_id":"4","last_reported":1771483684,"current_range_meters":36800,"station_id":"ce4bh312rcd13ifvqdj0","pricing_plan_id":"cebpf4jnsgd1na2vs0mg"},{"bike_id":"10578348-9301-4a48-b882-b725d14729e6","system_id":"levelo_inurba_marseille","lat":43.30936,"lon":5.40166,"is_reserved":false,"is_disabled":false,"rental_uris":{"android":"levelo://app?vid=10578348-9301-4a48-b882-b725d14729e6","ios":"levelo://app?vid=10578348-9301-4a48-b882-b725d14729e6"},"vehicle_type_id":"4","last_reported":1771483684,"current_range_meters":13600,"station_id":"ce4bgvp2rcd13ifvqct0","pricing_plan_id":"cebpf4jnsgd1na2vs0mg"},{"bike_id":"2f23e05b-5173-4376-83e2-eba7b9bdc046","system_id":"levelo_inurba_marseille","lat":43.29816,"lon":5.44063,"is_reserved":false,"is_disabled":false,"rental_uris":{"android":"levelo://app?vid=2f23e05b-5173-4376-83e2-eba7b9bdc046","ios":"levelo://app?vid=2f23e05b-5173-4376-83e2-eba7b9bdc046"},"vehicle_type_id":"4","last_reported":1771483684,"current_range_meters":24400,"station_id":"st_d3jp68qikq2c7381ktn0","pricing_plan_id":"cebpf4jnsgd1na2vs0mg"},{"bike_id":"f5a83828-f353-4692-b521-be18cc9b6b45","system_id":"levelo_inurba_marseille","lat":43.28969,"lon":5.35596,"is_reserved":false,"is_disabled":false,"rental_uris":{"android":"levelo://app?vid=f5a83828-f353-4692-b521-be18cc9b6b45","ios":"levelo://app?vid=f5a83828-f353-4692-b521-be18cc9b6b45"},"vehicle_type_id":"4","last_reported":1771483684,"current_range_meters":21600,"station_id":"ce4bhb92rcd13ifvqen0","pricing_plan_id":"cebpf4jnsgd1na2vs0mg"},{"bike_id":"247b3ee7-3431-4f78-a874-d985911dee32","system_id":"levelo_inurba_marseille","lat":43.298,"lon":5.40407,"is_reserved":false,"is_disabled":false,"rental_uris":{"android":"levelo://app?vid=247b3ee7-3431-4f78-a874-d985911dee32","ios":"levelo://app?vid=247b3ee7-3431-4f78-a874-d985911dee32"},"vehicle_type_id":"4","last_reported":1771483684,"current_range_meters":38400,"station_id":"ce4bh112rcd13ifvqd90","pricing_plan_id":"cebpf4jnsgd1na2vs0mg"},{"bike_id":"effcabf8-7167-4bc3-9f77-4c6283c842bb","system_id":"levelo_inurba_marseille","lat":43.31119,"lon":5.37775,"is_reserved":false,"is_disabled":false,"rental_uris":{"android":"levelo://app?vid=effcabf8-7167-4bc3-9f77-4c6283c842bb","ios":"levelo://app?vid=effcabf8-7167-4bc3-9f77-4c6283c842bb"},"vehicle_type_id":"4","last_reported":1771483684,"current_range_meters":39200,"station_id":"ce4bgt92rcd13ifvqcg0","pricing_plan_id":"cebpf4jnsgd1na2vs0mg"},{"bike_id":"80a80716-6c7c-46f5-97c7-371ec2ebac7a","system_id":"levelo_inurba_marseille","lat":43.30936,"lon":5.40142,"is_reserved":false,"is_disabled":false,"rental_uris":{"android":"levelo://app?vid=80a80716-6c7c-46f5-97c7-371ec2ebac7a","ios":"levelo://app?vid=80a80716-6c7c-46f5-97c7-371ec2ebac7a"},"vehicle_type_id":"4","last_reported":1771483684,"current_range_meters":24800,"station_id":"ce4bgvp2rcd13ifvqct0","pricing_plan_id":"cebpf4jnsgd1na2vs0mg"},