{"last_updated":1727439432,"ttl":60,"version":"2.2","data":{"bikes":[{"bike_id":"5648881a-d19e-4d23-9e4b-b1836a6f962a","system_id":"levelo_inurba_marseille","lat":43.29553,"lon":5.42281,"is_reserved":false,"is_disabled":false,"rental_uris":{"android":"levelo://app?vid=5648881a-d19e-4d23-9e4b-b1836a6f962a","ios":"levelo://app?vid=5648881a-d19e-4d23-9e4b-b1836a6f962a"},"vehicle_type_id":"4","last_reported":1727439433,"current_range_meters":11200,"station_id":"ce4bhph2rcd13ifvqhdg","pricing_plan_id":"cebpf4jnsgd1na2vs0mg"},{"bike_id":"d453c7a9-5c6d-468f-beb8-7e8315968985","system_id":"levelo_inurba_marseille","lat":43.3016,"lon":5.3809,"is_reserved":false,"is_disabled":false,"rental_uris":{"android":"levelo://app?vid=d453c7a9-5c6d-468f-beb8-7e8315968985","ios":"levelo://app?vid=d453c7a9-5c6d-468f-beb8-7e8315968985"},"vehicle_type_id":"4","last_reported":1727439433,"current_range_meters":30400,"station_id":"ce4bgjp2rcd13ifvqbh0","pricing_plan_id":"cebpf4jnsgd1na2vs0mg"},{"bike_id":"e77e480f-05f0-42e3-8ccc-d287601115eb","system_id":"levelo_inurba_marseille","lat":43.28018,"lon":5.36906,"is_reserved":false,"is_disabled":false,"rental_uris":{"android":"levelo://app?vid=e77e480f-05f0-42e3-8ccc-d287601115eb","ios":"levelo://app?vid=e77e480f-05f0-42e3-8ccc-d287601115eb"},"vehicle_type_id":"4","last_reported":1727439433,"current_range_meters":16800,"station_id":"ce4bha12rcd13ifvqef0","pricing_plan_id":"cebpf4jnsgd1na2vs0mg"},{"bike_id":"a63b8413-0e2a-4ff5-8a53-60c4837ffb60","system_id":"levelo_inurba_marseille","lat":43.23152,"lon":5.43708,"is_reserved":false,"is_disabled":false,"rental_uris":{"android":"levelo://app?vid=a63b8413-0e2a-4ff5-8a53-60c4837ffb60","ios":"levelo://app?vid=a63b8413-0e2a-4ff5-8a53-60c4837ffb60"},"vehicle_type_id":"4","last_reported":1727439433,"current_range_meters":25600,"station_id":"ce4bhmp2rcd13ifvqgog","pricing_plan_id":"cebpf4jnsgd1na2vs0mg"},{"bike_id":"b7d4c31a-d244-4726-a6c8-7797d4822f89","system_id":"levelo_inurba_marseille","lat":43.25933,"lon":5.40898,"is_reserved":false,"is_disabled":false,"rental_uris":{"android":"levelo://app?vid=b7d4c31a-d244-4726-a6c8-7797d4822f89","ios":"levelo://app?vid=b7d4c31a-d244-4726-a6c8-7797d4822f89"},"vehicle_type_id":"4","last_reported":1727439433,"current_range_meters":33200,"station_id":"ce4bhm92rcd13ifvqglg","pricing_plan_id":"cebpf4jnsgd1na2vs0mg"},{"bike_id":"30fd54e5-5d4f-4f30-a840-c4e1904c5533","system_id":"levelo_inurba_marseille","lat":43.28357,"lon":5.38102,"is_reserved":false,"is_disabled":false,"rental_uris":{"android":"levelo://app?vid=30fd54e5-5d4f-4f30-a840-c4e1904c5533","ios":"levelo://app?vid=30fd54e5-5d4f-4f30-a840-c4e1904c5533"},"vehicle_type_id":"4","last_reported":1727439433,"current_range_meters":28000,"station_id":"ce4bh412rcd13ifvqdr0","pricing_plan_id":"cebpf4jnsgd1na2vs0mg"},{"bike_id":"319a95fd-4cb6-4140-b1df-59a1aab23798","system_id":"levelo_inurba_marseille","lat":43.231521,"lon":5.437089,"is_reserved":false,"is_disabled":false,"rental_uris":{"android":"levelo://app?vid=319a95fd-4cb6-4140-b1df-59a1aab23798","ios":"levelo://app?vid=319a95fd-4cb6-4140-b1df-59a1aab23798"},"vehicle_type_id":"4","last_reported":1727439433,"current_range_meters":14400,"station_id":"ce4bhmp2rcd13ifvqgog","pricing_plan_id":"cebpf4jnsgd1na2vs0mg"},{"bike_id":"df581604-3b4d-42d5-a292-98b0ad5f74eb","system_id":"levelo_inurba_marseille","lat":43.23187,"lon":5.39983,"is_reserved":false,"is_disabled":false,"rental_uris":{"android":"levelo://app?vid=df581604-3b4d-42d5-a292-98b0ad5f74eb","ios":"levelo://app?vid=df581604-3b4d-42d5-a292-98b0ad5f74eb"},"vehicle_type_id":"4","last_reported":1727439433,"current_range_meters":28400,"station_id":"ce4bhn12rcd13ifvqgqg","pricing_plan_id":"cebpf4jnsgd1na2vs0mg"},{"bike_id":"718b5348-129f-431e-b934-4b3ceb3449fa","system_id":"levelo_inurba_marseille","lat":43.299073,"lon":5.374683,"is_reserved":false,"is_disabled":false,"rental_uris":{"android":"levelo://app?vid=718b5348-129f-431e-b934-4b3ceb3449fa","ios":"levelo://app?vid=718b5348-129f-431e-b934-4b3ceb3449fa"},"vehicle_type_id":"4","last_reported":1727439433,"current_range_meters":24400,"station_id":"ce4bgjh2rcd13ifvqbg0","pricing_plan_id":"cebpf4jnsgd1na2vs0mg"},{"bike_id":"32cee415-d085-4a6a-981e-0f92a55d1866","system_id":"levelo_inurba_marseille","lat":43.25112,"lon":5.40318,"is_reserved":false,"is_disabled":false,"rental_uris":{"android":"levelo://app?vid=32cee415-d085-4a6a-981e-0f92a55d1866","ios":"levelo://app?vid=32cee415-d085-4a6a-981e-0f92a55d1866"},"vehicle_type_id":"4","last_reported":1727439433,"current_range_meters":21600,"station_id":"ce4bhlh2rcd13ifvqgig","pricing_plan_id":"cebpf4jnsgd1na2vs0mg"},{"bike_id":"55f4f50b-d6dd-4e12-86b3-1486da4af7d9","system_id":"levelo_inurba_marseille","lat":43.22929,"lon":5.35377,"is_reserved":false,"is_disabled":false,"rental_uris":{"android":"levelo://app?vid=55f4f50b-d6dd-4e12-86b3-1486da4af7d9","ios":"levelo://app?vid=55f4f50b-d6dd-4e12-86b3-1486da4af7d9"},"vehicle_type_id":"4","last_reported":1727439433,"current_range_meters":36000,"station_id":"cpo3532slgdg3j2ikp40","pricing_plan_id":"cebpf4jnsgd1na2vs0mg"},{"bike_id":"bb41ae0b-b746-40f5-8ba6-008f5f5c173f","system_id":"levelo_inurba_marseille","lat":43.33609,"lon":5.4103,"is_reserved":false,"is_disabled":false,"rental_uris":{"android":"levelo://app?vid=bb41ae0b-b746-40f5-8ba6-008f5f5c173f","ios":"levelo://app?vid=bb41ae0b-b746-40f5-8ba6-008f5f5c173f"},"vehicle_type_id":"4","last_reported":1727439433,"current_range_meters":32000,"station_id":"ce4bhqh2rcd13ifvqhmg","pricing_plan_id":"cebpf4jnsgd1na2vs0mg"},{"bike_id":"6e23f893-b029-44b0-ad88-18870710793f","system_id":"levelo_inurba_marseille","lat":43.23154,"lon":5.43707,"is_reserved":false,"is_disabled":false,"rental_uris":{"android":"levelo://app?vid=6e23f893-b029-44b0-ad88-18870710793f","ios":"levelo://app?vid=6e23f893-b029-44b0-ad88-18870710793f"},"vehicle_type_id":"4","last_reported":1727439433,"current_range_meters":8800,"station_id":"ce4bhmp2rcd13ifvqgog","pricing_plan_id":"cebpf4jnsgd1na2vs0mg"},{"bike_id":"f03813ae-b67f-45be-9bb1-846ca1327581","system_id":"levelo_inurba_marseille","lat":43.29528,"lon":5.37489,"is_reserved":false,"is_disabled":false,"rental_uris":{"android":"levelo://app?vid=f03813ae-b67f-45be-9bb1-846ca1327581","ios":"levelo://app?vid=f03813ae-b67f-45be-9bb1-846ca1327581"},"vehicle_type_id":"4","last_reported":1727439433,"current_range_meters":4400,"station_id":"ce4bgkp2rcd13ifvqbmg","pricing_plan_id":"cebpf4jnsgd1na2vs0mg"},{"bike_id":"cb47e910-ae45-448c-a3b6-78305cb01a28","system_id":"levelo_inurba_marseille","lat":43.28457,"lon":5.3589,"is_reserved":false,"is_disabled":false,"rental_uris":{"android":"levelo://app?vid=cb47e910-ae45-448c-a3b6-78305cb01a28","ios":"levelo://app?vid=cb47e910-ae45-448c-a3b6-78305cb01a28"},"vehicle_type_id":"4","last_reported":1727439433,"current_range_meters":25200,"station_id":"ce4bhah2rcd13ifvqei0","pricing_plan_id":"cebpf4jnsgd1na2vs0mg"},{"bike_id":"cafaf332-e77f-43f3-85f2-75f30e1c6ec5","system_id":"levelo_inurba_marseille","lat":43.2979,"lon":5.37112,"is_reserved":false,"is_disabled":false,"rental_uris":{"android":"levelo://app?vid=cafaf332-e77f-43f3-85f2-75f30e1c6ec5","ios":"levelo://app?vid=cafaf332-e77f-43f3-85f2-75f30e1c6ec5"},"vehicle_type_id":"4","last_reported":1727439433,"current_range_meters":16800,"station_id":"ce4bgop2rcd13ifvqc1g","pricing_plan_id":"cebpf4jnsgd1na2vs0mg"},{"bike_id":"1cd054ce-a4b1-44d8-afb0-3c23668c603a","system_id":"levelo_inurba_marseille","lat":43.30151,"lon":5.38095,"is_reserved":false,"is_disabled":false,"rental_uris":{"android":"levelo://app?vid=1cd054ce-a4b1-44d8-afb0-3c23668c603a","ios":"levelo://app?vid=1cd054ce-a4b1-44d8-afb0-3c23668c603a"},"vehicle_type_id":"4","last_reported":1727439433,"current_range_meters":19200,"station_id":"ce4bgjp2rcd13ifvqbh0","pricing_plan_id":"cebpf4jnsgd1na2vs0mg"},{"bike_id":"cd4c3ea5-3df9-4ccb-a55d-0c3b17cecce3","system_id":"levelo_inurba_marseille","lat":43.25898,"lon":5.39216,"is_reserved":false,"is_disabled":false,"rental_uris":{"android":"levelo://app?vid=cd4c3ea5-3df9-4ccb-a55d-0c3b17cecce3","ios":"levelo://app?vid=cd4c3ea5-3df9-4ccb-a55d-0c3b17cecce3"},"vehicle_type_id":"4","last_reported":1727439433,"current_range_meters":16400,"station_id":"","pricing_plan_id":"cebpf4jnsgd1na2vs0mg"},{"bike_id":"7e05cda3-9619-410d-a62e-0a7bb09dc658","system_id":"levelo_inurba_marseille","lat":43.27612,"lon":5.36107,"is_reserved":false,"is_disabled":false,"rental_uris":{"android":"levelo://app?vid=7e05cda3-9619-410d-a62e-0a7bb09dc658","ios":"levelo://app?vid=7e05cda3-9619-410d-a62e-0a7bb09dc658"},"vehicle_type_id":"4","last_reported":1727439433,"current_range_meters":8800,"station_id":"ce4bgj92rcd13ifvqbe0","pricing_plan_id":"cebpf4jnsgd1na2vs0mg"},{"bike_id":"b36b23bc-6b0b-4bc5-aa67-5a79194282e9","system_id":"levelo_inurba_marseille","lat":43.301392,"lon":5.380823,"is_reserved":false,"is_disabled":false,"rental_uris":{"android":"levelo://app?vid=b36b23bc-6b0b-4bc5-aa67-5a79194282e9","ios":"levelo://app?vid=b36b23bc-6b0b-4bc5-aa67-5a79194282e9"},"vehicle_type_id":"4","last_reported":1727439433,"current_range_meters":38400,"station_id":"ce4bh012rcd13ifvqcv0","pricing_plan_id":"cebpf4jnsgd1na2vs0mg"},{"bike_id":"a7f7acf8-17d5-4757-9dfd-59ffe9768454","system_id":"levelo_inurba_marseille","lat":43.27174,"lon":5.40994,"is_reserved":false,"is_disabled":false,"rental_uris":{"android":"levelo://app?vid=a7f7acf8-17d5-4757-9dfd-59ffe9768454","ios":"levelo://app?vid=a7f7acf8-17d5-4757-9dfd-59ffe9768454"},"vehicle_type_id":"4","last_reported":1727439433,"current_range_meters":35200,"station_id":"ce4bhl12rcd13ifvqgf0","pricing_plan_id":"cebpf4jnsgd1na2vs0mg"},{"bike_id":"6778b2a5-11aa-4dde-a5ef-ce8288153ac1","system_id":"levelo_inurba_marseille","lat":43.26564,"lon":5.39004,"is_reserved":false,"is_disabled":false,"rental_uris":{"android":"levelo://app?vid=6778b2a5-11aa-4dde-a5ef-ce8288153ac1","ios":"levelo://app?vid=6778b2a5-11aa-4dde-a5ef-ce8288153ac1"},"vehicle_type_id":"4","last_reported":1727439433,"current_range_meters":28000,"station_id":"ce4bhe12rcd13ifvqf30","pricing_plan_id":"cebpf4jnsgd1na2vs0mg"},{"bike_id":"ac32e654-d0c5-416d-a027-a495dbf49764","system_id":"levelo_inurba_marseille","lat":43.31757,"lon":5.39012,"is_reserved":false,"is_disabled":false,"rental_uris":{"android":"levelo://app?vid=ac32e654-d0c5-416d-a027-a495dbf49764","ios":"levelo://app?vid=ac32e654-d0c5-416d-a027-a495dbf49764"},"vehicle_type_id":"4","last_reported":1727439433,"current_range_meters":36800,"station_id":"ce4bhqp2rcd13ifvqhng","pricing_plan_id":"cebpf4jnsgd1na2vs0mg"},{"bike_id":"c5baf9cd-b25e-4fb3-b3ef-aa3da50481b6","system_id":"levelo_inurba_marseille","lat":43.25583,"lon":5.38226,"is_reserved":false,"is_disabled":false,"rental_uris":{"android":"levelo://app?vid=c5baf9cd-b25e-4fb3-b3ef-aa3da50481b6","ios":"levelo://app?vid=c5baf9cd-b25e-4fb3-b3ef-aa3da50481b6"},"vehicle_type_id":"4","last_reported":1727439433,"current_range_meters":28800,"station_id":"ce4bhih2rcd13ifvqfs0","pricing_plan_id":"cebpf4jnsgd1na2vs0mg"},{"bike_id":"4eb0ed09-b60d-404d-8ab2-6dde265f7845","system_id":"levelo_inurba_marseille","lat":43.31711,"lon":5.4371,"is_reserved":false,"is_disabled":false,"rental_uris":{"android":"levelo://app?vid=4eb0ed09-b60d-404d-8ab2-6dde265f7845","ios":"levelo://app?vid=4eb0ed09-b60d-404d-8ab2-6dde265f7845"},"vehicle_type_id":"4","last_reported":1727439433,"current_range_meters":38800,"station_id":"ce4bhp92rcd13ifvqhcg","pricing_plan_id":"cebpf4jnsgd1na2vs0mg"},{"bike_id":"69abde98-4227-4071-99c0-b60926b0a40b","system_id":"levelo_inurba_marseille","lat":43.33611,"lon":5.41021,"is_reserved":false,"is_disabled":false,"rental_uris":{"android":"levelo://app?vid=69abde98-4227-4071-99c0-b60926b0a40b","ios":"levelo://app?vid=69abde98-4227-4071-99c0-b60926b0a40b"},"vehicle_type_id":"4","last_reported":1727439433,"current_range_meters":25200,"station_id":"ce4bhqh2rcd13ifvqhmg","pricing_plan_id":"cebpf4jnsgd1na2vs0mg"},{"bike_id":"c8350aa0-7033-4370-b5e0-5bc2ee3d0324","system_id":"levelo_inurba_marseille","lat":43.27494,"lon":5.42454,"is_reserved":false,"is_disabled":false,"rental_uris":{"android":"levelo://app?vid=c8350aa0-7033-4370-b5e0-5bc2ee3d0324","ios":"levelo://app?vid=c8350aa0-7033-4370-b5e0-5bc2ee3d0324"},"vehicle_type_id":"4","last_reported":1727439433,"current_range_meters":33600,"station_id":"ce4bhn92rcd13ifvqgrg","pricing_plan_id":"cebpf4jnsgd1na2vs0mg"},{"bike_id":"728f6ab9-db1d-4d7c-8982-a492398d4e89","system_id":"levelo_inurba_marseille","lat":43.33027,"lon":5.39046,"is_reserved":false,"is_disabled":false,"rental_uris":{"android":"levelo://app?vid=728f6ab9-db1d-4d7c-8982-a492398d4e89","ios":"levelo://app?vid=728f6ab9-db1d-4d7c-8982-a492398d4e89"},"vehicle_type_id":"4","last_reported":1727439433,"current_range_meters":34000,"station_id":"ce4bhr92rcd13ifvqhrg","pricing_plan_id":"cebpf4jnsgd1na2vs0mg"},{"bike_id":"b6daf4df-7c90-4c5e-b397-06a87d15013f","system_id":"levelo_inurba_marseille","lat":43.33752,"lon":5.37361,"is_reserved":false,"is_disabled":false,"rental_uris":{"android":"levelo://app?vid=b6daf4df-7c90-4c5e-b397-06a87d15013f","ios":"levelo://app?vid=b6daf4df-7c90-4c5e-b397-06a87d15013f"},"vehicle_type_id":"4","last_reported":1727439433,"current_range_meters":27200,"station_id":"","pricing_plan_id":"cebpf4jnsgd1na2vs0mg"},{"bike_id":"653216d4-1edd-4b74-8b77-0b5e4e2266fe","system_id":"levelo_inurba_marseille","lat":43.26212,"lon":5.37445,"is_reserved":false,"is_disabled":false,"rental_uris":{"android":"levelo://app?vid=653216d4-1edd-4b74-8b77-0b5e4e2266fe","ios":"levelo://app?vid=653216d4-1edd-4b74-8b77-0b5e4e2266fe"},"vehicle_type_id":"4","last_reported":1727439433,"current_range_meters":37600,"station_id":"ce4bhgp2rcd13ifvqfc0","pricing_plan_id":"cebpf4jnsgd1na2vs0mg"},{"bike_id":"c6a8f01e-009f-4613-948c-2dd4d8bd2d71","system_id":"levelo_inurba_marseille","lat":43.30163,"lon":5.38083,"is_reserved":false,"is_disabled":false,"rental_uris":{"android":"levelo://app?vid=c6a8f01e-009f-4613-948c-2dd4d8bd2d71","ios":"levelo://app?vid=c6a8f01e-009f-4613-948c-2dd4d8bd2d71"},"vehicle_type_id":"4","last_reported":1727439433,"current_range_meters":36800,"station_id":"ce4bgjp2rcd13ifvqbh0","pricing_plan_id":"cebpf4jnsgd1na2vs0mg"},{"bike_id":"bcf51078-e0c1-461f-afdf-69248d16bd4d","system_id":"levelo_inurba_marseille","lat":43.30333,"lon":5.40435,"is_reserved":false,"is_disabled":false,"rental_uris":{"android":"levelo://app?vid=bcf51078-e0c1-461f-afdf-69248d16bd4d","ios":"levelo://app?vid=bcf51078-e0c1-461f-afdf-69248d16bd4d"},"vehicle_type_id":"4","last_reported":1727439433,"current_range_meters":24000,"station_id":"ce4bh012rcd13ifvqd10","pricing_plan_id":"cebpf4jnsgd1na2vs0mg"},{"bike_id":"01958bcc-1114-44e7-a1de-ed0825d11990","system_id":"levelo_inurba_marseille","lat":43.33608,"lon":5.41035,"is_reserved":false,"is_disabled":false,"rental_uris":{"android":"levelo://app?vid=01958bcc-1114-44e7-a1de-ed0825d11990","ios":"levelo://app?vid=01958bcc-1114-44e7-a1de-ed0825d11990"},"vehicle_type_id":"4","last_reported":1727439433,"current_range_meters":39200,"station_id":"ce4bhqh2rcd13ifvqhmg","pricing_plan_id":"cebpf4jnsgd1na2vs0mg"},{"bike_id":"555068c3-788c-4d20-be45-e989b72e28c6","system_id":"levelo_inurba_marseille","lat":43.276672,"lon":5.408343,"is_reserved":false,"is_disabled":false,"rental_uris":{"android":"levelo://app?vid=555068c3-788c-4d20-be45-e989b72e28c6","ios":"levelo://app?vid=555068c3-788c-4d20-be45-e989b72e28c6"},"vehicle_type_id":"4","last_reported":1727439433,"current_range_meters":15200,"station_id":"","pricing_plan_id":"cebpf4jnsgd1na2vs0mg"},{"bike_id":"14d3e19f-e124-4bdf-bf80-30263322f082","system_id":"levelo_inurba_marseille","lat":43.24165,"lon":5.36393,"is_reserved":false,"is_disabled":false,"rental_uris":{"android":"levelo://app?vid=14d3e19f-e124-4bdf-bf80-30263322f082","ios":"levelo://app?vid=14d3e19f-e124-4bdf-bf80-30263322f082"},"vehicle_type_id":"4","last_reported":1727439433,"current_range_meters":23200,"station_id":"cpo36qri1sfpv3e86is0","pricing_plan_id":"cebpf4jnsgd1na2vs0mg"},{"bike_id":"7a8458d5-44ac-4f2e-abef-3f01eb31f7ca","system_id":"levelo_inurba_marseille","lat":43.337444,"lon":5.374475,"is_reserved":false,"is_disabled":false,"rental_uris":{"android":"levelo://app?vid=7a8458d5-44ac-4f2e-abef-3f01eb31f7ca","ios":"levelo://app?vid=7a8458d5-44ac-4f2e-abef-3f01eb31f7ca"},"vehicle_type_id":"4","last_reported":1727439433,"current_range_meters":16800,"station_id":"","pricing_plan_id":"cebpf4jnsgd1na2vs0mg"},{"bike_id":"de437223-e58f-46f4-b08c-b288b0890a60","system_id":"levelo_inurba_marseille","lat":43.27183,"lon":5.40992,"is_reserved":false,"is_disabled":false,"rental_uris":{"android":"levelo://app?vid=de437223-e58f-46f4-b08c-b288b0890a60","ios":"levelo://app?vid=de437223-e58f-46f4-b08c-b288b0890a60"},"vehicle_type_id":"4","last_reported":1727439433,"current_range_meters":37600,"station_id":"ce4bhl12rcd13ifvqgf0","pricing_plan_id":"cebpf4jnsgd1na2vs0mg"},{"bike_id":"03036981-3bc5-4a2d-8ecc-15b2aa0debb3","system_id":"levelo_inurba_marseille","lat":43.33756,"lon":5.37457,"is_reserved":false,"is_disabled":false,"rental_uris":{"android":"levelo://app?vid=03036981-3bc5-4a2d-8ecc-15b2aa0debb3","ios":"levelo://app?vid=03036981-3bc5-4a2d-8ecc-15b2aa0debb3"},"vehicle_type_id":"4","last_reported":1727439433,"current_range_meters":27200,"station_id":"","pricing_plan_id":"cebpf4jnsgd1na2vs0mg"},{"bike_id":"245322ad-98ce-4a03-920e-f8861ea4255a","system_id":"levelo_inurba_marseille","lat":43.2306,"lon":5.35495,"is_reserved":false,"is_disabled":false,"rental_uris":{"android":"levelo://app?vid=245322ad-98ce-4a03-920e-f8861ea4255a","ios":"levelo://app?vid=245322ad-98ce-4a03-920e-f8861ea4255a"},"vehicle_type_id":"4","last_reported":1727439433,"current_range_meters":36800,"station_id":"cpo3342slgdg3j2ifvpg","pricing_plan_id":"cebpf4jnsgd1na2vs0mg"},{"bike_id":"43e3c695-2f7e-4690-9983-99afd8dbea20","system_id":"levelo_inurba_marseille","lat":43.29844,"lon":5.36267,"is_reserved":false,"is_disabled":false,"rental_uris":{"android":"levelo://app?vid=43e3c695-2f7e-4690-9983-99afd8dbea20","ios":"levelo://app?vid=43e3c695-2f7e-4690-9983-99afd8dbea20"},"vehicle_type_id":"4","last_reported":1727439433,"current_range_meters":17200,"station_id":"ce4bgpp2rcd13ifvqc3g","pricing_plan_id":"cebpf4jnsgd1na2vs0mg"},{"bike_id":"b478bdab-ddff-4645-a824-4bd76b643799","system_id":"levelo_inurba_marseille","lat":43.31998,"lon":5.38152,"is_reserved":false,"is_disabled":false,"rental_uris":{"android":"levelo://app?vid=b478bdab-ddff-4645-a824-4bd76b643799","ios":"levelo://app?vid=b478bdab-ddff-4645-a824-4bd76b643799"},"vehicle_type_id":"4","last_reported":1727439433,"current_range_meters":25200,"station_id":"ce4bhr12rcd13ifvqhpg","pricing_plan_id":"cebpf4jnsgd1na2vs0mg"},{"bike_id":"6c25c488-e7bb-4ecf-885c-2b0bfb236783","system_id":"levelo_inurba_marseille","lat":43.337444,"lon":5.374475,"is_reserved":false,"is_disabled":false,"rental_uris":{"android":"levelo://app?vid=6c25c488-e7bb-4ecf-885c-2b0bfb236783","ios":"levelo://app?vid=6c25c488-e7bb-4ecf-885c-2b0bfb236783"},"vehicle_type_id":"4","last_reported":1727439433,"current_range_meters":27600,"station_id":"","pricing_plan_id":"cebpf4jnsgd1na2vs0mg"},{"bike_id":"e71cbd69-6139-4ed6-bf1f-481d55ddefd7","system_id":"levelo_inurba_marseille","lat":43.24073,"lon":5.37756,"is_reserved":false,"is_disabled":false,"rental_uris":{"android":"levelo://app?vid=e71cbd69-6139-4ed6-bf1f-481d55ddefd7","ios":"levelo://app?vid=e71cbd69-6139-4ed6-bf1f-481d55ddefd7"},"vehicle_type_id":"4","last_reported":1727439433,"current_range_meters":16000,"station_id":"ce4bhnp2rcd13ifvqgvg","pricing_plan_id":"cebpf4jnsgd1na2vs0mg"},{"bike_id":"3291c289-f029-4be9-bca4-65e03ab0a4a6","system_id":"levelo_inurba_marseille","lat":43.2916,"lon":5.37152,"is_reserved":false,"is_disabled":false,"rental_uris":{"android":"levelo://app?vid=3291c289-f029-4be9-bca4-65e03ab0a4a6","ios":"levelo://app?vid=3291c289-f029-4be9-bca4-65e03ab0a4a6"},"vehicle_type_id":"4","last_reported":1727439433,"current_range_meters":24400,"station_id":"ce4bha92rcd13ifvqeh0","pricing_plan_id":"cebpf4jnsgd1na2vs0mg"},{"bike_id":"b0485362-e7ee-44f2-ba81-71987cb251b2","system_id":"levelo_inurba_marseille","lat":43.27497,"lon":5.42452,"is_reserved":false,"is_disabled":false,"rental_uris":{"android":"levelo://app?vid=b0485362-e7ee-44f2-ba81-71987cb251b2","ios":"levelo://app?vid=b0485362-e7ee-44f2-ba81-71987cb251b2"},"vehicle_type_id":"4","last_reported":1727439433,"current_range_meters":30800,"station_id":"ce4bhn92rcd13ifvqgrg","pricing_plan_id":"cebpf4jnsgd1na2vs0mg"},{"bike_id":"b0368319-f626-4d8b-b7b3-feca411ef005","system_id":"levelo_inurba_marseille","lat":43.29038,"lon":5.39964,"is_reserved":false,"is_disabled":false,"rental_uris":{"android":"levelo://app?vid=b0368319-f626-4d8b-b7b3-feca411ef005","ios":"levelo://app?vid=b0368319-f626-4d8b-b7b3-feca411ef005"},"vehicle_type_id":"4","last_reported":1727439433,"current_range_meters":10000,"station_id":"ce4bh392rcd13ifvqdm0","pricing_plan_id":"cebpf4jnsgd1na2vs0mg"},{"bike_id":"ef333548-5b42-4805-a9c0-dab49a7bfdc3","system_id":"levelo_inurba_marseille","lat":43.32477,"lon":5.36558,"is_reserved":false,"is_disabled":false,"rental_uris":{"android":"levelo://app?vid=ef333548-5b42-4805-a9c0-dab49a7bfdc3","ios":"levelo://app?vid=ef333548-5b42-4805-a9c0-dab49a7bfdc3"},"vehicle_type_id":"4","last_reported":1727439433,"current_range_meters":39200,"station_id":"ce4bhs12rcd13ifvqhvg","pricing_plan_id":"cebpf4jnsgd1na2vs0mg"},{"bike_id":"740c8093-7907-4694-893a-7128cab2c2c5","system_id":"levelo_inurba_marseille","lat":43.305459,"lon":5.367092,"is_reserved":false,"is_disabled":false,"rental_uris":{"android":"levelo://app?vid=740c8093-7907-4694-893a-7128cab2c2c5","ios":"levelo://app?vid=740c8093-7907-4694-893a-7128cab2c2c5"},"vehicle_type_id":"4","last_reported":1727439433,"current_range_meters":16800,"station_id":"ce4bgrp2rcd13ifvqc9g","pricing_plan_id":"cebpf4jnsgd1na2vs0mg"},{"bike_id":"0968ebbe-bb82-4446-8d24-0ab8271c7a4b","system_id":"levelo_inurba_marseille","lat":43.23151,"lon":5.43711,"is_reserved":false,"is_disabled":false,"rental_uris":{"android":"levelo://app?vid=0968ebbe-bb82-4446-8d24-0ab8271c7a4b","ios":"levelo://app?vid=0968ebbe-bb82-4446-8d24-0ab8271c7a4b"},"vehicle_type_id":"4","last_reported":1727439433,"current_range_meters":23200,"station_id":"ce4bhmp2rcd13ifvqgog","pricing_plan_id":"cebpf4jnsgd1na2vs0mg"},{"bike_id":"703b22ab-29de-42a7-b7f5-8a13f2ce66da","system_id":"levelo_inurba_marseille","lat":43.25823,"lon":5.39433,"is_reserved":false,"is_disabled":false,"rental_uris":{"android":"levelo://app?vid=703b22ab-29de-42a7-b7f5-8a13f2ce66da","ios":"levelo://app?vid=703b22ab-29de-42a7-b7f5-8a13f2ce66da"},"vehicle_type_id":"4","last_reported":1727439433,"current_range_meters":20000,"station_id":"ce4bhip2rcd13ifvqft0","pricing_plan_id":"cebpf4jnsgd1na2vs0mg"},{"bike_id":"3979bc58-a012-4502-ace0-ac4bfbf2daf4","system_id":"levelo_inurba_marseille","lat":43.29028,"lon":5.3998,"is_reserved":false,"is_disabled":false,"rental_uris":{"android":"levelo://app?vid=3979bc58-a012-4502-ace0-ac4bfbf2daf4","ios":"levelo://app?vid=3979bc58-a012-4502-ace0-ac4bfbf2daf4"},"vehicle_type_id":"4","last_reported":1727439433,"current_range_meters":36400,"station_id":"ce4bh392rcd13ifvqdm0","pricing_plan_id":"cebpf4jnsgd1na2vs0mg"},{"bike_id":"54b73190-0411-48d0-8d4f-a3602931d27a","system_id":"levelo_inurba_marseille","lat":43.25497,"lon":5.37646,"is_reserved":false,"is_disabled":false,"rental_uris":{"android":"levelo://app?vid=54b73190-0411-48d0-8d4f-a3602931d27a","ios":"levelo://app?vid=54b73190-0411-48d0-8d4f-a3602931d27a"},"vehicle_type_id":"4","last_reported":1727439433,"current_range_meters":24000,"station_id":"ce4bhh12rcd13ifvqff0","pricing_plan_id":"cebpf4jnsgd1na2vs0mg"},{"bike_id":"591039d5-67c5-43df-ae6f-f1c141c3a597","system_id":"levelo_inurba_marseille","lat":43.25938,"lon":5.40898,"is_reserved":false,"is_disabled":false,"rental_uris":{"android":"levelo://app?vid=591039d5-67c5-43df-ae6f-f1c141c3a597","ios":"levelo://app?vid=591039d5-67c5-43df-ae6f-f1c141c3a597"},"vehicle_type_id":"4","last_reported":1727439433,"current_range_meters":22400,"station_id":"ce4bhm92rcd13ifvqglg","pricing_plan_id":"cebpf4jnsgd1na2vs0mg"},{"bike_id":"30a328c9-2d92-41d2-bcd6-c02c1fca5672","system_id":"levelo_inurba_marseille","lat":43.27576,"lon":5.38418,"is_reserved":false,"is_disabled":false,"rental_uris":{"android":"levelo://app?vid=30a328c9-2d92-41d2-bcd6-c02c1fca5672","ios":"levelo://app?vid=30a328c9-2d92-41d2-bcd6-c02c1fca5672"},"vehicle_type_id":"4","last_reported":1727439433,"current_range_meters":9200,"station_id":"ce4bhh92rcd13ifvqfi0","pricing_plan_id":"cebpf4jnsgd1na2vs0mg"},{"bike_id":"0315447b-7d21-4718-a157-4a50c8ad7cf1","system_id":"levelo_inurba_marseille","lat":43.23156,"lon":5.43699,"is_reserved":false,"is_disabled":false,"rental_uris":{"android":"levelo://app?vid=0315447b-7d21-4718-a157-4a50c8ad7cf1","ios":"levelo://app?vid=0315447b-7d21-4718-a157-4a50c8ad7cf1"},"vehicle_type_id":"4","last_reported":1727439433,"current_range_meters":15200,"station_id":"ce4bhmp2rcd13ifvqgog","pricing_plan_id":"cebpf4jnsgd1na2vs0mg"},{"bike_id":"bba7de10-169e-4f05-8c77-3ae54a142318","system_id":"levelo_inurba_marseille","lat":43.3015,"lon":5.38105,"is_reserved":false,"is_disabled":false,"rental_uris":{"android":"levelo://app?vid=bba7de10-169e-4f05-8c77-3ae54a142318","ios":"levelo://app?vid=bba7de10-169e-4f05-8c77-3ae54a142318"},"vehicle_type_id":"4","last_reported":1727439433,"current_range_meters":30000,"station_id":"ce4bgjp2rcd13ifvqbh0","pricing_plan_id":"cebpf4jnsgd1na2vs0mg"},{"bike_id":"757f5625-5ecb-4fd4-a8b9-01c8678e8879","system_id":"levelo_inurba_marseille","lat":43.28941,"lon":5.36386,"is_reserved":false,"is_disabled":false,"rental_uris":{"android":"levelo://app?vid=757f5625-5ecb-4fd4-a8b9-01c8678e8879","ios":"levelo://app?vid=757f5625-5ecb-4fd4-a8b9-01c8678e8879"},"vehicle_type_id":"4","last_reported":1727439433,"current_range_meters":33600,"station_id":"ce4bhc92rcd13ifvqetg","pricing_plan_id":"cebpf4jnsgd1na2vs0mg"},{"bike_id":"c6853b38-4f63-4c97-9007-9b8f2cbf5293","system_id":"levelo_inurba_marseille","lat":43.23152,"lon":5.43723,"is_reserved":false,"is_disabled":false,"rental_uris":{"android":"levelo://app?vid=c6853b38-4f63-4c97-9007-9b8f2cbf5293","ios":"levelo://app?vid=c6853b38-4f63-4c97-9007-9b8f2cbf5293"},"vehicle_type_id":"4","last_reported":1727439433,"current_range_meters":12400,"station_id":"ce4bhmp2rcd13ifvqgog","pricing_plan_id":"cebpf4jnsgd1na2vs0mg"},{"bike_id":"1022827c-8a86-41fe-92d7-7195da5399ce","system_id":"levelo_inurba_marseille","lat":43.28846,"lon":5.35848,"is_reserved":false,"is_disabled":false,"rental_uris":{"android":"levelo://app?vid=1022827c-8a86-41fe-92d7-7195da5399ce","ios":"levelo://app?vid=1022827c-8a86-41fe-92d7-7195da5399ce"},"vehicle_type_id":"4","last_reported":1727439433,"current_range_meters":22400,"station_id":"ce4bhb12rcd13ifvqem0","pricing_plan_id":"cebpf4jnsgd1na2vs0mg"},{"bike_id":"61917da4-517e-483e-b27a-37f0ee78129d","system_id":"levelo_inurba_marseille","lat":43.23194,"lon":5.35557,"is_reserved":false,"is_disabled":false,"rental_uris":{"android":"levelo://app?vid=61917da4-517e-483e-b27a-37f0ee78129d","ios":"levelo://app?vid=61917da4-517e-483e-b27a-37f0ee78129d"},"vehicle_type_id":"4","last_reported":1727439433,"current_range_meters":19600,"station_id":"ce4bhu92rcd13ifvqi70","pricing_plan_id":"cebpf4jnsgd1na2vs0mg"},{"bike_id":"00eebf29-f73c-44ac-8c98-dbdec71463eb","system_id":"levelo_inurba_marseille","lat":43.3169,"lon":5.40475,"is_reserved":false,"is_disabled":false,"rental_uris":{"android":"levelo://app?vid=00eebf29-f73c-44ac-8c98-dbdec71463eb","ios":"levelo://app?vid=00eebf29-f73c-44ac-8c98-dbdec71463eb"},"vehicle_type_id":"4","last_reported":1727439433,"current_range_meters":11200,"station_id":"ce4bh012rcd13ifvqd00","pricing_plan_id":"cebpf4jnsgd1na2vs0mg"},{"bike_id":"76dbb97a-8e0b-4660-a2d6-b2ec5605d89d","system_id":"levelo_inurba_marseille","lat":43.28271,"lon":5.35066,"is_reserved":false,"is_disabled":false,"rental_uris":{"android":"levelo://app?vid=76dbb97a-8e0b-4660-a2d6-b2ec5605d89d","ios":"levelo://app?vid=76dbb97a-8e0b-4660-a2d6-b2ec5605d89d"},"vehicle_type_id":"4","last_reported":1727439433,"current_range_meters":39200,"station_id":"ce4bhbp2rcd13ifvqerg","pricing_plan_id":"cebpf4jnsgd1na2vs0mg"},{"bike_id":"102483dd-b4e9-43b9-85c9-f8208b777957","system_id":"levelo_inurba_marseille","lat":43.32482,"lon":5.36558,"is_reserved":false,"is_disabled":false,"rental_uris":{"android":"levelo://app?vid=102483dd-b4e9-43b9-85c9-f8208b777957","ios":"levelo://app?vid=102483dd-b4e9-43b9-85c9-f8208b777957"},"vehicle_type_id":"4","last_reported":1727439433,"current_range_meters":26000,"station_id":"ce4bhs12rcd13ifvqhvg","pricing_plan_id":"cebpf4jnsgd1na2vs0mg"},{"bike_id":"842b582d-bbd7-4d4f-8c2d-269482015c79","system_id":"levelo_inurba_marseille","lat":43.25122,"lon":5.40318,"is_reserved":false,"is_disabled":false,"rental_uris":{"android":"levelo://app?vid=842b582d-bbd7-4d4f-8c2d-269482015c79","ios":"levelo://app?vid=842b582d-bbd7-4d4f-8c2d-269482015c79"},"vehicle_type_id":"4","last_reported":1727439433,"current_range_meters":8400,"station_id":"ce4bhlh2rcd13ifvqgig","pricing_plan_id":"cebpf4jnsgd1na2vs0mg"},{"bike_id":"3c203115-d7b5-4e49-999b-51de2618a4b9","system_id":"levelo_inurba_marseille","lat":43.28266,"lon":5.35068,"is_reserved":false,"is_disabled":false,"rental_uris":{"android":"levelo://app?vid=3c203115-d7b5-4e49-999b-51de2618a4b9","ios":"levelo://app?vid=3c203115-d7b5-4e49-999b-51de2618a4b9"},"vehicle_type_id":"4","last_reported":1727439433,"current_range_meters":38000,"station_id":"ce4bhbp2rcd13ifvqerg","pricing_plan_id":"cebpf4jnsgd1na2vs0mg"},{"bike_id":"85bff4e3-d33a-4ac4-988a-98e918c0d996","system_id":"levelo_inurba_marseille","lat":43.34145,"lon":5.409,"is_reserved":false,"is_disabled":false,"rental_uris":{"android":"levelo://app?vid=85bff4e3-d33a-4ac4-988a-98e918c0d996","ios":"levelo://app?vid=85bff4e3-d33a-4ac4-988a-98e918c0d996"},"vehicle_type_id":"4","last_reported":1727439433,"current_range_meters":38000,"station_id":"ce4bhqh2rcd13ifvqhlg","pricing_plan_id":"cebpf4jnsgd1na2vs0mg"},{"bike_id":"c5afa9bf-50d5-4cfb-a371-3efdec845b71","system_id":"levelo_inurba_marseille","lat":43.31711,"lon":5.37738,"is_reserved":false,"is_disabled":false,"rental_uris":{"android":"levelo://app?vid=c5afa9bf-50d5-4cfb-a371-3efdec845b71","ios":"levelo://app?vid=c5afa9bf-50d5-4cfb-a371-3efdec845b71"},"vehicle_type_id":"4","last_reported":1727439433,"current_range_meters":28000,"station_id":"ce4bgth2rcd13ifvqch0","pricing_plan_id":"cebpf4jnsgd1na2vs0mg"},{"bike_id":"a2818092-a762-46d3-b3bd-4c570b3c8a4d","system_id":"levelo_inurba_marseille","lat":43.29971,"lon":5.38483,"is_reserved":false,"is_disabled":false,"rental_uris":{"android":"levelo://app?vid=a2818092-a762-46d3-b3bd-4c570b3c8a4d","ios":"levelo://app?vid=a2818092-a762-46d3-b3bd-4c570b3c8a4d"},"vehicle_type_id":"4","last_reported":1727439433,"current_range_meters":10800,"station_id":"ce4bgj92rcd13ifvqbd0","pricing_plan_id":"cebpf4jnsgd1na2vs0mg"},{"bike_id":"983b1a71-cb38-4246-aace-abb217ca3f34","system_id":"levelo_inurba_marseille","lat":43.31229,"lon":5.36842,"is_reserved":false,"is_disabled":false,"rental_uris":{"android":"levelo://app?vid=983b1a71-cb38-4246-aace-abb217ca3f34","ios":"levelo://app?vid=983b1a71-cb38-4246-aace-abb217ca3f34"},"vehicle_type_id":"4","last_reported":1727439433,"current_range_meters":38000,"station_id":"ce4bgl92rcd13ifvqbq0","pricing_plan_id":"cebpf4jnsgd1na2vs0mg"},{"bike_id":"8543372b-a568-4b5b-b4f7-a2bce5a1e33b","system_id":"levelo_inurba_marseille","lat":43.3377,"lon":5.37436,"is_reserved":false,"is_disabled":false,"rental_uris":{"android":"levelo://app?vid=8543372b-a568-4b5b-b4f7-a2bce5a1e33b","ios":"levelo://app?vid=8543372b-a568-4b5b-b4f7-a2bce5a1e33b"},"vehicle_type_id":"4","last_reported":1727439433,"current_range_meters":38400,"station_id":"","pricing_plan_id":"cebpf4jnsgd1na2vs0mg"},{"bike_id":"a6cbb9ab-09cc-4a47-b45d-7c998d78f96c","system_id":"levelo_inurba_marseille","lat":43.29839,"lon":5.36266,"is_reserved":false,"is_disabled":false,"rental_uris":{"android":"levelo://app?vid=a6cbb9ab-09cc-4a47-b45d-7c998d78f96c","ios":"levelo://app?vid=a6cbb9ab-09cc-4a47-b45d-7c998d78f96c"},"vehicle_type_id":"4","last_reported":1727439433,"current_range_meters":36400,"station_id":"ce4bgpp2rcd13ifvqc3g","pricing_plan_id":"cebpf4jnsgd1na2vs0mg"},{"bike_id":"a96c71be-b359-4ce0-a388-f8dd827a330d","system_id":"levelo_inurba_marseille","lat":43.30547,"lon":5.36711,"is_reserved":false,"is_disabled":false,"rental_uris":{"android":"levelo://app?vid=a96c71be-b359-4ce0-a388-f8dd827a330d","ios":"levelo://app?vid=a96c71be-b359-4ce0-a388-f8dd827a330d"},"vehicle_type_id":"4","last_reported":1727439433,"current_range_meters":28800,"station_id":"ce4bgrp2rcd13ifvqc9g","pricing_plan_id":"cebpf4jnsgd1na2vs0mg"},{"bike_id":"ee58ab49-82cb-4deb-b444-ded5776210fc","system_id":"levelo_inurba_marseille","lat":43.26679,"lon":5.38267,"is_reserved":false,"is_disabled":false,"rental_uris":{"android":"levelo://app?vid=ee58ab49-82cb-4deb-b444-ded5776210fc","ios":"levelo://app?vid=ee58ab49-82cb-4deb-b444-ded5776210fc"},"vehicle_type_id":"4","last_reported":1727439433,"current_range_meters":24400,"station_id":"ce4bhg92rcd13ifvqf90","pricing_plan_id":"cebpf4jnsgd1na2vs0mg"},{"bike_id":"932c7b30-012b-4098-90b0-32794be8681f","system_id":"levelo_inurba_marseille","lat":43.33603,"lon":5.41033,"is_reserved":false,"is_disabled":false,"rental_uris":{"android":"levelo://app?vid=932c7b30-012b-4098-90b0-32794be8681f","ios":"levelo://app?vid=932c7b30-012b-4098-90b0-32794be8681f"},"vehicle_type_id":"4","last_reported":1727439433,"current_range_meters":28000,"station_id":"ce4bhqh2rcd13ifvqhmg","pricing_plan_id":"cebpf4jnsgd1na2vs0mg"},{"bike_id":"60f5a04d-7737-4a5c-904b-15411c30b8c2","system_id":"levelo_inurba_marseille","lat":43.32654,"lon":5.40974,"is_reserved":false,"is_disabled":false,"rental_uris":{"android":"levelo://app?vid=60f5a04d-7737-4a5c-904b-15411c30b8c2","ios":"levelo://app?vid=60f5a04d-7737-4a5c-904b-15411c30b8c2"},"vehicle_type_id":"4","last_reported":1727439433,"current_range_meters":35200,"station_id":"ce4bhpp2rcd13ifvqhgg","pricing_plan_id":"cebpf4jnsgd1na2vs0mg"},{"bike_id":"387d87d3-947b-418d-84f1-5bd994bc1611","system_id":"levelo_inurba_marseille","lat":43.28939,"lon":5.36637,"is_reserved":false,"is_disabled":false,"rental_uris":{"android":"levelo://app?vid=387d87d3-947b-418d-84f1-5bd994bc1611","ios":"levelo://app?vid=387d87d3-947b-418d-84f1-5bd994bc1611"},"vehicle_type_id":"4","last_reported":1727439433,"current_range_meters":27200,"station_id":"ce4bhap2rcd13ifvqek0","pricing_plan_id":"cebpf4jnsgd1na2vs0mg"},{"bike_id":"17dd9746-f81c-4872-9591-f7a781d5aaad","system_id":"levelo_inurba_marseille","lat":43.27494,"lon":5.4245,"is_reserved":false,"is_disabled":false,"rental_uris":{"android":"levelo://app?vid=17dd9746-f81c-4872-9591-f7a781d5aaad","ios":"levelo://app?vid=17dd9746-f81c-4872-9591-f7a781d5aaad"},"vehicle_type_id":"4","last_reported":1727439433,"current_range_meters":38000,"station_id":"ce4bhn92rcd13ifvqgrg","pricing_plan_id":"cebpf4jnsgd1na2vs0mg"},{"bike_id":"72e1dbca-6b6b-4bf3-8912-eec759c20862","system_id":"levelo_inurba_marseille","lat":43.30604,"lon":5.37248,"is_reserved":false,"is_disabled":false,"rental_uris":{"android":"levelo://app?vid=72e1dbca-6b6b-4bf3-8912-eec759c20862","ios":"levelo://app?vid=72e1dbca-6b6b-4bf3-8912-eec759c20862"},"vehicle_type_id":"4","last_reported":1727439433,"current_range_meters":8800,"station_id":"ce4bgqh2rcd13ifvqc4g","pricing_plan_id":"cebpf4jnsgd1na2vs0mg"},{"bike_id":"720aa0e6-1e56-4dba-825d-68ab81240074","system_id":"levelo_inurba_marseille","lat":43.33612,"lon":5.410269,"is_reserved":false,"is_disabled":false,"rental_uris":{"android":"levelo://app?vid=720aa0e6-1e56-4dba-825d-68ab81240074","ios":"levelo://app?vid=720aa0e6-1e56-4dba-825d-68ab81240074"},"vehicle_type_id":"4","last_reported":1727439433,"current_range_meters":32000,"station_id":"ce4bhqh2rcd13ifvqhmg","pricing_plan_id":"cebpf4jnsgd1na2vs0mg"},{"bike_id":"5bdb0f32-b329-4151-9aa2-b1faa57e2bc8","system_id":"levelo_inurba_marseille","lat":43.24651,"lon":5.38891,"is_reserved":false,"is_disabled":false,"rental_uris":{"android":"levelo://app?vid=5bdb0f32-b329-4151-9aa2-b1faa57e2bc8","ios":"levelo://app?vid=5bdb0f32-b329-4151-9aa2-b1faa57e2bc8"},"vehicle_type_id":"4","last_reported":1727439433,"current_range_meters":39200,"station_id":"ce4bhg12rcd13ifvqf60","pricing_plan_id":"cebpf4jnsgd1na2vs0mg"},{"bike_id":"dc29cc9b-e464-43f3-8e13-dd21ced846c4","system_id":"levelo_inurba_marseille","lat":43.33739,"lon":5.37468,"is_reserved":false,"is_disabled":false,"rental_uris":{"android":"levelo://app?vid=dc29cc9b-e464-43f3-8e13-dd21ced846c4","ios":"levelo://app?vid=dc29cc9b-e464-43f3-8e13-dd21ced846c4"},"vehicle_type_id":"4","last_reported":1727439433,"current_range_meters":29600,"station_id":"","pricing_plan_id":"cebpf4jnsgd1na2vs0mg"},{"bike_id":"4674fcea-2e76-46b6-acc4-19efb6b88b54","system_id":"levelo_inurba_marseille","lat":43.29843,"lon":5.36278,"is_reserved":false,"is_disabled":false,"rental_uris":{"android":"levelo://app?vid=4674fcea-2e76-46b6-acc4-19efb6b88b54","ios":"levelo://app?vid=4674fcea-2e76-46b6-acc4-19efb6b88b54"},"vehicle_type_id":"4","last_reported":1727439433,"current_range_meters":39200,"station_id":"ce4bgpp2rcd13ifvqc3g","pricing_plan_id":"cebpf4jnsgd1na2vs0mg"},{"bike_id":"7d750bc1-85ed-46eb-bf39-051ae4c1dd98","system_id":"levelo_inurba_marseille","lat":43.26933,"lon":5.40253,"is_reserved":false,"is_disabled":false,"rental_uris":{"android":"levelo://app?vid=7d750bc1-85ed-46eb-bf39-051ae4c1dd98","ios":"levelo://app?vid=7d750bc1-85ed-46eb-bf39-051ae4c1dd98"},"vehicle_type_id":"4","last_reported":1727439433,"current_range_meters":36800,"station_id":"cjm6bp8fraef2m0cb0m0","pricing_plan_id":"cebpf4jnsgd1na2vs0mg"},{"bike_id":"5e1a0d64-5c6b-4fc9-8883-2e7258f5d659","system_id":"levelo_inurba_marseille","lat":43.27494,"lon":5.42449,"is_reserved":false,"is_disabled":false,"rental_uris":{"android":"levelo://app?vid=5e1a0d64-5c6b-4fc9-8883-2e7258f5d659","ios":"levelo://app?vid=5e1a0d64-5c6b-4fc9-8883-2e7258f5d659"},"vehicle_type_id":"4","last_reported":1727439433,"current_range_meters":30800,"station_id":"ce4bhn92rcd13ifvqgrg","pricing_plan_id":"cebpf4jnsgd1na2vs0mg"},{"bike_id":"41cf3064-4000-41cc-afad-609972d6df9d","system_id":"levelo_inurba_marseille","lat":43.2922,"lon":5.36038,"is_reserved":false,"is_disabled":false,"rental_uris":{"android":"levelo://app?vid=41cf3064-4000-41cc-afad-609972d6df9d","ios":"levelo://app?vid=41cf3064-4000-41cc-afad-609972d6df9d"},"vehicle_type_id":"4","last_reported":1727439433,"current_range_meters":38800,"station_id":"ce4bhbh2rcd13ifvqeqg","pricing_plan_id":"cebpf4jnsgd1na2vs0mg"},{"bike_id":"49ae1e59-08b3-4859-a392-0191fe810cd9","system_id":"levelo_inurba_marseille","lat":43.25936,"lon":5.40903,"is_reserved":false,"is_disabled":false,"rental_uris":{"android":"levelo://app?vid=49ae1e59-08b3-4859-a392-0191fe810cd9","ios":"levelo://app?vid=49ae1e59-08b3-4859-a392-0191fe810cd9"},"vehicle_type_id":"4","last_reported":1727439433,"current_range_meters":6800,"station_id":"ce4bhm92rcd13ifvqglg","pricing_plan_id":"cebpf4jnsgd1na2vs0mg"},{"bike_id":"3dabe597-7bed-42ce-b402-93f36374a299","system_id":"levelo_inurba_marseille","lat":43.33604,"lon":5.4103,"is_reserved":false,"is_disabled":false,"rental_uris":{"android":"levelo://app?vid=3dabe597-7bed-42ce-b402-93f36374a299","ios":"levelo://app?vid=3dabe597-7bed-42ce-b402-93f36374a299"},"vehicle_type_id":"4","last_reported":1727439433,"current_range_meters":25600,"station_id":"ce4bhqh2rcd13ifvqhmg","pricing_plan_id":"cebpf4jnsgd1na2vs0mg"},{"bike_id":"3f00836d-bf9b-422f-8bc9-bde9205ce002","system_id":"levelo_inurba_marseille","lat":43.28925,"lon":5.38395,"is_reserved":false,"is_disabled":false,"rental_uris":{"android":"levelo://app?vid=3f00836d-bf9b-422f-8bc9-bde9205ce002","ios":"levelo://app?vid=3f00836d-bf9b-422f-8bc9-bde9205ce002"},"vehicle_type_id":"4","last_reported":1727439433,"current_range_meters":33600,"station_id":"ce4bh612rcd13ifvqe6g","pricing_plan_id":"cebpf4jnsgd1na2vs0mg"},{"bike_id":"067f1846-9b11-48c5-8583-2db18762b54e","system_id":"levelo_inurba_marseille","lat":43.2395,"lon":5.36617,"is_reserved":false,"is_disabled":false,"rental_uris":{"android":"levelo://app?vid=067f1846-9b11-48c5-8583-2db18762b54e","ios":"levelo://app?vid=067f1846-9b11-48c5-8583-2db18762b54e"},"vehicle_type_id":"4","last_reported":1727439433,"current_range_meters":3600,"station_id":"ce4bhi12rcd13ifvqfp0","pricing_plan_id":"cebpf4jnsgd1na2vs0mg"},{"bike_id":"2fe9c64f-9541-4d05-b004-27642eee1478","system_id":"levelo_inurba_marseille","lat":43.28856,"lon":5.35851,"is_reserved":false,"is_disabled":false,"rental_uris":{"android":"levelo://app?vid=2fe9c64f-9541-4d05-b004-27642eee1478","ios":"levelo://app?vid=2fe9c64f-9541-4d05-b004-27642eee1478"},"vehicle_type_id":"4","last_reported":1727439433,"current_range_meters":8400,"station_id":"ce4bhb12rcd13ifvqem0","pricing_plan_id":"cebpf4jnsgd1na2vs0mg"},{"bike_id":"8285c712-f7e8-4563-8986-9ea9d1dc8a70","system_id":"levelo_inurba_marseille","lat":43.30143,"lon":5.38075,"is_reserved":false,"is_disabled":false,"rental_uris":{"android":"levelo://app?vid=8285c712-f7e8-4563-8986-9ea9d1dc8a70","ios":"levelo://app?vid=8285c712-f7e8-4563-8986-9ea9d1dc8a70"},"vehicle_type_id":"4","last_reported":1727439433,"current_range_meters":26800,"station_id":"ce4bgjp2rcd13ifvqbh0","pricing_plan_id":"cebpf4jnsgd1na2vs0mg"},{"bike_id":"02c4515b-6958-409a-bcfa-bebfe0c8f3b5","system_id":"levelo_inurba_marseille","lat":43.30892,"lon":5.37189,"is_reserved":false,"is_disabled":false,"rental_uris":{"android":"levelo://app?vid=02c4515b-6958-409a-bcfa-bebfe0c8f3b5","ios":"levelo://app?vid=02c4515b-6958-409a-bcfa-bebfe0c8f3b5"},"vehicle_type_id":"4","last_reported":1727439433,"current_range_meters":37600,"station_id":"ce4bguh2rcd13ifvqckg","pricing_plan_id":"cebpf4jnsgd1na2vs0mg"},{"bike_id":"6e82d10a-2b66-4ad5-bf22-ea7fead0fb6d","system_id":"levelo_inurba_marseille","lat":43.33757,"lon":5.37439,"is_reserved":false,"is_disabled":false,"rental_uris":{"android":"levelo://app?vid=6e82d10a-2b66-4ad5-bf22-ea7fead0fb6d","ios":"levelo://app?vid=6e82d10a-2b66-4ad5-bf22-ea7fead0fb6d"},"vehicle_type_id":"4","last_reported":1727439433,"current_range_meters":36000,"station_id":"","pricing_plan_id":"cebpf4jnsgd1na2vs0mg"},{"bike_id":"80e09071-95ff-454d-9076-2a605ea174e0","system_id":"levelo_inurba_marseille","lat":43.29843,"lon":5.36263,"is_reserved":false,"is_disabled":false,"rental_uris":{"android":"levelo://app?vid=80e09071-95ff-454d-9076-2a605ea174e0","ios":"levelo://app?vid=80e09071-95ff-454d-9076-2a605ea174e0"},"vehicle_type_id":"4","last_reported":1727439433,"current_range_meters":28400,"station_id":"ce4bgpp2rcd13ifvqc3g","pricing_plan_id":"cebpf4jnsgd1na2vs0mg"},{"bike_id":"42c98d92-ebe5-456a-8bc4-6e0cfd679ab5","system_id":"levelo_inurba_marseille","lat":43.229279,"lon":5.353727,"is_reserved":false,"is_disabled":false,"rental_uris":{"android":"levelo://app?vid=42c98d92-ebe5-456a-8bc4-6e0cfd679ab5","ios":"levelo://app?vid=42c98d92-ebe5-456a-8bc4-6e0cfd679ab5"},"vehicle_type_id":"4","last_reported":1727439433,"current_range_meters":38800,"station_id":"cpo3532slgdg3j2ikp40","pricing_plan_id":"cebpf4jnsgd1na2vs0mg"},{"bike_id":"7d2d015a-b567-41c4-98f8-ef109e0be9b1","system_id":"levelo_inurba_marseille","lat":43.3046,"lon":5.3791,"is_reserved":false,"is_disabled":false,"rental_uris":{"android":"levelo://app?vid=7d2d015a-b567-41c4-98f8-ef109e0be9b1","ios":"levelo://app?vid=7d2d015a-b567-41c4-98f8-ef109e0be9b1"},"vehicle_type_id":"4","last_reported":1727439433,"current_range_meters":16800,"station_id":"ce4bgup2rcd13ifvqcn0","pricing_plan_id":"cebpf4jnsgd1na2vs0mg"},{"bike_id":"9a8b7c7d-5f16-492c-aab9-37e4bf0d6b4e","system_id":"levelo_inurba_marseille","lat":43.30186,"lon":5.36625,"is_reserved":false,"is_disabled":false,"rental_uris":{"android":"levelo://app?vid=9a8b7c7d-5f16-492c-aab9-37e4bf0d6b4e","ios":"levelo://app?vid=9a8b7c7d-5f16-492c-aab9-37e4bf0d6b4e"},"vehicle_type_id":"4","last_reported":1727439433,"current_range_meters":38800,"station_id":"ce4bgrh2rcd13ifvqc8g","pricing_plan_id":"cebpf4jnsgd1na2vs0mg"},{"bike_id":"d2f73829-32cd-4020-8cff-e187266f38d9","system_id":"levelo_inurba_marseille","lat":43.33763,"lon":5.37438,"is_reserved":false,"is_disabled":false,"rental_uris":{"android":"levelo://app?vid=d2f73829-32cd-4020-8cff-e187266f38d9","ios":"levelo://app?vid=d2f73829-32cd-4020-8cff-e187266f38d9"},"vehicle_type_id":"4","last_reported":1727439433,"current_range_meters":3200,"station_id":"","pricing_plan_id":"cebpf4jnsgd1na2vs0mg"},{"bike_id":"0685d39c-d33b-4301-8681-4eea5fef55db","system_id":"levelo_inurba_marseille","lat":43.29276,"lon":5.3684,"is_reserved":false,"is_disabled":false,"rental_uris":{"android":"levelo://app?vid=0685d39c-d33b-4301-8681-4eea5fef55db","ios":"levelo://app?vid=0685d39c-d33b-4301-8681-4eea5fef55db"},"vehicle_type_id":"4","last_reported":1727439433,"current_range_meters":13600,"station_id":"ce4bhbp2rcd13ifvqesg","pricing_plan_id":"cebpf4jnsgd1na2vs0mg"},{"bike_id":"caac2220-f204-42a6-8944-b690878e20a4","system_id":"levelo_inurba_marseille","lat":43.26198,"lon":5.37932,"is_reserved":false,"is_disabled":false,"rental_uris":{"android":"levelo://app?vid=caac2220-f204-42a6-8944-b690878e20a4","ios":"levelo://app?vid=caac2220-f204-42a6-8944-b690878e20a4"},"vehicle_type_id":"4","last_reported":1727439433,"current_range_meters":28400,"station_id":"ce4bhjp2rcd13ifvqg90","pricing_plan_id":"cebpf4jnsgd1na2vs0mg"},{"bike_id":"f916f4ea-109f-491c-b317-68616a4e1aaf","system_id":"levelo_inurba_marseille","lat":43.306,"lon":5.37224,"is_reserved":false,"is_disabled":false,"rental_uris":{"android":"levelo://app?vid=f916f4ea-109f-491c-b317-68616a4e1aaf","ios":"levelo://app?vid=f916f4ea-109f-491c-b317-68616a4e1aaf"},"vehicle_type_id":"4","last_reported":1727439433,"current_range_meters":17600,"station_id":"ce4bgqh2rcd13ifvqc4g","pricing_plan_id":"cebpf4jnsgd1na2vs0mg"},{"bike_id":"c08f2034-000d-412d-9fbf-1e3e373b67eb","system_id":"levelo_inurba_marseille","lat":43.29846,"lon":5.36271,"is_reserved":false,"is_disabled":false,"rental_uris":{"android":"levelo://app?vid=c08f2034-000d-412d-9fbf-1e3e373b67eb","ios":"levelo://app?vid=c08f2034-000d-412d-9fbf-1e3e373b67eb"},"vehicle_type_id":"4","last_reported":1727439433,"current_range_meters":26800,"station_id":"ce4bgpp2rcd13ifvqc3g","pricing_plan_id":"cebpf4jnsgd1na2vs0mg"},{"bike_id":"a2c55c22-cff9-450f-991c-57d2f1cd2f53","system_id":"levelo_inurba_marseille","lat":43.29785,"lon":5.37097,"is_reserved":false,"is_disabled":false,"rental_uris":{"android":"levelo://app?vid=a2c55c22-cff9-450f-991c-57d2f1cd2f53","ios":"levelo://app?vid=a2c55c22-cff9-450f-991c-57d2f1cd2f53"},"vehicle_type_id":"4","last_reported":1727439433,"current_range_meters":34800,"station_id":"ce4bgop2rcd13ifvqc1g","pricing_plan_id":"cebpf4jnsgd1na2vs0mg"},{"bike_id":"b8740b8c-9550-43f4-a157-3962a7300b9d","system_id":"levelo_inurba_marseille","lat":43.27963,"lon":5.38742,"is_reserved":false,"is_disabled":false,"rental_uris":{"android":"levelo://app?vid=b8740b8c-9550-43f4-a157-3962a7300b9d","ios":"levelo://app?vid=b8740b8c-9550-43f4-a157-3962a7300b9d"},"vehicle_type_id":"4","last_reported":1727439433,"current_range_meters":10800,"station_id":"ce4bhg12rcd13ifvqf80","pricing_plan_id":"cebpf4jnsgd1na2vs0mg"},{"bike_id":"2d21a934-5452-4cd4-9fa3-fb6b2a437943","system_id":"levelo_inurba_marseille","lat":43.23194,"lon":5.35558,"is_reserved":false,"is_disabled":false,"rental_uris":{"android":"levelo://app?vid=2d21a934-5452-4cd4-9fa3-fb6b2a437943","ios":"levelo://app?vid=2d21a934-5452-4cd4-9fa3-fb6b2a437943"},"vehicle_type_id":"4","last_reported":1727439433,"current_range_meters":28800,"station_id":"ce4bhu92rcd13ifvqi70","pricing_plan_id":"cebpf4jnsgd1na2vs0mg"},{"bike_id":"eb7ffbe4-85f3-4670-87ad-9e9ef7f9f6aa","system_id":"levelo_inurba_marseille","lat":43.31994,"lon":5.38144,"is_reserved":false,"is_disabled":false,"rental_uris":{"android":"levelo://app?vid=eb7ffbe4-85f3-4670-87ad-9e9ef7f9f6aa","ios":"levelo://app?vid=eb7ffbe4-85f3-4670-87ad-9e9ef7f9f6aa"},"vehicle_type_id":"4","last_reported":1727439433,"current_range_meters":39200,"station_id":"ce4bhr12rcd13ifvqhpg","pricing_plan_id":"cebpf4jnsgd1na2vs0mg"},{"bike_id":"47b52101-5c5d-4cee-9208-786821a1b453","system_id":"levelo_inurba_marseille","lat":43.29526,"lon":5.37496,"is_reserved":false,"is_disabled":false,"rental_uris":{"android":"levelo://app?vid=47b52101-5c5d-4cee-9208-786821a1b453","ios":"levelo://app?vid=47b52101-5c5d-4cee-9208-786821a1b453"},"vehicle_type_id":"4","last_reported":1727439433,"current_range_meters":21600,"station_id":"ce4bgkp2rcd13ifvqbmg","pricing_plan_id":"cebpf4jnsgd1na2vs0mg"},{"bike_id":"72359072-049f-4ee9-933b-ad8e0e97f0b4","system_id":"levelo_inurba_marseille","lat":43.26557,"lon":5.37283,"is_reserved":false,"is_disabled":false,"rental_uris":{"android":"levelo://app?vid=72359072-049f-4ee9-933b-ad8e0e97f0b4","ios":"levelo://app?vid=72359072-049f-4ee9-933b-ad8e0e97f0b4"},"vehicle_type_id":"4","last_reported":1727439433,"current_range_meters":12400,"station_id":"ce4bhg12rcd13ifvqf70","pricing_plan_id":"cebpf4jnsgd1na2vs0mg"},{"bike_id":"436fdf90-92db-45bd-a211-cf5b6fdb4722","system_id":"levelo_inurba_marseille","lat":43.31711,"lon":5.43705,"is_reserved":false,"is_disabled":false,"rental_uris":{"android":"levelo://app?vid=436fdf90-92db-45bd-a211-cf5b6fdb4722","ios":"levelo://app?vid=436fdf90-92db-45bd-a211-cf5b6fdb4722"},"vehicle_type_id":"4","last_reported":1727439433,"current_range_meters":33200,"station_id":"ce4bhp92rcd13ifvqhcg","pricing_plan_id":"cebpf4jnsgd1na2vs0mg"},{"bike_id":"847a8ea0-3c7f-4f36-9dc6-423809103719","system_id":"levelo_inurba_marseille","lat":43.29796,"lon":5.38103,"is_reserved":false,"is_disabled":false,"rental_uris":{"android":"levelo://app?vid=847a8ea0-3c7f-4f36-9dc6-423809103719","ios":"levelo://app?vid=847a8ea0-3c7f-4f36-9dc6-423809103719"},"vehicle_type_id":"4","last_reported":1727439433,"current_range_meters":36800,"station_id":"ce4bgip2rcd13ifvqbb0","pricing_plan_id":"cebpf4jnsgd1na2vs0mg"},{"bike_id":"3971a7a6-90c8-4357-991e-a7ab80ec6049","system_id":"levelo_inurba_marseille","lat":43.2318,"lon":5.39989,"is_reserved":false,"is_disabled":false,"rental_uris":{"android":"levelo://app?vid=3971a7a6-90c8-4357-991e-a7ab80ec6049","ios":"levelo://app?vid=3971a7a6-90c8-4357-991e-a7ab80ec6049"},"vehicle_type_id":"4","last_reported":1727439433,"current_range_meters":6800,"station_id":"ce4bhn12rcd13ifvqgqg","pricing_plan_id":"cebpf4jnsgd1na2vs0mg"},{"bike_id":"7cf4e5ec-03db-4dcc-9169-77d81d4a978c","system_id":"levelo_inurba_marseille","lat":43.23967,"lon":5.36631,"is_reserved":false,"is_disabled":false,"rental_uris":{"android":"levelo://app?vid=7cf4e5ec-03db-4dcc-9169-77d81d4a978c","ios":"levelo://app?vid=7cf4e5ec-03db-4dcc-9169-77d81d4a978c"},"vehicle_type_id":"4","last_reported":1727439433,"current_range_meters":22800,"station_id":"ce4bhi12rcd13ifvqfp0","pricing_plan_id":"cebpf4jnsgd1na2vs0mg"},{"bike_id":"1520bd9d-01da-4c88-af2c-e0254761ce1b","system_id":"levelo_inurba_marseille","lat":43.27679,"lon":5.38888,"is_reserved":false,"is_disabled":false,"rental_uris":{"android":"levelo://app?vid=1520bd9d-01da-4c88-af2c-e0254761ce1b","ios":"levelo://app?vid=1520bd9d-01da-4c88-af2c-e0254761ce1b"},"vehicle_type_id":"4","last_reported":1727439433,"current_range_meters":33200,"station_id":"ce4bhi12rcd13ifvqfo0","pricing_plan_id":"cebpf4jnsgd1na2vs0mg"},{"bike_id":"fd862933-d712-4813-8866-a7ed5682df20","system_id":"levelo_inurba_marseille","lat":43.23158,"lon":5.43696,"is_reserved":false,"is_disabled":false,"rental_uris":{"android":"levelo://app?vid=fd862933-d712-4813-8866-a7ed5682df20","ios":"levelo://app?vid=fd862933-d712-4813-8866-a7ed5682df20"},"vehicle_type_id":"4","last_reported":1727439433,"current_range_meters":6800,"station_id":"ce4bhmp2rcd13ifvqgog","pricing_plan_id":"cebpf4jnsgd1na2vs0mg"},{"bike_id":"76a5f132-41a1-4af6-859c-b53b38686870","system_id":"levelo_inurba_marseille","lat":43.29222,"lon":5.36054,"is_reserved":false,"is_disabled":false,"rental_uris":{"android":"levelo://app?vid=76a5f132-41a1-4af6-859c-b53b38686870","ios":"levelo://app?vid=76a5f132-41a1-4af6-859c-b53b38686870"},"vehicle_type_id":"4","last_reported":1727439433,"current_range_meters":25600,"station_id":"ce4bhbh2rcd13ifvqeqg","pricing_plan_id":"cebpf4jnsgd1na2vs0mg"},{"bike_id":"1ace51cf-9253-44fa-be3d-e6238511374b","system_id":"levelo_inurba_marseille","lat":43.2902,"lon":5.38128,"is_reserved":false,"is_disabled":false,"rental_uris":{"android":"levelo://app?vid=1ace51cf-9253-44fa-be3d-e6238511374b","ios":"levelo://app?vid=1ace51cf-9253-44fa-be3d-e6238511374b"},"vehicle_type_id":"4","last_reported":1727439433,"current_range_meters":38400,"station_id":"ce4bh4p2rcd13ifvqe1g","pricing_plan_id":"cebpf4jnsgd1na2vs0mg"},{"bike_id":"f2530b6c-cce1-4040-b636-605be099fa1c","system_id":"levelo_inurba_marseille","lat":43.30369,"lon":5.41887,"is_reserved":false,"is_disabled":false,"rental_uris":{"android":"levelo://app?vid=f2530b6c-cce1-4040-b636-605be099fa1c","ios":"levelo://app?vid=f2530b6c-cce1-4040-b636-605be099fa1c"},"vehicle_type_id":"4","last_reported":1727439433,"current_range_meters":3600,"station_id":"ce4bhop2rcd13ifvqh7g","pricing_plan_id":"cebpf4jnsgd1na2vs0mg"},{"bike_id":"ba473d95-3952-479b-952d-9cefebf3dbb0","system_id":"levelo_inurba_marseille","lat":43.29533,"lon":5.39396,"is_reserved":false,"is_disabled":false,"rental_uris":{"android":"levelo://app?vid=ba473d95-3952-479b-952d-9cefebf3dbb0","ios":"levelo://app?vid=ba473d95-3952-479b-952d-9cefebf3dbb0"},"vehicle_type_id":"4","last_reported":1727439433,"current_range_meters":36400,"station_id":"ce4bh292rcd13ifvqdf0","pricing_plan_id":"cebpf4jnsgd1na2vs0mg"},{"bike_id":"012a6d82-a3f5-4660-81ee-e3b23dd04012","system_id":"levelo_inurba_marseille","lat":43.30595,"lon":5.37209,"is_reserved":false,"is_disabled":false,"rental_uris":{"android":"levelo://app?vid=012a6d82-a3f5-4660-81ee-e3b23dd04012","ios":"levelo://app?vid=012a6d82-a3f5-4660-81ee-e3b23dd04012"},"vehicle_type_id":"4","last_reported":1727439433,"current_range_meters":32000,"station_id":"ce4bgqh2rcd13ifvqc4g","pricing_plan_id":"cebpf4jnsgd1na2vs0mg"},{"bike_id":"400b0feb-cbfb-483f-a1cf-4db318685a52","system_id":"levelo_inurba_marseille","lat":43.29227,"lon":5.36059,"is_reserved":false,"is_disabled":false,"rental_uris":{"android":"levelo://app?vid=400b0feb-cbfb-483f-a1cf-4db318685a52","ios":"levelo://app?vid=400b0feb-cbfb-483f-a1cf-4db318685a52"},"vehicle_type_id":"4","last_reported":1727439433,"current_range_meters":20800,"station_id":"ce4bhbh2rcd13ifvqeqg","pricing_plan_id":"cebpf4jnsgd1na2vs0mg"},{"bike_id":"769f4b18-4178-45f6-ae21-08cdf90fb44e","system_id":"levelo_inurba_marseille","lat":43.33759,"lon":5.37447,"is_reserved":false,"is_disabled":false,"rental_uris":{"android":"levelo://app?vid=769f4b18-4178-45f6-ae21-08cdf90fb44e","ios":"levelo://app?vid=769f4b18-4178-45f6-ae21-08cdf90fb44e"},"vehicle_type_id":"4","last_reported":1727439433,"current_range_meters":25200,"station_id":"","pricing_plan_id":"cebpf4jnsgd1na2vs0mg"},{"bike_id":"3c7c89c7-e2c9-4e41-997d-0882616e21f3","system_id":"levelo_inurba_marseille","lat":43.30151,"lon":5.38087,"is_reserved":false,"is_disabled":false,"rental_uris":{"android":"levelo://app?vid=3c7c89c7-e2c9-4e41-997d-0882616e21f3","ios":"levelo://app?vid=3c7c89c7-e2c9-4e41-997d-0882616e21f3"},"vehicle_type_id":"4","last_reported":1727439433,"current_range_meters":24400,"station_id":"ce4bgjp2rcd13ifvqbh0","pricing_plan_id":"cebpf4jnsgd1na2vs0mg"},{"bike_id":"9dd7b92f-6b5e-457c-9ed8-e101e755785e","system_id":"levelo_inurba_marseille","lat":43.3088,"lon":5.39643,"is_reserved":false,"is_disabled":false,"rental_uris":{"android":"levelo://app?vid=9dd7b92f-6b5e-457c-9ed8-e101e755785e","ios":"levelo://app?vid=9dd7b92f-6b5e-457c-9ed8-e101e755785e"},"vehicle_type_id":"4","last_reported":1727439433,"current_range_meters":16000,"station_id":"ce4bh012rcd13ifvqcv0","pricing_plan_id":"cebpf4jnsgd1na2vs0mg"},{"bike_id":"5bd7ecc8-16cc-4cb3-beaf-63ce1dfc5df0","system_id":"levelo_inurba_marseille","lat":43.273804,"lon":5.362497,"is_reserved":false,"is_disabled":false,"rental_uris":{"android":"levelo://app?vid=5bd7ecc8-16cc-4cb3-beaf-63ce1dfc5df0","ios":"levelo://app?vid=5bd7ecc8-16cc-4cb3-beaf-63ce1dfc5df0"},"vehicle_type_id":"4","last_reported":1727439433,"current_range_meters":37600,"station_id":"ce4bhbh2rcd13ifvqeo0","pricing_plan_id":"cebpf4jnsgd1na2vs0mg"},{"bike_id":"156e3a22-96f1-4036-b4ee-8c08d339e39e","system_id":"levelo_inurba_marseille","lat":43.22928,"lon":5.35374,"is_reserved":false,"is_disabled":false,"rental_uris":{"android":"levelo://app?vid=156e3a22-96f1-4036-b4ee-8c08d339e39e","ios":"levelo://app?vid=156e3a22-96f1-4036-b4ee-8c08d339e39e"},"vehicle_type_id":"4","last_reported":1727439433,"current_range_meters":8400,"station_id":"cpo3532slgdg3j2ikp40","pricing_plan_id":"cebpf4jnsgd1na2vs0mg"},{"bike_id":"c96d5ba2-59d5-423c-ad5f-af34a6310ccf","system_id":"levelo_inurba_marseille","lat":43.27495,"lon":5.42453,"is_reserved":false,"is_disabled":false,"rental_uris":{"android":"levelo://app?vid=c96d5ba2-59d5-423c-ad5f-af34a6310ccf","ios":"levelo://app?vid=c96d5ba2-59d5-423c-ad5f-af34a6310ccf"},"vehicle_type_id":"4","last_reported":1727439433,"current_range_meters":15200,"station_id":"ce4bhn92rcd13ifvqgrg","pricing_plan_id":"cebpf4jnsgd1na2vs0mg"},{"bike_id":"82448357-40a4-4812-b68f-9e5a05473e4d","system_id":"levelo_inurba_marseille","lat":43.30119,"lon":5.39841,"is_reserved":false,"is_disabled":false,"rental_uris":{"android":"levelo://app?vid=82448357-40a4-4812-b68f-9e5a05473e4d","ios":"levelo://app?vid=82448357-40a4-4812-b68f-9e5a05473e4d"},"vehicle_type_id":"4","last_reported":1727439433,"current_range_meters":4400,"station_id":"ce4bh0h2rcd13ifvqd40","pricing_plan_id":"cebpf4jnsgd1na2vs0mg"},{"bike_id":"fd512eb4-5978-476b-856d-3199680a82b6","system_id":"levelo_inurba_marseille","lat":43.23153,"lon":5.43702,"is_reserved":false,"is_disabled":false,"rental_uris":{"android":"levelo://app?vid=fd512eb4-5978-476b-856d-3199680a82b6","ios":"levelo://app?vid=fd512eb4-5978-476b-856d-3199680a82b6"},"vehicle_type_id":"4","last_reported":1727439433,"current_range_meters":16800,"station_id":"ce4bhmp2rcd13ifvqgog","pricing_plan_id":"cebpf4jnsgd1na2vs0mg"},{"bike_id":"356d2923-3978-45a2-aecd-418a88f9d138","system_id":"levelo_inurba_marseille","lat":43.24076,"lon":5.37763,"is_reserved":false,"is_disabled":false,"rental_uris":{"android":"levelo://app?vid=356d2923-3978-45a2-aecd-418a88f9d138","ios":"levelo://app?vid=356d2923-3978-45a2-aecd-418a88f9d138"},"vehicle_type_id":"4","last_reported":1727439433,"current_range_meters":37600,"station_id":"ce4bhnp2rcd13ifvqgvg","pricing_plan_id":"cebpf4jnsgd1na2vs0mg"},{"bike_id":"e5edb00e-cafc-4a47-9e5b-004b7d4e67c3","system_id":"levelo_inurba_marseille","lat":43.29927,"lon":5.36543,"is_reserved":false,"is_disabled":false,"rental_uris":{"android":"levelo://app?vid=e5edb00e-cafc-4a47-9e5b-004b7d4e67c3","ios":"levelo://app?vid=e5edb00e-cafc-4a47-9e5b-004b7d4e67c3"},"vehicle_type_id":"4","last_reported":1727439433,"current_range_meters":30400,"station_id":"ce4bgm92rcd13ifvqbr0","pricing_plan_id":"cebpf4jnsgd1na2vs0mg"},{"bike_id":"ed66d76c-51ef-4cad-8afb-1603d160846a","system_id":"levelo_inurba_marseille","lat":43.33601,"lon":5.41029,"is_reserved":false,"is_disabled":false,"rental_uris":{"android":"levelo://app?vid=ed66d76c-51ef-4cad-8afb-1603d160846a","ios":"levelo://app?vid=ed66d76c-51ef-4cad-8afb-1603d160846a"},"vehicle_type_id":"4","last_reported":1727439433,"current_range_meters":10800,"station_id":"ce4bhqh2rcd13ifvqhmg","pricing_plan_id":"cebpf4jnsgd1na2vs0mg"},{"bike_id":"3c5d7363-3c54-4579-a1fd-d403b53bb72d","system_id":"levelo_inurba_marseille","lat":43.27967,"lon":5.38717,"is_reserved":false,"is_disabled":false,"rental_uris":{"android":"levelo://app?vid=3c5d7363-3c54-4579-a1fd-d403b53bb72d","ios":"levelo://app?vid=3c5d7363-3c54-4579-a1fd-d403b53bb72d"},"vehicle_type_id":"4","last_reported":1727439433,"current_range_meters":8800,"station_id":"ce4bhg12rcd13ifvqf80","pricing_plan_id":"cebpf4jnsgd1na2vs0mg"},{"bike_id":"c5b6886f-7051-4abc-b551-af66333ea4ab","system_id":"levelo_inurba_marseille","lat":43.30146,"lon":5.37414,"is_reserved":false,"is_disabled":false,"rental_uris":{"android":"levelo://app?vid=c5b6886f-7051-4abc-b551-af66333ea4ab","ios":"levelo://app?vid=c5b6886f-7051-4abc-b551-af66333ea4ab"},"vehicle_type_id":"4","last_reported":1727439433,"current_range_meters":24400,"station_id":"ce4bgs92rcd13ifvqcc0","pricing_plan_id":"cebpf4jnsgd1na2vs0mg"},{"bike_id":"0063fe01-858d-4928-86ed-1b78fd587000","system_id":"levelo_inurba_marseille","lat":43.30354,"lon":5.41879,"is_reserved":false,"is_disabled":false,"rental_uris":{"android":"levelo://app?vid=0063fe01-858d-4928-86ed-1b78fd587000","ios":"levelo://app?vid=0063fe01-858d-4928-86ed-1b78fd587000"},"vehicle_type_id":"4","last_reported":1727439433,"current_range_meters":17600,"station_id":"ce4bhop2rcd13ifvqh7g","pricing_plan_id":"cebpf4jnsgd1na2vs0mg"},{"bike_id":"7fc62455-2129-4459-93ea-44e36d53f76e","system_id":"levelo_inurba_marseille","lat":43.29228,"lon":5.3606,"is_reserved":false,"is_disabled":false,"rental_uris":{"android":"levelo://app?vid=7fc62455-2129-4459-93ea-44e36d53f76e","ios":"levelo://app?vid=7fc62455-2129-4459-93ea-44e36d53f76e"},"vehicle_type_id":"4","last_reported":1727439433,"current_range_meters":38400,"station_id":"ce4bhbh2rcd13ifvqeqg","pricing_plan_id":"cebpf4jnsgd1na2vs0mg"},{"bike_id":"ef264a27-c470-430f-a05a-cb5f153e8335","system_id":"levelo_inurba_marseille","lat":43.29971,"lon":5.38499,"is_reserved":false,"is_disabled":false,"rental_uris":{"android":"levelo://app?vid=ef264a27-c470-430f-a05a-cb5f153e8335","ios":"levelo://app?vid=ef264a27-c470-430f-a05a-cb5f153e8335"},"vehicle_type_id":"4","last_reported":1727439433,"current_range_meters":38800,"station_id":"ce4bgj92rcd13ifvqbd0","pricing_plan_id":"cebpf4jnsgd1na2vs0mg"},{"bike_id":"e36ab6a4-3228-494a-b3c0-bfbc992aa76a","system_id":"levelo_inurba_marseille","lat":43.26556,"lon":5.37286,"is_reserved":false,"is_disabled":false,"rental_uris":{"android":"levelo://app?vid=e36ab6a4-3228-494a-b3c0-bfbc992aa76a","ios":"levelo://app?vid=e36ab6a4-3228-494a-b3c0-bfbc992aa76a"},"vehicle_type_id":"4","last_reported":1727439433,"current_range_meters":14800,"station_id":"ce4bhg12rcd13ifvqf70","pricing_plan_id":"cebpf4jnsgd1na2vs0mg"},{"bike_id":"5fc415c8-e31e-478a-b943-5c3ec52b2f1a","system_id":"levelo_inurba_marseille","lat":43.29276,"lon":5.36845,"is_reserved":false,"is_disabled":false,"rental_uris":{"android":"levelo://app?vid=5fc415c8-e31e-478a-b943-5c3ec52b2f1a","ios":"levelo://app?vid=5fc415c8-e31e-478a-b943-5c3ec52b2f1a"},"vehicle_type_id":"4","last_reported":1727439433,"current_range_meters":3200,"station_id":"ce4bhbp2rcd13ifvqesg","pricing_plan_id":"cebpf4jnsgd1na2vs0mg"},{"bike_id":"87c15147-7698-4914-bd8f-b4e14d66093e","system_id":"levelo_inurba_marseille","lat":43.29306,"lon":5.37158,"is_reserved":false,"is_disabled":false,"rental_uris":{"android":"levelo://app?vid=87c15147-7698-4914-bd8f-b4e14d66093e","ios":"levelo://app?vid=87c15147-7698-4914-bd8f-b4e14d66093e"},"vehicle_type_id":"4","last_reported":1727439433,"current_range_meters":28000,"station_id":"ce4bgh92rcd13ifvqb40","pricing_plan_id":"cebpf4jnsgd1na2vs0mg"},{"bike_id":"57097677-22c5-4ff4-bf56-3745b7a5b3e2","system_id":"levelo_inurba_marseille","lat":43.27491,"lon":5.42448,"is_reserved":false,"is_disabled":false,"rental_uris":{"android":"levelo://app?vid=57097677-22c5-4ff4-bf56-3745b7a5b3e2","ios":"levelo://app?vid=57097677-22c5-4ff4-bf56-3745b7a5b3e2"},"vehicle_type_id":"4","last_reported":1727439433,"current_range_meters":33600,"station_id":"ce4bhn92rcd13ifvqgrg","pricing_plan_id":"cebpf4jnsgd1na2vs0mg"},{"bike_id":"1f272fe6-9f2b-44bc-a21d-dc22f0f17d24","system_id":"levelo_inurba_marseille","lat":43.25727,"lon":5.41108,"is_reserved":false,"is_disabled":false,"rental_uris":{"android":"levelo://app?vid=1f272fe6-9f2b-44bc-a21d-dc22f0f17d24","ios":"levelo://app?vid=1f272fe6-9f2b-44bc-a21d-dc22f0f17d24"},"vehicle_type_id":"4","last_reported":1727439433,"current_range_meters":32400,"station_id":"ce4bhkp2rcd13ifvqgd0","pricing_plan_id":"cebpf4jnsgd1na2vs0mg"},{"bike_id":"4357a4d2-e506-4065-98ed-bf310eb23075","system_id":"levelo_inurba_marseille","lat":43.28081,"lon":5.3966,"is_reserved":false,"is_disabled":false,"rental_uris":{"android":"levelo://app?vid=4357a4d2-e506-4065-98ed-bf310eb23075","ios":"levelo://app?vid=4357a4d2-e506-4065-98ed-bf310eb23075"},"vehicle_type_id":"4","last_reported":1727439433,"current_range_meters":28800,"station_id":"ce4bho12rcd13ifvqh2g","pricing_plan_id":"cebpf4jnsgd1na2vs0mg"},{"bike_id":"d7f67191-bbd7-4b35-b9ef-f67ed4891f63","system_id":"levelo_inurba_marseille","lat":43.24357,"lon":5.3696,"is_reserved":false,"is_disabled":false,"rental_uris":{"android":"levelo://app?vid=d7f67191-bbd7-4b35-b9ef-f67ed4891f63","ios":"levelo://app?vid=d7f67191-bbd7-4b35-b9ef-f67ed4891f63"},"vehicle_type_id":"4","last_reported":1727439433,"current_range_meters":21600,"station_id":"","pricing_plan_id":"cebpf4jnsgd1na2vs0mg"},{"bike_id":"949118ac-52df-4286-b826-aedfdc939133","system_id":"levelo_inurba_marseille","lat":43.27179,"lon":5.40987,"is_reserved":false,"is_disabled":false,"rental_uris":{"android":"levelo://app?vid=949118ac-52df-4286-b826-aedfdc939133","ios":"levelo://app?vid=949118ac-52df-4286-b826-aedfdc939133"},"vehicle_type_id":"4","last_reported":1727439433,"current_range_meters":39200,"station_id":"ce4bhl12rcd13ifvqgf0","pricing_plan_id":"cebpf4jnsgd1na2vs0mg"},{"bike_id":"26be6255-0c77-4e5a-9981-7fa1aead36a3","system_id":"levelo_inurba_marseille","lat":43.27613,"lon":5.36107,"is_reserved":false,"is_disabled":false,"rental_uris":{"android":"levelo://app?vid=26be6255-0c77-4e5a-9981-7fa1aead36a3","ios":"levelo://app?vid=26be6255-0c77-4e5a-9981-7fa1aead36a3"},"vehicle_type_id":"4","last_reported":1727439433,"current_range_meters":39200,"station_id":"ce4bgj92rcd13ifvqbe0","pricing_plan_id":"cebpf4jnsgd1na2vs0mg"},{"bike_id":"9f218319-c74c-4bf2-b81b-334eb26acee5","system_id":"levelo_inurba_marseille","lat":43.29018,"lon":5.38135,"is_reserved":false,"is_disabled":false,"rental_uris":{"android":"levelo://app?vid=9f218319-c74c-4bf2-b81b-334eb26acee5","ios":"levelo://app?vid=9f218319-c74c-4bf2-b81b-334eb26acee5"},"vehicle_type_id":"4","last_reported":1727439433,"current_range_meters":28400,"station_id":"ce4bh4p2rcd13ifvqe1g","pricing_plan_id":"cebpf4jnsgd1na2vs0mg"},{"bike_id":"b67a3de6-ef64-4043-b8ad-807a50a7793a","system_id":"levelo_inurba_marseille","lat":43.2407,"lon":5.37762,"is_reserved":false,"is_disabled":false,"rental_uris":{"android":"levelo://app?vid=b67a3de6-ef64-4043-b8ad-807a50a7793a","ios":"levelo://app?vid=b67a3de6-ef64-4043-b8ad-807a50a7793a"},"vehicle_type_id":"4","last_reported":1727439433,"current_range_meters":36800,"station_id":"ce4bhnp2rcd13ifvqgvg","pricing_plan_id":"cebpf4jnsgd1na2vs0mg"},{"bike_id":"7a221aff-a308-4e51-bd6c-3606a6928c42","system_id":"levelo_inurba_marseille","lat":43.28491,"lon":5.3897,"is_reserved":false,"is_disabled":false,"rental_uris":{"android":"levelo://app?vid=7a221aff-a308-4e51-bd6c-3606a6928c42","ios":"levelo://app?vid=7a221aff-a308-4e51-bd6c-3606a6928c42"},"vehicle_type_id":"4","last_reported":1727439433,"current_range_meters":36800,"station_id":"","pricing_plan_id":"cebpf4jnsgd1na2vs0mg"},{"bike_id":"d5cad983-116b-4b36-9d90-7e4a5a9b071e","system_id":"levelo_inurba_marseille","lat":43.29103,"lon":5.38124,"is_reserved":false,"is_disabled":false,"rental_uris":{"android":"levelo://app?vid=d5cad983-116b-4b36-9d90-7e4a5a9b071e","ios":"levelo://app?vid=d5cad983-116b-4b36-9d90-7e4a5a9b071e"},"vehicle_type_id":"4","last_reported":1727439433,"current_range_meters":12000,"station_id":"ce4bh512rcd13ifvqe2g","pricing_plan_id":"cebpf4jnsgd1na2vs0mg"},{"bike_id":"07e39731-448f-40d5-9d06-91facf9fcb8e","system_id":"levelo_inurba_marseille","lat":43.31993,"lon":5.38147,"is_reserved":false,"is_disabled":false,"rental_uris":{"android":"levelo://app?vid=07e39731-448f-40d5-9d06-91facf9fcb8e","ios":"levelo://app?vid=07e39731-448f-40d5-9d06-91facf9fcb8e"},"vehicle_type_id":"4","last_reported":1727439433,"current_range_meters":27600,"station_id":"ce4bhr12rcd13ifvqhpg","pricing_plan_id":"cebpf4jnsgd1na2vs0mg"},{"bike_id":"8a5475e3-6fbf-4e9b-b650-accf3a939b49","system_id":"levelo_inurba_marseille","lat":43.324848,"lon":5.365692,"is_reserved":false,"is_disabled":false,"rental_uris":{"android":"levelo://app?vid=8a5475e3-6fbf-4e9b-b650-accf3a939b49","ios":"levelo://app?vid=8a5475e3-6fbf-4e9b-b650-accf3a939b49"},"vehicle_type_id":"4","last_reported":1727439433,"current_range_meters":39200,"station_id":"ce4bhs12rcd13ifvqhvg","pricing_plan_id":"cebpf4jnsgd1na2vs0mg"},{"bike_id":"027699da-6e1a-43b1-ae68-183b1e03550f","system_id":"levelo_inurba_marseille","lat":43.29005,"lon":5.37582,"is_reserved":false,"is_disabled":false,"rental_uris":{"android":"levelo://app?vid=027699da-6e1a-43b1-ae68-183b1e03550f","ios":"levelo://app?vid=027699da-6e1a-43b1-ae68-183b1e03550f"},"vehicle_type_id":"4","last_reported":1727439433,"current_range_meters":33600,"station_id":"ce4bh692rcd13ifvqe90","pricing_plan_id":"cebpf4jnsgd1na2vs0mg"},{"bike_id":"7cac87a3-8f4e-483a-8d7a-7601b0c2f64f","system_id":"levelo_inurba_marseille","lat":43.24067,"lon":5.37751,"is_reserved":false,"is_disabled":false,"rental_uris":{"android":"levelo://app?vid=7cac87a3-8f4e-483a-8d7a-7601b0c2f64f","ios":"levelo://app?vid=7cac87a3-8f4e-483a-8d7a-7601b0c2f64f"},"vehicle_type_id":"4","last_reported":1727439433,"current_range_meters":37600,"station_id":"ce4bhnp2rcd13ifvqgvg","pricing_plan_id":"cebpf4jnsgd1na2vs0mg"},{"bike_id":"9c9ef1bf-240e-4f04-a507-60b62b837828","system_id":"levelo_inurba_marseille","lat":43.28445,"lon":5.39201,"is_reserved":false,"is_disabled":false,"rental_uris":{"android":"levelo://app?vid=9c9ef1bf-240e-4f04-a507-60b62b837828","ios":"levelo://app?vid=9c9ef1bf-240e-4f04-a507-60b62b837828"},"vehicle_type_id":"4","last_reported":1727439433,"current_range_meters":16000,"station_id":"ce4bhoh2rcd13ifvqh5g","pricing_plan_id":"cebpf4jnsgd1na2vs0mg"},{"bike_id":"fd144816-a9fe-4522-bc14-7378ed67cbbc","system_id":"levelo_inurba_marseille","lat":43.28278,"lon":5.35056,"is_reserved":false,"is_disabled":false,"rental_uris":{"android":"levelo://app?vid=fd144816-a9fe-4522-bc14-7378ed67cbbc","ios":"levelo://app?vid=fd144816-a9fe-4522-bc14-7378ed67cbbc"},"vehicle_type_id":"4","last_reported":1727439433,"current_range_meters":38800,"station_id":"ce4bhbp2rcd13ifvqerg","pricing_plan_id":"cebpf4jnsgd1na2vs0mg"},{"bike_id":"079eae73-c155-4655-a2a6-6306ceb09a5a","system_id":"levelo_inurba_marseille","lat":43.29841,"lon":5.36281,"is_reserved":false,"is_disabled":false,"rental_uris":{"android":"levelo://app?vid=079eae73-c155-4655-a2a6-6306ceb09a5a","ios":"levelo://app?vid=079eae73-c155-4655-a2a6-6306ceb09a5a"},"vehicle_type_id":"4","last_reported":1727439433,"current_range_meters":39200,"station_id":"ce4bgpp2rcd13ifvqc3g","pricing_plan_id":"cebpf4jnsgd1na2vs0mg"},{"bike_id":"73501df0-77c4-43bc-b3b1-7c16c8a9d316","system_id":"levelo_inurba_marseille","lat":43.30116,"lon":5.39201,"is_reserved":false,"is_disabled":false,"rental_uris":{"android":"levelo://app?vid=73501df0-77c4-43bc-b3b1-7c16c8a9d316","ios":"levelo://app?vid=73501df0-77c4-43bc-b3b1-7c16c8a9d316"},"vehicle_type_id":"4","last_reported":1727439433,"current_range_meters":26800,"station_id":"","pricing_plan_id":"cebpf4jnsgd1na2vs0mg"},{"bike_id":"e6c0f65a-33be-415d-a1ea-248fe959262e","system_id":"levelo_inurba_marseille","lat":43.29618,"lon":5.37161,"is_reserved":false,"is_disabled":false,"rental_uris":{"android":"levelo://app?vid=e6c0f65a-33be-415d-a1ea-248fe959262e","ios":"levelo://app?vid=e6c0f65a-33be-415d-a1ea-248fe959262e"},"vehicle_type_id":"4","last_reported":1727439433,"current_range_meters":38800,"station_id":"ce4bgnh2rcd13ifvqc0g","pricing_plan_id":"cebpf4jnsgd1na2vs0mg"},{"bike_id":"acc73a6c-9246-491f-a928-d2a1e999ed3f","system_id":"levelo_inurba_marseille","lat":43.2586,"lon":5.39901,"is_reserved":false,"is_disabled":false,"rental_uris":{"android":"levelo://app?vid=acc73a6c-9246-491f-a928-d2a1e999ed3f","ios":"levelo://app?vid=acc73a6c-9246-491f-a928-d2a1e999ed3f"},"vehicle_type_id":"4","last_reported":1727439433,"current_range_meters":9200,"station_id":"ce4bhl92rcd13ifvqghg","pricing_plan_id":"cebpf4jnsgd1na2vs0mg"},{"bike_id":"59d223ee-f0f9-4a59-a279-349bfa0811a9","system_id":"levelo_inurba_marseille","lat":43.26796,"lon":5.39403,"is_reserved":false,"is_disabled":false,"rental_uris":{"android":"levelo://app?vid=59d223ee-f0f9-4a59-a279-349bfa0811a9","ios":"levelo://app?vid=59d223ee-f0f9-4a59-a279-349bfa0811a9"},"vehicle_type_id":"4","last_reported":1727439433,"current_range_meters":32400,"station_id":"ce4bhh12rcd13ifvqfg0","pricing_plan_id":"cebpf4jnsgd1na2vs0mg"},{"bike_id":"eab466b2-922c-4187-97ca-e809ccd7c7e1","system_id":"levelo_inurba_marseille","lat":43.26033,"lon":5.37545,"is_reserved":false,"is_disabled":false,"rental_uris":{"android":"levelo://app?vid=eab466b2-922c-4187-97ca-e809ccd7c7e1","ios":"levelo://app?vid=eab466b2-922c-4187-97ca-e809ccd7c7e1"},"vehicle_type_id":"4","last_reported":1727439433,"current_range_meters":24400,"station_id":"ce4bhgh2rcd13ifvqfa0","pricing_plan_id":"cebpf4jnsgd1na2vs0mg"},{"bike_id":"fdd060b8-05d6-45b8-aea6-bd098c3e0fbb","system_id":"levelo_inurba_marseille","lat":43.28722,"lon":5.36075,"is_reserved":false,"is_disabled":false,"rental_uris":{"android":"levelo://app?vid=fdd060b8-05d6-45b8-aea6-bd098c3e0fbb","ios":"levelo://app?vid=fdd060b8-05d6-45b8-aea6-bd098c3e0fbb"},"vehicle_type_id":"4","last_reported":1727439433,"current_range_meters":33600,"station_id":"cki0cbj6b192h4jlfktg","pricing_plan_id":"cebpf4jnsgd1na2vs0mg"},{"bike_id":"8987cb8a-848e-40cc-adfe-79ea640a0827","system_id":"levelo_inurba_marseille","lat":43.24083,"lon":5.3775,"is_reserved":false,"is_disabled":false,"rental_uris":{"android":"levelo://app?vid=8987cb8a-848e-40cc-adfe-79ea640a0827","ios":"levelo://app?vid=8987cb8a-848e-40cc-adfe-79ea640a0827"},"vehicle_type_id":"4","last_reported":1727439433,"current_range_meters":26000,"station_id":"ce4bhnp2rcd13ifvqgvg","pricing_plan_id":"cebpf4jnsgd1na2vs0mg"},{"bike_id":"4b556ab0-a997-4f28-8e60-10fc1dbe21b7","system_id":"levelo_inurba_marseille","lat":43.301453,"lon":5.380891,"is_reserved":false,"is_disabled":false,"rental_uris":{"android":"levelo://app?vid=4b556ab0-a997-4f28-8e60-10fc1dbe21b7","ios":"levelo://app?vid=4b556ab0-a997-4f28-8e60-10fc1dbe21b7"},"vehicle_type_id":"4","last_reported":1727439433,"current_range_meters":16400,"station_id":"ce4bhi12rcd13ifvqfp0","pricing_plan_id":"cebpf4jnsgd1na2vs0mg"},{"bike_id":"55804fa0-8ed8-4495-a5b9-4c289be0968c","system_id":"levelo_inurba_marseille","lat":43.3372,"lon":5.39178,"is_reserved":false,"is_disabled":false,"rental_uris":{"android":"levelo://app?vid=55804fa0-8ed8-4495-a5b9-4c289be0968c","ios":"levelo://app?vid=55804fa0-8ed8-4495-a5b9-4c289be0968c"},"vehicle_type_id":"4","last_reported":1727439433,"current_range_meters":34800,"station_id":"ce4bhr92rcd13ifvqhsg","pricing_plan_id":"cebpf4jnsgd1na2vs0mg"},{"bike_id":"f244f90b-399e-4afd-a4ad-c99eb858a55e","system_id":"levelo_inurba_marseille","lat":43.30598,"lon":5.37219,"is_reserved":false,"is_disabled":false,"rental_uris":{"android":"levelo://app?vid=f244f90b-399e-4afd-a4ad-c99eb858a55e","ios":"levelo://app?vid=f244f90b-399e-4afd-a4ad-c99eb858a55e"},"vehicle_type_id":"4","last_reported":1727439433,"current_range_meters":35600,"station_id":"ce4bgqh2rcd13ifvqc4g","pricing_plan_id":"cebpf4jnsgd1na2vs0mg"},{"bike_id":"701acd24-c3d3-4604-a062-df7b2299fdaa","system_id":"levelo_inurba_marseille","lat":43.28,"lon":5.40018,"is_reserved":false,"is_disabled":false,"rental_uris":{"android":"levelo://app?vid=701acd24-c3d3-4604-a062-df7b2299fdaa","ios":"levelo://app?vid=701acd24-c3d3-4604-a062-df7b2299fdaa"},"vehicle_type_id":"4","last_reported":1727439433,"current_range_meters":39200,"station_id":"ce4bho92rcd13ifvqh4g","pricing_plan_id":"cebpf4jnsgd1na2vs0mg"},{"bike_id":"7d187923-6629-4a06-bd67-979066577e39","system_id":"levelo_inurba_marseille","lat":43.25497,"lon":5.3765,"is_reserved":false,"is_disabled":false,"rental_uris":{"android":"levelo://app?vid=7d187923-6629-4a06-bd67-979066577e39","ios":"levelo://app?vid=7d187923-6629-4a06-bd67-979066577e39"},"vehicle_type_id":"4","last_reported":1727439433,"current_range_meters":39200,"station_id":"ce4bhh12rcd13ifvqff0","pricing_plan_id":"cebpf4jnsgd1na2vs0mg"},{"bike_id":"a7bca3df-0344-4204-86d7-b742d4769839","system_id":"levelo_inurba_marseille","lat":43.30863,"lon":5.3685,"is_reserved":false,"is_disabled":false,"rental_uris":{"android":"levelo://app?vid=a7bca3df-0344-4204-86d7-b742d4769839","ios":"levelo://app?vid=a7bca3df-0344-4204-86d7-b742d4769839"},"vehicle_type_id":"4","last_reported":1727439433,"current_range_meters":16400,"station_id":"ce4bgn92rcd13ifvqbvg","pricing_plan_id":"cebpf4jnsgd1na2vs0mg"},{"bike_id":"5e7f6916-ee87-453e-b9a8-fe0ac4d101f3","system_id":"levelo_inurba_marseille","lat":43.28371,"lon":5.38633,"is_reserved":false,"is_disabled":false,"rental_uris":{"android":"levelo://app?vid=5e7f6916-ee87-453e-b9a8-fe0ac4d101f3","ios":"levelo://app?vid=5e7f6916-ee87-453e-b9a8-fe0ac4d101f3"},"vehicle_type_id":"4","last_reported":1727439433,"current_range_meters":37600,"station_id":"ce4bh492rcd13ifvqdvg","pricing_plan_id":"cebpf4jnsgd1na2vs0mg"},{"bike_id":"546a1bb6-ec80-485c-8b1e-bb866a56741e","system_id":"levelo_inurba_marseille","lat":43.33603,"lon":5.4103,"is_reserved":false,"is_disabled":false,"rental_uris":{"android":"levelo://app?vid=546a1bb6-ec80-485c-8b1e-bb866a56741e","ios":"levelo://app?vid=546a1bb6-ec80-485c-8b1e-bb866a56741e"},"vehicle_type_id":"4","last_reported":1727439433,"current_range_meters":20400,"station_id":"ce4bhqh2rcd13ifvqhmg","pricing_plan_id":"cebpf4jnsgd1na2vs0mg"},{"bike_id":"d6e67833-acc5-4818-9b53-89be7b70e034","system_id":"levelo_inurba_marseille","lat":43.28275,"lon":5.35073,"is_reserved":false,"is_disabled":false,"rental_uris":{"android":"levelo://app?vid=d6e67833-acc5-4818-9b53-89be7b70e034","ios":"levelo://app?vid=d6e67833-acc5-4818-9b53-89be7b70e034"},"vehicle_type_id":"4","last_reported":1727439433,"current_range_meters":12000,"station_id":"ce4bhbp2rcd13ifvqerg","pricing_plan_id":"cebpf4jnsgd1na2vs0mg"},{"bike_id":"6e85a293-de1d-4e9e-b0cc-3c03ea7ab5d5","system_id":"levelo_inurba_marseille","lat":43.28349,"lon":5.38107,"is_reserved":false,"is_disabled":false,"rental_uris":{"android":"levelo://app?vid=6e85a293-de1d-4e9e-b0cc-3c03ea7ab5d5","ios":"levelo://app?vid=6e85a293-de1d-4e9e-b0cc-3c03ea7ab5d5"},"vehicle_type_id":"4","last_reported":1727439433,"current_range_meters":38800,"station_id":"ce4bh412rcd13ifvqdr0","pricing_plan_id":"cebpf4jnsgd1na2vs0mg"},{"bike_id":"b4e35142-42f3-43e8-bc8a-9d99634fc02f","system_id":"levelo_inurba_marseille","lat":43.28987,"lon":5.37828,"is_reserved":false,"is_disabled":false,"rental_uris":{"android":"levelo://app?vid=b4e35142-42f3-43e8-bc8a-9d99634fc02f","ios":"levelo://app?vid=b4e35142-42f3-43e8-bc8a-9d99634fc02f"},"vehicle_type_id":"4","last_reported":1727439433,"current_range_meters":39200,"station_id":"ce4bh9p2rcd13ifvqed0","pricing_plan_id":"cebpf4jnsgd1na2vs0mg"},{"bike_id":"270f9ef9-5765-4156-a1e9-4fd1ce913f25","system_id":"levelo_inurba_marseille","lat":43.27056,"lon":5.40261,"is_reserved":false,"is_disabled":false,"rental_uris":{"android":"levelo://app?vid=270f9ef9-5765-4156-a1e9-4fd1ce913f25","ios":"levelo://app?vid=270f9ef9-5765-4156-a1e9-4fd1ce913f25"},"vehicle_type_id":"4","last_reported":1727439433,"current_range_meters":32000,"station_id":"ce4bhk92rcd13ifvqgc0","pricing_plan_id":"cebpf4jnsgd1na2vs0mg"},{"bike_id":"0bc79944-bb3c-4102-8f04-43893033cba6","system_id":"levelo_inurba_marseille","lat":43.318766,"lon":5.407347,"is_reserved":false,"is_disabled":false,"rental_uris":{"android":"levelo://app?vid=0bc79944-bb3c-4102-8f04-43893033cba6","ios":"levelo://app?vid=0bc79944-bb3c-4102-8f04-43893033cba6"},"vehicle_type_id":"4","last_reported":1727439433,"current_range_meters":12000,"station_id":"ce4bhq12rcd13ifvqhig","pricing_plan_id":"cebpf4jnsgd1na2vs0mg"},{"bike_id":"f27d7da4-71be-4f13-a382-953a0f89230d","system_id":"levelo_inurba_marseille","lat":43.24806,"lon":5.37459,"is_reserved":false,"is_disabled":false,"rental_uris":{"android":"levelo://app?vid=f27d7da4-71be-4f13-a382-953a0f89230d","ios":"levelo://app?vid=f27d7da4-71be-4f13-a382-953a0f89230d"},"vehicle_type_id":"4","last_reported":1727439433,"current_range_meters":19600,"station_id":"ce4bhgh2rcd13ifvqfb0","pricing_plan_id":"cebpf4jnsgd1na2vs0mg"},{"bike_id":"fa5cde2d-e208-4289-aeb1-c28a587d8c25","system_id":"levelo_inurba_marseille","lat":43.31716,"lon":5.37739,"is_reserved":false,"is_disabled":false,"rental_uris":{"android":"levelo://app?vid=fa5cde2d-e208-4289-aeb1-c28a587d8c25","ios":"levelo://app?vid=fa5cde2d-e208-4289-aeb1-c28a587d8c25"},"vehicle_type_id":"4","last_reported":1727439433,"current_range_meters":38000,"station_id":"ce4bgth2rcd13ifvqch0","pricing_plan_id":"cebpf4jnsgd1na2vs0mg"},{"bike_id":"c1612d84-0827-4862-913d-90b47cbd08c9","system_id":"levelo_inurba_marseille","lat":43.2804,"lon":5.36932,"is_reserved":false,"is_disabled":false,"rental_uris":{"android":"levelo://app?vid=c1612d84-0827-4862-913d-90b47cbd08c9","ios":"levelo://app?vid=c1612d84-0827-4862-913d-90b47cbd08c9"},"vehicle_type_id":"4","last_reported":1727439433,"current_range_meters":24400,"station_id":"ce4bha12rcd13ifvqef0","pricing_plan_id":"cebpf4jnsgd1na2vs0mg"},{"bike_id":"054f024a-b7fa-4b2d-a295-6fb6fa62a641","system_id":"levelo_inurba_marseille","lat":43.25503,"lon":5.37653,"is_reserved":false,"is_disabled":false,"rental_uris":{"android":"levelo://app?vid=054f024a-b7fa-4b2d-a295-6fb6fa62a641","ios":"levelo://app?vid=054f024a-b7fa-4b2d-a295-6fb6fa62a641"},"vehicle_type_id":"4","last_reported":1727439433,"current_range_meters":36400,"station_id":"ce4bhh12rcd13ifvqff0","pricing_plan_id":"cebpf4jnsgd1na2vs0mg"},{"bike_id":"fe27a010-fbb1-4a6b-bf2a-d1b35a83ac76","system_id":"levelo_inurba_marseille","lat":43.29198,"lon":5.39307,"is_reserved":false,"is_disabled":false,"rental_uris":{"android":"levelo://app?vid=fe27a010-fbb1-4a6b-bf2a-d1b35a83ac76","ios":"levelo://app?vid=fe27a010-fbb1-4a6b-bf2a-d1b35a83ac76"},"vehicle_type_id":"4","last_reported":1727439433,"current_range_meters":21600,"station_id":"ce4bh192rcd13ifvqdd0","pricing_plan_id":"cebpf4jnsgd1na2vs0mg"},{"bike_id":"e862ac20-0716-43f4-b733-c7ea116dea93","system_id":"levelo_inurba_marseille","lat":43.29973,"lon":5.38478,"is_reserved":false,"is_disabled":false,"rental_uris":{"android":"levelo://app?vid=e862ac20-0716-43f4-b733-c7ea116dea93","ios":"levelo://app?vid=e862ac20-0716-43f4-b733-c7ea116dea93"},"vehicle_type_id":"4","last_reported":1727439433,"current_range_meters":32800,"station_id":"ce4bgj92rcd13ifvqbd0","pricing_plan_id":"cebpf4jnsgd1na2vs0mg"},{"bike_id":"cb0c5f3b-d106-4009-86f7-a06e25c48729","system_id":"levelo_inurba_marseille","lat":43.26685,"lon":5.38273,"is_reserved":false,"is_disabled":false,"rental_uris":{"android":"levelo://app?vid=cb0c5f3b-d106-4009-86f7-a06e25c48729","ios":"levelo://app?vid=cb0c5f3b-d106-4009-86f7-a06e25c48729"},"vehicle_type_id":"4","last_reported":1727439433,"current_range_meters":17200,"station_id":"ce4bhg92rcd13ifvqf90","pricing_plan_id":"cebpf4jnsgd1na2vs0mg"},{"bike_id":"4a4bfd88-bdfc-4802-b3a8-e798e4274727","system_id":"levelo_inurba_marseille","lat":43.32292,"lon":5.38253,"is_reserved":false,"is_disabled":false,"rental_uris":{"android":"levelo://app?vid=4a4bfd88-bdfc-4802-b3a8-e798e4274727","ios":"levelo://app?vid=4a4bfd88-bdfc-4802-b3a8-e798e4274727"},"vehicle_type_id":"4","last_reported":1727439433,"current_range_meters":18000,"station_id":"ce4bhr12rcd13ifvqhqg","pricing_plan_id":"cebpf4jnsgd1na2vs0mg"},{"bike_id":"256cb185-1980-45b6-8488-19e981ada921","system_id":"levelo_inurba_marseille","lat":43.29798,"lon":5.38099,"is_reserved":false,"is_disabled":false,"rental_uris":{"android":"levelo://app?vid=256cb185-1980-45b6-8488-19e981ada921","ios":"levelo://app?vid=256cb185-1980-45b6-8488-19e981ada921"},"vehicle_type_id":"4","last_reported":1727439433,"current_range_meters":38000,"station_id":"ce4bgip2rcd13ifvqbb0","pricing_plan_id":"cebpf4jnsgd1na2vs0mg"},{"bike_id":"8a0d9a1a-839f-47d7-bbb5-59157c7ef034","system_id":"levelo_inurba_marseille","lat":43.29895,"lon":5.43662,"is_reserved":false,"is_disabled":false,"rental_uris":{"android":"levelo://app?vid=8a0d9a1a-839f-47d7-bbb5-59157c7ef034","ios":"levelo://app?vid=8a0d9a1a-839f-47d7-bbb5-59157c7ef034"},"vehicle_type_id":"4","last_reported":1727439433,"current_range_meters":17600,"station_id":"ce4bhpp2rcd13ifvqhfg","pricing_plan_id":"cebpf4jnsgd1na2vs0mg"},{"bike_id":"b7eb15c2-52e7-4325-989b-ee3f3d9ac551","system_id":"levelo_inurba_marseille","lat":43.29511,"lon":5.39034,"is_reserved":false,"is_disabled":false,"rental_uris":{"android":"levelo://app?vid=b7eb15c2-52e7-4325-989b-ee3f3d9ac551","ios":"levelo://app?vid=b7eb15c2-52e7-4325-989b-ee3f3d9ac551"},"vehicle_type_id":"4","last_reported":1727439433,"current_range_meters":22800,"station_id":"ce4bh3p2rcd13ifvqdp0","pricing_plan_id":"cebpf4jnsgd1na2vs0mg"},{"bike_id":"0b0363a1-dd9d-4402-a352-369512936639","system_id":"levelo_inurba_marseille","lat":43.28929,"lon":5.36399,"is_reserved":false,"is_disabled":false,"rental_uris":{"android":"levelo://app?vid=0b0363a1-dd9d-4402-a352-369512936639","ios":"levelo://app?vid=0b0363a1-dd9d-4402-a352-369512936639"},"vehicle_type_id":"4","last_reported":1727439433,"current_range_meters":4800,"station_id":"ce4bhc92rcd13ifvqetg","pricing_plan_id":"cebpf4jnsgd1na2vs0mg"},{"bike_id":"9cc24bcf-e985-4005-b81d-ef29241c98ab","system_id":"levelo_inurba_marseille","lat":43.337444,"lon":5.374475,"is_reserved":false,"is_disabled":false,"rental_uris":{"android":"levelo://app?vid=9cc24bcf-e985-4005-b81d-ef29241c98ab","ios":"levelo://app?vid=9cc24bcf-e985-4005-b81d-ef29241c98ab"},"vehicle_type_id":"4","last_reported":1727439433,"current_range_meters":35200,"station_id":"","pricing_plan_id":"cebpf4jnsgd1na2vs0mg"},{"bike_id":"b8d4cfe5-fa00-4798-bb3b-a5cd96b0fee5","system_id":"levelo_inurba_marseille","lat":43.24214,"lon":5.3843,"is_reserved":false,"is_disabled":false,"rental_uris":{"android":"levelo://app?vid=b8d4cfe5-fa00-4798-bb3b-a5cd96b0fee5","ios":"levelo://app?vid=b8d4cfe5-fa00-4798-bb3b-a5cd96b0fee5"},"vehicle_type_id":"4","last_reported":1727439433,"current_range_meters":2800,"station_id":"","pricing_plan_id":"cebpf4jnsgd1na2vs0mg"},{"bike_id":"eb369c78-3062-4d8f-b3c2-8109bd10bfdf","system_id":"levelo_inurba_marseille","lat":43.30596,"lon":5.37215,"is_reserved":false,"is_disabled":false,"rental_uris":{"android":"levelo://app?vid=eb369c78-3062-4d8f-b3c2-8109bd10bfdf","ios":"levelo://app?vid=eb369c78-3062-4d8f-b3c2-8109bd10bfdf"},"vehicle_type_id":"4","last_reported":1727439433,"current_range_meters":28800,"station_id":"ce4bgqh2rcd13ifvqc4g","pricing_plan_id":"cebpf4jnsgd1na2vs0mg"},{"bike_id":"5b17b9c3-6e47-4b2f-a095-1068b342daf4","system_id":"levelo_inurba_marseille","lat":43.28272,"lon":5.35071,"is_reserved":false,"is_disabled":false,"rental_uris":{"android":"levelo://app?vid=5b17b9c3-6e47-4b2f-a095-1068b342daf4","ios":"levelo://app?vid=5b17b9c3-6e47-4b2f-a095-1068b342daf4"},"vehicle_type_id":"4","last_reported":1727439433,"current_range_meters":30000,"station_id":"ce4bhbp2rcd13ifvqerg","pricing_plan_id":"cebpf4jnsgd1na2vs0mg"},{"bike_id":"9a85af26-51f9-4ef7-ad9d-83a785042cfc","system_id":"levelo_inurba_marseille","lat":43.24174,"lon":5.39725,"is_reserved":false,"is_disabled":false,"rental_uris":{"android":"levelo://app?vid=9a85af26-51f9-4ef7-ad9d-83a785042cfc","ios":"levelo://app?vid=9a85af26-51f9-4ef7-ad9d-83a785042cfc"},"vehicle_type_id":"4","last_reported":1727439433,"current_range_meters":25600,"station_id":"ce4bhn12rcd13ifvqgpg","pricing_plan_id":"cebpf4jnsgd1na2vs0mg"},{"bike_id":"6bd719cc-e36c-4f38-9c6a-809ce4abd235","system_id":"levelo_inurba_marseille","lat":43.28701,"lon":5.39985,"is_reserved":false,"is_disabled":false,"rental_uris":{"android":"levelo://app?vid=6bd719cc-e36c-4f38-9c6a-809ce4abd235","ios":"levelo://app?vid=6bd719cc-e36c-4f38-9c6a-809ce4abd235"},"vehicle_type_id":"4","last_reported":1727439433,"current_range_meters":38400,"station_id":"ce4bho92rcd13ifvqh3g","pricing_plan_id":"cebpf4jnsgd1na2vs0mg"},{"bike_id":"0b25545b-6309-4e19-84a7-3959f3cf1cd0","system_id":"levelo_inurba_marseille","lat":43.29574,"lon":5.37493,"is_reserved":false,"is_disabled":false,"rental_uris":{"android":"levelo://app?vid=0b25545b-6309-4e19-84a7-3959f3cf1cd0","ios":"levelo://app?vid=0b25545b-6309-4e19-84a7-3959f3cf1cd0"},"vehicle_type_id":"4","last_reported":1727439433,"current_range_meters":18000,"station_id":"ce4bgh92rcd13ifvqb50","pricing_plan_id":"cebpf4jnsgd1na2vs0mg"},{"bike_id":"5cb98cd8-83ab-4643-864d-43275f781b90","system_id":"levelo_inurba_marseille","lat":43.23194,"lon":5.35551,"is_reserved":false,"is_disabled":false,"rental_uris":{"android":"levelo://app?vid=5cb98cd8-83ab-4643-864d-43275f781b90","ios":"levelo://app?vid=5cb98cd8-83ab-4643-864d-43275f781b90"},"vehicle_type_id":"4","last_reported":1727439433,"current_range_meters":20000,"station_id":"ce4bhu92rcd13ifvqi70","pricing_plan_id":"cebpf4jnsgd1na2vs0mg"},{"bike_id":"fbf59984-32a9-43ff-9ea3-7cd1e707c19c","system_id":"levelo_inurba_marseille","lat":43.23181,"lon":5.39986,"is_reserved":false,"is_disabled":false,"rental_uris":{"android":"levelo://app?vid=fbf59984-32a9-43ff-9ea3-7cd1e707c19c","ios":"levelo://app?vid=fbf59984-32a9-43ff-9ea3-7cd1e707c19c"},"vehicle_type_id":"4","last_reported":1727439433,"current_range_meters":21600,"station_id":"ce4bhn12rcd13ifvqgqg","pricing_plan_id":"cebpf4jnsgd1na2vs0mg"},{"bike_id":"aeb05550-f878-4143-be2c-115d32951d7a","system_id":"levelo_inurba_marseille","lat":43.23151,"lon":5.43704,"is_reserved":false,"is_disabled":false,"rental_uris":{"android":"levelo://app?vid=aeb05550-f878-4143-be2c-115d32951d7a","ios":"levelo://app?vid=aeb05550-f878-4143-be2c-115d32951d7a"},"vehicle_type_id":"4","last_reported":1727439433,"current_range_meters":38000,"station_id":"ce4bhmp2rcd13ifvqgog","pricing_plan_id":"cebpf4jnsgd1na2vs0mg"},{"bike_id":"cbed7d35-31a3-4777-95dd-7b4af024de4e","system_id":"levelo_inurba_marseille","lat":43.30598,"lon":5.37142,"is_reserved":false,"is_disabled":false,"rental_uris":{"android":"levelo://app?vid=cbed7d35-31a3-4777-95dd-7b4af024de4e","ios":"levelo://app?vid=cbed7d35-31a3-4777-95dd-7b4af024de4e"},"vehicle_type_id":"4","last_reported":1727439433,"current_range_meters":10800,"station_id":"","pricing_plan_id":"cebpf4jnsgd1na2vs0mg"},{"bike_id":"d39dd564-fa97-4ff8-a663-1e71434564ac","system_id":"levelo_inurba_marseille","lat":43.30172,"lon":5.36602,"is_reserved":false,"is_disabled":false,"rental_uris":{"android":"levelo://app?vid=d39dd564-fa97-4ff8-a663-1e71434564ac","ios":"levelo://app?vid=d39dd564-fa97-4ff8-a663-1e71434564ac"},"vehicle_type_id":"4","last_reported":1727439433,"current_range_meters":35600,"station_id":"ce4bgrh2rcd13ifvqc8g","pricing_plan_id":"cebpf4jnsgd1na2vs0mg"},{"bike_id":"5baedd1a-eaf3-4198-bf93-8736d1ccd1b6","system_id":"levelo_inurba_marseille","lat":43.25582,"lon":5.38225,"is_reserved":false,"is_disabled":false,"rental_uris":{"android":"levelo://app?vid=5baedd1a-eaf3-4198-bf93-8736d1ccd1b6","ios":"levelo://app?vid=5baedd1a-eaf3-4198-bf93-8736d1ccd1b6"},"vehicle_type_id":"4","last_reported":1727439433,"current_range_meters":21600,"station_id":"ce4bhih2rcd13ifvqfs0","pricing_plan_id":"cebpf4jnsgd1na2vs0mg"},{"bike_id":"c82af2eb-fe3a-4fd3-98b9-4deee17e0bbd","system_id":"levelo_inurba_marseille","lat":43.27371,"lon":5.36255,"is_reserved":false,"is_disabled":false,"rental_uris":{"android":"levelo://app?vid=c82af2eb-fe3a-4fd3-98b9-4deee17e0bbd","ios":"levelo://app?vid=c82af2eb-fe3a-4fd3-98b9-4deee17e0bbd"},"vehicle_type_id":"4","last_reported":1727439433,"current_range_meters":31200,"station_id":"ce4bhbh2rcd13ifvqeo0","pricing_plan_id":"cebpf4jnsgd1na2vs0mg"},{"bike_id":"70eca911-0ae7-4fbc-bad3-fadd23bdcdc0","system_id":"levelo_inurba_marseille","lat":43.24999,"lon":5.38925,"is_reserved":false,"is_disabled":false,"rental_uris":{"android":"levelo://app?vid=70eca911-0ae7-4fbc-bad3-fadd23bdcdc0","ios":"levelo://app?vid=70eca911-0ae7-4fbc-bad3-fadd23bdcdc0"},"vehicle_type_id":"4","last_reported":1727439433,"current_range_meters":10800,"station_id":"ce4bhgp2rcd13ifvqfd0","pricing_plan_id":"cebpf4jnsgd1na2vs0mg"},{"bike_id":"f40bf1fa-1f69-4f14-8be3-78cac1d0015b","system_id":"levelo_inurba_marseille","lat":43.306,"lon":5.3722,"is_reserved":false,"is_disabled":false,"rental_uris":{"android":"levelo://app?vid=f40bf1fa-1f69-4f14-8be3-78cac1d0015b","ios":"levelo://app?vid=f40bf1fa-1f69-4f14-8be3-78cac1d0015b"},"vehicle_type_id":"4","last_reported":1727439433,"current_range_meters":39200,"station_id":"ce4bgqh2rcd13ifvqc4g","pricing_plan_id":"cebpf4jnsgd1na2vs0mg"},{"bike_id":"8270d121-4df1-4e44-94fe-0f20258368c9","system_id":"levelo_inurba_marseille","lat":43.29418,"lon":5.3862,"is_reserved":false,"is_disabled":false,"rental_uris":{"android":"levelo://app?vid=8270d121-4df1-4e44-94fe-0f20258368c9","ios":"levelo://app?vid=8270d121-4df1-4e44-94fe-0f20258368c9"},"vehicle_type_id":"4","last_reported":1727439433,"current_range_meters":35600,"station_id":"ce4bh2h2rcd13ifvqdh0","pricing_plan_id":"cebpf4jnsgd1na2vs0mg"},{"bike_id":"14104d25-787e-4a6f-a734-d5ce9e8e8af9","system_id":"levelo_inurba_marseille","lat":43.31761,"lon":5.39017,"is_reserved":false,"is_disabled":false,"rental_uris":{"android":"levelo://app?vid=14104d25-787e-4a6f-a734-d5ce9e8e8af9","ios":"levelo://app?vid=14104d25-787e-4a6f-a734-d5ce9e8e8af9"},"vehicle_type_id":"4","last_reported":1727439433,"current_range_meters":36400,"station_id":"ce4bhqp2rcd13ifvqhng","pricing_plan_id":"cebpf4jnsgd1na2vs0mg"},{"bike_id":"5b54fd52-28f2-40b5-9f0a-a65f8691051d","system_id":"levelo_inurba_marseille","lat":43.26566,"lon":5.39,"is_reserved":false,"is_disabled":false,"rental_uris":{"android":"levelo://app?vid=5b54fd52-28f2-40b5-9f0a-a65f8691051d","ios":"levelo://app?vid=5b54fd52-28f2-40b5-9f0a-a65f8691051d"},"vehicle_type_id":"4","last_reported":1727439433,"current_range_meters":10000,"station_id":"ce4bhe12rcd13ifvqf30","pricing_plan_id":"cebpf4jnsgd1na2vs0mg"},{"bike_id":"10cd40b7-5439-4132-a96d-d869fb307201","system_id":"levelo_inurba_marseille","lat":43.2985,"lon":5.36283,"is_reserved":false,"is_disabled":false,"rental_uris":{"android":"levelo://app?vid=10cd40b7-5439-4132-a96d-d869fb307201","ios":"levelo://app?vid=10cd40b7-5439-4132-a96d-d869fb307201"},"vehicle_type_id":"4","last_reported":1727439433,"current_range_meters":24000,"station_id":"ce4bgpp2rcd13ifvqc3g","pricing_plan_id":"cebpf4jnsgd1na2vs0mg"},{"bike_id":"e7191d5b-f40f-4226-9e64-b9b24c9f6523","system_id":"levelo_inurba_marseille","lat":43.28942,"lon":5.36638,"is_reserved":false,"is_disabled":false,"rental_uris":{"android":"levelo://app?vid=e7191d5b-f40f-4226-9e64-b9b24c9f6523","ios":"levelo://app?vid=e7191d5b-f40f-4226-9e64-b9b24c9f6523"},"vehicle_type_id":"4","last_reported":1727439433,"current_range_meters":24400,"station_id":"ce4bhap2rcd13ifvqek0","pricing_plan_id":"cebpf4jnsgd1na2vs0mg"},{"bike_id":"5e3ea835-90c8-43bd-aeda-cd1344a5ef76","system_id":"levelo_inurba_marseille","lat":43.33605,"lon":5.41038,"is_reserved":false,"is_disabled":false,"rental_uris":{"android":"levelo://app?vid=5e3ea835-90c8-43bd-aeda-cd1344a5ef76","ios":"levelo://app?vid=5e3ea835-90c8-43bd-aeda-cd1344a5ef76"},"vehicle_type_id":"4","last_reported":1727439433,"current_range_meters":27600,"station_id":"ce4bhqh2rcd13ifvqhmg","pricing_plan_id":"cebpf4jnsgd1na2vs0mg"},{"bike_id":"adb3e991-0a8d-4581-bd58-8a31fea560c5","system_id":"levelo_inurba_marseille","lat":43.29968,"lon":5.38498,"is_reserved":false,"is_disabled":false,"rental_uris":{"android":"levelo://app?vid=adb3e991-0a8d-4581-bd58-8a31fea560c5","ios":"levelo://app?vid=adb3e991-0a8d-4581-bd58-8a31fea560c5"},"vehicle_type_id":"4","last_reported":1727439433,"current_range_meters":38800,"station_id":"ce4bgj92rcd13ifvqbd0","pricing_plan_id":"cebpf4jnsgd1na2vs0mg"},{"bike_id":"fb57c025-328c-4412-b8c8-acd31ec519bd","system_id":"levelo_inurba_marseille","lat":43.25847,"lon":5.38868,"is_reserved":false,"is_disabled":false,"rental_uris":{"android":"levelo://app?vid=fb57c025-328c-4412-b8c8-acd31ec519bd","ios":"levelo://app?vid=fb57c025-328c-4412-b8c8-acd31ec519bd"},"vehicle_type_id":"4","last_reported":1727439433,"current_range_meters":36800,"station_id":"","pricing_plan_id":"cebpf4jnsgd1na2vs0mg"},{"bike_id":"013e6cdd-ae35-4bd7-b069-da3827343411","system_id":"levelo_inurba_marseille","lat":43.27499,"lon":5.42457,"is_reserved":false,"is_disabled":false,"rental_uris":{"android":"levelo://app?vid=013e6cdd-ae35-4bd7-b069-da3827343411","ios":"levelo://app?vid=013e6cdd-ae35-4bd7-b069-da3827343411"},"vehicle_type_id":"4","last_reported":1727439433,"current_range_meters":33600,"station_id":"ce4bhn92rcd13ifvqgrg","pricing_plan_id":"cebpf4jnsgd1na2vs0mg"},{"bike_id":"aadda8cf-a84a-4bd4-b6cd-10c24179ac5c","system_id":"levelo_inurba_marseille","lat":43.29868,"lon":5.39735,"is_reserved":false,"is_disabled":false,"rental_uris":{"android":"levelo://app?vid=aadda8cf-a84a-4bd4-b6cd-10c24179ac5c","ios":"levelo://app?vid=aadda8cf-a84a-4bd4-b6cd-10c24179ac5c"},"vehicle_type_id":"4","last_reported":1727439433,"current_range_meters":24800,"station_id":"ce4bh0h2rcd13ifvqd50","pricing_plan_id":"cebpf4jnsgd1na2vs0mg"},{"bike_id":"3c09dc5a-1ffc-480d-a755-4d544b76605b","system_id":"levelo_inurba_marseille","lat":43.306285,"lon":5.374228,"is_reserved":false,"is_disabled":false,"rental_uris":{"android":"levelo://app?vid=3c09dc5a-1ffc-480d-a755-4d544b76605b","ios":"levelo://app?vid=3c09dc5a-1ffc-480d-a755-4d544b76605b"},"vehicle_type_id":"4","last_reported":1727439433,"current_range_meters":24400,"station_id":"ce4bhn12rcd13ifvqgqg","pricing_plan_id":"cebpf4jnsgd1na2vs0mg"},{"bike_id":"6c1fda78-a27a-41ea-9d99-03a440f5f874","system_id":"levelo_inurba_marseille","lat":43.2306,"lon":5.3549,"is_reserved":false,"is_disabled":false,"rental_uris":{"android":"levelo://app?vid=6c1fda78-a27a-41ea-9d99-03a440f5f874","ios":"levelo://app?vid=6c1fda78-a27a-41ea-9d99-03a440f5f874"},"vehicle_type_id":"4","last_reported":1727439433,"current_range_meters":36800,"station_id":"cpo3342slgdg3j2ifvpg","pricing_plan_id":"cebpf4jnsgd1na2vs0mg"},{"bike_id":"d8c933b6-4dc6-478d-bfef-0ee0bdfc7232","system_id":"levelo_inurba_marseille","lat":43.33606,"lon":5.41025,"is_reserved":false,"is_disabled":false,"rental_uris":{"android":"levelo://app?vid=d8c933b6-4dc6-478d-bfef-0ee0bdfc7232","ios":"levelo://app?vid=d8c933b6-4dc6-478d-bfef-0ee0bdfc7232"},"vehicle_type_id":"4","last_reported":1727439433,"current_range_meters":13600,"station_id":"ce4bhqh2rcd13ifvqhmg","pricing_plan_id":"cebpf4jnsgd1na2vs0mg"},{"bike_id":"32c3108a-8fb7-4763-af29-954a41ef6167","system_id":"levelo_inurba_marseille","lat":43.29979,"lon":5.38498,"is_reserved":false,"is_disabled":false,"rental_uris":{"android":"levelo://app?vid=32c3108a-8fb7-4763-af29-954a41ef6167","ios":"levelo://app?vid=32c3108a-8fb7-4763-af29-954a41ef6167"},"vehicle_type_id":"4","last_reported":1727439433,"current_range_meters":16000,"station_id":"ce4bgj92rcd13ifvqbd0","pricing_plan_id":"cebpf4jnsgd1na2vs0mg"},{"bike_id":"ac84c71b-13e3-42e6-b936-81d7c045258c","system_id":"levelo_inurba_marseille","lat":43.29358,"lon":5.37833,"is_reserved":false,"is_disabled":false,"rental_uris":{"android":"levelo://app?vid=ac84c71b-13e3-42e6-b936-81d7c045258c","ios":"levelo://app?vid=ac84c71b-13e3-42e6-b936-81d7c045258c"},"vehicle_type_id":"4","last_reported":1727439433,"current_range_meters":8800,"station_id":"ce4bgjh2rcd13ifvqbf0","pricing_plan_id":"cebpf4jnsgd1na2vs0mg"},