{"last_updated":1748521202,"ttl":60,"version":"2.2","data":{"bikes":[{"bike_id":"55d42eeb-6b71-4987-a0f2-3d758b10d43e","system_id":"levelo_inurba_marseille","lat":43.33771,"lon":5.37424,"is_reserved":false,"is_disabled":true,"rental_uris":{"android":"levelo://app?vid=55d42eeb-6b71-4987-a0f2-3d758b10d43e","ios":"levelo://app?vid=55d42eeb-6b71-4987-a0f2-3d758b10d43e"},"vehicle_type_id":"4","last_reported":1748521202,"current_range_meters":0,"station_id":"","pricing_plan_id":"cebpf4jnsgd1na2vs0mg"},{"bike_id":"b7fe4621-b706-42f0-9085-4811142f84e8","system_id":"levelo_inurba_marseille","lat":43.337499,"lon":5.374469,"is_reserved":false,"is_disabled":true,"rental_uris":{"android":"levelo://app?vid=b7fe4621-b706-42f0-9085-4811142f84e8","ios":"levelo://app?vid=b7fe4621-b706-42f0-9085-4811142f84e8"},"vehicle_type_id":"4","last_reported":1748521202,"current_range_meters":0,"station_id":"","pricing_plan_id":"cebpf4jnsgd1na2vs0mg"},{"bike_id":"ad402f0f-3192-410c-afac-8cf064a40c6d","system_id":"levelo_inurba_marseille","lat":43.337444,"lon":5.374475,"is_reserved":false,"is_disabled":true,"rental_uris":{"android":"levelo://app?vid=ad402f0f-3192-410c-afac-8cf064a40c6d","ios":"levelo://app?vid=ad402f0f-3192-410c-afac-8cf064a40c6d"},"vehicle_type_id":"4","last_reported":1748521202,"current_range_meters":0,"station_id":"","pricing_plan_id":"cebpf4jnsgd1na2vs0mg"},{"bike_id":"49a884c6-32c5-4489-8361-5676db2be1d3","system_id":"levelo_inurba_marseille","lat":43.30469,"lon":5.37101,"is_reserved":false,"is_disabled":true,"rental_uris":{"android":"levelo://app?vid=49a884c6-32c5-4489-8361-5676db2be1d3","ios":"levelo://app?vid=49a884c6-32c5-4489-8361-5676db2be1d3"},"vehicle_type_id":"4","last_reported":1748521202,"current_range_meters":0,"station_id":"","pricing_plan_id":"cebpf4jnsgd1na2vs0mg"},{"bike_id":"80dc1064-d63f-4a22-ad21-d8abd70986c0","system_id":"levelo_inurba_marseille","lat":43.337504,"lon":5.374836,"is_reserved":false,"is_disabled":true,"rental_uris":{"android":"levelo://app?vid=80dc1064-d63f-4a22-ad21-d8abd70986c0","ios":"levelo://app?vid=80dc1064-d63f-4a22-ad21-d8abd70986c0"},"vehicle_type_id":"4","last_reported":1748521202,"current_range_meters":0,"station_id":"","pricing_plan_id":"cebpf4jnsgd1na2vs0mg"},{"bike_id":"2fd7e160-685c-4858-b57b-dcaef27a8e94","system_id":"levelo_inurba_marseille","lat":43.230331,"lon":5.401847,"is_reserved":false,"is_disabled":true,"rental_uris":{"android":"levelo://app?vid=2fd7e160-685c-4858-b57b-dcaef27a8e94","ios":"levelo://app?vid=2fd7e160-685c-4858-b57b-dcaef27a8e94"},"vehicle_type_id":"4","last_reported":1748521202,"current_range_meters":0,"station_id":"","pricing_plan_id":"cebpf4jnsgd1na2vs0mg"},{"bike_id":"65e836bc-c2b8-4585-b651-35d083d8f033","system_id":"levelo_inurba_marseille","lat":43.29342,"lon":5.37192,"is_reserved":false,"is_disabled":true,"rental_uris":{"android":"levelo://app?vid=65e836bc-c2b8-4585-b651-35d083d8f033","ios":"levelo://app?vid=65e836bc-c2b8-4585-b651-35d083d8f033"},"vehicle_type_id":"4","last_reported":1748521202,"current_range_meters":0,"station_id":"ce4bgh92rcd13ifvqb40","pricing_plan_id":"cebpf4jnsgd1na2vs0mg"},{"bike_id":"06bb9c6c-7415-4937-8529-d70e1ee325e3","system_id":"levelo_inurba_marseille","lat":43.284055,"lon":5.37515,"is_reserved":false,"is_disabled":true,"rental_uris":{"android":"levelo://app?vid=06bb9c6c-7415-4937-8529-d70e1ee325e3","ios":"levelo://app?vid=06bb9c6c-7415-4937-8529-d70e1ee325e3"},"vehicle_type_id":"4","last_reported":1748521202,"current_range_meters":0,"station_id":"ce4bh412rcd13ifvqds0","pricing_plan_id":"cebpf4jnsgd1na2vs0mg"},{"bike_id":"344c1b63-fbaf-4de8-9bcb-0817d8dc14b9","system_id":"levelo_inurba_marseille","lat":43.290053,"lon":5.356123,"is_reserved":false,"is_disabled":true,"rental_uris":{"android":"levelo://app?vid=344c1b63-fbaf-4de8-9bcb-0817d8dc14b9","ios":"levelo://app?vid=344c1b63-fbaf-4de8-9bcb-0817d8dc14b9"},"vehicle_type_id":"4","last_reported":1748521202,"current_range_meters":0,"station_id":"ce4bhb92rcd13ifvqen0","pricing_plan_id":"cebpf4jnsgd1na2vs0mg"},{"bike_id":"6e57e3cb-d0ae-42c9-8604-baf9fcf44b90","system_id":"levelo_inurba_marseille","lat":43.27377,"lon":5.36253,"is_reserved":false,"is_disabled":true,"rental_uris":{"android":"levelo://app?vid=6e57e3cb-d0ae-42c9-8604-baf9fcf44b90","ios":"levelo://app?vid=6e57e3cb-d0ae-42c9-8604-baf9fcf44b90"},"vehicle_type_id":"4","last_reported":1748521202,"current_range_meters":0,"station_id":"ce4bhbh2rcd13ifvqeo0","pricing_plan_id":"cebpf4jnsgd1na2vs0mg"},{"bike_id":"2d70b3b8-474d-4b1a-a614-bc159cfd44ef","system_id":"levelo_inurba_marseille","lat":43.28413,"lon":5.34997,"is_reserved":false,"is_disabled":true,"rental_uris":{"android":"levelo://app?vid=2d70b3b8-474d-4b1a-a614-bc159cfd44ef","ios":"levelo://app?vid=2d70b3b8-474d-4b1a-a614-bc159cfd44ef"},"vehicle_type_id":"4","last_reported":1748521202,"current_range_meters":0,"station_id":"ce4bhbh2rcd13ifvqepg","pricing_plan_id":"cebpf4jnsgd1na2vs0mg"},{"bike_id":"88af28f6-8f6f-49ef-9bbb-367de3b07193","system_id":"levelo_inurba_marseille","lat":43.26548,"lon":5.37288,"is_reserved":false,"is_disabled":true,"rental_uris":{"android":"levelo://app?vid=88af28f6-8f6f-49ef-9bbb-367de3b07193","ios":"levelo://app?vid=88af28f6-8f6f-49ef-9bbb-367de3b07193"},"vehicle_type_id":"4","last_reported":1748521202,"current_range_meters":0,"station_id":"ce4bhg12rcd13ifvqf70","pricing_plan_id":"cebpf4jnsgd1na2vs0mg"},{"bike_id":"23058724-881f-401f-ab87-f1bc4c003186","system_id":"levelo_inurba_marseille","lat":43.27323,"lon":5.39088,"is_reserved":false,"is_disabled":true,"rental_uris":{"android":"levelo://app?vid=23058724-881f-401f-ab87-f1bc4c003186","ios":"levelo://app?vid=23058724-881f-401f-ab87-f1bc4c003186"},"vehicle_type_id":"4","last_reported":1748521202,"current_range_meters":0,"station_id":"ce4bhgp2rcd13ifvqfe0","pricing_plan_id":"cebpf4jnsgd1na2vs0mg"},{"bike_id":"b3ddc3fc-eeda-4439-ba62-9a8c21019159","system_id":"levelo_inurba_marseille","lat":43.255023,"lon":5.376477,"is_reserved":false,"is_disabled":true,"rental_uris":{"android":"levelo://app?vid=b3ddc3fc-eeda-4439-ba62-9a8c21019159","ios":"levelo://app?vid=b3ddc3fc-eeda-4439-ba62-9a8c21019159"},"vehicle_type_id":"4","last_reported":1748521202,"current_range_meters":0,"station_id":"ce4bhh12rcd13ifvqff0","pricing_plan_id":"cebpf4jnsgd1na2vs0mg"},{"bike_id":"0d76e503-0427-40b1-9eb7-acadbf88563e","system_id":"levelo_inurba_marseille","lat":43.27075,"lon":5.42285,"is_reserved":false,"is_disabled":true,"rental_uris":{"android":"levelo://app?vid=0d76e503-0427-40b1-9eb7-acadbf88563e","ios":"levelo://app?vid=0d76e503-0427-40b1-9eb7-acadbf88563e"},"vehicle_type_id":"4","last_reported":1748521202,"current_range_meters":0,"station_id":"ce4bhk92rcd13ifvqgb0","pricing_plan_id":"cebpf4jnsgd1na2vs0mg"},{"bike_id":"6feb0682-b64d-44b1-b299-bf634ffe7a42","system_id":"levelo_inurba_marseille","lat":43.23192,"lon":5.3998,"is_reserved":false,"is_disabled":true,"rental_uris":{"android":"levelo://app?vid=6feb0682-b64d-44b1-b299-bf634ffe7a42","ios":"levelo://app?vid=6feb0682-b64d-44b1-b299-bf634ffe7a42"},"vehicle_type_id":"4","last_reported":1748521202,"current_range_meters":0,"station_id":"ce4bhn12rcd13ifvqgqg","pricing_plan_id":"cebpf4jnsgd1na2vs0mg"},{"bike_id":"c2c49624-566c-4f43-8a1e-6984934438d2","system_id":"levelo_inurba_marseille","lat":43.24067,"lon":5.37763,"is_reserved":false,"is_disabled":true,"rental_uris":{"android":"levelo://app?vid=c2c49624-566c-4f43-8a1e-6984934438d2","ios":"levelo://app?vid=c2c49624-566c-4f43-8a1e-6984934438d2"},"vehicle_type_id":"4","last_reported":1748521202,"current_range_meters":0,"station_id":"ce4bhnp2rcd13ifvqgvg","pricing_plan_id":"cebpf4jnsgd1na2vs0mg"},{"bike_id":"50a5a7d2-c52e-424c-be41-5a35de31dfee","system_id":"levelo_inurba_marseille","lat":43.30414,"lon":5.4129,"is_reserved":false,"is_disabled":true,"rental_uris":{"android":"levelo://app?vid=50a5a7d2-c52e-424c-be41-5a35de31dfee","ios":"levelo://app?vid=50a5a7d2-c52e-424c-be41-5a35de31dfee"},"vehicle_type_id":"4","last_reported":1748521202,"current_range_meters":0,"station_id":"ce4bhop2rcd13ifvqh8g","pricing_plan_id":"cebpf4jnsgd1na2vs0mg"},{"bike_id":"e0f3f54d-4e6e-4cd8-8266-0d35d27db2bb","system_id":"levelo_inurba_marseille","lat":43.23191,"lon":5.35559,"is_reserved":false,"is_disabled":true,"rental_uris":{"android":"levelo://app?vid=e0f3f54d-4e6e-4cd8-8266-0d35d27db2bb","ios":"levelo://app?vid=e0f3f54d-4e6e-4cd8-8266-0d35d27db2bb"},"vehicle_type_id":"4","last_reported":1748521202,"current_range_meters":0,"station_id":"ce4bhu92rcd13ifvqi70","pricing_plan_id":"cebpf4jnsgd1na2vs0mg"},{"bike_id":"ecbdbf46-9056-4a5f-bf09-cefcb2d2cd53","system_id":"levelo_inurba_marseille","lat":43.23192,"lon":5.35566,"is_reserved":false,"is_disabled":true,"rental_uris":{"android":"levelo://app?vid=ecbdbf46-9056-4a5f-bf09-cefcb2d2cd53","ios":"levelo://app?vid=ecbdbf46-9056-4a5f-bf09-cefcb2d2cd53"},"vehicle_type_id":"4","last_reported":1748521202,"current_range_meters":0,"station_id":"ce4bhu92rcd13ifvqi70","pricing_plan_id":"cebpf4jnsgd1na2vs0mg"},{"bike_id":"ce43c11c-bf48-4fc7-a423-2c2d242d650b","system_id":"levelo_inurba_marseille","lat":43.243405,"lon":5.39639,"is_reserved":false,"is_disabled":true,"rental_uris":{"android":"levelo://app?vid=ce43c11c-bf48-4fc7-a423-2c2d242d650b","ios":"levelo://app?vid=ce43c11c-bf48-4fc7-a423-2c2d242d650b"},"vehicle_type_id":"4","last_reported":1748521202,"current_range_meters":400,"station_id":"ce4bhlp2rcd13ifvqgjg","pricing_plan_id":"cebpf4jnsgd1na2vs0mg"},{"bike_id":"e3f76541-b963-4c50-8c75-12f2a435430c","system_id":"levelo_inurba_marseille","lat":43.273126,"lon":5.390854,"is_reserved":false,"is_disabled":true,"rental_uris":{"android":"levelo://app?vid=e3f76541-b963-4c50-8c75-12f2a435430c","ios":"levelo://app?vid=e3f76541-b963-4c50-8c75-12f2a435430c"},"vehicle_type_id":"4","last_reported":1748521202,"current_range_meters":800,"station_id":"ce4bhgp2rcd13ifvqfe0","pricing_plan_id":"cebpf4jnsgd1na2vs0mg"},{"bike_id":"4cf20789-3fc3-4a22-8dee-92fe1dd0185c","system_id":"levelo_inurba_marseille","lat":43.290091,"lon":5.356191,"is_reserved":false,"is_disabled":true,"rental_uris":{"android":"levelo://app?vid=4cf20789-3fc3-4a22-8dee-92fe1dd0185c","ios":"levelo://app?vid=4cf20789-3fc3-4a22-8dee-92fe1dd0185c"},"vehicle_type_id":"4","last_reported":1748521202,"current_range_meters":1200,"station_id":"","pricing_plan_id":"cebpf4jnsgd1na2vs0mg"},{"bike_id":"d6fb0e46-253b-4a0b-af63-6a4ba1651601","system_id":"levelo_inurba_marseille","lat":43.29982,"lon":5.37176,"is_reserved":false,"is_disabled":true,"rental_uris":{"android":"levelo://app?vid=d6fb0e46-253b-4a0b-af63-6a4ba1651601","ios":"levelo://app?vid=d6fb0e46-253b-4a0b-af63-6a4ba1651601"},"vehicle_type_id":"4","last_reported":1748521202,"current_range_meters":1200,"station_id":"ce4bgr92rcd13ifvqc7g","pricing_plan_id":"cebpf4jnsgd1na2vs0mg"},{"bike_id":"e99bdc0a-3063-4a35-95b0-32897cec20e8","system_id":"levelo_inurba_marseille","lat":43.29033,"lon":5.38659,"is_reserved":false,"is_disabled":true,"rental_uris":{"android":"levelo://app?vid=e99bdc0a-3063-4a35-95b0-32897cec20e8","ios":"levelo://app?vid=e99bdc0a-3063-4a35-95b0-32897cec20e8"},"vehicle_type_id":"4","last_reported":1748521202,"current_range_meters":1200,"station_id":"ce4bh4p2rcd13ifvqe0g","pricing_plan_id":"cebpf4jnsgd1na2vs0mg"},{"bike_id":"397615b6-f695-4e12-97a7-b97d738e1d02","system_id":"levelo_inurba_marseille","lat":43.27975,"lon":5.38763,"is_reserved":false,"is_disabled":true,"rental_uris":{"android":"levelo://app?vid=397615b6-f695-4e12-97a7-b97d738e1d02","ios":"levelo://app?vid=397615b6-f695-4e12-97a7-b97d738e1d02"},"vehicle_type_id":"4","last_reported":1748521202,"current_range_meters":1200,"station_id":"ce4bhg12rcd13ifvqf80","pricing_plan_id":"cebpf4jnsgd1na2vs0mg"},{"bike_id":"6ec4ab81-5c87-46f2-be91-2481a5911e1b","system_id":"levelo_inurba_marseille","lat":43.29026,"lon":5.38642,"is_reserved":false,"is_disabled":true,"rental_uris":{"android":"levelo://app?vid=6ec4ab81-5c87-46f2-be91-2481a5911e1b","ios":"levelo://app?vid=6ec4ab81-5c87-46f2-be91-2481a5911e1b"},"vehicle_type_id":"4","last_reported":1748521202,"current_range_meters":2000,"station_id":"ce4bh4p2rcd13ifvqe0g","pricing_plan_id":"cebpf4jnsgd1na2vs0mg"},{"bike_id":"93ad180b-38ef-4d40-b96b-4bb4ba9a0ff9","system_id":"levelo_inurba_marseille","lat":43.29278,"lon":5.36842,"is_reserved":false,"is_disabled":true,"rental_uris":{"android":"levelo://app?vid=93ad180b-38ef-4d40-b96b-4bb4ba9a0ff9","ios":"levelo://app?vid=93ad180b-38ef-4d40-b96b-4bb4ba9a0ff9"},"vehicle_type_id":"4","last_reported":1748521202,"current_range_meters":2000,"station_id":"ce4bhbp2rcd13ifvqesg","pricing_plan_id":"cebpf4jnsgd1na2vs0mg"},{"bike_id":"48553ef7-6022-483a-88ee-097e6c9d7daf","system_id":"levelo_inurba_marseille","lat":43.25497,"lon":5.37648,"is_reserved":false,"is_disabled":true,"rental_uris":{"android":"levelo://app?vid=48553ef7-6022-483a-88ee-097e6c9d7daf","ios":"levelo://app?vid=48553ef7-6022-483a-88ee-097e6c9d7daf"},"vehicle_type_id":"4","last_reported":1748521202,"current_range_meters":2000,"station_id":"ce4bhh12rcd13ifvqff0","pricing_plan_id":"cebpf4jnsgd1na2vs0mg"},{"bike_id":"0886802e-cb55-4293-82ca-a7b4fbc394f6","system_id":"levelo_inurba_marseille","lat":43.27377,"lon":5.3626,"is_reserved":false,"is_disabled":false,"rental_uris":{"android":"levelo://app?vid=0886802e-cb55-4293-82ca-a7b4fbc394f6","ios":"levelo://app?vid=0886802e-cb55-4293-82ca-a7b4fbc394f6"},"vehicle_type_id":"4","last_reported":1748521202,"current_range_meters":2800,"station_id":"ce4bhbh2rcd13ifvqeo0","pricing_plan_id":"cebpf4jnsgd1na2vs0mg"},{"bike_id":"b62db144-5f77-4888-9f7b-b2e17963e7ff","system_id":"levelo_inurba_marseille","lat":43.2655,"lon":5.37284,"is_reserved":false,"is_disabled":false,"rental_uris":{"android":"levelo://app?vid=b62db144-5f77-4888-9f7b-b2e17963e7ff","ios":"levelo://app?vid=b62db144-5f77-4888-9f7b-b2e17963e7ff"},"vehicle_type_id":"4","last_reported":1748521202,"current_range_meters":2800,"station_id":"ce4bhg12rcd13ifvqf70","pricing_plan_id":"cebpf4jnsgd1na2vs0mg"},{"bike_id":"f2c6fc72-2363-4e7e-b229-3f58fffb1c4e","system_id":"levelo_inurba_marseille","lat":43.27913,"lon":5.39579,"is_reserved":false,"is_disabled":false,"rental_uris":{"android":"levelo://app?vid=f2c6fc72-2363-4e7e-b229-3f58fffb1c4e","ios":"levelo://app?vid=f2c6fc72-2363-4e7e-b229-3f58fffb1c4e"},"vehicle_type_id":"4","last_reported":1748521202,"current_range_meters":3200,"station_id":"ce4bhf92rcd13ifvqf40","pricing_plan_id":"cebpf4jnsgd1na2vs0mg"},{"bike_id":"6d2b87c1-99a2-4f8f-9e86-a0be9607e375","system_id":"levelo_inurba_marseille","lat":43.23963,"lon":5.36634,"is_reserved":false,"is_disabled":false,"rental_uris":{"android":"levelo://app?vid=6d2b87c1-99a2-4f8f-9e86-a0be9607e375","ios":"levelo://app?vid=6d2b87c1-99a2-4f8f-9e86-a0be9607e375"},"vehicle_type_id":"4","last_reported":1748521202,"current_range_meters":3200,"station_id":"ce4bhi12rcd13ifvqfp0","pricing_plan_id":"cebpf4jnsgd1na2vs0mg"},{"bike_id":"e135f56c-3464-4e54-8d3e-d56a30f42548","system_id":"levelo_inurba_marseille","lat":43.21741,"lon":5.34603,"is_reserved":false,"is_disabled":false,"rental_uris":{"android":"levelo://app?vid=e135f56c-3464-4e54-8d3e-d56a30f42548","ios":"levelo://app?vid=e135f56c-3464-4e54-8d3e-d56a30f42548"},"vehicle_type_id":"4","last_reported":1748521202,"current_range_meters":3200,"station_id":"st_cvj6r9ubvosntc0bgbag","pricing_plan_id":"cebpf4jnsgd1na2vs0mg"},{"bike_id":"37e380b5-ee96-4a44-af76-c9b7668196bd","system_id":"levelo_inurba_marseille","lat":43.21751,"lon":5.34606,"is_reserved":false,"is_disabled":false,"rental_uris":{"android":"levelo://app?vid=37e380b5-ee96-4a44-af76-c9b7668196bd","ios":"levelo://app?vid=37e380b5-ee96-4a44-af76-c9b7668196bd"},"vehicle_type_id":"4","last_reported":1748521202,"current_range_meters":3200,"station_id":"st_cvj6r9ubvosntc0bgbag","pricing_plan_id":"cebpf4jnsgd1na2vs0mg"},{"bike_id":"686f8160-a6fa-4fa0-88d6-ae56148ecdd6","system_id":"levelo_inurba_marseille","lat":43.24804,"lon":5.37453,"is_reserved":false,"is_disabled":false,"rental_uris":{"android":"levelo://app?vid=686f8160-a6fa-4fa0-88d6-ae56148ecdd6","ios":"levelo://app?vid=686f8160-a6fa-4fa0-88d6-ae56148ecdd6"},"vehicle_type_id":"4","last_reported":1748521202,"current_range_meters":3600,"station_id":"ce4bhgh2rcd13ifvqfb0","pricing_plan_id":"cebpf4jnsgd1na2vs0mg"},{"bike_id":"83ba2217-eb06-4910-9a5c-c936a4164d12","system_id":"levelo_inurba_marseille","lat":43.26191,"lon":5.37448,"is_reserved":false,"is_disabled":false,"rental_uris":{"android":"levelo://app?vid=83ba2217-eb06-4910-9a5c-c936a4164d12","ios":"levelo://app?vid=83ba2217-eb06-4910-9a5c-c936a4164d12"},"vehicle_type_id":"4","last_reported":1748521202,"current_range_meters":3600,"station_id":"ce4bhgp2rcd13ifvqfc0","pricing_plan_id":"cebpf4jnsgd1na2vs0mg"},{"bike_id":"6369c225-e26d-4708-b108-c3d5eea52015","system_id":"levelo_inurba_marseille","lat":43.231934,"lon":5.355507,"is_reserved":false,"is_disabled":false,"rental_uris":{"android":"levelo://app?vid=6369c225-e26d-4708-b108-c3d5eea52015","ios":"levelo://app?vid=6369c225-e26d-4708-b108-c3d5eea52015"},"vehicle_type_id":"4","last_reported":1748521202,"current_range_meters":3600,"station_id":"ce4bhu92rcd13ifvqi70","pricing_plan_id":"cebpf4jnsgd1na2vs0mg"},{"bike_id":"25290c3f-a948-48c7-aff5-25d3e21ed973","system_id":"levelo_inurba_marseille","lat":43.23964,"lon":5.36629,"is_reserved":false,"is_disabled":false,"rental_uris":{"android":"levelo://app?vid=25290c3f-a948-48c7-aff5-25d3e21ed973","ios":"levelo://app?vid=25290c3f-a948-48c7-aff5-25d3e21ed973"},"vehicle_type_id":"4","last_reported":1748521202,"current_range_meters":4000,"station_id":"ce4bhi12rcd13ifvqfp0","pricing_plan_id":"cebpf4jnsgd1na2vs0mg"},{"bike_id":"c3a0bd73-5813-47f0-a5c8-27701041c8ba","system_id":"levelo_inurba_marseille","lat":43.27251,"lon":5.42397,"is_reserved":false,"is_disabled":false,"rental_uris":{"android":"levelo://app?vid=c3a0bd73-5813-47f0-a5c8-27701041c8ba","ios":"levelo://app?vid=c3a0bd73-5813-47f0-a5c8-27701041c8ba"},"vehicle_type_id":"4","last_reported":1748521202,"current_range_meters":4400,"station_id":"","pricing_plan_id":"cebpf4jnsgd1na2vs0mg"},{"bike_id":"0dda45f1-ca77-49e7-ac5b-7614c6b46142","system_id":"levelo_inurba_marseille","lat":43.282753,"lon":5.350682,"is_reserved":false,"is_disabled":false,"rental_uris":{"android":"levelo://app?vid=0dda45f1-ca77-49e7-ac5b-7614c6b46142","ios":"levelo://app?vid=0dda45f1-ca77-49e7-ac5b-7614c6b46142"},"vehicle_type_id":"4","last_reported":1748521202,"current_range_meters":4400,"station_id":"","pricing_plan_id":"cebpf4jnsgd1na2vs0mg"},{"bike_id":"3680da49-3031-4cc8-9a64-4407af1ba091","system_id":"levelo_inurba_marseille","lat":43.26556,"lon":5.39011,"is_reserved":false,"is_disabled":false,"rental_uris":{"android":"levelo://app?vid=3680da49-3031-4cc8-9a64-4407af1ba091","ios":"levelo://app?vid=3680da49-3031-4cc8-9a64-4407af1ba091"},"vehicle_type_id":"4","last_reported":1748521202,"current_range_meters":4400,"station_id":"ce4bhe12rcd13ifvqf30","pricing_plan_id":"cebpf4jnsgd1na2vs0mg"},{"bike_id":"7ff37228-6ae9-45f4-b1dd-6c3f3ecb4dfd","system_id":"levelo_inurba_marseille","lat":43.23193,"lon":5.3555,"is_reserved":false,"is_disabled":false,"rental_uris":{"android":"levelo://app?vid=7ff37228-6ae9-45f4-b1dd-6c3f3ecb4dfd","ios":"levelo://app?vid=7ff37228-6ae9-45f4-b1dd-6c3f3ecb4dfd"},"vehicle_type_id":"4","last_reported":1748521202,"current_range_meters":4400,"station_id":"ce4bhu92rcd13ifvqi70","pricing_plan_id":"cebpf4jnsgd1na2vs0mg"},{"bike_id":"e0389136-c39e-4bfe-9c7d-a71723e3ba43","system_id":"levelo_inurba_marseille","lat":43.28611,"lon":5.3511,"is_reserved":false,"is_disabled":false,"rental_uris":{"android":"levelo://app?vid=e0389136-c39e-4bfe-9c7d-a71723e3ba43","ios":"levelo://app?vid=e0389136-c39e-4bfe-9c7d-a71723e3ba43"},"vehicle_type_id":"4","last_reported":1748521202,"current_range_meters":4800,"station_id":"ce4bhch2rcd13ifvqeug","pricing_plan_id":"cebpf4jnsgd1na2vs0mg"},{"bike_id":"d5762d7c-e1c0-4d28-b3ea-aad435b49cab","system_id":"levelo_inurba_marseille","lat":43.26628,"lon":5.381695,"is_reserved":false,"is_disabled":false,"rental_uris":{"android":"levelo://app?vid=d5762d7c-e1c0-4d28-b3ea-aad435b49cab","ios":"levelo://app?vid=d5762d7c-e1c0-4d28-b3ea-aad435b49cab"},"vehicle_type_id":"4","last_reported":1748521202,"current_range_meters":4800,"station_id":"ce4bhgp2rcd13ifvqfc0","pricing_plan_id":"cebpf4jnsgd1na2vs0mg"},{"bike_id":"efddbc8f-a768-4035-8282-4f3679162f18","system_id":"levelo_inurba_marseille","lat":43.23967,"lon":5.36627,"is_reserved":false,"is_disabled":false,"rental_uris":{"android":"levelo://app?vid=efddbc8f-a768-4035-8282-4f3679162f18","ios":"levelo://app?vid=efddbc8f-a768-4035-8282-4f3679162f18"},"vehicle_type_id":"4","last_reported":1748521202,"current_range_meters":4800,"station_id":"ce4bhi12rcd13ifvqfp0","pricing_plan_id":"cebpf4jnsgd1na2vs0mg"},{"bike_id":"b80ee325-09b2-4724-993d-4f8d3707c41c","system_id":"levelo_inurba_marseille","lat":43.25862,"lon":5.39902,"is_reserved":false,"is_disabled":false,"rental_uris":{"android":"levelo://app?vid=b80ee325-09b2-4724-993d-4f8d3707c41c","ios":"levelo://app?vid=b80ee325-09b2-4724-993d-4f8d3707c41c"},"vehicle_type_id":"4","last_reported":1748521202,"current_range_meters":4800,"station_id":"ce4bhl92rcd13ifvqghg","pricing_plan_id":"cebpf4jnsgd1na2vs0mg"},{"bike_id":"20017ee0-dfcf-4f0f-baa0-e30928978fbb","system_id":"levelo_inurba_marseille","lat":43.2293,"lon":5.35371,"is_reserved":false,"is_disabled":false,"rental_uris":{"android":"levelo://app?vid=20017ee0-dfcf-4f0f-baa0-e30928978fbb","ios":"levelo://app?vid=20017ee0-dfcf-4f0f-baa0-e30928978fbb"},"vehicle_type_id":"4","last_reported":1748521202,"current_range_meters":4800,"station_id":"cpo3532slgdg3j2ikp40","pricing_plan_id":"cebpf4jnsgd1na2vs0mg"},{"bike_id":"9408b36c-be9b-4081-852d-3a2be4d46bdc","system_id":"levelo_inurba_marseille","lat":43.22932,"lon":5.35387,"is_reserved":false,"is_disabled":false,"rental_uris":{"android":"levelo://app?vid=9408b36c-be9b-4081-852d-3a2be4d46bdc","ios":"levelo://app?vid=9408b36c-be9b-4081-852d-3a2be4d46bdc"},"vehicle_type_id":"4","last_reported":1748521202,"current_range_meters":4800,"station_id":"cpo3532slgdg3j2ikp40","pricing_plan_id":"cebpf4jnsgd1na2vs0mg"},{"bike_id":"4d0ab1ea-f35e-4f3c-94d0-a99035b5b753","system_id":"levelo_inurba_marseille","lat":43.29056,"lon":5.35593,"is_reserved":false,"is_disabled":false,"rental_uris":{"android":"levelo://app?vid=4d0ab1ea-f35e-4f3c-94d0-a99035b5b753","ios":"levelo://app?vid=4d0ab1ea-f35e-4f3c-94d0-a99035b5b753"},"vehicle_type_id":"4","last_reported":1748521202,"current_range_meters":5600,"station_id":"","pricing_plan_id":"cebpf4jnsgd1na2vs0mg"},{"bike_id":"2b7a1baa-ef11-4cdb-8e6d-5d724a69e952","system_id":"levelo_inurba_marseille","lat":43.29081,"lon":5.37188,"is_reserved":false,"is_disabled":false,"rental_uris":{"android":"levelo://app?vid=2b7a1baa-ef11-4cdb-8e6d-5d724a69e952","ios":"levelo://app?vid=2b7a1baa-ef11-4cdb-8e6d-5d724a69e952"},"vehicle_type_id":"4","last_reported":1748521202,"current_range_meters":5600,"station_id":"ce4bh5p2rcd13ifvqe4g","pricing_plan_id":"cebpf4jnsgd1na2vs0mg"},{"bike_id":"b47f531c-ced9-4103-9862-70f8bf27016c","system_id":"levelo_inurba_marseille","lat":43.28109,"lon":5.37848,"is_reserved":false,"is_disabled":false,"rental_uris":{"android":"levelo://app?vid=b47f531c-ced9-4103-9862-70f8bf27016c","ios":"levelo://app?vid=b47f531c-ced9-4103-9862-70f8bf27016c"},"vehicle_type_id":"4","last_reported":1748521202,"current_range_meters":5600,"station_id":"ce4bha12rcd13ifvqee0","pricing_plan_id":"cebpf4jnsgd1na2vs0mg"},{"bike_id":"3c5827e5-cbfb-4202-bf4a-5c6c68eeff63","system_id":"levelo_inurba_marseille","lat":43.24396,"lon":5.37062,"is_reserved":false,"is_disabled":false,"rental_uris":{"android":"levelo://app?vid=3c5827e5-cbfb-4202-bf4a-5c6c68eeff63","ios":"levelo://app?vid=3c5827e5-cbfb-4202-bf4a-5c6c68eeff63"},"vehicle_type_id":"4","last_reported":1748521202,"current_range_meters":6000,"station_id":"ce4bhhh2rcd13ifvqfk0","pricing_plan_id":"cebpf4jnsgd1na2vs0mg"},{"bike_id":"1b9c44ac-969a-4768-a1a3-21c86e0814fc","system_id":"levelo_inurba_marseille","lat":43.24185,"lon":5.36402,"is_reserved":false,"is_disabled":false,"rental_uris":{"android":"levelo://app?vid=1b9c44ac-969a-4768-a1a3-21c86e0814fc","ios":"levelo://app?vid=1b9c44ac-969a-4768-a1a3-21c86e0814fc"},"vehicle_type_id":"4","last_reported":1748521202,"current_range_meters":6000,"station_id":"cpo36qri1sfpv3e86is0","pricing_plan_id":"cebpf4jnsgd1na2vs0mg"},{"bike_id":"ee4805fc-08cd-4377-be04-3721b1f97d83","system_id":"levelo_inurba_marseille","lat":43.24172,"lon":5.363927,"is_reserved":false,"is_disabled":false,"rental_uris":{"android":"levelo://app?vid=ee4805fc-08cd-4377-be04-3721b1f97d83","ios":"levelo://app?vid=ee4805fc-08cd-4377-be04-3721b1f97d83"},"vehicle_type_id":"4","last_reported":1748521202,"current_range_meters":6000,"station_id":"cpo36qri1sfpv3e86is0","pricing_plan_id":"cebpf4jnsgd1na2vs0mg"},{"bike_id":"6d7cfdcd-f061-4eee-b4e5-78d9b6729328","system_id":"levelo_inurba_marseille","lat":43.329911,"lon":5.438485,"is_reserved":false,"is_disabled":false,"rental_uris":{"android":"levelo://app?vid=6d7cfdcd-f061-4eee-b4e5-78d9b6729328","ios":"levelo://app?vid=6d7cfdcd-f061-4eee-b4e5-78d9b6729328"},"vehicle_type_id":"4","last_reported":1748521202,"current_range_meters":6400,"station_id":"","pricing_plan_id":"cebpf4jnsgd1na2vs0mg"},{"bike_id":"e3dd4d2d-5447-4c7f-9392-1451f5edba22","system_id":"levelo_inurba_marseille","lat":43.29002,"lon":5.35613,"is_reserved":false,"is_disabled":false,"rental_uris":{"android":"levelo://app?vid=e3dd4d2d-5447-4c7f-9392-1451f5edba22","ios":"levelo://app?vid=e3dd4d2d-5447-4c7f-9392-1451f5edba22"},"vehicle_type_id":"4","last_reported":1748521202,"current_range_meters":6400,"station_id":"ce4bhb92rcd13ifvqen0","pricing_plan_id":"cebpf4jnsgd1na2vs0mg"},{"bike_id":"1dd0ced1-518e-4b83-901b-b4ce87c8975e","system_id":"levelo_inurba_marseille","lat":43.25582,"lon":5.38237,"is_reserved":false,"is_disabled":false,"rental_uris":{"android":"levelo://app?vid=1dd0ced1-518e-4b83-901b-b4ce87c8975e","ios":"levelo://app?vid=1dd0ced1-518e-4b83-901b-b4ce87c8975e"},"vehicle_type_id":"4","last_reported":1748521202,"current_range_meters":6400,"station_id":"ce4bhih2rcd13ifvqfs0","pricing_plan_id":"cebpf4jnsgd1na2vs0mg"},{"bike_id":"4e8aa6d5-da9a-4442-93df-0be6e78e5354","system_id":"levelo_inurba_marseille","lat":43.216957,"lon":5.345914,"is_reserved":false,"is_disabled":false,"rental_uris":{"android":"levelo://app?vid=4e8aa6d5-da9a-4442-93df-0be6e78e5354","ios":"levelo://app?vid=4e8aa6d5-da9a-4442-93df-0be6e78e5354"},"vehicle_type_id":"4","last_reported":1748521202,"current_range_meters":6400,"station_id":"st_cvj6r9ubvosntc0bgbag","pricing_plan_id":"cebpf4jnsgd1na2vs0mg"},{"bike_id":"bc3b58a9-c628-43eb-aa55-363deda71417","system_id":"levelo_inurba_marseille","lat":43.29246,"lon":5.40899,"is_reserved":false,"is_disabled":false,"rental_uris":{"android":"levelo://app?vid=bc3b58a9-c628-43eb-aa55-363deda71417","ios":"levelo://app?vid=bc3b58a9-c628-43eb-aa55-363deda71417"},"vehicle_type_id":"4","last_reported":1748521202,"current_range_meters":6800,"station_id":"ce4bh192rcd13ifvqdc0","pricing_plan_id":"cebpf4jnsgd1na2vs0mg"},{"bike_id":"d61db7f8-b2fa-4c32-b3eb-fee3930a170c","system_id":"levelo_inurba_marseille","lat":43.28731,"lon":5.37941,"is_reserved":false,"is_disabled":false,"rental_uris":{"android":"levelo://app?vid=d61db7f8-b2fa-4c32-b3eb-fee3930a170c","ios":"levelo://app?vid=d61db7f8-b2fa-4c32-b3eb-fee3930a170c"},"vehicle_type_id":"4","last_reported":1748521202,"current_range_meters":6800,"station_id":"ce4bh9p2rcd13ifvqec0","pricing_plan_id":"cebpf4jnsgd1na2vs0mg"},{"bike_id":"be4b293e-8744-4637-8ca2-a3e9032e9cec","system_id":"levelo_inurba_marseille","lat":43.2293,"lon":5.3538,"is_reserved":false,"is_disabled":false,"rental_uris":{"android":"levelo://app?vid=be4b293e-8744-4637-8ca2-a3e9032e9cec","ios":"levelo://app?vid=be4b293e-8744-4637-8ca2-a3e9032e9cec"},"vehicle_type_id":"4","last_reported":1748521202,"current_range_meters":6800,"station_id":"cpo3532slgdg3j2ikp40","pricing_plan_id":"cebpf4jnsgd1na2vs0mg"},{"bike_id":"b6194222-a80b-43bc-b765-fba2143e9c5c","system_id":"levelo_inurba_marseille","lat":43.23196,"lon":5.35559,"is_reserved":false,"is_disabled":false,"rental_uris":{"android":"levelo://app?vid=b6194222-a80b-43bc-b765-fba2143e9c5c","ios":"levelo://app?vid=b6194222-a80b-43bc-b765-fba2143e9c5c"},"vehicle_type_id":"4","last_reported":1748521202,"current_range_meters":7200,"station_id":"ce4bhu92rcd13ifvqi70","pricing_plan_id":"cebpf4jnsgd1na2vs0mg"},{"bike_id":"fd1c38c5-b397-44c2-a449-e186434fec50","system_id":"levelo_inurba_marseille","lat":43.22503,"lon":5.34782,"is_reserved":false,"is_disabled":false,"rental_uris":{"android":"levelo://app?vid=fd1c38c5-b397-44c2-a449-e186434fec50","ios":"levelo://app?vid=fd1c38c5-b397-44c2-a449-e186434fec50"},"vehicle_type_id":"4","last_reported":1748521202,"current_range_meters":7200,"station_id":"st_cvj5dfep6f1abm77gieg","pricing_plan_id":"cebpf4jnsgd1na2vs0mg"},{"bike_id":"1eed49fb-ce64-4ebd-9903-7d87835a2ccf","system_id":"levelo_inurba_marseille","lat":43.2976,"lon":5.45982,"is_reserved":false,"is_disabled":false,"rental_uris":{"android":"levelo://app?vid=1eed49fb-ce64-4ebd-9903-7d87835a2ccf","ios":"levelo://app?vid=1eed49fb-ce64-4ebd-9903-7d87835a2ccf"},"vehicle_type_id":"4","last_reported":1748521202,"current_range_meters":8000,"station_id":"","pricing_plan_id":"cebpf4jnsgd1na2vs0mg"},{"bike_id":"e33b01d9-06da-4bac-88d0-2a35cd197ec1","system_id":"levelo_inurba_marseille","lat":43.30782,"lon":5.38145,"is_reserved":false,"is_disabled":false,"rental_uris":{"android":"levelo://app?vid=e33b01d9-06da-4bac-88d0-2a35cd197ec1","ios":"levelo://app?vid=e33b01d9-06da-4bac-88d0-2a35cd197ec1"},"vehicle_type_id":"4","last_reported":1748521202,"current_range_meters":8000,"station_id":"ce4bgt12rcd13ifvqce0","pricing_plan_id":"cebpf4jnsgd1na2vs0mg"},{"bike_id":"93a84152-88c7-4b9d-8fa6-ae1e6651594c","system_id":"levelo_inurba_marseille","lat":43.31363,"lon":5.38499,"is_reserved":false,"is_disabled":false,"rental_uris":{"android":"levelo://app?vid=93a84152-88c7-4b9d-8fa6-ae1e6651594c","ios":"levelo://app?vid=93a84152-88c7-4b9d-8fa6-ae1e6651594c"},"vehicle_type_id":"4","last_reported":1748521202,"current_range_meters":8000,"station_id":"ce4bgt92rcd13ifvqcf0","pricing_plan_id":"cebpf4jnsgd1na2vs0mg"},{"bike_id":"ce7b18e4-7948-40ae-b647-c69f45870dbb","system_id":"levelo_inurba_marseille","lat":43.3093,"lon":5.40185,"is_reserved":false,"is_disabled":false,"rental_uris":{"android":"levelo://app?vid=ce7b18e4-7948-40ae-b647-c69f45870dbb","ios":"levelo://app?vid=ce7b18e4-7948-40ae-b647-c69f45870dbb"},"vehicle_type_id":"4","last_reported":1748521202,"current_range_meters":8000,"station_id":"ce4bgvp2rcd13ifvqct0","pricing_plan_id":"cebpf4jnsgd1na2vs0mg"},{"bike_id":"5f0d874d-b990-46f5-9075-20b026cde2fc","system_id":"levelo_inurba_marseille","lat":43.28613,"lon":5.35099,"is_reserved":false,"is_disabled":false,"rental_uris":{"android":"levelo://app?vid=5f0d874d-b990-46f5-9075-20b026cde2fc","ios":"levelo://app?vid=5f0d874d-b990-46f5-9075-20b026cde2fc"},"vehicle_type_id":"4","last_reported":1748521202,"current_range_meters":8000,"station_id":"ce4bhch2rcd13ifvqeug","pricing_plan_id":"cebpf4jnsgd1na2vs0mg"},{"bike_id":"f0e12869-ccfc-49f7-8bf1-87de5389d98e","system_id":"levelo_inurba_marseille","lat":43.2749,"lon":5.42445,"is_reserved":false,"is_disabled":false,"rental_uris":{"android":"levelo://app?vid=f0e12869-ccfc-49f7-8bf1-87de5389d98e","ios":"levelo://app?vid=f0e12869-ccfc-49f7-8bf1-87de5389d98e"},"vehicle_type_id":"4","last_reported":1748521202,"current_range_meters":8000,"station_id":"ce4bhn92rcd13ifvqgrg","pricing_plan_id":"cebpf4jnsgd1na2vs0mg"},{"bike_id":"e16d7eab-6a9a-45ec-b2ac-253e984e84f3","system_id":"levelo_inurba_marseille","lat":43.32338,"lon":5.40627,"is_reserved":false,"is_disabled":false,"rental_uris":{"android":"levelo://app?vid=e16d7eab-6a9a-45ec-b2ac-253e984e84f3","ios":"levelo://app?vid=e16d7eab-6a9a-45ec-b2ac-253e984e84f3"},"vehicle_type_id":"4","last_reported":1748521202,"current_range_meters":8000,"station_id":"ce4bhq92rcd13ifvqhjg","pricing_plan_id":"cebpf4jnsgd1na2vs0mg"},{"bike_id":"9e86d75a-7d8b-4329-b2c4-5d214828de6d","system_id":"levelo_inurba_marseille","lat":43.21739,"lon":5.34593,"is_reserved":false,"is_disabled":false,"rental_uris":{"android":"levelo://app?vid=9e86d75a-7d8b-4329-b2c4-5d214828de6d","ios":"levelo://app?vid=9e86d75a-7d8b-4329-b2c4-5d214828de6d"},"vehicle_type_id":"4","last_reported":1748521202,"current_range_meters":8000,"station_id":"st_cvj6r9ubvosntc0bgbag","pricing_plan_id":"cebpf4jnsgd1na2vs0mg"},{"bike_id":"2f650bb1-6027-4191-83d2-16315820a0a7","system_id":"levelo_inurba_marseille","lat":43.30002,"lon":5.37342,"is_reserved":false,"is_disabled":false,"rental_uris":{"android":"levelo://app?vid=2f650bb1-6027-4191-83d2-16315820a0a7","ios":"levelo://app?vid=2f650bb1-6027-4191-83d2-16315820a0a7"},"vehicle_type_id":"4","last_reported":1748521202,"current_range_meters":8400,"station_id":"","pricing_plan_id":"cebpf4jnsgd1na2vs0mg"},{"bike_id":"dc65f2c8-7bba-4240-b0ae-989dee044f0c","system_id":"levelo_inurba_marseille","lat":43.28105,"lon":5.3784,"is_reserved":false,"is_disabled":false,"rental_uris":{"android":"levelo://app?vid=dc65f2c8-7bba-4240-b0ae-989dee044f0c","ios":"levelo://app?vid=dc65f2c8-7bba-4240-b0ae-989dee044f0c"},"vehicle_type_id":"4","last_reported":1748521202,"current_range_meters":8400,"station_id":"ce4bha12rcd13ifvqee0","pricing_plan_id":"cebpf4jnsgd1na2vs0mg"},{"bike_id":"c0d5ccd3-cc9b-42dc-bafd-57829be782b0","system_id":"levelo_inurba_marseille","lat":43.30796,"lon":5.43526,"is_reserved":false,"is_disabled":false,"rental_uris":{"android":"levelo://app?vid=c0d5ccd3-cc9b-42dc-bafd-57829be782b0","ios":"levelo://app?vid=c0d5ccd3-cc9b-42dc-bafd-57829be782b0"},"vehicle_type_id":"4","last_reported":1748521202,"current_range_meters":8400,"station_id":"ce4bhph2rcd13ifvqheg","pricing_plan_id":"cebpf4jnsgd1na2vs0mg"},{"bike_id":"84adab0f-96c1-4426-bc86-147d47e6151b","system_id":"levelo_inurba_marseille","lat":43.2319,"lon":5.35553,"is_reserved":false,"is_disabled":false,"rental_uris":{"android":"levelo://app?vid=84adab0f-96c1-4426-bc86-147d47e6151b","ios":"levelo://app?vid=84adab0f-96c1-4426-bc86-147d47e6151b"},"vehicle_type_id":"4","last_reported":1748521202,"current_range_meters":8400,"station_id":"ce4bhu92rcd13ifvqi70","pricing_plan_id":"cebpf4jnsgd1na2vs0mg"},{"bike_id":"8496f67b-61a3-430b-a376-e7b61479324f","system_id":"levelo_inurba_marseille","lat":43.2119,"lon":5.35069,"is_reserved":false,"is_disabled":false,"rental_uris":{"android":"levelo://app?vid=8496f67b-61a3-430b-a376-e7b61479324f","ios":"levelo://app?vid=8496f67b-61a3-430b-a376-e7b61479324f"},"vehicle_type_id":"4","last_reported":1748521202,"current_range_meters":8400,"station_id":"st_cvj6sg6p6f1abm77japg","pricing_plan_id":"cebpf4jnsgd1na2vs0mg"},{"bike_id":"e6aceec2-f821-4998-be39-f5bf978c1cab","system_id":"levelo_inurba_marseille","lat":43.30934,"lon":5.40153,"is_reserved":false,"is_disabled":false,"rental_uris":{"android":"levelo://app?vid=e6aceec2-f821-4998-be39-f5bf978c1cab","ios":"levelo://app?vid=e6aceec2-f821-4998-be39-f5bf978c1cab"},"vehicle_type_id":"4","last_reported":1748521202,"current_range_meters":8800,"station_id":"ce4bgvp2rcd13ifvqct0","pricing_plan_id":"cebpf4jnsgd1na2vs0mg"},{"bike_id":"2ca24bfc-8434-47ae-9610-564671c497f2","system_id":"levelo_inurba_marseille","lat":43.275664,"lon":5.384294,"is_reserved":false,"is_disabled":false,"rental_uris":{"android":"levelo://app?vid=2ca24bfc-8434-47ae-9610-564671c497f2","ios":"levelo://app?vid=2ca24bfc-8434-47ae-9610-564671c497f2"},"vehicle_type_id":"4","last_reported":1748521202,"current_range_meters":8800,"station_id":"ce4bhh92rcd13ifvqfi0","pricing_plan_id":"cebpf4jnsgd1na2vs0mg"},{"bike_id":"1ad52ac3-b83f-4790-bebf-a463745854d8","system_id":"levelo_inurba_marseille","lat":43.2396,"lon":5.36636,"is_reserved":false,"is_disabled":false,"rental_uris":{"android":"levelo://app?vid=1ad52ac3-b83f-4790-bebf-a463745854d8","ios":"levelo://app?vid=1ad52ac3-b83f-4790-bebf-a463745854d8"},"vehicle_type_id":"4","last_reported":1748521202,"current_range_meters":8800,"station_id":"ce4bhi12rcd13ifvqfp0","pricing_plan_id":"cebpf4jnsgd1na2vs0mg"},{"bike_id":"86f11208-7f90-4009-a976-cc81e2c7825f","system_id":"levelo_inurba_marseille","lat":43.241697,"lon":5.363972,"is_reserved":false,"is_disabled":false,"rental_uris":{"android":"levelo://app?vid=86f11208-7f90-4009-a976-cc81e2c7825f","ios":"levelo://app?vid=86f11208-7f90-4009-a976-cc81e2c7825f"},"vehicle_type_id":"4","last_reported":1748521202,"current_range_meters":8800,"station_id":"cpo36qri1sfpv3e86is0","pricing_plan_id":"cebpf4jnsgd1na2vs0mg"},{"bike_id":"22771043-09b1-43eb-91e0-5c845144e1e3","system_id":"levelo_inurba_marseille","lat":43.27744,"lon":5.40911,"is_reserved":false,"is_disabled":false,"rental_uris":{"android":"levelo://app?vid=22771043-09b1-43eb-91e0-5c845144e1e3","ios":"levelo://app?vid=22771043-09b1-43eb-91e0-5c845144e1e3"},"vehicle_type_id":"4","last_reported":1748521202,"current_range_meters":9200,"station_id":"","pricing_plan_id":"cebpf4jnsgd1na2vs0mg"},{"bike_id":"6f5d1986-5230-4e01-b67c-8d7b60ecbb8b","system_id":"levelo_inurba_marseille","lat":43.29845,"lon":5.36281,"is_reserved":false,"is_disabled":false,"rental_uris":{"android":"levelo://app?vid=6f5d1986-5230-4e01-b67c-8d7b60ecbb8b","ios":"levelo://app?vid=6f5d1986-5230-4e01-b67c-8d7b60ecbb8b"},"vehicle_type_id":"4","last_reported":1748521202,"current_range_meters":9200,"station_id":"ce4bgpp2rcd13ifvqc3g","pricing_plan_id":"cebpf4jnsgd1na2vs0mg"},{"bike_id":"3e65e8a3-6be5-408b-b1ee-b12592ac545b","system_id":"levelo_inurba_marseille","lat":43.30426,"lon":5.39749,"is_reserved":false,"is_disabled":false,"rental_uris":{"android":"levelo://app?vid=3e65e8a3-6be5-408b-b1ee-b12592ac545b","ios":"levelo://app?vid=3e65e8a3-6be5-408b-b1ee-b12592ac545b"},"vehicle_type_id":"4","last_reported":1748521202,"current_range_meters":9200,"station_id":"ce4bh092rcd13ifvqd20","pricing_plan_id":"cebpf4jnsgd1na2vs0mg"},{"bike_id":"357f4a3d-9728-4780-ac0e-aff247781cc1","system_id":"levelo_inurba_marseille","lat":43.290526,"lon":5.359047,"is_reserved":false,"is_disabled":false,"rental_uris":{"android":"levelo://app?vid=357f4a3d-9728-4780-ac0e-aff247781cc1","ios":"levelo://app?vid=357f4a3d-9728-4780-ac0e-aff247781cc1"},"vehicle_type_id":"4","last_reported":1748521202,"current_range_meters":9200,"station_id":"ce4bha92rcd13ifvqeg0","pricing_plan_id":"cebpf4jnsgd1na2vs0mg"},{"bike_id":"7c82c42d-e350-4132-be16-dd5a69b6eeef","system_id":"levelo_inurba_marseille","lat":43.29202,"lon":5.35803,"is_reserved":false,"is_disabled":false,"rental_uris":{"android":"levelo://app?vid=7c82c42d-e350-4132-be16-dd5a69b6eeef","ios":"levelo://app?vid=7c82c42d-e350-4132-be16-dd5a69b6eeef"},"vehicle_type_id":"4","last_reported":1748521202,"current_range_meters":9200,"station_id":"ce4bhb12rcd13ifvqel0","pricing_plan_id":"cebpf4jnsgd1na2vs0mg"},{"bike_id":"4f28c650-21f0-48c4-9bf2-d324d32d2ed8","system_id":"levelo_inurba_marseille","lat":43.254995,"lon":5.376506,"is_reserved":false,"is_disabled":false,"rental_uris":{"android":"levelo://app?vid=4f28c650-21f0-48c4-9bf2-d324d32d2ed8","ios":"levelo://app?vid=4f28c650-21f0-48c4-9bf2-d324d32d2ed8"},"vehicle_type_id":"4","last_reported":1748521202,"current_range_meters":9200,"station_id":"ce4bhh12rcd13ifvqff0","pricing_plan_id":"cebpf4jnsgd1na2vs0mg"},{"bike_id":"82096069-64b7-4fa6-b4a8-82fb0677ee9e","system_id":"levelo_inurba_marseille","lat":43.23966,"lon":5.36658,"is_reserved":false,"is_disabled":false,"rental_uris":{"android":"levelo://app?vid=82096069-64b7-4fa6-b4a8-82fb0677ee9e","ios":"levelo://app?vid=82096069-64b7-4fa6-b4a8-82fb0677ee9e"},"vehicle_type_id":"4","last_reported":1748521202,"current_range_meters":9200,"station_id":"ce4bhi12rcd13ifvqfp0","pricing_plan_id":"cebpf4jnsgd1na2vs0mg"},{"bike_id":"aaed0655-6f90-4529-aaea-deeb6491f3b7","system_id":"levelo_inurba_marseille","lat":43.2784,"lon":5.39205,"is_reserved":false,"is_disabled":false,"rental_uris":{"android":"levelo://app?vid=aaed0655-6f90-4529-aaea-deeb6491f3b7","ios":"levelo://app?vid=aaed0655-6f90-4529-aaea-deeb6491f3b7"},"vehicle_type_id":"4","last_reported":1748521202,"current_range_meters":9200,"station_id":"ce4bhjp2rcd13ifvqga0","pricing_plan_id":"cebpf4jnsgd1na2vs0mg"},{"bike_id":"3ad37431-1bc9-48e9-8391-b25c13454c2b","system_id":"levelo_inurba_marseille","lat":43.30732,"lon":5.4243,"is_reserved":false,"is_disabled":false,"rental_uris":{"android":"levelo://app?vid=3ad37431-1bc9-48e9-8391-b25c13454c2b","ios":"levelo://app?vid=3ad37431-1bc9-48e9-8391-b25c13454c2b"},"vehicle_type_id":"4","last_reported":1748521202,"current_range_meters":9200,"station_id":"st_cvj6ca6bvosntc0bfgr0","pricing_plan_id":"cebpf4jnsgd1na2vs0mg"},{"bike_id":"af1dc9b2-164b-4021-88df-830111ab755c","system_id":"levelo_inurba_marseille","lat":43.32363,"lon":5.36913,"is_reserved":false,"is_disabled":false,"rental_uris":{"android":"levelo://app?vid=af1dc9b2-164b-4021-88df-830111ab755c","ios":"levelo://app?vid=af1dc9b2-164b-4021-88df-830111ab755c"},"vehicle_type_id":"4","last_reported":1748521202,"current_range_meters":9600,"station_id":"","pricing_plan_id":"cebpf4jnsgd1na2vs0mg"},{"bike_id":"24cd34e1-bb74-4352-90f7-805b9231f525","system_id":"levelo_inurba_marseille","lat":43.26371,"lon":5.42018,"is_reserved":false,"is_disabled":false,"rental_uris":{"android":"levelo://app?vid=24cd34e1-bb74-4352-90f7-805b9231f525","ios":"levelo://app?vid=24cd34e1-bb74-4352-90f7-805b9231f525"},"vehicle_type_id":"4","last_reported":1748521202,"current_range_meters":9600,"station_id":"","pricing_plan_id":"cebpf4jnsgd1na2vs0mg"},{"bike_id":"32a60d91-d134-4154-a4a8-cc8c21e10489","system_id":"levelo_inurba_marseille","lat":43.29845,"lon":5.36319,"is_reserved":false,"is_disabled":false,"rental_uris":{"android":"levelo://app?vid=32a60d91-d134-4154-a4a8-cc8c21e10489","ios":"levelo://app?vid=32a60d91-d134-4154-a4a8-cc8c21e10489"},"vehicle_type_id":"4","last_reported":1748521202,"current_range_meters":9600,"station_id":"ce4bgpp2rcd13ifvqc3g","pricing_plan_id":"cebpf4jnsgd1na2vs0mg"},{"bike_id":"a853e1c2-8d75-493a-840b-aaba88d28284","system_id":"levelo_inurba_marseille","lat":43.26197,"lon":5.37446,"is_reserved":false,"is_disabled":false,"rental_uris":{"android":"levelo://app?vid=a853e1c2-8d75-493a-840b-aaba88d28284","ios":"levelo://app?vid=a853e1c2-8d75-493a-840b-aaba88d28284"},"vehicle_type_id":"4","last_reported":1748521202,"current_range_meters":9600,"station_id":"ce4bhgp2rcd13ifvqfc0","pricing_plan_id":"cebpf4jnsgd1na2vs0mg"},{"bike_id":"fe2ac789-7cb8-4e01-826c-f312f60aee39","system_id":"levelo_inurba_marseille","lat":43.24174,"lon":5.39727,"is_reserved":false,"is_disabled":false,"rental_uris":{"android":"levelo://app?vid=fe2ac789-7cb8-4e01-826c-f312f60aee39","ios":"levelo://app?vid=fe2ac789-7cb8-4e01-826c-f312f60aee39"},"vehicle_type_id":"4","last_reported":1748521202,"current_range_meters":9600,"station_id":"ce4bhn12rcd13ifvqgpg","pricing_plan_id":"cebpf4jnsgd1na2vs0mg"},{"bike_id":"6de0c367-16d8-40fd-95d0-4105c0b2586d","system_id":"levelo_inurba_marseille","lat":43.326545,"lon":5.409824,"is_reserved":false,"is_disabled":false,"rental_uris":{"android":"levelo://app?vid=6de0c367-16d8-40fd-95d0-4105c0b2586d","ios":"levelo://app?vid=6de0c367-16d8-40fd-95d0-4105c0b2586d"},"vehicle_type_id":"4","last_reported":1748521202,"current_range_meters":9600,"station_id":"ce4bhpp2rcd13ifvqhgg","pricing_plan_id":"cebpf4jnsgd1na2vs0mg"},{"bike_id":"5e83ea25-1862-406c-b5e5-fde5fc4ebc43","system_id":"levelo_inurba_marseille","lat":43.21771,"lon":5.34612,"is_reserved":false,"is_disabled":false,"rental_uris":{"android":"levelo://app?vid=5e83ea25-1862-406c-b5e5-fde5fc4ebc43","ios":"levelo://app?vid=5e83ea25-1862-406c-b5e5-fde5fc4ebc43"},"vehicle_type_id":"4","last_reported":1748521202,"current_range_meters":9600,"station_id":"st_cvj6r9ubvosntc0bgbag","pricing_plan_id":"cebpf4jnsgd1na2vs0mg"},{"bike_id":"6c9f7391-2266-42a8-a97b-97223893fe92","system_id":"levelo_inurba_marseille","lat":43.30542,"lon":5.36718,"is_reserved":false,"is_disabled":false,"rental_uris":{"android":"levelo://app?vid=6c9f7391-2266-42a8-a97b-97223893fe92","ios":"levelo://app?vid=6c9f7391-2266-42a8-a97b-97223893fe92"},"vehicle_type_id":"4","last_reported":1748521202,"current_range_meters":10000,"station_id":"ce4bgrp2rcd13ifvqc9g","pricing_plan_id":"cebpf4jnsgd1na2vs0mg"},{"bike_id":"9c71ecd6-658a-4bbf-b3da-8d0346f7b858","system_id":"levelo_inurba_marseille","lat":43.30537,"lon":5.36556,"is_reserved":false,"is_disabled":false,"rental_uris":{"android":"levelo://app?vid=9c71ecd6-658a-4bbf-b3da-8d0346f7b858","ios":"levelo://app?vid=9c71ecd6-658a-4bbf-b3da-8d0346f7b858"},"vehicle_type_id":"4","last_reported":1748521202,"current_range_meters":10000,"station_id":"ce4bgs12rcd13ifvqcag","pricing_plan_id":"cebpf4jnsgd1na2vs0mg"},{"bike_id":"4b512bb3-bd41-4ef3-862f-c5a79ad17f1a","system_id":"levelo_inurba_marseille","lat":43.25493,"lon":5.37647,"is_reserved":false,"is_disabled":false,"rental_uris":{"android":"levelo://app?vid=4b512bb3-bd41-4ef3-862f-c5a79ad17f1a","ios":"levelo://app?vid=4b512bb3-bd41-4ef3-862f-c5a79ad17f1a"},"vehicle_type_id":"4","last_reported":1748521202,"current_range_meters":10000,"station_id":"ce4bhh12rcd13ifvqff0","pricing_plan_id":"cebpf4jnsgd1na2vs0mg"},{"bike_id":"dc009045-7aef-4d17-bcae-67daeb608dc6","system_id":"levelo_inurba_marseille","lat":43.24181,"lon":5.364,"is_reserved":false,"is_disabled":false,"rental_uris":{"android":"levelo://app?vid=dc009045-7aef-4d17-bcae-67daeb608dc6","ios":"levelo://app?vid=dc009045-7aef-4d17-bcae-67daeb608dc6"},"vehicle_type_id":"4","last_reported":1748521202,"current_range_meters":10000,"station_id":"cpo36qri1sfpv3e86is0","pricing_plan_id":"cebpf4jnsgd1na2vs0mg"},{"bike_id":"bf8b7fc3-8fd7-4a6b-985e-aa755d199ae3","system_id":"levelo_inurba_marseille","lat":43.29012,"lon":5.35627,"is_reserved":false,"is_disabled":false,"rental_uris":{"android":"levelo://app?vid=bf8b7fc3-8fd7-4a6b-985e-aa755d199ae3","ios":"levelo://app?vid=bf8b7fc3-8fd7-4a6b-985e-aa755d199ae3"},"vehicle_type_id":"4","last_reported":1748521202,"current_range_meters":10800,"station_id":"","pricing_plan_id":"cebpf4jnsgd1na2vs0mg"},{"bike_id":"e9ceb401-4b66-4463-9243-52d9c82797fa","system_id":"levelo_inurba_marseille","lat":43.30934,"lon":5.40151,"is_reserved":false,"is_disabled":false,"rental_uris":{"android":"levelo://app?vid=e9ceb401-4b66-4463-9243-52d9c82797fa","ios":"levelo://app?vid=e9ceb401-4b66-4463-9243-52d9c82797fa"},"vehicle_type_id":"4","last_reported":1748521202,"current_range_meters":10800,"station_id":"ce4bgvp2rcd13ifvqct0","pricing_plan_id":"cebpf4jnsgd1na2vs0mg"},{"bike_id":"42b87bdb-7e1f-4f86-88b0-1735afbe2e33","system_id":"levelo_inurba_marseille","lat":43.27379,"lon":5.36265,"is_reserved":false,"is_disabled":false,"rental_uris":{"android":"levelo://app?vid=42b87bdb-7e1f-4f86-88b0-1735afbe2e33","ios":"levelo://app?vid=42b87bdb-7e1f-4f86-88b0-1735afbe2e33"},"vehicle_type_id":"4","last_reported":1748521202,"current_range_meters":10800,"station_id":"ce4bhbh2rcd13ifvqeo0","pricing_plan_id":"cebpf4jnsgd1na2vs0mg"},{"bike_id":"eb00323d-010c-4298-bca6-77f7f9f1ffa8","system_id":"levelo_inurba_marseille","lat":43.27375,"lon":5.36255,"is_reserved":false,"is_disabled":false,"rental_uris":{"android":"levelo://app?vid=eb00323d-010c-4298-bca6-77f7f9f1ffa8","ios":"levelo://app?vid=eb00323d-010c-4298-bca6-77f7f9f1ffa8"},"vehicle_type_id":"4","last_reported":1748521202,"current_range_meters":10800,"station_id":"ce4bhbh2rcd13ifvqeo0","pricing_plan_id":"cebpf4jnsgd1na2vs0mg"},{"bike_id":"f4ce79f6-76fa-481a-80ef-493b162f9b09","system_id":"levelo_inurba_marseille","lat":43.28265,"lon":5.35073,"is_reserved":false,"is_disabled":false,"rental_uris":{"android":"levelo://app?vid=f4ce79f6-76fa-481a-80ef-493b162f9b09","ios":"levelo://app?vid=f4ce79f6-76fa-481a-80ef-493b162f9b09"},"vehicle_type_id":"4","last_reported":1748521202,"current_range_meters":10800,"station_id":"ce4bhbp2rcd13ifvqerg","pricing_plan_id":"cebpf4jnsgd1na2vs0mg"},{"bike_id":"1d046360-3b2d-4bd0-8558-2e29b49fc41d","system_id":"levelo_inurba_marseille","lat":43.266783,"lon":5.3827,"is_reserved":false,"is_disabled":false,"rental_uris":{"android":"levelo://app?vid=1d046360-3b2d-4bd0-8558-2e29b49fc41d","ios":"levelo://app?vid=1d046360-3b2d-4bd0-8558-2e29b49fc41d"},"vehicle_type_id":"4","last_reported":1748521202,"current_range_meters":10800,"station_id":"ce4bhg92rcd13ifvqf90","pricing_plan_id":"cebpf4jnsgd1na2vs0mg"},{"bike_id":"f293ba09-4b7e-4261-9c45-5e8e5f6ff81c","system_id":"levelo_inurba_marseille","lat":43.30367,"lon":5.42487,"is_reserved":false,"is_disabled":false,"rental_uris":{"android":"levelo://app?vid=f293ba09-4b7e-4261-9c45-5e8e5f6ff81c","ios":"levelo://app?vid=f293ba09-4b7e-4261-9c45-5e8e5f6ff81c"},"vehicle_type_id":"4","last_reported":1748521202,"current_range_meters":10800,"station_id":"ce4bhoh2rcd13ifvqh6g","pricing_plan_id":"cebpf4jnsgd1na2vs0mg"},{"bike_id":"f090e212-d3c8-4736-afad-80cfe2b8e432","system_id":"levelo_inurba_marseille","lat":43.307967,"lon":5.435273,"is_reserved":false,"is_disabled":false,"rental_uris":{"android":"levelo://app?vid=f090e212-d3c8-4736-afad-80cfe2b8e432","ios":"levelo://app?vid=f090e212-d3c8-4736-afad-80cfe2b8e432"},"vehicle_type_id":"4","last_reported":1748521202,"current_range_meters":10800,"station_id":"ce4bhph2rcd13ifvqheg","pricing_plan_id":"cebpf4jnsgd1na2vs0mg"},{"bike_id":"81113532-9bf0-4e94-ba9e-358824bdab44","system_id":"levelo_inurba_marseille","lat":43.28602,"lon":5.37063,"is_reserved":false,"is_disabled":false,"rental_uris":{"android":"levelo://app?vid=81113532-9bf0-4e94-ba9e-358824bdab44","ios":"levelo://app?vid=81113532-9bf0-4e94-ba9e-358824bdab44"},"vehicle_type_id":"4","last_reported":1748521202,"current_range_meters":10800,"station_id":"ce4bht12rcd13ifvqi60","pricing_plan_id":"cebpf4jnsgd1na2vs0mg"},{"bike_id":"c29f4392-81e7-4634-b67e-caaf40d30cb2","system_id":"levelo_inurba_marseille","lat":43.23195,"lon":5.35551,"is_reserved":false,"is_disabled":false,"rental_uris":{"android":"levelo://app?vid=c29f4392-81e7-4634-b67e-caaf40d30cb2","ios":"levelo://app?vid=c29f4392-81e7-4634-b67e-caaf40d30cb2"},"vehicle_type_id":"4","last_reported":1748521202,"current_range_meters":10800,"station_id":"ce4bhu92rcd13ifvqi70","pricing_plan_id":"cebpf4jnsgd1na2vs0mg"},{"bike_id":"a3d7bae8-50bf-46bb-8642-120e57d644bc","system_id":"levelo_inurba_marseille","lat":43.22928,"lon":5.3537,"is_reserved":false,"is_disabled":false,"rental_uris":{"android":"levelo://app?vid=a3d7bae8-50bf-46bb-8642-120e57d644bc","ios":"levelo://app?vid=a3d7bae8-50bf-46bb-8642-120e57d644bc"},"vehicle_type_id":"4","last_reported":1748521202,"current_range_meters":10800,"station_id":"cpo3532slgdg3j2ikp40","pricing_plan_id":"cebpf4jnsgd1na2vs0mg"},{"bike_id":"1ff6f2b1-fb46-483c-9752-2f7b9b62807d","system_id":"levelo_inurba_marseille","lat":43.21188,"lon":5.3507,"is_reserved":false,"is_disabled":false,"rental_uris":{"android":"levelo://app?vid=1ff6f2b1-fb46-483c-9752-2f7b9b62807d","ios":"levelo://app?vid=1ff6f2b1-fb46-483c-9752-2f7b9b62807d"},"vehicle_type_id":"4","last_reported":1748521202,"current_range_meters":10800,"station_id":"st_cvj6sg6p6f1abm77japg","pricing_plan_id":"cebpf4jnsgd1na2vs0mg"},{"bike_id":"5425969b-1595-4148-b19f-88f5aacdc526","system_id":"levelo_inurba_marseille","lat":43.30652,"lon":5.40056,"is_reserved":false,"is_disabled":false,"rental_uris":{"android":"levelo://app?vid=5425969b-1595-4148-b19f-88f5aacdc526","ios":"levelo://app?vid=5425969b-1595-4148-b19f-88f5aacdc526"},"vehicle_type_id":"4","last_reported":1748521202,"current_range_meters":11200,"station_id":"ce4bh112rcd13ifvqda0","pricing_plan_id":"cebpf4jnsgd1na2vs0mg"},{"bike_id":"4c39692b-b034-4a9b-905f-69bc3e261a80","system_id":"levelo_inurba_marseille","lat":43.28994,"lon":5.35597,"is_reserved":false,"is_disabled":false,"rental_uris":{"android":"levelo://app?vid=4c39692b-b034-4a9b-905f-69bc3e261a80","ios":"levelo://app?vid=4c39692b-b034-4a9b-905f-69bc3e261a80"},"vehicle_type_id":"4","last_reported":1748521202,"current_range_meters":11200,"station_id":"ce4bhb92rcd13ifvqen0","pricing_plan_id":"cebpf4jnsgd1na2vs0mg"},{"bike_id":"cadea012-eb75-4cf9-8793-e8a43ff316c2","system_id":"levelo_inurba_marseille","lat":43.28417,"lon":5.34976,"is_reserved":false,"is_disabled":false,"rental_uris":{"android":"levelo://app?vid=cadea012-eb75-4cf9-8793-e8a43ff316c2","ios":"levelo://app?vid=cadea012-eb75-4cf9-8793-e8a43ff316c2"},"vehicle_type_id":"4","last_reported":1748521202,"current_range_meters":11200,"station_id":"ce4bhbh2rcd13ifvqepg","pricing_plan_id":"cebpf4jnsgd1na2vs0mg"},{"bike_id":"9f6a1f1b-8229-4235-bdad-f507375385d7","system_id":"levelo_inurba_marseille","lat":43.28273,"lon":5.35076,"is_reserved":false,"is_disabled":false,"rental_uris":{"android":"levelo://app?vid=9f6a1f1b-8229-4235-bdad-f507375385d7","ios":"levelo://app?vid=9f6a1f1b-8229-4235-bdad-f507375385d7"},"vehicle_type_id":"4","last_reported":1748521202,"current_range_meters":11200,"station_id":"ce4bhbp2rcd13ifvqerg","pricing_plan_id":"cebpf4jnsgd1na2vs0mg"},{"bike_id":"067b2ce4-8e85-474d-842e-bfa6234caff3","system_id":"levelo_inurba_marseille","lat":43.27968,"lon":5.38751,"is_reserved":false,"is_disabled":false,"rental_uris":{"android":"levelo://app?vid=067b2ce4-8e85-474d-842e-bfa6234caff3","ios":"levelo://app?vid=067b2ce4-8e85-474d-842e-bfa6234caff3"},"vehicle_type_id":"4","last_reported":1748521202,"current_range_meters":11200,"station_id":"ce4bhg12rcd13ifvqf80","pricing_plan_id":"cebpf4jnsgd1na2vs0mg"},{"bike_id":"b40e535e-34d7-4a52-8e4f-6f0f0312f4a7","system_id":"levelo_inurba_marseille","lat":43.25869,"lon":5.39893,"is_reserved":false,"is_disabled":false,"rental_uris":{"android":"levelo://app?vid=b40e535e-34d7-4a52-8e4f-6f0f0312f4a7","ios":"levelo://app?vid=b40e535e-34d7-4a52-8e4f-6f0f0312f4a7"},"vehicle_type_id":"4","last_reported":1748521202,"current_range_meters":11200,"station_id":"ce4bhl92rcd13ifvqghg","pricing_plan_id":"cebpf4jnsgd1na2vs0mg"},{"bike_id":"ab3fb841-000b-4600-afe3-0d3bae496fbc","system_id":"levelo_inurba_marseille","lat":43.23148,"lon":5.4372,"is_reserved":false,"is_disabled":false,"rental_uris":{"android":"levelo://app?vid=ab3fb841-000b-4600-afe3-0d3bae496fbc","ios":"levelo://app?vid=ab3fb841-000b-4600-afe3-0d3bae496fbc"},"vehicle_type_id":"4","last_reported":1748521202,"current_range_meters":11200,"station_id":"ce4bhmp2rcd13ifvqgog","pricing_plan_id":"cebpf4jnsgd1na2vs0mg"},{"bike_id":"0b05b44f-c9f3-4455-8f95-7c1a7a4e9333","system_id":"levelo_inurba_marseille","lat":43.23061,"lon":5.35488,"is_reserved":false,"is_disabled":false,"rental_uris":{"android":"levelo://app?vid=0b05b44f-c9f3-4455-8f95-7c1a7a4e9333","ios":"levelo://app?vid=0b05b44f-c9f3-4455-8f95-7c1a7a4e9333"},"vehicle_type_id":"4","last_reported":1748521202,"current_range_meters":11200,"station_id":"cpo3342slgdg3j2ifvpg","pricing_plan_id":"cebpf4jnsgd1na2vs0mg"},{"bike_id":"42dca157-bdb0-4361-8022-7979135f94aa","system_id":"levelo_inurba_marseille","lat":43.28571,"lon":5.3656,"is_reserved":false,"is_disabled":false,"rental_uris":{"android":"levelo://app?vid=42dca157-bdb0-4361-8022-7979135f94aa","ios":"levelo://app?vid=42dca157-bdb0-4361-8022-7979135f94aa"},"vehicle_type_id":"4","last_reported":1748521202,"current_range_meters":11600,"station_id":"","pricing_plan_id":"cebpf4jnsgd1na2vs0mg"},{"bike_id":"152b5c3a-36d2-437a-86a0-0405b0cc1f05","system_id":"levelo_inurba_marseille","lat":43.27374,"lon":5.36275,"is_reserved":false,"is_disabled":false,"rental_uris":{"android":"levelo://app?vid=152b5c3a-36d2-437a-86a0-0405b0cc1f05","ios":"levelo://app?vid=152b5c3a-36d2-437a-86a0-0405b0cc1f05"},"vehicle_type_id":"4","last_reported":1748521202,"current_range_meters":11600,"station_id":"ce4bhbh2rcd13ifvqeo0","pricing_plan_id":"cebpf4jnsgd1na2vs0mg"},{"bike_id":"7aa283d7-02d1-4ffe-afeb-3b1a9120c104","system_id":"levelo_inurba_marseille","lat":43.25934,"lon":5.4091,"is_reserved":false,"is_disabled":false,"rental_uris":{"android":"levelo://app?vid=7aa283d7-02d1-4ffe-afeb-3b1a9120c104","ios":"levelo://app?vid=7aa283d7-02d1-4ffe-afeb-3b1a9120c104"},"vehicle_type_id":"4","last_reported":1748521202,"current_range_meters":11600,"station_id":"ce4bhm92rcd13ifvqglg","pricing_plan_id":"cebpf4jnsgd1na2vs0mg"},{"bike_id":"ef47b37c-1dd9-4c98-a996-f57ad3d6c0a9","system_id":"levelo_inurba_marseille","lat":43.23055,"lon":5.35489,"is_reserved":false,"is_disabled":false,"rental_uris":{"android":"levelo://app?vid=ef47b37c-1dd9-4c98-a996-f57ad3d6c0a9","ios":"levelo://app?vid=ef47b37c-1dd9-4c98-a996-f57ad3d6c0a9"},"vehicle_type_id":"4","last_reported":1748521202,"current_range_meters":11600,"station_id":"cpo3342slgdg3j2ifvpg","pricing_plan_id":"cebpf4jnsgd1na2vs0mg"},{"bike_id":"0e009545-9acc-491d-b143-22cbd0096db4","system_id":"levelo_inurba_marseille","lat":43.33835,"lon":5.39251,"is_reserved":false,"is_disabled":false,"rental_uris":{"android":"levelo://app?vid=0e009545-9acc-491d-b143-22cbd0096db4","ios":"levelo://app?vid=0e009545-9acc-491d-b143-22cbd0096db4"},"vehicle_type_id":"4","last_reported":1748521202,"current_range_meters":12000,"station_id":"","pricing_plan_id":"cebpf4jnsgd1na2vs0mg"},{"bike_id":"5369f1d6-6faa-45f9-b572-03808050ba98","system_id":"levelo_inurba_marseille","lat":43.22504,"lon":5.34784,"is_reserved":false,"is_disabled":false,"rental_uris":{"android":"levelo://app?vid=5369f1d6-6faa-45f9-b572-03808050ba98","ios":"levelo://app?vid=5369f1d6-6faa-45f9-b572-03808050ba98"},"vehicle_type_id":"4","last_reported":1748521202,"current_range_meters":12000,"station_id":"","pricing_plan_id":"cebpf4jnsgd1na2vs0mg"},{"bike_id":"1c3cd058-a90e-4ba6-b61c-ac478e44309e","system_id":"levelo_inurba_marseille","lat":43.31064,"lon":5.38344,"is_reserved":false,"is_disabled":false,"rental_uris":{"android":"levelo://app?vid=1c3cd058-a90e-4ba6-b61c-ac478e44309e","ios":"levelo://app?vid=1c3cd058-a90e-4ba6-b61c-ac478e44309e"},"vehicle_type_id":"4","last_reported":1748521202,"current_range_meters":12000,"station_id":"ce4bgv92rcd13ifvqcr0","pricing_plan_id":"cebpf4jnsgd1na2vs0mg"},{"bike_id":"707a7ce8-9ca5-46f1-9d90-f4228fb6b621","system_id":"levelo_inurba_marseille","lat":43.30518,"lon":5.36698,"is_reserved":false,"is_disabled":false,"rental_uris":{"android":"levelo://app?vid=707a7ce8-9ca5-46f1-9d90-f4228fb6b621","ios":"levelo://app?vid=707a7ce8-9ca5-46f1-9d90-f4228fb6b621"},"vehicle_type_id":"4","last_reported":1748521202,"current_range_meters":12400,"station_id":"ce4bgrp2rcd13ifvqc9g","pricing_plan_id":"cebpf4jnsgd1na2vs0mg"},{"bike_id":"8d8c5fec-11db-456e-8447-a56269dc30da","system_id":"levelo_inurba_marseille","lat":43.29049,"lon":5.35921,"is_reserved":false,"is_disabled":false,"rental_uris":{"android":"levelo://app?vid=8d8c5fec-11db-456e-8447-a56269dc30da","ios":"levelo://app?vid=8d8c5fec-11db-456e-8447-a56269dc30da"},"vehicle_type_id":"4","last_reported":1748521202,"current_range_meters":12400,"station_id":"ce4bha92rcd13ifvqeg0","pricing_plan_id":"cebpf4jnsgd1na2vs0mg"},{"bike_id":"f96d3350-c5bf-4b21-add4-93ecfdb5e9e5","system_id":"levelo_inurba_marseille","lat":43.26545,"lon":5.37258,"is_reserved":false,"is_disabled":false,"rental_uris":{"android":"levelo://app?vid=f96d3350-c5bf-4b21-add4-93ecfdb5e9e5","ios":"levelo://app?vid=f96d3350-c5bf-4b21-add4-93ecfdb5e9e5"},"vehicle_type_id":"4","last_reported":1748521202,"current_range_meters":12400,"station_id":"ce4bhg12rcd13ifvqf70","pricing_plan_id":"cebpf4jnsgd1na2vs0mg"},{"bike_id":"68779e2f-e5c8-4ca9-afa9-75c3db6100f3","system_id":"levelo_inurba_marseille","lat":43.24802,"lon":5.37452,"is_reserved":false,"is_disabled":false,"rental_uris":{"android":"levelo://app?vid=68779e2f-e5c8-4ca9-afa9-75c3db6100f3","ios":"levelo://app?vid=68779e2f-e5c8-4ca9-afa9-75c3db6100f3"},"vehicle_type_id":"4","last_reported":1748521202,"current_range_meters":12400,"station_id":"ce4bhgh2rcd13ifvqfb0","pricing_plan_id":"cebpf4jnsgd1na2vs0mg"},{"bike_id":"2f1cb291-6763-4083-b0ed-d7789f04f872","system_id":"levelo_inurba_marseille","lat":43.25109,"lon":5.4033,"is_reserved":false,"is_disabled":false,"rental_uris":{"android":"levelo://app?vid=2f1cb291-6763-4083-b0ed-d7789f04f872","ios":"levelo://app?vid=2f1cb291-6763-4083-b0ed-d7789f04f872"},"vehicle_type_id":"4","last_reported":1748521202,"current_range_meters":12400,"station_id":"ce4bhlh2rcd13ifvqgig","pricing_plan_id":"cebpf4jnsgd1na2vs0mg"},{"bike_id":"1bae3717-4acf-46a4-9fa1-6bf75324411a","system_id":"levelo_inurba_marseille","lat":43.23205,"lon":5.39989,"is_reserved":false,"is_disabled":false,"rental_uris":{"android":"levelo://app?vid=1bae3717-4acf-46a4-9fa1-6bf75324411a","ios":"levelo://app?vid=1bae3717-4acf-46a4-9fa1-6bf75324411a"},"vehicle_type_id":"4","last_reported":1748521202,"current_range_meters":12400,"station_id":"ce4bhn12rcd13ifvqgqg","pricing_plan_id":"cebpf4jnsgd1na2vs0mg"},{"bike_id":"a91d16ed-809c-419a-888d-091b8bc88dec","system_id":"levelo_inurba_marseille","lat":43.23062,"lon":5.35488,"is_reserved":false,"is_disabled":false,"rental_uris":{"android":"levelo://app?vid=a91d16ed-809c-419a-888d-091b8bc88dec","ios":"levelo://app?vid=a91d16ed-809c-419a-888d-091b8bc88dec"},"vehicle_type_id":"4","last_reported":1748521202,"current_range_meters":12400,"station_id":"cpo3342slgdg3j2ifvpg","pricing_plan_id":"cebpf4jnsgd1na2vs0mg"},{"bike_id":"a37a1189-6d2e-4155-88a0-28ee6a11efa4","system_id":"levelo_inurba_marseille","lat":43.30592,"lon":5.39363,"is_reserved":false,"is_disabled":false,"rental_uris":{"android":"levelo://app?vid=a37a1189-6d2e-4155-88a0-28ee6a11efa4","ios":"levelo://app?vid=a37a1189-6d2e-4155-88a0-28ee6a11efa4"},"vehicle_type_id":"4","last_reported":1748521202,"current_range_meters":12800,"station_id":"ce4bh0p2rcd13ifvqd80","pricing_plan_id":"cebpf4jnsgd1na2vs0mg"},{"bike_id":"c0192247-1d4f-4853-9ebe-790dc58789ce","system_id":"levelo_inurba_marseille","lat":43.29006,"lon":5.35614,"is_reserved":false,"is_disabled":false,"rental_uris":{"android":"levelo://app?vid=c0192247-1d4f-4853-9ebe-790dc58789ce","ios":"levelo://app?vid=c0192247-1d4f-4853-9ebe-790dc58789ce"},"vehicle_type_id":"4","last_reported":1748521202,"current_range_meters":12800,"station_id":"ce4bhb92rcd13ifvqen0","pricing_plan_id":"cebpf4jnsgd1na2vs0mg"},{"bike_id":"8e2884b4-ffe5-454c-b1b8-2fc7491c4a9f","system_id":"levelo_inurba_marseille","lat":43.28269,"lon":5.35067,"is_reserved":false,"is_disabled":false,"rental_uris":{"android":"levelo://app?vid=8e2884b4-ffe5-454c-b1b8-2fc7491c4a9f","ios":"levelo://app?vid=8e2884b4-ffe5-454c-b1b8-2fc7491c4a9f"},"vehicle_type_id":"4","last_reported":1748521202,"current_range_meters":12800,"station_id":"ce4bhbp2rcd13ifvqerg","pricing_plan_id":"cebpf4jnsgd1na2vs0mg"},{"bike_id":"541d2f0a-b5f7-4ef1-8894-52b2843bac73","system_id":"levelo_inurba_marseille","lat":43.26213,"lon":5.3744,"is_reserved":false,"is_disabled":false,"rental_uris":{"android":"levelo://app?vid=541d2f0a-b5f7-4ef1-8894-52b2843bac73","ios":"levelo://app?vid=541d2f0a-b5f7-4ef1-8894-52b2843bac73"},"vehicle_type_id":"4","last_reported":1748521202,"current_range_meters":12800,"station_id":"ce4bhgp2rcd13ifvqfc0","pricing_plan_id":"cebpf4jnsgd1na2vs0mg"},{"bike_id":"5f411f71-41f3-487d-aced-b1365ad0f0d9","system_id":"levelo_inurba_marseille","lat":43.21749,"lon":5.34596,"is_reserved":false,"is_disabled":false,"rental_uris":{"android":"levelo://app?vid=5f411f71-41f3-487d-aced-b1365ad0f0d9","ios":"levelo://app?vid=5f411f71-41f3-487d-aced-b1365ad0f0d9"},"vehicle_type_id":"4","last_reported":1748521202,"current_range_meters":13600,"station_id":"","pricing_plan_id":"cebpf4jnsgd1na2vs0mg"},{"bike_id":"8f7f9dba-c1a2-4705-9cfb-78b381b601cf","system_id":"levelo_inurba_marseille","lat":43.30926,"lon":5.40158,"is_reserved":false,"is_disabled":false,"rental_uris":{"android":"levelo://app?vid=8f7f9dba-c1a2-4705-9cfb-78b381b601cf","ios":"levelo://app?vid=8f7f9dba-c1a2-4705-9cfb-78b381b601cf"},"vehicle_type_id":"4","last_reported":1748521202,"current_range_meters":13600,"station_id":"ce4bgvp2rcd13ifvqct0","pricing_plan_id":"cebpf4jnsgd1na2vs0mg"},{"bike_id":"fd3c611e-388a-4963-8796-70ce94fac7bc","system_id":"levelo_inurba_marseille","lat":43.29053,"lon":5.35892,"is_reserved":false,"is_disabled":false,"rental_uris":{"android":"levelo://app?vid=fd3c611e-388a-4963-8796-70ce94fac7bc","ios":"levelo://app?vid=fd3c611e-388a-4963-8796-70ce94fac7bc"},"vehicle_type_id":"4","last_reported":1748521202,"current_range_meters":13600,"station_id":"ce4bha92rcd13ifvqeg0","pricing_plan_id":"cebpf4jnsgd1na2vs0mg"},{"bike_id":"d83bc391-0718-49ae-9b9b-2595c3b5c7eb","system_id":"levelo_inurba_marseille","lat":43.26216,"lon":5.37438,"is_reserved":false,"is_disabled":false,"rental_uris":{"android":"levelo://app?vid=d83bc391-0718-49ae-9b9b-2595c3b5c7eb","ios":"levelo://app?vid=d83bc391-0718-49ae-9b9b-2595c3b5c7eb"},"vehicle_type_id":"4","last_reported":1748521202,"current_range_meters":13600,"station_id":"ce4bhgp2rcd13ifvqfc0","pricing_plan_id":"cebpf4jnsgd1na2vs0mg"},{"bike_id":"a426f99b-d34a-41bf-bbda-59f7dfd6939b","system_id":"levelo_inurba_marseille","lat":43.255796,"lon":5.382262,"is_reserved":false,"is_disabled":false,"rental_uris":{"android":"levelo://app?vid=a426f99b-d34a-41bf-bbda-59f7dfd6939b","ios":"levelo://app?vid=a426f99b-d34a-41bf-bbda-59f7dfd6939b"},"vehicle_type_id":"4","last_reported":1748521202,"current_range_meters":13600,"station_id":"ce501612rcd8frsf0b60","pricing_plan_id":"cebpf4jnsgd1na2vs0mg"},{"bike_id":"d10d29f7-70e6-4be8-bfb3-1f95c76520b4","system_id":"levelo_inurba_marseille","lat":43.24165,"lon":5.36388,"is_reserved":false,"is_disabled":false,"rental_uris":{"android":"levelo://app?vid=d10d29f7-70e6-4be8-bfb3-1f95c76520b4","ios":"levelo://app?vid=d10d29f7-70e6-4be8-bfb3-1f95c76520b4"},"vehicle_type_id":"4","last_reported":1748521202,"current_range_meters":13600,"station_id":"cpo36qri1sfpv3e86is0","pricing_plan_id":"cebpf4jnsgd1na2vs0mg"},{"bike_id":"c8e3e8d4-2760-439c-b028-b56f52c7347e","system_id":"levelo_inurba_marseille","lat":43.21183,"lon":5.35072,"is_reserved":false,"is_disabled":false,"rental_uris":{"android":"levelo://app?vid=c8e3e8d4-2760-439c-b028-b56f52c7347e","ios":"levelo://app?vid=c8e3e8d4-2760-439c-b028-b56f52c7347e"},"vehicle_type_id":"4","last_reported":1748521202,"current_range_meters":13600,"station_id":"st_cvj6sg6p6f1abm77japg","pricing_plan_id":"cebpf4jnsgd1na2vs0mg"},{"bike_id":"92d5ef00-5edd-4684-8816-5ee0d82a46cd","system_id":"levelo_inurba_marseille","lat":43.28262,"lon":5.35073,"is_reserved":false,"is_disabled":false,"rental_uris":{"android":"levelo://app?vid=92d5ef00-5edd-4684-8816-5ee0d82a46cd","ios":"levelo://app?vid=92d5ef00-5edd-4684-8816-5ee0d82a46cd"},"vehicle_type_id":"4","last_reported":1748521202,"current_range_meters":14000,"station_id":"","pricing_plan_id":"cebpf4jnsgd1na2vs0mg"},{"bike_id":"e9cda520-c6f4-465d-ad7f-8c059b3dc45a","system_id":"levelo_inurba_marseille","lat":43.31379,"lon":5.3835,"is_reserved":false,"is_disabled":false,"rental_uris":{"android":"levelo://app?vid=e9cda520-c6f4-465d-ad7f-8c059b3dc45a","ios":"levelo://app?vid=e9cda520-c6f4-465d-ad7f-8c059b3dc45a"},"vehicle_type_id":"4","last_reported":1748521202,"current_range_meters":14000,"station_id":"","pricing_plan_id":"cebpf4jnsgd1na2vs0mg"},{"bike_id":"f5733814-9732-4748-bcc9-3b2fac8e1564","system_id":"levelo_inurba_marseille","lat":43.31256,"lon":5.37829,"is_reserved":false,"is_disabled":false,"rental_uris":{"android":"levelo://app?vid=f5733814-9732-4748-bcc9-3b2fac8e1564","ios":"levelo://app?vid=f5733814-9732-4748-bcc9-3b2fac8e1564"},"vehicle_type_id":"4","last_reported":1748521202,"current_range_meters":14000,"station_id":"","pricing_plan_id":"cebpf4jnsgd1na2vs0mg"},{"bike_id":"9908d65e-7f1b-4a40-92bf-b12054f6663e","system_id":"levelo_inurba_marseille","lat":43.303046,"lon":5.368904,"is_reserved":false,"is_disabled":false,"rental_uris":{"android":"levelo://app?vid=9908d65e-7f1b-4a40-92bf-b12054f6663e","ios":"levelo://app?vid=9908d65e-7f1b-4a40-92bf-b12054f6663e"},"vehicle_type_id":"4","last_reported":1748521202,"current_range_meters":14000,"station_id":"ce4bgqh2rcd13ifvqc5g","pricing_plan_id":"cebpf4jnsgd1na2vs0mg"},{"bike_id":"d6a412e7-c6e8-4f36-a9aa-ec5c97bdc28f","system_id":"levelo_inurba_marseille","lat":43.242425,"lon":5.377623,"is_reserved":false,"is_disabled":false,"rental_uris":{"android":"levelo://app?vid=d6a412e7-c6e8-4f36-a9aa-ec5c97bdc28f","ios":"levelo://app?vid=d6a412e7-c6e8-4f36-a9aa-ec5c97bdc28f"},"vehicle_type_id":"4","last_reported":1748521202,"current_range_meters":14000,"station_id":"ce4bhnp2rcd13ifvqgvg","pricing_plan_id":"cebpf4jnsgd1na2vs0mg"},{"bike_id":"5f852cdb-8095-4c80-a6f0-16ddfe179a27","system_id":"levelo_inurba_marseille","lat":43.29795,"lon":5.37104,"is_reserved":false,"is_disabled":false,"rental_uris":{"android":"levelo://app?vid=5f852cdb-8095-4c80-a6f0-16ddfe179a27","ios":"levelo://app?vid=5f852cdb-8095-4c80-a6f0-16ddfe179a27"},"vehicle_type_id":"4","last_reported":1748521202,"current_range_meters":14400,"station_id":"ce4bgop2rcd13ifvqc1g","pricing_plan_id":"cebpf4jnsgd1na2vs0mg"},{"bike_id":"220e1d86-a422-4ac6-9770-21245e568aae","system_id":"levelo_inurba_marseille","lat":43.309364,"lon":5.401665,"is_reserved":false,"is_disabled":false,"rental_uris":{"android":"levelo://app?vid=220e1d86-a422-4ac6-9770-21245e568aae","ios":"levelo://app?vid=220e1d86-a422-4ac6-9770-21245e568aae"},"vehicle_type_id":"4","last_reported":1748521202,"current_range_meters":14400,"station_id":"ce4bgvp2rcd13ifvqct0","pricing_plan_id":"cebpf4jnsgd1na2vs0mg"},{"bike_id":"c8b6051d-2aba-476f-abe9-a30e9361bb81","system_id":"levelo_inurba_marseille","lat":43.29172,"lon":5.37182,"is_reserved":false,"is_disabled":false,"rental_uris":{"android":"levelo://app?vid=c8b6051d-2aba-476f-abe9-a30e9361bb81","ios":"levelo://app?vid=c8b6051d-2aba-476f-abe9-a30e9361bb81"},"vehicle_type_id":"4","last_reported":1748521202,"current_range_meters":14400,"station_id":"ce4bha92rcd13ifvqeh0","pricing_plan_id":"cebpf4jnsgd1na2vs0mg"},{"bike_id":"7af6ea8a-7298-4fea-8160-1285677186ff","system_id":"levelo_inurba_marseille","lat":43.288513,"lon":5.358501,"is_reserved":false,"is_disabled":false,"rental_uris":{"android":"levelo://app?vid=7af6ea8a-7298-4fea-8160-1285677186ff","ios":"levelo://app?vid=7af6ea8a-7298-4fea-8160-1285677186ff"},"vehicle_type_id":"4","last_reported":1748521202,"current_range_meters":14400,"station_id":"ce4bhb12rcd13ifvqem0","pricing_plan_id":"cebpf4jnsgd1na2vs0mg"},{"bike_id":"07839820-a17f-450a-a667-7d66c49fcc27","system_id":"levelo_inurba_marseille","lat":43.282695,"lon":5.350785,"is_reserved":false,"is_disabled":false,"rental_uris":{"android":"levelo://app?vid=07839820-a17f-450a-a667-7d66c49fcc27","ios":"levelo://app?vid=07839820-a17f-450a-a667-7d66c49fcc27"},"vehicle_type_id":"4","last_reported":1748521202,"current_range_meters":14400,"station_id":"ce4bhbp2rcd13ifvqerg","pricing_plan_id":"cebpf4jnsgd1na2vs0mg"},{"bike_id":"f3754344-17c8-4baf-82c9-6c82f1e61011","system_id":"levelo_inurba_marseille","lat":43.26212,"lon":5.37441,"is_reserved":false,"is_disabled":false,"rental_uris":{"android":"levelo://app?vid=f3754344-17c8-4baf-82c9-6c82f1e61011","ios":"levelo://app?vid=f3754344-17c8-4baf-82c9-6c82f1e61011"},"vehicle_type_id":"4","last_reported":1748521202,"current_range_meters":14400,"station_id":"ce4bhgp2rcd13ifvqfc0","pricing_plan_id":"cebpf4jnsgd1na2vs0mg"},{"bike_id":"2e9edf13-ec48-4983-a975-f5211af77791","system_id":"levelo_inurba_marseille","lat":43.255017,"lon":5.376382,"is_reserved":false,"is_disabled":false,"rental_uris":{"android":"levelo://app?vid=2e9edf13-ec48-4983-a975-f5211af77791","ios":"levelo://app?vid=2e9edf13-ec48-4983-a975-f5211af77791"},"vehicle_type_id":"4","last_reported":1748521202,"current_range_meters":14400,"station_id":"ce4bhh12rcd13ifvqff0","pricing_plan_id":"cebpf4jnsgd1na2vs0mg"},{"bike_id":"6e9bf3c8-e667-45a8-9785-410b3bd49f31","system_id":"levelo_inurba_marseille","lat":43.26502,"lon":5.39537,"is_reserved":false,"is_disabled":false,"rental_uris":{"android":"levelo://app?vid=6e9bf3c8-e667-45a8-9785-410b3bd49f31","ios":"levelo://app?vid=6e9bf3c8-e667-45a8-9785-410b3bd49f31"},"vehicle_type_id":"4","last_reported":1748521202,"current_range_meters":14400,"station_id":"ce4bhi12rcd13ifvqfq0","pricing_plan_id":"cebpf4jnsgd1na2vs0mg"},{"bike_id":"8d8c770f-ecb6-4fb4-a771-7d258681a7fc","system_id":"levelo_inurba_marseille","lat":43.232,"lon":5.35553,"is_reserved":false,"is_disabled":false,"rental_uris":{"android":"levelo://app?vid=8d8c770f-ecb6-4fb4-a771-7d258681a7fc","ios":"levelo://app?vid=8d8c770f-ecb6-4fb4-a771-7d258681a7fc"},"vehicle_type_id":"4","last_reported":1748521202,"current_range_meters":14400,"station_id":"ce4bhu92rcd13ifvqi70","pricing_plan_id":"cebpf4jnsgd1na2vs0mg"},{"bike_id":"8c7291be-ed63-4533-9817-ac4e5bc6776f","system_id":"levelo_inurba_marseille","lat":43.337444,"lon":5.374475,"is_reserved":false,"is_disabled":false,"rental_uris":{"android":"levelo://app?vid=8c7291be-ed63-4533-9817-ac4e5bc6776f","ios":"levelo://app?vid=8c7291be-ed63-4533-9817-ac4e5bc6776f"},"vehicle_type_id":"4","last_reported":1748521202,"current_range_meters":14800,"station_id":"","pricing_plan_id":"cebpf4jnsgd1na2vs0mg"},{"bike_id":"bcb5f74e-9dd0-4985-b414-732f19015f6a","system_id":"levelo_inurba_marseille","lat":43.28402,"lon":5.34969,"is_reserved":false,"is_disabled":false,"rental_uris":{"android":"levelo://app?vid=bcb5f74e-9dd0-4985-b414-732f19015f6a","ios":"levelo://app?vid=bcb5f74e-9dd0-4985-b414-732f19015f6a"},"vehicle_type_id":"4","last_reported":1748521202,"current_range_meters":14800,"station_id":"ce4bhbh2rcd13ifvqepg","pricing_plan_id":"cebpf4jnsgd1na2vs0mg"},{"bike_id":"a75866c0-48e6-48f4-a969-8e359a7341e9","system_id":"levelo_inurba_marseille","lat":43.261957,"lon":5.374462,"is_reserved":false,"is_disabled":false,"rental_uris":{"android":"levelo://app?vid=a75866c0-48e6-48f4-a969-8e359a7341e9","ios":"levelo://app?vid=a75866c0-48e6-48f4-a969-8e359a7341e9"},"vehicle_type_id":"4","last_reported":1748521202,"current_range_meters":14800,"station_id":"ce4bhgp2rcd13ifvqfc0","pricing_plan_id":"cebpf4jnsgd1na2vs0mg"},{"bike_id":"7b539272-f5c5-49cd-b022-47a429b80d96","system_id":"levelo_inurba_marseille","lat":43.23962,"lon":5.36626,"is_reserved":false,"is_disabled":false,"rental_uris":{"android":"levelo://app?vid=7b539272-f5c5-49cd-b022-47a429b80d96","ios":"levelo://app?vid=7b539272-f5c5-49cd-b022-47a429b80d96"},"vehicle_type_id":"4","last_reported":1748521202,"current_range_meters":14800,"station_id":"ce4bhi12rcd13ifvqfp0","pricing_plan_id":"cebpf4jnsgd1na2vs0mg"},{"bike_id":"2baebbe9-d1d0-4d5a-b019-03d63e6cb945","system_id":"levelo_inurba_marseille","lat":43.25581,"lon":5.38232,"is_reserved":false,"is_disabled":false,"rental_uris":{"android":"levelo://app?vid=2baebbe9-d1d0-4d5a-b019-03d63e6cb945","ios":"levelo://app?vid=2baebbe9-d1d0-4d5a-b019-03d63e6cb945"},"vehicle_type_id":"4","last_reported":1748521202,"current_range_meters":14800,"station_id":"ce4bhih2rcd13ifvqfs0","pricing_plan_id":"cebpf4jnsgd1na2vs0mg"},{"bike_id":"2843dbff-8ae3-4caa-a889-d21e70cbb542","system_id":"levelo_inurba_marseille","lat":43.27178,"lon":5.40996,"is_reserved":false,"is_disabled":false,"rental_uris":{"android":"levelo://app?vid=2843dbff-8ae3-4caa-a889-d21e70cbb542","ios":"levelo://app?vid=2843dbff-8ae3-4caa-a889-d21e70cbb542"},"vehicle_type_id":"4","last_reported":1748521202,"current_range_meters":14800,"station_id":"ce4bhl12rcd13ifvqgf0","pricing_plan_id":"cebpf4jnsgd1na2vs0mg"},{"bike_id":"d453b4cb-9fdc-4dc7-99be-69b01faef401","system_id":"levelo_inurba_marseille","lat":43.25107,"lon":5.403205,"is_reserved":false,"is_disabled":false,"rental_uris":{"android":"levelo://app?vid=d453b4cb-9fdc-4dc7-99be-69b01faef401","ios":"levelo://app?vid=d453b4cb-9fdc-4dc7-99be-69b01faef401"},"vehicle_type_id":"4","last_reported":1748521202,"current_range_meters":14800,"station_id":"ce4bhlh2rcd13ifvqgig","pricing_plan_id":"cebpf4jnsgd1na2vs0mg"},{"bike_id":"d59cfd7c-ded9-4b6f-8de9-bee3f95ba762","system_id":"levelo_inurba_marseille","lat":43.28568,"lon":5.39515,"is_reserved":false,"is_disabled":false,"rental_uris":{"android":"levelo://app?vid=d59cfd7c-ded9-4b6f-8de9-bee3f95ba762","ios":"levelo://app?vid=d59cfd7c-ded9-4b6f-8de9-bee3f95ba762"},"vehicle_type_id":"4","last_reported":1748521202,"current_range_meters":15200,"station_id":"ce4bh292rcd13ifvqdg0","pricing_plan_id":"cebpf4jnsgd1na2vs0mg"},{"bike_id":"bb4a7fbe-ab97-4646-a9da-0537b078c461","system_id":"levelo_inurba_marseille","lat":43.28462,"lon":5.35884,"is_reserved":false,"is_disabled":false,"rental_uris":{"android":"levelo://app?vid=bb4a7fbe-ab97-4646-a9da-0537b078c461","ios":"levelo://app?vid=bb4a7fbe-ab97-4646-a9da-0537b078c461"},"vehicle_type_id":"4","last_reported":1748521202,"current_range_meters":15200,"station_id":"ce4bhah2rcd13ifvqei0","pricing_plan_id":"cebpf4jnsgd1na2vs0mg"},{"bike_id":"bcf1a23d-cc46-43f9-9d70-f3f49baca1e5","system_id":"levelo_inurba_marseille","lat":43.24678,"lon":5.38156,"is_reserved":false,"is_disabled":false,"rental_uris":{"android":"levelo://app?vid=bcf1a23d-cc46-43f9-9d70-f3f49baca1e5","ios":"levelo://app?vid=bcf1a23d-cc46-43f9-9d70-f3f49baca1e5"},"vehicle_type_id":"4","last_reported":1748521202,"current_range_meters":15200,"station_id":"ce4bhih2rcd13ifvqfr0","pricing_plan_id":"cebpf4jnsgd1na2vs0mg"},{"bike_id":"dcf7af04-cf5b-40b2-9d91-3f81eadfd144","system_id":"levelo_inurba_marseille","lat":43.23147,"lon":5.43725,"is_reserved":false,"is_disabled":false,"rental_uris":{"android":"levelo://app?vid=dcf7af04-cf5b-40b2-9d91-3f81eadfd144","ios":"levelo://app?vid=dcf7af04-cf5b-40b2-9d91-3f81eadfd144"},"vehicle_type_id":"4","last_reported":1748521202,"current_range_meters":15200,"station_id":"ce4bhmp2rcd13ifvqgog","pricing_plan_id":"cebpf4jnsgd1na2vs0mg"},{"bike_id":"0136cf66-6d65-47ab-ac66-e07b97bc89d0","system_id":"levelo_inurba_marseille","lat":43.21747,"lon":5.34598,"is_reserved":false,"is_disabled":false,"rental_uris":{"android":"levelo://app?vid=0136cf66-6d65-47ab-ac66-e07b97bc89d0","ios":"levelo://app?vid=0136cf66-6d65-47ab-ac66-e07b97bc89d0"},"vehicle_type_id":"4","last_reported":1748521202,"current_range_meters":15200,"station_id":"st_cvj6r9ubvosntc0bgbag","pricing_plan_id":"cebpf4jnsgd1na2vs0mg"},{"bike_id":"6b77d8e2-6914-4f74-b37c-4eb29bd3731c","system_id":"levelo_inurba_marseille","lat":43.25981,"lon":5.40942,"is_reserved":false,"is_disabled":false,"rental_uris":{"android":"levelo://app?vid=6b77d8e2-6914-4f74-b37c-4eb29bd3731c","ios":"levelo://app?vid=6b77d8e2-6914-4f74-b37c-4eb29bd3731c"},"vehicle_type_id":"4","last_reported":1748521202,"current_range_meters":16000,"station_id":"","pricing_plan_id":"cebpf4jnsgd1na2vs0mg"},{"bike_id":"557ea134-2b45-46d3-8c40-e1b8b5880185","system_id":"levelo_inurba_marseille","lat":43.26186,"lon":5.42069,"is_reserved":false,"is_disabled":false,"rental_uris":{"android":"levelo://app?vid=557ea134-2b45-46d3-8c40-e1b8b5880185","ios":"levelo://app?vid=557ea134-2b45-46d3-8c40-e1b8b5880185"},"vehicle_type_id":"4","last_reported":1748521202,"current_range_meters":16000,"station_id":"","pricing_plan_id":"cebpf4jnsgd1na2vs0mg"},{"bike_id":"08045c10-53a7-4e30-8758-fd6d9a8ba4ff","system_id":"levelo_inurba_marseille","lat":43.29921,"lon":5.37481,"is_reserved":false,"is_disabled":false,"rental_uris":{"android":"levelo://app?vid=08045c10-53a7-4e30-8758-fd6d9a8ba4ff","ios":"levelo://app?vid=08045c10-53a7-4e30-8758-fd6d9a8ba4ff"},"vehicle_type_id":"4","last_reported":1748521202,"current_range_meters":16000,"station_id":"ce4bgjh2rcd13ifvqbg0","pricing_plan_id":"cebpf4jnsgd1na2vs0mg"},{"bike_id":"49524018-305a-4b78-91bc-464891d9e23a","system_id":"levelo_inurba_marseille","lat":43.3095,"lon":5.39027,"is_reserved":false,"is_disabled":false,"rental_uris":{"android":"levelo://app?vid=49524018-305a-4b78-91bc-464891d9e23a","ios":"levelo://app?vid=49524018-305a-4b78-91bc-464891d9e23a"},"vehicle_type_id":"4","last_reported":1748521202,"current_range_meters":16000,"station_id":"ce4bgup2rcd13ifvqco0","pricing_plan_id":"cebpf4jnsgd1na2vs0mg"},{"bike_id":"c4825385-2dbf-4533-88ca-29aefb9c4e2a","system_id":"levelo_inurba_marseille","lat":43.2804,"lon":5.36939,"is_reserved":false,"is_disabled":false,"rental_uris":{"android":"levelo://app?vid=c4825385-2dbf-4533-88ca-29aefb9c4e2a","ios":"levelo://app?vid=c4825385-2dbf-4533-88ca-29aefb9c4e2a"},"vehicle_type_id":"4","last_reported":1748521202,"current_range_meters":16000,"station_id":"ce4bha12rcd13ifvqef0","pricing_plan_id":"cebpf4jnsgd1na2vs0mg"},{"bike_id":"747224c9-7e52-4c58-9390-d943c4f5446c","system_id":"levelo_inurba_marseille","lat":43.27192,"lon":5.40999,"is_reserved":false,"is_disabled":false,"rental_uris":{"android":"levelo://app?vid=747224c9-7e52-4c58-9390-d943c4f5446c","ios":"levelo://app?vid=747224c9-7e52-4c58-9390-d943c4f5446c"},"vehicle_type_id":"4","last_reported":1748521202,"current_range_meters":16000,"station_id":"ce4bhl12rcd13ifvqgf0","pricing_plan_id":"cebpf4jnsgd1na2vs0mg"},{"bike_id":"517c5907-c92e-4b88-8b70-46e89413c8c5","system_id":"levelo_inurba_marseille","lat":43.23146,"lon":5.43707,"is_reserved":false,"is_disabled":false,"rental_uris":{"android":"levelo://app?vid=517c5907-c92e-4b88-8b70-46e89413c8c5","ios":"levelo://app?vid=517c5907-c92e-4b88-8b70-46e89413c8c5"},"vehicle_type_id":"4","last_reported":1748521202,"current_range_meters":16000,"station_id":"ce4bhmp2rcd13ifvqgog","pricing_plan_id":"cebpf4jnsgd1na2vs0mg"},{"bike_id":"9c241bf5-6d70-47a0-be97-d6d111668c44","system_id":"levelo_inurba_marseille","lat":43.30408,"lon":5.41297,"is_reserved":false,"is_disabled":false,"rental_uris":{"android":"levelo://app?vid=9c241bf5-6d70-47a0-be97-d6d111668c44","ios":"levelo://app?vid=9c241bf5-6d70-47a0-be97-d6d111668c44"},"vehicle_type_id":"4","last_reported":1748521202,"current_range_meters":16000,"station_id":"ce4bhop2rcd13ifvqh8g","pricing_plan_id":"cebpf4jnsgd1na2vs0mg"},{"bike_id":"c91f375f-f1af-4beb-83ef-b4aac44777e5","system_id":"levelo_inurba_marseille","lat":43.24161,"lon":5.36401,"is_reserved":false,"is_disabled":false,"rental_uris":{"android":"levelo://app?vid=c91f375f-f1af-4beb-83ef-b4aac44777e5","ios":"levelo://app?vid=c91f375f-f1af-4beb-83ef-b4aac44777e5"},"vehicle_type_id":"4","last_reported":1748521202,"current_range_meters":16000,"station_id":"cpo36qri1sfpv3e86is0","pricing_plan_id":"cebpf4jnsgd1na2vs0mg"},{"bike_id":"35dc31d0-876c-4ff8-a716-bdbcacf232fa","system_id":"levelo_inurba_marseille","lat":43.24172,"lon":5.36431,"is_reserved":false,"is_disabled":false,"rental_uris":{"android":"levelo://app?vid=35dc31d0-876c-4ff8-a716-bdbcacf232fa","ios":"levelo://app?vid=35dc31d0-876c-4ff8-a716-bdbcacf232fa"},"vehicle_type_id":"4","last_reported":1748521202,"current_range_meters":16000,"station_id":"cpo36qri1sfpv3e86is0","pricing_plan_id":"cebpf4jnsgd1na2vs0mg"},{"bike_id":"9a86381f-51bc-4d54-858d-d27c0e51d901","system_id":"levelo_inurba_marseille","lat":43.30728,"lon":5.42448,"is_reserved":false,"is_disabled":false,"rental_uris":{"android":"levelo://app?vid=9a86381f-51bc-4d54-858d-d27c0e51d901","ios":"levelo://app?vid=9a86381f-51bc-4d54-858d-d27c0e51d901"},"vehicle_type_id":"4","last_reported":1748521202,"current_range_meters":16000,"station_id":"st_cvj6ca6bvosntc0bfgr0","pricing_plan_id":"cebpf4jnsgd1na2vs0mg"},{"bike_id":"582fbe14-7549-4587-9f4e-0a7f9ac34e44","system_id":"levelo_inurba_marseille","lat":43.28267,"lon":5.35069,"is_reserved":false,"is_disabled":false,"rental_uris":{"android":"levelo://app?vid=582fbe14-7549-4587-9f4e-0a7f9ac34e44","ios":"levelo://app?vid=582fbe14-7549-4587-9f4e-0a7f9ac34e44"},"vehicle_type_id":"4","last_reported":1748521202,"current_range_meters":16400,"station_id":"","pricing_plan_id":"cebpf4jnsgd1na2vs0mg"},{"bike_id":"b7020ec2-d08d-489a-8b7c-6a077dc1acf5","system_id":"levelo_inurba_marseille","lat":43.23295,"lon":5.36078,"is_reserved":false,"is_disabled":false,"rental_uris":{"android":"levelo://app?vid=b7020ec2-d08d-489a-8b7c-6a077dc1acf5","ios":"levelo://app?vid=b7020ec2-d08d-489a-8b7c-6a077dc1acf5"},"vehicle_type_id":"4","last_reported":1748521202,"current_range_meters":16400,"station_id":"","pricing_plan_id":"cebpf4jnsgd1na2vs0mg"},{"bike_id":"f357dbce-0dbb-41a1-bb5c-27ced9b29db9","system_id":"levelo_inurba_marseille","lat":43.288674,"lon":5.365626,"is_reserved":false,"is_disabled":false,"rental_uris":{"android":"levelo://app?vid=f357dbce-0dbb-41a1-bb5c-27ced9b29db9","ios":"levelo://app?vid=f357dbce-0dbb-41a1-bb5c-27ced9b29db9"},"vehicle_type_id":"4","last_reported":1748521202,"current_range_meters":16400,"station_id":"ce4bhch2rcd13ifvqeug","pricing_plan_id":"cebpf4jnsgd1na2vs0mg"},{"bike_id":"88ca12ac-6570-4760-b5d7-0b3325462f98","system_id":"levelo_inurba_marseille","lat":43.26699,"lon":5.38283,"is_reserved":false,"is_disabled":false,"rental_uris":{"android":"levelo://app?vid=88ca12ac-6570-4760-b5d7-0b3325462f98","ios":"levelo://app?vid=88ca12ac-6570-4760-b5d7-0b3325462f98"},"vehicle_type_id":"4","last_reported":1748521202,"current_range_meters":16400,"station_id":"ce4bhg92rcd13ifvqf90","pricing_plan_id":"cebpf4jnsgd1na2vs0mg"},{"bike_id":"caac217f-7292-4c57-bfce-76d9beeb04c4","system_id":"levelo_inurba_marseille","lat":43.25489,"lon":5.37652,"is_reserved":false,"is_disabled":false,"rental_uris":{"android":"levelo://app?vid=caac217f-7292-4c57-bfce-76d9beeb04c4","ios":"levelo://app?vid=caac217f-7292-4c57-bfce-76d9beeb04c4"},"vehicle_type_id":"4","last_reported":1748521202,"current_range_meters":16400,"station_id":"ce4bhh12rcd13ifvqff0","pricing_plan_id":"cebpf4jnsgd1na2vs0mg"},{"bike_id":"f61b7f73-84e3-4805-a73d-0334d49a8a59","system_id":"levelo_inurba_marseille","lat":43.231813,"lon":5.4,"is_reserved":false,"is_disabled":false,"rental_uris":{"android":"levelo://app?vid=f61b7f73-84e3-4805-a73d-0334d49a8a59","ios":"levelo://app?vid=f61b7f73-84e3-4805-a73d-0334d49a8a59"},"vehicle_type_id":"4","last_reported":1748521202,"current_range_meters":16400,"station_id":"ce4bhn12rcd13ifvqgqg","pricing_plan_id":"cebpf4jnsgd1na2vs0mg"},{"bike_id":"d61288f7-3174-4efe-8b83-ec9987e569e2","system_id":"levelo_inurba_marseille","lat":43.23189,"lon":5.39981,"is_reserved":false,"is_disabled":false,"rental_uris":{"android":"levelo://app?vid=d61288f7-3174-4efe-8b83-ec9987e569e2","ios":"levelo://app?vid=d61288f7-3174-4efe-8b83-ec9987e569e2"},"vehicle_type_id":"4","last_reported":1748521202,"current_range_meters":16400,"station_id":"ce4bhn12rcd13ifvqgqg","pricing_plan_id":"cebpf4jnsgd1na2vs0mg"},{"bike_id":"49add747-1f7d-4cd3-88c0-e087f4c6ecaf","system_id":"levelo_inurba_marseille","lat":43.29568,"lon":5.4228,"is_reserved":false,"is_disabled":false,"rental_uris":{"android":"levelo://app?vid=49add747-1f7d-4cd3-88c0-e087f4c6ecaf","ios":"levelo://app?vid=49add747-1f7d-4cd3-88c0-e087f4c6ecaf"},"vehicle_type_id":"4","last_reported":1748521202,"current_range_meters":16400,"station_id":"ce4bhph2rcd13ifvqhdg","pricing_plan_id":"cebpf4jnsgd1na2vs0mg"},{"bike_id":"2a9acb4b-2bb8-4ce6-982a-371ff22de0c6","system_id":"levelo_inurba_marseille","lat":43.211953,"lon":5.350701,"is_reserved":false,"is_disabled":false,"rental_uris":{"android":"levelo://app?vid=2a9acb4b-2bb8-4ce6-982a-371ff22de0c6","ios":"levelo://app?vid=2a9acb4b-2bb8-4ce6-982a-371ff22de0c6"},"vehicle_type_id":"4","last_reported":1748521202,"current_range_meters":16400,"station_id":"st_cvj6sg6p6f1abm77japg","pricing_plan_id":"cebpf4jnsgd1na2vs0mg"},{"bike_id":"207f8feb-a1a5-4651-bade-17e0403607dd","system_id":"levelo_inurba_marseille","lat":43.27619,"lon":5.36103,"is_reserved":false,"is_disabled":false,"rental_uris":{"android":"levelo://app?vid=207f8feb-a1a5-4651-bade-17e0403607dd","ios":"levelo://app?vid=207f8feb-a1a5-4651-bade-17e0403607dd"},"vehicle_type_id":"4","last_reported":1748521202,"current_range_meters":16800,"station_id":"ce4bgj92rcd13ifvqbe0","pricing_plan_id":"cebpf4jnsgd1na2vs0mg"},{"bike_id":"4ffcb448-c288-43fd-ba12-7695b392f867","system_id":"levelo_inurba_marseille","lat":43.294407,"lon":5.385542,"is_reserved":false,"is_disabled":false,"rental_uris":{"android":"levelo://app?vid=4ffcb448-c288-43fd-ba12-7695b392f867","ios":"levelo://app?vid=4ffcb448-c288-43fd-ba12-7695b392f867"},"vehicle_type_id":"4","last_reported":1748521202,"current_range_meters":16800,"station_id":"ce4bh2h2rcd13ifvqdh0","pricing_plan_id":"cebpf4jnsgd1na2vs0mg"},{"bike_id":"11997ce1-f38b-4364-92fb-ade5dd387b19","system_id":"levelo_inurba_marseille","lat":43.29004,"lon":5.35605,"is_reserved":false,"is_disabled":false,"rental_uris":{"android":"levelo://app?vid=11997ce1-f38b-4364-92fb-ade5dd387b19","ios":"levelo://app?vid=11997ce1-f38b-4364-92fb-ade5dd387b19"},"vehicle_type_id":"4","last_reported":1748521202,"current_range_meters":16800,"station_id":"ce4bhb92rcd13ifvqen0","pricing_plan_id":"cebpf4jnsgd1na2vs0mg"},{"bike_id":"5bf3330b-5e76-45f0-af5a-9a71acc5459e","system_id":"levelo_inurba_marseille","lat":43.27917,"lon":5.39586,"is_reserved":false,"is_disabled":false,"rental_uris":{"android":"levelo://app?vid=5bf3330b-5e76-45f0-af5a-9a71acc5459e","ios":"levelo://app?vid=5bf3330b-5e76-45f0-af5a-9a71acc5459e"},"vehicle_type_id":"4","last_reported":1748521202,"current_range_meters":16800,"station_id":"ce4bhf92rcd13ifvqf40","pricing_plan_id":"cebpf4jnsgd1na2vs0mg"},{"bike_id":"2f0b886c-8247-496f-bdc3-327761e32d8c","system_id":"levelo_inurba_marseille","lat":43.23154,"lon":5.43743,"is_reserved":false,"is_disabled":false,"rental_uris":{"android":"levelo://app?vid=2f0b886c-8247-496f-bdc3-327761e32d8c","ios":"levelo://app?vid=2f0b886c-8247-496f-bdc3-327761e32d8c"},"vehicle_type_id":"4","last_reported":1748521202,"current_range_meters":16800,"station_id":"ce4bhmp2rcd13ifvqgog","pricing_plan_id":"cebpf4jnsgd1na2vs0mg"},{"bike_id":"7243d7c8-02f5-4392-89cf-8c360e846d55","system_id":"levelo_inurba_marseille","lat":43.25275,"lon":5.37841,"is_reserved":false,"is_disabled":false,"rental_uris":{"android":"levelo://app?vid=7243d7c8-02f5-4392-89cf-8c360e846d55","ios":"levelo://app?vid=7243d7c8-02f5-4392-89cf-8c360e846d55"},"vehicle_type_id":"4","last_reported":1748521202,"current_range_meters":17200,"station_id":"","pricing_plan_id":"cebpf4jnsgd1na2vs0mg"},{"bike_id":"67bede64-5ce8-4451-8ced-721b35b0100f","system_id":"levelo_inurba_marseille","lat":43.299129,"lon":5.385302,"is_reserved":false,"is_disabled":false,"rental_uris":{"android":"levelo://app?vid=67bede64-5ce8-4451-8ced-721b35b0100f","ios":"levelo://app?vid=67bede64-5ce8-4451-8ced-721b35b0100f"},"vehicle_type_id":"4","last_reported":1748521202,"current_range_meters":17200,"station_id":"ce4bgj92rcd13ifvqbd0","pricing_plan_id":"cebpf4jnsgd1na2vs0mg"},{"bike_id":"1ae8a2f9-d079-4fa4-9b6f-e53f9516ff67","system_id":"levelo_inurba_marseille","lat":43.305397,"lon":5.365577,"is_reserved":false,"is_disabled":false,"rental_uris":{"android":"levelo://app?vid=1ae8a2f9-d079-4fa4-9b6f-e53f9516ff67","ios":"levelo://app?vid=1ae8a2f9-d079-4fa4-9b6f-e53f9516ff67"},"vehicle_type_id":"4","last_reported":1748521202,"current_range_meters":17200,"station_id":"ce4bgs12rcd13ifvqcag","pricing_plan_id":"cebpf4jnsgd1na2vs0mg"},{"bike_id":"d28faca7-51b7-4a48-a1ac-11e0276a4002","system_id":"levelo_inurba_marseille","lat":43.30271,"lon":5.3774,"is_reserved":false,"is_disabled":false,"rental_uris":{"android":"levelo://app?vid=d28faca7-51b7-4a48-a1ac-11e0276a4002","ios":"levelo://app?vid=d28faca7-51b7-4a48-a1ac-11e0276a4002"},"vehicle_type_id":"4","last_reported":1748521202,"current_range_meters":17200,"station_id":"ce4bguh2rcd13ifvqcj0","pricing_plan_id":"cebpf4jnsgd1na2vs0mg"},{"bike_id":"af3b49ae-bb14-4ea7-857b-3cd81b502a69","system_id":"levelo_inurba_marseille","lat":43.28413,"lon":5.349913,"is_reserved":false,"is_disabled":false,"rental_uris":{"android":"levelo://app?vid=af3b49ae-bb14-4ea7-857b-3cd81b502a69","ios":"levelo://app?vid=af3b49ae-bb14-4ea7-857b-3cd81b502a69"},"vehicle_type_id":"4","last_reported":1748521202,"current_range_meters":17200,"station_id":"ce4bhbh2rcd13ifvqepg","pricing_plan_id":"cebpf4jnsgd1na2vs0mg"},{"bike_id":"9e077e27-33c0-4331-96cc-ce43f93f1c2b","system_id":"levelo_inurba_marseille","lat":43.26734,"lon":5.37211,"is_reserved":false,"is_disabled":false,"rental_uris":{"android":"levelo://app?vid=9e077e27-33c0-4331-96cc-ce43f93f1c2b","ios":"levelo://app?vid=9e077e27-33c0-4331-96cc-ce43f93f1c2b"},"vehicle_type_id":"4","last_reported":1748521202,"current_range_meters":17600,"station_id":"","pricing_plan_id":"cebpf4jnsgd1na2vs0mg"},{"bike_id":"f61b551f-088c-4980-bafa-f43723eb6b2b","system_id":"levelo_inurba_marseille","lat":43.3033,"lon":5.40458,"is_reserved":false,"is_disabled":false,"rental_uris":{"android":"levelo://app?vid=f61b551f-088c-4980-bafa-f43723eb6b2b","ios":"levelo://app?vid=f61b551f-088c-4980-bafa-f43723eb6b2b"},"vehicle_type_id":"4","last_reported":1748521202,"current_range_meters":17600,"station_id":"ce4bh012rcd13ifvqd10","pricing_plan_id":"cebpf4jnsgd1na2vs0mg"},{"bike_id":"8dcb230d-aa01-4431-a8c8-787f46cf826b","system_id":"levelo_inurba_marseille","lat":43.284088,"lon":5.349768,"is_reserved":false,"is_disabled":false,"rental_uris":{"android":"levelo://app?vid=8dcb230d-aa01-4431-a8c8-787f46cf826b","ios":"levelo://app?vid=8dcb230d-aa01-4431-a8c8-787f46cf826b"},"vehicle_type_id":"4","last_reported":1748521202,"current_range_meters":17600,"station_id":"ce4bhbh2rcd13ifvqepg","pricing_plan_id":"cebpf4jnsgd1na2vs0mg"},{"bike_id":"04b3ef16-4a6f-4f70-911a-f84026e46417","system_id":"levelo_inurba_marseille","lat":43.24805,"lon":5.37454,"is_reserved":false,"is_disabled":false,"rental_uris":{"android":"levelo://app?vid=04b3ef16-4a6f-4f70-911a-f84026e46417","ios":"levelo://app?vid=04b3ef16-4a6f-4f70-911a-f84026e46417"},"vehicle_type_id":"4","last_reported":1748521202,"current_range_meters":17600,"station_id":"ce4bhgh2rcd13ifvqfb0","pricing_plan_id":"cebpf4jnsgd1na2vs0mg"},{"bike_id":"65db6f1a-5c3d-4885-8dcb-a240ef1e4a5e","system_id":"levelo_inurba_marseille","lat":43.23961,"lon":5.36654,"is_reserved":false,"is_disabled":false,"rental_uris":{"android":"levelo://app?vid=65db6f1a-5c3d-4885-8dcb-a240ef1e4a5e","ios":"levelo://app?vid=65db6f1a-5c3d-4885-8dcb-a240ef1e4a5e"},"vehicle_type_id":"4","last_reported":1748521202,"current_range_meters":17600,"station_id":"ce4bhi12rcd13ifvqfp0","pricing_plan_id":"cebpf4jnsgd1na2vs0mg"},{"bike_id":"a3939321-93bc-4243-ac6f-a06658d0becb","system_id":"levelo_inurba_marseille","lat":43.23145,"lon":5.437,"is_reserved":false,"is_disabled":false,"rental_uris":{"android":"levelo://app?vid=a3939321-93bc-4243-ac6f-a06658d0becb","ios":"levelo://app?vid=a3939321-93bc-4243-ac6f-a06658d0becb"},"vehicle_type_id":"4","last_reported":1748521202,"current_range_meters":17600,"station_id":"ce4bhmp2rcd13ifvqgog","pricing_plan_id":"cebpf4jnsgd1na2vs0mg"},{"bike_id":"4f954e51-168a-4bc6-82e4-b9797dcfa714","system_id":"levelo_inurba_marseille","lat":43.24162,"lon":5.36397,"is_reserved":false,"is_disabled":false,"rental_uris":{"android":"levelo://app?vid=4f954e51-168a-4bc6-82e4-b9797dcfa714","ios":"levelo://app?vid=4f954e51-168a-4bc6-82e4-b9797dcfa714"},"vehicle_type_id":"4","last_reported":1748521202,"current_range_meters":17600,"station_id":"cpo36qri1sfpv3e86is0","pricing_plan_id":"cebpf4jnsgd1na2vs0mg"},{"bike_id":"4d214bca-45f8-4722-bfe1-27a94bf1c099","system_id":"levelo_inurba_marseille","lat":43.21745,"lon":5.34612,"is_reserved":false,"is_disabled":false,"rental_uris":{"android":"levelo://app?vid=4d214bca-45f8-4722-bfe1-27a94bf1c099","ios":"levelo://app?vid=4d214bca-45f8-4722-bfe1-27a94bf1c099"},"vehicle_type_id":"4","last_reported":1748521202,"current_range_meters":17600,"station_id":"st_cvj6r9ubvosntc0bgbag","pricing_plan_id":"cebpf4jnsgd1na2vs0mg"},{"bike_id":"05d5d538-0a42-4022-a974-7cb3c1e831b1","system_id":"levelo_inurba_marseille","lat":43.2119,"lon":5.35078,"is_reserved":false,"is_disabled":false,"rental_uris":{"android":"levelo://app?vid=05d5d538-0a42-4022-a974-7cb3c1e831b1","ios":"levelo://app?vid=05d5d538-0a42-4022-a974-7cb3c1e831b1"},"vehicle_type_id":"4","last_reported":1748521202,"current_range_meters":17600,"station_id":"st_cvj6sg6p6f1abm77japg","pricing_plan_id":"cebpf4jnsgd1na2vs0mg"},{"bike_id":"062ff17d-183d-42c7-851f-6f5c81dc90fc","system_id":"levelo_inurba_marseille","lat":43.21189,"lon":5.35075,"is_reserved":false,"is_disabled":false,"rental_uris":{"android":"levelo://app?vid=062ff17d-183d-42c7-851f-6f5c81dc90fc","ios":"levelo://app?vid=062ff17d-183d-42c7-851f-6f5c81dc90fc"},"vehicle_type_id":"4","last_reported":1748521202,"current_range_meters":17600,"station_id":"st_cvj6sg6p6f1abm77japg","pricing_plan_id":"cebpf4jnsgd1na2vs0mg"},{"bike_id":"bf4a0959-f180-4d54-9913-5e4a1fd78137","system_id":"levelo_inurba_marseille","lat":43.21185,"lon":5.35075,"is_reserved":false,"is_disabled":false,"rental_uris":{"android":"levelo://app?vid=bf4a0959-f180-4d54-9913-5e4a1fd78137","ios":"levelo://app?vid=bf4a0959-f180-4d54-9913-5e4a1fd78137"},"vehicle_type_id":"4","last_reported":1748521202,"current_range_meters":17600,"station_id":"st_cvj6sg6p6f1abm77japg","pricing_plan_id":"cebpf4jnsgd1na2vs0mg"},{"bike_id":"8366c806-0a9f-49e4-b965-b8a174ed8723","system_id":"levelo_inurba_marseille","lat":43.28259,"lon":5.35072,"is_reserved":false,"is_disabled":false,"rental_uris":{"android":"levelo://app?vid=8366c806-0a9f-49e4-b965-b8a174ed8723","ios":"levelo://app?vid=8366c806-0a9f-49e4-b965-b8a174ed8723"},"vehicle_type_id":"4","last_reported":1748521202,"current_range_meters":18000,"station_id":"","pricing_plan_id":"cebpf4jnsgd1na2vs0mg"},{"bike_id":"3826b88d-b44c-44a4-baf4-3cabd0a43e35","system_id":"levelo_inurba_marseille","lat":43.30947,"lon":5.39033,"is_reserved":false,"is_disabled":false,"rental_uris":{"android":"levelo://app?vid=3826b88d-b44c-44a4-baf4-3cabd0a43e35","ios":"levelo://app?vid=3826b88d-b44c-44a4-baf4-3cabd0a43e35"},"vehicle_type_id":"4","last_reported":1748521202,"current_range_meters":18000,"station_id":"ce4bgup2rcd13ifvqco0","pricing_plan_id":"cebpf4jnsgd1na2vs0mg"},{"bike_id":"91d37cd1-0f5c-479c-9959-d0e2a55e7a7c","system_id":"levelo_inurba_marseille","lat":43.28408,"lon":5.34994,"is_reserved":false,"is_disabled":false,"rental_uris":{"android":"levelo://app?vid=91d37cd1-0f5c-479c-9959-d0e2a55e7a7c","ios":"levelo://app?vid=91d37cd1-0f5c-479c-9959-d0e2a55e7a7c"},"vehicle_type_id":"4","last_reported":1748521202,"current_range_meters":18000,"station_id":"ce4bhbh2rcd13ifvqepg","pricing_plan_id":"cebpf4jnsgd1na2vs0mg"},{"bike_id":"ee09e91b-df22-466e-ac02-e4fafe4b9cb9","system_id":"levelo_inurba_marseille","lat":43.26193,"lon":5.37966,"is_reserved":false,"is_disabled":false,"rental_uris":{"android":"levelo://app?vid=ee09e91b-df22-466e-ac02-e4fafe4b9cb9","ios":"levelo://app?vid=ee09e91b-df22-466e-ac02-e4fafe4b9cb9"},"vehicle_type_id":"4","last_reported":1748521202,"current_range_meters":18000,"station_id":"ce4bhjp2rcd13ifvqg90","pricing_plan_id":"cebpf4jnsgd1na2vs0mg"},{"bike_id":"457fbf1f-95c8-41de-ab97-908934246902","system_id":"levelo_inurba_marseille","lat":43.27072,"lon":5.42269,"is_reserved":false,"is_disabled":false,"rental_uris":{"android":"levelo://app?vid=457fbf1f-95c8-41de-ab97-908934246902","ios":"levelo://app?vid=457fbf1f-95c8-41de-ab97-908934246902"},"vehicle_type_id":"4","last_reported":1748521202,"current_range_meters":18000,"station_id":"ce4bhk92rcd13ifvqgb0","pricing_plan_id":"cebpf4jnsgd1na2vs0mg"},{"bike_id":"15c3846b-d697-4a66-aa98-4c5611bf8811","system_id":"levelo_inurba_marseille","lat":43.231805,"lon":5.40003,"is_reserved":false,"is_disabled":false,"rental_uris":{"android":"levelo://app?vid=15c3846b-d697-4a66-aa98-4c5611bf8811","ios":"levelo://app?vid=15c3846b-d697-4a66-aa98-4c5611bf8811"},"vehicle_type_id":"4","last_reported":1748521202,"current_range_meters":18000,"station_id":"ce4bhn12rcd13ifvqgqg","pricing_plan_id":"cebpf4jnsgd1na2vs0mg"},{"bike_id":"b9fc76d8-1bdf-48f3-84a2-3e91d9ed74dc","system_id":"levelo_inurba_marseille","lat":43.30787,"lon":5.43514,"is_reserved":false,"is_disabled":false,"rental_uris":{"android":"levelo://app?vid=b9fc76d8-1bdf-48f3-84a2-3e91d9ed74dc","ios":"levelo://app?vid=b9fc76d8-1bdf-48f3-84a2-3e91d9ed74dc"},"vehicle_type_id":"4","last_reported":1748521202,"current_range_meters":18000,"station_id":"ce4bhph2rcd13ifvqheg","pricing_plan_id":"cebpf4jnsgd1na2vs0mg"},