{"last_updated":1774284314,"ttl":60,"version":"2.2","data":{"bikes":[{"bike_id":"810f4936-fecc-4c34-9093-513a77cc674d","system_id":"levelo_inurba_marseille","lat":43.29536,"lon":5.3854,"is_reserved":false,"is_disabled":false,"rental_uris":{"android":"levelo://app?vid=810f4936-fecc-4c34-9093-513a77cc674d","ios":"levelo://app?vid=810f4936-fecc-4c34-9093-513a77cc674d"},"vehicle_type_id":"4","last_reported":1774284315,"current_range_meters":2800,"station_id":"ce4bgih2rcd13ifvqba0","pricing_plan_id":"cebpf4jnsgd1na2vs0mg"},{"bike_id":"f35a9644-f102-427c-8b00-579a35988db3","system_id":"levelo_inurba_marseille","lat":43.2119,"lon":5.35092,"is_reserved":false,"is_disabled":false,"rental_uris":{"android":"levelo://app?vid=f35a9644-f102-427c-8b00-579a35988db3","ios":"levelo://app?vid=f35a9644-f102-427c-8b00-579a35988db3"},"vehicle_type_id":"4","last_reported":1774284315,"current_range_meters":2800,"station_id":"st_cvj6sg6p6f1abm77japg","pricing_plan_id":"cebpf4jnsgd1na2vs0mg"},{"bike_id":"4a08ea02-f339-41b8-9d8b-5268c800245e","system_id":"levelo_inurba_marseille","lat":43.24122,"lon":5.36817,"is_reserved":false,"is_disabled":false,"rental_uris":{"android":"levelo://app?vid=4a08ea02-f339-41b8-9d8b-5268c800245e","ios":"levelo://app?vid=4a08ea02-f339-41b8-9d8b-5268c800245e"},"vehicle_type_id":"4","last_reported":1774284315,"current_range_meters":2800,"station_id":"","pricing_plan_id":"cebpf4jnsgd1na2vs0mg"},{"bike_id":"47e3d4e6-9322-4846-9dd4-ba0a3a0847e7","system_id":"levelo_inurba_marseille","lat":43.21752,"lon":5.34608,"is_reserved":false,"is_disabled":false,"rental_uris":{"android":"levelo://app?vid=47e3d4e6-9322-4846-9dd4-ba0a3a0847e7","ios":"levelo://app?vid=47e3d4e6-9322-4846-9dd4-ba0a3a0847e7"},"vehicle_type_id":"4","last_reported":1774284315,"current_range_meters":2800,"station_id":"st_cvj6r9ubvosntc0bgbag","pricing_plan_id":"cebpf4jnsgd1na2vs0mg"},{"bike_id":"deb4d43c-e639-4f91-a09a-8f7ec3cc3424","system_id":"levelo_inurba_marseille","lat":43.32087,"lon":5.36792,"is_reserved":false,"is_disabled":false,"rental_uris":{"android":"levelo://app?vid=deb4d43c-e639-4f91-a09a-8f7ec3cc3424","ios":"levelo://app?vid=deb4d43c-e639-4f91-a09a-8f7ec3cc3424"},"vehicle_type_id":"4","last_reported":1774284315,"current_range_meters":2800,"station_id":"ce4bhrh2rcd13ifvqhug","pricing_plan_id":"cebpf4jnsgd1na2vs0mg"},{"bike_id":"89884c11-0089-40c9-b4c8-cc026115fb44","system_id":"levelo_inurba_marseille","lat":43.26961,"lon":5.42017,"is_reserved":false,"is_disabled":false,"rental_uris":{"android":"levelo://app?vid=89884c11-0089-40c9-b4c8-cc026115fb44","ios":"levelo://app?vid=89884c11-0089-40c9-b4c8-cc026115fb44"},"vehicle_type_id":"4","last_reported":1774284315,"current_range_meters":2800,"station_id":"","pricing_plan_id":"cebpf4jnsgd1na2vs0mg"},{"bike_id":"eca57fde-e3ab-460c-9638-a85bdc2e37f8","system_id":"levelo_inurba_marseille","lat":43.29263,"lon":5.38439,"is_reserved":false,"is_disabled":false,"rental_uris":{"android":"levelo://app?vid=eca57fde-e3ab-460c-9638-a85bdc2e37f8","ios":"levelo://app?vid=eca57fde-e3ab-460c-9638-a85bdc2e37f8"},"vehicle_type_id":"4","last_reported":1774284315,"current_range_meters":2800,"station_id":"ce4bh692rcd13ifvqea0","pricing_plan_id":"cebpf4jnsgd1na2vs0mg"},{"bike_id":"a497aebb-32bb-4325-80ce-e289dfdab2e0","system_id":"levelo_inurba_marseille","lat":43.31763,"lon":5.39008,"is_reserved":false,"is_disabled":false,"rental_uris":{"android":"levelo://app?vid=a497aebb-32bb-4325-80ce-e289dfdab2e0","ios":"levelo://app?vid=a497aebb-32bb-4325-80ce-e289dfdab2e0"},"vehicle_type_id":"4","last_reported":1774284315,"current_range_meters":2800,"station_id":"ce4bhqp2rcd13ifvqhng","pricing_plan_id":"cebpf4jnsgd1na2vs0mg"},{"bike_id":"895b6d9a-f6b2-4744-8c30-184547b1b37e","system_id":"levelo_inurba_marseille","lat":43.28166,"lon":5.42633,"is_reserved":false,"is_disabled":false,"rental_uris":{"android":"levelo://app?vid=895b6d9a-f6b2-4744-8c30-184547b1b37e","ios":"levelo://app?vid=895b6d9a-f6b2-4744-8c30-184547b1b37e"},"vehicle_type_id":"4","last_reported":1774284315,"current_range_meters":3200,"station_id":"ce4bhnh2rcd13ifvqgug","pricing_plan_id":"cebpf4jnsgd1na2vs0mg"},{"bike_id":"a1c3a6f3-d368-468e-ae32-0884204a03b5","system_id":"levelo_inurba_marseille","lat":43.29516,"lon":5.39395,"is_reserved":false,"is_disabled":false,"rental_uris":{"android":"levelo://app?vid=a1c3a6f3-d368-468e-ae32-0884204a03b5","ios":"levelo://app?vid=a1c3a6f3-d368-468e-ae32-0884204a03b5"},"vehicle_type_id":"4","last_reported":1774284315,"current_range_meters":3200,"station_id":"ce4bh292rcd13ifvqdf0","pricing_plan_id":"cebpf4jnsgd1na2vs0mg"},{"bike_id":"39da4176-de80-4b56-b7ef-0ebd17f52725","system_id":"levelo_inurba_marseille","lat":43.26553,"lon":5.37292,"is_reserved":false,"is_disabled":false,"rental_uris":{"android":"levelo://app?vid=39da4176-de80-4b56-b7ef-0ebd17f52725","ios":"levelo://app?vid=39da4176-de80-4b56-b7ef-0ebd17f52725"},"vehicle_type_id":"4","last_reported":1774284315,"current_range_meters":3200,"station_id":"ce4bhg12rcd13ifvqf70","pricing_plan_id":"cebpf4jnsgd1na2vs0mg"},{"bike_id":"926980e7-6e9b-4c45-a007-9ac0bf89dc56","system_id":"levelo_inurba_marseille","lat":43.31579,"lon":5.44521,"is_reserved":false,"is_disabled":false,"rental_uris":{"android":"levelo://app?vid=926980e7-6e9b-4c45-a007-9ac0bf89dc56","ios":"levelo://app?vid=926980e7-6e9b-4c45-a007-9ac0bf89dc56"},"vehicle_type_id":"4","last_reported":1774284315,"current_range_meters":3200,"station_id":"","pricing_plan_id":"cebpf4jnsgd1na2vs0mg"},{"bike_id":"a7ef863b-cab8-42e9-b85f-6f95b77e21f8","system_id":"levelo_inurba_marseille","lat":43.25516,"lon":5.37652,"is_reserved":false,"is_disabled":false,"rental_uris":{"android":"levelo://app?vid=a7ef863b-cab8-42e9-b85f-6f95b77e21f8","ios":"levelo://app?vid=a7ef863b-cab8-42e9-b85f-6f95b77e21f8"},"vehicle_type_id":"4","last_reported":1774284315,"current_range_meters":3200,"station_id":"ce4bhh12rcd13ifvqff0","pricing_plan_id":"cebpf4jnsgd1na2vs0mg"},{"bike_id":"466b6f84-924a-4ebf-8b64-f0b5b439160b","system_id":"levelo_inurba_marseille","lat":43.32071,"lon":5.3683,"is_reserved":false,"is_disabled":false,"rental_uris":{"android":"levelo://app?vid=466b6f84-924a-4ebf-8b64-f0b5b439160b","ios":"levelo://app?vid=466b6f84-924a-4ebf-8b64-f0b5b439160b"},"vehicle_type_id":"4","last_reported":1774284315,"current_range_meters":3200,"station_id":"","pricing_plan_id":"cebpf4jnsgd1na2vs0mg"},{"bike_id":"5297a3ff-fbfe-4996-91a2-dbe5b390fd0d","system_id":"levelo_inurba_marseille","lat":43.30949,"lon":5.3903,"is_reserved":false,"is_disabled":false,"rental_uris":{"android":"levelo://app?vid=5297a3ff-fbfe-4996-91a2-dbe5b390fd0d","ios":"levelo://app?vid=5297a3ff-fbfe-4996-91a2-dbe5b390fd0d"},"vehicle_type_id":"4","last_reported":1774284315,"current_range_meters":3200,"station_id":"ce4bgup2rcd13ifvqco0","pricing_plan_id":"cebpf4jnsgd1na2vs0mg"},{"bike_id":"b207dab1-3250-4004-981c-5514248a7bc0","system_id":"levelo_inurba_marseille","lat":43.24233,"lon":5.41135,"is_reserved":false,"is_disabled":false,"rental_uris":{"android":"levelo://app?vid=b207dab1-3250-4004-981c-5514248a7bc0","ios":"levelo://app?vid=b207dab1-3250-4004-981c-5514248a7bc0"},"vehicle_type_id":"4","last_reported":1774284315,"current_range_meters":3200,"station_id":"","pricing_plan_id":"cebpf4jnsgd1na2vs0mg"},{"bike_id":"0f6d6423-db9c-40f2-910b-9181a43970c2","system_id":"levelo_inurba_marseille","lat":43.299262,"lon":5.37478,"is_reserved":false,"is_disabled":false,"rental_uris":{"android":"levelo://app?vid=0f6d6423-db9c-40f2-910b-9181a43970c2","ios":"levelo://app?vid=0f6d6423-db9c-40f2-910b-9181a43970c2"},"vehicle_type_id":"4","last_reported":1774284315,"current_range_meters":3200,"station_id":"ce4bgjh2rcd13ifvqbg0","pricing_plan_id":"cebpf4jnsgd1na2vs0mg"},{"bike_id":"a46c1a3e-d474-4222-bd24-8cb832e27d76","system_id":"levelo_inurba_marseille","lat":43.29727,"lon":5.36479,"is_reserved":false,"is_disabled":false,"rental_uris":{"android":"levelo://app?vid=a46c1a3e-d474-4222-bd24-8cb832e27d76","ios":"levelo://app?vid=a46c1a3e-d474-4222-bd24-8cb832e27d76"},"vehicle_type_id":"4","last_reported":1774284315,"current_range_meters":3200,"station_id":"","pricing_plan_id":"cebpf4jnsgd1na2vs0mg"},{"bike_id":"ee3ff2c5-8eb9-460a-936f-029a2d3bd45f","system_id":"levelo_inurba_marseille","lat":43.28896,"lon":5.43344,"is_reserved":false,"is_disabled":false,"rental_uris":{"android":"levelo://app?vid=ee3ff2c5-8eb9-460a-936f-029a2d3bd45f","ios":"levelo://app?vid=ee3ff2c5-8eb9-460a-936f-029a2d3bd45f"},"vehicle_type_id":"4","last_reported":1774284315,"current_range_meters":3600,"station_id":"","pricing_plan_id":"cebpf4jnsgd1na2vs0mg"},{"bike_id":"acf046c8-4fc8-4ced-9ed5-1ee4a58a1236","system_id":"levelo_inurba_marseille","lat":43.31181,"lon":5.38714,"is_reserved":false,"is_disabled":false,"rental_uris":{"android":"levelo://app?vid=acf046c8-4fc8-4ced-9ed5-1ee4a58a1236","ios":"levelo://app?vid=acf046c8-4fc8-4ced-9ed5-1ee4a58a1236"},"vehicle_type_id":"4","last_reported":1774284315,"current_range_meters":3600,"station_id":"ce4bgv12rcd13ifvqcp0","pricing_plan_id":"cebpf4jnsgd1na2vs0mg"},{"bike_id":"86387510-b018-4bc7-96b5-fabc1c32850e","system_id":"levelo_inurba_marseille","lat":43.24067,"lon":5.37765,"is_reserved":false,"is_disabled":false,"rental_uris":{"android":"levelo://app?vid=86387510-b018-4bc7-96b5-fabc1c32850e","ios":"levelo://app?vid=86387510-b018-4bc7-96b5-fabc1c32850e"},"vehicle_type_id":"4","last_reported":1774284315,"current_range_meters":3600,"station_id":"ce4bhnp2rcd13ifvqgvg","pricing_plan_id":"cebpf4jnsgd1na2vs0mg"},{"bike_id":"4cd43bdb-b497-488e-8289-74af162b56ba","system_id":"levelo_inurba_marseille","lat":43.23161,"lon":5.43733,"is_reserved":false,"is_disabled":false,"rental_uris":{"android":"levelo://app?vid=4cd43bdb-b497-488e-8289-74af162b56ba","ios":"levelo://app?vid=4cd43bdb-b497-488e-8289-74af162b56ba"},"vehicle_type_id":"4","last_reported":1774284315,"current_range_meters":3600,"station_id":"ce4bhmp2rcd13ifvqgog","pricing_plan_id":"cebpf4jnsgd1na2vs0mg"},{"bike_id":"af8d2a67-5765-4d25-9890-717868ce4def","system_id":"levelo_inurba_marseille","lat":43.26952,"lon":5.40306,"is_reserved":false,"is_disabled":false,"rental_uris":{"android":"levelo://app?vid=af8d2a67-5765-4d25-9890-717868ce4def","ios":"levelo://app?vid=af8d2a67-5765-4d25-9890-717868ce4def"},"vehicle_type_id":"4","last_reported":1774284315,"current_range_meters":3600,"station_id":"cjm6bp8fraef2m0cb0m0","pricing_plan_id":"cebpf4jnsgd1na2vs0mg"},{"bike_id":"00560f09-8ead-439c-a384-e1807bc0a84c","system_id":"levelo_inurba_marseille","lat":43.28462,"lon":5.48371,"is_reserved":false,"is_disabled":false,"rental_uris":{"android":"levelo://app?vid=00560f09-8ead-439c-a384-e1807bc0a84c","ios":"levelo://app?vid=00560f09-8ead-439c-a384-e1807bc0a84c"},"vehicle_type_id":"4","last_reported":1774284315,"current_range_meters":3600,"station_id":"","pricing_plan_id":"cebpf4jnsgd1na2vs0mg"},{"bike_id":"568817ad-883e-4f29-be6e-10e8d7c047bf","system_id":"levelo_inurba_marseille","lat":43.30536,"lon":5.38439,"is_reserved":false,"is_disabled":false,"rental_uris":{"android":"levelo://app?vid=568817ad-883e-4f29-be6e-10e8d7c047bf","ios":"levelo://app?vid=568817ad-883e-4f29-be6e-10e8d7c047bf"},"vehicle_type_id":"4","last_reported":1774284315,"current_range_meters":3600,"station_id":"ce4bgg92rcd13ifvqb30","pricing_plan_id":"cebpf4jnsgd1na2vs0mg"},{"bike_id":"1bd26c40-f793-4863-87af-5cc8aa2dc20e","system_id":"levelo_inurba_marseille","lat":43.29774,"lon":5.37194,"is_reserved":false,"is_disabled":false,"rental_uris":{"android":"levelo://app?vid=1bd26c40-f793-4863-87af-5cc8aa2dc20e","ios":"levelo://app?vid=1bd26c40-f793-4863-87af-5cc8aa2dc20e"},"vehicle_type_id":"4","last_reported":1774284315,"current_range_meters":3600,"station_id":"","pricing_plan_id":"cebpf4jnsgd1na2vs0mg"},{"bike_id":"b534be25-eb1d-44b7-a1e9-4b799a8e14d1","system_id":"levelo_inurba_marseille","lat":43.28342,"lon":5.38105,"is_reserved":false,"is_disabled":false,"rental_uris":{"android":"levelo://app?vid=b534be25-eb1d-44b7-a1e9-4b799a8e14d1","ios":"levelo://app?vid=b534be25-eb1d-44b7-a1e9-4b799a8e14d1"},"vehicle_type_id":"4","last_reported":1774284315,"current_range_meters":3600,"station_id":"ce4bh412rcd13ifvqdr0","pricing_plan_id":"cebpf4jnsgd1na2vs0mg"},{"bike_id":"86c2f207-45b1-4b39-b9b7-b16c84a54daf","system_id":"levelo_inurba_marseille","lat":43.23966,"lon":5.36632,"is_reserved":false,"is_disabled":false,"rental_uris":{"android":"levelo://app?vid=86c2f207-45b1-4b39-b9b7-b16c84a54daf","ios":"levelo://app?vid=86c2f207-45b1-4b39-b9b7-b16c84a54daf"},"vehicle_type_id":"4","last_reported":1774284315,"current_range_meters":3600,"station_id":"ce4bhi12rcd13ifvqfp0","pricing_plan_id":"cebpf4jnsgd1na2vs0mg"},{"bike_id":"1a1a7c55-ee9f-457e-9d2b-7662e3b1f44b","system_id":"levelo_inurba_marseille","lat":43.24626,"lon":5.43489,"is_reserved":false,"is_disabled":true,"rental_uris":{"android":"levelo://app?vid=1a1a7c55-ee9f-457e-9d2b-7662e3b1f44b","ios":"levelo://app?vid=1a1a7c55-ee9f-457e-9d2b-7662e3b1f44b"},"vehicle_type_id":"4","last_reported":1774284315,"current_range_meters":4000,"station_id":"","pricing_plan_id":"cebpf4jnsgd1na2vs0mg"},{"bike_id":"72259855-62a3-455c-8dab-578b5cc9a9dc","system_id":"levelo_inurba_marseille","lat":43.28702,"lon":5.40039,"is_reserved":false,"is_disabled":false,"rental_uris":{"android":"levelo://app?vid=72259855-62a3-455c-8dab-578b5cc9a9dc","ios":"levelo://app?vid=72259855-62a3-455c-8dab-578b5cc9a9dc"},"vehicle_type_id":"4","last_reported":1774284315,"current_range_meters":4000,"station_id":"ce4bho92rcd13ifvqh3g","pricing_plan_id":"cebpf4jnsgd1na2vs0mg"},{"bike_id":"1524eba5-3f61-4fbb-8f6a-b844c6113d03","system_id":"levelo_inurba_marseille","lat":43.29782,"lon":5.38085,"is_reserved":false,"is_disabled":false,"rental_uris":{"android":"levelo://app?vid=1524eba5-3f61-4fbb-8f6a-b844c6113d03","ios":"levelo://app?vid=1524eba5-3f61-4fbb-8f6a-b844c6113d03"},"vehicle_type_id":"4","last_reported":1774284315,"current_range_meters":4000,"station_id":"ce4bgip2rcd13ifvqbb0","pricing_plan_id":"cebpf4jnsgd1na2vs0mg"},{"bike_id":"2ef20ab1-6216-4fd4-9a78-cab520a59a82","system_id":"levelo_inurba_marseille","lat":43.29583,"lon":5.36743,"is_reserved":false,"is_disabled":false,"rental_uris":{"android":"levelo://app?vid=2ef20ab1-6216-4fd4-9a78-cab520a59a82","ios":"levelo://app?vid=2ef20ab1-6216-4fd4-9a78-cab520a59a82"},"vehicle_type_id":"4","last_reported":1774284315,"current_range_meters":4000,"station_id":"ce4bgph2rcd13ifvqc2g","pricing_plan_id":"cebpf4jnsgd1na2vs0mg"},{"bike_id":"8696301b-d961-4c98-903e-e2832d245d44","system_id":"levelo_inurba_marseille","lat":43.30878,"lon":5.37197,"is_reserved":false,"is_disabled":false,"rental_uris":{"android":"levelo://app?vid=8696301b-d961-4c98-903e-e2832d245d44","ios":"levelo://app?vid=8696301b-d961-4c98-903e-e2832d245d44"},"vehicle_type_id":"4","last_reported":1774284315,"current_range_meters":4400,"station_id":"ce4bguh2rcd13ifvqckg","pricing_plan_id":"cebpf4jnsgd1na2vs0mg"},{"bike_id":"4ce8ca82-0f09-44c4-9001-91e705f3058d","system_id":"levelo_inurba_marseille","lat":43.290337,"lon":5.375539,"is_reserved":false,"is_disabled":false,"rental_uris":{"android":"levelo://app?vid=4ce8ca82-0f09-44c4-9001-91e705f3058d","ios":"levelo://app?vid=4ce8ca82-0f09-44c4-9001-91e705f3058d"},"vehicle_type_id":"4","last_reported":1774284315,"current_range_meters":4400,"station_id":"ce4bh692rcd13ifvqe90","pricing_plan_id":"cebpf4jnsgd1na2vs0mg"},{"bike_id":"b23e52e9-a876-459e-8724-e0215296ea00","system_id":"levelo_inurba_marseille","lat":43.28482,"lon":5.48393,"is_reserved":false,"is_disabled":true,"rental_uris":{"android":"levelo://app?vid=b23e52e9-a876-459e-8724-e0215296ea00","ios":"levelo://app?vid=b23e52e9-a876-459e-8724-e0215296ea00"},"vehicle_type_id":"4","last_reported":1774284315,"current_range_meters":4400,"station_id":"","pricing_plan_id":"cebpf4jnsgd1na2vs0mg"},{"bike_id":"5a3d3df4-d923-46fc-bdfe-9820e3b28092","system_id":"levelo_inurba_marseille","lat":43.2732,"lon":5.39102,"is_reserved":false,"is_disabled":true,"rental_uris":{"android":"levelo://app?vid=5a3d3df4-d923-46fc-bdfe-9820e3b28092","ios":"levelo://app?vid=5a3d3df4-d923-46fc-bdfe-9820e3b28092"},"vehicle_type_id":"4","last_reported":1774284315,"current_range_meters":4400,"station_id":"ce4bhgp2rcd13ifvqfe0","pricing_plan_id":"cebpf4jnsgd1na2vs0mg"},{"bike_id":"d0552fd4-7eed-4f2a-9a76-43837d99b0e2","system_id":"levelo_inurba_marseille","lat":43.30413,"lon":5.41292,"is_reserved":false,"is_disabled":false,"rental_uris":{"android":"levelo://app?vid=d0552fd4-7eed-4f2a-9a76-43837d99b0e2","ios":"levelo://app?vid=d0552fd4-7eed-4f2a-9a76-43837d99b0e2"},"vehicle_type_id":"4","last_reported":1774284315,"current_range_meters":4400,"station_id":"ce4bhop2rcd13ifvqh8g","pricing_plan_id":"cebpf4jnsgd1na2vs0mg"},{"bike_id":"aa7fc24a-128f-466b-ba68-ca28d7e357f6","system_id":"levelo_inurba_marseille","lat":43.28447,"lon":5.39193,"is_reserved":false,"is_disabled":false,"rental_uris":{"android":"levelo://app?vid=aa7fc24a-128f-466b-ba68-ca28d7e357f6","ios":"levelo://app?vid=aa7fc24a-128f-466b-ba68-ca28d7e357f6"},"vehicle_type_id":"4","last_reported":1774284315,"current_range_meters":4400,"station_id":"ce4bhoh2rcd13ifvqh5g","pricing_plan_id":"cebpf4jnsgd1na2vs0mg"},{"bike_id":"1afb9382-3bb4-4be2-b9b5-d869b06d1557","system_id":"levelo_inurba_marseille","lat":43.26028,"lon":5.37551,"is_reserved":false,"is_disabled":false,"rental_uris":{"android":"levelo://app?vid=1afb9382-3bb4-4be2-b9b5-d869b06d1557","ios":"levelo://app?vid=1afb9382-3bb4-4be2-b9b5-d869b06d1557"},"vehicle_type_id":"4","last_reported":1774284315,"current_range_meters":4400,"station_id":"ce4bhgh2rcd13ifvqfa0","pricing_plan_id":"cebpf4jnsgd1na2vs0mg"},{"bike_id":"fa87ce26-5306-414f-98c9-1e3509ad90c0","system_id":"levelo_inurba_marseille","lat":43.24632,"lon":5.39297,"is_reserved":false,"is_disabled":false,"rental_uris":{"android":"levelo://app?vid=fa87ce26-5306-414f-98c9-1e3509ad90c0","ios":"levelo://app?vid=fa87ce26-5306-414f-98c9-1e3509ad90c0"},"vehicle_type_id":"4","last_reported":1774284315,"current_range_meters":4400,"station_id":"","pricing_plan_id":"cebpf4jnsgd1na2vs0mg"},{"bike_id":"f34dc19a-25c4-490b-b36b-67fa8c649bfe","system_id":"levelo_inurba_marseille","lat":43.30979,"lon":5.37514,"is_reserved":false,"is_disabled":false,"rental_uris":{"android":"levelo://app?vid=f34dc19a-25c4-490b-b36b-67fa8c649bfe","ios":"levelo://app?vid=f34dc19a-25c4-490b-b36b-67fa8c649bfe"},"vehicle_type_id":"4","last_reported":1774284315,"current_range_meters":4400,"station_id":"","pricing_plan_id":"cebpf4jnsgd1na2vs0mg"},{"bike_id":"47e512d5-1878-4adf-80cb-1a328722cfab","system_id":"levelo_inurba_marseille","lat":43.313269,"lon":5.396816,"is_reserved":false,"is_disabled":false,"rental_uris":{"android":"levelo://app?vid=47e512d5-1878-4adf-80cb-1a328722cfab","ios":"levelo://app?vid=47e512d5-1878-4adf-80cb-1a328722cfab"},"vehicle_type_id":"4","last_reported":1774284315,"current_range_meters":4400,"station_id":"ce4bgvp2rcd13ifvqcu0","pricing_plan_id":"cebpf4jnsgd1na2vs0mg"},{"bike_id":"9c34862c-8c44-4033-9580-bd73080637c1","system_id":"levelo_inurba_marseille","lat":43.29978,"lon":5.38492,"is_reserved":false,"is_disabled":false,"rental_uris":{"android":"levelo://app?vid=9c34862c-8c44-4033-9580-bd73080637c1","ios":"levelo://app?vid=9c34862c-8c44-4033-9580-bd73080637c1"},"vehicle_type_id":"4","last_reported":1774284315,"current_range_meters":4400,"station_id":"ce4bgj92rcd13ifvqbd0","pricing_plan_id":"cebpf4jnsgd1na2vs0mg"},{"bike_id":"9453e579-87d8-475b-9a7d-0c3671abf86b","system_id":"levelo_inurba_marseille","lat":43.32118,"lon":5.36778,"is_reserved":false,"is_disabled":false,"rental_uris":{"android":"levelo://app?vid=9453e579-87d8-475b-9a7d-0c3671abf86b","ios":"levelo://app?vid=9453e579-87d8-475b-9a7d-0c3671abf86b"},"vehicle_type_id":"4","last_reported":1774284315,"current_range_meters":4800,"station_id":"ce4bhrh2rcd13ifvqhug","pricing_plan_id":"cebpf4jnsgd1na2vs0mg"},{"bike_id":"58a4b0d7-f43b-449e-8d2e-e05a79e437e2","system_id":"levelo_inurba_marseille","lat":43.292609,"lon":5.376234,"is_reserved":false,"is_disabled":false,"rental_uris":{"android":"levelo://app?vid=58a4b0d7-f43b-449e-8d2e-e05a79e437e2","ios":"levelo://app?vid=58a4b0d7-f43b-449e-8d2e-e05a79e437e2"},"vehicle_type_id":"4","last_reported":1774284315,"current_range_meters":4800,"station_id":"","pricing_plan_id":"cebpf4jnsgd1na2vs0mg"},{"bike_id":"e6d16333-aca6-4874-b7aa-5680ac1a37f3","system_id":"levelo_inurba_marseille","lat":43.27185,"lon":5.40985,"is_reserved":false,"is_disabled":false,"rental_uris":{"android":"levelo://app?vid=e6d16333-aca6-4874-b7aa-5680ac1a37f3","ios":"levelo://app?vid=e6d16333-aca6-4874-b7aa-5680ac1a37f3"},"vehicle_type_id":"4","last_reported":1774284315,"current_range_meters":4800,"station_id":"ce4bhl12rcd13ifvqgf0","pricing_plan_id":"cebpf4jnsgd1na2vs0mg"},{"bike_id":"8c59654d-be0a-4e1b-9107-cd7131f66fe9","system_id":"levelo_inurba_marseille","lat":43.28675,"lon":5.38662,"is_reserved":false,"is_disabled":false,"rental_uris":{"android":"levelo://app?vid=8c59654d-be0a-4e1b-9107-cd7131f66fe9","ios":"levelo://app?vid=8c59654d-be0a-4e1b-9107-cd7131f66fe9"},"vehicle_type_id":"4","last_reported":1774284315,"current_range_meters":4800,"station_id":"ce4bh492rcd13ifvqdug","pricing_plan_id":"cebpf4jnsgd1na2vs0mg"},{"bike_id":"c5af48bc-cee7-4dcc-b8b2-46a8803e10ed","system_id":"levelo_inurba_marseille","lat":43.27816,"lon":5.4071,"is_reserved":false,"is_disabled":false,"rental_uris":{"android":"levelo://app?vid=c5af48bc-cee7-4dcc-b8b2-46a8803e10ed","ios":"levelo://app?vid=c5af48bc-cee7-4dcc-b8b2-46a8803e10ed"},"vehicle_type_id":"4","last_reported":1774284315,"current_range_meters":4800,"station_id":"ce4bhnh2rcd13ifvqgtg","pricing_plan_id":"cebpf4jnsgd1na2vs0mg"},{"bike_id":"6f3fdbf9-917f-421d-aa86-02187d7ba65c","system_id":"levelo_inurba_marseille","lat":43.28476,"lon":5.48399,"is_reserved":false,"is_disabled":false,"rental_uris":{"android":"levelo://app?vid=6f3fdbf9-917f-421d-aa86-02187d7ba65c","ios":"levelo://app?vid=6f3fdbf9-917f-421d-aa86-02187d7ba65c"},"vehicle_type_id":"4","last_reported":1774284315,"current_range_meters":4800,"station_id":"st_d3svhcjqgbts73a3dn0g","pricing_plan_id":"cebpf4jnsgd1na2vs0mg"},{"bike_id":"1a5169b9-84ad-4dd4-9ce6-e4c8c83fc75e","system_id":"levelo_inurba_marseille","lat":43.29885,"lon":5.39762,"is_reserved":false,"is_disabled":false,"rental_uris":{"android":"levelo://app?vid=1a5169b9-84ad-4dd4-9ce6-e4c8c83fc75e","ios":"levelo://app?vid=1a5169b9-84ad-4dd4-9ce6-e4c8c83fc75e"},"vehicle_type_id":"4","last_reported":1774284315,"current_range_meters":4800,"station_id":"ce4bh0h2rcd13ifvqd50","pricing_plan_id":"cebpf4jnsgd1na2vs0mg"},{"bike_id":"2ec41b00-a2eb-4785-b455-783c6952ade6","system_id":"levelo_inurba_marseille","lat":43.28401,"lon":5.37512,"is_reserved":false,"is_disabled":false,"rental_uris":{"android":"levelo://app?vid=2ec41b00-a2eb-4785-b455-783c6952ade6","ios":"levelo://app?vid=2ec41b00-a2eb-4785-b455-783c6952ade6"},"vehicle_type_id":"4","last_reported":1774284315,"current_range_meters":4800,"station_id":"ce4bh412rcd13ifvqds0","pricing_plan_id":"cebpf4jnsgd1na2vs0mg"},{"bike_id":"b7ba0e58-bef0-47a7-bd3b-64bf72ecf131","system_id":"levelo_inurba_marseille","lat":43.32957,"lon":5.36694,"is_reserved":false,"is_disabled":false,"rental_uris":{"android":"levelo://app?vid=b7ba0e58-bef0-47a7-bd3b-64bf72ecf131","ios":"levelo://app?vid=b7ba0e58-bef0-47a7-bd3b-64bf72ecf131"},"vehicle_type_id":"4","last_reported":1774284315,"current_range_meters":4800,"station_id":"","pricing_plan_id":"cebpf4jnsgd1na2vs0mg"},{"bike_id":"21d916f1-5332-4807-bcc5-26157921f5c5","system_id":"levelo_inurba_marseille","lat":43.29882,"lon":5.39732,"is_reserved":false,"is_disabled":false,"rental_uris":{"android":"levelo://app?vid=21d916f1-5332-4807-bcc5-26157921f5c5","ios":"levelo://app?vid=21d916f1-5332-4807-bcc5-26157921f5c5"},"vehicle_type_id":"4","last_reported":1774284315,"current_range_meters":5600,"station_id":"ce4bh0h2rcd13ifvqd50","pricing_plan_id":"cebpf4jnsgd1na2vs0mg"},{"bike_id":"abd3afb9-4326-45d9-8e47-0e339280e129","system_id":"levelo_inurba_marseille","lat":43.25335,"lon":5.42196,"is_reserved":false,"is_disabled":false,"rental_uris":{"android":"levelo://app?vid=abd3afb9-4326-45d9-8e47-0e339280e129","ios":"levelo://app?vid=abd3afb9-4326-45d9-8e47-0e339280e129"},"vehicle_type_id":"4","last_reported":1774284315,"current_range_meters":5600,"station_id":"st_d2m65c5bi1j21697t3ng","pricing_plan_id":"cebpf4jnsgd1na2vs0mg"},{"bike_id":"1e3f7007-bbd6-42ff-ae1c-30087c320846","system_id":"levelo_inurba_marseille","lat":43.25045,"lon":5.39751,"is_reserved":false,"is_disabled":false,"rental_uris":{"android":"levelo://app?vid=1e3f7007-bbd6-42ff-ae1c-30087c320846","ios":"levelo://app?vid=1e3f7007-bbd6-42ff-ae1c-30087c320846"},"vehicle_type_id":"4","last_reported":1774284315,"current_range_meters":5600,"station_id":"","pricing_plan_id":"cebpf4jnsgd1na2vs0mg"},{"bike_id":"f9c57d50-832a-477c-9c7f-1e7c12d972b0","system_id":"levelo_inurba_marseille","lat":43.25092,"lon":5.39559,"is_reserved":false,"is_disabled":true,"rental_uris":{"android":"levelo://app?vid=f9c57d50-832a-477c-9c7f-1e7c12d972b0","ios":"levelo://app?vid=f9c57d50-832a-477c-9c7f-1e7c12d972b0"},"vehicle_type_id":"4","last_reported":1774284315,"current_range_meters":6000,"station_id":"ce4bhm12rcd13ifvqgkg","pricing_plan_id":"cebpf4jnsgd1na2vs0mg"},{"bike_id":"ef8f663b-0075-416a-88fe-1fde798c71ff","system_id":"levelo_inurba_marseille","lat":43.2338,"lon":5.41244,"is_reserved":false,"is_disabled":false,"rental_uris":{"android":"levelo://app?vid=ef8f663b-0075-416a-88fe-1fde798c71ff","ios":"levelo://app?vid=ef8f663b-0075-416a-88fe-1fde798c71ff"},"vehicle_type_id":"4","last_reported":1774284315,"current_range_meters":6000,"station_id":"","pricing_plan_id":"cebpf4jnsgd1na2vs0mg"},{"bike_id":"7d0e7181-3a70-4370-9354-bef3948a92c8","system_id":"levelo_inurba_marseille","lat":43.29959,"lon":5.41327,"is_reserved":false,"is_disabled":false,"rental_uris":{"android":"levelo://app?vid=7d0e7181-3a70-4370-9354-bef3948a92c8","ios":"levelo://app?vid=7d0e7181-3a70-4370-9354-bef3948a92c8"},"vehicle_type_id":"4","last_reported":1774284315,"current_range_meters":6400,"station_id":"ce4bhp12rcd13ifvqh9g","pricing_plan_id":"cebpf4jnsgd1na2vs0mg"},{"bike_id":"8310aa65-ac67-4592-b812-f63970cb0af3","system_id":"levelo_inurba_marseille","lat":43.32118,"lon":5.36767,"is_reserved":false,"is_disabled":false,"rental_uris":{"android":"levelo://app?vid=8310aa65-ac67-4592-b812-f63970cb0af3","ios":"levelo://app?vid=8310aa65-ac67-4592-b812-f63970cb0af3"},"vehicle_type_id":"4","last_reported":1774284315,"current_range_meters":6400,"station_id":"ce4bhrh2rcd13ifvqhug","pricing_plan_id":"cebpf4jnsgd1na2vs0mg"},{"bike_id":"8bd6485b-6e8c-4c30-ab16-621974aadcae","system_id":"levelo_inurba_marseille","lat":43.25339,"lon":5.4218,"is_reserved":false,"is_disabled":false,"rental_uris":{"android":"levelo://app?vid=8bd6485b-6e8c-4c30-ab16-621974aadcae","ios":"levelo://app?vid=8bd6485b-6e8c-4c30-ab16-621974aadcae"},"vehicle_type_id":"4","last_reported":1774284315,"current_range_meters":6400,"station_id":"st_d2m65c5bi1j21697t3ng","pricing_plan_id":"cebpf4jnsgd1na2vs0mg"},{"bike_id":"0adba985-69ce-4b81-af24-10a333222398","system_id":"levelo_inurba_marseille","lat":43.31169,"lon":5.38712,"is_reserved":false,"is_disabled":false,"rental_uris":{"android":"levelo://app?vid=0adba985-69ce-4b81-af24-10a333222398","ios":"levelo://app?vid=0adba985-69ce-4b81-af24-10a333222398"},"vehicle_type_id":"4","last_reported":1774284315,"current_range_meters":6400,"station_id":"ce4bgv12rcd13ifvqcp0","pricing_plan_id":"cebpf4jnsgd1na2vs0mg"},{"bike_id":"e54c36ba-b239-44c5-9ae3-dda7ad61c3f8","system_id":"levelo_inurba_marseille","lat":43.29897,"lon":5.43667,"is_reserved":false,"is_disabled":false,"rental_uris":{"android":"levelo://app?vid=e54c36ba-b239-44c5-9ae3-dda7ad61c3f8","ios":"levelo://app?vid=e54c36ba-b239-44c5-9ae3-dda7ad61c3f8"},"vehicle_type_id":"4","last_reported":1774284315,"current_range_meters":6400,"station_id":"ce4bhpp2rcd13ifvqhfg","pricing_plan_id":"cebpf4jnsgd1na2vs0mg"},{"bike_id":"0f88d6b7-883f-4b13-98ff-b1b3b7d422a5","system_id":"levelo_inurba_marseille","lat":43.2593,"lon":5.40875,"is_reserved":false,"is_disabled":true,"rental_uris":{"android":"levelo://app?vid=0f88d6b7-883f-4b13-98ff-b1b3b7d422a5","ios":"levelo://app?vid=0f88d6b7-883f-4b13-98ff-b1b3b7d422a5"},"vehicle_type_id":"4","last_reported":1774284315,"current_range_meters":6400,"station_id":"ce4bhm92rcd13ifvqglg","pricing_plan_id":"cebpf4jnsgd1na2vs0mg"},{"bike_id":"462a1cdd-980f-4d75-accd-0f62886214c9","system_id":"levelo_inurba_marseille","lat":43.28237,"lon":5.40843,"is_reserved":false,"is_disabled":false,"rental_uris":{"android":"levelo://app?vid=462a1cdd-980f-4d75-accd-0f62886214c9","ios":"levelo://app?vid=462a1cdd-980f-4d75-accd-0f62886214c9"},"vehicle_type_id":"4","last_reported":1774284315,"current_range_meters":6400,"station_id":"","pricing_plan_id":"cebpf4jnsgd1na2vs0mg"},{"bike_id":"de73c310-f5b2-40f5-b1ca-fa0887319316","system_id":"levelo_inurba_marseille","lat":43.33008,"lon":5.39046,"is_reserved":false,"is_disabled":false,"rental_uris":{"android":"levelo://app?vid=de73c310-f5b2-40f5-b1ca-fa0887319316","ios":"levelo://app?vid=de73c310-f5b2-40f5-b1ca-fa0887319316"},"vehicle_type_id":"4","last_reported":1774284315,"current_range_meters":6400,"station_id":"ce4bhr92rcd13ifvqhrg","pricing_plan_id":"cebpf4jnsgd1na2vs0mg"},{"bike_id":"85d6ab11-5518-4ccd-91e4-dbdc93e9ebe9","system_id":"levelo_inurba_marseille","lat":43.28529,"lon":5.44106,"is_reserved":false,"is_disabled":false,"rental_uris":{"android":"levelo://app?vid=85d6ab11-5518-4ccd-91e4-dbdc93e9ebe9","ios":"levelo://app?vid=85d6ab11-5518-4ccd-91e4-dbdc93e9ebe9"},"vehicle_type_id":"4","last_reported":1774284315,"current_range_meters":6400,"station_id":"st_d3j3df2ikq2c7380ej80","pricing_plan_id":"cebpf4jnsgd1na2vs0mg"},{"bike_id":"19816687-f443-4a5d-b7aa-e3cfd2cb0259","system_id":"levelo_inurba_marseille","lat":43.31457,"lon":5.44548,"is_reserved":false,"is_disabled":false,"rental_uris":{"android":"levelo://app?vid=19816687-f443-4a5d-b7aa-e3cfd2cb0259","ios":"levelo://app?vid=19816687-f443-4a5d-b7aa-e3cfd2cb0259"},"vehicle_type_id":"4","last_reported":1774284315,"current_range_meters":6800,"station_id":"","pricing_plan_id":"cebpf4jnsgd1na2vs0mg"},{"bike_id":"65679b51-cf43-4752-9bfc-659eadc7bed0","system_id":"levelo_inurba_marseille","lat":43.28158,"lon":5.42638,"is_reserved":false,"is_disabled":false,"rental_uris":{"android":"levelo://app?vid=65679b51-cf43-4752-9bfc-659eadc7bed0","ios":"levelo://app?vid=65679b51-cf43-4752-9bfc-659eadc7bed0"},"vehicle_type_id":"4","last_reported":1774284315,"current_range_meters":6800,"station_id":"ce4bhnh2rcd13ifvqgug","pricing_plan_id":"cebpf4jnsgd1na2vs0mg"},{"bike_id":"af86ae1c-a886-4584-bde3-e7f2e892f4a4","system_id":"levelo_inurba_marseille","lat":43.28458,"lon":5.35883,"is_reserved":false,"is_disabled":false,"rental_uris":{"android":"levelo://app?vid=af86ae1c-a886-4584-bde3-e7f2e892f4a4","ios":"levelo://app?vid=af86ae1c-a886-4584-bde3-e7f2e892f4a4"},"vehicle_type_id":"4","last_reported":1774284315,"current_range_meters":6800,"station_id":"ce4bhah2rcd13ifvqei0","pricing_plan_id":"cebpf4jnsgd1na2vs0mg"},{"bike_id":"9be35987-805d-4aab-a951-55292d8c9d92","system_id":"levelo_inurba_marseille","lat":43.31708,"lon":5.43674,"is_reserved":false,"is_disabled":false,"rental_uris":{"android":"levelo://app?vid=9be35987-805d-4aab-a951-55292d8c9d92","ios":"levelo://app?vid=9be35987-805d-4aab-a951-55292d8c9d92"},"vehicle_type_id":"4","last_reported":1774284315,"current_range_meters":6800,"station_id":"ce4bhp92rcd13ifvqhcg","pricing_plan_id":"cebpf4jnsgd1na2vs0mg"},{"bike_id":"74f1282f-abc7-44ac-b05e-b95cc1ca6168","system_id":"levelo_inurba_marseille","lat":43.25724,"lon":5.41105,"is_reserved":false,"is_disabled":false,"rental_uris":{"android":"levelo://app?vid=74f1282f-abc7-44ac-b05e-b95cc1ca6168","ios":"levelo://app?vid=74f1282f-abc7-44ac-b05e-b95cc1ca6168"},"vehicle_type_id":"4","last_reported":1774284315,"current_range_meters":6800,"station_id":"ce4bhkp2rcd13ifvqgd0","pricing_plan_id":"cebpf4jnsgd1na2vs0mg"},{"bike_id":"6d8d09fd-043e-40dd-92de-c6d036fa5ea9","system_id":"levelo_inurba_marseille","lat":43.28916,"lon":5.38406,"is_reserved":false,"is_disabled":true,"rental_uris":{"android":"levelo://app?vid=6d8d09fd-043e-40dd-92de-c6d036fa5ea9","ios":"levelo://app?vid=6d8d09fd-043e-40dd-92de-c6d036fa5ea9"},"vehicle_type_id":"4","last_reported":1774284315,"current_range_meters":6800,"station_id":"ce4bh612rcd13ifvqe6g","pricing_plan_id":"cebpf4jnsgd1na2vs0mg"},{"bike_id":"29f49a32-ba08-40ef-839e-89650b416d04","system_id":"levelo_inurba_marseille","lat":43.31034,"lon":5.37892,"is_reserved":false,"is_disabled":false,"rental_uris":{"android":"levelo://app?vid=29f49a32-ba08-40ef-839e-89650b416d04","ios":"levelo://app?vid=29f49a32-ba08-40ef-839e-89650b416d04"},"vehicle_type_id":"4","last_reported":1774284315,"current_range_meters":6800,"station_id":"","pricing_plan_id":"cebpf4jnsgd1na2vs0mg"},{"bike_id":"ffb98fb8-da98-43fb-9eac-ddb2ee1141c2","system_id":"levelo_inurba_marseille","lat":43.24654,"lon":5.41622,"is_reserved":false,"is_disabled":false,"rental_uris":{"android":"levelo://app?vid=ffb98fb8-da98-43fb-9eac-ddb2ee1141c2","ios":"levelo://app?vid=ffb98fb8-da98-43fb-9eac-ddb2ee1141c2"},"vehicle_type_id":"4","last_reported":1774284315,"current_range_meters":6800,"station_id":"","pricing_plan_id":"cebpf4jnsgd1na2vs0mg"},{"bike_id":"f554888c-9515-430c-b3e9-327a4cc15db0","system_id":"levelo_inurba_marseille","lat":43.2964,"lon":5.42423,"is_reserved":false,"is_disabled":false,"rental_uris":{"android":"levelo://app?vid=f554888c-9515-430c-b3e9-327a4cc15db0","ios":"levelo://app?vid=f554888c-9515-430c-b3e9-327a4cc15db0"},"vehicle_type_id":"4","last_reported":1774284315,"current_range_meters":6800,"station_id":"","pricing_plan_id":"cebpf4jnsgd1na2vs0mg"},{"bike_id":"26565d6e-e195-4311-934f-52a6594f96d8","system_id":"levelo_inurba_marseille","lat":43.28102,"lon":5.37839,"is_reserved":false,"is_disabled":false,"rental_uris":{"android":"levelo://app?vid=26565d6e-e195-4311-934f-52a6594f96d8","ios":"levelo://app?vid=26565d6e-e195-4311-934f-52a6594f96d8"},"vehicle_type_id":"4","last_reported":1774284315,"current_range_meters":6800,"station_id":"ce4bha12rcd13ifvqee0","pricing_plan_id":"cebpf4jnsgd1na2vs0mg"},{"bike_id":"57d5ddfe-b0cd-49c8-aa47-fce2350232e5","system_id":"levelo_inurba_marseille","lat":43.23158,"lon":5.43734,"is_reserved":false,"is_disabled":false,"rental_uris":{"android":"levelo://app?vid=57d5ddfe-b0cd-49c8-aa47-fce2350232e5","ios":"levelo://app?vid=57d5ddfe-b0cd-49c8-aa47-fce2350232e5"},"vehicle_type_id":"4","last_reported":1774284315,"current_range_meters":6800,"station_id":"ce4bhmp2rcd13ifvqgog","pricing_plan_id":"cebpf4jnsgd1na2vs0mg"},{"bike_id":"bb8bfda7-9a58-484a-8ee2-9eee51eeecfc","system_id":"levelo_inurba_marseille","lat":43.29315,"lon":5.3718,"is_reserved":false,"is_disabled":false,"rental_uris":{"android":"levelo://app?vid=bb8bfda7-9a58-484a-8ee2-9eee51eeecfc","ios":"levelo://app?vid=bb8bfda7-9a58-484a-8ee2-9eee51eeecfc"},"vehicle_type_id":"4","last_reported":1774284315,"current_range_meters":6800,"station_id":"ce4bgh92rcd13ifvqb40","pricing_plan_id":"cebpf4jnsgd1na2vs0mg"},{"bike_id":"e9cafa4c-36b3-4f3d-be62-41d0dbc3d87b","system_id":"levelo_inurba_marseille","lat":43.28081,"lon":5.3966,"is_reserved":false,"is_disabled":false,"rental_uris":{"android":"levelo://app?vid=e9cafa4c-36b3-4f3d-be62-41d0dbc3d87b","ios":"levelo://app?vid=e9cafa4c-36b3-4f3d-be62-41d0dbc3d87b"},"vehicle_type_id":"4","last_reported":1774284315,"current_range_meters":6800,"station_id":"ce4bho12rcd13ifvqh2g","pricing_plan_id":"cebpf4jnsgd1na2vs0mg"},{"bike_id":"a38dc46a-79e5-45be-a26a-5f513201c344","system_id":"levelo_inurba_marseille","lat":43.29595,"lon":5.36741,"is_reserved":false,"is_disabled":false,"rental_uris":{"android":"levelo://app?vid=a38dc46a-79e5-45be-a26a-5f513201c344","ios":"levelo://app?vid=a38dc46a-79e5-45be-a26a-5f513201c344"},"vehicle_type_id":"4","last_reported":1774284315,"current_range_meters":7200,"station_id":"ce4bgph2rcd13ifvqc2g","pricing_plan_id":"cebpf4jnsgd1na2vs0mg"},{"bike_id":"8d261618-9edd-4288-9d3a-3da9cd55b40c","system_id":"levelo_inurba_marseille","lat":43.28852,"lon":5.39303,"is_reserved":false,"is_disabled":false,"rental_uris":{"android":"levelo://app?vid=8d261618-9edd-4288-9d3a-3da9cd55b40c","ios":"levelo://app?vid=8d261618-9edd-4288-9d3a-3da9cd55b40c"},"vehicle_type_id":"4","last_reported":1774284315,"current_range_meters":7200,"station_id":"ce4bh2p2rcd13ifvqdi0","pricing_plan_id":"cebpf4jnsgd1na2vs0mg"},{"bike_id":"975f548d-0a44-425e-8b97-3d3cfd22ac27","system_id":"levelo_inurba_marseille","lat":43.30152,"lon":5.37425,"is_reserved":false,"is_disabled":false,"rental_uris":{"android":"levelo://app?vid=975f548d-0a44-425e-8b97-3d3cfd22ac27","ios":"levelo://app?vid=975f548d-0a44-425e-8b97-3d3cfd22ac27"},"vehicle_type_id":"4","last_reported":1774284315,"current_range_meters":7200,"station_id":"ce4bgs92rcd13ifvqcc0","pricing_plan_id":"cebpf4jnsgd1na2vs0mg"},{"bike_id":"f88785b3-6943-4637-92b7-314729fe3c58","system_id":"levelo_inurba_marseille","lat":43.30842,"lon":5.38306,"is_reserved":false,"is_disabled":false,"rental_uris":{"android":"levelo://app?vid=f88785b3-6943-4637-92b7-314729fe3c58","ios":"levelo://app?vid=f88785b3-6943-4637-92b7-314729fe3c58"},"vehicle_type_id":"4","last_reported":1774284315,"current_range_meters":7200,"station_id":"","pricing_plan_id":"cebpf4jnsgd1na2vs0mg"},{"bike_id":"f9097267-075b-4171-8934-a217e1a9fffd","system_id":"levelo_inurba_marseille","lat":43.28159,"lon":5.42642,"is_reserved":false,"is_disabled":false,"rental_uris":{"android":"levelo://app?vid=f9097267-075b-4171-8934-a217e1a9fffd","ios":"levelo://app?vid=f9097267-075b-4171-8934-a217e1a9fffd"},"vehicle_type_id":"4","last_reported":1774284315,"current_range_meters":7200,"station_id":"ce4bhnh2rcd13ifvqgug","pricing_plan_id":"cebpf4jnsgd1na2vs0mg"},{"bike_id":"4d88734a-162e-4307-92a3-61e5ee7aa63f","system_id":"levelo_inurba_marseille","lat":43.29205,"lon":5.42586,"is_reserved":false,"is_disabled":true,"rental_uris":{"android":"levelo://app?vid=4d88734a-162e-4307-92a3-61e5ee7aa63f","ios":"levelo://app?vid=4d88734a-162e-4307-92a3-61e5ee7aa63f"},"vehicle_type_id":"4","last_reported":1774284315,"current_range_meters":7200,"station_id":"","pricing_plan_id":"cebpf4jnsgd1na2vs0mg"},{"bike_id":"4962c0d1-0701-4169-8df4-51f778eaede9","system_id":"levelo_inurba_marseille","lat":43.27178,"lon":5.40993,"is_reserved":false,"is_disabled":false,"rental_uris":{"android":"levelo://app?vid=4962c0d1-0701-4169-8df4-51f778eaede9","ios":"levelo://app?vid=4962c0d1-0701-4169-8df4-51f778eaede9"},"vehicle_type_id":"4","last_reported":1774284315,"current_range_meters":7200,"station_id":"ce4bhl12rcd13ifvqgf0","pricing_plan_id":"cebpf4jnsgd1na2vs0mg"},{"bike_id":"efc17f1e-6900-44d0-af1e-4eeb2209ad64","system_id":"levelo_inurba_marseille","lat":43.28411,"lon":5.34979,"is_reserved":false,"is_disabled":false,"rental_uris":{"android":"levelo://app?vid=efc17f1e-6900-44d0-af1e-4eeb2209ad64","ios":"levelo://app?vid=efc17f1e-6900-44d0-af1e-4eeb2209ad64"},"vehicle_type_id":"4","last_reported":1774284315,"current_range_meters":7200,"station_id":"ce4bhbh2rcd13ifvqepg","pricing_plan_id":"cebpf4jnsgd1na2vs0mg"},{"bike_id":"8e634b81-025a-405f-b895-638126c1cf1d","system_id":"levelo_inurba_marseille","lat":43.31487,"lon":5.373,"is_reserved":false,"is_disabled":false,"rental_uris":{"android":"levelo://app?vid=8e634b81-025a-405f-b895-638126c1cf1d","ios":"levelo://app?vid=8e634b81-025a-405f-b895-638126c1cf1d"},"vehicle_type_id":"4","last_reported":1774284315,"current_range_meters":7200,"station_id":"ce4bgt12rcd13ifvqcd0","pricing_plan_id":"cebpf4jnsgd1na2vs0mg"},{"bike_id":"c1af2eca-cb1d-451f-a2e9-025bc5e4557d","system_id":"levelo_inurba_marseille","lat":43.302,"lon":5.366,"is_reserved":false,"is_disabled":false,"rental_uris":{"android":"levelo://app?vid=c1af2eca-cb1d-451f-a2e9-025bc5e4557d","ios":"levelo://app?vid=c1af2eca-cb1d-451f-a2e9-025bc5e4557d"},"vehicle_type_id":"4","last_reported":1774284315,"current_range_meters":7200,"station_id":"ce4bgrh2rcd13ifvqc8g","pricing_plan_id":"cebpf4jnsgd1na2vs0mg"},{"bike_id":"a4ed6440-1299-492c-a2e0-14f3831500d1","system_id":"levelo_inurba_marseille","lat":43.28613,"lon":5.35106,"is_reserved":false,"is_disabled":false,"rental_uris":{"android":"levelo://app?vid=a4ed6440-1299-492c-a2e0-14f3831500d1","ios":"levelo://app?vid=a4ed6440-1299-492c-a2e0-14f3831500d1"},"vehicle_type_id":"4","last_reported":1774284315,"current_range_meters":8000,"station_id":"ce4bhch2rcd13ifvqeug","pricing_plan_id":"cebpf4jnsgd1na2vs0mg"},{"bike_id":"6a361988-483c-4fea-b668-fae45fefb959","system_id":"levelo_inurba_marseille","lat":43.32128,"lon":5.36732,"is_reserved":false,"is_disabled":false,"rental_uris":{"android":"levelo://app?vid=6a361988-483c-4fea-b668-fae45fefb959","ios":"levelo://app?vid=6a361988-483c-4fea-b668-fae45fefb959"},"vehicle_type_id":"4","last_reported":1774284315,"current_range_meters":8000,"station_id":"","pricing_plan_id":"cebpf4jnsgd1na2vs0mg"},{"bike_id":"cd91631e-c7e8-46db-b75d-7277bdfa7025","system_id":"levelo_inurba_marseille","lat":43.28435,"lon":5.39192,"is_reserved":false,"is_disabled":false,"rental_uris":{"android":"levelo://app?vid=cd91631e-c7e8-46db-b75d-7277bdfa7025","ios":"levelo://app?vid=cd91631e-c7e8-46db-b75d-7277bdfa7025"},"vehicle_type_id":"4","last_reported":1774284315,"current_range_meters":8000,"station_id":"ce4bhoh2rcd13ifvqh5g","pricing_plan_id":"cebpf4jnsgd1na2vs0mg"},{"bike_id":"aa929685-e4dd-4a31-a1c6-979463fa81a3","system_id":"levelo_inurba_marseille","lat":43.28507,"lon":5.4844,"is_reserved":false,"is_disabled":false,"rental_uris":{"android":"levelo://app?vid=aa929685-e4dd-4a31-a1c6-979463fa81a3","ios":"levelo://app?vid=aa929685-e4dd-4a31-a1c6-979463fa81a3"},"vehicle_type_id":"4","last_reported":1774284315,"current_range_meters":8000,"station_id":"st_d3svhcjqgbts73a3dn0g","pricing_plan_id":"cebpf4jnsgd1na2vs0mg"},{"bike_id":"c0ede030-ab9a-4615-a9c7-01479ac5ac50","system_id":"levelo_inurba_marseille","lat":43.26682,"lon":5.38279,"is_reserved":false,"is_disabled":true,"rental_uris":{"android":"levelo://app?vid=c0ede030-ab9a-4615-a9c7-01479ac5ac50","ios":"levelo://app?vid=c0ede030-ab9a-4615-a9c7-01479ac5ac50"},"vehicle_type_id":"4","last_reported":1774284315,"current_range_meters":8000,"station_id":"ce4bhg92rcd13ifvqf90","pricing_plan_id":"cebpf4jnsgd1na2vs0mg"},{"bike_id":"c5c87075-ebdc-4fb8-959a-24e36d3cca40","system_id":"levelo_inurba_marseille","lat":43.28851,"lon":5.39312,"is_reserved":false,"is_disabled":false,"rental_uris":{"android":"levelo://app?vid=c5c87075-ebdc-4fb8-959a-24e36d3cca40","ios":"levelo://app?vid=c5c87075-ebdc-4fb8-959a-24e36d3cca40"},"vehicle_type_id":"4","last_reported":1774284315,"current_range_meters":8000,"station_id":"ce4bh2p2rcd13ifvqdi0","pricing_plan_id":"cebpf4jnsgd1na2vs0mg"},{"bike_id":"1e3d6d24-08d7-41f0-82c6-25b3f1861684","system_id":"levelo_inurba_marseille","lat":43.30554,"lon":5.36525,"is_reserved":false,"is_disabled":false,"rental_uris":{"android":"levelo://app?vid=1e3d6d24-08d7-41f0-82c6-25b3f1861684","ios":"levelo://app?vid=1e3d6d24-08d7-41f0-82c6-25b3f1861684"},"vehicle_type_id":"4","last_reported":1774284315,"current_range_meters":8000,"station_id":"ce4bgs12rcd13ifvqcag","pricing_plan_id":"cebpf4jnsgd1na2vs0mg"},{"bike_id":"6979a6fb-10a0-43cf-8c47-6569f8ddef35","system_id":"levelo_inurba_marseille","lat":43.32103,"lon":5.36773,"is_reserved":false,"is_disabled":false,"rental_uris":{"android":"levelo://app?vid=6979a6fb-10a0-43cf-8c47-6569f8ddef35","ios":"levelo://app?vid=6979a6fb-10a0-43cf-8c47-6569f8ddef35"},"vehicle_type_id":"4","last_reported":1774284315,"current_range_meters":8000,"station_id":"ce4bhrh2rcd13ifvqhug","pricing_plan_id":"cebpf4jnsgd1na2vs0mg"},{"bike_id":"0cac1708-4349-4b92-a1f5-8632f9a59637","system_id":"levelo_inurba_marseille","lat":43.2993,"lon":5.3746,"is_reserved":false,"is_disabled":false,"rental_uris":{"android":"levelo://app?vid=0cac1708-4349-4b92-a1f5-8632f9a59637","ios":"levelo://app?vid=0cac1708-4349-4b92-a1f5-8632f9a59637"},"vehicle_type_id":"4","last_reported":1774284315,"current_range_meters":8000,"station_id":"ce4bgjh2rcd13ifvqbg0","pricing_plan_id":"cebpf4jnsgd1na2vs0mg"},{"bike_id":"d7413193-d468-4a6c-a1af-a6ef467e5b96","system_id":"levelo_inurba_marseille","lat":43.2738,"lon":5.36256,"is_reserved":false,"is_disabled":false,"rental_uris":{"android":"levelo://app?vid=d7413193-d468-4a6c-a1af-a6ef467e5b96","ios":"levelo://app?vid=d7413193-d468-4a6c-a1af-a6ef467e5b96"},"vehicle_type_id":"4","last_reported":1774284315,"current_range_meters":8000,"station_id":"ce4bhbh2rcd13ifvqeo0","pricing_plan_id":"cebpf4jnsgd1na2vs0mg"},{"bike_id":"a9fcd02c-7b6b-4ad8-a39d-d88606ee3ac0","system_id":"levelo_inurba_marseille","lat":43.25012,"lon":5.38904,"is_reserved":false,"is_disabled":true,"rental_uris":{"android":"levelo://app?vid=a9fcd02c-7b6b-4ad8-a39d-d88606ee3ac0","ios":"levelo://app?vid=a9fcd02c-7b6b-4ad8-a39d-d88606ee3ac0"},"vehicle_type_id":"4","last_reported":1774284315,"current_range_meters":8400,"station_id":"ce4bhgp2rcd13ifvqfd0","pricing_plan_id":"cebpf4jnsgd1na2vs0mg"},{"bike_id":"d652bb11-1e1c-4ddc-8dd0-6b5be03c5876","system_id":"levelo_inurba_marseille","lat":43.28263,"lon":5.35061,"is_reserved":false,"is_disabled":false,"rental_uris":{"android":"levelo://app?vid=d652bb11-1e1c-4ddc-8dd0-6b5be03c5876","ios":"levelo://app?vid=d652bb11-1e1c-4ddc-8dd0-6b5be03c5876"},"vehicle_type_id":"4","last_reported":1774284315,"current_range_meters":8400,"station_id":"ce4bhbp2rcd13ifvqerg","pricing_plan_id":"cebpf4jnsgd1na2vs0mg"},{"bike_id":"1d0f3067-7ca2-4fbd-8b40-b921c6748a4a","system_id":"levelo_inurba_marseille","lat":43.28477,"lon":5.48394,"is_reserved":false,"is_disabled":false,"rental_uris":{"android":"levelo://app?vid=1d0f3067-7ca2-4fbd-8b40-b921c6748a4a","ios":"levelo://app?vid=1d0f3067-7ca2-4fbd-8b40-b921c6748a4a"},"vehicle_type_id":"4","last_reported":1774284315,"current_range_meters":8400,"station_id":"","pricing_plan_id":"cebpf4jnsgd1na2vs0mg"},{"bike_id":"ee698121-d38a-42d7-b2ad-b69bddb1a86c","system_id":"levelo_inurba_marseille","lat":43.28414,"lon":5.35001,"is_reserved":false,"is_disabled":false,"rental_uris":{"android":"levelo://app?vid=ee698121-d38a-42d7-b2ad-b69bddb1a86c","ios":"levelo://app?vid=ee698121-d38a-42d7-b2ad-b69bddb1a86c"},"vehicle_type_id":"4","last_reported":1774284315,"current_range_meters":8400,"station_id":"ce4bhbh2rcd13ifvqepg","pricing_plan_id":"cebpf4jnsgd1na2vs0mg"},{"bike_id":"04dcfaab-0289-4deb-8191-8bb29cdadfb2","system_id":"levelo_inurba_marseille","lat":43.28967,"lon":5.35645,"is_reserved":false,"is_disabled":false,"rental_uris":{"android":"levelo://app?vid=04dcfaab-0289-4deb-8191-8bb29cdadfb2","ios":"levelo://app?vid=04dcfaab-0289-4deb-8191-8bb29cdadfb2"},"vehicle_type_id":"4","last_reported":1774284315,"current_range_meters":8400,"station_id":"","pricing_plan_id":"cebpf4jnsgd1na2vs0mg"},{"bike_id":"2405430b-043c-4902-843a-b0a78f17e50c","system_id":"levelo_inurba_marseille","lat":43.28267,"lon":5.35078,"is_reserved":false,"is_disabled":false,"rental_uris":{"android":"levelo://app?vid=2405430b-043c-4902-843a-b0a78f17e50c","ios":"levelo://app?vid=2405430b-043c-4902-843a-b0a78f17e50c"},"vehicle_type_id":"4","last_reported":1774284315,"current_range_meters":8400,"station_id":"ce4bhbp2rcd13ifvqerg","pricing_plan_id":"cebpf4jnsgd1na2vs0mg"},{"bike_id":"bbb20be4-a4e3-4756-bf9e-de6efa0abbb9","system_id":"levelo_inurba_marseille","lat":43.29211,"lon":5.42592,"is_reserved":false,"is_disabled":false,"rental_uris":{"android":"levelo://app?vid=bbb20be4-a4e3-4756-bf9e-de6efa0abbb9","ios":"levelo://app?vid=bbb20be4-a4e3-4756-bf9e-de6efa0abbb9"},"vehicle_type_id":"4","last_reported":1774284315,"current_range_meters":8400,"station_id":"","pricing_plan_id":"cebpf4jnsgd1na2vs0mg"},{"bike_id":"72c8e3c0-52d4-49e1-9aa9-201dd7c27a60","system_id":"levelo_inurba_marseille","lat":43.31118,"lon":5.37779,"is_reserved":false,"is_disabled":true,"rental_uris":{"android":"levelo://app?vid=72c8e3c0-52d4-49e1-9aa9-201dd7c27a60","ios":"levelo://app?vid=72c8e3c0-52d4-49e1-9aa9-201dd7c27a60"},"vehicle_type_id":"4","last_reported":1774284315,"current_range_meters":8400,"station_id":"ce4bgt92rcd13ifvqcg0","pricing_plan_id":"cebpf4jnsgd1na2vs0mg"},{"bike_id":"edaa494a-4360-47b4-975b-ccf6d6b743ca","system_id":"levelo_inurba_marseille","lat":43.29584,"lon":5.36537,"is_reserved":false,"is_disabled":false,"rental_uris":{"android":"levelo://app?vid=edaa494a-4360-47b4-975b-ccf6d6b743ca","ios":"levelo://app?vid=edaa494a-4360-47b4-975b-ccf6d6b743ca"},"vehicle_type_id":"4","last_reported":1774284315,"current_range_meters":8400,"station_id":"","pricing_plan_id":"cebpf4jnsgd1na2vs0mg"},{"bike_id":"1578d5a1-cf64-46a9-967c-5c74f6b22e62","system_id":"levelo_inurba_marseille","lat":43.30521,"lon":5.36716,"is_reserved":false,"is_disabled":false,"rental_uris":{"android":"levelo://app?vid=1578d5a1-cf64-46a9-967c-5c74f6b22e62","ios":"levelo://app?vid=1578d5a1-cf64-46a9-967c-5c74f6b22e62"},"vehicle_type_id":"4","last_reported":1774284315,"current_range_meters":8400,"station_id":"ce4bgrp2rcd13ifvqc9g","pricing_plan_id":"cebpf4jnsgd1na2vs0mg"},{"bike_id":"72170c85-0971-44f8-ae67-9dbf5cc5bbb2","system_id":"levelo_inurba_marseille","lat":43.27988,"lon":5.40024,"is_reserved":false,"is_disabled":false,"rental_uris":{"android":"levelo://app?vid=72170c85-0971-44f8-ae67-9dbf5cc5bbb2","ios":"levelo://app?vid=72170c85-0971-44f8-ae67-9dbf5cc5bbb2"},"vehicle_type_id":"4","last_reported":1774284315,"current_range_meters":8400,"station_id":"ce4bho92rcd13ifvqh4g","pricing_plan_id":"cebpf4jnsgd1na2vs0mg"},{"bike_id":"87cab354-e36c-4dc9-949d-1832434988fa","system_id":"levelo_inurba_marseille","lat":43.31308,"lon":5.38421,"is_reserved":false,"is_disabled":false,"rental_uris":{"android":"levelo://app?vid=87cab354-e36c-4dc9-949d-1832434988fa","ios":"levelo://app?vid=87cab354-e36c-4dc9-949d-1832434988fa"},"vehicle_type_id":"4","last_reported":1774284315,"current_range_meters":8400,"station_id":"","pricing_plan_id":"cebpf4jnsgd1na2vs0mg"},{"bike_id":"57a150a8-dc63-404d-ac31-8e5d537b10bf","system_id":"levelo_inurba_marseille","lat":43.29035,"lon":5.38647,"is_reserved":false,"is_disabled":false,"rental_uris":{"android":"levelo://app?vid=57a150a8-dc63-404d-ac31-8e5d537b10bf","ios":"levelo://app?vid=57a150a8-dc63-404d-ac31-8e5d537b10bf"},"vehicle_type_id":"4","last_reported":1774284315,"current_range_meters":8400,"station_id":"ce4bh4p2rcd13ifvqe0g","pricing_plan_id":"cebpf4jnsgd1na2vs0mg"},{"bike_id":"8b3b5143-9318-45ef-8c15-1a5e26dfeb39","system_id":"levelo_inurba_marseille","lat":43.2883,"lon":5.35865,"is_reserved":false,"is_disabled":false,"rental_uris":{"android":"levelo://app?vid=8b3b5143-9318-45ef-8c15-1a5e26dfeb39","ios":"levelo://app?vid=8b3b5143-9318-45ef-8c15-1a5e26dfeb39"},"vehicle_type_id":"4","last_reported":1774284315,"current_range_meters":8400,"station_id":"ce4bhb12rcd13ifvqem0","pricing_plan_id":"cebpf4jnsgd1na2vs0mg"},{"bike_id":"d89b1915-483d-4d09-b44a-47b8df915eef","system_id":"levelo_inurba_marseille","lat":43.231,"lon":5.35493,"is_reserved":false,"is_disabled":false,"rental_uris":{"android":"levelo://app?vid=d89b1915-483d-4d09-b44a-47b8df915eef","ios":"levelo://app?vid=d89b1915-483d-4d09-b44a-47b8df915eef"},"vehicle_type_id":"4","last_reported":1774284315,"current_range_meters":8400,"station_id":"","pricing_plan_id":"cebpf4jnsgd1na2vs0mg"},{"bike_id":"59320224-03ff-4fa2-8a28-3304debe9556","system_id":"levelo_inurba_marseille","lat":43.28415,"lon":5.34954,"is_reserved":false,"is_disabled":false,"rental_uris":{"android":"levelo://app?vid=59320224-03ff-4fa2-8a28-3304debe9556","ios":"levelo://app?vid=59320224-03ff-4fa2-8a28-3304debe9556"},"vehicle_type_id":"4","last_reported":1774284315,"current_range_meters":8400,"station_id":"ce4bhbh2rcd13ifvqepg","pricing_plan_id":"cebpf4jnsgd1na2vs0mg"},{"bike_id":"e41c893a-4032-48f3-bf3a-8efcbfe1465c","system_id":"levelo_inurba_marseille","lat":43.25826,"lon":5.39453,"is_reserved":false,"is_disabled":true,"rental_uris":{"android":"levelo://app?vid=e41c893a-4032-48f3-bf3a-8efcbfe1465c","ios":"levelo://app?vid=e41c893a-4032-48f3-bf3a-8efcbfe1465c"},"vehicle_type_id":"4","last_reported":1774284315,"current_range_meters":8800,"station_id":"ce4bhip2rcd13ifvqft0","pricing_plan_id":"cebpf4jnsgd1na2vs0mg"},{"bike_id":"8ed9ad8a-0744-4aab-9ac0-b3a13a4c6290","system_id":"levelo_inurba_marseille","lat":43.23154,"lon":5.43691,"is_reserved":false,"is_disabled":false,"rental_uris":{"android":"levelo://app?vid=8ed9ad8a-0744-4aab-9ac0-b3a13a4c6290","ios":"levelo://app?vid=8ed9ad8a-0744-4aab-9ac0-b3a13a4c6290"},"vehicle_type_id":"4","last_reported":1774284315,"current_range_meters":8800,"station_id":"ce4bhmp2rcd13ifvqgog","pricing_plan_id":"cebpf4jnsgd1na2vs0mg"},{"bike_id":"5cca4b32-612b-471f-a02d-66912cbe70ff","system_id":"levelo_inurba_marseille","lat":43.21205,"lon":5.35115,"is_reserved":false,"is_disabled":true,"rental_uris":{"android":"levelo://app?vid=5cca4b32-612b-471f-a02d-66912cbe70ff","ios":"levelo://app?vid=5cca4b32-612b-471f-a02d-66912cbe70ff"},"vehicle_type_id":"4","last_reported":1774284315,"current_range_meters":8800,"station_id":"st_cvj6sg6p6f1abm77japg","pricing_plan_id":"cebpf4jnsgd1na2vs0mg"},{"bike_id":"72999db3-62c4-4d6b-9c7f-3129997c7dc6","system_id":"levelo_inurba_marseille","lat":43.28147,"lon":5.40942,"is_reserved":false,"is_disabled":false,"rental_uris":{"android":"levelo://app?vid=72999db3-62c4-4d6b-9c7f-3129997c7dc6","ios":"levelo://app?vid=72999db3-62c4-4d6b-9c7f-3129997c7dc6"},"vehicle_type_id":"4","last_reported":1774284315,"current_range_meters":8800,"station_id":"","pricing_plan_id":"cebpf4jnsgd1na2vs0mg"},{"bike_id":"3447cb79-bcea-4e0e-a6e2-fb4871ba01b4","system_id":"levelo_inurba_marseille","lat":43.24731,"lon":5.39254,"is_reserved":false,"is_disabled":false,"rental_uris":{"android":"levelo://app?vid=3447cb79-bcea-4e0e-a6e2-fb4871ba01b4","ios":"levelo://app?vid=3447cb79-bcea-4e0e-a6e2-fb4871ba01b4"},"vehicle_type_id":"4","last_reported":1774284315,"current_range_meters":8800,"station_id":"","pricing_plan_id":"cebpf4jnsgd1na2vs0mg"},{"bike_id":"b9c185a6-8460-4799-9c95-a70de691d25a","system_id":"levelo_inurba_marseille","lat":43.26561,"lon":5.40334,"is_reserved":false,"is_disabled":false,"rental_uris":{"android":"levelo://app?vid=b9c185a6-8460-4799-9c95-a70de691d25a","ios":"levelo://app?vid=b9c185a6-8460-4799-9c95-a70de691d25a"},"vehicle_type_id":"4","last_reported":1774284315,"current_range_meters":8800,"station_id":"ce4bhmp2rcd13ifvqgng","pricing_plan_id":"cebpf4jnsgd1na2vs0mg"},{"bike_id":"3f30f2ff-40f2-4f9d-996a-0de8bac95dfa","system_id":"levelo_inurba_marseille","lat":43.26557,"lon":5.37286,"is_reserved":false,"is_disabled":false,"rental_uris":{"android":"levelo://app?vid=3f30f2ff-40f2-4f9d-996a-0de8bac95dfa","ios":"levelo://app?vid=3f30f2ff-40f2-4f9d-996a-0de8bac95dfa"},"vehicle_type_id":"4","last_reported":1774284315,"current_range_meters":8800,"station_id":"ce4bhg12rcd13ifvqf70","pricing_plan_id":"cebpf4jnsgd1na2vs0mg"},{"bike_id":"fc8e7d03-9fd6-4922-9a5c-2706ea131db0","system_id":"levelo_inurba_marseille","lat":43.28274,"lon":5.35072,"is_reserved":false,"is_disabled":false,"rental_uris":{"android":"levelo://app?vid=fc8e7d03-9fd6-4922-9a5c-2706ea131db0","ios":"levelo://app?vid=fc8e7d03-9fd6-4922-9a5c-2706ea131db0"},"vehicle_type_id":"4","last_reported":1774284315,"current_range_meters":8800,"station_id":"ce4bhbp2rcd13ifvqerg","pricing_plan_id":"cebpf4jnsgd1na2vs0mg"},{"bike_id":"ab57b0af-dbca-4b99-ba40-aa0f54a889d8","system_id":"levelo_inurba_marseille","lat":43.29164,"lon":5.37162,"is_reserved":false,"is_disabled":false,"rental_uris":{"android":"levelo://app?vid=ab57b0af-dbca-4b99-ba40-aa0f54a889d8","ios":"levelo://app?vid=ab57b0af-dbca-4b99-ba40-aa0f54a889d8"},"vehicle_type_id":"4","last_reported":1774284315,"current_range_meters":8800,"station_id":"ce4bha92rcd13ifvqeh0","pricing_plan_id":"cebpf4jnsgd1na2vs0mg"},{"bike_id":"04e42d2b-817b-4033-8935-148ae7f53cb4","system_id":"levelo_inurba_marseille","lat":43.28209,"lon":5.3907,"is_reserved":false,"is_disabled":true,"rental_uris":{"android":"levelo://app?vid=04e42d2b-817b-4033-8935-148ae7f53cb4","ios":"levelo://app?vid=04e42d2b-817b-4033-8935-148ae7f53cb4"},"vehicle_type_id":"4","last_reported":1774284315,"current_range_meters":8800,"station_id":"ce4bhn92rcd13ifvqgsg","pricing_plan_id":"cebpf4jnsgd1na2vs0mg"},{"bike_id":"7c65ede5-43dc-4f72-bd04-324294c0b8ba","system_id":"levelo_inurba_marseille","lat":43.3053,"lon":5.36546,"is_reserved":false,"is_disabled":false,"rental_uris":{"android":"levelo://app?vid=7c65ede5-43dc-4f72-bd04-324294c0b8ba","ios":"levelo://app?vid=7c65ede5-43dc-4f72-bd04-324294c0b8ba"},"vehicle_type_id":"4","last_reported":1774284315,"current_range_meters":8800,"station_id":"ce4bgs12rcd13ifvqcag","pricing_plan_id":"cebpf4jnsgd1na2vs0mg"},{"bike_id":"11e72862-b13a-4148-81eb-a746dec69e24","system_id":"levelo_inurba_marseille","lat":43.2843,"lon":5.34946,"is_reserved":false,"is_disabled":false,"rental_uris":{"android":"levelo://app?vid=11e72862-b13a-4148-81eb-a746dec69e24","ios":"levelo://app?vid=11e72862-b13a-4148-81eb-a746dec69e24"},"vehicle_type_id":"4","last_reported":1774284315,"current_range_meters":8800,"station_id":"ce4bhbh2rcd13ifvqepg","pricing_plan_id":"cebpf4jnsgd1na2vs0mg"},{"bike_id":"bc4ea016-1d29-466d-9dad-5adf4e01fda0","system_id":"levelo_inurba_marseille","lat":43.29532,"lon":5.38543,"is_reserved":false,"is_disabled":false,"rental_uris":{"android":"levelo://app?vid=bc4ea016-1d29-466d-9dad-5adf4e01fda0","ios":"levelo://app?vid=bc4ea016-1d29-466d-9dad-5adf4e01fda0"},"vehicle_type_id":"4","last_reported":1774284315,"current_range_meters":8800,"station_id":"ce4bgih2rcd13ifvqba0","pricing_plan_id":"cebpf4jnsgd1na2vs0mg"},{"bike_id":"f910acab-e234-4475-91c9-ec3fea6d1bf3","system_id":"levelo_inurba_marseille","lat":43.29897,"lon":5.43653,"is_reserved":false,"is_disabled":false,"rental_uris":{"android":"levelo://app?vid=f910acab-e234-4475-91c9-ec3fea6d1bf3","ios":"levelo://app?vid=f910acab-e234-4475-91c9-ec3fea6d1bf3"},"vehicle_type_id":"4","last_reported":1774284315,"current_range_meters":9200,"station_id":"ce4bhpp2rcd13ifvqhfg","pricing_plan_id":"cebpf4jnsgd1na2vs0mg"},{"bike_id":"f329e31a-d145-44dd-a6c7-77d893fce1d9","system_id":"levelo_inurba_marseille","lat":43.25328,"lon":5.42174,"is_reserved":false,"is_disabled":false,"rental_uris":{"android":"levelo://app?vid=f329e31a-d145-44dd-a6c7-77d893fce1d9","ios":"levelo://app?vid=f329e31a-d145-44dd-a6c7-77d893fce1d9"},"vehicle_type_id":"4","last_reported":1774284315,"current_range_meters":9200,"station_id":"st_d2m65c5bi1j21697t3ng","pricing_plan_id":"cebpf4jnsgd1na2vs0mg"},{"bike_id":"52afd454-e1e8-4494-a291-d583b2ddd5d8","system_id":"levelo_inurba_marseille","lat":43.30797,"lon":5.40016,"is_reserved":false,"is_disabled":false,"rental_uris":{"android":"levelo://app?vid=52afd454-e1e8-4494-a291-d583b2ddd5d8","ios":"levelo://app?vid=52afd454-e1e8-4494-a291-d583b2ddd5d8"},"vehicle_type_id":"4","last_reported":1774284315,"current_range_meters":9200,"station_id":"","pricing_plan_id":"cebpf4jnsgd1na2vs0mg"},{"bike_id":"83cbe6c6-fcd9-4f28-ae93-ac3855c09255","system_id":"levelo_inurba_marseille","lat":43.30577,"lon":5.37247,"is_reserved":false,"is_disabled":false,"rental_uris":{"android":"levelo://app?vid=83cbe6c6-fcd9-4f28-ae93-ac3855c09255","ios":"levelo://app?vid=83cbe6c6-fcd9-4f28-ae93-ac3855c09255"},"vehicle_type_id":"4","last_reported":1774284315,"current_range_meters":9200,"station_id":"ce4bgqh2rcd13ifvqc4g","pricing_plan_id":"cebpf4jnsgd1na2vs0mg"},{"bike_id":"67fa727b-a75e-43f5-8f7f-0420dd73f369","system_id":"levelo_inurba_marseille","lat":43.32079,"lon":5.36817,"is_reserved":false,"is_disabled":false,"rental_uris":{"android":"levelo://app?vid=67fa727b-a75e-43f5-8f7f-0420dd73f369","ios":"levelo://app?vid=67fa727b-a75e-43f5-8f7f-0420dd73f369"},"vehicle_type_id":"4","last_reported":1774284315,"current_range_meters":9200,"station_id":"ce4bhrh2rcd13ifvqhug","pricing_plan_id":"cebpf4jnsgd1na2vs0mg"},{"bike_id":"113bdd0b-34d4-40b5-8f93-c39528d91365","system_id":"levelo_inurba_marseille","lat":43.2956,"lon":5.37498,"is_reserved":false,"is_disabled":false,"rental_uris":{"android":"levelo://app?vid=113bdd0b-34d4-40b5-8f93-c39528d91365","ios":"levelo://app?vid=113bdd0b-34d4-40b5-8f93-c39528d91365"},"vehicle_type_id":"4","last_reported":1774284315,"current_range_meters":9200,"station_id":"ce4bgh92rcd13ifvqb50","pricing_plan_id":"cebpf4jnsgd1na2vs0mg"},{"bike_id":"0688a972-c07e-436f-a650-cd184ab189cc","system_id":"levelo_inurba_marseille","lat":43.32087,"lon":5.36798,"is_reserved":false,"is_disabled":false,"rental_uris":{"android":"levelo://app?vid=0688a972-c07e-436f-a650-cd184ab189cc","ios":"levelo://app?vid=0688a972-c07e-436f-a650-cd184ab189cc"},"vehicle_type_id":"4","last_reported":1774284315,"current_range_meters":9200,"station_id":"ce4bhrh2rcd13ifvqhug","pricing_plan_id":"cebpf4jnsgd1na2vs0mg"},{"bike_id":"6c31d7d4-4709-430d-a910-9a97c2562f8b","system_id":"levelo_inurba_marseille","lat":43.29919,"lon":5.36554,"is_reserved":false,"is_disabled":false,"rental_uris":{"android":"levelo://app?vid=6c31d7d4-4709-430d-a910-9a97c2562f8b","ios":"levelo://app?vid=6c31d7d4-4709-430d-a910-9a97c2562f8b"},"vehicle_type_id":"4","last_reported":1774284315,"current_range_meters":9200,"station_id":"ce4bgm92rcd13ifvqbr0","pricing_plan_id":"cebpf4jnsgd1na2vs0mg"},{"bike_id":"7e03e45c-d69c-4371-8267-aa26cde43729","system_id":"levelo_inurba_marseille","lat":43.25549,"lon":5.38257,"is_reserved":false,"is_disabled":true,"rental_uris":{"android":"levelo://app?vid=7e03e45c-d69c-4371-8267-aa26cde43729","ios":"levelo://app?vid=7e03e45c-d69c-4371-8267-aa26cde43729"},"vehicle_type_id":"4","last_reported":1774284315,"current_range_meters":9200,"station_id":"ce4bhih2rcd13ifvqfs0","pricing_plan_id":"cebpf4jnsgd1na2vs0mg"},{"bike_id":"d6823813-ef49-4d16-a366-8dc764e2b31e","system_id":"levelo_inurba_marseille","lat":43.27924,"lon":5.41045,"is_reserved":false,"is_disabled":false,"rental_uris":{"android":"levelo://app?vid=d6823813-ef49-4d16-a366-8dc764e2b31e","ios":"levelo://app?vid=d6823813-ef49-4d16-a366-8dc764e2b31e"},"vehicle_type_id":"4","last_reported":1774284315,"current_range_meters":9200,"station_id":"ce4bhnp2rcd13ifvqh0g","pricing_plan_id":"cebpf4jnsgd1na2vs0mg"},{"bike_id":"42a4a15e-3eeb-448b-866f-9a05c2c9ea98","system_id":"levelo_inurba_marseille","lat":43.27987,"lon":5.41632,"is_reserved":false,"is_disabled":false,"rental_uris":{"android":"levelo://app?vid=42a4a15e-3eeb-448b-866f-9a05c2c9ea98","ios":"levelo://app?vid=42a4a15e-3eeb-448b-866f-9a05c2c9ea98"},"vehicle_type_id":"4","last_reported":1774284315,"current_range_meters":9200,"station_id":"ce4bho12rcd13ifvqh1g","pricing_plan_id":"cebpf4jnsgd1na2vs0mg"},{"bike_id":"e22a25ae-d4ee-44e8-a9bd-32b0990fb674","system_id":"levelo_inurba_marseille","lat":43.30146,"lon":5.38084,"is_reserved":false,"is_disabled":false,"rental_uris":{"android":"levelo://app?vid=e22a25ae-d4ee-44e8-a9bd-32b0990fb674","ios":"levelo://app?vid=e22a25ae-d4ee-44e8-a9bd-32b0990fb674"},"vehicle_type_id":"4","last_reported":1774284315,"current_range_meters":9200,"station_id":"ce4bgjp2rcd13ifvqbh0","pricing_plan_id":"cebpf4jnsgd1na2vs0mg"},{"bike_id":"ea55a489-9225-40f2-8711-7237563668b5","system_id":"levelo_inurba_marseille","lat":43.30542,"lon":5.36544,"is_reserved":false,"is_disabled":false,"rental_uris":{"android":"levelo://app?vid=ea55a489-9225-40f2-8711-7237563668b5","ios":"levelo://app?vid=ea55a489-9225-40f2-8711-7237563668b5"},"vehicle_type_id":"4","last_reported":1774284315,"current_range_meters":9600,"station_id":"ce4bgs12rcd13ifvqcag","pricing_plan_id":"cebpf4jnsgd1na2vs0mg"},{"bike_id":"b4bd60d6-d657-4d29-a6ad-eb404614cc16","system_id":"levelo_inurba_marseille","lat":43.28733,"lon":5.35188,"is_reserved":false,"is_disabled":false,"rental_uris":{"android":"levelo://app?vid=b4bd60d6-d657-4d29-a6ad-eb404614cc16","ios":"levelo://app?vid=b4bd60d6-d657-4d29-a6ad-eb404614cc16"},"vehicle_type_id":"4","last_reported":1774284315,"current_range_meters":9600,"station_id":"","pricing_plan_id":"cebpf4jnsgd1na2vs0mg"},{"bike_id":"777878bc-164f-4c5a-8054-7f1657bde276","system_id":"levelo_inurba_marseille","lat":43.26566,"lon":5.39006,"is_reserved":false,"is_disabled":false,"rental_uris":{"android":"levelo://app?vid=777878bc-164f-4c5a-8054-7f1657bde276","ios":"levelo://app?vid=777878bc-164f-4c5a-8054-7f1657bde276"},"vehicle_type_id":"4","last_reported":1774284315,"current_range_meters":9600,"station_id":"ce4bhe12rcd13ifvqf30","pricing_plan_id":"cebpf4jnsgd1na2vs0mg"},{"bike_id":"a5e6904f-79e4-4bfa-836a-9aff101bdbbc","system_id":"levelo_inurba_marseille","lat":43.28927,"lon":5.39621,"is_reserved":false,"is_disabled":false,"rental_uris":{"android":"levelo://app?vid=a5e6904f-79e4-4bfa-836a-9aff101bdbbc","ios":"levelo://app?vid=a5e6904f-79e4-4bfa-836a-9aff101bdbbc"},"vehicle_type_id":"4","last_reported":1774284315,"current_range_meters":9600,"station_id":"ce4bh3h2rcd13ifvqdn0","pricing_plan_id":"cebpf4jnsgd1na2vs0mg"},{"bike_id":"0b786319-6d9f-4d1c-890a-5150198e272a","system_id":"levelo_inurba_marseille","lat":43.28505,"lon":5.48396,"is_reserved":false,"is_disabled":false,"rental_uris":{"android":"levelo://app?vid=0b786319-6d9f-4d1c-890a-5150198e272a","ios":"levelo://app?vid=0b786319-6d9f-4d1c-890a-5150198e272a"},"vehicle_type_id":"4","last_reported":1774284315,"current_range_meters":9600,"station_id":"st_d3svhcjqgbts73a3dn0g","pricing_plan_id":"cebpf4jnsgd1na2vs0mg"},{"bike_id":"43da757a-59df-4026-bbea-0923e529bf14","system_id":"levelo_inurba_marseille","lat":43.28414,"lon":5.37517,"is_reserved":false,"is_disabled":false,"rental_uris":{"android":"levelo://app?vid=43da757a-59df-4026-bbea-0923e529bf14","ios":"levelo://app?vid=43da757a-59df-4026-bbea-0923e529bf14"},"vehicle_type_id":"4","last_reported":1774284315,"current_range_meters":9600,"station_id":"ce4bh412rcd13ifvqds0","pricing_plan_id":"cebpf4jnsgd1na2vs0mg"},{"bike_id":"2e4408b1-4f10-4104-87c2-00f9c6cc7b1b","system_id":"levelo_inurba_marseille","lat":43.30126,"lon":5.43119,"is_reserved":false,"is_disabled":false,"rental_uris":{"android":"levelo://app?vid=2e4408b1-4f10-4104-87c2-00f9c6cc7b1b","ios":"levelo://app?vid=2e4408b1-4f10-4104-87c2-00f9c6cc7b1b"},"vehicle_type_id":"4","last_reported":1774284315,"current_range_meters":9600,"station_id":"st_d3js3co5814s73ftftug","pricing_plan_id":"cebpf4jnsgd1na2vs0mg"},{"bike_id":"1cdb3f26-c190-425d-8844-4acbe566e1fd","system_id":"levelo_inurba_marseille","lat":43.23186,"lon":5.35559,"is_reserved":false,"is_disabled":false,"rental_uris":{"android":"levelo://app?vid=1cdb3f26-c190-425d-8844-4acbe566e1fd","ios":"levelo://app?vid=1cdb3f26-c190-425d-8844-4acbe566e1fd"},"vehicle_type_id":"4","last_reported":1774284315,"current_range_meters":9600,"station_id":"ce4bhu92rcd13ifvqi70","pricing_plan_id":"cebpf4jnsgd1na2vs0mg"},{"bike_id":"94bb3b1c-a059-4eac-a5b0-adf6b778d633","system_id":"levelo_inurba_marseille","lat":43.29198,"lon":5.35796,"is_reserved":false,"is_disabled":false,"rental_uris":{"android":"levelo://app?vid=94bb3b1c-a059-4eac-a5b0-adf6b778d633","ios":"levelo://app?vid=94bb3b1c-a059-4eac-a5b0-adf6b778d633"},"vehicle_type_id":"4","last_reported":1774284315,"current_range_meters":9600,"station_id":"ce4bhb12rcd13ifvqel0","pricing_plan_id":"cebpf4jnsgd1na2vs0mg"},{"bike_id":"bbf06f99-10eb-4743-9c34-2b5936013bcc","system_id":"levelo_inurba_marseille","lat":43.2378,"lon":5.36617,"is_reserved":false,"is_disabled":false,"rental_uris":{"android":"levelo://app?vid=bbf06f99-10eb-4743-9c34-2b5936013bcc","ios":"levelo://app?vid=bbf06f99-10eb-4743-9c34-2b5936013bcc"},"vehicle_type_id":"4","last_reported":1774284315,"current_range_meters":9600,"station_id":"st_d3nk18o9ro0c73en2l3g","pricing_plan_id":"cebpf4jnsgd1na2vs0mg"},{"bike_id":"2904788a-03ea-4b5b-864a-96dd699100d7","system_id":"levelo_inurba_marseille","lat":43.25568,"lon":5.38224,"is_reserved":false,"is_disabled":false,"rental_uris":{"android":"levelo://app?vid=2904788a-03ea-4b5b-864a-96dd699100d7","ios":"levelo://app?vid=2904788a-03ea-4b5b-864a-96dd699100d7"},"vehicle_type_id":"4","last_reported":1774284315,"current_range_meters":9600,"station_id":"ce4bhih2rcd13ifvqfs0","pricing_plan_id":"cebpf4jnsgd1na2vs0mg"},{"bike_id":"6711ca2b-9a4e-46b1-892e-1007cc2a656e","system_id":"levelo_inurba_marseille","lat":43.2854,"lon":5.44133,"is_reserved":false,"is_disabled":false,"rental_uris":{"android":"levelo://app?vid=6711ca2b-9a4e-46b1-892e-1007cc2a656e","ios":"levelo://app?vid=6711ca2b-9a4e-46b1-892e-1007cc2a656e"},"vehicle_type_id":"4","last_reported":1774284315,"current_range_meters":9600,"station_id":"st_d3j3df2ikq2c7380ej80","pricing_plan_id":"cebpf4jnsgd1na2vs0mg"},{"bike_id":"4ddef7e3-cf19-4dda-96e4-1b6e028d38de","system_id":"levelo_inurba_marseille","lat":43.22934,"lon":5.35377,"is_reserved":false,"is_disabled":false,"rental_uris":{"android":"levelo://app?vid=4ddef7e3-cf19-4dda-96e4-1b6e028d38de","ios":"levelo://app?vid=4ddef7e3-cf19-4dda-96e4-1b6e028d38de"},"vehicle_type_id":"4","last_reported":1774284315,"current_range_meters":9600,"station_id":"cpo3532slgdg3j2ikp40","pricing_plan_id":"cebpf4jnsgd1na2vs0mg"},{"bike_id":"d93d43a5-e836-4ba6-968a-52b9d7e66f48","system_id":"levelo_inurba_marseille","lat":43.31334,"lon":5.36736,"is_reserved":false,"is_disabled":false,"rental_uris":{"android":"levelo://app?vid=d93d43a5-e836-4ba6-968a-52b9d7e66f48","ios":"levelo://app?vid=d93d43a5-e836-4ba6-968a-52b9d7e66f48"},"vehicle_type_id":"4","last_reported":1774284315,"current_range_meters":9600,"station_id":"ce4bgr92rcd13ifvqc6g","pricing_plan_id":"cebpf4jnsgd1na2vs0mg"},{"bike_id":"df9f2e23-03bb-4dea-8f4c-cbed45eacce6","system_id":"levelo_inurba_marseille","lat":43.27369,"lon":5.3626,"is_reserved":false,"is_disabled":false,"rental_uris":{"android":"levelo://app?vid=df9f2e23-03bb-4dea-8f4c-cbed45eacce6","ios":"levelo://app?vid=df9f2e23-03bb-4dea-8f4c-cbed45eacce6"},"vehicle_type_id":"4","last_reported":1774284315,"current_range_meters":9600,"station_id":"ce4bhbh2rcd13ifvqeo0","pricing_plan_id":"cebpf4jnsgd1na2vs0mg"},{"bike_id":"40906df4-17dd-4d9f-ac1f-0880c5eb117e","system_id":"levelo_inurba_marseille","lat":43.32366,"lon":5.36727,"is_reserved":false,"is_disabled":false,"rental_uris":{"android":"levelo://app?vid=40906df4-17dd-4d9f-ac1f-0880c5eb117e","ios":"levelo://app?vid=40906df4-17dd-4d9f-ac1f-0880c5eb117e"},"vehicle_type_id":"4","last_reported":1774284315,"current_range_meters":10000,"station_id":"ce4bhsh2rcd13ifvqi2g","pricing_plan_id":"cebpf4jnsgd1na2vs0mg"},{"bike_id":"da96e62c-aa8b-4584-b620-7915e0492349","system_id":"levelo_inurba_marseille","lat":43.28428,"lon":5.35,"is_reserved":false,"is_disabled":false,"rental_uris":{"android":"levelo://app?vid=da96e62c-aa8b-4584-b620-7915e0492349","ios":"levelo://app?vid=da96e62c-aa8b-4584-b620-7915e0492349"},"vehicle_type_id":"4","last_reported":1774284315,"current_range_meters":10000,"station_id":"ce4bhbh2rcd13ifvqepg","pricing_plan_id":"cebpf4jnsgd1na2vs0mg"},{"bike_id":"445a363e-6635-4c6f-9d9b-6ed1d223c4e8","system_id":"levelo_inurba_marseille","lat":43.29568,"lon":5.43883,"is_reserved":false,"is_disabled":false,"rental_uris":{"android":"levelo://app?vid=445a363e-6635-4c6f-9d9b-6ed1d223c4e8","ios":"levelo://app?vid=445a363e-6635-4c6f-9d9b-6ed1d223c4e8"},"vehicle_type_id":"4","last_reported":1774284315,"current_range_meters":10000,"station_id":"","pricing_plan_id":"cebpf4jnsgd1na2vs0mg"},{"bike_id":"4b7be69e-9b4f-414d-9559-a406413f6570","system_id":"levelo_inurba_marseille","lat":43.28701,"lon":5.37388,"is_reserved":false,"is_disabled":false,"rental_uris":{"android":"levelo://app?vid=4b7be69e-9b4f-414d-9559-a406413f6570","ios":"levelo://app?vid=4b7be69e-9b4f-414d-9559-a406413f6570"},"vehicle_type_id":"4","last_reported":1774284315,"current_range_meters":10000,"station_id":"ce4bh3p2rcd13ifvqdq0","pricing_plan_id":"cebpf4jnsgd1na2vs0mg"},{"bike_id":"34626e01-cc86-4c92-b6b2-0a10b25993e7","system_id":"levelo_inurba_marseille","lat":43.28624,"lon":5.35087,"is_reserved":false,"is_disabled":true,"rental_uris":{"android":"levelo://app?vid=34626e01-cc86-4c92-b6b2-0a10b25993e7","ios":"levelo://app?vid=34626e01-cc86-4c92-b6b2-0a10b25993e7"},"vehicle_type_id":"4","last_reported":1774284315,"current_range_meters":10000,"station_id":"ce4bhch2rcd13ifvqeug","pricing_plan_id":"cebpf4jnsgd1na2vs0mg"},{"bike_id":"8c1da8ba-4fe3-43e8-9aeb-83e71925a861","system_id":"levelo_inurba_marseille","lat":43.31045,"lon":5.39363,"is_reserved":false,"is_disabled":false,"rental_uris":{"android":"levelo://app?vid=8c1da8ba-4fe3-43e8-9aeb-83e71925a861","ios":"levelo://app?vid=8c1da8ba-4fe3-43e8-9aeb-83e71925a861"},"vehicle_type_id":"4","last_reported":1774284315,"current_range_meters":10000,"station_id":"","pricing_plan_id":"cebpf4jnsgd1na2vs0mg"},{"bike_id":"4ce98637-072f-4197-bd69-11f207a88eab","system_id":"levelo_inurba_marseille","lat":43.28496,"lon":5.47279,"is_reserved":false,"is_disabled":false,"rental_uris":{"android":"levelo://app?vid=4ce98637-072f-4197-bd69-11f207a88eab","ios":"levelo://app?vid=4ce98637-072f-4197-bd69-11f207a88eab"},"vehicle_type_id":"4","last_reported":1774284315,"current_range_meters":10000,"station_id":"","pricing_plan_id":"cebpf4jnsgd1na2vs0mg"},{"bike_id":"b139a9b7-0baa-4ca6-b162-395728a2c4bf","system_id":"levelo_inurba_marseille","lat":43.30538,"lon":5.384,"is_reserved":false,"is_disabled":false,"rental_uris":{"android":"levelo://app?vid=b139a9b7-0baa-4ca6-b162-395728a2c4bf","ios":"levelo://app?vid=b139a9b7-0baa-4ca6-b162-395728a2c4bf"},"vehicle_type_id":"4","last_reported":1774284315,"current_range_meters":10000,"station_id":"ce4bgg92rcd13ifvqb30","pricing_plan_id":"cebpf4jnsgd1na2vs0mg"},{"bike_id":"19f1add8-fb4d-4df2-9f34-3abb6a2112fe","system_id":"levelo_inurba_marseille","lat":43.21173,"lon":5.35105,"is_reserved":false,"is_disabled":false,"rental_uris":{"android":"levelo://app?vid=19f1add8-fb4d-4df2-9f34-3abb6a2112fe","ios":"levelo://app?vid=19f1add8-fb4d-4df2-9f34-3abb6a2112fe"},"vehicle_type_id":"4","last_reported":1774284315,"current_range_meters":10000,"station_id":"st_cvj6sg6p6f1abm77japg","pricing_plan_id":"cebpf4jnsgd1na2vs0mg"},{"bike_id":"6c32829a-41ef-439a-b504-bf101b38fd1b","system_id":"levelo_inurba_marseille","lat":43.24651,"lon":5.38877,"is_reserved":false,"is_disabled":false,"rental_uris":{"android":"levelo://app?vid=6c32829a-41ef-439a-b504-bf101b38fd1b","ios":"levelo://app?vid=6c32829a-41ef-439a-b504-bf101b38fd1b"},"vehicle_type_id":"4","last_reported":1774284315,"current_range_meters":10000,"station_id":"ce4bhg12rcd13ifvqf60","pricing_plan_id":"cebpf4jnsgd1na2vs0mg"},{"bike_id":"edb8d9af-adb8-42be-923b-e4f6f6b94cf0","system_id":"levelo_inurba_marseille","lat":43.30877,"lon":5.37199,"is_reserved":false,"is_disabled":false,"rental_uris":{"android":"levelo://app?vid=edb8d9af-adb8-42be-923b-e4f6f6b94cf0","ios":"levelo://app?vid=edb8d9af-adb8-42be-923b-e4f6f6b94cf0"},"vehicle_type_id":"4","last_reported":1774284315,"current_range_meters":10000,"station_id":"ce4bguh2rcd13ifvqckg","pricing_plan_id":"cebpf4jnsgd1na2vs0mg"},{"bike_id":"3509dda1-5cc9-4d0c-9d50-c39ab99018f7","system_id":"levelo_inurba_marseille","lat":43.24798,"lon":5.37452,"is_reserved":false,"is_disabled":false,"rental_uris":{"android":"levelo://app?vid=3509dda1-5cc9-4d0c-9d50-c39ab99018f7","ios":"levelo://app?vid=3509dda1-5cc9-4d0c-9d50-c39ab99018f7"},"vehicle_type_id":"4","last_reported":1774284315,"current_range_meters":10000,"station_id":"ce4bhgh2rcd13ifvqfb0","pricing_plan_id":"cebpf4jnsgd1na2vs0mg"},{"bike_id":"9f8ae27b-f8d2-4ed8-858a-6d9ca53a6000","system_id":"levelo_inurba_marseille","lat":43.30429,"lon":5.37178,"is_reserved":false,"is_disabled":false,"rental_uris":{"android":"levelo://app?vid=9f8ae27b-f8d2-4ed8-858a-6d9ca53a6000","ios":"levelo://app?vid=9f8ae27b-f8d2-4ed8-858a-6d9ca53a6000"},"vehicle_type_id":"4","last_reported":1774284315,"current_range_meters":10000,"station_id":"","pricing_plan_id":"cebpf4jnsgd1na2vs0mg"},{"bike_id":"7daf3584-e0cd-45fc-a430-824004c0496d","system_id":"levelo_inurba_marseille","lat":43.29837,"lon":5.36302,"is_reserved":false,"is_disabled":false,"rental_uris":{"android":"levelo://app?vid=7daf3584-e0cd-45fc-a430-824004c0496d","ios":"levelo://app?vid=7daf3584-e0cd-45fc-a430-824004c0496d"},"vehicle_type_id":"4","last_reported":1774284315,"current_range_meters":10000,"station_id":"ce4bgpp2rcd13ifvqc3g","pricing_plan_id":"cebpf4jnsgd1na2vs0mg"},{"bike_id":"f3dccb27-25f8-415f-8a8c-207408b72398","system_id":"levelo_inurba_marseille","lat":43.32058,"lon":5.36741,"is_reserved":false,"is_disabled":false,"rental_uris":{"android":"levelo://app?vid=f3dccb27-25f8-415f-8a8c-207408b72398","ios":"levelo://app?vid=f3dccb27-25f8-415f-8a8c-207408b72398"},"vehicle_type_id":"4","last_reported":1774284315,"current_range_meters":10000,"station_id":"ce4bhrh2rcd13ifvqhug","pricing_plan_id":"cebpf4jnsgd1na2vs0mg"},{"bike_id":"12d74933-18e6-4925-80d9-2a20146ddf61","system_id":"levelo_inurba_marseille","lat":43.31531,"lon":5.38782,"is_reserved":false,"is_disabled":false,"rental_uris":{"android":"levelo://app?vid=12d74933-18e6-4925-80d9-2a20146ddf61","ios":"levelo://app?vid=12d74933-18e6-4925-80d9-2a20146ddf61"},"vehicle_type_id":"4","last_reported":1774284315,"current_range_meters":10000,"station_id":"","pricing_plan_id":"cebpf4jnsgd1na2vs0mg"},{"bike_id":"8d8566de-f03a-4e5e-aa8c-ad2e3c17ab03","system_id":"levelo_inurba_marseille","lat":43.31557,"lon":5.37307,"is_reserved":false,"is_disabled":false,"rental_uris":{"android":"levelo://app?vid=8d8566de-f03a-4e5e-aa8c-ad2e3c17ab03","ios":"levelo://app?vid=8d8566de-f03a-4e5e-aa8c-ad2e3c17ab03"},"vehicle_type_id":"4","last_reported":1774284315,"current_range_meters":10000,"station_id":"","pricing_plan_id":"cebpf4jnsgd1na2vs0mg"},{"bike_id":"3298d871-adc0-4326-9e64-c20dc1dea0fe","system_id":"levelo_inurba_marseille","lat":43.2791,"lon":5.38019,"is_reserved":false,"is_disabled":false,"rental_uris":{"android":"levelo://app?vid=3298d871-adc0-4326-9e64-c20dc1dea0fe","ios":"levelo://app?vid=3298d871-adc0-4326-9e64-c20dc1dea0fe"},"vehicle_type_id":"4","last_reported":1774284315,"current_range_meters":10000,"station_id":"ce4bhf92rcd13ifvqf50","pricing_plan_id":"cebpf4jnsgd1na2vs0mg"},{"bike_id":"0b019611-b110-4007-bae8-21b1b0d28e19","system_id":"levelo_inurba_marseille","lat":43.31331,"lon":5.39704,"is_reserved":false,"is_disabled":false,"rental_uris":{"android":"levelo://app?vid=0b019611-b110-4007-bae8-21b1b0d28e19","ios":"levelo://app?vid=0b019611-b110-4007-bae8-21b1b0d28e19"},"vehicle_type_id":"4","last_reported":1774284315,"current_range_meters":10800,"station_id":"ce4bgvp2rcd13ifvqcu0","pricing_plan_id":"cebpf4jnsgd1na2vs0mg"},{"bike_id":"a14d2edd-85c5-4116-8db5-355e3fb2ddbe","system_id":"levelo_inurba_marseille","lat":43.33509,"lon":5.37498,"is_reserved":false,"is_disabled":false,"rental_uris":{"android":"levelo://app?vid=a14d2edd-85c5-4116-8db5-355e3fb2ddbe","ios":"levelo://app?vid=a14d2edd-85c5-4116-8db5-355e3fb2ddbe"},"vehicle_type_id":"4","last_reported":1774284315,"current_range_meters":10800,"station_id":"","pricing_plan_id":"cebpf4jnsgd1na2vs0mg"},{"bike_id":"efe811b6-5e10-4e8c-9e59-a484522fb832","system_id":"levelo_inurba_marseille","lat":43.25595,"lon":5.38333,"is_reserved":false,"is_disabled":false,"rental_uris":{"android":"levelo://app?vid=efe811b6-5e10-4e8c-9e59-a484522fb832","ios":"levelo://app?vid=efe811b6-5e10-4e8c-9e59-a484522fb832"},"vehicle_type_id":"4","last_reported":1774284315,"current_range_meters":10800,"station_id":"","pricing_plan_id":"cebpf4jnsgd1na2vs0mg"},{"bike_id":"c3078068-abd2-4119-b2e3-a9f30d500cf3","system_id":"levelo_inurba_marseille","lat":43.2582,"lon":5.39451,"is_reserved":false,"is_disabled":false,"rental_uris":{"android":"levelo://app?vid=c3078068-abd2-4119-b2e3-a9f30d500cf3","ios":"levelo://app?vid=c3078068-abd2-4119-b2e3-a9f30d500cf3"},"vehicle_type_id":"4","last_reported":1774284315,"current_range_meters":10800,"station_id":"ce4bhip2rcd13ifvqft0","pricing_plan_id":"cebpf4jnsgd1na2vs0mg"},{"bike_id":"2f5b6265-483e-47d4-831c-32860cec290b","system_id":"levelo_inurba_marseille","lat":43.29572,"lon":5.42278,"is_reserved":false,"is_disabled":false,"rental_uris":{"android":"levelo://app?vid=2f5b6265-483e-47d4-831c-32860cec290b","ios":"levelo://app?vid=2f5b6265-483e-47d4-831c-32860cec290b"},"vehicle_type_id":"4","last_reported":1774284315,"current_range_meters":10800,"station_id":"ce4bhph2rcd13ifvqhdg","pricing_plan_id":"cebpf4jnsgd1na2vs0mg"},{"bike_id":"3658e739-741d-48f7-9fda-9bac7e44b7ce","system_id":"levelo_inurba_marseille","lat":43.30144,"lon":5.39858,"is_reserved":false,"is_disabled":false,"rental_uris":{"android":"levelo://app?vid=3658e739-741d-48f7-9fda-9bac7e44b7ce","ios":"levelo://app?vid=3658e739-741d-48f7-9fda-9bac7e44b7ce"},"vehicle_type_id":"4","last_reported":1774284315,"current_range_meters":10800,"station_id":"ce4bh0h2rcd13ifvqd40","pricing_plan_id":"cebpf4jnsgd1na2vs0mg"},{"bike_id":"ba3022d7-e9b1-41e9-87b5-e8d444428181","system_id":"levelo_inurba_marseille","lat":43.29976,"lon":5.37173,"is_reserved":false,"is_disabled":false,"rental_uris":{"android":"levelo://app?vid=ba3022d7-e9b1-41e9-87b5-e8d444428181","ios":"levelo://app?vid=ba3022d7-e9b1-41e9-87b5-e8d444428181"},"vehicle_type_id":"4","last_reported":1774284315,"current_range_meters":10800,"station_id":"ce4bgr92rcd13ifvqc7g","pricing_plan_id":"cebpf4jnsgd1na2vs0mg"},{"bike_id":"0a7280df-ab11-4e0f-9d35-fe0d9f07ab85","system_id":"levelo_inurba_marseille","lat":43.29039,"lon":5.35913,"is_reserved":false,"is_disabled":false,"rental_uris":{"android":"levelo://app?vid=0a7280df-ab11-4e0f-9d35-fe0d9f07ab85","ios":"levelo://app?vid=0a7280df-ab11-4e0f-9d35-fe0d9f07ab85"},"vehicle_type_id":"4","last_reported":1774284315,"current_range_meters":10800,"station_id":"ce4bha92rcd13ifvqeg0","pricing_plan_id":"cebpf4jnsgd1na2vs0mg"},{"bike_id":"82fe04f2-4c2d-4880-83f7-41b5f33b5045","system_id":"levelo_inurba_marseille","lat":43.30945,"lon":5.39042,"is_reserved":false,"is_disabled":true,"rental_uris":{"android":"levelo://app?vid=82fe04f2-4c2d-4880-83f7-41b5f33b5045","ios":"levelo://app?vid=82fe04f2-4c2d-4880-83f7-41b5f33b5045"},"vehicle_type_id":"4","last_reported":1774284315,"current_range_meters":10800,"station_id":"ce4bgup2rcd13ifvqco0","pricing_plan_id":"cebpf4jnsgd1na2vs0mg"},{"bike_id":"7c153146-4dda-44b2-b03e-baac7de87658","system_id":"levelo_inurba_marseille","lat":43.2621,"lon":5.37445,"is_reserved":false,"is_disabled":false,"rental_uris":{"android":"levelo://app?vid=7c153146-4dda-44b2-b03e-baac7de87658","ios":"levelo://app?vid=7c153146-4dda-44b2-b03e-baac7de87658"},"vehicle_type_id":"4","last_reported":1774284315,"current_range_meters":10800,"station_id":"ce4bhgp2rcd13ifvqfc0","pricing_plan_id":"cebpf4jnsgd1na2vs0mg"},{"bike_id":"85ab34c5-59e0-40cc-a3a4-463caccd0cc9","system_id":"levelo_inurba_marseille","lat":43.31771,"lon":5.3988,"is_reserved":false,"is_disabled":false,"rental_uris":{"android":"levelo://app?vid=85ab34c5-59e0-40cc-a3a4-463caccd0cc9","ios":"levelo://app?vid=85ab34c5-59e0-40cc-a3a4-463caccd0cc9"},"vehicle_type_id":"4","last_reported":1774284315,"current_range_meters":10800,"station_id":"","pricing_plan_id":"cebpf4jnsgd1na2vs0mg"},{"bike_id":"7c59c074-6646-4968-803b-ea035a59d3f4","system_id":"levelo_inurba_marseille","lat":43.23806,"lon":5.36616,"is_reserved":false,"is_disabled":false,"rental_uris":{"android":"levelo://app?vid=7c59c074-6646-4968-803b-ea035a59d3f4","ios":"levelo://app?vid=7c59c074-6646-4968-803b-ea035a59d3f4"},"vehicle_type_id":"4","last_reported":1774284315,"current_range_meters":10800,"station_id":"st_d3nk18o9ro0c73en2l3g","pricing_plan_id":"cebpf4jnsgd1na2vs0mg"},{"bike_id":"54c37c7a-7cae-49f9-9f99-ef4b2e901a57","system_id":"levelo_inurba_marseille","lat":43.26556,"lon":5.37292,"is_reserved":false,"is_disabled":false,"rental_uris":{"android":"levelo://app?vid=54c37c7a-7cae-49f9-9f99-ef4b2e901a57","ios":"levelo://app?vid=54c37c7a-7cae-49f9-9f99-ef4b2e901a57"},"vehicle_type_id":"4","last_reported":1774284315,"current_range_meters":10800,"station_id":"ce4bhg12rcd13ifvqf70","pricing_plan_id":"cebpf4jnsgd1na2vs0mg"},{"bike_id":"af7c1f9c-314f-45cf-a27e-b868a4e0f9c3","system_id":"levelo_inurba_marseille","lat":43.26547,"lon":5.39014,"is_reserved":false,"is_disabled":false,"rental_uris":{"android":"levelo://app?vid=af7c1f9c-314f-45cf-a27e-b868a4e0f9c3","ios":"levelo://app?vid=af7c1f9c-314f-45cf-a27e-b868a4e0f9c3"},"vehicle_type_id":"4","last_reported":1774284315,"current_range_meters":10800,"station_id":"ce4bhe12rcd13ifvqf30","pricing_plan_id":"cebpf4jnsgd1na2vs0mg"},{"bike_id":"7360a191-78bb-451f-97d2-e93feff21b37","system_id":"levelo_inurba_marseille","lat":43.33027,"lon":5.39041,"is_reserved":false,"is_disabled":false,"rental_uris":{"android":"levelo://app?vid=7360a191-78bb-451f-97d2-e93feff21b37","ios":"levelo://app?vid=7360a191-78bb-451f-97d2-e93feff21b37"},"vehicle_type_id":"4","last_reported":1774284315,"current_range_meters":10800,"station_id":"ce4bhr92rcd13ifvqhrg","pricing_plan_id":"cebpf4jnsgd1na2vs0mg"},{"bike_id":"95ffa3af-2116-4cf4-9e4a-229a0e022783","system_id":"levelo_inurba_marseille","lat":43.29794,"lon":5.39353,"is_reserved":false,"is_disabled":false,"rental_uris":{"android":"levelo://app?vid=95ffa3af-2116-4cf4-9e4a-229a0e022783","ios":"levelo://app?vid=95ffa3af-2116-4cf4-9e4a-229a0e022783"},"vehicle_type_id":"4","last_reported":1774284315,"current_range_meters":10800,"station_id":"chh1huq6cuj3fo74tm60","pricing_plan_id":"cebpf4jnsgd1na2vs0mg"},{"bike_id":"1206b80d-08df-4dbc-999c-48aabe775d89","system_id":"levelo_inurba_marseille","lat":43.30318,"lon":5.44963,"is_reserved":false,"is_disabled":false,"rental_uris":{"android":"levelo://app?vid=1206b80d-08df-4dbc-999c-48aabe775d89","ios":"levelo://app?vid=1206b80d-08df-4dbc-999c-48aabe775d89"},"vehicle_type_id":"4","last_reported":1774284315,"current_range_meters":10800,"station_id":"","pricing_plan_id":"cebpf4jnsgd1na2vs0mg"},{"bike_id":"0e2f4137-e82a-401c-945f-6a1c7c098239","system_id":"levelo_inurba_marseille","lat":43.29618,"lon":5.37142,"is_reserved":false,"is_disabled":false,"rental_uris":{"android":"levelo://app?vid=0e2f4137-e82a-401c-945f-6a1c7c098239","ios":"levelo://app?vid=0e2f4137-e82a-401c-945f-6a1c7c098239"},"vehicle_type_id":"4","last_reported":1774284315,"current_range_meters":11200,"station_id":"ce4bgnh2rcd13ifvqc0g","pricing_plan_id":"cebpf4jnsgd1na2vs0mg"},{"bike_id":"b75036ac-d81d-4bfd-a9c8-a051a6ff39fe","system_id":"levelo_inurba_marseille","lat":43.28529,"lon":5.44126,"is_reserved":false,"is_disabled":false,"rental_uris":{"android":"levelo://app?vid=b75036ac-d81d-4bfd-a9c8-a051a6ff39fe","ios":"levelo://app?vid=b75036ac-d81d-4bfd-a9c8-a051a6ff39fe"},"vehicle_type_id":"4","last_reported":1774284315,"current_range_meters":11200,"station_id":"st_d3j3df2ikq2c7380ej80","pricing_plan_id":"cebpf4jnsgd1na2vs0mg"},{"bike_id":"66a43d55-32c7-48fb-b013-3d7574d12857","system_id":"levelo_inurba_marseille","lat":43.2503,"lon":5.38903,"is_reserved":false,"is_disabled":true,"rental_uris":{"android":"levelo://app?vid=66a43d55-32c7-48fb-b013-3d7574d12857","ios":"levelo://app?vid=66a43d55-32c7-48fb-b013-3d7574d12857"},"vehicle_type_id":"4","last_reported":1774284315,"current_range_meters":11200,"station_id":"ce4bhgp2rcd13ifvqfd0","pricing_plan_id":"cebpf4jnsgd1na2vs0mg"},{"bike_id":"da6972b3-b161-480b-8ef0-1ff556fc7299","system_id":"levelo_inurba_marseille","lat":43.23787,"lon":5.36628,"is_reserved":false,"is_disabled":false,"rental_uris":{"android":"levelo://app?vid=da6972b3-b161-480b-8ef0-1ff556fc7299","ios":"levelo://app?vid=da6972b3-b161-480b-8ef0-1ff556fc7299"},"vehicle_type_id":"4","last_reported":1774284315,"current_range_meters":11200,"station_id":"st_d3nk18o9ro0c73en2l3g","pricing_plan_id":"cebpf4jnsgd1na2vs0mg"},{"bike_id":"17b6291a-b600-49d3-9437-0d985b9a42cc","system_id":"levelo_inurba_marseille","lat":43.30293,"lon":5.36905,"is_reserved":false,"is_disabled":false,"rental_uris":{"android":"levelo://app?vid=17b6291a-b600-49d3-9437-0d985b9a42cc","ios":"levelo://app?vid=17b6291a-b600-49d3-9437-0d985b9a42cc"},"vehicle_type_id":"4","last_reported":1774284315,"current_range_meters":11200,"station_id":"ce4bgqh2rcd13ifvqc5g","pricing_plan_id":"cebpf4jnsgd1na2vs0mg"},{"bike_id":"22a24422-8367-44e3-afc2-fd1672c2c7f5","system_id":"levelo_inurba_marseille","lat":43.28484,"lon":5.48403,"is_reserved":false,"is_disabled":false,"rental_uris":{"android":"levelo://app?vid=22a24422-8367-44e3-afc2-fd1672c2c7f5","ios":"levelo://app?vid=22a24422-8367-44e3-afc2-fd1672c2c7f5"},"vehicle_type_id":"4","last_reported":1774284315,"current_range_meters":11200,"station_id":"","pricing_plan_id":"cebpf4jnsgd1na2vs0mg"},{"bike_id":"772a4f9f-b3a0-4def-b048-34f094c5c241","system_id":"levelo_inurba_marseille","lat":43.27944,"lon":5.41042,"is_reserved":false,"is_disabled":false,"rental_uris":{"android":"levelo://app?vid=772a4f9f-b3a0-4def-b048-34f094c5c241","ios":"levelo://app?vid=772a4f9f-b3a0-4def-b048-34f094c5c241"},"vehicle_type_id":"4","last_reported":1774284315,"current_range_meters":11200,"station_id":"ce4bhnp2rcd13ifvqh0g","pricing_plan_id":"cebpf4jnsgd1na2vs0mg"},{"bike_id":"0cdca8b7-3c4a-4be3-8886-7190a1daa62c","system_id":"levelo_inurba_marseille","lat":43.29045,"lon":5.35912,"is_reserved":false,"is_disabled":false,"rental_uris":{"android":"levelo://app?vid=0cdca8b7-3c4a-4be3-8886-7190a1daa62c","ios":"levelo://app?vid=0cdca8b7-3c4a-4be3-8886-7190a1daa62c"},"vehicle_type_id":"4","last_reported":1774284315,"current_range_meters":11200,"station_id":"ce4bha92rcd13ifvqeg0","pricing_plan_id":"cebpf4jnsgd1na2vs0mg"},{"bike_id":"956e4e68-b037-4fa6-bcb9-6f22f7d9cdd3","system_id":"levelo_inurba_marseille","lat":43.28104,"lon":5.37839,"is_reserved":false,"is_disabled":false,"rental_uris":{"android":"levelo://app?vid=956e4e68-b037-4fa6-bcb9-6f22f7d9cdd3","ios":"levelo://app?vid=956e4e68-b037-4fa6-bcb9-6f22f7d9cdd3"},"vehicle_type_id":"4","last_reported":1774284315,"current_range_meters":11200,"station_id":"ce4bha12rcd13ifvqee0","pricing_plan_id":"cebpf4jnsgd1na2vs0mg"},{"bike_id":"60e39849-1d32-4745-8764-0eb454d04c5f","system_id":"levelo_inurba_marseille","lat":43.2954,"lon":5.4228,"is_reserved":false,"is_disabled":true,"rental_uris":{"android":"levelo://app?vid=60e39849-1d32-4745-8764-0eb454d04c5f","ios":"levelo://app?vid=60e39849-1d32-4745-8764-0eb454d04c5f"},"vehicle_type_id":"4","last_reported":1774284315,"current_range_meters":11200,"station_id":"ce4bhph2rcd13ifvqhdg","pricing_plan_id":"cebpf4jnsgd1na2vs0mg"},{"bike_id":"3c81f529-ad0a-4ac7-bb55-638febc8b85e","system_id":"levelo_inurba_marseille","lat":43.27975,"lon":5.38725,"is_reserved":false,"is_disabled":false,"rental_uris":{"android":"levelo://app?vid=3c81f529-ad0a-4ac7-bb55-638febc8b85e","ios":"levelo://app?vid=3c81f529-ad0a-4ac7-bb55-638febc8b85e"},"vehicle_type_id":"4","last_reported":1774284315,"current_range_meters":11200,"station_id":"ce4bhg12rcd13ifvqf80","pricing_plan_id":"cebpf4jnsgd1na2vs0mg"},{"bike_id":"cbe143e8-3e8d-46c8-8239-3389a4661d28","system_id":"levelo_inurba_marseille","lat":43.303,"lon":5.36922,"is_reserved":false,"is_disabled":false,"rental_uris":{"android":"levelo://app?vid=cbe143e8-3e8d-46c8-8239-3389a4661d28","ios":"levelo://app?vid=cbe143e8-3e8d-46c8-8239-3389a4661d28"},"vehicle_type_id":"4","last_reported":1774284315,"current_range_meters":11200,"station_id":"ce4bgqh2rcd13ifvqc5g","pricing_plan_id":"cebpf4jnsgd1na2vs0mg"},{"bike_id":"c72b7fd2-e680-4892-b230-2090babbdf59","system_id":"levelo_inurba_marseille","lat":43.31364,"lon":5.40373,"is_reserved":false,"is_disabled":false,"rental_uris":{"android":"levelo://app?vid=c72b7fd2-e680-4892-b230-2090babbdf59","ios":"levelo://app?vid=c72b7fd2-e680-4892-b230-2090babbdf59"},"vehicle_type_id":"4","last_reported":1774284315,"current_range_meters":11200,"station_id":"","pricing_plan_id":"cebpf4jnsgd1na2vs0mg"},{"bike_id":"42fa670f-70e6-4127-b4a5-4c39b501343a","system_id":"levelo_inurba_marseille","lat":43.28663,"lon":5.38661,"is_reserved":false,"is_disabled":false,"rental_uris":{"android":"levelo://app?vid=42fa670f-70e6-4127-b4a5-4c39b501343a","ios":"levelo://app?vid=42fa670f-70e6-4127-b4a5-4c39b501343a"},"vehicle_type_id":"4","last_reported":1774284315,"current_range_meters":11200,"station_id":"ce4bh492rcd13ifvqdug","pricing_plan_id":"cebpf4jnsgd1na2vs0mg"},{"bike_id":"b9d157e4-adb0-4d64-b93d-349f42c39fcf","system_id":"levelo_inurba_marseille","lat":43.31884,"lon":5.36816,"is_reserved":false,"is_disabled":false,"rental_uris":{"android":"levelo://app?vid=b9d157e4-adb0-4d64-b93d-349f42c39fcf","ios":"levelo://app?vid=b9d157e4-adb0-4d64-b93d-349f42c39fcf"},"vehicle_type_id":"4","last_reported":1774284315,"current_range_meters":11200,"station_id":"st_d6o2h0d0559c73evc1b0","pricing_plan_id":"cebpf4jnsgd1na2vs0mg"},{"bike_id":"71c8c3d8-08f5-4b44-8aae-3a00fb864ea5","system_id":"levelo_inurba_marseille","lat":43.27373,"lon":5.36265,"is_reserved":false,"is_disabled":false,"rental_uris":{"android":"levelo://app?vid=71c8c3d8-08f5-4b44-8aae-3a00fb864ea5","ios":"levelo://app?vid=71c8c3d8-08f5-4b44-8aae-3a00fb864ea5"},"vehicle_type_id":"4","last_reported":1774284315,"current_range_meters":11600,"station_id":"ce4bhbh2rcd13ifvqeo0","pricing_plan_id":"cebpf4jnsgd1na2vs0mg"},{"bike_id":"4078e5c4-b784-4a81-827e-b1a58b5db34d","system_id":"levelo_inurba_marseille","lat":43.30517,"lon":5.36498,"is_reserved":false,"is_disabled":false,"rental_uris":{"android":"levelo://app?vid=4078e5c4-b784-4a81-827e-b1a58b5db34d","ios":"levelo://app?vid=4078e5c4-b784-4a81-827e-b1a58b5db34d"},"vehicle_type_id":"4","last_reported":1774284315,"current_range_meters":11600,"station_id":"","pricing_plan_id":"cebpf4jnsgd1na2vs0mg"},{"bike_id":"5016f481-c4f2-49ee-b195-5a686f3fce52","system_id":"levelo_inurba_marseille","lat":43.288522,"lon":5.358479,"is_reserved":false,"is_disabled":true,"rental_uris":{"android":"levelo://app?vid=5016f481-c4f2-49ee-b195-5a686f3fce52","ios":"levelo://app?vid=5016f481-c4f2-49ee-b195-5a686f3fce52"},"vehicle_type_id":"4","last_reported":1774284315,"current_range_meters":11600,"station_id":"","pricing_plan_id":"cebpf4jnsgd1na2vs0mg"},{"bike_id":"992d461f-8839-4086-b27a-9edc1d38b03d","system_id":"levelo_inurba_marseille","lat":43.33561,"lon":5.37484,"is_reserved":false,"is_disabled":false,"rental_uris":{"android":"levelo://app?vid=992d461f-8839-4086-b27a-9edc1d38b03d","ios":"levelo://app?vid=992d461f-8839-4086-b27a-9edc1d38b03d"},"vehicle_type_id":"4","last_reported":1774284315,"current_range_meters":11600,"station_id":"st_d46tts09ee8s73dlu43g","pricing_plan_id":"cebpf4jnsgd1na2vs0mg"},{"bike_id":"bf5af6f8-69a5-4b76-be3f-994c76781739","system_id":"levelo_inurba_marseille","lat":43.26556,"lon":5.39017,"is_reserved":false,"is_disabled":true,"rental_uris":{"android":"levelo://app?vid=bf5af6f8-69a5-4b76-be3f-994c76781739","ios":"levelo://app?vid=bf5af6f8-69a5-4b76-be3f-994c76781739"},"vehicle_type_id":"4","last_reported":1774284315,"current_range_meters":11600,"station_id":"ce4bhe12rcd13ifvqf30","pricing_plan_id":"cebpf4jnsgd1na2vs0mg"},{"bike_id":"1f79b281-4c7e-42fd-85e8-6ac2f2c6e346","system_id":"levelo_inurba_marseille","lat":43.21188,"lon":5.3507,"is_reserved":false,"is_disabled":false,"rental_uris":{"android":"levelo://app?vid=1f79b281-4c7e-42fd-85e8-6ac2f2c6e346","ios":"levelo://app?vid=1f79b281-4c7e-42fd-85e8-6ac2f2c6e346"},"vehicle_type_id":"4","last_reported":1774284315,"current_range_meters":11600,"station_id":"st_cvj6sg6p6f1abm77japg","pricing_plan_id":"cebpf4jnsgd1na2vs0mg"},{"bike_id":"377f4ac4-be87-428b-8007-867007fedf06","system_id":"levelo_inurba_marseille","lat":43.30305,"lon":5.3922,"is_reserved":false,"is_disabled":false,"rental_uris":{"android":"levelo://app?vid=377f4ac4-be87-428b-8007-867007fedf06","ios":"levelo://app?vid=377f4ac4-be87-428b-8007-867007fedf06"},"vehicle_type_id":"4","last_reported":1774284315,"current_range_meters":11600,"station_id":"ce4bgkh2rcd13ifvqbk0","pricing_plan_id":"cebpf4jnsgd1na2vs0mg"},{"bike_id":"6b8acac9-ccf3-4647-89ff-89fbb46b6df8","system_id":"levelo_inurba_marseille","lat":43.30332,"lon":5.45058,"is_reserved":false,"is_disabled":false,"rental_uris":{"android":"levelo://app?vid=6b8acac9-ccf3-4647-89ff-89fbb46b6df8","ios":"levelo://app?vid=6b8acac9-ccf3-4647-89ff-89fbb46b6df8"},"vehicle_type_id":"4","last_reported":1774284315,"current_range_meters":11600,"station_id":"","pricing_plan_id":"cebpf4jnsgd1na2vs0mg"},{"bike_id":"183348e9-6325-4132-a1d2-c6c8953f0406","system_id":"levelo_inurba_marseille","lat":43.29646,"lon":5.37163,"is_reserved":false,"is_disabled":false,"rental_uris":{"android":"levelo://app?vid=183348e9-6325-4132-a1d2-c6c8953f0406","ios":"levelo://app?vid=183348e9-6325-4132-a1d2-c6c8953f0406"},"vehicle_type_id":"4","last_reported":1774284315,"current_range_meters":11600,"station_id":"ce4bgnh2rcd13ifvqc0g","pricing_plan_id":"cebpf4jnsgd1na2vs0mg"},{"bike_id":"69060651-da1c-4806-93de-ce4c1bb18485","system_id":"levelo_inurba_marseille","lat":43.29524,"lon":5.38532,"is_reserved":false,"is_disabled":false,"rental_uris":{"android":"levelo://app?vid=69060651-da1c-4806-93de-ce4c1bb18485","ios":"levelo://app?vid=69060651-da1c-4806-93de-ce4c1bb18485"},"vehicle_type_id":"4","last_reported":1774284315,"current_range_meters":11600,"station_id":"ce4bgih2rcd13ifvqba0","pricing_plan_id":"cebpf4jnsgd1na2vs0mg"},{"bike_id":"6c8366e6-4ada-4848-b923-9f111a19d6fd","system_id":"levelo_inurba_marseille","lat":43.3249,"lon":5.38304,"is_reserved":false,"is_disabled":false,"rental_uris":{"android":"levelo://app?vid=6c8366e6-4ada-4848-b923-9f111a19d6fd","ios":"levelo://app?vid=6c8366e6-4ada-4848-b923-9f111a19d6fd"},"vehicle_type_id":"4","last_reported":1774284315,"current_range_meters":11600,"station_id":"st_d4asgbiv49dc73anf9m0","pricing_plan_id":"cebpf4jnsgd1na2vs0mg"},{"bike_id":"95dacadd-4039-40e8-8ede-74c576ba8465","system_id":"levelo_inurba_marseille","lat":43.28667,"lon":5.36345,"is_reserved":false,"is_disabled":false,"rental_uris":{"android":"levelo://app?vid=95dacadd-4039-40e8-8ede-74c576ba8465","ios":"levelo://app?vid=95dacadd-4039-40e8-8ede-74c576ba8465"},"vehicle_type_id":"4","last_reported":1774284315,"current_range_meters":11600,"station_id":"ce4bhah2rcd13ifvqej0","pricing_plan_id":"cebpf4jnsgd1na2vs0mg"},{"bike_id":"d8697872-e884-425a-8c11-57f8ae2606bc","system_id":"levelo_inurba_marseille","lat":43.23166,"lon":5.39952,"is_reserved":false,"is_disabled":false,"rental_uris":{"android":"levelo://app?vid=d8697872-e884-425a-8c11-57f8ae2606bc","ios":"levelo://app?vid=d8697872-e884-425a-8c11-57f8ae2606bc"},"vehicle_type_id":"4","last_reported":1774284315,"current_range_meters":11600,"station_id":"ce4bhn12rcd13ifvqgqg","pricing_plan_id":"cebpf4jnsgd1na2vs0mg"},{"bike_id":"1c15c32e-1549-414a-8344-9f4ed35c906a","system_id":"levelo_inurba_marseille","lat":43.3138,"lon":5.38474,"is_reserved":false,"is_disabled":true,"rental_uris":{"android":"levelo://app?vid=1c15c32e-1549-414a-8344-9f4ed35c906a","ios":"levelo://app?vid=1c15c32e-1549-414a-8344-9f4ed35c906a"},"vehicle_type_id":"4","last_reported":1774284315,"current_range_meters":12000,"station_id":"ce4bgt92rcd13ifvqcf0","pricing_plan_id":"cebpf4jnsgd1na2vs0mg"},{"bike_id":"a9abd8af-8bd4-41e9-9b12-068972ec99fa","system_id":"levelo_inurba_marseille","lat":43.33547,"lon":5.37441,"is_reserved":false,"is_disabled":false,"rental_uris":{"android":"levelo://app?vid=a9abd8af-8bd4-41e9-9b12-068972ec99fa","ios":"levelo://app?vid=a9abd8af-8bd4-41e9-9b12-068972ec99fa"},"vehicle_type_id":"4","last_reported":1774284315,"current_range_meters":12000,"station_id":"st_d46tts09ee8s73dlu43g","pricing_plan_id":"cebpf4jnsgd1na2vs0mg"},{"bike_id":"b8d7a02a-f8e6-461d-88a3-e73fba899271","system_id":"levelo_inurba_marseille","lat":43.21745,"lon":5.34603,"is_reserved":false,"is_disabled":true,"rental_uris":{"android":"levelo://app?vid=b8d7a02a-f8e6-461d-88a3-e73fba899271","ios":"levelo://app?vid=b8d7a02a-f8e6-461d-88a3-e73fba899271"},"vehicle_type_id":"4","last_reported":1774284315,"current_range_meters":12000,"station_id":"st_cvj6r9ubvosntc0bgbag","pricing_plan_id":"cebpf4jnsgd1na2vs0mg"},