{"last_updated":1743600060,"ttl":60,"version":"2.2","data":{"bikes":[{"bike_id":"de33e018-e5f4-42cc-9384-7e1518a7492d","system_id":"levelo_inurba_marseille","lat":43.2907,"lon":5.37172,"is_reserved":false,"is_disabled":false,"rental_uris":{"android":"levelo://app?vid=de33e018-e5f4-42cc-9384-7e1518a7492d","ios":"levelo://app?vid=de33e018-e5f4-42cc-9384-7e1518a7492d"},"vehicle_type_id":"4","last_reported":1743600060,"current_range_meters":2800,"station_id":"ce4bh5p2rcd13ifvqe4g","pricing_plan_id":"cebpf4jnsgd1na2vs0mg"},{"bike_id":"f11f1514-b14b-4c0b-ba3a-c4aa5c5642d2","system_id":"levelo_inurba_marseille","lat":43.2942,"lon":5.3863,"is_reserved":false,"is_disabled":false,"rental_uris":{"android":"levelo://app?vid=f11f1514-b14b-4c0b-ba3a-c4aa5c5642d2","ios":"levelo://app?vid=f11f1514-b14b-4c0b-ba3a-c4aa5c5642d2"},"vehicle_type_id":"4","last_reported":1743600060,"current_range_meters":3200,"station_id":"ce4bh2h2rcd13ifvqdh0","pricing_plan_id":"cebpf4jnsgd1na2vs0mg"},{"bike_id":"4ad73676-975d-4eb4-8ab0-34916f3a4594","system_id":"levelo_inurba_marseille","lat":43.30666,"lon":5.3715,"is_reserved":false,"is_disabled":false,"rental_uris":{"android":"levelo://app?vid=4ad73676-975d-4eb4-8ab0-34916f3a4594","ios":"levelo://app?vid=4ad73676-975d-4eb4-8ab0-34916f3a4594"},"vehicle_type_id":"4","last_reported":1743600060,"current_range_meters":3600,"station_id":"","pricing_plan_id":"cebpf4jnsgd1na2vs0mg"},{"bike_id":"686a0383-f882-415f-bdf8-b2d05ec7bdb1","system_id":"levelo_inurba_marseille","lat":43.3054,"lon":5.36712,"is_reserved":false,"is_disabled":false,"rental_uris":{"android":"levelo://app?vid=686a0383-f882-415f-bdf8-b2d05ec7bdb1","ios":"levelo://app?vid=686a0383-f882-415f-bdf8-b2d05ec7bdb1"},"vehicle_type_id":"4","last_reported":1743600060,"current_range_meters":3200,"station_id":"ce4bgrp2rcd13ifvqc9g","pricing_plan_id":"cebpf4jnsgd1na2vs0mg"},{"bike_id":"415ce412-e9ad-4298-9d2a-ad0a33043512","system_id":"levelo_inurba_marseille","lat":43.25582,"lon":5.38244,"is_reserved":false,"is_disabled":false,"rental_uris":{"android":"levelo://app?vid=415ce412-e9ad-4298-9d2a-ad0a33043512","ios":"levelo://app?vid=415ce412-e9ad-4298-9d2a-ad0a33043512"},"vehicle_type_id":"4","last_reported":1743600060,"current_range_meters":3200,"station_id":"ce4bhih2rcd13ifvqfs0","pricing_plan_id":"cebpf4jnsgd1na2vs0mg"},{"bike_id":"54abb1c4-83e7-44cd-961f-862637957f12","system_id":"levelo_inurba_marseille","lat":43.28114,"lon":5.3784,"is_reserved":false,"is_disabled":false,"rental_uris":{"android":"levelo://app?vid=54abb1c4-83e7-44cd-961f-862637957f12","ios":"levelo://app?vid=54abb1c4-83e7-44cd-961f-862637957f12"},"vehicle_type_id":"4","last_reported":1743600060,"current_range_meters":3200,"station_id":"ce4bha12rcd13ifvqee0","pricing_plan_id":"cebpf4jnsgd1na2vs0mg"},{"bike_id":"7018c222-b3c9-40cc-b215-7f60e9031f8b","system_id":"levelo_inurba_marseille","lat":43.231529,"lon":5.437107,"is_reserved":false,"is_disabled":false,"rental_uris":{"android":"levelo://app?vid=7018c222-b3c9-40cc-b215-7f60e9031f8b","ios":"levelo://app?vid=7018c222-b3c9-40cc-b215-7f60e9031f8b"},"vehicle_type_id":"4","last_reported":1743600060,"current_range_meters":3600,"station_id":"ce4bhmp2rcd13ifvqgog","pricing_plan_id":"cebpf4jnsgd1na2vs0mg"},{"bike_id":"cd22e8f6-4b63-4e00-b2fd-554ac28913f8","system_id":"levelo_inurba_marseille","lat":43.263892,"lon":5.422748,"is_reserved":false,"is_disabled":false,"rental_uris":{"android":"levelo://app?vid=cd22e8f6-4b63-4e00-b2fd-554ac28913f8","ios":"levelo://app?vid=cd22e8f6-4b63-4e00-b2fd-554ac28913f8"},"vehicle_type_id":"4","last_reported":1743600060,"current_range_meters":3600,"station_id":"","pricing_plan_id":"cebpf4jnsgd1na2vs0mg"},{"bike_id":"d662608d-504d-43ae-8d4a-6ba237d6c000","system_id":"levelo_inurba_marseille","lat":43.27839,"lon":5.38505,"is_reserved":false,"is_disabled":false,"rental_uris":{"android":"levelo://app?vid=d662608d-504d-43ae-8d4a-6ba237d6c000","ios":"levelo://app?vid=d662608d-504d-43ae-8d4a-6ba237d6c000"},"vehicle_type_id":"4","last_reported":1743600060,"current_range_meters":3600,"station_id":"","pricing_plan_id":"cebpf4jnsgd1na2vs0mg"},{"bike_id":"3f1e6709-0c7b-4341-a099-5c19d30ce84a","system_id":"levelo_inurba_marseille","lat":43.28113,"lon":5.37844,"is_reserved":false,"is_disabled":false,"rental_uris":{"android":"levelo://app?vid=3f1e6709-0c7b-4341-a099-5c19d30ce84a","ios":"levelo://app?vid=3f1e6709-0c7b-4341-a099-5c19d30ce84a"},"vehicle_type_id":"4","last_reported":1743600060,"current_range_meters":3600,"station_id":"ce4bha12rcd13ifvqee0","pricing_plan_id":"cebpf4jnsgd1na2vs0mg"},{"bike_id":"17d31aed-a53a-49b6-adc6-b7506a533da4","system_id":"levelo_inurba_marseille","lat":43.30325,"lon":5.40433,"is_reserved":false,"is_disabled":false,"rental_uris":{"android":"levelo://app?vid=17d31aed-a53a-49b6-adc6-b7506a533da4","ios":"levelo://app?vid=17d31aed-a53a-49b6-adc6-b7506a533da4"},"vehicle_type_id":"4","last_reported":1743600060,"current_range_meters":4000,"station_id":"ce4bh012rcd13ifvqd10","pricing_plan_id":"cebpf4jnsgd1na2vs0mg"},{"bike_id":"62080af5-f75b-4b9a-8632-eb87a91e2f39","system_id":"levelo_inurba_marseille","lat":43.27213,"lon":5.40989,"is_reserved":false,"is_disabled":false,"rental_uris":{"android":"levelo://app?vid=62080af5-f75b-4b9a-8632-eb87a91e2f39","ios":"levelo://app?vid=62080af5-f75b-4b9a-8632-eb87a91e2f39"},"vehicle_type_id":"4","last_reported":1743600060,"current_range_meters":4000,"station_id":"ce4bhl12rcd13ifvqgf0","pricing_plan_id":"cebpf4jnsgd1na2vs0mg"},{"bike_id":"5832e744-4317-4ac4-b49c-bb881c7938eb","system_id":"levelo_inurba_marseille","lat":43.24551,"lon":5.39518,"is_reserved":false,"is_disabled":false,"rental_uris":{"android":"levelo://app?vid=5832e744-4317-4ac4-b49c-bb881c7938eb","ios":"levelo://app?vid=5832e744-4317-4ac4-b49c-bb881c7938eb"},"vehicle_type_id":"4","last_reported":1743600060,"current_range_meters":4400,"station_id":"ce4bhlp2rcd13ifvqgjg","pricing_plan_id":"cebpf4jnsgd1na2vs0mg"},{"bike_id":"a0696f42-d622-4f95-b940-7b5908068540","system_id":"levelo_inurba_marseille","lat":43.26224,"lon":5.40442,"is_reserved":false,"is_disabled":false,"rental_uris":{"android":"levelo://app?vid=a0696f42-d622-4f95-b940-7b5908068540","ios":"levelo://app?vid=a0696f42-d622-4f95-b940-7b5908068540"},"vehicle_type_id":"4","last_reported":1743600060,"current_range_meters":4400,"station_id":"ce4bhmh2rcd13ifvqgmg","pricing_plan_id":"cebpf4jnsgd1na2vs0mg"},{"bike_id":"8c48159f-e59f-4a81-972c-83d584e1039a","system_id":"levelo_inurba_marseille","lat":43.30308,"lon":5.36895,"is_reserved":false,"is_disabled":false,"rental_uris":{"android":"levelo://app?vid=8c48159f-e59f-4a81-972c-83d584e1039a","ios":"levelo://app?vid=8c48159f-e59f-4a81-972c-83d584e1039a"},"vehicle_type_id":"4","last_reported":1743600060,"current_range_meters":4400,"station_id":"ce4bgqh2rcd13ifvqc5g","pricing_plan_id":"cebpf4jnsgd1na2vs0mg"},{"bike_id":"5f443e97-5288-4af4-8fb2-9ffc8ca651d1","system_id":"levelo_inurba_marseille","lat":43.30324,"lon":5.36897,"is_reserved":false,"is_disabled":false,"rental_uris":{"android":"levelo://app?vid=5f443e97-5288-4af4-8fb2-9ffc8ca651d1","ios":"levelo://app?vid=5f443e97-5288-4af4-8fb2-9ffc8ca651d1"},"vehicle_type_id":"4","last_reported":1743600060,"current_range_meters":4800,"station_id":"ce4bgqh2rcd13ifvqc5g","pricing_plan_id":"cebpf4jnsgd1na2vs0mg"},{"bike_id":"76a81ef7-9645-4d49-9509-61e20389fc84","system_id":"levelo_inurba_marseille","lat":43.284724,"lon":5.382949,"is_reserved":false,"is_disabled":false,"rental_uris":{"android":"levelo://app?vid=76a81ef7-9645-4d49-9509-61e20389fc84","ios":"levelo://app?vid=76a81ef7-9645-4d49-9509-61e20389fc84"},"vehicle_type_id":"4","last_reported":1743600060,"current_range_meters":4800,"station_id":"ce4bh512rcd13ifvqe3g","pricing_plan_id":"cebpf4jnsgd1na2vs0mg"},{"bike_id":"e72967af-6b08-4c57-835e-72e327201e4b","system_id":"levelo_inurba_marseille","lat":43.231278,"lon":5.40037,"is_reserved":false,"is_disabled":false,"rental_uris":{"android":"levelo://app?vid=e72967af-6b08-4c57-835e-72e327201e4b","ios":"levelo://app?vid=e72967af-6b08-4c57-835e-72e327201e4b"},"vehicle_type_id":"4","last_reported":1743600060,"current_range_meters":5600,"station_id":"ce4bhbh2rcd13ifvqeo0","pricing_plan_id":"cebpf4jnsgd1na2vs0mg"},{"bike_id":"d10bd936-2fca-4607-82d0-6e154162cbfd","system_id":"levelo_inurba_marseille","lat":43.30887,"lon":5.39632,"is_reserved":false,"is_disabled":true,"rental_uris":{"android":"levelo://app?vid=d10bd936-2fca-4607-82d0-6e154162cbfd","ios":"levelo://app?vid=d10bd936-2fca-4607-82d0-6e154162cbfd"},"vehicle_type_id":"4","last_reported":1743600060,"current_range_meters":5600,"station_id":"ce4bh012rcd13ifvqcv0","pricing_plan_id":"cebpf4jnsgd1na2vs0mg"},{"bike_id":"85b7488a-274e-4a57-a545-cd9b422c92bb","system_id":"levelo_inurba_marseille","lat":43.25926,"lon":5.4089,"is_reserved":false,"is_disabled":false,"rental_uris":{"android":"levelo://app?vid=85b7488a-274e-4a57-a545-cd9b422c92bb","ios":"levelo://app?vid=85b7488a-274e-4a57-a545-cd9b422c92bb"},"vehicle_type_id":"4","last_reported":1743600060,"current_range_meters":5600,"station_id":"ce4bhm92rcd13ifvqglg","pricing_plan_id":"cebpf4jnsgd1na2vs0mg"},{"bike_id":"7ed94b94-3fc1-4492-9478-fe195d47778b","system_id":"levelo_inurba_marseille","lat":43.256,"lon":5.38233,"is_reserved":false,"is_disabled":false,"rental_uris":{"android":"levelo://app?vid=7ed94b94-3fc1-4492-9478-fe195d47778b","ios":"levelo://app?vid=7ed94b94-3fc1-4492-9478-fe195d47778b"},"vehicle_type_id":"4","last_reported":1743600060,"current_range_meters":6000,"station_id":"ce4bhih2rcd13ifvqfs0","pricing_plan_id":"cebpf4jnsgd1na2vs0mg"},{"bike_id":"1167d76f-0701-42ca-9566-e6b8288b4501","system_id":"levelo_inurba_marseille","lat":43.28286,"lon":5.37855,"is_reserved":false,"is_disabled":false,"rental_uris":{"android":"levelo://app?vid=1167d76f-0701-42ca-9566-e6b8288b4501","ios":"levelo://app?vid=1167d76f-0701-42ca-9566-e6b8288b4501"},"vehicle_type_id":"4","last_reported":1743600060,"current_range_meters":6000,"station_id":"","pricing_plan_id":"cebpf4jnsgd1na2vs0mg"},{"bike_id":"577b084d-71c0-4e6e-b3d2-57cb9bf5c9c2","system_id":"levelo_inurba_marseille","lat":43.25937,"lon":5.40885,"is_reserved":false,"is_disabled":false,"rental_uris":{"android":"levelo://app?vid=577b084d-71c0-4e6e-b3d2-57cb9bf5c9c2","ios":"levelo://app?vid=577b084d-71c0-4e6e-b3d2-57cb9bf5c9c2"},"vehicle_type_id":"4","last_reported":1743600060,"current_range_meters":6000,"station_id":"ce4bhm92rcd13ifvqglg","pricing_plan_id":"cebpf4jnsgd1na2vs0mg"},{"bike_id":"7549bd43-15b2-4001-a4c7-d590c7fffdef","system_id":"levelo_inurba_marseille","lat":43.32114,"lon":5.36809,"is_reserved":false,"is_disabled":false,"rental_uris":{"android":"levelo://app?vid=7549bd43-15b2-4001-a4c7-d590c7fffdef","ios":"levelo://app?vid=7549bd43-15b2-4001-a4c7-d590c7fffdef"},"vehicle_type_id":"4","last_reported":1743600060,"current_range_meters":6000,"station_id":"ce4bhrh2rcd13ifvqhug","pricing_plan_id":"cebpf4jnsgd1na2vs0mg"},{"bike_id":"1827d567-63bf-40e6-8158-6f62fabcef89","system_id":"levelo_inurba_marseille","lat":43.29623,"lon":5.37712,"is_reserved":false,"is_disabled":false,"rental_uris":{"android":"levelo://app?vid=1827d567-63bf-40e6-8158-6f62fabcef89","ios":"levelo://app?vid=1827d567-63bf-40e6-8158-6f62fabcef89"},"vehicle_type_id":"4","last_reported":1743600060,"current_range_meters":6000,"station_id":"ce4bgi92rcd13ifvqb90","pricing_plan_id":"cebpf4jnsgd1na2vs0mg"},{"bike_id":"c6c438e8-d3ab-4770-968b-7a1a93e8a8c6","system_id":"levelo_inurba_marseille","lat":43.28906,"lon":5.45862,"is_reserved":false,"is_disabled":false,"rental_uris":{"android":"levelo://app?vid=c6c438e8-d3ab-4770-968b-7a1a93e8a8c6","ios":"levelo://app?vid=c6c438e8-d3ab-4770-968b-7a1a93e8a8c6"},"vehicle_type_id":"4","last_reported":1743600060,"current_range_meters":6000,"station_id":"","pricing_plan_id":"cebpf4jnsgd1na2vs0mg"},{"bike_id":"a5e4abb9-003d-44a7-a433-58a50bd5c37d","system_id":"levelo_inurba_marseille","lat":43.23182,"lon":5.3998,"is_reserved":false,"is_disabled":false,"rental_uris":{"android":"levelo://app?vid=a5e4abb9-003d-44a7-a433-58a50bd5c37d","ios":"levelo://app?vid=a5e4abb9-003d-44a7-a433-58a50bd5c37d"},"vehicle_type_id":"4","last_reported":1743600060,"current_range_meters":6400,"station_id":"ce4bhn12rcd13ifvqgqg","pricing_plan_id":"cebpf4jnsgd1na2vs0mg"},{"bike_id":"d62e4b35-7d90-44dc-8e54-0877b2951d81","system_id":"levelo_inurba_marseille","lat":43.30264,"lon":5.40079,"is_reserved":false,"is_disabled":false,"rental_uris":{"android":"levelo://app?vid=d62e4b35-7d90-44dc-8e54-0877b2951d81","ios":"levelo://app?vid=d62e4b35-7d90-44dc-8e54-0877b2951d81"},"vehicle_type_id":"4","last_reported":1743600060,"current_range_meters":6400,"station_id":"ce4bgvh2rcd13ifvqcs0","pricing_plan_id":"cebpf4jnsgd1na2vs0mg"},{"bike_id":"46e5321f-1f0e-476d-9557-3a470246f9d4","system_id":"levelo_inurba_marseille","lat":43.23155,"lon":5.43718,"is_reserved":false,"is_disabled":false,"rental_uris":{"android":"levelo://app?vid=46e5321f-1f0e-476d-9557-3a470246f9d4","ios":"levelo://app?vid=46e5321f-1f0e-476d-9557-3a470246f9d4"},"vehicle_type_id":"4","last_reported":1743600060,"current_range_meters":6400,"station_id":"ce4bhmp2rcd13ifvqgog","pricing_plan_id":"cebpf4jnsgd1na2vs0mg"},{"bike_id":"d899c0fb-ef5e-460d-b42b-352281bec7ad","system_id":"levelo_inurba_marseille","lat":43.29533,"lon":5.39034,"is_reserved":false,"is_disabled":false,"rental_uris":{"android":"levelo://app?vid=d899c0fb-ef5e-460d-b42b-352281bec7ad","ios":"levelo://app?vid=d899c0fb-ef5e-460d-b42b-352281bec7ad"},"vehicle_type_id":"4","last_reported":1743600060,"current_range_meters":6800,"station_id":"ce4bh3p2rcd13ifvqdp0","pricing_plan_id":"cebpf4jnsgd1na2vs0mg"},{"bike_id":"2b2ec814-e298-4bdc-9cae-7188c33e5976","system_id":"levelo_inurba_marseille","lat":43.26783,"lon":5.3942,"is_reserved":false,"is_disabled":false,"rental_uris":{"android":"levelo://app?vid=2b2ec814-e298-4bdc-9cae-7188c33e5976","ios":"levelo://app?vid=2b2ec814-e298-4bdc-9cae-7188c33e5976"},"vehicle_type_id":"4","last_reported":1743600060,"current_range_meters":6800,"station_id":"ce4bhh12rcd13ifvqfg0","pricing_plan_id":"cebpf4jnsgd1na2vs0mg"},{"bike_id":"5ef6b633-cf2f-42de-995a-43dea0a55a29","system_id":"levelo_inurba_marseille","lat":43.321165,"lon":5.367765,"is_reserved":false,"is_disabled":false,"rental_uris":{"android":"levelo://app?vid=5ef6b633-cf2f-42de-995a-43dea0a55a29","ios":"levelo://app?vid=5ef6b633-cf2f-42de-995a-43dea0a55a29"},"vehicle_type_id":"4","last_reported":1743600060,"current_range_meters":7200,"station_id":"ce4bhrh2rcd13ifvqhug","pricing_plan_id":"cebpf4jnsgd1na2vs0mg"},{"bike_id":"58ffdb2c-0174-451e-ab91-78a0be9ed339","system_id":"levelo_inurba_marseille","lat":43.32546,"lon":5.41433,"is_reserved":false,"is_disabled":false,"rental_uris":{"android":"levelo://app?vid=58ffdb2c-0174-451e-ab91-78a0be9ed339","ios":"levelo://app?vid=58ffdb2c-0174-451e-ab91-78a0be9ed339"},"vehicle_type_id":"4","last_reported":1743600060,"current_range_meters":6800,"station_id":"ce4bhq12rcd13ifvqhhg","pricing_plan_id":"cebpf4jnsgd1na2vs0mg"},{"bike_id":"0a8d07dd-db7d-4bd3-9059-559cb936ec18","system_id":"levelo_inurba_marseille","lat":43.33145,"lon":5.3923,"is_reserved":false,"is_disabled":false,"rental_uris":{"android":"levelo://app?vid=0a8d07dd-db7d-4bd3-9059-559cb936ec18","ios":"levelo://app?vid=0a8d07dd-db7d-4bd3-9059-559cb936ec18"},"vehicle_type_id":"4","last_reported":1743600060,"current_range_meters":6800,"station_id":"","pricing_plan_id":"cebpf4jnsgd1na2vs0mg"},{"bike_id":"e47bc61d-df2d-41b3-b26b-dd94e6e5e301","system_id":"levelo_inurba_marseille","lat":43.26247,"lon":5.42102,"is_reserved":false,"is_disabled":false,"rental_uris":{"android":"levelo://app?vid=e47bc61d-df2d-41b3-b26b-dd94e6e5e301","ios":"levelo://app?vid=e47bc61d-df2d-41b3-b26b-dd94e6e5e301"},"vehicle_type_id":"4","last_reported":1743600060,"current_range_meters":6800,"station_id":"","pricing_plan_id":"cebpf4jnsgd1na2vs0mg"},{"bike_id":"66a6759f-f104-404f-ba35-7dd5d87e6d0b","system_id":"levelo_inurba_marseille","lat":43.3014,"lon":5.37672,"is_reserved":false,"is_disabled":false,"rental_uris":{"android":"levelo://app?vid=66a6759f-f104-404f-ba35-7dd5d87e6d0b","ios":"levelo://app?vid=66a6759f-f104-404f-ba35-7dd5d87e6d0b"},"vehicle_type_id":"4","last_reported":1743600060,"current_range_meters":6800,"station_id":"","pricing_plan_id":"cebpf4jnsgd1na2vs0mg"},{"bike_id":"4ee7756c-05ce-46a9-99e2-04518a0d16b9","system_id":"levelo_inurba_marseille","lat":43.3031,"lon":5.36914,"is_reserved":false,"is_disabled":false,"rental_uris":{"android":"levelo://app?vid=4ee7756c-05ce-46a9-99e2-04518a0d16b9","ios":"levelo://app?vid=4ee7756c-05ce-46a9-99e2-04518a0d16b9"},"vehicle_type_id":"4","last_reported":1743600060,"current_range_meters":6800,"station_id":"ce4bgqh2rcd13ifvqc5g","pricing_plan_id":"cebpf4jnsgd1na2vs0mg"},{"bike_id":"fdd74cea-2420-4f5e-97f2-a48b67190c4e","system_id":"levelo_inurba_marseille","lat":43.337444,"lon":5.374475,"is_reserved":false,"is_disabled":false,"rental_uris":{"android":"levelo://app?vid=fdd74cea-2420-4f5e-97f2-a48b67190c4e","ios":"levelo://app?vid=fdd74cea-2420-4f5e-97f2-a48b67190c4e"},"vehicle_type_id":"4","last_reported":1743600060,"current_range_meters":7200,"station_id":"","pricing_plan_id":"cebpf4jnsgd1na2vs0mg"},{"bike_id":"4f1fb305-fdac-49af-98f8-e5ebaa4429a4","system_id":"levelo_inurba_marseille","lat":43.229319,"lon":5.353807,"is_reserved":false,"is_disabled":false,"rental_uris":{"android":"levelo://app?vid=4f1fb305-fdac-49af-98f8-e5ebaa4429a4","ios":"levelo://app?vid=4f1fb305-fdac-49af-98f8-e5ebaa4429a4"},"vehicle_type_id":"4","last_reported":1743600060,"current_range_meters":7200,"station_id":"cpo3532slgdg3j2ikp40","pricing_plan_id":"cebpf4jnsgd1na2vs0mg"},{"bike_id":"7bdf0d60-3026-4723-ac07-ebb25b9cf79f","system_id":"levelo_inurba_marseille","lat":43.28792,"lon":5.38685,"is_reserved":false,"is_disabled":false,"rental_uris":{"android":"levelo://app?vid=7bdf0d60-3026-4723-ac07-ebb25b9cf79f","ios":"levelo://app?vid=7bdf0d60-3026-4723-ac07-ebb25b9cf79f"},"vehicle_type_id":"4","last_reported":1743600060,"current_range_meters":7200,"station_id":"","pricing_plan_id":"cebpf4jnsgd1na2vs0mg"},{"bike_id":"3bf274c3-fe5c-4854-94fe-e5816e84bf97","system_id":"levelo_inurba_marseille","lat":43.24554,"lon":5.39535,"is_reserved":false,"is_disabled":false,"rental_uris":{"android":"levelo://app?vid=3bf274c3-fe5c-4854-94fe-e5816e84bf97","ios":"levelo://app?vid=3bf274c3-fe5c-4854-94fe-e5816e84bf97"},"vehicle_type_id":"4","last_reported":1743600060,"current_range_meters":7200,"station_id":"ce4bhlp2rcd13ifvqgjg","pricing_plan_id":"cebpf4jnsgd1na2vs0mg"},{"bike_id":"1d1fcf5b-c1ba-42a5-a64a-efa6d25fc73d","system_id":"levelo_inurba_marseille","lat":43.23154,"lon":5.43713,"is_reserved":false,"is_disabled":false,"rental_uris":{"android":"levelo://app?vid=1d1fcf5b-c1ba-42a5-a64a-efa6d25fc73d","ios":"levelo://app?vid=1d1fcf5b-c1ba-42a5-a64a-efa6d25fc73d"},"vehicle_type_id":"4","last_reported":1743600060,"current_range_meters":7200,"station_id":"ce4bhmp2rcd13ifvqgog","pricing_plan_id":"cebpf4jnsgd1na2vs0mg"},{"bike_id":"312ed70b-1ac3-481a-88c0-b0159fcd0caf","system_id":"levelo_inurba_marseille","lat":43.23158,"lon":5.43715,"is_reserved":false,"is_disabled":false,"rental_uris":{"android":"levelo://app?vid=312ed70b-1ac3-481a-88c0-b0159fcd0caf","ios":"levelo://app?vid=312ed70b-1ac3-481a-88c0-b0159fcd0caf"},"vehicle_type_id":"4","last_reported":1743600060,"current_range_meters":7200,"station_id":"ce4bhmp2rcd13ifvqgog","pricing_plan_id":"cebpf4jnsgd1na2vs0mg"},{"bike_id":"f06067fe-c409-49ce-b995-b28658dd37fb","system_id":"levelo_inurba_marseille","lat":43.28671,"lon":5.37401,"is_reserved":false,"is_disabled":true,"rental_uris":{"android":"levelo://app?vid=f06067fe-c409-49ce-b995-b28658dd37fb","ios":"levelo://app?vid=f06067fe-c409-49ce-b995-b28658dd37fb"},"vehicle_type_id":"4","last_reported":1743600060,"current_range_meters":8000,"station_id":"ce4bh3p2rcd13ifvqdq0","pricing_plan_id":"cebpf4jnsgd1na2vs0mg"},{"bike_id":"93eb57be-6e76-46e4-a5ce-bf21001073ab","system_id":"levelo_inurba_marseille","lat":43.23142,"lon":5.43727,"is_reserved":false,"is_disabled":false,"rental_uris":{"android":"levelo://app?vid=93eb57be-6e76-46e4-a5ce-bf21001073ab","ios":"levelo://app?vid=93eb57be-6e76-46e4-a5ce-bf21001073ab"},"vehicle_type_id":"4","last_reported":1743600060,"current_range_meters":8000,"station_id":"ce4bhmp2rcd13ifvqgog","pricing_plan_id":"cebpf4jnsgd1na2vs0mg"},{"bike_id":"704967b0-4590-4a5b-82d4-792e195a481a","system_id":"levelo_inurba_marseille","lat":43.26784,"lon":5.3942,"is_reserved":false,"is_disabled":false,"rental_uris":{"android":"levelo://app?vid=704967b0-4590-4a5b-82d4-792e195a481a","ios":"levelo://app?vid=704967b0-4590-4a5b-82d4-792e195a481a"},"vehicle_type_id":"4","last_reported":1743600060,"current_range_meters":8000,"station_id":"ce4bhh12rcd13ifvqfg0","pricing_plan_id":"cebpf4jnsgd1na2vs0mg"},{"bike_id":"0c78c78a-48af-4c02-ab10-e21affc5286c","system_id":"levelo_inurba_marseille","lat":43.31083,"lon":5.42424,"is_reserved":false,"is_disabled":false,"rental_uris":{"android":"levelo://app?vid=0c78c78a-48af-4c02-ab10-e21affc5286c","ios":"levelo://app?vid=0c78c78a-48af-4c02-ab10-e21affc5286c"},"vehicle_type_id":"4","last_reported":1743600060,"current_range_meters":8000,"station_id":"ce4bhp92rcd13ifvqhag","pricing_plan_id":"cebpf4jnsgd1na2vs0mg"},{"bike_id":"25c9da1a-b5c2-481b-a59e-5c1900e213f6","system_id":"levelo_inurba_marseille","lat":43.25587,"lon":5.38245,"is_reserved":false,"is_disabled":false,"rental_uris":{"android":"levelo://app?vid=25c9da1a-b5c2-481b-a59e-5c1900e213f6","ios":"levelo://app?vid=25c9da1a-b5c2-481b-a59e-5c1900e213f6"},"vehicle_type_id":"4","last_reported":1743600060,"current_range_meters":8000,"station_id":"ce4bhih2rcd13ifvqfs0","pricing_plan_id":"cebpf4jnsgd1na2vs0mg"},{"bike_id":"0b8a01ea-b4ac-4743-b0a7-a5aff81bf844","system_id":"levelo_inurba_marseille","lat":43.26792,"lon":5.39423,"is_reserved":false,"is_disabled":false,"rental_uris":{"android":"levelo://app?vid=0b8a01ea-b4ac-4743-b0a7-a5aff81bf844","ios":"levelo://app?vid=0b8a01ea-b4ac-4743-b0a7-a5aff81bf844"},"vehicle_type_id":"4","last_reported":1743600060,"current_range_meters":8000,"station_id":"ce4bhh12rcd13ifvqfg0","pricing_plan_id":"cebpf4jnsgd1na2vs0mg"},{"bike_id":"c4ef0165-fcb7-4aad-baca-49348c62b42a","system_id":"levelo_inurba_marseille","lat":43.29535,"lon":5.38544,"is_reserved":false,"is_disabled":false,"rental_uris":{"android":"levelo://app?vid=c4ef0165-fcb7-4aad-baca-49348c62b42a","ios":"levelo://app?vid=c4ef0165-fcb7-4aad-baca-49348c62b42a"},"vehicle_type_id":"4","last_reported":1743600060,"current_range_meters":8000,"station_id":"ce4bgih2rcd13ifvqba0","pricing_plan_id":"cebpf4jnsgd1na2vs0mg"},{"bike_id":"dd57aabe-70ab-468e-b57c-859ef160a8e2","system_id":"levelo_inurba_marseille","lat":43.25926,"lon":5.40873,"is_reserved":false,"is_disabled":false,"rental_uris":{"android":"levelo://app?vid=dd57aabe-70ab-468e-b57c-859ef160a8e2","ios":"levelo://app?vid=dd57aabe-70ab-468e-b57c-859ef160a8e2"},"vehicle_type_id":"4","last_reported":1743600060,"current_range_meters":8400,"station_id":"ce4bhm92rcd13ifvqglg","pricing_plan_id":"cebpf4jnsgd1na2vs0mg"},{"bike_id":"19bd8ba0-0ab6-4e0a-930f-33f88bf5b89a","system_id":"levelo_inurba_marseille","lat":43.3025,"lon":5.40039,"is_reserved":false,"is_disabled":false,"rental_uris":{"android":"levelo://app?vid=19bd8ba0-0ab6-4e0a-930f-33f88bf5b89a","ios":"levelo://app?vid=19bd8ba0-0ab6-4e0a-930f-33f88bf5b89a"},"vehicle_type_id":"4","last_reported":1743600060,"current_range_meters":8000,"station_id":"ce4bgvh2rcd13ifvqcs0","pricing_plan_id":"cebpf4jnsgd1na2vs0mg"},{"bike_id":"1f1218d9-ebac-4975-84ee-2ba3e4d4bcb4","system_id":"levelo_inurba_marseille","lat":43.30881,"lon":5.37797,"is_reserved":false,"is_disabled":false,"rental_uris":{"android":"levelo://app?vid=1f1218d9-ebac-4975-84ee-2ba3e4d4bcb4","ios":"levelo://app?vid=1f1218d9-ebac-4975-84ee-2ba3e4d4bcb4"},"vehicle_type_id":"4","last_reported":1743600060,"current_range_meters":8400,"station_id":"","pricing_plan_id":"cebpf4jnsgd1na2vs0mg"},{"bike_id":"3e5329f3-c0cd-422c-afb1-2f46242590da","system_id":"levelo_inurba_marseille","lat":43.31915,"lon":5.37554,"is_reserved":false,"is_disabled":false,"rental_uris":{"android":"levelo://app?vid=3e5329f3-c0cd-422c-afb1-2f46242590da","ios":"levelo://app?vid=3e5329f3-c0cd-422c-afb1-2f46242590da"},"vehicle_type_id":"4","last_reported":1743600060,"current_range_meters":8400,"station_id":"","pricing_plan_id":"cebpf4jnsgd1na2vs0mg"},{"bike_id":"7b656c41-d33c-4945-b63d-60b79da12788","system_id":"levelo_inurba_marseille","lat":43.27964,"lon":5.38734,"is_reserved":false,"is_disabled":false,"rental_uris":{"android":"levelo://app?vid=7b656c41-d33c-4945-b63d-60b79da12788","ios":"levelo://app?vid=7b656c41-d33c-4945-b63d-60b79da12788"},"vehicle_type_id":"4","last_reported":1743600060,"current_range_meters":8400,"station_id":"ce4bhg12rcd13ifvqf80","pricing_plan_id":"cebpf4jnsgd1na2vs0mg"},{"bike_id":"69e42b9b-09af-48bd-9c88-2df5e2bd0f56","system_id":"levelo_inurba_marseille","lat":43.25722,"lon":5.41114,"is_reserved":false,"is_disabled":false,"rental_uris":{"android":"levelo://app?vid=69e42b9b-09af-48bd-9c88-2df5e2bd0f56","ios":"levelo://app?vid=69e42b9b-09af-48bd-9c88-2df5e2bd0f56"},"vehicle_type_id":"4","last_reported":1743600060,"current_range_meters":8400,"station_id":"ce4bhkp2rcd13ifvqgd0","pricing_plan_id":"cebpf4jnsgd1na2vs0mg"},{"bike_id":"ac85701c-18fe-47e7-8435-c69a0efd01c0","system_id":"levelo_inurba_marseille","lat":43.27055,"lon":5.40267,"is_reserved":false,"is_disabled":false,"rental_uris":{"android":"levelo://app?vid=ac85701c-18fe-47e7-8435-c69a0efd01c0","ios":"levelo://app?vid=ac85701c-18fe-47e7-8435-c69a0efd01c0"},"vehicle_type_id":"4","last_reported":1743600060,"current_range_meters":8400,"station_id":"ce4bhk92rcd13ifvqgc0","pricing_plan_id":"cebpf4jnsgd1na2vs0mg"},{"bike_id":"2d5b05ab-3fbf-4245-a566-4ad78ee6292a","system_id":"levelo_inurba_marseille","lat":43.2502,"lon":5.38935,"is_reserved":false,"is_disabled":false,"rental_uris":{"android":"levelo://app?vid=2d5b05ab-3fbf-4245-a566-4ad78ee6292a","ios":"levelo://app?vid=2d5b05ab-3fbf-4245-a566-4ad78ee6292a"},"vehicle_type_id":"4","last_reported":1743600060,"current_range_meters":8800,"station_id":"ce4bhgp2rcd13ifvqfd0","pricing_plan_id":"cebpf4jnsgd1na2vs0mg"},{"bike_id":"12d7b190-592f-4a21-abca-d2c30486ad93","system_id":"levelo_inurba_marseille","lat":43.30555,"lon":5.36547,"is_reserved":false,"is_disabled":false,"rental_uris":{"android":"levelo://app?vid=12d7b190-592f-4a21-abca-d2c30486ad93","ios":"levelo://app?vid=12d7b190-592f-4a21-abca-d2c30486ad93"},"vehicle_type_id":"4","last_reported":1743600060,"current_range_meters":8800,"station_id":"ce4bgs12rcd13ifvqcag","pricing_plan_id":"cebpf4jnsgd1na2vs0mg"},{"bike_id":"3ba6ccff-1eda-46d4-acbd-01dbdd65bb76","system_id":"levelo_inurba_marseille","lat":43.29899,"lon":5.43673,"is_reserved":false,"is_disabled":false,"rental_uris":{"android":"levelo://app?vid=3ba6ccff-1eda-46d4-acbd-01dbdd65bb76","ios":"levelo://app?vid=3ba6ccff-1eda-46d4-acbd-01dbdd65bb76"},"vehicle_type_id":"4","last_reported":1743600060,"current_range_meters":8800,"station_id":"ce4bhpp2rcd13ifvqhfg","pricing_plan_id":"cebpf4jnsgd1na2vs0mg"},{"bike_id":"2da816ea-bf16-40de-92ad-eeb2874beb81","system_id":"levelo_inurba_marseille","lat":43.28673,"lon":5.38664,"is_reserved":false,"is_disabled":false,"rental_uris":{"android":"levelo://app?vid=2da816ea-bf16-40de-92ad-eeb2874beb81","ios":"levelo://app?vid=2da816ea-bf16-40de-92ad-eeb2874beb81"},"vehicle_type_id":"4","last_reported":1743600060,"current_range_meters":8800,"station_id":"ce4bh492rcd13ifvqdug","pricing_plan_id":"cebpf4jnsgd1na2vs0mg"},{"bike_id":"16c82eca-3981-400e-991f-2adb3a8e456e","system_id":"levelo_inurba_marseille","lat":43.30566,"lon":5.36704,"is_reserved":false,"is_disabled":false,"rental_uris":{"android":"levelo://app?vid=16c82eca-3981-400e-991f-2adb3a8e456e","ios":"levelo://app?vid=16c82eca-3981-400e-991f-2adb3a8e456e"},"vehicle_type_id":"4","last_reported":1743600060,"current_range_meters":9200,"station_id":"ce4bgrp2rcd13ifvqc9g","pricing_plan_id":"cebpf4jnsgd1na2vs0mg"},{"bike_id":"c04ec2c8-8f50-4ee8-8a69-122203b15c48","system_id":"levelo_inurba_marseille","lat":43.28609,"lon":5.37072,"is_reserved":false,"is_disabled":false,"rental_uris":{"android":"levelo://app?vid=c04ec2c8-8f50-4ee8-8a69-122203b15c48","ios":"levelo://app?vid=c04ec2c8-8f50-4ee8-8a69-122203b15c48"},"vehicle_type_id":"4","last_reported":1743600060,"current_range_meters":9200,"station_id":"ce4bht12rcd13ifvqi60","pricing_plan_id":"cebpf4jnsgd1na2vs0mg"},{"bike_id":"5f0b452b-ba34-4a97-a0f0-a504ecd4d629","system_id":"levelo_inurba_marseille","lat":43.25865,"lon":5.39905,"is_reserved":false,"is_disabled":false,"rental_uris":{"android":"levelo://app?vid=5f0b452b-ba34-4a97-a0f0-a504ecd4d629","ios":"levelo://app?vid=5f0b452b-ba34-4a97-a0f0-a504ecd4d629"},"vehicle_type_id":"4","last_reported":1743600060,"current_range_meters":8800,"station_id":"ce4bhl92rcd13ifvqghg","pricing_plan_id":"cebpf4jnsgd1na2vs0mg"},{"bike_id":"e3d01a26-5542-45dc-8373-1b19a6bf2880","system_id":"levelo_inurba_marseille","lat":43.23146,"lon":5.43692,"is_reserved":false,"is_disabled":true,"rental_uris":{"android":"levelo://app?vid=e3d01a26-5542-45dc-8373-1b19a6bf2880","ios":"levelo://app?vid=e3d01a26-5542-45dc-8373-1b19a6bf2880"},"vehicle_type_id":"4","last_reported":1743600060,"current_range_meters":9200,"station_id":"ce4bhmp2rcd13ifvqgog","pricing_plan_id":"cebpf4jnsgd1na2vs0mg"},{"bike_id":"7aa08c36-ee27-4e8e-996a-fcb4923ecbbb","system_id":"levelo_inurba_marseille","lat":43.28271,"lon":5.3507,"is_reserved":false,"is_disabled":true,"rental_uris":{"android":"levelo://app?vid=7aa08c36-ee27-4e8e-996a-fcb4923ecbbb","ios":"levelo://app?vid=7aa08c36-ee27-4e8e-996a-fcb4923ecbbb"},"vehicle_type_id":"4","last_reported":1743600060,"current_range_meters":9200,"station_id":"ce4bhbp2rcd13ifvqerg","pricing_plan_id":"cebpf4jnsgd1na2vs0mg"},{"bike_id":"ffc53036-d059-4465-b88a-5b4b3e7aeb5e","system_id":"levelo_inurba_marseille","lat":43.22937,"lon":5.35376,"is_reserved":false,"is_disabled":false,"rental_uris":{"android":"levelo://app?vid=ffc53036-d059-4465-b88a-5b4b3e7aeb5e","ios":"levelo://app?vid=ffc53036-d059-4465-b88a-5b4b3e7aeb5e"},"vehicle_type_id":"4","last_reported":1743600060,"current_range_meters":9200,"station_id":"cpo3532slgdg3j2ikp40","pricing_plan_id":"cebpf4jnsgd1na2vs0mg"},{"bike_id":"c05ea898-9b73-4ac7-a114-d869d4e9a852","system_id":"levelo_inurba_marseille","lat":43.26216,"lon":5.37426,"is_reserved":false,"is_disabled":false,"rental_uris":{"android":"levelo://app?vid=c05ea898-9b73-4ac7-a114-d869d4e9a852","ios":"levelo://app?vid=c05ea898-9b73-4ac7-a114-d869d4e9a852"},"vehicle_type_id":"4","last_reported":1743600060,"current_range_meters":9200,"station_id":"ce4bhgp2rcd13ifvqfc0","pricing_plan_id":"cebpf4jnsgd1na2vs0mg"},{"bike_id":"2ed9404d-458e-44d9-afcd-e53713075f99","system_id":"levelo_inurba_marseille","lat":43.22932,"lon":5.35381,"is_reserved":false,"is_disabled":false,"rental_uris":{"android":"levelo://app?vid=2ed9404d-458e-44d9-afcd-e53713075f99","ios":"levelo://app?vid=2ed9404d-458e-44d9-afcd-e53713075f99"},"vehicle_type_id":"4","last_reported":1743600060,"current_range_meters":9200,"station_id":"cpo3532slgdg3j2ikp40","pricing_plan_id":"cebpf4jnsgd1na2vs0mg"},{"bike_id":"35a3b1a1-0e4e-434e-bf96-a94bc63b8161","system_id":"levelo_inurba_marseille","lat":43.29092,"lon":5.38095,"is_reserved":false,"is_disabled":false,"rental_uris":{"android":"levelo://app?vid=35a3b1a1-0e4e-434e-bf96-a94bc63b8161","ios":"levelo://app?vid=35a3b1a1-0e4e-434e-bf96-a94bc63b8161"},"vehicle_type_id":"4","last_reported":1743600060,"current_range_meters":9200,"station_id":"ce4bh512rcd13ifvqe2g","pricing_plan_id":"cebpf4jnsgd1na2vs0mg"},{"bike_id":"d53c6405-ebc2-4039-a2fc-47c24b51e6f6","system_id":"levelo_inurba_marseille","lat":43.29417,"lon":5.38623,"is_reserved":false,"is_disabled":false,"rental_uris":{"android":"levelo://app?vid=d53c6405-ebc2-4039-a2fc-47c24b51e6f6","ios":"levelo://app?vid=d53c6405-ebc2-4039-a2fc-47c24b51e6f6"},"vehicle_type_id":"4","last_reported":1743600060,"current_range_meters":9200,"station_id":"ce4bh2h2rcd13ifvqdh0","pricing_plan_id":"cebpf4jnsgd1na2vs0mg"},{"bike_id":"bd85d8e2-c46c-4a7f-a66b-1892178ef080","system_id":"levelo_inurba_marseille","lat":43.27667,"lon":5.38891,"is_reserved":false,"is_disabled":true,"rental_uris":{"android":"levelo://app?vid=bd85d8e2-c46c-4a7f-a66b-1892178ef080","ios":"levelo://app?vid=bd85d8e2-c46c-4a7f-a66b-1892178ef080"},"vehicle_type_id":"4","last_reported":1743600060,"current_range_meters":9200,"station_id":"ce4bhi12rcd13ifvqfo0","pricing_plan_id":"cebpf4jnsgd1na2vs0mg"},{"bike_id":"d120d6b8-7c34-45a1-bfdf-2a5356fa3a50","system_id":"levelo_inurba_marseille","lat":43.2622,"lon":5.37441,"is_reserved":false,"is_disabled":false,"rental_uris":{"android":"levelo://app?vid=d120d6b8-7c34-45a1-bfdf-2a5356fa3a50","ios":"levelo://app?vid=d120d6b8-7c34-45a1-bfdf-2a5356fa3a50"},"vehicle_type_id":"4","last_reported":1743600060,"current_range_meters":9200,"station_id":"ce4bhgp2rcd13ifvqfc0","pricing_plan_id":"cebpf4jnsgd1na2vs0mg"},{"bike_id":"958947b9-9524-4203-84b7-38bf404bd1d5","system_id":"levelo_inurba_marseille","lat":43.28273,"lon":5.35069,"is_reserved":false,"is_disabled":false,"rental_uris":{"android":"levelo://app?vid=958947b9-9524-4203-84b7-38bf404bd1d5","ios":"levelo://app?vid=958947b9-9524-4203-84b7-38bf404bd1d5"},"vehicle_type_id":"4","last_reported":1743600060,"current_range_meters":8800,"station_id":"ce4bhbp2rcd13ifvqerg","pricing_plan_id":"cebpf4jnsgd1na2vs0mg"},{"bike_id":"d1b5d6c6-563b-4dc0-99fd-5e93b8acdd06","system_id":"levelo_inurba_marseille","lat":43.23161,"lon":5.43708,"is_reserved":false,"is_disabled":false,"rental_uris":{"android":"levelo://app?vid=d1b5d6c6-563b-4dc0-99fd-5e93b8acdd06","ios":"levelo://app?vid=d1b5d6c6-563b-4dc0-99fd-5e93b8acdd06"},"vehicle_type_id":"4","last_reported":1743600060,"current_range_meters":9600,"station_id":"ce4bhmp2rcd13ifvqgog","pricing_plan_id":"cebpf4jnsgd1na2vs0mg"},{"bike_id":"10fe338c-5cf4-4013-b7d2-b7c5dba3d226","system_id":"levelo_inurba_marseille","lat":43.27209,"lon":5.39182,"is_reserved":false,"is_disabled":false,"rental_uris":{"android":"levelo://app?vid=10fe338c-5cf4-4013-b7d2-b7c5dba3d226","ios":"levelo://app?vid=10fe338c-5cf4-4013-b7d2-b7c5dba3d226"},"vehicle_type_id":"4","last_reported":1743600060,"current_range_meters":9200,"station_id":"ce4bhhp2rcd13ifvqfm0","pricing_plan_id":"cebpf4jnsgd1na2vs0mg"},{"bike_id":"f55695a6-b65f-4a30-99ab-94b2bfa63268","system_id":"levelo_inurba_marseille","lat":43.23211,"lon":5.35547,"is_reserved":false,"is_disabled":false,"rental_uris":{"android":"levelo://app?vid=f55695a6-b65f-4a30-99ab-94b2bfa63268","ios":"levelo://app?vid=f55695a6-b65f-4a30-99ab-94b2bfa63268"},"vehicle_type_id":"4","last_reported":1743600060,"current_range_meters":9600,"station_id":"ce4bhu92rcd13ifvqi70","pricing_plan_id":"cebpf4jnsgd1na2vs0mg"},{"bike_id":"2e1d0491-8046-4a1c-910c-6d230f4ca468","system_id":"levelo_inurba_marseille","lat":43.30664,"lon":5.37369,"is_reserved":false,"is_disabled":false,"rental_uris":{"android":"levelo://app?vid=2e1d0491-8046-4a1c-910c-6d230f4ca468","ios":"levelo://app?vid=2e1d0491-8046-4a1c-910c-6d230f4ca468"},"vehicle_type_id":"4","last_reported":1743600060,"current_range_meters":9600,"station_id":"","pricing_plan_id":"cebpf4jnsgd1na2vs0mg"},{"bike_id":"cddf7a1a-3976-430b-a3b8-8650c8a8e9d2","system_id":"levelo_inurba_marseille","lat":43.29427,"lon":5.38628,"is_reserved":false,"is_disabled":false,"rental_uris":{"android":"levelo://app?vid=cddf7a1a-3976-430b-a3b8-8650c8a8e9d2","ios":"levelo://app?vid=cddf7a1a-3976-430b-a3b8-8650c8a8e9d2"},"vehicle_type_id":"4","last_reported":1743600060,"current_range_meters":10000,"station_id":"ce4bh2h2rcd13ifvqdh0","pricing_plan_id":"cebpf4jnsgd1na2vs0mg"},{"bike_id":"4ee96f74-4f40-47ea-b659-de0fedf03b2f","system_id":"levelo_inurba_marseille","lat":43.25,"lon":5.38938,"is_reserved":false,"is_disabled":false,"rental_uris":{"android":"levelo://app?vid=4ee96f74-4f40-47ea-b659-de0fedf03b2f","ios":"levelo://app?vid=4ee96f74-4f40-47ea-b659-de0fedf03b2f"},"vehicle_type_id":"4","last_reported":1743600060,"current_range_meters":10000,"station_id":"ce4bhgp2rcd13ifvqfd0","pricing_plan_id":"cebpf4jnsgd1na2vs0mg"},{"bike_id":"b52eafbb-0fdc-487b-b3ce-3a3f8cf7e638","system_id":"levelo_inurba_marseille","lat":43.3311,"lon":5.39254,"is_reserved":false,"is_disabled":false,"rental_uris":{"android":"levelo://app?vid=b52eafbb-0fdc-487b-b3ce-3a3f8cf7e638","ios":"levelo://app?vid=b52eafbb-0fdc-487b-b3ce-3a3f8cf7e638"},"vehicle_type_id":"4","last_reported":1743600060,"current_range_meters":10000,"station_id":"","pricing_plan_id":"cebpf4jnsgd1na2vs0mg"},{"bike_id":"7b869cea-1d61-42d2-b04b-29df5bd7497f","system_id":"levelo_inurba_marseille","lat":43.32107,"lon":5.36789,"is_reserved":false,"is_disabled":false,"rental_uris":{"android":"levelo://app?vid=7b869cea-1d61-42d2-b04b-29df5bd7497f","ios":"levelo://app?vid=7b869cea-1d61-42d2-b04b-29df5bd7497f"},"vehicle_type_id":"4","last_reported":1743600060,"current_range_meters":10000,"station_id":"ce4bhrh2rcd13ifvqhug","pricing_plan_id":"cebpf4jnsgd1na2vs0mg"},{"bike_id":"ade0fe58-d42f-45e5-ae14-691e1f94ae2e","system_id":"levelo_inurba_marseille","lat":43.25505,"lon":5.37658,"is_reserved":false,"is_disabled":false,"rental_uris":{"android":"levelo://app?vid=ade0fe58-d42f-45e5-ae14-691e1f94ae2e","ios":"levelo://app?vid=ade0fe58-d42f-45e5-ae14-691e1f94ae2e"},"vehicle_type_id":"4","last_reported":1743600060,"current_range_meters":10000,"station_id":"ce4bhh12rcd13ifvqff0","pricing_plan_id":"cebpf4jnsgd1na2vs0mg"},{"bike_id":"b80ee275-2592-4659-b2e9-175feb839700","system_id":"levelo_inurba_marseille","lat":43.232008,"lon":5.35544,"is_reserved":false,"is_disabled":false,"rental_uris":{"android":"levelo://app?vid=b80ee275-2592-4659-b2e9-175feb839700","ios":"levelo://app?vid=b80ee275-2592-4659-b2e9-175feb839700"},"vehicle_type_id":"4","last_reported":1743600060,"current_range_meters":10000,"station_id":"ce4bhu92rcd13ifvqi70","pricing_plan_id":"cebpf4jnsgd1na2vs0mg"},{"bike_id":"7cd9ad6b-a58e-4972-b179-03b8db60f282","system_id":"levelo_inurba_marseille","lat":43.23149,"lon":5.43725,"is_reserved":false,"is_disabled":false,"rental_uris":{"android":"levelo://app?vid=7cd9ad6b-a58e-4972-b179-03b8db60f282","ios":"levelo://app?vid=7cd9ad6b-a58e-4972-b179-03b8db60f282"},"vehicle_type_id":"4","last_reported":1743600060,"current_range_meters":10000,"station_id":"ce4bhmp2rcd13ifvqgog","pricing_plan_id":"cebpf4jnsgd1na2vs0mg"},{"bike_id":"08fa120d-1b7b-45e2-8662-4ad042922a84","system_id":"levelo_inurba_marseille","lat":43.25586,"lon":5.38247,"is_reserved":false,"is_disabled":false,"rental_uris":{"android":"levelo://app?vid=08fa120d-1b7b-45e2-8662-4ad042922a84","ios":"levelo://app?vid=08fa120d-1b7b-45e2-8662-4ad042922a84"},"vehicle_type_id":"4","last_reported":1743600060,"current_range_meters":10000,"station_id":"ce4bhih2rcd13ifvqfs0","pricing_plan_id":"cebpf4jnsgd1na2vs0mg"},{"bike_id":"6e6a66e5-58ca-4db1-9695-b46ed5c28827","system_id":"levelo_inurba_marseille","lat":43.31811,"lon":5.36836,"is_reserved":false,"is_disabled":false,"rental_uris":{"android":"levelo://app?vid=6e6a66e5-58ca-4db1-9695-b46ed5c28827","ios":"levelo://app?vid=6e6a66e5-58ca-4db1-9695-b46ed5c28827"},"vehicle_type_id":"4","last_reported":1743600060,"current_range_meters":10000,"station_id":"","pricing_plan_id":"cebpf4jnsgd1na2vs0mg"},{"bike_id":"e2547813-1e57-47cf-8434-cc888b2a02ee","system_id":"levelo_inurba_marseille","lat":43.30097,"lon":5.39074,"is_reserved":false,"is_disabled":false,"rental_uris":{"android":"levelo://app?vid=e2547813-1e57-47cf-8434-cc888b2a02ee","ios":"levelo://app?vid=e2547813-1e57-47cf-8434-cc888b2a02ee"},"vehicle_type_id":"4","last_reported":1743600060,"current_range_meters":9600,"station_id":"ce4bh192rcd13ifvqdb0","pricing_plan_id":"cebpf4jnsgd1na2vs0mg"},{"bike_id":"d8a1595a-9afa-4c5b-a8ee-e7e465b947db","system_id":"levelo_inurba_marseille","lat":43.31332,"lon":5.37338,"is_reserved":false,"is_disabled":false,"rental_uris":{"android":"levelo://app?vid=d8a1595a-9afa-4c5b-a8ee-e7e465b947db","ios":"levelo://app?vid=d8a1595a-9afa-4c5b-a8ee-e7e465b947db"},"vehicle_type_id":"4","last_reported":1743600060,"current_range_meters":10000,"station_id":"","pricing_plan_id":"cebpf4jnsgd1na2vs0mg"},{"bike_id":"766b7f23-60d4-4781-b6cd-e1bcdccf0575","system_id":"levelo_inurba_marseille","lat":43.25871,"lon":5.39896,"is_reserved":false,"is_disabled":false,"rental_uris":{"android":"levelo://app?vid=766b7f23-60d4-4781-b6cd-e1bcdccf0575","ios":"levelo://app?vid=766b7f23-60d4-4781-b6cd-e1bcdccf0575"},"vehicle_type_id":"4","last_reported":1743600060,"current_range_meters":10000,"station_id":"ce4bhl92rcd13ifvqghg","pricing_plan_id":"cebpf4jnsgd1na2vs0mg"},{"bike_id":"49428efe-bbd8-4963-9aaf-ed822fd5c61b","system_id":"levelo_inurba_marseille","lat":43.29194,"lon":5.44396,"is_reserved":false,"is_disabled":false,"rental_uris":{"android":"levelo://app?vid=49428efe-bbd8-4963-9aaf-ed822fd5c61b","ios":"levelo://app?vid=49428efe-bbd8-4963-9aaf-ed822fd5c61b"},"vehicle_type_id":"4","last_reported":1743600060,"current_range_meters":10000,"station_id":"","pricing_plan_id":"cebpf4jnsgd1na2vs0mg"},{"bike_id":"91477620-d641-4c2b-ae7b-0873715d4e7b","system_id":"levelo_inurba_marseille","lat":43.29078,"lon":5.37157,"is_reserved":false,"is_disabled":false,"rental_uris":{"android":"levelo://app?vid=91477620-d641-4c2b-ae7b-0873715d4e7b","ios":"levelo://app?vid=91477620-d641-4c2b-ae7b-0873715d4e7b"},"vehicle_type_id":"4","last_reported":1743600060,"current_range_meters":10000,"station_id":"ce4bh5p2rcd13ifvqe4g","pricing_plan_id":"cebpf4jnsgd1na2vs0mg"},{"bike_id":"7b7197cb-de94-431f-97d3-81f1524079c9","system_id":"levelo_inurba_marseille","lat":43.24402,"lon":5.3703,"is_reserved":false,"is_disabled":false,"rental_uris":{"android":"levelo://app?vid=7b7197cb-de94-431f-97d3-81f1524079c9","ios":"levelo://app?vid=7b7197cb-de94-431f-97d3-81f1524079c9"},"vehicle_type_id":"4","last_reported":1743600060,"current_range_meters":10000,"station_id":"ce4bhhh2rcd13ifvqfk0","pricing_plan_id":"cebpf4jnsgd1na2vs0mg"},{"bike_id":"b20dbb9e-b68e-440c-80fd-a956bf55bf4d","system_id":"levelo_inurba_marseille","lat":43.31125,"lon":5.37776,"is_reserved":false,"is_disabled":false,"rental_uris":{"android":"levelo://app?vid=b20dbb9e-b68e-440c-80fd-a956bf55bf4d","ios":"levelo://app?vid=b20dbb9e-b68e-440c-80fd-a956bf55bf4d"},"vehicle_type_id":"4","last_reported":1743600060,"current_range_meters":10800,"station_id":"ce4bgt92rcd13ifvqcg0","pricing_plan_id":"cebpf4jnsgd1na2vs0mg"},{"bike_id":"98c8f935-7a5c-4572-a478-49acf29d487d","system_id":"levelo_inurba_marseille","lat":43.24393,"lon":5.37048,"is_reserved":false,"is_disabled":false,"rental_uris":{"android":"levelo://app?vid=98c8f935-7a5c-4572-a478-49acf29d487d","ios":"levelo://app?vid=98c8f935-7a5c-4572-a478-49acf29d487d"},"vehicle_type_id":"4","last_reported":1743600060,"current_range_meters":10800,"station_id":"ce4bhhh2rcd13ifvqfk0","pricing_plan_id":"cebpf4jnsgd1na2vs0mg"},{"bike_id":"fc3640cc-9381-4673-beca-985fad96c21c","system_id":"levelo_inurba_marseille","lat":43.31181,"lon":5.36873,"is_reserved":false,"is_disabled":true,"rental_uris":{"android":"levelo://app?vid=fc3640cc-9381-4673-beca-985fad96c21c","ios":"levelo://app?vid=fc3640cc-9381-4673-beca-985fad96c21c"},"vehicle_type_id":"4","last_reported":1743600060,"current_range_meters":10800,"station_id":"ce4bgl92rcd13ifvqbq0","pricing_plan_id":"cebpf4jnsgd1na2vs0mg"},{"bike_id":"d157a8ac-f1ea-480a-a1ee-9ac00962bb01","system_id":"levelo_inurba_marseille","lat":43.29558,"lon":5.42306,"is_reserved":false,"is_disabled":false,"rental_uris":{"android":"levelo://app?vid=d157a8ac-f1ea-480a-a1ee-9ac00962bb01","ios":"levelo://app?vid=d157a8ac-f1ea-480a-a1ee-9ac00962bb01"},"vehicle_type_id":"4","last_reported":1743600060,"current_range_meters":10800,"station_id":"ce4bhph2rcd13ifvqhdg","pricing_plan_id":"cebpf4jnsgd1na2vs0mg"},{"bike_id":"f87e996c-206a-47d9-8697-84a2d463fdc3","system_id":"levelo_inurba_marseille","lat":43.23193,"lon":5.35572,"is_reserved":false,"is_disabled":false,"rental_uris":{"android":"levelo://app?vid=f87e996c-206a-47d9-8697-84a2d463fdc3","ios":"levelo://app?vid=f87e996c-206a-47d9-8697-84a2d463fdc3"},"vehicle_type_id":"4","last_reported":1743600060,"current_range_meters":10800,"station_id":"ce4bhu92rcd13ifvqi70","pricing_plan_id":"cebpf4jnsgd1na2vs0mg"},{"bike_id":"13874fc4-e916-4702-948c-845c0a8b40f5","system_id":"levelo_inurba_marseille","lat":43.27054,"lon":5.40264,"is_reserved":false,"is_disabled":false,"rental_uris":{"android":"levelo://app?vid=13874fc4-e916-4702-948c-845c0a8b40f5","ios":"levelo://app?vid=13874fc4-e916-4702-948c-845c0a8b40f5"},"vehicle_type_id":"4","last_reported":1743600060,"current_range_meters":10800,"station_id":"ce4bhk92rcd13ifvqgc0","pricing_plan_id":"cebpf4jnsgd1na2vs0mg"},{"bike_id":"f2633860-c0a8-4a91-be4b-c1cbfa13574a","system_id":"levelo_inurba_marseille","lat":43.28607,"lon":5.37062,"is_reserved":false,"is_disabled":false,"rental_uris":{"android":"levelo://app?vid=f2633860-c0a8-4a91-be4b-c1cbfa13574a","ios":"levelo://app?vid=f2633860-c0a8-4a91-be4b-c1cbfa13574a"},"vehicle_type_id":"4","last_reported":1743600060,"current_range_meters":10800,"station_id":"ce4bht12rcd13ifvqi60","pricing_plan_id":"cebpf4jnsgd1na2vs0mg"},{"bike_id":"77fd553e-4cc7-4ee1-b6bc-281f17ec491f","system_id":"levelo_inurba_marseille","lat":43.23163,"lon":5.43697,"is_reserved":false,"is_disabled":false,"rental_uris":{"android":"levelo://app?vid=77fd553e-4cc7-4ee1-b6bc-281f17ec491f","ios":"levelo://app?vid=77fd553e-4cc7-4ee1-b6bc-281f17ec491f"},"vehicle_type_id":"4","last_reported":1743600060,"current_range_meters":10800,"station_id":"ce4bhmp2rcd13ifvqgog","pricing_plan_id":"cebpf4jnsgd1na2vs0mg"},{"bike_id":"dd3db03f-0f43-4986-9ec8-2a76818fb28c","system_id":"levelo_inurba_marseille","lat":43.23208,"lon":5.35542,"is_reserved":false,"is_disabled":false,"rental_uris":{"android":"levelo://app?vid=dd3db03f-0f43-4986-9ec8-2a76818fb28c","ios":"levelo://app?vid=dd3db03f-0f43-4986-9ec8-2a76818fb28c"},"vehicle_type_id":"4","last_reported":1743600060,"current_range_meters":10800,"station_id":"ce4bhu92rcd13ifvqi70","pricing_plan_id":"cebpf4jnsgd1na2vs0mg"},{"bike_id":"c3d811f8-c2e8-4c0b-a3f2-42f68cf8f94c","system_id":"levelo_inurba_marseille","lat":43.23154,"lon":5.43707,"is_reserved":false,"is_disabled":false,"rental_uris":{"android":"levelo://app?vid=c3d811f8-c2e8-4c0b-a3f2-42f68cf8f94c","ios":"levelo://app?vid=c3d811f8-c2e8-4c0b-a3f2-42f68cf8f94c"},"vehicle_type_id":"4","last_reported":1743600060,"current_range_meters":10800,"station_id":"ce4bhmp2rcd13ifvqgog","pricing_plan_id":"cebpf4jnsgd1na2vs0mg"},{"bike_id":"8bc6827b-b28a-40b1-8892-73e8698e4d41","system_id":"levelo_inurba_marseille","lat":43.241727,"lon":5.397033,"is_reserved":false,"is_disabled":false,"rental_uris":{"android":"levelo://app?vid=8bc6827b-b28a-40b1-8892-73e8698e4d41","ios":"levelo://app?vid=8bc6827b-b28a-40b1-8892-73e8698e4d41"},"vehicle_type_id":"4","last_reported":1743600060,"current_range_meters":10800,"station_id":"ce4bhn12rcd13ifvqgpg","pricing_plan_id":"cebpf4jnsgd1na2vs0mg"},{"bike_id":"a6d25717-0db4-4a18-b77c-e49dc99dee91","system_id":"levelo_inurba_marseille","lat":43.25719,"lon":5.41086,"is_reserved":false,"is_disabled":false,"rental_uris":{"android":"levelo://app?vid=a6d25717-0db4-4a18-b77c-e49dc99dee91","ios":"levelo://app?vid=a6d25717-0db4-4a18-b77c-e49dc99dee91"},"vehicle_type_id":"4","last_reported":1743600060,"current_range_meters":10800,"station_id":"ce4bhkp2rcd13ifvqgd0","pricing_plan_id":"cebpf4jnsgd1na2vs0mg"},{"bike_id":"d044cc17-f95d-4c62-8d87-3de8e64b6fe1","system_id":"levelo_inurba_marseille","lat":43.2971,"lon":5.36611,"is_reserved":false,"is_disabled":false,"rental_uris":{"android":"levelo://app?vid=d044cc17-f95d-4c62-8d87-3de8e64b6fe1","ios":"levelo://app?vid=d044cc17-f95d-4c62-8d87-3de8e64b6fe1"},"vehicle_type_id":"4","last_reported":1743600060,"current_range_meters":10800,"station_id":"ce4bgn12rcd13ifvqbt0","pricing_plan_id":"cebpf4jnsgd1na2vs0mg"},{"bike_id":"1d901708-f2b0-4298-b219-881ba909d64b","system_id":"levelo_inurba_marseille","lat":43.30618,"lon":5.37236,"is_reserved":false,"is_disabled":false,"rental_uris":{"android":"levelo://app?vid=1d901708-f2b0-4298-b219-881ba909d64b","ios":"levelo://app?vid=1d901708-f2b0-4298-b219-881ba909d64b"},"vehicle_type_id":"4","last_reported":1743600060,"current_range_meters":10800,"station_id":"ce4bgqh2rcd13ifvqc4g","pricing_plan_id":"cebpf4jnsgd1na2vs0mg"},{"bike_id":"bac5f673-a059-4069-9588-6785a55efb65","system_id":"levelo_inurba_marseille","lat":43.28859,"lon":5.35879,"is_reserved":false,"is_disabled":false,"rental_uris":{"android":"levelo://app?vid=bac5f673-a059-4069-9588-6785a55efb65","ios":"levelo://app?vid=bac5f673-a059-4069-9588-6785a55efb65"},"vehicle_type_id":"4","last_reported":1743600060,"current_range_meters":10800,"station_id":"ce4bhb12rcd13ifvqem0","pricing_plan_id":"cebpf4jnsgd1na2vs0mg"},{"bike_id":"24460289-845f-4b05-bf5e-fc39bc8c3cc0","system_id":"levelo_inurba_marseille","lat":43.23168,"lon":5.4372,"is_reserved":false,"is_disabled":false,"rental_uris":{"android":"levelo://app?vid=24460289-845f-4b05-bf5e-fc39bc8c3cc0","ios":"levelo://app?vid=24460289-845f-4b05-bf5e-fc39bc8c3cc0"},"vehicle_type_id":"4","last_reported":1743600060,"current_range_meters":11200,"station_id":"ce4bhmp2rcd13ifvqgog","pricing_plan_id":"cebpf4jnsgd1na2vs0mg"},{"bike_id":"5e60630a-109f-4d14-94ae-db1907e48750","system_id":"levelo_inurba_marseille","lat":43.28709,"lon":5.39994,"is_reserved":false,"is_disabled":false,"rental_uris":{"android":"levelo://app?vid=5e60630a-109f-4d14-94ae-db1907e48750","ios":"levelo://app?vid=5e60630a-109f-4d14-94ae-db1907e48750"},"vehicle_type_id":"4","last_reported":1743600060,"current_range_meters":10800,"station_id":"ce4bho92rcd13ifvqh3g","pricing_plan_id":"cebpf4jnsgd1na2vs0mg"},{"bike_id":"c1e09bd1-135e-46c4-a253-43b9efe61c0f","system_id":"levelo_inurba_marseille","lat":43.30312,"lon":5.36905,"is_reserved":false,"is_disabled":false,"rental_uris":{"android":"levelo://app?vid=c1e09bd1-135e-46c4-a253-43b9efe61c0f","ios":"levelo://app?vid=c1e09bd1-135e-46c4-a253-43b9efe61c0f"},"vehicle_type_id":"4","last_reported":1743600060,"current_range_meters":11200,"station_id":"ce4bgqh2rcd13ifvqc5g","pricing_plan_id":"cebpf4jnsgd1na2vs0mg"},{"bike_id":"965e46de-0de3-42ba-8cb7-ccddf061140c","system_id":"levelo_inurba_marseille","lat":43.276202,"lon":5.361026,"is_reserved":false,"is_disabled":false,"rental_uris":{"android":"levelo://app?vid=965e46de-0de3-42ba-8cb7-ccddf061140c","ios":"levelo://app?vid=965e46de-0de3-42ba-8cb7-ccddf061140c"},"vehicle_type_id":"4","last_reported":1743600060,"current_range_meters":11200,"station_id":"ce4bgj92rcd13ifvqbe0","pricing_plan_id":"cebpf4jnsgd1na2vs0mg"},{"bike_id":"63366cf1-77a4-45e4-9416-4c71a5ea282e","system_id":"levelo_inurba_marseille","lat":43.27371,"lon":5.36254,"is_reserved":false,"is_disabled":false,"rental_uris":{"android":"levelo://app?vid=63366cf1-77a4-45e4-9416-4c71a5ea282e","ios":"levelo://app?vid=63366cf1-77a4-45e4-9416-4c71a5ea282e"},"vehicle_type_id":"4","last_reported":1743600060,"current_range_meters":11200,"station_id":"ce4bhbh2rcd13ifvqeo0","pricing_plan_id":"cebpf4jnsgd1na2vs0mg"},{"bike_id":"edb86215-befc-49eb-a5c6-423f1eab0144","system_id":"levelo_inurba_marseille","lat":43.26958,"lon":5.38634,"is_reserved":false,"is_disabled":false,"rental_uris":{"android":"levelo://app?vid=edb86215-befc-49eb-a5c6-423f1eab0144","ios":"levelo://app?vid=edb86215-befc-49eb-a5c6-423f1eab0144"},"vehicle_type_id":"4","last_reported":1743600060,"current_range_meters":11200,"station_id":"ce4bhh92rcd13ifvqfh0","pricing_plan_id":"cebpf4jnsgd1na2vs0mg"},{"bike_id":"75dae32f-059a-4b5b-a5e8-963c6eda2f66","system_id":"levelo_inurba_marseille","lat":43.27517,"lon":5.41027,"is_reserved":false,"is_disabled":false,"rental_uris":{"android":"levelo://app?vid=75dae32f-059a-4b5b-a5e8-963c6eda2f66","ios":"levelo://app?vid=75dae32f-059a-4b5b-a5e8-963c6eda2f66"},"vehicle_type_id":"4","last_reported":1743600060,"current_range_meters":11200,"station_id":"","pricing_plan_id":"cebpf4jnsgd1na2vs0mg"},{"bike_id":"1ddefcd5-8127-4bfd-a484-6788715e5d6f","system_id":"levelo_inurba_marseille","lat":43.29527,"lon":5.38534,"is_reserved":false,"is_disabled":false,"rental_uris":{"android":"levelo://app?vid=1ddefcd5-8127-4bfd-a484-6788715e5d6f","ios":"levelo://app?vid=1ddefcd5-8127-4bfd-a484-6788715e5d6f"},"vehicle_type_id":"4","last_reported":1743600060,"current_range_meters":11600,"station_id":"ce4bgih2rcd13ifvqba0","pricing_plan_id":"cebpf4jnsgd1na2vs0mg"},{"bike_id":"92ede284-a424-4578-850d-d15d43a36d6b","system_id":"levelo_inurba_marseille","lat":43.29727,"lon":5.37674,"is_reserved":false,"is_disabled":false,"rental_uris":{"android":"levelo://app?vid=92ede284-a424-4578-850d-d15d43a36d6b","ios":"levelo://app?vid=92ede284-a424-4578-850d-d15d43a36d6b"},"vehicle_type_id":"4","last_reported":1743600060,"current_range_meters":11600,"station_id":"ce4bgkh2rcd13ifvqbl0","pricing_plan_id":"cebpf4jnsgd1na2vs0mg"},{"bike_id":"71744192-c8ee-4ca5-a7d2-2b29d6ebc94c","system_id":"levelo_inurba_marseille","lat":43.31225,"lon":5.36821,"is_reserved":false,"is_disabled":false,"rental_uris":{"android":"levelo://app?vid=71744192-c8ee-4ca5-a7d2-2b29d6ebc94c","ios":"levelo://app?vid=71744192-c8ee-4ca5-a7d2-2b29d6ebc94c"},"vehicle_type_id":"4","last_reported":1743600060,"current_range_meters":11600,"station_id":"ce4bgl92rcd13ifvqbq0","pricing_plan_id":"cebpf4jnsgd1na2vs0mg"},{"bike_id":"2d48cd09-9ee2-4630-8cab-be4140a04965","system_id":"levelo_inurba_marseille","lat":43.2319,"lon":5.35549,"is_reserved":false,"is_disabled":false,"rental_uris":{"android":"levelo://app?vid=2d48cd09-9ee2-4630-8cab-be4140a04965","ios":"levelo://app?vid=2d48cd09-9ee2-4630-8cab-be4140a04965"},"vehicle_type_id":"4","last_reported":1743600060,"current_range_meters":11600,"station_id":"ce4bhu92rcd13ifvqi70","pricing_plan_id":"cebpf4jnsgd1na2vs0mg"},{"bike_id":"b6144d09-6dd1-4ca4-97f5-4ec37918d3dd","system_id":"levelo_inurba_marseille","lat":43.26711,"lon":5.38296,"is_reserved":false,"is_disabled":false,"rental_uris":{"android":"levelo://app?vid=b6144d09-6dd1-4ca4-97f5-4ec37918d3dd","ios":"levelo://app?vid=b6144d09-6dd1-4ca4-97f5-4ec37918d3dd"},"vehicle_type_id":"4","last_reported":1743600060,"current_range_meters":11600,"station_id":"ce4bhg92rcd13ifvqf90","pricing_plan_id":"cebpf4jnsgd1na2vs0mg"},{"bike_id":"af839951-add6-4a70-8ef6-f6ccbe4e4408","system_id":"levelo_inurba_marseille","lat":43.2917,"lon":5.37162,"is_reserved":false,"is_disabled":false,"rental_uris":{"android":"levelo://app?vid=af839951-add6-4a70-8ef6-f6ccbe4e4408","ios":"levelo://app?vid=af839951-add6-4a70-8ef6-f6ccbe4e4408"},"vehicle_type_id":"4","last_reported":1743600060,"current_range_meters":11600,"station_id":"ce4bha92rcd13ifvqeh0","pricing_plan_id":"cebpf4jnsgd1na2vs0mg"},{"bike_id":"b5fa61b4-55c0-4d0f-b518-f0583e71aca3","system_id":"levelo_inurba_marseille","lat":43.2293,"lon":5.35381,"is_reserved":false,"is_disabled":false,"rental_uris":{"android":"levelo://app?vid=b5fa61b4-55c0-4d0f-b518-f0583e71aca3","ios":"levelo://app?vid=b5fa61b4-55c0-4d0f-b518-f0583e71aca3"},"vehicle_type_id":"4","last_reported":1743600060,"current_range_meters":12000,"station_id":"cpo3532slgdg3j2ikp40","pricing_plan_id":"cebpf4jnsgd1na2vs0mg"},{"bike_id":"bd114158-5388-4f2b-a90b-d93bc2e17122","system_id":"levelo_inurba_marseille","lat":43.27372,"lon":5.36254,"is_reserved":false,"is_disabled":false,"rental_uris":{"android":"levelo://app?vid=bd114158-5388-4f2b-a90b-d93bc2e17122","ios":"levelo://app?vid=bd114158-5388-4f2b-a90b-d93bc2e17122"},"vehicle_type_id":"4","last_reported":1743600060,"current_range_meters":12000,"station_id":"ce4bhbh2rcd13ifvqeo0","pricing_plan_id":"cebpf4jnsgd1na2vs0mg"},{"bike_id":"83210b06-540e-4760-b9a4-93867be5795d","system_id":"levelo_inurba_marseille","lat":43.30216,"lon":5.39464,"is_reserved":false,"is_disabled":false,"rental_uris":{"android":"levelo://app?vid=83210b06-540e-4760-b9a4-93867be5795d","ios":"levelo://app?vid=83210b06-540e-4760-b9a4-93867be5795d"},"vehicle_type_id":"4","last_reported":1743600060,"current_range_meters":11600,"station_id":"ce4bh0p2rcd13ifvqd70","pricing_plan_id":"cebpf4jnsgd1na2vs0mg"},{"bike_id":"5e962342-0c46-47c4-92d4-09fdcda0cd16","system_id":"levelo_inurba_marseille","lat":43.29716,"lon":5.37701,"is_reserved":false,"is_disabled":false,"rental_uris":{"android":"levelo://app?vid=5e962342-0c46-47c4-92d4-09fdcda0cd16","ios":"levelo://app?vid=5e962342-0c46-47c4-92d4-09fdcda0cd16"},"vehicle_type_id":"4","last_reported":1743600060,"current_range_meters":12000,"station_id":"ce4bgkh2rcd13ifvqbl0","pricing_plan_id":"cebpf4jnsgd1na2vs0mg"},{"bike_id":"6e8019c4-8b00-4f90-a092-9709644b7601","system_id":"levelo_inurba_marseille","lat":43.2622,"lon":5.37447,"is_reserved":false,"is_disabled":false,"rental_uris":{"android":"levelo://app?vid=6e8019c4-8b00-4f90-a092-9709644b7601","ios":"levelo://app?vid=6e8019c4-8b00-4f90-a092-9709644b7601"},"vehicle_type_id":"4","last_reported":1743600060,"current_range_meters":12000,"station_id":"ce4bhgp2rcd13ifvqfc0","pricing_plan_id":"cebpf4jnsgd1na2vs0mg"},{"bike_id":"5ac00bb8-ceaa-4327-8b40-5ecd6d340223","system_id":"levelo_inurba_marseille","lat":43.27826,"lon":5.40736,"is_reserved":false,"is_disabled":false,"rental_uris":{"android":"levelo://app?vid=5ac00bb8-ceaa-4327-8b40-5ecd6d340223","ios":"levelo://app?vid=5ac00bb8-ceaa-4327-8b40-5ecd6d340223"},"vehicle_type_id":"4","last_reported":1743600060,"current_range_meters":12000,"station_id":"ce4bhnh2rcd13ifvqgtg","pricing_plan_id":"cebpf4jnsgd1na2vs0mg"},{"bike_id":"c2e6881a-04a3-4a38-9cc0-75cacf165e78","system_id":"levelo_inurba_marseille","lat":43.28832,"lon":5.364645,"is_reserved":false,"is_disabled":false,"rental_uris":{"android":"levelo://app?vid=c2e6881a-04a3-4a38-9cc0-75cacf165e78","ios":"levelo://app?vid=c2e6881a-04a3-4a38-9cc0-75cacf165e78"},"vehicle_type_id":"4","last_reported":1743600060,"current_range_meters":12400,"station_id":"","pricing_plan_id":"cebpf4jnsgd1na2vs0mg"},{"bike_id":"7ba67d0a-4dd2-434e-9233-c217be617343","system_id":"levelo_inurba_marseille","lat":43.33781,"lon":5.37431,"is_reserved":false,"is_disabled":false,"rental_uris":{"android":"levelo://app?vid=7ba67d0a-4dd2-434e-9233-c217be617343","ios":"levelo://app?vid=7ba67d0a-4dd2-434e-9233-c217be617343"},"vehicle_type_id":"4","last_reported":1743600060,"current_range_meters":12400,"station_id":"","pricing_plan_id":"cebpf4jnsgd1na2vs0mg"},{"bike_id":"ae19c2b9-a881-4c11-9719-0aa378aa7aab","system_id":"levelo_inurba_marseille","lat":43.27827,"lon":5.40727,"is_reserved":false,"is_disabled":false,"rental_uris":{"android":"levelo://app?vid=ae19c2b9-a881-4c11-9719-0aa378aa7aab","ios":"levelo://app?vid=ae19c2b9-a881-4c11-9719-0aa378aa7aab"},"vehicle_type_id":"4","last_reported":1743600060,"current_range_meters":12400,"station_id":"ce4bhnh2rcd13ifvqgtg","pricing_plan_id":"cebpf4jnsgd1na2vs0mg"},{"bike_id":"b6c83da9-b3c4-4843-9a1d-36871e12515b","system_id":"levelo_inurba_marseille","lat":43.26118,"lon":5.41459,"is_reserved":false,"is_disabled":false,"rental_uris":{"android":"levelo://app?vid=b6c83da9-b3c4-4843-9a1d-36871e12515b","ios":"levelo://app?vid=b6c83da9-b3c4-4843-9a1d-36871e12515b"},"vehicle_type_id":"4","last_reported":1743600060,"current_range_meters":12400,"station_id":"","pricing_plan_id":"cebpf4jnsgd1na2vs0mg"},{"bike_id":"1f8f36ac-0472-4627-9d4c-f4ea00951f66","system_id":"levelo_inurba_marseille","lat":43.27108,"lon":5.36317,"is_reserved":false,"is_disabled":false,"rental_uris":{"android":"levelo://app?vid=1f8f36ac-0472-4627-9d4c-f4ea00951f66","ios":"levelo://app?vid=1f8f36ac-0472-4627-9d4c-f4ea00951f66"},"vehicle_type_id":"4","last_reported":1743600060,"current_range_meters":12400,"station_id":"","pricing_plan_id":"cebpf4jnsgd1na2vs0mg"},{"bike_id":"83bfde50-82cf-4c42-8d9d-325a87deb55c","system_id":"levelo_inurba_marseille","lat":43.31209,"lon":5.36901,"is_reserved":false,"is_disabled":false,"rental_uris":{"android":"levelo://app?vid=83bfde50-82cf-4c42-8d9d-325a87deb55c","ios":"levelo://app?vid=83bfde50-82cf-4c42-8d9d-325a87deb55c"},"vehicle_type_id":"4","last_reported":1743600060,"current_range_meters":12800,"station_id":"ce4bgl92rcd13ifvqbq0","pricing_plan_id":"cebpf4jnsgd1na2vs0mg"},{"bike_id":"729861aa-1528-484e-84bb-77caf23dbba7","system_id":"levelo_inurba_marseille","lat":43.29559,"lon":5.42291,"is_reserved":false,"is_disabled":false,"rental_uris":{"android":"levelo://app?vid=729861aa-1528-484e-84bb-77caf23dbba7","ios":"levelo://app?vid=729861aa-1528-484e-84bb-77caf23dbba7"},"vehicle_type_id":"4","last_reported":1743600060,"current_range_meters":12800,"station_id":"ce4bhph2rcd13ifvqhdg","pricing_plan_id":"cebpf4jnsgd1na2vs0mg"},{"bike_id":"4c5af6eb-9f3a-429a-a9a5-908f23088311","system_id":"levelo_inurba_marseille","lat":43.27373,"lon":5.36264,"is_reserved":false,"is_disabled":false,"rental_uris":{"android":"levelo://app?vid=4c5af6eb-9f3a-429a-a9a5-908f23088311","ios":"levelo://app?vid=4c5af6eb-9f3a-429a-a9a5-908f23088311"},"vehicle_type_id":"4","last_reported":1743600060,"current_range_meters":12800,"station_id":"ce4bhbh2rcd13ifvqeo0","pricing_plan_id":"cebpf4jnsgd1na2vs0mg"},{"bike_id":"84554551-6a42-488e-8a3a-e31132de9d2c","system_id":"levelo_inurba_marseille","lat":43.2315,"lon":5.43724,"is_reserved":false,"is_disabled":false,"rental_uris":{"android":"levelo://app?vid=84554551-6a42-488e-8a3a-e31132de9d2c","ios":"levelo://app?vid=84554551-6a42-488e-8a3a-e31132de9d2c"},"vehicle_type_id":"4","last_reported":1743600060,"current_range_meters":12800,"station_id":"ce4bhmp2rcd13ifvqgog","pricing_plan_id":"cebpf4jnsgd1na2vs0mg"},{"bike_id":"94c723aa-7272-4b4b-b154-1d3a82f1f149","system_id":"levelo_inurba_marseille","lat":43.27063,"lon":5.40263,"is_reserved":false,"is_disabled":false,"rental_uris":{"android":"levelo://app?vid=94c723aa-7272-4b4b-b154-1d3a82f1f149","ios":"levelo://app?vid=94c723aa-7272-4b4b-b154-1d3a82f1f149"},"vehicle_type_id":"4","last_reported":1743600060,"current_range_meters":12800,"station_id":"ce4bhk92rcd13ifvqgc0","pricing_plan_id":"cebpf4jnsgd1na2vs0mg"},{"bike_id":"8ec70021-00f5-422a-928c-5a833c315b05","system_id":"levelo_inurba_marseille","lat":43.23142,"lon":5.43713,"is_reserved":false,"is_disabled":false,"rental_uris":{"android":"levelo://app?vid=8ec70021-00f5-422a-928c-5a833c315b05","ios":"levelo://app?vid=8ec70021-00f5-422a-928c-5a833c315b05"},"vehicle_type_id":"4","last_reported":1743600060,"current_range_meters":12800,"station_id":"ce4bhmp2rcd13ifvqgog","pricing_plan_id":"cebpf4jnsgd1na2vs0mg"},{"bike_id":"adb099cf-52ed-409b-a796-c724fb1ce34d","system_id":"levelo_inurba_marseille","lat":43.23156,"lon":5.43698,"is_reserved":false,"is_disabled":false,"rental_uris":{"android":"levelo://app?vid=adb099cf-52ed-409b-a796-c724fb1ce34d","ios":"levelo://app?vid=adb099cf-52ed-409b-a796-c724fb1ce34d"},"vehicle_type_id":"4","last_reported":1743600060,"current_range_meters":12800,"station_id":"ce4bhmp2rcd13ifvqgog","pricing_plan_id":"cebpf4jnsgd1na2vs0mg"},{"bike_id":"7d49898d-4c6e-4131-9fdb-37de62f2c79c","system_id":"levelo_inurba_marseille","lat":43.28897,"lon":5.37136,"is_reserved":false,"is_disabled":false,"rental_uris":{"android":"levelo://app?vid=7d49898d-4c6e-4131-9fdb-37de62f2c79c","ios":"levelo://app?vid=7d49898d-4c6e-4131-9fdb-37de62f2c79c"},"vehicle_type_id":"4","last_reported":1743600060,"current_range_meters":12800,"station_id":"","pricing_plan_id":"cebpf4jnsgd1na2vs0mg"},{"bike_id":"d4c76052-f524-492d-9d28-fd1fc0ba5322","system_id":"levelo_inurba_marseille","lat":43.25936,"lon":5.40918,"is_reserved":false,"is_disabled":false,"rental_uris":{"android":"levelo://app?vid=d4c76052-f524-492d-9d28-fd1fc0ba5322","ios":"levelo://app?vid=d4c76052-f524-492d-9d28-fd1fc0ba5322"},"vehicle_type_id":"4","last_reported":1743600060,"current_range_meters":12800,"station_id":"ce4bhm92rcd13ifvqglg","pricing_plan_id":"cebpf4jnsgd1na2vs0mg"},{"bike_id":"46572bb1-7848-4cef-adb2-eaf522c7f416","system_id":"levelo_inurba_marseille","lat":43.25923,"lon":5.40869,"is_reserved":false,"is_disabled":false,"rental_uris":{"android":"levelo://app?vid=46572bb1-7848-4cef-adb2-eaf522c7f416","ios":"levelo://app?vid=46572bb1-7848-4cef-adb2-eaf522c7f416"},"vehicle_type_id":"4","last_reported":1743600060,"current_range_meters":12800,"station_id":"ce4bhm92rcd13ifvqglg","pricing_plan_id":"cebpf4jnsgd1na2vs0mg"},{"bike_id":"a2fe2217-cbee-4b94-a5ca-4693c6d37d46","system_id":"levelo_inurba_marseille","lat":43.30279,"lon":5.377101,"is_reserved":false,"is_disabled":false,"rental_uris":{"android":"levelo://app?vid=a2fe2217-cbee-4b94-a5ca-4693c6d37d46","ios":"levelo://app?vid=a2fe2217-cbee-4b94-a5ca-4693c6d37d46"},"vehicle_type_id":"4","last_reported":1743600060,"current_range_meters":12800,"station_id":"ce4bguh2rcd13ifvqcj0","pricing_plan_id":"cebpf4jnsgd1na2vs0mg"},{"bike_id":"97362498-3b16-4b29-b111-2702a908202e","system_id":"levelo_inurba_marseille","lat":43.25584,"lon":5.38237,"is_reserved":false,"is_disabled":false,"rental_uris":{"android":"levelo://app?vid=97362498-3b16-4b29-b111-2702a908202e","ios":"levelo://app?vid=97362498-3b16-4b29-b111-2702a908202e"},"vehicle_type_id":"4","last_reported":1743600060,"current_range_meters":12800,"station_id":"ce4bhih2rcd13ifvqfs0","pricing_plan_id":"cebpf4jnsgd1na2vs0mg"},{"bike_id":"70e5b39f-29e3-4ea9-aa83-5a60a8eec6f8","system_id":"levelo_inurba_marseille","lat":43.25049,"lon":5.41695,"is_reserved":false,"is_disabled":false,"rental_uris":{"android":"levelo://app?vid=70e5b39f-29e3-4ea9-aa83-5a60a8eec6f8","ios":"levelo://app?vid=70e5b39f-29e3-4ea9-aa83-5a60a8eec6f8"},"vehicle_type_id":"4","last_reported":1743600060,"current_range_meters":12800,"station_id":"","pricing_plan_id":"cebpf4jnsgd1na2vs0mg"},{"bike_id":"e1b03b21-5eb0-483c-b4ac-ea8a29304382","system_id":"levelo_inurba_marseille","lat":43.23069,"lon":5.35491,"is_reserved":false,"is_disabled":false,"rental_uris":{"android":"levelo://app?vid=e1b03b21-5eb0-483c-b4ac-ea8a29304382","ios":"levelo://app?vid=e1b03b21-5eb0-483c-b4ac-ea8a29304382"},"vehicle_type_id":"4","last_reported":1743600060,"current_range_meters":13600,"station_id":"cpo3342slgdg3j2ifvpg","pricing_plan_id":"cebpf4jnsgd1na2vs0mg"},{"bike_id":"0e6fa36c-f7a4-4560-b88b-1863d7f6c444","system_id":"levelo_inurba_marseille","lat":43.28157,"lon":5.42646,"is_reserved":false,"is_disabled":false,"rental_uris":{"android":"levelo://app?vid=0e6fa36c-f7a4-4560-b88b-1863d7f6c444","ios":"levelo://app?vid=0e6fa36c-f7a4-4560-b88b-1863d7f6c444"},"vehicle_type_id":"4","last_reported":1743600060,"current_range_meters":13600,"station_id":"ce4bhnh2rcd13ifvqgug","pricing_plan_id":"cebpf4jnsgd1na2vs0mg"},{"bike_id":"0cadffe9-cfd5-4589-82c9-c8914f1c2cba","system_id":"levelo_inurba_marseille","lat":43.28666,"lon":5.36363,"is_reserved":false,"is_disabled":false,"rental_uris":{"android":"levelo://app?vid=0cadffe9-cfd5-4589-82c9-c8914f1c2cba","ios":"levelo://app?vid=0cadffe9-cfd5-4589-82c9-c8914f1c2cba"},"vehicle_type_id":"4","last_reported":1743600060,"current_range_meters":13600,"station_id":"ce4bhah2rcd13ifvqej0","pricing_plan_id":"cebpf4jnsgd1na2vs0mg"},{"bike_id":"6d707f1b-ffbb-4313-9ff5-19c6f63aad43","system_id":"levelo_inurba_marseille","lat":43.24648,"lon":5.38898,"is_reserved":false,"is_disabled":false,"rental_uris":{"android":"levelo://app?vid=6d707f1b-ffbb-4313-9ff5-19c6f63aad43","ios":"levelo://app?vid=6d707f1b-ffbb-4313-9ff5-19c6f63aad43"},"vehicle_type_id":"4","last_reported":1743600060,"current_range_meters":13600,"station_id":"ce4bhg12rcd13ifvqf60","pricing_plan_id":"cebpf4jnsgd1na2vs0mg"},{"bike_id":"1925d2eb-79cc-4495-ac55-0d86108c91ee","system_id":"levelo_inurba_marseille","lat":43.23784,"lon":5.39608,"is_reserved":false,"is_disabled":false,"rental_uris":{"android":"levelo://app?vid=1925d2eb-79cc-4495-ac55-0d86108c91ee","ios":"levelo://app?vid=1925d2eb-79cc-4495-ac55-0d86108c91ee"},"vehicle_type_id":"4","last_reported":1743600060,"current_range_meters":13600,"station_id":"","pricing_plan_id":"cebpf4jnsgd1na2vs0mg"},{"bike_id":"ddf4f7bc-b429-4ca6-98cc-3ac180d0ed5f","system_id":"levelo_inurba_marseille","lat":43.23198,"lon":5.35573,"is_reserved":false,"is_disabled":false,"rental_uris":{"android":"levelo://app?vid=ddf4f7bc-b429-4ca6-98cc-3ac180d0ed5f","ios":"levelo://app?vid=ddf4f7bc-b429-4ca6-98cc-3ac180d0ed5f"},"vehicle_type_id":"4","last_reported":1743600060,"current_range_meters":13600,"station_id":"ce4bhu92rcd13ifvqi70","pricing_plan_id":"cebpf4jnsgd1na2vs0mg"},{"bike_id":"3026be77-df9c-4a4a-83d6-132b5a38a0dc","system_id":"levelo_inurba_marseille","lat":43.23192,"lon":5.39987,"is_reserved":false,"is_disabled":false,"rental_uris":{"android":"levelo://app?vid=3026be77-df9c-4a4a-83d6-132b5a38a0dc","ios":"levelo://app?vid=3026be77-df9c-4a4a-83d6-132b5a38a0dc"},"vehicle_type_id":"4","last_reported":1743600060,"current_range_meters":13600,"station_id":"ce4bhn12rcd13ifvqgqg","pricing_plan_id":"cebpf4jnsgd1na2vs0mg"},{"bike_id":"72e319cf-2ef8-44ab-a514-901819391099","system_id":"levelo_inurba_marseille","lat":43.29418,"lon":5.38625,"is_reserved":false,"is_disabled":false,"rental_uris":{"android":"levelo://app?vid=72e319cf-2ef8-44ab-a514-901819391099","ios":"levelo://app?vid=72e319cf-2ef8-44ab-a514-901819391099"},"vehicle_type_id":"4","last_reported":1743600060,"current_range_meters":14000,"station_id":"ce4bh2h2rcd13ifvqdh0","pricing_plan_id":"cebpf4jnsgd1na2vs0mg"},{"bike_id":"cd83c8ac-ed09-4369-9279-b6f36f2bbd3c","system_id":"levelo_inurba_marseille","lat":43.30809,"lon":5.38248,"is_reserved":false,"is_disabled":false,"rental_uris":{"android":"levelo://app?vid=cd83c8ac-ed09-4369-9279-b6f36f2bbd3c","ios":"levelo://app?vid=cd83c8ac-ed09-4369-9279-b6f36f2bbd3c"},"vehicle_type_id":"4","last_reported":1743600060,"current_range_meters":14000,"station_id":"","pricing_plan_id":"cebpf4jnsgd1na2vs0mg"},{"bike_id":"1a592dd4-05f6-451a-a281-45bcd19f68ca","system_id":"levelo_inurba_marseille","lat":43.23206,"lon":5.39989,"is_reserved":false,"is_disabled":false,"rental_uris":{"android":"levelo://app?vid=1a592dd4-05f6-451a-a281-45bcd19f68ca","ios":"levelo://app?vid=1a592dd4-05f6-451a-a281-45bcd19f68ca"},"vehicle_type_id":"4","last_reported":1743600060,"current_range_meters":14000,"station_id":"ce4bhn12rcd13ifvqgqg","pricing_plan_id":"cebpf4jnsgd1na2vs0mg"},{"bike_id":"dca14f47-b094-4cce-ba90-bea8bb55c73e","system_id":"levelo_inurba_marseille","lat":43.29254,"lon":5.37618,"is_reserved":false,"is_disabled":false,"rental_uris":{"android":"levelo://app?vid=dca14f47-b094-4cce-ba90-bea8bb55c73e","ios":"levelo://app?vid=dca14f47-b094-4cce-ba90-bea8bb55c73e"},"vehicle_type_id":"4","last_reported":1743600060,"current_range_meters":14000,"station_id":"ce4bgi12rcd13ifvqb80","pricing_plan_id":"cebpf4jnsgd1na2vs0mg"},{"bike_id":"eca000f3-7adb-462c-b7ed-61fb5b2098fc","system_id":"levelo_inurba_marseille","lat":43.2294,"lon":5.35359,"is_reserved":false,"is_disabled":false,"rental_uris":{"android":"levelo://app?vid=eca000f3-7adb-462c-b7ed-61fb5b2098fc","ios":"levelo://app?vid=eca000f3-7adb-462c-b7ed-61fb5b2098fc"},"vehicle_type_id":"4","last_reported":1743600060,"current_range_meters":14000,"station_id":"cpo3532slgdg3j2ikp40","pricing_plan_id":"cebpf4jnsgd1na2vs0mg"},{"bike_id":"18b33a43-8113-4d0f-b40c-6a7201a04dd5","system_id":"levelo_inurba_marseille","lat":43.32367,"lon":5.36773,"is_reserved":false,"is_disabled":false,"rental_uris":{"android":"levelo://app?vid=18b33a43-8113-4d0f-b40c-6a7201a04dd5","ios":"levelo://app?vid=18b33a43-8113-4d0f-b40c-6a7201a04dd5"},"vehicle_type_id":"4","last_reported":1743600060,"current_range_meters":14000,"station_id":"ce4bhsh2rcd13ifvqi2g","pricing_plan_id":"cebpf4jnsgd1na2vs0mg"},{"bike_id":"8a8a31aa-1da1-4397-8b92-23194ce84a3a","system_id":"levelo_inurba_marseille","lat":43.30307,"lon":5.392,"is_reserved":false,"is_disabled":false,"rental_uris":{"android":"levelo://app?vid=8a8a31aa-1da1-4397-8b92-23194ce84a3a","ios":"levelo://app?vid=8a8a31aa-1da1-4397-8b92-23194ce84a3a"},"vehicle_type_id":"4","last_reported":1743600060,"current_range_meters":14000,"station_id":"ce4bgkh2rcd13ifvqbk0","pricing_plan_id":"cebpf4jnsgd1na2vs0mg"},{"bike_id":"775d0ce1-435a-48b4-8d35-88dec7789e8b","system_id":"levelo_inurba_marseille","lat":43.2862,"lon":5.35111,"is_reserved":false,"is_disabled":false,"rental_uris":{"android":"levelo://app?vid=775d0ce1-435a-48b4-8d35-88dec7789e8b","ios":"levelo://app?vid=775d0ce1-435a-48b4-8d35-88dec7789e8b"},"vehicle_type_id":"4","last_reported":1743600060,"current_range_meters":14400,"station_id":"ce4bhch2rcd13ifvqeug","pricing_plan_id":"cebpf4jnsgd1na2vs0mg"},{"bike_id":"975747b7-7f2c-416a-a73b-009266193c94","system_id":"levelo_inurba_marseille","lat":43.25735,"lon":5.41106,"is_reserved":false,"is_disabled":false,"rental_uris":{"android":"levelo://app?vid=975747b7-7f2c-416a-a73b-009266193c94","ios":"levelo://app?vid=975747b7-7f2c-416a-a73b-009266193c94"},"vehicle_type_id":"4","last_reported":1743600060,"current_range_meters":14400,"station_id":"ce4bhkp2rcd13ifvqgd0","pricing_plan_id":"cebpf4jnsgd1na2vs0mg"},{"bike_id":"c97c18e2-80ba-45fb-8944-918f985d8a47","system_id":"levelo_inurba_marseille","lat":43.24994,"lon":5.38934,"is_reserved":false,"is_disabled":false,"rental_uris":{"android":"levelo://app?vid=c97c18e2-80ba-45fb-8944-918f985d8a47","ios":"levelo://app?vid=c97c18e2-80ba-45fb-8944-918f985d8a47"},"vehicle_type_id":"4","last_reported":1743600060,"current_range_meters":14400,"station_id":"ce4bhgp2rcd13ifvqfd0","pricing_plan_id":"cebpf4jnsgd1na2vs0mg"},{"bike_id":"6e05811e-06e7-4304-8ce9-6c25e6bc01dd","system_id":"levelo_inurba_marseille","lat":43.32128,"lon":5.36769,"is_reserved":false,"is_disabled":false,"rental_uris":{"android":"levelo://app?vid=6e05811e-06e7-4304-8ce9-6c25e6bc01dd","ios":"levelo://app?vid=6e05811e-06e7-4304-8ce9-6c25e6bc01dd"},"vehicle_type_id":"4","last_reported":1743600060,"current_range_meters":14400,"station_id":"ce4bhrh2rcd13ifvqhug","pricing_plan_id":"cebpf4jnsgd1na2vs0mg"},{"bike_id":"deb0a700-6a26-4fbc-ab72-e0723dfb1d1c","system_id":"levelo_inurba_marseille","lat":43.323386,"lon":5.406229,"is_reserved":false,"is_disabled":false,"rental_uris":{"android":"levelo://app?vid=deb0a700-6a26-4fbc-ab72-e0723dfb1d1c","ios":"levelo://app?vid=deb0a700-6a26-4fbc-ab72-e0723dfb1d1c"},"vehicle_type_id":"4","last_reported":1743600060,"current_range_meters":19200,"station_id":"ce4bhq92rcd13ifvqhjg","pricing_plan_id":"cebpf4jnsgd1na2vs0mg"},{"bike_id":"95988b65-96aa-4a50-9404-d42c2ea53d5c","system_id":"levelo_inurba_marseille","lat":43.270548,"lon":5.402665,"is_reserved":false,"is_disabled":false,"rental_uris":{"android":"levelo://app?vid=95988b65-96aa-4a50-9404-d42c2ea53d5c","ios":"levelo://app?vid=95988b65-96aa-4a50-9404-d42c2ea53d5c"},"vehicle_type_id":"4","last_reported":1743600060,"current_range_meters":14400,"station_id":"ce4bhk92rcd13ifvqgc0","pricing_plan_id":"cebpf4jnsgd1na2vs0mg"},{"bike_id":"dc82e7cc-fca9-407e-94b1-12a4b04232c9","system_id":"levelo_inurba_marseille","lat":43.28729,"lon":5.39996,"is_reserved":false,"is_disabled":true,"rental_uris":{"android":"levelo://app?vid=dc82e7cc-fca9-407e-94b1-12a4b04232c9","ios":"levelo://app?vid=dc82e7cc-fca9-407e-94b1-12a4b04232c9"},"vehicle_type_id":"4","last_reported":1743600060,"current_range_meters":14400,"station_id":"ce4bho92rcd13ifvqh3g","pricing_plan_id":"cebpf4jnsgd1na2vs0mg"},{"bike_id":"315b043a-e448-4a49-a6d7-b30a3f3bfd3d","system_id":"levelo_inurba_marseille","lat":43.2307,"lon":5.35491,"is_reserved":false,"is_disabled":false,"rental_uris":{"android":"levelo://app?vid=315b043a-e448-4a49-a6d7-b30a3f3bfd3d","ios":"levelo://app?vid=315b043a-e448-4a49-a6d7-b30a3f3bfd3d"},"vehicle_type_id":"4","last_reported":1743600060,"current_range_meters":14400,"station_id":"cpo3342slgdg3j2ifvpg","pricing_plan_id":"cebpf4jnsgd1na2vs0mg"},{"bike_id":"25c9658d-dbe5-41d5-995d-bf11c21609f3","system_id":"levelo_inurba_marseille","lat":43.29017,"lon":5.38138,"is_reserved":false,"is_disabled":false,"rental_uris":{"android":"levelo://app?vid=25c9658d-dbe5-41d5-995d-bf11c21609f3","ios":"levelo://app?vid=25c9658d-dbe5-41d5-995d-bf11c21609f3"},"vehicle_type_id":"4","last_reported":1743600060,"current_range_meters":14400,"station_id":"ce4bh4p2rcd13ifvqe1g","pricing_plan_id":"cebpf4jnsgd1na2vs0mg"},{"bike_id":"9f62f29e-b083-4314-9e82-a49e79ecd17d","system_id":"levelo_inurba_marseille","lat":43.22939,"lon":5.35395,"is_reserved":false,"is_disabled":false,"rental_uris":{"android":"levelo://app?vid=9f62f29e-b083-4314-9e82-a49e79ecd17d","ios":"levelo://app?vid=9f62f29e-b083-4314-9e82-a49e79ecd17d"},"vehicle_type_id":"4","last_reported":1743600060,"current_range_meters":14400,"station_id":"cpo3532slgdg3j2ikp40","pricing_plan_id":"cebpf4jnsgd1na2vs0mg"},{"bike_id":"751302ab-aa24-4c0e-8d30-7c4e96e265f3","system_id":"levelo_inurba_marseille","lat":43.24678,"lon":5.38143,"is_reserved":false,"is_disabled":false,"rental_uris":{"android":"levelo://app?vid=751302ab-aa24-4c0e-8d30-7c4e96e265f3","ios":"levelo://app?vid=751302ab-aa24-4c0e-8d30-7c4e96e265f3"},"vehicle_type_id":"4","last_reported":1743600060,"current_range_meters":14800,"station_id":"ce4bhih2rcd13ifvqfr0","pricing_plan_id":"cebpf4jnsgd1na2vs0mg"},{"bike_id":"1899bcf3-e4cf-48ff-bcda-ecb1787add20","system_id":"levelo_inurba_marseille","lat":43.3044,"lon":5.39748,"is_reserved":false,"is_disabled":false,"rental_uris":{"android":"levelo://app?vid=1899bcf3-e4cf-48ff-bcda-ecb1787add20","ios":"levelo://app?vid=1899bcf3-e4cf-48ff-bcda-ecb1787add20"},"vehicle_type_id":"4","last_reported":1743600060,"current_range_meters":14800,"station_id":"ce4bh092rcd13ifvqd20","pricing_plan_id":"cebpf4jnsgd1na2vs0mg"},{"bike_id":"37af867e-49d5-4a6e-a463-bee13bfd6247","system_id":"levelo_inurba_marseille","lat":43.2834,"lon":5.38092,"is_reserved":false,"is_disabled":false,"rental_uris":{"android":"levelo://app?vid=37af867e-49d5-4a6e-a463-bee13bfd6247","ios":"levelo://app?vid=37af867e-49d5-4a6e-a463-bee13bfd6247"},"vehicle_type_id":"4","last_reported":1743600060,"current_range_meters":14400,"station_id":"ce4bh412rcd13ifvqdr0","pricing_plan_id":"cebpf4jnsgd1na2vs0mg"},{"bike_id":"0d990769-40d3-47a1-a2d3-4c086904d825","system_id":"levelo_inurba_marseille","lat":43.295315,"lon":5.390363,"is_reserved":false,"is_disabled":false,"rental_uris":{"android":"levelo://app?vid=0d990769-40d3-47a1-a2d3-4c086904d825","ios":"levelo://app?vid=0d990769-40d3-47a1-a2d3-4c086904d825"},"vehicle_type_id":"4","last_reported":1743600060,"current_range_meters":14800,"station_id":"ce4bh3p2rcd13ifvqdp0","pricing_plan_id":"cebpf4jnsgd1na2vs0mg"},{"bike_id":"87610366-df68-46f8-9ddf-c69324fafc23","system_id":"levelo_inurba_marseille","lat":43.30461,"lon":5.37917,"is_reserved":false,"is_disabled":false,"rental_uris":{"android":"levelo://app?vid=87610366-df68-46f8-9ddf-c69324fafc23","ios":"levelo://app?vid=87610366-df68-46f8-9ddf-c69324fafc23"},"vehicle_type_id":"4","last_reported":1743600060,"current_range_meters":14800,"station_id":"ce4bgup2rcd13ifvqcn0","pricing_plan_id":"cebpf4jnsgd1na2vs0mg"},{"bike_id":"c78899e1-3744-4f4e-bc7a-9f94f83668cb","system_id":"levelo_inurba_marseille","lat":43.2694,"lon":5.40248,"is_reserved":false,"is_disabled":false,"rental_uris":{"android":"levelo://app?vid=c78899e1-3744-4f4e-bc7a-9f94f83668cb","ios":"levelo://app?vid=c78899e1-3744-4f4e-bc7a-9f94f83668cb"},"vehicle_type_id":"4","last_reported":1743600060,"current_range_meters":14800,"station_id":"cjm6bp8fraef2m0cb0m0","pricing_plan_id":"cebpf4jnsgd1na2vs0mg"},{"bike_id":"a1566f65-7974-4adb-bc5b-c64d03a44f23","system_id":"levelo_inurba_marseille","lat":43.25007,"lon":5.3894,"is_reserved":false,"is_disabled":false,"rental_uris":{"android":"levelo://app?vid=a1566f65-7974-4adb-bc5b-c64d03a44f23","ios":"levelo://app?vid=a1566f65-7974-4adb-bc5b-c64d03a44f23"},"vehicle_type_id":"4","last_reported":1743600060,"current_range_meters":15200,"station_id":"ce4bhgp2rcd13ifvqfd0","pricing_plan_id":"cebpf4jnsgd1na2vs0mg"},{"bike_id":"62a0631e-546d-40b2-a063-9ddec04e2276","system_id":"levelo_inurba_marseille","lat":43.32107,"lon":5.3679,"is_reserved":false,"is_disabled":false,"rental_uris":{"android":"levelo://app?vid=62a0631e-546d-40b2-a063-9ddec04e2276","ios":"levelo://app?vid=62a0631e-546d-40b2-a063-9ddec04e2276"},"vehicle_type_id":"4","last_reported":1743600060,"current_range_meters":15200,"station_id":"ce4bhrh2rcd13ifvqhug","pricing_plan_id":"cebpf4jnsgd1na2vs0mg"},{"bike_id":"af1eb195-7b62-49b6-8333-a22bc59eb988","system_id":"levelo_inurba_marseille","lat":43.30529,"lon":5.36566,"is_reserved":false,"is_disabled":false,"rental_uris":{"android":"levelo://app?vid=af1eb195-7b62-49b6-8333-a22bc59eb988","ios":"levelo://app?vid=af1eb195-7b62-49b6-8333-a22bc59eb988"},"vehicle_type_id":"4","last_reported":1743600060,"current_range_meters":15200,"station_id":"ce4bgs12rcd13ifvqcag","pricing_plan_id":"cebpf4jnsgd1na2vs0mg"},{"bike_id":"e95eecce-1718-4f97-8361-45feee56c642","system_id":"levelo_inurba_marseille","lat":43.24082,"lon":5.37744,"is_reserved":false,"is_disabled":false,"rental_uris":{"android":"levelo://app?vid=e95eecce-1718-4f97-8361-45feee56c642","ios":"levelo://app?vid=e95eecce-1718-4f97-8361-45feee56c642"},"vehicle_type_id":"4","last_reported":1743600060,"current_range_meters":15200,"station_id":"ce4bhnp2rcd13ifvqgvg","pricing_plan_id":"cebpf4jnsgd1na2vs0mg"},{"bike_id":"94ce65fd-4b4a-4349-b21d-580fec8fa1c1","system_id":"levelo_inurba_marseille","lat":43.25943,"lon":5.40882,"is_reserved":false,"is_disabled":false,"rental_uris":{"android":"levelo://app?vid=94ce65fd-4b4a-4349-b21d-580fec8fa1c1","ios":"levelo://app?vid=94ce65fd-4b4a-4349-b21d-580fec8fa1c1"},"vehicle_type_id":"4","last_reported":1743600060,"current_range_meters":16000,"station_id":"ce4bhm92rcd13ifvqglg","pricing_plan_id":"cebpf4jnsgd1na2vs0mg"},{"bike_id":"fbccc0e7-f38b-41da-9f9e-88d10c9aebcc","system_id":"levelo_inurba_marseille","lat":43.29918,"lon":5.37466,"is_reserved":false,"is_disabled":false,"rental_uris":{"android":"levelo://app?vid=fbccc0e7-f38b-41da-9f9e-88d10c9aebcc","ios":"levelo://app?vid=fbccc0e7-f38b-41da-9f9e-88d10c9aebcc"},"vehicle_type_id":"4","last_reported":1743600060,"current_range_meters":15200,"station_id":"ce4bgjh2rcd13ifvqbg0","pricing_plan_id":"cebpf4jnsgd1na2vs0mg"},{"bike_id":"50a1e947-fcd8-4f74-9976-b7f14f40b7e8","system_id":"levelo_inurba_marseille","lat":43.29421,"lon":5.38624,"is_reserved":false,"is_disabled":false,"rental_uris":{"android":"levelo://app?vid=50a1e947-fcd8-4f74-9976-b7f14f40b7e8","ios":"levelo://app?vid=50a1e947-fcd8-4f74-9976-b7f14f40b7e8"},"vehicle_type_id":"4","last_reported":1743600060,"current_range_meters":16000,"station_id":"ce4bh2h2rcd13ifvqdh0","pricing_plan_id":"cebpf4jnsgd1na2vs0mg"},{"bike_id":"22d47046-8bb1-41ae-9bb4-96eb088b2e63","system_id":"levelo_inurba_marseille","lat":43.32108,"lon":5.36794,"is_reserved":false,"is_disabled":false,"rental_uris":{"android":"levelo://app?vid=22d47046-8bb1-41ae-9bb4-96eb088b2e63","ios":"levelo://app?vid=22d47046-8bb1-41ae-9bb4-96eb088b2e63"},"vehicle_type_id":"4","last_reported":1743600060,"current_range_meters":16000,"station_id":"ce4bhrh2rcd13ifvqhug","pricing_plan_id":"cebpf4jnsgd1na2vs0mg"},{"bike_id":"0641ede5-9151-4eb1-8612-a0c72c9a6c28","system_id":"levelo_inurba_marseille","lat":43.30465,"lon":5.37906,"is_reserved":false,"is_disabled":false,"rental_uris":{"android":"levelo://app?vid=0641ede5-9151-4eb1-8612-a0c72c9a6c28","ios":"levelo://app?vid=0641ede5-9151-4eb1-8612-a0c72c9a6c28"},"vehicle_type_id":"4","last_reported":1743600060,"current_range_meters":16000,"station_id":"ce4bgup2rcd13ifvqcn0","pricing_plan_id":"cebpf4jnsgd1na2vs0mg"},{"bike_id":"97aa5e6f-e45b-4e21-a47e-52761ee9cdb1","system_id":"levelo_inurba_marseille","lat":43.32055,"lon":5.36792,"is_reserved":false,"is_disabled":false,"rental_uris":{"android":"levelo://app?vid=97aa5e6f-e45b-4e21-a47e-52761ee9cdb1","ios":"levelo://app?vid=97aa5e6f-e45b-4e21-a47e-52761ee9cdb1"},"vehicle_type_id":"4","last_reported":1743600060,"current_range_meters":16000,"station_id":"ce4bhrh2rcd13ifvqhug","pricing_plan_id":"cebpf4jnsgd1na2vs0mg"},{"bike_id":"db4f2fea-dd78-4839-8016-eeab270922ec","system_id":"levelo_inurba_marseille","lat":43.23157,"lon":5.43707,"is_reserved":false,"is_disabled":true,"rental_uris":{"android":"levelo://app?vid=db4f2fea-dd78-4839-8016-eeab270922ec","ios":"levelo://app?vid=db4f2fea-dd78-4839-8016-eeab270922ec"},"vehicle_type_id":"4","last_reported":1743600060,"current_range_meters":16000,"station_id":"ce4bhmp2rcd13ifvqgog","pricing_plan_id":"cebpf4jnsgd1na2vs0mg"},{"bike_id":"b86b5b87-f029-48ac-aa00-3a50d7e2c1d2","system_id":"levelo_inurba_marseille","lat":43.32365,"lon":5.36757,"is_reserved":false,"is_disabled":true,"rental_uris":{"android":"levelo://app?vid=b86b5b87-f029-48ac-aa00-3a50d7e2c1d2","ios":"levelo://app?vid=b86b5b87-f029-48ac-aa00-3a50d7e2c1d2"},"vehicle_type_id":"4","last_reported":1743600060,"current_range_meters":16000,"station_id":"ce4bhsh2rcd13ifvqi2g","pricing_plan_id":"cebpf4jnsgd1na2vs0mg"},{"bike_id":"010ff397-c0d4-49b6-ae9d-c5c094fbc4c7","system_id":"levelo_inurba_marseille","lat":43.295227,"lon":5.385195,"is_reserved":false,"is_disabled":false,"rental_uris":{"android":"levelo://app?vid=010ff397-c0d4-49b6-ae9d-c5c094fbc4c7","ios":"levelo://app?vid=010ff397-c0d4-49b6-ae9d-c5c094fbc4c7"},"vehicle_type_id":"4","last_reported":1743600060,"current_range_meters":16000,"station_id":"","pricing_plan_id":"cebpf4jnsgd1na2vs0mg"},{"bike_id":"9ca4e7c8-7841-4a75-a3f8-5aa29e8e174c","system_id":"levelo_inurba_marseille","lat":43.29915,"lon":5.37469,"is_reserved":false,"is_disabled":false,"rental_uris":{"android":"levelo://app?vid=9ca4e7c8-7841-4a75-a3f8-5aa29e8e174c","ios":"levelo://app?vid=9ca4e7c8-7841-4a75-a3f8-5aa29e8e174c"},"vehicle_type_id":"4","last_reported":1743600060,"current_range_meters":16000,"station_id":"ce4bgjh2rcd13ifvqbg0","pricing_plan_id":"cebpf4jnsgd1na2vs0mg"},{"bike_id":"aa6eb6e5-54e5-4685-95e1-a7038d2da636","system_id":"levelo_inurba_marseille","lat":43.22936,"lon":5.35388,"is_reserved":false,"is_disabled":false,"rental_uris":{"android":"levelo://app?vid=aa6eb6e5-54e5-4685-95e1-a7038d2da636","ios":"levelo://app?vid=aa6eb6e5-54e5-4685-95e1-a7038d2da636"},"vehicle_type_id":"4","last_reported":1743600060,"current_range_meters":16000,"station_id":"cpo3532slgdg3j2ikp40","pricing_plan_id":"cebpf4jnsgd1na2vs0mg"},{"bike_id":"156b61ff-bc4f-42b8-b87c-dbd1ae23923e","system_id":"levelo_inurba_marseille","lat":43.29901,"lon":5.43656,"is_reserved":false,"is_disabled":false,"rental_uris":{"android":"levelo://app?vid=156b61ff-bc4f-42b8-b87c-dbd1ae23923e","ios":"levelo://app?vid=156b61ff-bc4f-42b8-b87c-dbd1ae23923e"},"vehicle_type_id":"4","last_reported":1743600060,"current_range_meters":16400,"station_id":"ce4bhpp2rcd13ifvqhfg","pricing_plan_id":"cebpf4jnsgd1na2vs0mg"},{"bike_id":"a4fae94b-5b43-4304-a3d0-ccdcba5e455f","system_id":"levelo_inurba_marseille","lat":43.30801,"lon":5.43508,"is_reserved":false,"is_disabled":false,"rental_uris":{"android":"levelo://app?vid=a4fae94b-5b43-4304-a3d0-ccdcba5e455f","ios":"levelo://app?vid=a4fae94b-5b43-4304-a3d0-ccdcba5e455f"},"vehicle_type_id":"4","last_reported":1743600060,"current_range_meters":16400,"station_id":"ce4bhph2rcd13ifvqheg","pricing_plan_id":"cebpf4jnsgd1na2vs0mg"},{"bike_id":"6fd15896-5697-470b-8f07-45b11106795c","system_id":"levelo_inurba_marseille","lat":43.3211,"lon":5.36798,"is_reserved":false,"is_disabled":false,"rental_uris":{"android":"levelo://app?vid=6fd15896-5697-470b-8f07-45b11106795c","ios":"levelo://app?vid=6fd15896-5697-470b-8f07-45b11106795c"},"vehicle_type_id":"4","last_reported":1743600060,"current_range_meters":16400,"station_id":"ce4bhrh2rcd13ifvqhug","pricing_plan_id":"cebpf4jnsgd1na2vs0mg"},{"bike_id":"e3a29d38-a611-4b12-87ef-2fb8a21c41d5","system_id":"levelo_inurba_marseille","lat":43.22939,"lon":5.35372,"is_reserved":false,"is_disabled":false,"rental_uris":{"android":"levelo://app?vid=e3a29d38-a611-4b12-87ef-2fb8a21c41d5","ios":"levelo://app?vid=e3a29d38-a611-4b12-87ef-2fb8a21c41d5"},"vehicle_type_id":"4","last_reported":1743600060,"current_range_meters":16400,"station_id":"cpo3532slgdg3j2ikp40","pricing_plan_id":"cebpf4jnsgd1na2vs0mg"},{"bike_id":"78ca934a-98c9-4dbc-b5b6-c2ca906050d2","system_id":"levelo_inurba_marseille","lat":43.29745,"lon":5.38942,"is_reserved":false,"is_disabled":false,"rental_uris":{"android":"levelo://app?vid=78ca934a-98c9-4dbc-b5b6-c2ca906050d2","ios":"levelo://app?vid=78ca934a-98c9-4dbc-b5b6-c2ca906050d2"},"vehicle_type_id":"4","last_reported":1743600060,"current_range_meters":16400,"station_id":"","pricing_plan_id":"cebpf4jnsgd1na2vs0mg"},{"bike_id":"e6f02e74-383c-4bae-b8c4-037430863270","system_id":"levelo_inurba_marseille","lat":43.23064,"lon":5.35485,"is_reserved":false,"is_disabled":false,"rental_uris":{"android":"levelo://app?vid=e6f02e74-383c-4bae-b8c4-037430863270","ios":"levelo://app?vid=e6f02e74-383c-4bae-b8c4-037430863270"},"vehicle_type_id":"4","last_reported":1743600060,"current_range_meters":16400,"station_id":"cpo3342slgdg3j2ifvpg","pricing_plan_id":"cebpf4jnsgd1na2vs0mg"},{"bike_id":"c1c63035-c83b-4419-8cbf-133778d95125","system_id":"levelo_inurba_marseille","lat":43.297919,"lon":5.393585,"is_reserved":false,"is_disabled":true,"rental_uris":{"android":"levelo://app?vid=c1c63035-c83b-4419-8cbf-133778d95125","ios":"levelo://app?vid=c1c63035-c83b-4419-8cbf-133778d95125"},"vehicle_type_id":"4","last_reported":1743600060,"current_range_meters":16400,"station_id":"chh1huq6cuj3fo74tm60","pricing_plan_id":"cebpf4jnsgd1na2vs0mg"},{"bike_id":"66e46067-3e6b-4a8c-95bd-25fc31de1db8","system_id":"levelo_inurba_marseille","lat":43.28608,"lon":5.37082,"is_reserved":false,"is_disabled":false,"rental_uris":{"android":"levelo://app?vid=66e46067-3e6b-4a8c-95bd-25fc31de1db8","ios":"levelo://app?vid=66e46067-3e6b-4a8c-95bd-25fc31de1db8"},"vehicle_type_id":"4","last_reported":1743600060,"current_range_meters":16400,"station_id":"ce4bht12rcd13ifvqi60","pricing_plan_id":"cebpf4jnsgd1na2vs0mg"},{"bike_id":"363a7b05-0607-416d-9b1c-2318b784465a","system_id":"levelo_inurba_marseille","lat":43.2681,"lon":5.39429,"is_reserved":false,"is_disabled":false,"rental_uris":{"android":"levelo://app?vid=363a7b05-0607-416d-9b1c-2318b784465a","ios":"levelo://app?vid=363a7b05-0607-416d-9b1c-2318b784465a"},"vehicle_type_id":"4","last_reported":1743600060,"current_range_meters":16400,"station_id":"ce4bhh12rcd13ifvqfg0","pricing_plan_id":"cebpf4jnsgd1na2vs0mg"},{"bike_id":"8ebadf90-5df7-447d-a431-b5acb703007c","system_id":"levelo_inurba_marseille","lat":43.30143,"lon":5.3742,"is_reserved":false,"is_disabled":false,"rental_uris":{"android":"levelo://app?vid=8ebadf90-5df7-447d-a431-b5acb703007c","ios":"levelo://app?vid=8ebadf90-5df7-447d-a431-b5acb703007c"},"vehicle_type_id":"4","last_reported":1743600060,"current_range_meters":16400,"station_id":"ce4bgs92rcd13ifvqcc0","pricing_plan_id":"cebpf4jnsgd1na2vs0mg"},{"bike_id":"96efb99e-4397-4f66-a057-1d67a45f2b2a","system_id":"levelo_inurba_marseille","lat":43.30796,"lon":5.3814,"is_reserved":false,"is_disabled":false,"rental_uris":{"android":"levelo://app?vid=96efb99e-4397-4f66-a057-1d67a45f2b2a","ios":"levelo://app?vid=96efb99e-4397-4f66-a057-1d67a45f2b2a"},"vehicle_type_id":"4","last_reported":1743600060,"current_range_meters":16800,"station_id":"ce4bgt12rcd13ifvqce0","pricing_plan_id":"cebpf4jnsgd1na2vs0mg"},{"bike_id":"aaf691f3-c71c-494c-bf1c-f92de1aeeda3","system_id":"levelo_inurba_marseille","lat":43.29443,"lon":5.39732,"is_reserved":false,"is_disabled":false,"rental_uris":{"android":"levelo://app?vid=aaf691f3-c71c-494c-bf1c-f92de1aeeda3","ios":"levelo://app?vid=aaf691f3-c71c-494c-bf1c-f92de1aeeda3"},"vehicle_type_id":"4","last_reported":1743600060,"current_range_meters":16800,"station_id":"ce4bh3h2rcd13ifvqdo0","pricing_plan_id":"cebpf4jnsgd1na2vs0mg"},{"bike_id":"f4b410a4-b711-471f-a820-2ae0db410ca1","system_id":"levelo_inurba_marseille","lat":43.30577,"lon":5.36535,"is_reserved":false,"is_disabled":false,"rental_uris":{"android":"levelo://app?vid=f4b410a4-b711-471f-a820-2ae0db410ca1","ios":"levelo://app?vid=f4b410a4-b711-471f-a820-2ae0db410ca1"},"vehicle_type_id":"4","last_reported":1743600060,"current_range_meters":16800,"station_id":"ce4bgs12rcd13ifvqcag","pricing_plan_id":"cebpf4jnsgd1na2vs0mg"},{"bike_id":"60cbeb64-2f5f-43f3-a911-70fdf571bc7c","system_id":"levelo_inurba_marseille","lat":43.30536,"lon":5.3654,"is_reserved":false,"is_disabled":false,"rental_uris":{"android":"levelo://app?vid=60cbeb64-2f5f-43f3-a911-70fdf571bc7c","ios":"levelo://app?vid=60cbeb64-2f5f-43f3-a911-70fdf571bc7c"},"vehicle_type_id":"4","last_reported":1743600060,"current_range_meters":16800,"station_id":"ce4bgs12rcd13ifvqcag","pricing_plan_id":"cebpf4jnsgd1na2vs0mg"},{"bike_id":"1bd4c5e9-3479-4a34-bfb9-e556a3bbe8ed","system_id":"levelo_inurba_marseille","lat":43.23066,"lon":5.3549,"is_reserved":false,"is_disabled":false,"rental_uris":{"android":"levelo://app?vid=1bd4c5e9-3479-4a34-bfb9-e556a3bbe8ed","ios":"levelo://app?vid=1bd4c5e9-3479-4a34-bfb9-e556a3bbe8ed"},"vehicle_type_id":"4","last_reported":1743600060,"current_range_meters":16800,"station_id":"cpo3342slgdg3j2ifvpg","pricing_plan_id":"cebpf4jnsgd1na2vs0mg"},{"bike_id":"bb828be9-1beb-47e1-961a-a24bc57d97fc","system_id":"levelo_inurba_marseille","lat":43.30339,"lon":5.40442,"is_reserved":false,"is_disabled":false,"rental_uris":{"android":"levelo://app?vid=bb828be9-1beb-47e1-961a-a24bc57d97fc","ios":"levelo://app?vid=bb828be9-1beb-47e1-961a-a24bc57d97fc"},"vehicle_type_id":"4","last_reported":1743600060,"current_range_meters":16800,"station_id":"ce4bh012rcd13ifvqd10","pricing_plan_id":"cebpf4jnsgd1na2vs0mg"},{"bike_id":"6752a2ce-883f-41ef-8cc5-2d2e198d2771","system_id":"levelo_inurba_marseille","lat":43.28368,"lon":5.38629,"is_reserved":false,"is_disabled":false,"rental_uris":{"android":"levelo://app?vid=6752a2ce-883f-41ef-8cc5-2d2e198d2771","ios":"levelo://app?vid=6752a2ce-883f-41ef-8cc5-2d2e198d2771"},"vehicle_type_id":"4","last_reported":1743600060,"current_range_meters":16800,"station_id":"ce4bh492rcd13ifvqdvg","pricing_plan_id":"cebpf4jnsgd1na2vs0mg"},{"bike_id":"bcf75596-5983-43f6-b9a7-a62970b6398e","system_id":"levelo_inurba_marseille","lat":43.284618,"lon":5.3854,"is_reserved":false,"is_disabled":false,"rental_uris":{"android":"levelo://app?vid=bcf75596-5983-43f6-b9a7-a62970b6398e","ios":"levelo://app?vid=bcf75596-5983-43f6-b9a7-a62970b6398e"},"vehicle_type_id":"4","last_reported":1743600060,"current_range_meters":17200,"station_id":"ce4bgn12rcd13ifvqbt0","pricing_plan_id":"cebpf4jnsgd1na2vs0mg"},{"bike_id":"47046b16-c684-454b-b9a1-9b260802908d","system_id":"levelo_inurba_marseille","lat":43.26792,"lon":5.39428,"is_reserved":false,"is_disabled":false,"rental_uris":{"android":"levelo://app?vid=47046b16-c684-454b-b9a1-9b260802908d","ios":"levelo://app?vid=47046b16-c684-454b-b9a1-9b260802908d"},"vehicle_type_id":"4","last_reported":1743600060,"current_range_meters":17200,"station_id":"ce4bhh12rcd13ifvqfg0","pricing_plan_id":"cebpf4jnsgd1na2vs0mg"},{"bike_id":"e246cce4-a5c4-4c03-9790-9415410759ce","system_id":"levelo_inurba_marseille","lat":43.29262,"lon":5.37618,"is_reserved":false,"is_disabled":false,"rental_uris":{"android":"levelo://app?vid=e246cce4-a5c4-4c03-9790-9415410759ce","ios":"levelo://app?vid=e246cce4-a5c4-4c03-9790-9415410759ce"},"vehicle_type_id":"4","last_reported":1743600060,"current_range_meters":17200,"station_id":"ce4bgi12rcd13ifvqb80","pricing_plan_id":"cebpf4jnsgd1na2vs0mg"},{"bike_id":"413c0eec-a93a-4f54-b4f4-077eafe40d76","system_id":"levelo_inurba_marseille","lat":43.29618,"lon":5.38115,"is_reserved":false,"is_disabled":false,"rental_uris":{"android":"levelo://app?vid=413c0eec-a93a-4f54-b4f4-077eafe40d76","ios":"levelo://app?vid=413c0eec-a93a-4f54-b4f4-077eafe40d76"},"vehicle_type_id":"4","last_reported":1743600060,"current_range_meters":17200,"station_id":"ce4bgl12rcd13ifvqbo0","pricing_plan_id":"cebpf4jnsgd1na2vs0mg"},{"bike_id":"caa1d968-9a52-4e47-9513-22435964bd05","system_id":"levelo_inurba_marseille","lat":43.31332,"lon":5.39695,"is_reserved":false,"is_disabled":false,"rental_uris":{"android":"levelo://app?vid=caa1d968-9a52-4e47-9513-22435964bd05","ios":"levelo://app?vid=caa1d968-9a52-4e47-9513-22435964bd05"},"vehicle_type_id":"4","last_reported":1743600060,"current_range_meters":17200,"station_id":"ce4bgvp2rcd13ifvqcu0","pricing_plan_id":"cebpf4jnsgd1na2vs0mg"},{"bike_id":"2d66def0-3496-4fa4-bc57-be17bf9664c3","system_id":"levelo_inurba_marseille","lat":43.31348,"lon":5.36708,"is_reserved":false,"is_disabled":false,"rental_uris":{"android":"levelo://app?vid=2d66def0-3496-4fa4-bc57-be17bf9664c3","ios":"levelo://app?vid=2d66def0-3496-4fa4-bc57-be17bf9664c3"},"vehicle_type_id":"4","last_reported":1743600060,"current_range_meters":17200,"station_id":"ce4bgr92rcd13ifvqc6g","pricing_plan_id":"cebpf4jnsgd1na2vs0mg"},{"bike_id":"859e60ff-5c32-47f0-8260-5503980a66c1","system_id":"levelo_inurba_marseille","lat":43.295783,"lon":5.375698,"is_reserved":false,"is_disabled":false,"rental_uris":{"android":"levelo://app?vid=859e60ff-5c32-47f0-8260-5503980a66c1","ios":"levelo://app?vid=859e60ff-5c32-47f0-8260-5503980a66c1"},"vehicle_type_id":"4","last_reported":1743600060,"current_range_meters":17200,"station_id":"ce4bgph2rcd13ifvqc2g","pricing_plan_id":"cebpf4jnsgd1na2vs0mg"},{"bike_id":"005283db-9aca-49eb-ae41-cbf0dc140b6c","system_id":"levelo_inurba_marseille","lat":43.30105,"lon":5.37238,"is_reserved":false,"is_disabled":false,"rental_uris":{"android":"levelo://app?vid=005283db-9aca-49eb-ae41-cbf0dc140b6c","ios":"levelo://app?vid=005283db-9aca-49eb-ae41-cbf0dc140b6c"},"vehicle_type_id":"4","last_reported":1743600060,"current_range_meters":17600,"station_id":"","pricing_plan_id":"cebpf4jnsgd1na2vs0mg"},{"bike_id":"ac80b440-134d-48ea-983f-c050818a7ce4","system_id":"levelo_inurba_marseille","lat":43.28623,"lon":5.351,"is_reserved":false,"is_disabled":false,"rental_uris":{"android":"levelo://app?vid=ac80b440-134d-48ea-983f-c050818a7ce4","ios":"levelo://app?vid=ac80b440-134d-48ea-983f-c050818a7ce4"},"vehicle_type_id":"4","last_reported":1743600060,"current_range_meters":17600,"station_id":"ce4bhch2rcd13ifvqeug","pricing_plan_id":"cebpf4jnsgd1na2vs0mg"},{"bike_id":"71560b1b-cd12-4e98-86fd-efe82a2ea720","system_id":"levelo_inurba_marseille","lat":43.30135,"lon":5.37424,"is_reserved":false,"is_disabled":false,"rental_uris":{"android":"levelo://app?vid=71560b1b-cd12-4e98-86fd-efe82a2ea720","ios":"levelo://app?vid=71560b1b-cd12-4e98-86fd-efe82a2ea720"},"vehicle_type_id":"4","last_reported":1743600060,"current_range_meters":17600,"station_id":"ce4bgs92rcd13ifvqcc0","pricing_plan_id":"cebpf4jnsgd1na2vs0mg"},{"bike_id":"704d09f1-37d1-4c7c-b83b-d9079afff1ad","system_id":"levelo_inurba_marseille","lat":43.286606,"lon":5.363266,"is_reserved":false,"is_disabled":true,"rental_uris":{"android":"levelo://app?vid=704d09f1-37d1-4c7c-b83b-d9079afff1ad","ios":"levelo://app?vid=704d09f1-37d1-4c7c-b83b-d9079afff1ad"},"vehicle_type_id":"4","last_reported":1743600060,"current_range_meters":17600,"station_id":"ce4bhah2rcd13ifvqej0","pricing_plan_id":"cebpf4jnsgd1na2vs0mg"},{"bike_id":"2e8ae504-b7e3-4827-886f-525a5b4ab512","system_id":"levelo_inurba_marseille","lat":43.30784,"lon":5.37649,"is_reserved":false,"is_disabled":false,"rental_uris":{"android":"levelo://app?vid=2e8ae504-b7e3-4827-886f-525a5b4ab512","ios":"levelo://app?vid=2e8ae504-b7e3-4827-886f-525a5b4ab512"},"vehicle_type_id":"4","last_reported":1743600060,"current_range_meters":17200,"station_id":"ce4bgv92rcd13ifvqcq0","pricing_plan_id":"cebpf4jnsgd1na2vs0mg"},{"bike_id":"66b24943-afbf-4b51-b4fe-ba593b9e2e7b","system_id":"levelo_inurba_marseille","lat":43.294433,"lon":5.397727,"is_reserved":false,"is_disabled":false,"rental_uris":{"android":"levelo://app?vid=66b24943-afbf-4b51-b4fe-ba593b9e2e7b","ios":"levelo://app?vid=66b24943-afbf-4b51-b4fe-ba593b9e2e7b"},"vehicle_type_id":"4","last_reported":1743600060,"current_range_meters":17600,"station_id":"","pricing_plan_id":"cebpf4jnsgd1na2vs0mg"},