{"last_updated":1773958643,"ttl":60,"version":"2.2","data":{"bikes":[{"bike_id":"99b9b64a-1d3a-48ed-889b-f9fa61a14f05","system_id":"levelo_inurba_marseille","lat":43.29893,"lon":5.39781,"is_reserved":false,"is_disabled":false,"rental_uris":{"android":"levelo://app?vid=99b9b64a-1d3a-48ed-889b-f9fa61a14f05","ios":"levelo://app?vid=99b9b64a-1d3a-48ed-889b-f9fa61a14f05"},"vehicle_type_id":"4","last_reported":1773958643,"current_range_meters":800,"station_id":"","pricing_plan_id":"cebpf4jnsgd1na2vs0mg"},{"bike_id":"532c7230-406f-4daf-a054-6a204c6fdf34","system_id":"levelo_inurba_marseille","lat":43.28478,"lon":5.38535,"is_reserved":false,"is_disabled":false,"rental_uris":{"android":"levelo://app?vid=532c7230-406f-4daf-a054-6a204c6fdf34","ios":"levelo://app?vid=532c7230-406f-4daf-a054-6a204c6fdf34"},"vehicle_type_id":"4","last_reported":1773958643,"current_range_meters":2000,"station_id":"ce4bh8p2rcd13ifvqeb0","pricing_plan_id":"cebpf4jnsgd1na2vs0mg"},{"bike_id":"78091c84-79e3-435f-8ee3-e135a643baae","system_id":"levelo_inurba_marseille","lat":43.31241,"lon":5.38444,"is_reserved":false,"is_disabled":false,"rental_uris":{"android":"levelo://app?vid=78091c84-79e3-435f-8ee3-e135a643baae","ios":"levelo://app?vid=78091c84-79e3-435f-8ee3-e135a643baae"},"vehicle_type_id":"4","last_reported":1773958643,"current_range_meters":2000,"station_id":"","pricing_plan_id":"cebpf4jnsgd1na2vs0mg"},{"bike_id":"38a1e736-b9ef-40c0-bdd2-032f678a1d3a","system_id":"levelo_inurba_marseille","lat":43.29035,"lon":5.39976,"is_reserved":false,"is_disabled":false,"rental_uris":{"android":"levelo://app?vid=38a1e736-b9ef-40c0-bdd2-032f678a1d3a","ios":"levelo://app?vid=38a1e736-b9ef-40c0-bdd2-032f678a1d3a"},"vehicle_type_id":"4","last_reported":1773958643,"current_range_meters":2000,"station_id":"ce4bh392rcd13ifvqdm0","pricing_plan_id":"cebpf4jnsgd1na2vs0mg"},{"bike_id":"f5633142-06b4-41a8-9523-f83ce443c69f","system_id":"levelo_inurba_marseille","lat":43.286096,"lon":5.35101,"is_reserved":false,"is_disabled":false,"rental_uris":{"android":"levelo://app?vid=f5633142-06b4-41a8-9523-f83ce443c69f","ios":"levelo://app?vid=f5633142-06b4-41a8-9523-f83ce443c69f"},"vehicle_type_id":"4","last_reported":1773958643,"current_range_meters":2800,"station_id":"","pricing_plan_id":"cebpf4jnsgd1na2vs0mg"},{"bike_id":"c539bd65-0e65-469f-b4ed-962f8c4aff1f","system_id":"levelo_inurba_marseille","lat":43.28664,"lon":5.36354,"is_reserved":false,"is_disabled":false,"rental_uris":{"android":"levelo://app?vid=c539bd65-0e65-469f-b4ed-962f8c4aff1f","ios":"levelo://app?vid=c539bd65-0e65-469f-b4ed-962f8c4aff1f"},"vehicle_type_id":"4","last_reported":1773958643,"current_range_meters":2800,"station_id":"ce4bhah2rcd13ifvqej0","pricing_plan_id":"cebpf4jnsgd1na2vs0mg"},{"bike_id":"8d8aa7c9-6443-493d-97df-f28f1e39c783","system_id":"levelo_inurba_marseille","lat":43.31101,"lon":5.37773,"is_reserved":false,"is_disabled":false,"rental_uris":{"android":"levelo://app?vid=8d8aa7c9-6443-493d-97df-f28f1e39c783","ios":"levelo://app?vid=8d8aa7c9-6443-493d-97df-f28f1e39c783"},"vehicle_type_id":"4","last_reported":1773958643,"current_range_meters":2800,"station_id":"ce4bgt92rcd13ifvqcg0","pricing_plan_id":"cebpf4jnsgd1na2vs0mg"},{"bike_id":"2cd6d2c4-9839-4b08-8d75-805c4c2214dc","system_id":"levelo_inurba_marseille","lat":43.23047,"lon":5.35497,"is_reserved":false,"is_disabled":false,"rental_uris":{"android":"levelo://app?vid=2cd6d2c4-9839-4b08-8d75-805c4c2214dc","ios":"levelo://app?vid=2cd6d2c4-9839-4b08-8d75-805c4c2214dc"},"vehicle_type_id":"4","last_reported":1773958643,"current_range_meters":2800,"station_id":"cpo3342slgdg3j2ifvpg","pricing_plan_id":"cebpf4jnsgd1na2vs0mg"},{"bike_id":"8a854e0a-3b9f-471d-80f2-bfadb0595e6b","system_id":"levelo_inurba_marseille","lat":43.31499,"lon":5.388,"is_reserved":false,"is_disabled":false,"rental_uris":{"android":"levelo://app?vid=8a854e0a-3b9f-471d-80f2-bfadb0595e6b","ios":"levelo://app?vid=8a854e0a-3b9f-471d-80f2-bfadb0595e6b"},"vehicle_type_id":"4","last_reported":1773958643,"current_range_meters":2800,"station_id":"","pricing_plan_id":"cebpf4jnsgd1na2vs0mg"},{"bike_id":"cd0ad1b8-13a6-4a77-b504-90d8244cd83a","system_id":"levelo_inurba_marseille","lat":43.27051,"lon":5.42281,"is_reserved":false,"is_disabled":true,"rental_uris":{"android":"levelo://app?vid=cd0ad1b8-13a6-4a77-b504-90d8244cd83a","ios":"levelo://app?vid=cd0ad1b8-13a6-4a77-b504-90d8244cd83a"},"vehicle_type_id":"4","last_reported":1773958643,"current_range_meters":2800,"station_id":"ce4bhk92rcd13ifvqgb0","pricing_plan_id":"cebpf4jnsgd1na2vs0mg"},{"bike_id":"f6eef633-bed7-4c4d-bcfd-52d77fe3a5c1","system_id":"levelo_inurba_marseille","lat":43.25338,"lon":5.42155,"is_reserved":false,"is_disabled":false,"rental_uris":{"android":"levelo://app?vid=f6eef633-bed7-4c4d-bcfd-52d77fe3a5c1","ios":"levelo://app?vid=f6eef633-bed7-4c4d-bcfd-52d77fe3a5c1"},"vehicle_type_id":"4","last_reported":1773958643,"current_range_meters":2800,"station_id":"st_d2m65c5bi1j21697t3ng","pricing_plan_id":"cebpf4jnsgd1na2vs0mg"},{"bike_id":"02b51a77-354e-40bf-b6a1-4608f3c631a1","system_id":"levelo_inurba_marseille","lat":43.288727,"lon":5.358378,"is_reserved":false,"is_disabled":false,"rental_uris":{"android":"levelo://app?vid=02b51a77-354e-40bf-b6a1-4608f3c631a1","ios":"levelo://app?vid=02b51a77-354e-40bf-b6a1-4608f3c631a1"},"vehicle_type_id":"4","last_reported":1773958643,"current_range_meters":2800,"station_id":"ce4bhb12rcd13ifvqem0","pricing_plan_id":"cebpf4jnsgd1na2vs0mg"},{"bike_id":"5bef4d42-b428-450d-9c4a-80e6c19de27e","system_id":"levelo_inurba_marseille","lat":43.29925,"lon":5.37469,"is_reserved":false,"is_disabled":false,"rental_uris":{"android":"levelo://app?vid=5bef4d42-b428-450d-9c4a-80e6c19de27e","ios":"levelo://app?vid=5bef4d42-b428-450d-9c4a-80e6c19de27e"},"vehicle_type_id":"4","last_reported":1773958643,"current_range_meters":2800,"station_id":"ce4bgjh2rcd13ifvqbg0","pricing_plan_id":"cebpf4jnsgd1na2vs0mg"},{"bike_id":"5ae817f5-f449-42aa-9b7b-91464712493c","system_id":"levelo_inurba_marseille","lat":43.27418,"lon":5.39385,"is_reserved":false,"is_disabled":false,"rental_uris":{"android":"levelo://app?vid=5ae817f5-f449-42aa-9b7b-91464712493c","ios":"levelo://app?vid=5ae817f5-f449-42aa-9b7b-91464712493c"},"vehicle_type_id":"4","last_reported":1773958643,"current_range_meters":2800,"station_id":"ce4bhdp2rcd13ifvqf20","pricing_plan_id":"cebpf4jnsgd1na2vs0mg"},{"bike_id":"50c589ba-1ee7-42e5-b2e8-270213ce2a50","system_id":"levelo_inurba_marseille","lat":43.28702,"lon":5.37408,"is_reserved":false,"is_disabled":false,"rental_uris":{"android":"levelo://app?vid=50c589ba-1ee7-42e5-b2e8-270213ce2a50","ios":"levelo://app?vid=50c589ba-1ee7-42e5-b2e8-270213ce2a50"},"vehicle_type_id":"4","last_reported":1773958643,"current_range_meters":2800,"station_id":"ce4bh3p2rcd13ifvqdq0","pricing_plan_id":"cebpf4jnsgd1na2vs0mg"},{"bike_id":"a9d31829-7e0d-482f-af05-97ddd320ae16","system_id":"levelo_inurba_marseille","lat":43.29759,"lon":5.42788,"is_reserved":false,"is_disabled":true,"rental_uris":{"android":"levelo://app?vid=a9d31829-7e0d-482f-af05-97ddd320ae16","ios":"levelo://app?vid=a9d31829-7e0d-482f-af05-97ddd320ae16"},"vehicle_type_id":"4","last_reported":1773958643,"current_range_meters":2800,"station_id":"st_d3md5207bmas73dh9klg","pricing_plan_id":"cebpf4jnsgd1na2vs0mg"},{"bike_id":"141b67c1-2bbc-4c03-a951-c2575e2c0807","system_id":"levelo_inurba_marseille","lat":43.30532,"lon":5.38445,"is_reserved":false,"is_disabled":false,"rental_uris":{"android":"levelo://app?vid=141b67c1-2bbc-4c03-a951-c2575e2c0807","ios":"levelo://app?vid=141b67c1-2bbc-4c03-a951-c2575e2c0807"},"vehicle_type_id":"4","last_reported":1773958643,"current_range_meters":2800,"station_id":"ce4bgg92rcd13ifvqb30","pricing_plan_id":"cebpf4jnsgd1na2vs0mg"},{"bike_id":"2823a948-f533-43f1-8827-327fd8f55608","system_id":"levelo_inurba_marseille","lat":43.31997,"lon":5.38142,"is_reserved":false,"is_disabled":false,"rental_uris":{"android":"levelo://app?vid=2823a948-f533-43f1-8827-327fd8f55608","ios":"levelo://app?vid=2823a948-f533-43f1-8827-327fd8f55608"},"vehicle_type_id":"4","last_reported":1773958643,"current_range_meters":2800,"station_id":"ce4bhr12rcd13ifvqhpg","pricing_plan_id":"cebpf4jnsgd1na2vs0mg"},{"bike_id":"46749662-f55a-4294-be4b-39665f1f367d","system_id":"levelo_inurba_marseille","lat":43.22927,"lon":5.35368,"is_reserved":false,"is_disabled":false,"rental_uris":{"android":"levelo://app?vid=46749662-f55a-4294-be4b-39665f1f367d","ios":"levelo://app?vid=46749662-f55a-4294-be4b-39665f1f367d"},"vehicle_type_id":"4","last_reported":1773958643,"current_range_meters":2800,"station_id":"cpo3532slgdg3j2ikp40","pricing_plan_id":"cebpf4jnsgd1na2vs0mg"},{"bike_id":"90df2976-00f1-427e-bc04-5655664bfcea","system_id":"levelo_inurba_marseille","lat":43.29606,"lon":5.36763,"is_reserved":false,"is_disabled":false,"rental_uris":{"android":"levelo://app?vid=90df2976-00f1-427e-bc04-5655664bfcea","ios":"levelo://app?vid=90df2976-00f1-427e-bc04-5655664bfcea"},"vehicle_type_id":"4","last_reported":1773958643,"current_range_meters":2800,"station_id":"ce4bgph2rcd13ifvqc2g","pricing_plan_id":"cebpf4jnsgd1na2vs0mg"},{"bike_id":"fad8e96d-acb2-4874-9608-7180f6b034b8","system_id":"levelo_inurba_marseille","lat":43.29126,"lon":5.40808,"is_reserved":false,"is_disabled":false,"rental_uris":{"android":"levelo://app?vid=fad8e96d-acb2-4874-9608-7180f6b034b8","ios":"levelo://app?vid=fad8e96d-acb2-4874-9608-7180f6b034b8"},"vehicle_type_id":"4","last_reported":1773958643,"current_range_meters":2800,"station_id":"","pricing_plan_id":"cebpf4jnsgd1na2vs0mg"},{"bike_id":"24e3771f-e706-48ce-9711-2331d480393c","system_id":"levelo_inurba_marseille","lat":43.24795,"lon":5.37466,"is_reserved":false,"is_disabled":false,"rental_uris":{"android":"levelo://app?vid=24e3771f-e706-48ce-9711-2331d480393c","ios":"levelo://app?vid=24e3771f-e706-48ce-9711-2331d480393c"},"vehicle_type_id":"4","last_reported":1773958643,"current_range_meters":2800,"station_id":"ce4bhgh2rcd13ifvqfb0","pricing_plan_id":"cebpf4jnsgd1na2vs0mg"},{"bike_id":"365735fd-0c01-4424-a081-7a4565a71d1a","system_id":"levelo_inurba_marseille","lat":43.29769,"lon":5.37956,"is_reserved":false,"is_disabled":false,"rental_uris":{"android":"levelo://app?vid=365735fd-0c01-4424-a081-7a4565a71d1a","ios":"levelo://app?vid=365735fd-0c01-4424-a081-7a4565a71d1a"},"vehicle_type_id":"4","last_reported":1773958643,"current_range_meters":2800,"station_id":"","pricing_plan_id":"cebpf4jnsgd1na2vs0mg"},{"bike_id":"c9cfc67c-4e42-4833-b4ab-11ad690d27f6","system_id":"levelo_inurba_marseille","lat":43.33034,"lon":5.3952,"is_reserved":false,"is_disabled":false,"rental_uris":{"android":"levelo://app?vid=c9cfc67c-4e42-4833-b4ab-11ad690d27f6","ios":"levelo://app?vid=c9cfc67c-4e42-4833-b4ab-11ad690d27f6"},"vehicle_type_id":"4","last_reported":1773958643,"current_range_meters":2800,"station_id":"","pricing_plan_id":"cebpf4jnsgd1na2vs0mg"},{"bike_id":"488022cf-ae8c-4b5a-bfe4-ba5db4a587f4","system_id":"levelo_inurba_marseille","lat":43.31906,"lon":5.36797,"is_reserved":false,"is_disabled":false,"rental_uris":{"android":"levelo://app?vid=488022cf-ae8c-4b5a-bfe4-ba5db4a587f4","ios":"levelo://app?vid=488022cf-ae8c-4b5a-bfe4-ba5db4a587f4"},"vehicle_type_id":"4","last_reported":1773958643,"current_range_meters":2800,"station_id":"ce4bguh2rcd13ifvqcj0","pricing_plan_id":"cebpf4jnsgd1na2vs0mg"},{"bike_id":"bd76c094-5344-424d-b7c4-60f8801fbb04","system_id":"levelo_inurba_marseille","lat":43.29886,"lon":5.40238,"is_reserved":false,"is_disabled":false,"rental_uris":{"android":"levelo://app?vid=bd76c094-5344-424d-b7c4-60f8801fbb04","ios":"levelo://app?vid=bd76c094-5344-424d-b7c4-60f8801fbb04"},"vehicle_type_id":"4","last_reported":1773958643,"current_range_meters":2800,"station_id":"","pricing_plan_id":"cebpf4jnsgd1na2vs0mg"},{"bike_id":"263c1264-f218-4211-9c18-e20000396e7c","system_id":"levelo_inurba_marseille","lat":43.30465,"lon":5.37908,"is_reserved":false,"is_disabled":false,"rental_uris":{"android":"levelo://app?vid=263c1264-f218-4211-9c18-e20000396e7c","ios":"levelo://app?vid=263c1264-f218-4211-9c18-e20000396e7c"},"vehicle_type_id":"4","last_reported":1773958643,"current_range_meters":2800,"station_id":"ce4bgup2rcd13ifvqcn0","pricing_plan_id":"cebpf4jnsgd1na2vs0mg"},{"bike_id":"c1352cce-7c76-47ee-836c-eac7c1d1c344","system_id":"levelo_inurba_marseille","lat":43.29024,"lon":5.38631,"is_reserved":false,"is_disabled":false,"rental_uris":{"android":"levelo://app?vid=c1352cce-7c76-47ee-836c-eac7c1d1c344","ios":"levelo://app?vid=c1352cce-7c76-47ee-836c-eac7c1d1c344"},"vehicle_type_id":"4","last_reported":1773958643,"current_range_meters":3200,"station_id":"ce4bh4p2rcd13ifvqe0g","pricing_plan_id":"cebpf4jnsgd1na2vs0mg"},{"bike_id":"13f88d23-8297-4587-839a-a3ec92f34aa6","system_id":"levelo_inurba_marseille","lat":43.29601,"lon":5.38094,"is_reserved":false,"is_disabled":false,"rental_uris":{"android":"levelo://app?vid=13f88d23-8297-4587-839a-a3ec92f34aa6","ios":"levelo://app?vid=13f88d23-8297-4587-839a-a3ec92f34aa6"},"vehicle_type_id":"4","last_reported":1773958643,"current_range_meters":3200,"station_id":"ce4bgl12rcd13ifvqbo0","pricing_plan_id":"cebpf4jnsgd1na2vs0mg"},{"bike_id":"9da49d4a-30d7-4a40-98f4-49bb529a7739","system_id":"levelo_inurba_marseille","lat":43.29262,"lon":5.38436,"is_reserved":false,"is_disabled":false,"rental_uris":{"android":"levelo://app?vid=9da49d4a-30d7-4a40-98f4-49bb529a7739","ios":"levelo://app?vid=9da49d4a-30d7-4a40-98f4-49bb529a7739"},"vehicle_type_id":"4","last_reported":1773958643,"current_range_meters":3200,"station_id":"ce4bh692rcd13ifvqea0","pricing_plan_id":"cebpf4jnsgd1na2vs0mg"},{"bike_id":"506661fa-d7d4-473c-8038-c16d45410fe8","system_id":"levelo_inurba_marseille","lat":43.28848,"lon":5.42551,"is_reserved":false,"is_disabled":false,"rental_uris":{"android":"levelo://app?vid=506661fa-d7d4-473c-8038-c16d45410fe8","ios":"levelo://app?vid=506661fa-d7d4-473c-8038-c16d45410fe8"},"vehicle_type_id":"4","last_reported":1773958643,"current_range_meters":3200,"station_id":"","pricing_plan_id":"cebpf4jnsgd1na2vs0mg"},{"bike_id":"d29c05f8-d760-43ef-be8f-e483abd8aa24","system_id":"levelo_inurba_marseille","lat":43.27606,"lon":5.36121,"is_reserved":false,"is_disabled":false,"rental_uris":{"android":"levelo://app?vid=d29c05f8-d760-43ef-be8f-e483abd8aa24","ios":"levelo://app?vid=d29c05f8-d760-43ef-be8f-e483abd8aa24"},"vehicle_type_id":"4","last_reported":1773958643,"current_range_meters":3200,"station_id":"ce4bgj92rcd13ifvqbe0","pricing_plan_id":"cebpf4jnsgd1na2vs0mg"},{"bike_id":"bc8d4909-7df2-4328-940f-132ae8fb5a27","system_id":"levelo_inurba_marseille","lat":43.25566,"lon":5.38245,"is_reserved":false,"is_disabled":false,"rental_uris":{"android":"levelo://app?vid=bc8d4909-7df2-4328-940f-132ae8fb5a27","ios":"levelo://app?vid=bc8d4909-7df2-4328-940f-132ae8fb5a27"},"vehicle_type_id":"4","last_reported":1773958643,"current_range_meters":3200,"station_id":"ce4bhih2rcd13ifvqfs0","pricing_plan_id":"cebpf4jnsgd1na2vs0mg"},{"bike_id":"f8e52c65-5437-433b-9fe2-9907ea3317c0","system_id":"levelo_inurba_marseille","lat":43.293067,"lon":5.401612,"is_reserved":false,"is_disabled":false,"rental_uris":{"android":"levelo://app?vid=f8e52c65-5437-433b-9fe2-9907ea3317c0","ios":"levelo://app?vid=f8e52c65-5437-433b-9fe2-9907ea3317c0"},"vehicle_type_id":"4","last_reported":1773958643,"current_range_meters":3200,"station_id":"ce4bh312rcd13ifvqdk0","pricing_plan_id":"cebpf4jnsgd1na2vs0mg"},{"bike_id":"d0b1f448-6af4-4ef1-a755-e03baf4488aa","system_id":"levelo_inurba_marseille","lat":43.29242,"lon":5.35752,"is_reserved":false,"is_disabled":false,"rental_uris":{"android":"levelo://app?vid=d0b1f448-6af4-4ef1-a755-e03baf4488aa","ios":"levelo://app?vid=d0b1f448-6af4-4ef1-a755-e03baf4488aa"},"vehicle_type_id":"4","last_reported":1773958643,"current_range_meters":3200,"station_id":"","pricing_plan_id":"cebpf4jnsgd1na2vs0mg"},{"bike_id":"4c5d836e-ad01-47da-97a0-e883f94cfeb1","system_id":"levelo_inurba_marseille","lat":43.29622,"lon":5.3811,"is_reserved":false,"is_disabled":false,"rental_uris":{"android":"levelo://app?vid=4c5d836e-ad01-47da-97a0-e883f94cfeb1","ios":"levelo://app?vid=4c5d836e-ad01-47da-97a0-e883f94cfeb1"},"vehicle_type_id":"4","last_reported":1773958643,"current_range_meters":3200,"station_id":"ce4bgl12rcd13ifvqbo0","pricing_plan_id":"cebpf4jnsgd1na2vs0mg"},{"bike_id":"d08a28ce-ad47-4174-8cce-a1bf42c937b0","system_id":"levelo_inurba_marseille","lat":43.28938,"lon":5.39619,"is_reserved":false,"is_disabled":false,"rental_uris":{"android":"levelo://app?vid=d08a28ce-ad47-4174-8cce-a1bf42c937b0","ios":"levelo://app?vid=d08a28ce-ad47-4174-8cce-a1bf42c937b0"},"vehicle_type_id":"4","last_reported":1773958643,"current_range_meters":3200,"station_id":"ce4bh3h2rcd13ifvqdn0","pricing_plan_id":"cebpf4jnsgd1na2vs0mg"},{"bike_id":"c6b4ba83-d211-421f-82a7-0a8a0abe04b2","system_id":"levelo_inurba_marseille","lat":43.28924,"lon":5.3665,"is_reserved":false,"is_disabled":false,"rental_uris":{"android":"levelo://app?vid=c6b4ba83-d211-421f-82a7-0a8a0abe04b2","ios":"levelo://app?vid=c6b4ba83-d211-421f-82a7-0a8a0abe04b2"},"vehicle_type_id":"4","last_reported":1773958643,"current_range_meters":3200,"station_id":"ce4bhap2rcd13ifvqek0","pricing_plan_id":"cebpf4jnsgd1na2vs0mg"},{"bike_id":"03bb67aa-28bf-4b2d-a30b-5cc6e751ae9d","system_id":"levelo_inurba_marseille","lat":43.30201,"lon":5.39474,"is_reserved":false,"is_disabled":false,"rental_uris":{"android":"levelo://app?vid=03bb67aa-28bf-4b2d-a30b-5cc6e751ae9d","ios":"levelo://app?vid=03bb67aa-28bf-4b2d-a30b-5cc6e751ae9d"},"vehicle_type_id":"4","last_reported":1773958643,"current_range_meters":3200,"station_id":"ce4bh0p2rcd13ifvqd70","pricing_plan_id":"cebpf4jnsgd1na2vs0mg"},{"bike_id":"0411d334-a130-4157-8a51-2d284b32e855","system_id":"levelo_inurba_marseille","lat":43.31397,"lon":5.38481,"is_reserved":false,"is_disabled":false,"rental_uris":{"android":"levelo://app?vid=0411d334-a130-4157-8a51-2d284b32e855","ios":"levelo://app?vid=0411d334-a130-4157-8a51-2d284b32e855"},"vehicle_type_id":"4","last_reported":1773958643,"current_range_meters":3200,"station_id":"ce4bgt92rcd13ifvqcf0","pricing_plan_id":"cebpf4jnsgd1na2vs0mg"},{"bike_id":"447b11a1-21b5-4523-80dc-ebe593853403","system_id":"levelo_inurba_marseille","lat":43.29132,"lon":5.42614,"is_reserved":false,"is_disabled":false,"rental_uris":{"android":"levelo://app?vid=447b11a1-21b5-4523-80dc-ebe593853403","ios":"levelo://app?vid=447b11a1-21b5-4523-80dc-ebe593853403"},"vehicle_type_id":"4","last_reported":1773958643,"current_range_meters":3200,"station_id":"","pricing_plan_id":"cebpf4jnsgd1na2vs0mg"},{"bike_id":"a15529e2-dad5-4ece-a060-3e7f5185c086","system_id":"levelo_inurba_marseille","lat":43.31337,"lon":5.38512,"is_reserved":false,"is_disabled":false,"rental_uris":{"android":"levelo://app?vid=a15529e2-dad5-4ece-a060-3e7f5185c086","ios":"levelo://app?vid=a15529e2-dad5-4ece-a060-3e7f5185c086"},"vehicle_type_id":"4","last_reported":1773958643,"current_range_meters":3200,"station_id":"ce4bgt92rcd13ifvqcf0","pricing_plan_id":"cebpf4jnsgd1na2vs0mg"},{"bike_id":"3f5cd70c-7332-4c06-8cd6-f1e79c35bb0c","system_id":"levelo_inurba_marseille","lat":43.30376,"lon":5.42488,"is_reserved":false,"is_disabled":false,"rental_uris":{"android":"levelo://app?vid=3f5cd70c-7332-4c06-8cd6-f1e79c35bb0c","ios":"levelo://app?vid=3f5cd70c-7332-4c06-8cd6-f1e79c35bb0c"},"vehicle_type_id":"4","last_reported":1773958643,"current_range_meters":3200,"station_id":"ce4bhoh2rcd13ifvqh6g","pricing_plan_id":"cebpf4jnsgd1na2vs0mg"},{"bike_id":"bca34af9-d410-4a3b-b6ad-2be2ebfb943b","system_id":"levelo_inurba_marseille","lat":43.28938,"lon":5.3663,"is_reserved":false,"is_disabled":false,"rental_uris":{"android":"levelo://app?vid=bca34af9-d410-4a3b-b6ad-2be2ebfb943b","ios":"levelo://app?vid=bca34af9-d410-4a3b-b6ad-2be2ebfb943b"},"vehicle_type_id":"4","last_reported":1773958643,"current_range_meters":3200,"station_id":"ce4bhap2rcd13ifvqek0","pricing_plan_id":"cebpf4jnsgd1na2vs0mg"},{"bike_id":"2ee7f3ec-51f3-4808-b8e8-65eb96a56fb1","system_id":"levelo_inurba_marseille","lat":43.25495,"lon":5.37649,"is_reserved":false,"is_disabled":false,"rental_uris":{"android":"levelo://app?vid=2ee7f3ec-51f3-4808-b8e8-65eb96a56fb1","ios":"levelo://app?vid=2ee7f3ec-51f3-4808-b8e8-65eb96a56fb1"},"vehicle_type_id":"4","last_reported":1773958643,"current_range_meters":3200,"station_id":"ce4bhh12rcd13ifvqff0","pricing_plan_id":"cebpf4jnsgd1na2vs0mg"},{"bike_id":"9b0ebb06-a543-4b8c-822e-1e161ca58ce1","system_id":"levelo_inurba_marseille","lat":43.29043,"lon":5.35907,"is_reserved":false,"is_disabled":false,"rental_uris":{"android":"levelo://app?vid=9b0ebb06-a543-4b8c-822e-1e161ca58ce1","ios":"levelo://app?vid=9b0ebb06-a543-4b8c-822e-1e161ca58ce1"},"vehicle_type_id":"4","last_reported":1773958643,"current_range_meters":3200,"station_id":"ce4bha92rcd13ifvqeg0","pricing_plan_id":"cebpf4jnsgd1na2vs0mg"},{"bike_id":"1dea928e-8581-4929-8476-c249a3084589","system_id":"levelo_inurba_marseille","lat":43.29909,"lon":5.37462,"is_reserved":false,"is_disabled":false,"rental_uris":{"android":"levelo://app?vid=1dea928e-8581-4929-8476-c249a3084589","ios":"levelo://app?vid=1dea928e-8581-4929-8476-c249a3084589"},"vehicle_type_id":"4","last_reported":1773958643,"current_range_meters":3600,"station_id":"ce4bgjh2rcd13ifvqbg0","pricing_plan_id":"cebpf4jnsgd1na2vs0mg"},{"bike_id":"ad0cd57e-33a0-41b1-9838-4bb8121cf1c7","system_id":"levelo_inurba_marseille","lat":43.31169,"lon":5.38708,"is_reserved":false,"is_disabled":false,"rental_uris":{"android":"levelo://app?vid=ad0cd57e-33a0-41b1-9838-4bb8121cf1c7","ios":"levelo://app?vid=ad0cd57e-33a0-41b1-9838-4bb8121cf1c7"},"vehicle_type_id":"4","last_reported":1773958643,"current_range_meters":3600,"station_id":"ce4bgv12rcd13ifvqcp0","pricing_plan_id":"cebpf4jnsgd1na2vs0mg"},{"bike_id":"392fcf9a-86d3-4e46-a438-cc6b3eecb0e3","system_id":"levelo_inurba_marseille","lat":43.28666,"lon":5.36434,"is_reserved":false,"is_disabled":false,"rental_uris":{"android":"levelo://app?vid=392fcf9a-86d3-4e46-a438-cc6b3eecb0e3","ios":"levelo://app?vid=392fcf9a-86d3-4e46-a438-cc6b3eecb0e3"},"vehicle_type_id":"4","last_reported":1773958643,"current_range_meters":3600,"station_id":"ce4bhah2rcd13ifvqej0","pricing_plan_id":"cebpf4jnsgd1na2vs0mg"},{"bike_id":"cbc8599d-0f53-4276-b29f-85b323d36cb9","system_id":"levelo_inurba_marseille","lat":43.25491,"lon":5.37665,"is_reserved":false,"is_disabled":false,"rental_uris":{"android":"levelo://app?vid=cbc8599d-0f53-4276-b29f-85b323d36cb9","ios":"levelo://app?vid=cbc8599d-0f53-4276-b29f-85b323d36cb9"},"vehicle_type_id":"4","last_reported":1773958643,"current_range_meters":3600,"station_id":"ce4bhh12rcd13ifvqff0","pricing_plan_id":"cebpf4jnsgd1na2vs0mg"},{"bike_id":"342a8e48-0849-42c8-a37a-4b5534ff03fc","system_id":"levelo_inurba_marseille","lat":43.28459,"lon":5.35886,"is_reserved":false,"is_disabled":false,"rental_uris":{"android":"levelo://app?vid=342a8e48-0849-42c8-a37a-4b5534ff03fc","ios":"levelo://app?vid=342a8e48-0849-42c8-a37a-4b5534ff03fc"},"vehicle_type_id":"4","last_reported":1773958643,"current_range_meters":3600,"station_id":"ce4bhah2rcd13ifvqei0","pricing_plan_id":"cebpf4jnsgd1na2vs0mg"},{"bike_id":"6e5981ab-2a7a-46f9-82a1-391057fbfefe","system_id":"levelo_inurba_marseille","lat":43.28678,"lon":5.38667,"is_reserved":false,"is_disabled":false,"rental_uris":{"android":"levelo://app?vid=6e5981ab-2a7a-46f9-82a1-391057fbfefe","ios":"levelo://app?vid=6e5981ab-2a7a-46f9-82a1-391057fbfefe"},"vehicle_type_id":"4","last_reported":1773958643,"current_range_meters":3600,"station_id":"ce4bh492rcd13ifvqdug","pricing_plan_id":"cebpf4jnsgd1na2vs0mg"},{"bike_id":"9e33bc64-913d-4093-ab3f-8ce09b405b5f","system_id":"levelo_inurba_marseille","lat":43.29001,"lon":5.35616,"is_reserved":false,"is_disabled":false,"rental_uris":{"android":"levelo://app?vid=9e33bc64-913d-4093-ab3f-8ce09b405b5f","ios":"levelo://app?vid=9e33bc64-913d-4093-ab3f-8ce09b405b5f"},"vehicle_type_id":"4","last_reported":1773958643,"current_range_meters":3600,"station_id":"ce4bhb92rcd13ifvqen0","pricing_plan_id":"cebpf4jnsgd1na2vs0mg"},{"bike_id":"c5ead182-cff2-4988-825e-a19ac854dc0d","system_id":"levelo_inurba_marseille","lat":43.29601,"lon":5.38103,"is_reserved":false,"is_disabled":false,"rental_uris":{"android":"levelo://app?vid=c5ead182-cff2-4988-825e-a19ac854dc0d","ios":"levelo://app?vid=c5ead182-cff2-4988-825e-a19ac854dc0d"},"vehicle_type_id":"4","last_reported":1773958643,"current_range_meters":3600,"station_id":"ce4bgl12rcd13ifvqbo0","pricing_plan_id":"cebpf4jnsgd1na2vs0mg"},{"bike_id":"eda5f32d-2bff-4947-ae5f-931dfcef78d1","system_id":"levelo_inurba_marseille","lat":43.28589,"lon":5.39528,"is_reserved":false,"is_disabled":false,"rental_uris":{"android":"levelo://app?vid=eda5f32d-2bff-4947-ae5f-931dfcef78d1","ios":"levelo://app?vid=eda5f32d-2bff-4947-ae5f-931dfcef78d1"},"vehicle_type_id":"4","last_reported":1773958643,"current_range_meters":3600,"station_id":"ce4bh292rcd13ifvqdg0","pricing_plan_id":"cebpf4jnsgd1na2vs0mg"},{"bike_id":"ab8e59d7-35b3-41e1-95f9-9d78741bc131","system_id":"levelo_inurba_marseille","lat":43.21744,"lon":5.34605,"is_reserved":false,"is_disabled":false,"rental_uris":{"android":"levelo://app?vid=ab8e59d7-35b3-41e1-95f9-9d78741bc131","ios":"levelo://app?vid=ab8e59d7-35b3-41e1-95f9-9d78741bc131"},"vehicle_type_id":"4","last_reported":1773958643,"current_range_meters":3600,"station_id":"","pricing_plan_id":"cebpf4jnsgd1na2vs0mg"},{"bike_id":"e911ec0f-fdc6-4078-9daf-928a7b6f1135","system_id":"levelo_inurba_marseille","lat":43.30785,"lon":5.38151,"is_reserved":false,"is_disabled":false,"rental_uris":{"android":"levelo://app?vid=e911ec0f-fdc6-4078-9daf-928a7b6f1135","ios":"levelo://app?vid=e911ec0f-fdc6-4078-9daf-928a7b6f1135"},"vehicle_type_id":"4","last_reported":1773958643,"current_range_meters":3600,"station_id":"ce4bgt12rcd13ifvqce0","pricing_plan_id":"cebpf4jnsgd1na2vs0mg"},{"bike_id":"4cbffe8b-229f-4f80-a27a-63368097c122","system_id":"levelo_inurba_marseille","lat":43.29935,"lon":5.36542,"is_reserved":false,"is_disabled":false,"rental_uris":{"android":"levelo://app?vid=4cbffe8b-229f-4f80-a27a-63368097c122","ios":"levelo://app?vid=4cbffe8b-229f-4f80-a27a-63368097c122"},"vehicle_type_id":"4","last_reported":1773958643,"current_range_meters":3600,"station_id":"ce4bgm92rcd13ifvqbr0","pricing_plan_id":"cebpf4jnsgd1na2vs0mg"},{"bike_id":"dd8390c9-eed9-4b5d-95df-1b40250bc11f","system_id":"levelo_inurba_marseille","lat":43.21606,"lon":5.34553,"is_reserved":false,"is_disabled":false,"rental_uris":{"android":"levelo://app?vid=dd8390c9-eed9-4b5d-95df-1b40250bc11f","ios":"levelo://app?vid=dd8390c9-eed9-4b5d-95df-1b40250bc11f"},"vehicle_type_id":"4","last_reported":1773958643,"current_range_meters":3600,"station_id":"","pricing_plan_id":"cebpf4jnsgd1na2vs0mg"},{"bike_id":"68910bfb-a210-476a-89da-8f5be2ce11af","system_id":"levelo_inurba_marseille","lat":43.3021,"lon":5.39474,"is_reserved":false,"is_disabled":false,"rental_uris":{"android":"levelo://app?vid=68910bfb-a210-476a-89da-8f5be2ce11af","ios":"levelo://app?vid=68910bfb-a210-476a-89da-8f5be2ce11af"},"vehicle_type_id":"4","last_reported":1773958643,"current_range_meters":3600,"station_id":"ce4bh0p2rcd13ifvqd70","pricing_plan_id":"cebpf4jnsgd1na2vs0mg"},{"bike_id":"e193a20b-450a-4386-b80c-7f4426970f73","system_id":"levelo_inurba_marseille","lat":43.2958,"lon":5.36734,"is_reserved":false,"is_disabled":false,"rental_uris":{"android":"levelo://app?vid=e193a20b-450a-4386-b80c-7f4426970f73","ios":"levelo://app?vid=e193a20b-450a-4386-b80c-7f4426970f73"},"vehicle_type_id":"4","last_reported":1773958643,"current_range_meters":3600,"station_id":"ce4bgph2rcd13ifvqc2g","pricing_plan_id":"cebpf4jnsgd1na2vs0mg"},{"bike_id":"ee0a22e9-753c-4be0-a43e-66b0f7d05838","system_id":"levelo_inurba_marseille","lat":43.29515,"lon":5.39053,"is_reserved":false,"is_disabled":false,"rental_uris":{"android":"levelo://app?vid=ee0a22e9-753c-4be0-a43e-66b0f7d05838","ios":"levelo://app?vid=ee0a22e9-753c-4be0-a43e-66b0f7d05838"},"vehicle_type_id":"4","last_reported":1773958643,"current_range_meters":4000,"station_id":"ce4bh3p2rcd13ifvqdp0","pricing_plan_id":"cebpf4jnsgd1na2vs0mg"},{"bike_id":"d154e39b-bb17-44a2-b44f-05209b2a5131","system_id":"levelo_inurba_marseille","lat":43.21752,"lon":5.34609,"is_reserved":false,"is_disabled":false,"rental_uris":{"android":"levelo://app?vid=d154e39b-bb17-44a2-b44f-05209b2a5131","ios":"levelo://app?vid=d154e39b-bb17-44a2-b44f-05209b2a5131"},"vehicle_type_id":"4","last_reported":1773958643,"current_range_meters":4000,"station_id":"","pricing_plan_id":"cebpf4jnsgd1na2vs0mg"},{"bike_id":"a244dbb4-0f4e-4feb-860e-324fc6945b7a","system_id":"levelo_inurba_marseille","lat":43.29515,"lon":5.39037,"is_reserved":false,"is_disabled":false,"rental_uris":{"android":"levelo://app?vid=a244dbb4-0f4e-4feb-860e-324fc6945b7a","ios":"levelo://app?vid=a244dbb4-0f4e-4feb-860e-324fc6945b7a"},"vehicle_type_id":"4","last_reported":1773958643,"current_range_meters":4000,"station_id":"ce4bh3p2rcd13ifvqdp0","pricing_plan_id":"cebpf4jnsgd1na2vs0mg"},{"bike_id":"1fdbd032-af28-4158-a02e-01bb107fd2a7","system_id":"levelo_inurba_marseille","lat":43.337444,"lon":5.374475,"is_reserved":false,"is_disabled":false,"rental_uris":{"android":"levelo://app?vid=1fdbd032-af28-4158-a02e-01bb107fd2a7","ios":"levelo://app?vid=1fdbd032-af28-4158-a02e-01bb107fd2a7"},"vehicle_type_id":"4","last_reported":1773958643,"current_range_meters":4000,"station_id":"","pricing_plan_id":"cebpf4jnsgd1na2vs0mg"},{"bike_id":"1c51670a-46e5-4a0c-9d9c-3c2806d077a8","system_id":"levelo_inurba_marseille","lat":43.29032,"lon":5.38148,"is_reserved":false,"is_disabled":true,"rental_uris":{"android":"levelo://app?vid=1c51670a-46e5-4a0c-9d9c-3c2806d077a8","ios":"levelo://app?vid=1c51670a-46e5-4a0c-9d9c-3c2806d077a8"},"vehicle_type_id":"4","last_reported":1773958643,"current_range_meters":4000,"station_id":"ce4bh4p2rcd13ifvqe1g","pricing_plan_id":"cebpf4jnsgd1na2vs0mg"},{"bike_id":"07f521f2-168c-437f-9ee7-8d100cdbdf6d","system_id":"levelo_inurba_marseille","lat":43.25564,"lon":5.38266,"is_reserved":false,"is_disabled":false,"rental_uris":{"android":"levelo://app?vid=07f521f2-168c-437f-9ee7-8d100cdbdf6d","ios":"levelo://app?vid=07f521f2-168c-437f-9ee7-8d100cdbdf6d"},"vehicle_type_id":"4","last_reported":1773958643,"current_range_meters":4000,"station_id":"ce4bhih2rcd13ifvqfs0","pricing_plan_id":"cebpf4jnsgd1na2vs0mg"},{"bike_id":"13ad50bf-7f2f-4ad1-a82f-209db682ff58","system_id":"levelo_inurba_marseille","lat":43.26571,"lon":5.39054,"is_reserved":false,"is_disabled":true,"rental_uris":{"android":"levelo://app?vid=13ad50bf-7f2f-4ad1-a82f-209db682ff58","ios":"levelo://app?vid=13ad50bf-7f2f-4ad1-a82f-209db682ff58"},"vehicle_type_id":"4","last_reported":1773958643,"current_range_meters":4000,"station_id":"ce4bhe12rcd13ifvqf30","pricing_plan_id":"cebpf4jnsgd1na2vs0mg"},{"bike_id":"4e3195b9-dd9e-464c-a049-e82a7bc62b10","system_id":"levelo_inurba_marseille","lat":43.29917,"lon":5.39762,"is_reserved":false,"is_disabled":false,"rental_uris":{"android":"levelo://app?vid=4e3195b9-dd9e-464c-a049-e82a7bc62b10","ios":"levelo://app?vid=4e3195b9-dd9e-464c-a049-e82a7bc62b10"},"vehicle_type_id":"4","last_reported":1773958643,"current_range_meters":4000,"station_id":"ce4bh0h2rcd13ifvqd50","pricing_plan_id":"cebpf4jnsgd1na2vs0mg"},{"bike_id":"dc0f9891-d222-4b5b-a342-dcb03c4b8dfa","system_id":"levelo_inurba_marseille","lat":43.31709,"lon":5.37759,"is_reserved":false,"is_disabled":false,"rental_uris":{"android":"levelo://app?vid=dc0f9891-d222-4b5b-a342-dcb03c4b8dfa","ios":"levelo://app?vid=dc0f9891-d222-4b5b-a342-dcb03c4b8dfa"},"vehicle_type_id":"4","last_reported":1773958643,"current_range_meters":4000,"station_id":"ce4bgth2rcd13ifvqch0","pricing_plan_id":"cebpf4jnsgd1na2vs0mg"},{"bike_id":"326041aa-dca3-4b10-8601-80dee4dd32bb","system_id":"levelo_inurba_marseille","lat":43.29482,"lon":5.43295,"is_reserved":false,"is_disabled":false,"rental_uris":{"android":"levelo://app?vid=326041aa-dca3-4b10-8601-80dee4dd32bb","ios":"levelo://app?vid=326041aa-dca3-4b10-8601-80dee4dd32bb"},"vehicle_type_id":"4","last_reported":1773958643,"current_range_meters":4000,"station_id":"st_d3j5ugp08ojc73fj9d10","pricing_plan_id":"cebpf4jnsgd1na2vs0mg"},{"bike_id":"95d31319-d36d-403e-adf6-0b51cdaa5b1b","system_id":"levelo_inurba_marseille","lat":43.31405,"lon":5.39279,"is_reserved":false,"is_disabled":true,"rental_uris":{"android":"levelo://app?vid=95d31319-d36d-403e-adf6-0b51cdaa5b1b","ios":"levelo://app?vid=95d31319-d36d-403e-adf6-0b51cdaa5b1b"},"vehicle_type_id":"4","last_reported":1773958643,"current_range_meters":4000,"station_id":"","pricing_plan_id":"cebpf4jnsgd1na2vs0mg"},{"bike_id":"ebce1705-dc84-4260-a102-fbf1a62d110b","system_id":"levelo_inurba_marseille","lat":43.29044,"lon":5.35919,"is_reserved":false,"is_disabled":false,"rental_uris":{"android":"levelo://app?vid=ebce1705-dc84-4260-a102-fbf1a62d110b","ios":"levelo://app?vid=ebce1705-dc84-4260-a102-fbf1a62d110b"},"vehicle_type_id":"4","last_reported":1773958643,"current_range_meters":4000,"station_id":"ce4bha92rcd13ifvqeg0","pricing_plan_id":"cebpf4jnsgd1na2vs0mg"},{"bike_id":"7efa6f56-19ee-4837-b835-af1e40807b1c","system_id":"levelo_inurba_marseille","lat":43.29599,"lon":5.38707,"is_reserved":false,"is_disabled":false,"rental_uris":{"android":"levelo://app?vid=7efa6f56-19ee-4837-b835-af1e40807b1c","ios":"levelo://app?vid=7efa6f56-19ee-4837-b835-af1e40807b1c"},"vehicle_type_id":"4","last_reported":1773958643,"current_range_meters":4000,"station_id":"","pricing_plan_id":"cebpf4jnsgd1na2vs0mg"},{"bike_id":"fe45cf9d-67ad-42eb-8e72-b0429130b6b3","system_id":"levelo_inurba_marseille","lat":43.26542,"lon":5.3735,"is_reserved":false,"is_disabled":false,"rental_uris":{"android":"levelo://app?vid=fe45cf9d-67ad-42eb-8e72-b0429130b6b3","ios":"levelo://app?vid=fe45cf9d-67ad-42eb-8e72-b0429130b6b3"},"vehicle_type_id":"4","last_reported":1773958643,"current_range_meters":4000,"station_id":"ce4bhg12rcd13ifvqf70","pricing_plan_id":"cebpf4jnsgd1na2vs0mg"},{"bike_id":"a97b9af1-9b46-43d3-90ff-04f2ef16d7e4","system_id":"levelo_inurba_marseille","lat":43.29913,"lon":5.39736,"is_reserved":false,"is_disabled":true,"rental_uris":{"android":"levelo://app?vid=a97b9af1-9b46-43d3-90ff-04f2ef16d7e4","ios":"levelo://app?vid=a97b9af1-9b46-43d3-90ff-04f2ef16d7e4"},"vehicle_type_id":"4","last_reported":1773958643,"current_range_meters":4000,"station_id":"","pricing_plan_id":"cebpf4jnsgd1na2vs0mg"},{"bike_id":"346416a4-9091-4116-b915-b87497d86872","system_id":"levelo_inurba_marseille","lat":43.29006,"lon":5.35607,"is_reserved":false,"is_disabled":false,"rental_uris":{"android":"levelo://app?vid=346416a4-9091-4116-b915-b87497d86872","ios":"levelo://app?vid=346416a4-9091-4116-b915-b87497d86872"},"vehicle_type_id":"4","last_reported":1773958643,"current_range_meters":4000,"station_id":"ce4bhb92rcd13ifvqen0","pricing_plan_id":"cebpf4jnsgd1na2vs0mg"},{"bike_id":"0070260f-bb1a-4133-91ce-a7210e38cdbe","system_id":"levelo_inurba_marseille","lat":43.30806,"lon":5.38133,"is_reserved":false,"is_disabled":false,"rental_uris":{"android":"levelo://app?vid=0070260f-bb1a-4133-91ce-a7210e38cdbe","ios":"levelo://app?vid=0070260f-bb1a-4133-91ce-a7210e38cdbe"},"vehicle_type_id":"4","last_reported":1773958643,"current_range_meters":4000,"station_id":"ce4bgt12rcd13ifvqce0","pricing_plan_id":"cebpf4jnsgd1na2vs0mg"},{"bike_id":"c9e12b2f-8d26-48e2-8db5-21e6402d0523","system_id":"levelo_inurba_marseille","lat":43.30122,"lon":5.3987,"is_reserved":false,"is_disabled":false,"rental_uris":{"android":"levelo://app?vid=c9e12b2f-8d26-48e2-8db5-21e6402d0523","ios":"levelo://app?vid=c9e12b2f-8d26-48e2-8db5-21e6402d0523"},"vehicle_type_id":"4","last_reported":1773958643,"current_range_meters":4000,"station_id":"ce4bh0h2rcd13ifvqd40","pricing_plan_id":"cebpf4jnsgd1na2vs0mg"},{"bike_id":"566f6741-178c-4dcf-bd6f-c0d5c8fce96b","system_id":"levelo_inurba_marseille","lat":43.23791,"lon":5.36629,"is_reserved":false,"is_disabled":false,"rental_uris":{"android":"levelo://app?vid=566f6741-178c-4dcf-bd6f-c0d5c8fce96b","ios":"levelo://app?vid=566f6741-178c-4dcf-bd6f-c0d5c8fce96b"},"vehicle_type_id":"4","last_reported":1773958643,"current_range_meters":4000,"station_id":"st_d3nk18o9ro0c73en2l3g","pricing_plan_id":"cebpf4jnsgd1na2vs0mg"},{"bike_id":"49d3054f-c210-4503-a5fe-29f89c5d9460","system_id":"levelo_inurba_marseille","lat":43.30826,"lon":5.38147,"is_reserved":false,"is_disabled":false,"rental_uris":{"android":"levelo://app?vid=49d3054f-c210-4503-a5fe-29f89c5d9460","ios":"levelo://app?vid=49d3054f-c210-4503-a5fe-29f89c5d9460"},"vehicle_type_id":"4","last_reported":1773958643,"current_range_meters":4000,"station_id":"ce4bgt12rcd13ifvqce0","pricing_plan_id":"cebpf4jnsgd1na2vs0mg"},{"bike_id":"9df7bc75-646a-4b43-92ff-6af549e4c6a1","system_id":"levelo_inurba_marseille","lat":43.28936,"lon":5.36385,"is_reserved":false,"is_disabled":false,"rental_uris":{"android":"levelo://app?vid=9df7bc75-646a-4b43-92ff-6af549e4c6a1","ios":"levelo://app?vid=9df7bc75-646a-4b43-92ff-6af549e4c6a1"},"vehicle_type_id":"4","last_reported":1773958643,"current_range_meters":4400,"station_id":"ce4bhc92rcd13ifvqetg","pricing_plan_id":"cebpf4jnsgd1na2vs0mg"},{"bike_id":"69eb8448-c0e0-496f-831c-8ada77fd31e2","system_id":"levelo_inurba_marseille","lat":43.2306,"lon":5.35487,"is_reserved":false,"is_disabled":false,"rental_uris":{"android":"levelo://app?vid=69eb8448-c0e0-496f-831c-8ada77fd31e2","ios":"levelo://app?vid=69eb8448-c0e0-496f-831c-8ada77fd31e2"},"vehicle_type_id":"4","last_reported":1773958643,"current_range_meters":4400,"station_id":"cpo3342slgdg3j2ifvpg","pricing_plan_id":"cebpf4jnsgd1na2vs0mg"},{"bike_id":"0c9cdc71-f871-4611-9428-0e774ec1202b","system_id":"levelo_inurba_marseille","lat":43.29539,"lon":5.38549,"is_reserved":false,"is_disabled":false,"rental_uris":{"android":"levelo://app?vid=0c9cdc71-f871-4611-9428-0e774ec1202b","ios":"levelo://app?vid=0c9cdc71-f871-4611-9428-0e774ec1202b"},"vehicle_type_id":"4","last_reported":1773958643,"current_range_meters":4400,"station_id":"ce4bgih2rcd13ifvqba0","pricing_plan_id":"cebpf4jnsgd1na2vs0mg"},{"bike_id":"0ee4ce16-829f-49ee-9a2a-4b4670dfbc6f","system_id":"levelo_inurba_marseille","lat":43.28476,"lon":5.48397,"is_reserved":false,"is_disabled":false,"rental_uris":{"android":"levelo://app?vid=0ee4ce16-829f-49ee-9a2a-4b4670dfbc6f","ios":"levelo://app?vid=0ee4ce16-829f-49ee-9a2a-4b4670dfbc6f"},"vehicle_type_id":"4","last_reported":1773958643,"current_range_meters":4400,"station_id":"st_d3svhcjqgbts73a3dn0g","pricing_plan_id":"cebpf4jnsgd1na2vs0mg"},{"bike_id":"caf5e45c-f3f2-43eb-99a6-b11ec33451e8","system_id":"levelo_inurba_marseille","lat":43.2398,"lon":5.36617,"is_reserved":false,"is_disabled":false,"rental_uris":{"android":"levelo://app?vid=caf5e45c-f3f2-43eb-99a6-b11ec33451e8","ios":"levelo://app?vid=caf5e45c-f3f2-43eb-99a6-b11ec33451e8"},"vehicle_type_id":"4","last_reported":1773958643,"current_range_meters":4400,"station_id":"ce4bhi12rcd13ifvqfp0","pricing_plan_id":"cebpf4jnsgd1na2vs0mg"},{"bike_id":"bb7bd987-7ab9-4519-a618-3506eacffb15","system_id":"levelo_inurba_marseille","lat":43.32092,"lon":5.36788,"is_reserved":false,"is_disabled":false,"rental_uris":{"android":"levelo://app?vid=bb7bd987-7ab9-4519-a618-3506eacffb15","ios":"levelo://app?vid=bb7bd987-7ab9-4519-a618-3506eacffb15"},"vehicle_type_id":"4","last_reported":1773958643,"current_range_meters":4400,"station_id":"ce4bhrh2rcd13ifvqhug","pricing_plan_id":"cebpf4jnsgd1na2vs0mg"},{"bike_id":"22ba403d-ff98-4cfe-a033-3be640b214e2","system_id":"levelo_inurba_marseille","lat":43.25331,"lon":5.42178,"is_reserved":false,"is_disabled":false,"rental_uris":{"android":"levelo://app?vid=22ba403d-ff98-4cfe-a033-3be640b214e2","ios":"levelo://app?vid=22ba403d-ff98-4cfe-a033-3be640b214e2"},"vehicle_type_id":"4","last_reported":1773958643,"current_range_meters":4400,"station_id":"st_d2m65c5bi1j21697t3ng","pricing_plan_id":"cebpf4jnsgd1na2vs0mg"},{"bike_id":"6f0da953-2adc-429d-bb7c-360d8a3447c9","system_id":"levelo_inurba_marseille","lat":43.27497,"lon":5.41629,"is_reserved":false,"is_disabled":false,"rental_uris":{"android":"levelo://app?vid=6f0da953-2adc-429d-bb7c-360d8a3447c9","ios":"levelo://app?vid=6f0da953-2adc-429d-bb7c-360d8a3447c9"},"vehicle_type_id":"4","last_reported":1773958643,"current_range_meters":4400,"station_id":"st_d6im8g6chgec73a5pndg","pricing_plan_id":"cebpf4jnsgd1na2vs0mg"},{"bike_id":"28025302-46d2-4169-9ce9-8e064c7a81fd","system_id":"levelo_inurba_marseille","lat":43.2637,"lon":5.41081,"is_reserved":false,"is_disabled":false,"rental_uris":{"android":"levelo://app?vid=28025302-46d2-4169-9ce9-8e064c7a81fd","ios":"levelo://app?vid=28025302-46d2-4169-9ce9-8e064c7a81fd"},"vehicle_type_id":"4","last_reported":1773958643,"current_range_meters":4400,"station_id":"","pricing_plan_id":"cebpf4jnsgd1na2vs0mg"},{"bike_id":"ee9d83ea-4edf-4b1f-8714-2525a5649daf","system_id":"levelo_inurba_marseille","lat":43.24472,"lon":5.4254,"is_reserved":false,"is_disabled":false,"rental_uris":{"android":"levelo://app?vid=ee9d83ea-4edf-4b1f-8714-2525a5649daf","ios":"levelo://app?vid=ee9d83ea-4edf-4b1f-8714-2525a5649daf"},"vehicle_type_id":"4","last_reported":1773958643,"current_range_meters":4400,"station_id":"st_d4a3vfp97mjs738cd8kg","pricing_plan_id":"cebpf4jnsgd1na2vs0mg"},{"bike_id":"46d5a887-e69e-4b92-9937-af16138c60d7","system_id":"levelo_inurba_marseille","lat":43.25562,"lon":5.38245,"is_reserved":false,"is_disabled":false,"rental_uris":{"android":"levelo://app?vid=46d5a887-e69e-4b92-9937-af16138c60d7","ios":"levelo://app?vid=46d5a887-e69e-4b92-9937-af16138c60d7"},"vehicle_type_id":"4","last_reported":1773958643,"current_range_meters":4400,"station_id":"ce4bhih2rcd13ifvqfs0","pricing_plan_id":"cebpf4jnsgd1na2vs0mg"},{"bike_id":"73e44213-1cd8-4593-a09e-a9c4a914a5d2","system_id":"levelo_inurba_marseille","lat":43.28476,"lon":5.48392,"is_reserved":false,"is_disabled":false,"rental_uris":{"android":"levelo://app?vid=73e44213-1cd8-4593-a09e-a9c4a914a5d2","ios":"levelo://app?vid=73e44213-1cd8-4593-a09e-a9c4a914a5d2"},"vehicle_type_id":"4","last_reported":1773958643,"current_range_meters":4400,"station_id":"","pricing_plan_id":"cebpf4jnsgd1na2vs0mg"},{"bike_id":"0944f64e-4de5-4ff8-890e-c2dd486ccbe6","system_id":"levelo_inurba_marseille","lat":43.28457,"lon":5.35885,"is_reserved":false,"is_disabled":false,"rental_uris":{"android":"levelo://app?vid=0944f64e-4de5-4ff8-890e-c2dd486ccbe6","ios":"levelo://app?vid=0944f64e-4de5-4ff8-890e-c2dd486ccbe6"},"vehicle_type_id":"4","last_reported":1773958643,"current_range_meters":4400,"station_id":"ce4bhah2rcd13ifvqei0","pricing_plan_id":"cebpf4jnsgd1na2vs0mg"},{"bike_id":"8ce107d0-5101-4159-bcb4-a79c295539b3","system_id":"levelo_inurba_marseille","lat":43.28679,"lon":5.40031,"is_reserved":false,"is_disabled":false,"rental_uris":{"android":"levelo://app?vid=8ce107d0-5101-4159-bcb4-a79c295539b3","ios":"levelo://app?vid=8ce107d0-5101-4159-bcb4-a79c295539b3"},"vehicle_type_id":"4","last_reported":1773958643,"current_range_meters":4400,"station_id":"ce4bho92rcd13ifvqh3g","pricing_plan_id":"cebpf4jnsgd1na2vs0mg"},{"bike_id":"d5ccab17-cf35-4a1b-a918-2ec41d335320","system_id":"levelo_inurba_marseille","lat":43.3031,"lon":5.39275,"is_reserved":false,"is_disabled":false,"rental_uris":{"android":"levelo://app?vid=d5ccab17-cf35-4a1b-a918-2ec41d335320","ios":"levelo://app?vid=d5ccab17-cf35-4a1b-a918-2ec41d335320"},"vehicle_type_id":"4","last_reported":1773958643,"current_range_meters":4400,"station_id":"ce4bgkh2rcd13ifvqbk0","pricing_plan_id":"cebpf4jnsgd1na2vs0mg"},{"bike_id":"61abe7b6-a1d5-4fb1-8e97-6efff73823a7","system_id":"levelo_inurba_marseille","lat":43.23796,"lon":5.36629,"is_reserved":false,"is_disabled":true,"rental_uris":{"android":"levelo://app?vid=61abe7b6-a1d5-4fb1-8e97-6efff73823a7","ios":"levelo://app?vid=61abe7b6-a1d5-4fb1-8e97-6efff73823a7"},"vehicle_type_id":"4","last_reported":1773958643,"current_range_meters":4800,"station_id":"st_d3nk18o9ro0c73en2l3g","pricing_plan_id":"cebpf4jnsgd1na2vs0mg"},{"bike_id":"2f0354fc-31aa-4398-9c3e-f0f50b7b2184","system_id":"levelo_inurba_marseille","lat":43.24162,"lon":5.39732,"is_reserved":false,"is_disabled":false,"rental_uris":{"android":"levelo://app?vid=2f0354fc-31aa-4398-9c3e-f0f50b7b2184","ios":"levelo://app?vid=2f0354fc-31aa-4398-9c3e-f0f50b7b2184"},"vehicle_type_id":"4","last_reported":1773958643,"current_range_meters":4800,"station_id":"ce4bhn12rcd13ifvqgpg","pricing_plan_id":"cebpf4jnsgd1na2vs0mg"},{"bike_id":"25a235b7-3b5d-4bbd-9b7e-7bd77524d1e3","system_id":"levelo_inurba_marseille","lat":43.2415,"lon":5.39716,"is_reserved":false,"is_disabled":false,"rental_uris":{"android":"levelo://app?vid=25a235b7-3b5d-4bbd-9b7e-7bd77524d1e3","ios":"levelo://app?vid=25a235b7-3b5d-4bbd-9b7e-7bd77524d1e3"},"vehicle_type_id":"4","last_reported":1773958643,"current_range_meters":4800,"station_id":"ce4bhn12rcd13ifvqgpg","pricing_plan_id":"cebpf4jnsgd1na2vs0mg"},{"bike_id":"719e9861-af82-4022-a2ea-bd7d6f00ff5f","system_id":"levelo_inurba_marseille","lat":43.28746,"lon":5.4252,"is_reserved":false,"is_disabled":true,"rental_uris":{"android":"levelo://app?vid=719e9861-af82-4022-a2ea-bd7d6f00ff5f","ios":"levelo://app?vid=719e9861-af82-4022-a2ea-bd7d6f00ff5f"},"vehicle_type_id":"4","last_reported":1773958643,"current_range_meters":4800,"station_id":"","pricing_plan_id":"cebpf4jnsgd1na2vs0mg"},{"bike_id":"e3477dd6-c174-46a3-b6c3-72f5a3403754","system_id":"levelo_inurba_marseille","lat":43.30287,"lon":5.37696,"is_reserved":false,"is_disabled":false,"rental_uris":{"android":"levelo://app?vid=e3477dd6-c174-46a3-b6c3-72f5a3403754","ios":"levelo://app?vid=e3477dd6-c174-46a3-b6c3-72f5a3403754"},"vehicle_type_id":"4","last_reported":1773958643,"current_range_meters":4800,"station_id":"ce4bguh2rcd13ifvqcj0","pricing_plan_id":"cebpf4jnsgd1na2vs0mg"},{"bike_id":"8c29270d-5d11-446e-a3f0-f5c56ae9c816","system_id":"levelo_inurba_marseille","lat":43.27561,"lon":5.43273,"is_reserved":false,"is_disabled":false,"rental_uris":{"android":"levelo://app?vid=8c29270d-5d11-446e-a3f0-f5c56ae9c816","ios":"levelo://app?vid=8c29270d-5d11-446e-a3f0-f5c56ae9c816"},"vehicle_type_id":"4","last_reported":1773958643,"current_range_meters":4800,"station_id":"","pricing_plan_id":"cebpf4jnsgd1na2vs0mg"},{"bike_id":"a424990f-3052-48e0-895c-8bd9a527cdb2","system_id":"levelo_inurba_marseille","lat":43.27943,"lon":5.41059,"is_reserved":false,"is_disabled":false,"rental_uris":{"android":"levelo://app?vid=a424990f-3052-48e0-895c-8bd9a527cdb2","ios":"levelo://app?vid=a424990f-3052-48e0-895c-8bd9a527cdb2"},"vehicle_type_id":"4","last_reported":1773958643,"current_range_meters":4800,"station_id":"ce4bhnp2rcd13ifvqh0g","pricing_plan_id":"cebpf4jnsgd1na2vs0mg"},{"bike_id":"ce3de70d-803e-41a9-94a2-96315c3a59ac","system_id":"levelo_inurba_marseille","lat":43.32108,"lon":5.36768,"is_reserved":false,"is_disabled":false,"rental_uris":{"android":"levelo://app?vid=ce3de70d-803e-41a9-94a2-96315c3a59ac","ios":"levelo://app?vid=ce3de70d-803e-41a9-94a2-96315c3a59ac"},"vehicle_type_id":"4","last_reported":1773958643,"current_range_meters":4800,"station_id":"ce4bhrh2rcd13ifvqhug","pricing_plan_id":"cebpf4jnsgd1na2vs0mg"},{"bike_id":"48acfc88-48b7-4209-8764-091aea23d072","system_id":"levelo_inurba_marseille","lat":43.29804,"lon":5.40395,"is_reserved":false,"is_disabled":false,"rental_uris":{"android":"levelo://app?vid=48acfc88-48b7-4209-8764-091aea23d072","ios":"levelo://app?vid=48acfc88-48b7-4209-8764-091aea23d072"},"vehicle_type_id":"4","last_reported":1773958643,"current_range_meters":4800,"station_id":"ce4bh112rcd13ifvqd90","pricing_plan_id":"cebpf4jnsgd1na2vs0mg"},{"bike_id":"abbf6d01-98c5-4c6a-8da3-f3a3ead823a7","system_id":"levelo_inurba_marseille","lat":43.3043,"lon":5.39752,"is_reserved":false,"is_disabled":false,"rental_uris":{"android":"levelo://app?vid=abbf6d01-98c5-4c6a-8da3-f3a3ead823a7","ios":"levelo://app?vid=abbf6d01-98c5-4c6a-8da3-f3a3ead823a7"},"vehicle_type_id":"4","last_reported":1773958643,"current_range_meters":4800,"station_id":"ce4bh092rcd13ifvqd20","pricing_plan_id":"cebpf4jnsgd1na2vs0mg"},{"bike_id":"dfb50274-b480-429d-83e7-3bb330b8540f","system_id":"levelo_inurba_marseille","lat":43.25503,"lon":5.3765,"is_reserved":false,"is_disabled":false,"rental_uris":{"android":"levelo://app?vid=dfb50274-b480-429d-83e7-3bb330b8540f","ios":"levelo://app?vid=dfb50274-b480-429d-83e7-3bb330b8540f"},"vehicle_type_id":"4","last_reported":1773958643,"current_range_meters":4800,"station_id":"ce4bhh12rcd13ifvqff0","pricing_plan_id":"cebpf4jnsgd1na2vs0mg"},{"bike_id":"ed8097f4-1927-4a8a-8b99-d97c4afff5fb","system_id":"levelo_inurba_marseille","lat":43.28414,"lon":5.34993,"is_reserved":false,"is_disabled":false,"rental_uris":{"android":"levelo://app?vid=ed8097f4-1927-4a8a-8b99-d97c4afff5fb","ios":"levelo://app?vid=ed8097f4-1927-4a8a-8b99-d97c4afff5fb"},"vehicle_type_id":"4","last_reported":1773958643,"current_range_meters":4800,"station_id":"ce4bhbh2rcd13ifvqepg","pricing_plan_id":"cebpf4jnsgd1na2vs0mg"},{"bike_id":"5595d89f-a67d-4282-ae51-d894ad39c54d","system_id":"levelo_inurba_marseille","lat":43.28259,"lon":5.35077,"is_reserved":false,"is_disabled":false,"rental_uris":{"android":"levelo://app?vid=5595d89f-a67d-4282-ae51-d894ad39c54d","ios":"levelo://app?vid=5595d89f-a67d-4282-ae51-d894ad39c54d"},"vehicle_type_id":"4","last_reported":1773958643,"current_range_meters":4800,"station_id":"ce4bhbp2rcd13ifvqerg","pricing_plan_id":"cebpf4jnsgd1na2vs0mg"},{"bike_id":"ec154815-4332-4ea6-b0be-1525e5a6b5ed","system_id":"levelo_inurba_marseille","lat":43.30896,"lon":5.39624,"is_reserved":false,"is_disabled":false,"rental_uris":{"android":"levelo://app?vid=ec154815-4332-4ea6-b0be-1525e5a6b5ed","ios":"levelo://app?vid=ec154815-4332-4ea6-b0be-1525e5a6b5ed"},"vehicle_type_id":"4","last_reported":1773958643,"current_range_meters":4800,"station_id":"ce4bh012rcd13ifvqcv0","pricing_plan_id":"cebpf4jnsgd1na2vs0mg"},{"bike_id":"5f744b7f-d9ac-4940-9d12-c0e19756661f","system_id":"levelo_inurba_marseille","lat":43.29431,"lon":5.41322,"is_reserved":false,"is_disabled":false,"rental_uris":{"android":"levelo://app?vid=5f744b7f-d9ac-4940-9d12-c0e19756661f","ios":"levelo://app?vid=5f744b7f-d9ac-4940-9d12-c0e19756661f"},"vehicle_type_id":"4","last_reported":1773958643,"current_range_meters":4800,"station_id":"","pricing_plan_id":"cebpf4jnsgd1na2vs0mg"},{"bike_id":"e0666e0d-2b87-421d-a654-8a669cd5994c","system_id":"levelo_inurba_marseille","lat":43.28866,"lon":5.39329,"is_reserved":false,"is_disabled":false,"rental_uris":{"android":"levelo://app?vid=e0666e0d-2b87-421d-a654-8a669cd5994c","ios":"levelo://app?vid=e0666e0d-2b87-421d-a654-8a669cd5994c"},"vehicle_type_id":"4","last_reported":1773958643,"current_range_meters":5600,"station_id":"ce4bh2p2rcd13ifvqdi0","pricing_plan_id":"cebpf4jnsgd1na2vs0mg"},{"bike_id":"f8002e32-7d40-48f8-99b3-a631b985eba5","system_id":"levelo_inurba_marseille","lat":43.337566,"lon":5.374557,"is_reserved":false,"is_disabled":false,"rental_uris":{"android":"levelo://app?vid=f8002e32-7d40-48f8-99b3-a631b985eba5","ios":"levelo://app?vid=f8002e32-7d40-48f8-99b3-a631b985eba5"},"vehicle_type_id":"4","last_reported":1773958643,"current_range_meters":5600,"station_id":"","pricing_plan_id":"cebpf4jnsgd1na2vs0mg"},{"bike_id":"559a7de9-c451-4cf2-b8c2-8c88946ed0d2","system_id":"levelo_inurba_marseille","lat":43.287,"lon":5.39984,"is_reserved":false,"is_disabled":false,"rental_uris":{"android":"levelo://app?vid=559a7de9-c451-4cf2-b8c2-8c88946ed0d2","ios":"levelo://app?vid=559a7de9-c451-4cf2-b8c2-8c88946ed0d2"},"vehicle_type_id":"4","last_reported":1773958643,"current_range_meters":5600,"station_id":"ce4bho92rcd13ifvqh3g","pricing_plan_id":"cebpf4jnsgd1na2vs0mg"},{"bike_id":"f7e79517-161a-451a-8a95-bb710b1b4d21","system_id":"levelo_inurba_marseille","lat":43.29846,"lon":5.37908,"is_reserved":false,"is_disabled":false,"rental_uris":{"android":"levelo://app?vid=f7e79517-161a-451a-8a95-bb710b1b4d21","ios":"levelo://app?vid=f7e79517-161a-451a-8a95-bb710b1b4d21"},"vehicle_type_id":"4","last_reported":1773958643,"current_range_meters":5600,"station_id":"","pricing_plan_id":"cebpf4jnsgd1na2vs0mg"},{"bike_id":"d48ffa31-e333-4dfb-b63b-e2b4aa56efa0","system_id":"levelo_inurba_marseille","lat":43.28443,"lon":5.39201,"is_reserved":false,"is_disabled":false,"rental_uris":{"android":"levelo://app?vid=d48ffa31-e333-4dfb-b63b-e2b4aa56efa0","ios":"levelo://app?vid=d48ffa31-e333-4dfb-b63b-e2b4aa56efa0"},"vehicle_type_id":"4","last_reported":1773958643,"current_range_meters":5600,"station_id":"ce4bhoh2rcd13ifvqh5g","pricing_plan_id":"cebpf4jnsgd1na2vs0mg"},{"bike_id":"3ead39a4-807a-44fa-84fd-662cbd412bef","system_id":"levelo_inurba_marseille","lat":43.32112,"lon":5.36785,"is_reserved":false,"is_disabled":false,"rental_uris":{"android":"levelo://app?vid=3ead39a4-807a-44fa-84fd-662cbd412bef","ios":"levelo://app?vid=3ead39a4-807a-44fa-84fd-662cbd412bef"},"vehicle_type_id":"4","last_reported":1773958643,"current_range_meters":5600,"station_id":"ce4bhrh2rcd13ifvqhug","pricing_plan_id":"cebpf4jnsgd1na2vs0mg"},{"bike_id":"8efb2036-3cd5-484d-95bf-dc4f3d42721f","system_id":"levelo_inurba_marseille","lat":43.2937,"lon":5.37863,"is_reserved":false,"is_disabled":false,"rental_uris":{"android":"levelo://app?vid=8efb2036-3cd5-484d-95bf-dc4f3d42721f","ios":"levelo://app?vid=8efb2036-3cd5-484d-95bf-dc4f3d42721f"},"vehicle_type_id":"4","last_reported":1773958643,"current_range_meters":5600,"station_id":"ce4bgjh2rcd13ifvqbf0","pricing_plan_id":"cebpf4jnsgd1na2vs0mg"},{"bike_id":"3fd8ef50-88b4-42ca-93ad-316de6f9e9bc","system_id":"levelo_inurba_marseille","lat":43.28159,"lon":5.42643,"is_reserved":false,"is_disabled":false,"rental_uris":{"android":"levelo://app?vid=3fd8ef50-88b4-42ca-93ad-316de6f9e9bc","ios":"levelo://app?vid=3fd8ef50-88b4-42ca-93ad-316de6f9e9bc"},"vehicle_type_id":"4","last_reported":1773958643,"current_range_meters":5600,"station_id":"ce4bhnh2rcd13ifvqgug","pricing_plan_id":"cebpf4jnsgd1na2vs0mg"},{"bike_id":"26894708-3348-4a66-ba65-18b1bce3496c","system_id":"levelo_inurba_marseille","lat":43.27901,"lon":5.38017,"is_reserved":false,"is_disabled":false,"rental_uris":{"android":"levelo://app?vid=26894708-3348-4a66-ba65-18b1bce3496c","ios":"levelo://app?vid=26894708-3348-4a66-ba65-18b1bce3496c"},"vehicle_type_id":"4","last_reported":1773958643,"current_range_meters":5600,"station_id":"ce4bhf92rcd13ifvqf50","pricing_plan_id":"cebpf4jnsgd1na2vs0mg"},{"bike_id":"80b7eb86-d44d-4945-8f3c-c36c8aeeddf5","system_id":"levelo_inurba_marseille","lat":43.28228,"lon":5.39053,"is_reserved":false,"is_disabled":false,"rental_uris":{"android":"levelo://app?vid=80b7eb86-d44d-4945-8f3c-c36c8aeeddf5","ios":"levelo://app?vid=80b7eb86-d44d-4945-8f3c-c36c8aeeddf5"},"vehicle_type_id":"4","last_reported":1773958643,"current_range_meters":5600,"station_id":"ce4bhn92rcd13ifvqgsg","pricing_plan_id":"cebpf4jnsgd1na2vs0mg"},{"bike_id":"9099aa21-6599-49cd-9d3d-a06f4b9a58ad","system_id":"levelo_inurba_marseille","lat":43.302857,"lon":5.377175,"is_reserved":false,"is_disabled":false,"rental_uris":{"android":"levelo://app?vid=9099aa21-6599-49cd-9d3d-a06f4b9a58ad","ios":"levelo://app?vid=9099aa21-6599-49cd-9d3d-a06f4b9a58ad"},"vehicle_type_id":"4","last_reported":1773958643,"current_range_meters":5600,"station_id":"ce4bguh2rcd13ifvqcj0","pricing_plan_id":"cebpf4jnsgd1na2vs0mg"},{"bike_id":"3cdb9282-92ea-46a0-a841-f2dd988ecc68","system_id":"levelo_inurba_marseille","lat":43.22947,"lon":5.35405,"is_reserved":false,"is_disabled":false,"rental_uris":{"android":"levelo://app?vid=3cdb9282-92ea-46a0-a841-f2dd988ecc68","ios":"levelo://app?vid=3cdb9282-92ea-46a0-a841-f2dd988ecc68"},"vehicle_type_id":"4","last_reported":1773958643,"current_range_meters":5600,"station_id":"cpo3532slgdg3j2ikp40","pricing_plan_id":"cebpf4jnsgd1na2vs0mg"},{"bike_id":"24dc1ce5-2db6-421b-869a-69d6f082b300","system_id":"levelo_inurba_marseille","lat":43.29759,"lon":5.36253,"is_reserved":false,"is_disabled":false,"rental_uris":{"android":"levelo://app?vid=24dc1ce5-2db6-421b-869a-69d6f082b300","ios":"levelo://app?vid=24dc1ce5-2db6-421b-869a-69d6f082b300"},"vehicle_type_id":"4","last_reported":1773958643,"current_range_meters":6000,"station_id":"","pricing_plan_id":"cebpf4jnsgd1na2vs0mg"},{"bike_id":"22fe735b-364e-4089-9798-d8b00c4df9e5","system_id":"levelo_inurba_marseille","lat":43.255768,"lon":5.382397,"is_reserved":false,"is_disabled":false,"rental_uris":{"android":"levelo://app?vid=22fe735b-364e-4089-9798-d8b00c4df9e5","ios":"levelo://app?vid=22fe735b-364e-4089-9798-d8b00c4df9e5"},"vehicle_type_id":"4","last_reported":1773958643,"current_range_meters":6000,"station_id":"ce4bhih2rcd13ifvqfs0","pricing_plan_id":"cebpf4jnsgd1na2vs0mg"},{"bike_id":"aa912512-782f-43ea-879d-41a967be0aa2","system_id":"levelo_inurba_marseille","lat":43.29529,"lon":5.38544,"is_reserved":false,"is_disabled":false,"rental_uris":{"android":"levelo://app?vid=aa912512-782f-43ea-879d-41a967be0aa2","ios":"levelo://app?vid=aa912512-782f-43ea-879d-41a967be0aa2"},"vehicle_type_id":"4","last_reported":1773958643,"current_range_meters":6000,"station_id":"ce4bgih2rcd13ifvqba0","pricing_plan_id":"cebpf4jnsgd1na2vs0mg"},{"bike_id":"e71aee5c-105a-4327-9048-67909c29ab24","system_id":"levelo_inurba_marseille","lat":43.28932,"lon":5.3842,"is_reserved":false,"is_disabled":false,"rental_uris":{"android":"levelo://app?vid=e71aee5c-105a-4327-9048-67909c29ab24","ios":"levelo://app?vid=e71aee5c-105a-4327-9048-67909c29ab24"},"vehicle_type_id":"4","last_reported":1773958643,"current_range_meters":6000,"station_id":"ce4bh612rcd13ifvqe6g","pricing_plan_id":"cebpf4jnsgd1na2vs0mg"},{"bike_id":"38a97b73-9fc2-4c5c-8c62-bd7f15209d86","system_id":"levelo_inurba_marseille","lat":43.29598,"lon":5.38107,"is_reserved":false,"is_disabled":false,"rental_uris":{"android":"levelo://app?vid=38a97b73-9fc2-4c5c-8c62-bd7f15209d86","ios":"levelo://app?vid=38a97b73-9fc2-4c5c-8c62-bd7f15209d86"},"vehicle_type_id":"4","last_reported":1773958643,"current_range_meters":6000,"station_id":"ce4bgl12rcd13ifvqbo0","pricing_plan_id":"cebpf4jnsgd1na2vs0mg"},{"bike_id":"54ecb19e-3411-447d-b69f-81eb3f2adf32","system_id":"levelo_inurba_marseille","lat":43.28735,"lon":5.36094,"is_reserved":false,"is_disabled":false,"rental_uris":{"android":"levelo://app?vid=54ecb19e-3411-447d-b69f-81eb3f2adf32","ios":"levelo://app?vid=54ecb19e-3411-447d-b69f-81eb3f2adf32"},"vehicle_type_id":"4","last_reported":1773958643,"current_range_meters":6000,"station_id":"cki0cbj6b192h4jlfktg","pricing_plan_id":"cebpf4jnsgd1na2vs0mg"},{"bike_id":"d587c369-7b5a-4f48-88cf-962803ec71ba","system_id":"levelo_inurba_marseille","lat":43.24813,"lon":5.37455,"is_reserved":false,"is_disabled":false,"rental_uris":{"android":"levelo://app?vid=d587c369-7b5a-4f48-88cf-962803ec71ba","ios":"levelo://app?vid=d587c369-7b5a-4f48-88cf-962803ec71ba"},"vehicle_type_id":"4","last_reported":1773958643,"current_range_meters":6000,"station_id":"ce4bhgh2rcd13ifvqfb0","pricing_plan_id":"cebpf4jnsgd1na2vs0mg"},{"bike_id":"a7708d63-d82f-4c4d-b348-e4a739be45ee","system_id":"levelo_inurba_marseille","lat":43.28407,"lon":5.3755,"is_reserved":false,"is_disabled":false,"rental_uris":{"android":"levelo://app?vid=a7708d63-d82f-4c4d-b348-e4a739be45ee","ios":"levelo://app?vid=a7708d63-d82f-4c4d-b348-e4a739be45ee"},"vehicle_type_id":"4","last_reported":1773958643,"current_range_meters":6000,"station_id":"ce4bh412rcd13ifvqds0","pricing_plan_id":"cebpf4jnsgd1na2vs0mg"},{"bike_id":"69dc0199-53d1-4a6e-ade3-580f2c888e49","system_id":"levelo_inurba_marseille","lat":43.24626,"lon":5.38908,"is_reserved":false,"is_disabled":false,"rental_uris":{"android":"levelo://app?vid=69dc0199-53d1-4a6e-ade3-580f2c888e49","ios":"levelo://app?vid=69dc0199-53d1-4a6e-ade3-580f2c888e49"},"vehicle_type_id":"4","last_reported":1773958643,"current_range_meters":6000,"station_id":"ce4bhg12rcd13ifvqf60","pricing_plan_id":"cebpf4jnsgd1na2vs0mg"},{"bike_id":"864f588c-6c9a-47f2-bf8a-559a5ddb02ea","system_id":"levelo_inurba_marseille","lat":43.32113,"lon":5.36786,"is_reserved":false,"is_disabled":false,"rental_uris":{"android":"levelo://app?vid=864f588c-6c9a-47f2-bf8a-559a5ddb02ea","ios":"levelo://app?vid=864f588c-6c9a-47f2-bf8a-559a5ddb02ea"},"vehicle_type_id":"4","last_reported":1773958643,"current_range_meters":6400,"station_id":"ce4bhrh2rcd13ifvqhug","pricing_plan_id":"cebpf4jnsgd1na2vs0mg"},{"bike_id":"6018d565-5c8a-4bab-ba5d-0061fbbaec08","system_id":"levelo_inurba_marseille","lat":43.22928,"lon":5.35415,"is_reserved":false,"is_disabled":false,"rental_uris":{"android":"levelo://app?vid=6018d565-5c8a-4bab-ba5d-0061fbbaec08","ios":"levelo://app?vid=6018d565-5c8a-4bab-ba5d-0061fbbaec08"},"vehicle_type_id":"4","last_reported":1773958643,"current_range_meters":6400,"station_id":"cpo3532slgdg3j2ikp40","pricing_plan_id":"cebpf4jnsgd1na2vs0mg"},{"bike_id":"78beea6e-fd38-45c1-919e-297e7a3c4aab","system_id":"levelo_inurba_marseille","lat":43.28627,"lon":5.37067,"is_reserved":false,"is_disabled":false,"rental_uris":{"android":"levelo://app?vid=78beea6e-fd38-45c1-919e-297e7a3c4aab","ios":"levelo://app?vid=78beea6e-fd38-45c1-919e-297e7a3c4aab"},"vehicle_type_id":"4","last_reported":1773958643,"current_range_meters":6400,"station_id":"ce4bht12rcd13ifvqi60","pricing_plan_id":"cebpf4jnsgd1na2vs0mg"},{"bike_id":"dd10efc5-28b9-436a-be78-8011941e89fc","system_id":"levelo_inurba_marseille","lat":43.28485,"lon":5.48388,"is_reserved":false,"is_disabled":false,"rental_uris":{"android":"levelo://app?vid=dd10efc5-28b9-436a-be78-8011941e89fc","ios":"levelo://app?vid=dd10efc5-28b9-436a-be78-8011941e89fc"},"vehicle_type_id":"4","last_reported":1773958643,"current_range_meters":6400,"station_id":"st_d3svhcjqgbts73a3dn0g","pricing_plan_id":"cebpf4jnsgd1na2vs0mg"},{"bike_id":"18687c1e-a1c4-411a-ba44-cfdaf5da275b","system_id":"levelo_inurba_marseille","lat":43.30303,"lon":5.39282,"is_reserved":false,"is_disabled":false,"rental_uris":{"android":"levelo://app?vid=18687c1e-a1c4-411a-ba44-cfdaf5da275b","ios":"levelo://app?vid=18687c1e-a1c4-411a-ba44-cfdaf5da275b"},"vehicle_type_id":"4","last_reported":1773958643,"current_range_meters":6400,"station_id":"ce4bgkh2rcd13ifvqbk0","pricing_plan_id":"cebpf4jnsgd1na2vs0mg"},{"bike_id":"e84409cd-ab11-47ab-92ac-0bad50daf5c3","system_id":"levelo_inurba_marseille","lat":43.31922,"lon":5.36806,"is_reserved":false,"is_disabled":false,"rental_uris":{"android":"levelo://app?vid=e84409cd-ab11-47ab-92ac-0bad50daf5c3","ios":"levelo://app?vid=e84409cd-ab11-47ab-92ac-0bad50daf5c3"},"vehicle_type_id":"4","last_reported":1773958643,"current_range_meters":6400,"station_id":"st_d6o2h0d0559c73evc1b0","pricing_plan_id":"cebpf4jnsgd1na2vs0mg"},{"bike_id":"17a139df-17a2-4cb5-8cdc-aa40d036a00a","system_id":"levelo_inurba_marseille","lat":43.23791,"lon":5.36576,"is_reserved":false,"is_disabled":false,"rental_uris":{"android":"levelo://app?vid=17a139df-17a2-4cb5-8cdc-aa40d036a00a","ios":"levelo://app?vid=17a139df-17a2-4cb5-8cdc-aa40d036a00a"},"vehicle_type_id":"4","last_reported":1773958643,"current_range_meters":6400,"station_id":"st_d3nk18o9ro0c73en2l3g","pricing_plan_id":"cebpf4jnsgd1na2vs0mg"},{"bike_id":"27967914-0dc5-4f0b-86f1-41010d810018","system_id":"levelo_inurba_marseille","lat":43.28942,"lon":5.39634,"is_reserved":false,"is_disabled":false,"rental_uris":{"android":"levelo://app?vid=27967914-0dc5-4f0b-86f1-41010d810018","ios":"levelo://app?vid=27967914-0dc5-4f0b-86f1-41010d810018"},"vehicle_type_id":"4","last_reported":1773958643,"current_range_meters":6400,"station_id":"ce4bh3h2rcd13ifvqdn0","pricing_plan_id":"cebpf4jnsgd1na2vs0mg"},{"bike_id":"6cda15e7-fe2d-4eca-9a9a-008e31fbee7c","system_id":"levelo_inurba_marseille","lat":43.24665,"lon":5.38204,"is_reserved":false,"is_disabled":true,"rental_uris":{"android":"levelo://app?vid=6cda15e7-fe2d-4eca-9a9a-008e31fbee7c","ios":"levelo://app?vid=6cda15e7-fe2d-4eca-9a9a-008e31fbee7c"},"vehicle_type_id":"4","last_reported":1773958643,"current_range_meters":6400,"station_id":"ce4bhih2rcd13ifvqfr0","pricing_plan_id":"cebpf4jnsgd1na2vs0mg"},{"bike_id":"1a35434d-c9e2-448e-ab11-b763a506a6ff","system_id":"levelo_inurba_marseille","lat":43.29928,"lon":5.38091,"is_reserved":false,"is_disabled":true,"rental_uris":{"android":"levelo://app?vid=1a35434d-c9e2-448e-ab11-b763a506a6ff","ios":"levelo://app?vid=1a35434d-c9e2-448e-ab11-b763a506a6ff"},"vehicle_type_id":"4","last_reported":1773958643,"current_range_meters":6400,"station_id":"","pricing_plan_id":"cebpf4jnsgd1na2vs0mg"},{"bike_id":"9a3ba1e1-a98c-448e-ae24-c9bdbdc03608","system_id":"levelo_inurba_marseille","lat":43.27309,"lon":5.39099,"is_reserved":false,"is_disabled":false,"rental_uris":{"android":"levelo://app?vid=9a3ba1e1-a98c-448e-ae24-c9bdbdc03608","ios":"levelo://app?vid=9a3ba1e1-a98c-448e-ae24-c9bdbdc03608"},"vehicle_type_id":"4","last_reported":1773958643,"current_range_meters":6400,"station_id":"ce4bhgp2rcd13ifvqfe0","pricing_plan_id":"cebpf4jnsgd1na2vs0mg"},{"bike_id":"1ed14975-ffc4-4856-bb43-9428d8562a11","system_id":"levelo_inurba_marseille","lat":43.2836,"lon":5.38109,"is_reserved":false,"is_disabled":false,"rental_uris":{"android":"levelo://app?vid=1ed14975-ffc4-4856-bb43-9428d8562a11","ios":"levelo://app?vid=1ed14975-ffc4-4856-bb43-9428d8562a11"},"vehicle_type_id":"4","last_reported":1773958643,"current_range_meters":6400,"station_id":"ce4bh412rcd13ifvqdr0","pricing_plan_id":"cebpf4jnsgd1na2vs0mg"},{"bike_id":"cf21a704-d1d6-45ac-b508-b7d48f023c9f","system_id":"levelo_inurba_marseille","lat":43.32105,"lon":5.36762,"is_reserved":false,"is_disabled":false,"rental_uris":{"android":"levelo://app?vid=cf21a704-d1d6-45ac-b508-b7d48f023c9f","ios":"levelo://app?vid=cf21a704-d1d6-45ac-b508-b7d48f023c9f"},"vehicle_type_id":"4","last_reported":1773958643,"current_range_meters":6800,"station_id":"ce4bhrh2rcd13ifvqhug","pricing_plan_id":"cebpf4jnsgd1na2vs0mg"},{"bike_id":"a11c8cfa-453a-4892-a974-6a22bafa8290","system_id":"levelo_inurba_marseille","lat":43.23194,"lon":5.35555,"is_reserved":false,"is_disabled":false,"rental_uris":{"android":"levelo://app?vid=a11c8cfa-453a-4892-a974-6a22bafa8290","ios":"levelo://app?vid=a11c8cfa-453a-4892-a974-6a22bafa8290"},"vehicle_type_id":"4","last_reported":1773958643,"current_range_meters":6800,"station_id":"ce4bhu92rcd13ifvqi70","pricing_plan_id":"cebpf4jnsgd1na2vs0mg"},{"bike_id":"a9b7ca13-2660-4df5-ac7e-17daa08bbb3e","system_id":"levelo_inurba_marseille","lat":43.28926,"lon":5.38381,"is_reserved":false,"is_disabled":false,"rental_uris":{"android":"levelo://app?vid=a9b7ca13-2660-4df5-ac7e-17daa08bbb3e","ios":"levelo://app?vid=a9b7ca13-2660-4df5-ac7e-17daa08bbb3e"},"vehicle_type_id":"4","last_reported":1773958643,"current_range_meters":6800,"station_id":"ce4bh612rcd13ifvqe6g","pricing_plan_id":"cebpf4jnsgd1na2vs0mg"},{"bike_id":"dd2f7881-755c-4593-bb3a-7ba359f1b823","system_id":"levelo_inurba_marseille","lat":43.29091,"lon":5.38182,"is_reserved":false,"is_disabled":true,"rental_uris":{"android":"levelo://app?vid=dd2f7881-755c-4593-bb3a-7ba359f1b823","ios":"levelo://app?vid=dd2f7881-755c-4593-bb3a-7ba359f1b823"},"vehicle_type_id":"4","last_reported":1773958643,"current_range_meters":6800,"station_id":"ce4bh512rcd13ifvqe2g","pricing_plan_id":"cebpf4jnsgd1na2vs0mg"},{"bike_id":"d5f7f0bf-c4f5-45e1-bf7d-f4959ca7505e","system_id":"levelo_inurba_marseille","lat":43.24398,"lon":5.37087,"is_reserved":false,"is_disabled":false,"rental_uris":{"android":"levelo://app?vid=d5f7f0bf-c4f5-45e1-bf7d-f4959ca7505e","ios":"levelo://app?vid=d5f7f0bf-c4f5-45e1-bf7d-f4959ca7505e"},"vehicle_type_id":"4","last_reported":1773958643,"current_range_meters":6800,"station_id":"ce4bhhh2rcd13ifvqfk0","pricing_plan_id":"cebpf4jnsgd1na2vs0mg"},{"bike_id":"d03a2022-6922-4b85-aada-659333694e5e","system_id":"levelo_inurba_marseille","lat":43.3118,"lon":5.38723,"is_reserved":false,"is_disabled":true,"rental_uris":{"android":"levelo://app?vid=d03a2022-6922-4b85-aada-659333694e5e","ios":"levelo://app?vid=d03a2022-6922-4b85-aada-659333694e5e"},"vehicle_type_id":"4","last_reported":1773958643,"current_range_meters":6800,"station_id":"ce4bgv12rcd13ifvqcp0","pricing_plan_id":"cebpf4jnsgd1na2vs0mg"},{"bike_id":"9098e1ad-ffd0-4889-a7cb-60e0231d0835","system_id":"levelo_inurba_marseille","lat":43.28454,"lon":5.35884,"is_reserved":false,"is_disabled":false,"rental_uris":{"android":"levelo://app?vid=9098e1ad-ffd0-4889-a7cb-60e0231d0835","ios":"levelo://app?vid=9098e1ad-ffd0-4889-a7cb-60e0231d0835"},"vehicle_type_id":"4","last_reported":1773958643,"current_range_meters":6800,"station_id":"ce4bhah2rcd13ifvqei0","pricing_plan_id":"cebpf4jnsgd1na2vs0mg"},{"bike_id":"7d7853e1-0f0f-4593-acfa-ac807596e39d","system_id":"levelo_inurba_marseille","lat":43.28687,"lon":5.37409,"is_reserved":false,"is_disabled":false,"rental_uris":{"android":"levelo://app?vid=7d7853e1-0f0f-4593-acfa-ac807596e39d","ios":"levelo://app?vid=7d7853e1-0f0f-4593-acfa-ac807596e39d"},"vehicle_type_id":"4","last_reported":1773958643,"current_range_meters":6800,"station_id":"ce4bh3p2rcd13ifvqdq0","pricing_plan_id":"cebpf4jnsgd1na2vs0mg"},{"bike_id":"a7589a93-7e92-46e3-9adb-33c382fc7b2d","system_id":"levelo_inurba_marseille","lat":43.23909,"lon":5.36684,"is_reserved":false,"is_disabled":false,"rental_uris":{"android":"levelo://app?vid=a7589a93-7e92-46e3-9adb-33c382fc7b2d","ios":"levelo://app?vid=a7589a93-7e92-46e3-9adb-33c382fc7b2d"},"vehicle_type_id":"4","last_reported":1773958643,"current_range_meters":6800,"station_id":"","pricing_plan_id":"cebpf4jnsgd1na2vs0mg"},{"bike_id":"47b958a5-a9e9-4494-8472-abb0f760256b","system_id":"levelo_inurba_marseille","lat":43.23783,"lon":5.36633,"is_reserved":false,"is_disabled":false,"rental_uris":{"android":"levelo://app?vid=47b958a5-a9e9-4494-8472-abb0f760256b","ios":"levelo://app?vid=47b958a5-a9e9-4494-8472-abb0f760256b"},"vehicle_type_id":"4","last_reported":1773958643,"current_range_meters":6800,"station_id":"st_d3nk18o9ro0c73en2l3g","pricing_plan_id":"cebpf4jnsgd1na2vs0mg"},{"bike_id":"b7e87515-c3ea-478e-bf01-a70f86b2f092","system_id":"levelo_inurba_marseille","lat":43.24174,"lon":5.36399,"is_reserved":false,"is_disabled":false,"rental_uris":{"android":"levelo://app?vid=b7e87515-c3ea-478e-bf01-a70f86b2f092","ios":"levelo://app?vid=b7e87515-c3ea-478e-bf01-a70f86b2f092"},"vehicle_type_id":"4","last_reported":1773958643,"current_range_meters":6800,"station_id":"cpo36qri1sfpv3e86is0","pricing_plan_id":"cebpf4jnsgd1na2vs0mg"},{"bike_id":"2042b168-377d-44b9-86a1-a8003ce7916b","system_id":"levelo_inurba_marseille","lat":43.31337,"lon":5.38824,"is_reserved":false,"is_disabled":false,"rental_uris":{"android":"levelo://app?vid=2042b168-377d-44b9-86a1-a8003ce7916b","ios":"levelo://app?vid=2042b168-377d-44b9-86a1-a8003ce7916b"},"vehicle_type_id":"4","last_reported":1773958643,"current_range_meters":6800,"station_id":"","pricing_plan_id":"cebpf4jnsgd1na2vs0mg"},{"bike_id":"1d986489-4acb-4a43-b8c2-1efed7591af6","system_id":"levelo_inurba_marseille","lat":43.29194,"lon":5.39316,"is_reserved":false,"is_disabled":false,"rental_uris":{"android":"levelo://app?vid=1d986489-4acb-4a43-b8c2-1efed7591af6","ios":"levelo://app?vid=1d986489-4acb-4a43-b8c2-1efed7591af6"},"vehicle_type_id":"4","last_reported":1773958643,"current_range_meters":6800,"station_id":"ce4bh192rcd13ifvqdd0","pricing_plan_id":"cebpf4jnsgd1na2vs0mg"},{"bike_id":"1fa6ae88-4570-45b6-a22f-8f6c4c98f8a7","system_id":"levelo_inurba_marseille","lat":43.28414,"lon":5.3753,"is_reserved":false,"is_disabled":false,"rental_uris":{"android":"levelo://app?vid=1fa6ae88-4570-45b6-a22f-8f6c4c98f8a7","ios":"levelo://app?vid=1fa6ae88-4570-45b6-a22f-8f6c4c98f8a7"},"vehicle_type_id":"4","last_reported":1773958643,"current_range_meters":6800,"station_id":"ce4bh412rcd13ifvqds0","pricing_plan_id":"cebpf4jnsgd1na2vs0mg"},{"bike_id":"e1fcda96-10f8-4416-a2de-b3c0381d6f12","system_id":"levelo_inurba_marseille","lat":43.27382,"lon":5.36258,"is_reserved":false,"is_disabled":true,"rental_uris":{"android":"levelo://app?vid=e1fcda96-10f8-4416-a2de-b3c0381d6f12","ios":"levelo://app?vid=e1fcda96-10f8-4416-a2de-b3c0381d6f12"},"vehicle_type_id":"4","last_reported":1773958643,"current_range_meters":6800,"station_id":"ce4bhbh2rcd13ifvqeo0","pricing_plan_id":"cebpf4jnsgd1na2vs0mg"},{"bike_id":"4a60aa53-47a8-4af9-8332-c7495b0c46f4","system_id":"levelo_inurba_marseille","lat":43.31158,"lon":5.38742,"is_reserved":false,"is_disabled":false,"rental_uris":{"android":"levelo://app?vid=4a60aa53-47a8-4af9-8332-c7495b0c46f4","ios":"levelo://app?vid=4a60aa53-47a8-4af9-8332-c7495b0c46f4"},"vehicle_type_id":"4","last_reported":1773958643,"current_range_meters":6800,"station_id":"ce4bgv12rcd13ifvqcp0","pricing_plan_id":"cebpf4jnsgd1na2vs0mg"},{"bike_id":"b59e4dc9-b7a0-4386-9262-625ee90db2ef","system_id":"levelo_inurba_marseille","lat":43.31163,"lon":5.38716,"is_reserved":false,"is_disabled":false,"rental_uris":{"android":"levelo://app?vid=b59e4dc9-b7a0-4386-9262-625ee90db2ef","ios":"levelo://app?vid=b59e4dc9-b7a0-4386-9262-625ee90db2ef"},"vehicle_type_id":"4","last_reported":1773958643,"current_range_meters":7200,"station_id":"ce4bgv12rcd13ifvqcp0","pricing_plan_id":"cebpf4jnsgd1na2vs0mg"},{"bike_id":"27cfd7f2-48c6-4fe4-9d82-e5b76120df75","system_id":"levelo_inurba_marseille","lat":43.29819,"lon":5.44058,"is_reserved":false,"is_disabled":false,"rental_uris":{"android":"levelo://app?vid=27cfd7f2-48c6-4fe4-9d82-e5b76120df75","ios":"levelo://app?vid=27cfd7f2-48c6-4fe4-9d82-e5b76120df75"},"vehicle_type_id":"4","last_reported":1773958643,"current_range_meters":7200,"station_id":"st_d3jp68qikq2c7381ktn0","pricing_plan_id":"cebpf4jnsgd1na2vs0mg"},{"bike_id":"13ece891-29b9-4ae9-a4c4-ae3da55ec954","system_id":"levelo_inurba_marseille","lat":43.23214,"lon":5.35541,"is_reserved":false,"is_disabled":false,"rental_uris":{"android":"levelo://app?vid=13ece891-29b9-4ae9-a4c4-ae3da55ec954","ios":"levelo://app?vid=13ece891-29b9-4ae9-a4c4-ae3da55ec954"},"vehicle_type_id":"4","last_reported":1773958643,"current_range_meters":7200,"station_id":"ce4bhu92rcd13ifvqi70","pricing_plan_id":"cebpf4jnsgd1na2vs0mg"},{"bike_id":"92fded19-de99-42e5-8e2b-38526f48eef0","system_id":"levelo_inurba_marseille","lat":43.28456,"lon":5.35895,"is_reserved":false,"is_disabled":false,"rental_uris":{"android":"levelo://app?vid=92fded19-de99-42e5-8e2b-38526f48eef0","ios":"levelo://app?vid=92fded19-de99-42e5-8e2b-38526f48eef0"},"vehicle_type_id":"4","last_reported":1773958643,"current_range_meters":7200,"station_id":"ce4bhah2rcd13ifvqei0","pricing_plan_id":"cebpf4jnsgd1na2vs0mg"},{"bike_id":"bd60a6ec-18d4-4476-ab1b-f354043c4b72","system_id":"levelo_inurba_marseille","lat":43.29798,"lon":5.42582,"is_reserved":false,"is_disabled":false,"rental_uris":{"android":"levelo://app?vid=bd60a6ec-18d4-4476-ab1b-f354043c4b72","ios":"levelo://app?vid=bd60a6ec-18d4-4476-ab1b-f354043c4b72"},"vehicle_type_id":"4","last_reported":1773958643,"current_range_meters":7200,"station_id":"","pricing_plan_id":"cebpf4jnsgd1na2vs0mg"},{"bike_id":"081a0881-89b6-4aec-8d87-38fd39de8439","system_id":"levelo_inurba_marseille","lat":43.28535,"lon":5.44115,"is_reserved":false,"is_disabled":false,"rental_uris":{"android":"levelo://app?vid=081a0881-89b6-4aec-8d87-38fd39de8439","ios":"levelo://app?vid=081a0881-89b6-4aec-8d87-38fd39de8439"},"vehicle_type_id":"4","last_reported":1773958643,"current_range_meters":7200,"station_id":"st_d3j3df2ikq2c7380ej80","pricing_plan_id":"cebpf4jnsgd1na2vs0mg"},{"bike_id":"52f6a6b9-7af9-4956-b458-baf5061e66bf","system_id":"levelo_inurba_marseille","lat":43.23348,"lon":5.44439,"is_reserved":false,"is_disabled":false,"rental_uris":{"android":"levelo://app?vid=52f6a6b9-7af9-4956-b458-baf5061e66bf","ios":"levelo://app?vid=52f6a6b9-7af9-4956-b458-baf5061e66bf"},"vehicle_type_id":"4","last_reported":1773958643,"current_range_meters":7200,"station_id":"","pricing_plan_id":"cebpf4jnsgd1na2vs0mg"},{"bike_id":"347a0133-45d3-4213-ae48-606f4453bbf3","system_id":"levelo_inurba_marseille","lat":43.23051,"lon":5.35494,"is_reserved":false,"is_disabled":false,"rental_uris":{"android":"levelo://app?vid=347a0133-45d3-4213-ae48-606f4453bbf3","ios":"levelo://app?vid=347a0133-45d3-4213-ae48-606f4453bbf3"},"vehicle_type_id":"4","last_reported":1773958643,"current_range_meters":7200,"station_id":"cpo3342slgdg3j2ifvpg","pricing_plan_id":"cebpf4jnsgd1na2vs0mg"},{"bike_id":"5b633a99-6e6c-40eb-b51a-c5e14db697a0","system_id":"levelo_inurba_marseille","lat":43.2707,"lon":5.42269,"is_reserved":false,"is_disabled":false,"rental_uris":{"android":"levelo://app?vid=5b633a99-6e6c-40eb-b51a-c5e14db697a0","ios":"levelo://app?vid=5b633a99-6e6c-40eb-b51a-c5e14db697a0"},"vehicle_type_id":"4","last_reported":1773958643,"current_range_meters":7200,"station_id":"ce4bhk92rcd13ifvqgb0","pricing_plan_id":"cebpf4jnsgd1na2vs0mg"},{"bike_id":"8c1bb7e1-fc52-410e-bc8b-57e5a8629823","system_id":"levelo_inurba_marseille","lat":43.29223,"lon":5.37727,"is_reserved":false,"is_disabled":false,"rental_uris":{"android":"levelo://app?vid=8c1bb7e1-fc52-410e-bc8b-57e5a8629823","ios":"levelo://app?vid=8c1bb7e1-fc52-410e-bc8b-57e5a8629823"},"vehicle_type_id":"4","last_reported":1773958643,"current_range_meters":7200,"station_id":"","pricing_plan_id":"cebpf4jnsgd1na2vs0mg"},{"bike_id":"31de91b8-2554-4f66-8bc6-9dfb581be216","system_id":"levelo_inurba_marseille","lat":43.28854,"lon":5.39328,"is_reserved":false,"is_disabled":false,"rental_uris":{"android":"levelo://app?vid=31de91b8-2554-4f66-8bc6-9dfb581be216","ios":"levelo://app?vid=31de91b8-2554-4f66-8bc6-9dfb581be216"},"vehicle_type_id":"4","last_reported":1773958643,"current_range_meters":7200,"station_id":"ce4bh2p2rcd13ifvqdi0","pricing_plan_id":"cebpf4jnsgd1na2vs0mg"},{"bike_id":"d51fe815-5335-4e1f-8e42-efe91c7e85aa","system_id":"levelo_inurba_marseille","lat":43.22935,"lon":5.35373,"is_reserved":false,"is_disabled":false,"rental_uris":{"android":"levelo://app?vid=d51fe815-5335-4e1f-8e42-efe91c7e85aa","ios":"levelo://app?vid=d51fe815-5335-4e1f-8e42-efe91c7e85aa"},"vehicle_type_id":"4","last_reported":1773958643,"current_range_meters":7200,"station_id":"cpo3532slgdg3j2ikp40","pricing_plan_id":"cebpf4jnsgd1na2vs0mg"},{"bike_id":"37131ae8-6ac4-4e77-bb30-297188d7a110","system_id":"levelo_inurba_marseille","lat":43.27998,"lon":5.40017,"is_reserved":false,"is_disabled":false,"rental_uris":{"android":"levelo://app?vid=37131ae8-6ac4-4e77-bb30-297188d7a110","ios":"levelo://app?vid=37131ae8-6ac4-4e77-bb30-297188d7a110"},"vehicle_type_id":"4","last_reported":1773958643,"current_range_meters":7200,"station_id":"ce4bho92rcd13ifvqh4g","pricing_plan_id":"cebpf4jnsgd1na2vs0mg"},{"bike_id":"9b15e990-a964-42e6-86de-69c5dc0befde","system_id":"levelo_inurba_marseille","lat":43.29194,"lon":5.3932,"is_reserved":false,"is_disabled":false,"rental_uris":{"android":"levelo://app?vid=9b15e990-a964-42e6-86de-69c5dc0befde","ios":"levelo://app?vid=9b15e990-a964-42e6-86de-69c5dc0befde"},"vehicle_type_id":"4","last_reported":1773958643,"current_range_meters":7200,"station_id":"ce4bh192rcd13ifvqdd0","pricing_plan_id":"cebpf4jnsgd1na2vs0mg"},{"bike_id":"e49b656b-03c2-45c8-ac66-a6c3f01b12f7","system_id":"levelo_inurba_marseille","lat":43.29018,"lon":5.38646,"is_reserved":false,"is_disabled":false,"rental_uris":{"android":"levelo://app?vid=e49b656b-03c2-45c8-ac66-a6c3f01b12f7","ios":"levelo://app?vid=e49b656b-03c2-45c8-ac66-a6c3f01b12f7"},"vehicle_type_id":"4","last_reported":1773958643,"current_range_meters":7200,"station_id":"ce4bh4p2rcd13ifvqe0g","pricing_plan_id":"cebpf4jnsgd1na2vs0mg"},{"bike_id":"7c3c850c-d941-46df-90f8-c540a86a8e1a","system_id":"levelo_inurba_marseille","lat":43.301,"lon":5.43132,"is_reserved":false,"is_disabled":false,"rental_uris":{"android":"levelo://app?vid=7c3c850c-d941-46df-90f8-c540a86a8e1a","ios":"levelo://app?vid=7c3c850c-d941-46df-90f8-c540a86a8e1a"},"vehicle_type_id":"4","last_reported":1773958643,"current_range_meters":7200,"station_id":"st_d3js3co5814s73ftftug","pricing_plan_id":"cebpf4jnsgd1na2vs0mg"},{"bike_id":"8feb4f3f-d67c-436e-8fbd-9c5f4b7cca97","system_id":"levelo_inurba_marseille","lat":43.29974,"lon":5.37185,"is_reserved":false,"is_disabled":false,"rental_uris":{"android":"levelo://app?vid=8feb4f3f-d67c-436e-8fbd-9c5f4b7cca97","ios":"levelo://app?vid=8feb4f3f-d67c-436e-8fbd-9c5f4b7cca97"},"vehicle_type_id":"4","last_reported":1773958643,"current_range_meters":7200,"station_id":"ce4bgr92rcd13ifvqc7g","pricing_plan_id":"cebpf4jnsgd1na2vs0mg"},{"bike_id":"27e71634-264f-4d44-b789-8f56fea57e96","system_id":"levelo_inurba_marseille","lat":43.30184,"lon":5.36624,"is_reserved":false,"is_disabled":false,"rental_uris":{"android":"levelo://app?vid=27e71634-264f-4d44-b789-8f56fea57e96","ios":"levelo://app?vid=27e71634-264f-4d44-b789-8f56fea57e96"},"vehicle_type_id":"4","last_reported":1773958643,"current_range_meters":7200,"station_id":"ce4bgrh2rcd13ifvqc8g","pricing_plan_id":"cebpf4jnsgd1na2vs0mg"},{"bike_id":"be523ae7-f0fc-4e2a-970b-30a3029fa717","system_id":"levelo_inurba_marseille","lat":43.28482,"lon":5.48399,"is_reserved":false,"is_disabled":false,"rental_uris":{"android":"levelo://app?vid=be523ae7-f0fc-4e2a-970b-30a3029fa717","ios":"levelo://app?vid=be523ae7-f0fc-4e2a-970b-30a3029fa717"},"vehicle_type_id":"4","last_reported":1773958643,"current_range_meters":7200,"station_id":"","pricing_plan_id":"cebpf4jnsgd1na2vs0mg"},{"bike_id":"15750178-4f9b-426f-bafa-493e04eb7e36","system_id":"levelo_inurba_marseille","lat":43.30823,"lon":5.40683,"is_reserved":false,"is_disabled":false,"rental_uris":{"android":"levelo://app?vid=15750178-4f9b-426f-bafa-493e04eb7e36","ios":"levelo://app?vid=15750178-4f9b-426f-bafa-493e04eb7e36"},"vehicle_type_id":"4","last_reported":1773958643,"current_range_meters":7200,"station_id":"","pricing_plan_id":"cebpf4jnsgd1na2vs0mg"},{"bike_id":"eabf4d2f-073c-41a2-a840-9f5f81a65f64","system_id":"levelo_inurba_marseille","lat":43.29073,"lon":5.42746,"is_reserved":false,"is_disabled":false,"rental_uris":{"android":"levelo://app?vid=eabf4d2f-073c-41a2-a840-9f5f81a65f64","ios":"levelo://app?vid=eabf4d2f-073c-41a2-a840-9f5f81a65f64"},"vehicle_type_id":"4","last_reported":1773958643,"current_range_meters":7200,"station_id":"","pricing_plan_id":"cebpf4jnsgd1na2vs0mg"},{"bike_id":"ab09d209-60f6-4303-8d09-86dc43261279","system_id":"levelo_inurba_marseille","lat":43.21189,"lon":5.35098,"is_reserved":false,"is_disabled":true,"rental_uris":{"android":"levelo://app?vid=ab09d209-60f6-4303-8d09-86dc43261279","ios":"levelo://app?vid=ab09d209-60f6-4303-8d09-86dc43261279"},"vehicle_type_id":"4","last_reported":1773958643,"current_range_meters":7200,"station_id":"st_cvj6sg6p6f1abm77japg","pricing_plan_id":"cebpf4jnsgd1na2vs0mg"},{"bike_id":"8388d5f1-b825-433a-9959-12e70906a3db","system_id":"levelo_inurba_marseille","lat":43.3107,"lon":5.41207,"is_reserved":false,"is_disabled":false,"rental_uris":{"android":"levelo://app?vid=8388d5f1-b825-433a-9959-12e70906a3db","ios":"levelo://app?vid=8388d5f1-b825-433a-9959-12e70906a3db"},"vehicle_type_id":"4","last_reported":1773958643,"current_range_meters":7200,"station_id":"","pricing_plan_id":"cebpf4jnsgd1na2vs0mg"},{"bike_id":"8f252525-35c5-4f44-ae60-aef6d2603d29","system_id":"levelo_inurba_marseille","lat":43.26371,"lon":5.41074,"is_reserved":false,"is_disabled":false,"rental_uris":{"android":"levelo://app?vid=8f252525-35c5-4f44-ae60-aef6d2603d29","ios":"levelo://app?vid=8f252525-35c5-4f44-ae60-aef6d2603d29"},"vehicle_type_id":"4","last_reported":1773958643,"current_range_meters":7200,"station_id":"st_d4e5ca6na9uc73bfl5fg","pricing_plan_id":"cebpf4jnsgd1na2vs0mg"},{"bike_id":"b656aabe-7c73-4de4-a3ab-51dc49496f82","system_id":"levelo_inurba_marseille","lat":43.29315,"lon":5.37186,"is_reserved":false,"is_disabled":true,"rental_uris":{"android":"levelo://app?vid=b656aabe-7c73-4de4-a3ab-51dc49496f82","ios":"levelo://app?vid=b656aabe-7c73-4de4-a3ab-51dc49496f82"},"vehicle_type_id":"4","last_reported":1773958643,"current_range_meters":8000,"station_id":"ce4bgh92rcd13ifvqb40","pricing_plan_id":"cebpf4jnsgd1na2vs0mg"},{"bike_id":"320f3963-8b76-44c1-99a9-9a21ab101504","system_id":"levelo_inurba_marseille","lat":43.28702,"lon":5.39992,"is_reserved":false,"is_disabled":false,"rental_uris":{"android":"levelo://app?vid=320f3963-8b76-44c1-99a9-9a21ab101504","ios":"levelo://app?vid=320f3963-8b76-44c1-99a9-9a21ab101504"},"vehicle_type_id":"4","last_reported":1773958643,"current_range_meters":8000,"station_id":"ce4bho92rcd13ifvqh3g","pricing_plan_id":"cebpf4jnsgd1na2vs0mg"},{"bike_id":"b790cc6c-beda-4dcd-96dd-e541806c10fa","system_id":"levelo_inurba_marseille","lat":43.27506,"lon":5.41608,"is_reserved":false,"is_disabled":false,"rental_uris":{"android":"levelo://app?vid=b790cc6c-beda-4dcd-96dd-e541806c10fa","ios":"levelo://app?vid=b790cc6c-beda-4dcd-96dd-e541806c10fa"},"vehicle_type_id":"4","last_reported":1773958643,"current_range_meters":8000,"station_id":"st_d6im8g6chgec73a5pndg","pricing_plan_id":"cebpf4jnsgd1na2vs0mg"},{"bike_id":"addd9e53-bfde-4c2f-8c89-4a891b6a7add","system_id":"levelo_inurba_marseille","lat":43.31352,"lon":5.37913,"is_reserved":false,"is_disabled":false,"rental_uris":{"android":"levelo://app?vid=addd9e53-bfde-4c2f-8c89-4a891b6a7add","ios":"levelo://app?vid=addd9e53-bfde-4c2f-8c89-4a891b6a7add"},"vehicle_type_id":"4","last_reported":1773958643,"current_range_meters":8000,"station_id":"","pricing_plan_id":"cebpf4jnsgd1na2vs0mg"},{"bike_id":"9d868666-eaf2-4621-b905-f4e5ec720517","system_id":"levelo_inurba_marseille","lat":43.30315,"lon":5.4042,"is_reserved":false,"is_disabled":false,"rental_uris":{"android":"levelo://app?vid=9d868666-eaf2-4621-b905-f4e5ec720517","ios":"levelo://app?vid=9d868666-eaf2-4621-b905-f4e5ec720517"},"vehicle_type_id":"4","last_reported":1773958643,"current_range_meters":8000,"station_id":"ce4bh012rcd13ifvqd10","pricing_plan_id":"cebpf4jnsgd1na2vs0mg"},{"bike_id":"413d347b-04e3-4ee4-a48e-d84b46247dd8","system_id":"levelo_inurba_marseille","lat":43.3013,"lon":5.39851,"is_reserved":false,"is_disabled":false,"rental_uris":{"android":"levelo://app?vid=413d347b-04e3-4ee4-a48e-d84b46247dd8","ios":"levelo://app?vid=413d347b-04e3-4ee4-a48e-d84b46247dd8"},"vehicle_type_id":"4","last_reported":1773958643,"current_range_meters":8000,"station_id":"ce4bh0h2rcd13ifvqd40","pricing_plan_id":"cebpf4jnsgd1na2vs0mg"},{"bike_id":"88f62a4c-1dd5-4d07-a59a-902271acdb70","system_id":"levelo_inurba_marseille","lat":43.28139,"lon":5.42685,"is_reserved":false,"is_disabled":false,"rental_uris":{"android":"levelo://app?vid=88f62a4c-1dd5-4d07-a59a-902271acdb70","ios":"levelo://app?vid=88f62a4c-1dd5-4d07-a59a-902271acdb70"},"vehicle_type_id":"4","last_reported":1773958643,"current_range_meters":8000,"station_id":"ce4bhnh2rcd13ifvqgug","pricing_plan_id":"cebpf4jnsgd1na2vs0mg"},{"bike_id":"91754ca3-cd5e-47a5-b17b-b94faa181426","system_id":"levelo_inurba_marseille","lat":43.32109,"lon":5.36778,"is_reserved":false,"is_disabled":false,"rental_uris":{"android":"levelo://app?vid=91754ca3-cd5e-47a5-b17b-b94faa181426","ios":"levelo://app?vid=91754ca3-cd5e-47a5-b17b-b94faa181426"},"vehicle_type_id":"4","last_reported":1773958643,"current_range_meters":8000,"station_id":"ce4bhrh2rcd13ifvqhug","pricing_plan_id":"cebpf4jnsgd1na2vs0mg"},{"bike_id":"9b59b602-b92f-4216-9ba4-cdc509325106","system_id":"levelo_inurba_marseille","lat":43.30924,"lon":5.40147,"is_reserved":false,"is_disabled":false,"rental_uris":{"android":"levelo://app?vid=9b59b602-b92f-4216-9ba4-cdc509325106","ios":"levelo://app?vid=9b59b602-b92f-4216-9ba4-cdc509325106"},"vehicle_type_id":"4","last_reported":1773958643,"current_range_meters":8000,"station_id":"ce4bgvp2rcd13ifvqct0","pricing_plan_id":"cebpf4jnsgd1na2vs0mg"},{"bike_id":"92c88c59-2726-4c4d-909d-da02d7074c9c","system_id":"levelo_inurba_marseille","lat":43.31167,"lon":5.38729,"is_reserved":false,"is_disabled":false,"rental_uris":{"android":"levelo://app?vid=92c88c59-2726-4c4d-909d-da02d7074c9c","ios":"levelo://app?vid=92c88c59-2726-4c4d-909d-da02d7074c9c"},"vehicle_type_id":"4","last_reported":1773958643,"current_range_meters":8000,"station_id":"ce4bgv12rcd13ifvqcp0","pricing_plan_id":"cebpf4jnsgd1na2vs0mg"},{"bike_id":"6d35dc43-b93b-498b-8e81-db08ef2338f2","system_id":"levelo_inurba_marseille","lat":43.31494,"lon":5.37315,"is_reserved":false,"is_disabled":false,"rental_uris":{"android":"levelo://app?vid=6d35dc43-b93b-498b-8e81-db08ef2338f2","ios":"levelo://app?vid=6d35dc43-b93b-498b-8e81-db08ef2338f2"},"vehicle_type_id":"4","last_reported":1773958643,"current_range_meters":8000,"station_id":"ce4bgt12rcd13ifvqcd0","pricing_plan_id":"cebpf4jnsgd1na2vs0mg"},{"bike_id":"35b98144-a8e9-4b84-b91d-3513211f7aa1","system_id":"levelo_inurba_marseille","lat":43.24808,"lon":5.37469,"is_reserved":false,"is_disabled":false,"rental_uris":{"android":"levelo://app?vid=35b98144-a8e9-4b84-b91d-3513211f7aa1","ios":"levelo://app?vid=35b98144-a8e9-4b84-b91d-3513211f7aa1"},"vehicle_type_id":"4","last_reported":1773958643,"current_range_meters":8000,"station_id":"ce4bhgh2rcd13ifvqfb0","pricing_plan_id":"cebpf4jnsgd1na2vs0mg"},{"bike_id":"6d385325-547b-42f0-a53e-4903e923f44c","system_id":"levelo_inurba_marseille","lat":43.24657,"lon":5.38157,"is_reserved":false,"is_disabled":false,"rental_uris":{"android":"levelo://app?vid=6d385325-547b-42f0-a53e-4903e923f44c","ios":"levelo://app?vid=6d385325-547b-42f0-a53e-4903e923f44c"},"vehicle_type_id":"4","last_reported":1773958643,"current_range_meters":8000,"station_id":"ce4bhih2rcd13ifvqfr0","pricing_plan_id":"cebpf4jnsgd1na2vs0mg"},{"bike_id":"9949bb18-8490-4f62-a48b-c7fe28a932c3","system_id":"levelo_inurba_marseille","lat":43.25819,"lon":5.39443,"is_reserved":false,"is_disabled":false,"rental_uris":{"android":"levelo://app?vid=9949bb18-8490-4f62-a48b-c7fe28a932c3","ios":"levelo://app?vid=9949bb18-8490-4f62-a48b-c7fe28a932c3"},"vehicle_type_id":"4","last_reported":1773958643,"current_range_meters":8000,"station_id":"ce4bhip2rcd13ifvqft0","pricing_plan_id":"cebpf4jnsgd1na2vs0mg"},{"bike_id":"dd83dbbe-152a-48a5-a9d8-8ef8abcaad9c","system_id":"levelo_inurba_marseille","lat":43.30803,"lon":5.38154,"is_reserved":false,"is_disabled":false,"rental_uris":{"android":"levelo://app?vid=dd83dbbe-152a-48a5-a9d8-8ef8abcaad9c","ios":"levelo://app?vid=dd83dbbe-152a-48a5-a9d8-8ef8abcaad9c"},"vehicle_type_id":"4","last_reported":1773958643,"current_range_meters":8000,"station_id":"ce4bgt12rcd13ifvqce0","pricing_plan_id":"cebpf4jnsgd1na2vs0mg"},{"bike_id":"22dbebf7-889c-4196-a90d-63fc97997096","system_id":"levelo_inurba_marseille","lat":43.27994,"lon":5.4165,"is_reserved":false,"is_disabled":false,"rental_uris":{"android":"levelo://app?vid=22dbebf7-889c-4196-a90d-63fc97997096","ios":"levelo://app?vid=22dbebf7-889c-4196-a90d-63fc97997096"},"vehicle_type_id":"4","last_reported":1773958643,"current_range_meters":8000,"station_id":"ce4bho12rcd13ifvqh1g","pricing_plan_id":"cebpf4jnsgd1na2vs0mg"},{"bike_id":"78bb54cf-5275-4554-9f53-8437367c33f2","system_id":"levelo_inurba_marseille","lat":43.23183,"lon":5.35541,"is_reserved":false,"is_disabled":false,"rental_uris":{"android":"levelo://app?vid=78bb54cf-5275-4554-9f53-8437367c33f2","ios":"levelo://app?vid=78bb54cf-5275-4554-9f53-8437367c33f2"},"vehicle_type_id":"4","last_reported":1773958643,"current_range_meters":8000,"station_id":"ce4bhu92rcd13ifvqi70","pricing_plan_id":"cebpf4jnsgd1na2vs0mg"},{"bike_id":"4ebc5a1c-fa8c-44d8-a7fc-38229c55eb9d","system_id":"levelo_inurba_marseille","lat":43.24647,"lon":5.3891,"is_reserved":false,"is_disabled":false,"rental_uris":{"android":"levelo://app?vid=4ebc5a1c-fa8c-44d8-a7fc-38229c55eb9d","ios":"levelo://app?vid=4ebc5a1c-fa8c-44d8-a7fc-38229c55eb9d"},"vehicle_type_id":"4","last_reported":1773958643,"current_range_meters":8000,"station_id":"ce4bhg12rcd13ifvqf60","pricing_plan_id":"cebpf4jnsgd1na2vs0mg"},{"bike_id":"15bf2f59-06a6-41bd-a43b-489e0ce4442c","system_id":"levelo_inurba_marseille","lat":43.32109,"lon":5.36776,"is_reserved":false,"is_disabled":false,"rental_uris":{"android":"levelo://app?vid=15bf2f59-06a6-41bd-a43b-489e0ce4442c","ios":"levelo://app?vid=15bf2f59-06a6-41bd-a43b-489e0ce4442c"},"vehicle_type_id":"4","last_reported":1773958643,"current_range_meters":8000,"station_id":"ce4bhrh2rcd13ifvqhug","pricing_plan_id":"cebpf4jnsgd1na2vs0mg"},{"bike_id":"b3c6ee7e-839e-47ca-8bd1-12618e78dd87","system_id":"levelo_inurba_marseille","lat":43.23958,"lon":5.36637,"is_reserved":false,"is_disabled":true,"rental_uris":{"android":"levelo://app?vid=b3c6ee7e-839e-47ca-8bd1-12618e78dd87","ios":"levelo://app?vid=b3c6ee7e-839e-47ca-8bd1-12618e78dd87"},"vehicle_type_id":"4","last_reported":1773958643,"current_range_meters":8000,"station_id":"ce4bhi12rcd13ifvqfp0","pricing_plan_id":"cebpf4jnsgd1na2vs0mg"},{"bike_id":"1fc87fed-6040-40bc-99c6-6f694d257aa1","system_id":"levelo_inurba_marseille","lat":43.30937,"lon":5.40844,"is_reserved":false,"is_disabled":false,"rental_uris":{"android":"levelo://app?vid=1fc87fed-6040-40bc-99c6-6f694d257aa1","ios":"levelo://app?vid=1fc87fed-6040-40bc-99c6-6f694d257aa1"},"vehicle_type_id":"4","last_reported":1773958643,"current_range_meters":8000,"station_id":"","pricing_plan_id":"cebpf4jnsgd1na2vs0mg"},{"bike_id":"8ba2e30d-db54-40b4-af13-9e0f77eea1db","system_id":"levelo_inurba_marseille","lat":43.2707,"lon":5.38306,"is_reserved":false,"is_disabled":false,"rental_uris":{"android":"levelo://app?vid=8ba2e30d-db54-40b4-af13-9e0f77eea1db","ios":"levelo://app?vid=8ba2e30d-db54-40b4-af13-9e0f77eea1db"},"vehicle_type_id":"4","last_reported":1773958643,"current_range_meters":8000,"station_id":"st_d3n2fo6cfp8s73cte1j0","pricing_plan_id":"cebpf4jnsgd1na2vs0mg"},{"bike_id":"3bcd3f37-7909-4e8a-be03-a9562a2c0e45","system_id":"levelo_inurba_marseille","lat":43.28473,"lon":5.484,"is_reserved":false,"is_disabled":false,"rental_uris":{"android":"levelo://app?vid=3bcd3f37-7909-4e8a-be03-a9562a2c0e45","ios":"levelo://app?vid=3bcd3f37-7909-4e8a-be03-a9562a2c0e45"},"vehicle_type_id":"4","last_reported":1773958643,"current_range_meters":8400,"station_id":"","pricing_plan_id":"cebpf4jnsgd1na2vs0mg"},{"bike_id":"e2420c11-4646-4145-aa2e-baedb91a43dc","system_id":"levelo_inurba_marseille","lat":43.31601,"lon":5.38391,"is_reserved":false,"is_disabled":false,"rental_uris":{"android":"levelo://app?vid=e2420c11-4646-4145-aa2e-baedb91a43dc","ios":"levelo://app?vid=e2420c11-4646-4145-aa2e-baedb91a43dc"},"vehicle_type_id":"4","last_reported":1773958643,"current_range_meters":8400,"station_id":"","pricing_plan_id":"cebpf4jnsgd1na2vs0mg"},{"bike_id":"4d9e23d5-bd87-4727-8d57-c47ef2bf36a8","system_id":"levelo_inurba_marseille","lat":43.292,"lon":5.35893,"is_reserved":false,"is_disabled":false,"rental_uris":{"android":"levelo://app?vid=4d9e23d5-bd87-4727-8d57-c47ef2bf36a8","ios":"levelo://app?vid=4d9e23d5-bd87-4727-8d57-c47ef2bf36a8"},"vehicle_type_id":"4","last_reported":1773958643,"current_range_meters":8400,"station_id":"","pricing_plan_id":"cebpf4jnsgd1na2vs0mg"},{"bike_id":"3072c2b7-499e-4858-9501-6070c7badbaf","system_id":"levelo_inurba_marseille","lat":43.23962,"lon":5.36625,"is_reserved":false,"is_disabled":false,"rental_uris":{"android":"levelo://app?vid=3072c2b7-499e-4858-9501-6070c7badbaf","ios":"levelo://app?vid=3072c2b7-499e-4858-9501-6070c7badbaf"},"vehicle_type_id":"4","last_reported":1773958643,"current_range_meters":8400,"station_id":"ce4bhi12rcd13ifvqfp0","pricing_plan_id":"cebpf4jnsgd1na2vs0mg"},{"bike_id":"8b699ea7-b22c-498f-80e0-9f808583494e","system_id":"levelo_inurba_marseille","lat":43.29555,"lon":5.42269,"is_reserved":false,"is_disabled":false,"rental_uris":{"android":"levelo://app?vid=8b699ea7-b22c-498f-80e0-9f808583494e","ios":"levelo://app?vid=8b699ea7-b22c-498f-80e0-9f808583494e"},"vehicle_type_id":"4","last_reported":1773958643,"current_range_meters":8400,"station_id":"ce4bhph2rcd13ifvqhdg","pricing_plan_id":"cebpf4jnsgd1na2vs0mg"},{"bike_id":"a7dd1c2f-1863-4db6-9064-755a90a3283b","system_id":"levelo_inurba_marseille","lat":43.29715,"lon":5.42602,"is_reserved":false,"is_disabled":false,"rental_uris":{"android":"levelo://app?vid=a7dd1c2f-1863-4db6-9064-755a90a3283b","ios":"levelo://app?vid=a7dd1c2f-1863-4db6-9064-755a90a3283b"},"vehicle_type_id":"4","last_reported":1773958643,"current_range_meters":8400,"station_id":"","pricing_plan_id":"cebpf4jnsgd1na2vs0mg"},{"bike_id":"69067704-4b9d-4067-8ddd-5b71f4ef1a8a","system_id":"levelo_inurba_marseille","lat":43.25924,"lon":5.40921,"is_reserved":false,"is_disabled":true,"rental_uris":{"android":"levelo://app?vid=69067704-4b9d-4067-8ddd-5b71f4ef1a8a","ios":"levelo://app?vid=69067704-4b9d-4067-8ddd-5b71f4ef1a8a"},"vehicle_type_id":"4","last_reported":1773958643,"current_range_meters":8400,"station_id":"ce4bhm92rcd13ifvqglg","pricing_plan_id":"cebpf4jnsgd1na2vs0mg"},{"bike_id":"f574368e-7d18-420a-9e2d-255a58427bfa","system_id":"levelo_inurba_marseille","lat":43.29587,"lon":5.36726,"is_reserved":false,"is_disabled":false,"rental_uris":{"android":"levelo://app?vid=f574368e-7d18-420a-9e2d-255a58427bfa","ios":"levelo://app?vid=f574368e-7d18-420a-9e2d-255a58427bfa"},"vehicle_type_id":"4","last_reported":1773958643,"current_range_meters":8400,"station_id":"ce4bgph2rcd13ifvqc2g","pricing_plan_id":"cebpf4jnsgd1na2vs0mg"},{"bike_id":"871e3d10-154e-4d1b-8bd0-0f1af603877d","system_id":"levelo_inurba_marseille","lat":43.30422,"lon":5.39752,"is_reserved":false,"is_disabled":false,"rental_uris":{"android":"levelo://app?vid=871e3d10-154e-4d1b-8bd0-0f1af603877d","ios":"levelo://app?vid=871e3d10-154e-4d1b-8bd0-0f1af603877d"},"vehicle_type_id":"4","last_reported":1773958643,"current_range_meters":8400,"station_id":"ce4bh092rcd13ifvqd20","pricing_plan_id":"cebpf4jnsgd1na2vs0mg"},{"bike_id":"57d1ada9-1a9f-44a6-9752-b843732a3f40","system_id":"levelo_inurba_marseille","lat":43.29945,"lon":5.3717,"is_reserved":false,"is_disabled":false,"rental_uris":{"android":"levelo://app?vid=57d1ada9-1a9f-44a6-9752-b843732a3f40","ios":"levelo://app?vid=57d1ada9-1a9f-44a6-9752-b843732a3f40"},"vehicle_type_id":"4","last_reported":1773958643,"current_range_meters":8400,"station_id":"ce4bgr92rcd13ifvqc7g","pricing_plan_id":"cebpf4jnsgd1na2vs0mg"},{"bike_id":"d20fe808-e687-447e-bd57-e26f24a89071","system_id":"levelo_inurba_marseille","lat":43.24175,"lon":5.36399,"is_reserved":false,"is_disabled":false,"rental_uris":{"android":"levelo://app?vid=d20fe808-e687-447e-bd57-e26f24a89071","ios":"levelo://app?vid=d20fe808-e687-447e-bd57-e26f24a89071"},"vehicle_type_id":"4","last_reported":1773958643,"current_range_meters":8400,"station_id":"cpo36qri1sfpv3e86is0","pricing_plan_id":"cebpf4jnsgd1na2vs0mg"},{"bike_id":"5ed582e6-53a0-4675-af9e-dffaea0275e7","system_id":"levelo_inurba_marseille","lat":43.28706,"lon":5.39983,"is_reserved":false,"is_disabled":false,"rental_uris":{"android":"levelo://app?vid=5ed582e6-53a0-4675-af9e-dffaea0275e7","ios":"levelo://app?vid=5ed582e6-53a0-4675-af9e-dffaea0275e7"},"vehicle_type_id":"4","last_reported":1773958643,"current_range_meters":8400,"station_id":"ce4bho92rcd13ifvqh3g","pricing_plan_id":"cebpf4jnsgd1na2vs0mg"},{"bike_id":"2e73f39c-4de9-40ef-b5c3-575e5ff6014d","system_id":"levelo_inurba_marseille","lat":43.26253,"lon":5.39124,"is_reserved":false,"is_disabled":true,"rental_uris":{"android":"levelo://app?vid=2e73f39c-4de9-40ef-b5c3-575e5ff6014d","ios":"levelo://app?vid=2e73f39c-4de9-40ef-b5c3-575e5ff6014d"},"vehicle_type_id":"4","last_reported":1773958643,"current_range_meters":8400,"station_id":"","pricing_plan_id":"cebpf4jnsgd1na2vs0mg"},{"bike_id":"6ecc188e-1aea-4e7b-ada1-ac3e4966fd8b","system_id":"levelo_inurba_marseille","lat":43.287,"lon":5.37391,"is_reserved":false,"is_disabled":false,"rental_uris":{"android":"levelo://app?vid=6ecc188e-1aea-4e7b-ada1-ac3e4966fd8b","ios":"levelo://app?vid=6ecc188e-1aea-4e7b-ada1-ac3e4966fd8b"},"vehicle_type_id":"4","last_reported":1773958643,"current_range_meters":8400,"station_id":"ce4bh3p2rcd13ifvqdq0","pricing_plan_id":"cebpf4jnsgd1na2vs0mg"},{"bike_id":"8911e592-806c-4ca2-9551-dc6022173986","system_id":"levelo_inurba_marseille","lat":43.32077,"lon":5.36788,"is_reserved":false,"is_disabled":true,"rental_uris":{"android":"levelo://app?vid=8911e592-806c-4ca2-9551-dc6022173986","ios":"levelo://app?vid=8911e592-806c-4ca2-9551-dc6022173986"},"vehicle_type_id":"4","last_reported":1773958643,"current_range_meters":8400,"station_id":"ce4bhrh2rcd13ifvqhug","pricing_plan_id":"cebpf4jnsgd1na2vs0mg"},