{"last_updated":1732043238,"ttl":60,"version":"2.2","data":{"bikes":[{"bike_id":"cacde89c-5086-4b87-8bcd-a2b586b3345d","system_id":"levelo_inurba_marseille","lat":43.30155,"lon":5.38096,"is_reserved":false,"is_disabled":true,"rental_uris":{"android":"levelo://app?vid=cacde89c-5086-4b87-8bcd-a2b586b3345d","ios":"levelo://app?vid=cacde89c-5086-4b87-8bcd-a2b586b3345d"},"vehicle_type_id":"4","last_reported":1732043239,"current_range_meters":38800,"station_id":"ce4bgjp2rcd13ifvqbh0","pricing_plan_id":"cebpf4jnsgd1na2vs0mg"},{"bike_id":"46c6d75a-6f02-4f33-9930-3f2ae43c6e0c","system_id":"levelo_inurba_marseille","lat":43.25578,"lon":5.38239,"is_reserved":false,"is_disabled":false,"rental_uris":{"android":"levelo://app?vid=46c6d75a-6f02-4f33-9930-3f2ae43c6e0c","ios":"levelo://app?vid=46c6d75a-6f02-4f33-9930-3f2ae43c6e0c"},"vehicle_type_id":"4","last_reported":1732043239,"current_range_meters":29600,"station_id":"ce4bhih2rcd13ifvqfs0","pricing_plan_id":"cebpf4jnsgd1na2vs0mg"},{"bike_id":"b21da081-9879-40dd-84c5-23f42e6f5e53","system_id":"levelo_inurba_marseille","lat":43.27954,"lon":5.41049,"is_reserved":false,"is_disabled":true,"rental_uris":{"android":"levelo://app?vid=b21da081-9879-40dd-84c5-23f42e6f5e53","ios":"levelo://app?vid=b21da081-9879-40dd-84c5-23f42e6f5e53"},"vehicle_type_id":"4","last_reported":1732043239,"current_range_meters":18000,"station_id":"ce4bhnp2rcd13ifvqh0g","pricing_plan_id":"cebpf4jnsgd1na2vs0mg"},{"bike_id":"98fd58c5-ee32-4fee-a47c-fb865a30b758","system_id":"levelo_inurba_marseille","lat":43.25869,"lon":5.39891,"is_reserved":false,"is_disabled":false,"rental_uris":{"android":"levelo://app?vid=98fd58c5-ee32-4fee-a47c-fb865a30b758","ios":"levelo://app?vid=98fd58c5-ee32-4fee-a47c-fb865a30b758"},"vehicle_type_id":"4","last_reported":1732043239,"current_range_meters":17600,"station_id":"ce4bhl92rcd13ifvqghg","pricing_plan_id":"cebpf4jnsgd1na2vs0mg"},{"bike_id":"a892faef-a93d-417e-8807-b225fc9a1ba8","system_id":"levelo_inurba_marseille","lat":43.28003,"lon":5.40004,"is_reserved":false,"is_disabled":false,"rental_uris":{"android":"levelo://app?vid=a892faef-a93d-417e-8807-b225fc9a1ba8","ios":"levelo://app?vid=a892faef-a93d-417e-8807-b225fc9a1ba8"},"vehicle_type_id":"4","last_reported":1732043239,"current_range_meters":38800,"station_id":"ce4bho92rcd13ifvqh4g","pricing_plan_id":"cebpf4jnsgd1na2vs0mg"},{"bike_id":"dc94fd26-5f8e-4f9c-bc63-4eeb71a922dd","system_id":"levelo_inurba_marseille","lat":43.24997,"lon":5.38923,"is_reserved":false,"is_disabled":false,"rental_uris":{"android":"levelo://app?vid=dc94fd26-5f8e-4f9c-bc63-4eeb71a922dd","ios":"levelo://app?vid=dc94fd26-5f8e-4f9c-bc63-4eeb71a922dd"},"vehicle_type_id":"4","last_reported":1732043239,"current_range_meters":39200,"station_id":"ce4bhgp2rcd13ifvqfd0","pricing_plan_id":"cebpf4jnsgd1na2vs0mg"},{"bike_id":"bb9ea763-6e93-4922-b0c2-ce9421dca49b","system_id":"levelo_inurba_marseille","lat":43.2593,"lon":5.40904,"is_reserved":false,"is_disabled":true,"rental_uris":{"android":"levelo://app?vid=bb9ea763-6e93-4922-b0c2-ce9421dca49b","ios":"levelo://app?vid=bb9ea763-6e93-4922-b0c2-ce9421dca49b"},"vehicle_type_id":"4","last_reported":1732043239,"current_range_meters":0,"station_id":"ce4bhm92rcd13ifvqglg","pricing_plan_id":"cebpf4jnsgd1na2vs0mg"},{"bike_id":"df89f28d-09ef-4d95-998a-b310ab3afea0","system_id":"levelo_inurba_marseille","lat":43.33021,"lon":5.39048,"is_reserved":false,"is_disabled":false,"rental_uris":{"android":"levelo://app?vid=df89f28d-09ef-4d95-998a-b310ab3afea0","ios":"levelo://app?vid=df89f28d-09ef-4d95-998a-b310ab3afea0"},"vehicle_type_id":"4","last_reported":1732043239,"current_range_meters":10800,"station_id":"ce4bhr92rcd13ifvqhrg","pricing_plan_id":"cebpf4jnsgd1na2vs0mg"},{"bike_id":"118b0ebf-dd56-4152-8906-2668d40c00b9","system_id":"levelo_inurba_marseille","lat":43.30134,"lon":5.38774,"is_reserved":false,"is_disabled":false,"rental_uris":{"android":"levelo://app?vid=118b0ebf-dd56-4152-8906-2668d40c00b9","ios":"levelo://app?vid=118b0ebf-dd56-4152-8906-2668d40c00b9"},"vehicle_type_id":"4","last_reported":1732043239,"current_range_meters":38800,"station_id":"ce4bghh2rcd13ifvqb60","pricing_plan_id":"cebpf4jnsgd1na2vs0mg"},{"bike_id":"bb98f687-17c5-4ade-ae57-e7194bc1da11","system_id":"levelo_inurba_marseille","lat":43.28405,"lon":5.37519,"is_reserved":false,"is_disabled":false,"rental_uris":{"android":"levelo://app?vid=bb98f687-17c5-4ade-ae57-e7194bc1da11","ios":"levelo://app?vid=bb98f687-17c5-4ade-ae57-e7194bc1da11"},"vehicle_type_id":"4","last_reported":1732043239,"current_range_meters":30400,"station_id":"ce4bh412rcd13ifvqds0","pricing_plan_id":"cebpf4jnsgd1na2vs0mg"},{"bike_id":"31030b61-015e-4c28-8d24-08a0aca227a8","system_id":"levelo_inurba_marseille","lat":43.28713,"lon":5.37941,"is_reserved":false,"is_disabled":false,"rental_uris":{"android":"levelo://app?vid=31030b61-015e-4c28-8d24-08a0aca227a8","ios":"levelo://app?vid=31030b61-015e-4c28-8d24-08a0aca227a8"},"vehicle_type_id":"4","last_reported":1732043239,"current_range_meters":28400,"station_id":"ce4bh9p2rcd13ifvqec0","pricing_plan_id":"cebpf4jnsgd1na2vs0mg"},{"bike_id":"af42082b-bbff-408b-ad3f-dc07bfdf81f5","system_id":"levelo_inurba_marseille","lat":43.2816,"lon":5.42638,"is_reserved":false,"is_disabled":false,"rental_uris":{"android":"levelo://app?vid=af42082b-bbff-408b-ad3f-dc07bfdf81f5","ios":"levelo://app?vid=af42082b-bbff-408b-ad3f-dc07bfdf81f5"},"vehicle_type_id":"4","last_reported":1732043239,"current_range_meters":32800,"station_id":"ce4bhnh2rcd13ifvqgug","pricing_plan_id":"cebpf4jnsgd1na2vs0mg"},{"bike_id":"5000ae5d-7ab8-4bff-ad5c-2f97a33df1a7","system_id":"levelo_inurba_marseille","lat":43.29189,"lon":5.358,"is_reserved":false,"is_disabled":false,"rental_uris":{"android":"levelo://app?vid=5000ae5d-7ab8-4bff-ad5c-2f97a33df1a7","ios":"levelo://app?vid=5000ae5d-7ab8-4bff-ad5c-2f97a33df1a7"},"vehicle_type_id":"4","last_reported":1732043239,"current_range_meters":37600,"station_id":"ce4bhb12rcd13ifvqel0","pricing_plan_id":"cebpf4jnsgd1na2vs0mg"},{"bike_id":"b82b9a06-b634-4c8a-b01d-495946b2474a","system_id":"levelo_inurba_marseille","lat":43.28152,"lon":5.42638,"is_reserved":false,"is_disabled":false,"rental_uris":{"android":"levelo://app?vid=b82b9a06-b634-4c8a-b01d-495946b2474a","ios":"levelo://app?vid=b82b9a06-b634-4c8a-b01d-495946b2474a"},"vehicle_type_id":"4","last_reported":1732043239,"current_range_meters":34800,"station_id":"ce4bhnh2rcd13ifvqgug","pricing_plan_id":"cebpf4jnsgd1na2vs0mg"},{"bike_id":"0ea93326-5034-4b5e-97b8-0a33b4d38611","system_id":"levelo_inurba_marseille","lat":43.3015,"lon":5.38097,"is_reserved":false,"is_disabled":true,"rental_uris":{"android":"levelo://app?vid=0ea93326-5034-4b5e-97b8-0a33b4d38611","ios":"levelo://app?vid=0ea93326-5034-4b5e-97b8-0a33b4d38611"},"vehicle_type_id":"4","last_reported":1732043239,"current_range_meters":0,"station_id":"ce4bgjp2rcd13ifvqbh0","pricing_plan_id":"cebpf4jnsgd1na2vs0mg"},{"bike_id":"067b4e0f-3ae9-465f-9e73-6899b54fe1eb","system_id":"levelo_inurba_marseille","lat":43.28717,"lon":5.37924,"is_reserved":false,"is_disabled":false,"rental_uris":{"android":"levelo://app?vid=067b4e0f-3ae9-465f-9e73-6899b54fe1eb","ios":"levelo://app?vid=067b4e0f-3ae9-465f-9e73-6899b54fe1eb"},"vehicle_type_id":"4","last_reported":1732043239,"current_range_meters":38800,"station_id":"ce4bh9p2rcd13ifvqec0","pricing_plan_id":"cebpf4jnsgd1na2vs0mg"},{"bike_id":"44cb57a0-ffe9-421a-b72f-ba510ee31367","system_id":"levelo_inurba_marseille","lat":43.33023,"lon":5.39048,"is_reserved":false,"is_disabled":false,"rental_uris":{"android":"levelo://app?vid=44cb57a0-ffe9-421a-b72f-ba510ee31367","ios":"levelo://app?vid=44cb57a0-ffe9-421a-b72f-ba510ee31367"},"vehicle_type_id":"4","last_reported":1732043239,"current_range_meters":18800,"station_id":"ce4bhr92rcd13ifvqhrg","pricing_plan_id":"cebpf4jnsgd1na2vs0mg"},{"bike_id":"3515f9ea-1025-48e1-b470-a1ead3569e1e","system_id":"levelo_inurba_marseille","lat":43.295215,"lon":5.390431,"is_reserved":false,"is_disabled":false,"rental_uris":{"android":"levelo://app?vid=3515f9ea-1025-48e1-b470-a1ead3569e1e","ios":"levelo://app?vid=3515f9ea-1025-48e1-b470-a1ead3569e1e"},"vehicle_type_id":"4","last_reported":1732043239,"current_range_meters":23200,"station_id":"ce4bh3p2rcd13ifvqdp0","pricing_plan_id":"cebpf4jnsgd1na2vs0mg"},{"bike_id":"92ed161b-7532-4432-a194-1fd992bd18c4","system_id":"levelo_inurba_marseille","lat":43.28458,"lon":5.35888,"is_reserved":false,"is_disabled":false,"rental_uris":{"android":"levelo://app?vid=92ed161b-7532-4432-a194-1fd992bd18c4","ios":"levelo://app?vid=92ed161b-7532-4432-a194-1fd992bd18c4"},"vehicle_type_id":"4","last_reported":1732043239,"current_range_meters":38800,"station_id":"ce4bhah2rcd13ifvqei0","pricing_plan_id":"cebpf4jnsgd1na2vs0mg"},{"bike_id":"0729225f-edb5-4541-b6d9-a2bc5d69ccda","system_id":"levelo_inurba_marseille","lat":43.25082,"lon":5.39515,"is_reserved":false,"is_disabled":false,"rental_uris":{"android":"levelo://app?vid=0729225f-edb5-4541-b6d9-a2bc5d69ccda","ios":"levelo://app?vid=0729225f-edb5-4541-b6d9-a2bc5d69ccda"},"vehicle_type_id":"4","last_reported":1732043239,"current_range_meters":34800,"station_id":"ce4bhm12rcd13ifvqgkg","pricing_plan_id":"cebpf4jnsgd1na2vs0mg"},{"bike_id":"96610263-8185-41f2-a9b6-2af2dd337e83","system_id":"levelo_inurba_marseille","lat":43.30649,"lon":5.40101,"is_reserved":false,"is_disabled":false,"rental_uris":{"android":"levelo://app?vid=96610263-8185-41f2-a9b6-2af2dd337e83","ios":"levelo://app?vid=96610263-8185-41f2-a9b6-2af2dd337e83"},"vehicle_type_id":"4","last_reported":1732043239,"current_range_meters":9200,"station_id":"ce4bh112rcd13ifvqda0","pricing_plan_id":"cebpf4jnsgd1na2vs0mg"},{"bike_id":"82cbb20a-9a51-490a-9203-2871c0133c99","system_id":"levelo_inurba_marseille","lat":43.31074,"lon":5.38351,"is_reserved":false,"is_disabled":false,"rental_uris":{"android":"levelo://app?vid=82cbb20a-9a51-490a-9203-2871c0133c99","ios":"levelo://app?vid=82cbb20a-9a51-490a-9203-2871c0133c99"},"vehicle_type_id":"4","last_reported":1732043239,"current_range_meters":28000,"station_id":"ce4bgv92rcd13ifvqcr0","pricing_plan_id":"cebpf4jnsgd1na2vs0mg"},{"bike_id":"befe88e4-12d3-42a9-9602-54a0ae6623c7","system_id":"levelo_inurba_marseille","lat":43.30954,"lon":5.39036,"is_reserved":false,"is_disabled":true,"rental_uris":{"android":"levelo://app?vid=befe88e4-12d3-42a9-9602-54a0ae6623c7","ios":"levelo://app?vid=befe88e4-12d3-42a9-9602-54a0ae6623c7"},"vehicle_type_id":"4","last_reported":1732043239,"current_range_meters":0,"station_id":"ce4bgup2rcd13ifvqco0","pricing_plan_id":"cebpf4jnsgd1na2vs0mg"},{"bike_id":"dbe74249-58cd-403e-a63d-5e0a1c17b552","system_id":"levelo_inurba_marseille","lat":43.24093,"lon":5.37745,"is_reserved":false,"is_disabled":true,"rental_uris":{"android":"levelo://app?vid=dbe74249-58cd-403e-a63d-5e0a1c17b552","ios":"levelo://app?vid=dbe74249-58cd-403e-a63d-5e0a1c17b552"},"vehicle_type_id":"4","last_reported":1732043239,"current_range_meters":0,"station_id":"","pricing_plan_id":"cebpf4jnsgd1na2vs0mg"},{"bike_id":"c85666ef-4eaa-47a5-b89b-259bc40468c0","system_id":"levelo_inurba_marseille","lat":43.33021,"lon":5.39032,"is_reserved":false,"is_disabled":false,"rental_uris":{"android":"levelo://app?vid=c85666ef-4eaa-47a5-b89b-259bc40468c0","ios":"levelo://app?vid=c85666ef-4eaa-47a5-b89b-259bc40468c0"},"vehicle_type_id":"4","last_reported":1732043239,"current_range_meters":38800,"station_id":"ce4bhr92rcd13ifvqhrg","pricing_plan_id":"cebpf4jnsgd1na2vs0mg"},{"bike_id":"2992429b-91ac-449d-a558-6319c1a88ffe","system_id":"levelo_inurba_marseille","lat":43.317,"lon":5.37748,"is_reserved":false,"is_disabled":false,"rental_uris":{"android":"levelo://app?vid=2992429b-91ac-449d-a558-6319c1a88ffe","ios":"levelo://app?vid=2992429b-91ac-449d-a558-6319c1a88ffe"},"vehicle_type_id":"4","last_reported":1732043239,"current_range_meters":31200,"station_id":"ce4bgth2rcd13ifvqch0","pricing_plan_id":"cebpf4jnsgd1na2vs0mg"},{"bike_id":"5bcbb994-b460-4ad6-9ab0-73a2f56e9dc1","system_id":"levelo_inurba_marseille","lat":43.28938,"lon":5.36641,"is_reserved":false,"is_disabled":false,"rental_uris":{"android":"levelo://app?vid=5bcbb994-b460-4ad6-9ab0-73a2f56e9dc1","ios":"levelo://app?vid=5bcbb994-b460-4ad6-9ab0-73a2f56e9dc1"},"vehicle_type_id":"4","last_reported":1732043239,"current_range_meters":18000,"station_id":"ce4bhap2rcd13ifvqek0","pricing_plan_id":"cebpf4jnsgd1na2vs0mg"},{"bike_id":"9ac62003-6c46-4ae2-b70d-62e764553f72","system_id":"levelo_inurba_marseille","lat":43.27944,"lon":5.41045,"is_reserved":false,"is_disabled":false,"rental_uris":{"android":"levelo://app?vid=9ac62003-6c46-4ae2-b70d-62e764553f72","ios":"levelo://app?vid=9ac62003-6c46-4ae2-b70d-62e764553f72"},"vehicle_type_id":"4","last_reported":1732043239,"current_range_meters":19600,"station_id":"ce4bhnp2rcd13ifvqh0g","pricing_plan_id":"cebpf4jnsgd1na2vs0mg"},{"bike_id":"3e60c6ee-dafd-4932-b66a-f4bc1df6533e","system_id":"levelo_inurba_marseille","lat":43.30523,"lon":5.36718,"is_reserved":false,"is_disabled":false,"rental_uris":{"android":"levelo://app?vid=3e60c6ee-dafd-4932-b66a-f4bc1df6533e","ios":"levelo://app?vid=3e60c6ee-dafd-4932-b66a-f4bc1df6533e"},"vehicle_type_id":"4","last_reported":1732043239,"current_range_meters":24400,"station_id":"ce4bgrp2rcd13ifvqc9g","pricing_plan_id":"cebpf4jnsgd1na2vs0mg"},{"bike_id":"12b1e5ed-6fe3-452d-a7bb-1572617bbee2","system_id":"levelo_inurba_marseille","lat":43.27989,"lon":5.4166,"is_reserved":false,"is_disabled":true,"rental_uris":{"android":"levelo://app?vid=12b1e5ed-6fe3-452d-a7bb-1572617bbee2","ios":"levelo://app?vid=12b1e5ed-6fe3-452d-a7bb-1572617bbee2"},"vehicle_type_id":"4","last_reported":1732043239,"current_range_meters":0,"station_id":"ce4bho12rcd13ifvqh1g","pricing_plan_id":"cebpf4jnsgd1na2vs0mg"},{"bike_id":"3dbf05a9-dac9-4aac-959c-b1e20c1d3fda","system_id":"levelo_inurba_marseille","lat":43.3092,"lon":5.40144,"is_reserved":false,"is_disabled":false,"rental_uris":{"android":"levelo://app?vid=3dbf05a9-dac9-4aac-959c-b1e20c1d3fda","ios":"levelo://app?vid=3dbf05a9-dac9-4aac-959c-b1e20c1d3fda"},"vehicle_type_id":"4","last_reported":1732043239,"current_range_meters":14000,"station_id":"ce4bgvp2rcd13ifvqct0","pricing_plan_id":"cebpf4jnsgd1na2vs0mg"},{"bike_id":"b750061b-d216-421d-8941-ce9089348f34","system_id":"levelo_inurba_marseille","lat":43.30143,"lon":5.39844,"is_reserved":false,"is_disabled":false,"rental_uris":{"android":"levelo://app?vid=b750061b-d216-421d-8941-ce9089348f34","ios":"levelo://app?vid=b750061b-d216-421d-8941-ce9089348f34"},"vehicle_type_id":"4","last_reported":1732043239,"current_range_meters":38400,"station_id":"ce4bh0h2rcd13ifvqd40","pricing_plan_id":"cebpf4jnsgd1na2vs0mg"},{"bike_id":"8f59b576-5103-4b28-9f17-a0d8d437020a","system_id":"levelo_inurba_marseille","lat":43.29029,"lon":5.38644,"is_reserved":false,"is_disabled":false,"rental_uris":{"android":"levelo://app?vid=8f59b576-5103-4b28-9f17-a0d8d437020a","ios":"levelo://app?vid=8f59b576-5103-4b28-9f17-a0d8d437020a"},"vehicle_type_id":"4","last_reported":1732043239,"current_range_meters":30000,"station_id":"ce4bh4p2rcd13ifvqe0g","pricing_plan_id":"cebpf4jnsgd1na2vs0mg"},{"bike_id":"a1de63aa-f178-478b-9e3a-fe8edfd64d29","system_id":"levelo_inurba_marseille","lat":43.31284,"lon":5.38417,"is_reserved":false,"is_disabled":true,"rental_uris":{"android":"levelo://app?vid=a1de63aa-f178-478b-9e3a-fe8edfd64d29","ios":"levelo://app?vid=a1de63aa-f178-478b-9e3a-fe8edfd64d29"},"vehicle_type_id":"4","last_reported":1732043239,"current_range_meters":0,"station_id":"","pricing_plan_id":"cebpf4jnsgd1na2vs0mg"},{"bike_id":"c867698d-c8b1-47e3-96a8-f482fd87b5aa","system_id":"levelo_inurba_marseille","lat":43.29913,"lon":5.38153,"is_reserved":false,"is_disabled":false,"rental_uris":{"android":"levelo://app?vid=c867698d-c8b1-47e3-96a8-f482fd87b5aa","ios":"levelo://app?vid=c867698d-c8b1-47e3-96a8-f482fd87b5aa"},"vehicle_type_id":"4","last_reported":1732043239,"current_range_meters":6800,"station_id":"ce4bgj12rcd13ifvqbc0","pricing_plan_id":"cebpf4jnsgd1na2vs0mg"},{"bike_id":"9ed866e6-b8c6-4b5a-867c-3b715b87d5f8","system_id":"levelo_inurba_marseille","lat":43.28698,"lon":5.3998,"is_reserved":false,"is_disabled":true,"rental_uris":{"android":"levelo://app?vid=9ed866e6-b8c6-4b5a-867c-3b715b87d5f8","ios":"levelo://app?vid=9ed866e6-b8c6-4b5a-867c-3b715b87d5f8"},"vehicle_type_id":"4","last_reported":1732043239,"current_range_meters":400,"station_id":"ce4bho92rcd13ifvqh3g","pricing_plan_id":"cebpf4jnsgd1na2vs0mg"},{"bike_id":"85308c21-24d3-4ff7-9073-790d239a9901","system_id":"levelo_inurba_marseille","lat":43.31076,"lon":5.38349,"is_reserved":false,"is_disabled":true,"rental_uris":{"android":"levelo://app?vid=85308c21-24d3-4ff7-9073-790d239a9901","ios":"levelo://app?vid=85308c21-24d3-4ff7-9073-790d239a9901"},"vehicle_type_id":"4","last_reported":1732043239,"current_range_meters":36000,"station_id":"ce4bgv92rcd13ifvqcr0","pricing_plan_id":"cebpf4jnsgd1na2vs0mg"},{"bike_id":"de208543-9b1f-469d-95ed-a601b777cb16","system_id":"levelo_inurba_marseille","lat":43.24179,"lon":5.39729,"is_reserved":false,"is_disabled":true,"rental_uris":{"android":"levelo://app?vid=de208543-9b1f-469d-95ed-a601b777cb16","ios":"levelo://app?vid=de208543-9b1f-469d-95ed-a601b777cb16"},"vehicle_type_id":"4","last_reported":1732043239,"current_range_meters":1200,"station_id":"ce4bhn12rcd13ifvqgpg","pricing_plan_id":"cebpf4jnsgd1na2vs0mg"},{"bike_id":"f2ca0235-9c69-43c7-abf6-aae5dc943f37","system_id":"levelo_inurba_marseille","lat":43.29784,"lon":5.37108,"is_reserved":false,"is_disabled":true,"rental_uris":{"android":"levelo://app?vid=f2ca0235-9c69-43c7-abf6-aae5dc943f37","ios":"levelo://app?vid=f2ca0235-9c69-43c7-abf6-aae5dc943f37"},"vehicle_type_id":"4","last_reported":1732043239,"current_range_meters":0,"station_id":"ce4bgop2rcd13ifvqc1g","pricing_plan_id":"cebpf4jnsgd1na2vs0mg"},{"bike_id":"72256a7f-b65a-4f9f-a77a-892f70a69a4b","system_id":"levelo_inurba_marseille","lat":43.24549,"lon":5.39521,"is_reserved":false,"is_disabled":false,"rental_uris":{"android":"levelo://app?vid=72256a7f-b65a-4f9f-a77a-892f70a69a4b","ios":"levelo://app?vid=72256a7f-b65a-4f9f-a77a-892f70a69a4b"},"vehicle_type_id":"4","last_reported":1732043239,"current_range_meters":38800,"station_id":"ce4bhlp2rcd13ifvqgjg","pricing_plan_id":"cebpf4jnsgd1na2vs0mg"},{"bike_id":"2b5d7a4d-5b25-4b80-84d9-e10589e3033b","system_id":"levelo_inurba_marseille","lat":43.23965,"lon":5.36629,"is_reserved":false,"is_disabled":true,"rental_uris":{"android":"levelo://app?vid=2b5d7a4d-5b25-4b80-84d9-e10589e3033b","ios":"levelo://app?vid=2b5d7a4d-5b25-4b80-84d9-e10589e3033b"},"vehicle_type_id":"4","last_reported":1732043239,"current_range_meters":30800,"station_id":"ce4bhi12rcd13ifvqfp0","pricing_plan_id":"cebpf4jnsgd1na2vs0mg"},{"bike_id":"645e3cc3-5d53-4fad-b652-8da2295d3996","system_id":"levelo_inurba_marseille","lat":43.31753,"lon":5.39006,"is_reserved":false,"is_disabled":false,"rental_uris":{"android":"levelo://app?vid=645e3cc3-5d53-4fad-b652-8da2295d3996","ios":"levelo://app?vid=645e3cc3-5d53-4fad-b652-8da2295d3996"},"vehicle_type_id":"4","last_reported":1732043239,"current_range_meters":26000,"station_id":"ce4bhqp2rcd13ifvqhng","pricing_plan_id":"cebpf4jnsgd1na2vs0mg"},{"bike_id":"a4d0d86f-c13a-4aed-8602-dabadf1ae451","system_id":"levelo_inurba_marseille","lat":43.31703,"lon":5.43704,"is_reserved":false,"is_disabled":false,"rental_uris":{"android":"levelo://app?vid=a4d0d86f-c13a-4aed-8602-dabadf1ae451","ios":"levelo://app?vid=a4d0d86f-c13a-4aed-8602-dabadf1ae451"},"vehicle_type_id":"4","last_reported":1732043239,"current_range_meters":8400,"station_id":"ce4bhp92rcd13ifvqhcg","pricing_plan_id":"cebpf4jnsgd1na2vs0mg"},{"bike_id":"e3511c0c-eb2b-4100-bb2d-c5ebcd644bea","system_id":"levelo_inurba_marseille","lat":43.23961,"lon":5.36625,"is_reserved":false,"is_disabled":true,"rental_uris":{"android":"levelo://app?vid=e3511c0c-eb2b-4100-bb2d-c5ebcd644bea","ios":"levelo://app?vid=e3511c0c-eb2b-4100-bb2d-c5ebcd644bea"},"vehicle_type_id":"4","last_reported":1732043239,"current_range_meters":34800,"station_id":"ce4bhi12rcd13ifvqfp0","pricing_plan_id":"cebpf4jnsgd1na2vs0mg"},{"bike_id":"7dc2540e-5c15-49cc-843d-b22dafd2ded0","system_id":"levelo_inurba_marseille","lat":43.33759,"lon":5.37429,"is_reserved":false,"is_disabled":false,"rental_uris":{"android":"levelo://app?vid=7dc2540e-5c15-49cc-843d-b22dafd2ded0","ios":"levelo://app?vid=7dc2540e-5c15-49cc-843d-b22dafd2ded0"},"vehicle_type_id":"4","last_reported":1732043239,"current_range_meters":35200,"station_id":"","pricing_plan_id":"cebpf4jnsgd1na2vs0mg"},{"bike_id":"5917a06d-1a89-42ee-9c96-70b3e49f2520","system_id":"levelo_inurba_marseille","lat":43.31688,"lon":5.40475,"is_reserved":false,"is_disabled":true,"rental_uris":{"android":"levelo://app?vid=5917a06d-1a89-42ee-9c96-70b3e49f2520","ios":"levelo://app?vid=5917a06d-1a89-42ee-9c96-70b3e49f2520"},"vehicle_type_id":"4","last_reported":1732043239,"current_range_meters":10000,"station_id":"ce4bh012rcd13ifvqd00","pricing_plan_id":"cebpf4jnsgd1na2vs0mg"},{"bike_id":"497454ce-e4eb-4dce-94e8-18190e4c429b","system_id":"levelo_inurba_marseille","lat":43.27819,"lon":5.40716,"is_reserved":false,"is_disabled":true,"rental_uris":{"android":"levelo://app?vid=497454ce-e4eb-4dce-94e8-18190e4c429b","ios":"levelo://app?vid=497454ce-e4eb-4dce-94e8-18190e4c429b"},"vehicle_type_id":"4","last_reported":1732043239,"current_range_meters":0,"station_id":"ce4bhnh2rcd13ifvqgtg","pricing_plan_id":"cebpf4jnsgd1na2vs0mg"},{"bike_id":"e2a4a11a-9e71-4d25-b82e-aed529f479f7","system_id":"levelo_inurba_marseille","lat":43.31167,"lon":5.38713,"is_reserved":false,"is_disabled":false,"rental_uris":{"android":"levelo://app?vid=e2a4a11a-9e71-4d25-b82e-aed529f479f7","ios":"levelo://app?vid=e2a4a11a-9e71-4d25-b82e-aed529f479f7"},"vehicle_type_id":"4","last_reported":1732043239,"current_range_meters":3600,"station_id":"ce4bgv12rcd13ifvqcp0","pricing_plan_id":"cebpf4jnsgd1na2vs0mg"},{"bike_id":"55f95fd1-6acd-4347-bb4c-6a144aacc036","system_id":"levelo_inurba_marseille","lat":43.28461,"lon":5.35884,"is_reserved":false,"is_disabled":false,"rental_uris":{"android":"levelo://app?vid=55f95fd1-6acd-4347-bb4c-6a144aacc036","ios":"levelo://app?vid=55f95fd1-6acd-4347-bb4c-6a144aacc036"},"vehicle_type_id":"4","last_reported":1732043239,"current_range_meters":38800,"station_id":"ce4bhah2rcd13ifvqei0","pricing_plan_id":"cebpf4jnsgd1na2vs0mg"},{"bike_id":"c1c3a3f1-9cc6-47b2-9eb7-bd10d04179dd","system_id":"levelo_inurba_marseille","lat":43.26195,"lon":5.37932,"is_reserved":false,"is_disabled":false,"rental_uris":{"android":"levelo://app?vid=c1c3a3f1-9cc6-47b2-9eb7-bd10d04179dd","ios":"levelo://app?vid=c1c3a3f1-9cc6-47b2-9eb7-bd10d04179dd"},"vehicle_type_id":"4","last_reported":1732043239,"current_range_meters":12800,"station_id":"ce4bhjp2rcd13ifvqg90","pricing_plan_id":"cebpf4jnsgd1na2vs0mg"},{"bike_id":"3c885cf1-0cce-4ad4-b825-06394af6c46e","system_id":"levelo_inurba_marseille","lat":43.29584,"lon":5.36748,"is_reserved":false,"is_disabled":false,"rental_uris":{"android":"levelo://app?vid=3c885cf1-0cce-4ad4-b825-06394af6c46e","ios":"levelo://app?vid=3c885cf1-0cce-4ad4-b825-06394af6c46e"},"vehicle_type_id":"4","last_reported":1732043239,"current_range_meters":8800,"station_id":"ce4bgph2rcd13ifvqc2g","pricing_plan_id":"cebpf4jnsgd1na2vs0mg"},{"bike_id":"0515328a-d12e-4706-b42c-a0f9d3c339e0","system_id":"levelo_inurba_marseille","lat":43.29531,"lon":5.38549,"is_reserved":false,"is_disabled":false,"rental_uris":{"android":"levelo://app?vid=0515328a-d12e-4706-b42c-a0f9d3c339e0","ios":"levelo://app?vid=0515328a-d12e-4706-b42c-a0f9d3c339e0"},"vehicle_type_id":"4","last_reported":1732043239,"current_range_meters":27600,"station_id":"ce4bgih2rcd13ifvqba0","pricing_plan_id":"cebpf4jnsgd1na2vs0mg"},{"bike_id":"dc164298-2222-4ca7-92b0-fbbc273ecb2a","system_id":"levelo_inurba_marseille","lat":43.26779,"lon":5.39417,"is_reserved":false,"is_disabled":true,"rental_uris":{"android":"levelo://app?vid=dc164298-2222-4ca7-92b0-fbbc273ecb2a","ios":"levelo://app?vid=dc164298-2222-4ca7-92b0-fbbc273ecb2a"},"vehicle_type_id":"4","last_reported":1732043239,"current_range_meters":0,"station_id":"ce4bhh12rcd13ifvqfg0","pricing_plan_id":"cebpf4jnsgd1na2vs0mg"},{"bike_id":"25073dac-1c4b-4235-88f2-ba7b09ca22ac","system_id":"levelo_inurba_marseille","lat":43.32294,"lon":5.38274,"is_reserved":false,"is_disabled":false,"rental_uris":{"android":"levelo://app?vid=25073dac-1c4b-4235-88f2-ba7b09ca22ac","ios":"levelo://app?vid=25073dac-1c4b-4235-88f2-ba7b09ca22ac"},"vehicle_type_id":"4","last_reported":1732043239,"current_range_meters":20400,"station_id":"ce4bhr12rcd13ifvqhqg","pricing_plan_id":"cebpf4jnsgd1na2vs0mg"},{"bike_id":"25c810e2-9a9a-48cb-81a4-709151567c85","system_id":"levelo_inurba_marseille","lat":43.31324,"lon":5.39689,"is_reserved":false,"is_disabled":false,"rental_uris":{"android":"levelo://app?vid=25c810e2-9a9a-48cb-81a4-709151567c85","ios":"levelo://app?vid=25c810e2-9a9a-48cb-81a4-709151567c85"},"vehicle_type_id":"4","last_reported":1732043239,"current_range_meters":24400,"station_id":"ce4bgvp2rcd13ifvqcu0","pricing_plan_id":"cebpf4jnsgd1na2vs0mg"},{"bike_id":"37f14134-d611-451c-9aaa-25a59bd49fe3","system_id":"levelo_inurba_marseille","lat":43.298708,"lon":5.397432,"is_reserved":false,"is_disabled":true,"rental_uris":{"android":"levelo://app?vid=37f14134-d611-451c-9aaa-25a59bd49fe3","ios":"levelo://app?vid=37f14134-d611-451c-9aaa-25a59bd49fe3"},"vehicle_type_id":"4","last_reported":1732043239,"current_range_meters":38800,"station_id":"ce4bh0h2rcd13ifvqd50","pricing_plan_id":"cebpf4jnsgd1na2vs0mg"},{"bike_id":"968e5400-554d-48c9-b480-61ac7baa92a1","system_id":"levelo_inurba_marseille","lat":43.31374,"lon":5.38488,"is_reserved":false,"is_disabled":false,"rental_uris":{"android":"levelo://app?vid=968e5400-554d-48c9-b480-61ac7baa92a1","ios":"levelo://app?vid=968e5400-554d-48c9-b480-61ac7baa92a1"},"vehicle_type_id":"4","last_reported":1732043239,"current_range_meters":22000,"station_id":"ce4bgt92rcd13ifvqcf0","pricing_plan_id":"cebpf4jnsgd1na2vs0mg"},{"bike_id":"4bed6b7a-ec68-4875-bae6-bd70ef992ee4","system_id":"levelo_inurba_marseille","lat":43.28564,"lon":5.39489,"is_reserved":false,"is_disabled":false,"rental_uris":{"android":"levelo://app?vid=4bed6b7a-ec68-4875-bae6-bd70ef992ee4","ios":"levelo://app?vid=4bed6b7a-ec68-4875-bae6-bd70ef992ee4"},"vehicle_type_id":"4","last_reported":1732043239,"current_range_meters":30400,"station_id":"ce4bh292rcd13ifvqdg0","pricing_plan_id":"cebpf4jnsgd1na2vs0mg"},{"bike_id":"dc7fa527-4def-471c-bced-6291e149d306","system_id":"levelo_inurba_marseille","lat":43.2781,"lon":5.40715,"is_reserved":false,"is_disabled":true,"rental_uris":{"android":"levelo://app?vid=dc7fa527-4def-471c-bced-6291e149d306","ios":"levelo://app?vid=dc7fa527-4def-471c-bced-6291e149d306"},"vehicle_type_id":"4","last_reported":1732043239,"current_range_meters":0,"station_id":"ce4bhnh2rcd13ifvqgtg","pricing_plan_id":"cebpf4jnsgd1na2vs0mg"},{"bike_id":"fe466b38-f08e-4c08-bae1-f457152e4063","system_id":"levelo_inurba_marseille","lat":43.29424,"lon":5.38614,"is_reserved":false,"is_disabled":true,"rental_uris":{"android":"levelo://app?vid=fe466b38-f08e-4c08-bae1-f457152e4063","ios":"levelo://app?vid=fe466b38-f08e-4c08-bae1-f457152e4063"},"vehicle_type_id":"4","last_reported":1732043239,"current_range_meters":1600,"station_id":"ce4bh2h2rcd13ifvqdh0","pricing_plan_id":"cebpf4jnsgd1na2vs0mg"},{"bike_id":"d674a550-723f-4e20-a0c2-89aa344c2ade","system_id":"levelo_inurba_marseille","lat":43.2821,"lon":5.44366,"is_reserved":false,"is_disabled":true,"rental_uris":{"android":"levelo://app?vid=d674a550-723f-4e20-a0c2-89aa344c2ade","ios":"levelo://app?vid=d674a550-723f-4e20-a0c2-89aa344c2ade"},"vehicle_type_id":"4","last_reported":1732043239,"current_range_meters":1200,"station_id":"","pricing_plan_id":"cebpf4jnsgd1na2vs0mg"},{"bike_id":"9ae88aa4-1566-4b5a-b321-61c4022b8fc4","system_id":"levelo_inurba_marseille","lat":43.29024,"lon":5.38646,"is_reserved":false,"is_disabled":false,"rental_uris":{"android":"levelo://app?vid=9ae88aa4-1566-4b5a-b321-61c4022b8fc4","ios":"levelo://app?vid=9ae88aa4-1566-4b5a-b321-61c4022b8fc4"},"vehicle_type_id":"4","last_reported":1732043239,"current_range_meters":4800,"station_id":"ce4bh4p2rcd13ifvqe0g","pricing_plan_id":"cebpf4jnsgd1na2vs0mg"},{"bike_id":"5b29e243-d2ee-49a3-bf82-b9403479e9af","system_id":"levelo_inurba_marseille","lat":43.30541,"lon":5.38419,"is_reserved":false,"is_disabled":false,"rental_uris":{"android":"levelo://app?vid=5b29e243-d2ee-49a3-bf82-b9403479e9af","ios":"levelo://app?vid=5b29e243-d2ee-49a3-bf82-b9403479e9af"},"vehicle_type_id":"4","last_reported":1732043239,"current_range_meters":33200,"station_id":"ce4bgg92rcd13ifvqb30","pricing_plan_id":"cebpf4jnsgd1na2vs0mg"},{"bike_id":"73de2cc8-4db3-417a-9abb-3cffa18feca4","system_id":"levelo_inurba_marseille","lat":43.28417,"lon":5.37511,"is_reserved":false,"is_disabled":false,"rental_uris":{"android":"levelo://app?vid=73de2cc8-4db3-417a-9abb-3cffa18feca4","ios":"levelo://app?vid=73de2cc8-4db3-417a-9abb-3cffa18feca4"},"vehicle_type_id":"4","last_reported":1732043239,"current_range_meters":38800,"station_id":"ce4bh412rcd13ifvqds0","pricing_plan_id":"cebpf4jnsgd1na2vs0mg"},{"bike_id":"f5cf085e-8694-4c6f-ba9c-aa6e0d3c58c6","system_id":"levelo_inurba_marseille","lat":43.34614,"lon":5.35458,"is_reserved":false,"is_disabled":true,"rental_uris":{"android":"levelo://app?vid=f5cf085e-8694-4c6f-ba9c-aa6e0d3c58c6","ios":"levelo://app?vid=f5cf085e-8694-4c6f-ba9c-aa6e0d3c58c6"},"vehicle_type_id":"4","last_reported":1732043239,"current_range_meters":16800,"station_id":"","pricing_plan_id":"cebpf4jnsgd1na2vs0mg"},{"bike_id":"3d2beca7-eef0-4bae-98e1-8b3de347272c","system_id":"levelo_inurba_marseille","lat":43.23192,"lon":5.35556,"is_reserved":false,"is_disabled":true,"rental_uris":{"android":"levelo://app?vid=3d2beca7-eef0-4bae-98e1-8b3de347272c","ios":"levelo://app?vid=3d2beca7-eef0-4bae-98e1-8b3de347272c"},"vehicle_type_id":"4","last_reported":1732043239,"current_range_meters":0,"station_id":"ce4bhu92rcd13ifvqi70","pricing_plan_id":"cebpf4jnsgd1na2vs0mg"},{"bike_id":"5552f888-aa05-4d86-8066-0824ea157171","system_id":"levelo_inurba_marseille","lat":43.29295,"lon":5.37165,"is_reserved":false,"is_disabled":false,"rental_uris":{"android":"levelo://app?vid=5552f888-aa05-4d86-8066-0824ea157171","ios":"levelo://app?vid=5552f888-aa05-4d86-8066-0824ea157171"},"vehicle_type_id":"4","last_reported":1732043239,"current_range_meters":3200,"station_id":"ce4bgh92rcd13ifvqb40","pricing_plan_id":"cebpf4jnsgd1na2vs0mg"},{"bike_id":"5b0208d6-124b-4771-8c47-0ad7da20f926","system_id":"levelo_inurba_marseille","lat":43.32364,"lon":5.38881,"is_reserved":false,"is_disabled":true,"rental_uris":{"android":"levelo://app?vid=5b0208d6-124b-4771-8c47-0ad7da20f926","ios":"levelo://app?vid=5b0208d6-124b-4771-8c47-0ad7da20f926"},"vehicle_type_id":"4","last_reported":1732043239,"current_range_meters":1200,"station_id":"ce4bhqp2rcd13ifvqhog","pricing_plan_id":"cebpf4jnsgd1na2vs0mg"},{"bike_id":"8996e50d-687f-432f-b2c3-7e2b0ea22f7a","system_id":"levelo_inurba_marseille","lat":43.31755,"lon":5.39008,"is_reserved":false,"is_disabled":false,"rental_uris":{"android":"levelo://app?vid=8996e50d-687f-432f-b2c3-7e2b0ea22f7a","ios":"levelo://app?vid=8996e50d-687f-432f-b2c3-7e2b0ea22f7a"},"vehicle_type_id":"4","last_reported":1732043239,"current_range_meters":19600,"station_id":"ce4bhqp2rcd13ifvqhng","pricing_plan_id":"cebpf4jnsgd1na2vs0mg"},{"bike_id":"f4b6451c-07fa-4369-8a7e-91b7f50d0cf0","system_id":"levelo_inurba_marseille","lat":43.31717,"lon":5.43717,"is_reserved":false,"is_disabled":false,"rental_uris":{"android":"levelo://app?vid=f4b6451c-07fa-4369-8a7e-91b7f50d0cf0","ios":"levelo://app?vid=f4b6451c-07fa-4369-8a7e-91b7f50d0cf0"},"vehicle_type_id":"4","last_reported":1732043239,"current_range_meters":24400,"station_id":"ce4bhp92rcd13ifvqhcg","pricing_plan_id":"cebpf4jnsgd1na2vs0mg"},{"bike_id":"60b1c339-fd1c-4965-90dc-90e310c665f7","system_id":"levelo_inurba_marseille","lat":43.28713,"lon":5.37932,"is_reserved":false,"is_disabled":false,"rental_uris":{"android":"levelo://app?vid=60b1c339-fd1c-4965-90dc-90e310c665f7","ios":"levelo://app?vid=60b1c339-fd1c-4965-90dc-90e310c665f7"},"vehicle_type_id":"4","last_reported":1732043239,"current_range_meters":38800,"station_id":"ce4bh9p2rcd13ifvqec0","pricing_plan_id":"cebpf4jnsgd1na2vs0mg"},{"bike_id":"b3240729-8eb2-4095-8f89-1172cda3d8d4","system_id":"levelo_inurba_marseille","lat":43.29795,"lon":5.40398,"is_reserved":false,"is_disabled":false,"rental_uris":{"android":"levelo://app?vid=b3240729-8eb2-4095-8f89-1172cda3d8d4","ios":"levelo://app?vid=b3240729-8eb2-4095-8f89-1172cda3d8d4"},"vehicle_type_id":"4","last_reported":1732043239,"current_range_meters":30800,"station_id":"ce4bh112rcd13ifvqd90","pricing_plan_id":"cebpf4jnsgd1na2vs0mg"},{"bike_id":"b025ac42-87a5-4dd9-9db1-d22342e3b716","system_id":"levelo_inurba_marseille","lat":43.30422,"lon":5.41275,"is_reserved":false,"is_disabled":false,"rental_uris":{"android":"levelo://app?vid=b025ac42-87a5-4dd9-9db1-d22342e3b716","ios":"levelo://app?vid=b025ac42-87a5-4dd9-9db1-d22342e3b716"},"vehicle_type_id":"4","last_reported":1732043239,"current_range_meters":11600,"station_id":"ce4bhop2rcd13ifvqh8g","pricing_plan_id":"cebpf4jnsgd1na2vs0mg"},{"bike_id":"1769703b-9903-454d-ac38-a754f724b036","system_id":"levelo_inurba_marseille","lat":43.2558,"lon":5.38239,"is_reserved":false,"is_disabled":true,"rental_uris":{"android":"levelo://app?vid=1769703b-9903-454d-ac38-a754f724b036","ios":"levelo://app?vid=1769703b-9903-454d-ac38-a754f724b036"},"vehicle_type_id":"4","last_reported":1732043239,"current_range_meters":0,"station_id":"ce4bhih2rcd13ifvqfs0","pricing_plan_id":"cebpf4jnsgd1na2vs0mg"},{"bike_id":"bc249293-6395-4334-b84a-652f70f197fc","system_id":"levelo_inurba_marseille","lat":43.27631,"lon":5.42646,"is_reserved":false,"is_disabled":true,"rental_uris":{"android":"levelo://app?vid=bc249293-6395-4334-b84a-652f70f197fc","ios":"levelo://app?vid=bc249293-6395-4334-b84a-652f70f197fc"},"vehicle_type_id":"4","last_reported":1732043239,"current_range_meters":0,"station_id":"","pricing_plan_id":"cebpf4jnsgd1na2vs0mg"},{"bike_id":"b1b1aa1f-bea5-417e-b225-d10666877b75","system_id":"levelo_inurba_marseille","lat":43.32362,"lon":5.38874,"is_reserved":false,"is_disabled":false,"rental_uris":{"android":"levelo://app?vid=b1b1aa1f-bea5-417e-b225-d10666877b75","ios":"levelo://app?vid=b1b1aa1f-bea5-417e-b225-d10666877b75"},"vehicle_type_id":"4","last_reported":1732043239,"current_range_meters":26000,"station_id":"ce4bhqp2rcd13ifvqhog","pricing_plan_id":"cebpf4jnsgd1na2vs0mg"},{"bike_id":"99c01702-242f-4981-b834-7f6d8c15299b","system_id":"levelo_inurba_marseille","lat":43.29259,"lon":5.38432,"is_reserved":false,"is_disabled":false,"rental_uris":{"android":"levelo://app?vid=99c01702-242f-4981-b834-7f6d8c15299b","ios":"levelo://app?vid=99c01702-242f-4981-b834-7f6d8c15299b"},"vehicle_type_id":"4","last_reported":1732043239,"current_range_meters":22800,"station_id":"ce4bh692rcd13ifvqea0","pricing_plan_id":"cebpf4jnsgd1na2vs0mg"},{"bike_id":"be1dd5f8-91fc-4786-8461-76cd869dae13","system_id":"levelo_inurba_marseille","lat":43.31982,"lon":5.41584,"is_reserved":false,"is_disabled":true,"rental_uris":{"android":"levelo://app?vid=be1dd5f8-91fc-4786-8461-76cd869dae13","ios":"levelo://app?vid=be1dd5f8-91fc-4786-8461-76cd869dae13"},"vehicle_type_id":"4","last_reported":1732043239,"current_range_meters":24800,"station_id":"","pricing_plan_id":"cebpf4jnsgd1na2vs0mg"},{"bike_id":"f86802ca-1925-40ae-9ca3-89391d5dc648","system_id":"levelo_inurba_marseille","lat":43.29005,"lon":5.35613,"is_reserved":false,"is_disabled":false,"rental_uris":{"android":"levelo://app?vid=f86802ca-1925-40ae-9ca3-89391d5dc648","ios":"levelo://app?vid=f86802ca-1925-40ae-9ca3-89391d5dc648"},"vehicle_type_id":"4","last_reported":1732043239,"current_range_meters":38800,"station_id":"ce4bhb92rcd13ifvqen0","pricing_plan_id":"cebpf4jnsgd1na2vs0mg"},{"bike_id":"0cbf7c32-3829-4073-b53f-ee40b99f8c60","system_id":"levelo_inurba_marseille","lat":43.31173,"lon":5.3871,"is_reserved":false,"is_disabled":false,"rental_uris":{"android":"levelo://app?vid=0cbf7c32-3829-4073-b53f-ee40b99f8c60","ios":"levelo://app?vid=0cbf7c32-3829-4073-b53f-ee40b99f8c60"},"vehicle_type_id":"4","last_reported":1732043239,"current_range_meters":30000,"station_id":"ce4bgv12rcd13ifvqcp0","pricing_plan_id":"cebpf4jnsgd1na2vs0mg"},{"bike_id":"c20d848a-d59f-4266-b202-30784b4ab0e8","system_id":"levelo_inurba_marseille","lat":43.29263,"lon":5.38428,"is_reserved":false,"is_disabled":false,"rental_uris":{"android":"levelo://app?vid=c20d848a-d59f-4266-b202-30784b4ab0e8","ios":"levelo://app?vid=c20d848a-d59f-4266-b202-30784b4ab0e8"},"vehicle_type_id":"4","last_reported":1732043239,"current_range_meters":26000,"station_id":"ce4bh692rcd13ifvqea0","pricing_plan_id":"cebpf4jnsgd1na2vs0mg"},{"bike_id":"80ed2145-0455-4da8-ae4a-e36065982ce3","system_id":"levelo_inurba_marseille","lat":43.32367,"lon":5.38886,"is_reserved":false,"is_disabled":false,"rental_uris":{"android":"levelo://app?vid=80ed2145-0455-4da8-ae4a-e36065982ce3","ios":"levelo://app?vid=80ed2145-0455-4da8-ae4a-e36065982ce3"},"vehicle_type_id":"4","last_reported":1732043239,"current_range_meters":12000,"station_id":"ce4bhqp2rcd13ifvqhog","pricing_plan_id":"cebpf4jnsgd1na2vs0mg"},{"bike_id":"f198b97b-88d4-49aa-b205-4610520421a6","system_id":"levelo_inurba_marseille","lat":43.33022,"lon":5.39037,"is_reserved":false,"is_disabled":false,"rental_uris":{"android":"levelo://app?vid=f198b97b-88d4-49aa-b205-4610520421a6","ios":"levelo://app?vid=f198b97b-88d4-49aa-b205-4610520421a6"},"vehicle_type_id":"4","last_reported":1732043239,"current_range_meters":33200,"station_id":"ce4bhr92rcd13ifvqhrg","pricing_plan_id":"cebpf4jnsgd1na2vs0mg"},{"bike_id":"6fe65320-959e-41bb-8132-72e6c31cb31d","system_id":"levelo_inurba_marseille","lat":43.2808,"lon":5.39651,"is_reserved":false,"is_disabled":true,"rental_uris":{"android":"levelo://app?vid=6fe65320-959e-41bb-8132-72e6c31cb31d","ios":"levelo://app?vid=6fe65320-959e-41bb-8132-72e6c31cb31d"},"vehicle_type_id":"4","last_reported":1732043239,"current_range_meters":39200,"station_id":"ce4bho12rcd13ifvqh2g","pricing_plan_id":"cebpf4jnsgd1na2vs0mg"},{"bike_id":"abf2e417-7fd0-4f5e-9afa-64af93f85e22","system_id":"levelo_inurba_marseille","lat":43.31999,"lon":5.38155,"is_reserved":false,"is_disabled":false,"rental_uris":{"android":"levelo://app?vid=abf2e417-7fd0-4f5e-9afa-64af93f85e22","ios":"levelo://app?vid=abf2e417-7fd0-4f5e-9afa-64af93f85e22"},"vehicle_type_id":"4","last_reported":1732043239,"current_range_meters":35600,"station_id":"ce4bhr12rcd13ifvqhpg","pricing_plan_id":"cebpf4jnsgd1na2vs0mg"},{"bike_id":"e7f24bf0-eae1-41a8-93bb-91453789a04a","system_id":"levelo_inurba_marseille","lat":43.284514,"lon":5.358849,"is_reserved":false,"is_disabled":false,"rental_uris":{"android":"levelo://app?vid=e7f24bf0-eae1-41a8-93bb-91453789a04a","ios":"levelo://app?vid=e7f24bf0-eae1-41a8-93bb-91453789a04a"},"vehicle_type_id":"4","last_reported":1732043239,"current_range_meters":14800,"station_id":"ce4bhah2rcd13ifvqei0","pricing_plan_id":"cebpf4jnsgd1na2vs0mg"},{"bike_id":"0cdb8512-6540-4117-8917-ed82390a8a1b","system_id":"levelo_inurba_marseille","lat":43.2903,"lon":5.37567,"is_reserved":false,"is_disabled":true,"rental_uris":{"android":"levelo://app?vid=0cdb8512-6540-4117-8917-ed82390a8a1b","ios":"levelo://app?vid=0cdb8512-6540-4117-8917-ed82390a8a1b"},"vehicle_type_id":"4","last_reported":1732043239,"current_range_meters":1200,"station_id":"ce4bh692rcd13ifvqe90","pricing_plan_id":"cebpf4jnsgd1na2vs0mg"},{"bike_id":"5fe20d58-65ac-4c8a-b149-a2e6de20044d","system_id":"levelo_inurba_marseille","lat":43.29378,"lon":5.37856,"is_reserved":false,"is_disabled":true,"rental_uris":{"android":"levelo://app?vid=5fe20d58-65ac-4c8a-b149-a2e6de20044d","ios":"levelo://app?vid=5fe20d58-65ac-4c8a-b149-a2e6de20044d"},"vehicle_type_id":"4","last_reported":1732043239,"current_range_meters":30800,"station_id":"ce4bgjh2rcd13ifvqbf0","pricing_plan_id":"cebpf4jnsgd1na2vs0mg"},{"bike_id":"6c884184-cddc-4cc0-aa45-5525e2fb7f75","system_id":"levelo_inurba_marseille","lat":43.23952,"lon":5.36633,"is_reserved":false,"is_disabled":false,"rental_uris":{"android":"levelo://app?vid=6c884184-cddc-4cc0-aa45-5525e2fb7f75","ios":"levelo://app?vid=6c884184-cddc-4cc0-aa45-5525e2fb7f75"},"vehicle_type_id":"4","last_reported":1732043239,"current_range_meters":21600,"station_id":"ce4bhi12rcd13ifvqfp0","pricing_plan_id":"cebpf4jnsgd1na2vs0mg"},{"bike_id":"80eedd34-0175-4976-abe5-d9d191073cb7","system_id":"levelo_inurba_marseille","lat":43.294891,"lon":5.417694,"is_reserved":false,"is_disabled":false,"rental_uris":{"android":"levelo://app?vid=80eedd34-0175-4976-abe5-d9d191073cb7","ios":"levelo://app?vid=80eedd34-0175-4976-abe5-d9d191073cb7"},"vehicle_type_id":"4","last_reported":1732043239,"current_range_meters":20800,"station_id":"ce4bh3h2rcd13ifvqdn0","pricing_plan_id":"cebpf4jnsgd1na2vs0mg"},{"bike_id":"2b891c5b-63d3-46d5-b15a-a179dad84936","system_id":"levelo_inurba_marseille","lat":43.2454,"lon":5.39527,"is_reserved":false,"is_disabled":true,"rental_uris":{"android":"levelo://app?vid=2b891c5b-63d3-46d5-b15a-a179dad84936","ios":"levelo://app?vid=2b891c5b-63d3-46d5-b15a-a179dad84936"},"vehicle_type_id":"4","last_reported":1732043239,"current_range_meters":0,"station_id":"ce4bhlp2rcd13ifvqgjg","pricing_plan_id":"cebpf4jnsgd1na2vs0mg"},{"bike_id":"d5342297-7cfc-4c3d-b0a6-38cfb41a2140","system_id":"levelo_inurba_marseille","lat":43.29039,"lon":5.39957,"is_reserved":false,"is_disabled":false,"rental_uris":{"android":"levelo://app?vid=d5342297-7cfc-4c3d-b0a6-38cfb41a2140","ios":"levelo://app?vid=d5342297-7cfc-4c3d-b0a6-38cfb41a2140"},"vehicle_type_id":"4","last_reported":1732043239,"current_range_meters":37600,"station_id":"ce4bh392rcd13ifvqdm0","pricing_plan_id":"cebpf4jnsgd1na2vs0mg"},{"bike_id":"5fea3c9e-c3fd-4983-95a6-b1b0a7c431e5","system_id":"levelo_inurba_marseille","lat":43.28942,"lon":5.36636,"is_reserved":false,"is_disabled":false,"rental_uris":{"android":"levelo://app?vid=5fea3c9e-c3fd-4983-95a6-b1b0a7c431e5","ios":"levelo://app?vid=5fea3c9e-c3fd-4983-95a6-b1b0a7c431e5"},"vehicle_type_id":"4","last_reported":1732043239,"current_range_meters":25200,"station_id":"ce4bhap2rcd13ifvqek0","pricing_plan_id":"cebpf4jnsgd1na2vs0mg"},{"bike_id":"e9741062-77ad-4426-a4b7-85e55a1a1a4d","system_id":"levelo_inurba_marseille","lat":43.28943,"lon":5.36631,"is_reserved":false,"is_disabled":false,"rental_uris":{"android":"levelo://app?vid=e9741062-77ad-4426-a4b7-85e55a1a1a4d","ios":"levelo://app?vid=e9741062-77ad-4426-a4b7-85e55a1a1a4d"},"vehicle_type_id":"4","last_reported":1732043239,"current_range_meters":36800,"station_id":"ce4bhap2rcd13ifvqek0","pricing_plan_id":"cebpf4jnsgd1na2vs0mg"},{"bike_id":"24b2c3eb-8b9b-40a7-8aad-177c7a5a5f47","system_id":"levelo_inurba_marseille","lat":43.26932,"lon":5.38911,"is_reserved":false,"is_disabled":true,"rental_uris":{"android":"levelo://app?vid=24b2c3eb-8b9b-40a7-8aad-177c7a5a5f47","ios":"levelo://app?vid=24b2c3eb-8b9b-40a7-8aad-177c7a5a5f47"},"vehicle_type_id":"4","last_reported":1732043239,"current_range_meters":0,"station_id":"ce4bhhh2rcd13ifvqfl0","pricing_plan_id":"cebpf4jnsgd1na2vs0mg"},{"bike_id":"f8a0ad6e-bca5-4284-823d-26bfc00006bc","system_id":"levelo_inurba_marseille","lat":43.28985,"lon":5.37836,"is_reserved":false,"is_disabled":false,"rental_uris":{"android":"levelo://app?vid=f8a0ad6e-bca5-4284-823d-26bfc00006bc","ios":"levelo://app?vid=f8a0ad6e-bca5-4284-823d-26bfc00006bc"},"vehicle_type_id":"4","last_reported":1732043239,"current_range_meters":20800,"station_id":"ce4bh9p2rcd13ifvqed0","pricing_plan_id":"cebpf4jnsgd1na2vs0mg"},{"bike_id":"4bd268f3-b708-480d-b1f5-141d19aa9947","system_id":"levelo_inurba_marseille","lat":43.2447,"lon":5.37793,"is_reserved":false,"is_disabled":true,"rental_uris":{"android":"levelo://app?vid=4bd268f3-b708-480d-b1f5-141d19aa9947","ios":"levelo://app?vid=4bd268f3-b708-480d-b1f5-141d19aa9947"},"vehicle_type_id":"4","last_reported":1732043239,"current_range_meters":0,"station_id":"","pricing_plan_id":"cebpf4jnsgd1na2vs0mg"},{"bike_id":"a78bc1fa-f508-4cab-a5e8-89111600fa30","system_id":"levelo_inurba_marseille","lat":43.34126,"lon":5.40907,"is_reserved":false,"is_disabled":false,"rental_uris":{"android":"levelo://app?vid=a78bc1fa-f508-4cab-a5e8-89111600fa30","ios":"levelo://app?vid=a78bc1fa-f508-4cab-a5e8-89111600fa30"},"vehicle_type_id":"4","last_reported":1732043239,"current_range_meters":23200,"station_id":"ce4bhqh2rcd13ifvqhlg","pricing_plan_id":"cebpf4jnsgd1na2vs0mg"},{"bike_id":"9b4d52a8-a22b-418c-a556-65afaca3a235","system_id":"levelo_inurba_marseille","lat":43.33751,"lon":5.37457,"is_reserved":false,"is_disabled":false,"rental_uris":{"android":"levelo://app?vid=9b4d52a8-a22b-418c-a556-65afaca3a235","ios":"levelo://app?vid=9b4d52a8-a22b-418c-a556-65afaca3a235"},"vehicle_type_id":"4","last_reported":1732043239,"current_range_meters":20400,"station_id":"","pricing_plan_id":"cebpf4jnsgd1na2vs0mg"},{"bike_id":"1891ccd6-df66-4d14-b8ae-38e9bc6fac1b","system_id":"levelo_inurba_marseille","lat":43.31354,"lon":5.38491,"is_reserved":false,"is_disabled":false,"rental_uris":{"android":"levelo://app?vid=1891ccd6-df66-4d14-b8ae-38e9bc6fac1b","ios":"levelo://app?vid=1891ccd6-df66-4d14-b8ae-38e9bc6fac1b"},"vehicle_type_id":"4","last_reported":1732043239,"current_range_meters":35600,"station_id":"ce4bgt92rcd13ifvqcf0","pricing_plan_id":"cebpf4jnsgd1na2vs0mg"},{"bike_id":"a12d6d5f-0f23-4ede-a12b-384b4925b55d","system_id":"levelo_inurba_marseille","lat":43.28406,"lon":5.37506,"is_reserved":false,"is_disabled":false,"rental_uris":{"android":"levelo://app?vid=a12d6d5f-0f23-4ede-a12b-384b4925b55d","ios":"levelo://app?vid=a12d6d5f-0f23-4ede-a12b-384b4925b55d"},"vehicle_type_id":"4","last_reported":1732043239,"current_range_meters":38400,"station_id":"ce4bh412rcd13ifvqds0","pricing_plan_id":"cebpf4jnsgd1na2vs0mg"},{"bike_id":"5c215695-7517-4c59-b4ed-3d09ca94c869","system_id":"levelo_inurba_marseille","lat":43.24801,"lon":5.37446,"is_reserved":false,"is_disabled":true,"rental_uris":{"android":"levelo://app?vid=5c215695-7517-4c59-b4ed-3d09ca94c869","ios":"levelo://app?vid=5c215695-7517-4c59-b4ed-3d09ca94c869"},"vehicle_type_id":"4","last_reported":1732043239,"current_range_meters":0,"station_id":"ce4bhgh2rcd13ifvqfb0","pricing_plan_id":"cebpf4jnsgd1na2vs0mg"},{"bike_id":"e74e8692-56b5-455e-b107-3674a73c30f0","system_id":"levelo_inurba_marseille","lat":43.2927,"lon":5.36839,"is_reserved":false,"is_disabled":true,"rental_uris":{"android":"levelo://app?vid=e74e8692-56b5-455e-b107-3674a73c30f0","ios":"levelo://app?vid=e74e8692-56b5-455e-b107-3674a73c30f0"},"vehicle_type_id":"4","last_reported":1732043239,"current_range_meters":800,"station_id":"ce4bhbp2rcd13ifvqesg","pricing_plan_id":"cebpf4jnsgd1na2vs0mg"},{"bike_id":"b8e0ff19-cfbf-49c3-a9f8-f8dcefd4b613","system_id":"levelo_inurba_marseille","lat":43.27675,"lon":5.38895,"is_reserved":false,"is_disabled":true,"rental_uris":{"android":"levelo://app?vid=b8e0ff19-cfbf-49c3-a9f8-f8dcefd4b613","ios":"levelo://app?vid=b8e0ff19-cfbf-49c3-a9f8-f8dcefd4b613"},"vehicle_type_id":"4","last_reported":1732043239,"current_range_meters":36800,"station_id":"ce4bhi12rcd13ifvqfo0","pricing_plan_id":"cebpf4jnsgd1na2vs0mg"},{"bike_id":"6a4a5079-d2ef-4951-93b7-ecaeefc95070","system_id":"levelo_inurba_marseille","lat":43.24993,"lon":5.38933,"is_reserved":false,"is_disabled":false,"rental_uris":{"android":"levelo://app?vid=6a4a5079-d2ef-4951-93b7-ecaeefc95070","ios":"levelo://app?vid=6a4a5079-d2ef-4951-93b7-ecaeefc95070"},"vehicle_type_id":"4","last_reported":1732043239,"current_range_meters":23200,"station_id":"ce4bhgp2rcd13ifvqfd0","pricing_plan_id":"cebpf4jnsgd1na2vs0mg"},{"bike_id":"eaa42bfa-9e14-44cc-8771-e7142d3132b3","system_id":"levelo_inurba_marseille","lat":43.30801,"lon":5.43534,"is_reserved":false,"is_disabled":false,"rental_uris":{"android":"levelo://app?vid=eaa42bfa-9e14-44cc-8771-e7142d3132b3","ios":"levelo://app?vid=eaa42bfa-9e14-44cc-8771-e7142d3132b3"},"vehicle_type_id":"4","last_reported":1732043239,"current_range_meters":25600,"station_id":"ce4bhph2rcd13ifvqheg","pricing_plan_id":"cebpf4jnsgd1na2vs0mg"},{"bike_id":"8305ffee-c806-46d3-8319-f8ee60b9fcee","system_id":"levelo_inurba_marseille","lat":43.30325,"lon":5.40427,"is_reserved":false,"is_disabled":false,"rental_uris":{"android":"levelo://app?vid=8305ffee-c806-46d3-8319-f8ee60b9fcee","ios":"levelo://app?vid=8305ffee-c806-46d3-8319-f8ee60b9fcee"},"vehicle_type_id":"4","last_reported":1732043239,"current_range_meters":6400,"station_id":"ce4bh012rcd13ifvqd10","pricing_plan_id":"cebpf4jnsgd1na2vs0mg"},{"bike_id":"1462f68e-113f-431d-9d5b-f4d7f987f2b8","system_id":"levelo_inurba_marseille","lat":43.28488,"lon":5.38424,"is_reserved":false,"is_disabled":true,"rental_uris":{"android":"levelo://app?vid=1462f68e-113f-431d-9d5b-f4d7f987f2b8","ios":"levelo://app?vid=1462f68e-113f-431d-9d5b-f4d7f987f2b8"},"vehicle_type_id":"4","last_reported":1732043239,"current_range_meters":12800,"station_id":"ce4bh512rcd13ifvqe3g","pricing_plan_id":"cebpf4jnsgd1na2vs0mg"},{"bike_id":"c0ac236e-b052-4993-a73f-8d47ad75afde","system_id":"levelo_inurba_marseille","lat":43.28071,"lon":5.39646,"is_reserved":false,"is_disabled":false,"rental_uris":{"android":"levelo://app?vid=c0ac236e-b052-4993-a73f-8d47ad75afde","ios":"levelo://app?vid=c0ac236e-b052-4993-a73f-8d47ad75afde"},"vehicle_type_id":"4","last_reported":1732043239,"current_range_meters":8000,"station_id":"ce4bho12rcd13ifvqh2g","pricing_plan_id":"cebpf4jnsgd1na2vs0mg"},{"bike_id":"98ecb95d-710f-4a7b-b429-73ca51942102","system_id":"levelo_inurba_marseille","lat":43.284069,"lon":5.375245,"is_reserved":false,"is_disabled":false,"rental_uris":{"android":"levelo://app?vid=98ecb95d-710f-4a7b-b429-73ca51942102","ios":"levelo://app?vid=98ecb95d-710f-4a7b-b429-73ca51942102"},"vehicle_type_id":"4","last_reported":1732043239,"current_range_meters":24400,"station_id":"ce4bh412rcd13ifvqds0","pricing_plan_id":"cebpf4jnsgd1na2vs0mg"},{"bike_id":"ce9bfb32-649f-4063-a2d5-a9de08dc19a9","system_id":"levelo_inurba_marseille","lat":43.28712,"lon":5.37945,"is_reserved":false,"is_disabled":true,"rental_uris":{"android":"levelo://app?vid=ce9bfb32-649f-4063-a2d5-a9de08dc19a9","ios":"levelo://app?vid=ce9bfb32-649f-4063-a2d5-a9de08dc19a9"},"vehicle_type_id":"4","last_reported":1732043239,"current_range_meters":0,"station_id":"ce4bh9p2rcd13ifvqec0","pricing_plan_id":"cebpf4jnsgd1na2vs0mg"},{"bike_id":"0b733133-03c9-4766-961e-92b775b50bbc","system_id":"levelo_inurba_marseille","lat":43.28193,"lon":5.44272,"is_reserved":false,"is_disabled":true,"rental_uris":{"android":"levelo://app?vid=0b733133-03c9-4766-961e-92b775b50bbc","ios":"levelo://app?vid=0b733133-03c9-4766-961e-92b775b50bbc"},"vehicle_type_id":"4","last_reported":1732043239,"current_range_meters":0,"station_id":"","pricing_plan_id":"cebpf4jnsgd1na2vs0mg"},{"bike_id":"87f72484-0dd8-4a5a-8b7f-bb079e67d618","system_id":"levelo_inurba_marseille","lat":43.29587,"lon":5.36744,"is_reserved":false,"is_disabled":false,"rental_uris":{"android":"levelo://app?vid=87f72484-0dd8-4a5a-8b7f-bb079e67d618","ios":"levelo://app?vid=87f72484-0dd8-4a5a-8b7f-bb079e67d618"},"vehicle_type_id":"4","last_reported":1732043239,"current_range_meters":27600,"station_id":"ce4bgph2rcd13ifvqc2g","pricing_plan_id":"cebpf4jnsgd1na2vs0mg"},{"bike_id":"7d02f161-c4ab-430d-be6a-e052ba68aacf","system_id":"levelo_inurba_marseille","lat":43.30955,"lon":5.39028,"is_reserved":false,"is_disabled":true,"rental_uris":{"android":"levelo://app?vid=7d02f161-c4ab-430d-be6a-e052ba68aacf","ios":"levelo://app?vid=7d02f161-c4ab-430d-be6a-e052ba68aacf"},"vehicle_type_id":"4","last_reported":1732043239,"current_range_meters":10000,"station_id":"ce4bgup2rcd13ifvqco0","pricing_plan_id":"cebpf4jnsgd1na2vs0mg"},{"bike_id":"7d3a6b98-ad7d-4928-a27c-362f05cff791","system_id":"levelo_inurba_marseille","lat":43.30316,"lon":5.40432,"is_reserved":false,"is_disabled":false,"rental_uris":{"android":"levelo://app?vid=7d3a6b98-ad7d-4928-a27c-362f05cff791","ios":"levelo://app?vid=7d3a6b98-ad7d-4928-a27c-362f05cff791"},"vehicle_type_id":"4","last_reported":1732043239,"current_range_meters":35200,"station_id":"ce4bh012rcd13ifvqd10","pricing_plan_id":"cebpf4jnsgd1na2vs0mg"},{"bike_id":"e65461e3-d425-4dee-a20c-933c7023442e","system_id":"levelo_inurba_marseille","lat":43.30261,"lon":5.40059,"is_reserved":false,"is_disabled":true,"rental_uris":{"android":"levelo://app?vid=e65461e3-d425-4dee-a20c-933c7023442e","ios":"levelo://app?vid=e65461e3-d425-4dee-a20c-933c7023442e"},"vehicle_type_id":"4","last_reported":1732043239,"current_range_meters":37600,"station_id":"ce4bgvh2rcd13ifvqcs0","pricing_plan_id":"cebpf4jnsgd1na2vs0mg"},{"bike_id":"7330dbfc-fab1-46fb-8689-a7b6cc5d7217","system_id":"levelo_inurba_marseille","lat":43.30223,"lon":5.39472,"is_reserved":false,"is_disabled":false,"rental_uris":{"android":"levelo://app?vid=7330dbfc-fab1-46fb-8689-a7b6cc5d7217","ios":"levelo://app?vid=7330dbfc-fab1-46fb-8689-a7b6cc5d7217"},"vehicle_type_id":"4","last_reported":1732043239,"current_range_meters":22400,"station_id":"ce4bh0p2rcd13ifvqd70","pricing_plan_id":"cebpf4jnsgd1na2vs0mg"},{"bike_id":"333d61dc-cfcb-4a1d-b326-912ac72eabfe","system_id":"levelo_inurba_marseille","lat":43.31173,"lon":5.3872,"is_reserved":false,"is_disabled":false,"rental_uris":{"android":"levelo://app?vid=333d61dc-cfcb-4a1d-b326-912ac72eabfe","ios":"levelo://app?vid=333d61dc-cfcb-4a1d-b326-912ac72eabfe"},"vehicle_type_id":"4","last_reported":1732043239,"current_range_meters":32400,"station_id":"ce4bgv12rcd13ifvqcp0","pricing_plan_id":"cebpf4jnsgd1na2vs0mg"},{"bike_id":"486ec350-b861-4994-b48b-963ea9158244","system_id":"levelo_inurba_marseille","lat":43.30129,"lon":5.38777,"is_reserved":false,"is_disabled":false,"rental_uris":{"android":"levelo://app?vid=486ec350-b861-4994-b48b-963ea9158244","ios":"levelo://app?vid=486ec350-b861-4994-b48b-963ea9158244"},"vehicle_type_id":"4","last_reported":1732043239,"current_range_meters":35200,"station_id":"ce4bghh2rcd13ifvqb60","pricing_plan_id":"cebpf4jnsgd1na2vs0mg"},{"bike_id":"fb2c9c5b-fa38-4be0-b863-7cd0ac85901e","system_id":"levelo_inurba_marseille","lat":43.30946,"lon":5.39026,"is_reserved":false,"is_disabled":false,"rental_uris":{"android":"levelo://app?vid=fb2c9c5b-fa38-4be0-b863-7cd0ac85901e","ios":"levelo://app?vid=fb2c9c5b-fa38-4be0-b863-7cd0ac85901e"},"vehicle_type_id":"4","last_reported":1732043239,"current_range_meters":25200,"station_id":"ce4bgup2rcd13ifvqco0","pricing_plan_id":"cebpf4jnsgd1na2vs0mg"},{"bike_id":"3d7b9976-e0e6-48f3-ac42-578ef9513901","system_id":"levelo_inurba_marseille","lat":43.27998,"lon":5.40028,"is_reserved":false,"is_disabled":false,"rental_uris":{"android":"levelo://app?vid=3d7b9976-e0e6-48f3-ac42-578ef9513901","ios":"levelo://app?vid=3d7b9976-e0e6-48f3-ac42-578ef9513901"},"vehicle_type_id":"4","last_reported":1732043239,"current_range_meters":28000,"station_id":"ce4bho92rcd13ifvqh4g","pricing_plan_id":"cebpf4jnsgd1na2vs0mg"},{"bike_id":"894d1fa3-4046-45d6-bab2-de26487a6c66","system_id":"levelo_inurba_marseille","lat":43.31078,"lon":5.42434,"is_reserved":false,"is_disabled":false,"rental_uris":{"android":"levelo://app?vid=894d1fa3-4046-45d6-bab2-de26487a6c66","ios":"levelo://app?vid=894d1fa3-4046-45d6-bab2-de26487a6c66"},"vehicle_type_id":"4","last_reported":1732043239,"current_range_meters":16000,"station_id":"ce4bhp92rcd13ifvqhag","pricing_plan_id":"cebpf4jnsgd1na2vs0mg"},{"bike_id":"497fb23c-39f1-4797-a400-61646a3d2eae","system_id":"levelo_inurba_marseille","lat":43.28077,"lon":5.39657,"is_reserved":false,"is_disabled":false,"rental_uris":{"android":"levelo://app?vid=497fb23c-39f1-4797-a400-61646a3d2eae","ios":"levelo://app?vid=497fb23c-39f1-4797-a400-61646a3d2eae"},"vehicle_type_id":"4","last_reported":1732043239,"current_range_meters":9200,"station_id":"ce4bho12rcd13ifvqh2g","pricing_plan_id":"cebpf4jnsgd1na2vs0mg"},{"bike_id":"08d6e0ce-0cbf-4276-8040-089883f7d016","system_id":"levelo_inurba_marseille","lat":43.29792,"lon":5.38111,"is_reserved":false,"is_disabled":false,"rental_uris":{"android":"levelo://app?vid=08d6e0ce-0cbf-4276-8040-089883f7d016","ios":"levelo://app?vid=08d6e0ce-0cbf-4276-8040-089883f7d016"},"vehicle_type_id":"4","last_reported":1732043239,"current_range_meters":24800,"station_id":"ce4bgip2rcd13ifvqbb0","pricing_plan_id":"cebpf4jnsgd1na2vs0mg"},{"bike_id":"3e6a4ee6-93f5-4722-b2b5-2092fb5a123c","system_id":"levelo_inurba_marseille","lat":43.24996,"lon":5.38923,"is_reserved":false,"is_disabled":false,"rental_uris":{"android":"levelo://app?vid=3e6a4ee6-93f5-4722-b2b5-2092fb5a123c","ios":"levelo://app?vid=3e6a4ee6-93f5-4722-b2b5-2092fb5a123c"},"vehicle_type_id":"4","last_reported":1732043239,"current_range_meters":30400,"station_id":"ce4bhgp2rcd13ifvqfd0","pricing_plan_id":"cebpf4jnsgd1na2vs0mg"},{"bike_id":"6ac38c08-263b-4dbc-9230-678d7993bb91","system_id":"levelo_inurba_marseille","lat":43.29308,"lon":5.37186,"is_reserved":false,"is_disabled":true,"rental_uris":{"android":"levelo://app?vid=6ac38c08-263b-4dbc-9230-678d7993bb91","ios":"levelo://app?vid=6ac38c08-263b-4dbc-9230-678d7993bb91"},"vehicle_type_id":"4","last_reported":1732043239,"current_range_meters":27600,"station_id":"ce4bgh92rcd13ifvqb40","pricing_plan_id":"cebpf4jnsgd1na2vs0mg"},{"bike_id":"384dcd34-d6c7-4cd6-a366-6ec5c33f37a6","system_id":"levelo_inurba_marseille","lat":43.24083,"lon":5.37746,"is_reserved":false,"is_disabled":false,"rental_uris":{"android":"levelo://app?vid=384dcd34-d6c7-4cd6-a366-6ec5c33f37a6","ios":"levelo://app?vid=384dcd34-d6c7-4cd6-a366-6ec5c33f37a6"},"vehicle_type_id":"4","last_reported":1732043239,"current_range_meters":16400,"station_id":"ce4bhnp2rcd13ifvqgvg","pricing_plan_id":"cebpf4jnsgd1na2vs0mg"},{"bike_id":"9f3572b0-c0a7-43aa-8c1e-c100148af63b","system_id":"levelo_inurba_marseille","lat":43.29198,"lon":5.35796,"is_reserved":false,"is_disabled":true,"rental_uris":{"android":"levelo://app?vid=9f3572b0-c0a7-43aa-8c1e-c100148af63b","ios":"levelo://app?vid=9f3572b0-c0a7-43aa-8c1e-c100148af63b"},"vehicle_type_id":"4","last_reported":1732043239,"current_range_meters":38800,"station_id":"ce4bhb12rcd13ifvqel0","pricing_plan_id":"cebpf4jnsgd1na2vs0mg"},{"bike_id":"954054ad-77ac-46c3-a1b5-c8fc266a522b","system_id":"levelo_inurba_marseille","lat":43.31725,"lon":5.42398,"is_reserved":false,"is_disabled":false,"rental_uris":{"android":"levelo://app?vid=954054ad-77ac-46c3-a1b5-c8fc266a522b","ios":"levelo://app?vid=954054ad-77ac-46c3-a1b5-c8fc266a522b"},"vehicle_type_id":"4","last_reported":1732043239,"current_range_meters":38800,"station_id":"ce4bhp92rcd13ifvqhbg","pricing_plan_id":"cebpf4jnsgd1na2vs0mg"},{"bike_id":"b94b3063-babf-49c9-b320-48352507c0ca","system_id":"levelo_inurba_marseille","lat":43.29309,"lon":5.37165,"is_reserved":false,"is_disabled":false,"rental_uris":{"android":"levelo://app?vid=b94b3063-babf-49c9-b320-48352507c0ca","ios":"levelo://app?vid=b94b3063-babf-49c9-b320-48352507c0ca"},"vehicle_type_id":"4","last_reported":1732043239,"current_range_meters":9600,"station_id":"ce4bgh92rcd13ifvqb40","pricing_plan_id":"cebpf4jnsgd1na2vs0mg"},{"bike_id":"a068dc40-1862-43fc-975c-c8329fcb1c80","system_id":"levelo_inurba_marseille","lat":43.27316,"lon":5.39099,"is_reserved":false,"is_disabled":true,"rental_uris":{"android":"levelo://app?vid=a068dc40-1862-43fc-975c-c8329fcb1c80","ios":"levelo://app?vid=a068dc40-1862-43fc-975c-c8329fcb1c80"},"vehicle_type_id":"4","last_reported":1732043239,"current_range_meters":400,"station_id":"ce4bhgp2rcd13ifvqfe0","pricing_plan_id":"cebpf4jnsgd1na2vs0mg"},{"bike_id":"9c4a655e-2680-4a60-a844-6a2ea62fb4b1","system_id":"levelo_inurba_marseille","lat":43.26063,"lon":5.39394,"is_reserved":false,"is_disabled":true,"rental_uris":{"android":"levelo://app?vid=9c4a655e-2680-4a60-a844-6a2ea62fb4b1","ios":"levelo://app?vid=9c4a655e-2680-4a60-a844-6a2ea62fb4b1"},"vehicle_type_id":"4","last_reported":1732043239,"current_range_meters":28000,"station_id":"ce4bhh92rcd13ifvqfj0","pricing_plan_id":"cebpf4jnsgd1na2vs0mg"},{"bike_id":"2d983866-913c-4390-ae48-1873d10c9730","system_id":"levelo_inurba_marseille","lat":43.24813,"lon":5.37458,"is_reserved":false,"is_disabled":true,"rental_uris":{"android":"levelo://app?vid=2d983866-913c-4390-ae48-1873d10c9730","ios":"levelo://app?vid=2d983866-913c-4390-ae48-1873d10c9730"},"vehicle_type_id":"4","last_reported":1732043239,"current_range_meters":14000,"station_id":"ce4bhgh2rcd13ifvqfb0","pricing_plan_id":"cebpf4jnsgd1na2vs0mg"},{"bike_id":"e0f2d464-e856-4a2b-b26c-1674907834d7","system_id":"levelo_inurba_marseille","lat":43.29311,"lon":5.37162,"is_reserved":false,"is_disabled":true,"rental_uris":{"android":"levelo://app?vid=e0f2d464-e856-4a2b-b26c-1674907834d7","ios":"levelo://app?vid=e0f2d464-e856-4a2b-b26c-1674907834d7"},"vehicle_type_id":"4","last_reported":1732043239,"current_range_meters":38000,"station_id":"ce4bgh92rcd13ifvqb40","pricing_plan_id":"cebpf4jnsgd1na2vs0mg"},{"bike_id":"ada08269-fd0c-4046-bf21-25ab1000c736","system_id":"levelo_inurba_marseille","lat":43.3153,"lon":5.38033,"is_reserved":false,"is_disabled":false,"rental_uris":{"android":"levelo://app?vid=ada08269-fd0c-4046-bf21-25ab1000c736","ios":"levelo://app?vid=ada08269-fd0c-4046-bf21-25ab1000c736"},"vehicle_type_id":"4","last_reported":1732043239,"current_range_meters":19200,"station_id":"ce4bhsp2rcd13ifvqi50","pricing_plan_id":"cebpf4jnsgd1na2vs0mg"},{"bike_id":"be0057d7-36ed-4552-93a5-d26a01d6fce9","system_id":"levelo_inurba_marseille","lat":43.31749,"lon":5.37763,"is_reserved":false,"is_disabled":false,"rental_uris":{"android":"levelo://app?vid=be0057d7-36ed-4552-93a5-d26a01d6fce9","ios":"levelo://app?vid=be0057d7-36ed-4552-93a5-d26a01d6fce9"},"vehicle_type_id":"4","last_reported":1732043239,"current_range_meters":30000,"station_id":"","pricing_plan_id":"cebpf4jnsgd1na2vs0mg"},{"bike_id":"e840fe4f-47a0-4d31-8133-7c332a3d517a","system_id":"levelo_inurba_marseille","lat":43.31082,"lon":5.42432,"is_reserved":false,"is_disabled":true,"rental_uris":{"android":"levelo://app?vid=e840fe4f-47a0-4d31-8133-7c332a3d517a","ios":"levelo://app?vid=e840fe4f-47a0-4d31-8133-7c332a3d517a"},"vehicle_type_id":"4","last_reported":1732043239,"current_range_meters":16400,"station_id":"ce4bhp92rcd13ifvqhag","pricing_plan_id":"cebpf4jnsgd1na2vs0mg"},{"bike_id":"b1f1f917-fbca-4468-807a-dad63fe9cf93","system_id":"levelo_inurba_marseille","lat":43.28072,"lon":5.39649,"is_reserved":false,"is_disabled":false,"rental_uris":{"android":"levelo://app?vid=b1f1f917-fbca-4468-807a-dad63fe9cf93","ios":"levelo://app?vid=b1f1f917-fbca-4468-807a-dad63fe9cf93"},"vehicle_type_id":"4","last_reported":1732043239,"current_range_meters":22800,"station_id":"ce4bho12rcd13ifvqh2g","pricing_plan_id":"cebpf4jnsgd1na2vs0mg"},{"bike_id":"c58da33a-4735-4f5d-b28b-6c11ba00f9eb","system_id":"levelo_inurba_marseille","lat":43.32368,"lon":5.38877,"is_reserved":false,"is_disabled":false,"rental_uris":{"android":"levelo://app?vid=c58da33a-4735-4f5d-b28b-6c11ba00f9eb","ios":"levelo://app?vid=c58da33a-4735-4f5d-b28b-6c11ba00f9eb"},"vehicle_type_id":"4","last_reported":1732043239,"current_range_meters":25200,"station_id":"ce4bhqp2rcd13ifvqhog","pricing_plan_id":"cebpf4jnsgd1na2vs0mg"},{"bike_id":"7db3e109-59af-4df6-ad20-7ea41f506454","system_id":"levelo_inurba_marseille","lat":43.33018,"lon":5.39045,"is_reserved":false,"is_disabled":false,"rental_uris":{"android":"levelo://app?vid=7db3e109-59af-4df6-ad20-7ea41f506454","ios":"levelo://app?vid=7db3e109-59af-4df6-ad20-7ea41f506454"},"vehicle_type_id":"4","last_reported":1732043239,"current_range_meters":10000,"station_id":"ce4bhr92rcd13ifvqhrg","pricing_plan_id":"cebpf4jnsgd1na2vs0mg"},{"bike_id":"5bddf6e5-633d-4da8-a478-cc22aa6ccefd","system_id":"levelo_inurba_marseille","lat":43.28944,"lon":5.3641,"is_reserved":false,"is_disabled":false,"rental_uris":{"android":"levelo://app?vid=5bddf6e5-633d-4da8-a478-cc22aa6ccefd","ios":"levelo://app?vid=5bddf6e5-633d-4da8-a478-cc22aa6ccefd"},"vehicle_type_id":"4","last_reported":1732043239,"current_range_meters":27600,"station_id":"ce4bhc92rcd13ifvqetg","pricing_plan_id":"cebpf4jnsgd1na2vs0mg"},{"bike_id":"a1cf6f06-44aa-4bc8-9eb2-8055a5e207a9","system_id":"levelo_inurba_marseille","lat":43.32486,"lon":5.36566,"is_reserved":false,"is_disabled":false,"rental_uris":{"android":"levelo://app?vid=a1cf6f06-44aa-4bc8-9eb2-8055a5e207a9","ios":"levelo://app?vid=a1cf6f06-44aa-4bc8-9eb2-8055a5e207a9"},"vehicle_type_id":"4","last_reported":1732043239,"current_range_meters":38400,"station_id":"ce4bhs12rcd13ifvqhvg","pricing_plan_id":"cebpf4jnsgd1na2vs0mg"},{"bike_id":"e264033a-f915-4b27-a08a-2f42cfcf052a","system_id":"levelo_inurba_marseille","lat":43.33766,"lon":5.37426,"is_reserved":false,"is_disabled":false,"rental_uris":{"android":"levelo://app?vid=e264033a-f915-4b27-a08a-2f42cfcf052a","ios":"levelo://app?vid=e264033a-f915-4b27-a08a-2f42cfcf052a"},"vehicle_type_id":"4","last_reported":1732043239,"current_range_meters":30800,"station_id":"","pricing_plan_id":"cebpf4jnsgd1na2vs0mg"},{"bike_id":"c7281c22-d843-43e3-84da-959dc127222a","system_id":"levelo_inurba_marseille","lat":43.3171,"lon":5.43707,"is_reserved":false,"is_disabled":false,"rental_uris":{"android":"levelo://app?vid=c7281c22-d843-43e3-84da-959dc127222a","ios":"levelo://app?vid=c7281c22-d843-43e3-84da-959dc127222a"},"vehicle_type_id":"4","last_reported":1732043239,"current_range_meters":38800,"station_id":"ce4bhp92rcd13ifvqhcg","pricing_plan_id":"cebpf4jnsgd1na2vs0mg"},{"bike_id":"0b29f16f-7c80-42f5-be29-18f63a31302c","system_id":"levelo_inurba_marseille","lat":43.29427,"lon":5.38574,"is_reserved":false,"is_disabled":false,"rental_uris":{"android":"levelo://app?vid=0b29f16f-7c80-42f5-be29-18f63a31302c","ios":"levelo://app?vid=0b29f16f-7c80-42f5-be29-18f63a31302c"},"vehicle_type_id":"4","last_reported":1732043239,"current_range_meters":9200,"station_id":"ce4bh2h2rcd13ifvqdh0","pricing_plan_id":"cebpf4jnsgd1na2vs0mg"},{"bike_id":"478111c5-9ee8-4ccc-a30a-cc58cbff7345","system_id":"levelo_inurba_marseille","lat":43.29535,"lon":5.38545,"is_reserved":false,"is_disabled":false,"rental_uris":{"android":"levelo://app?vid=478111c5-9ee8-4ccc-a30a-cc58cbff7345","ios":"levelo://app?vid=478111c5-9ee8-4ccc-a30a-cc58cbff7345"},"vehicle_type_id":"4","last_reported":1732043239,"current_range_meters":37600,"station_id":"ce4bgih2rcd13ifvqba0","pricing_plan_id":"cebpf4jnsgd1na2vs0mg"},{"bike_id":"123862ba-68e2-48f6-a477-31ab9dae8bd5","system_id":"levelo_inurba_marseille","lat":43.337444,"lon":5.374475,"is_reserved":false,"is_disabled":true,"rental_uris":{"android":"levelo://app?vid=123862ba-68e2-48f6-a477-31ab9dae8bd5","ios":"levelo://app?vid=123862ba-68e2-48f6-a477-31ab9dae8bd5"},"vehicle_type_id":"4","last_reported":1732043239,"current_range_meters":14800,"station_id":"","pricing_plan_id":"cebpf4jnsgd1na2vs0mg"},{"bike_id":"a57e1d53-2136-4179-a533-047787b1374e","system_id":"levelo_inurba_marseille","lat":43.27987,"lon":5.40001,"is_reserved":false,"is_disabled":true,"rental_uris":{"android":"levelo://app?vid=a57e1d53-2136-4179-a533-047787b1374e","ios":"levelo://app?vid=a57e1d53-2136-4179-a533-047787b1374e"},"vehicle_type_id":"4","last_reported":1732043239,"current_range_meters":38800,"station_id":"ce4bho92rcd13ifvqh4g","pricing_plan_id":"cebpf4jnsgd1na2vs0mg"},{"bike_id":"e09f5bd3-1d6d-4c2b-8ba5-e78c43cdb728","system_id":"levelo_inurba_marseille","lat":43.29557,"lon":5.42274,"is_reserved":false,"is_disabled":false,"rental_uris":{"android":"levelo://app?vid=e09f5bd3-1d6d-4c2b-8ba5-e78c43cdb728","ios":"levelo://app?vid=e09f5bd3-1d6d-4c2b-8ba5-e78c43cdb728"},"vehicle_type_id":"4","last_reported":1732043239,"current_range_meters":36800,"station_id":"ce4bhph2rcd13ifvqhdg","pricing_plan_id":"cebpf4jnsgd1na2vs0mg"},{"bike_id":"eca64764-71b8-4f3b-a2f9-8ab36125d3cd","system_id":"levelo_inurba_marseille","lat":43.26489,"lon":5.39542,"is_reserved":false,"is_disabled":false,"rental_uris":{"android":"levelo://app?vid=eca64764-71b8-4f3b-a2f9-8ab36125d3cd","ios":"levelo://app?vid=eca64764-71b8-4f3b-a2f9-8ab36125d3cd"},"vehicle_type_id":"4","last_reported":1732043239,"current_range_meters":9200,"station_id":"ce4bhi12rcd13ifvqfq0","pricing_plan_id":"cebpf4jnsgd1na2vs0mg"},{"bike_id":"5c576818-20af-409b-a7f5-400554d1aabd","system_id":"levelo_inurba_marseille","lat":43.29801,"lon":5.40395,"is_reserved":false,"is_disabled":false,"rental_uris":{"android":"levelo://app?vid=5c576818-20af-409b-a7f5-400554d1aabd","ios":"levelo://app?vid=5c576818-20af-409b-a7f5-400554d1aabd"},"vehicle_type_id":"4","last_reported":1732043239,"current_range_meters":33200,"station_id":"ce4bh112rcd13ifvqd90","pricing_plan_id":"cebpf4jnsgd1na2vs0mg"},{"bike_id":"1cfa2c33-5246-4e39-b382-890b60fe1e24","system_id":"levelo_inurba_marseille","lat":43.32001,"lon":5.38161,"is_reserved":false,"is_disabled":false,"rental_uris":{"android":"levelo://app?vid=1cfa2c33-5246-4e39-b382-890b60fe1e24","ios":"levelo://app?vid=1cfa2c33-5246-4e39-b382-890b60fe1e24"},"vehicle_type_id":"4","last_reported":1732043239,"current_range_meters":36000,"station_id":"ce4bhr12rcd13ifvqhpg","pricing_plan_id":"cebpf4jnsgd1na2vs0mg"},{"bike_id":"2022557a-db14-4c81-b26d-96e52870eb4d","system_id":"levelo_inurba_marseille","lat":43.27808,"lon":5.40715,"is_reserved":false,"is_disabled":false,"rental_uris":{"android":"levelo://app?vid=2022557a-db14-4c81-b26d-96e52870eb4d","ios":"levelo://app?vid=2022557a-db14-4c81-b26d-96e52870eb4d"},"vehicle_type_id":"4","last_reported":1732043239,"current_range_meters":8800,"station_id":"ce4bhnh2rcd13ifvqgtg","pricing_plan_id":"cebpf4jnsgd1na2vs0mg"},{"bike_id":"b42397bc-8df1-4e39-ac84-98466a68bb62","system_id":"levelo_inurba_marseille","lat":43.29447,"lon":5.39764,"is_reserved":false,"is_disabled":false,"rental_uris":{"android":"levelo://app?vid=b42397bc-8df1-4e39-ac84-98466a68bb62","ios":"levelo://app?vid=b42397bc-8df1-4e39-ac84-98466a68bb62"},"vehicle_type_id":"4","last_reported":1732043239,"current_range_meters":33200,"station_id":"ce4bh3h2rcd13ifvqdo0","pricing_plan_id":"cebpf4jnsgd1na2vs0mg"},{"bike_id":"aeb9dad1-578c-4809-b0b5-0c8250a7b9df","system_id":"levelo_inurba_marseille","lat":43.25718,"lon":5.41098,"is_reserved":false,"is_disabled":false,"rental_uris":{"android":"levelo://app?vid=aeb9dad1-578c-4809-b0b5-0c8250a7b9df","ios":"levelo://app?vid=aeb9dad1-578c-4809-b0b5-0c8250a7b9df"},"vehicle_type_id":"4","last_reported":1732043239,"current_range_meters":15200,"station_id":"ce4bhkp2rcd13ifvqgd0","pricing_plan_id":"cebpf4jnsgd1na2vs0mg"},{"bike_id":"08fd2970-2148-42cd-beb2-611216c36f6c","system_id":"levelo_inurba_marseille","lat":43.29304,"lon":5.37163,"is_reserved":false,"is_disabled":false,"rental_uris":{"android":"levelo://app?vid=08fd2970-2148-42cd-beb2-611216c36f6c","ios":"levelo://app?vid=08fd2970-2148-42cd-beb2-611216c36f6c"},"vehicle_type_id":"4","last_reported":1732043239,"current_range_meters":37600,"station_id":"ce4bgh92rcd13ifvqb40","pricing_plan_id":"cebpf4jnsgd1na2vs0mg"},{"bike_id":"9a0f8073-9fc4-477f-af62-f52952da19ac","system_id":"levelo_inurba_marseille","lat":43.28471,"lon":5.35891,"is_reserved":false,"is_disabled":false,"rental_uris":{"android":"levelo://app?vid=9a0f8073-9fc4-477f-af62-f52952da19ac","ios":"levelo://app?vid=9a0f8073-9fc4-477f-af62-f52952da19ac"},"vehicle_type_id":"4","last_reported":1732043239,"current_range_meters":19200,"station_id":"ce4bhah2rcd13ifvqei0","pricing_plan_id":"cebpf4jnsgd1na2vs0mg"},{"bike_id":"2f20fc8b-d74f-4886-ad1b-dcba5c978d9d","system_id":"levelo_inurba_marseille","lat":43.27067,"lon":5.42269,"is_reserved":false,"is_disabled":false,"rental_uris":{"android":"levelo://app?vid=2f20fc8b-d74f-4886-ad1b-dcba5c978d9d","ios":"levelo://app?vid=2f20fc8b-d74f-4886-ad1b-dcba5c978d9d"},"vehicle_type_id":"4","last_reported":1732043239,"current_range_meters":6800,"station_id":"ce4bhk92rcd13ifvqgb0","pricing_plan_id":"cebpf4jnsgd1na2vs0mg"},{"bike_id":"0009ec07-8c49-43d0-9918-78167d6a99be","system_id":"levelo_inurba_marseille","lat":43.24663,"lon":5.38164,"is_reserved":false,"is_disabled":true,"rental_uris":{"android":"levelo://app?vid=0009ec07-8c49-43d0-9918-78167d6a99be","ios":"levelo://app?vid=0009ec07-8c49-43d0-9918-78167d6a99be"},"vehicle_type_id":"4","last_reported":1732043239,"current_range_meters":0,"station_id":"ce4bhih2rcd13ifvqfr0","pricing_plan_id":"cebpf4jnsgd1na2vs0mg"},{"bike_id":"efaa20f7-d2fb-4778-9ca3-b17e9193d440","system_id":"levelo_inurba_marseille","lat":43.33712,"lon":5.39171,"is_reserved":false,"is_disabled":false,"rental_uris":{"android":"levelo://app?vid=efaa20f7-d2fb-4778-9ca3-b17e9193d440","ios":"levelo://app?vid=efaa20f7-d2fb-4778-9ca3-b17e9193d440"},"vehicle_type_id":"4","last_reported":1732043239,"current_range_meters":37600,"station_id":"ce4bhr92rcd13ifvqhsg","pricing_plan_id":"cebpf4jnsgd1na2vs0mg"},{"bike_id":"dca6b0db-332a-4f9e-b2ae-0ab6ae9012da","system_id":"levelo_inurba_marseille","lat":43.29261,"lon":5.4091,"is_reserved":false,"is_disabled":false,"rental_uris":{"android":"levelo://app?vid=dca6b0db-332a-4f9e-b2ae-0ab6ae9012da","ios":"levelo://app?vid=dca6b0db-332a-4f9e-b2ae-0ab6ae9012da"},"vehicle_type_id":"4","last_reported":1732043239,"current_range_meters":10800,"station_id":"ce4bh192rcd13ifvqdc0","pricing_plan_id":"cebpf4jnsgd1na2vs0mg"},{"bike_id":"cbb19e09-aa20-4763-8e71-dc123172ec07","system_id":"levelo_inurba_marseille","lat":43.23159,"lon":5.43703,"is_reserved":false,"is_disabled":true,"rental_uris":{"android":"levelo://app?vid=cbb19e09-aa20-4763-8e71-dc123172ec07","ios":"levelo://app?vid=cbb19e09-aa20-4763-8e71-dc123172ec07"},"vehicle_type_id":"4","last_reported":1732043239,"current_range_meters":31200,"station_id":"ce4bhmp2rcd13ifvqgog","pricing_plan_id":"cebpf4jnsgd1na2vs0mg"},{"bike_id":"f353d5dd-e4f6-4eb1-8b96-3d718fada4f0","system_id":"levelo_inurba_marseille","lat":43.3133,"lon":5.39689,"is_reserved":false,"is_disabled":false,"rental_uris":{"android":"levelo://app?vid=f353d5dd-e4f6-4eb1-8b96-3d718fada4f0","ios":"levelo://app?vid=f353d5dd-e4f6-4eb1-8b96-3d718fada4f0"},"vehicle_type_id":"4","last_reported":1732043239,"current_range_meters":25200,"station_id":"ce4bgvp2rcd13ifvqcu0","pricing_plan_id":"cebpf4jnsgd1na2vs0mg"},{"bike_id":"028e5427-36e2-49e1-b3db-260058fffb58","system_id":"levelo_inurba_marseille","lat":43.25573,"lon":5.38234,"is_reserved":false,"is_disabled":false,"rental_uris":{"android":"levelo://app?vid=028e5427-36e2-49e1-b3db-260058fffb58","ios":"levelo://app?vid=028e5427-36e2-49e1-b3db-260058fffb58"},"vehicle_type_id":"4","last_reported":1732043239,"current_range_meters":32000,"station_id":"ce4bhih2rcd13ifvqfs0","pricing_plan_id":"cebpf4jnsgd1na2vs0mg"},{"bike_id":"fbf50743-a751-4d22-8d7f-9047b9d72787","system_id":"levelo_inurba_marseille","lat":43.33331,"lon":5.41834,"is_reserved":false,"is_disabled":false,"rental_uris":{"android":"levelo://app?vid=fbf50743-a751-4d22-8d7f-9047b9d72787","ios":"levelo://app?vid=fbf50743-a751-4d22-8d7f-9047b9d72787"},"vehicle_type_id":"4","last_reported":1732043239,"current_range_meters":26000,"station_id":"","pricing_plan_id":"cebpf4jnsgd1na2vs0mg"},{"bike_id":"6b912bd8-8440-4d87-9abc-cd6e15de0744","system_id":"levelo_inurba_marseille","lat":43.28567,"lon":5.3949,"is_reserved":false,"is_disabled":false,"rental_uris":{"android":"levelo://app?vid=6b912bd8-8440-4d87-9abc-cd6e15de0744","ios":"levelo://app?vid=6b912bd8-8440-4d87-9abc-cd6e15de0744"},"vehicle_type_id":"4","last_reported":1732043239,"current_range_meters":6000,"station_id":"ce4bh292rcd13ifvqdg0","pricing_plan_id":"cebpf4jnsgd1na2vs0mg"},{"bike_id":"6a87c034-4560-4532-ad92-f990707ea30e","system_id":"levelo_inurba_marseille","lat":43.29374,"lon":5.37847,"is_reserved":false,"is_disabled":false,"rental_uris":{"android":"levelo://app?vid=6a87c034-4560-4532-ad92-f990707ea30e","ios":"levelo://app?vid=6a87c034-4560-4532-ad92-f990707ea30e"},"vehicle_type_id":"4","last_reported":1732043239,"current_range_meters":37600,"station_id":"ce4bgjh2rcd13ifvqbf0","pricing_plan_id":"cebpf4jnsgd1na2vs0mg"},{"bike_id":"58b348a0-214e-4585-b413-619a307634a9","system_id":"levelo_inurba_marseille","lat":43.28922,"lon":5.38395,"is_reserved":false,"is_disabled":true,"rental_uris":{"android":"levelo://app?vid=58b348a0-214e-4585-b413-619a307634a9","ios":"levelo://app?vid=58b348a0-214e-4585-b413-619a307634a9"},"vehicle_type_id":"4","last_reported":1732043239,"current_range_meters":36400,"station_id":"ce4bh612rcd13ifvqe6g","pricing_plan_id":"cebpf4jnsgd1na2vs0mg"},{"bike_id":"1ea9d202-7235-44ff-a808-1a87a3b9cfc1","system_id":"levelo_inurba_marseille","lat":43.25578,"lon":5.38242,"is_reserved":false,"is_disabled":false,"rental_uris":{"android":"levelo://app?vid=1ea9d202-7235-44ff-a808-1a87a3b9cfc1","ios":"levelo://app?vid=1ea9d202-7235-44ff-a808-1a87a3b9cfc1"},"vehicle_type_id":"4","last_reported":1732043239,"current_range_meters":13600,"station_id":"ce4bhih2rcd13ifvqfs0","pricing_plan_id":"cebpf4jnsgd1na2vs0mg"},{"bike_id":"d0a8d1e0-8de9-4df8-bcae-ad9cbd74d90d","system_id":"levelo_inurba_marseille","lat":43.32368,"lon":5.38886,"is_reserved":false,"is_disabled":false,"rental_uris":{"android":"levelo://app?vid=d0a8d1e0-8de9-4df8-bcae-ad9cbd74d90d","ios":"levelo://app?vid=d0a8d1e0-8de9-4df8-bcae-ad9cbd74d90d"},"vehicle_type_id":"4","last_reported":1732043239,"current_range_meters":20800,"station_id":"ce4bhqp2rcd13ifvqhog","pricing_plan_id":"cebpf4jnsgd1na2vs0mg"},{"bike_id":"0c5bbd39-2535-4e1b-896c-c0aa5772961e","system_id":"levelo_inurba_marseille","lat":43.33024,"lon":5.39043,"is_reserved":false,"is_disabled":false,"rental_uris":{"android":"levelo://app?vid=0c5bbd39-2535-4e1b-896c-c0aa5772961e","ios":"levelo://app?vid=0c5bbd39-2535-4e1b-896c-c0aa5772961e"},"vehicle_type_id":"4","last_reported":1732043239,"current_range_meters":5600,"station_id":"ce4bhr92rcd13ifvqhrg","pricing_plan_id":"cebpf4jnsgd1na2vs0mg"},{"bike_id":"ea3698ba-4aa8-4712-b521-18ff56838777","system_id":"levelo_inurba_marseille","lat":43.25495,"lon":5.3765,"is_reserved":false,"is_disabled":true,"rental_uris":{"android":"levelo://app?vid=ea3698ba-4aa8-4712-b521-18ff56838777","ios":"levelo://app?vid=ea3698ba-4aa8-4712-b521-18ff56838777"},"vehicle_type_id":"4","last_reported":1732043239,"current_range_meters":400,"station_id":"ce4bhh12rcd13ifvqff0","pricing_plan_id":"cebpf4jnsgd1na2vs0mg"},{"bike_id":"6e545785-5e16-4906-b88f-5bb12e1d71c6","system_id":"levelo_inurba_marseille","lat":43.2988,"lon":5.38903,"is_reserved":false,"is_disabled":false,"rental_uris":{"android":"levelo://app?vid=6e545785-5e16-4906-b88f-5bb12e1d71c6","ios":"levelo://app?vid=6e545785-5e16-4906-b88f-5bb12e1d71c6"},"vehicle_type_id":"4","last_reported":1732043239,"current_range_meters":16800,"station_id":"ce4bh392rcd13ifvqdl0","pricing_plan_id":"cebpf4jnsgd1na2vs0mg"},{"bike_id":"7a74f50b-fe40-4106-9f5d-13731ba6b393","system_id":"levelo_inurba_marseille","lat":43.32365,"lon":5.38882,"is_reserved":false,"is_disabled":false,"rental_uris":{"android":"levelo://app?vid=7a74f50b-fe40-4106-9f5d-13731ba6b393","ios":"levelo://app?vid=7a74f50b-fe40-4106-9f5d-13731ba6b393"},"vehicle_type_id":"4","last_reported":1732043239,"current_range_meters":33600,"station_id":"ce4bhqp2rcd13ifvqhog","pricing_plan_id":"cebpf4jnsgd1na2vs0mg"},{"bike_id":"e5951ee3-4a5a-4ebb-b469-096c5188dfa3","system_id":"levelo_inurba_marseille","lat":43.24029,"lon":5.36612,"is_reserved":false,"is_disabled":true,"rental_uris":{"android":"levelo://app?vid=e5951ee3-4a5a-4ebb-b469-096c5188dfa3","ios":"levelo://app?vid=e5951ee3-4a5a-4ebb-b469-096c5188dfa3"},"vehicle_type_id":"4","last_reported":1732043239,"current_range_meters":1200,"station_id":"","pricing_plan_id":"cebpf4jnsgd1na2vs0mg"},{"bike_id":"e479f909-ae5e-41db-9d1a-44b3b5e351a9","system_id":"levelo_inurba_marseille","lat":43.30793,"lon":5.37664,"is_reserved":false,"is_disabled":false,"rental_uris":{"android":"levelo://app?vid=e479f909-ae5e-41db-9d1a-44b3b5e351a9","ios":"levelo://app?vid=e479f909-ae5e-41db-9d1a-44b3b5e351a9"},"vehicle_type_id":"4","last_reported":1732043239,"current_range_meters":38800,"station_id":"ce4bgv92rcd13ifvqcq0","pricing_plan_id":"cebpf4jnsgd1na2vs0mg"},{"bike_id":"b2f6b9cf-69db-40ab-8230-689c41a2c16c","system_id":"levelo_inurba_marseille","lat":43.24169,"lon":5.36393,"is_reserved":false,"is_disabled":true,"rental_uris":{"android":"levelo://app?vid=b2f6b9cf-69db-40ab-8230-689c41a2c16c","ios":"levelo://app?vid=b2f6b9cf-69db-40ab-8230-689c41a2c16c"},"vehicle_type_id":"4","last_reported":1732043239,"current_range_meters":1200,"station_id":"cpo36qri1sfpv3e86is0","pricing_plan_id":"cebpf4jnsgd1na2vs0mg"},{"bike_id":"2fcb6867-d92b-41d9-8e12-7bee2b648e53","system_id":"levelo_inurba_marseille","lat":43.28277,"lon":5.38262,"is_reserved":false,"is_disabled":true,"rental_uris":{"android":"levelo://app?vid=2fcb6867-d92b-41d9-8e12-7bee2b648e53","ios":"levelo://app?vid=2fcb6867-d92b-41d9-8e12-7bee2b648e53"},"vehicle_type_id":"4","last_reported":1732043239,"current_range_meters":0,"station_id":"ce4bh692rcd13ifvqea0","pricing_plan_id":"cebpf4jnsgd1na2vs0mg"},{"bike_id":"ee58c0c2-c7d8-4d0f-91e5-095566050b2d","system_id":"levelo_inurba_marseille","lat":43.28565,"lon":5.39505,"is_reserved":false,"is_disabled":false,"rental_uris":{"android":"levelo://app?vid=ee58c0c2-c7d8-4d0f-91e5-095566050b2d","ios":"levelo://app?vid=ee58c0c2-c7d8-4d0f-91e5-095566050b2d"},"vehicle_type_id":"4","last_reported":1732043239,"current_range_meters":38800,"station_id":"ce4bh292rcd13ifvqdg0","pricing_plan_id":"cebpf4jnsgd1na2vs0mg"},{"bike_id":"2910f69a-6dac-4d69-a60d-e4f1b8cce200","system_id":"levelo_inurba_marseille","lat":43.27815,"lon":5.40714,"is_reserved":false,"is_disabled":true,"rental_uris":{"android":"levelo://app?vid=2910f69a-6dac-4d69-a60d-e4f1b8cce200","ios":"levelo://app?vid=2910f69a-6dac-4d69-a60d-e4f1b8cce200"},"vehicle_type_id":"4","last_reported":1732043239,"current_range_meters":18000,"station_id":"ce4bhnh2rcd13ifvqgtg","pricing_plan_id":"cebpf4jnsgd1na2vs0mg"},{"bike_id":"becd1d55-88f9-4a11-843e-89a7832f89e1","system_id":"levelo_inurba_marseille","lat":43.26492,"lon":5.39536,"is_reserved":false,"is_disabled":false,"rental_uris":{"android":"levelo://app?vid=becd1d55-88f9-4a11-843e-89a7832f89e1","ios":"levelo://app?vid=becd1d55-88f9-4a11-843e-89a7832f89e1"},"vehicle_type_id":"4","last_reported":1732043239,"current_range_meters":36800,"station_id":"ce4bhi12rcd13ifvqfq0","pricing_plan_id":"cebpf4jnsgd1na2vs0mg"},{"bike_id":"8b06473f-89d9-40e7-b900-458975555237","system_id":"levelo_inurba_marseille","lat":43.3127,"lon":5.40172,"is_reserved":false,"is_disabled":false,"rental_uris":{"android":"levelo://app?vid=8b06473f-89d9-40e7-b900-458975555237","ios":"levelo://app?vid=8b06473f-89d9-40e7-b900-458975555237"},"vehicle_type_id":"4","last_reported":1732043239,"current_range_meters":7200,"station_id":"ce4bh092rcd13ifvqd30","pricing_plan_id":"cebpf4jnsgd1na2vs0mg"},{"bike_id":"da118503-6ab7-4c94-98bc-2b63accd50d2","system_id":"levelo_inurba_marseille","lat":43.31083,"lon":5.42432,"is_reserved":false,"is_disabled":false,"rental_uris":{"android":"levelo://app?vid=da118503-6ab7-4c94-98bc-2b63accd50d2","ios":"levelo://app?vid=da118503-6ab7-4c94-98bc-2b63accd50d2"},"vehicle_type_id":"4","last_reported":1732043239,"current_range_meters":38800,"station_id":"ce4bhp92rcd13ifvqhag","pricing_plan_id":"cebpf4jnsgd1na2vs0mg"},{"bike_id":"d4d6be5e-7a21-465d-86e5-cfd407160d99","system_id":"levelo_inurba_marseille","lat":43.26943,"lon":5.40246,"is_reserved":false,"is_disabled":true,"rental_uris":{"android":"levelo://app?vid=d4d6be5e-7a21-465d-86e5-cfd407160d99","ios":"levelo://app?vid=d4d6be5e-7a21-465d-86e5-cfd407160d99"},"vehicle_type_id":"4","last_reported":1732043239,"current_range_meters":0,"station_id":"cjm6bp8fraef2m0cb0m0","pricing_plan_id":"cebpf4jnsgd1na2vs0mg"},{"bike_id":"7ccf2f24-0143-407d-973b-322d37cb2794","system_id":"levelo_inurba_marseille","lat":43.32107,"lon":5.36768,"is_reserved":false,"is_disabled":false,"rental_uris":{"android":"levelo://app?vid=7ccf2f24-0143-407d-973b-322d37cb2794","ios":"levelo://app?vid=7ccf2f24-0143-407d-973b-322d37cb2794"},"vehicle_type_id":"4","last_reported":1732043239,"current_range_meters":28800,"station_id":"ce4bhrh2rcd13ifvqhug","pricing_plan_id":"cebpf4jnsgd1na2vs0mg"},{"bike_id":"ad142e48-0964-413b-b6c6-2a15c9a22e3c","system_id":"levelo_inurba_marseille","lat":43.30348,"lon":5.4187,"is_reserved":false,"is_disabled":false,"rental_uris":{"android":"levelo://app?vid=ad142e48-0964-413b-b6c6-2a15c9a22e3c","ios":"levelo://app?vid=ad142e48-0964-413b-b6c6-2a15c9a22e3c"},"vehicle_type_id":"4","last_reported":1732043239,"current_range_meters":28800,"station_id":"ce4bhop2rcd13ifvqh7g","pricing_plan_id":"cebpf4jnsgd1na2vs0mg"},{"bike_id":"6653071b-dad8-4bfd-9930-4fb22cfec261","system_id":"levelo_inurba_marseille","lat":43.28153,"lon":5.42642,"is_reserved":false,"is_disabled":true,"rental_uris":{"android":"levelo://app?vid=6653071b-dad8-4bfd-9930-4fb22cfec261","ios":"levelo://app?vid=6653071b-dad8-4bfd-9930-4fb22cfec261"},"vehicle_type_id":"4","last_reported":1732043239,"current_range_meters":1600,"station_id":"ce4bhnh2rcd13ifvqgug","pricing_plan_id":"cebpf4jnsgd1na2vs0mg"},{"bike_id":"58f63648-9353-4761-b18c-0835f9ba8bbb","system_id":"levelo_inurba_marseille","lat":43.30248,"lon":5.40061,"is_reserved":false,"is_disabled":false,"rental_uris":{"android":"levelo://app?vid=58f63648-9353-4761-b18c-0835f9ba8bbb","ios":"levelo://app?vid=58f63648-9353-4761-b18c-0835f9ba8bbb"},"vehicle_type_id":"4","last_reported":1732043239,"current_range_meters":30400,"station_id":"ce4bgvh2rcd13ifvqcs0","pricing_plan_id":"cebpf4jnsgd1na2vs0mg"},{"bike_id":"7e35deb2-0950-494e-a5fc-48886e723f0a","system_id":"levelo_inurba_marseille","lat":43.290368,"lon":5.37561,"is_reserved":false,"is_disabled":true,"rental_uris":{"android":"levelo://app?vid=7e35deb2-0950-494e-a5fc-48886e723f0a","ios":"levelo://app?vid=7e35deb2-0950-494e-a5fc-48886e723f0a"},"vehicle_type_id":"4","last_reported":1732043239,"current_range_meters":8400,"station_id":"ce4bh692rcd13ifvqe90","pricing_plan_id":"cebpf4jnsgd1na2vs0mg"},{"bike_id":"d482b473-8011-43d1-9203-ef428f8af553","system_id":"levelo_inurba_marseille","lat":43.29554,"lon":5.42285,"is_reserved":false,"is_disabled":false,"rental_uris":{"android":"levelo://app?vid=d482b473-8011-43d1-9203-ef428f8af553","ios":"levelo://app?vid=d482b473-8011-43d1-9203-ef428f8af553"},"vehicle_type_id":"4","last_reported":1732043239,"current_range_meters":38800,"station_id":"ce4bhph2rcd13ifvqhdg","pricing_plan_id":"cebpf4jnsgd1na2vs0mg"},{"bike_id":"1985f0ad-5fec-4017-9c67-4c18c8f68667","system_id":"levelo_inurba_marseille","lat":43.29579,"lon":5.36731,"is_reserved":false,"is_disabled":false,"rental_uris":{"android":"levelo://app?vid=1985f0ad-5fec-4017-9c67-4c18c8f68667","ios":"levelo://app?vid=1985f0ad-5fec-4017-9c67-4c18c8f68667"},"vehicle_type_id":"4","last_reported":1732043239,"current_range_meters":38800,"station_id":"ce4bgph2rcd13ifvqc2g","pricing_plan_id":"cebpf4jnsgd1na2vs0mg"},{"bike_id":"5cb4f141-1052-4551-8967-cd1f7f9baf1d","system_id":"levelo_inurba_marseille","lat":43.28667,"lon":5.38665,"is_reserved":false,"is_disabled":false,"rental_uris":{"android":"levelo://app?vid=5cb4f141-1052-4551-8967-cd1f7f9baf1d","ios":"levelo://app?vid=5cb4f141-1052-4551-8967-cd1f7f9baf1d"},"vehicle_type_id":"4","last_reported":1732043239,"current_range_meters":2800,"station_id":"ce4bh492rcd13ifvqdug","pricing_plan_id":"cebpf4jnsgd1na2vs0mg"},{"bike_id":"cde5eb04-35f5-4971-aec4-8004f9b2dcd9","system_id":"levelo_inurba_marseille","lat":43.28261,"lon":5.35064,"is_reserved":false,"is_disabled":true,"rental_uris":{"android":"levelo://app?vid=cde5eb04-35f5-4971-aec4-8004f9b2dcd9","ios":"levelo://app?vid=cde5eb04-35f5-4971-aec4-8004f9b2dcd9"},"vehicle_type_id":"4","last_reported":1732043239,"current_range_meters":32400,"station_id":"ce4bhbp2rcd13ifvqerg","pricing_plan_id":"cebpf4jnsgd1na2vs0mg"},{"bike_id":"e63fa20f-859b-43dc-995d-a32935dd2a71","system_id":"levelo_inurba_marseille","lat":43.27619,"lon":5.36108,"is_reserved":false,"is_disabled":false,"rental_uris":{"android":"levelo://app?vid=e63fa20f-859b-43dc-995d-a32935dd2a71","ios":"levelo://app?vid=e63fa20f-859b-43dc-995d-a32935dd2a71"},"vehicle_type_id":"4","last_reported":1732043239,"current_range_meters":16800,"station_id":"ce4bgj92rcd13ifvqbe0","pricing_plan_id":"cebpf4jnsgd1na2vs0mg"},{"bike_id":"cc32451c-19e5-4315-a085-6ee45923b208","system_id":"levelo_inurba_marseille","lat":43.29257,"lon":5.40904,"is_reserved":false,"is_disabled":false,"rental_uris":{"android":"levelo://app?vid=cc32451c-19e5-4315-a085-6ee45923b208","ios":"levelo://app?vid=cc32451c-19e5-4315-a085-6ee45923b208"},"vehicle_type_id":"4","last_reported":1732043239,"current_range_meters":16400,"station_id":"ce4bh192rcd13ifvqdc0","pricing_plan_id":"cebpf4jnsgd1na2vs0mg"},{"bike_id":"95847fec-7d4e-4203-9906-b2cd26dae74c","system_id":"levelo_inurba_marseille","lat":43.27809,"lon":5.40716,"is_reserved":false,"is_disabled":false,"rental_uris":{"android":"levelo://app?vid=95847fec-7d4e-4203-9906-b2cd26dae74c","ios":"levelo://app?vid=95847fec-7d4e-4203-9906-b2cd26dae74c"},"vehicle_type_id":"4","last_reported":1732043239,"current_range_meters":38800,"station_id":"ce4bhnh2rcd13ifvqgtg","pricing_plan_id":"cebpf4jnsgd1na2vs0mg"},{"bike_id":"7fc71c05-3421-4424-ba9e-625cdcc2e2d9","system_id":"levelo_inurba_marseille","lat":43.33028,"lon":5.39038,"is_reserved":false,"is_disabled":false,"rental_uris":{"android":"levelo://app?vid=7fc71c05-3421-4424-ba9e-625cdcc2e2d9","ios":"levelo://app?vid=7fc71c05-3421-4424-ba9e-625cdcc2e2d9"},"vehicle_type_id":"4","last_reported":1732043239,"current_range_meters":36800,"station_id":"ce4bhr92rcd13ifvqhrg","pricing_plan_id":"cebpf4jnsgd1na2vs0mg"},{"bike_id":"40301003-c0fd-470f-9dec-e596690cbf74","system_id":"levelo_inurba_marseille","lat":43.27942,"lon":5.41041,"is_reserved":false,"is_disabled":false,"rental_uris":{"android":"levelo://app?vid=40301003-c0fd-470f-9dec-e596690cbf74","ios":"levelo://app?vid=40301003-c0fd-470f-9dec-e596690cbf74"},"vehicle_type_id":"4","last_reported":1732043239,"current_range_meters":13600,"station_id":"ce4bhnp2rcd13ifvqh0g","pricing_plan_id":"cebpf4jnsgd1na2vs0mg"},{"bike_id":"0e2bbe61-8f31-47ba-b582-6a82d0b052e0","system_id":"levelo_inurba_marseille","lat":43.29017,"lon":5.38359,"is_reserved":false,"is_disabled":false,"rental_uris":{"android":"levelo://app?vid=0e2bbe61-8f31-47ba-b582-6a82d0b052e0","ios":"levelo://app?vid=0e2bbe61-8f31-47ba-b582-6a82d0b052e0"},"vehicle_type_id":"4","last_reported":1732043239,"current_range_meters":27600,"station_id":"ce4bgip2rcd13ifvqbb0","pricing_plan_id":"cebpf4jnsgd1na2vs0mg"},{"bike_id":"c3bc0f64-f384-48a7-9517-04f95522a7e3","system_id":"levelo_inurba_marseille","lat":43.318242,"lon":5.37611,"is_reserved":false,"is_disabled":true,"rental_uris":{"android":"levelo://app?vid=c3bc0f64-f384-48a7-9517-04f95522a7e3","ios":"levelo://app?vid=c3bc0f64-f384-48a7-9517-04f95522a7e3"},"vehicle_type_id":"4","last_reported":1732043239,"current_range_meters":14400,"station_id":"","pricing_plan_id":"cebpf4jnsgd1na2vs0mg"},{"bike_id":"bf64883e-0a72-494f-b2ae-b8c0411513e6","system_id":"levelo_inurba_marseille","lat":43.28451,"lon":5.35882,"is_reserved":false,"is_disabled":false,"rental_uris":{"android":"levelo://app?vid=bf64883e-0a72-494f-b2ae-b8c0411513e6","ios":"levelo://app?vid=bf64883e-0a72-494f-b2ae-b8c0411513e6"},"vehicle_type_id":"4","last_reported":1732043239,"current_range_meters":36000,"station_id":"ce4bhah2rcd13ifvqei0","pricing_plan_id":"cebpf4jnsgd1na2vs0mg"},{"bike_id":"44ee0950-3528-490a-948e-7f3976ab238c","system_id":"levelo_inurba_marseille","lat":43.32365,"lon":5.38888,"is_reserved":false,"is_disabled":false,"rental_uris":{"android":"levelo://app?vid=44ee0950-3528-490a-948e-7f3976ab238c","ios":"levelo://app?vid=44ee0950-3528-490a-948e-7f3976ab238c"},"vehicle_type_id":"4","last_reported":1732043239,"current_range_meters":29600,"station_id":"ce4bhqp2rcd13ifvqhog","pricing_plan_id":"cebpf4jnsgd1na2vs0mg"},{"bike_id":"c8b9ad9f-956c-4992-ac6f-ee2a027e2909","system_id":"levelo_inurba_marseille","lat":43.29302,"lon":5.3746,"is_reserved":false,"is_disabled":false,"rental_uris":{"android":"levelo://app?vid=c8b9ad9f-956c-4992-ac6f-ee2a027e2909","ios":"levelo://app?vid=c8b9ad9f-956c-4992-ac6f-ee2a027e2909"},"vehicle_type_id":"4","last_reported":1732043239,"current_range_meters":17200,"station_id":"ce4bgi12rcd13ifvqb70","pricing_plan_id":"cebpf4jnsgd1na2vs0mg"},{"bike_id":"b0e105d9-9f4c-4aac-ad98-aa479f2fe03e","system_id":"levelo_inurba_marseille","lat":43.31167,"lon":5.38716,"is_reserved":false,"is_disabled":false,"rental_uris":{"android":"levelo://app?vid=b0e105d9-9f4c-4aac-ad98-aa479f2fe03e","ios":"levelo://app?vid=b0e105d9-9f4c-4aac-ad98-aa479f2fe03e"},"vehicle_type_id":"4","last_reported":1732043239,"current_range_meters":29600,"station_id":"ce4bgv12rcd13ifvqcp0","pricing_plan_id":"cebpf4jnsgd1na2vs0mg"},{"bike_id":"5b5ccd8f-0270-45a3-9696-26865f21bc1a","system_id":"levelo_inurba_marseille","lat":43.30255,"lon":5.400697,"is_reserved":false,"is_disabled":true,"rental_uris":{"android":"levelo://app?vid=5b5ccd8f-0270-45a3-9696-26865f21bc1a","ios":"levelo://app?vid=5b5ccd8f-0270-45a3-9696-26865f21bc1a"},"vehicle_type_id":"4","last_reported":1732043239,"current_range_meters":0,"station_id":"ce4bgvh2rcd13ifvqcs0","pricing_plan_id":"cebpf4jnsgd1na2vs0mg"},{"bike_id":"ce27fe64-e773-48c7-8be0-dcaf49f06d43","system_id":"levelo_inurba_marseille","lat":43.2408,"lon":5.37725,"is_reserved":false,"is_disabled":true,"rental_uris":{"android":"levelo://app?vid=ce27fe64-e773-48c7-8be0-dcaf49f06d43","ios":"levelo://app?vid=ce27fe64-e773-48c7-8be0-dcaf49f06d43"},"vehicle_type_id":"4","last_reported":1732043239,"current_range_meters":0,"station_id":"ce4bhnp2rcd13ifvqgvg","pricing_plan_id":"cebpf4jnsgd1na2vs0mg"},{"bike_id":"21ab1e79-7cdd-4c16-96bc-733e87b1f8aa","system_id":"levelo_inurba_marseille","lat":43.29981,"lon":5.37184,"is_reserved":false,"is_disabled":false,"rental_uris":{"android":"levelo://app?vid=21ab1e79-7cdd-4c16-96bc-733e87b1f8aa","ios":"levelo://app?vid=21ab1e79-7cdd-4c16-96bc-733e87b1f8aa"},"vehicle_type_id":"4","last_reported":1732043239,"current_range_meters":37600,"station_id":"ce4bgr92rcd13ifvqc7g","pricing_plan_id":"cebpf4jnsgd1na2vs0mg"},{"bike_id":"a288582f-e609-4b1f-9e1f-4b407176785e","system_id":"levelo_inurba_marseille","lat":43.29918,"lon":5.37466,"is_reserved":false,"is_disabled":true,"rental_uris":{"android":"levelo://app?vid=a288582f-e609-4b1f-9e1f-4b407176785e","ios":"levelo://app?vid=a288582f-e609-4b1f-9e1f-4b407176785e"},"vehicle_type_id":"4","last_reported":1732043239,"current_range_meters":19200,"station_id":"ce4bgjh2rcd13ifvqbg0","pricing_plan_id":"cebpf4jnsgd1na2vs0mg"},{"bike_id":"729f081d-5184-4f31-801f-2b41f23e3a17","system_id":"levelo_inurba_marseille","lat":43.3311,"lon":5.38215,"is_reserved":false,"is_disabled":true,"rental_uris":{"android":"levelo://app?vid=729f081d-5184-4f31-801f-2b41f23e3a17","ios":"levelo://app?vid=729f081d-5184-4f31-801f-2b41f23e3a17"},"vehicle_type_id":"4","last_reported":1732043239,"current_range_meters":32800,"station_id":"","pricing_plan_id":"cebpf4jnsgd1na2vs0mg"},{"bike_id":"0c41687b-6edd-46e1-95f7-b02760dbc594","system_id":"levelo_inurba_marseille","lat":43.29002,"lon":5.356,"is_reserved":false,"is_disabled":false,"rental_uris":{"android":"levelo://app?vid=0c41687b-6edd-46e1-95f7-b02760dbc594","ios":"levelo://app?vid=0c41687b-6edd-46e1-95f7-b02760dbc594"},"vehicle_type_id":"4","last_reported":1732043239,"current_range_meters":10800,"station_id":"ce4bhb92rcd13ifvqen0","pricing_plan_id":"cebpf4jnsgd1na2vs0mg"},{"bike_id":"7770b1cc-2a54-4d08-8255-6bed2fc397aa","system_id":"levelo_inurba_marseille","lat":43.23194,"lon":5.35553,"is_reserved":false,"is_disabled":false,"rental_uris":{"android":"levelo://app?vid=7770b1cc-2a54-4d08-8255-6bed2fc397aa","ios":"levelo://app?vid=7770b1cc-2a54-4d08-8255-6bed2fc397aa"},"vehicle_type_id":"4","last_reported":1732043239,"current_range_meters":28800,"station_id":"ce4bhu92rcd13ifvqi70","pricing_plan_id":"cebpf4jnsgd1na2vs0mg"},{"bike_id":"f8610b55-6663-430e-98ea-6d5e1d1b43cc","system_id":"levelo_inurba_marseille","lat":43.32366,"lon":5.38884,"is_reserved":false,"is_disabled":false,"rental_uris":{"android":"levelo://app?vid=f8610b55-6663-430e-98ea-6d5e1d1b43cc","ios":"levelo://app?vid=f8610b55-6663-430e-98ea-6d5e1d1b43cc"},"vehicle_type_id":"4","last_reported":1732043239,"current_range_meters":28000,"station_id":"ce4bhqp2rcd13ifvqhog","pricing_plan_id":"cebpf4jnsgd1na2vs0mg"},{"bike_id":"b321c3f8-cfeb-49c2-9411-946d91e0b750","system_id":"levelo_inurba_marseille","lat":43.29557,"lon":5.42268,"is_reserved":false,"is_disabled":false,"rental_uris":{"android":"levelo://app?vid=b321c3f8-cfeb-49c2-9411-946d91e0b750","ios":"levelo://app?vid=b321c3f8-cfeb-49c2-9411-946d91e0b750"},"vehicle_type_id":"4","last_reported":1732043239,"current_range_meters":16400,"station_id":"ce4bhph2rcd13ifvqhdg","pricing_plan_id":"cebpf4jnsgd1na2vs0mg"},{"bike_id":"398dce58-bab0-43b6-a091-a0ac34e95bd0","system_id":"levelo_inurba_marseille","lat":43.32662,"lon":5.40982,"is_reserved":false,"is_disabled":false,"rental_uris":{"android":"levelo://app?vid=398dce58-bab0-43b6-a091-a0ac34e95bd0","ios":"levelo://app?vid=398dce58-bab0-43b6-a091-a0ac34e95bd0"},"vehicle_type_id":"4","last_reported":1732043239,"current_range_meters":29600,"station_id":"ce4bhpp2rcd13ifvqhgg","pricing_plan_id":"cebpf4jnsgd1na2vs0mg"},{"bike_id":"8f937481-945a-4334-8260-e09ae7b8138b","system_id":"levelo_inurba_marseille","lat":43.29975,"lon":5.38487,"is_reserved":false,"is_disabled":false,"rental_uris":{"android":"levelo://app?vid=8f937481-945a-4334-8260-e09ae7b8138b","ios":"levelo://app?vid=8f937481-945a-4334-8260-e09ae7b8138b"},"vehicle_type_id":"4","last_reported":1732043239,"current_range_meters":14000,"station_id":"ce4bgj92rcd13ifvqbd0","pricing_plan_id":"cebpf4jnsgd1na2vs0mg"},{"bike_id":"3d25d818-80cf-415a-996a-afc2d01ce97b","system_id":"levelo_inurba_marseille","lat":43.27788,"lon":5.4073,"is_reserved":false,"is_disabled":false,"rental_uris":{"android":"levelo://app?vid=3d25d818-80cf-415a-996a-afc2d01ce97b","ios":"levelo://app?vid=3d25d818-80cf-415a-996a-afc2d01ce97b"},"vehicle_type_id":"4","last_reported":1732043239,"current_range_meters":14000,"station_id":"ce4bhnh2rcd13ifvqgtg","pricing_plan_id":"cebpf4jnsgd1na2vs0mg"},{"bike_id":"ccaa169d-5ada-4aa5-b366-fb402269887e","system_id":"levelo_inurba_marseille","lat":43.24551,"lon":5.39525,"is_reserved":false,"is_disabled":false,"rental_uris":{"android":"levelo://app?vid=ccaa169d-5ada-4aa5-b366-fb402269887e","ios":"levelo://app?vid=ccaa169d-5ada-4aa5-b366-fb402269887e"},"vehicle_type_id":"4","last_reported":1732043239,"current_range_meters":4400,"station_id":"ce4bhlp2rcd13ifvqgjg","pricing_plan_id":"cebpf4jnsgd1na2vs0mg"},{"bike_id":"64ed23a0-3533-4dca-8fb9-650aaf2586c1","system_id":"levelo_inurba_marseille","lat":43.31716,"lon":5.42396,"is_reserved":false,"is_disabled":false,"rental_uris":{"android":"levelo://app?vid=64ed23a0-3533-4dca-8fb9-650aaf2586c1","ios":"levelo://app?vid=64ed23a0-3533-4dca-8fb9-650aaf2586c1"},"vehicle_type_id":"4","last_reported":1732043239,"current_range_meters":39200,"station_id":"ce4bhp92rcd13ifvqhbg","pricing_plan_id":"cebpf4jnsgd1na2vs0mg"},{"bike_id":"50b44e30-7bf5-4e2e-be3f-0e38514d5052","system_id":"levelo_inurba_marseille","lat":43.23155,"lon":5.43703,"is_reserved":false,"is_disabled":true,"rental_uris":{"android":"levelo://app?vid=50b44e30-7bf5-4e2e-be3f-0e38514d5052","ios":"levelo://app?vid=50b44e30-7bf5-4e2e-be3f-0e38514d5052"},"vehicle_type_id":"4","last_reported":1732043239,"current_range_meters":0,"station_id":"ce4bhmp2rcd13ifvqgog","pricing_plan_id":"cebpf4jnsgd1na2vs0mg"},{"bike_id":"a737d888-c040-4ce3-b145-d49bcbc6b56a","system_id":"levelo_inurba_marseille","lat":43.30931,"lon":5.40138,"is_reserved":false,"is_disabled":false,"rental_uris":{"android":"levelo://app?vid=a737d888-c040-4ce3-b145-d49bcbc6b56a","ios":"levelo://app?vid=a737d888-c040-4ce3-b145-d49bcbc6b56a"},