{"last_updated":1703070293,"ttl":30,"version":"2.2","data":{"bikes":[{"bike_id":"962fbd30-7ff6-4284-bec5-6270eb564a1c","system_id":"levelo_inurba_marseille","lat":43.313391,"lon":5.36706,"is_reserved":false,"is_disabled":false,"rental_uris":{"android":"levelo://app?vid=962fbd30-7ff6-4284-bec5-6270eb564a1c","ios":"levelo://app?vid=962fbd30-7ff6-4284-bec5-6270eb564a1c"},"vehicle_type_id":"4","last_reported":1703070293,"current_range_meters":12800,"station_id":"ce4bgr92rcd13ifvqc6g","pricing_plan_id":"free"},{"bike_id":"90c66a98-cd21-4cd7-aaa1-f0052fab149a","system_id":"levelo_inurba_marseille","lat":43.31341,"lon":5.367098,"is_reserved":false,"is_disabled":false,"rental_uris":{"android":"levelo://app?vid=90c66a98-cd21-4cd7-aaa1-f0052fab149a","ios":"levelo://app?vid=90c66a98-cd21-4cd7-aaa1-f0052fab149a"},"vehicle_type_id":"4","last_reported":1703070293,"current_range_meters":2000,"station_id":"ce4bgr92rcd13ifvqc6g","pricing_plan_id":"free"},{"bike_id":"041e6275-034f-4721-9f43-fb99d5c08c3c","system_id":"levelo_inurba_marseille","lat":43.313391,"lon":5.36706,"is_reserved":false,"is_disabled":false,"rental_uris":{"android":"levelo://app?vid=041e6275-034f-4721-9f43-fb99d5c08c3c","ios":"levelo://app?vid=041e6275-034f-4721-9f43-fb99d5c08c3c"},"vehicle_type_id":"4","last_reported":1703070293,"current_range_meters":21600,"station_id":"ce4bgr92rcd13ifvqc6g","pricing_plan_id":"free"},{"bike_id":"15c7edea-86ab-4b62-9286-30eaeca9bae0","system_id":"levelo_inurba_marseille","lat":43.31341,"lon":5.367098,"is_reserved":false,"is_disabled":false,"rental_uris":{"android":"levelo://app?vid=15c7edea-86ab-4b62-9286-30eaeca9bae0","ios":"levelo://app?vid=15c7edea-86ab-4b62-9286-30eaeca9bae0"},"vehicle_type_id":"4","last_reported":1703070293,"current_range_meters":31600,"station_id":"ce4bgr92rcd13ifvqc6g","pricing_plan_id":"free"},{"bike_id":"97b782f1-5690-4499-bd82-79dac7f90f45","system_id":"levelo_inurba_marseille","lat":43.313391,"lon":5.36706,"is_reserved":false,"is_disabled":false,"rental_uris":{"android":"levelo://app?vid=97b782f1-5690-4499-bd82-79dac7f90f45","ios":"levelo://app?vid=97b782f1-5690-4499-bd82-79dac7f90f45"},"vehicle_type_id":"4","last_reported":1703070293,"current_range_meters":20800,"station_id":"ce4bgr92rcd13ifvqc6g","pricing_plan_id":"free"},{"bike_id":"385c4116-b7eb-4dc1-8ab8-4cd9cad30c5b","system_id":"levelo_inurba_marseille","lat":43.31341,"lon":5.367098,"is_reserved":false,"is_disabled":false,"rental_uris":{"android":"levelo://app?vid=385c4116-b7eb-4dc1-8ab8-4cd9cad30c5b","ios":"levelo://app?vid=385c4116-b7eb-4dc1-8ab8-4cd9cad30c5b"},"vehicle_type_id":"4","last_reported":1703070293,"current_range_meters":32000,"station_id":"ce4bgr92rcd13ifvqc6g","pricing_plan_id":"free"},{"bike_id":"dc02301a-e25b-4088-96c9-2c95bbdc42aa","system_id":"levelo_inurba_marseille","lat":43.31341,"lon":5.367098,"is_reserved":false,"is_disabled":false,"rental_uris":{"android":"levelo://app?vid=dc02301a-e25b-4088-96c9-2c95bbdc42aa","ios":"levelo://app?vid=dc02301a-e25b-4088-96c9-2c95bbdc42aa"},"vehicle_type_id":"4","last_reported":1703070293,"current_range_meters":31600,"station_id":"ce4bgr92rcd13ifvqc6g","pricing_plan_id":"free"},{"bike_id":"9d52a925-323b-4a5e-9c24-9e0718f8c66b","system_id":"levelo_inurba_marseille","lat":43.313391,"lon":5.36706,"is_reserved":false,"is_disabled":false,"rental_uris":{"android":"levelo://app?vid=9d52a925-323b-4a5e-9c24-9e0718f8c66b","ios":"levelo://app?vid=9d52a925-323b-4a5e-9c24-9e0718f8c66b"},"vehicle_type_id":"4","last_reported":1703070293,"current_range_meters":31600,"station_id":"ce4bgr92rcd13ifvqc6g","pricing_plan_id":"free"},{"bike_id":"4d43bb2d-c7fc-48e1-9fd2-2166803e880a","system_id":"levelo_inurba_marseille","lat":43.313391,"lon":5.36706,"is_reserved":false,"is_disabled":false,"rental_uris":{"android":"levelo://app?vid=4d43bb2d-c7fc-48e1-9fd2-2166803e880a","ios":"levelo://app?vid=4d43bb2d-c7fc-48e1-9fd2-2166803e880a"},"vehicle_type_id":"4","last_reported":1703070293,"current_range_meters":8000,"station_id":"ce4bgr92rcd13ifvqc6g","pricing_plan_id":"free"},{"bike_id":"5581df76-9eaa-4cb1-9e64-a029de783903","system_id":"levelo_inurba_marseille","lat":43.31341,"lon":5.367098,"is_reserved":false,"is_disabled":false,"rental_uris":{"android":"levelo://app?vid=5581df76-9eaa-4cb1-9e64-a029de783903","ios":"levelo://app?vid=5581df76-9eaa-4cb1-9e64-a029de783903"},"vehicle_type_id":"4","last_reported":1703070293,"current_range_meters":22800,"station_id":"ce4bgr92rcd13ifvqc6g","pricing_plan_id":"free"},{"bike_id":"6199905d-ffc5-4ede-bcc8-a21944ed6541","system_id":"levelo_inurba_marseille","lat":43.31341,"lon":5.367098,"is_reserved":false,"is_disabled":false,"rental_uris":{"android":"levelo://app?vid=6199905d-ffc5-4ede-bcc8-a21944ed6541","ios":"levelo://app?vid=6199905d-ffc5-4ede-bcc8-a21944ed6541"},"vehicle_type_id":"4","last_reported":1703070293,"current_range_meters":12800,"station_id":"ce4bgr92rcd13ifvqc6g","pricing_plan_id":"free"},{"bike_id":"5bf53713-9015-41ac-a733-030d364b249e","system_id":"levelo_inurba_marseille","lat":43.313391,"lon":5.36706,"is_reserved":false,"is_disabled":false,"rental_uris":{"android":"levelo://app?vid=5bf53713-9015-41ac-a733-030d364b249e","ios":"levelo://app?vid=5bf53713-9015-41ac-a733-030d364b249e"},"vehicle_type_id":"4","last_reported":1703070293,"current_range_meters":8800,"station_id":"ce4bgr92rcd13ifvqc6g","pricing_plan_id":"free"},{"bike_id":"c85993cf-56a9-4974-93ef-b2f2282f54b8","system_id":"levelo_inurba_marseille","lat":43.313391,"lon":5.36706,"is_reserved":false,"is_disabled":false,"rental_uris":{"android":"levelo://app?vid=c85993cf-56a9-4974-93ef-b2f2282f54b8","ios":"levelo://app?vid=c85993cf-56a9-4974-93ef-b2f2282f54b8"},"vehicle_type_id":"4","last_reported":1703070293,"current_range_meters":18800,"station_id":"ce4bgr92rcd13ifvqc6g","pricing_plan_id":"free"},{"bike_id":"750035f0-8de4-44a2-a89b-a877f73e77ff","system_id":"levelo_inurba_marseille","lat":43.31341,"lon":5.367098,"is_reserved":false,"is_disabled":false,"rental_uris":{"android":"levelo://app?vid=750035f0-8de4-44a2-a89b-a877f73e77ff","ios":"levelo://app?vid=750035f0-8de4-44a2-a89b-a877f73e77ff"},"vehicle_type_id":"4","last_reported":1703070293,"current_range_meters":1600,"station_id":"ce4bgr92rcd13ifvqc6g","pricing_plan_id":"free"},{"bike_id":"06200de9-b54a-4d19-839e-e15513ea2dc5","system_id":"levelo_inurba_marseille","lat":43.31341,"lon":5.367098,"is_reserved":false,"is_disabled":false,"rental_uris":{"android":"levelo://app?vid=06200de9-b54a-4d19-839e-e15513ea2dc5","ios":"levelo://app?vid=06200de9-b54a-4d19-839e-e15513ea2dc5"},"vehicle_type_id":"4","last_reported":1703070293,"current_range_meters":31600,"station_id":"ce4bgr92rcd13ifvqc6g","pricing_plan_id":"free"},{"bike_id":"c5e2906e-a12b-49a2-9196-ab926cf8a9a4","system_id":"levelo_inurba_marseille","lat":43.31341,"lon":5.367098,"is_reserved":false,"is_disabled":false,"rental_uris":{"android":"levelo://app?vid=c5e2906e-a12b-49a2-9196-ab926cf8a9a4","ios":"levelo://app?vid=c5e2906e-a12b-49a2-9196-ab926cf8a9a4"},"vehicle_type_id":"4","last_reported":1703070293,"current_range_meters":32000,"station_id":"ce4bgr92rcd13ifvqc6g","pricing_plan_id":"free"},{"bike_id":"b02f8698-ab43-4514-915c-7ac2039754d7","system_id":"levelo_inurba_marseille","lat":43.313391,"lon":5.36706,"is_reserved":false,"is_disabled":false,"rental_uris":{"android":"levelo://app?vid=b02f8698-ab43-4514-915c-7ac2039754d7","ios":"levelo://app?vid=b02f8698-ab43-4514-915c-7ac2039754d7"},"vehicle_type_id":"4","last_reported":1703070293,"current_range_meters":0,"station_id":"ce4bgr92rcd13ifvqc6g","pricing_plan_id":"free"},{"bike_id":"86521b66-fd6f-4efd-8e38-0fbeb1b6ed02","system_id":"levelo_inurba_marseille","lat":43.313391,"lon":5.36706,"is_reserved":false,"is_disabled":false,"rental_uris":{"android":"levelo://app?vid=86521b66-fd6f-4efd-8e38-0fbeb1b6ed02","ios":"levelo://app?vid=86521b66-fd6f-4efd-8e38-0fbeb1b6ed02"},"vehicle_type_id":"4","last_reported":1703070293,"current_range_meters":23600,"station_id":"ce4bgr92rcd13ifvqc6g","pricing_plan_id":"free"},{"bike_id":"cdc1f6b5-253b-459c-867e-da6142322fdc","system_id":"levelo_inurba_marseille","lat":43.312239,"lon":5.368562,"is_reserved":false,"is_disabled":false,"rental_uris":{"android":"levelo://app?vid=cdc1f6b5-253b-459c-867e-da6142322fdc","ios":"levelo://app?vid=cdc1f6b5-253b-459c-867e-da6142322fdc"},"vehicle_type_id":"4","last_reported":1703070293,"current_range_meters":24000,"station_id":"ce4bgl92rcd13ifvqbq0","pricing_plan_id":"free"},{"bike_id":"a8d5ba16-71a6-42eb-bd87-f3fc28468325","system_id":"levelo_inurba_marseille","lat":43.312239,"lon":5.368562,"is_reserved":false,"is_disabled":false,"rental_uris":{"android":"levelo://app?vid=a8d5ba16-71a6-42eb-bd87-f3fc28468325","ios":"levelo://app?vid=a8d5ba16-71a6-42eb-bd87-f3fc28468325"},"vehicle_type_id":"4","last_reported":1703070293,"current_range_meters":31200,"station_id":"ce4bgl92rcd13ifvqbq0","pricing_plan_id":"free"},{"bike_id":"4633ea53-e71a-451e-aa3a-bd0eb49de51a","system_id":"levelo_inurba_marseille","lat":43.312239,"lon":5.368562,"is_reserved":false,"is_disabled":false,"rental_uris":{"android":"levelo://app?vid=4633ea53-e71a-451e-aa3a-bd0eb49de51a","ios":"levelo://app?vid=4633ea53-e71a-451e-aa3a-bd0eb49de51a"},"vehicle_type_id":"4","last_reported":1703070293,"current_range_meters":25600,"station_id":"ce4bgl92rcd13ifvqbq0","pricing_plan_id":"free"},{"bike_id":"0df5cc50-0de0-4e34-9778-3761912559f7","system_id":"levelo_inurba_marseille","lat":43.312239,"lon":5.368562,"is_reserved":false,"is_disabled":false,"rental_uris":{"android":"levelo://app?vid=0df5cc50-0de0-4e34-9778-3761912559f7","ios":"levelo://app?vid=0df5cc50-0de0-4e34-9778-3761912559f7"},"vehicle_type_id":"4","last_reported":1703070293,"current_range_meters":27200,"station_id":"ce4bgl92rcd13ifvqbq0","pricing_plan_id":"free"},{"bike_id":"19d7187c-8b68-43b4-a011-e2111c86d3f4","system_id":"levelo_inurba_marseille","lat":43.309076,"lon":5.368465,"is_reserved":false,"is_disabled":false,"rental_uris":{"android":"levelo://app?vid=19d7187c-8b68-43b4-a011-e2111c86d3f4","ios":"levelo://app?vid=19d7187c-8b68-43b4-a011-e2111c86d3f4"},"vehicle_type_id":"4","last_reported":1703070293,"current_range_meters":27600,"station_id":"ce4bgn92rcd13ifvqbvg","pricing_plan_id":"free"},{"bike_id":"71695d16-2724-44d4-aaec-bf4108e95c6c","system_id":"levelo_inurba_marseille","lat":43.309076,"lon":5.368465,"is_reserved":false,"is_disabled":false,"rental_uris":{"android":"levelo://app?vid=71695d16-2724-44d4-aaec-bf4108e95c6c","ios":"levelo://app?vid=71695d16-2724-44d4-aaec-bf4108e95c6c"},"vehicle_type_id":"4","last_reported":1703070293,"current_range_meters":28400,"station_id":"ce4bgn92rcd13ifvqbvg","pricing_plan_id":"free"},{"bike_id":"af2242c6-3cfa-458c-8de6-984c2026785d","system_id":"levelo_inurba_marseille","lat":43.309076,"lon":5.368465,"is_reserved":false,"is_disabled":false,"rental_uris":{"android":"levelo://app?vid=af2242c6-3cfa-458c-8de6-984c2026785d","ios":"levelo://app?vid=af2242c6-3cfa-458c-8de6-984c2026785d"},"vehicle_type_id":"4","last_reported":1703070293,"current_range_meters":18400,"station_id":"ce4bgn92rcd13ifvqbvg","pricing_plan_id":"free"},{"bike_id":"86a11bf0-cb85-4e66-820f-6dc45e8d354e","system_id":"levelo_inurba_marseille","lat":43.309076,"lon":5.368465,"is_reserved":false,"is_disabled":false,"rental_uris":{"android":"levelo://app?vid=86a11bf0-cb85-4e66-820f-6dc45e8d354e","ios":"levelo://app?vid=86a11bf0-cb85-4e66-820f-6dc45e8d354e"},"vehicle_type_id":"4","last_reported":1703070293,"current_range_meters":28400,"station_id":"ce4bgn92rcd13ifvqbvg","pricing_plan_id":"free"},{"bike_id":"4aff95af-45e2-49b1-83fe-ad7f5fa6667c","system_id":"levelo_inurba_marseille","lat":43.309076,"lon":5.368465,"is_reserved":false,"is_disabled":false,"rental_uris":{"android":"levelo://app?vid=4aff95af-45e2-49b1-83fe-ad7f5fa6667c","ios":"levelo://app?vid=4aff95af-45e2-49b1-83fe-ad7f5fa6667c"},"vehicle_type_id":"4","last_reported":1703070293,"current_range_meters":31600,"station_id":"ce4bgn92rcd13ifvqbvg","pricing_plan_id":"free"},{"bike_id":"bf7bf10f-53c3-468c-92ad-fab9731bc205","system_id":"levelo_inurba_marseille","lat":43.309076,"lon":5.368465,"is_reserved":false,"is_disabled":false,"rental_uris":{"android":"levelo://app?vid=bf7bf10f-53c3-468c-92ad-fab9731bc205","ios":"levelo://app?vid=bf7bf10f-53c3-468c-92ad-fab9731bc205"},"vehicle_type_id":"4","last_reported":1703070293,"current_range_meters":27200,"station_id":"ce4bgn92rcd13ifvqbvg","pricing_plan_id":"free"},{"bike_id":"a5d97441-69da-47a7-befc-8b0468dc5882","system_id":"levelo_inurba_marseille","lat":43.309076,"lon":5.368465,"is_reserved":false,"is_disabled":false,"rental_uris":{"android":"levelo://app?vid=a5d97441-69da-47a7-befc-8b0468dc5882","ios":"levelo://app?vid=a5d97441-69da-47a7-befc-8b0468dc5882"},"vehicle_type_id":"4","last_reported":1703070293,"current_range_meters":24000,"station_id":"ce4bgn92rcd13ifvqbvg","pricing_plan_id":"free"},{"bike_id":"4657fffc-ee94-4a82-ac10-6b95d387b3a3","system_id":"levelo_inurba_marseille","lat":43.309076,"lon":5.368465,"is_reserved":false,"is_disabled":false,"rental_uris":{"android":"levelo://app?vid=4657fffc-ee94-4a82-ac10-6b95d387b3a3","ios":"levelo://app?vid=4657fffc-ee94-4a82-ac10-6b95d387b3a3"},"vehicle_type_id":"4","last_reported":1703070293,"current_range_meters":31600,"station_id":"ce4bgn92rcd13ifvqbvg","pricing_plan_id":"free"},{"bike_id":"f102ec20-f63e-4f17-a402-2996ed87870c","system_id":"levelo_inurba_marseille","lat":43.309076,"lon":5.368465,"is_reserved":false,"is_disabled":false,"rental_uris":{"android":"levelo://app?vid=f102ec20-f63e-4f17-a402-2996ed87870c","ios":"levelo://app?vid=f102ec20-f63e-4f17-a402-2996ed87870c"},"vehicle_type_id":"4","last_reported":1703070293,"current_range_meters":18400,"station_id":"ce4bgn92rcd13ifvqbvg","pricing_plan_id":"free"},{"bike_id":"1c9c2674-9e54-4819-b17d-e04022c180db","system_id":"levelo_inurba_marseille","lat":43.309076,"lon":5.368465,"is_reserved":false,"is_disabled":false,"rental_uris":{"android":"levelo://app?vid=1c9c2674-9e54-4819-b17d-e04022c180db","ios":"levelo://app?vid=1c9c2674-9e54-4819-b17d-e04022c180db"},"vehicle_type_id":"4","last_reported":1703070293,"current_range_meters":30800,"station_id":"ce4bgn92rcd13ifvqbvg","pricing_plan_id":"free"},{"bike_id":"3c9c6e5a-e9b6-48f6-83bf-05f293c07807","system_id":"levelo_inurba_marseille","lat":43.314811,"lon":5.373103,"is_reserved":false,"is_disabled":false,"rental_uris":{"android":"levelo://app?vid=3c9c6e5a-e9b6-48f6-83bf-05f293c07807","ios":"levelo://app?vid=3c9c6e5a-e9b6-48f6-83bf-05f293c07807"},"vehicle_type_id":"4","last_reported":1703070293,"current_range_meters":22400,"station_id":"ce4bgt12rcd13ifvqcd0","pricing_plan_id":"free"},{"bike_id":"47d6ab65-9df7-4da6-932d-0b32c42c9b1d","system_id":"levelo_inurba_marseille","lat":43.314811,"lon":5.373103,"is_reserved":false,"is_disabled":false,"rental_uris":{"android":"levelo://app?vid=47d6ab65-9df7-4da6-932d-0b32c42c9b1d","ios":"levelo://app?vid=47d6ab65-9df7-4da6-932d-0b32c42c9b1d"},"vehicle_type_id":"4","last_reported":1703070293,"current_range_meters":4000,"station_id":"ce4bgt12rcd13ifvqcd0","pricing_plan_id":"free"},{"bike_id":"9b892884-a975-41e1-a152-056d4abc983a","system_id":"levelo_inurba_marseille","lat":43.314811,"lon":5.373103,"is_reserved":false,"is_disabled":false,"rental_uris":{"android":"levelo://app?vid=9b892884-a975-41e1-a152-056d4abc983a","ios":"levelo://app?vid=9b892884-a975-41e1-a152-056d4abc983a"},"vehicle_type_id":"4","last_reported":1703070293,"current_range_meters":5200,"station_id":"ce4bgt12rcd13ifvqcd0","pricing_plan_id":"free"},{"bike_id":"fb71274a-89b7-4d6e-88ec-f1ea967ae605","system_id":"levelo_inurba_marseille","lat":43.305572,"lon":5.365685,"is_reserved":false,"is_disabled":false,"rental_uris":{"android":"levelo://app?vid=fb71274a-89b7-4d6e-88ec-f1ea967ae605","ios":"levelo://app?vid=fb71274a-89b7-4d6e-88ec-f1ea967ae605"},"vehicle_type_id":"4","last_reported":1703070293,"current_range_meters":13200,"station_id":"ce4bgs12rcd13ifvqcag","pricing_plan_id":"free"},{"bike_id":"bf0bfcb5-f739-463a-8171-bfc64574555a","system_id":"levelo_inurba_marseille","lat":43.305712,"lon":5.365641,"is_reserved":false,"is_disabled":false,"rental_uris":{"android":"levelo://app?vid=bf0bfcb5-f739-463a-8171-bfc64574555a","ios":"levelo://app?vid=bf0bfcb5-f739-463a-8171-bfc64574555a"},"vehicle_type_id":"4","last_reported":1703070293,"current_range_meters":27600,"station_id":"ce4bgs12rcd13ifvqcag","pricing_plan_id":"free"},{"bike_id":"6cd8b37d-a2ef-49bd-9daa-481faf21e029","system_id":"levelo_inurba_marseille","lat":43.305368,"lon":5.367343,"is_reserved":false,"is_disabled":false,"rental_uris":{"android":"levelo://app?vid=6cd8b37d-a2ef-49bd-9daa-481faf21e029","ios":"levelo://app?vid=6cd8b37d-a2ef-49bd-9daa-481faf21e029"},"vehicle_type_id":"4","last_reported":1703070293,"current_range_meters":11200,"station_id":"ce4bgrp2rcd13ifvqc9g","pricing_plan_id":"free"},{"bike_id":"8867c2d7-f6b4-4050-8448-6bae24a286c8","system_id":"levelo_inurba_marseille","lat":43.305368,"lon":5.367343,"is_reserved":false,"is_disabled":false,"rental_uris":{"android":"levelo://app?vid=8867c2d7-f6b4-4050-8448-6bae24a286c8","ios":"levelo://app?vid=8867c2d7-f6b4-4050-8448-6bae24a286c8"},"vehicle_type_id":"4","last_reported":1703070293,"current_range_meters":25200,"station_id":"ce4bgrp2rcd13ifvqc9g","pricing_plan_id":"free"},{"bike_id":"b8d5b48e-95a4-4f1f-b78a-470bb9c5a65b","system_id":"levelo_inurba_marseille","lat":43.305368,"lon":5.367343,"is_reserved":false,"is_disabled":false,"rental_uris":{"android":"levelo://app?vid=b8d5b48e-95a4-4f1f-b78a-470bb9c5a65b","ios":"levelo://app?vid=b8d5b48e-95a4-4f1f-b78a-470bb9c5a65b"},"vehicle_type_id":"4","last_reported":1703070293,"current_range_meters":22000,"station_id":"ce4bgrp2rcd13ifvqc9g","pricing_plan_id":"free"},{"bike_id":"4b95994c-e128-418d-b3fe-1502b60fd2a1","system_id":"levelo_inurba_marseille","lat":43.30547,"lon":5.365406,"is_reserved":false,"is_disabled":false,"rental_uris":{"android":"levelo://app?vid=4b95994c-e128-418d-b3fe-1502b60fd2a1","ios":"levelo://app?vid=4b95994c-e128-418d-b3fe-1502b60fd2a1"},"vehicle_type_id":"4","last_reported":1703070293,"current_range_meters":1600,"station_id":"ce4bgs12rcd13ifvqcag","pricing_plan_id":"free"},{"bike_id":"38f27d59-0f58-40ea-8467-b40c5852117a","system_id":"levelo_inurba_marseille","lat":43.305454,"lon":5.365294,"is_reserved":false,"is_disabled":false,"rental_uris":{"android":"levelo://app?vid=38f27d59-0f58-40ea-8467-b40c5852117a","ios":"levelo://app?vid=38f27d59-0f58-40ea-8467-b40c5852117a"},"vehicle_type_id":"4","last_reported":1703070293,"current_range_meters":13600,"station_id":"ce4bgs12rcd13ifvqcag","pricing_plan_id":"free"},{"bike_id":"b04255b9-a9e3-412d-adc5-3107a87e52ae","system_id":"levelo_inurba_marseille","lat":43.305368,"lon":5.367343,"is_reserved":false,"is_disabled":false,"rental_uris":{"android":"levelo://app?vid=b04255b9-a9e3-412d-adc5-3107a87e52ae","ios":"levelo://app?vid=b04255b9-a9e3-412d-adc5-3107a87e52ae"},"vehicle_type_id":"4","last_reported":1703070293,"current_range_meters":0,"station_id":"ce4bgrp2rcd13ifvqc9g","pricing_plan_id":"free"},{"bike_id":"af934bb9-4450-4abc-a2fc-577eba17fcaf","system_id":"levelo_inurba_marseille","lat":43.305714,"lon":5.365633,"is_reserved":false,"is_disabled":false,"rental_uris":{"android":"levelo://app?vid=af934bb9-4450-4abc-a2fc-577eba17fcaf","ios":"levelo://app?vid=af934bb9-4450-4abc-a2fc-577eba17fcaf"},"vehicle_type_id":"4","last_reported":1703070293,"current_range_meters":26800,"station_id":"ce4bgs12rcd13ifvqcag","pricing_plan_id":"free"},{"bike_id":"d77d3afe-7a7b-4f43-9088-b5491aa48840","system_id":"levelo_inurba_marseille","lat":43.305368,"lon":5.367343,"is_reserved":false,"is_disabled":false,"rental_uris":{"android":"levelo://app?vid=d77d3afe-7a7b-4f43-9088-b5491aa48840","ios":"levelo://app?vid=d77d3afe-7a7b-4f43-9088-b5491aa48840"},"vehicle_type_id":"4","last_reported":1703070293,"current_range_meters":15600,"station_id":"ce4bgrp2rcd13ifvqc9g","pricing_plan_id":"free"},{"bike_id":"c9709d59-d019-4fda-86d2-75d48039f15a","system_id":"levelo_inurba_marseille","lat":43.305368,"lon":5.367343,"is_reserved":false,"is_disabled":false,"rental_uris":{"android":"levelo://app?vid=c9709d59-d019-4fda-86d2-75d48039f15a","ios":"levelo://app?vid=c9709d59-d019-4fda-86d2-75d48039f15a"},"vehicle_type_id":"4","last_reported":1703070293,"current_range_meters":21600,"station_id":"ce4bgrp2rcd13ifvqc9g","pricing_plan_id":"free"},{"bike_id":"3ac478f3-faea-4750-8ba5-fb7df802dcd7","system_id":"levelo_inurba_marseille","lat":43.30541,"lon":5.3653,"is_reserved":false,"is_disabled":false,"rental_uris":{"android":"levelo://app?vid=3ac478f3-faea-4750-8ba5-fb7df802dcd7","ios":"levelo://app?vid=3ac478f3-faea-4750-8ba5-fb7df802dcd7"},"vehicle_type_id":"4","last_reported":1703070293,"current_range_meters":18800,"station_id":"ce4bgs12rcd13ifvqcag","pricing_plan_id":"free"},{"bike_id":"afc8e02f-afd4-492d-a222-998b515fd8ee","system_id":"levelo_inurba_marseille","lat":43.305706,"lon":5.365654,"is_reserved":false,"is_disabled":false,"rental_uris":{"android":"levelo://app?vid=afc8e02f-afd4-492d-a222-998b515fd8ee","ios":"levelo://app?vid=afc8e02f-afd4-492d-a222-998b515fd8ee"},"vehicle_type_id":"4","last_reported":1703070293,"current_range_meters":4000,"station_id":"ce4bgs12rcd13ifvqcag","pricing_plan_id":"free"},{"bike_id":"21a87b11-b34e-4ac9-b840-399e42220625","system_id":"levelo_inurba_marseille","lat":43.305706,"lon":5.365654,"is_reserved":false,"is_disabled":false,"rental_uris":{"android":"levelo://app?vid=21a87b11-b34e-4ac9-b840-399e42220625","ios":"levelo://app?vid=21a87b11-b34e-4ac9-b840-399e42220625"},"vehicle_type_id":"4","last_reported":1703070293,"current_range_meters":31600,"station_id":"ce4bgs12rcd13ifvqcag","pricing_plan_id":"free"},{"bike_id":"db88c010-f958-487b-a005-f8c3a49b23aa","system_id":"levelo_inurba_marseille","lat":43.305706,"lon":5.365654,"is_reserved":false,"is_disabled":false,"rental_uris":{"android":"levelo://app?vid=db88c010-f958-487b-a005-f8c3a49b23aa","ios":"levelo://app?vid=db88c010-f958-487b-a005-f8c3a49b23aa"},"vehicle_type_id":"4","last_reported":1703070293,"current_range_meters":17200,"station_id":"ce4bgs12rcd13ifvqcag","pricing_plan_id":"free"},{"bike_id":"fcf54c51-05e3-4f0e-b866-95757e00cd2b","system_id":"levelo_inurba_marseille","lat":43.305706,"lon":5.365654,"is_reserved":false,"is_disabled":false,"rental_uris":{"android":"levelo://app?vid=fcf54c51-05e3-4f0e-b866-95757e00cd2b","ios":"levelo://app?vid=fcf54c51-05e3-4f0e-b866-95757e00cd2b"},"vehicle_type_id":"4","last_reported":1703070293,"current_range_meters":23200,"station_id":"ce4bgs12rcd13ifvqcag","pricing_plan_id":"free"},{"bike_id":"4253463a-9a67-4fe8-a1e4-bc288c9ed654","system_id":"levelo_inurba_marseille","lat":43.305368,"lon":5.367343,"is_reserved":false,"is_disabled":false,"rental_uris":{"android":"levelo://app?vid=4253463a-9a67-4fe8-a1e4-bc288c9ed654","ios":"levelo://app?vid=4253463a-9a67-4fe8-a1e4-bc288c9ed654"},"vehicle_type_id":"4","last_reported":1703070293,"current_range_meters":22800,"station_id":"ce4bgrp2rcd13ifvqc9g","pricing_plan_id":"free"},{"bike_id":"227b19b3-a278-4dea-99dc-5c91f230706c","system_id":"levelo_inurba_marseille","lat":43.305706,"lon":5.365654,"is_reserved":false,"is_disabled":false,"rental_uris":{"android":"levelo://app?vid=227b19b3-a278-4dea-99dc-5c91f230706c","ios":"levelo://app?vid=227b19b3-a278-4dea-99dc-5c91f230706c"},"vehicle_type_id":"4","last_reported":1703070293,"current_range_meters":16800,"station_id":"ce4bgs12rcd13ifvqcag","pricing_plan_id":"free"},{"bike_id":"37b31663-8b2b-4239-be58-1641bed9f242","system_id":"levelo_inurba_marseille","lat":43.305368,"lon":5.367343,"is_reserved":false,"is_disabled":false,"rental_uris":{"android":"levelo://app?vid=37b31663-8b2b-4239-be58-1641bed9f242","ios":"levelo://app?vid=37b31663-8b2b-4239-be58-1641bed9f242"},"vehicle_type_id":"4","last_reported":1703070293,"current_range_meters":15200,"station_id":"ce4bgrp2rcd13ifvqc9g","pricing_plan_id":"free"},{"bike_id":"f2f66771-a9ed-4764-94b1-e85642bec9ec","system_id":"levelo_inurba_marseille","lat":43.305706,"lon":5.365654,"is_reserved":false,"is_disabled":false,"rental_uris":{"android":"levelo://app?vid=f2f66771-a9ed-4764-94b1-e85642bec9ec","ios":"levelo://app?vid=f2f66771-a9ed-4764-94b1-e85642bec9ec"},"vehicle_type_id":"4","last_reported":1703070293,"current_range_meters":25200,"station_id":"ce4bgs12rcd13ifvqcag","pricing_plan_id":"free"},{"bike_id":"08311cd1-dfdb-40b9-b0e5-6205ad687d01","system_id":"levelo_inurba_marseille","lat":43.305989,"lon":5.37225,"is_reserved":false,"is_disabled":false,"rental_uris":{"android":"levelo://app?vid=08311cd1-dfdb-40b9-b0e5-6205ad687d01","ios":"levelo://app?vid=08311cd1-dfdb-40b9-b0e5-6205ad687d01"},"vehicle_type_id":"4","last_reported":1703070293,"current_range_meters":16400,"station_id":"ce4bgqh2rcd13ifvqc4g","pricing_plan_id":"free"},{"bike_id":"cd3d43fa-d362-472c-a540-0936ec66933b","system_id":"levelo_inurba_marseille","lat":43.30597,"lon":5.3723,"is_reserved":false,"is_disabled":false,"rental_uris":{"android":"levelo://app?vid=cd3d43fa-d362-472c-a540-0936ec66933b","ios":"levelo://app?vid=cd3d43fa-d362-472c-a540-0936ec66933b"},"vehicle_type_id":"4","last_reported":1703070293,"current_range_meters":18000,"station_id":"ce4bgqh2rcd13ifvqc4g","pricing_plan_id":"free"},{"bike_id":"a7913411-861d-49b8-9331-6a6c6f0476c0","system_id":"levelo_inurba_marseille","lat":43.305989,"lon":5.37225,"is_reserved":false,"is_disabled":false,"rental_uris":{"android":"levelo://app?vid=a7913411-861d-49b8-9331-6a6c6f0476c0","ios":"levelo://app?vid=a7913411-861d-49b8-9331-6a6c6f0476c0"},"vehicle_type_id":"4","last_reported":1703070293,"current_range_meters":28800,"station_id":"ce4bgqh2rcd13ifvqc4g","pricing_plan_id":"free"},{"bike_id":"9a07a64c-6f08-4d71-9f25-11bb1074067d","system_id":"levelo_inurba_marseille","lat":43.301939,"lon":5.366286,"is_reserved":false,"is_disabled":false,"rental_uris":{"android":"levelo://app?vid=9a07a64c-6f08-4d71-9f25-11bb1074067d","ios":"levelo://app?vid=9a07a64c-6f08-4d71-9f25-11bb1074067d"},"vehicle_type_id":"4","last_reported":1703070293,"current_range_meters":10800,"station_id":"ce4bgrh2rcd13ifvqc8g","pricing_plan_id":"free"},{"bike_id":"e87e6e4b-3c1d-4815-aa39-751e45452f4d","system_id":"levelo_inurba_marseille","lat":43.301939,"lon":5.366286,"is_reserved":false,"is_disabled":false,"rental_uris":{"android":"levelo://app?vid=e87e6e4b-3c1d-4815-aa39-751e45452f4d","ios":"levelo://app?vid=e87e6e4b-3c1d-4815-aa39-751e45452f4d"},"vehicle_type_id":"4","last_reported":1703070293,"current_range_meters":19600,"station_id":"ce4bgrh2rcd13ifvqc8g","pricing_plan_id":"free"},{"bike_id":"00e9bbe5-efae-402d-857c-16c2947ee517","system_id":"levelo_inurba_marseille","lat":43.301939,"lon":5.366286,"is_reserved":false,"is_disabled":false,"rental_uris":{"android":"levelo://app?vid=00e9bbe5-efae-402d-857c-16c2947ee517","ios":"levelo://app?vid=00e9bbe5-efae-402d-857c-16c2947ee517"},"vehicle_type_id":"4","last_reported":1703070293,"current_range_meters":17600,"station_id":"ce4bgrh2rcd13ifvqc8g","pricing_plan_id":"free"},{"bike_id":"1afd39e5-0a83-4392-991a-7aad1ed19507","system_id":"levelo_inurba_marseille","lat":43.302784,"lon":5.377158,"is_reserved":false,"is_disabled":false,"rental_uris":{"android":"levelo://app?vid=1afd39e5-0a83-4392-991a-7aad1ed19507","ios":"levelo://app?vid=1afd39e5-0a83-4392-991a-7aad1ed19507"},"vehicle_type_id":"4","last_reported":1703070293,"current_range_meters":17600,"station_id":"ce4bguh2rcd13ifvqcj0","pricing_plan_id":"free"},{"bike_id":"4feb90d1-403f-4ae4-8dfa-eda8ac00e2a5","system_id":"levelo_inurba_marseille","lat":43.301429,"lon":5.37413,"is_reserved":false,"is_disabled":false,"rental_uris":{"android":"levelo://app?vid=4feb90d1-403f-4ae4-8dfa-eda8ac00e2a5","ios":"levelo://app?vid=4feb90d1-403f-4ae4-8dfa-eda8ac00e2a5"},"vehicle_type_id":"4","last_reported":1703070293,"current_range_meters":22800,"station_id":"ce4bgs92rcd13ifvqcc0","pricing_plan_id":"free"},{"bike_id":"6bd330e5-be91-4c6a-bd12-6b4c0748505e","system_id":"levelo_inurba_marseille","lat":43.319935,"lon":5.381699,"is_reserved":false,"is_disabled":false,"rental_uris":{"android":"levelo://app?vid=6bd330e5-be91-4c6a-bd12-6b4c0748505e","ios":"levelo://app?vid=6bd330e5-be91-4c6a-bd12-6b4c0748505e"},"vehicle_type_id":"4","last_reported":1703070293,"current_range_meters":10800,"station_id":"ce4bhr12rcd13ifvqhpg","pricing_plan_id":"free"},{"bike_id":"2fb55c13-ce51-4ed2-af2a-f23356d2ff7e","system_id":"levelo_inurba_marseille","lat":43.299222,"lon":5.365554,"is_reserved":false,"is_disabled":false,"rental_uris":{"android":"levelo://app?vid=2fb55c13-ce51-4ed2-af2a-f23356d2ff7e","ios":"levelo://app?vid=2fb55c13-ce51-4ed2-af2a-f23356d2ff7e"},"vehicle_type_id":"4","last_reported":1703070293,"current_range_meters":24000,"station_id":"ce4bgm92rcd13ifvqbr0","pricing_plan_id":"free"},{"bike_id":"95565b50-3a73-4110-9388-94fe52924064","system_id":"levelo_inurba_marseille","lat":43.299222,"lon":5.365554,"is_reserved":false,"is_disabled":false,"rental_uris":{"android":"levelo://app?vid=95565b50-3a73-4110-9388-94fe52924064","ios":"levelo://app?vid=95565b50-3a73-4110-9388-94fe52924064"},"vehicle_type_id":"4","last_reported":1703070293,"current_range_meters":4400,"station_id":"ce4bgm92rcd13ifvqbr0","pricing_plan_id":"free"},{"bike_id":"6fd2c2a3-a498-407a-9333-87aec3a71090","system_id":"levelo_inurba_marseille","lat":43.299222,"lon":5.365554,"is_reserved":false,"is_disabled":false,"rental_uris":{"android":"levelo://app?vid=6fd2c2a3-a498-407a-9333-87aec3a71090","ios":"levelo://app?vid=6fd2c2a3-a498-407a-9333-87aec3a71090"},"vehicle_type_id":"4","last_reported":1703070293,"current_range_meters":29200,"station_id":"ce4bgm92rcd13ifvqbr0","pricing_plan_id":"free"},{"bike_id":"95630a1a-2ad7-4a94-8c62-c8ae7b5974b5","system_id":"levelo_inurba_marseille","lat":43.298433,"lon":5.362774,"is_reserved":false,"is_disabled":false,"rental_uris":{"android":"levelo://app?vid=95630a1a-2ad7-4a94-8c62-c8ae7b5974b5","ios":"levelo://app?vid=95630a1a-2ad7-4a94-8c62-c8ae7b5974b5"},"vehicle_type_id":"4","last_reported":1703070293,"current_range_meters":27200,"station_id":"ce4bgpp2rcd13ifvqc3g","pricing_plan_id":"free"},{"bike_id":"332fcce0-3288-4b02-9cf4-25831a742c7b","system_id":"levelo_inurba_marseille","lat":43.298433,"lon":5.362774,"is_reserved":false,"is_disabled":false,"rental_uris":{"android":"levelo://app?vid=332fcce0-3288-4b02-9cf4-25831a742c7b","ios":"levelo://app?vid=332fcce0-3288-4b02-9cf4-25831a742c7b"},"vehicle_type_id":"4","last_reported":1703070293,"current_range_meters":31200,"station_id":"ce4bgpp2rcd13ifvqc3g","pricing_plan_id":"free"},{"bike_id":"340cc1da-6e0c-4f71-a23e-a1883a136ea6","system_id":"levelo_inurba_marseille","lat":43.298433,"lon":5.362774,"is_reserved":false,"is_disabled":false,"rental_uris":{"android":"levelo://app?vid=340cc1da-6e0c-4f71-a23e-a1883a136ea6","ios":"levelo://app?vid=340cc1da-6e0c-4f71-a23e-a1883a136ea6"},"vehicle_type_id":"4","last_reported":1703070293,"current_range_meters":29200,"station_id":"ce4bgpp2rcd13ifvqc3g","pricing_plan_id":"free"},{"bike_id":"ca0834b0-077b-48e5-8d61-d563b65c06e3","system_id":"levelo_inurba_marseille","lat":43.305468,"lon":5.384445,"is_reserved":false,"is_disabled":false,"rental_uris":{"android":"levelo://app?vid=ca0834b0-077b-48e5-8d61-d563b65c06e3","ios":"levelo://app?vid=ca0834b0-077b-48e5-8d61-d563b65c06e3"},"vehicle_type_id":"4","last_reported":1703070293,"current_range_meters":0,"station_id":"ce4bgg92rcd13ifvqb30","pricing_plan_id":"free"},{"bike_id":"48d26b97-0491-4899-b114-02115ffbc31d","system_id":"levelo_inurba_marseille","lat":43.3121,"lon":5.38716,"is_reserved":false,"is_disabled":false,"rental_uris":{"android":"levelo://app?vid=48d26b97-0491-4899-b114-02115ffbc31d","ios":"levelo://app?vid=48d26b97-0491-4899-b114-02115ffbc31d"},"vehicle_type_id":"4","last_reported":1703070293,"current_range_meters":14400,"station_id":"ce4bgv12rcd13ifvqcp0","pricing_plan_id":"free"},{"bike_id":"fd63a2d5-2a72-4740-a6a8-f089ad667bab","system_id":"levelo_inurba_marseille","lat":43.311722,"lon":5.387247,"is_reserved":false,"is_disabled":false,"rental_uris":{"android":"levelo://app?vid=fd63a2d5-2a72-4740-a6a8-f089ad667bab","ios":"levelo://app?vid=fd63a2d5-2a72-4740-a6a8-f089ad667bab"},"vehicle_type_id":"4","last_reported":1703070293,"current_range_meters":27200,"station_id":"ce4bgv12rcd13ifvqcp0","pricing_plan_id":"free"},{"bike_id":"f2a0da90-bbd1-4b02-82e3-4421dd375dca","system_id":"levelo_inurba_marseille","lat":43.311722,"lon":5.387247,"is_reserved":false,"is_disabled":false,"rental_uris":{"android":"levelo://app?vid=f2a0da90-bbd1-4b02-82e3-4421dd375dca","ios":"levelo://app?vid=f2a0da90-bbd1-4b02-82e3-4421dd375dca"},"vehicle_type_id":"4","last_reported":1703070293,"current_range_meters":15600,"station_id":"ce4bgv12rcd13ifvqcp0","pricing_plan_id":"free"},{"bike_id":"9762eb9f-05e5-4a35-844d-ba0c22f7cb9a","system_id":"levelo_inurba_marseille","lat":43.299243,"lon":5.37481,"is_reserved":false,"is_disabled":false,"rental_uris":{"android":"levelo://app?vid=9762eb9f-05e5-4a35-844d-ba0c22f7cb9a","ios":"levelo://app?vid=9762eb9f-05e5-4a35-844d-ba0c22f7cb9a"},"vehicle_type_id":"4","last_reported":1703070293,"current_range_meters":16000,"station_id":"ce4bgjh2rcd13ifvqbg0","pricing_plan_id":"free"},{"bike_id":"04742fce-b899-4dfe-ab52-a05d5116e83a","system_id":"levelo_inurba_marseille","lat":43.322872,"lon":5.382756,"is_reserved":false,"is_disabled":false,"rental_uris":{"android":"levelo://app?vid=04742fce-b899-4dfe-ab52-a05d5116e83a","ios":"levelo://app?vid=04742fce-b899-4dfe-ab52-a05d5116e83a"},"vehicle_type_id":"4","last_reported":1703070293,"current_range_meters":30000,"station_id":"ce4bhr12rcd13ifvqhqg","pricing_plan_id":"free"},{"bike_id":"c22e4b9f-ba20-4a7c-a7c8-fd0a73d903e0","system_id":"levelo_inurba_marseille","lat":43.328284,"lon":5.366774,"is_reserved":false,"is_disabled":false,"rental_uris":{"android":"levelo://app?vid=c22e4b9f-ba20-4a7c-a7c8-fd0a73d903e0","ios":"levelo://app?vid=c22e4b9f-ba20-4a7c-a7c8-fd0a73d903e0"},"vehicle_type_id":"4","last_reported":1703070293,"current_range_meters":24000,"station_id":"ce4bhs92rcd13ifvqi0g","pricing_plan_id":"free"},{"bike_id":"48ebe570-3797-4c11-9550-8036b565ccb1","system_id":"levelo_inurba_marseille","lat":43.328287,"lon":5.366711,"is_reserved":false,"is_disabled":false,"rental_uris":{"android":"levelo://app?vid=48ebe570-3797-4c11-9550-8036b565ccb1","ios":"levelo://app?vid=48ebe570-3797-4c11-9550-8036b565ccb1"},"vehicle_type_id":"4","last_reported":1703070293,"current_range_meters":28800,"station_id":"ce4bhs92rcd13ifvqi0g","pricing_plan_id":"free"},{"bike_id":"eb8ebe7d-6983-4780-997c-9447c3c0c6e2","system_id":"levelo_inurba_marseille","lat":43.32829,"lon":5.36685,"is_reserved":false,"is_disabled":false,"rental_uris":{"android":"levelo://app?vid=eb8ebe7d-6983-4780-997c-9447c3c0c6e2","ios":"levelo://app?vid=eb8ebe7d-6983-4780-997c-9447c3c0c6e2"},"vehicle_type_id":"4","last_reported":1703070293,"current_range_meters":29200,"station_id":"ce4bhs92rcd13ifvqi0g","pricing_plan_id":"free"},{"bike_id":"c12df297-168e-4ca3-95d9-a300ff1ffbd9","system_id":"levelo_inurba_marseille","lat":43.328371,"lon":5.366909,"is_reserved":false,"is_disabled":false,"rental_uris":{"android":"levelo://app?vid=c12df297-168e-4ca3-95d9-a300ff1ffbd9","ios":"levelo://app?vid=c12df297-168e-4ca3-95d9-a300ff1ffbd9"},"vehicle_type_id":"4","last_reported":1703070293,"current_range_meters":30800,"station_id":"ce4bhs92rcd13ifvqi0g","pricing_plan_id":"free"},{"bike_id":"cb97846c-9508-4ec4-82fd-1a637ef7dd90","system_id":"levelo_inurba_marseille","lat":43.32831,"lon":5.36673,"is_reserved":false,"is_disabled":false,"rental_uris":{"android":"levelo://app?vid=cb97846c-9508-4ec4-82fd-1a637ef7dd90","ios":"levelo://app?vid=cb97846c-9508-4ec4-82fd-1a637ef7dd90"},"vehicle_type_id":"4","last_reported":1703070293,"current_range_meters":2400,"station_id":"ce4bhs92rcd13ifvqi0g","pricing_plan_id":"free"},{"bike_id":"3f4a7c0a-9bb3-46c1-bd5c-d0138c78b4a3","system_id":"levelo_inurba_marseille","lat":43.32832,"lon":5.36684,"is_reserved":false,"is_disabled":false,"rental_uris":{"android":"levelo://app?vid=3f4a7c0a-9bb3-46c1-bd5c-d0138c78b4a3","ios":"levelo://app?vid=3f4a7c0a-9bb3-46c1-bd5c-d0138c78b4a3"},"vehicle_type_id":"4","last_reported":1703070293,"current_range_meters":5200,"station_id":"ce4bhs92rcd13ifvqi0g","pricing_plan_id":"free"},{"bike_id":"2a8a59a2-86cc-48a9-8714-ae0edcb4d489","system_id":"levelo_inurba_marseille","lat":43.328326,"lon":5.366843,"is_reserved":false,"is_disabled":false,"rental_uris":{"android":"levelo://app?vid=2a8a59a2-86cc-48a9-8714-ae0edcb4d489","ios":"levelo://app?vid=2a8a59a2-86cc-48a9-8714-ae0edcb4d489"},"vehicle_type_id":"4","last_reported":1703070293,"current_range_meters":3600,"station_id":"ce4bhs92rcd13ifvqi0g","pricing_plan_id":"free"},{"bike_id":"23bb626d-892a-4cd1-87a1-9dbabcf614bf","system_id":"levelo_inurba_marseille","lat":43.297163,"lon":5.365866,"is_reserved":false,"is_disabled":false,"rental_uris":{"android":"levelo://app?vid=23bb626d-892a-4cd1-87a1-9dbabcf614bf","ios":"levelo://app?vid=23bb626d-892a-4cd1-87a1-9dbabcf614bf"},"vehicle_type_id":"4","last_reported":1703070293,"current_range_meters":27200,"station_id":"ce4bgn12rcd13ifvqbt0","pricing_plan_id":"free"},{"bike_id":"e33bf68a-73cb-4c3f-b3ae-0f22196ce2f9","system_id":"levelo_inurba_marseille","lat":43.2968,"lon":5.37291,"is_reserved":false,"is_disabled":false,"rental_uris":{"android":"levelo://app?vid=e33bf68a-73cb-4c3f-b3ae-0f22196ce2f9","ios":"levelo://app?vid=e33bf68a-73cb-4c3f-b3ae-0f22196ce2f9"},"vehicle_type_id":"4","last_reported":1703070293,"current_range_meters":28000,"station_id":"ce4bgk12rcd13ifvqbj0","pricing_plan_id":"free"},{"bike_id":"8ae19b2c-3abe-4d96-9b91-4687555d1f8c","system_id":"levelo_inurba_marseille","lat":43.29592,"lon":5.37,"is_reserved":false,"is_disabled":false,"rental_uris":{"android":"levelo://app?vid=8ae19b2c-3abe-4d96-9b91-4687555d1f8c","ios":"levelo://app?vid=8ae19b2c-3abe-4d96-9b91-4687555d1f8c"},"vehicle_type_id":"4","last_reported":1703070293,"current_range_meters":22800,"station_id":"","pricing_plan_id":"free"},{"bike_id":"8dc20474-4df3-40fe-a4f5-414c8553bf61","system_id":"levelo_inurba_marseille","lat":43.299028,"lon":5.381509,"is_reserved":false,"is_disabled":false,"rental_uris":{"android":"levelo://app?vid=8dc20474-4df3-40fe-a4f5-414c8553bf61","ios":"levelo://app?vid=8dc20474-4df3-40fe-a4f5-414c8553bf61"},"vehicle_type_id":"4","last_reported":1703070293,"current_range_meters":30400,"station_id":"ce4bgj12rcd13ifvqbc0","pricing_plan_id":"free"},{"bike_id":"9e3c4788-374c-493c-bc5c-269f2f84e2e7","system_id":"levelo_inurba_marseille","lat":43.299028,"lon":5.381509,"is_reserved":false,"is_disabled":false,"rental_uris":{"android":"levelo://app?vid=9e3c4788-374c-493c-bc5c-269f2f84e2e7","ios":"levelo://app?vid=9e3c4788-374c-493c-bc5c-269f2f84e2e7"},"vehicle_type_id":"4","last_reported":1703070293,"current_range_meters":29200,"station_id":"ce4bgj12rcd13ifvqbc0","pricing_plan_id":"free"},{"bike_id":"e5a4a627-aad7-43e4-b3d3-683d3e6c8d3f","system_id":"levelo_inurba_marseille","lat":43.299028,"lon":5.381509,"is_reserved":false,"is_disabled":false,"rental_uris":{"android":"levelo://app?vid=e5a4a627-aad7-43e4-b3d3-683d3e6c8d3f","ios":"levelo://app?vid=e5a4a627-aad7-43e4-b3d3-683d3e6c8d3f"},"vehicle_type_id":"4","last_reported":1703070293,"current_range_meters":22400,"station_id":"ce4bgj12rcd13ifvqbc0","pricing_plan_id":"free"},{"bike_id":"98b47788-ccdb-4f07-b2bd-5fec96e5707d","system_id":"levelo_inurba_marseille","lat":43.317557,"lon":5.390173,"is_reserved":false,"is_disabled":false,"rental_uris":{"android":"levelo://app?vid=98b47788-ccdb-4f07-b2bd-5fec96e5707d","ios":"levelo://app?vid=98b47788-ccdb-4f07-b2bd-5fec96e5707d"},"vehicle_type_id":"4","last_reported":1703070293,"current_range_meters":800,"station_id":"ce4bhqp2rcd13ifvqhng","pricing_plan_id":"free"},{"bike_id":"8c4fa6df-927a-41b1-8fb1-9dac069dd028","system_id":"levelo_inurba_marseille","lat":43.317557,"lon":5.390173,"is_reserved":false,"is_disabled":false,"rental_uris":{"android":"levelo://app?vid=8c4fa6df-927a-41b1-8fb1-9dac069dd028","ios":"levelo://app?vid=8c4fa6df-927a-41b1-8fb1-9dac069dd028"},"vehicle_type_id":"4","last_reported":1703070293,"current_range_meters":31600,"station_id":"ce4bhqp2rcd13ifvqhng","pricing_plan_id":"free"},{"bike_id":"4f05f73b-10ae-4528-b310-8eab82bed420","system_id":"levelo_inurba_marseille","lat":43.31754,"lon":5.39016,"is_reserved":false,"is_disabled":false,"rental_uris":{"android":"levelo://app?vid=4f05f73b-10ae-4528-b310-8eab82bed420","ios":"levelo://app?vid=4f05f73b-10ae-4528-b310-8eab82bed420"},"vehicle_type_id":"4","last_reported":1703070293,"current_range_meters":21200,"station_id":"ce4bhqp2rcd13ifvqhng","pricing_plan_id":"free"},{"bike_id":"b041e015-21f2-44ae-a5b0-923fa3a9243f","system_id":"levelo_inurba_marseille","lat":43.317557,"lon":5.390173,"is_reserved":false,"is_disabled":false,"rental_uris":{"android":"levelo://app?vid=b041e015-21f2-44ae-a5b0-923fa3a9243f","ios":"levelo://app?vid=b041e015-21f2-44ae-a5b0-923fa3a9243f"},"vehicle_type_id":"4","last_reported":1703070293,"current_range_meters":25600,"station_id":"ce4bhqp2rcd13ifvqhng","pricing_plan_id":"free"},{"bike_id":"2c677ce5-ea76-4e4a-ad89-8c32599476ab","system_id":"levelo_inurba_marseille","lat":43.297836,"lon":5.381161,"is_reserved":false,"is_disabled":false,"rental_uris":{"android":"levelo://app?vid=2c677ce5-ea76-4e4a-ad89-8c32599476ab","ios":"levelo://app?vid=2c677ce5-ea76-4e4a-ad89-8c32599476ab"},"vehicle_type_id":"4","last_reported":1703070293,"current_range_meters":0,"station_id":"ce4bgip2rcd13ifvqbb0","pricing_plan_id":"free"},{"bike_id":"f244d9dc-8d78-47c9-a764-146706137cf6","system_id":"levelo_inurba_marseille","lat":43.295279,"lon":5.375048,"is_reserved":false,"is_disabled":false,"rental_uris":{"android":"levelo://app?vid=f244d9dc-8d78-47c9-a764-146706137cf6","ios":"levelo://app?vid=f244d9dc-8d78-47c9-a764-146706137cf6"},"vehicle_type_id":"4","last_reported":1703070293,"current_range_meters":22000,"station_id":"ce4bgkp2rcd13ifvqbmg","pricing_plan_id":"free"},{"bike_id":"4276af75-66f3-4612-9f2e-2b05b5cc4008","system_id":"levelo_inurba_marseille","lat":43.302992,"lon":5.392136,"is_reserved":false,"is_disabled":false,"rental_uris":{"android":"levelo://app?vid=4276af75-66f3-4612-9f2e-2b05b5cc4008","ios":"levelo://app?vid=4276af75-66f3-4612-9f2e-2b05b5cc4008"},"vehicle_type_id":"4","last_reported":1703070293,"current_range_meters":27600,"station_id":"ce4bgkh2rcd13ifvqbk0","pricing_plan_id":"free"},{"bike_id":"9b9878e4-4250-48d3-ad88-c020f7f6cb2a","system_id":"levelo_inurba_marseille","lat":43.30294,"lon":5.39207,"is_reserved":false,"is_disabled":false,"rental_uris":{"android":"levelo://app?vid=9b9878e4-4250-48d3-ad88-c020f7f6cb2a","ios":"levelo://app?vid=9b9878e4-4250-48d3-ad88-c020f7f6cb2a"},"vehicle_type_id":"4","last_reported":1703070293,"current_range_meters":25600,"station_id":"ce4bgkh2rcd13ifvqbk0","pricing_plan_id":"free"},{"bike_id":"db3c4e0c-3187-4951-82dd-b23e9f322e9f","system_id":"levelo_inurba_marseille","lat":43.2936,"lon":5.37835,"is_reserved":false,"is_disabled":false,"rental_uris":{"android":"levelo://app?vid=db3c4e0c-3187-4951-82dd-b23e9f322e9f","ios":"levelo://app?vid=db3c4e0c-3187-4951-82dd-b23e9f322e9f"},"vehicle_type_id":"4","last_reported":1703070293,"current_range_meters":16400,"station_id":"ce4bgjh2rcd13ifvqbf0","pricing_plan_id":"free"},{"bike_id":"83af9f1b-bf9d-4da2-b8be-fe6d2a5628b5","system_id":"levelo_inurba_marseille","lat":43.292311,"lon":5.360731,"is_reserved":false,"is_disabled":false,"rental_uris":{"android":"levelo://app?vid=83af9f1b-bf9d-4da2-b8be-fe6d2a5628b5","ios":"levelo://app?vid=83af9f1b-bf9d-4da2-b8be-fe6d2a5628b5"},"vehicle_type_id":"4","last_reported":1703070293,"current_range_meters":26400,"station_id":"ce4bhbh2rcd13ifvqeqg","pricing_plan_id":"free"},{"bike_id":"57c32957-0b3a-443f-8c55-9f0ab8a4352a","system_id":"levelo_inurba_marseille","lat":43.292311,"lon":5.360731,"is_reserved":false,"is_disabled":false,"rental_uris":{"android":"levelo://app?vid=57c32957-0b3a-443f-8c55-9f0ab8a4352a","ios":"levelo://app?vid=57c32957-0b3a-443f-8c55-9f0ab8a4352a"},"vehicle_type_id":"4","last_reported":1703070293,"current_range_meters":14800,"station_id":"ce4bhbh2rcd13ifvqeqg","pricing_plan_id":"free"},{"bike_id":"c624917b-98ab-4991-ba57-153146f36992","system_id":"levelo_inurba_marseille","lat":43.300961,"lon":5.390836,"is_reserved":false,"is_disabled":false,"rental_uris":{"android":"levelo://app?vid=c624917b-98ab-4991-ba57-153146f36992","ios":"levelo://app?vid=c624917b-98ab-4991-ba57-153146f36992"},"vehicle_type_id":"4","last_reported":1703070293,"current_range_meters":25200,"station_id":"","pricing_plan_id":"free"},{"bike_id":"c0ab17ba-d98f-427c-803b-eda8374f2ee9","system_id":"levelo_inurba_marseille","lat":43.292311,"lon":5.360731,"is_reserved":false,"is_disabled":false,"rental_uris":{"android":"levelo://app?vid=c0ab17ba-d98f-427c-803b-eda8374f2ee9","ios":"levelo://app?vid=c0ab17ba-d98f-427c-803b-eda8374f2ee9"},"vehicle_type_id":"4","last_reported":1703070293,"current_range_meters":15200,"station_id":"ce4bhbh2rcd13ifvqeqg","pricing_plan_id":"free"},{"bike_id":"8029dfbe-a451-4425-afc6-db9488b7b3b1","system_id":"levelo_inurba_marseille","lat":43.295279,"lon":5.375048,"is_reserved":false,"is_disabled":false,"rental_uris":{"android":"levelo://app?vid=8029dfbe-a451-4425-afc6-db9488b7b3b1","ios":"levelo://app?vid=8029dfbe-a451-4425-afc6-db9488b7b3b1"},"vehicle_type_id":"4","last_reported":1703070293,"current_range_meters":18000,"station_id":"ce4bgkp2rcd13ifvqbmg","pricing_plan_id":"free"},{"bike_id":"67dbc710-e248-4701-92da-b94e6f063a32","system_id":"levelo_inurba_marseille","lat":43.32297,"lon":5.39239,"is_reserved":false,"is_disabled":false,"rental_uris":{"android":"levelo://app?vid=67dbc710-e248-4701-92da-b94e6f063a32","ios":"levelo://app?vid=67dbc710-e248-4701-92da-b94e6f063a32"},"vehicle_type_id":"4","last_reported":1703070293,"current_range_meters":5200,"station_id":"","pricing_plan_id":"free"},{"bike_id":"3f93e709-53c4-4945-867d-319bae2df98c","system_id":"levelo_inurba_marseille","lat":43.29269,"lon":5.37625,"is_reserved":false,"is_disabled":false,"rental_uris":{"android":"levelo://app?vid=3f93e709-53c4-4945-867d-319bae2df98c","ios":"levelo://app?vid=3f93e709-53c4-4945-867d-319bae2df98c"},"vehicle_type_id":"4","last_reported":1703070293,"current_range_meters":26800,"station_id":"","pricing_plan_id":"free"},{"bike_id":"d334c886-b6e8-48a8-b49b-94a4bc9d2b2e","system_id":"levelo_inurba_marseille","lat":43.29266,"lon":5.37624,"is_reserved":false,"is_disabled":false,"rental_uris":{"android":"levelo://app?vid=d334c886-b6e8-48a8-b49b-94a4bc9d2b2e","ios":"levelo://app?vid=d334c886-b6e8-48a8-b49b-94a4bc9d2b2e"},"vehicle_type_id":"4","last_reported":1703070293,"current_range_meters":30000,"station_id":"","pricing_plan_id":"free"},{"bike_id":"9e2b5bcd-8906-4683-bc62-46e6559b46e8","system_id":"levelo_inurba_marseille","lat":43.29267,"lon":5.37635,"is_reserved":false,"is_disabled":false,"rental_uris":{"android":"levelo://app?vid=9e2b5bcd-8906-4683-bc62-46e6559b46e8","ios":"levelo://app?vid=9e2b5bcd-8906-4683-bc62-46e6559b46e8"},"vehicle_type_id":"4","last_reported":1703070293,"current_range_meters":28800,"station_id":"","pricing_plan_id":"free"},{"bike_id":"7b9e091e-fd21-4011-807b-87b6af3fe4a2","system_id":"levelo_inurba_marseille","lat":43.29264,"lon":5.37624,"is_reserved":false,"is_disabled":false,"rental_uris":{"android":"levelo://app?vid=7b9e091e-fd21-4011-807b-87b6af3fe4a2","ios":"levelo://app?vid=7b9e091e-fd21-4011-807b-87b6af3fe4a2"},"vehicle_type_id":"4","last_reported":1703070293,"current_range_meters":27200,"station_id":"","pricing_plan_id":"free"},{"bike_id":"abbae3a2-f264-48e1-ba4d-6efa8d75d637","system_id":"levelo_inurba_marseille","lat":43.313291,"lon":5.396838,"is_reserved":false,"is_disabled":false,"rental_uris":{"android":"levelo://app?vid=abbae3a2-f264-48e1-ba4d-6efa8d75d637","ios":"levelo://app?vid=abbae3a2-f264-48e1-ba4d-6efa8d75d637"},"vehicle_type_id":"4","last_reported":1703070293,"current_range_meters":31200,"station_id":"ce4bgvp2rcd13ifvqcu0","pricing_plan_id":"free"},{"bike_id":"86d45bb2-4c67-4968-8151-6a5ec9927e9e","system_id":"levelo_inurba_marseille","lat":43.291994,"lon":5.357886,"is_reserved":false,"is_disabled":false,"rental_uris":{"android":"levelo://app?vid=86d45bb2-4c67-4968-8151-6a5ec9927e9e","ios":"levelo://app?vid=86d45bb2-4c67-4968-8151-6a5ec9927e9e"},"vehicle_type_id":"4","last_reported":1703070293,"current_range_meters":20000,"station_id":"ce4bhb12rcd13ifvqel0","pricing_plan_id":"free"},{"bike_id":"7b2686eb-0b33-4c40-8351-5982df873170","system_id":"levelo_inurba_marseille","lat":43.291994,"lon":5.357886,"is_reserved":false,"is_disabled":false,"rental_uris":{"android":"levelo://app?vid=7b2686eb-0b33-4c40-8351-5982df873170","ios":"levelo://app?vid=7b2686eb-0b33-4c40-8351-5982df873170"},"vehicle_type_id":"4","last_reported":1703070293,"current_range_meters":16000,"station_id":"ce4bhb12rcd13ifvqel0","pricing_plan_id":"free"},{"bike_id":"42103afa-f1ed-4846-9952-9a3b13e67455","system_id":"levelo_inurba_marseille","lat":43.31329,"lon":5.39693,"is_reserved":false,"is_disabled":false,"rental_uris":{"android":"levelo://app?vid=42103afa-f1ed-4846-9952-9a3b13e67455","ios":"levelo://app?vid=42103afa-f1ed-4846-9952-9a3b13e67455"},"vehicle_type_id":"4","last_reported":1703070293,"current_range_meters":18400,"station_id":"ce4bgvp2rcd13ifvqcu0","pricing_plan_id":"free"},{"bike_id":"4cf47195-d54f-4241-8210-5da6e2c08f93","system_id":"levelo_inurba_marseille","lat":43.31335,"lon":5.39693,"is_reserved":false,"is_disabled":false,"rental_uris":{"android":"levelo://app?vid=4cf47195-d54f-4241-8210-5da6e2c08f93","ios":"levelo://app?vid=4cf47195-d54f-4241-8210-5da6e2c08f93"},"vehicle_type_id":"4","last_reported":1703070293,"current_range_meters":17600,"station_id":"ce4bgvp2rcd13ifvqcu0","pricing_plan_id":"free"},{"bike_id":"657f856c-b3f6-40c2-a393-d1e678dd6a6a","system_id":"levelo_inurba_marseille","lat":43.31324,"lon":5.39694,"is_reserved":false,"is_disabled":false,"rental_uris":{"android":"levelo://app?vid=657f856c-b3f6-40c2-a393-d1e678dd6a6a","ios":"levelo://app?vid=657f856c-b3f6-40c2-a393-d1e678dd6a6a"},"vehicle_type_id":"4","last_reported":1703070293,"current_range_meters":2800,"station_id":"ce4bgvp2rcd13ifvqcu0","pricing_plan_id":"free"},{"bike_id":"28f3ee0a-a826-4162-ac73-5a2bb5f08566","system_id":"levelo_inurba_marseille","lat":43.309038,"lon":5.396546,"is_reserved":false,"is_disabled":false,"rental_uris":{"android":"levelo://app?vid=28f3ee0a-a826-4162-ac73-5a2bb5f08566","ios":"levelo://app?vid=28f3ee0a-a826-4162-ac73-5a2bb5f08566"},"vehicle_type_id":"4","last_reported":1703070293,"current_range_meters":21600,"station_id":"ce4bh012rcd13ifvqcv0","pricing_plan_id":"free"},{"bike_id":"b57de811-eaf5-4008-844c-752ef309e141","system_id":"levelo_inurba_marseille","lat":43.284538,"lon":5.358657,"is_reserved":false,"is_disabled":false,"rental_uris":{"android":"levelo://app?vid=b57de811-eaf5-4008-844c-752ef309e141","ios":"levelo://app?vid=b57de811-eaf5-4008-844c-752ef309e141"},"vehicle_type_id":"4","last_reported":1703070293,"current_range_meters":16000,"station_id":"ce4bhah2rcd13ifvqei0","pricing_plan_id":"free"},{"bike_id":"22d8b09d-b2b9-461b-9952-74efdfd4ee6a","system_id":"levelo_inurba_marseille","lat":43.290779,"lon":5.371482,"is_reserved":false,"is_disabled":false,"rental_uris":{"android":"levelo://app?vid=22d8b09d-b2b9-461b-9952-74efdfd4ee6a","ios":"levelo://app?vid=22d8b09d-b2b9-461b-9952-74efdfd4ee6a"},"vehicle_type_id":"4","last_reported":1703070293,"current_range_meters":28000,"station_id":"ce4bh5p2rcd13ifvqe4g","pricing_plan_id":"free"},{"bike_id":"652f5614-ec95-4b7f-b4ff-ff7a77bb2385","system_id":"levelo_inurba_marseille","lat":43.294153,"lon":5.386305,"is_reserved":false,"is_disabled":false,"rental_uris":{"android":"levelo://app?vid=652f5614-ec95-4b7f-b4ff-ff7a77bb2385","ios":"levelo://app?vid=652f5614-ec95-4b7f-b4ff-ff7a77bb2385"},"vehicle_type_id":"4","last_reported":1703070293,"current_range_meters":27600,"station_id":"ce4bh2h2rcd13ifvqdh0","pricing_plan_id":"free"},{"bike_id":"489c9e78-038d-4cb6-bb08-fa182cc2d203","system_id":"levelo_inurba_marseille","lat":43.289468,"lon":5.363719,"is_reserved":false,"is_disabled":false,"rental_uris":{"android":"levelo://app?vid=489c9e78-038d-4cb6-bb08-fa182cc2d203","ios":"levelo://app?vid=489c9e78-038d-4cb6-bb08-fa182cc2d203"},"vehicle_type_id":"4","last_reported":1703070293,"current_range_meters":20800,"station_id":"ce4bhc92rcd13ifvqetg","pricing_plan_id":"free"},{"bike_id":"fa7cfb0a-f2b4-4e1c-8d4f-ec0dd9a5052d","system_id":"levelo_inurba_marseille","lat":43.304296,"lon":5.397513,"is_reserved":false,"is_disabled":false,"rental_uris":{"android":"levelo://app?vid=fa7cfb0a-f2b4-4e1c-8d4f-ec0dd9a5052d","ios":"levelo://app?vid=fa7cfb0a-f2b4-4e1c-8d4f-ec0dd9a5052d"},"vehicle_type_id":"4","last_reported":1703070293,"current_range_meters":18400,"station_id":"ce4bh092rcd13ifvqd20","pricing_plan_id":"free"},{"bike_id":"5f1f4916-e79c-41a6-95ce-170492c54f78","system_id":"levelo_inurba_marseille","lat":43.304274,"lon":5.397513,"is_reserved":false,"is_disabled":false,"rental_uris":{"android":"levelo://app?vid=5f1f4916-e79c-41a6-95ce-170492c54f78","ios":"levelo://app?vid=5f1f4916-e79c-41a6-95ce-170492c54f78"},"vehicle_type_id":"4","last_reported":1703070293,"current_range_meters":21600,"station_id":"ce4bh092rcd13ifvqd20","pricing_plan_id":"free"},{"bike_id":"b7be8db5-4c10-4d2d-be03-ad28ae6679a5","system_id":"levelo_inurba_marseille","lat":43.330442,"lon":5.389148,"is_reserved":false,"is_disabled":false,"rental_uris":{"android":"levelo://app?vid=b7be8db5-4c10-4d2d-be03-ad28ae6679a5","ios":"levelo://app?vid=b7be8db5-4c10-4d2d-be03-ad28ae6679a5"},"vehicle_type_id":"4","last_reported":1703070293,"current_range_meters":0,"station_id":"ce4bhr92rcd13ifvqhrg","pricing_plan_id":"free"},{"bike_id":"39e98c13-8bf5-4359-b4b2-7b9441a1d969","system_id":"levelo_inurba_marseille","lat":43.330442,"lon":5.389148,"is_reserved":false,"is_disabled":false,"rental_uris":{"android":"levelo://app?vid=39e98c13-8bf5-4359-b4b2-7b9441a1d969","ios":"levelo://app?vid=39e98c13-8bf5-4359-b4b2-7b9441a1d969"},"vehicle_type_id":"4","last_reported":1703070293,"current_range_meters":26400,"station_id":"ce4bhr92rcd13ifvqhrg","pricing_plan_id":"free"},{"bike_id":"03792874-86d9-468e-be10-3c6851108053","system_id":"levelo_inurba_marseille","lat":43.330442,"lon":5.389148,"is_reserved":false,"is_disabled":false,"rental_uris":{"android":"levelo://app?vid=03792874-86d9-468e-be10-3c6851108053","ios":"levelo://app?vid=03792874-86d9-468e-be10-3c6851108053"},"vehicle_type_id":"4","last_reported":1703070293,"current_range_meters":18800,"station_id":"ce4bhr92rcd13ifvqhrg","pricing_plan_id":"free"},{"bike_id":"58249046-6a3a-4b79-b020-07886d3f7e14","system_id":"levelo_inurba_marseille","lat":43.290103,"lon":5.356114,"is_reserved":false,"is_disabled":false,"rental_uris":{"android":"levelo://app?vid=58249046-6a3a-4b79-b020-07886d3f7e14","ios":"levelo://app?vid=58249046-6a3a-4b79-b020-07886d3f7e14"},"vehicle_type_id":"4","last_reported":1703070293,"current_range_meters":19200,"station_id":"ce4bhb92rcd13ifvqen0","pricing_plan_id":"free"},{"bike_id":"f4448175-330a-4b90-81b4-5e0095dba149","system_id":"levelo_inurba_marseille","lat":43.290104,"lon":5.356111,"is_reserved":false,"is_disabled":false,"rental_uris":{"android":"levelo://app?vid=f4448175-330a-4b90-81b4-5e0095dba149","ios":"levelo://app?vid=f4448175-330a-4b90-81b4-5e0095dba149"},"vehicle_type_id":"4","last_reported":1703070293,"current_range_meters":30400,"station_id":"ce4bhb92rcd13ifvqen0","pricing_plan_id":"free"},{"bike_id":"db261631-400b-4861-8362-d1fce8636064","system_id":"levelo_inurba_marseille","lat":43.290995,"lon":5.381361,"is_reserved":false,"is_disabled":false,"rental_uris":{"android":"levelo://app?vid=db261631-400b-4861-8362-d1fce8636064","ios":"levelo://app?vid=db261631-400b-4861-8362-d1fce8636064"},"vehicle_type_id":"4","last_reported":1703070293,"current_range_meters":26800,"station_id":"ce4bh512rcd13ifvqe2g","pricing_plan_id":"free"},{"bike_id":"07129064-9fd3-454b-b951-acd8bdc1ee3e","system_id":"levelo_inurba_marseille","lat":43.289743,"lon":5.378304,"is_reserved":false,"is_disabled":false,"rental_uris":{"android":"levelo://app?vid=07129064-9fd3-454b-b951-acd8bdc1ee3e","ios":"levelo://app?vid=07129064-9fd3-454b-b951-acd8bdc1ee3e"},"vehicle_type_id":"4","last_reported":1703070293,"current_range_meters":19200,"station_id":"ce4bh9p2rcd13ifvqed0","pricing_plan_id":"free"},{"bike_id":"a95b0d90-e0f3-423d-824d-520a5e4e8a38","system_id":"levelo_inurba_marseille","lat":43.297881,"lon":5.393372,"is_reserved":false,"is_disabled":false,"rental_uris":{"android":"levelo://app?vid=a95b0d90-e0f3-423d-824d-520a5e4e8a38","ios":"levelo://app?vid=a95b0d90-e0f3-423d-824d-520a5e4e8a38"},"vehicle_type_id":"4","last_reported":1703070293,"current_range_meters":8400,"station_id":"chh1huq6cuj3fo74tm60","pricing_plan_id":"free"},{"bike_id":"710a7097-3fe3-460c-a931-292119ee8a3a","system_id":"levelo_inurba_marseille","lat":43.295523,"lon":5.422926,"is_reserved":false,"is_disabled":false,"rental_uris":{"android":"levelo://app?vid=710a7097-3fe3-460c-a931-292119ee8a3a","ios":"levelo://app?vid=710a7097-3fe3-460c-a931-292119ee8a3a"},"vehicle_type_id":"4","last_reported":1703070293,"current_range_meters":7200,"station_id":"ce4bhph2rcd13ifvqhdg","pricing_plan_id":"free"},{"bike_id":"6bee8cfe-5b04-4b40-b183-005af86855bd","system_id":"levelo_inurba_marseille","lat":43.295169,"lon":5.390426,"is_reserved":false,"is_disabled":false,"rental_uris":{"android":"levelo://app?vid=6bee8cfe-5b04-4b40-b183-005af86855bd","ios":"levelo://app?vid=6bee8cfe-5b04-4b40-b183-005af86855bd"},"vehicle_type_id":"4","last_reported":1703070293,"current_range_meters":22000,"station_id":"ce4bh3p2rcd13ifvqdp0","pricing_plan_id":"free"},{"bike_id":"3e006df2-5308-4406-afbb-ade199a24399","system_id":"levelo_inurba_marseille","lat":43.295169,"lon":5.390426,"is_reserved":false,"is_disabled":false,"rental_uris":{"android":"levelo://app?vid=3e006df2-5308-4406-afbb-ade199a24399","ios":"levelo://app?vid=3e006df2-5308-4406-afbb-ade199a24399"},"vehicle_type_id":"4","last_reported":1703070293,"current_range_meters":31600,"station_id":"ce4bh3p2rcd13ifvqdp0","pricing_plan_id":"free"},{"bike_id":"5a927ca9-afc9-4c9a-9943-73b5401e61d4","system_id":"levelo_inurba_marseille","lat":43.295169,"lon":5.390426,"is_reserved":false,"is_disabled":false,"rental_uris":{"android":"levelo://app?vid=5a927ca9-afc9-4c9a-9943-73b5401e61d4","ios":"levelo://app?vid=5a927ca9-afc9-4c9a-9943-73b5401e61d4"},"vehicle_type_id":"4","last_reported":1703070293,"current_range_meters":26800,"station_id":"ce4bh3p2rcd13ifvqdp0","pricing_plan_id":"free"},{"bike_id":"23ed2f3e-f2db-4353-ba59-97598789adb7","system_id":"levelo_inurba_marseille","lat":43.295169,"lon":5.390426,"is_reserved":false,"is_disabled":false,"rental_uris":{"android":"levelo://app?vid=23ed2f3e-f2db-4353-ba59-97598789adb7","ios":"levelo://app?vid=23ed2f3e-f2db-4353-ba59-97598789adb7"},"vehicle_type_id":"4","last_reported":1703070293,"current_range_meters":20800,"station_id":"ce4bh3p2rcd13ifvqdp0","pricing_plan_id":"free"},{"bike_id":"f12c32d2-dd69-4e65-bddc-a2733f53cbc5","system_id":"levelo_inurba_marseille","lat":43.28856,"lon":5.358371,"is_reserved":false,"is_disabled":false,"rental_uris":{"android":"levelo://app?vid=f12c32d2-dd69-4e65-bddc-a2733f53cbc5","ios":"levelo://app?vid=f12c32d2-dd69-4e65-bddc-a2733f53cbc5"},"vehicle_type_id":"4","last_reported":1703070293,"current_range_meters":20400,"station_id":"ce4bhb12rcd13ifvqem0","pricing_plan_id":"free"},{"bike_id":"198517f6-5aaa-4eeb-bf28-6e516a54cbf9","system_id":"levelo_inurba_marseille","lat":43.28856,"lon":5.358371,"is_reserved":false,"is_disabled":false,"rental_uris":{"android":"levelo://app?vid=198517f6-5aaa-4eeb-bf28-6e516a54cbf9","ios":"levelo://app?vid=198517f6-5aaa-4eeb-bf28-6e516a54cbf9"},"vehicle_type_id":"4","last_reported":1703070293,"current_range_meters":18400,"station_id":"ce4bhb12rcd13ifvqem0","pricing_plan_id":"free"},{"bike_id":"c6ca5820-f43b-47a9-b8d4-9067df50a809","system_id":"levelo_inurba_marseille","lat":43.28856,"lon":5.358371,"is_reserved":false,"is_disabled":false,"rental_uris":{"android":"levelo://app?vid=c6ca5820-f43b-47a9-b8d4-9067df50a809","ios":"levelo://app?vid=c6ca5820-f43b-47a9-b8d4-9067df50a809"},"vehicle_type_id":"4","last_reported":1703070293,"current_range_meters":14400,"station_id":"ce4bhb12rcd13ifvqem0","pricing_plan_id":"free"},{"bike_id":"e325d832-2f8b-4eb7-843f-bbcb2531b63e","system_id":"levelo_inurba_marseille","lat":43.312609,"lon":5.401662,"is_reserved":false,"is_disabled":false,"rental_uris":{"android":"levelo://app?vid=e325d832-2f8b-4eb7-843f-bbcb2531b63e","ios":"levelo://app?vid=e325d832-2f8b-4eb7-843f-bbcb2531b63e"},"vehicle_type_id":"4","last_reported":1703070293,"current_range_meters":29200,"station_id":"ce4bh092rcd13ifvqd30","pricing_plan_id":"free"},{"bike_id":"8253abcd-b52e-4650-a2af-38e920e76174","system_id":"levelo_inurba_marseille","lat":43.33746,"lon":5.37445,"is_reserved":false,"is_disabled":false,"rental_uris":{"android":"levelo://app?vid=8253abcd-b52e-4650-a2af-38e920e76174","ios":"levelo://app?vid=8253abcd-b52e-4650-a2af-38e920e76174"},"vehicle_type_id":"4","last_reported":1703070293,"current_range_meters":28800,"station_id":"","pricing_plan_id":"free"},{"bike_id":"efc8b483-666b-48da-afa0-0447382868fd","system_id":"levelo_inurba_marseille","lat":43.337446,"lon":5.374729,"is_reserved":false,"is_disabled":false,"rental_uris":{"android":"levelo://app?vid=efc8b483-666b-48da-afa0-0447382868fd","ios":"levelo://app?vid=efc8b483-666b-48da-afa0-0447382868fd"},"vehicle_type_id":"4","last_reported":1703070293,"current_range_meters":27600,"station_id":"","pricing_plan_id":"free"},{"bike_id":"403c1361-abc8-4268-a3c9-bcc5633b980b","system_id":"levelo_inurba_marseille","lat":43.33754,"lon":5.37452,"is_reserved":false,"is_disabled":false,"rental_uris":{"android":"levelo://app?vid=403c1361-abc8-4268-a3c9-bcc5633b980b","ios":"levelo://app?vid=403c1361-abc8-4268-a3c9-bcc5633b980b"},"vehicle_type_id":"4","last_reported":1703070293,"current_range_meters":16000,"station_id":"","pricing_plan_id":"free"},{"bike_id":"eb92f4b6-7172-4cbc-8aea-44232095fe3f","system_id":"levelo_inurba_marseille","lat":43.33763,"lon":5.37466,"is_reserved":false,"is_disabled":false,"rental_uris":{"android":"levelo://app?vid=eb92f4b6-7172-4cbc-8aea-44232095fe3f","ios":"levelo://app?vid=eb92f4b6-7172-4cbc-8aea-44232095fe3f"},"vehicle_type_id":"4","last_reported":1703070293,"current_range_meters":18800,"station_id":"","pricing_plan_id":"free"},{"bike_id":"9e843396-4fa0-49d8-b866-9e9c6f631dac","system_id":"levelo_inurba_marseille","lat":43.30136,"lon":5.39877,"is_reserved":false,"is_disabled":false,"rental_uris":{"android":"levelo://app?vid=9e843396-4fa0-49d8-b866-9e9c6f631dac","ios":"levelo://app?vid=9e843396-4fa0-49d8-b866-9e9c6f631dac"},"vehicle_type_id":"4","last_reported":1703070293,"current_range_meters":0,"station_id":"ce4bh0h2rcd13ifvqd40","pricing_plan_id":"free"},{"bike_id":"3609f89c-3889-45c6-9aaa-45f614634c53","system_id":"levelo_inurba_marseille","lat":43.287216,"lon":5.360862,"is_reserved":false,"is_disabled":false,"rental_uris":{"android":"levelo://app?vid=3609f89c-3889-45c6-9aaa-45f614634c53","ios":"levelo://app?vid=3609f89c-3889-45c6-9aaa-45f614634c53"},"vehicle_type_id":"4","last_reported":1703070293,"current_range_meters":0,"station_id":"cki0cbj6b192h4jlfktg","pricing_plan_id":"free"},{"bike_id":"67b169eb-dd00-47e8-8bed-1da00970994d","system_id":"levelo_inurba_marseille","lat":43.286591,"lon":5.363346,"is_reserved":false,"is_disabled":false,"rental_uris":{"android":"levelo://app?vid=67b169eb-dd00-47e8-8bed-1da00970994d","ios":"levelo://app?vid=67b169eb-dd00-47e8-8bed-1da00970994d"},"vehicle_type_id":"4","last_reported":1703070293,"current_range_meters":24800,"station_id":"ce4bhah2rcd13ifvqej0","pricing_plan_id":"free"},{"bike_id":"ec6c7893-e0b4-459b-9160-2ef2da9bdf85","system_id":"levelo_inurba_marseille","lat":43.295196,"lon":5.39397,"is_reserved":false,"is_disabled":false,"rental_uris":{"android":"levelo://app?vid=ec6c7893-e0b4-459b-9160-2ef2da9bdf85","ios":"levelo://app?vid=ec6c7893-e0b4-459b-9160-2ef2da9bdf85"},"vehicle_type_id":"4","last_reported":1703070293,"current_range_meters":25600,"station_id":"ce4bh292rcd13ifvqdf0","pricing_plan_id":"free"},{"bike_id":"81512f18-2c49-45f5-9f06-175c3a50a794","system_id":"levelo_inurba_marseille","lat":43.295194,"lon":5.39397,"is_reserved":false,"is_disabled":false,"rental_uris":{"android":"levelo://app?vid=81512f18-2c49-45f5-9f06-175c3a50a794","ios":"levelo://app?vid=81512f18-2c49-45f5-9f06-175c3a50a794"},"vehicle_type_id":"4","last_reported":1703070293,"current_range_meters":26000,"station_id":"ce4bh292rcd13ifvqdf0","pricing_plan_id":"free"},{"bike_id":"f4788d0d-8f46-4243-bf7a-9fa1b5fa7389","system_id":"levelo_inurba_marseille","lat":43.286039,"lon":5.370679,"is_reserved":false,"is_disabled":false,"rental_uris":{"android":"levelo://app?vid=f4788d0d-8f46-4243-bf7a-9fa1b5fa7389","ios":"levelo://app?vid=f4788d0d-8f46-4243-bf7a-9fa1b5fa7389"},"vehicle_type_id":"4","last_reported":1703070293,"current_range_meters":18000,"station_id":"ce4bht12rcd13ifvqi60","pricing_plan_id":"free"},{"bike_id":"657577b9-aac4-4653-8b6b-22f49e62594d","system_id":"levelo_inurba_marseille","lat":43.286039,"lon":5.370679,"is_reserved":false,"is_disabled":false,"rental_uris":{"android":"levelo://app?vid=657577b9-aac4-4653-8b6b-22f49e62594d","ios":"levelo://app?vid=657577b9-aac4-4653-8b6b-22f49e62594d"},"vehicle_type_id":"4","last_reported":1703070293,"current_range_meters":22800,"station_id":"ce4bht12rcd13ifvqi60","pricing_plan_id":"free"},{"bike_id":"3d2051bd-06cd-4f22-88f0-25246b43ff85","system_id":"levelo_inurba_marseille","lat":43.286039,"lon":5.370679,"is_reserved":false,"is_disabled":false,"rental_uris":{"android":"levelo://app?vid=3d2051bd-06cd-4f22-88f0-25246b43ff85","ios":"levelo://app?vid=3d2051bd-06cd-4f22-88f0-25246b43ff85"},"vehicle_type_id":"4","last_reported":1703070293,"current_range_meters":19200,"station_id":"ce4bht12rcd13ifvqi60","pricing_plan_id":"free"},{"bike_id":"7c917656-58ce-4a62-ad23-28738a69c127","system_id":"levelo_inurba_marseille","lat":43.291994,"lon":5.392907,"is_reserved":false,"is_disabled":false,"rental_uris":{"android":"levelo://app?vid=7c917656-58ce-4a62-ad23-28738a69c127","ios":"levelo://app?vid=7c917656-58ce-4a62-ad23-28738a69c127"},"vehicle_type_id":"4","last_reported":1703070293,"current_range_meters":25600,"station_id":"ce4bh192rcd13ifvqdd0","pricing_plan_id":"free"},{"bike_id":"ec5229eb-b685-42e8-aff1-279f3eaf24bd","system_id":"levelo_inurba_marseille","lat":43.285856,"lon":5.350771,"is_reserved":false,"is_disabled":false,"rental_uris":{"android":"levelo://app?vid=ec5229eb-b685-42e8-aff1-279f3eaf24bd","ios":"levelo://app?vid=ec5229eb-b685-42e8-aff1-279f3eaf24bd"},"vehicle_type_id":"4","last_reported":1703070293,"current_range_meters":21600,"station_id":"ce4bhch2rcd13ifvqeug","pricing_plan_id":"free"},{"bike_id":"9da8fac5-64c9-4047-9f20-d8280d4a03a5","system_id":"levelo_inurba_marseille","lat":43.285856,"lon":5.350771,"is_reserved":false,"is_disabled":false,"rental_uris":{"android":"levelo://app?vid=9da8fac5-64c9-4047-9f20-d8280d4a03a5","ios":"levelo://app?vid=9da8fac5-64c9-4047-9f20-d8280d4a03a5"},"vehicle_type_id":"4","last_reported":1703070293,"current_range_meters":23600,"station_id":"ce4bhch2rcd13ifvqeug","pricing_plan_id":"free"},{"bike_id":"5f0e7b91-fd31-48f9-882c-75e0788e850b","system_id":"levelo_inurba_marseille","lat":43.285848,"lon":5.350787,"is_reserved":false,"is_disabled":false,"rental_uris":{"android":"levelo://app?vid=5f0e7b91-fd31-48f9-882c-75e0788e850b","ios":"levelo://app?vid=5f0e7b91-fd31-48f9-882c-75e0788e850b"},"vehicle_type_id":"4","last_reported":1703070293,"current_range_meters":29200,"station_id":"ce4bhch2rcd13ifvqeug","pricing_plan_id":"free"},{"bike_id":"d01fcdac-7d59-46ae-9572-c69e6fb89425","system_id":"levelo_inurba_marseille","lat":43.285856,"lon":5.350771,"is_reserved":false,"is_disabled":false,"rental_uris":{"android":"levelo://app?vid=d01fcdac-7d59-46ae-9572-c69e6fb89425","ios":"levelo://app?vid=d01fcdac-7d59-46ae-9572-c69e6fb89425"},"vehicle_type_id":"4","last_reported":1703070293,"current_range_meters":21600,"station_id":"ce4bhch2rcd13ifvqeug","pricing_plan_id":"free"},{"bike_id":"49964326-b440-4643-b68a-b7c2e002a950","system_id":"levelo_inurba_marseille","lat":43.285856,"lon":5.350771,"is_reserved":false,"is_disabled":false,"rental_uris":{"android":"levelo://app?vid=49964326-b440-4643-b68a-b7c2e002a950","ios":"levelo://app?vid=49964326-b440-4643-b68a-b7c2e002a950"},"vehicle_type_id":"4","last_reported":1703070293,"current_range_meters":31200,"station_id":"ce4bhch2rcd13ifvqeug","pricing_plan_id":"free"},{"bike_id":"4ef38a78-ea10-485e-b7cf-e8d05774cec2","system_id":"levelo_inurba_marseille","lat":43.285856,"lon":5.350771,"is_reserved":false,"is_disabled":false,"rental_uris":{"android":"levelo://app?vid=4ef38a78-ea10-485e-b7cf-e8d05774cec2","ios":"levelo://app?vid=4ef38a78-ea10-485e-b7cf-e8d05774cec2"},"vehicle_type_id":"4","last_reported":1703070293,"current_range_meters":27600,"station_id":"ce4bhch2rcd13ifvqeug","pricing_plan_id":"free"},{"bike_id":"6f3f03c4-fb4d-4137-85d3-bde8ad0bd2b8","system_id":"levelo_inurba_marseille","lat":43.283998,"lon":5.375062,"is_reserved":false,"is_disabled":false,"rental_uris":{"android":"levelo://app?vid=6f3f03c4-fb4d-4137-85d3-bde8ad0bd2b8","ios":"levelo://app?vid=6f3f03c4-fb4d-4137-85d3-bde8ad0bd2b8"},"vehicle_type_id":"4","last_reported":1703070293,"current_range_meters":12400,"station_id":"ce4bh412rcd13ifvqds0","pricing_plan_id":"free"},{"bike_id":"8538e6dd-dbef-4a5a-a119-9a857fd021ad","system_id":"levelo_inurba_marseille","lat":43.33218,"lon":5.397067,"is_reserved":false,"is_disabled":false,"rental_uris":{"android":"levelo://app?vid=8538e6dd-dbef-4a5a-a119-9a857fd021ad","ios":"levelo://app?vid=8538e6dd-dbef-4a5a-a119-9a857fd021ad"},"vehicle_type_id":"4","last_reported":1703070293,"current_range_meters":0,"station_id":"","pricing_plan_id":"free"},{"bike_id":"2575ff5e-4fba-4103-9284-a572df2972b0","system_id":"levelo_inurba_marseille","lat":43.295713,"lon":5.399639,"is_reserved":false,"is_disabled":false,"rental_uris":{"android":"levelo://app?vid=2575ff5e-4fba-4103-9284-a572df2972b0","ios":"levelo://app?vid=2575ff5e-4fba-4103-9284-a572df2972b0"},"vehicle_type_id":"4","last_reported":1703070293,"current_range_meters":22800,"station_id":"ce4bh312rcd13ifvqdj0","pricing_plan_id":"free"},{"bike_id":"59c894e7-170c-4c66-b8df-4219f32af364","system_id":"levelo_inurba_marseille","lat":43.319179,"lon":5.407725,"is_reserved":false,"is_disabled":false,"rental_uris":{"android":"levelo://app?vid=59c894e7-170c-4c66-b8df-4219f32af364","ios":"levelo://app?vid=59c894e7-170c-4c66-b8df-4219f32af364"},"vehicle_type_id":"4","last_reported":1703070293,"current_range_meters":26800,"station_id":"ce4bhq12rcd13ifvqhig","pricing_plan_id":"free"},{"bike_id":"0e6bbc92-cec6-497f-ad89-d75d7e889db3","system_id":"levelo_inurba_marseille","lat":43.33717,"lon":5.391857,"is_reserved":false,"is_disabled":false,"rental_uris":{"android":"levelo://app?vid=0e6bbc92-cec6-497f-ad89-d75d7e889db3","ios":"levelo://app?vid=0e6bbc92-cec6-497f-ad89-d75d7e889db3"},"vehicle_type_id":"4","last_reported":1703070293,"current_range_meters":29600,"station_id":"ce4bhr92rcd13ifvqhsg","pricing_plan_id":"free"},{"bike_id":"69705908-4b6a-4709-a265-798e5697b8bf","system_id":"levelo_inurba_marseille","lat":43.323464,"lon":5.406297,"is_reserved":false,"is_disabled":false,"rental_uris":{"android":"levelo://app?vid=69705908-4b6a-4709-a265-798e5697b8bf","ios":"levelo://app?vid=69705908-4b6a-4709-a265-798e5697b8bf"},"vehicle_type_id":"4","last_reported":1703070293,"current_range_meters":31600,"station_id":"ce4bhq92rcd13ifvqhjg","pricing_plan_id":"free"},{"bike_id":"c3d37a83-4535-4b89-9eb5-8b37095ba839","system_id":"levelo_inurba_marseille","lat":43.337168,"lon":5.391825,"is_reserved":false,"is_disabled":false,"rental_uris":{"android":"levelo://app?vid=c3d37a83-4535-4b89-9eb5-8b37095ba839","ios":"levelo://app?vid=c3d37a83-4535-4b89-9eb5-8b37095ba839"},"vehicle_type_id":"4","last_reported":1703070293,"current_range_meters":30400,"station_id":"ce4bhr92rcd13ifvqhsg","pricing_plan_id":"free"},{"bike_id":"d3b8a933-bb32-4027-8cd2-ea28e07b8fa8","system_id":"levelo_inurba_marseille","lat":43.337168,"lon":5.391825,"is_reserved":false,"is_disabled":false,"rental_uris":{"android":"levelo://app?vid=d3b8a933-bb32-4027-8cd2-ea28e07b8fa8","ios":"levelo://app?vid=d3b8a933-bb32-4027-8cd2-ea28e07b8fa8"},"vehicle_type_id":"4","last_reported":1703070293,"current_range_meters":24800,"station_id":"ce4bhr92rcd13ifvqhsg","pricing_plan_id":"free"},{"bike_id":"cc5f0d91-c1f2-4dba-880e-058d280a9161","system_id":"levelo_inurba_marseille","lat":43.284793,"lon":5.384119,"is_reserved":false,"is_disabled":false,"rental_uris":{"android":"levelo://app?vid=cc5f0d91-c1f2-4dba-880e-058d280a9161","ios":"levelo://app?vid=cc5f0d91-c1f2-4dba-880e-058d280a9161"},"vehicle_type_id":"4","last_reported":1703070293,"current_range_meters":25600,"station_id":"ce4bh512rcd13ifvqe3g","pricing_plan_id":"free"},{"bike_id":"2c7907b3-c901-4f29-becb-6395e1a50b59","system_id":"levelo_inurba_marseille","lat":43.284217,"lon":5.349697,"is_reserved":false,"is_disabled":false,"rental_uris":{"android":"levelo://app?vid=2c7907b3-c901-4f29-becb-6395e1a50b59","ios":"levelo://app?vid=2c7907b3-c901-4f29-becb-6395e1a50b59"},"vehicle_type_id":"4","last_reported":1703070293,"current_range_meters":32000,"station_id":"ce4bhbh2rcd13ifvqepg","pricing_plan_id":"free"},{"bike_id":"726979c8-c13b-4929-9cb5-2dffd4a3f969","system_id":"levelo_inurba_marseille","lat":43.284217,"lon":5.349697,"is_reserved":false,"is_disabled":false,"rental_uris":{"android":"levelo://app?vid=726979c8-c13b-4929-9cb5-2dffd4a3f969","ios":"levelo://app?vid=726979c8-c13b-4929-9cb5-2dffd4a3f969"},"vehicle_type_id":"4","last_reported":1703070293,"current_range_meters":14000,"station_id":"ce4bhbh2rcd13ifvqepg","pricing_plan_id":"free"},{"bike_id":"b3612eca-d74c-47b8-9a34-dca88f158e39","system_id":"levelo_inurba_marseille","lat":43.284217,"lon":5.349697,"is_reserved":false,"is_disabled":false,"rental_uris":{"android":"levelo://app?vid=b3612eca-d74c-47b8-9a34-dca88f158e39","ios":"levelo://app?vid=b3612eca-d74c-47b8-9a34-dca88f158e39"},"vehicle_type_id":"4","last_reported":1703070293,"current_range_meters":24400,"station_id":"ce4bhbh2rcd13ifvqepg","pricing_plan_id":"free"},{"bike_id":"f74a5aad-a9d7-4925-a298-2c2c08c44a5d","system_id":"levelo_inurba_marseille","lat":43.284217,"lon":5.349697,"is_reserved":false,"is_disabled":false,"rental_uris":{"android":"levelo://app?vid=f74a5aad-a9d7-4925-a298-2c2c08c44a5d","ios":"levelo://app?vid=f74a5aad-a9d7-4925-a298-2c2c08c44a5d"},"vehicle_type_id":"4","last_reported":1703070293,"current_range_meters":27600,"station_id":"ce4bhbh2rcd13ifvqepg","pricing_plan_id":"free"},{"bike_id":"a1745661-722f-41b0-8dbc-7c6d297e9d7d","system_id":"levelo_inurba_marseille","lat":43.284217,"lon":5.349697,"is_reserved":false,"is_disabled":false,"rental_uris":{"android":"levelo://app?vid=a1745661-722f-41b0-8dbc-7c6d297e9d7d","ios":"levelo://app?vid=a1745661-722f-41b0-8dbc-7c6d297e9d7d"},"vehicle_type_id":"4","last_reported":1703070293,"current_range_meters":26000,"station_id":"ce4bhbh2rcd13ifvqepg","pricing_plan_id":"free"},{"bike_id":"438b017b-c7d3-46c4-9f6c-ca828929870e","system_id":"levelo_inurba_marseille","lat":43.284219,"lon":5.3497,"is_reserved":false,"is_disabled":false,"rental_uris":{"android":"levelo://app?vid=438b017b-c7d3-46c4-9f6c-ca828929870e","ios":"levelo://app?vid=438b017b-c7d3-46c4-9f6c-ca828929870e"},"vehicle_type_id":"4","last_reported":1703070293,"current_range_meters":18000,"station_id":"ce4bhbh2rcd13ifvqepg","pricing_plan_id":"free"},{"bike_id":"93149546-b8fe-4f4c-8569-13fc229684a1","system_id":"levelo_inurba_marseille","lat":43.284123,"lon":5.385443,"is_reserved":false,"is_disabled":false,"rental_uris":{"android":"levelo://app?vid=93149546-b8fe-4f4c-8569-13fc229684a1","ios":"levelo://app?vid=93149546-b8fe-4f4c-8569-13fc229684a1"},"vehicle_type_id":"4","last_reported":1703070293,"current_range_meters":0,"station_id":"","pricing_plan_id":"free"},{"bike_id":"7415b361-4875-4231-90b5-c9caee2a9d88","system_id":"levelo_inurba_marseille","lat":43.282664,"lon":5.350646,"is_reserved":false,"is_disabled":false,"rental_uris":{"android":"levelo://app?vid=7415b361-4875-4231-90b5-c9caee2a9d88","ios":"levelo://app?vid=7415b361-4875-4231-90b5-c9caee2a9d88"},"vehicle_type_id":"4","last_reported":1703070293,"current_range_meters":23200,"station_id":"ce4bhbp2rcd13ifvqerg","pricing_plan_id":"free"},{"bike_id":"e8b115cd-4d80-4f61-8be5-9d6ffe10727d","system_id":"levelo_inurba_marseille","lat":43.282744,"lon":5.350533,"is_reserved":false,"is_disabled":false,"rental_uris":{"android":"levelo://app?vid=e8b115cd-4d80-4f61-8be5-9d6ffe10727d","ios":"levelo://app?vid=e8b115cd-4d80-4f61-8be5-9d6ffe10727d"},"vehicle_type_id":"4","last_reported":1703070293,"current_range_meters":12800,"station_id":"ce4bhbp2rcd13ifvqerg","pricing_plan_id":"free"},{"bike_id":"ab6802ee-ba48-41df-a81d-86df9aeafc0b","system_id":"levelo_inurba_marseille","lat":43.29036,"lon":5.39967,"is_reserved":false,"is_disabled":false,"rental_uris":{"android":"levelo://app?vid=ab6802ee-ba48-41df-a81d-86df9aeafc0b","ios":"levelo://app?vid=ab6802ee-ba48-41df-a81d-86df9aeafc0b"},"vehicle_type_id":"4","last_reported":1703070293,"current_range_meters":4800,"station_id":"ce4bh392rcd13ifvqdm0","pricing_plan_id":"free"},{"bike_id":"030bffd7-0a95-4cdd-856c-a635ab0dacb4","system_id":"levelo_inurba_marseille","lat":43.28573,"lon":5.394992,"is_reserved":false,"is_disabled":false,"rental_uris":{"android":"levelo://app?vid=030bffd7-0a95-4cdd-856c-a635ab0dacb4","ios":"levelo://app?vid=030bffd7-0a95-4cdd-856c-a635ab0dacb4"},"vehicle_type_id":"4","last_reported":1703070293,"current_range_meters":18800,"station_id":"ce4bh292rcd13ifvqdg0","pricing_plan_id":"free"},{"bike_id":"e7b34d7e-c83e-4f14-a438-0fda63198853","system_id":"levelo_inurba_marseille","lat":43.304188,"lon":5.412904,"is_reserved":false,"is_disabled":false,"rental_uris":{"android":"levelo://app?vid=e7b34d7e-c83e-4f14-a438-0fda63198853","ios":"levelo://app?vid=e7b34d7e-c83e-4f14-a438-0fda63198853"},"vehicle_type_id":"4","last_reported":1703070293,"current_range_meters":800,"station_id":"ce4bhop2rcd13ifvqh8g","pricing_plan_id":"free"},{"bike_id":"d876af96-5744-47cb-86eb-5a0ecfae3873","system_id":"levelo_inurba_marseille","lat":43.304188,"lon":5.412904,"is_reserved":false,"is_disabled":false,"rental_uris":{"android":"levelo://app?vid=d876af96-5744-47cb-86eb-5a0ecfae3873","ios":"levelo://app?vid=d876af96-5744-47cb-86eb-5a0ecfae3873"},"vehicle_type_id":"4","last_reported":1703070293,"current_range_meters":31600,"station_id":"ce4bhop2rcd13ifvqh8g","pricing_plan_id":"free"},{"bike_id":"9c39c97d-8ed5-4d1e-a032-f1fe506fa938","system_id":"levelo_inurba_marseille","lat":43.287154,"lon":5.399979,"is_reserved":false,"is_disabled":false,"rental_uris":{"android":"levelo://app?vid=9c39c97d-8ed5-4d1e-a032-f1fe506fa938","ios":"levelo://app?vid=9c39c97d-8ed5-4d1e-a032-f1fe506fa938"},"vehicle_type_id":"4","last_reported":1703070293,"current_range_meters":25600,"station_id":"ce4bho92rcd13ifvqh3g","pricing_plan_id":"free"},{"bike_id":"5f311383-ea2a-4200-b074-8b88afed6150","system_id":"levelo_inurba_marseille","lat":43.287154,"lon":5.399979,"is_reserved":false,"is_disabled":false,"rental_uris":{"android":"levelo://app?vid=5f311383-ea2a-4200-b074-8b88afed6150","ios":"levelo://app?vid=5f311383-ea2a-4200-b074-8b88afed6150"},"vehicle_type_id":"4","last_reported":1703070293,"current_range_meters":18800,"station_id":"ce4bho92rcd13ifvqh3g","pricing_plan_id":"free"},{"bike_id":"cb0668d4-d46c-4efe-a7e0-185ebe495ab4","system_id":"levelo_inurba_marseille","lat":43.28056,"lon":5.389215,"is_reserved":false,"is_disabled":false,"rental_uris":{"android":"levelo://app?vid=cb0668d4-d46c-4efe-a7e0-185ebe495ab4","ios":"levelo://app?vid=cb0668d4-d46c-4efe-a7e0-185ebe495ab4"},"vehicle_type_id":"4","last_reported":1703070293,"current_range_meters":8000,"station_id":"","pricing_plan_id":"free"},{"bike_id":"0936101b-6b11-4a99-acf4-9742d9eecb36","system_id":"levelo_inurba_marseille","lat":43.320045,"lon":5.415046,"is_reserved":false,"is_disabled":false,"rental_uris":{"android":"levelo://app?vid=0936101b-6b11-4a99-acf4-9742d9eecb36","ios":"levelo://app?vid=0936101b-6b11-4a99-acf4-9742d9eecb36"},"vehicle_type_id":"4","last_reported":1703070293,"current_range_meters":31200,"station_id":"ce4bhq92rcd13ifvqhkg","pricing_plan_id":"free"},{"bike_id":"cae4be8c-9931-45a0-b1f5-eea5cab77a6f","system_id":"levelo_inurba_marseille","lat":43.320045,"lon":5.415048,"is_reserved":false,"is_disabled":false,"rental_uris":{"android":"levelo://app?vid=cae4be8c-9931-45a0-b1f5-eea5cab77a6f","ios":"levelo://app?vid=cae4be8c-9931-45a0-b1f5-eea5cab77a6f"},"vehicle_type_id":"4","last_reported":1703070293,"current_range_meters":27600,"station_id":"ce4bhq92rcd13ifvqhkg","pricing_plan_id":"free"},{"bike_id":"c04f7847-332b-4a7f-bb51-a79593d4a891","system_id":"levelo_inurba_marseille","lat":43.292569,"lon":5.409107,"is_reserved":false,"is_disabled":false,"rental_uris":{"android":"levelo://app?vid=c04f7847-332b-4a7f-bb51-a79593d4a891","ios":"levelo://app?vid=c04f7847-332b-4a7f-bb51-a79593d4a891"},"vehicle_type_id":"4","last_reported":1703070293,"current_range_meters":14000,"station_id":"ce4bh192rcd13ifvqdc0","pricing_plan_id":"free"},{"bike_id":"ae97ba37-8759-486d-94a5-f27bc8d713dd","system_id":"levelo_inurba_marseille","lat":43.27618,"lon":5.361009,"is_reserved":false,"is_disabled":false,"rental_uris":{"android":"levelo://app?vid=ae97ba37-8759-486d-94a5-f27bc8d713dd","ios":"levelo://app?vid=ae97ba37-8759-486d-94a5-f27bc8d713dd"},"vehicle_type_id":"4","last_reported":1703070293,"current_range_meters":26000,"station_id":"ce4bgj92rcd13ifvqbe0","pricing_plan_id":"free"},{"bike_id":"43341354-8628-469d-92f5-2938400795a1","system_id":"levelo_inurba_marseille","lat":43.280784,"lon":5.396622,"is_reserved":false,"is_disabled":false,"rental_uris":{"android":"levelo://app?vid=43341354-8628-469d-92f5-2938400795a1","ios":"levelo://app?vid=43341354-8628-469d-92f5-2938400795a1"},"vehicle_type_id":"4","last_reported":1703070293,"current_range_meters":15600,"station_id":"ce4bho12rcd13ifvqh2g","pricing_plan_id":"free"},{"bike_id":"f1c2c6d6-fb76-4a49-8998-7610a1ec8923","system_id":"levelo_inurba_marseille","lat":43.303837,"lon":5.418724,"is_reserved":false,"is_disabled":false,"rental_uris":{"android":"levelo://app?vid=f1c2c6d6-fb76-4a49-8998-7610a1ec8923","ios":"levelo://app?vid=f1c2c6d6-fb76-4a49-8998-7610a1ec8923"},"vehicle_type_id":"4","last_reported":1703070293,"current_range_meters":18000,"station_id":"ce4bhop2rcd13ifvqh7g","pricing_plan_id":"free"},{"bike_id":"3ea38dad-951e-4b82-9bb8-6edbfb6606e8","system_id":"levelo_inurba_marseille","lat":43.303837,"lon":5.418724,"is_reserved":false,"is_disabled":false,"rental_uris":{"android":"levelo://app?vid=3ea38dad-951e-4b82-9bb8-6edbfb6606e8","ios":"levelo://app?vid=3ea38dad-951e-4b82-9bb8-6edbfb6606e8"},"vehicle_type_id":"4","last_reported":1703070293,"current_range_meters":23200,"station_id":"ce4bhop2rcd13ifvqh7g","pricing_plan_id":"free"},{"bike_id":"6f9f435a-37c8-40c8-8b70-fb2105068251","system_id":"levelo_inurba_marseille","lat":43.278399,"lon":5.392139,"is_reserved":false,"is_disabled":false,"rental_uris":{"android":"levelo://app?vid=6f9f435a-37c8-40c8-8b70-fb2105068251","ios":"levelo://app?vid=6f9f435a-37c8-40c8-8b70-fb2105068251"},"vehicle_type_id":"4","last_reported":1703070293,"current_range_meters":26000,"station_id":"ce4bhjp2rcd13ifvqga0","pricing_plan_id":"free"},{"bike_id":"c21d8b79-8f7f-448f-bff8-d2d54c0cde2d","system_id":"levelo_inurba_marseille","lat":43.273613,"lon":5.362705,"is_reserved":false,"is_disabled":false,"rental_uris":{"android":"levelo://app?vid=c21d8b79-8f7f-448f-bff8-d2d54c0cde2d","ios":"levelo://app?vid=c21d8b79-8f7f-448f-bff8-d2d54c0cde2d"},"vehicle_type_id":"4","last_reported":1703070293,"current_range_meters":23200,"station_id":"ce4bhbh2rcd13ifvqeo0","pricing_plan_id":"free"},{"bike_id":"4361284a-9176-4d31-877c-86037bb4a868","system_id":"levelo_inurba_marseille","lat":43.275625,"lon":5.384392,"is_reserved":false,"is_disabled":false,"rental_uris":{"android":"levelo://app?vid=4361284a-9176-4d31-877c-86037bb4a868","ios":"levelo://app?vid=4361284a-9176-4d31-877c-86037bb4a868"},"vehicle_type_id":"4","last_reported":1703070293,"current_range_meters":9200,"station_id":"ce4bhh92rcd13ifvqfi0","pricing_plan_id":"free"},{"bike_id":"f35388a6-8247-4136-aa0a-8e5e4e5c39a3","system_id":"levelo_inurba_marseille","lat":43.275625,"lon":5.384392,"is_reserved":false,"is_disabled":false,"rental_uris":{"android":"levelo://app?vid=f35388a6-8247-4136-aa0a-8e5e4e5c39a3","ios":"levelo://app?vid=f35388a6-8247-4136-aa0a-8e5e4e5c39a3"},"vehicle_type_id":"4","last_reported":1703070293,"current_range_meters":14800,"station_id":"ce4bhh92rcd13ifvqfi0","pricing_plan_id":"free"},{"bike_id":"60670f3f-f915-4ac7-98f2-c7c1d643ac77","system_id":"levelo_inurba_marseille","lat":43.275625,"lon":5.384392,"is_reserved":false,"is_disabled":false,"rental_uris":{"android":"levelo://app?vid=60670f3f-f915-4ac7-98f2-c7c1d643ac77","ios":"levelo://app?vid=60670f3f-f915-4ac7-98f2-c7c1d643ac77"},"vehicle_type_id":"4","last_reported":1703070293,"current_range_meters":26000,"station_id":"ce4bhh92rcd13ifvqfi0","pricing_plan_id":"free"},{"bike_id":"be845744-fe6b-40ab-83b6-970dff866556","system_id":"levelo_inurba_marseille","lat":43.336134,"lon":5.410341,"is_reserved":false,"is_disabled":false,"rental_uris":{"android":"levelo://app?vid=be845744-fe6b-40ab-83b6-970dff866556","ios":"levelo://app?vid=be845744-fe6b-40ab-83b6-970dff866556"},"vehicle_type_id":"4","last_reported":1703070293,"current_range_meters":19200,"station_id":"ce4bhqh2rcd13ifvqhmg","pricing_plan_id":"free"},{"bike_id":"6aeb72c6-7795-421e-8c99-8e89a08bfac6","system_id":"levelo_inurba_marseille","lat":43.317121,"lon":5.423936,"is_reserved":false,"is_disabled":false,"rental_uris":{"android":"levelo://app?vid=6aeb72c6-7795-421e-8c99-8e89a08bfac6","ios":"levelo://app?vid=6aeb72c6-7795-421e-8c99-8e89a08bfac6"},"vehicle_type_id":"4","last_reported":1703070293,"current_range_meters":30000,"station_id":"ce4bhp92rcd13ifvqhbg","pricing_plan_id":"free"},{"bike_id":"a5be1e0a-9870-48c1-b934-a7e079d58b9c","system_id":"levelo_inurba_marseille","lat":43.310785,"lon":5.424305,"is_reserved":false,"is_disabled":false,"rental_uris":{"android":"levelo://app?vid=a5be1e0a-9870-48c1-b934-a7e079d58b9c","ios":"levelo://app?vid=a5be1e0a-9870-48c1-b934-a7e079d58b9c"},"vehicle_type_id":"4","last_reported":1703070293,"current_range_meters":24400,"station_id":"ce4bhp92rcd13ifvqhag","pricing_plan_id":"free"},{"bike_id":"a186b623-a02e-4b49-b9f8-d08ed118be67","system_id":"levelo_inurba_marseille","lat":43.310785,"lon":5.424305,"is_reserved":false,"is_disabled":false,"rental_uris":{"android":"levelo://app?vid=a186b623-a02e-4b49-b9f8-d08ed118be67","ios":"levelo://app?vid=a186b623-a02e-4b49-b9f8-d08ed118be67"},"vehicle_type_id":"4","last_reported":1703070293,"current_range_meters":31200,"station_id":"ce4bhp92rcd13ifvqhag","pricing_plan_id":"free"},{"bike_id":"061ded04-92b0-4ac8-810c-8041c4969c76","system_id":"levelo_inurba_marseille","lat":43.340804,"lon":5.410219,"is_reserved":false,"is_disabled":false,"rental_uris":{"android":"levelo://app?vid=061ded04-92b0-4ac8-810c-8041c4969c76","ios":"levelo://app?vid=061ded04-92b0-4ac8-810c-8041c4969c76"},"vehicle_type_id":"4","last_reported":1703070293,"current_range_meters":30800,"station_id":"ce4bhqh2rcd13ifvqhlg","pricing_plan_id":"free"},{"bike_id":"974dc7db-ff3c-4554-8964-132f9db52d9b","system_id":"levelo_inurba_marseille","lat":43.276092,"lon":5.395289,"is_reserved":false,"is_disabled":false,"rental_uris":{"android":"levelo://app?vid=974dc7db-ff3c-4554-8964-132f9db52d9b","ios":"levelo://app?vid=974dc7db-ff3c-4554-8964-132f9db52d9b"},"vehicle_type_id":"4","last_reported":1703070293,"current_range_meters":4400,"station_id":"","pricing_plan_id":"free"},{"bike_id":"e5faa5d2-a274-473d-9789-25262163e3f4","system_id":"levelo_inurba_marseille","lat":43.273125,"lon":5.390731,"is_reserved":false,"is_disabled":false,"rental_uris":{"android":"levelo://app?vid=e5faa5d2-a274-473d-9789-25262163e3f4","ios":"levelo://app?vid=e5faa5d2-a274-473d-9789-25262163e3f4"},"vehicle_type_id":"4","last_reported":1703070293,"current_range_meters":12400,"station_id":"ce4bhgp2rcd13ifvqfe0","pricing_plan_id":"free"},{"bike_id":"33add9d3-2af5-406e-8170-ff85d6456e78","system_id":"levelo_inurba_marseille","lat":43.274103,"lon":5.394016,"is_reserved":false,"is_disabled":false,"rental_uris":{"android":"levelo://app?vid=33add9d3-2af5-406e-8170-ff85d6456e78","ios":"levelo://app?vid=33add9d3-2af5-406e-8170-ff85d6456e78"},"vehicle_type_id":"4","last_reported":1703070293,"current_range_meters":20400,"station_id":"ce4bhdp2rcd13ifvqf20","pricing_plan_id":"free"},{"bike_id":"648712bd-cfe1-4a2d-8b9e-a0876f15a8f9","system_id":"levelo_inurba_marseille","lat":43.274099,"lon":5.394019,"is_reserved":false,"is_disabled":false,"rental_uris":{"android":"levelo://app?vid=648712bd-cfe1-4a2d-8b9e-a0876f15a8f9","ios":"levelo://app?vid=648712bd-cfe1-4a2d-8b9e-a0876f15a8f9"},"vehicle_type_id":"4","last_reported":1703070293,"current_range_meters":26400,"station_id":"ce4bhdp2rcd13ifvqf20","pricing_plan_id":"free"},{"bike_id":"20d24d8f-e0a6-4c49-afb4-dfd01309b431","system_id":"levelo_inurba_marseille","lat":43.304096,"lon":5.425385,"is_reserved":false,"is_disabled":false,"rental_uris":{"android":"levelo://app?vid=20d24d8f-e0a6-4c49-afb4-dfd01309b431","ios":"levelo://app?vid=20d24d8f-e0a6-4c49-afb4-dfd01309b431"},"vehicle_type_id":"4","last_reported":1703070293,"current_range_meters":23600,"station_id":"ce4bhoh2rcd13ifvqh6g","pricing_plan_id":"free"},{"bike_id":"cc6f4ccb-a02c-4c62-8f36-93c11fae1473","system_id":"levelo_inurba_marseille","lat":43.304096,"lon":5.425385,"is_reserved":false,"is_disabled":false,"rental_uris":{"android":"levelo://app?vid=cc6f4ccb-a02c-4c62-8f36-93c11fae1473","ios":"levelo://app?vid=cc6f4ccb-a02c-4c62-8f36-93c11fae1473"},"vehicle_type_id":"4","last_reported":1703070293,"current_range_meters":800,"station_id":"ce4bhoh2rcd13ifvqh6g","pricing_plan_id":"free"},{"bike_id":"ca314493-3848-477b-95b3-e1722a7aef04","system_id":"levelo_inurba_marseille","lat":43.295163,"lon":5.422644,"is_reserved":false,"is_disabled":false,"rental_uris":{"android":"levelo://app?vid=ca314493-3848-477b-95b3-e1722a7aef04","ios":"levelo://app?vid=ca314493-3848-477b-95b3-e1722a7aef04"},"vehicle_type_id":"4","last_reported":1703070293,"current_range_meters":11600,"station_id":"","pricing_plan_id":"free"},{"bike_id":"9f57bae4-22f9-4fa3-9432-8554c4683813","system_id":"levelo_inurba_marseille","lat":43.295523,"lon":5.422926,"is_reserved":false,"is_disabled":false,"rental_uris":{"android":"levelo://app?vid=9f57bae4-22f9-4fa3-9432-8554c4683813","ios":"levelo://app?vid=9f57bae4-22f9-4fa3-9432-8554c4683813"},"vehicle_type_id":"4","last_reported":1703070293,"current_range_meters":28000,"station_id":"ce4bhph2rcd13ifvqhdg","pricing_plan_id":"free"},{"bike_id":"f94c0757-14dd-424e-9250-3f322563e069","system_id":"levelo_inurba_marseille","lat":43.27425,"lon":5.3978,"is_reserved":false,"is_disabled":false,"rental_uris":{"android":"levelo://app?vid=f94c0757-14dd-424e-9250-3f322563e069","ios":"levelo://app?vid=f94c0757-14dd-424e-9250-3f322563e069"},"vehicle_type_id":"4","last_reported":1703070293,"current_range_meters":18800,"station_id":"","pricing_plan_id":"free"},{"bike_id":"9b7228ac-86f3-41ac-bb93-c314b48a2c92","system_id":"levelo_inurba_marseille","lat":43.27188,"lon":5.39224,"is_reserved":false,"is_disabled":false,"rental_uris":{"android":"levelo://app?vid=9b7228ac-86f3-41ac-bb93-c314b48a2c92","ios":"levelo://app?vid=9b7228ac-86f3-41ac-bb93-c314b48a2c92"},"vehicle_type_id":"4","last_reported":1703070293,"current_range_meters":6800,"station_id":"ce4bhhp2rcd13ifvqfm0","pricing_plan_id":"free"},{"bike_id":"98399309-2711-42c5-b3d3-6d05f35b9ee0","system_id":"levelo_inurba_marseille","lat":43.278195,"lon":5.407081,"is_reserved":false,"is_disabled":false,"rental_uris":{"android":"levelo://app?vid=98399309-2711-42c5-b3d3-6d05f35b9ee0","ios":"levelo://app?vid=98399309-2711-42c5-b3d3-6d05f35b9ee0"},"vehicle_type_id":"4","last_reported":1703070293,"current_range_meters":21600,"station_id":"","pricing_plan_id":"free"},{"bike_id":"00ebbda5-edb6-4a1f-9937-9ec0bf17394a","system_id":"levelo_inurba_marseille","lat":43.278195,"lon":5.407081,"is_reserved":false,"is_disabled":false,"rental_uris":{"android":"levelo://app?vid=00ebbda5-edb6-4a1f-9937-9ec0bf17394a","ios":"levelo://app?vid=00ebbda5-edb6-4a1f-9937-9ec0bf17394a"},"vehicle_type_id":"4","last_reported":1703070293,"current_range_meters":30800,"station_id":"","pricing_plan_id":"free"},{"bike_id":"22e3e3a8-e509-49c1-9da1-f8500d4ff2f0","system_id":"levelo_inurba_marseille","lat":43.278149,"lon":5.407154,"is_reserved":false,"is_disabled":false,"rental_uris":{"android":"levelo://app?vid=22e3e3a8-e509-49c1-9da1-f8500d4ff2f0","ios":"levelo://app?vid=22e3e3a8-e509-49c1-9da1-f8500d4ff2f0"},"vehicle_type_id":"4","last_reported":1703070293,"current_range_meters":30800,"station_id":"","pricing_plan_id":"free"},{"bike_id":"c7b7afd0-9b3d-4fab-834a-6c43b02d811f","system_id":"levelo_inurba_marseille","lat":43.278128,"lon":5.407195,"is_reserved":false,"is_disabled":false,"rental_uris":{"android":"levelo://app?vid=c7b7afd0-9b3d-4fab-834a-6c43b02d811f","ios":"levelo://app?vid=c7b7afd0-9b3d-4fab-834a-6c43b02d811f"},"vehicle_type_id":"4","last_reported":1703070293,"current_range_meters":0,"station_id":"ce4bhnh2rcd13ifvqgtg","pricing_plan_id":"free"},{"bike_id":"eaa3a8aa-284f-42d4-ba85-52f640307f10","system_id":"levelo_inurba_marseille","lat":43.278128,"lon":5.407195,"is_reserved":false,"is_disabled":false,"rental_uris":{"android":"levelo://app?vid=eaa3a8aa-284f-42d4-ba85-52f640307f10","ios":"levelo://app?vid=eaa3a8aa-284f-42d4-ba85-52f640307f10"},"vehicle_type_id":"4","last_reported":1703070293,"current_range_meters":25200,"station_id":"ce4bhnh2rcd13ifvqgtg","pricing_plan_id":"free"},{"bike_id":"3a7b7ed9-5bc9-43da-9ea7-d9b8f31876ca","system_id":"levelo_inurba_marseille","lat":43.269467,"lon":5.386439,"is_reserved":false,"is_disabled":false,"rental_uris":{"android":"levelo://app?vid=3a7b7ed9-5bc9-43da-9ea7-d9b8f31876ca","ios":"levelo://app?vid=3a7b7ed9-5bc9-43da-9ea7-d9b8f31876ca"},"vehicle_type_id":"4","last_reported":1703070293,"current_range_meters":22000,"station_id":"ce4bhh92rcd13ifvqfh0","pricing_plan_id":"free"},{"bike_id":"91f4aecd-5d14-4b63-869d-1f7b80db8e11","system_id":"levelo_inurba_marseille","lat":43.269467,"lon":5.386439,"is_reserved":false,"is_disabled":false,"rental_uris":{"android":"levelo://app?vid=91f4aecd-5d14-4b63-869d-1f7b80db8e11","ios":"levelo://app?vid=91f4aecd-5d14-4b63-869d-1f7b80db8e11"},"vehicle_type_id":"4","last_reported":1703070293,"current_range_meters":19200,"station_id":"ce4bhh92rcd13ifvqfh0","pricing_plan_id":"free"},{"bike_id":"737ee436-98f5-467c-99b6-4bc4aee938b8","system_id":"levelo_inurba_marseille","lat":43.26681,"lon":5.382694,"is_reserved":false,"is_disabled":false,"rental_uris":{"android":"levelo://app?vid=737ee436-98f5-467c-99b6-4bc4aee938b8","ios":"levelo://app?vid=737ee436-98f5-467c-99b6-4bc4aee938b8"},"vehicle_type_id":"4","last_reported":1703070293,"current_range_meters":15200,"station_id":"ce4bhg92rcd13ifvqf90","pricing_plan_id":"free"},{"bike_id":"ceff0ee1-8ef2-464c-b836-96b31bb342aa","system_id":"levelo_inurba_marseille","lat":43.26681,"lon":5.382694,"is_reserved":false,"is_disabled":false,"rental_uris":{"android":"levelo://app?vid=ceff0ee1-8ef2-464c-b836-96b31bb342aa","ios":"levelo://app?vid=ceff0ee1-8ef2-464c-b836-96b31bb342aa"},"vehicle_type_id":"4","last_reported":1703070293,"current_range_meters":7200,"station_id":"ce4bhg92rcd13ifvqf90","pricing_plan_id":"free"},{"bike_id":"5b45b761-4839-4efd-91aa-210f7a11b582","system_id":"levelo_inurba_marseille","lat":43.26681,"lon":5.382694,"is_reserved":false,"is_disabled":false,"rental_uris":{"android":"levelo://app?vid=5b45b761-4839-4efd-91aa-210f7a11b582","ios":"levelo://app?vid=5b45b761-4839-4efd-91aa-210f7a11b582"},"vehicle_type_id":"4","last_reported":1703070293,"current_range_meters":31600,"station_id":"ce4bhg92rcd13ifvqf90","pricing_plan_id":"free"},{"bike_id":"eb9a43a9-eb2e-4e0d-bbab-497f17c61f38","system_id":"levelo_inurba_marseille","lat":43.26681,"lon":5.382694,"is_reserved":false,"is_disabled":false,"rental_uris":{"android":"levelo://app?vid=eb9a43a9-eb2e-4e0d-bbab-497f17c61f38","ios":"levelo://app?vid=eb9a43a9-eb2e-4e0d-bbab-497f17c61f38"},"vehicle_type_id":"4","last_reported":1703070293,"current_range_meters":31200,"station_id":"ce4bhg92rcd13ifvqf90","pricing_plan_id":"free"},{"bike_id":"09e167d9-1e43-44cd-bb41-c920384897db","system_id":"levelo_inurba_marseille","lat":43.26681,"lon":5.382694,"is_reserved":false,"is_disabled":false,"rental_uris":{"android":"levelo://app?vid=09e167d9-1e43-44cd-bb41-c920384897db","ios":"levelo://app?vid=09e167d9-1e43-44cd-bb41-c920384897db"},"vehicle_type_id":"4","last_reported":1703070293,"current_range_meters":29200,"station_id":"ce4bhg92rcd13ifvqf90","pricing_plan_id":"free"},{"bike_id":"e388aba6-4ee6-4fa1-8053-04490a12388c","system_id":"levelo_inurba_marseille","lat":43.26681,"lon":5.382694,"is_reserved":false,"is_disabled":false,"rental_uris":{"android":"levelo://app?vid=e388aba6-4ee6-4fa1-8053-04490a12388c","ios":"levelo://app?vid=e388aba6-4ee6-4fa1-8053-04490a12388c"},"vehicle_type_id":"4","last_reported":1703070293,"current_range_meters":28800,"station_id":"ce4bhg92rcd13ifvqf90","pricing_plan_id":"free"},{"bike_id":"3c0ee6da-11e5-4f6b-a6a4-520e2a70a8e0","system_id":"levelo_inurba_marseille","lat":43.265714,"lon":5.372891,"is_reserved":false,"is_disabled":false,"rental_uris":{"android":"levelo://app?vid=3c0ee6da-11e5-4f6b-a6a4-520e2a70a8e0","ios":"levelo://app?vid=3c0ee6da-11e5-4f6b-a6a4-520e2a70a8e0"},"vehicle_type_id":"4","last_reported":1703070293,"current_range_meters":9600,"station_id":"ce4bhg12rcd13ifvqf70","pricing_plan_id":"free"},{"bike_id":"9259c489-cbec-44bf-a48a-67a51409fea6","system_id":"levelo_inurba_marseille","lat":43.308051,"lon":5.43527,"is_reserved":false,"is_disabled":false,"rental_uris":{"android":"levelo://app?vid=9259c489-cbec-44bf-a48a-67a51409fea6","ios":"levelo://app?vid=9259c489-cbec-44bf-a48a-67a51409fea6"},"vehicle_type_id":"4","last_reported":1703070293,"current_range_meters":28400,"station_id":"ce4bhph2rcd13ifvqheg","pricing_plan_id":"free"},{"bike_id":"4d409939-1756-4c69-9dff-840fdca75255","system_id":"levelo_inurba_marseille","lat":43.265569,"lon":5.390047,"is_reserved":false,"is_disabled":false,"rental_uris":{"android":"levelo://app?vid=4d409939-1756-4c69-9dff-840fdca75255","ios":"levelo://app?vid=4d409939-1756-4c69-9dff-840fdca75255"},"vehicle_type_id":"4","last_reported":1703070293,"current_range_meters":8400,"station_id":"ce4bhe12rcd13ifvqf30","pricing_plan_id":"free"},{"bike_id":"aee58545-1074-462e-bac4-78e58b3851b8","system_id":"levelo_inurba_marseille","lat":43.308051,"lon":5.43527,"is_reserved":false,"is_disabled":false,"rental_uris":{"android":"levelo://app?vid=aee58545-1074-462e-bac4-78e58b3851b8","ios":"levelo://app?vid=aee58545-1074-462e-bac4-78e58b3851b8"},"vehicle_type_id":"4","last_reported":1703070293,"current_range_meters":26800,"station_id":"ce4bhph2rcd13ifvqheg","pricing_plan_id":"free"},{"bike_id":"c18a2978-1455-4357-85b2-405a56b4700c","system_id":"levelo_inurba_marseille","lat":43.2623,"lon":5.37483,"is_reserved":false,"is_disabled":false,"rental_uris":{"android":"levelo://app?vid=c18a2978-1455-4357-85b2-405a56b4700c","ios":"levelo://app?vid=c18a2978-1455-4357-85b2-405a56b4700c"},