{"last_updated":1699049176,"ttl":30,"version":"2.2","data":{"bikes":[{"bike_id":"4c64ed26-b637-41e2-a9e8-9bd2f0fbc833","system_id":"levelo_inurba_marseille","lat":43.313476,"lon":5.367174,"is_reserved":false,"is_disabled":false,"rental_uris":{"android":"levelo://app?vid=4c64ed26-b637-41e2-a9e8-9bd2f0fbc833","ios":"levelo://app?vid=4c64ed26-b637-41e2-a9e8-9bd2f0fbc833"},"vehicle_type_id":"4","last_reported":1699049176,"current_range_meters":400,"station_id":"ce4bgr92rcd13ifvqc6g","pricing_plan_id":"free"},{"bike_id":"d15fb41a-2834-4a05-b812-7af9af2bbee0","system_id":"levelo_inurba_marseille","lat":43.312239,"lon":5.368562,"is_reserved":false,"is_disabled":false,"rental_uris":{"android":"levelo://app?vid=d15fb41a-2834-4a05-b812-7af9af2bbee0","ios":"levelo://app?vid=d15fb41a-2834-4a05-b812-7af9af2bbee0"},"vehicle_type_id":"4","last_reported":1699049176,"current_range_meters":13200,"station_id":"ce4bgl92rcd13ifvqbq0","pricing_plan_id":"free"},{"bike_id":"7e02f5db-1922-49c5-8247-365151073271","system_id":"levelo_inurba_marseille","lat":43.312239,"lon":5.368562,"is_reserved":false,"is_disabled":false,"rental_uris":{"android":"levelo://app?vid=7e02f5db-1922-49c5-8247-365151073271","ios":"levelo://app?vid=7e02f5db-1922-49c5-8247-365151073271"},"vehicle_type_id":"4","last_reported":1699049176,"current_range_meters":8000,"station_id":"ce4bgl92rcd13ifvqbq0","pricing_plan_id":"free"},{"bike_id":"622fb3fc-f7d3-4aec-a69d-75dd8a3760d9","system_id":"levelo_inurba_marseille","lat":43.309076,"lon":5.368465,"is_reserved":false,"is_disabled":false,"rental_uris":{"android":"levelo://app?vid=622fb3fc-f7d3-4aec-a69d-75dd8a3760d9","ios":"levelo://app?vid=622fb3fc-f7d3-4aec-a69d-75dd8a3760d9"},"vehicle_type_id":"4","last_reported":1699049176,"current_range_meters":28000,"station_id":"ce4bgn92rcd13ifvqbvg","pricing_plan_id":"free"},{"bike_id":"2caff0fb-4923-4321-9da5-9abb017b333e","system_id":"levelo_inurba_marseille","lat":43.309076,"lon":5.368465,"is_reserved":false,"is_disabled":false,"rental_uris":{"android":"levelo://app?vid=2caff0fb-4923-4321-9da5-9abb017b333e","ios":"levelo://app?vid=2caff0fb-4923-4321-9da5-9abb017b333e"},"vehicle_type_id":"4","last_reported":1699049176,"current_range_meters":10800,"station_id":"ce4bgn92rcd13ifvqbvg","pricing_plan_id":"free"},{"bike_id":"8e91edc2-1995-4bed-8944-34c8c8a1e69c","system_id":"levelo_inurba_marseille","lat":43.314811,"lon":5.373104,"is_reserved":false,"is_disabled":false,"rental_uris":{"android":"levelo://app?vid=8e91edc2-1995-4bed-8944-34c8c8a1e69c","ios":"levelo://app?vid=8e91edc2-1995-4bed-8944-34c8c8a1e69c"},"vehicle_type_id":"4","last_reported":1699049176,"current_range_meters":19600,"station_id":"ce4bgt12rcd13ifvqcd0","pricing_plan_id":"free"},{"bike_id":"297f911e-e248-4634-a9da-b298d9f81822","system_id":"levelo_inurba_marseille","lat":43.309039,"lon":5.371797,"is_reserved":false,"is_disabled":false,"rental_uris":{"android":"levelo://app?vid=297f911e-e248-4634-a9da-b298d9f81822","ios":"levelo://app?vid=297f911e-e248-4634-a9da-b298d9f81822"},"vehicle_type_id":"4","last_reported":1699049176,"current_range_meters":10400,"station_id":"ce4bguh2rcd13ifvqckg","pricing_plan_id":"free"},{"bike_id":"3d57072e-bdd1-4adc-a4c2-bc3031dbf5f4","system_id":"levelo_inurba_marseille","lat":43.309039,"lon":5.371797,"is_reserved":false,"is_disabled":false,"rental_uris":{"android":"levelo://app?vid=3d57072e-bdd1-4adc-a4c2-bc3031dbf5f4","ios":"levelo://app?vid=3d57072e-bdd1-4adc-a4c2-bc3031dbf5f4"},"vehicle_type_id":"4","last_reported":1699049176,"current_range_meters":22000,"station_id":"ce4bguh2rcd13ifvqckg","pricing_plan_id":"free"},{"bike_id":"9fbf07fa-0ea4-43d6-8ed6-82424e129746","system_id":"levelo_inurba_marseille","lat":43.31894,"lon":5.36728,"is_reserved":false,"is_disabled":false,"rental_uris":{"android":"levelo://app?vid=9fbf07fa-0ea4-43d6-8ed6-82424e129746","ios":"levelo://app?vid=9fbf07fa-0ea4-43d6-8ed6-82424e129746"},"vehicle_type_id":"4","last_reported":1699049176,"current_range_meters":7200,"station_id":"","pricing_plan_id":"free"},{"bike_id":"7f6d1821-d960-4aa5-81c2-8064a10d310c","system_id":"levelo_inurba_marseille","lat":43.31885,"lon":5.370823,"is_reserved":false,"is_disabled":false,"rental_uris":{"android":"levelo://app?vid=7f6d1821-d960-4aa5-81c2-8064a10d310c","ios":"levelo://app?vid=7f6d1821-d960-4aa5-81c2-8064a10d310c"},"vehicle_type_id":"4","last_reported":1699049176,"current_range_meters":12000,"station_id":"","pricing_plan_id":"free"},{"bike_id":"c3d6641c-e52b-4d3e-adcc-6311c642d0ed","system_id":"levelo_inurba_marseille","lat":43.305714,"lon":5.365633,"is_reserved":false,"is_disabled":false,"rental_uris":{"android":"levelo://app?vid=c3d6641c-e52b-4d3e-adcc-6311c642d0ed","ios":"levelo://app?vid=c3d6641c-e52b-4d3e-adcc-6311c642d0ed"},"vehicle_type_id":"4","last_reported":1699049176,"current_range_meters":0,"station_id":"ce4bgs12rcd13ifvqcag","pricing_plan_id":"free"},{"bike_id":"f252b071-dddd-4e5f-ad07-506846af6d1a","system_id":"levelo_inurba_marseille","lat":43.305714,"lon":5.365633,"is_reserved":false,"is_disabled":false,"rental_uris":{"android":"levelo://app?vid=f252b071-dddd-4e5f-ad07-506846af6d1a","ios":"levelo://app?vid=f252b071-dddd-4e5f-ad07-506846af6d1a"},"vehicle_type_id":"4","last_reported":1699049176,"current_range_meters":7200,"station_id":"ce4bgs12rcd13ifvqcag","pricing_plan_id":"free"},{"bike_id":"d766e9ca-c4ac-4c69-8f45-4620e9ae06ec","system_id":"levelo_inurba_marseille","lat":43.30535,"lon":5.36704,"is_reserved":false,"is_disabled":false,"rental_uris":{"android":"levelo://app?vid=d766e9ca-c4ac-4c69-8f45-4620e9ae06ec","ios":"levelo://app?vid=d766e9ca-c4ac-4c69-8f45-4620e9ae06ec"},"vehicle_type_id":"4","last_reported":1699049176,"current_range_meters":5600,"station_id":"ce4bgrp2rcd13ifvqc9g","pricing_plan_id":"free"},{"bike_id":"080235d9-9737-47d7-8e4b-53ca57766c71","system_id":"levelo_inurba_marseille","lat":43.305989,"lon":5.37225,"is_reserved":false,"is_disabled":false,"rental_uris":{"android":"levelo://app?vid=080235d9-9737-47d7-8e4b-53ca57766c71","ios":"levelo://app?vid=080235d9-9737-47d7-8e4b-53ca57766c71"},"vehicle_type_id":"4","last_reported":1699049176,"current_range_meters":23600,"station_id":"ce4bgqh2rcd13ifvqc4g","pricing_plan_id":"free"},{"bike_id":"5ba7c412-6a58-4d41-925b-e7f13f29e2dd","system_id":"levelo_inurba_marseille","lat":43.305989,"lon":5.37225,"is_reserved":false,"is_disabled":false,"rental_uris":{"android":"levelo://app?vid=5ba7c412-6a58-4d41-925b-e7f13f29e2dd","ios":"levelo://app?vid=5ba7c412-6a58-4d41-925b-e7f13f29e2dd"},"vehicle_type_id":"4","last_reported":1699049176,"current_range_meters":14400,"station_id":"ce4bgqh2rcd13ifvqc4g","pricing_plan_id":"free"},{"bike_id":"2646f1cc-f17d-494f-9878-2ce7d6c5cdfc","system_id":"levelo_inurba_marseille","lat":43.305989,"lon":5.37225,"is_reserved":false,"is_disabled":false,"rental_uris":{"android":"levelo://app?vid=2646f1cc-f17d-494f-9878-2ce7d6c5cdfc","ios":"levelo://app?vid=2646f1cc-f17d-494f-9878-2ce7d6c5cdfc"},"vehicle_type_id":"4","last_reported":1699049176,"current_range_meters":29600,"station_id":"ce4bgqh2rcd13ifvqc4g","pricing_plan_id":"free"},{"bike_id":"6ad94e05-81db-409b-a031-0611c4f73cc5","system_id":"levelo_inurba_marseille","lat":43.311131,"lon":5.377651,"is_reserved":false,"is_disabled":false,"rental_uris":{"android":"levelo://app?vid=6ad94e05-81db-409b-a031-0611c4f73cc5","ios":"levelo://app?vid=6ad94e05-81db-409b-a031-0611c4f73cc5"},"vehicle_type_id":"4","last_reported":1699049176,"current_range_meters":20000,"station_id":"ce4bgt92rcd13ifvqcg0","pricing_plan_id":"free"},{"bike_id":"4f52c69d-fdb5-4cf6-9b19-9b348108c8b7","system_id":"levelo_inurba_marseille","lat":43.311131,"lon":5.377651,"is_reserved":false,"is_disabled":false,"rental_uris":{"android":"levelo://app?vid=4f52c69d-fdb5-4cf6-9b19-9b348108c8b7","ios":"levelo://app?vid=4f52c69d-fdb5-4cf6-9b19-9b348108c8b7"},"vehicle_type_id":"4","last_reported":1699049176,"current_range_meters":25600,"station_id":"ce4bgt92rcd13ifvqcg0","pricing_plan_id":"free"},{"bike_id":"3dc7b6ab-8dc2-4939-9c57-dd5493dc0179","system_id":"levelo_inurba_marseille","lat":43.311125,"lon":5.377624,"is_reserved":false,"is_disabled":false,"rental_uris":{"android":"levelo://app?vid=3dc7b6ab-8dc2-4939-9c57-dd5493dc0179","ios":"levelo://app?vid=3dc7b6ab-8dc2-4939-9c57-dd5493dc0179"},"vehicle_type_id":"4","last_reported":1699049176,"current_range_meters":29200,"station_id":"ce4bgt92rcd13ifvqcg0","pricing_plan_id":"free"},{"bike_id":"0f51eeca-dbf8-4370-817e-3dbe729957da","system_id":"levelo_inurba_marseille","lat":43.311131,"lon":5.377651,"is_reserved":false,"is_disabled":false,"rental_uris":{"android":"levelo://app?vid=0f51eeca-dbf8-4370-817e-3dbe729957da","ios":"levelo://app?vid=0f51eeca-dbf8-4370-817e-3dbe729957da"},"vehicle_type_id":"4","last_reported":1699049176,"current_range_meters":6000,"station_id":"ce4bgt92rcd13ifvqcg0","pricing_plan_id":"free"},{"bike_id":"abded77b-4658-43d4-b992-689d7f7681e6","system_id":"levelo_inurba_marseille","lat":43.311131,"lon":5.377651,"is_reserved":false,"is_disabled":false,"rental_uris":{"android":"levelo://app?vid=abded77b-4658-43d4-b992-689d7f7681e6","ios":"levelo://app?vid=abded77b-4658-43d4-b992-689d7f7681e6"},"vehicle_type_id":"4","last_reported":1699049176,"current_range_meters":4400,"station_id":"ce4bgt92rcd13ifvqcg0","pricing_plan_id":"free"},{"bike_id":"6f366f34-a72c-4371-8706-470978dceaa6","system_id":"levelo_inurba_marseille","lat":43.311125,"lon":5.377624,"is_reserved":false,"is_disabled":false,"rental_uris":{"android":"levelo://app?vid=6f366f34-a72c-4371-8706-470978dceaa6","ios":"levelo://app?vid=6f366f34-a72c-4371-8706-470978dceaa6"},"vehicle_type_id":"4","last_reported":1699049176,"current_range_meters":20800,"station_id":"ce4bgt92rcd13ifvqcg0","pricing_plan_id":"free"},{"bike_id":"9932eb6f-79e3-42e0-a50c-3b02791319a2","system_id":"levelo_inurba_marseille","lat":43.311125,"lon":5.377624,"is_reserved":false,"is_disabled":false,"rental_uris":{"android":"levelo://app?vid=9932eb6f-79e3-42e0-a50c-3b02791319a2","ios":"levelo://app?vid=9932eb6f-79e3-42e0-a50c-3b02791319a2"},"vehicle_type_id":"4","last_reported":1699049176,"current_range_meters":20800,"station_id":"ce4bgt92rcd13ifvqcg0","pricing_plan_id":"free"},{"bike_id":"3bb97351-ad9e-4be9-9a3c-fd527238e90d","system_id":"levelo_inurba_marseille","lat":43.30785,"lon":5.37634,"is_reserved":false,"is_disabled":false,"rental_uris":{"android":"levelo://app?vid=3bb97351-ad9e-4be9-9a3c-fd527238e90d","ios":"levelo://app?vid=3bb97351-ad9e-4be9-9a3c-fd527238e90d"},"vehicle_type_id":"4","last_reported":1699049176,"current_range_meters":2400,"station_id":"ce4bgv92rcd13ifvqcq0","pricing_plan_id":"free"},{"bike_id":"c9ebbfc0-4b0e-46d2-a016-64edd2d5b82c","system_id":"levelo_inurba_marseille","lat":43.30085,"lon":5.390856,"is_reserved":false,"is_disabled":false,"rental_uris":{"android":"levelo://app?vid=c9ebbfc0-4b0e-46d2-a016-64edd2d5b82c","ios":"levelo://app?vid=c9ebbfc0-4b0e-46d2-a016-64edd2d5b82c"},"vehicle_type_id":"4","last_reported":1699049176,"current_range_meters":0,"station_id":"ce4bh192rcd13ifvqdb0","pricing_plan_id":"free"},{"bike_id":"901d79d8-5da7-45a0-9324-7b85f1cebe70","system_id":"levelo_inurba_marseille","lat":43.31533,"lon":5.38029,"is_reserved":false,"is_disabled":false,"rental_uris":{"android":"levelo://app?vid=901d79d8-5da7-45a0-9324-7b85f1cebe70","ios":"levelo://app?vid=901d79d8-5da7-45a0-9324-7b85f1cebe70"},"vehicle_type_id":"4","last_reported":1699049176,"current_range_meters":24800,"station_id":"ce4bhsp2rcd13ifvqi50","pricing_plan_id":"free"},{"bike_id":"6edda9e3-251a-4472-8216-15f2d2fa7a23","system_id":"levelo_inurba_marseille","lat":43.308,"lon":5.38149,"is_reserved":false,"is_disabled":false,"rental_uris":{"android":"levelo://app?vid=6edda9e3-251a-4472-8216-15f2d2fa7a23","ios":"levelo://app?vid=6edda9e3-251a-4472-8216-15f2d2fa7a23"},"vehicle_type_id":"4","last_reported":1699049176,"current_range_meters":29600,"station_id":"ce4bgt12rcd13ifvqce0","pricing_plan_id":"free"},{"bike_id":"bb8bacc7-96e2-4222-8bbf-88f35abe576b","system_id":"levelo_inurba_marseille","lat":43.323057,"lon":5.374549,"is_reserved":false,"is_disabled":false,"rental_uris":{"android":"levelo://app?vid=bb8bacc7-96e2-4222-8bbf-88f35abe576b","ios":"levelo://app?vid=bb8bacc7-96e2-4222-8bbf-88f35abe576b"},"vehicle_type_id":"4","last_reported":1699049176,"current_range_meters":6000,"station_id":"","pricing_plan_id":"free"},{"bike_id":"6e26367e-3f05-4bd8-bf7b-036e7af35cf1","system_id":"levelo_inurba_marseille","lat":43.308012,"lon":5.381511,"is_reserved":false,"is_disabled":false,"rental_uris":{"android":"levelo://app?vid=6e26367e-3f05-4bd8-bf7b-036e7af35cf1","ios":"levelo://app?vid=6e26367e-3f05-4bd8-bf7b-036e7af35cf1"},"vehicle_type_id":"4","last_reported":1699049176,"current_range_meters":2000,"station_id":"ce4bgt12rcd13ifvqce0","pricing_plan_id":"free"},{"bike_id":"ed2548e1-c523-4b97-b4ee-4190a55045b8","system_id":"levelo_inurba_marseille","lat":43.304606,"lon":5.379026,"is_reserved":false,"is_disabled":false,"rental_uris":{"android":"levelo://app?vid=ed2548e1-c523-4b97-b4ee-4190a55045b8","ios":"levelo://app?vid=ed2548e1-c523-4b97-b4ee-4190a55045b8"},"vehicle_type_id":"4","last_reported":1699049176,"current_range_meters":19600,"station_id":"ce4bgup2rcd13ifvqcn0","pricing_plan_id":"free"},{"bike_id":"baaabba0-d5f6-4931-afa2-9c63d9133c81","system_id":"levelo_inurba_marseille","lat":43.304606,"lon":5.379026,"is_reserved":false,"is_disabled":false,"rental_uris":{"android":"levelo://app?vid=baaabba0-d5f6-4931-afa2-9c63d9133c81","ios":"levelo://app?vid=baaabba0-d5f6-4931-afa2-9c63d9133c81"},"vehicle_type_id":"4","last_reported":1699049176,"current_range_meters":25200,"station_id":"ce4bgup2rcd13ifvqcn0","pricing_plan_id":"free"},{"bike_id":"4986324b-34a1-47d0-80ea-0156b356432e","system_id":"levelo_inurba_marseille","lat":43.304606,"lon":5.379026,"is_reserved":false,"is_disabled":false,"rental_uris":{"android":"levelo://app?vid=4986324b-34a1-47d0-80ea-0156b356432e","ios":"levelo://app?vid=4986324b-34a1-47d0-80ea-0156b356432e"},"vehicle_type_id":"4","last_reported":1699049176,"current_range_meters":31200,"station_id":"ce4bgup2rcd13ifvqcn0","pricing_plan_id":"free"},{"bike_id":"ae4c77e4-83ce-4cc9-bf1f-45bb471f37d9","system_id":"levelo_inurba_marseille","lat":43.30454,"lon":5.37893,"is_reserved":false,"is_disabled":false,"rental_uris":{"android":"levelo://app?vid=ae4c77e4-83ce-4cc9-bf1f-45bb471f37d9","ios":"levelo://app?vid=ae4c77e4-83ce-4cc9-bf1f-45bb471f37d9"},"vehicle_type_id":"4","last_reported":1699049176,"current_range_meters":0,"station_id":"ce4bgup2rcd13ifvqcn0","pricing_plan_id":"free"},{"bike_id":"46ea3467-5894-4ab8-a01c-000815bdc2ae","system_id":"levelo_inurba_marseille","lat":43.304667,"lon":5.3791,"is_reserved":false,"is_disabled":false,"rental_uris":{"android":"levelo://app?vid=46ea3467-5894-4ab8-a01c-000815bdc2ae","ios":"levelo://app?vid=46ea3467-5894-4ab8-a01c-000815bdc2ae"},"vehicle_type_id":"4","last_reported":1699049176,"current_range_meters":0,"station_id":"ce4bgup2rcd13ifvqcn0","pricing_plan_id":"free"},{"bike_id":"4417582d-c2ca-40fe-a249-37e4da6d0b93","system_id":"levelo_inurba_marseille","lat":43.304606,"lon":5.379026,"is_reserved":false,"is_disabled":false,"rental_uris":{"android":"levelo://app?vid=4417582d-c2ca-40fe-a249-37e4da6d0b93","ios":"levelo://app?vid=4417582d-c2ca-40fe-a249-37e4da6d0b93"},"vehicle_type_id":"4","last_reported":1699049176,"current_range_meters":29600,"station_id":"ce4bgup2rcd13ifvqcn0","pricing_plan_id":"free"},{"bike_id":"33ef5c95-6277-432e-9c5e-9920fbf0c3e8","system_id":"levelo_inurba_marseille","lat":43.304606,"lon":5.379026,"is_reserved":false,"is_disabled":false,"rental_uris":{"android":"levelo://app?vid=33ef5c95-6277-432e-9c5e-9920fbf0c3e8","ios":"levelo://app?vid=33ef5c95-6277-432e-9c5e-9920fbf0c3e8"},"vehicle_type_id":"4","last_reported":1699049176,"current_range_meters":27600,"station_id":"ce4bgup2rcd13ifvqcn0","pricing_plan_id":"free"},{"bike_id":"c37a60ff-8992-4e74-8e8e-b094339c7ef0","system_id":"levelo_inurba_marseille","lat":43.32476,"lon":5.365507,"is_reserved":false,"is_disabled":false,"rental_uris":{"android":"levelo://app?vid=c37a60ff-8992-4e74-8e8e-b094339c7ef0","ios":"levelo://app?vid=c37a60ff-8992-4e74-8e8e-b094339c7ef0"},"vehicle_type_id":"4","last_reported":1699049176,"current_range_meters":21200,"station_id":"ce4bhs12rcd13ifvqhvg","pricing_plan_id":"free"},{"bike_id":"d7139bad-49ad-4903-8bb0-96ba7544fe3e","system_id":"levelo_inurba_marseille","lat":43.324777,"lon":5.365632,"is_reserved":false,"is_disabled":false,"rental_uris":{"android":"levelo://app?vid=d7139bad-49ad-4903-8bb0-96ba7544fe3e","ios":"levelo://app?vid=d7139bad-49ad-4903-8bb0-96ba7544fe3e"},"vehicle_type_id":"4","last_reported":1699049176,"current_range_meters":18400,"station_id":"ce4bhs12rcd13ifvqhvg","pricing_plan_id":"free"},{"bike_id":"0c7d76d3-fffd-4473-b1ee-abf2802f1081","system_id":"levelo_inurba_marseille","lat":43.324771,"lon":5.36557,"is_reserved":false,"is_disabled":false,"rental_uris":{"android":"levelo://app?vid=0c7d76d3-fffd-4473-b1ee-abf2802f1081","ios":"levelo://app?vid=0c7d76d3-fffd-4473-b1ee-abf2802f1081"},"vehicle_type_id":"4","last_reported":1699049176,"current_range_meters":25600,"station_id":"ce4bhs12rcd13ifvqhvg","pricing_plan_id":"free"},{"bike_id":"e8584f7f-3a22-4191-9ecd-5314ed574e4e","system_id":"levelo_inurba_marseille","lat":43.303586,"lon":5.377754,"is_reserved":false,"is_disabled":false,"rental_uris":{"android":"levelo://app?vid=e8584f7f-3a22-4191-9ecd-5314ed574e4e","ios":"levelo://app?vid=e8584f7f-3a22-4191-9ecd-5314ed574e4e"},"vehicle_type_id":"4","last_reported":1699049176,"current_range_meters":20800,"station_id":"","pricing_plan_id":"free"},{"bike_id":"d12dc2b2-a151-4ad3-aab2-215af442b490","system_id":"levelo_inurba_marseille","lat":43.302784,"lon":5.377158,"is_reserved":false,"is_disabled":false,"rental_uris":{"android":"levelo://app?vid=d12dc2b2-a151-4ad3-aab2-215af442b490","ios":"levelo://app?vid=d12dc2b2-a151-4ad3-aab2-215af442b490"},"vehicle_type_id":"4","last_reported":1699049176,"current_range_meters":400,"station_id":"ce4bguh2rcd13ifvqcj0","pricing_plan_id":"free"},{"bike_id":"7a7d6025-4594-47a1-89c2-dd92ebe15268","system_id":"levelo_inurba_marseille","lat":43.302784,"lon":5.377158,"is_reserved":false,"is_disabled":false,"rental_uris":{"android":"levelo://app?vid=7a7d6025-4594-47a1-89c2-dd92ebe15268","ios":"levelo://app?vid=7a7d6025-4594-47a1-89c2-dd92ebe15268"},"vehicle_type_id":"4","last_reported":1699049176,"current_range_meters":4400,"station_id":"ce4bguh2rcd13ifvqcj0","pricing_plan_id":"free"},{"bike_id":"77ec974e-92d0-4028-86f4-f806586b892e","system_id":"levelo_inurba_marseille","lat":43.302641,"lon":5.377095,"is_reserved":false,"is_disabled":false,"rental_uris":{"android":"levelo://app?vid=77ec974e-92d0-4028-86f4-f806586b892e","ios":"levelo://app?vid=77ec974e-92d0-4028-86f4-f806586b892e"},"vehicle_type_id":"4","last_reported":1699049176,"current_range_meters":0,"station_id":"ce4bguh2rcd13ifvqcj0","pricing_plan_id":"free"},{"bike_id":"4d1c984e-dd9b-48d6-89e3-ca9e71df32da","system_id":"levelo_inurba_marseille","lat":43.30143,"lon":5.37413,"is_reserved":false,"is_disabled":false,"rental_uris":{"android":"levelo://app?vid=4d1c984e-dd9b-48d6-89e3-ca9e71df32da","ios":"levelo://app?vid=4d1c984e-dd9b-48d6-89e3-ca9e71df32da"},"vehicle_type_id":"4","last_reported":1699049176,"current_range_meters":8400,"station_id":"ce4bgs92rcd13ifvqcc0","pricing_plan_id":"free"},{"bike_id":"cde09343-cb34-42b4-bd82-ba3dc99ca7a9","system_id":"levelo_inurba_marseille","lat":43.31541,"lon":5.38404,"is_reserved":false,"is_disabled":false,"rental_uris":{"android":"levelo://app?vid=cde09343-cb34-42b4-bd82-ba3dc99ca7a9","ios":"levelo://app?vid=cde09343-cb34-42b4-bd82-ba3dc99ca7a9"},"vehicle_type_id":"4","last_reported":1699049176,"current_range_meters":14800,"station_id":"ce4bhqp2rcd13ifvqhng","pricing_plan_id":"free"},{"bike_id":"e4858baf-592a-49c6-a3e3-95751bda04e5","system_id":"levelo_inurba_marseille","lat":43.31991,"lon":5.38151,"is_reserved":false,"is_disabled":false,"rental_uris":{"android":"levelo://app?vid=e4858baf-592a-49c6-a3e3-95751bda04e5","ios":"levelo://app?vid=e4858baf-592a-49c6-a3e3-95751bda04e5"},"vehicle_type_id":"4","last_reported":1699049176,"current_range_meters":24000,"station_id":"ce4bhr12rcd13ifvqhpg","pricing_plan_id":"free"},{"bike_id":"add9b08f-8fd6-4d79-8d96-799fd63b2d0d","system_id":"levelo_inurba_marseille","lat":43.319928,"lon":5.381502,"is_reserved":false,"is_disabled":false,"rental_uris":{"android":"levelo://app?vid=add9b08f-8fd6-4d79-8d96-799fd63b2d0d","ios":"levelo://app?vid=add9b08f-8fd6-4d79-8d96-799fd63b2d0d"},"vehicle_type_id":"4","last_reported":1699049176,"current_range_meters":11600,"station_id":"ce4bhr12rcd13ifvqhpg","pricing_plan_id":"free"},{"bike_id":"5fe8c6f4-78a2-4ea7-bd51-5d4a26798d19","system_id":"levelo_inurba_marseille","lat":43.31997,"lon":5.38151,"is_reserved":false,"is_disabled":false,"rental_uris":{"android":"levelo://app?vid=5fe8c6f4-78a2-4ea7-bd51-5d4a26798d19","ios":"levelo://app?vid=5fe8c6f4-78a2-4ea7-bd51-5d4a26798d19"},"vehicle_type_id":"4","last_reported":1699049176,"current_range_meters":15200,"station_id":"ce4bhr12rcd13ifvqhpg","pricing_plan_id":"free"},{"bike_id":"cf991fb9-c9e5-4dc3-8a83-ef868324cca6","system_id":"levelo_inurba_marseille","lat":43.31993,"lon":5.38155,"is_reserved":false,"is_disabled":false,"rental_uris":{"android":"levelo://app?vid=cf991fb9-c9e5-4dc3-8a83-ef868324cca6","ios":"levelo://app?vid=cf991fb9-c9e5-4dc3-8a83-ef868324cca6"},"vehicle_type_id":"4","last_reported":1699049176,"current_range_meters":10000,"station_id":"ce4bhr12rcd13ifvqhpg","pricing_plan_id":"free"},{"bike_id":"3f2c2093-4a23-4121-b50d-71f37016ef76","system_id":"levelo_inurba_marseille","lat":43.314811,"lon":5.373103,"is_reserved":false,"is_disabled":false,"rental_uris":{"android":"levelo://app?vid=3f2c2093-4a23-4121-b50d-71f37016ef76","ios":"levelo://app?vid=3f2c2093-4a23-4121-b50d-71f37016ef76"},"vehicle_type_id":"4","last_reported":1699049176,"current_range_meters":22800,"station_id":"ce4bgt12rcd13ifvqcd0","pricing_plan_id":"free"},{"bike_id":"8fb8c0f8-f16b-4f62-97d0-42b6616f09c9","system_id":"levelo_inurba_marseille","lat":43.31992,"lon":5.3816,"is_reserved":false,"is_disabled":false,"rental_uris":{"android":"levelo://app?vid=8fb8c0f8-f16b-4f62-97d0-42b6616f09c9","ios":"levelo://app?vid=8fb8c0f8-f16b-4f62-97d0-42b6616f09c9"},"vehicle_type_id":"4","last_reported":1699049176,"current_range_meters":12400,"station_id":"ce4bhr12rcd13ifvqhpg","pricing_plan_id":"free"},{"bike_id":"49e9a2f0-9562-4fe8-81dc-763f76d1e943","system_id":"levelo_inurba_marseille","lat":43.313571,"lon":5.384829,"is_reserved":false,"is_disabled":false,"rental_uris":{"android":"levelo://app?vid=49e9a2f0-9562-4fe8-81dc-763f76d1e943","ios":"levelo://app?vid=49e9a2f0-9562-4fe8-81dc-763f76d1e943"},"vehicle_type_id":"4","last_reported":1699049176,"current_range_meters":400,"station_id":"ce4bgt92rcd13ifvqcf0","pricing_plan_id":"free"},{"bike_id":"ae7f1c7d-e06a-4d43-ad6e-c589a6e26751","system_id":"levelo_inurba_marseille","lat":43.313616,"lon":5.384932,"is_reserved":false,"is_disabled":false,"rental_uris":{"android":"levelo://app?vid=ae7f1c7d-e06a-4d43-ad6e-c589a6e26751","ios":"levelo://app?vid=ae7f1c7d-e06a-4d43-ad6e-c589a6e26751"},"vehicle_type_id":"4","last_reported":1699049176,"current_range_meters":23200,"station_id":"ce4bgt92rcd13ifvqcf0","pricing_plan_id":"free"},{"bike_id":"27913e16-499e-4575-88e5-42c0d0cb3504","system_id":"levelo_inurba_marseille","lat":43.313624,"lon":5.384939,"is_reserved":false,"is_disabled":false,"rental_uris":{"android":"levelo://app?vid=27913e16-499e-4575-88e5-42c0d0cb3504","ios":"levelo://app?vid=27913e16-499e-4575-88e5-42c0d0cb3504"},"vehicle_type_id":"4","last_reported":1699049176,"current_range_meters":6400,"station_id":"ce4bgt92rcd13ifvqcf0","pricing_plan_id":"free"},{"bike_id":"af31bbb1-e8d5-4286-a43b-fb6fb4c240ce","system_id":"levelo_inurba_marseille","lat":43.313571,"lon":5.384829,"is_reserved":false,"is_disabled":false,"rental_uris":{"android":"levelo://app?vid=af31bbb1-e8d5-4286-a43b-fb6fb4c240ce","ios":"levelo://app?vid=af31bbb1-e8d5-4286-a43b-fb6fb4c240ce"},"vehicle_type_id":"4","last_reported":1699049176,"current_range_meters":31600,"station_id":"ce4bgt92rcd13ifvqcf0","pricing_plan_id":"free"},{"bike_id":"588e4a77-5913-45fa-99e9-f93608911743","system_id":"levelo_inurba_marseille","lat":43.313571,"lon":5.384829,"is_reserved":false,"is_disabled":false,"rental_uris":{"android":"levelo://app?vid=588e4a77-5913-45fa-99e9-f93608911743","ios":"levelo://app?vid=588e4a77-5913-45fa-99e9-f93608911743"},"vehicle_type_id":"4","last_reported":1699049176,"current_range_meters":4000,"station_id":"ce4bgt92rcd13ifvqcf0","pricing_plan_id":"free"},{"bike_id":"4801985b-f5e0-4a2d-9053-e2302a618a34","system_id":"levelo_inurba_marseille","lat":43.313571,"lon":5.384829,"is_reserved":false,"is_disabled":false,"rental_uris":{"android":"levelo://app?vid=4801985b-f5e0-4a2d-9053-e2302a618a34","ios":"levelo://app?vid=4801985b-f5e0-4a2d-9053-e2302a618a34"},"vehicle_type_id":"4","last_reported":1699049176,"current_range_meters":31600,"station_id":"ce4bgt92rcd13ifvqcf0","pricing_plan_id":"free"},{"bike_id":"086b3565-42df-4ea8-ab22-e5b711b9c425","system_id":"levelo_inurba_marseille","lat":43.31373,"lon":5.38504,"is_reserved":false,"is_disabled":false,"rental_uris":{"android":"levelo://app?vid=086b3565-42df-4ea8-ab22-e5b711b9c425","ios":"levelo://app?vid=086b3565-42df-4ea8-ab22-e5b711b9c425"},"vehicle_type_id":"4","last_reported":1699049176,"current_range_meters":0,"station_id":"ce4bgt92rcd13ifvqcf0","pricing_plan_id":"free"},{"bike_id":"cffe800b-8e46-4367-92e9-d9a0f2cba0f2","system_id":"levelo_inurba_marseille","lat":43.299626,"lon":5.375372,"is_reserved":false,"is_disabled":false,"rental_uris":{"android":"levelo://app?vid=cffe800b-8e46-4367-92e9-d9a0f2cba0f2","ios":"levelo://app?vid=cffe800b-8e46-4367-92e9-d9a0f2cba0f2"},"vehicle_type_id":"4","last_reported":1699049176,"current_range_meters":28800,"station_id":"ce4bgjh2rcd13ifvqbg0","pricing_plan_id":"free"},{"bike_id":"09a9d0ac-b162-46d5-b21b-9d04aef27bd6","system_id":"levelo_inurba_marseille","lat":43.298433,"lon":5.362774,"is_reserved":false,"is_disabled":false,"rental_uris":{"android":"levelo://app?vid=09a9d0ac-b162-46d5-b21b-9d04aef27bd6","ios":"levelo://app?vid=09a9d0ac-b162-46d5-b21b-9d04aef27bd6"},"vehicle_type_id":"4","last_reported":1699049176,"current_range_meters":11200,"station_id":"ce4bgpp2rcd13ifvqc3g","pricing_plan_id":"free"},{"bike_id":"c836065e-32af-4ac2-9ed4-5ccae2ce382b","system_id":"levelo_inurba_marseille","lat":43.305364,"lon":5.384119,"is_reserved":false,"is_disabled":false,"rental_uris":{"android":"levelo://app?vid=c836065e-32af-4ac2-9ed4-5ccae2ce382b","ios":"levelo://app?vid=c836065e-32af-4ac2-9ed4-5ccae2ce382b"},"vehicle_type_id":"4","last_reported":1699049176,"current_range_meters":18400,"station_id":"ce4bgg92rcd13ifvqb30","pricing_plan_id":"free"},{"bike_id":"0834c918-9ed3-44ce-b45b-524ab7586162","system_id":"levelo_inurba_marseille","lat":43.298433,"lon":5.362774,"is_reserved":false,"is_disabled":false,"rental_uris":{"android":"levelo://app?vid=0834c918-9ed3-44ce-b45b-524ab7586162","ios":"levelo://app?vid=0834c918-9ed3-44ce-b45b-524ab7586162"},"vehicle_type_id":"4","last_reported":1699049176,"current_range_meters":18000,"station_id":"ce4bgpp2rcd13ifvqc3g","pricing_plan_id":"free"},{"bike_id":"98afa840-1e89-4103-af07-3563fbb9df6c","system_id":"levelo_inurba_marseille","lat":43.305364,"lon":5.384119,"is_reserved":false,"is_disabled":false,"rental_uris":{"android":"levelo://app?vid=98afa840-1e89-4103-af07-3563fbb9df6c","ios":"levelo://app?vid=98afa840-1e89-4103-af07-3563fbb9df6c"},"vehicle_type_id":"4","last_reported":1699049176,"current_range_meters":29600,"station_id":"ce4bgg92rcd13ifvqb30","pricing_plan_id":"free"},{"bike_id":"6fb3ce84-0832-4f03-aa40-befd2d458dd2","system_id":"levelo_inurba_marseille","lat":43.311722,"lon":5.387247,"is_reserved":false,"is_disabled":false,"rental_uris":{"android":"levelo://app?vid=6fb3ce84-0832-4f03-aa40-befd2d458dd2","ios":"levelo://app?vid=6fb3ce84-0832-4f03-aa40-befd2d458dd2"},"vehicle_type_id":"4","last_reported":1699049176,"current_range_meters":15200,"station_id":"ce4bgv12rcd13ifvqcp0","pricing_plan_id":"free"},{"bike_id":"1aa05440-d3e4-4cc4-a015-dc0c40d0d3f6","system_id":"levelo_inurba_marseille","lat":43.311722,"lon":5.387247,"is_reserved":false,"is_disabled":false,"rental_uris":{"android":"levelo://app?vid=1aa05440-d3e4-4cc4-a015-dc0c40d0d3f6","ios":"levelo://app?vid=1aa05440-d3e4-4cc4-a015-dc0c40d0d3f6"},"vehicle_type_id":"4","last_reported":1699049176,"current_range_meters":18000,"station_id":"ce4bgv12rcd13ifvqcp0","pricing_plan_id":"free"},{"bike_id":"e780bff0-fdb4-433e-bda2-e3a59b8ee66e","system_id":"levelo_inurba_marseille","lat":43.311722,"lon":5.387247,"is_reserved":false,"is_disabled":false,"rental_uris":{"android":"levelo://app?vid=e780bff0-fdb4-433e-bda2-e3a59b8ee66e","ios":"levelo://app?vid=e780bff0-fdb4-433e-bda2-e3a59b8ee66e"},"vehicle_type_id":"4","last_reported":1699049176,"current_range_meters":31200,"station_id":"ce4bgv12rcd13ifvqcp0","pricing_plan_id":"free"},{"bike_id":"30e99107-eed3-497c-a11b-e13a73688b6a","system_id":"levelo_inurba_marseille","lat":43.311722,"lon":5.387247,"is_reserved":false,"is_disabled":false,"rental_uris":{"android":"levelo://app?vid=30e99107-eed3-497c-a11b-e13a73688b6a","ios":"levelo://app?vid=30e99107-eed3-497c-a11b-e13a73688b6a"},"vehicle_type_id":"4","last_reported":1699049176,"current_range_meters":22400,"station_id":"ce4bgv12rcd13ifvqcp0","pricing_plan_id":"free"},{"bike_id":"f77f7db4-413d-4f5a-b45f-951796e99a0d","system_id":"levelo_inurba_marseille","lat":43.311722,"lon":5.387247,"is_reserved":false,"is_disabled":false,"rental_uris":{"android":"levelo://app?vid=f77f7db4-413d-4f5a-b45f-951796e99a0d","ios":"levelo://app?vid=f77f7db4-413d-4f5a-b45f-951796e99a0d"},"vehicle_type_id":"4","last_reported":1699049176,"current_range_meters":400,"station_id":"ce4bgv12rcd13ifvqcp0","pricing_plan_id":"free"},{"bike_id":"4fe3ce85-8502-4ba9-bd82-ee9b5d6564ff","system_id":"levelo_inurba_marseille","lat":43.311722,"lon":5.387247,"is_reserved":false,"is_disabled":false,"rental_uris":{"android":"levelo://app?vid=4fe3ce85-8502-4ba9-bd82-ee9b5d6564ff","ios":"levelo://app?vid=4fe3ce85-8502-4ba9-bd82-ee9b5d6564ff"},"vehicle_type_id":"4","last_reported":1699049176,"current_range_meters":25200,"station_id":"ce4bgv12rcd13ifvqcp0","pricing_plan_id":"free"},{"bike_id":"efd49251-3155-4ae1-959b-3dbe1b8f8577","system_id":"levelo_inurba_marseille","lat":43.299265,"lon":5.375378,"is_reserved":false,"is_disabled":false,"rental_uris":{"android":"levelo://app?vid=efd49251-3155-4ae1-959b-3dbe1b8f8577","ios":"levelo://app?vid=efd49251-3155-4ae1-959b-3dbe1b8f8577"},"vehicle_type_id":"4","last_reported":1699049176,"current_range_meters":22400,"station_id":"","pricing_plan_id":"free"},{"bike_id":"1c2c73ff-4601-4f33-b97f-da95bc589609","system_id":"levelo_inurba_marseille","lat":43.322311,"lon":5.383026,"is_reserved":false,"is_disabled":false,"rental_uris":{"android":"levelo://app?vid=1c2c73ff-4601-4f33-b97f-da95bc589609","ios":"levelo://app?vid=1c2c73ff-4601-4f33-b97f-da95bc589609"},"vehicle_type_id":"4","last_reported":1699049176,"current_range_meters":18800,"station_id":"","pricing_plan_id":"free"},{"bike_id":"ee04e5cc-451d-44b6-bca0-cfc749a45964","system_id":"levelo_inurba_marseille","lat":43.322872,"lon":5.382756,"is_reserved":false,"is_disabled":false,"rental_uris":{"android":"levelo://app?vid=ee04e5cc-451d-44b6-bca0-cfc749a45964","ios":"levelo://app?vid=ee04e5cc-451d-44b6-bca0-cfc749a45964"},"vehicle_type_id":"4","last_reported":1699049176,"current_range_meters":24400,"station_id":"ce4bhr12rcd13ifvqhqg","pricing_plan_id":"free"},{"bike_id":"b697629d-425e-4f98-b283-fdda312f1cec","system_id":"levelo_inurba_marseille","lat":43.322872,"lon":5.382756,"is_reserved":false,"is_disabled":false,"rental_uris":{"android":"levelo://app?vid=b697629d-425e-4f98-b283-fdda312f1cec","ios":"levelo://app?vid=b697629d-425e-4f98-b283-fdda312f1cec"},"vehicle_type_id":"4","last_reported":1699049176,"current_range_meters":23600,"station_id":"ce4bhr12rcd13ifvqhqg","pricing_plan_id":"free"},{"bike_id":"c9428514-9197-4976-812b-d61139ef9187","system_id":"levelo_inurba_marseille","lat":43.318846,"lon":5.386473,"is_reserved":false,"is_disabled":false,"rental_uris":{"android":"levelo://app?vid=c9428514-9197-4976-812b-d61139ef9187","ios":"levelo://app?vid=c9428514-9197-4976-812b-d61139ef9187"},"vehicle_type_id":"4","last_reported":1699049176,"current_range_meters":11600,"station_id":"","pricing_plan_id":"free"},{"bike_id":"5c14b4e6-da06-4ab2-b6ba-b1edddc68652","system_id":"levelo_inurba_marseille","lat":43.328242,"lon":5.366831,"is_reserved":false,"is_disabled":false,"rental_uris":{"android":"levelo://app?vid=5c14b4e6-da06-4ab2-b6ba-b1edddc68652","ios":"levelo://app?vid=5c14b4e6-da06-4ab2-b6ba-b1edddc68652"},"vehicle_type_id":"4","last_reported":1699049176,"current_range_meters":7600,"station_id":"ce4bhs92rcd13ifvqi0g","pricing_plan_id":"free"},{"bike_id":"21426a0d-604c-4933-9dde-aad2feebdc38","system_id":"levelo_inurba_marseille","lat":43.328258,"lon":5.366927,"is_reserved":false,"is_disabled":false,"rental_uris":{"android":"levelo://app?vid=21426a0d-604c-4933-9dde-aad2feebdc38","ios":"levelo://app?vid=21426a0d-604c-4933-9dde-aad2feebdc38"},"vehicle_type_id":"4","last_reported":1699049176,"current_range_meters":4000,"station_id":"ce4bhs92rcd13ifvqi0g","pricing_plan_id":"free"},{"bike_id":"d2255325-c858-4507-8c11-bdd56a1224e0","system_id":"levelo_inurba_marseille","lat":43.32826,"lon":5.36692,"is_reserved":false,"is_disabled":false,"rental_uris":{"android":"levelo://app?vid=d2255325-c858-4507-8c11-bdd56a1224e0","ios":"levelo://app?vid=d2255325-c858-4507-8c11-bdd56a1224e0"},"vehicle_type_id":"4","last_reported":1699049176,"current_range_meters":6000,"station_id":"ce4bhs92rcd13ifvqi0g","pricing_plan_id":"free"},{"bike_id":"f53f541f-7eea-4f04-9b6f-009d5c35ca5e","system_id":"levelo_inurba_marseille","lat":43.328264,"lon":5.366906,"is_reserved":false,"is_disabled":false,"rental_uris":{"android":"levelo://app?vid=f53f541f-7eea-4f04-9b6f-009d5c35ca5e","ios":"levelo://app?vid=f53f541f-7eea-4f04-9b6f-009d5c35ca5e"},"vehicle_type_id":"4","last_reported":1699049176,"current_range_meters":10800,"station_id":"ce4bhs92rcd13ifvqi0g","pricing_plan_id":"free"},{"bike_id":"260c645f-b280-4251-8fb9-e89c0f995509","system_id":"levelo_inurba_marseille","lat":43.32827,"lon":5.36692,"is_reserved":false,"is_disabled":false,"rental_uris":{"android":"levelo://app?vid=260c645f-b280-4251-8fb9-e89c0f995509","ios":"levelo://app?vid=260c645f-b280-4251-8fb9-e89c0f995509"},"vehicle_type_id":"4","last_reported":1699049176,"current_range_meters":14000,"station_id":"ce4bhs92rcd13ifvqi0g","pricing_plan_id":"free"},{"bike_id":"cfba6876-7d13-4127-9fa5-b0d2ec8c021a","system_id":"levelo_inurba_marseille","lat":43.32827,"lon":5.3669,"is_reserved":false,"is_disabled":false,"rental_uris":{"android":"levelo://app?vid=cfba6876-7d13-4127-9fa5-b0d2ec8c021a","ios":"levelo://app?vid=cfba6876-7d13-4127-9fa5-b0d2ec8c021a"},"vehicle_type_id":"4","last_reported":1699049176,"current_range_meters":16000,"station_id":"ce4bhs92rcd13ifvqi0g","pricing_plan_id":"free"},{"bike_id":"7654d496-15f6-460d-8aaa-7eaa097202e7","system_id":"levelo_inurba_marseille","lat":43.328305,"lon":5.366931,"is_reserved":false,"is_disabled":false,"rental_uris":{"android":"levelo://app?vid=7654d496-15f6-460d-8aaa-7eaa097202e7","ios":"levelo://app?vid=7654d496-15f6-460d-8aaa-7eaa097202e7"},"vehicle_type_id":"4","last_reported":1699049176,"current_range_meters":22000,"station_id":"ce4bhs92rcd13ifvqi0g","pricing_plan_id":"free"},{"bike_id":"3fdcc5f8-0615-4665-8702-82a61c45573e","system_id":"levelo_inurba_marseille","lat":43.297139,"lon":5.366198,"is_reserved":false,"is_disabled":false,"rental_uris":{"android":"levelo://app?vid=3fdcc5f8-0615-4665-8702-82a61c45573e","ios":"levelo://app?vid=3fdcc5f8-0615-4665-8702-82a61c45573e"},"vehicle_type_id":"4","last_reported":1699049176,"current_range_meters":18800,"station_id":"ce4bgn12rcd13ifvqbt0","pricing_plan_id":"free"},{"bike_id":"9074b944-e323-4d7e-8af9-fb4d335df0d6","system_id":"levelo_inurba_marseille","lat":43.297163,"lon":5.365866,"is_reserved":false,"is_disabled":false,"rental_uris":{"android":"levelo://app?vid=9074b944-e323-4d7e-8af9-fb4d335df0d6","ios":"levelo://app?vid=9074b944-e323-4d7e-8af9-fb4d335df0d6"},"vehicle_type_id":"4","last_reported":1699049176,"current_range_meters":31200,"station_id":"ce4bgn12rcd13ifvqbt0","pricing_plan_id":"free"},{"bike_id":"67bb7dbe-50ea-4249-bc98-d0ad4814b4a6","system_id":"levelo_inurba_marseille","lat":43.321453,"lon":5.385595,"is_reserved":false,"is_disabled":false,"rental_uris":{"android":"levelo://app?vid=67bb7dbe-50ea-4249-bc98-d0ad4814b4a6","ios":"levelo://app?vid=67bb7dbe-50ea-4249-bc98-d0ad4814b4a6"},"vehicle_type_id":"4","last_reported":1699049176,"current_range_meters":21200,"station_id":"","pricing_plan_id":"free"},{"bike_id":"783c8e85-3627-48d0-a30e-1b3607caab15","system_id":"levelo_inurba_marseille","lat":43.2968,"lon":5.37291,"is_reserved":false,"is_disabled":false,"rental_uris":{"android":"levelo://app?vid=783c8e85-3627-48d0-a30e-1b3607caab15","ios":"levelo://app?vid=783c8e85-3627-48d0-a30e-1b3607caab15"},"vehicle_type_id":"4","last_reported":1699049176,"current_range_meters":25200,"station_id":"ce4bgk12rcd13ifvqbj0","pricing_plan_id":"free"},{"bike_id":"ac64cfce-5505-455a-9537-62af5dd3a90a","system_id":"levelo_inurba_marseille","lat":43.32355,"lon":5.38416,"is_reserved":false,"is_disabled":false,"rental_uris":{"android":"levelo://app?vid=ac64cfce-5505-455a-9537-62af5dd3a90a","ios":"levelo://app?vid=ac64cfce-5505-455a-9537-62af5dd3a90a"},"vehicle_type_id":"4","last_reported":1699049176,"current_range_meters":22800,"station_id":"","pricing_plan_id":"free"},{"bike_id":"9aed42d4-658b-461f-a304-1a5965defe29","system_id":"levelo_inurba_marseille","lat":43.296764,"lon":5.372906,"is_reserved":false,"is_disabled":false,"rental_uris":{"android":"levelo://app?vid=9aed42d4-658b-461f-a304-1a5965defe29","ios":"levelo://app?vid=9aed42d4-658b-461f-a304-1a5965defe29"},"vehicle_type_id":"4","last_reported":1699049176,"current_range_meters":4400,"station_id":"ce4bgk12rcd13ifvqbj0","pricing_plan_id":"free"},{"bike_id":"63233ee7-73f7-4fce-a898-a89656e60c34","system_id":"levelo_inurba_marseille","lat":43.29608,"lon":5.36794,"is_reserved":false,"is_disabled":false,"rental_uris":{"android":"levelo://app?vid=63233ee7-73f7-4fce-a898-a89656e60c34","ios":"levelo://app?vid=63233ee7-73f7-4fce-a898-a89656e60c34"},"vehicle_type_id":"4","last_reported":1699049176,"current_range_meters":24400,"station_id":"ce4bgph2rcd13ifvqc2g","pricing_plan_id":"free"},{"bike_id":"5a3e4389-a6dc-483b-abd6-709292f6e071","system_id":"levelo_inurba_marseille","lat":43.295868,"lon":5.367123,"is_reserved":false,"is_disabled":false,"rental_uris":{"android":"levelo://app?vid=5a3e4389-a6dc-483b-abd6-709292f6e071","ios":"levelo://app?vid=5a3e4389-a6dc-483b-abd6-709292f6e071"},"vehicle_type_id":"4","last_reported":1699049176,"current_range_meters":17600,"station_id":"ce4bgph2rcd13ifvqc2g","pricing_plan_id":"free"},{"bike_id":"1e1aae98-dd98-415e-81c9-3270f145279e","system_id":"levelo_inurba_marseille","lat":43.29587,"lon":5.36751,"is_reserved":false,"is_disabled":false,"rental_uris":{"android":"levelo://app?vid=1e1aae98-dd98-415e-81c9-3270f145279e","ios":"levelo://app?vid=1e1aae98-dd98-415e-81c9-3270f145279e"},"vehicle_type_id":"4","last_reported":1699049176,"current_range_meters":26800,"station_id":"ce4bgph2rcd13ifvqc2g","pricing_plan_id":"free"},{"bike_id":"770aa8b0-74e4-477c-8cc4-fd5d552902a6","system_id":"levelo_inurba_marseille","lat":43.321356,"lon":5.386887,"is_reserved":false,"is_disabled":false,"rental_uris":{"android":"levelo://app?vid=770aa8b0-74e4-477c-8cc4-fd5d552902a6","ios":"levelo://app?vid=770aa8b0-74e4-477c-8cc4-fd5d552902a6"},"vehicle_type_id":"4","last_reported":1699049176,"current_range_meters":9200,"station_id":"","pricing_plan_id":"free"},{"bike_id":"2ad15779-5b0b-424d-ad3b-069173df0522","system_id":"levelo_inurba_marseille","lat":43.299028,"lon":5.381509,"is_reserved":false,"is_disabled":false,"rental_uris":{"android":"levelo://app?vid=2ad15779-5b0b-424d-ad3b-069173df0522","ios":"levelo://app?vid=2ad15779-5b0b-424d-ad3b-069173df0522"},"vehicle_type_id":"4","last_reported":1699049176,"current_range_meters":24000,"station_id":"ce4bgj12rcd13ifvqbc0","pricing_plan_id":"free"},{"bike_id":"549077a0-761c-4c9a-8ca8-ece096372dfe","system_id":"levelo_inurba_marseille","lat":43.29686,"lon":5.37679,"is_reserved":false,"is_disabled":false,"rental_uris":{"android":"levelo://app?vid=549077a0-761c-4c9a-8ca8-ece096372dfe","ios":"levelo://app?vid=549077a0-761c-4c9a-8ca8-ece096372dfe"},"vehicle_type_id":"4","last_reported":1699049176,"current_range_meters":20400,"station_id":"ce4bgkh2rcd13ifvqbl0","pricing_plan_id":"free"},{"bike_id":"d5c9ee0a-78c9-46f1-87d4-bbc5f0a44700","system_id":"levelo_inurba_marseille","lat":43.317557,"lon":5.390173,"is_reserved":false,"is_disabled":false,"rental_uris":{"android":"levelo://app?vid=d5c9ee0a-78c9-46f1-87d4-bbc5f0a44700","ios":"levelo://app?vid=d5c9ee0a-78c9-46f1-87d4-bbc5f0a44700"},"vehicle_type_id":"4","last_reported":1699049176,"current_range_meters":19600,"station_id":"ce4bhqp2rcd13ifvqhng","pricing_plan_id":"free"},{"bike_id":"00489ca4-d92c-4240-ac05-bd645584ff93","system_id":"levelo_inurba_marseille","lat":43.317557,"lon":5.390173,"is_reserved":false,"is_disabled":false,"rental_uris":{"android":"levelo://app?vid=00489ca4-d92c-4240-ac05-bd645584ff93","ios":"levelo://app?vid=00489ca4-d92c-4240-ac05-bd645584ff93"},"vehicle_type_id":"4","last_reported":1699049176,"current_range_meters":31200,"station_id":"ce4bhqp2rcd13ifvqhng","pricing_plan_id":"free"},{"bike_id":"94055e37-3ed7-4f2c-9e71-a020e433bf13","system_id":"levelo_inurba_marseille","lat":43.317557,"lon":5.390173,"is_reserved":false,"is_disabled":false,"rental_uris":{"android":"levelo://app?vid=94055e37-3ed7-4f2c-9e71-a020e433bf13","ios":"levelo://app?vid=94055e37-3ed7-4f2c-9e71-a020e433bf13"},"vehicle_type_id":"4","last_reported":1699049176,"current_range_meters":18000,"station_id":"ce4bhqp2rcd13ifvqhng","pricing_plan_id":"free"},{"bike_id":"e5fa755e-a8dc-460e-9d07-b913fcd4d5ba","system_id":"levelo_inurba_marseille","lat":43.304274,"lon":5.388873,"is_reserved":false,"is_disabled":false,"rental_uris":{"android":"levelo://app?vid=e5fa755e-a8dc-460e-9d07-b913fcd4d5ba","ios":"levelo://app?vid=e5fa755e-a8dc-460e-9d07-b913fcd4d5ba"},"vehicle_type_id":"4","last_reported":1699049176,"current_range_meters":4400,"station_id":"ce4bgk12rcd13ifvqbi0","pricing_plan_id":"free"},{"bike_id":"2c39c7c5-69d2-429d-a1c7-eaec6d108b7f","system_id":"levelo_inurba_marseille","lat":43.296238,"lon":5.377179,"is_reserved":false,"is_disabled":false,"rental_uris":{"android":"levelo://app?vid=2c39c7c5-69d2-429d-a1c7-eaec6d108b7f","ios":"levelo://app?vid=2c39c7c5-69d2-429d-a1c7-eaec6d108b7f"},"vehicle_type_id":"4","last_reported":1699049176,"current_range_meters":18800,"station_id":"ce4bgh92rcd13ifvqb50","pricing_plan_id":"free"},{"bike_id":"bb9c906d-57e7-470c-b348-d033ce3137d9","system_id":"levelo_inurba_marseille","lat":43.304274,"lon":5.388873,"is_reserved":false,"is_disabled":false,"rental_uris":{"android":"levelo://app?vid=bb9c906d-57e7-470c-b348-d033ce3137d9","ios":"levelo://app?vid=bb9c906d-57e7-470c-b348-d033ce3137d9"},"vehicle_type_id":"4","last_reported":1699049176,"current_range_meters":0,"station_id":"ce4bgk12rcd13ifvqbi0","pricing_plan_id":"free"},{"bike_id":"641e7282-ce6a-42c4-91bf-87c08e1aa752","system_id":"levelo_inurba_marseille","lat":43.299707,"lon":5.384859,"is_reserved":false,"is_disabled":false,"rental_uris":{"android":"levelo://app?vid=641e7282-ce6a-42c4-91bf-87c08e1aa752","ios":"levelo://app?vid=641e7282-ce6a-42c4-91bf-87c08e1aa752"},"vehicle_type_id":"4","last_reported":1699049176,"current_range_meters":20400,"station_id":"ce4bgj92rcd13ifvqbd0","pricing_plan_id":"free"},{"bike_id":"f3599ee5-2e89-4fc7-9f7f-87ed2781fa02","system_id":"levelo_inurba_marseille","lat":43.295279,"lon":5.375048,"is_reserved":false,"is_disabled":false,"rental_uris":{"android":"levelo://app?vid=f3599ee5-2e89-4fc7-9f7f-87ed2781fa02","ios":"levelo://app?vid=f3599ee5-2e89-4fc7-9f7f-87ed2781fa02"},"vehicle_type_id":"4","last_reported":1699049176,"current_range_meters":0,"station_id":"ce4bgkp2rcd13ifvqbmg","pricing_plan_id":"free"},{"bike_id":"1f580447-7b2c-4630-9a51-33e28281b372","system_id":"levelo_inurba_marseille","lat":43.329065,"lon":5.379814,"is_reserved":false,"is_disabled":false,"rental_uris":{"android":"levelo://app?vid=1f580447-7b2c-4630-9a51-33e28281b372","ios":"levelo://app?vid=1f580447-7b2c-4630-9a51-33e28281b372"},"vehicle_type_id":"4","last_reported":1699049176,"current_range_meters":18400,"station_id":"","pricing_plan_id":"free"},{"bike_id":"ecf94d7b-2238-4a61-8042-e3febbffae63","system_id":"levelo_inurba_marseille","lat":43.299323,"lon":5.385518,"is_reserved":false,"is_disabled":false,"rental_uris":{"android":"levelo://app?vid=ecf94d7b-2238-4a61-8042-e3febbffae63","ios":"levelo://app?vid=ecf94d7b-2238-4a61-8042-e3febbffae63"},"vehicle_type_id":"4","last_reported":1699049176,"current_range_meters":30400,"station_id":"","pricing_plan_id":"free"},{"bike_id":"13d5d1b1-8cbf-427a-b576-7c021d5f4c3b","system_id":"levelo_inurba_marseille","lat":43.301253,"lon":5.387823,"is_reserved":false,"is_disabled":false,"rental_uris":{"android":"levelo://app?vid=13d5d1b1-8cbf-427a-b576-7c021d5f4c3b","ios":"levelo://app?vid=13d5d1b1-8cbf-427a-b576-7c021d5f4c3b"},"vehicle_type_id":"4","last_reported":1699049176,"current_range_meters":9600,"station_id":"","pricing_plan_id":"free"},{"bike_id":"eab5d605-eaca-4660-a5fd-3fd2b2fdfd03","system_id":"levelo_inurba_marseille","lat":43.29476,"lon":5.37582,"is_reserved":false,"is_disabled":false,"rental_uris":{"android":"levelo://app?vid=eab5d605-eaca-4660-a5fd-3fd2b2fdfd03","ios":"levelo://app?vid=eab5d605-eaca-4660-a5fd-3fd2b2fdfd03"},"vehicle_type_id":"4","last_reported":1699049176,"current_range_meters":2000,"station_id":"","pricing_plan_id":"free"},{"bike_id":"65c07c50-a261-421e-8836-6e677fa33cfb","system_id":"levelo_inurba_marseille","lat":43.306938,"lon":5.392166,"is_reserved":false,"is_disabled":false,"rental_uris":{"android":"levelo://app?vid=65c07c50-a261-421e-8836-6e677fa33cfb","ios":"levelo://app?vid=65c07c50-a261-421e-8836-6e677fa33cfb"},"vehicle_type_id":"4","last_reported":1699049176,"current_range_meters":21600,"station_id":"","pricing_plan_id":"free"},{"bike_id":"29291321-bca7-47e1-96f9-047cfb45e33f","system_id":"levelo_inurba_marseille","lat":43.32367,"lon":5.388836,"is_reserved":false,"is_disabled":false,"rental_uris":{"android":"levelo://app?vid=29291321-bca7-47e1-96f9-047cfb45e33f","ios":"levelo://app?vid=29291321-bca7-47e1-96f9-047cfb45e33f"},"vehicle_type_id":"4","last_reported":1699049176,"current_range_meters":4400,"station_id":"ce4bhqp2rcd13ifvqhog","pricing_plan_id":"free"},{"bike_id":"41d9bf34-c4dd-457e-b620-4a0da4249d85","system_id":"levelo_inurba_marseille","lat":43.29602,"lon":5.381084,"is_reserved":false,"is_disabled":false,"rental_uris":{"android":"levelo://app?vid=41d9bf34-c4dd-457e-b620-4a0da4249d85","ios":"levelo://app?vid=41d9bf34-c4dd-457e-b620-4a0da4249d85"},"vehicle_type_id":"4","last_reported":1699049176,"current_range_meters":12800,"station_id":"ce4bgl12rcd13ifvqbo0","pricing_plan_id":"free"},{"bike_id":"9e2dfa6e-001e-4da4-b003-05985dfb3e2c","system_id":"levelo_inurba_marseille","lat":43.29602,"lon":5.381084,"is_reserved":false,"is_disabled":false,"rental_uris":{"android":"levelo://app?vid=9e2dfa6e-001e-4da4-b003-05985dfb3e2c","ios":"levelo://app?vid=9e2dfa6e-001e-4da4-b003-05985dfb3e2c"},"vehicle_type_id":"4","last_reported":1699049176,"current_range_meters":27200,"station_id":"ce4bgl12rcd13ifvqbo0","pricing_plan_id":"free"},{"bike_id":"498bb7f4-1c70-4ac9-b715-25857fb7c2a7","system_id":"levelo_inurba_marseille","lat":43.29465,"lon":5.37781,"is_reserved":false,"is_disabled":false,"rental_uris":{"android":"levelo://app?vid=498bb7f4-1c70-4ac9-b715-25857fb7c2a7","ios":"levelo://app?vid=498bb7f4-1c70-4ac9-b715-25857fb7c2a7"},"vehicle_type_id":"4","last_reported":1699049176,"current_range_meters":8400,"station_id":"","pricing_plan_id":"free"},{"bike_id":"547a7cfc-5b52-446d-9105-ee3d3597290f","system_id":"levelo_inurba_marseille","lat":43.33055,"lon":5.37881,"is_reserved":false,"is_disabled":false,"rental_uris":{"android":"levelo://app?vid=547a7cfc-5b52-446d-9105-ee3d3597290f","ios":"levelo://app?vid=547a7cfc-5b52-446d-9105-ee3d3597290f"},"vehicle_type_id":"4","last_reported":1699049176,"current_range_meters":24400,"station_id":"","pricing_plan_id":"free"},{"bike_id":"53496846-918f-48f2-940b-231de40ebca8","system_id":"levelo_inurba_marseille","lat":43.293259,"lon":5.371586,"is_reserved":false,"is_disabled":false,"rental_uris":{"android":"levelo://app?vid=53496846-918f-48f2-940b-231de40ebca8","ios":"levelo://app?vid=53496846-918f-48f2-940b-231de40ebca8"},"vehicle_type_id":"4","last_reported":1699049176,"current_range_meters":31200,"station_id":"ce4bgh92rcd13ifvqb40","pricing_plan_id":"free"},{"bike_id":"f116bde6-6ccd-4387-b15f-ba0d091eaa87","system_id":"levelo_inurba_marseille","lat":43.292749,"lon":5.368402,"is_reserved":false,"is_disabled":false,"rental_uris":{"android":"levelo://app?vid=f116bde6-6ccd-4387-b15f-ba0d091eaa87","ios":"levelo://app?vid=f116bde6-6ccd-4387-b15f-ba0d091eaa87"},"vehicle_type_id":"4","last_reported":1699049176,"current_range_meters":26400,"station_id":"ce4bhbp2rcd13ifvqesg","pricing_plan_id":"free"},{"bike_id":"403d407a-6bd7-4ff6-8f34-3671373e8312","system_id":"levelo_inurba_marseille","lat":43.2927,"lon":5.36847,"is_reserved":false,"is_disabled":false,"rental_uris":{"android":"levelo://app?vid=403d407a-6bd7-4ff6-8f34-3671373e8312","ios":"levelo://app?vid=403d407a-6bd7-4ff6-8f34-3671373e8312"},"vehicle_type_id":"4","last_reported":1699049176,"current_range_meters":24800,"station_id":"ce4bhbp2rcd13ifvqesg","pricing_plan_id":"free"},{"bike_id":"95b38f76-361d-45af-93a5-4380100f8206","system_id":"levelo_inurba_marseille","lat":43.305994,"lon":5.393687,"is_reserved":false,"is_disabled":false,"rental_uris":{"android":"levelo://app?vid=95b38f76-361d-45af-93a5-4380100f8206","ios":"levelo://app?vid=95b38f76-361d-45af-93a5-4380100f8206"},"vehicle_type_id":"4","last_reported":1699049176,"current_range_meters":31200,"station_id":"ce4bh0p2rcd13ifvqd80","pricing_plan_id":"free"},{"bike_id":"19d6c1cb-c68d-438b-9d2d-260be1444450","system_id":"levelo_inurba_marseille","lat":43.303012,"lon":5.39199,"is_reserved":false,"is_disabled":false,"rental_uris":{"android":"levelo://app?vid=19d6c1cb-c68d-438b-9d2d-260be1444450","ios":"levelo://app?vid=19d6c1cb-c68d-438b-9d2d-260be1444450"},"vehicle_type_id":"4","last_reported":1699049176,"current_range_meters":17600,"station_id":"ce4bgkh2rcd13ifvqbk0","pricing_plan_id":"free"},{"bike_id":"ea47003f-eb3e-4642-bdf6-287e1429239c","system_id":"levelo_inurba_marseille","lat":43.303002,"lon":5.392142,"is_reserved":false,"is_disabled":false,"rental_uris":{"android":"levelo://app?vid=ea47003f-eb3e-4642-bdf6-287e1429239c","ios":"levelo://app?vid=ea47003f-eb3e-4642-bdf6-287e1429239c"},"vehicle_type_id":"4","last_reported":1699049176,"current_range_meters":29600,"station_id":"ce4bgkh2rcd13ifvqbk0","pricing_plan_id":"free"},{"bike_id":"ecd5fcfb-e675-41c4-803e-df009ca85e60","system_id":"levelo_inurba_marseille","lat":43.309804,"lon":5.395476,"is_reserved":false,"is_disabled":false,"rental_uris":{"android":"levelo://app?vid=ecd5fcfb-e675-41c4-803e-df009ca85e60","ios":"levelo://app?vid=ecd5fcfb-e675-41c4-803e-df009ca85e60"},"vehicle_type_id":"4","last_reported":1699049176,"current_range_meters":16400,"station_id":"","pricing_plan_id":"free"},{"bike_id":"eb9c8eab-38ed-43ab-b3ef-6d69a0190014","system_id":"levelo_inurba_marseille","lat":43.292311,"lon":5.360731,"is_reserved":false,"is_disabled":false,"rental_uris":{"android":"levelo://app?vid=eb9c8eab-38ed-43ab-b3ef-6d69a0190014","ios":"levelo://app?vid=eb9c8eab-38ed-43ab-b3ef-6d69a0190014"},"vehicle_type_id":"4","last_reported":1699049176,"current_range_meters":0,"station_id":"ce4bhbh2rcd13ifvqeqg","pricing_plan_id":"free"},{"bike_id":"a6ea5838-a4e6-4dfc-b184-0f9e2e8b44a5","system_id":"levelo_inurba_marseille","lat":43.292311,"lon":5.360731,"is_reserved":false,"is_disabled":false,"rental_uris":{"android":"levelo://app?vid=a6ea5838-a4e6-4dfc-b184-0f9e2e8b44a5","ios":"levelo://app?vid=a6ea5838-a4e6-4dfc-b184-0f9e2e8b44a5"},"vehicle_type_id":"4","last_reported":1699049176,"current_range_meters":2000,"station_id":"ce4bhbh2rcd13ifvqeqg","pricing_plan_id":"free"},{"bike_id":"83a9e5fa-3bda-4c50-8fbc-6498bf726c3e","system_id":"levelo_inurba_marseille","lat":43.300852,"lon":5.390859,"is_reserved":false,"is_disabled":false,"rental_uris":{"android":"levelo://app?vid=83a9e5fa-3bda-4c50-8fbc-6498bf726c3e","ios":"levelo://app?vid=83a9e5fa-3bda-4c50-8fbc-6498bf726c3e"},"vehicle_type_id":"4","last_reported":1699049176,"current_range_meters":31200,"station_id":"ce4bh192rcd13ifvqdb0","pricing_plan_id":"free"},{"bike_id":"924f2b8f-6516-4ff7-9de3-39f3f06546f9","system_id":"levelo_inurba_marseille","lat":43.292311,"lon":5.360731,"is_reserved":false,"is_disabled":false,"rental_uris":{"android":"levelo://app?vid=924f2b8f-6516-4ff7-9de3-39f3f06546f9","ios":"levelo://app?vid=924f2b8f-6516-4ff7-9de3-39f3f06546f9"},"vehicle_type_id":"4","last_reported":1699049176,"current_range_meters":3200,"station_id":"ce4bhbh2rcd13ifvqeqg","pricing_plan_id":"free"},{"bike_id":"1575422b-f99f-4525-ab00-681f712b3765","system_id":"levelo_inurba_marseille","lat":43.333047,"lon":5.359521,"is_reserved":false,"is_disabled":false,"rental_uris":{"android":"levelo://app?vid=1575422b-f99f-4525-ab00-681f712b3765","ios":"levelo://app?vid=1575422b-f99f-4525-ab00-681f712b3765"},"vehicle_type_id":"4","last_reported":1699049176,"current_range_meters":10400,"station_id":"","pricing_plan_id":"free"},{"bike_id":"f0429db2-3dc3-415c-9f3c-2a89eea1c5e4","system_id":"levelo_inurba_marseille","lat":43.298764,"lon":5.388973,"is_reserved":false,"is_disabled":false,"rental_uris":{"android":"levelo://app?vid=f0429db2-3dc3-415c-9f3c-2a89eea1c5e4","ios":"levelo://app?vid=f0429db2-3dc3-415c-9f3c-2a89eea1c5e4"},"vehicle_type_id":"4","last_reported":1699049176,"current_range_meters":6400,"station_id":"ce4bh392rcd13ifvqdl0","pricing_plan_id":"free"},{"bike_id":"0e8233d2-0d57-470f-8c07-e9f753046a4f","system_id":"levelo_inurba_marseille","lat":43.33217,"lon":5.3788,"is_reserved":false,"is_disabled":false,"rental_uris":{"android":"levelo://app?vid=0e8233d2-0d57-470f-8c07-e9f753046a4f","ios":"levelo://app?vid=0e8233d2-0d57-470f-8c07-e9f753046a4f"},"vehicle_type_id":"4","last_reported":1699049176,"current_range_meters":15600,"station_id":"","pricing_plan_id":"free"},{"bike_id":"d797f1e6-f3ca-4ad7-8b56-5ed6191da53c","system_id":"levelo_inurba_marseille","lat":43.292663,"lon":5.376389,"is_reserved":false,"is_disabled":false,"rental_uris":{"android":"levelo://app?vid=d797f1e6-f3ca-4ad7-8b56-5ed6191da53c","ios":"levelo://app?vid=d797f1e6-f3ca-4ad7-8b56-5ed6191da53c"},"vehicle_type_id":"4","last_reported":1699049176,"current_range_meters":30400,"station_id":"ce4bgi12rcd13ifvqb80","pricing_plan_id":"free"},{"bike_id":"b9b0a47a-74bc-4198-a455-e15eabda4e53","system_id":"levelo_inurba_marseille","lat":43.298764,"lon":5.388973,"is_reserved":false,"is_disabled":false,"rental_uris":{"android":"levelo://app?vid=b9b0a47a-74bc-4198-a455-e15eabda4e53","ios":"levelo://app?vid=b9b0a47a-74bc-4198-a455-e15eabda4e53"},"vehicle_type_id":"4","last_reported":1699049176,"current_range_meters":31200,"station_id":"ce4bh392rcd13ifvqdl0","pricing_plan_id":"free"},{"bike_id":"ab8b8929-39fe-442f-96e2-e1eb7a8fc3f4","system_id":"levelo_inurba_marseille","lat":43.298764,"lon":5.388973,"is_reserved":false,"is_disabled":false,"rental_uris":{"android":"levelo://app?vid=ab8b8929-39fe-442f-96e2-e1eb7a8fc3f4","ios":"levelo://app?vid=ab8b8929-39fe-442f-96e2-e1eb7a8fc3f4"},"vehicle_type_id":"4","last_reported":1699049176,"current_range_meters":24000,"station_id":"ce4bh392rcd13ifvqdl0","pricing_plan_id":"free"},{"bike_id":"5c826228-a813-4321-a3d2-18a6d85744c2","system_id":"levelo_inurba_marseille","lat":43.298783,"lon":5.389087,"is_reserved":false,"is_disabled":false,"rental_uris":{"android":"levelo://app?vid=5c826228-a813-4321-a3d2-18a6d85744c2","ios":"levelo://app?vid=5c826228-a813-4321-a3d2-18a6d85744c2"},"vehicle_type_id":"4","last_reported":1699049176,"current_range_meters":400,"station_id":"ce4bh392rcd13ifvqdl0","pricing_plan_id":"free"},{"bike_id":"fb6ed35b-df4d-4c9b-8d8f-1120bd09053d","system_id":"levelo_inurba_marseille","lat":43.298764,"lon":5.388973,"is_reserved":false,"is_disabled":false,"rental_uris":{"android":"levelo://app?vid=fb6ed35b-df4d-4c9b-8d8f-1120bd09053d","ios":"levelo://app?vid=fb6ed35b-df4d-4c9b-8d8f-1120bd09053d"},"vehicle_type_id":"4","last_reported":1699049176,"current_range_meters":15200,"station_id":"ce4bh392rcd13ifvqdl0","pricing_plan_id":"free"},{"bike_id":"d6de2a5f-69d9-48f9-b2b5-efae29b2f74f","system_id":"levelo_inurba_marseille","lat":43.308876,"lon":5.396374,"is_reserved":false,"is_disabled":false,"rental_uris":{"android":"levelo://app?vid=d6de2a5f-69d9-48f9-b2b5-efae29b2f74f","ios":"levelo://app?vid=d6de2a5f-69d9-48f9-b2b5-efae29b2f74f"},"vehicle_type_id":"4","last_reported":1699049176,"current_range_meters":14800,"station_id":"ce4bh012rcd13ifvqcv0","pricing_plan_id":"free"},{"bike_id":"90b28657-aae9-4fb8-b606-b7f1df65ec05","system_id":"levelo_inurba_marseille","lat":43.291994,"lon":5.357886,"is_reserved":false,"is_disabled":false,"rental_uris":{"android":"levelo://app?vid=90b28657-aae9-4fb8-b606-b7f1df65ec05","ios":"levelo://app?vid=90b28657-aae9-4fb8-b606-b7f1df65ec05"},"vehicle_type_id":"4","last_reported":1699049176,"current_range_meters":23200,"station_id":"ce4bhb12rcd13ifvqel0","pricing_plan_id":"free"},{"bike_id":"44a1e822-2a42-4976-85de-d1ae231bff8b","system_id":"levelo_inurba_marseille","lat":43.30888,"lon":5.39648,"is_reserved":false,"is_disabled":false,"rental_uris":{"android":"levelo://app?vid=44a1e822-2a42-4976-85de-d1ae231bff8b","ios":"levelo://app?vid=44a1e822-2a42-4976-85de-d1ae231bff8b"},"vehicle_type_id":"4","last_reported":1699049176,"current_range_meters":0,"station_id":"ce4bh012rcd13ifvqcv0","pricing_plan_id":"free"},{"bike_id":"8c9fe78e-d26b-4699-8bac-4120eb80cf54","system_id":"levelo_inurba_marseille","lat":43.3133,"lon":5.39695,"is_reserved":false,"is_disabled":false,"rental_uris":{"android":"levelo://app?vid=8c9fe78e-d26b-4699-8bac-4120eb80cf54","ios":"levelo://app?vid=8c9fe78e-d26b-4699-8bac-4120eb80cf54"},"vehicle_type_id":"4","last_reported":1699049176,"current_range_meters":0,"station_id":"ce4bgvp2rcd13ifvqcu0","pricing_plan_id":"free"},{"bike_id":"41eccb81-f783-410a-8abc-161b478b4cea","system_id":"levelo_inurba_marseille","lat":43.31323,"lon":5.39696,"is_reserved":false,"is_disabled":false,"rental_uris":{"android":"levelo://app?vid=41eccb81-f783-410a-8abc-161b478b4cea","ios":"levelo://app?vid=41eccb81-f783-410a-8abc-161b478b4cea"},"vehicle_type_id":"4","last_reported":1699049176,"current_range_meters":18800,"station_id":"ce4bgvp2rcd13ifvqcu0","pricing_plan_id":"free"},{"bike_id":"3924b65a-9b13-4a9c-bf28-b6360571d29e","system_id":"levelo_inurba_marseille","lat":43.31329,"lon":5.39696,"is_reserved":false,"is_disabled":false,"rental_uris":{"android":"levelo://app?vid=3924b65a-9b13-4a9c-bf28-b6360571d29e","ios":"levelo://app?vid=3924b65a-9b13-4a9c-bf28-b6360571d29e"},"vehicle_type_id":"4","last_reported":1699049176,"current_range_meters":18800,"station_id":"ce4bgvp2rcd13ifvqcu0","pricing_plan_id":"free"},{"bike_id":"12a6d102-0d0b-4d1c-b475-96df27f06345","system_id":"levelo_inurba_marseille","lat":43.3133,"lon":5.39697,"is_reserved":false,"is_disabled":false,"rental_uris":{"android":"levelo://app?vid=12a6d102-0d0b-4d1c-b475-96df27f06345","ios":"levelo://app?vid=12a6d102-0d0b-4d1c-b475-96df27f06345"},"vehicle_type_id":"4","last_reported":1699049176,"current_range_meters":11200,"station_id":"ce4bgvp2rcd13ifvqcu0","pricing_plan_id":"free"},{"bike_id":"7a10aec6-9e75-4634-8b0b-148d4677b2b1","system_id":"levelo_inurba_marseille","lat":43.309047,"lon":5.396551,"is_reserved":false,"is_disabled":false,"rental_uris":{"android":"levelo://app?vid=7a10aec6-9e75-4634-8b0b-148d4677b2b1","ios":"levelo://app?vid=7a10aec6-9e75-4634-8b0b-148d4677b2b1"},"vehicle_type_id":"4","last_reported":1699049176,"current_range_meters":23600,"station_id":"ce4bh012rcd13ifvqcv0","pricing_plan_id":"free"},{"bike_id":"8bb5bafb-1d67-4ef2-be4d-40b525f0db45","system_id":"levelo_inurba_marseille","lat":43.29529,"lon":5.385581,"is_reserved":false,"is_disabled":false,"rental_uris":{"android":"levelo://app?vid=8bb5bafb-1d67-4ef2-be4d-40b525f0db45","ios":"levelo://app?vid=8bb5bafb-1d67-4ef2-be4d-40b525f0db45"},"vehicle_type_id":"4","last_reported":1699049176,"current_range_meters":21600,"station_id":"ce4bgih2rcd13ifvqba0","pricing_plan_id":"free"},{"bike_id":"f04e8f1e-4b2f-47b5-9ddb-04eabd60ac80","system_id":"levelo_inurba_marseille","lat":43.29529,"lon":5.385581,"is_reserved":false,"is_disabled":false,"rental_uris":{"android":"levelo://app?vid=f04e8f1e-4b2f-47b5-9ddb-04eabd60ac80","ios":"levelo://app?vid=f04e8f1e-4b2f-47b5-9ddb-04eabd60ac80"},"vehicle_type_id":"4","last_reported":1699049176,"current_range_meters":14800,"station_id":"ce4bgih2rcd13ifvqba0","pricing_plan_id":"free"},{"bike_id":"b0f8ddbc-3a9d-4c52-91f4-30d84bc96b5e","system_id":"levelo_inurba_marseille","lat":43.29529,"lon":5.385581,"is_reserved":false,"is_disabled":false,"rental_uris":{"android":"levelo://app?vid=b0f8ddbc-3a9d-4c52-91f4-30d84bc96b5e","ios":"levelo://app?vid=b0f8ddbc-3a9d-4c52-91f4-30d84bc96b5e"},"vehicle_type_id":"4","last_reported":1699049176,"current_range_meters":26000,"station_id":"ce4bgih2rcd13ifvqba0","pricing_plan_id":"free"},{"bike_id":"54d07c9c-84ef-4b4a-807d-499be647912b","system_id":"levelo_inurba_marseille","lat":43.309038,"lon":5.396546,"is_reserved":false,"is_disabled":false,"rental_uris":{"android":"levelo://app?vid=54d07c9c-84ef-4b4a-807d-499be647912b","ios":"levelo://app?vid=54d07c9c-84ef-4b4a-807d-499be647912b"},"vehicle_type_id":"4","last_reported":1699049176,"current_range_meters":0,"station_id":"ce4bh012rcd13ifvqcv0","pricing_plan_id":"free"},{"bike_id":"e376dfe1-81e0-4a11-be7d-671428d032e4","system_id":"levelo_inurba_marseille","lat":43.290779,"lon":5.371482,"is_reserved":false,"is_disabled":false,"rental_uris":{"android":"levelo://app?vid=e376dfe1-81e0-4a11-be7d-671428d032e4","ios":"levelo://app?vid=e376dfe1-81e0-4a11-be7d-671428d032e4"},"vehicle_type_id":"4","last_reported":1699049176,"current_range_meters":28000,"station_id":"ce4bh5p2rcd13ifvqe4g","pricing_plan_id":"free"},{"bike_id":"db873d00-26f2-4e4c-8f17-e7da2f582224","system_id":"levelo_inurba_marseille","lat":43.290624,"lon":5.359245,"is_reserved":false,"is_disabled":false,"rental_uris":{"android":"levelo://app?vid=db873d00-26f2-4e4c-8f17-e7da2f582224","ios":"levelo://app?vid=db873d00-26f2-4e4c-8f17-e7da2f582224"},"vehicle_type_id":"4","last_reported":1699049176,"current_range_meters":7200,"station_id":"ce4bha92rcd13ifvqeg0","pricing_plan_id":"free"},{"bike_id":"32a5903f-983f-4439-9002-fa022088fd0d","system_id":"levelo_inurba_marseille","lat":43.290631,"lon":5.359244,"is_reserved":false,"is_disabled":false,"rental_uris":{"android":"levelo://app?vid=32a5903f-983f-4439-9002-fa022088fd0d","ios":"levelo://app?vid=32a5903f-983f-4439-9002-fa022088fd0d"},"vehicle_type_id":"4","last_reported":1699049176,"current_range_meters":20800,"station_id":"ce4bha92rcd13ifvqeg0","pricing_plan_id":"free"},{"bike_id":"5fb4389b-81a5-44ad-95ea-2780456a9e7a","system_id":"levelo_inurba_marseille","lat":43.29421,"lon":5.38623,"is_reserved":false,"is_disabled":false,"rental_uris":{"android":"levelo://app?vid=5fb4389b-81a5-44ad-95ea-2780456a9e7a","ios":"levelo://app?vid=5fb4389b-81a5-44ad-95ea-2780456a9e7a"},"vehicle_type_id":"4","last_reported":1699049176,"current_range_meters":24000,"station_id":"ce4bh2h2rcd13ifvqdh0","pricing_plan_id":"free"},{"bike_id":"b0abe758-519d-462a-9a68-ebe07216b5d8","system_id":"levelo_inurba_marseille","lat":43.29419,"lon":5.3862,"is_reserved":false,"is_disabled":false,"rental_uris":{"android":"levelo://app?vid=b0abe758-519d-462a-9a68-ebe07216b5d8","ios":"levelo://app?vid=b0abe758-519d-462a-9a68-ebe07216b5d8"},"vehicle_type_id":"4","last_reported":1699049176,"current_range_meters":19200,"station_id":"ce4bh2h2rcd13ifvqdh0","pricing_plan_id":"free"},{"bike_id":"e0ff984d-a419-4368-9bb8-78a8f1b52742","system_id":"levelo_inurba_marseille","lat":43.29422,"lon":5.38626,"is_reserved":false,"is_disabled":false,"rental_uris":{"android":"levelo://app?vid=e0ff984d-a419-4368-9bb8-78a8f1b52742","ios":"levelo://app?vid=e0ff984d-a419-4368-9bb8-78a8f1b52742"},"vehicle_type_id":"4","last_reported":1699049176,"current_range_meters":31200,"station_id":"ce4bh2h2rcd13ifvqdh0","pricing_plan_id":"free"},{"bike_id":"cb4ae7cd-0c31-480a-9f0b-809ef58ed5ee","system_id":"levelo_inurba_marseille","lat":43.29419,"lon":5.38623,"is_reserved":false,"is_disabled":false,"rental_uris":{"android":"levelo://app?vid=cb4ae7cd-0c31-480a-9f0b-809ef58ed5ee","ios":"levelo://app?vid=cb4ae7cd-0c31-480a-9f0b-809ef58ed5ee"},"vehicle_type_id":"4","last_reported":1699049176,"current_range_meters":26400,"station_id":"ce4bh2h2rcd13ifvqdh0","pricing_plan_id":"free"},{"bike_id":"40c01c16-dcff-4f46-8e3c-51b29b3798a8","system_id":"levelo_inurba_marseille","lat":43.29418,"lon":5.38622,"is_reserved":false,"is_disabled":false,"rental_uris":{"android":"levelo://app?vid=40c01c16-dcff-4f46-8e3c-51b29b3798a8","ios":"levelo://app?vid=40c01c16-dcff-4f46-8e3c-51b29b3798a8"},"vehicle_type_id":"4","last_reported":1699049176,"current_range_meters":23600,"station_id":"ce4bh2h2rcd13ifvqdh0","pricing_plan_id":"free"},{"bike_id":"3a379b53-a573-47ed-b3be-a3e3a1598707","system_id":"levelo_inurba_marseille","lat":43.290359,"lon":5.375711,"is_reserved":false,"is_disabled":false,"rental_uris":{"android":"levelo://app?vid=3a379b53-a573-47ed-b3be-a3e3a1598707","ios":"levelo://app?vid=3a379b53-a573-47ed-b3be-a3e3a1598707"},"vehicle_type_id":"4","last_reported":1699049176,"current_range_meters":30400,"station_id":"ce4bh692rcd13ifvqe90","pricing_plan_id":"free"},{"bike_id":"5e23d953-22db-4732-b7a0-c06691533d72","system_id":"levelo_inurba_marseille","lat":43.294172,"lon":5.38623,"is_reserved":false,"is_disabled":false,"rental_uris":{"android":"levelo://app?vid=5e23d953-22db-4732-b7a0-c06691533d72","ios":"levelo://app?vid=5e23d953-22db-4732-b7a0-c06691533d72"},"vehicle_type_id":"4","last_reported":1699049176,"current_range_meters":30400,"station_id":"ce4bh2h2rcd13ifvqdh0","pricing_plan_id":"free"},{"bike_id":"1a318643-b124-45a4-acd4-8cd63336770b","system_id":"levelo_inurba_marseille","lat":43.2942,"lon":5.38628,"is_reserved":false,"is_disabled":false,"rental_uris":{"android":"levelo://app?vid=1a318643-b124-45a4-acd4-8cd63336770b","ios":"levelo://app?vid=1a318643-b124-45a4-acd4-8cd63336770b"},"vehicle_type_id":"4","last_reported":1699049176,"current_range_meters":10800,"station_id":"ce4bh2h2rcd13ifvqdh0","pricing_plan_id":"free"},{"bike_id":"aed0b0c2-8eff-49f8-987a-ff47508e10af","system_id":"levelo_inurba_marseille","lat":43.294166,"lon":5.386239,"is_reserved":false,"is_disabled":false,"rental_uris":{"android":"levelo://app?vid=aed0b0c2-8eff-49f8-987a-ff47508e10af","ios":"levelo://app?vid=aed0b0c2-8eff-49f8-987a-ff47508e10af"},"vehicle_type_id":"4","last_reported":1699049176,"current_range_meters":28400,"station_id":"ce4bh2h2rcd13ifvqdh0","pricing_plan_id":"free"},{"bike_id":"9d666df9-da6c-4457-ab2c-f79da7401403","system_id":"levelo_inurba_marseille","lat":43.29418,"lon":5.38628,"is_reserved":false,"is_disabled":false,"rental_uris":{"android":"levelo://app?vid=9d666df9-da6c-4457-ab2c-f79da7401403","ios":"levelo://app?vid=9d666df9-da6c-4457-ab2c-f79da7401403"},"vehicle_type_id":"4","last_reported":1699049176,"current_range_meters":12400,"station_id":"ce4bh2h2rcd13ifvqdh0","pricing_plan_id":"free"},{"bike_id":"efdf6cda-9035-44ad-9b4c-913825c34d6c","system_id":"levelo_inurba_marseille","lat":43.29419,"lon":5.3863,"is_reserved":false,"is_disabled":false,"rental_uris":{"android":"levelo://app?vid=efdf6cda-9035-44ad-9b4c-913825c34d6c","ios":"levelo://app?vid=efdf6cda-9035-44ad-9b4c-913825c34d6c"},"vehicle_type_id":"4","last_reported":1699049176,"current_range_meters":17200,"station_id":"ce4bh2h2rcd13ifvqdh0","pricing_plan_id":"free"},{"bike_id":"b554c1bc-dc26-4c30-86e6-3e23cbe7d8f9","system_id":"levelo_inurba_marseille","lat":43.294183,"lon":5.386291,"is_reserved":false,"is_disabled":false,"rental_uris":{"android":"levelo://app?vid=b554c1bc-dc26-4c30-86e6-3e23cbe7d8f9","ios":"levelo://app?vid=b554c1bc-dc26-4c30-86e6-3e23cbe7d8f9"},"vehicle_type_id":"4","last_reported":1699049176,"current_range_meters":23600,"station_id":"ce4bh2h2rcd13ifvqdh0","pricing_plan_id":"free"},{"bike_id":"84485bb7-c2da-402a-acc8-5c0e067a1481","system_id":"levelo_inurba_marseille","lat":43.29417,"lon":5.38629,"is_reserved":false,"is_disabled":false,"rental_uris":{"android":"levelo://app?vid=84485bb7-c2da-402a-acc8-5c0e067a1481","ios":"levelo://app?vid=84485bb7-c2da-402a-acc8-5c0e067a1481"},"vehicle_type_id":"4","last_reported":1699049176,"current_range_meters":15600,"station_id":"ce4bh2h2rcd13ifvqdh0","pricing_plan_id":"free"},{"bike_id":"c3ba2c03-c980-4cc8-a94b-d7d3967e5c1c","system_id":"levelo_inurba_marseille","lat":43.29418,"lon":5.38631,"is_reserved":false,"is_disabled":false,"rental_uris":{"android":"levelo://app?vid=c3ba2c03-c980-4cc8-a94b-d7d3967e5c1c","ios":"levelo://app?vid=c3ba2c03-c980-4cc8-a94b-d7d3967e5c1c"},"vehicle_type_id":"4","last_reported":1699049176,"current_range_meters":22400,"station_id":"ce4bh2h2rcd13ifvqdh0","pricing_plan_id":"free"},{"bike_id":"0fa9c155-60d9-4f71-b758-e77708aafe18","system_id":"levelo_inurba_marseille","lat":43.29416,"lon":5.38629,"is_reserved":false,"is_disabled":false,"rental_uris":{"android":"levelo://app?vid=0fa9c155-60d9-4f71-b758-e77708aafe18","ios":"levelo://app?vid=0fa9c155-60d9-4f71-b758-e77708aafe18"},"vehicle_type_id":"4","last_reported":1699049176,"current_range_meters":5200,"station_id":"ce4bh2h2rcd13ifvqdh0","pricing_plan_id":"free"},{"bike_id":"bcb5b653-0440-427e-a52d-3dc9dc711c6b","system_id":"levelo_inurba_marseille","lat":43.2942,"lon":5.38638,"is_reserved":false,"is_disabled":false,"rental_uris":{"android":"levelo://app?vid=bcb5b653-0440-427e-a52d-3dc9dc711c6b","ios":"levelo://app?vid=bcb5b653-0440-427e-a52d-3dc9dc711c6b"},"vehicle_type_id":"4","last_reported":1699049176,"current_range_meters":30400,"station_id":"ce4bh2h2rcd13ifvqdh0","pricing_plan_id":"free"},{"bike_id":"7e8ad47a-4010-4937-ba3c-0aeea768525f","system_id":"levelo_inurba_marseille","lat":43.29415,"lon":5.38629,"is_reserved":false,"is_disabled":false,"rental_uris":{"android":"levelo://app?vid=7e8ad47a-4010-4937-ba3c-0aeea768525f","ios":"levelo://app?vid=7e8ad47a-4010-4937-ba3c-0aeea768525f"},"vehicle_type_id":"4","last_reported":1699049176,"current_range_meters":22400,"station_id":"ce4bh2h2rcd13ifvqdh0","pricing_plan_id":"free"},{"bike_id":"3d9f57f4-c736-4494-ba03-37495c5e6536","system_id":"levelo_inurba_marseille","lat":43.29417,"lon":5.38633,"is_reserved":false,"is_disabled":false,"rental_uris":{"android":"levelo://app?vid=3d9f57f4-c736-4494-ba03-37495c5e6536","ios":"levelo://app?vid=3d9f57f4-c736-4494-ba03-37495c5e6536"},"vehicle_type_id":"4","last_reported":1699049176,"current_range_meters":31200,"station_id":"ce4bh2h2rcd13ifvqdh0","pricing_plan_id":"free"},{"bike_id":"3e0e7d42-54ac-4f2a-a4bb-7ef1d1e7e6c4","system_id":"levelo_inurba_marseille","lat":43.29416,"lon":5.38632,"is_reserved":false,"is_disabled":false,"rental_uris":{"android":"levelo://app?vid=3e0e7d42-54ac-4f2a-a4bb-7ef1d1e7e6c4","ios":"levelo://app?vid=3e0e7d42-54ac-4f2a-a4bb-7ef1d1e7e6c4"},"vehicle_type_id":"4","last_reported":1699049176,"current_range_meters":25600,"station_id":"ce4bh2h2rcd13ifvqdh0","pricing_plan_id":"free"},{"bike_id":"02cd66d0-6abe-4505-b07e-d331da21e871","system_id":"levelo_inurba_marseille","lat":43.29414,"lon":5.38629,"is_reserved":false,"is_disabled":false,"rental_uris":{"android":"levelo://app?vid=02cd66d0-6abe-4505-b07e-d331da21e871","ios":"levelo://app?vid=02cd66d0-6abe-4505-b07e-d331da21e871"},"vehicle_type_id":"4","last_reported":1699049176,"current_range_meters":10400,"station_id":"ce4bh2h2rcd13ifvqdh0","pricing_plan_id":"free"},{"bike_id":"102917df-be27-404a-84c3-6478693b5e2e","system_id":"levelo_inurba_marseille","lat":43.29415,"lon":5.38635,"is_reserved":false,"is_disabled":false,"rental_uris":{"android":"levelo://app?vid=102917df-be27-404a-84c3-6478693b5e2e","ios":"levelo://app?vid=102917df-be27-404a-84c3-6478693b5e2e"},"vehicle_type_id":"4","last_reported":1699049176,"current_range_meters":12400,"station_id":"ce4bh2h2rcd13ifvqdh0","pricing_plan_id":"free"},{"bike_id":"c661393d-e828-438a-8a26-0d9a0f0f6ae8","system_id":"levelo_inurba_marseille","lat":43.289468,"lon":5.363719,"is_reserved":false,"is_disabled":false,"rental_uris":{"android":"levelo://app?vid=c661393d-e828-438a-8a26-0d9a0f0f6ae8","ios":"levelo://app?vid=c661393d-e828-438a-8a26-0d9a0f0f6ae8"},"vehicle_type_id":"4","last_reported":1699049176,"current_range_meters":26800,"station_id":"ce4bhc92rcd13ifvqetg","pricing_plan_id":"free"},{"bike_id":"7b395860-4856-4d0f-8dd9-919bad308ab2","system_id":"levelo_inurba_marseille","lat":43.289184,"lon":5.366408,"is_reserved":false,"is_disabled":false,"rental_uris":{"android":"levelo://app?vid=7b395860-4856-4d0f-8dd9-919bad308ab2","ios":"levelo://app?vid=7b395860-4856-4d0f-8dd9-919bad308ab2"},"vehicle_type_id":"4","last_reported":1699049176,"current_range_meters":24000,"station_id":"ce4bhap2rcd13ifvqek0","pricing_plan_id":"free"},{"bike_id":"28768e4c-9656-462d-8bb3-eafdd4c724a5","system_id":"levelo_inurba_marseille","lat":43.29272,"lon":5.38444,"is_reserved":false,"is_disabled":false,"rental_uris":{"android":"levelo://app?vid=28768e4c-9656-462d-8bb3-eafdd4c724a5","ios":"levelo://app?vid=28768e4c-9656-462d-8bb3-eafdd4c724a5"},"vehicle_type_id":"4","last_reported":1699049176,"current_range_meters":31200,"station_id":"ce4bh692rcd13ifvqea0","pricing_plan_id":"free"},{"bike_id":"6a5c285e-5535-42c0-ab23-5564b7df4af3","system_id":"levelo_inurba_marseille","lat":43.29267,"lon":5.384356,"is_reserved":false,"is_disabled":false,"rental_uris":{"android":"levelo://app?vid=6a5c285e-5535-42c0-ab23-5564b7df4af3","ios":"levelo://app?vid=6a5c285e-5535-42c0-ab23-5564b7df4af3"},"vehicle_type_id":"4","last_reported":1699049176,"current_range_meters":16000,"station_id":"ce4bh692rcd13ifvqea0","pricing_plan_id":"free"},{"bike_id":"bcb26489-3895-4490-9305-f10edca32322","system_id":"levelo_inurba_marseille","lat":43.292754,"lon":5.384539,"is_reserved":false,"is_disabled":false,"rental_uris":{"android":"levelo://app?vid=bcb26489-3895-4490-9305-f10edca32322","ios":"levelo://app?vid=bcb26489-3895-4490-9305-f10edca32322"},"vehicle_type_id":"4","last_reported":1699049176,"current_range_meters":20000,"station_id":"ce4bh692rcd13ifvqea0","pricing_plan_id":"free"},{"bike_id":"5bfef0a3-3dab-4970-832a-6b7c69ff63ba","system_id":"levelo_inurba_marseille","lat":43.29266,"lon":5.3844,"is_reserved":false,"is_disabled":false,"rental_uris":{"android":"levelo://app?vid=5bfef0a3-3dab-4970-832a-6b7c69ff63ba","ios":"levelo://app?vid=5bfef0a3-3dab-4970-832a-6b7c69ff63ba"},"vehicle_type_id":"4","last_reported":1699049176,"current_range_meters":0,"station_id":"ce4bh692rcd13ifvqea0","pricing_plan_id":"free"},{"bike_id":"1c300783-2914-42f7-a438-1964ce3eaa56","system_id":"levelo_inurba_marseille","lat":43.292689,"lon":5.384498,"is_reserved":false,"is_disabled":false,"rental_uris":{"android":"levelo://app?vid=1c300783-2914-42f7-a438-1964ce3eaa56","ios":"levelo://app?vid=1c300783-2914-42f7-a438-1964ce3eaa56"},"vehicle_type_id":"4","last_reported":1699049176,"current_range_meters":12800,"station_id":"ce4bh692rcd13ifvqea0","pricing_plan_id":"free"},{"bike_id":"8f6948a5-0bf1-4945-acf9-2e392109d9f3","system_id":"levelo_inurba_marseille","lat":43.304296,"lon":5.397513,"is_reserved":false,"is_disabled":false,"rental_uris":{"android":"levelo://app?vid=8f6948a5-0bf1-4945-acf9-2e392109d9f3","ios":"levelo://app?vid=8f6948a5-0bf1-4945-acf9-2e392109d9f3"},"vehicle_type_id":"4","last_reported":1699049176,"current_range_meters":22400,"station_id":"ce4bh092rcd13ifvqd20","pricing_plan_id":"free"},{"bike_id":"ccfd6860-77b7-4906-b37c-af09059e72c0","system_id":"levelo_inurba_marseille","lat":43.29261,"lon":5.38439,"is_reserved":false,"is_disabled":false,"rental_uris":{"android":"levelo://app?vid=ccfd6860-77b7-4906-b37c-af09059e72c0","ios":"levelo://app?vid=ccfd6860-77b7-4906-b37c-af09059e72c0"},"vehicle_type_id":"4","last_reported":1699049176,"current_range_meters":6400,"station_id":"ce4bh692rcd13ifvqea0","pricing_plan_id":"free"},{"bike_id":"c0b5ae21-f4a4-4425-9689-233bf3a31e1c","system_id":"levelo_inurba_marseille","lat":43.304296,"lon":5.397513,"is_reserved":false,"is_disabled":false,"rental_uris":{"android":"levelo://app?vid=c0b5ae21-f4a4-4425-9689-233bf3a31e1c","ios":"levelo://app?vid=c0b5ae21-f4a4-4425-9689-233bf3a31e1c"},"vehicle_type_id":"4","last_reported":1699049176,"current_range_meters":15200,"station_id":"ce4bh092rcd13ifvqd20","pricing_plan_id":"free"},{"bike_id":"d2138c6a-d3f8-4ba5-9cf0-51c84562a8d3","system_id":"levelo_inurba_marseille","lat":43.292608,"lon":5.384444,"is_reserved":false,"is_disabled":false,"rental_uris":{"android":"levelo://app?vid=d2138c6a-d3f8-4ba5-9cf0-51c84562a8d3","ios":"levelo://app?vid=d2138c6a-d3f8-4ba5-9cf0-51c84562a8d3"},"vehicle_type_id":"4","last_reported":1699049176,"current_range_meters":22000,"station_id":"ce4bh692rcd13ifvqea0","pricing_plan_id":"free"},{"bike_id":"afc188f2-2546-4597-a399-a833d7ec1143","system_id":"levelo_inurba_marseille","lat":43.29255,"lon":5.38439,"is_reserved":false,"is_disabled":false,"rental_uris":{"android":"levelo://app?vid=afc188f2-2546-4597-a399-a833d7ec1143","ios":"levelo://app?vid=afc188f2-2546-4597-a399-a833d7ec1143"},"vehicle_type_id":"4","last_reported":1699049176,"current_range_meters":24800,"station_id":"ce4bh692rcd13ifvqea0","pricing_plan_id":"free"},{"bike_id":"7545a2f1-559c-40c2-908d-99ad6ef39151","system_id":"levelo_inurba_marseille","lat":43.33039,"lon":5.3892,"is_reserved":false,"is_disabled":false,"rental_uris":{"android":"levelo://app?vid=7545a2f1-559c-40c2-908d-99ad6ef39151","ios":"levelo://app?vid=7545a2f1-559c-40c2-908d-99ad6ef39151"},"vehicle_type_id":"4","last_reported":1699049176,"current_range_meters":18400,"station_id":"ce4bhr92rcd13ifvqhrg","pricing_plan_id":"free"},{"bike_id":"b0223261-d01d-4482-8419-892ea86377ea","system_id":"levelo_inurba_marseille","lat":43.33041,"lon":5.38921,"is_reserved":false,"is_disabled":false,"rental_uris":{"android":"levelo://app?vid=b0223261-d01d-4482-8419-892ea86377ea","ios":"levelo://app?vid=b0223261-d01d-4482-8419-892ea86377ea"},"vehicle_type_id":"4","last_reported":1699049176,"current_range_meters":9600,"station_id":"ce4bhr92rcd13ifvqhrg","pricing_plan_id":"free"},{"bike_id":"007a9622-d031-41d9-ae95-e9d53e0ad17e","system_id":"levelo_inurba_marseille","lat":43.33044,"lon":5.3892,"is_reserved":false,"is_disabled":false,"rental_uris":{"android":"levelo://app?vid=007a9622-d031-41d9-ae95-e9d53e0ad17e","ios":"levelo://app?vid=007a9622-d031-41d9-ae95-e9d53e0ad17e"},"vehicle_type_id":"4","last_reported":1699049176,"current_range_meters":14000,"station_id":"ce4bhr92rcd13ifvqhrg","pricing_plan_id":"free"},{"bike_id":"3236d04d-7b22-49ec-b4b9-4d053a2b97fa","system_id":"levelo_inurba_marseille","lat":43.290104,"lon":5.356111,"is_reserved":false,"is_disabled":false,"rental_uris":{"android":"levelo://app?vid=3236d04d-7b22-49ec-b4b9-4d053a2b97fa","ios":"levelo://app?vid=3236d04d-7b22-49ec-b4b9-4d053a2b97fa"},"vehicle_type_id":"4","last_reported":1699049176,"current_range_meters":19200,"station_id":"ce4bhb92rcd13ifvqen0","pricing_plan_id":"free"},{"bike_id":"6b02bc29-1aaf-4afc-978e-1b2537eccea9","system_id":"levelo_inurba_marseille","lat":43.290104,"lon":5.356111,"is_reserved":false,"is_disabled":false,"rental_uris":{"android":"levelo://app?vid=6b02bc29-1aaf-4afc-978e-1b2537eccea9","ios":"levelo://app?vid=6b02bc29-1aaf-4afc-978e-1b2537eccea9"},"vehicle_type_id":"4","last_reported":1699049176,"current_range_meters":13200,"station_id":"ce4bhb92rcd13ifvqen0","pricing_plan_id":"free"},{"bike_id":"9ca908c3-201f-4c3e-9dcc-e18657ec600a","system_id":"levelo_inurba_marseille","lat":43.290103,"lon":5.356114,"is_reserved":false,"is_disabled":false,"rental_uris":{"android":"levelo://app?vid=9ca908c3-201f-4c3e-9dcc-e18657ec600a","ios":"levelo://app?vid=9ca908c3-201f-4c3e-9dcc-e18657ec600a"},"vehicle_type_id":"4","last_reported":1699049176,"current_range_meters":25600,"station_id":"ce4bhb92rcd13ifvqen0","pricing_plan_id":"free"},{"bike_id":"e9f05c20-a878-4916-b783-57d8b3f86976","system_id":"levelo_inurba_marseille","lat":43.295169,"lon":5.390426,"is_reserved":false,"is_disabled":false,"rental_uris":{"android":"levelo://app?vid=e9f05c20-a878-4916-b783-57d8b3f86976","ios":"levelo://app?vid=e9f05c20-a878-4916-b783-57d8b3f86976"},"vehicle_type_id":"4","last_reported":1699049176,"current_range_meters":3600,"station_id":"ce4bh3p2rcd13ifvqdp0","pricing_plan_id":"free"},{"bike_id":"e0d713cd-ec81-44ec-8ba4-571dd76a2b05","system_id":"levelo_inurba_marseille","lat":43.295169,"lon":5.390426,"is_reserved":false,"is_disabled":false,"rental_uris":{"android":"levelo://app?vid=e0d713cd-ec81-44ec-8ba4-571dd76a2b05","ios":"levelo://app?vid=e0d713cd-ec81-44ec-8ba4-571dd76a2b05"},"vehicle_type_id":"4","last_reported":1699049176,"current_range_meters":4000,"station_id":"ce4bh3p2rcd13ifvqdp0","pricing_plan_id":"free"},{"bike_id":"861fbe90-6ad0-4fc9-8476-942fe58d515c","system_id":"levelo_inurba_marseille","lat":43.297838,"lon":5.39344,"is_reserved":false,"is_disabled":false,"rental_uris":{"android":"levelo://app?vid=861fbe90-6ad0-4fc9-8476-942fe58d515c","ios":"levelo://app?vid=861fbe90-6ad0-4fc9-8476-942fe58d515c"},"vehicle_type_id":"4","last_reported":1699049176,"current_range_meters":30800,"station_id":"chh1huq6cuj3fo74tm60","pricing_plan_id":"free"},{"bike_id":"9576a9e1-58c9-41e1-926e-d9b62ec78b2e","system_id":"levelo_inurba_marseille","lat":43.295169,"lon":5.390426,"is_reserved":false,"is_disabled":false,"rental_uris":{"android":"levelo://app?vid=9576a9e1-58c9-41e1-926e-d9b62ec78b2e","ios":"levelo://app?vid=9576a9e1-58c9-41e1-926e-d9b62ec78b2e"},"vehicle_type_id":"4","last_reported":1699049176,"current_range_meters":9200,"station_id":"ce4bh3p2rcd13ifvqdp0","pricing_plan_id":"free"},{"bike_id":"72b93a91-7841-4d2b-8e0b-fd1a4396e1d7","system_id":"levelo_inurba_marseille","lat":43.295169,"lon":5.390426,"is_reserved":false,"is_disabled":false,"rental_uris":{"android":"levelo://app?vid=72b93a91-7841-4d2b-8e0b-fd1a4396e1d7","ios":"levelo://app?vid=72b93a91-7841-4d2b-8e0b-fd1a4396e1d7"},"vehicle_type_id":"4","last_reported":1699049176,"current_range_meters":19200,"station_id":"ce4bh3p2rcd13ifvqdp0","pricing_plan_id":"free"},{"bike_id":"431065aa-d543-4fd9-8d05-b3596993c70e","system_id":"levelo_inurba_marseille","lat":43.297815,"lon":5.393548,"is_reserved":false,"is_disabled":false,"rental_uris":{"android":"levelo://app?vid=431065aa-d543-4fd9-8d05-b3596993c70e","ios":"levelo://app?vid=431065aa-d543-4fd9-8d05-b3596993c70e"},"vehicle_type_id":"4","last_reported":1699049176,"current_range_meters":31200,"station_id":"chh1huq6cuj3fo74tm60","pricing_plan_id":"free"},{"bike_id":"5e3661ad-80ea-46cc-9c08-eca9294d93fb","system_id":"levelo_inurba_marseille","lat":43.295169,"lon":5.390426,"is_reserved":false,"is_disabled":false,"rental_uris":{"android":"levelo://app?vid=5e3661ad-80ea-46cc-9c08-eca9294d93fb","ios":"levelo://app?vid=5e3661ad-80ea-46cc-9c08-eca9294d93fb"},"vehicle_type_id":"4","last_reported":1699049176,"current_range_meters":28000,"station_id":"ce4bh3p2rcd13ifvqdp0","pricing_plan_id":"free"},{"bike_id":"c0975695-3174-4db1-9458-e3cd16634b9f","system_id":"levelo_inurba_marseille","lat":43.295169,"lon":5.390426,"is_reserved":false,"is_disabled":false,"rental_uris":{"android":"levelo://app?vid=c0975695-3174-4db1-9458-e3cd16634b9f","ios":"levelo://app?vid=c0975695-3174-4db1-9458-e3cd16634b9f"},"vehicle_type_id":"4","last_reported":1699049176,"current_range_meters":21600,"station_id":"ce4bh3p2rcd13ifvqdp0","pricing_plan_id":"free"},{"bike_id":"b808ae93-f78d-4779-ad48-d260c017f855","system_id":"levelo_inurba_marseille","lat":43.295169,"lon":5.390426,"is_reserved":false,"is_disabled":false,"rental_uris":{"android":"levelo://app?vid=b808ae93-f78d-4779-ad48-d260c017f855","ios":"levelo://app?vid=b808ae93-f78d-4779-ad48-d260c017f855"},"vehicle_type_id":"4","last_reported":1699049176,"current_range_meters":14400,"station_id":"ce4bh3p2rcd13ifvqdp0","pricing_plan_id":"free"},{"bike_id":"4fc572e1-14db-4400-a794-76679005bc2b","system_id":"levelo_inurba_marseille","lat":43.295169,"lon":5.390426,"is_reserved":false,"is_disabled":false,"rental_uris":{"android":"levelo://app?vid=4fc572e1-14db-4400-a794-76679005bc2b","ios":"levelo://app?vid=4fc572e1-14db-4400-a794-76679005bc2b"},"vehicle_type_id":"4","last_reported":1699049176,"current_range_meters":8000,"station_id":"ce4bh3p2rcd13ifvqdp0","pricing_plan_id":"free"},{"bike_id":"d0457b7a-a539-4525-9cf2-d62f044237b9","system_id":"levelo_inurba_marseille","lat":43.295169,"lon":5.390426,"is_reserved":false,"is_disabled":false,"rental_uris":{"android":"levelo://app?vid=d0457b7a-a539-4525-9cf2-d62f044237b9","ios":"levelo://app?vid=d0457b7a-a539-4525-9cf2-d62f044237b9"},"vehicle_type_id":"4","last_reported":1699049176,"current_range_meters":23600,"station_id":"ce4bh3p2rcd13ifvqdp0","pricing_plan_id":"free"},{"bike_id":"08ca1295-fd4b-4356-8118-ab03b18d3b89","system_id":"levelo_inurba_marseille","lat":43.28856,"lon":5.358371,"is_reserved":false,"is_disabled":false,"rental_uris":{"android":"levelo://app?vid=08ca1295-fd4b-4356-8118-ab03b18d3b89","ios":"levelo://app?vid=08ca1295-fd4b-4356-8118-ab03b18d3b89"},"vehicle_type_id":"4","last_reported":1699049176,"current_range_meters":16400,"station_id":"ce4bhb12rcd13ifvqem0","pricing_plan_id":"free"},{"bike_id":"d12c42b4-5233-4508-9345-ef21c0bce72f","system_id":"levelo_inurba_marseille","lat":43.28856,"lon":5.358371,"is_reserved":false,"is_disabled":false,"rental_uris":{"android":"levelo://app?vid=d12c42b4-5233-4508-9345-ef21c0bce72f","ios":"levelo://app?vid=d12c42b4-5233-4508-9345-ef21c0bce72f"},"vehicle_type_id":"4","last_reported":1699049176,"current_range_meters":23200,"station_id":"ce4bhb12rcd13ifvqem0","pricing_plan_id":"free"},{"bike_id":"8e98071c-be76-4337-9fba-e24f07512af9","system_id":"levelo_inurba_marseille","lat":43.28856,"lon":5.358371,"is_reserved":false,"is_disabled":false,"rental_uris":{"android":"levelo://app?vid=8e98071c-be76-4337-9fba-e24f07512af9","ios":"levelo://app?vid=8e98071c-be76-4337-9fba-e24f07512af9"},"vehicle_type_id":"4","last_reported":1699049176,"current_range_meters":15200,"station_id":"ce4bhb12rcd13ifvqem0","pricing_plan_id":"free"},{"bike_id":"babe89bd-d9bd-4ea3-9598-81a43ebc6df6","system_id":"levelo_inurba_marseille","lat":43.289551,"lon":5.379813,"is_reserved":false,"is_disabled":false,"rental_uris":{"android":"levelo://app?vid=babe89bd-d9bd-4ea3-9598-81a43ebc6df6","ios":"levelo://app?vid=babe89bd-d9bd-4ea3-9598-81a43ebc6df6"},"vehicle_type_id":"4","last_reported":1699049176,"current_range_meters":5200,"station_id":"","pricing_plan_id":"free"},{"bike_id":"59204193-e990-4799-bc98-56c5219bde12","system_id":"levelo_inurba_marseille","lat":43.28856,"lon":5.358371,"is_reserved":false,"is_disabled":false,"rental_uris":{"android":"levelo://app?vid=59204193-e990-4799-bc98-56c5219bde12","ios":"levelo://app?vid=59204193-e990-4799-bc98-56c5219bde12"},"vehicle_type_id":"4","last_reported":1699049176,"current_range_meters":20800,"station_id":"ce4bhb12rcd13ifvqem0","pricing_plan_id":"free"},{"bike_id":"52826df6-8d37-4dea-9544-d137fe477fe8","system_id":"levelo_inurba_marseille","lat":43.30929,"lon":5.40133,"is_reserved":false,"is_disabled":false,"rental_uris":{"android":"levelo://app?vid=52826df6-8d37-4dea-9544-d137fe477fe8","ios":"levelo://app?vid=52826df6-8d37-4dea-9544-d137fe477fe8"},"vehicle_type_id":"4","last_reported":1699049176,"current_range_meters":30400,"station_id":"ce4bgvp2rcd13ifvqct0","pricing_plan_id":"free"},{"bike_id":"b2000199-581f-42fa-89e0-6c626085d003","system_id":"levelo_inurba_marseille","lat":43.30936,"lon":5.401381,"is_reserved":false,"is_disabled":false,"rental_uris":{"android":"levelo://app?vid=b2000199-581f-42fa-89e0-6c626085d003","ios":"levelo://app?vid=b2000199-581f-42fa-89e0-6c626085d003"},"vehicle_type_id":"4","last_reported":1699049176,"current_range_meters":24400,"station_id":"ce4bgvp2rcd13ifvqct0","pricing_plan_id":"free"},{"bike_id":"730827e8-36e2-44bf-b354-711289bf20d9","system_id":"levelo_inurba_marseille","lat":43.309371,"lon":5.401449,"is_reserved":false,"is_disabled":false,"rental_uris":{"android":"levelo://app?vid=730827e8-36e2-44bf-b354-711289bf20d9","ios":"levelo://app?vid=730827e8-36e2-44bf-b354-711289bf20d9"},"vehicle_type_id":"4","last_reported":1699049176,"current_range_meters":31200,"station_id":"ce4bgvp2rcd13ifvqct0","pricing_plan_id":"free"},{"bike_id":"2d68e3e6-3efb-45e5-b4e5-be9446c0b82c","system_id":"levelo_inurba_marseille","lat":43.3128,"lon":5.40176,"is_reserved":false,"is_disabled":false,"rental_uris":{"android":"levelo://app?vid=2d68e3e6-3efb-45e5-b4e5-be9446c0b82c","ios":"levelo://app?vid=2d68e3e6-3efb-45e5-b4e5-be9446c0b82c"},"vehicle_type_id":"4","last_reported":1699049176,"current_range_meters":5200,"station_id":"ce4bh092rcd13ifvqd30","pricing_plan_id":"free"},{"bike_id":"a7177c7d-f069-46ad-b501-27f3ec21fc6e","system_id":"levelo_inurba_marseille","lat":43.312609,"lon":5.401662,"is_reserved":false,"is_disabled":false,"rental_uris":{"android":"levelo://app?vid=a7177c7d-f069-46ad-b501-27f3ec21fc6e","ios":"levelo://app?vid=a7177c7d-f069-46ad-b501-27f3ec21fc6e"},"vehicle_type_id":"4","last_reported":1699049176,"current_range_meters":28400,"station_id":"ce4bh092rcd13ifvqd30","pricing_plan_id":"free"},{"bike_id":"991cc3fb-5fc5-4aa6-9a42-f40cdc5055a5","system_id":"levelo_inurba_marseille","lat":43.309278,"lon":5.401465,"is_reserved":false,"is_disabled":false,"rental_uris":{"android":"levelo://app?vid=991cc3fb-5fc5-4aa6-9a42-f40cdc5055a5","ios":"levelo://app?vid=991cc3fb-5fc5-4aa6-9a42-f40cdc5055a5"},"vehicle_type_id":"4","last_reported":1699049176,"current_range_meters":30800,"station_id":"ce4bgvp2rcd13ifvqct0","pricing_plan_id":"free"},{"bike_id":"6edda02c-e290-457f-a703-9c7901068760","system_id":"levelo_inurba_marseille","lat":43.30921,"lon":5.401489,"is_reserved":false,"is_disabled":false,"rental_uris":{"android":"levelo://app?vid=6edda02c-e290-457f-a703-9c7901068760","ios":"levelo://app?vid=6edda02c-e290-457f-a703-9c7901068760"},"vehicle_type_id":"4","last_reported":1699049176,"current_range_meters":12000,"station_id":"ce4bgvp2rcd13ifvqct0","pricing_plan_id":"free"},{"bike_id":"3c572c3f-cc4c-4d3a-a0f0-73ed1ad39fef","system_id":"levelo_inurba_marseille","lat":43.33031,"lon":5.392311,"is_reserved":false,"is_disabled":false,"rental_uris":{"android":"levelo://app?vid=3c572c3f-cc4c-4d3a-a0f0-73ed1ad39fef","ios":"levelo://app?vid=3c572c3f-cc4c-4d3a-a0f0-73ed1ad39fef"},"vehicle_type_id":"4","last_reported":1699049176,"current_range_meters":12000,"station_id":"","pricing_plan_id":"free"},{"bike_id":"ffcd66dc-09a2-43c6-bdd2-6ab2f3d9ba80","system_id":"levelo_inurba_marseille","lat":43.337667,"lon":5.37434,"is_reserved":false,"is_disabled":false,"rental_uris":{"android":"levelo://app?vid=ffcd66dc-09a2-43c6-bdd2-6ab2f3d9ba80","ios":"levelo://app?vid=ffcd66dc-09a2-43c6-bdd2-6ab2f3d9ba80"},"vehicle_type_id":"4","last_reported":1699049176,"current_range_meters":15600,"station_id":"","pricing_plan_id":"free"},{"bike_id":"c068ea35-6f05-43ef-a342-6a53b9ebd0e9","system_id":"levelo_inurba_marseille","lat":43.30642,"lon":5.401031,"is_reserved":false,"is_disabled":false,"rental_uris":{"android":"levelo://app?vid=c068ea35-6f05-43ef-a342-6a53b9ebd0e9","ios":"levelo://app?vid=c068ea35-6f05-43ef-a342-6a53b9ebd0e9"},"vehicle_type_id":"4","last_reported":1699049176,"current_range_meters":18400,"station_id":"ce4bh112rcd13ifvqda0","pricing_plan_id":"free"},{"bike_id":"a2905c41-882a-42fb-9a4e-0f684a5329b9","system_id":"levelo_inurba_marseille","lat":43.337653,"lon":5.374687,"is_reserved":false,"is_disabled":false,"rental_uris":{"android":"levelo://app?vid=a2905c41-882a-42fb-9a4e-0f684a5329b9","ios":"levelo://app?vid=a2905c41-882a-42fb-9a4e-0f684a5329b9"},"vehicle_type_id":"4","last_reported":1699049176,"current_range_meters":24400,"station_id":"","pricing_plan_id":"free"},{"bike_id":"c639deb6-6b48-441a-a2fd-b39fc8743120","system_id":"levelo_inurba_marseille","lat":43.30642,"lon":5.401031,"is_reserved":false,"is_disabled":false,"rental_uris":{"android":"levelo://app?vid=c639deb6-6b48-441a-a2fd-b39fc8743120","ios":"levelo://app?vid=c639deb6-6b48-441a-a2fd-b39fc8743120"},"vehicle_type_id":"4","last_reported":1699049176,"current_range_meters":30400,"station_id":"ce4bh112rcd13ifvqda0","pricing_plan_id":"free"},{"bike_id":"d733a1f5-bb53-447c-8ae7-7a4ce2a67a9f","system_id":"levelo_inurba_marseille","lat":43.30642,"lon":5.401031,"is_reserved":false,"is_disabled":false,"rental_uris":{"android":"levelo://app?vid=d733a1f5-bb53-447c-8ae7-7a4ce2a67a9f","ios":"levelo://app?vid=d733a1f5-bb53-447c-8ae7-7a4ce2a67a9f"},"vehicle_type_id":"4","last_reported":1699049176,"current_range_meters":11200,"station_id":"ce4bh112rcd13ifvqda0","pricing_plan_id":"free"},{"bike_id":"ef52b5dd-63b7-452c-9d0e-f05dc89abcd2","system_id":"levelo_inurba_marseille","lat":43.28727,"lon":5.36078,"is_reserved":false,"is_disabled":false,"rental_uris":{"android":"levelo://app?vid=ef52b5dd-63b7-452c-9d0e-f05dc89abcd2","ios":"levelo://app?vid=ef52b5dd-63b7-452c-9d0e-f05dc89abcd2"},"vehicle_type_id":"4","last_reported":1699049176,"current_range_meters":8400,"station_id":"cki0cbj6b192h4jlfktg","pricing_plan_id":"free"},{"bike_id":"8b2b5d63-d43a-4df2-b7b3-bc979a7dc332","system_id":"levelo_inurba_marseille","lat":43.28727,"lon":5.36078,"is_reserved":false,"is_disabled":false,"rental_uris":{"android":"levelo://app?vid=8b2b5d63-d43a-4df2-b7b3-bc979a7dc332","ios":"levelo://app?vid=8b2b5d63-d43a-4df2-b7b3-bc979a7dc332"},"vehicle_type_id":"4","last_reported":1699049176,"current_range_meters":30800,"station_id":"cki0cbj6b192h4jlfktg","pricing_plan_id":"free"},{"bike_id":"4fc91a79-3842-4902-b109-ed8497d7504c","system_id":"levelo_inurba_marseille","lat":43.28727,"lon":5.36078,"is_reserved":false,"is_disabled":false,"rental_uris":{"android":"levelo://app?vid=4fc91a79-3842-4902-b109-ed8497d7504c","ios":"levelo://app?vid=4fc91a79-3842-4902-b109-ed8497d7504c"},"vehicle_type_id":"4","last_reported":1699049176,"current_range_meters":30800,"station_id":"cki0cbj6b192h4jlfktg","pricing_plan_id":"free"},{"bike_id":"9f28dc23-c101-4d2f-87fd-00adcf94718f","system_id":"levelo_inurba_marseille","lat":43.301117,"lon":5.398795,"is_reserved":false,"is_disabled":false,"rental_uris":{"android":"levelo://app?vid=9f28dc23-c101-4d2f-87fd-00adcf94718f","ios":"levelo://app?vid=9f28dc23-c101-4d2f-87fd-00adcf94718f"},"vehicle_type_id":"4","last_reported":1699049176,"current_range_meters":18400,"station_id":"ce4bh0h2rcd13ifvqd40","pricing_plan_id":"free"},{"bike_id":"262c6b13-b7f8-4212-9aee-2c302f372fac","system_id":"levelo_inurba_marseille","lat":43.28727,"lon":5.36078,"is_reserved":false,"is_disabled":false,"rental_uris":{"android":"levelo://app?vid=262c6b13-b7f8-4212-9aee-2c302f372fac","ios":"levelo://app?vid=262c6b13-b7f8-4212-9aee-2c302f372fac"},"vehicle_type_id":"4","last_reported":1699049176,"current_range_meters":19200,"station_id":"cki0cbj6b192h4jlfktg","pricing_plan_id":"free"},{"bike_id":"4997e7d9-6b46-41e9-acda-412709d9c4a3","system_id":"levelo_inurba_marseille","lat":43.286961,"lon":5.373785,"is_reserved":false,"is_disabled":false,"rental_uris":{"android":"levelo://app?vid=4997e7d9-6b46-41e9-acda-412709d9c4a3","ios":"levelo://app?vid=4997e7d9-6b46-41e9-acda-412709d9c4a3"},"vehicle_type_id":"4","last_reported":1699049176,"current_range_meters":31200,"station_id":"ce4bh3p2rcd13ifvqdq0","pricing_plan_id":"free"},{"bike_id":"d1caeead-0971-403b-9e50-2243d94feddd","system_id":"levelo_inurba_marseille","lat":43.286591,"lon":5.363346,"is_reserved":false,"is_disabled":false,"rental_uris":{"android":"levelo://app?vid=d1caeead-0971-403b-9e50-2243d94feddd","ios":"levelo://app?vid=d1caeead-0971-403b-9e50-2243d94feddd"},"vehicle_type_id":"4","last_reported":1699049176,"current_range_meters":12800,"station_id":"ce4bhah2rcd13ifvqej0","pricing_plan_id":"free"},{"bike_id":"709e4abb-1835-4ec9-a5d5-e66f1c539408","system_id":"levelo_inurba_marseille","lat":43.287067,"lon":5.373913,"is_reserved":false,"is_disabled":false,"rental_uris":{"android":"levelo://app?vid=709e4abb-1835-4ec9-a5d5-e66f1c539408","ios":"levelo://app?vid=709e4abb-1835-4ec9-a5d5-e66f1c539408"},"vehicle_type_id":"4","last_reported":1699049176,"current_range_meters":27600,"station_id":"ce4bh3p2rcd13ifvqdq0","pricing_plan_id":"free"},{"bike_id":"e79ff54c-ef0a-4545-8e43-60fccdbd8f5c","system_id":"levelo_inurba_marseille","lat":43.298681,"lon":5.397225,"is_reserved":false,"is_disabled":false,"rental_uris":{"android":"levelo://app?vid=e79ff54c-ef0a-4545-8e43-60fccdbd8f5c","ios":"levelo://app?vid=e79ff54c-ef0a-4545-8e43-60fccdbd8f5c"},"vehicle_type_id":"4","last_reported":1699049176,"current_range_meters":15200,"station_id":"ce4bh0h2rcd13ifvqd50","pricing_plan_id":"free"},{"bike_id":"7f3e9d79-3d59-4f26-907a-74053b4e7788","system_id":"levelo_inurba_marseille","lat":43.298681,"lon":5.397225,"is_reserved":false,"is_disabled":false,"rental_uris":{"android":"levelo://app?vid=7f3e9d79-3d59-4f26-907a-74053b4e7788","ios":"levelo://app?vid=7f3e9d79-3d59-4f26-907a-74053b4e7788"},"vehicle_type_id":"4","last_reported":1699049176,"current_range_meters":26400,"station_id":"ce4bh0h2rcd13ifvqd50","pricing_plan_id":"free"},{"bike_id":"af2cead3-bd75-4c18-987d-8a67654afbb5","system_id":"levelo_inurba_marseille","lat":43.298681,"lon":5.397225,"is_reserved":false,"is_disabled":false,"rental_uris":{"android":"levelo://app?vid=af2cead3-bd75-4c18-987d-8a67654afbb5","ios":"levelo://app?vid=af2cead3-bd75-4c18-987d-8a67654afbb5"},"vehicle_type_id":"4","last_reported":1699049176,"current_range_meters":21600,"station_id":"ce4bh0h2rcd13ifvqd50","pricing_plan_id":"free"},{"bike_id":"7fdfc5d6-bc00-4be3-ba0d-06f1abd9a72f","system_id":"levelo_inurba_marseille","lat":43.286593,"lon":5.363346,"is_reserved":false,"is_disabled":false,"rental_uris":{"android":"levelo://app?vid=7fdfc5d6-bc00-4be3-ba0d-06f1abd9a72f","ios":"levelo://app?vid=7fdfc5d6-bc00-4be3-ba0d-06f1abd9a72f"},"vehicle_type_id":"4","last_reported":1699049176,"current_range_meters":13600,"station_id":"ce4bhah2rcd13ifvqej0","pricing_plan_id":"free"},{"bike_id":"782ee297-0f95-4266-acc8-10fdd30d82f2","system_id":"levelo_inurba_marseille","lat":43.290344,"lon":5.386384,"is_reserved":false,"is_disabled":false,"rental_uris":{"android":"levelo://app?vid=782ee297-0f95-4266-acc8-10fdd30d82f2","ios":"levelo://app?vid=782ee297-0f95-4266-acc8-10fdd30d82f2"},"vehicle_type_id":"4","last_reported":1699049176,"current_range_meters":27600,"station_id":"ce4bh4p2rcd13ifvqe0g","pricing_plan_id":"free"},{"bike_id":"cee682f4-af39-40b3-93c9-72f7f0171363","system_id":"levelo_inurba_marseille","lat":43.302759,"lon":5.400793,"is_reserved":false,"is_disabled":false,"rental_uris":{"android":"levelo://app?vid=cee682f4-af39-40b3-93c9-72f7f0171363","ios":"levelo://app?vid=cee682f4-af39-40b3-93c9-72f7f0171363"},"vehicle_type_id":"4","last_reported":1699049176,"current_range_meters":400,"station_id":"ce4bgvh2rcd13ifvqcs0","pricing_plan_id":"free"},