{"last_updated":1677305335,"ttl":30,"version":"2.2","data":{"bikes":[{"bike_id":"ea526c77-8f60-4b64-8932-401b6664ca6d","system_id":"levelo_inurba_marseille","lat":43.312239,"lon":5.368562,"is_reserved":false,"is_disabled":false,"rental_uris":{"android":"levelo://app?vid=ea526c77-8f60-4b64-8932-401b6664ca6d","ios":"levelo://app?vid=ea526c77-8f60-4b64-8932-401b6664ca6d"},"vehicle_type_id":"4","last_reported":1677305336,"current_range_meters":26000,"station_id":"ce4bgl92rcd13ifvqbq0","pricing_plan_id":"free"},{"bike_id":"56626b3b-83dd-4507-b3a2-676ec5ea1a41","system_id":"levelo_inurba_marseille","lat":43.312239,"lon":5.368562,"is_reserved":false,"is_disabled":false,"rental_uris":{"android":"levelo://app?vid=56626b3b-83dd-4507-b3a2-676ec5ea1a41","ios":"levelo://app?vid=56626b3b-83dd-4507-b3a2-676ec5ea1a41"},"vehicle_type_id":"4","last_reported":1677305336,"current_range_meters":30000,"station_id":"ce4bgl92rcd13ifvqbq0","pricing_plan_id":"free"},{"bike_id":"64d7ea95-e36d-4093-8de0-f9e09de5718c","system_id":"levelo_inurba_marseille","lat":43.312239,"lon":5.368562,"is_reserved":false,"is_disabled":false,"rental_uris":{"android":"levelo://app?vid=64d7ea95-e36d-4093-8de0-f9e09de5718c","ios":"levelo://app?vid=64d7ea95-e36d-4093-8de0-f9e09de5718c"},"vehicle_type_id":"4","last_reported":1677305336,"current_range_meters":27600,"station_id":"ce4bgl92rcd13ifvqbq0","pricing_plan_id":"free"},{"bike_id":"12bb87b0-53b5-4b75-8a9a-2c9ae04b17d4","system_id":"levelo_inurba_marseille","lat":43.309076,"lon":5.368465,"is_reserved":false,"is_disabled":false,"rental_uris":{"android":"levelo://app?vid=12bb87b0-53b5-4b75-8a9a-2c9ae04b17d4","ios":"levelo://app?vid=12bb87b0-53b5-4b75-8a9a-2c9ae04b17d4"},"vehicle_type_id":"4","last_reported":1677305336,"current_range_meters":11200,"station_id":"ce4bgn92rcd13ifvqbvg","pricing_plan_id":"free"},{"bike_id":"389fbbce-c030-4c10-8af1-33780292f4a3","system_id":"levelo_inurba_marseille","lat":43.309076,"lon":5.368465,"is_reserved":false,"is_disabled":false,"rental_uris":{"android":"levelo://app?vid=389fbbce-c030-4c10-8af1-33780292f4a3","ios":"levelo://app?vid=389fbbce-c030-4c10-8af1-33780292f4a3"},"vehicle_type_id":"4","last_reported":1677305336,"current_range_meters":4000,"station_id":"ce4bgn92rcd13ifvqbvg","pricing_plan_id":"free"},{"bike_id":"7ac59775-11f0-4a24-9a6a-b2f0f2f86b10","system_id":"levelo_inurba_marseille","lat":43.309076,"lon":5.368465,"is_reserved":false,"is_disabled":false,"rental_uris":{"android":"levelo://app?vid=7ac59775-11f0-4a24-9a6a-b2f0f2f86b10","ios":"levelo://app?vid=7ac59775-11f0-4a24-9a6a-b2f0f2f86b10"},"vehicle_type_id":"4","last_reported":1677305336,"current_range_meters":15600,"station_id":"ce4bgn92rcd13ifvqbvg","pricing_plan_id":"free"},{"bike_id":"4048d51d-5ee7-4de9-ade1-17b108a334bf","system_id":"levelo_inurba_marseille","lat":43.309076,"lon":5.368465,"is_reserved":false,"is_disabled":false,"rental_uris":{"android":"levelo://app?vid=4048d51d-5ee7-4de9-ade1-17b108a334bf","ios":"levelo://app?vid=4048d51d-5ee7-4de9-ade1-17b108a334bf"},"vehicle_type_id":"4","last_reported":1677305336,"current_range_meters":0,"station_id":"ce4bgn92rcd13ifvqbvg","pricing_plan_id":"free"},{"bike_id":"911fd8b7-25b6-401e-a2d9-5dbc7adac4ae","system_id":"levelo_inurba_marseille","lat":43.309076,"lon":5.368465,"is_reserved":false,"is_disabled":false,"rental_uris":{"android":"levelo://app?vid=911fd8b7-25b6-401e-a2d9-5dbc7adac4ae","ios":"levelo://app?vid=911fd8b7-25b6-401e-a2d9-5dbc7adac4ae"},"vehicle_type_id":"4","last_reported":1677305336,"current_range_meters":19200,"station_id":"ce4bgn92rcd13ifvqbvg","pricing_plan_id":"free"},{"bike_id":"e8ca3ae1-112d-49a9-ba85-d8e6c764d6c9","system_id":"levelo_inurba_marseille","lat":43.309076,"lon":5.368465,"is_reserved":false,"is_disabled":false,"rental_uris":{"android":"levelo://app?vid=e8ca3ae1-112d-49a9-ba85-d8e6c764d6c9","ios":"levelo://app?vid=e8ca3ae1-112d-49a9-ba85-d8e6c764d6c9"},"vehicle_type_id":"4","last_reported":1677305336,"current_range_meters":4800,"station_id":"ce4bgn92rcd13ifvqbvg","pricing_plan_id":"free"},{"bike_id":"9e2bb075-a433-4896-afbc-fd36e2d85d39","system_id":"levelo_inurba_marseille","lat":43.309076,"lon":5.368465,"is_reserved":false,"is_disabled":false,"rental_uris":{"android":"levelo://app?vid=9e2bb075-a433-4896-afbc-fd36e2d85d39","ios":"levelo://app?vid=9e2bb075-a433-4896-afbc-fd36e2d85d39"},"vehicle_type_id":"4","last_reported":1677305336,"current_range_meters":25200,"station_id":"ce4bgn92rcd13ifvqbvg","pricing_plan_id":"free"},{"bike_id":"bb9cce4e-3615-4011-bfc5-2bc830375532","system_id":"levelo_inurba_marseille","lat":43.309076,"lon":5.368465,"is_reserved":false,"is_disabled":false,"rental_uris":{"android":"levelo://app?vid=bb9cce4e-3615-4011-bfc5-2bc830375532","ios":"levelo://app?vid=bb9cce4e-3615-4011-bfc5-2bc830375532"},"vehicle_type_id":"4","last_reported":1677305336,"current_range_meters":13600,"station_id":"ce4bgn92rcd13ifvqbvg","pricing_plan_id":"free"},{"bike_id":"29641177-a51d-4e5e-8758-936bdc3e9320","system_id":"levelo_inurba_marseille","lat":43.309076,"lon":5.368465,"is_reserved":false,"is_disabled":false,"rental_uris":{"android":"levelo://app?vid=29641177-a51d-4e5e-8758-936bdc3e9320","ios":"levelo://app?vid=29641177-a51d-4e5e-8758-936bdc3e9320"},"vehicle_type_id":"4","last_reported":1677305336,"current_range_meters":15200,"station_id":"ce4bgn92rcd13ifvqbvg","pricing_plan_id":"free"},{"bike_id":"6ad5bbae-ec35-4d4b-b3ba-2d391235d996","system_id":"levelo_inurba_marseille","lat":43.309076,"lon":5.368465,"is_reserved":false,"is_disabled":false,"rental_uris":{"android":"levelo://app?vid=6ad5bbae-ec35-4d4b-b3ba-2d391235d996","ios":"levelo://app?vid=6ad5bbae-ec35-4d4b-b3ba-2d391235d996"},"vehicle_type_id":"4","last_reported":1677305336,"current_range_meters":14400,"station_id":"ce4bgn92rcd13ifvqbvg","pricing_plan_id":"free"},{"bike_id":"70dee1bb-eb2d-4123-acb2-2e9c8727c123","system_id":"levelo_inurba_marseille","lat":43.309076,"lon":5.368465,"is_reserved":false,"is_disabled":false,"rental_uris":{"android":"levelo://app?vid=70dee1bb-eb2d-4123-acb2-2e9c8727c123","ios":"levelo://app?vid=70dee1bb-eb2d-4123-acb2-2e9c8727c123"},"vehicle_type_id":"4","last_reported":1677305336,"current_range_meters":800,"station_id":"ce4bgn92rcd13ifvqbvg","pricing_plan_id":"free"},{"bike_id":"4e4eb4a8-5d11-4fea-8c15-843ec20cf1c6","system_id":"levelo_inurba_marseille","lat":43.309076,"lon":5.368465,"is_reserved":false,"is_disabled":false,"rental_uris":{"android":"levelo://app?vid=4e4eb4a8-5d11-4fea-8c15-843ec20cf1c6","ios":"levelo://app?vid=4e4eb4a8-5d11-4fea-8c15-843ec20cf1c6"},"vehicle_type_id":"4","last_reported":1677305336,"current_range_meters":16800,"station_id":"ce4bgn92rcd13ifvqbvg","pricing_plan_id":"free"},{"bike_id":"4ee6e271-67b5-4259-b47b-dd515760a0fa","system_id":"levelo_inurba_marseille","lat":43.309076,"lon":5.368465,"is_reserved":false,"is_disabled":false,"rental_uris":{"android":"levelo://app?vid=4ee6e271-67b5-4259-b47b-dd515760a0fa","ios":"levelo://app?vid=4ee6e271-67b5-4259-b47b-dd515760a0fa"},"vehicle_type_id":"4","last_reported":1677305336,"current_range_meters":13200,"station_id":"ce4bgn92rcd13ifvqbvg","pricing_plan_id":"free"},{"bike_id":"d481cc11-316f-4105-a1db-7ee0e644ab5a","system_id":"levelo_inurba_marseille","lat":43.309076,"lon":5.368465,"is_reserved":false,"is_disabled":false,"rental_uris":{"android":"levelo://app?vid=d481cc11-316f-4105-a1db-7ee0e644ab5a","ios":"levelo://app?vid=d481cc11-316f-4105-a1db-7ee0e644ab5a"},"vehicle_type_id":"4","last_reported":1677305336,"current_range_meters":0,"station_id":"ce4bgn92rcd13ifvqbvg","pricing_plan_id":"free"},{"bike_id":"e77d8d14-2959-4083-910b-ca5257c07217","system_id":"levelo_inurba_marseille","lat":43.314811,"lon":5.373103,"is_reserved":false,"is_disabled":false,"rental_uris":{"android":"levelo://app?vid=e77d8d14-2959-4083-910b-ca5257c07217","ios":"levelo://app?vid=e77d8d14-2959-4083-910b-ca5257c07217"},"vehicle_type_id":"4","last_reported":1677305336,"current_range_meters":0,"station_id":"ce4bgt12rcd13ifvqcd0","pricing_plan_id":"free"},{"bike_id":"b1144b4e-0d72-486c-a2a3-1a1a8591c36e","system_id":"levelo_inurba_marseille","lat":43.314811,"lon":5.373103,"is_reserved":false,"is_disabled":false,"rental_uris":{"android":"levelo://app?vid=b1144b4e-0d72-486c-a2a3-1a1a8591c36e","ios":"levelo://app?vid=b1144b4e-0d72-486c-a2a3-1a1a8591c36e"},"vehicle_type_id":"4","last_reported":1677305336,"current_range_meters":11200,"station_id":"ce4bgt12rcd13ifvqcd0","pricing_plan_id":"free"},{"bike_id":"cb563f86-ba88-4a84-a8e8-ec63c0a37dab","system_id":"levelo_inurba_marseille","lat":43.315062,"lon":5.372922,"is_reserved":false,"is_disabled":false,"rental_uris":{"android":"levelo://app?vid=cb563f86-ba88-4a84-a8e8-ec63c0a37dab","ios":"levelo://app?vid=cb563f86-ba88-4a84-a8e8-ec63c0a37dab"},"vehicle_type_id":"4","last_reported":1677305336,"current_range_meters":21600,"station_id":"ce4bgt12rcd13ifvqcd0","pricing_plan_id":"free"},{"bike_id":"40abdc34-bafa-44da-a7fc-90b1b4fdaa25","system_id":"levelo_inurba_marseille","lat":43.308614,"lon":5.372098,"is_reserved":false,"is_disabled":false,"rental_uris":{"android":"levelo://app?vid=40abdc34-bafa-44da-a7fc-90b1b4fdaa25","ios":"levelo://app?vid=40abdc34-bafa-44da-a7fc-90b1b4fdaa25"},"vehicle_type_id":"4","last_reported":1677305336,"current_range_meters":10400,"station_id":"ce4bguh2rcd13ifvqckg","pricing_plan_id":"free"},{"bike_id":"71e6450c-0cf0-438c-b621-0b91cd22d033","system_id":"levelo_inurba_marseille","lat":43.308614,"lon":5.372098,"is_reserved":false,"is_disabled":false,"rental_uris":{"android":"levelo://app?vid=71e6450c-0cf0-438c-b621-0b91cd22d033","ios":"levelo://app?vid=71e6450c-0cf0-438c-b621-0b91cd22d033"},"vehicle_type_id":"4","last_reported":1677305336,"current_range_meters":7200,"station_id":"ce4bguh2rcd13ifvqckg","pricing_plan_id":"free"},{"bike_id":"abbf88bc-975a-460a-ae37-370b06890c88","system_id":"levelo_inurba_marseille","lat":43.308614,"lon":5.372098,"is_reserved":false,"is_disabled":false,"rental_uris":{"android":"levelo://app?vid=abbf88bc-975a-460a-ae37-370b06890c88","ios":"levelo://app?vid=abbf88bc-975a-460a-ae37-370b06890c88"},"vehicle_type_id":"4","last_reported":1677305336,"current_range_meters":23600,"station_id":"ce4bguh2rcd13ifvqckg","pricing_plan_id":"free"},{"bike_id":"0ada7481-5c00-445d-b185-7dd171a894a4","system_id":"levelo_inurba_marseille","lat":43.305989,"lon":5.37225,"is_reserved":false,"is_disabled":false,"rental_uris":{"android":"levelo://app?vid=0ada7481-5c00-445d-b185-7dd171a894a4","ios":"levelo://app?vid=0ada7481-5c00-445d-b185-7dd171a894a4"},"vehicle_type_id":"4","last_reported":1677305336,"current_range_meters":26000,"station_id":"ce4bgqh2rcd13ifvqc4g","pricing_plan_id":"free"},{"bike_id":"33f60985-6531-487d-a289-2bdb3e23fc69","system_id":"levelo_inurba_marseille","lat":43.30601,"lon":5.37216,"is_reserved":false,"is_disabled":false,"rental_uris":{"android":"levelo://app?vid=33f60985-6531-487d-a289-2bdb3e23fc69","ios":"levelo://app?vid=33f60985-6531-487d-a289-2bdb3e23fc69"},"vehicle_type_id":"4","last_reported":1677305336,"current_range_meters":30000,"station_id":"ce4bgqh2rcd13ifvqc4g","pricing_plan_id":"free"},{"bike_id":"a8813069-548e-462a-87f8-045b036cf22f","system_id":"levelo_inurba_marseille","lat":43.30594,"lon":5.37208,"is_reserved":false,"is_disabled":false,"rental_uris":{"android":"levelo://app?vid=a8813069-548e-462a-87f8-045b036cf22f","ios":"levelo://app?vid=a8813069-548e-462a-87f8-045b036cf22f"},"vehicle_type_id":"4","last_reported":1677305336,"current_range_meters":7600,"station_id":"ce4bgqh2rcd13ifvqc4g","pricing_plan_id":"free"},{"bike_id":"bcd83799-c262-4b13-be04-7b831ae0af31","system_id":"levelo_inurba_marseille","lat":43.305968,"lon":5.37217,"is_reserved":false,"is_disabled":false,"rental_uris":{"android":"levelo://app?vid=bcd83799-c262-4b13-be04-7b831ae0af31","ios":"levelo://app?vid=bcd83799-c262-4b13-be04-7b831ae0af31"},"vehicle_type_id":"4","last_reported":1677305336,"current_range_meters":23600,"station_id":"ce4bgqh2rcd13ifvqc4g","pricing_plan_id":"free"},{"bike_id":"6b59b593-518c-4a95-950b-899742180b59","system_id":"levelo_inurba_marseille","lat":43.305938,"lon":5.37213,"is_reserved":false,"is_disabled":false,"rental_uris":{"android":"levelo://app?vid=6b59b593-518c-4a95-950b-899742180b59","ios":"levelo://app?vid=6b59b593-518c-4a95-950b-899742180b59"},"vehicle_type_id":"4","last_reported":1677305336,"current_range_meters":2800,"station_id":"ce4bgqh2rcd13ifvqc4g","pricing_plan_id":"free"},{"bike_id":"1f9bb6ce-2e58-4756-9116-aa04ba1b133f","system_id":"levelo_inurba_marseille","lat":43.305967,"lon":5.37222,"is_reserved":false,"is_disabled":false,"rental_uris":{"android":"levelo://app?vid=1f9bb6ce-2e58-4756-9116-aa04ba1b133f","ios":"levelo://app?vid=1f9bb6ce-2e58-4756-9116-aa04ba1b133f"},"vehicle_type_id":"4","last_reported":1677305336,"current_range_meters":6000,"station_id":"ce4bgqh2rcd13ifvqc4g","pricing_plan_id":"free"},{"bike_id":"1175f3d2-7d88-4393-a11e-512ccb9c8ff8","system_id":"levelo_inurba_marseille","lat":43.319028,"lon":5.375412,"is_reserved":false,"is_disabled":false,"rental_uris":{"android":"levelo://app?vid=1175f3d2-7d88-4393-a11e-512ccb9c8ff8","ios":"levelo://app?vid=1175f3d2-7d88-4393-a11e-512ccb9c8ff8"},"vehicle_type_id":"4","last_reported":1677305336,"current_range_meters":2800,"station_id":"","pricing_plan_id":"free"},{"bike_id":"66a1c701-3c2d-457b-a220-882bf69a35e7","system_id":"levelo_inurba_marseille","lat":43.301939,"lon":5.366286,"is_reserved":false,"is_disabled":false,"rental_uris":{"android":"levelo://app?vid=66a1c701-3c2d-457b-a220-882bf69a35e7","ios":"levelo://app?vid=66a1c701-3c2d-457b-a220-882bf69a35e7"},"vehicle_type_id":"4","last_reported":1677305336,"current_range_meters":10400,"station_id":"ce4bgrh2rcd13ifvqc8g","pricing_plan_id":"free"},{"bike_id":"e7e11d49-015f-4375-bf60-83bc355f7f47","system_id":"levelo_inurba_marseille","lat":43.301939,"lon":5.366286,"is_reserved":false,"is_disabled":false,"rental_uris":{"android":"levelo://app?vid=e7e11d49-015f-4375-bf60-83bc355f7f47","ios":"levelo://app?vid=e7e11d49-015f-4375-bf60-83bc355f7f47"},"vehicle_type_id":"4","last_reported":1677305336,"current_range_meters":11200,"station_id":"ce4bgrh2rcd13ifvqc8g","pricing_plan_id":"free"},{"bike_id":"88cf0d3b-b046-47e4-b2d0-46a89459cd5a","system_id":"levelo_inurba_marseille","lat":43.301939,"lon":5.366286,"is_reserved":false,"is_disabled":false,"rental_uris":{"android":"levelo://app?vid=88cf0d3b-b046-47e4-b2d0-46a89459cd5a","ios":"levelo://app?vid=88cf0d3b-b046-47e4-b2d0-46a89459cd5a"},"vehicle_type_id":"4","last_reported":1677305336,"current_range_meters":31600,"station_id":"ce4bgrh2rcd13ifvqc8g","pricing_plan_id":"free"},{"bike_id":"e577d73f-fc5c-4096-ad34-75e1c0b12a6c","system_id":"levelo_inurba_marseille","lat":43.301939,"lon":5.366286,"is_reserved":false,"is_disabled":false,"rental_uris":{"android":"levelo://app?vid=e577d73f-fc5c-4096-ad34-75e1c0b12a6c","ios":"levelo://app?vid=e577d73f-fc5c-4096-ad34-75e1c0b12a6c"},"vehicle_type_id":"4","last_reported":1677305336,"current_range_meters":24800,"station_id":"ce4bgrh2rcd13ifvqc8g","pricing_plan_id":"free"},{"bike_id":"3926dc21-4f32-447d-8da2-753bb8541be1","system_id":"levelo_inurba_marseille","lat":43.301939,"lon":5.366286,"is_reserved":false,"is_disabled":false,"rental_uris":{"android":"levelo://app?vid=3926dc21-4f32-447d-8da2-753bb8541be1","ios":"levelo://app?vid=3926dc21-4f32-447d-8da2-753bb8541be1"},"vehicle_type_id":"4","last_reported":1677305336,"current_range_meters":30800,"station_id":"ce4bgrh2rcd13ifvqc8g","pricing_plan_id":"free"},{"bike_id":"7ced608a-1602-4e4f-9b05-ff327c2846f5","system_id":"levelo_inurba_marseille","lat":43.301939,"lon":5.366286,"is_reserved":false,"is_disabled":false,"rental_uris":{"android":"levelo://app?vid=7ced608a-1602-4e4f-9b05-ff327c2846f5","ios":"levelo://app?vid=7ced608a-1602-4e4f-9b05-ff327c2846f5"},"vehicle_type_id":"4","last_reported":1677305336,"current_range_meters":19600,"station_id":"ce4bgrh2rcd13ifvqc8g","pricing_plan_id":"free"},{"bike_id":"988211f1-8df5-47d6-937c-12223488ce55","system_id":"levelo_inurba_marseille","lat":43.301939,"lon":5.366286,"is_reserved":false,"is_disabled":false,"rental_uris":{"android":"levelo://app?vid=988211f1-8df5-47d6-937c-12223488ce55","ios":"levelo://app?vid=988211f1-8df5-47d6-937c-12223488ce55"},"vehicle_type_id":"4","last_reported":1677305336,"current_range_meters":21600,"station_id":"ce4bgrh2rcd13ifvqc8g","pricing_plan_id":"free"},{"bike_id":"a6c95e38-81dc-41dc-85a8-f849a13280df","system_id":"levelo_inurba_marseille","lat":43.301939,"lon":5.366286,"is_reserved":false,"is_disabled":false,"rental_uris":{"android":"levelo://app?vid=a6c95e38-81dc-41dc-85a8-f849a13280df","ios":"levelo://app?vid=a6c95e38-81dc-41dc-85a8-f849a13280df"},"vehicle_type_id":"4","last_reported":1677305336,"current_range_meters":2400,"station_id":"ce4bgrh2rcd13ifvqc8g","pricing_plan_id":"free"},{"bike_id":"abc8d385-2fe2-44f3-87b5-6c63213985eb","system_id":"levelo_inurba_marseille","lat":43.301939,"lon":5.366286,"is_reserved":false,"is_disabled":false,"rental_uris":{"android":"levelo://app?vid=abc8d385-2fe2-44f3-87b5-6c63213985eb","ios":"levelo://app?vid=abc8d385-2fe2-44f3-87b5-6c63213985eb"},"vehicle_type_id":"4","last_reported":1677305336,"current_range_meters":20800,"station_id":"ce4bgrh2rcd13ifvqc8g","pricing_plan_id":"free"},{"bike_id":"d8d901d8-4277-4cf0-8fdd-c7af3a4d605b","system_id":"levelo_inurba_marseille","lat":43.301939,"lon":5.366286,"is_reserved":false,"is_disabled":false,"rental_uris":{"android":"levelo://app?vid=d8d901d8-4277-4cf0-8fdd-c7af3a4d605b","ios":"levelo://app?vid=d8d901d8-4277-4cf0-8fdd-c7af3a4d605b"},"vehicle_type_id":"4","last_reported":1677305336,"current_range_meters":30800,"station_id":"ce4bgrh2rcd13ifvqc8g","pricing_plan_id":"free"},{"bike_id":"de2fd309-10af-4cc3-9500-1cb1aed1d5a1","system_id":"levelo_inurba_marseille","lat":43.301939,"lon":5.366286,"is_reserved":false,"is_disabled":false,"rental_uris":{"android":"levelo://app?vid=de2fd309-10af-4cc3-9500-1cb1aed1d5a1","ios":"levelo://app?vid=de2fd309-10af-4cc3-9500-1cb1aed1d5a1"},"vehicle_type_id":"4","last_reported":1677305336,"current_range_meters":16000,"station_id":"ce4bgrh2rcd13ifvqc8g","pricing_plan_id":"free"},{"bike_id":"f05b5bfc-ca54-4e74-8412-3dd603868714","system_id":"levelo_inurba_marseille","lat":43.301939,"lon":5.366286,"is_reserved":false,"is_disabled":false,"rental_uris":{"android":"levelo://app?vid=f05b5bfc-ca54-4e74-8412-3dd603868714","ios":"levelo://app?vid=f05b5bfc-ca54-4e74-8412-3dd603868714"},"vehicle_type_id":"4","last_reported":1677305336,"current_range_meters":20400,"station_id":"ce4bgrh2rcd13ifvqc8g","pricing_plan_id":"free"},{"bike_id":"31626cc8-d2b3-4646-9046-9dccb5eec898","system_id":"levelo_inurba_marseille","lat":43.308012,"lon":5.381511,"is_reserved":false,"is_disabled":false,"rental_uris":{"android":"levelo://app?vid=31626cc8-d2b3-4646-9046-9dccb5eec898","ios":"levelo://app?vid=31626cc8-d2b3-4646-9046-9dccb5eec898"},"vehicle_type_id":"4","last_reported":1677305336,"current_range_meters":21600,"station_id":"ce4bgt12rcd13ifvqce0","pricing_plan_id":"free"},{"bike_id":"2699ec3f-c7ea-4a95-9ecb-4a1858898b92","system_id":"levelo_inurba_marseille","lat":43.308012,"lon":5.381511,"is_reserved":false,"is_disabled":false,"rental_uris":{"android":"levelo://app?vid=2699ec3f-c7ea-4a95-9ecb-4a1858898b92","ios":"levelo://app?vid=2699ec3f-c7ea-4a95-9ecb-4a1858898b92"},"vehicle_type_id":"4","last_reported":1677305336,"current_range_meters":2800,"station_id":"ce4bgt12rcd13ifvqce0","pricing_plan_id":"free"},{"bike_id":"7ed28788-6c11-480c-bc8a-8de95e530fd8","system_id":"levelo_inurba_marseille","lat":43.308012,"lon":5.381511,"is_reserved":false,"is_disabled":false,"rental_uris":{"android":"levelo://app?vid=7ed28788-6c11-480c-bc8a-8de95e530fd8","ios":"levelo://app?vid=7ed28788-6c11-480c-bc8a-8de95e530fd8"},"vehicle_type_id":"4","last_reported":1677305336,"current_range_meters":11200,"station_id":"ce4bgt12rcd13ifvqce0","pricing_plan_id":"free"},{"bike_id":"4257da66-001b-4210-bad4-6c14f5fa4e0e","system_id":"levelo_inurba_marseille","lat":43.308012,"lon":5.381511,"is_reserved":false,"is_disabled":false,"rental_uris":{"android":"levelo://app?vid=4257da66-001b-4210-bad4-6c14f5fa4e0e","ios":"levelo://app?vid=4257da66-001b-4210-bad4-6c14f5fa4e0e"},"vehicle_type_id":"4","last_reported":1677305336,"current_range_meters":11600,"station_id":"ce4bgt12rcd13ifvqce0","pricing_plan_id":"free"},{"bike_id":"48a09b0c-ce3e-49ff-9b86-91f6b135642a","system_id":"levelo_inurba_marseille","lat":43.308012,"lon":5.381511,"is_reserved":false,"is_disabled":false,"rental_uris":{"android":"levelo://app?vid=48a09b0c-ce3e-49ff-9b86-91f6b135642a","ios":"levelo://app?vid=48a09b0c-ce3e-49ff-9b86-91f6b135642a"},"vehicle_type_id":"4","last_reported":1677305336,"current_range_meters":27200,"station_id":"ce4bgt12rcd13ifvqce0","pricing_plan_id":"free"},{"bike_id":"31beffef-15a5-42d1-a8a2-97c71c52fec1","system_id":"levelo_inurba_marseille","lat":43.308012,"lon":5.381511,"is_reserved":false,"is_disabled":false,"rental_uris":{"android":"levelo://app?vid=31beffef-15a5-42d1-a8a2-97c71c52fec1","ios":"levelo://app?vid=31beffef-15a5-42d1-a8a2-97c71c52fec1"},"vehicle_type_id":"4","last_reported":1677305336,"current_range_meters":12000,"station_id":"ce4bgt12rcd13ifvqce0","pricing_plan_id":"free"},{"bike_id":"9c8f9df1-d7ab-40d5-a976-4dd9c669b134","system_id":"levelo_inurba_marseille","lat":43.308012,"lon":5.381511,"is_reserved":false,"is_disabled":false,"rental_uris":{"android":"levelo://app?vid=9c8f9df1-d7ab-40d5-a976-4dd9c669b134","ios":"levelo://app?vid=9c8f9df1-d7ab-40d5-a976-4dd9c669b134"},"vehicle_type_id":"4","last_reported":1677305336,"current_range_meters":14400,"station_id":"ce4bgt12rcd13ifvqce0","pricing_plan_id":"free"},{"bike_id":"e2dd2a45-afc9-4be6-aead-bc19aa85a479","system_id":"levelo_inurba_marseille","lat":43.304606,"lon":5.379026,"is_reserved":false,"is_disabled":false,"rental_uris":{"android":"levelo://app?vid=e2dd2a45-afc9-4be6-aead-bc19aa85a479","ios":"levelo://app?vid=e2dd2a45-afc9-4be6-aead-bc19aa85a479"},"vehicle_type_id":"4","last_reported":1677305336,"current_range_meters":28400,"station_id":"ce4bgup2rcd13ifvqcn0","pricing_plan_id":"free"},{"bike_id":"15a647b8-4850-4276-b1a8-6563fe44daff","system_id":"levelo_inurba_marseille","lat":43.304606,"lon":5.379026,"is_reserved":false,"is_disabled":false,"rental_uris":{"android":"levelo://app?vid=15a647b8-4850-4276-b1a8-6563fe44daff","ios":"levelo://app?vid=15a647b8-4850-4276-b1a8-6563fe44daff"},"vehicle_type_id":"4","last_reported":1677305336,"current_range_meters":32000,"station_id":"ce4bgup2rcd13ifvqcn0","pricing_plan_id":"free"},{"bike_id":"88b9f3e8-fc29-4c15-b7c1-58971231d94d","system_id":"levelo_inurba_marseille","lat":43.304606,"lon":5.379026,"is_reserved":false,"is_disabled":false,"rental_uris":{"android":"levelo://app?vid=88b9f3e8-fc29-4c15-b7c1-58971231d94d","ios":"levelo://app?vid=88b9f3e8-fc29-4c15-b7c1-58971231d94d"},"vehicle_type_id":"4","last_reported":1677305336,"current_range_meters":0,"station_id":"ce4bgup2rcd13ifvqcn0","pricing_plan_id":"free"},{"bike_id":"44a49d6d-7a64-4e8b-b0ac-65c91690fbdb","system_id":"levelo_inurba_marseille","lat":43.304606,"lon":5.379026,"is_reserved":false,"is_disabled":false,"rental_uris":{"android":"levelo://app?vid=44a49d6d-7a64-4e8b-b0ac-65c91690fbdb","ios":"levelo://app?vid=44a49d6d-7a64-4e8b-b0ac-65c91690fbdb"},"vehicle_type_id":"4","last_reported":1677305336,"current_range_meters":19600,"station_id":"ce4bgup2rcd13ifvqcn0","pricing_plan_id":"free"},{"bike_id":"dd9dec71-45d1-42f9-b737-93e61c012517","system_id":"levelo_inurba_marseille","lat":43.304606,"lon":5.379026,"is_reserved":false,"is_disabled":false,"rental_uris":{"android":"levelo://app?vid=dd9dec71-45d1-42f9-b737-93e61c012517","ios":"levelo://app?vid=dd9dec71-45d1-42f9-b737-93e61c012517"},"vehicle_type_id":"4","last_reported":1677305336,"current_range_meters":30400,"station_id":"ce4bgup2rcd13ifvqcn0","pricing_plan_id":"free"},{"bike_id":"a9064088-8412-4cb4-84b1-c2c6b866ba9b","system_id":"levelo_inurba_marseille","lat":43.304606,"lon":5.379026,"is_reserved":false,"is_disabled":false,"rental_uris":{"android":"levelo://app?vid=a9064088-8412-4cb4-84b1-c2c6b866ba9b","ios":"levelo://app?vid=a9064088-8412-4cb4-84b1-c2c6b866ba9b"},"vehicle_type_id":"4","last_reported":1677305336,"current_range_meters":29200,"station_id":"ce4bgup2rcd13ifvqcn0","pricing_plan_id":"free"},{"bike_id":"e8812363-8caf-4332-b94e-a46b29d77b70","system_id":"levelo_inurba_marseille","lat":43.304606,"lon":5.379026,"is_reserved":false,"is_disabled":false,"rental_uris":{"android":"levelo://app?vid=e8812363-8caf-4332-b94e-a46b29d77b70","ios":"levelo://app?vid=e8812363-8caf-4332-b94e-a46b29d77b70"},"vehicle_type_id":"4","last_reported":1677305336,"current_range_meters":31600,"station_id":"ce4bgup2rcd13ifvqcn0","pricing_plan_id":"free"},{"bike_id":"d26aad05-72c4-4a9c-a891-685dcac06b39","system_id":"levelo_inurba_marseille","lat":43.30459,"lon":5.379003,"is_reserved":false,"is_disabled":false,"rental_uris":{"android":"levelo://app?vid=d26aad05-72c4-4a9c-a891-685dcac06b39","ios":"levelo://app?vid=d26aad05-72c4-4a9c-a891-685dcac06b39"},"vehicle_type_id":"4","last_reported":1677305336,"current_range_meters":12800,"station_id":"ce4bgup2rcd13ifvqcn0","pricing_plan_id":"free"},{"bike_id":"eeaa4aa6-9bbe-4ba0-80ff-88d8d77de3f5","system_id":"levelo_inurba_marseille","lat":43.304606,"lon":5.379026,"is_reserved":false,"is_disabled":false,"rental_uris":{"android":"levelo://app?vid=eeaa4aa6-9bbe-4ba0-80ff-88d8d77de3f5","ios":"levelo://app?vid=eeaa4aa6-9bbe-4ba0-80ff-88d8d77de3f5"},"vehicle_type_id":"4","last_reported":1677305336,"current_range_meters":12000,"station_id":"ce4bgup2rcd13ifvqcn0","pricing_plan_id":"free"},{"bike_id":"e593f07c-6156-49d1-b16d-324199ab0594","system_id":"levelo_inurba_marseille","lat":43.30462,"lon":5.37909,"is_reserved":false,"is_disabled":false,"rental_uris":{"android":"levelo://app?vid=e593f07c-6156-49d1-b16d-324199ab0594","ios":"levelo://app?vid=e593f07c-6156-49d1-b16d-324199ab0594"},"vehicle_type_id":"4","last_reported":1677305336,"current_range_meters":30000,"station_id":"","pricing_plan_id":"free"},{"bike_id":"8f57beec-df12-4b97-9203-d6a06b0b7c83","system_id":"levelo_inurba_marseille","lat":43.30143,"lon":5.37413,"is_reserved":false,"is_disabled":false,"rental_uris":{"android":"levelo://app?vid=8f57beec-df12-4b97-9203-d6a06b0b7c83","ios":"levelo://app?vid=8f57beec-df12-4b97-9203-d6a06b0b7c83"},"vehicle_type_id":"4","last_reported":1677305336,"current_range_meters":2000,"station_id":"ce4bgs92rcd13ifvqcc0","pricing_plan_id":"free"},{"bike_id":"e214f393-c154-484e-a313-7017f4b35e30","system_id":"levelo_inurba_marseille","lat":43.30143,"lon":5.37413,"is_reserved":false,"is_disabled":false,"rental_uris":{"android":"levelo://app?vid=e214f393-c154-484e-a313-7017f4b35e30","ios":"levelo://app?vid=e214f393-c154-484e-a313-7017f4b35e30"},"vehicle_type_id":"4","last_reported":1677305336,"current_range_meters":2000,"station_id":"ce4bgs92rcd13ifvqcc0","pricing_plan_id":"free"},{"bike_id":"cd0748dc-6343-4f28-a65b-b33d744ace53","system_id":"levelo_inurba_marseille","lat":43.313568,"lon":5.384931,"is_reserved":false,"is_disabled":false,"rental_uris":{"android":"levelo://app?vid=cd0748dc-6343-4f28-a65b-b33d744ace53","ios":"levelo://app?vid=cd0748dc-6343-4f28-a65b-b33d744ace53"},"vehicle_type_id":"4","last_reported":1677305336,"current_range_meters":9200,"station_id":"ce4bgt92rcd13ifvqcf0","pricing_plan_id":"free"},{"bike_id":"2431f76a-8e8c-4a1f-9a31-4fc56b8077a7","system_id":"levelo_inurba_marseille","lat":43.30536,"lon":5.38412,"is_reserved":false,"is_disabled":false,"rental_uris":{"android":"levelo://app?vid=2431f76a-8e8c-4a1f-9a31-4fc56b8077a7","ios":"levelo://app?vid=2431f76a-8e8c-4a1f-9a31-4fc56b8077a7"},"vehicle_type_id":"4","last_reported":1677305336,"current_range_meters":20400,"station_id":"ce4bgg92rcd13ifvqb30","pricing_plan_id":"free"},{"bike_id":"0184a428-4351-4937-8fed-abc949e54758","system_id":"levelo_inurba_marseille","lat":43.305364,"lon":5.384119,"is_reserved":false,"is_disabled":false,"rental_uris":{"android":"levelo://app?vid=0184a428-4351-4937-8fed-abc949e54758","ios":"levelo://app?vid=0184a428-4351-4937-8fed-abc949e54758"},"vehicle_type_id":"4","last_reported":1677305336,"current_range_meters":21600,"station_id":"ce4bgg92rcd13ifvqb30","pricing_plan_id":"free"},{"bike_id":"bec84841-88b6-4149-a555-fee4eef8e504","system_id":"levelo_inurba_marseille","lat":43.305421,"lon":5.38432,"is_reserved":false,"is_disabled":false,"rental_uris":{"android":"levelo://app?vid=bec84841-88b6-4149-a555-fee4eef8e504","ios":"levelo://app?vid=bec84841-88b6-4149-a555-fee4eef8e504"},"vehicle_type_id":"4","last_reported":1677305336,"current_range_meters":27600,"station_id":"","pricing_plan_id":"free"},{"bike_id":"7e718e58-fca7-44b7-8cd8-ae5ec2691ddd","system_id":"levelo_inurba_marseille","lat":43.305364,"lon":5.384119,"is_reserved":false,"is_disabled":false,"rental_uris":{"android":"levelo://app?vid=7e718e58-fca7-44b7-8cd8-ae5ec2691ddd","ios":"levelo://app?vid=7e718e58-fca7-44b7-8cd8-ae5ec2691ddd"},"vehicle_type_id":"4","last_reported":1677305336,"current_range_meters":0,"station_id":"ce4bgg92rcd13ifvqb30","pricing_plan_id":"free"},{"bike_id":"065aecf6-d31d-4352-a2d1-918a7ea1891d","system_id":"levelo_inurba_marseille","lat":43.298425,"lon":5.362765,"is_reserved":false,"is_disabled":false,"rental_uris":{"android":"levelo://app?vid=065aecf6-d31d-4352-a2d1-918a7ea1891d","ios":"levelo://app?vid=065aecf6-d31d-4352-a2d1-918a7ea1891d"},"vehicle_type_id":"4","last_reported":1677305336,"current_range_meters":25200,"station_id":"ce4bgpp2rcd13ifvqc3g","pricing_plan_id":"free"},{"bike_id":"8330700d-fa6f-4902-a04e-7399797bb74d","system_id":"levelo_inurba_marseille","lat":43.305364,"lon":5.384119,"is_reserved":false,"is_disabled":false,"rental_uris":{"android":"levelo://app?vid=8330700d-fa6f-4902-a04e-7399797bb74d","ios":"levelo://app?vid=8330700d-fa6f-4902-a04e-7399797bb74d"},"vehicle_type_id":"4","last_reported":1677305336,"current_range_meters":9200,"station_id":"ce4bgg92rcd13ifvqb30","pricing_plan_id":"free"},{"bike_id":"07626f5c-1e05-46fe-aa71-9f10cea1c415","system_id":"levelo_inurba_marseille","lat":43.298419,"lon":5.362744,"is_reserved":false,"is_disabled":false,"rental_uris":{"android":"levelo://app?vid=07626f5c-1e05-46fe-aa71-9f10cea1c415","ios":"levelo://app?vid=07626f5c-1e05-46fe-aa71-9f10cea1c415"},"vehicle_type_id":"4","last_reported":1677305336,"current_range_meters":28800,"station_id":"ce4bgpp2rcd13ifvqc3g","pricing_plan_id":"free"},{"bike_id":"7661ffea-f097-4c15-93fc-3a0c8f6c8dc5","system_id":"levelo_inurba_marseille","lat":43.298433,"lon":5.362774,"is_reserved":false,"is_disabled":false,"rental_uris":{"android":"levelo://app?vid=7661ffea-f097-4c15-93fc-3a0c8f6c8dc5","ios":"levelo://app?vid=7661ffea-f097-4c15-93fc-3a0c8f6c8dc5"},"vehicle_type_id":"4","last_reported":1677305336,"current_range_meters":28400,"station_id":"ce4bgpp2rcd13ifvqc3g","pricing_plan_id":"free"},{"bike_id":"52d8fab7-4e96-412e-bd79-348dbcd24cd5","system_id":"levelo_inurba_marseille","lat":43.298433,"lon":5.362774,"is_reserved":false,"is_disabled":false,"rental_uris":{"android":"levelo://app?vid=52d8fab7-4e96-412e-bd79-348dbcd24cd5","ios":"levelo://app?vid=52d8fab7-4e96-412e-bd79-348dbcd24cd5"},"vehicle_type_id":"4","last_reported":1677305336,"current_range_meters":27200,"station_id":"ce4bgpp2rcd13ifvqc3g","pricing_plan_id":"free"},{"bike_id":"4958645e-d87b-46ee-8a31-e167f2686df8","system_id":"levelo_inurba_marseille","lat":43.298433,"lon":5.362774,"is_reserved":false,"is_disabled":false,"rental_uris":{"android":"levelo://app?vid=4958645e-d87b-46ee-8a31-e167f2686df8","ios":"levelo://app?vid=4958645e-d87b-46ee-8a31-e167f2686df8"},"vehicle_type_id":"4","last_reported":1677305336,"current_range_meters":31200,"station_id":"ce4bgpp2rcd13ifvqc3g","pricing_plan_id":"free"},{"bike_id":"7206dc08-43a9-411f-a384-ea2c76c81be6","system_id":"levelo_inurba_marseille","lat":43.311722,"lon":5.387247,"is_reserved":false,"is_disabled":false,"rental_uris":{"android":"levelo://app?vid=7206dc08-43a9-411f-a384-ea2c76c81be6","ios":"levelo://app?vid=7206dc08-43a9-411f-a384-ea2c76c81be6"},"vehicle_type_id":"4","last_reported":1677305336,"current_range_meters":28800,"station_id":"ce4bgv12rcd13ifvqcp0","pricing_plan_id":"free"},{"bike_id":"0827965d-955d-46a2-8f1a-5a85d5aa664e","system_id":"levelo_inurba_marseille","lat":43.311722,"lon":5.387247,"is_reserved":false,"is_disabled":false,"rental_uris":{"android":"levelo://app?vid=0827965d-955d-46a2-8f1a-5a85d5aa664e","ios":"levelo://app?vid=0827965d-955d-46a2-8f1a-5a85d5aa664e"},"vehicle_type_id":"4","last_reported":1677305336,"current_range_meters":29600,"station_id":"ce4bgv12rcd13ifvqcp0","pricing_plan_id":"free"},{"bike_id":"0adc598b-259c-409b-ade3-3cdd74223c3a","system_id":"levelo_inurba_marseille","lat":43.311722,"lon":5.387247,"is_reserved":false,"is_disabled":false,"rental_uris":{"android":"levelo://app?vid=0adc598b-259c-409b-ade3-3cdd74223c3a","ios":"levelo://app?vid=0adc598b-259c-409b-ade3-3cdd74223c3a"},"vehicle_type_id":"4","last_reported":1677305336,"current_range_meters":31600,"station_id":"ce4bgv12rcd13ifvqcp0","pricing_plan_id":"free"},{"bike_id":"447aa325-97e8-4754-828e-dc4869ea76a6","system_id":"levelo_inurba_marseille","lat":43.311722,"lon":5.387247,"is_reserved":false,"is_disabled":false,"rental_uris":{"android":"levelo://app?vid=447aa325-97e8-4754-828e-dc4869ea76a6","ios":"levelo://app?vid=447aa325-97e8-4754-828e-dc4869ea76a6"},"vehicle_type_id":"4","last_reported":1677305336,"current_range_meters":30800,"station_id":"ce4bgv12rcd13ifvqcp0","pricing_plan_id":"free"},{"bike_id":"4bba5ae6-9975-4fd1-bb2f-c91486848872","system_id":"levelo_inurba_marseille","lat":43.311722,"lon":5.387247,"is_reserved":false,"is_disabled":false,"rental_uris":{"android":"levelo://app?vid=4bba5ae6-9975-4fd1-bb2f-c91486848872","ios":"levelo://app?vid=4bba5ae6-9975-4fd1-bb2f-c91486848872"},"vehicle_type_id":"4","last_reported":1677305336,"current_range_meters":31200,"station_id":"ce4bgv12rcd13ifvqcp0","pricing_plan_id":"free"},{"bike_id":"d034a90e-6adc-4ac2-bbbc-43b1d3ea4cf4","system_id":"levelo_inurba_marseille","lat":43.311722,"lon":5.387247,"is_reserved":false,"is_disabled":false,"rental_uris":{"android":"levelo://app?vid=d034a90e-6adc-4ac2-bbbc-43b1d3ea4cf4","ios":"levelo://app?vid=d034a90e-6adc-4ac2-bbbc-43b1d3ea4cf4"},"vehicle_type_id":"4","last_reported":1677305336,"current_range_meters":31600,"station_id":"ce4bgv12rcd13ifvqcp0","pricing_plan_id":"free"},{"bike_id":"d9b496f7-9dd2-4f1a-a97e-b6d8993ae070","system_id":"levelo_inurba_marseille","lat":43.311722,"lon":5.387247,"is_reserved":false,"is_disabled":false,"rental_uris":{"android":"levelo://app?vid=d9b496f7-9dd2-4f1a-a97e-b6d8993ae070","ios":"levelo://app?vid=d9b496f7-9dd2-4f1a-a97e-b6d8993ae070"},"vehicle_type_id":"4","last_reported":1677305336,"current_range_meters":28400,"station_id":"ce4bgv12rcd13ifvqcp0","pricing_plan_id":"free"},{"bike_id":"59038ed0-9fb1-4af1-a862-bf44ce9cfbcc","system_id":"levelo_inurba_marseille","lat":43.311722,"lon":5.387247,"is_reserved":false,"is_disabled":false,"rental_uris":{"android":"levelo://app?vid=59038ed0-9fb1-4af1-a862-bf44ce9cfbcc","ios":"levelo://app?vid=59038ed0-9fb1-4af1-a862-bf44ce9cfbcc"},"vehicle_type_id":"4","last_reported":1677305336,"current_range_meters":27600,"station_id":"ce4bgv12rcd13ifvqcp0","pricing_plan_id":"free"},{"bike_id":"4b1435ae-1ec4-4091-ba5b-bd67e112680a","system_id":"levelo_inurba_marseille","lat":43.311722,"lon":5.387247,"is_reserved":false,"is_disabled":false,"rental_uris":{"android":"levelo://app?vid=4b1435ae-1ec4-4091-ba5b-bd67e112680a","ios":"levelo://app?vid=4b1435ae-1ec4-4091-ba5b-bd67e112680a"},"vehicle_type_id":"4","last_reported":1677305336,"current_range_meters":31600,"station_id":"ce4bgv12rcd13ifvqcp0","pricing_plan_id":"free"},{"bike_id":"9fafd380-954c-46e5-8050-adabdbabd7c3","system_id":"levelo_inurba_marseille","lat":43.311722,"lon":5.387247,"is_reserved":false,"is_disabled":false,"rental_uris":{"android":"levelo://app?vid=9fafd380-954c-46e5-8050-adabdbabd7c3","ios":"levelo://app?vid=9fafd380-954c-46e5-8050-adabdbabd7c3"},"vehicle_type_id":"4","last_reported":1677305336,"current_range_meters":30000,"station_id":"ce4bgv12rcd13ifvqcp0","pricing_plan_id":"free"},{"bike_id":"46046dd0-d8fe-467a-992c-2963bdda44ee","system_id":"levelo_inurba_marseille","lat":43.311722,"lon":5.387247,"is_reserved":false,"is_disabled":false,"rental_uris":{"android":"levelo://app?vid=46046dd0-d8fe-467a-992c-2963bdda44ee","ios":"levelo://app?vid=46046dd0-d8fe-467a-992c-2963bdda44ee"},"vehicle_type_id":"4","last_reported":1677305336,"current_range_meters":32000,"station_id":"ce4bgv12rcd13ifvqcp0","pricing_plan_id":"free"},{"bike_id":"a22b359f-1a64-4642-adb1-d6a65cd157a6","system_id":"levelo_inurba_marseille","lat":43.328371,"lon":5.366909,"is_reserved":false,"is_disabled":false,"rental_uris":{"android":"levelo://app?vid=a22b359f-1a64-4642-adb1-d6a65cd157a6","ios":"levelo://app?vid=a22b359f-1a64-4642-adb1-d6a65cd157a6"},"vehicle_type_id":"4","last_reported":1677305336,"current_range_meters":24800,"station_id":"ce4bhs92rcd13ifvqi0g","pricing_plan_id":"free"},{"bike_id":"197af0d6-5467-4203-a676-cdf599dc91a3","system_id":"levelo_inurba_marseille","lat":43.328371,"lon":5.366909,"is_reserved":false,"is_disabled":false,"rental_uris":{"android":"levelo://app?vid=197af0d6-5467-4203-a676-cdf599dc91a3","ios":"levelo://app?vid=197af0d6-5467-4203-a676-cdf599dc91a3"},"vehicle_type_id":"4","last_reported":1677305336,"current_range_meters":27600,"station_id":"ce4bhs92rcd13ifvqi0g","pricing_plan_id":"free"},{"bike_id":"b7c3cafb-aad4-48c8-bd86-e37ec9a6a2b0","system_id":"levelo_inurba_marseille","lat":43.328371,"lon":5.366909,"is_reserved":false,"is_disabled":false,"rental_uris":{"android":"levelo://app?vid=b7c3cafb-aad4-48c8-bd86-e37ec9a6a2b0","ios":"levelo://app?vid=b7c3cafb-aad4-48c8-bd86-e37ec9a6a2b0"},"vehicle_type_id":"4","last_reported":1677305336,"current_range_meters":28400,"station_id":"ce4bhs92rcd13ifvqi0g","pricing_plan_id":"free"},{"bike_id":"a35a05e9-b7da-4299-a061-edb4398f475d","system_id":"levelo_inurba_marseille","lat":43.2968,"lon":5.37291,"is_reserved":false,"is_disabled":false,"rental_uris":{"android":"levelo://app?vid=a35a05e9-b7da-4299-a061-edb4398f475d","ios":"levelo://app?vid=a35a05e9-b7da-4299-a061-edb4398f475d"},"vehicle_type_id":"4","last_reported":1677305336,"current_range_meters":0,"station_id":"ce4bgk12rcd13ifvqbj0","pricing_plan_id":"free"},{"bike_id":"b9a4c1fe-0551-4766-9412-c7f89d8757cf","system_id":"levelo_inurba_marseille","lat":43.29587,"lon":5.36745,"is_reserved":false,"is_disabled":false,"rental_uris":{"android":"levelo://app?vid=b9a4c1fe-0551-4766-9412-c7f89d8757cf","ios":"levelo://app?vid=b9a4c1fe-0551-4766-9412-c7f89d8757cf"},"vehicle_type_id":"4","last_reported":1677305336,"current_range_meters":4000,"station_id":"ce4bgph2rcd13ifvqc2g","pricing_plan_id":"free"},{"bike_id":"884d34d0-f91a-4efc-b160-7381b3185a4d","system_id":"levelo_inurba_marseille","lat":43.302008,"lon":5.394694,"is_reserved":false,"is_disabled":false,"rental_uris":{"android":"levelo://app?vid=884d34d0-f91a-4efc-b160-7381b3185a4d","ios":"levelo://app?vid=884d34d0-f91a-4efc-b160-7381b3185a4d"},"vehicle_type_id":"4","last_reported":1677305336,"current_range_meters":20000,"station_id":"ce4bh0p2rcd13ifvqd70","pricing_plan_id":"free"},{"bike_id":"85f84f5c-6db9-4f85-8e99-8bf460e05751","system_id":"levelo_inurba_marseille","lat":43.309589,"lon":5.390258,"is_reserved":false,"is_disabled":false,"rental_uris":{"android":"levelo://app?vid=85f84f5c-6db9-4f85-8e99-8bf460e05751","ios":"levelo://app?vid=85f84f5c-6db9-4f85-8e99-8bf460e05751"},"vehicle_type_id":"4","last_reported":1677305336,"current_range_meters":19600,"station_id":"ce4bgup2rcd13ifvqco0","pricing_plan_id":"free"},{"bike_id":"94612346-f42e-4551-ab59-92f9073c1d29","system_id":"levelo_inurba_marseille","lat":43.317557,"lon":5.390173,"is_reserved":false,"is_disabled":false,"rental_uris":{"android":"levelo://app?vid=94612346-f42e-4551-ab59-92f9073c1d29","ios":"levelo://app?vid=94612346-f42e-4551-ab59-92f9073c1d29"},"vehicle_type_id":"4","last_reported":1677305336,"current_range_meters":12800,"station_id":"ce4bhqp2rcd13ifvqhng","pricing_plan_id":"free"},{"bike_id":"f9a9e3f9-6e1a-4198-9a72-588053242598","system_id":"levelo_inurba_marseille","lat":43.317549,"lon":5.390144,"is_reserved":false,"is_disabled":false,"rental_uris":{"android":"levelo://app?vid=f9a9e3f9-6e1a-4198-9a72-588053242598","ios":"levelo://app?vid=f9a9e3f9-6e1a-4198-9a72-588053242598"},"vehicle_type_id":"4","last_reported":1677305336,"current_range_meters":25600,"station_id":"ce4bhqp2rcd13ifvqhng","pricing_plan_id":"free"},{"bike_id":"1a2b00bc-908a-4a86-9ee9-b40d16f29e0d","system_id":"levelo_inurba_marseille","lat":43.317557,"lon":5.390173,"is_reserved":false,"is_disabled":false,"rental_uris":{"android":"levelo://app?vid=1a2b00bc-908a-4a86-9ee9-b40d16f29e0d","ios":"levelo://app?vid=1a2b00bc-908a-4a86-9ee9-b40d16f29e0d"},"vehicle_type_id":"4","last_reported":1677305336,"current_range_meters":16800,"station_id":"ce4bhqp2rcd13ifvqhng","pricing_plan_id":"free"},{"bike_id":"f462110a-bc99-4e36-8a31-ae386b45bd20","system_id":"levelo_inurba_marseille","lat":43.317557,"lon":5.390173,"is_reserved":false,"is_disabled":false,"rental_uris":{"android":"levelo://app?vid=f462110a-bc99-4e36-8a31-ae386b45bd20","ios":"levelo://app?vid=f462110a-bc99-4e36-8a31-ae386b45bd20"},"vehicle_type_id":"4","last_reported":1677305336,"current_range_meters":31600,"station_id":"ce4bhqp2rcd13ifvqhng","pricing_plan_id":"free"},{"bike_id":"87772f18-9dab-44b7-9a12-4ef0c7d43669","system_id":"levelo_inurba_marseille","lat":43.317555,"lon":5.390149,"is_reserved":false,"is_disabled":false,"rental_uris":{"android":"levelo://app?vid=87772f18-9dab-44b7-9a12-4ef0c7d43669","ios":"levelo://app?vid=87772f18-9dab-44b7-9a12-4ef0c7d43669"},"vehicle_type_id":"4","last_reported":1677305336,"current_range_meters":20800,"station_id":"ce4bhqp2rcd13ifvqhng","pricing_plan_id":"free"},{"bike_id":"8c7b0611-e5c0-4443-ad6c-d9cf5178faa6","system_id":"levelo_inurba_marseille","lat":43.317543,"lon":5.390154,"is_reserved":false,"is_disabled":false,"rental_uris":{"android":"levelo://app?vid=8c7b0611-e5c0-4443-ad6c-d9cf5178faa6","ios":"levelo://app?vid=8c7b0611-e5c0-4443-ad6c-d9cf5178faa6"},"vehicle_type_id":"4","last_reported":1677305336,"current_range_meters":30400,"station_id":"ce4bhqp2rcd13ifvqhng","pricing_plan_id":"free"},{"bike_id":"2043525e-4639-4d27-97c1-263c9ea9a3b6","system_id":"levelo_inurba_marseille","lat":43.317517,"lon":5.390176,"is_reserved":false,"is_disabled":false,"rental_uris":{"android":"levelo://app?vid=2043525e-4639-4d27-97c1-263c9ea9a3b6","ios":"levelo://app?vid=2043525e-4639-4d27-97c1-263c9ea9a3b6"},"vehicle_type_id":"4","last_reported":1677305336,"current_range_meters":17200,"station_id":"ce4bhqp2rcd13ifvqhng","pricing_plan_id":"free"},{"bike_id":"599496d7-56e1-4a76-8768-f04cd9ef75e3","system_id":"levelo_inurba_marseille","lat":43.317523,"lon":5.390198,"is_reserved":false,"is_disabled":false,"rental_uris":{"android":"levelo://app?vid=599496d7-56e1-4a76-8768-f04cd9ef75e3","ios":"levelo://app?vid=599496d7-56e1-4a76-8768-f04cd9ef75e3"},"vehicle_type_id":"4","last_reported":1677305336,"current_range_meters":14400,"station_id":"ce4bhqp2rcd13ifvqhng","pricing_plan_id":"free"},{"bike_id":"add42fa4-5099-4556-8cd4-0963c7181779","system_id":"levelo_inurba_marseille","lat":43.3044,"lon":5.388918,"is_reserved":false,"is_disabled":false,"rental_uris":{"android":"levelo://app?vid=add42fa4-5099-4556-8cd4-0963c7181779","ios":"levelo://app?vid=add42fa4-5099-4556-8cd4-0963c7181779"},"vehicle_type_id":"4","last_reported":1677305336,"current_range_meters":12000,"station_id":"","pricing_plan_id":"free"},{"bike_id":"3124f187-46a6-4f69-878f-e2e958593365","system_id":"levelo_inurba_marseille","lat":43.304416,"lon":5.388963,"is_reserved":false,"is_disabled":false,"rental_uris":{"android":"levelo://app?vid=3124f187-46a6-4f69-878f-e2e958593365","ios":"levelo://app?vid=3124f187-46a6-4f69-878f-e2e958593365"},"vehicle_type_id":"4","last_reported":1677305336,"current_range_meters":19600,"station_id":"","pricing_plan_id":"free"},{"bike_id":"bbd47fc6-8a83-4875-8d13-f1dbcfbbc631","system_id":"levelo_inurba_marseille","lat":43.304421,"lon":5.388967,"is_reserved":false,"is_disabled":false,"rental_uris":{"android":"levelo://app?vid=bbd47fc6-8a83-4875-8d13-f1dbcfbbc631","ios":"levelo://app?vid=bbd47fc6-8a83-4875-8d13-f1dbcfbbc631"},"vehicle_type_id":"4","last_reported":1677305336,"current_range_meters":29200,"station_id":"","pricing_plan_id":"free"},{"bike_id":"43bbf00e-4e49-41cd-a46e-42d80deb598f","system_id":"levelo_inurba_marseille","lat":43.298037,"lon":5.381066,"is_reserved":false,"is_disabled":false,"rental_uris":{"android":"levelo://app?vid=43bbf00e-4e49-41cd-a46e-42d80deb598f","ios":"levelo://app?vid=43bbf00e-4e49-41cd-a46e-42d80deb598f"},"vehicle_type_id":"4","last_reported":1677305336,"current_range_meters":15600,"station_id":"ce4bgip2rcd13ifvqbb0","pricing_plan_id":"free"},{"bike_id":"71c4502d-d218-4baf-835c-76b72edf597d","system_id":"levelo_inurba_marseille","lat":43.304394,"lon":5.388994,"is_reserved":false,"is_disabled":false,"rental_uris":{"android":"levelo://app?vid=71c4502d-d218-4baf-835c-76b72edf597d","ios":"levelo://app?vid=71c4502d-d218-4baf-835c-76b72edf597d"},"vehicle_type_id":"4","last_reported":1677305336,"current_range_meters":0,"station_id":"","pricing_plan_id":"free"},{"bike_id":"03136efc-8357-4d36-9a10-4be98d417b86","system_id":"levelo_inurba_marseille","lat":43.29544,"lon":5.37503,"is_reserved":false,"is_disabled":false,"rental_uris":{"android":"levelo://app?vid=03136efc-8357-4d36-9a10-4be98d417b86","ios":"levelo://app?vid=03136efc-8357-4d36-9a10-4be98d417b86"},"vehicle_type_id":"4","last_reported":1677305336,"current_range_meters":18800,"station_id":"ce4bgkp2rcd13ifvqbmg","pricing_plan_id":"free"},{"bike_id":"2a49910c-3ed8-4103-aa66-407d82c9c65b","system_id":"levelo_inurba_marseille","lat":43.323629,"lon":5.388722,"is_reserved":false,"is_disabled":false,"rental_uris":{"android":"levelo://app?vid=2a49910c-3ed8-4103-aa66-407d82c9c65b","ios":"levelo://app?vid=2a49910c-3ed8-4103-aa66-407d82c9c65b"},"vehicle_type_id":"4","last_reported":1677305336,"current_range_meters":17200,"station_id":"ce4bhqp2rcd13ifvqhog","pricing_plan_id":"free"},{"bike_id":"b9f8b033-2061-4d79-be0f-197f0d4842b5","system_id":"levelo_inurba_marseille","lat":43.32367,"lon":5.388836,"is_reserved":false,"is_disabled":false,"rental_uris":{"android":"levelo://app?vid=b9f8b033-2061-4d79-be0f-197f0d4842b5","ios":"levelo://app?vid=b9f8b033-2061-4d79-be0f-197f0d4842b5"},"vehicle_type_id":"4","last_reported":1677305336,"current_range_meters":23200,"station_id":"ce4bhqp2rcd13ifvqhog","pricing_plan_id":"free"},{"bike_id":"28776fb4-0ae8-44dc-b7d7-08dc007fcbf7","system_id":"levelo_inurba_marseille","lat":43.323693,"lon":5.388691,"is_reserved":false,"is_disabled":false,"rental_uris":{"android":"levelo://app?vid=28776fb4-0ae8-44dc-b7d7-08dc007fcbf7","ios":"levelo://app?vid=28776fb4-0ae8-44dc-b7d7-08dc007fcbf7"},"vehicle_type_id":"4","last_reported":1677305336,"current_range_meters":16800,"station_id":"ce4bhqp2rcd13ifvqhog","pricing_plan_id":"free"},{"bike_id":"7e869dac-adda-4421-a03d-7d8cda6db5c4","system_id":"levelo_inurba_marseille","lat":43.323639,"lon":5.388774,"is_reserved":false,"is_disabled":false,"rental_uris":{"android":"levelo://app?vid=7e869dac-adda-4421-a03d-7d8cda6db5c4","ios":"levelo://app?vid=7e869dac-adda-4421-a03d-7d8cda6db5c4"},"vehicle_type_id":"4","last_reported":1677305336,"current_range_meters":16000,"station_id":"ce4bhqp2rcd13ifvqhog","pricing_plan_id":"free"},{"bike_id":"b0e467e3-64f5-4407-92e3-08ad49e4d550","system_id":"levelo_inurba_marseille","lat":43.323671,"lon":5.388757,"is_reserved":false,"is_disabled":false,"rental_uris":{"android":"levelo://app?vid=b0e467e3-64f5-4407-92e3-08ad49e4d550","ios":"levelo://app?vid=b0e467e3-64f5-4407-92e3-08ad49e4d550"},"vehicle_type_id":"4","last_reported":1677305336,"current_range_meters":21200,"station_id":"ce4bhqp2rcd13ifvqhog","pricing_plan_id":"free"},{"bike_id":"e980a09e-1bd9-4237-a9db-83cc3e6ec399","system_id":"levelo_inurba_marseille","lat":43.32367,"lon":5.388836,"is_reserved":false,"is_disabled":false,"rental_uris":{"android":"levelo://app?vid=e980a09e-1bd9-4237-a9db-83cc3e6ec399","ios":"levelo://app?vid=e980a09e-1bd9-4237-a9db-83cc3e6ec399"},"vehicle_type_id":"4","last_reported":1677305336,"current_range_meters":14000,"station_id":"ce4bhqp2rcd13ifvqhog","pricing_plan_id":"free"},{"bike_id":"aa2e5cfa-f4e9-479d-a3b0-fbddeed7a4b8","system_id":"levelo_inurba_marseille","lat":43.32367,"lon":5.388836,"is_reserved":false,"is_disabled":false,"rental_uris":{"android":"levelo://app?vid=aa2e5cfa-f4e9-479d-a3b0-fbddeed7a4b8","ios":"levelo://app?vid=aa2e5cfa-f4e9-479d-a3b0-fbddeed7a4b8"},"vehicle_type_id":"4","last_reported":1677305336,"current_range_meters":23600,"station_id":"ce4bhqp2rcd13ifvqhog","pricing_plan_id":"free"},{"bike_id":"9b34d177-9a8a-4f08-a4df-bd335ff90060","system_id":"levelo_inurba_marseille","lat":43.32367,"lon":5.388836,"is_reserved":false,"is_disabled":false,"rental_uris":{"android":"levelo://app?vid=9b34d177-9a8a-4f08-a4df-bd335ff90060","ios":"levelo://app?vid=9b34d177-9a8a-4f08-a4df-bd335ff90060"},"vehicle_type_id":"4","last_reported":1677305336,"current_range_meters":21200,"station_id":"ce4bhqp2rcd13ifvqhog","pricing_plan_id":"free"},{"bike_id":"ea8bdd10-4bc6-49ce-8fb6-cf808ec64aaf","system_id":"levelo_inurba_marseille","lat":43.32367,"lon":5.388836,"is_reserved":false,"is_disabled":false,"rental_uris":{"android":"levelo://app?vid=ea8bdd10-4bc6-49ce-8fb6-cf808ec64aaf","ios":"levelo://app?vid=ea8bdd10-4bc6-49ce-8fb6-cf808ec64aaf"},"vehicle_type_id":"4","last_reported":1677305336,"current_range_meters":27600,"station_id":"ce4bhqp2rcd13ifvqhog","pricing_plan_id":"free"},{"bike_id":"bca13de0-db2d-44a3-bb73-4d8f4cf973e4","system_id":"levelo_inurba_marseille","lat":43.32367,"lon":5.388836,"is_reserved":false,"is_disabled":false,"rental_uris":{"android":"levelo://app?vid=bca13de0-db2d-44a3-bb73-4d8f4cf973e4","ios":"levelo://app?vid=bca13de0-db2d-44a3-bb73-4d8f4cf973e4"},"vehicle_type_id":"4","last_reported":1677305336,"current_range_meters":4000,"station_id":"ce4bhqp2rcd13ifvqhog","pricing_plan_id":"free"},{"bike_id":"b11777e5-6592-4a32-9271-8fd7fb345e14","system_id":"levelo_inurba_marseille","lat":43.32367,"lon":5.388836,"is_reserved":false,"is_disabled":false,"rental_uris":{"android":"levelo://app?vid=b11777e5-6592-4a32-9271-8fd7fb345e14","ios":"levelo://app?vid=b11777e5-6592-4a32-9271-8fd7fb345e14"},"vehicle_type_id":"4","last_reported":1677305336,"current_range_meters":15200,"station_id":"ce4bhqp2rcd13ifvqhog","pricing_plan_id":"free"},{"bike_id":"dab8c943-aeca-438a-ab47-2acc03b9411e","system_id":"levelo_inurba_marseille","lat":43.32367,"lon":5.388836,"is_reserved":false,"is_disabled":false,"rental_uris":{"android":"levelo://app?vid=dab8c943-aeca-438a-ab47-2acc03b9411e","ios":"levelo://app?vid=dab8c943-aeca-438a-ab47-2acc03b9411e"},"vehicle_type_id":"4","last_reported":1677305336,"current_range_meters":15200,"station_id":"ce4bhqp2rcd13ifvqhog","pricing_plan_id":"free"},{"bike_id":"424ed62e-d561-4bb5-8663-319e4c2f0d92","system_id":"levelo_inurba_marseille","lat":43.32367,"lon":5.388836,"is_reserved":false,"is_disabled":false,"rental_uris":{"android":"levelo://app?vid=424ed62e-d561-4bb5-8663-319e4c2f0d92","ios":"levelo://app?vid=424ed62e-d561-4bb5-8663-319e4c2f0d92"},"vehicle_type_id":"4","last_reported":1677305336,"current_range_meters":28000,"station_id":"ce4bhqp2rcd13ifvqhog","pricing_plan_id":"free"},{"bike_id":"00b8f98b-6e55-4179-8d15-f3022841474e","system_id":"levelo_inurba_marseille","lat":43.29389,"lon":5.37301,"is_reserved":false,"is_disabled":false,"rental_uris":{"android":"levelo://app?vid=00b8f98b-6e55-4179-8d15-f3022841474e","ios":"levelo://app?vid=00b8f98b-6e55-4179-8d15-f3022841474e"},"vehicle_type_id":"4","last_reported":1677305336,"current_range_meters":13600,"station_id":"ce4bhb12rcd13ifvqem0","pricing_plan_id":"free"},{"bike_id":"96d768b0-ff0b-44be-a14b-d4484e3897ac","system_id":"levelo_inurba_marseille","lat":43.322707,"lon":5.389813,"is_reserved":false,"is_disabled":false,"rental_uris":{"android":"levelo://app?vid=96d768b0-ff0b-44be-a14b-d4484e3897ac","ios":"levelo://app?vid=96d768b0-ff0b-44be-a14b-d4484e3897ac"},"vehicle_type_id":"4","last_reported":1677305336,"current_range_meters":4800,"station_id":"","pricing_plan_id":"free"},{"bike_id":"0ecbf286-44b1-4672-af5a-5788fc5c55c7","system_id":"levelo_inurba_marseille","lat":43.305994,"lon":5.393687,"is_reserved":false,"is_disabled":false,"rental_uris":{"android":"levelo://app?vid=0ecbf286-44b1-4672-af5a-5788fc5c55c7","ios":"levelo://app?vid=0ecbf286-44b1-4672-af5a-5788fc5c55c7"},"vehicle_type_id":"4","last_reported":1677305336,"current_range_meters":29200,"station_id":"ce4bh0p2rcd13ifvqd80","pricing_plan_id":"free"},{"bike_id":"1ba58657-19e7-4918-bb3e-57e2d017ca39","system_id":"levelo_inurba_marseille","lat":43.305994,"lon":5.393687,"is_reserved":false,"is_disabled":false,"rental_uris":{"android":"levelo://app?vid=1ba58657-19e7-4918-bb3e-57e2d017ca39","ios":"levelo://app?vid=1ba58657-19e7-4918-bb3e-57e2d017ca39"},"vehicle_type_id":"4","last_reported":1677305336,"current_range_meters":31600,"station_id":"ce4bh0p2rcd13ifvqd80","pricing_plan_id":"free"},{"bike_id":"702d1993-a7e2-4290-8d90-0165bf0690c0","system_id":"levelo_inurba_marseille","lat":43.305994,"lon":5.393687,"is_reserved":false,"is_disabled":false,"rental_uris":{"android":"levelo://app?vid=702d1993-a7e2-4290-8d90-0165bf0690c0","ios":"levelo://app?vid=702d1993-a7e2-4290-8d90-0165bf0690c0"},"vehicle_type_id":"4","last_reported":1677305336,"current_range_meters":32000,"station_id":"ce4bh0p2rcd13ifvqd80","pricing_plan_id":"free"},{"bike_id":"dd9c2364-dd12-4610-a085-3caf9fedba9a","system_id":"levelo_inurba_marseille","lat":43.305994,"lon":5.393687,"is_reserved":false,"is_disabled":false,"rental_uris":{"android":"levelo://app?vid=dd9c2364-dd12-4610-a085-3caf9fedba9a","ios":"levelo://app?vid=dd9c2364-dd12-4610-a085-3caf9fedba9a"},"vehicle_type_id":"4","last_reported":1677305336,"current_range_meters":24000,"station_id":"ce4bh0p2rcd13ifvqd80","pricing_plan_id":"free"},{"bike_id":"734ff8dc-48f2-4978-b109-d331b96f1414","system_id":"levelo_inurba_marseille","lat":43.305994,"lon":5.393687,"is_reserved":false,"is_disabled":false,"rental_uris":{"android":"levelo://app?vid=734ff8dc-48f2-4978-b109-d331b96f1414","ios":"levelo://app?vid=734ff8dc-48f2-4978-b109-d331b96f1414"},"vehicle_type_id":"4","last_reported":1677305336,"current_range_meters":30800,"station_id":"ce4bh0p2rcd13ifvqd80","pricing_plan_id":"free"},{"bike_id":"ffdf5238-04bc-4f16-a9ed-f21448a287a1","system_id":"levelo_inurba_marseille","lat":43.305994,"lon":5.393687,"is_reserved":false,"is_disabled":false,"rental_uris":{"android":"levelo://app?vid=ffdf5238-04bc-4f16-a9ed-f21448a287a1","ios":"levelo://app?vid=ffdf5238-04bc-4f16-a9ed-f21448a287a1"},"vehicle_type_id":"4","last_reported":1677305336,"current_range_meters":30400,"station_id":"ce4bh0p2rcd13ifvqd80","pricing_plan_id":"free"},{"bike_id":"341d8bfc-891b-4737-82eb-c0f14d96fedd","system_id":"levelo_inurba_marseille","lat":43.305994,"lon":5.393687,"is_reserved":false,"is_disabled":false,"rental_uris":{"android":"levelo://app?vid=341d8bfc-891b-4737-82eb-c0f14d96fedd","ios":"levelo://app?vid=341d8bfc-891b-4737-82eb-c0f14d96fedd"},"vehicle_type_id":"4","last_reported":1677305336,"current_range_meters":31600,"station_id":"ce4bh0p2rcd13ifvqd80","pricing_plan_id":"free"},{"bike_id":"37277a5e-d236-44d3-8e01-27da6adb0111","system_id":"levelo_inurba_marseille","lat":43.305994,"lon":5.393687,"is_reserved":false,"is_disabled":false,"rental_uris":{"android":"levelo://app?vid=37277a5e-d236-44d3-8e01-27da6adb0111","ios":"levelo://app?vid=37277a5e-d236-44d3-8e01-27da6adb0111"},"vehicle_type_id":"4","last_reported":1677305336,"current_range_meters":23200,"station_id":"ce4bh0p2rcd13ifvqd80","pricing_plan_id":"free"},{"bike_id":"72e14059-7c08-46c5-b6be-e8ed50831621","system_id":"levelo_inurba_marseille","lat":43.305994,"lon":5.393687,"is_reserved":false,"is_disabled":false,"rental_uris":{"android":"levelo://app?vid=72e14059-7c08-46c5-b6be-e8ed50831621","ios":"levelo://app?vid=72e14059-7c08-46c5-b6be-e8ed50831621"},"vehicle_type_id":"4","last_reported":1677305336,"current_range_meters":29600,"station_id":"ce4bh0p2rcd13ifvqd80","pricing_plan_id":"free"},{"bike_id":"c0488d04-0756-4a29-9fb9-df84d3959876","system_id":"levelo_inurba_marseille","lat":43.305994,"lon":5.393687,"is_reserved":false,"is_disabled":false,"rental_uris":{"android":"levelo://app?vid=c0488d04-0756-4a29-9fb9-df84d3959876","ios":"levelo://app?vid=c0488d04-0756-4a29-9fb9-df84d3959876"},"vehicle_type_id":"4","last_reported":1677305336,"current_range_meters":29200,"station_id":"ce4bh0p2rcd13ifvqd80","pricing_plan_id":"free"},{"bike_id":"8b564f55-292f-4d5c-833e-77be3287d5ef","system_id":"levelo_inurba_marseille","lat":43.305994,"lon":5.393687,"is_reserved":false,"is_disabled":false,"rental_uris":{"android":"levelo://app?vid=8b564f55-292f-4d5c-833e-77be3287d5ef","ios":"levelo://app?vid=8b564f55-292f-4d5c-833e-77be3287d5ef"},"vehicle_type_id":"4","last_reported":1677305336,"current_range_meters":31200,"station_id":"ce4bh0p2rcd13ifvqd80","pricing_plan_id":"free"},{"bike_id":"fd54dc8e-be00-4887-a072-1a0abb4d2668","system_id":"levelo_inurba_marseille","lat":43.305994,"lon":5.393687,"is_reserved":false,"is_disabled":false,"rental_uris":{"android":"levelo://app?vid=fd54dc8e-be00-4887-a072-1a0abb4d2668","ios":"levelo://app?vid=fd54dc8e-be00-4887-a072-1a0abb4d2668"},"vehicle_type_id":"4","last_reported":1677305336,"current_range_meters":30000,"station_id":"ce4bh0p2rcd13ifvqd80","pricing_plan_id":"free"},{"bike_id":"254abae4-d5d9-44bc-aed5-1f6f26f9c6c3","system_id":"levelo_inurba_marseille","lat":43.305994,"lon":5.393687,"is_reserved":false,"is_disabled":false,"rental_uris":{"android":"levelo://app?vid=254abae4-d5d9-44bc-aed5-1f6f26f9c6c3","ios":"levelo://app?vid=254abae4-d5d9-44bc-aed5-1f6f26f9c6c3"},"vehicle_type_id":"4","last_reported":1677305336,"current_range_meters":25600,"station_id":"ce4bh0p2rcd13ifvqd80","pricing_plan_id":"free"},{"bike_id":"21650862-419a-4690-afa7-62ac3d29492b","system_id":"levelo_inurba_marseille","lat":43.305994,"lon":5.393687,"is_reserved":false,"is_disabled":false,"rental_uris":{"android":"levelo://app?vid=21650862-419a-4690-afa7-62ac3d29492b","ios":"levelo://app?vid=21650862-419a-4690-afa7-62ac3d29492b"},"vehicle_type_id":"4","last_reported":1677305336,"current_range_meters":25200,"station_id":"ce4bh0p2rcd13ifvqd80","pricing_plan_id":"free"},{"bike_id":"c161bd39-3e78-4f4b-80fb-38a7a245c7c4","system_id":"levelo_inurba_marseille","lat":43.305994,"lon":5.393687,"is_reserved":false,"is_disabled":false,"rental_uris":{"android":"levelo://app?vid=c161bd39-3e78-4f4b-80fb-38a7a245c7c4","ios":"levelo://app?vid=c161bd39-3e78-4f4b-80fb-38a7a245c7c4"},"vehicle_type_id":"4","last_reported":1677305336,"current_range_meters":31600,"station_id":"ce4bh0p2rcd13ifvqd80","pricing_plan_id":"free"},{"bike_id":"983b2851-112b-4901-93f7-403f4b475613","system_id":"levelo_inurba_marseille","lat":43.305994,"lon":5.393687,"is_reserved":false,"is_disabled":false,"rental_uris":{"android":"levelo://app?vid=983b2851-112b-4901-93f7-403f4b475613","ios":"levelo://app?vid=983b2851-112b-4901-93f7-403f4b475613"},"vehicle_type_id":"4","last_reported":1677305336,"current_range_meters":31200,"station_id":"ce4bh0p2rcd13ifvqd80","pricing_plan_id":"free"},{"bike_id":"64b79752-0e30-4430-82fc-965e2f90ced4","system_id":"levelo_inurba_marseille","lat":43.293009,"lon":5.374584,"is_reserved":false,"is_disabled":false,"rental_uris":{"android":"levelo://app?vid=64b79752-0e30-4430-82fc-965e2f90ced4","ios":"levelo://app?vid=64b79752-0e30-4430-82fc-965e2f90ced4"},"vehicle_type_id":"4","last_reported":1677305336,"current_range_meters":28800,"station_id":"ce4bgi12rcd13ifvqb70","pricing_plan_id":"free"},{"bike_id":"678cbe41-9a4d-4845-8cf2-d9fbfe0750a7","system_id":"levelo_inurba_marseille","lat":43.30085,"lon":5.390856,"is_reserved":false,"is_disabled":false,"rental_uris":{"android":"levelo://app?vid=678cbe41-9a4d-4845-8cf2-d9fbfe0750a7","ios":"levelo://app?vid=678cbe41-9a4d-4845-8cf2-d9fbfe0750a7"},"vehicle_type_id":"4","last_reported":1677305336,"current_range_meters":4000,"station_id":"ce4bh192rcd13ifvqdb0","pricing_plan_id":"free"},{"bike_id":"d786e673-b16f-44d4-a436-7dcd6ae0f5fe","system_id":"levelo_inurba_marseille","lat":43.292311,"lon":5.360731,"is_reserved":false,"is_disabled":false,"rental_uris":{"android":"levelo://app?vid=d786e673-b16f-44d4-a436-7dcd6ae0f5fe","ios":"levelo://app?vid=d786e673-b16f-44d4-a436-7dcd6ae0f5fe"},"vehicle_type_id":"4","last_reported":1677305336,"current_range_meters":32000,"station_id":"ce4bhbh2rcd13ifvqeqg","pricing_plan_id":"free"},{"bike_id":"d958bfc8-e4e2-4b90-9788-40253dbf96c3","system_id":"levelo_inurba_marseille","lat":43.292311,"lon":5.360731,"is_reserved":false,"is_disabled":false,"rental_uris":{"android":"levelo://app?vid=d958bfc8-e4e2-4b90-9788-40253dbf96c3","ios":"levelo://app?vid=d958bfc8-e4e2-4b90-9788-40253dbf96c3"},"vehicle_type_id":"4","last_reported":1677305336,"current_range_meters":24800,"station_id":"ce4bhbh2rcd13ifvqeqg","pricing_plan_id":"free"},{"bike_id":"bc423aea-2aaf-4c76-bf38-67e2e09ecc17","system_id":"levelo_inurba_marseille","lat":43.292311,"lon":5.360731,"is_reserved":false,"is_disabled":false,"rental_uris":{"android":"levelo://app?vid=bc423aea-2aaf-4c76-bf38-67e2e09ecc17","ios":"levelo://app?vid=bc423aea-2aaf-4c76-bf38-67e2e09ecc17"},"vehicle_type_id":"4","last_reported":1677305336,"current_range_meters":31600,"station_id":"ce4bhbh2rcd13ifvqeqg","pricing_plan_id":"free"},{"bike_id":"4605b388-4e89-4e13-b4c5-1ca8bf795f77","system_id":"levelo_inurba_marseille","lat":43.30085,"lon":5.390856,"is_reserved":false,"is_disabled":false,"rental_uris":{"android":"levelo://app?vid=4605b388-4e89-4e13-b4c5-1ca8bf795f77","ios":"levelo://app?vid=4605b388-4e89-4e13-b4c5-1ca8bf795f77"},"vehicle_type_id":"4","last_reported":1677305336,"current_range_meters":20800,"station_id":"ce4bh192rcd13ifvqdb0","pricing_plan_id":"free"},{"bike_id":"4f35a960-50f6-44c2-b3ff-ac1a637360fa","system_id":"levelo_inurba_marseille","lat":43.30085,"lon":5.390856,"is_reserved":false,"is_disabled":false,"rental_uris":{"android":"levelo://app?vid=4f35a960-50f6-44c2-b3ff-ac1a637360fa","ios":"levelo://app?vid=4f35a960-50f6-44c2-b3ff-ac1a637360fa"},"vehicle_type_id":"4","last_reported":1677305336,"current_range_meters":28400,"station_id":"ce4bh192rcd13ifvqdb0","pricing_plan_id":"free"},{"bike_id":"05d7b423-348a-4695-acd6-3caca49ffa6e","system_id":"levelo_inurba_marseille","lat":43.300817,"lon":5.390868,"is_reserved":false,"is_disabled":false,"rental_uris":{"android":"levelo://app?vid=05d7b423-348a-4695-acd6-3caca49ffa6e","ios":"levelo://app?vid=05d7b423-348a-4695-acd6-3caca49ffa6e"},"vehicle_type_id":"4","last_reported":1677305336,"current_range_meters":0,"station_id":"ce4bh192rcd13ifvqdb0","pricing_plan_id":"free"},{"bike_id":"d0f25281-b07d-4c7c-b681-9a00ebd60716","system_id":"levelo_inurba_marseille","lat":43.298764,"lon":5.388973,"is_reserved":false,"is_disabled":false,"rental_uris":{"android":"levelo://app?vid=d0f25281-b07d-4c7c-b681-9a00ebd60716","ios":"levelo://app?vid=d0f25281-b07d-4c7c-b681-9a00ebd60716"},"vehicle_type_id":"4","last_reported":1677305336,"current_range_meters":12400,"station_id":"ce4bh392rcd13ifvqdl0","pricing_plan_id":"free"},{"bike_id":"3a001f86-ca18-46fe-91a9-cb4a111dd456","system_id":"levelo_inurba_marseille","lat":43.291735,"lon":5.371563,"is_reserved":false,"is_disabled":false,"rental_uris":{"android":"levelo://app?vid=3a001f86-ca18-46fe-91a9-cb4a111dd456","ios":"levelo://app?vid=3a001f86-ca18-46fe-91a9-cb4a111dd456"},"vehicle_type_id":"4","last_reported":1677305336,"current_range_meters":4400,"station_id":"ce4bha92rcd13ifvqeh0","pricing_plan_id":"free"},{"bike_id":"eaff74e3-c404-4ff7-a2f5-812dbb292458","system_id":"levelo_inurba_marseille","lat":43.298764,"lon":5.388973,"is_reserved":false,"is_disabled":false,"rental_uris":{"android":"levelo://app?vid=eaff74e3-c404-4ff7-a2f5-812dbb292458","ios":"levelo://app?vid=eaff74e3-c404-4ff7-a2f5-812dbb292458"},"vehicle_type_id":"4","last_reported":1677305336,"current_range_meters":2000,"station_id":"ce4bh392rcd13ifvqdl0","pricing_plan_id":"free"},{"bike_id":"b547e3fe-46ab-4d96-8642-175ae68855f9","system_id":"levelo_inurba_marseille","lat":43.298764,"lon":5.388973,"is_reserved":false,"is_disabled":false,"rental_uris":{"android":"levelo://app?vid=b547e3fe-46ab-4d96-8642-175ae68855f9","ios":"levelo://app?vid=b547e3fe-46ab-4d96-8642-175ae68855f9"},"vehicle_type_id":"4","last_reported":1677305336,"current_range_meters":4400,"station_id":"ce4bh392rcd13ifvqdl0","pricing_plan_id":"free"},{"bike_id":"167ddeb0-724e-42b8-b394-69f941201d23","system_id":"levelo_inurba_marseille","lat":43.298764,"lon":5.388973,"is_reserved":false,"is_disabled":false,"rental_uris":{"android":"levelo://app?vid=167ddeb0-724e-42b8-b394-69f941201d23","ios":"levelo://app?vid=167ddeb0-724e-42b8-b394-69f941201d23"},"vehicle_type_id":"4","last_reported":1677305336,"current_range_meters":0,"station_id":"ce4bh392rcd13ifvqdl0","pricing_plan_id":"free"},{"bike_id":"5ca94e0e-bbbe-4e59-932d-e5d09db82f7e","system_id":"levelo_inurba_marseille","lat":43.298764,"lon":5.388973,"is_reserved":false,"is_disabled":false,"rental_uris":{"android":"levelo://app?vid=5ca94e0e-bbbe-4e59-932d-e5d09db82f7e","ios":"levelo://app?vid=5ca94e0e-bbbe-4e59-932d-e5d09db82f7e"},"vehicle_type_id":"4","last_reported":1677305336,"current_range_meters":22800,"station_id":"ce4bh392rcd13ifvqdl0","pricing_plan_id":"free"},{"bike_id":"c61650b0-0098-4144-89bf-5578f9f73a82","system_id":"levelo_inurba_marseille","lat":43.298764,"lon":5.388973,"is_reserved":false,"is_disabled":false,"rental_uris":{"android":"levelo://app?vid=c61650b0-0098-4144-89bf-5578f9f73a82","ios":"levelo://app?vid=c61650b0-0098-4144-89bf-5578f9f73a82"},"vehicle_type_id":"4","last_reported":1677305336,"current_range_meters":15600,"station_id":"ce4bh392rcd13ifvqdl0","pricing_plan_id":"free"},{"bike_id":"1b2d561e-6f48-4f20-ba40-f252e7d6af52","system_id":"levelo_inurba_marseille","lat":43.298764,"lon":5.388973,"is_reserved":false,"is_disabled":false,"rental_uris":{"android":"levelo://app?vid=1b2d561e-6f48-4f20-ba40-f252e7d6af52","ios":"levelo://app?vid=1b2d561e-6f48-4f20-ba40-f252e7d6af52"},"vehicle_type_id":"4","last_reported":1677305336,"current_range_meters":13200,"station_id":"ce4bh392rcd13ifvqdl0","pricing_plan_id":"free"},{"bike_id":"c1ab9791-e68c-4fa5-a426-8664daee5d20","system_id":"levelo_inurba_marseille","lat":43.313301,"lon":5.396894,"is_reserved":false,"is_disabled":false,"rental_uris":{"android":"levelo://app?vid=c1ab9791-e68c-4fa5-a426-8664daee5d20","ios":"levelo://app?vid=c1ab9791-e68c-4fa5-a426-8664daee5d20"},"vehicle_type_id":"4","last_reported":1677305336,"current_range_meters":31600,"station_id":"ce4bgvp2rcd13ifvqcu0","pricing_plan_id":"free"},{"bike_id":"aee20fd6-10e3-48be-aa9b-e4446fb17b71","system_id":"levelo_inurba_marseille","lat":43.313291,"lon":5.396838,"is_reserved":false,"is_disabled":false,"rental_uris":{"android":"levelo://app?vid=aee20fd6-10e3-48be-aa9b-e4446fb17b71","ios":"levelo://app?vid=aee20fd6-10e3-48be-aa9b-e4446fb17b71"},"vehicle_type_id":"4","last_reported":1677305336,"current_range_meters":18400,"station_id":"ce4bgvp2rcd13ifvqcu0","pricing_plan_id":"free"},{"bike_id":"bf1c6d00-f11f-4d41-8df2-ff209d6646c6","system_id":"levelo_inurba_marseille","lat":43.313291,"lon":5.396838,"is_reserved":false,"is_disabled":false,"rental_uris":{"android":"levelo://app?vid=bf1c6d00-f11f-4d41-8df2-ff209d6646c6","ios":"levelo://app?vid=bf1c6d00-f11f-4d41-8df2-ff209d6646c6"},"vehicle_type_id":"4","last_reported":1677305336,"current_range_meters":8000,"station_id":"ce4bgvp2rcd13ifvqcu0","pricing_plan_id":"free"},{"bike_id":"2faab796-ac09-4ff5-a904-619f778a7a48","system_id":"levelo_inurba_marseille","lat":43.313291,"lon":5.396838,"is_reserved":false,"is_disabled":false,"rental_uris":{"android":"levelo://app?vid=2faab796-ac09-4ff5-a904-619f778a7a48","ios":"levelo://app?vid=2faab796-ac09-4ff5-a904-619f778a7a48"},"vehicle_type_id":"4","last_reported":1677305336,"current_range_meters":14400,"station_id":"ce4bgvp2rcd13ifvqcu0","pricing_plan_id":"free"},{"bike_id":"cff69b0f-ca0a-42e6-a717-e697b29cd9ff","system_id":"levelo_inurba_marseille","lat":43.313291,"lon":5.396838,"is_reserved":false,"is_disabled":false,"rental_uris":{"android":"levelo://app?vid=cff69b0f-ca0a-42e6-a717-e697b29cd9ff","ios":"levelo://app?vid=cff69b0f-ca0a-42e6-a717-e697b29cd9ff"},"vehicle_type_id":"4","last_reported":1677305336,"current_range_meters":21200,"station_id":"ce4bgvp2rcd13ifvqcu0","pricing_plan_id":"free"},{"bike_id":"a7daff6e-84bf-4ce7-b53d-bd3a9eb5585f","system_id":"levelo_inurba_marseille","lat":43.313291,"lon":5.396838,"is_reserved":false,"is_disabled":false,"rental_uris":{"android":"levelo://app?vid=a7daff6e-84bf-4ce7-b53d-bd3a9eb5585f","ios":"levelo://app?vid=a7daff6e-84bf-4ce7-b53d-bd3a9eb5585f"},"vehicle_type_id":"4","last_reported":1677305336,"current_range_meters":29600,"station_id":"ce4bgvp2rcd13ifvqcu0","pricing_plan_id":"free"},{"bike_id":"fbf84496-f1fd-417b-a19f-70659c35ab3e","system_id":"levelo_inurba_marseille","lat":43.313291,"lon":5.396838,"is_reserved":false,"is_disabled":false,"rental_uris":{"android":"levelo://app?vid=fbf84496-f1fd-417b-a19f-70659c35ab3e","ios":"levelo://app?vid=fbf84496-f1fd-417b-a19f-70659c35ab3e"},"vehicle_type_id":"4","last_reported":1677305336,"current_range_meters":7200,"station_id":"ce4bgvp2rcd13ifvqcu0","pricing_plan_id":"free"},{"bike_id":"44751989-3316-45a0-9f52-bb32af0553f6","system_id":"levelo_inurba_marseille","lat":43.313291,"lon":5.396838,"is_reserved":false,"is_disabled":false,"rental_uris":{"android":"levelo://app?vid=44751989-3316-45a0-9f52-bb32af0553f6","ios":"levelo://app?vid=44751989-3316-45a0-9f52-bb32af0553f6"},"vehicle_type_id":"4","last_reported":1677305336,"current_range_meters":16400,"station_id":"ce4bgvp2rcd13ifvqcu0","pricing_plan_id":"free"},{"bike_id":"e8a58590-bf81-460f-9087-81b622bc226e","system_id":"levelo_inurba_marseille","lat":43.313291,"lon":5.396838,"is_reserved":false,"is_disabled":false,"rental_uris":{"android":"levelo://app?vid=e8a58590-bf81-460f-9087-81b622bc226e","ios":"levelo://app?vid=e8a58590-bf81-460f-9087-81b622bc226e"},"vehicle_type_id":"4","last_reported":1677305336,"current_range_meters":10400,"station_id":"ce4bgvp2rcd13ifvqcu0","pricing_plan_id":"free"},{"bike_id":"edd7a601-86e8-4b51-91b6-eb04b0ad41e3","system_id":"levelo_inurba_marseille","lat":43.313278,"lon":5.396978,"is_reserved":false,"is_disabled":false,"rental_uris":{"android":"levelo://app?vid=edd7a601-86e8-4b51-91b6-eb04b0ad41e3","ios":"levelo://app?vid=edd7a601-86e8-4b51-91b6-eb04b0ad41e3"},"vehicle_type_id":"4","last_reported":1677305336,"current_range_meters":27200,"station_id":"ce4bgvp2rcd13ifvqcu0","pricing_plan_id":"free"},{"bike_id":"b017850c-84d0-4a66-9256-5c369f74ef34","system_id":"levelo_inurba_marseille","lat":43.313291,"lon":5.396838,"is_reserved":false,"is_disabled":false,"rental_uris":{"android":"levelo://app?vid=b017850c-84d0-4a66-9256-5c369f74ef34","ios":"levelo://app?vid=b017850c-84d0-4a66-9256-5c369f74ef34"},"vehicle_type_id":"4","last_reported":1677305336,"current_range_meters":15200,"station_id":"ce4bgvp2rcd13ifvqcu0","pricing_plan_id":"free"},{"bike_id":"d4ac0386-3b39-4ad6-ba21-aae40afc5540","system_id":"levelo_inurba_marseille","lat":43.313291,"lon":5.396838,"is_reserved":false,"is_disabled":false,"rental_uris":{"android":"levelo://app?vid=d4ac0386-3b39-4ad6-ba21-aae40afc5540","ios":"levelo://app?vid=d4ac0386-3b39-4ad6-ba21-aae40afc5540"},"vehicle_type_id":"4","last_reported":1677305336,"current_range_meters":30400,"station_id":"ce4bgvp2rcd13ifvqcu0","pricing_plan_id":"free"},{"bike_id":"cdc69c5d-cc94-4a95-9507-4cc5f3e6f9a9","system_id":"levelo_inurba_marseille","lat":43.29529,"lon":5.385581,"is_reserved":false,"is_disabled":false,"rental_uris":{"android":"levelo://app?vid=cdc69c5d-cc94-4a95-9507-4cc5f3e6f9a9","ios":"levelo://app?vid=cdc69c5d-cc94-4a95-9507-4cc5f3e6f9a9"},"vehicle_type_id":"4","last_reported":1677305336,"current_range_meters":27600,"station_id":"ce4bgih2rcd13ifvqba0","pricing_plan_id":"free"},{"bike_id":"a434e6de-ae9a-4335-ae9b-ed453123dc9a","system_id":"levelo_inurba_marseille","lat":43.29529,"lon":5.385581,"is_reserved":false,"is_disabled":false,"rental_uris":{"android":"levelo://app?vid=a434e6de-ae9a-4335-ae9b-ed453123dc9a","ios":"levelo://app?vid=a434e6de-ae9a-4335-ae9b-ed453123dc9a"},"vehicle_type_id":"4","last_reported":1677305336,"current_range_meters":27200,"station_id":"ce4bgih2rcd13ifvqba0","pricing_plan_id":"free"},{"bike_id":"dfff69ce-d343-4e8e-9498-629f114efdd5","system_id":"levelo_inurba_marseille","lat":43.29529,"lon":5.385581,"is_reserved":false,"is_disabled":false,"rental_uris":{"android":"levelo://app?vid=dfff69ce-d343-4e8e-9498-629f114efdd5","ios":"levelo://app?vid=dfff69ce-d343-4e8e-9498-629f114efdd5"},"vehicle_type_id":"4","last_reported":1677305336,"current_range_meters":21600,"station_id":"ce4bgih2rcd13ifvqba0","pricing_plan_id":"free"},{"bike_id":"2c0fd198-8725-4f50-a019-3e720f3afc0f","system_id":"levelo_inurba_marseille","lat":43.290676,"lon":5.371681,"is_reserved":false,"is_disabled":false,"rental_uris":{"android":"levelo://app?vid=2c0fd198-8725-4f50-a019-3e720f3afc0f","ios":"levelo://app?vid=2c0fd198-8725-4f50-a019-3e720f3afc0f"},"vehicle_type_id":"4","last_reported":1677305336,"current_range_meters":29600,"station_id":"ce4bh5p2rcd13ifvqe4g","pricing_plan_id":"free"},{"bike_id":"ae8864f7-b47e-4641-9360-c8399791a728","system_id":"levelo_inurba_marseille","lat":43.290617,"lon":5.371645,"is_reserved":false,"is_disabled":false,"rental_uris":{"android":"levelo://app?vid=ae8864f7-b47e-4641-9360-c8399791a728","ios":"levelo://app?vid=ae8864f7-b47e-4641-9360-c8399791a728"},"vehicle_type_id":"4","last_reported":1677305336,"current_range_meters":8800,"station_id":"ce4bh5p2rcd13ifvqe4g","pricing_plan_id":"free"},{"bike_id":"06628d2d-f1e6-4c08-8225-982c0c64545d","system_id":"levelo_inurba_marseille","lat":43.2906,"lon":5.371637,"is_reserved":false,"is_disabled":false,"rental_uris":{"android":"levelo://app?vid=06628d2d-f1e6-4c08-8225-982c0c64545d","ios":"levelo://app?vid=06628d2d-f1e6-4c08-8225-982c0c64545d"},"vehicle_type_id":"4","last_reported":1677305336,"current_range_meters":2400,"station_id":"ce4bh5p2rcd13ifvqe4g","pricing_plan_id":"free"},{"bike_id":"6b221c77-db60-402f-aff6-d7a5624b344f","system_id":"levelo_inurba_marseille","lat":43.290567,"lon":5.371497,"is_reserved":false,"is_disabled":false,"rental_uris":{"android":"levelo://app?vid=6b221c77-db60-402f-aff6-d7a5624b344f","ios":"levelo://app?vid=6b221c77-db60-402f-aff6-d7a5624b344f"},"vehicle_type_id":"4","last_reported":1677305336,"current_range_meters":14800,"station_id":"ce4bh5p2rcd13ifvqe4g","pricing_plan_id":"free"},{"bike_id":"6f9c6d53-d051-41ea-89ac-d0791c9ba7f0","system_id":"levelo_inurba_marseille","lat":43.302163,"lon":5.394692,"is_reserved":false,"is_disabled":false,"rental_uris":{"android":"levelo://app?vid=6f9c6d53-d051-41ea-89ac-d0791c9ba7f0","ios":"levelo://app?vid=6f9c6d53-d051-41ea-89ac-d0791c9ba7f0"},"vehicle_type_id":"4","last_reported":1677305336,"current_range_meters":26400,"station_id":"","pricing_plan_id":"free"},{"bike_id":"1970e662-8c0b-4698-bb42-3210e26b4bfa","system_id":"levelo_inurba_marseille","lat":43.302008,"lon":5.394694,"is_reserved":false,"is_disabled":false,"rental_uris":{"android":"levelo://app?vid=1970e662-8c0b-4698-bb42-3210e26b4bfa","ios":"levelo://app?vid=1970e662-8c0b-4698-bb42-3210e26b4bfa"},"vehicle_type_id":"4","last_reported":1677305336,"current_range_meters":31600,"station_id":"ce4bh0p2rcd13ifvqd70","pricing_plan_id":"free"},{"bike_id":"2c4165af-566f-48e9-9e50-45cd8c426e72","system_id":"levelo_inurba_marseille","lat":43.302008,"lon":5.394694,"is_reserved":false,"is_disabled":false,"rental_uris":{"android":"levelo://app?vid=2c4165af-566f-48e9-9e50-45cd8c426e72","ios":"levelo://app?vid=2c4165af-566f-48e9-9e50-45cd8c426e72"},"vehicle_type_id":"4","last_reported":1677305336,"current_range_meters":29600,"station_id":"ce4bh0p2rcd13ifvqd70","pricing_plan_id":"free"},{"bike_id":"78844f54-8f40-47b5-981f-dbe6b7198503","system_id":"levelo_inurba_marseille","lat":43.302108,"lon":5.394702,"is_reserved":false,"is_disabled":false,"rental_uris":{"android":"levelo://app?vid=78844f54-8f40-47b5-981f-dbe6b7198503","ios":"levelo://app?vid=78844f54-8f40-47b5-981f-dbe6b7198503"},"vehicle_type_id":"4","last_reported":1677305336,"current_range_meters":1600,"station_id":"ce4bh0p2rcd13ifvqd70","pricing_plan_id":"free"},{"bike_id":"6ab1cdd7-ade2-46f1-9bcc-30f95db2fda3","system_id":"levelo_inurba_marseille","lat":43.302008,"lon":5.394694,"is_reserved":false,"is_disabled":false,"rental_uris":{"android":"levelo://app?vid=6ab1cdd7-ade2-46f1-9bcc-30f95db2fda3","ios":"levelo://app?vid=6ab1cdd7-ade2-46f1-9bcc-30f95db2fda3"},"vehicle_type_id":"4","last_reported":1677305336,"current_range_meters":27200,"station_id":"ce4bh0p2rcd13ifvqd70","pricing_plan_id":"free"},{"bike_id":"25ae5a89-69cf-4fc0-8a1e-af90743f0d30","system_id":"levelo_inurba_marseille","lat":43.302008,"lon":5.394694,"is_reserved":false,"is_disabled":false,"rental_uris":{"android":"levelo://app?vid=25ae5a89-69cf-4fc0-8a1e-af90743f0d30","ios":"levelo://app?vid=25ae5a89-69cf-4fc0-8a1e-af90743f0d30"},"vehicle_type_id":"4","last_reported":1677305336,"current_range_meters":30000,"station_id":"ce4bh0p2rcd13ifvqd70","pricing_plan_id":"free"},{"bike_id":"a191d150-75d1-4e19-b8bb-e9876a2a2a67","system_id":"levelo_inurba_marseille","lat":43.30209,"lon":5.394768,"is_reserved":false,"is_disabled":false,"rental_uris":{"android":"levelo://app?vid=a191d150-75d1-4e19-b8bb-e9876a2a2a67","ios":"levelo://app?vid=a191d150-75d1-4e19-b8bb-e9876a2a2a67"},"vehicle_type_id":"4","last_reported":1677305336,"current_range_meters":28800,"station_id":"ce4bh0p2rcd13ifvqd70","pricing_plan_id":"free"},{"bike_id":"8ecde8ef-f35d-48f0-b562-af27e1646bc3","system_id":"levelo_inurba_marseille","lat":43.290417,"lon":5.359037,"is_reserved":false,"is_disabled":false,"rental_uris":{"android":"levelo://app?vid=8ecde8ef-f35d-48f0-b562-af27e1646bc3","ios":"levelo://app?vid=8ecde8ef-f35d-48f0-b562-af27e1646bc3"},"vehicle_type_id":"4","last_reported":1677305336,"current_range_meters":18400,"station_id":"","pricing_plan_id":"free"},{"bike_id":"924e9692-46fa-4a6a-9b58-02906714fc71","system_id":"levelo_inurba_marseille","lat":43.290327,"lon":5.375711,"is_reserved":false,"is_disabled":false,"rental_uris":{"android":"levelo://app?vid=924e9692-46fa-4a6a-9b58-02906714fc71","ios":"levelo://app?vid=924e9692-46fa-4a6a-9b58-02906714fc71"},"vehicle_type_id":"4","last_reported":1677305336,"current_range_meters":5600,"station_id":"ce4bh692rcd13ifvqe90","pricing_plan_id":"free"},{"bike_id":"2d58a4ea-b206-452f-a51a-16eaa9962154","system_id":"levelo_inurba_marseille","lat":43.290327,"lon":5.375711,"is_reserved":false,"is_disabled":false,"rental_uris":{"android":"levelo://app?vid=2d58a4ea-b206-452f-a51a-16eaa9962154","ios":"levelo://app?vid=2d58a4ea-b206-452f-a51a-16eaa9962154"},"vehicle_type_id":"4","last_reported":1677305336,"current_range_meters":16800,"station_id":"ce4bh692rcd13ifvqe90","pricing_plan_id":"free"},{"bike_id":"9b3db5a1-efdf-4518-a6c2-92363b4341f4","system_id":"levelo_inurba_marseille","lat":43.290258,"lon":5.375501,"is_reserved":false,"is_disabled":false,"rental_uris":{"android":"levelo://app?vid=9b3db5a1-efdf-4518-a6c2-92363b4341f4","ios":"levelo://app?vid=9b3db5a1-efdf-4518-a6c2-92363b4341f4"},"vehicle_type_id":"4","last_reported":1677305336,"current_range_meters":27600,"station_id":"ce4bh692rcd13ifvqe90","pricing_plan_id":"free"},{"bike_id":"0e99893a-1557-4a16-88a4-b7f183558206","system_id":"levelo_inurba_marseille","lat":43.289184,"lon":5.366408,"is_reserved":false,"is_disabled":false,"rental_uris":{"android":"levelo://app?vid=0e99893a-1557-4a16-88a4-b7f183558206","ios":"levelo://app?vid=0e99893a-1557-4a16-88a4-b7f183558206"},"vehicle_type_id":"4","last_reported":1677305336,"current_range_meters":30400,"station_id":"ce4bhap2rcd13ifvqek0","pricing_plan_id":"free"},{"bike_id":"2d5de172-d7e5-476f-9cec-3d1626e02cfe","system_id":"levelo_inurba_marseille","lat":43.289184,"lon":5.366408,"is_reserved":false,"is_disabled":false,"rental_uris":{"android":"levelo://app?vid=2d5de172-d7e5-476f-9cec-3d1626e02cfe","ios":"levelo://app?vid=2d5de172-d7e5-476f-9cec-3d1626e02cfe"},"vehicle_type_id":"4","last_reported":1677305336,"current_range_meters":29200,"station_id":"ce4bhap2rcd13ifvqek0","pricing_plan_id":"free"},{"bike_id":"159143d5-1361-4b82-bbef-c13af9f70aa0","system_id":"levelo_inurba_marseille","lat":43.289468,"lon":5.363719,"is_reserved":false,"is_disabled":false,"rental_uris":{"android":"levelo://app?vid=159143d5-1361-4b82-bbef-c13af9f70aa0","ios":"levelo://app?vid=159143d5-1361-4b82-bbef-c13af9f70aa0"},"vehicle_type_id":"4","last_reported":1677305336,"current_range_meters":28400,"station_id":"ce4bhc92rcd13ifvqetg","pricing_plan_id":"free"},{"bike_id":"ea611cdc-3cc2-42bd-9c89-71b41ee3aaa6","system_id":"levelo_inurba_marseille","lat":43.289184,"lon":5.366408,"is_reserved":false,"is_disabled":false,"rental_uris":{"android":"levelo://app?vid=ea611cdc-3cc2-42bd-9c89-71b41ee3aaa6","ios":"levelo://app?vid=ea611cdc-3cc2-42bd-9c89-71b41ee3aaa6"},"vehicle_type_id":"4","last_reported":1677305336,"current_range_meters":25200,"station_id":"ce4bhap2rcd13ifvqek0","pricing_plan_id":"free"},{"bike_id":"44198126-6f50-436e-9f01-90c65908575e","system_id":"levelo_inurba_marseille","lat":43.289184,"lon":5.366408,"is_reserved":false,"is_disabled":false,"rental_uris":{"android":"levelo://app?vid=44198126-6f50-436e-9f01-90c65908575e","ios":"levelo://app?vid=44198126-6f50-436e-9f01-90c65908575e"},"vehicle_type_id":"4","last_reported":1677305336,"current_range_meters":31600,"station_id":"ce4bhap2rcd13ifvqek0","pricing_plan_id":"free"},{"bike_id":"bcd594c4-039b-4cd1-ab8b-18691b2f37af","system_id":"levelo_inurba_marseille","lat":43.289468,"lon":5.363719,"is_reserved":false,"is_disabled":false,"rental_uris":{"android":"levelo://app?vid=bcd594c4-039b-4cd1-ab8b-18691b2f37af","ios":"levelo://app?vid=bcd594c4-039b-4cd1-ab8b-18691b2f37af"},"vehicle_type_id":"4","last_reported":1677305336,"current_range_meters":24800,"station_id":"ce4bhc92rcd13ifvqetg","pricing_plan_id":"free"},{"bike_id":"2c55614f-29a6-44da-9868-9da6ea3cd44a","system_id":"levelo_inurba_marseille","lat":43.289468,"lon":5.363719,"is_reserved":false,"is_disabled":false,"rental_uris":{"android":"levelo://app?vid=2c55614f-29a6-44da-9868-9da6ea3cd44a","ios":"levelo://app?vid=2c55614f-29a6-44da-9868-9da6ea3cd44a"},"vehicle_type_id":"4","last_reported":1677305336,"current_range_meters":31600,"station_id":"ce4bhc92rcd13ifvqetg","pricing_plan_id":"free"},{"bike_id":"2cbb58c7-0512-47a5-b38e-0a712f47916b","system_id":"levelo_inurba_marseille","lat":43.292644,"lon":5.384257,"is_reserved":false,"is_disabled":false,"rental_uris":{"android":"levelo://app?vid=2cbb58c7-0512-47a5-b38e-0a712f47916b","ios":"levelo://app?vid=2cbb58c7-0512-47a5-b38e-0a712f47916b"},"vehicle_type_id":"4","last_reported":1677305336,"current_range_meters":3600,"station_id":"ce4bh692rcd13ifvqea0","pricing_plan_id":"free"},{"bike_id":"32c780a1-296d-4d17-92e9-7c7d7460932b","system_id":"levelo_inurba_marseille","lat":43.292644,"lon":5.384257,"is_reserved":false,"is_disabled":false,"rental_uris":{"android":"levelo://app?vid=32c780a1-296d-4d17-92e9-7c7d7460932b","ios":"levelo://app?vid=32c780a1-296d-4d17-92e9-7c7d7460932b"},"vehicle_type_id":"4","last_reported":1677305336,"current_range_meters":17600,"station_id":"ce4bh692rcd13ifvqea0","pricing_plan_id":"free"},{"bike_id":"0ef51260-2b31-41b1-b034-5f8a3c070ba3","system_id":"levelo_inurba_marseille","lat":43.292527,"lon":5.38442,"is_reserved":false,"is_disabled":false,"rental_uris":{"android":"levelo://app?vid=0ef51260-2b31-41b1-b034-5f8a3c070ba3","ios":"levelo://app?vid=0ef51260-2b31-41b1-b034-5f8a3c070ba3"},"vehicle_type_id":"4","last_reported":1677305336,"current_range_meters":12000,"station_id":"ce4bh692rcd13ifvqea0","pricing_plan_id":"free"},{"bike_id":"33894fc4-484b-4ce1-8630-b60395b7b40e","system_id":"levelo_inurba_marseille","lat":43.330424,"lon":5.389114,"is_reserved":false,"is_disabled":false,"rental_uris":{"android":"levelo://app?vid=33894fc4-484b-4ce1-8630-b60395b7b40e","ios":"levelo://app?vid=33894fc4-484b-4ce1-8630-b60395b7b40e"},"vehicle_type_id":"4","last_reported":1677305336,"current_range_meters":30400,"station_id":"ce4bhr92rcd13ifvqhrg","pricing_plan_id":"free"},{"bike_id":"1d865dd6-ff67-4c9d-99dc-5d97286d7632","system_id":"levelo_inurba_marseille","lat":43.330442,"lon":5.389148,"is_reserved":false,"is_disabled":false,"rental_uris":{"android":"levelo://app?vid=1d865dd6-ff67-4c9d-99dc-5d97286d7632","ios":"levelo://app?vid=1d865dd6-ff67-4c9d-99dc-5d97286d7632"},"vehicle_type_id":"4","last_reported":1677305336,"current_range_meters":30000,"station_id":"ce4bhr92rcd13ifvqhrg","pricing_plan_id":"free"},{"bike_id":"3cc0ecaa-4510-4cb3-93a2-ce6a0b915e18","system_id":"levelo_inurba_marseille","lat":43.330477,"lon":5.389046,"is_reserved":false,"is_disabled":false,"rental_uris":{"android":"levelo://app?vid=3cc0ecaa-4510-4cb3-93a2-ce6a0b915e18","ios":"levelo://app?vid=3cc0ecaa-4510-4cb3-93a2-ce6a0b915e18"},"vehicle_type_id":"4","last_reported":1677305336,"current_range_meters":0,"station_id":"ce4bhr92rcd13ifvqhrg","pricing_plan_id":"free"},{"bike_id":"8b4b181e-3f3c-4a30-b8c6-550c6bbc5799","system_id":"levelo_inurba_marseille","lat":43.33041,"lon":5.389158,"is_reserved":false,"is_disabled":false,"rental_uris":{"android":"levelo://app?vid=8b4b181e-3f3c-4a30-b8c6-550c6bbc5799","ios":"levelo://app?vid=8b4b181e-3f3c-4a30-b8c6-550c6bbc5799"},"vehicle_type_id":"4","last_reported":1677305336,"current_range_meters":20400,"station_id":"ce4bhr92rcd13ifvqhrg","pricing_plan_id":"free"},{"bike_id":"f37e9325-a86c-476d-9067-204981bd8171","system_id":"levelo_inurba_marseille","lat":43.330442,"lon":5.389148,"is_reserved":false,"is_disabled":false,"rental_uris":{"android":"levelo://app?vid=f37e9325-a86c-476d-9067-204981bd8171","ios":"levelo://app?vid=f37e9325-a86c-476d-9067-204981bd8171"},"vehicle_type_id":"4","last_reported":1677305336,"current_range_meters":0,"station_id":"ce4bhr92rcd13ifvqhrg","pricing_plan_id":"free"},{"bike_id":"6eff16cf-b95f-4647-917b-82ba5d44eb74","system_id":"levelo_inurba_marseille","lat":43.330415,"lon":5.389152,"is_reserved":false,"is_disabled":false,"rental_uris":{"android":"levelo://app?vid=6eff16cf-b95f-4647-917b-82ba5d44eb74","ios":"levelo://app?vid=6eff16cf-b95f-4647-917b-82ba5d44eb74"},"vehicle_type_id":"4","last_reported":1677305336,"current_range_meters":27600,"station_id":"ce4bhr92rcd13ifvqhrg","pricing_plan_id":"free"},{"bike_id":"a455dfbb-3a83-4806-b1f0-9c79a09f584f","system_id":"levelo_inurba_marseille","lat":43.33045,"lon":5.3891,"is_reserved":false,"is_disabled":false,"rental_uris":{"android":"levelo://app?vid=a455dfbb-3a83-4806-b1f0-9c79a09f584f","ios":"levelo://app?vid=a455dfbb-3a83-4806-b1f0-9c79a09f584f"},"vehicle_type_id":"4","last_reported":1677305336,"current_range_meters":18400,"station_id":"ce4bhr92rcd13ifvqhrg","pricing_plan_id":"free"},{"bike_id":"6f9e0ab1-3dad-4dea-9dc6-09c1ce3dfea5","system_id":"levelo_inurba_marseille","lat":43.3304,"lon":5.38919,"is_reserved":false,"is_disabled":false,"rental_uris":{"android":"levelo://app?vid=6f9e0ab1-3dad-4dea-9dc6-09c1ce3dfea5","ios":"levelo://app?vid=6f9e0ab1-3dad-4dea-9dc6-09c1ce3dfea5"},"vehicle_type_id":"4","last_reported":1677305336,"current_range_meters":20000,"station_id":"ce4bhr92rcd13ifvqhrg","pricing_plan_id":"free"},{"bike_id":"ba3207f1-7ca1-46d0-9a89-7f49dc9ab9d5","system_id":"levelo_inurba_marseille","lat":43.33044,"lon":5.38913,"is_reserved":false,"is_disabled":false,"rental_uris":{"android":"levelo://app?vid=ba3207f1-7ca1-46d0-9a89-7f49dc9ab9d5","ios":"levelo://app?vid=ba3207f1-7ca1-46d0-9a89-7f49dc9ab9d5"},"vehicle_type_id":"4","last_reported":1677305336,"current_range_meters":4800,"station_id":"ce4bhr92rcd13ifvqhrg","pricing_plan_id":"free"},{"bike_id":"cd4ab323-941a-42f8-94df-0060219d8c85","system_id":"levelo_inurba_marseille","lat":43.33044,"lon":5.38913,"is_reserved":false,"is_disabled":false,"rental_uris":{"android":"levelo://app?vid=cd4ab323-941a-42f8-94df-0060219d8c85","ios":"levelo://app?vid=cd4ab323-941a-42f8-94df-0060219d8c85"},"vehicle_type_id":"4","last_reported":1677305336,"current_range_meters":22000,"station_id":"ce4bhr92rcd13ifvqhrg","pricing_plan_id":"free"},{"bike_id":"557edf0b-2947-4d92-bcf1-766d6f566daa","system_id":"levelo_inurba_marseille","lat":43.33048,"lon":5.38907,"is_reserved":false,"is_disabled":false,"rental_uris":{"android":"levelo://app?vid=557edf0b-2947-4d92-bcf1-766d6f566daa","ios":"levelo://app?vid=557edf0b-2947-4d92-bcf1-766d6f566daa"},"vehicle_type_id":"4","last_reported":1677305336,"current_range_meters":24400,"station_id":"ce4bhr92rcd13ifvqhrg","pricing_plan_id":"free"},{"bike_id":"8461d0f6-110a-4de9-b117-fd3aa336038d","system_id":"levelo_inurba_marseille","lat":43.330424,"lon":5.389156,"is_reserved":false,"is_disabled":false,"rental_uris":{"android":"levelo://app?vid=8461d0f6-110a-4de9-b117-fd3aa336038d","ios":"levelo://app?vid=8461d0f6-110a-4de9-b117-fd3aa336038d"},"vehicle_type_id":"4","last_reported":1677305336,"current_range_meters":30400,"station_id":"ce4bhr92rcd13ifvqhrg","pricing_plan_id":"free"},{"bike_id":"dfcccb34-18e0-4e08-a30e-52c00f3e6d23","system_id":"levelo_inurba_marseille","lat":43.33043,"lon":5.38915,"is_reserved":false,"is_disabled":false,"rental_uris":{"android":"levelo://app?vid=dfcccb34-18e0-4e08-a30e-52c00f3e6d23","ios":"levelo://app?vid=dfcccb34-18e0-4e08-a30e-52c00f3e6d23"},"vehicle_type_id":"4","last_reported":1677305336,"current_range_meters":6000,"station_id":"ce4bhr92rcd13ifvqhrg","pricing_plan_id":"free"},{"bike_id":"807430e4-86c3-4710-845d-9fa47808b535","system_id":"levelo_inurba_marseille","lat":43.330442,"lon":5.389148,"is_reserved":false,"is_disabled":false,"rental_uris":{"android":"levelo://app?vid=807430e4-86c3-4710-845d-9fa47808b535","ios":"levelo://app?vid=807430e4-86c3-4710-845d-9fa47808b535"},"vehicle_type_id":"4","last_reported":1677305336,"current_range_meters":26000,"station_id":"ce4bhr92rcd13ifvqhrg","pricing_plan_id":"free"},{"bike_id":"1e336d3b-38ae-4ea7-8acb-f8efb69893fc","system_id":"levelo_inurba_marseille","lat":43.33044,"lon":5.38915,"is_reserved":false,"is_disabled":false,"rental_uris":{"android":"levelo://app?vid=1e336d3b-38ae-4ea7-8acb-f8efb69893fc","ios":"levelo://app?vid=1e336d3b-38ae-4ea7-8acb-f8efb69893fc"},"vehicle_type_id":"4","last_reported":1677305336,"current_range_meters":30000,"station_id":"ce4bhr92rcd13ifvqhrg","pricing_plan_id":"free"},{"bike_id":"3e01749b-ed95-4c0f-8db4-6a24f0952b0d","system_id":"levelo_inurba_marseille","lat":43.33048,"lon":5.38909,"is_reserved":false,"is_disabled":false,"rental_uris":{"android":"levelo://app?vid=3e01749b-ed95-4c0f-8db4-6a24f0952b0d","ios":"levelo://app?vid=3e01749b-ed95-4c0f-8db4-6a24f0952b0d"},"vehicle_type_id":"4","last_reported":1677305336,"current_range_meters":29200,"station_id":"ce4bhr92rcd13ifvqhrg","pricing_plan_id":"free"},{"bike_id":"395d9b35-52f5-411a-944d-07ae513be6d0","system_id":"levelo_inurba_marseille","lat":43.330442,"lon":5.389148,"is_reserved":false,"is_disabled":false,"rental_uris":{"android":"levelo://app?vid=395d9b35-52f5-411a-944d-07ae513be6d0","ios":"levelo://app?vid=395d9b35-52f5-411a-944d-07ae513be6d0"},"vehicle_type_id":"4","last_reported":1677305336,"current_range_meters":23200,"station_id":"ce4bhr92rcd13ifvqhrg","pricing_plan_id":"free"},{"bike_id":"4a05fafd-097c-491d-b0ce-4e444805fac9","system_id":"levelo_inurba_marseille","lat":43.330442,"lon":5.389148,"is_reserved":false,"is_disabled":false,"rental_uris":{"android":"levelo://app?vid=4a05fafd-097c-491d-b0ce-4e444805fac9","ios":"levelo://app?vid=4a05fafd-097c-491d-b0ce-4e444805fac9"},"vehicle_type_id":"4","last_reported":1677305336,"current_range_meters":26000,"station_id":"ce4bhr92rcd13ifvqhrg","pricing_plan_id":"free"},{"bike_id":"b7d88d08-d2c7-4e63-8d2d-55df18c83e7f","system_id":"levelo_inurba_marseille","lat":43.330442,"lon":5.389148,"is_reserved":false,"is_disabled":false,"rental_uris":{"android":"levelo://app?vid=b7d88d08-d2c7-4e63-8d2d-55df18c83e7f","ios":"levelo://app?vid=b7d88d08-d2c7-4e63-8d2d-55df18c83e7f"},"vehicle_type_id":"4","last_reported":1677305336,"current_range_meters":1600,"station_id":"ce4bhr92rcd13ifvqhrg","pricing_plan_id":"free"},{"bike_id":"32dd0ea3-ccb7-4190-bcff-ac3eb04fd5f2","system_id":"levelo_inurba_marseille","lat":43.330442,"lon":5.389148,"is_reserved":false,"is_disabled":false,"rental_uris":{"android":"levelo://app?vid=32dd0ea3-ccb7-4190-bcff-ac3eb04fd5f2","ios":"levelo://app?vid=32dd0ea3-ccb7-4190-bcff-ac3eb04fd5f2"},"vehicle_type_id":"4","last_reported":1677305336,"current_range_meters":9600,"station_id":"ce4bhr92rcd13ifvqhrg","pricing_plan_id":"free"},{"bike_id":"e5b56d11-91b9-4806-bc8e-991a030edc14","system_id":"levelo_inurba_marseille","lat":43.33043,"lon":5.38919,"is_reserved":false,"is_disabled":false,"rental_uris":{"android":"levelo://app?vid=e5b56d11-91b9-4806-bc8e-991a030edc14","ios":"levelo://app?vid=e5b56d11-91b9-4806-bc8e-991a030edc14"},"vehicle_type_id":"4","last_reported":1677305336,"current_range_meters":23600,"station_id":"ce4bhr92rcd13ifvqhrg","pricing_plan_id":"free"},{"bike_id":"ab775b2a-f8cf-48d9-bc79-619399349482","system_id":"levelo_inurba_marseille","lat":43.330484,"lon":5.38911,"is_reserved":false,"is_disabled":false,"rental_uris":{"android":"levelo://app?vid=ab775b2a-f8cf-48d9-bc79-619399349482","ios":"levelo://app?vid=ab775b2a-f8cf-48d9-bc79-619399349482"},"vehicle_type_id":"4","last_reported":1677305336,"current_range_meters":23600,"station_id":"ce4bhr92rcd13ifvqhrg","pricing_plan_id":"free"},{"bike_id":"25ce5281-5a1c-455a-b604-3f728dd23fc5","system_id":"levelo_inurba_marseille","lat":43.330464,"lon":5.389143,"is_reserved":false,"is_disabled":false,"rental_uris":{"android":"levelo://app?vid=25ce5281-5a1c-455a-b604-3f728dd23fc5","ios":"levelo://app?vid=25ce5281-5a1c-455a-b604-3f728dd23fc5"},"vehicle_type_id":"4","last_reported":1677305336,"current_range_meters":19600,"station_id":"ce4bhr92rcd13ifvqhrg","pricing_plan_id":"free"},{"bike_id":"aa2213ad-506c-46f4-ba0f-9289bd7ab459","system_id":"levelo_inurba_marseille","lat":43.330442,"lon":5.389148,"is_reserved":false,"is_disabled":false,"rental_uris":{"android":"levelo://app?vid=aa2213ad-506c-46f4-ba0f-9289bd7ab459","ios":"levelo://app?vid=aa2213ad-506c-46f4-ba0f-9289bd7ab459"},"vehicle_type_id":"4","last_reported":1677305336,"current_range_meters":30400,"station_id":"ce4bhr92rcd13ifvqhrg","pricing_plan_id":"free"},{"bike_id":"4ff4b905-6214-4d55-8490-50f1aa552805","system_id":"levelo_inurba_marseille","lat":43.33046,"lon":5.38915,"is_reserved":false,"is_disabled":false,"rental_uris":{"android":"levelo://app?vid=4ff4b905-6214-4d55-8490-50f1aa552805","ios":"levelo://app?vid=4ff4b905-6214-4d55-8490-50f1aa552805"},"vehicle_type_id":"4","last_reported":1677305336,"current_range_meters":30400,"station_id":"ce4bhr92rcd13ifvqhrg","pricing_plan_id":"free"},{"bike_id":"2b863f53-57c1-44f7-b7c8-600df4e99549","system_id":"levelo_inurba_marseille","lat":43.330505,"lon":5.389082,"is_reserved":false,"is_disabled":false,"rental_uris":{"android":"levelo://app?vid=2b863f53-57c1-44f7-b7c8-600df4e99549","ios":"levelo://app?vid=2b863f53-57c1-44f7-b7c8-600df4e99549"},"vehicle_type_id":"4","last_reported":1677305336,"current_range_meters":26000,"station_id":"ce4bhr92rcd13ifvqhrg","pricing_plan_id":"free"},{"bike_id":"50222c1a-8a8e-42b4-9935-1e0d180bfe55","system_id":"levelo_inurba_marseille","lat":43.290104,"lon":5.356111,"is_reserved":false,"is_disabled":false,"rental_uris":{"android":"levelo://app?vid=50222c1a-8a8e-42b4-9935-1e0d180bfe55","ios":"levelo://app?vid=50222c1a-8a8e-42b4-9935-1e0d180bfe55"},"vehicle_type_id":"4","last_reported":1677305336,"current_range_meters":1600,"station_id":"ce4bhb92rcd13ifvqen0","pricing_plan_id":"free"},{"bike_id":"ab16d09c-da80-448f-950a-1809f1f1a6d1","system_id":"levelo_inurba_marseille","lat":43.33047,"lon":5.38914,"is_reserved":false,"is_disabled":false,"rental_uris":{"android":"levelo://app?vid=ab16d09c-da80-448f-950a-1809f1f1a6d1","ios":"levelo://app?vid=ab16d09c-da80-448f-950a-1809f1f1a6d1"},"vehicle_type_id":"4","last_reported":1677305336,"current_range_meters":0,"station_id":"ce4bhr92rcd13ifvqhrg","pricing_plan_id":"free"},{"bike_id":"017d77a1-53d5-4919-9c1b-ca4a93130301","system_id":"levelo_inurba_marseille","lat":43.33042,"lon":5.38922,"is_reserved":false,"is_disabled":false,"rental_uris":{"android":"levelo://app?vid=017d77a1-53d5-4919-9c1b-ca4a93130301","ios":"levelo://app?vid=017d77a1-53d5-4919-9c1b-ca4a93130301"},"vehicle_type_id":"4","last_reported":1677305336,"current_range_meters":24000,"station_id":"ce4bhr92rcd13ifvqhrg","pricing_plan_id":"free"},{"bike_id":"153f94fd-3d5d-4fcc-839d-f0d5b4514daf","system_id":"levelo_inurba_marseille","lat":43.330442,"lon":5.389148,"is_reserved":false,"is_disabled":false,"rental_uris":{"android":"levelo://app?vid=153f94fd-3d5d-4fcc-839d-f0d5b4514daf","ios":"levelo://app?vid=153f94fd-3d5d-4fcc-839d-f0d5b4514daf"},"vehicle_type_id":"4","last_reported":1677305336,"current_range_meters":12800,"station_id":"ce4bhr92rcd13ifvqhrg","pricing_plan_id":"free"},{"bike_id":"8736c497-5185-4aff-9ebe-4d2a56283f10","system_id":"levelo_inurba_marseille","lat":43.29005,"lon":5.35618,"is_reserved":false,"is_disabled":false,"rental_uris":{"android":"levelo://app?vid=8736c497-5185-4aff-9ebe-4d2a56283f10","ios":"levelo://app?vid=8736c497-5185-4aff-9ebe-4d2a56283f10"},"vehicle_type_id":"4","last_reported":1677305336,"current_range_meters":2400,"station_id":"","pricing_plan_id":"free"},{"bike_id":"39b8c3a8-bf9d-4e69-aaa8-f6ed0b40ab72","system_id":"levelo_inurba_marseille","lat":43.330488,"lon":5.389138,"is_reserved":false,"is_disabled":false,"rental_uris":{"android":"levelo://app?vid=39b8c3a8-bf9d-4e69-aaa8-f6ed0b40ab72","ios":"levelo://app?vid=39b8c3a8-bf9d-4e69-aaa8-f6ed0b40ab72"},"vehicle_type_id":"4","last_reported":1677305336,"current_range_meters":23600,"station_id":"ce4bhr92rcd13ifvqhrg","pricing_plan_id":"free"},{"bike_id":"fcd70f40-b987-4142-bcc5-912748c69b55","system_id":"levelo_inurba_marseille","lat":43.330442,"lon":5.389148,"is_reserved":false,"is_disabled":false,"rental_uris":{"android":"levelo://app?vid=fcd70f40-b987-4142-bcc5-912748c69b55","ios":"levelo://app?vid=fcd70f40-b987-4142-bcc5-912748c69b55"},"vehicle_type_id":"4","last_reported":1677305336,"current_range_meters":23200,"station_id":"ce4bhr92rcd13ifvqhrg","pricing_plan_id":"free"},{"bike_id":"71fdc8ed-6ffa-4a3e-8ecb-adb6f05ac67c","system_id":"levelo_inurba_marseille","lat":43.330442,"lon":5.389148,"is_reserved":false,"is_disabled":false,"rental_uris":{"android":"levelo://app?vid=71fdc8ed-6ffa-4a3e-8ecb-adb6f05ac67c","ios":"levelo://app?vid=71fdc8ed-6ffa-4a3e-8ecb-adb6f05ac67c"},"vehicle_type_id":"4","last_reported":1677305336,"current_range_meters":16000,"station_id":"ce4bhr92rcd13ifvqhrg","pricing_plan_id":"free"},{"bike_id":"121130e9-4b1c-413a-bd83-5f04da6728d5","system_id":"levelo_inurba_marseille","lat":43.290104,"lon":5.356111,"is_reserved":false,"is_disabled":false,"rental_uris":{"android":"levelo://app?vid=121130e9-4b1c-413a-bd83-5f04da6728d5","ios":"levelo://app?vid=121130e9-4b1c-413a-bd83-5f04da6728d5"},"vehicle_type_id":"4","last_reported":1677305336,"current_range_meters":28800,"station_id":"ce4bhb92rcd13ifvqen0","pricing_plan_id":"free"},