{"last_updated":1685407179,"ttl":30,"version":"2.2","data":{"bikes":[{"bike_id":"8def1d03-e0f0-4546-a13d-0d93ecc5df11","system_id":"levelo_inurba_marseille","lat":43.313391,"lon":5.36706,"is_reserved":false,"is_disabled":false,"rental_uris":{"android":"levelo://app?vid=8def1d03-e0f0-4546-a13d-0d93ecc5df11","ios":"levelo://app?vid=8def1d03-e0f0-4546-a13d-0d93ecc5df11"},"vehicle_type_id":"4","last_reported":1685407179,"current_range_meters":27200,"station_id":"ce4bgr92rcd13ifvqc6g","pricing_plan_id":"free"},{"bike_id":"bec845d2-2d87-4937-aacc-788b846ce2cd","system_id":"levelo_inurba_marseille","lat":43.31341,"lon":5.367098,"is_reserved":false,"is_disabled":false,"rental_uris":{"android":"levelo://app?vid=bec845d2-2d87-4937-aacc-788b846ce2cd","ios":"levelo://app?vid=bec845d2-2d87-4937-aacc-788b846ce2cd"},"vehicle_type_id":"4","last_reported":1685407179,"current_range_meters":28400,"station_id":"ce4bgr92rcd13ifvqc6g","pricing_plan_id":"free"},{"bike_id":"9b7f4c69-5eb0-4e03-983c-3058e9389662","system_id":"levelo_inurba_marseille","lat":43.313391,"lon":5.36706,"is_reserved":false,"is_disabled":false,"rental_uris":{"android":"levelo://app?vid=9b7f4c69-5eb0-4e03-983c-3058e9389662","ios":"levelo://app?vid=9b7f4c69-5eb0-4e03-983c-3058e9389662"},"vehicle_type_id":"4","last_reported":1685407179,"current_range_meters":18400,"station_id":"ce4bgr92rcd13ifvqc6g","pricing_plan_id":"free"},{"bike_id":"e08eda01-b452-4e01-9b74-f7bdbd308eb5","system_id":"levelo_inurba_marseille","lat":43.31341,"lon":5.367098,"is_reserved":false,"is_disabled":false,"rental_uris":{"android":"levelo://app?vid=e08eda01-b452-4e01-9b74-f7bdbd308eb5","ios":"levelo://app?vid=e08eda01-b452-4e01-9b74-f7bdbd308eb5"},"vehicle_type_id":"4","last_reported":1685407179,"current_range_meters":27200,"station_id":"ce4bgr92rcd13ifvqc6g","pricing_plan_id":"free"},{"bike_id":"cb92cb49-893c-4409-836f-df07497b5e60","system_id":"levelo_inurba_marseille","lat":43.312239,"lon":5.368562,"is_reserved":false,"is_disabled":false,"rental_uris":{"android":"levelo://app?vid=cb92cb49-893c-4409-836f-df07497b5e60","ios":"levelo://app?vid=cb92cb49-893c-4409-836f-df07497b5e60"},"vehicle_type_id":"4","last_reported":1685407179,"current_range_meters":29200,"station_id":"ce4bgl92rcd13ifvqbq0","pricing_plan_id":"free"},{"bike_id":"6a1b2239-b3ba-4402-9bf6-1b600d0c9e36","system_id":"levelo_inurba_marseille","lat":43.312239,"lon":5.368562,"is_reserved":false,"is_disabled":false,"rental_uris":{"android":"levelo://app?vid=6a1b2239-b3ba-4402-9bf6-1b600d0c9e36","ios":"levelo://app?vid=6a1b2239-b3ba-4402-9bf6-1b600d0c9e36"},"vehicle_type_id":"4","last_reported":1685407179,"current_range_meters":27200,"station_id":"ce4bgl92rcd13ifvqbq0","pricing_plan_id":"free"},{"bike_id":"5d05cf81-1ecd-4d07-8d31-98418ee78e51","system_id":"levelo_inurba_marseille","lat":43.309076,"lon":5.368465,"is_reserved":false,"is_disabled":false,"rental_uris":{"android":"levelo://app?vid=5d05cf81-1ecd-4d07-8d31-98418ee78e51","ios":"levelo://app?vid=5d05cf81-1ecd-4d07-8d31-98418ee78e51"},"vehicle_type_id":"4","last_reported":1685407179,"current_range_meters":28800,"station_id":"ce4bgn92rcd13ifvqbvg","pricing_plan_id":"free"},{"bike_id":"c1137dfe-a0e4-461f-b3c1-133df0a81558","system_id":"levelo_inurba_marseille","lat":43.309076,"lon":5.368465,"is_reserved":false,"is_disabled":false,"rental_uris":{"android":"levelo://app?vid=c1137dfe-a0e4-461f-b3c1-133df0a81558","ios":"levelo://app?vid=c1137dfe-a0e4-461f-b3c1-133df0a81558"},"vehicle_type_id":"4","last_reported":1685407179,"current_range_meters":28400,"station_id":"ce4bgn92rcd13ifvqbvg","pricing_plan_id":"free"},{"bike_id":"d226e977-3f0b-4b0c-a0e0-157c44aec210","system_id":"levelo_inurba_marseille","lat":43.314811,"lon":5.373104,"is_reserved":false,"is_disabled":false,"rental_uris":{"android":"levelo://app?vid=d226e977-3f0b-4b0c-a0e0-157c44aec210","ios":"levelo://app?vid=d226e977-3f0b-4b0c-a0e0-157c44aec210"},"vehicle_type_id":"4","last_reported":1685407179,"current_range_meters":29200,"station_id":"ce4bgt12rcd13ifvqcd0","pricing_plan_id":"free"},{"bike_id":"c8e7caf2-3af1-4219-bf65-e7ce42a09e88","system_id":"levelo_inurba_marseille","lat":43.314811,"lon":5.373103,"is_reserved":false,"is_disabled":false,"rental_uris":{"android":"levelo://app?vid=c8e7caf2-3af1-4219-bf65-e7ce42a09e88","ios":"levelo://app?vid=c8e7caf2-3af1-4219-bf65-e7ce42a09e88"},"vehicle_type_id":"4","last_reported":1685407179,"current_range_meters":18800,"station_id":"ce4bgt12rcd13ifvqcd0","pricing_plan_id":"free"},{"bike_id":"181f9dd6-f330-4308-85f7-b6a64ef702cc","system_id":"levelo_inurba_marseille","lat":43.314811,"lon":5.373103,"is_reserved":false,"is_disabled":false,"rental_uris":{"android":"levelo://app?vid=181f9dd6-f330-4308-85f7-b6a64ef702cc","ios":"levelo://app?vid=181f9dd6-f330-4308-85f7-b6a64ef702cc"},"vehicle_type_id":"4","last_reported":1685407179,"current_range_meters":26000,"station_id":"ce4bgt12rcd13ifvqcd0","pricing_plan_id":"free"},{"bike_id":"780aa4bd-4a66-4168-b5ea-8a27ce684ee0","system_id":"levelo_inurba_marseille","lat":43.314811,"lon":5.373103,"is_reserved":false,"is_disabled":false,"rental_uris":{"android":"levelo://app?vid=780aa4bd-4a66-4168-b5ea-8a27ce684ee0","ios":"levelo://app?vid=780aa4bd-4a66-4168-b5ea-8a27ce684ee0"},"vehicle_type_id":"4","last_reported":1685407179,"current_range_meters":1600,"station_id":"ce4bgt12rcd13ifvqcd0","pricing_plan_id":"free"},{"bike_id":"5c121b33-ec28-4f78-a2fd-ad9028e51911","system_id":"levelo_inurba_marseille","lat":43.314811,"lon":5.373103,"is_reserved":false,"is_disabled":false,"rental_uris":{"android":"levelo://app?vid=5c121b33-ec28-4f78-a2fd-ad9028e51911","ios":"levelo://app?vid=5c121b33-ec28-4f78-a2fd-ad9028e51911"},"vehicle_type_id":"4","last_reported":1685407179,"current_range_meters":8400,"station_id":"ce4bgt12rcd13ifvqcd0","pricing_plan_id":"free"},{"bike_id":"1b000bd2-4a72-44c5-a438-9d6ecfb521e0","system_id":"levelo_inurba_marseille","lat":43.308614,"lon":5.372098,"is_reserved":false,"is_disabled":false,"rental_uris":{"android":"levelo://app?vid=1b000bd2-4a72-44c5-a438-9d6ecfb521e0","ios":"levelo://app?vid=1b000bd2-4a72-44c5-a438-9d6ecfb521e0"},"vehicle_type_id":"4","last_reported":1685407179,"current_range_meters":21600,"station_id":"ce4bguh2rcd13ifvqckg","pricing_plan_id":"free"},{"bike_id":"fb8b5bd4-79e9-45a2-b71c-1e0eb5ee2b00","system_id":"levelo_inurba_marseille","lat":43.308614,"lon":5.372098,"is_reserved":false,"is_disabled":false,"rental_uris":{"android":"levelo://app?vid=fb8b5bd4-79e9-45a2-b71c-1e0eb5ee2b00","ios":"levelo://app?vid=fb8b5bd4-79e9-45a2-b71c-1e0eb5ee2b00"},"vehicle_type_id":"4","last_reported":1685407179,"current_range_meters":20800,"station_id":"ce4bguh2rcd13ifvqckg","pricing_plan_id":"free"},{"bike_id":"bdc45dcc-7dd7-42e5-9be3-0af584a7182f","system_id":"levelo_inurba_marseille","lat":43.305989,"lon":5.37225,"is_reserved":false,"is_disabled":false,"rental_uris":{"android":"levelo://app?vid=bdc45dcc-7dd7-42e5-9be3-0af584a7182f","ios":"levelo://app?vid=bdc45dcc-7dd7-42e5-9be3-0af584a7182f"},"vehicle_type_id":"4","last_reported":1685407179,"current_range_meters":20400,"station_id":"ce4bgqh2rcd13ifvqc4g","pricing_plan_id":"free"},{"bike_id":"9eb19b96-8367-48d5-8b68-7ca2ad5a79eb","system_id":"levelo_inurba_marseille","lat":43.305989,"lon":5.37225,"is_reserved":false,"is_disabled":false,"rental_uris":{"android":"levelo://app?vid=9eb19b96-8367-48d5-8b68-7ca2ad5a79eb","ios":"levelo://app?vid=9eb19b96-8367-48d5-8b68-7ca2ad5a79eb"},"vehicle_type_id":"4","last_reported":1685407179,"current_range_meters":24800,"station_id":"ce4bgqh2rcd13ifvqc4g","pricing_plan_id":"free"},{"bike_id":"b452b2b6-8252-48c5-90df-b8f3d43379c1","system_id":"levelo_inurba_marseille","lat":43.311125,"lon":5.377624,"is_reserved":false,"is_disabled":false,"rental_uris":{"android":"levelo://app?vid=b452b2b6-8252-48c5-90df-b8f3d43379c1","ios":"levelo://app?vid=b452b2b6-8252-48c5-90df-b8f3d43379c1"},"vehicle_type_id":"4","last_reported":1685407179,"current_range_meters":27600,"station_id":"ce4bgt92rcd13ifvqcg0","pricing_plan_id":"free"},{"bike_id":"9c94a05a-54e0-4ba9-a4b6-a9ef337a5124","system_id":"levelo_inurba_marseille","lat":43.311125,"lon":5.377624,"is_reserved":false,"is_disabled":false,"rental_uris":{"android":"levelo://app?vid=9c94a05a-54e0-4ba9-a4b6-a9ef337a5124","ios":"levelo://app?vid=9c94a05a-54e0-4ba9-a4b6-a9ef337a5124"},"vehicle_type_id":"4","last_reported":1685407179,"current_range_meters":23200,"station_id":"ce4bgt92rcd13ifvqcg0","pricing_plan_id":"free"},{"bike_id":"ac751029-a36a-4c20-84c0-fbf41f302d46","system_id":"levelo_inurba_marseille","lat":43.311125,"lon":5.377624,"is_reserved":false,"is_disabled":false,"rental_uris":{"android":"levelo://app?vid=ac751029-a36a-4c20-84c0-fbf41f302d46","ios":"levelo://app?vid=ac751029-a36a-4c20-84c0-fbf41f302d46"},"vehicle_type_id":"4","last_reported":1685407179,"current_range_meters":31600,"station_id":"ce4bgt92rcd13ifvqcg0","pricing_plan_id":"free"},{"bike_id":"63d2131f-8a77-4ba6-a3ba-21102844d528","system_id":"levelo_inurba_marseille","lat":43.317075,"lon":5.377367,"is_reserved":false,"is_disabled":false,"rental_uris":{"android":"levelo://app?vid=63d2131f-8a77-4ba6-a3ba-21102844d528","ios":"levelo://app?vid=63d2131f-8a77-4ba6-a3ba-21102844d528"},"vehicle_type_id":"4","last_reported":1685407179,"current_range_meters":12000,"station_id":"ce4bgth2rcd13ifvqch0","pricing_plan_id":"free"},{"bike_id":"37a85ad5-7654-4f7c-91cb-95c4eda6da41","system_id":"levelo_inurba_marseille","lat":43.32212,"lon":5.36787,"is_reserved":false,"is_disabled":false,"rental_uris":{"android":"levelo://app?vid=37a85ad5-7654-4f7c-91cb-95c4eda6da41","ios":"levelo://app?vid=37a85ad5-7654-4f7c-91cb-95c4eda6da41"},"vehicle_type_id":"4","last_reported":1685407179,"current_range_meters":0,"station_id":"","pricing_plan_id":"free"},{"bike_id":"9b2f3088-ae68-4117-801f-b18495918fce","system_id":"levelo_inurba_marseille","lat":43.303046,"lon":5.368981,"is_reserved":false,"is_disabled":false,"rental_uris":{"android":"levelo://app?vid=9b2f3088-ae68-4117-801f-b18495918fce","ios":"levelo://app?vid=9b2f3088-ae68-4117-801f-b18495918fce"},"vehicle_type_id":"4","last_reported":1685407179,"current_range_meters":8000,"station_id":"ce4bgqh2rcd13ifvqc5g","pricing_plan_id":"free"},{"bike_id":"f69a3f8a-adab-435a-ad98-4302ca7a3c35","system_id":"levelo_inurba_marseille","lat":43.32271,"lon":5.36782,"is_reserved":false,"is_disabled":false,"rental_uris":{"android":"levelo://app?vid=f69a3f8a-adab-435a-ad98-4302ca7a3c35","ios":"levelo://app?vid=f69a3f8a-adab-435a-ad98-4302ca7a3c35"},"vehicle_type_id":"4","last_reported":1685407179,"current_range_meters":24000,"station_id":"","pricing_plan_id":"free"},{"bike_id":"818de21c-4d6b-47ca-8c3a-cfc1f7a89b0d","system_id":"levelo_inurba_marseille","lat":43.315293,"lon":5.380349,"is_reserved":false,"is_disabled":false,"rental_uris":{"android":"levelo://app?vid=818de21c-4d6b-47ca-8c3a-cfc1f7a89b0d","ios":"levelo://app?vid=818de21c-4d6b-47ca-8c3a-cfc1f7a89b0d"},"vehicle_type_id":"4","last_reported":1685407179,"current_range_meters":15200,"station_id":"ce4bhsp2rcd13ifvqi50","pricing_plan_id":"free"},{"bike_id":"c30f66ea-6e26-472f-9cbe-35fed83adc6f","system_id":"levelo_inurba_marseille","lat":43.315293,"lon":5.380349,"is_reserved":false,"is_disabled":false,"rental_uris":{"android":"levelo://app?vid=c30f66ea-6e26-472f-9cbe-35fed83adc6f","ios":"levelo://app?vid=c30f66ea-6e26-472f-9cbe-35fed83adc6f"},"vehicle_type_id":"4","last_reported":1685407179,"current_range_meters":0,"station_id":"ce4bhsp2rcd13ifvqi50","pricing_plan_id":"free"},{"bike_id":"d03dfde3-848d-4a12-b8c5-302f4c16e8c3","system_id":"levelo_inurba_marseille","lat":43.31554,"lon":5.38058,"is_reserved":false,"is_disabled":false,"rental_uris":{"android":"levelo://app?vid=d03dfde3-848d-4a12-b8c5-302f4c16e8c3","ios":"levelo://app?vid=d03dfde3-848d-4a12-b8c5-302f4c16e8c3"},"vehicle_type_id":"4","last_reported":1685407179,"current_range_meters":15600,"station_id":"","pricing_plan_id":"free"},{"bike_id":"1111b733-5927-4e74-bb36-f239bf67bc8f","system_id":"levelo_inurba_marseille","lat":43.301939,"lon":5.366286,"is_reserved":false,"is_disabled":false,"rental_uris":{"android":"levelo://app?vid=1111b733-5927-4e74-bb36-f239bf67bc8f","ios":"levelo://app?vid=1111b733-5927-4e74-bb36-f239bf67bc8f"},"vehicle_type_id":"4","last_reported":1685407179,"current_range_meters":28400,"station_id":"ce4bgrh2rcd13ifvqc8g","pricing_plan_id":"free"},{"bike_id":"48b782e6-a526-4e77-aac0-081d590a388e","system_id":"levelo_inurba_marseille","lat":43.308012,"lon":5.381511,"is_reserved":false,"is_disabled":false,"rental_uris":{"android":"levelo://app?vid=48b782e6-a526-4e77-aac0-081d590a388e","ios":"levelo://app?vid=48b782e6-a526-4e77-aac0-081d590a388e"},"vehicle_type_id":"4","last_reported":1685407179,"current_range_meters":0,"station_id":"ce4bgt12rcd13ifvqce0","pricing_plan_id":"free"},{"bike_id":"edda1cc0-378a-4e10-bdad-abee79f7145f","system_id":"levelo_inurba_marseille","lat":43.308012,"lon":5.381511,"is_reserved":false,"is_disabled":false,"rental_uris":{"android":"levelo://app?vid=edda1cc0-378a-4e10-bdad-abee79f7145f","ios":"levelo://app?vid=edda1cc0-378a-4e10-bdad-abee79f7145f"},"vehicle_type_id":"4","last_reported":1685407179,"current_range_meters":23200,"station_id":"ce4bgt12rcd13ifvqce0","pricing_plan_id":"free"},{"bike_id":"d11da2d4-50ab-475d-a497-999f76f85bd5","system_id":"levelo_inurba_marseille","lat":43.31644,"lon":5.38341,"is_reserved":false,"is_disabled":false,"rental_uris":{"android":"levelo://app?vid=d11da2d4-50ab-475d-a497-999f76f85bd5","ios":"levelo://app?vid=d11da2d4-50ab-475d-a497-999f76f85bd5"},"vehicle_type_id":"4","last_reported":1685407179,"current_range_meters":20000,"station_id":"","pricing_plan_id":"free"},{"bike_id":"c400e462-a4de-4542-ac86-b99081db2f1e","system_id":"levelo_inurba_marseille","lat":43.31641,"lon":5.38352,"is_reserved":false,"is_disabled":false,"rental_uris":{"android":"levelo://app?vid=c400e462-a4de-4542-ac86-b99081db2f1e","ios":"levelo://app?vid=c400e462-a4de-4542-ac86-b99081db2f1e"},"vehicle_type_id":"4","last_reported":1685407179,"current_range_meters":7600,"station_id":"","pricing_plan_id":"free"},{"bike_id":"ac29a3e2-3de3-4ef9-a505-87d7fa405400","system_id":"levelo_inurba_marseille","lat":43.319935,"lon":5.381699,"is_reserved":false,"is_disabled":false,"rental_uris":{"android":"levelo://app?vid=ac29a3e2-3de3-4ef9-a505-87d7fa405400","ios":"levelo://app?vid=ac29a3e2-3de3-4ef9-a505-87d7fa405400"},"vehicle_type_id":"4","last_reported":1685407179,"current_range_meters":5600,"station_id":"ce4bhr12rcd13ifvqhpg","pricing_plan_id":"free"},{"bike_id":"c41492b7-eec8-43e4-b836-cee2e133a0fd","system_id":"levelo_inurba_marseille","lat":43.319935,"lon":5.381699,"is_reserved":false,"is_disabled":false,"rental_uris":{"android":"levelo://app?vid=c41492b7-eec8-43e4-b836-cee2e133a0fd","ios":"levelo://app?vid=c41492b7-eec8-43e4-b836-cee2e133a0fd"},"vehicle_type_id":"4","last_reported":1685407179,"current_range_meters":24000,"station_id":"ce4bhr12rcd13ifvqhpg","pricing_plan_id":"free"},{"bike_id":"2b79add7-fc91-4aff-9cc8-04f933dd2ada","system_id":"levelo_inurba_marseille","lat":43.313571,"lon":5.384829,"is_reserved":false,"is_disabled":false,"rental_uris":{"android":"levelo://app?vid=2b79add7-fc91-4aff-9cc8-04f933dd2ada","ios":"levelo://app?vid=2b79add7-fc91-4aff-9cc8-04f933dd2ada"},"vehicle_type_id":"4","last_reported":1685407179,"current_range_meters":29600,"station_id":"ce4bgt92rcd13ifvqcf0","pricing_plan_id":"free"},{"bike_id":"3e06b23c-e123-4576-bcdc-4d8e14e1a50b","system_id":"levelo_inurba_marseille","lat":43.313571,"lon":5.384829,"is_reserved":false,"is_disabled":false,"rental_uris":{"android":"levelo://app?vid=3e06b23c-e123-4576-bcdc-4d8e14e1a50b","ios":"levelo://app?vid=3e06b23c-e123-4576-bcdc-4d8e14e1a50b"},"vehicle_type_id":"4","last_reported":1685407179,"current_range_meters":21600,"station_id":"ce4bgt92rcd13ifvqcf0","pricing_plan_id":"free"},{"bike_id":"0b5c8faa-ad42-48c7-a8b4-f63882c57f4b","system_id":"levelo_inurba_marseille","lat":43.305364,"lon":5.384119,"is_reserved":false,"is_disabled":false,"rental_uris":{"android":"levelo://app?vid=0b5c8faa-ad42-48c7-a8b4-f63882c57f4b","ios":"levelo://app?vid=0b5c8faa-ad42-48c7-a8b4-f63882c57f4b"},"vehicle_type_id":"4","last_reported":1685407179,"current_range_meters":0,"station_id":"ce4bgg92rcd13ifvqb30","pricing_plan_id":"free"},{"bike_id":"df3d6a81-7580-4937-8c41-ddda94ee5a95","system_id":"levelo_inurba_marseille","lat":43.311722,"lon":5.387247,"is_reserved":false,"is_disabled":false,"rental_uris":{"android":"levelo://app?vid=df3d6a81-7580-4937-8c41-ddda94ee5a95","ios":"levelo://app?vid=df3d6a81-7580-4937-8c41-ddda94ee5a95"},"vehicle_type_id":"4","last_reported":1685407179,"current_range_meters":27600,"station_id":"ce4bgv12rcd13ifvqcp0","pricing_plan_id":"free"},{"bike_id":"9418bd0d-6aa1-49d5-addc-6f2654b17c65","system_id":"levelo_inurba_marseille","lat":43.29916,"lon":5.37468,"is_reserved":false,"is_disabled":false,"rental_uris":{"android":"levelo://app?vid=9418bd0d-6aa1-49d5-addc-6f2654b17c65","ios":"levelo://app?vid=9418bd0d-6aa1-49d5-addc-6f2654b17c65"},"vehicle_type_id":"4","last_reported":1685407179,"current_range_meters":28800,"station_id":"ce4bgjh2rcd13ifvqbg0","pricing_plan_id":"free"},{"bike_id":"3a9014fb-8a03-4d3e-8308-64f10b523f35","system_id":"levelo_inurba_marseille","lat":43.311722,"lon":5.387247,"is_reserved":false,"is_disabled":false,"rental_uris":{"android":"levelo://app?vid=3a9014fb-8a03-4d3e-8308-64f10b523f35","ios":"levelo://app?vid=3a9014fb-8a03-4d3e-8308-64f10b523f35"},"vehicle_type_id":"4","last_reported":1685407179,"current_range_meters":23200,"station_id":"ce4bgv12rcd13ifvqcp0","pricing_plan_id":"free"},{"bike_id":"7d3d8d2f-6434-40c1-815d-0fec42b0846f","system_id":"levelo_inurba_marseille","lat":43.311722,"lon":5.387247,"is_reserved":false,"is_disabled":false,"rental_uris":{"android":"levelo://app?vid=7d3d8d2f-6434-40c1-815d-0fec42b0846f","ios":"levelo://app?vid=7d3d8d2f-6434-40c1-815d-0fec42b0846f"},"vehicle_type_id":"4","last_reported":1685407179,"current_range_meters":6800,"station_id":"ce4bgv12rcd13ifvqcp0","pricing_plan_id":"free"},{"bike_id":"3c2b22b1-05cc-4d62-aa6b-3c3dd6da8baa","system_id":"levelo_inurba_marseille","lat":43.311722,"lon":5.387247,"is_reserved":false,"is_disabled":false,"rental_uris":{"android":"levelo://app?vid=3c2b22b1-05cc-4d62-aa6b-3c3dd6da8baa","ios":"levelo://app?vid=3c2b22b1-05cc-4d62-aa6b-3c3dd6da8baa"},"vehicle_type_id":"4","last_reported":1685407179,"current_range_meters":29200,"station_id":"ce4bgv12rcd13ifvqcp0","pricing_plan_id":"free"},{"bike_id":"a2a8cab4-0307-45b1-8fc4-2f928c3bce48","system_id":"levelo_inurba_marseille","lat":43.311722,"lon":5.387247,"is_reserved":false,"is_disabled":false,"rental_uris":{"android":"levelo://app?vid=a2a8cab4-0307-45b1-8fc4-2f928c3bce48","ios":"levelo://app?vid=a2a8cab4-0307-45b1-8fc4-2f928c3bce48"},"vehicle_type_id":"4","last_reported":1685407179,"current_range_meters":14800,"station_id":"ce4bgv12rcd13ifvqcp0","pricing_plan_id":"free"},{"bike_id":"936f493c-af89-4fd4-ae09-87610ca96257","system_id":"levelo_inurba_marseille","lat":43.297794,"lon":5.370888,"is_reserved":false,"is_disabled":false,"rental_uris":{"android":"levelo://app?vid=936f493c-af89-4fd4-ae09-87610ca96257","ios":"levelo://app?vid=936f493c-af89-4fd4-ae09-87610ca96257"},"vehicle_type_id":"4","last_reported":1685407179,"current_range_meters":5600,"station_id":"ce4bgop2rcd13ifvqc1g","pricing_plan_id":"free"},{"bike_id":"1ec1dde0-b812-4c1e-9e22-a25041461290","system_id":"levelo_inurba_marseille","lat":43.297774,"lon":5.370875,"is_reserved":false,"is_disabled":false,"rental_uris":{"android":"levelo://app?vid=1ec1dde0-b812-4c1e-9e22-a25041461290","ios":"levelo://app?vid=1ec1dde0-b812-4c1e-9e22-a25041461290"},"vehicle_type_id":"4","last_reported":1685407179,"current_range_meters":8000,"station_id":"ce4bgop2rcd13ifvqc1g","pricing_plan_id":"free"},{"bike_id":"71e26e62-c2e5-4454-9009-db6608593b41","system_id":"levelo_inurba_marseille","lat":43.297794,"lon":5.370888,"is_reserved":false,"is_disabled":false,"rental_uris":{"android":"levelo://app?vid=71e26e62-c2e5-4454-9009-db6608593b41","ios":"levelo://app?vid=71e26e62-c2e5-4454-9009-db6608593b41"},"vehicle_type_id":"4","last_reported":1685407179,"current_range_meters":11600,"station_id":"ce4bgop2rcd13ifvqc1g","pricing_plan_id":"free"},{"bike_id":"b4a10882-5bd8-431d-9407-df26a94d9353","system_id":"levelo_inurba_marseille","lat":43.29718,"lon":5.36608,"is_reserved":false,"is_disabled":false,"rental_uris":{"android":"levelo://app?vid=b4a10882-5bd8-431d-9407-df26a94d9353","ios":"levelo://app?vid=b4a10882-5bd8-431d-9407-df26a94d9353"},"vehicle_type_id":"4","last_reported":1685407179,"current_range_meters":6800,"station_id":"","pricing_plan_id":"free"},{"bike_id":"bfcee4c7-8dc0-4f3e-a9f5-26101145ee75","system_id":"levelo_inurba_marseille","lat":43.29712,"lon":5.36603,"is_reserved":false,"is_disabled":false,"rental_uris":{"android":"levelo://app?vid=bfcee4c7-8dc0-4f3e-a9f5-26101145ee75","ios":"levelo://app?vid=bfcee4c7-8dc0-4f3e-a9f5-26101145ee75"},"vehicle_type_id":"4","last_reported":1685407179,"current_range_meters":4000,"station_id":"","pricing_plan_id":"free"},{"bike_id":"5fda6268-042e-46ec-ba1f-4f167e8e944a","system_id":"levelo_inurba_marseille","lat":43.29706,"lon":5.36597,"is_reserved":false,"is_disabled":false,"rental_uris":{"android":"levelo://app?vid=5fda6268-042e-46ec-ba1f-4f167e8e944a","ios":"levelo://app?vid=5fda6268-042e-46ec-ba1f-4f167e8e944a"},"vehicle_type_id":"4","last_reported":1685407179,"current_range_meters":14400,"station_id":"","pricing_plan_id":"free"},{"bike_id":"574190e5-850d-4dd1-8eea-8ea5be63aef3","system_id":"levelo_inurba_marseille","lat":43.309589,"lon":5.390258,"is_reserved":false,"is_disabled":false,"rental_uris":{"android":"levelo://app?vid=574190e5-850d-4dd1-8eea-8ea5be63aef3","ios":"levelo://app?vid=574190e5-850d-4dd1-8eea-8ea5be63aef3"},"vehicle_type_id":"4","last_reported":1685407179,"current_range_meters":0,"station_id":"ce4bgup2rcd13ifvqco0","pricing_plan_id":"free"},{"bike_id":"315920c6-7971-40ad-b598-9396589b9153","system_id":"levelo_inurba_marseille","lat":43.309589,"lon":5.390258,"is_reserved":false,"is_disabled":false,"rental_uris":{"android":"levelo://app?vid=315920c6-7971-40ad-b598-9396589b9153","ios":"levelo://app?vid=315920c6-7971-40ad-b598-9396589b9153"},"vehicle_type_id":"4","last_reported":1685407179,"current_range_meters":12400,"station_id":"ce4bgup2rcd13ifvqco0","pricing_plan_id":"free"},{"bike_id":"db9d0b8c-a66e-4144-a40d-f2a5f8a93f17","system_id":"levelo_inurba_marseille","lat":43.30002,"lon":5.38353,"is_reserved":false,"is_disabled":false,"rental_uris":{"android":"levelo://app?vid=db9d0b8c-a66e-4144-a40d-f2a5f8a93f17","ios":"levelo://app?vid=db9d0b8c-a66e-4144-a40d-f2a5f8a93f17"},"vehicle_type_id":"4","last_reported":1685407179,"current_range_meters":4400,"station_id":"","pricing_plan_id":"free"},{"bike_id":"e8011fa8-cbdf-4314-a440-1a63a0e6f7c6","system_id":"levelo_inurba_marseille","lat":43.29581,"lon":5.37506,"is_reserved":false,"is_disabled":false,"rental_uris":{"android":"levelo://app?vid=e8011fa8-cbdf-4314-a440-1a63a0e6f7c6","ios":"levelo://app?vid=e8011fa8-cbdf-4314-a440-1a63a0e6f7c6"},"vehicle_type_id":"4","last_reported":1685407179,"current_range_meters":7600,"station_id":"ce4bgh92rcd13ifvqb50","pricing_plan_id":"free"},{"bike_id":"c9da9458-b3b8-43a0-8d8c-f1e2b7ff518d","system_id":"levelo_inurba_marseille","lat":43.304274,"lon":5.388873,"is_reserved":false,"is_disabled":false,"rental_uris":{"android":"levelo://app?vid=c9da9458-b3b8-43a0-8d8c-f1e2b7ff518d","ios":"levelo://app?vid=c9da9458-b3b8-43a0-8d8c-f1e2b7ff518d"},"vehicle_type_id":"4","last_reported":1685407179,"current_range_meters":28400,"station_id":"ce4bgk12rcd13ifvqbi0","pricing_plan_id":"free"},{"bike_id":"6345f779-7590-4ebf-81b7-14a3c3a95e37","system_id":"levelo_inurba_marseille","lat":43.32367,"lon":5.388836,"is_reserved":false,"is_disabled":false,"rental_uris":{"android":"levelo://app?vid=6345f779-7590-4ebf-81b7-14a3c3a95e37","ios":"levelo://app?vid=6345f779-7590-4ebf-81b7-14a3c3a95e37"},"vehicle_type_id":"4","last_reported":1685407179,"current_range_meters":3600,"station_id":"ce4bhqp2rcd13ifvqhog","pricing_plan_id":"free"},{"bike_id":"950f3a0b-8466-40bf-8f81-5f5cf1a96632","system_id":"levelo_inurba_marseille","lat":43.32367,"lon":5.388836,"is_reserved":false,"is_disabled":false,"rental_uris":{"android":"levelo://app?vid=950f3a0b-8466-40bf-8f81-5f5cf1a96632","ios":"levelo://app?vid=950f3a0b-8466-40bf-8f81-5f5cf1a96632"},"vehicle_type_id":"4","last_reported":1685407179,"current_range_meters":6800,"station_id":"ce4bhqp2rcd13ifvqhog","pricing_plan_id":"free"},{"bike_id":"00c9b202-b5b6-4f69-8084-db1f9466ee79","system_id":"levelo_inurba_marseille","lat":43.32367,"lon":5.388836,"is_reserved":false,"is_disabled":false,"rental_uris":{"android":"levelo://app?vid=00c9b202-b5b6-4f69-8084-db1f9466ee79","ios":"levelo://app?vid=00c9b202-b5b6-4f69-8084-db1f9466ee79"},"vehicle_type_id":"4","last_reported":1685407179,"current_range_meters":23600,"station_id":"ce4bhqp2rcd13ifvqhog","pricing_plan_id":"free"},{"bike_id":"d1ab7cdd-c6a3-4e43-a50c-3d50e564a673","system_id":"levelo_inurba_marseille","lat":43.32367,"lon":5.388836,"is_reserved":false,"is_disabled":false,"rental_uris":{"android":"levelo://app?vid=d1ab7cdd-c6a3-4e43-a50c-3d50e564a673","ios":"levelo://app?vid=d1ab7cdd-c6a3-4e43-a50c-3d50e564a673"},"vehicle_type_id":"4","last_reported":1685407179,"current_range_meters":13600,"station_id":"ce4bhqp2rcd13ifvqhog","pricing_plan_id":"free"},{"bike_id":"1c37c083-39b8-4242-99c8-3430fc05b14b","system_id":"levelo_inurba_marseille","lat":43.32367,"lon":5.388836,"is_reserved":false,"is_disabled":false,"rental_uris":{"android":"levelo://app?vid=1c37c083-39b8-4242-99c8-3430fc05b14b","ios":"levelo://app?vid=1c37c083-39b8-4242-99c8-3430fc05b14b"},"vehicle_type_id":"4","last_reported":1685407179,"current_range_meters":20000,"station_id":"ce4bhqp2rcd13ifvqhog","pricing_plan_id":"free"},{"bike_id":"3361876b-5ac1-40cb-960f-347ce30a1e80","system_id":"levelo_inurba_marseille","lat":43.32367,"lon":5.38884,"is_reserved":false,"is_disabled":false,"rental_uris":{"android":"levelo://app?vid=3361876b-5ac1-40cb-960f-347ce30a1e80","ios":"levelo://app?vid=3361876b-5ac1-40cb-960f-347ce30a1e80"},"vehicle_type_id":"4","last_reported":1685407179,"current_range_meters":19600,"station_id":"ce4bhqp2rcd13ifvqhog","pricing_plan_id":"free"},{"bike_id":"424bde45-b39b-4e4d-9d03-74e00f218813","system_id":"levelo_inurba_marseille","lat":43.29601,"lon":5.38099,"is_reserved":false,"is_disabled":false,"rental_uris":{"android":"levelo://app?vid=424bde45-b39b-4e4d-9d03-74e00f218813","ios":"levelo://app?vid=424bde45-b39b-4e4d-9d03-74e00f218813"},"vehicle_type_id":"4","last_reported":1685407179,"current_range_meters":30000,"station_id":"","pricing_plan_id":"free"},{"bike_id":"489d5aae-e056-4ed8-9fdf-fafd552f0c27","system_id":"levelo_inurba_marseille","lat":43.29893,"lon":5.38625,"is_reserved":false,"is_disabled":false,"rental_uris":{"android":"levelo://app?vid=489d5aae-e056-4ed8-9fdf-fafd552f0c27","ios":"levelo://app?vid=489d5aae-e056-4ed8-9fdf-fafd552f0c27"},"vehicle_type_id":"4","last_reported":1685407179,"current_range_meters":17200,"station_id":"","pricing_plan_id":"free"},{"bike_id":"8d9380e2-251a-4be8-81d4-0367566e34d4","system_id":"levelo_inurba_marseille","lat":43.29306,"lon":5.37159,"is_reserved":false,"is_disabled":false,"rental_uris":{"android":"levelo://app?vid=8d9380e2-251a-4be8-81d4-0367566e34d4","ios":"levelo://app?vid=8d9380e2-251a-4be8-81d4-0367566e34d4"},"vehicle_type_id":"4","last_reported":1685407179,"current_range_meters":0,"station_id":"ce4bgh92rcd13ifvqb40","pricing_plan_id":"free"},{"bike_id":"f7983b47-f344-4823-954c-0cfa2671d49d","system_id":"levelo_inurba_marseille","lat":43.302992,"lon":5.392136,"is_reserved":false,"is_disabled":false,"rental_uris":{"android":"levelo://app?vid=f7983b47-f344-4823-954c-0cfa2671d49d","ios":"levelo://app?vid=f7983b47-f344-4823-954c-0cfa2671d49d"},"vehicle_type_id":"4","last_reported":1685407179,"current_range_meters":28800,"station_id":"ce4bgkh2rcd13ifvqbk0","pricing_plan_id":"free"},{"bike_id":"526e8797-7fe4-41c6-b046-9a97d0377d18","system_id":"levelo_inurba_marseille","lat":43.30085,"lon":5.390856,"is_reserved":false,"is_disabled":false,"rental_uris":{"android":"levelo://app?vid=526e8797-7fe4-41c6-b046-9a97d0377d18","ios":"levelo://app?vid=526e8797-7fe4-41c6-b046-9a97d0377d18"},"vehicle_type_id":"4","last_reported":1685407179,"current_range_meters":28000,"station_id":"ce4bh192rcd13ifvqdb0","pricing_plan_id":"free"},{"bike_id":"6eded208-95be-4ab0-a7a2-d3dc6b4a7af8","system_id":"levelo_inurba_marseille","lat":43.30085,"lon":5.390856,"is_reserved":false,"is_disabled":false,"rental_uris":{"android":"levelo://app?vid=6eded208-95be-4ab0-a7a2-d3dc6b4a7af8","ios":"levelo://app?vid=6eded208-95be-4ab0-a7a2-d3dc6b4a7af8"},"vehicle_type_id":"4","last_reported":1685407179,"current_range_meters":27200,"station_id":"ce4bh192rcd13ifvqdb0","pricing_plan_id":"free"},{"bike_id":"6b392ac7-d4c2-47d5-ba55-47e212790911","system_id":"levelo_inurba_marseille","lat":43.30892,"lon":5.39629,"is_reserved":false,"is_disabled":false,"rental_uris":{"android":"levelo://app?vid=6b392ac7-d4c2-47d5-ba55-47e212790911","ios":"levelo://app?vid=6b392ac7-d4c2-47d5-ba55-47e212790911"},"vehicle_type_id":"4","last_reported":1685407179,"current_range_meters":31200,"station_id":"ce4bh012rcd13ifvqcv0","pricing_plan_id":"free"},{"bike_id":"e039994a-6162-4aa7-824e-36afa056beb7","system_id":"levelo_inurba_marseille","lat":43.309038,"lon":5.396546,"is_reserved":false,"is_disabled":false,"rental_uris":{"android":"levelo://app?vid=e039994a-6162-4aa7-824e-36afa056beb7","ios":"levelo://app?vid=e039994a-6162-4aa7-824e-36afa056beb7"},"vehicle_type_id":"4","last_reported":1685407179,"current_range_meters":24400,"station_id":"ce4bh012rcd13ifvqcv0","pricing_plan_id":"free"},{"bike_id":"d0b6e14f-45a2-42a4-9a9f-9f37c19a68c8","system_id":"levelo_inurba_marseille","lat":43.309038,"lon":5.396546,"is_reserved":false,"is_disabled":false,"rental_uris":{"android":"levelo://app?vid=d0b6e14f-45a2-42a4-9a9f-9f37c19a68c8","ios":"levelo://app?vid=d0b6e14f-45a2-42a4-9a9f-9f37c19a68c8"},"vehicle_type_id":"4","last_reported":1685407179,"current_range_meters":31200,"station_id":"ce4bh012rcd13ifvqcv0","pricing_plan_id":"free"},{"bike_id":"111b5415-95a9-4206-a13d-effaf8788d28","system_id":"levelo_inurba_marseille","lat":43.309038,"lon":5.396546,"is_reserved":false,"is_disabled":false,"rental_uris":{"android":"levelo://app?vid=111b5415-95a9-4206-a13d-effaf8788d28","ios":"levelo://app?vid=111b5415-95a9-4206-a13d-effaf8788d28"},"vehicle_type_id":"4","last_reported":1685407179,"current_range_meters":16400,"station_id":"ce4bh012rcd13ifvqcv0","pricing_plan_id":"free"},{"bike_id":"8649da42-9253-42c3-adef-ebe24c61f84f","system_id":"levelo_inurba_marseille","lat":43.309038,"lon":5.396546,"is_reserved":false,"is_disabled":false,"rental_uris":{"android":"levelo://app?vid=8649da42-9253-42c3-adef-ebe24c61f84f","ios":"levelo://app?vid=8649da42-9253-42c3-adef-ebe24c61f84f"},"vehicle_type_id":"4","last_reported":1685407179,"current_range_meters":10000,"station_id":"ce4bh012rcd13ifvqcv0","pricing_plan_id":"free"},{"bike_id":"2a4760d2-1a38-4cf5-b1ba-1635729dc47a","system_id":"levelo_inurba_marseille","lat":43.309038,"lon":5.396546,"is_reserved":false,"is_disabled":false,"rental_uris":{"android":"levelo://app?vid=2a4760d2-1a38-4cf5-b1ba-1635729dc47a","ios":"levelo://app?vid=2a4760d2-1a38-4cf5-b1ba-1635729dc47a"},"vehicle_type_id":"4","last_reported":1685407179,"current_range_meters":28800,"station_id":"ce4bh012rcd13ifvqcv0","pricing_plan_id":"free"},{"bike_id":"150af1ec-306f-4ac6-a398-b989a01e9d6c","system_id":"levelo_inurba_marseille","lat":43.309038,"lon":5.396546,"is_reserved":false,"is_disabled":false,"rental_uris":{"android":"levelo://app?vid=150af1ec-306f-4ac6-a398-b989a01e9d6c","ios":"levelo://app?vid=150af1ec-306f-4ac6-a398-b989a01e9d6c"},"vehicle_type_id":"4","last_reported":1685407179,"current_range_meters":31200,"station_id":"ce4bh012rcd13ifvqcv0","pricing_plan_id":"free"},{"bike_id":"87313bea-0c5e-47f5-a3c9-98a2270389a7","system_id":"levelo_inurba_marseille","lat":43.309038,"lon":5.396546,"is_reserved":false,"is_disabled":false,"rental_uris":{"android":"levelo://app?vid=87313bea-0c5e-47f5-a3c9-98a2270389a7","ios":"levelo://app?vid=87313bea-0c5e-47f5-a3c9-98a2270389a7"},"vehicle_type_id":"4","last_reported":1685407179,"current_range_meters":29600,"station_id":"ce4bh012rcd13ifvqcv0","pricing_plan_id":"free"},{"bike_id":"83b297ac-0a4f-4d68-83ab-27f4c9276387","system_id":"levelo_inurba_marseille","lat":43.30887,"lon":5.3964,"is_reserved":false,"is_disabled":false,"rental_uris":{"android":"levelo://app?vid=83b297ac-0a4f-4d68-83ab-27f4c9276387","ios":"levelo://app?vid=83b297ac-0a4f-4d68-83ab-27f4c9276387"},"vehicle_type_id":"4","last_reported":1685407179,"current_range_meters":31200,"station_id":"ce4bh012rcd13ifvqcv0","pricing_plan_id":"free"},{"bike_id":"d2054d1f-5701-4dc8-b46d-cd16b241557c","system_id":"levelo_inurba_marseille","lat":43.313291,"lon":5.396838,"is_reserved":false,"is_disabled":false,"rental_uris":{"android":"levelo://app?vid=d2054d1f-5701-4dc8-b46d-cd16b241557c","ios":"levelo://app?vid=d2054d1f-5701-4dc8-b46d-cd16b241557c"},"vehicle_type_id":"4","last_reported":1685407179,"current_range_meters":16000,"station_id":"ce4bgvp2rcd13ifvqcu0","pricing_plan_id":"free"},{"bike_id":"fb02c64a-0342-49a0-8869-f96219ce4c51","system_id":"levelo_inurba_marseille","lat":43.30886,"lon":5.39641,"is_reserved":false,"is_disabled":false,"rental_uris":{"android":"levelo://app?vid=fb02c64a-0342-49a0-8869-f96219ce4c51","ios":"levelo://app?vid=fb02c64a-0342-49a0-8869-f96219ce4c51"},"vehicle_type_id":"4","last_reported":1685407179,"current_range_meters":16800,"station_id":"ce4bh012rcd13ifvqcv0","pricing_plan_id":"free"},{"bike_id":"5ab9a285-504e-4383-a97c-558b9431d0d9","system_id":"levelo_inurba_marseille","lat":43.29191,"lon":5.35803,"is_reserved":false,"is_disabled":false,"rental_uris":{"android":"levelo://app?vid=5ab9a285-504e-4383-a97c-558b9431d0d9","ios":"levelo://app?vid=5ab9a285-504e-4383-a97c-558b9431d0d9"},"vehicle_type_id":"4","last_reported":1685407179,"current_range_meters":21200,"station_id":"ce4bhb12rcd13ifvqel0","pricing_plan_id":"free"},{"bike_id":"1a6ccf3f-757f-4bf6-a55e-3ab3d615d803","system_id":"levelo_inurba_marseille","lat":43.291994,"lon":5.357886,"is_reserved":false,"is_disabled":false,"rental_uris":{"android":"levelo://app?vid=1a6ccf3f-757f-4bf6-a55e-3ab3d615d803","ios":"levelo://app?vid=1a6ccf3f-757f-4bf6-a55e-3ab3d615d803"},"vehicle_type_id":"4","last_reported":1685407179,"current_range_meters":20400,"station_id":"ce4bhb12rcd13ifvqel0","pricing_plan_id":"free"},{"bike_id":"fa9e0433-dcf4-413e-903d-3a22394dc660","system_id":"levelo_inurba_marseille","lat":43.309038,"lon":5.396546,"is_reserved":false,"is_disabled":false,"rental_uris":{"android":"levelo://app?vid=fa9e0433-dcf4-413e-903d-3a22394dc660","ios":"levelo://app?vid=fa9e0433-dcf4-413e-903d-3a22394dc660"},"vehicle_type_id":"4","last_reported":1685407179,"current_range_meters":25200,"station_id":"ce4bh012rcd13ifvqcv0","pricing_plan_id":"free"},{"bike_id":"d84748ca-56de-4c39-8d97-8763d6af5c17","system_id":"levelo_inurba_marseille","lat":43.313291,"lon":5.396838,"is_reserved":false,"is_disabled":false,"rental_uris":{"android":"levelo://app?vid=d84748ca-56de-4c39-8d97-8763d6af5c17","ios":"levelo://app?vid=d84748ca-56de-4c39-8d97-8763d6af5c17"},"vehicle_type_id":"4","last_reported":1685407179,"current_range_meters":17600,"station_id":"ce4bgvp2rcd13ifvqcu0","pricing_plan_id":"free"},{"bike_id":"1ccf3a3c-f7b8-49b2-881a-426c6317875b","system_id":"levelo_inurba_marseille","lat":43.309038,"lon":5.396546,"is_reserved":false,"is_disabled":false,"rental_uris":{"android":"levelo://app?vid=1ccf3a3c-f7b8-49b2-881a-426c6317875b","ios":"levelo://app?vid=1ccf3a3c-f7b8-49b2-881a-426c6317875b"},"vehicle_type_id":"4","last_reported":1685407179,"current_range_meters":7200,"station_id":"ce4bh012rcd13ifvqcv0","pricing_plan_id":"free"},{"bike_id":"bc17d2b5-5d04-49c9-8ec1-af0fde3cab74","system_id":"levelo_inurba_marseille","lat":43.30217,"lon":5.39464,"is_reserved":false,"is_disabled":false,"rental_uris":{"android":"levelo://app?vid=bc17d2b5-5d04-49c9-8ec1-af0fde3cab74","ios":"levelo://app?vid=bc17d2b5-5d04-49c9-8ec1-af0fde3cab74"},"vehicle_type_id":"4","last_reported":1685407179,"current_range_meters":11600,"station_id":"ce4bh0p2rcd13ifvqd70","pricing_plan_id":"free"},{"bike_id":"6735f361-a4bd-4b38-8f3a-03c1195b3ca7","system_id":"levelo_inurba_marseille","lat":43.30214,"lon":5.39471,"is_reserved":false,"is_disabled":false,"rental_uris":{"android":"levelo://app?vid=6735f361-a4bd-4b38-8f3a-03c1195b3ca7","ios":"levelo://app?vid=6735f361-a4bd-4b38-8f3a-03c1195b3ca7"},"vehicle_type_id":"4","last_reported":1685407179,"current_range_meters":21200,"station_id":"ce4bh0p2rcd13ifvqd70","pricing_plan_id":"free"},{"bike_id":"de23916f-38ef-44e7-b4cf-d998d088b450","system_id":"levelo_inurba_marseille","lat":43.289184,"lon":5.366408,"is_reserved":false,"is_disabled":false,"rental_uris":{"android":"levelo://app?vid=de23916f-38ef-44e7-b4cf-d998d088b450","ios":"levelo://app?vid=de23916f-38ef-44e7-b4cf-d998d088b450"},"vehicle_type_id":"4","last_reported":1685407179,"current_range_meters":22800,"station_id":"ce4bhap2rcd13ifvqek0","pricing_plan_id":"free"},{"bike_id":"9092fac9-1069-4097-b20b-6540758082b3","system_id":"levelo_inurba_marseille","lat":43.289184,"lon":5.366408,"is_reserved":false,"is_disabled":false,"rental_uris":{"android":"levelo://app?vid=9092fac9-1069-4097-b20b-6540758082b3","ios":"levelo://app?vid=9092fac9-1069-4097-b20b-6540758082b3"},"vehicle_type_id":"4","last_reported":1685407179,"current_range_meters":17200,"station_id":"ce4bhap2rcd13ifvqek0","pricing_plan_id":"free"},{"bike_id":"0c575fd2-9acd-4218-9aae-584ea34810ec","system_id":"levelo_inurba_marseille","lat":43.289184,"lon":5.366408,"is_reserved":false,"is_disabled":false,"rental_uris":{"android":"levelo://app?vid=0c575fd2-9acd-4218-9aae-584ea34810ec","ios":"levelo://app?vid=0c575fd2-9acd-4218-9aae-584ea34810ec"},"vehicle_type_id":"4","last_reported":1685407179,"current_range_meters":20800,"station_id":"ce4bhap2rcd13ifvqek0","pricing_plan_id":"free"},{"bike_id":"4065111e-1274-453f-932f-f63cdac7407f","system_id":"levelo_inurba_marseille","lat":43.289184,"lon":5.366408,"is_reserved":false,"is_disabled":false,"rental_uris":{"android":"levelo://app?vid=4065111e-1274-453f-932f-f63cdac7407f","ios":"levelo://app?vid=4065111e-1274-453f-932f-f63cdac7407f"},"vehicle_type_id":"4","last_reported":1685407179,"current_range_meters":15600,"station_id":"ce4bhap2rcd13ifvqek0","pricing_plan_id":"free"},{"bike_id":"02f60197-c8fa-4df0-bfa5-d3465de7901d","system_id":"levelo_inurba_marseille","lat":43.289184,"lon":5.366408,"is_reserved":false,"is_disabled":false,"rental_uris":{"android":"levelo://app?vid=02f60197-c8fa-4df0-bfa5-d3465de7901d","ios":"levelo://app?vid=02f60197-c8fa-4df0-bfa5-d3465de7901d"},"vehicle_type_id":"4","last_reported":1685407179,"current_range_meters":27200,"station_id":"ce4bhap2rcd13ifvqek0","pricing_plan_id":"free"},{"bike_id":"73f9abd4-dfa3-45b3-8f2b-00065b6a6a1e","system_id":"levelo_inurba_marseille","lat":43.289184,"lon":5.366408,"is_reserved":false,"is_disabled":false,"rental_uris":{"android":"levelo://app?vid=73f9abd4-dfa3-45b3-8f2b-00065b6a6a1e","ios":"levelo://app?vid=73f9abd4-dfa3-45b3-8f2b-00065b6a6a1e"},"vehicle_type_id":"4","last_reported":1685407179,"current_range_meters":18400,"station_id":"ce4bhap2rcd13ifvqek0","pricing_plan_id":"free"},{"bike_id":"7602c8d3-1488-4d9b-8d10-e6a0bfb64a28","system_id":"levelo_inurba_marseille","lat":43.289184,"lon":5.366408,"is_reserved":false,"is_disabled":false,"rental_uris":{"android":"levelo://app?vid=7602c8d3-1488-4d9b-8d10-e6a0bfb64a28","ios":"levelo://app?vid=7602c8d3-1488-4d9b-8d10-e6a0bfb64a28"},"vehicle_type_id":"4","last_reported":1685407179,"current_range_meters":1200,"station_id":"ce4bhap2rcd13ifvqek0","pricing_plan_id":"free"},{"bike_id":"19574ecc-7e12-407c-85bc-4c5138627756","system_id":"levelo_inurba_marseille","lat":43.289184,"lon":5.366408,"is_reserved":false,"is_disabled":false,"rental_uris":{"android":"levelo://app?vid=19574ecc-7e12-407c-85bc-4c5138627756","ios":"levelo://app?vid=19574ecc-7e12-407c-85bc-4c5138627756"},"vehicle_type_id":"4","last_reported":1685407179,"current_range_meters":14800,"station_id":"ce4bhap2rcd13ifvqek0","pricing_plan_id":"free"},{"bike_id":"9e766668-2ddf-4ba8-b9c8-516dd148841c","system_id":"levelo_inurba_marseille","lat":43.289184,"lon":5.366408,"is_reserved":false,"is_disabled":false,"rental_uris":{"android":"levelo://app?vid=9e766668-2ddf-4ba8-b9c8-516dd148841c","ios":"levelo://app?vid=9e766668-2ddf-4ba8-b9c8-516dd148841c"},"vehicle_type_id":"4","last_reported":1685407179,"current_range_meters":4800,"station_id":"ce4bhap2rcd13ifvqek0","pricing_plan_id":"free"},{"bike_id":"808310db-dd4c-41e3-9225-e07e2944801b","system_id":"levelo_inurba_marseille","lat":43.289184,"lon":5.366408,"is_reserved":false,"is_disabled":false,"rental_uris":{"android":"levelo://app?vid=808310db-dd4c-41e3-9225-e07e2944801b","ios":"levelo://app?vid=808310db-dd4c-41e3-9225-e07e2944801b"},"vehicle_type_id":"4","last_reported":1685407179,"current_range_meters":10800,"station_id":"ce4bhap2rcd13ifvqek0","pricing_plan_id":"free"},{"bike_id":"1f7165ee-9379-4a75-8c20-799419d22dd9","system_id":"levelo_inurba_marseille","lat":43.289468,"lon":5.363719,"is_reserved":false,"is_disabled":false,"rental_uris":{"android":"levelo://app?vid=1f7165ee-9379-4a75-8c20-799419d22dd9","ios":"levelo://app?vid=1f7165ee-9379-4a75-8c20-799419d22dd9"},"vehicle_type_id":"4","last_reported":1685407179,"current_range_meters":26000,"station_id":"ce4bhc92rcd13ifvqetg","pricing_plan_id":"free"},{"bike_id":"74523e2a-6966-4b78-aa66-faea97e87801","system_id":"levelo_inurba_marseille","lat":43.29272,"lon":5.384377,"is_reserved":false,"is_disabled":false,"rental_uris":{"android":"levelo://app?vid=74523e2a-6966-4b78-aa66-faea97e87801","ios":"levelo://app?vid=74523e2a-6966-4b78-aa66-faea97e87801"},"vehicle_type_id":"4","last_reported":1685407179,"current_range_meters":1600,"station_id":"ce4bh692rcd13ifvqea0","pricing_plan_id":"free"},{"bike_id":"aaef7ea3-ef0e-4a86-b4ff-80c4e237903e","system_id":"levelo_inurba_marseille","lat":43.304296,"lon":5.397513,"is_reserved":false,"is_disabled":false,"rental_uris":{"android":"levelo://app?vid=aaef7ea3-ef0e-4a86-b4ff-80c4e237903e","ios":"levelo://app?vid=aaef7ea3-ef0e-4a86-b4ff-80c4e237903e"},"vehicle_type_id":"4","last_reported":1685407179,"current_range_meters":21200,"station_id":"ce4bh092rcd13ifvqd20","pricing_plan_id":"free"},{"bike_id":"84d6c3a1-d04f-4508-91b8-b41c9f60e2b4","system_id":"levelo_inurba_marseille","lat":43.304274,"lon":5.397513,"is_reserved":false,"is_disabled":false,"rental_uris":{"android":"levelo://app?vid=84d6c3a1-d04f-4508-91b8-b41c9f60e2b4","ios":"levelo://app?vid=84d6c3a1-d04f-4508-91b8-b41c9f60e2b4"},"vehicle_type_id":"4","last_reported":1685407179,"current_range_meters":29600,"station_id":"ce4bh092rcd13ifvqd20","pricing_plan_id":"free"},{"bike_id":"a8a0a2ce-882c-480d-9c8d-104ff0262970","system_id":"levelo_inurba_marseille","lat":43.33044,"lon":5.38917,"is_reserved":false,"is_disabled":false,"rental_uris":{"android":"levelo://app?vid=a8a0a2ce-882c-480d-9c8d-104ff0262970","ios":"levelo://app?vid=a8a0a2ce-882c-480d-9c8d-104ff0262970"},"vehicle_type_id":"4","last_reported":1685407179,"current_range_meters":10800,"station_id":"ce4bhr92rcd13ifvqhrg","pricing_plan_id":"free"},{"bike_id":"564d3e59-d93d-40c3-94dc-7be13df0c78d","system_id":"levelo_inurba_marseille","lat":43.290104,"lon":5.356111,"is_reserved":false,"is_disabled":false,"rental_uris":{"android":"levelo://app?vid=564d3e59-d93d-40c3-94dc-7be13df0c78d","ios":"levelo://app?vid=564d3e59-d93d-40c3-94dc-7be13df0c78d"},"vehicle_type_id":"4","last_reported":1685407179,"current_range_meters":20400,"station_id":"ce4bhb92rcd13ifvqen0","pricing_plan_id":"free"},{"bike_id":"a4a578cb-b70c-4b5b-9cc9-c1971e44dee2","system_id":"levelo_inurba_marseille","lat":43.290104,"lon":5.356111,"is_reserved":false,"is_disabled":false,"rental_uris":{"android":"levelo://app?vid=a4a578cb-b70c-4b5b-9cc9-c1971e44dee2","ios":"levelo://app?vid=a4a578cb-b70c-4b5b-9cc9-c1971e44dee2"},"vehicle_type_id":"4","last_reported":1685407179,"current_range_meters":12400,"station_id":"ce4bhb92rcd13ifvqen0","pricing_plan_id":"free"},{"bike_id":"5ce57644-4ffa-47e2-8542-af764691264c","system_id":"levelo_inurba_marseille","lat":43.33046,"lon":5.38918,"is_reserved":false,"is_disabled":false,"rental_uris":{"android":"levelo://app?vid=5ce57644-4ffa-47e2-8542-af764691264c","ios":"levelo://app?vid=5ce57644-4ffa-47e2-8542-af764691264c"},"vehicle_type_id":"4","last_reported":1685407179,"current_range_meters":5600,"station_id":"ce4bhr92rcd13ifvqhrg","pricing_plan_id":"free"},{"bike_id":"eb2ddfe4-4895-492a-9ef3-9d8d5fc8230b","system_id":"levelo_inurba_marseille","lat":43.33051,"lon":5.38911,"is_reserved":false,"is_disabled":false,"rental_uris":{"android":"levelo://app?vid=eb2ddfe4-4895-492a-9ef3-9d8d5fc8230b","ios":"levelo://app?vid=eb2ddfe4-4895-492a-9ef3-9d8d5fc8230b"},"vehicle_type_id":"4","last_reported":1685407179,"current_range_meters":0,"station_id":"ce4bhr92rcd13ifvqhrg","pricing_plan_id":"free"},{"bike_id":"54d764ef-057c-40e6-ae69-f7680e8f282b","system_id":"levelo_inurba_marseille","lat":43.29266,"lon":5.38601,"is_reserved":false,"is_disabled":false,"rental_uris":{"android":"levelo://app?vid=54d764ef-057c-40e6-ae69-f7680e8f282b","ios":"levelo://app?vid=54d764ef-057c-40e6-ae69-f7680e8f282b"},"vehicle_type_id":"4","last_reported":1685407179,"current_range_meters":28000,"station_id":"ce4bh0p2rcd13ifvqd80","pricing_plan_id":"free"},{"bike_id":"42e6983f-c75a-4eda-b190-c6ed2031b930","system_id":"levelo_inurba_marseille","lat":43.28856,"lon":5.358371,"is_reserved":false,"is_disabled":false,"rental_uris":{"android":"levelo://app?vid=42e6983f-c75a-4eda-b190-c6ed2031b930","ios":"levelo://app?vid=42e6983f-c75a-4eda-b190-c6ed2031b930"},"vehicle_type_id":"4","last_reported":1685407179,"current_range_meters":31200,"station_id":"ce4bhb12rcd13ifvqem0","pricing_plan_id":"free"},{"bike_id":"c489c315-9814-406d-b013-9d24d8f0f8be","system_id":"levelo_inurba_marseille","lat":43.28844,"lon":5.35873,"is_reserved":false,"is_disabled":false,"rental_uris":{"android":"levelo://app?vid=c489c315-9814-406d-b013-9d24d8f0f8be","ios":"levelo://app?vid=c489c315-9814-406d-b013-9d24d8f0f8be"},"vehicle_type_id":"4","last_reported":1685407179,"current_range_meters":12800,"station_id":"","pricing_plan_id":"free"},{"bike_id":"c89e618b-08ac-48e5-bc01-dcd069c2fa98","system_id":"levelo_inurba_marseille","lat":43.28856,"lon":5.358371,"is_reserved":false,"is_disabled":false,"rental_uris":{"android":"levelo://app?vid=c89e618b-08ac-48e5-bc01-dcd069c2fa98","ios":"levelo://app?vid=c89e618b-08ac-48e5-bc01-dcd069c2fa98"},"vehicle_type_id":"4","last_reported":1685407179,"current_range_meters":28000,"station_id":"ce4bhb12rcd13ifvqem0","pricing_plan_id":"free"},{"bike_id":"f4d17fcd-8946-477a-8649-71912602af4d","system_id":"levelo_inurba_marseille","lat":43.28856,"lon":5.358371,"is_reserved":false,"is_disabled":false,"rental_uris":{"android":"levelo://app?vid=f4d17fcd-8946-477a-8649-71912602af4d","ios":"levelo://app?vid=f4d17fcd-8946-477a-8649-71912602af4d"},"vehicle_type_id":"4","last_reported":1685407179,"current_range_meters":29600,"station_id":"ce4bhb12rcd13ifvqem0","pricing_plan_id":"free"},{"bike_id":"141c14ea-594b-43ee-894e-8c44af1dcd73","system_id":"levelo_inurba_marseille","lat":43.33741,"lon":5.37457,"is_reserved":false,"is_disabled":false,"rental_uris":{"android":"levelo://app?vid=141c14ea-594b-43ee-894e-8c44af1dcd73","ios":"levelo://app?vid=141c14ea-594b-43ee-894e-8c44af1dcd73"},"vehicle_type_id":"4","last_reported":1685407179,"current_range_meters":31200,"station_id":"","pricing_plan_id":"free"},{"bike_id":"493860ce-e063-4684-ab33-c360eaf64153","system_id":"levelo_inurba_marseille","lat":43.33744,"lon":5.37451,"is_reserved":false,"is_disabled":false,"rental_uris":{"android":"levelo://app?vid=493860ce-e063-4684-ab33-c360eaf64153","ios":"levelo://app?vid=493860ce-e063-4684-ab33-c360eaf64153"},"vehicle_type_id":"4","last_reported":1685407179,"current_range_meters":12400,"station_id":"","pricing_plan_id":"free"},{"bike_id":"c67b547c-3fcb-4384-8614-e15f558fec55","system_id":"levelo_inurba_marseille","lat":43.33744,"lon":5.37451,"is_reserved":false,"is_disabled":false,"rental_uris":{"android":"levelo://app?vid=c67b547c-3fcb-4384-8614-e15f558fec55","ios":"levelo://app?vid=c67b547c-3fcb-4384-8614-e15f558fec55"},"vehicle_type_id":"4","last_reported":1685407179,"current_range_meters":21600,"station_id":"","pricing_plan_id":"free"},{"bike_id":"556c6db1-2600-4c2b-9521-aae8453517c1","system_id":"levelo_inurba_marseille","lat":43.3375,"lon":5.37463,"is_reserved":false,"is_disabled":false,"rental_uris":{"android":"levelo://app?vid=556c6db1-2600-4c2b-9521-aae8453517c1","ios":"levelo://app?vid=556c6db1-2600-4c2b-9521-aae8453517c1"},"vehicle_type_id":"4","last_reported":1685407179,"current_range_meters":8000,"station_id":"","pricing_plan_id":"free"},{"bike_id":"5b9adb25-5416-43b4-b68b-894fc7969186","system_id":"levelo_inurba_marseille","lat":43.30642,"lon":5.401031,"is_reserved":false,"is_disabled":false,"rental_uris":{"android":"levelo://app?vid=5b9adb25-5416-43b4-b68b-894fc7969186","ios":"levelo://app?vid=5b9adb25-5416-43b4-b68b-894fc7969186"},"vehicle_type_id":"4","last_reported":1685407179,"current_range_meters":31200,"station_id":"ce4bh112rcd13ifvqda0","pricing_plan_id":"free"},{"bike_id":"708c0b63-71a9-4572-9cf4-14801ef4cae0","system_id":"levelo_inurba_marseille","lat":43.30642,"lon":5.401031,"is_reserved":false,"is_disabled":false,"rental_uris":{"android":"levelo://app?vid=708c0b63-71a9-4572-9cf4-14801ef4cae0","ios":"levelo://app?vid=708c0b63-71a9-4572-9cf4-14801ef4cae0"},"vehicle_type_id":"4","last_reported":1685407179,"current_range_meters":23600,"station_id":"ce4bh112rcd13ifvqda0","pricing_plan_id":"free"},{"bike_id":"29587ac5-5a5d-4b19-85d3-29ebc9ed137d","system_id":"levelo_inurba_marseille","lat":43.30642,"lon":5.401031,"is_reserved":false,"is_disabled":false,"rental_uris":{"android":"levelo://app?vid=29587ac5-5a5d-4b19-85d3-29ebc9ed137d","ios":"levelo://app?vid=29587ac5-5a5d-4b19-85d3-29ebc9ed137d"},"vehicle_type_id":"4","last_reported":1685407179,"current_range_meters":30800,"station_id":"ce4bh112rcd13ifvqda0","pricing_plan_id":"free"},{"bike_id":"c147154c-6e2a-483d-b1c9-4a7668c7b73b","system_id":"levelo_inurba_marseille","lat":43.30642,"lon":5.401031,"is_reserved":false,"is_disabled":false,"rental_uris":{"android":"levelo://app?vid=c147154c-6e2a-483d-b1c9-4a7668c7b73b","ios":"levelo://app?vid=c147154c-6e2a-483d-b1c9-4a7668c7b73b"},"vehicle_type_id":"4","last_reported":1685407179,"current_range_meters":31200,"station_id":"ce4bh112rcd13ifvqda0","pricing_plan_id":"free"},{"bike_id":"88eff76d-2f4f-4598-b8bf-a1e1ee974d5e","system_id":"levelo_inurba_marseille","lat":43.30642,"lon":5.401031,"is_reserved":false,"is_disabled":false,"rental_uris":{"android":"levelo://app?vid=88eff76d-2f4f-4598-b8bf-a1e1ee974d5e","ios":"levelo://app?vid=88eff76d-2f4f-4598-b8bf-a1e1ee974d5e"},"vehicle_type_id":"4","last_reported":1685407179,"current_range_meters":24800,"station_id":"ce4bh112rcd13ifvqda0","pricing_plan_id":"free"},{"bike_id":"21fc766d-c21a-4b5f-ab55-266de1de1997","system_id":"levelo_inurba_marseille","lat":43.30642,"lon":5.401031,"is_reserved":false,"is_disabled":false,"rental_uris":{"android":"levelo://app?vid=21fc766d-c21a-4b5f-ab55-266de1de1997","ios":"levelo://app?vid=21fc766d-c21a-4b5f-ab55-266de1de1997"},"vehicle_type_id":"4","last_reported":1685407179,"current_range_meters":31200,"station_id":"ce4bh112rcd13ifvqda0","pricing_plan_id":"free"},{"bike_id":"bef5636e-69c5-45c3-a1c1-15c6ae91439a","system_id":"levelo_inurba_marseille","lat":43.30642,"lon":5.401031,"is_reserved":false,"is_disabled":false,"rental_uris":{"android":"levelo://app?vid=bef5636e-69c5-45c3-a1c1-15c6ae91439a","ios":"levelo://app?vid=bef5636e-69c5-45c3-a1c1-15c6ae91439a"},"vehicle_type_id":"4","last_reported":1685407179,"current_range_meters":22000,"station_id":"ce4bh112rcd13ifvqda0","pricing_plan_id":"free"},{"bike_id":"5a3b6123-63b5-4f5e-851e-d3819bc51380","system_id":"levelo_inurba_marseille","lat":43.30642,"lon":5.401031,"is_reserved":false,"is_disabled":false,"rental_uris":{"android":"levelo://app?vid=5a3b6123-63b5-4f5e-851e-d3819bc51380","ios":"levelo://app?vid=5a3b6123-63b5-4f5e-851e-d3819bc51380"},"vehicle_type_id":"4","last_reported":1685407179,"current_range_meters":31200,"station_id":"ce4bh112rcd13ifvqda0","pricing_plan_id":"free"},{"bike_id":"3beb6f5b-1c52-4265-a939-3f3a1ae15d7a","system_id":"levelo_inurba_marseille","lat":43.30642,"lon":5.401031,"is_reserved":false,"is_disabled":false,"rental_uris":{"android":"levelo://app?vid=3beb6f5b-1c52-4265-a939-3f3a1ae15d7a","ios":"levelo://app?vid=3beb6f5b-1c52-4265-a939-3f3a1ae15d7a"},"vehicle_type_id":"4","last_reported":1685407179,"current_range_meters":27200,"station_id":"ce4bh112rcd13ifvqda0","pricing_plan_id":"free"},{"bike_id":"9f5934bd-90f4-4a7e-8f1d-13cd883e0ec6","system_id":"levelo_inurba_marseille","lat":43.30642,"lon":5.401031,"is_reserved":false,"is_disabled":false,"rental_uris":{"android":"levelo://app?vid=9f5934bd-90f4-4a7e-8f1d-13cd883e0ec6","ios":"levelo://app?vid=9f5934bd-90f4-4a7e-8f1d-13cd883e0ec6"},"vehicle_type_id":"4","last_reported":1685407179,"current_range_meters":20400,"station_id":"ce4bh112rcd13ifvqda0","pricing_plan_id":"free"},{"bike_id":"63a9223a-b042-46b7-8247-e66689d83fc0","system_id":"levelo_inurba_marseille","lat":43.301117,"lon":5.398795,"is_reserved":false,"is_disabled":false,"rental_uris":{"android":"levelo://app?vid=63a9223a-b042-46b7-8247-e66689d83fc0","ios":"levelo://app?vid=63a9223a-b042-46b7-8247-e66689d83fc0"},"vehicle_type_id":"4","last_reported":1685407179,"current_range_meters":31200,"station_id":"ce4bh0h2rcd13ifvqd40","pricing_plan_id":"free"},{"bike_id":"12efc254-3fb2-4f70-aeb6-bc4d3511f47f","system_id":"levelo_inurba_marseille","lat":43.301117,"lon":5.398795,"is_reserved":false,"is_disabled":false,"rental_uris":{"android":"levelo://app?vid=12efc254-3fb2-4f70-aeb6-bc4d3511f47f","ios":"levelo://app?vid=12efc254-3fb2-4f70-aeb6-bc4d3511f47f"},"vehicle_type_id":"4","last_reported":1685407179,"current_range_meters":0,"station_id":"ce4bh0h2rcd13ifvqd40","pricing_plan_id":"free"},{"bike_id":"b0b4f489-2855-415c-af10-f94745f59102","system_id":"levelo_inurba_marseille","lat":43.298681,"lon":5.397225,"is_reserved":false,"is_disabled":false,"rental_uris":{"android":"levelo://app?vid=b0b4f489-2855-415c-af10-f94745f59102","ios":"levelo://app?vid=b0b4f489-2855-415c-af10-f94745f59102"},"vehicle_type_id":"4","last_reported":1685407179,"current_range_meters":24800,"station_id":"ce4bh0h2rcd13ifvqd50","pricing_plan_id":"free"},{"bike_id":"6df02acd-b0bc-4eb6-bd3f-b43c1a7bb5b8","system_id":"levelo_inurba_marseille","lat":43.298681,"lon":5.397225,"is_reserved":false,"is_disabled":false,"rental_uris":{"android":"levelo://app?vid=6df02acd-b0bc-4eb6-bd3f-b43c1a7bb5b8","ios":"levelo://app?vid=6df02acd-b0bc-4eb6-bd3f-b43c1a7bb5b8"},"vehicle_type_id":"4","last_reported":1685407179,"current_range_meters":29600,"station_id":"ce4bh0h2rcd13ifvqd50","pricing_plan_id":"free"},{"bike_id":"b54ddb2c-a35d-4aed-8f7d-0ef06a3c3408","system_id":"levelo_inurba_marseille","lat":43.286593,"lon":5.363346,"is_reserved":false,"is_disabled":false,"rental_uris":{"android":"levelo://app?vid=b54ddb2c-a35d-4aed-8f7d-0ef06a3c3408","ios":"levelo://app?vid=b54ddb2c-a35d-4aed-8f7d-0ef06a3c3408"},"vehicle_type_id":"4","last_reported":1685407179,"current_range_meters":25600,"station_id":"ce4bhah2rcd13ifvqej0","pricing_plan_id":"free"},{"bike_id":"f2f4f834-0c25-4caf-99a4-fbf1b987b888","system_id":"levelo_inurba_marseille","lat":43.286591,"lon":5.363346,"is_reserved":false,"is_disabled":false,"rental_uris":{"android":"levelo://app?vid=f2f4f834-0c25-4caf-99a4-fbf1b987b888","ios":"levelo://app?vid=f2f4f834-0c25-4caf-99a4-fbf1b987b888"},"vehicle_type_id":"4","last_reported":1685407179,"current_range_meters":31200,"station_id":"ce4bhah2rcd13ifvqej0","pricing_plan_id":"free"},{"bike_id":"dce172b4-a850-4dea-912d-98d98e663f54","system_id":"levelo_inurba_marseille","lat":43.286591,"lon":5.363346,"is_reserved":false,"is_disabled":false,"rental_uris":{"android":"levelo://app?vid=dce172b4-a850-4dea-912d-98d98e663f54","ios":"levelo://app?vid=dce172b4-a850-4dea-912d-98d98e663f54"},"vehicle_type_id":"4","last_reported":1685407179,"current_range_meters":20800,"station_id":"ce4bhah2rcd13ifvqej0","pricing_plan_id":"free"},{"bike_id":"6e24403a-4f3b-421b-bc90-c11813432d91","system_id":"levelo_inurba_marseille","lat":43.286591,"lon":5.363346,"is_reserved":false,"is_disabled":false,"rental_uris":{"android":"levelo://app?vid=6e24403a-4f3b-421b-bc90-c11813432d91","ios":"levelo://app?vid=6e24403a-4f3b-421b-bc90-c11813432d91"},"vehicle_type_id":"4","last_reported":1685407179,"current_range_meters":22800,"station_id":"ce4bhah2rcd13ifvqej0","pricing_plan_id":"free"},{"bike_id":"e2e15a3d-96f2-4aa1-b243-1c64aff9baf2","system_id":"levelo_inurba_marseille","lat":43.30937,"lon":5.40276,"is_reserved":false,"is_disabled":false,"rental_uris":{"android":"levelo://app?vid=e2e15a3d-96f2-4aa1-b243-1c64aff9baf2","ios":"levelo://app?vid=e2e15a3d-96f2-4aa1-b243-1c64aff9baf2"},"vehicle_type_id":"4","last_reported":1685407179,"current_range_meters":1600,"station_id":"","pricing_plan_id":"free"},{"bike_id":"b161f55b-f518-4788-a784-54e2516213e1","system_id":"levelo_inurba_marseille","lat":43.295194,"lon":5.39397,"is_reserved":false,"is_disabled":false,"rental_uris":{"android":"levelo://app?vid=b161f55b-f518-4788-a784-54e2516213e1","ios":"levelo://app?vid=b161f55b-f518-4788-a784-54e2516213e1"},"vehicle_type_id":"4","last_reported":1685407179,"current_range_meters":16400,"station_id":"ce4bh292rcd13ifvqdf0","pricing_plan_id":"free"},{"bike_id":"0aabc8ae-63f0-4954-b2df-0a34d6ee7bad","system_id":"levelo_inurba_marseille","lat":43.302759,"lon":5.400793,"is_reserved":false,"is_disabled":false,"rental_uris":{"android":"levelo://app?vid=0aabc8ae-63f0-4954-b2df-0a34d6ee7bad","ios":"levelo://app?vid=0aabc8ae-63f0-4954-b2df-0a34d6ee7bad"},"vehicle_type_id":"4","last_reported":1685407179,"current_range_meters":27600,"station_id":"ce4bgvh2rcd13ifvqcs0","pricing_plan_id":"free"},{"bike_id":"0f4f9c03-73db-4143-9774-9958db660fac","system_id":"levelo_inurba_marseille","lat":43.302759,"lon":5.400793,"is_reserved":false,"is_disabled":false,"rental_uris":{"android":"levelo://app?vid=0f4f9c03-73db-4143-9774-9958db660fac","ios":"levelo://app?vid=0f4f9c03-73db-4143-9774-9958db660fac"},"vehicle_type_id":"4","last_reported":1685407179,"current_range_meters":31200,"station_id":"ce4bgvh2rcd13ifvqcs0","pricing_plan_id":"free"},{"bike_id":"2f866c9d-bc73-4fe6-a20c-a7f13a1f9fad","system_id":"levelo_inurba_marseille","lat":43.30252,"lon":5.4005,"is_reserved":false,"is_disabled":false,"rental_uris":{"android":"levelo://app?vid=2f866c9d-bc73-4fe6-a20c-a7f13a1f9fad","ios":"levelo://app?vid=2f866c9d-bc73-4fe6-a20c-a7f13a1f9fad"},"vehicle_type_id":"4","last_reported":1685407179,"current_range_meters":25200,"station_id":"","pricing_plan_id":"free"},{"bike_id":"6ba4cd76-914e-407a-ac32-5b0536449eb2","system_id":"levelo_inurba_marseille","lat":43.302759,"lon":5.400793,"is_reserved":false,"is_disabled":false,"rental_uris":{"android":"levelo://app?vid=6ba4cd76-914e-407a-ac32-5b0536449eb2","ios":"levelo://app?vid=6ba4cd76-914e-407a-ac32-5b0536449eb2"},"vehicle_type_id":"4","last_reported":1685407179,"current_range_meters":28000,"station_id":"ce4bgvh2rcd13ifvqcs0","pricing_plan_id":"free"},{"bike_id":"5392febc-043f-4790-9ffe-a8c373b73257","system_id":"levelo_inurba_marseille","lat":43.302759,"lon":5.400793,"is_reserved":false,"is_disabled":false,"rental_uris":{"android":"levelo://app?vid=5392febc-043f-4790-9ffe-a8c373b73257","ios":"levelo://app?vid=5392febc-043f-4790-9ffe-a8c373b73257"},"vehicle_type_id":"4","last_reported":1685407179,"current_range_meters":31200,"station_id":"ce4bgvh2rcd13ifvqcs0","pricing_plan_id":"free"},{"bike_id":"514c97f6-62e1-4619-8865-41c348184662","system_id":"levelo_inurba_marseille","lat":43.30247,"lon":5.40058,"is_reserved":false,"is_disabled":false,"rental_uris":{"android":"levelo://app?vid=514c97f6-62e1-4619-8865-41c348184662","ios":"levelo://app?vid=514c97f6-62e1-4619-8865-41c348184662"},"vehicle_type_id":"4","last_reported":1685407179,"current_range_meters":31200,"station_id":"","pricing_plan_id":"free"},{"bike_id":"813fed8e-f89b-4149-9adc-03b8d12662fb","system_id":"levelo_inurba_marseille","lat":43.3026,"lon":5.40069,"is_reserved":false,"is_disabled":false,"rental_uris":{"android":"levelo://app?vid=813fed8e-f89b-4149-9adc-03b8d12662fb","ios":"levelo://app?vid=813fed8e-f89b-4149-9adc-03b8d12662fb"},"vehicle_type_id":"4","last_reported":1685407179,"current_range_meters":30400,"station_id":"","pricing_plan_id":"free"},{"bike_id":"58cc29a9-9942-410a-94b6-a7fcb0039763","system_id":"levelo_inurba_marseille","lat":43.3024,"lon":5.40059,"is_reserved":false,"is_disabled":false,"rental_uris":{"android":"levelo://app?vid=58cc29a9-9942-410a-94b6-a7fcb0039763","ios":"levelo://app?vid=58cc29a9-9942-410a-94b6-a7fcb0039763"},"vehicle_type_id":"4","last_reported":1685407179,"current_range_meters":30000,"station_id":"","pricing_plan_id":"free"},{"bike_id":"acd6876f-52fc-47a5-a5f4-208c0aeaf6d4","system_id":"levelo_inurba_marseille","lat":43.30254,"lon":5.4007,"is_reserved":false,"is_disabled":false,"rental_uris":{"android":"levelo://app?vid=acd6876f-52fc-47a5-a5f4-208c0aeaf6d4","ios":"levelo://app?vid=acd6876f-52fc-47a5-a5f4-208c0aeaf6d4"},"vehicle_type_id":"4","last_reported":1685407179,"current_range_meters":29600,"station_id":"ce4bgvh2rcd13ifvqcs0","pricing_plan_id":"free"},{"bike_id":"c15283a6-a082-4687-af82-65ed515bd692","system_id":"levelo_inurba_marseille","lat":43.287185,"lon":5.379373,"is_reserved":false,"is_disabled":false,"rental_uris":{"android":"levelo://app?vid=c15283a6-a082-4687-af82-65ed515bd692","ios":"levelo://app?vid=c15283a6-a082-4687-af82-65ed515bd692"},"vehicle_type_id":"4","last_reported":1685407179,"current_range_meters":23200,"station_id":"ce4bh9p2rcd13ifvqec0","pricing_plan_id":"free"},{"bike_id":"4254c66c-5909-4d21-bb42-4a6b3ae89a26","system_id":"levelo_inurba_marseille","lat":43.3164,"lon":5.40432,"is_reserved":false,"is_disabled":false,"rental_uris":{"android":"levelo://app?vid=4254c66c-5909-4d21-bb42-4a6b3ae89a26","ios":"levelo://app?vid=4254c66c-5909-4d21-bb42-4a6b3ae89a26"},"vehicle_type_id":"4","last_reported":1685407179,"current_range_meters":8800,"station_id":"ce4bh012rcd13ifvqd00","pricing_plan_id":"free"},{"bike_id":"911523ab-6644-409c-81a0-c5885a4c1d83","system_id":"levelo_inurba_marseille","lat":43.31645,"lon":5.40432,"is_reserved":false,"is_disabled":false,"rental_uris":{"android":"levelo://app?vid=911523ab-6644-409c-81a0-c5885a4c1d83","ios":"levelo://app?vid=911523ab-6644-409c-81a0-c5885a4c1d83"},"vehicle_type_id":"4","last_reported":1685407179,"current_range_meters":6000,"station_id":"ce4bh012rcd13ifvqd00","pricing_plan_id":"free"},{"bike_id":"623adf98-fec5-4711-8ef4-28f22ca4494d","system_id":"levelo_inurba_marseille","lat":43.31641,"lon":5.40434,"is_reserved":false,"is_disabled":false,"rental_uris":{"android":"levelo://app?vid=623adf98-fec5-4711-8ef4-28f22ca4494d","ios":"levelo://app?vid=623adf98-fec5-4711-8ef4-28f22ca4494d"},"vehicle_type_id":"4","last_reported":1685407179,"current_range_meters":13200,"station_id":"ce4bh012rcd13ifvqd00","pricing_plan_id":"free"},{"bike_id":"9d615592-15a8-42e8-9a50-efc5499bbe80","system_id":"levelo_inurba_marseille","lat":43.316517,"lon":5.404375,"is_reserved":false,"is_disabled":false,"rental_uris":{"android":"levelo://app?vid=9d615592-15a8-42e8-9a50-efc5499bbe80","ios":"levelo://app?vid=9d615592-15a8-42e8-9a50-efc5499bbe80"},"vehicle_type_id":"4","last_reported":1685407179,"current_range_meters":2800,"station_id":"ce4bh012rcd13ifvqd00","pricing_plan_id":"free"},{"bike_id":"5a86566e-ea2d-4d34-b28a-bd6d67f2f854","system_id":"levelo_inurba_marseille","lat":43.316517,"lon":5.404375,"is_reserved":false,"is_disabled":false,"rental_uris":{"android":"levelo://app?vid=5a86566e-ea2d-4d34-b28a-bd6d67f2f854","ios":"levelo://app?vid=5a86566e-ea2d-4d34-b28a-bd6d67f2f854"},"vehicle_type_id":"4","last_reported":1685407179,"current_range_meters":21200,"station_id":"ce4bh012rcd13ifvqd00","pricing_plan_id":"free"},{"bike_id":"356a0ed3-f419-4208-abb4-25a6818607c4","system_id":"levelo_inurba_marseille","lat":43.316517,"lon":5.404375,"is_reserved":false,"is_disabled":false,"rental_uris":{"android":"levelo://app?vid=356a0ed3-f419-4208-abb4-25a6818607c4","ios":"levelo://app?vid=356a0ed3-f419-4208-abb4-25a6818607c4"},"vehicle_type_id":"4","last_reported":1685407179,"current_range_meters":14400,"station_id":"ce4bh012rcd13ifvqd00","pricing_plan_id":"free"},{"bike_id":"c5021a32-e1c0-4ed6-803c-4998512206c4","system_id":"levelo_inurba_marseille","lat":43.31655,"lon":5.40438,"is_reserved":false,"is_disabled":false,"rental_uris":{"android":"levelo://app?vid=c5021a32-e1c0-4ed6-803c-4998512206c4","ios":"levelo://app?vid=c5021a32-e1c0-4ed6-803c-4998512206c4"},"vehicle_type_id":"4","last_reported":1685407179,"current_range_meters":1600,"station_id":"ce4bh012rcd13ifvqd00","pricing_plan_id":"free"},{"bike_id":"fef51c66-b470-4296-b155-c37441680216","system_id":"levelo_inurba_marseille","lat":43.291994,"lon":5.392907,"is_reserved":false,"is_disabled":false,"rental_uris":{"android":"levelo://app?vid=fef51c66-b470-4296-b155-c37441680216","ios":"levelo://app?vid=fef51c66-b470-4296-b155-c37441680216"},"vehicle_type_id":"4","last_reported":1685407179,"current_range_meters":24400,"station_id":"ce4bh192rcd13ifvqdd0","pricing_plan_id":"free"},{"bike_id":"6d5333f4-e6af-4086-9947-0d87e5878dd7","system_id":"levelo_inurba_marseille","lat":43.28469,"lon":5.35889,"is_reserved":false,"is_disabled":false,"rental_uris":{"android":"levelo://app?vid=6d5333f4-e6af-4086-9947-0d87e5878dd7","ios":"levelo://app?vid=6d5333f4-e6af-4086-9947-0d87e5878dd7"},"vehicle_type_id":"4","last_reported":1685407179,"current_range_meters":31200,"station_id":"ce4bhah2rcd13ifvqei0","pricing_plan_id":"free"},{"bike_id":"fa6dccac-e3ae-4778-a53d-69df45939d54","system_id":"levelo_inurba_marseille","lat":43.284534,"lon":5.358662,"is_reserved":false,"is_disabled":false,"rental_uris":{"android":"levelo://app?vid=fa6dccac-e3ae-4778-a53d-69df45939d54","ios":"levelo://app?vid=fa6dccac-e3ae-4778-a53d-69df45939d54"},"vehicle_type_id":"4","last_reported":1685407179,"current_range_meters":31200,"station_id":"ce4bhah2rcd13ifvqei0","pricing_plan_id":"free"},{"bike_id":"1b41408f-0380-4255-bb6f-b348ea1ba477","system_id":"levelo_inurba_marseille","lat":43.284643,"lon":5.35892,"is_reserved":false,"is_disabled":false,"rental_uris":{"android":"levelo://app?vid=1b41408f-0380-4255-bb6f-b348ea1ba477","ios":"levelo://app?vid=1b41408f-0380-4255-bb6f-b348ea1ba477"},"vehicle_type_id":"4","last_reported":1685407179,"current_range_meters":0,"station_id":"ce4bhah2rcd13ifvqei0","pricing_plan_id":"free"},{"bike_id":"74522760-4228-47cc-9090-0a17df0f19e4","system_id":"levelo_inurba_marseille","lat":43.28464,"lon":5.3589,"is_reserved":false,"is_disabled":false,"rental_uris":{"android":"levelo://app?vid=74522760-4228-47cc-9090-0a17df0f19e4","ios":"levelo://app?vid=74522760-4228-47cc-9090-0a17df0f19e4"},"vehicle_type_id":"4","last_reported":1685407179,"current_range_meters":10400,"station_id":"ce4bhah2rcd13ifvqei0","pricing_plan_id":"free"},{"bike_id":"ca0438c9-5ff8-4092-af8d-4978a18aa988","system_id":"levelo_inurba_marseille","lat":43.28464,"lon":5.35887,"is_reserved":false,"is_disabled":false,"rental_uris":{"android":"levelo://app?vid=ca0438c9-5ff8-4092-af8d-4978a18aa988","ios":"levelo://app?vid=ca0438c9-5ff8-4092-af8d-4978a18aa988"},"vehicle_type_id":"4","last_reported":1685407179,"current_range_meters":24000,"station_id":"ce4bhah2rcd13ifvqei0","pricing_plan_id":"free"},{"bike_id":"6743f7cf-1f5a-4f61-abd7-cc5bbe0223c9","system_id":"levelo_inurba_marseille","lat":43.28463,"lon":5.35888,"is_reserved":false,"is_disabled":false,"rental_uris":{"android":"levelo://app?vid=6743f7cf-1f5a-4f61-abd7-cc5bbe0223c9","ios":"levelo://app?vid=6743f7cf-1f5a-4f61-abd7-cc5bbe0223c9"},"vehicle_type_id":"4","last_reported":1685407179,"current_range_meters":22400,"station_id":"ce4bhah2rcd13ifvqei0","pricing_plan_id":"free"},{"bike_id":"8d34a19f-90a9-45d2-8d9a-773597eb7cf0","system_id":"levelo_inurba_marseille","lat":43.2846,"lon":5.35889,"is_reserved":false,"is_disabled":false,"rental_uris":{"android":"levelo://app?vid=8d34a19f-90a9-45d2-8d9a-773597eb7cf0","ios":"levelo://app?vid=8d34a19f-90a9-45d2-8d9a-773597eb7cf0"},"vehicle_type_id":"4","last_reported":1685407179,"current_range_meters":13600,"station_id":"ce4bhah2rcd13ifvqei0","pricing_plan_id":"free"},{"bike_id":"789a27c0-d9f7-4af1-96f3-f2feb6ebf9d5","system_id":"levelo_inurba_marseille","lat":43.284534,"lon":5.358662,"is_reserved":false,"is_disabled":false,"rental_uris":{"android":"levelo://app?vid=789a27c0-d9f7-4af1-96f3-f2feb6ebf9d5","ios":"levelo://app?vid=789a27c0-d9f7-4af1-96f3-f2feb6ebf9d5"},"vehicle_type_id":"4","last_reported":1685407179,"current_range_meters":31200,"station_id":"ce4bhah2rcd13ifvqei0","pricing_plan_id":"free"},{"bike_id":"8decf36e-a88a-4616-9949-a6296ebe70d3","system_id":"levelo_inurba_marseille","lat":43.284534,"lon":5.358662,"is_reserved":false,"is_disabled":false,"rental_uris":{"android":"levelo://app?vid=8decf36e-a88a-4616-9949-a6296ebe70d3","ios":"levelo://app?vid=8decf36e-a88a-4616-9949-a6296ebe70d3"},"vehicle_type_id":"4","last_reported":1685407179,"current_range_meters":12800,"station_id":"ce4bhah2rcd13ifvqei0","pricing_plan_id":"free"},{"bike_id":"f8ed514f-b73e-439c-8783-0306ab4c690f","system_id":"levelo_inurba_marseille","lat":43.31747,"lon":5.40597,"is_reserved":false,"is_disabled":false,"rental_uris":{"android":"levelo://app?vid=f8ed514f-b73e-439c-8783-0306ab4c690f","ios":"levelo://app?vid=f8ed514f-b73e-439c-8783-0306ab4c690f"},"vehicle_type_id":"4","last_reported":1685407179,"current_range_meters":18000,"station_id":"","pricing_plan_id":"free"},{"bike_id":"3c83aa28-a5f3-4e32-8842-87922f0cf9ac","system_id":"levelo_inurba_marseille","lat":43.28449,"lon":5.359,"is_reserved":false,"is_disabled":false,"rental_uris":{"android":"levelo://app?vid=3c83aa28-a5f3-4e32-8842-87922f0cf9ac","ios":"levelo://app?vid=3c83aa28-a5f3-4e32-8842-87922f0cf9ac"},"vehicle_type_id":"4","last_reported":1685407179,"current_range_meters":31200,"station_id":"","pricing_plan_id":"free"},{"bike_id":"c1ed57af-de4a-48f4-87ca-e0e2df94f1aa","system_id":"levelo_inurba_marseille","lat":43.28619,"lon":5.35096,"is_reserved":false,"is_disabled":false,"rental_uris":{"android":"levelo://app?vid=c1ed57af-de4a-48f4-87ca-e0e2df94f1aa","ios":"levelo://app?vid=c1ed57af-de4a-48f4-87ca-e0e2df94f1aa"},"vehicle_type_id":"4","last_reported":1685407179,"current_range_meters":20000,"station_id":"","pricing_plan_id":"free"},{"bike_id":"636cf914-502d-4f0e-8b42-a6a2120abdaa","system_id":"levelo_inurba_marseille","lat":43.286595,"lon":5.386795,"is_reserved":false,"is_disabled":false,"rental_uris":{"android":"levelo://app?vid=636cf914-502d-4f0e-8b42-a6a2120abdaa","ios":"levelo://app?vid=636cf914-502d-4f0e-8b42-a6a2120abdaa"},"vehicle_type_id":"4","last_reported":1685407179,"current_range_meters":0,"station_id":"ce4bh492rcd13ifvqdug","pricing_plan_id":"free"},{"bike_id":"89511975-7f82-4031-aabc-27f102d060d3","system_id":"levelo_inurba_marseille","lat":43.286595,"lon":5.386795,"is_reserved":false,"is_disabled":false,"rental_uris":{"android":"levelo://app?vid=89511975-7f82-4031-aabc-27f102d060d3","ios":"levelo://app?vid=89511975-7f82-4031-aabc-27f102d060d3"},"vehicle_type_id":"4","last_reported":1685407179,"current_range_meters":24000,"station_id":"ce4bh492rcd13ifvqdug","pricing_plan_id":"free"},{"bike_id":"f32b00f0-10c7-401a-9495-5728aad19031","system_id":"levelo_inurba_marseille","lat":43.286595,"lon":5.386795,"is_reserved":false,"is_disabled":false,"rental_uris":{"android":"levelo://app?vid=f32b00f0-10c7-401a-9495-5728aad19031","ios":"levelo://app?vid=f32b00f0-10c7-401a-9495-5728aad19031"},"vehicle_type_id":"4","last_reported":1685407179,"current_range_meters":18000,"station_id":"ce4bh492rcd13ifvqdug","pricing_plan_id":"free"},{"bike_id":"e2fc3e02-c01e-4cf9-b6e1-91c460e6e31b","system_id":"levelo_inurba_marseille","lat":43.323464,"lon":5.406297,"is_reserved":false,"is_disabled":false,"rental_uris":{"android":"levelo://app?vid=e2fc3e02-c01e-4cf9-b6e1-91c460e6e31b","ios":"levelo://app?vid=e2fc3e02-c01e-4cf9-b6e1-91c460e6e31b"},"vehicle_type_id":"4","last_reported":1685407179,"current_range_meters":0,"station_id":"ce4bhq92rcd13ifvqhjg","pricing_plan_id":"free"},{"bike_id":"c66d9da6-e508-458d-b985-aea348e3b1c4","system_id":"levelo_inurba_marseille","lat":43.323464,"lon":5.406297,"is_reserved":false,"is_disabled":false,"rental_uris":{"android":"levelo://app?vid=c66d9da6-e508-458d-b985-aea348e3b1c4","ios":"levelo://app?vid=c66d9da6-e508-458d-b985-aea348e3b1c4"},"vehicle_type_id":"4","last_reported":1685407179,"current_range_meters":7600,"station_id":"ce4bhq92rcd13ifvqhjg","pricing_plan_id":"free"},{"bike_id":"1a815d39-058c-4798-85da-fdf771876b2b","system_id":"levelo_inurba_marseille","lat":43.288497,"lon":5.393089,"is_reserved":false,"is_disabled":false,"rental_uris":{"android":"levelo://app?vid=1a815d39-058c-4798-85da-fdf771876b2b","ios":"levelo://app?vid=1a815d39-058c-4798-85da-fdf771876b2b"},"vehicle_type_id":"4","last_reported":1685407179,"current_range_meters":14000,"station_id":"ce4bh2p2rcd13ifvqdi0","pricing_plan_id":"free"},{"bike_id":"026573a3-2e45-49ce-a6a7-9cf14ad15670","system_id":"levelo_inurba_marseille","lat":43.293587,"lon":5.400538,"is_reserved":false,"is_disabled":false,"rental_uris":{"android":"levelo://app?vid=026573a3-2e45-49ce-a6a7-9cf14ad15670","ios":"levelo://app?vid=026573a3-2e45-49ce-a6a7-9cf14ad15670"},"vehicle_type_id":"4","last_reported":1685407179,"current_range_meters":26000,"station_id":"ce4bh312rcd13ifvqdk0","pricing_plan_id":"free"},{"bike_id":"a228ef84-0106-4e26-ad56-b98c4a3a0c58","system_id":"levelo_inurba_marseille","lat":43.289363,"lon":5.396322,"is_reserved":false,"is_disabled":false,"rental_uris":{"android":"levelo://app?vid=a228ef84-0106-4e26-ad56-b98c4a3a0c58","ios":"levelo://app?vid=a228ef84-0106-4e26-ad56-b98c4a3a0c58"},"vehicle_type_id":"4","last_reported":1685407179,"current_range_meters":29200,"station_id":"ce4bh3h2rcd13ifvqdn0","pricing_plan_id":"free"},{"bike_id":"0d4f96f6-cc46-4828-a8f7-539d5779989d","system_id":"levelo_inurba_marseille","lat":43.292724,"lon":5.401131,"is_reserved":false,"is_disabled":false,"rental_uris":{"android":"levelo://app?vid=0d4f96f6-cc46-4828-a8f7-539d5779989d","ios":"levelo://app?vid=0d4f96f6-cc46-4828-a8f7-539d5779989d"},"vehicle_type_id":"4","last_reported":1685407179,"current_range_meters":23600,"station_id":"ce4bh312rcd13ifvqdk0","pricing_plan_id":"free"},{"bike_id":"caef48a6-5c45-419b-b19d-f3fa0a107472","system_id":"levelo_inurba_marseille","lat":43.2928,"lon":5.40124,"is_reserved":false,"is_disabled":false,"rental_uris":{"android":"levelo://app?vid=caef48a6-5c45-419b-b19d-f3fa0a107472","ios":"levelo://app?vid=caef48a6-5c45-419b-b19d-f3fa0a107472"},"vehicle_type_id":"4","last_reported":1685407179,"current_range_meters":29200,"station_id":"ce4bh312rcd13ifvqdk0","pricing_plan_id":"free"},{"bike_id":"7fb9915d-2170-4e72-86e8-a8b6c882dfd5","system_id":"levelo_inurba_marseille","lat":43.29281,"lon":5.40129,"is_reserved":false,"is_disabled":false,"rental_uris":{"android":"levelo://app?vid=7fb9915d-2170-4e72-86e8-a8b6c882dfd5","ios":"levelo://app?vid=7fb9915d-2170-4e72-86e8-a8b6c882dfd5"},"vehicle_type_id":"4","last_reported":1685407179,"current_range_meters":2400,"station_id":"ce4bh312rcd13ifvqdk0","pricing_plan_id":"free"},{"bike_id":"88b8acc3-4a95-431a-baf9-36ce3bef15ff","system_id":"levelo_inurba_marseille","lat":43.292724,"lon":5.401131,"is_reserved":false,"is_disabled":false,"rental_uris":{"android":"levelo://app?vid=88b8acc3-4a95-431a-baf9-36ce3bef15ff","ios":"levelo://app?vid=88b8acc3-4a95-431a-baf9-36ce3bef15ff"},"vehicle_type_id":"4","last_reported":1685407179,"current_range_meters":17200,"station_id":"ce4bh312rcd13ifvqdk0","pricing_plan_id":"free"},{"bike_id":"2c559ea2-091d-4095-8324-64c65232abc0","system_id":"levelo_inurba_marseille","lat":43.2928,"lon":5.40132,"is_reserved":false,"is_disabled":false,"rental_uris":{"android":"levelo://app?vid=2c559ea2-091d-4095-8324-64c65232abc0","ios":"levelo://app?vid=2c559ea2-091d-4095-8324-64c65232abc0"},"vehicle_type_id":"4","last_reported":1685407179,"current_range_meters":23200,"station_id":"ce4bh312rcd13ifvqdk0","pricing_plan_id":"free"},{"bike_id":"c5968e8f-8e50-4c38-8055-e464a1d2b97b","system_id":"levelo_inurba_marseille","lat":43.283502,"lon":5.386471,"is_reserved":false,"is_disabled":false,"rental_uris":{"android":"levelo://app?vid=c5968e8f-8e50-4c38-8055-e464a1d2b97b","ios":"levelo://app?vid=c5968e8f-8e50-4c38-8055-e464a1d2b97b"},"vehicle_type_id":"4","last_reported":1685407179,"current_range_meters":18800,"station_id":"ce4bh492rcd13ifvqdvg","pricing_plan_id":"free"},{"bike_id":"95339fdd-0215-41a6-b7d7-903411ef2cb6","system_id":"levelo_inurba_marseille","lat":43.28039,"lon":5.369297,"is_reserved":false,"is_disabled":false,"rental_uris":{"android":"levelo://app?vid=95339fdd-0215-41a6-b7d7-903411ef2cb6","ios":"levelo://app?vid=95339fdd-0215-41a6-b7d7-903411ef2cb6"},"vehicle_type_id":"4","last_reported":1685407179,"current_range_meters":30400,"station_id":"ce4bha12rcd13ifvqef0","pricing_plan_id":"free"},{"bike_id":"47b1bee4-243b-4c06-9926-dbadcdb9f7ae","system_id":"levelo_inurba_marseille","lat":43.28039,"lon":5.369297,"is_reserved":false,"is_disabled":false,"rental_uris":{"android":"levelo://app?vid=47b1bee4-243b-4c06-9926-dbadcdb9f7ae","ios":"levelo://app?vid=47b1bee4-243b-4c06-9926-dbadcdb9f7ae"},"vehicle_type_id":"4","last_reported":1685407179,"current_range_meters":21200,"station_id":"ce4bha12rcd13ifvqef0","pricing_plan_id":"free"},{"bike_id":"1be8986c-732d-45b7-9258-b8212b753474","system_id":"levelo_inurba_marseille","lat":43.281044,"lon":5.378308,"is_reserved":false,"is_disabled":false,"rental_uris":{"android":"levelo://app?vid=1be8986c-732d-45b7-9258-b8212b753474","ios":"levelo://app?vid=1be8986c-732d-45b7-9258-b8212b753474"},"vehicle_type_id":"4","last_reported":1685407179,"current_range_meters":31200,"station_id":"ce4bha12rcd13ifvqee0","pricing_plan_id":"free"},{"bike_id":"bf454ce7-5b76-42b2-ad17-4d9dde60a9da","system_id":"levelo_inurba_marseille","lat":43.296263,"lon":5.40601,"is_reserved":false,"is_disabled":false,"rental_uris":{"android":"levelo://app?vid=bf454ce7-5b76-42b2-ad17-4d9dde60a9da","ios":"levelo://app?vid=bf454ce7-5b76-42b2-ad17-4d9dde60a9da"},"vehicle_type_id":"4","last_reported":1685407179,"current_range_meters":31200,"station_id":"ce4bh0h2rcd13ifvqd60","pricing_plan_id":"free"},{"bike_id":"971ed3cc-3b28-4216-81fe-046c44a956ec","system_id":"levelo_inurba_marseille","lat":43.281044,"lon":5.378308,"is_reserved":false,"is_disabled":false,"rental_uris":{"android":"levelo://app?vid=971ed3cc-3b28-4216-81fe-046c44a956ec","ios":"levelo://app?vid=971ed3cc-3b28-4216-81fe-046c44a956ec"},"vehicle_type_id":"4","last_reported":1685407179,"current_range_meters":6000,"station_id":"ce4bha12rcd13ifvqee0","pricing_plan_id":"free"},{"bike_id":"a58a5910-b4f5-490a-bbd7-038ce7c04af8","system_id":"levelo_inurba_marseille","lat":43.281044,"lon":5.378308,"is_reserved":false,"is_disabled":false,"rental_uris":{"android":"levelo://app?vid=a58a5910-b4f5-490a-bbd7-038ce7c04af8","ios":"levelo://app?vid=a58a5910-b4f5-490a-bbd7-038ce7c04af8"},"vehicle_type_id":"4","last_reported":1685407179,"current_range_meters":22400,"station_id":"ce4bha12rcd13ifvqee0","pricing_plan_id":"free"},{"bike_id":"f76c0686-61f9-4a8a-be7a-ab685e168a08","system_id":"levelo_inurba_marseille","lat":43.281044,"lon":5.378308,"is_reserved":false,"is_disabled":false,"rental_uris":{"android":"levelo://app?vid=f76c0686-61f9-4a8a-be7a-ab685e168a08","ios":"levelo://app?vid=f76c0686-61f9-4a8a-be7a-ab685e168a08"},"vehicle_type_id":"4","last_reported":1685407179,"current_range_meters":16000,"station_id":"ce4bha12rcd13ifvqee0","pricing_plan_id":"free"},{"bike_id":"57626bc4-351b-4d87-abb0-0ff27564887c","system_id":"levelo_inurba_marseille","lat":43.281044,"lon":5.378308,"is_reserved":false,"is_disabled":false,"rental_uris":{"android":"levelo://app?vid=57626bc4-351b-4d87-abb0-0ff27564887c","ios":"levelo://app?vid=57626bc4-351b-4d87-abb0-0ff27564887c"},"vehicle_type_id":"4","last_reported":1685407179,"current_range_meters":20000,"station_id":"ce4bha12rcd13ifvqee0","pricing_plan_id":"free"},{"bike_id":"a90eaae8-932f-45d4-9d04-ace4926ccd04","system_id":"levelo_inurba_marseille","lat":43.281044,"lon":5.378308,"is_reserved":false,"is_disabled":false,"rental_uris":{"android":"levelo://app?vid=a90eaae8-932f-45d4-9d04-ace4926ccd04","ios":"levelo://app?vid=a90eaae8-932f-45d4-9d04-ace4926ccd04"},"vehicle_type_id":"4","last_reported":1685407179,"current_range_meters":31200,"station_id":"ce4bha12rcd13ifvqee0","pricing_plan_id":"free"},{"bike_id":"fd9426b6-274f-47fb-b532-78e168415774","system_id":"levelo_inurba_marseille","lat":43.281044,"lon":5.378308,"is_reserved":false,"is_disabled":false,"rental_uris":{"android":"levelo://app?vid=fd9426b6-274f-47fb-b532-78e168415774","ios":"levelo://app?vid=fd9426b6-274f-47fb-b532-78e168415774"},"vehicle_type_id":"4","last_reported":1685407179,"current_range_meters":22000,"station_id":"ce4bha12rcd13ifvqee0","pricing_plan_id":"free"},{"bike_id":"09dedad2-88a5-4ab4-b559-118f31ecd264","system_id":"levelo_inurba_marseille","lat":43.296263,"lon":5.40601,"is_reserved":false,"is_disabled":false,"rental_uris":{"android":"levelo://app?vid=09dedad2-88a5-4ab4-b559-118f31ecd264","ios":"levelo://app?vid=09dedad2-88a5-4ab4-b559-118f31ecd264"},"vehicle_type_id":"4","last_reported":1685407179,"current_range_meters":28800,"station_id":"ce4bh0h2rcd13ifvqd60","pricing_plan_id":"free"},{"bike_id":"2a767690-df42-4d3e-91cc-b3b5a0d02cf5","system_id":"levelo_inurba_marseille","lat":43.281044,"lon":5.378308,"is_reserved":false,"is_disabled":false,"rental_uris":{"android":"levelo://app?vid=2a767690-df42-4d3e-91cc-b3b5a0d02cf5","ios":"levelo://app?vid=2a767690-df42-4d3e-91cc-b3b5a0d02cf5"},"vehicle_type_id":"4","last_reported":1685407179,"current_range_meters":14000,"station_id":"ce4bha12rcd13ifvqee0","pricing_plan_id":"free"},{"bike_id":"9d78bc60-518e-47a8-9421-2640de02e770","system_id":"levelo_inurba_marseille","lat":43.281044,"lon":5.378308,"is_reserved":false,"is_disabled":false,"rental_uris":{"android":"levelo://app?vid=9d78bc60-518e-47a8-9421-2640de02e770","ios":"levelo://app?vid=9d78bc60-518e-47a8-9421-2640de02e770"},"vehicle_type_id":"4","last_reported":1685407179,"current_range_meters":27600,"station_id":"ce4bha12rcd13ifvqee0","pricing_plan_id":"free"},{"bike_id":"ea6c2cd9-e37c-480f-9881-80a0b97f3397","system_id":"levelo_inurba_marseille","lat":43.296263,"lon":5.40601,"is_reserved":false,"is_disabled":false,"rental_uris":{"android":"levelo://app?vid=ea6c2cd9-e37c-480f-9881-80a0b97f3397","ios":"levelo://app?vid=ea6c2cd9-e37c-480f-9881-80a0b97f3397"},"vehicle_type_id":"4","last_reported":1685407179,"current_range_meters":16800,"station_id":"ce4bh0h2rcd13ifvqd60","pricing_plan_id":"free"},{"bike_id":"b5e523e4-f969-4839-a37a-5a1dd7ad7df6","system_id":"levelo_inurba_marseille","lat":43.281044,"lon":5.378308,"is_reserved":false,"is_disabled":false,"rental_uris":{"android":"levelo://app?vid=b5e523e4-f969-4839-a37a-5a1dd7ad7df6","ios":"levelo://app?vid=b5e523e4-f969-4839-a37a-5a1dd7ad7df6"},"vehicle_type_id":"4","last_reported":1685407179,"current_range_meters":21200,"station_id":"ce4bha12rcd13ifvqee0","pricing_plan_id":"free"},{"bike_id":"53793c2d-d584-4c37-a309-161cfcf7a01d","system_id":"levelo_inurba_marseille","lat":43.281044,"lon":5.378308,"is_reserved":false,"is_disabled":false,"rental_uris":{"android":"levelo://app?vid=53793c2d-d584-4c37-a309-161cfcf7a01d","ios":"levelo://app?vid=53793c2d-d584-4c37-a309-161cfcf7a01d"},"vehicle_type_id":"4","last_reported":1685407179,"current_range_meters":19200,"station_id":"ce4bha12rcd13ifvqee0","pricing_plan_id":"free"},{"bike_id":"fda90cd3-fa56-410e-b50b-748f481fae4f","system_id":"levelo_inurba_marseille","lat":43.28436,"lon":5.39189,"is_reserved":false,"is_disabled":false,"rental_uris":{"android":"levelo://app?vid=fda90cd3-fa56-410e-b50b-748f481fae4f","ios":"levelo://app?vid=fda90cd3-fa56-410e-b50b-748f481fae4f"},"vehicle_type_id":"4","last_reported":1685407179,"current_range_meters":20400,"station_id":"ce4bhoh2rcd13ifvqh5g","pricing_plan_id":"free"},{"bike_id":"ea9c728c-75f4-40c5-9f20-645d746ed5f1","system_id":"levelo_inurba_marseille","lat":43.28573,"lon":5.394992,"is_reserved":false,"is_disabled":false,"rental_uris":{"android":"levelo://app?vid=ea9c728c-75f4-40c5-9f20-645d746ed5f1","ios":"levelo://app?vid=ea9c728c-75f4-40c5-9f20-645d746ed5f1"},"vehicle_type_id":"4","last_reported":1685407179,"current_range_meters":28000,"station_id":"ce4bh292rcd13ifvqdg0","pricing_plan_id":"free"},{"bike_id":"47f1c969-39b0-49ad-933e-fd9e2f9169a0","system_id":"levelo_inurba_marseille","lat":43.28573,"lon":5.394992,"is_reserved":false,"is_disabled":false,"rental_uris":{"android":"levelo://app?vid=47f1c969-39b0-49ad-933e-fd9e2f9169a0","ios":"levelo://app?vid=47f1c969-39b0-49ad-933e-fd9e2f9169a0"},"vehicle_type_id":"4","last_reported":1685407179,"current_range_meters":30800,"station_id":"ce4bh292rcd13ifvqdg0","pricing_plan_id":"free"},{"bike_id":"f0447088-943e-440a-adb7-8886e9f79049","system_id":"levelo_inurba_marseille","lat":43.28573,"lon":5.394992,"is_reserved":false,"is_disabled":false,"rental_uris":{"android":"levelo://app?vid=f0447088-943e-440a-adb7-8886e9f79049","ios":"levelo://app?vid=f0447088-943e-440a-adb7-8886e9f79049"},"vehicle_type_id":"4","last_reported":1685407179,"current_range_meters":28400,"station_id":"ce4bh292rcd13ifvqdg0","pricing_plan_id":"free"},{"bike_id":"07a9d810-069c-48dd-b6a1-7cab683fa4c7","system_id":"levelo_inurba_marseille","lat":43.304188,"lon":5.412904,"is_reserved":false,"is_disabled":false,"rental_uris":{"android":"levelo://app?vid=07a9d810-069c-48dd-b6a1-7cab683fa4c7","ios":"levelo://app?vid=07a9d810-069c-48dd-b6a1-7cab683fa4c7"},"vehicle_type_id":"4","last_reported":1685407179,"current_range_meters":28800,"station_id":"ce4bhop2rcd13ifvqh8g","pricing_plan_id":"free"},{"bike_id":"2d062cf1-a875-49fb-bfbe-80dedd5b5581","system_id":"levelo_inurba_marseille","lat":43.287154,"lon":5.399979,"is_reserved":false,"is_disabled":false,"rental_uris":{"android":"levelo://app?vid=2d062cf1-a875-49fb-bfbe-80dedd5b5581","ios":"levelo://app?vid=2d062cf1-a875-49fb-bfbe-80dedd5b5581"},"vehicle_type_id":"4","last_reported":1685407179,"current_range_meters":29200,"station_id":"ce4bho92rcd13ifvqh3g","pricing_plan_id":"free"},{"bike_id":"b9f79d0d-3605-4eb6-8585-cd297026b58c","system_id":"levelo_inurba_marseille","lat":43.287154,"lon":5.399979,"is_reserved":false,"is_disabled":false,"rental_uris":{"android":"levelo://app?vid=b9f79d0d-3605-4eb6-8585-cd297026b58c","ios":"levelo://app?vid=b9f79d0d-3605-4eb6-8585-cd297026b58c"},"vehicle_type_id":"4","last_reported":1685407179,"current_range_meters":31200,"station_id":"ce4bho92rcd13ifvqh3g","pricing_plan_id":"free"},{"bike_id":"dae3022b-32eb-41c6-929b-3331820b4501","system_id":"levelo_inurba_marseille","lat":43.287154,"lon":5.399979,"is_reserved":false,"is_disabled":false,"rental_uris":{"android":"levelo://app?vid=dae3022b-32eb-41c6-929b-3331820b4501","ios":"levelo://app?vid=dae3022b-32eb-41c6-929b-3331820b4501"},"vehicle_type_id":"4","last_reported":1685407179,"current_range_meters":30400,"station_id":"ce4bho92rcd13ifvqh3g","pricing_plan_id":"free"},{"bike_id":"b45be651-f332-41af-8415-8b7c1e1524e5","system_id":"levelo_inurba_marseille","lat":43.287154,"lon":5.399979,"is_reserved":false,"is_disabled":false,"rental_uris":{"android":"levelo://app?vid=b45be651-f332-41af-8415-8b7c1e1524e5","ios":"levelo://app?vid=b45be651-f332-41af-8415-8b7c1e1524e5"},"vehicle_type_id":"4","last_reported":1685407179,"current_range_meters":27600,"station_id":"ce4bho92rcd13ifvqh3g","pricing_plan_id":"free"},{"bike_id":"7b347dc2-3947-40d8-91ef-9c492af93b5d","system_id":"levelo_inurba_marseille","lat":43.2871,"lon":5.39981,"is_reserved":false,"is_disabled":false,"rental_uris":{"android":"levelo://app?vid=7b347dc2-3947-40d8-91ef-9c492af93b5d","ios":"levelo://app?vid=7b347dc2-3947-40d8-91ef-9c492af93b5d"},"vehicle_type_id":"4","last_reported":1685407179,"current_range_meters":31200,"station_id":"ce4bho92rcd13ifvqh3g","pricing_plan_id":"free"},{"bike_id":"0057d136-d366-4858-aedd-409871647703","system_id":"levelo_inurba_marseille","lat":43.287154,"lon":5.399979,"is_reserved":false,"is_disabled":false,"rental_uris":{"android":"levelo://app?vid=0057d136-d366-4858-aedd-409871647703","ios":"levelo://app?vid=0057d136-d366-4858-aedd-409871647703"},"vehicle_type_id":"4","last_reported":1685407179,"current_range_meters":31200,"station_id":"ce4bho92rcd13ifvqh3g","pricing_plan_id":"free"},{"bike_id":"e3339f27-593a-4cee-b7ed-e8e2590f6ffa","system_id":"levelo_inurba_marseille","lat":43.2872,"lon":5.39997,"is_reserved":false,"is_disabled":false,"rental_uris":{"android":"levelo://app?vid=e3339f27-593a-4cee-b7ed-e8e2590f6ffa","ios":"levelo://app?vid=e3339f27-593a-4cee-b7ed-e8e2590f6ffa"},"vehicle_type_id":"4","last_reported":1685407179,"current_range_meters":31200,"station_id":"ce4bho92rcd13ifvqh3g","pricing_plan_id":"free"},{"bike_id":"7a8aec89-ac95-4c3b-a67b-b69b0c3d8f81","system_id":"levelo_inurba_marseille","lat":43.28715,"lon":5.39994,"is_reserved":false,"is_disabled":false,"rental_uris":{"android":"levelo://app?vid=7a8aec89-ac95-4c3b-a67b-b69b0c3d8f81","ios":"levelo://app?vid=7a8aec89-ac95-4c3b-a67b-b69b0c3d8f81"},"vehicle_type_id":"4","last_reported":1685407179,"current_range_meters":31200,"station_id":"ce4bho92rcd13ifvqh3g","pricing_plan_id":"free"},{"bike_id":"96c14c55-11db-4a0e-9b9e-0e46d7fc6f3e","system_id":"levelo_inurba_marseille","lat":43.287154,"lon":5.399979,"is_reserved":false,"is_disabled":false,"rental_uris":{"android":"levelo://app?vid=96c14c55-11db-4a0e-9b9e-0e46d7fc6f3e","ios":"levelo://app?vid=96c14c55-11db-4a0e-9b9e-0e46d7fc6f3e"},"vehicle_type_id":"4","last_reported":1685407179,"current_range_meters":31200,"station_id":"ce4bho92rcd13ifvqh3g","pricing_plan_id":"free"},{"bike_id":"9e920f8d-c5fb-4b33-8991-76a25c0ba5f8","system_id":"levelo_inurba_marseille","lat":43.28701,"lon":5.39975,"is_reserved":false,"is_disabled":false,"rental_uris":{"android":"levelo://app?vid=9e920f8d-c5fb-4b33-8991-76a25c0ba5f8","ios":"levelo://app?vid=9e920f8d-c5fb-4b33-8991-76a25c0ba5f8"},"vehicle_type_id":"4","last_reported":1685407179,"current_range_meters":31200,"station_id":"ce4bho92rcd13ifvqh3g","pricing_plan_id":"free"},{"bike_id":"98e3d257-e428-414b-8a17-9595b5ad90e2","system_id":"levelo_inurba_marseille","lat":43.287154,"lon":5.399979,"is_reserved":false,"is_disabled":false,"rental_uris":{"android":"levelo://app?vid=98e3d257-e428-414b-8a17-9595b5ad90e2","ios":"levelo://app?vid=98e3d257-e428-414b-8a17-9595b5ad90e2"},"vehicle_type_id":"4","last_reported":1685407179,"current_range_meters":31200,"station_id":"ce4bho92rcd13ifvqh3g","pricing_plan_id":"free"},{"bike_id":"febbcc14-4cbc-436a-a2a9-ca0af077f23b","system_id":"levelo_inurba_marseille","lat":43.287154,"lon":5.399979,"is_reserved":false,"is_disabled":false,"rental_uris":{"android":"levelo://app?vid=febbcc14-4cbc-436a-a2a9-ca0af077f23b","ios":"levelo://app?vid=febbcc14-4cbc-436a-a2a9-ca0af077f23b"},"vehicle_type_id":"4","last_reported":1685407179,"current_range_meters":31200,"station_id":"ce4bho92rcd13ifvqh3g","pricing_plan_id":"free"},{"bike_id":"0d07c85d-e949-4679-bd47-e4b5ef61da76","system_id":"levelo_inurba_marseille","lat":43.287154,"lon":5.399979,"is_reserved":false,"is_disabled":false,"rental_uris":{"android":"levelo://app?vid=0d07c85d-e949-4679-bd47-e4b5ef61da76","ios":"levelo://app?vid=0d07c85d-e949-4679-bd47-e4b5ef61da76"},"vehicle_type_id":"4","last_reported":1685407179,"current_range_meters":31600,"station_id":"ce4bho92rcd13ifvqh3g","pricing_plan_id":"free"},{"bike_id":"4388dea2-9390-4e76-b8b2-f20a2cc0f4b8","system_id":"levelo_inurba_marseille","lat":43.287154,"lon":5.399979,"is_reserved":false,"is_disabled":false,"rental_uris":{"android":"levelo://app?vid=4388dea2-9390-4e76-b8b2-f20a2cc0f4b8","ios":"levelo://app?vid=4388dea2-9390-4e76-b8b2-f20a2cc0f4b8"},"vehicle_type_id":"4","last_reported":1685407179,"current_range_meters":30400,"station_id":"ce4bho92rcd13ifvqh3g","pricing_plan_id":"free"},{"bike_id":"78e5a44a-cb0e-4269-9603-84c288828645","system_id":"levelo_inurba_marseille","lat":43.28702,"lon":5.3998,"is_reserved":false,"is_disabled":false,"rental_uris":{"android":"levelo://app?vid=78e5a44a-cb0e-4269-9603-84c288828645","ios":"levelo://app?vid=78e5a44a-cb0e-4269-9603-84c288828645"},"vehicle_type_id":"4","last_reported":1685407179,"current_range_meters":12400,"station_id":"ce4bho92rcd13ifvqh3g","pricing_plan_id":"free"},{"bike_id":"48c15f83-8ed2-43a2-8e48-32304a4a3983","system_id":"levelo_inurba_marseille","lat":43.28711,"lon":5.39995,"is_reserved":false,"is_disabled":false,"rental_uris":{"android":"levelo://app?vid=48c15f83-8ed2-43a2-8e48-32304a4a3983","ios":"levelo://app?vid=48c15f83-8ed2-43a2-8e48-32304a4a3983"},"vehicle_type_id":"4","last_reported":1685407179,"current_range_meters":16400,"station_id":"ce4bho92rcd13ifvqh3g","pricing_plan_id":"free"},{"bike_id":"a160bd95-03ac-4c07-9913-776392bdbdb1","system_id":"levelo_inurba_marseille","lat":43.287154,"lon":5.399979,"is_reserved":false,"is_disabled":false,"rental_uris":{"android":"levelo://app?vid=a160bd95-03ac-4c07-9913-776392bdbdb1","ios":"levelo://app?vid=a160bd95-03ac-4c07-9913-776392bdbdb1"},"vehicle_type_id":"4","last_reported":1685407179,"current_range_meters":30400,"station_id":"ce4bho92rcd13ifvqh3g","pricing_plan_id":"free"},{"bike_id":"8081f1b1-42e1-4a2e-af60-e18b6d6ff69f","system_id":"levelo_inurba_marseille","lat":43.320045,"lon":5.415048,"is_reserved":false,"is_disabled":false,"rental_uris":{"android":"levelo://app?vid=8081f1b1-42e1-4a2e-af60-e18b6d6ff69f","ios":"levelo://app?vid=8081f1b1-42e1-4a2e-af60-e18b6d6ff69f"},"vehicle_type_id":"4","last_reported":1685407179,"current_range_meters":27200,"station_id":"ce4bhq92rcd13ifvqhkg","pricing_plan_id":"free"},{"bike_id":"a7b1e4eb-0925-438b-a770-9ace431b2258","system_id":"levelo_inurba_marseille","lat":43.320045,"lon":5.415048,"is_reserved":false,"is_disabled":false,"rental_uris":{"android":"levelo://app?vid=a7b1e4eb-0925-438b-a770-9ace431b2258","ios":"levelo://app?vid=a7b1e4eb-0925-438b-a770-9ace431b2258"},"vehicle_type_id":"4","last_reported":1685407179,"current_range_meters":13600,"station_id":"ce4bhq92rcd13ifvqhkg","pricing_plan_id":"free"},{"bike_id":"5e1ff578-ff32-4246-9df8-30fb05e8d646","system_id":"levelo_inurba_marseille","lat":43.292704,"lon":5.409096,"is_reserved":false,"is_disabled":false,"rental_uris":{"android":"levelo://app?vid=5e1ff578-ff32-4246-9df8-30fb05e8d646","ios":"levelo://app?vid=5e1ff578-ff32-4246-9df8-30fb05e8d646"},"vehicle_type_id":"4","last_reported":1685407179,"current_range_meters":3200,"station_id":"","pricing_plan_id":"free"},{"bike_id":"cec6305d-dcbc-4dff-99fe-ef0125ea0b2c","system_id":"levelo_inurba_marseille","lat":43.292569,"lon":5.409107,"is_reserved":false,"is_disabled":false,"rental_uris":{"android":"levelo://app?vid=cec6305d-dcbc-4dff-99fe-ef0125ea0b2c","ios":"levelo://app?vid=cec6305d-dcbc-4dff-99fe-ef0125ea0b2c"},"vehicle_type_id":"4","last_reported":1685407179,"current_range_meters":31200,"station_id":"ce4bh192rcd13ifvqdc0","pricing_plan_id":"free"},{"bike_id":"01d249ae-d6e0-4bc2-b8ee-875bf698e9f7","system_id":"levelo_inurba_marseille","lat":43.292569,"lon":5.409107,"is_reserved":false,"is_disabled":false,"rental_uris":{"android":"levelo://app?vid=01d249ae-d6e0-4bc2-b8ee-875bf698e9f7","ios":"levelo://app?vid=01d249ae-d6e0-4bc2-b8ee-875bf698e9f7"},"vehicle_type_id":"4","last_reported":1685407179,"current_range_meters":31200,"station_id":"ce4bh192rcd13ifvqdc0","pricing_plan_id":"free"},{"bike_id":"0d2bb763-a177-4465-ba96-6cce01494a0e","system_id":"levelo_inurba_marseille","lat":43.292571,"lon":5.409107,"is_reserved":false,"is_disabled":false,"rental_uris":{"android":"levelo://app?vid=0d2bb763-a177-4465-ba96-6cce01494a0e","ios":"levelo://app?vid=0d2bb763-a177-4465-ba96-6cce01494a0e"},"vehicle_type_id":"4","last_reported":1685407179,"current_range_meters":15200,"station_id":"ce4bh192rcd13ifvqdc0","pricing_plan_id":"free"},{"bike_id":"427770fe-135d-4645-adaf-68df475405ab","system_id":"levelo_inurba_marseille","lat":43.292569,"lon":5.409107,"is_reserved":false,"is_disabled":false,"rental_uris":{"android":"levelo://app?vid=427770fe-135d-4645-adaf-68df475405ab","ios":"levelo://app?vid=427770fe-135d-4645-adaf-68df475405ab"},"vehicle_type_id":"4","last_reported":1685407179,"current_range_meters":30800,"station_id":"ce4bh192rcd13ifvqdc0","pricing_plan_id":"free"},{"bike_id":"52a5d0da-78ef-4d82-bf9b-80a2912ceddb","system_id":"levelo_inurba_marseille","lat":43.292571,"lon":5.409107,"is_reserved":false,"is_disabled":false,"rental_uris":{"android":"levelo://app?vid=52a5d0da-78ef-4d82-bf9b-80a2912ceddb","ios":"levelo://app?vid=52a5d0da-78ef-4d82-bf9b-80a2912ceddb"},"vehicle_type_id":"4","last_reported":1685407179,"current_range_meters":10800,"station_id":"ce4bh192rcd13ifvqdc0","pricing_plan_id":"free"},{"bike_id":"aed2301c-40f9-4798-91c7-5b0fc659da79","system_id":"levelo_inurba_marseille","lat":43.292571,"lon":5.409107,"is_reserved":false,"is_disabled":false,"rental_uris":{"android":"levelo://app?vid=aed2301c-40f9-4798-91c7-5b0fc659da79","ios":"levelo://app?vid=aed2301c-40f9-4798-91c7-5b0fc659da79"},"vehicle_type_id":"4","last_reported":1685407179,"current_range_meters":31200,"station_id":"ce4bh192rcd13ifvqdc0","pricing_plan_id":"free"},{"bike_id":"e8c8fa44-1d52-4097-ae3a-799964ea5f4f","system_id":"levelo_inurba_marseille","lat":43.292571,"lon":5.409107,"is_reserved":false,"is_disabled":false,"rental_uris":{"android":"levelo://app?vid=e8c8fa44-1d52-4097-ae3a-799964ea5f4f","ios":"levelo://app?vid=e8c8fa44-1d52-4097-ae3a-799964ea5f4f"},"vehicle_type_id":"4","last_reported":1685407179,"current_range_meters":800,"station_id":"ce4bh192rcd13ifvqdc0","pricing_plan_id":"free"},{"bike_id":"70c23f12-e33c-4e39-a174-e7b0921e8a00","system_id":"levelo_inurba_marseille","lat":43.292569,"lon":5.409107,"is_reserved":false,"is_disabled":false,"rental_uris":{"android":"levelo://app?vid=70c23f12-e33c-4e39-a174-e7b0921e8a00","ios":"levelo://app?vid=70c23f12-e33c-4e39-a174-e7b0921e8a00"},"vehicle_type_id":"4","last_reported":1685407179,"current_range_meters":31200,"station_id":"ce4bh192rcd13ifvqdc0","pricing_plan_id":"free"},{"bike_id":"714a3863-0dd0-42f8-b987-49a452450bf6","system_id":"levelo_inurba_marseille","lat":43.292571,"lon":5.409107,"is_reserved":false,"is_disabled":false,"rental_uris":{"android":"levelo://app?vid=714a3863-0dd0-42f8-b987-49a452450bf6","ios":"levelo://app?vid=714a3863-0dd0-42f8-b987-49a452450bf6"},"vehicle_type_id":"4","last_reported":1685407179,"current_range_meters":15200,"station_id":"ce4bh192rcd13ifvqdc0","pricing_plan_id":"free"},{"bike_id":"8cf46f3b-e5d5-4c3c-9471-8c19bda836be","system_id":"levelo_inurba_marseille","lat":43.292569,"lon":5.409107,"is_reserved":false,"is_disabled":false,"rental_uris":{"android":"levelo://app?vid=8cf46f3b-e5d5-4c3c-9471-8c19bda836be","ios":"levelo://app?vid=8cf46f3b-e5d5-4c3c-9471-8c19bda836be"},"vehicle_type_id":"4","last_reported":1685407179,"current_range_meters":18000,"station_id":"ce4bh192rcd13ifvqdc0","pricing_plan_id":"free"},