{"last_updated":1745328095,"ttl":60,"version":"2.2","data":{"bikes":[{"bike_id":"cdfeb60c-53d0-4633-b4bb-c32ac36e86ff","system_id":"levelo_inurba_marseille","lat":43.32332,"lon":5.42012,"is_reserved":false,"is_disabled":false,"rental_uris":{"android":"levelo://app?vid=cdfeb60c-53d0-4633-b4bb-c32ac36e86ff","ios":"levelo://app?vid=cdfeb60c-53d0-4633-b4bb-c32ac36e86ff"},"vehicle_type_id":"4","last_reported":1745328095,"current_range_meters":2800,"station_id":"","pricing_plan_id":"cebpf4jnsgd1na2vs0mg"},{"bike_id":"528daede-9e02-4558-bdb9-29e178ac8b2b","system_id":"levelo_inurba_marseille","lat":43.25085,"lon":5.39516,"is_reserved":false,"is_disabled":false,"rental_uris":{"android":"levelo://app?vid=528daede-9e02-4558-bdb9-29e178ac8b2b","ios":"levelo://app?vid=528daede-9e02-4558-bdb9-29e178ac8b2b"},"vehicle_type_id":"4","last_reported":1745328095,"current_range_meters":3200,"station_id":"ce4bhm12rcd13ifvqgkg","pricing_plan_id":"cebpf4jnsgd1na2vs0mg"},{"bike_id":"c1ab41e3-2c69-4885-93b1-551605f361e3","system_id":"levelo_inurba_marseille","lat":43.24159,"lon":5.39701,"is_reserved":false,"is_disabled":false,"rental_uris":{"android":"levelo://app?vid=c1ab41e3-2c69-4885-93b1-551605f361e3","ios":"levelo://app?vid=c1ab41e3-2c69-4885-93b1-551605f361e3"},"vehicle_type_id":"4","last_reported":1745328095,"current_range_meters":3200,"station_id":"ce4bhn12rcd13ifvqgpg","pricing_plan_id":"cebpf4jnsgd1na2vs0mg"},{"bike_id":"d42da8b3-5312-4608-a60b-fef54c0c16d1","system_id":"levelo_inurba_marseille","lat":43.28078,"lon":5.39645,"is_reserved":false,"is_disabled":false,"rental_uris":{"android":"levelo://app?vid=d42da8b3-5312-4608-a60b-fef54c0c16d1","ios":"levelo://app?vid=d42da8b3-5312-4608-a60b-fef54c0c16d1"},"vehicle_type_id":"4","last_reported":1745328095,"current_range_meters":3600,"station_id":"ce4bho12rcd13ifvqh2g","pricing_plan_id":"cebpf4jnsgd1na2vs0mg"},{"bike_id":"a9aac491-923d-441c-8b46-0ff5e5903534","system_id":"levelo_inurba_marseille","lat":43.28113,"lon":5.37825,"is_reserved":false,"is_disabled":false,"rental_uris":{"android":"levelo://app?vid=a9aac491-923d-441c-8b46-0ff5e5903534","ios":"levelo://app?vid=a9aac491-923d-441c-8b46-0ff5e5903534"},"vehicle_type_id":"4","last_reported":1745328095,"current_range_meters":3600,"station_id":"ce4bha12rcd13ifvqee0","pricing_plan_id":"cebpf4jnsgd1na2vs0mg"},{"bike_id":"9cb78838-fa40-49f8-9f8e-bb3eea88e658","system_id":"levelo_inurba_marseille","lat":43.28153,"lon":5.42637,"is_reserved":false,"is_disabled":false,"rental_uris":{"android":"levelo://app?vid=9cb78838-fa40-49f8-9f8e-bb3eea88e658","ios":"levelo://app?vid=9cb78838-fa40-49f8-9f8e-bb3eea88e658"},"vehicle_type_id":"4","last_reported":1745328095,"current_range_meters":3600,"station_id":"ce4bhnh2rcd13ifvqgug","pricing_plan_id":"cebpf4jnsgd1na2vs0mg"},{"bike_id":"b33f2024-0dec-4b00-b62b-c5c394e73adb","system_id":"levelo_inurba_marseille","lat":43.280492,"lon":5.400879,"is_reserved":false,"is_disabled":false,"rental_uris":{"android":"levelo://app?vid=b33f2024-0dec-4b00-b62b-c5c394e73adb","ios":"levelo://app?vid=b33f2024-0dec-4b00-b62b-c5c394e73adb"},"vehicle_type_id":"4","last_reported":1745328095,"current_range_meters":4400,"station_id":"","pricing_plan_id":"cebpf4jnsgd1na2vs0mg"},{"bike_id":"2ff0e797-e0dc-4e41-ba6f-df32ff57f045","system_id":"levelo_inurba_marseille","lat":43.24545,"lon":5.39535,"is_reserved":false,"is_disabled":false,"rental_uris":{"android":"levelo://app?vid=2ff0e797-e0dc-4e41-ba6f-df32ff57f045","ios":"levelo://app?vid=2ff0e797-e0dc-4e41-ba6f-df32ff57f045"},"vehicle_type_id":"4","last_reported":1745328095,"current_range_meters":4400,"station_id":"ce4bhlp2rcd13ifvqgjg","pricing_plan_id":"cebpf4jnsgd1na2vs0mg"},{"bike_id":"67936285-8aa0-4d8c-b348-1eef8db2b572","system_id":"levelo_inurba_marseille","lat":43.29513,"lon":5.39024,"is_reserved":false,"is_disabled":false,"rental_uris":{"android":"levelo://app?vid=67936285-8aa0-4d8c-b348-1eef8db2b572","ios":"levelo://app?vid=67936285-8aa0-4d8c-b348-1eef8db2b572"},"vehicle_type_id":"4","last_reported":1745328095,"current_range_meters":4800,"station_id":"ce4bh3p2rcd13ifvqdp0","pricing_plan_id":"cebpf4jnsgd1na2vs0mg"},{"bike_id":"c4b2a16b-8695-475d-9865-fc4244880a3a","system_id":"levelo_inurba_marseille","lat":43.2883,"lon":5.39331,"is_reserved":false,"is_disabled":false,"rental_uris":{"android":"levelo://app?vid=c4b2a16b-8695-475d-9865-fc4244880a3a","ios":"levelo://app?vid=c4b2a16b-8695-475d-9865-fc4244880a3a"},"vehicle_type_id":"4","last_reported":1745328095,"current_range_meters":4800,"station_id":"ce4bh2p2rcd13ifvqdi0","pricing_plan_id":"cebpf4jnsgd1na2vs0mg"},{"bike_id":"65063f5a-35c5-4894-8279-090102c2b96c","system_id":"levelo_inurba_marseille","lat":43.25929,"lon":5.40888,"is_reserved":false,"is_disabled":false,"rental_uris":{"android":"levelo://app?vid=65063f5a-35c5-4894-8279-090102c2b96c","ios":"levelo://app?vid=65063f5a-35c5-4894-8279-090102c2b96c"},"vehicle_type_id":"4","last_reported":1745328095,"current_range_meters":4800,"station_id":"ce4bhm92rcd13ifvqglg","pricing_plan_id":"cebpf4jnsgd1na2vs0mg"},{"bike_id":"08adba7b-eac3-4cfc-9923-2ccf0cc4ffef","system_id":"levelo_inurba_marseille","lat":43.24528,"lon":5.41316,"is_reserved":false,"is_disabled":false,"rental_uris":{"android":"levelo://app?vid=08adba7b-eac3-4cfc-9923-2ccf0cc4ffef","ios":"levelo://app?vid=08adba7b-eac3-4cfc-9923-2ccf0cc4ffef"},"vehicle_type_id":"4","last_reported":1745328095,"current_range_meters":4800,"station_id":"","pricing_plan_id":"cebpf4jnsgd1na2vs0mg"},{"bike_id":"0ef23631-dbd2-4c68-adc1-77243fd0c5dd","system_id":"levelo_inurba_marseille","lat":43.29287,"lon":5.3855,"is_reserved":false,"is_disabled":false,"rental_uris":{"android":"levelo://app?vid=0ef23631-dbd2-4c68-adc1-77243fd0c5dd","ios":"levelo://app?vid=0ef23631-dbd2-4c68-adc1-77243fd0c5dd"},"vehicle_type_id":"4","last_reported":1745328095,"current_range_meters":4800,"station_id":"","pricing_plan_id":"cebpf4jnsgd1na2vs0mg"},{"bike_id":"993c6a73-ff2b-40c5-8f1f-dbaebeeb387b","system_id":"levelo_inurba_marseille","lat":43.337032,"lon":5.410108,"is_reserved":false,"is_disabled":false,"rental_uris":{"android":"levelo://app?vid=993c6a73-ff2b-40c5-8f1f-dbaebeeb387b","ios":"levelo://app?vid=993c6a73-ff2b-40c5-8f1f-dbaebeeb387b"},"vehicle_type_id":"4","last_reported":1745328095,"current_range_meters":5600,"station_id":"ce4bhqh2rcd13ifvqhlg","pricing_plan_id":"cebpf4jnsgd1na2vs0mg"},{"bike_id":"39b7ee85-9cbf-4904-a10a-75042515f95d","system_id":"levelo_inurba_marseille","lat":43.36258,"lon":5.34749,"is_reserved":false,"is_disabled":false,"rental_uris":{"android":"levelo://app?vid=39b7ee85-9cbf-4904-a10a-75042515f95d","ios":"levelo://app?vid=39b7ee85-9cbf-4904-a10a-75042515f95d"},"vehicle_type_id":"4","last_reported":1745328095,"current_range_meters":5600,"station_id":"","pricing_plan_id":"cebpf4jnsgd1na2vs0mg"},{"bike_id":"fe9a34d0-7474-4d5c-85f0-d06cbdee2412","system_id":"levelo_inurba_marseille","lat":43.30539,"lon":5.36539,"is_reserved":false,"is_disabled":false,"rental_uris":{"android":"levelo://app?vid=fe9a34d0-7474-4d5c-85f0-d06cbdee2412","ios":"levelo://app?vid=fe9a34d0-7474-4d5c-85f0-d06cbdee2412"},"vehicle_type_id":"4","last_reported":1745328095,"current_range_meters":6000,"station_id":"ce4bgs12rcd13ifvqcag","pricing_plan_id":"cebpf4jnsgd1na2vs0mg"},{"bike_id":"09dee540-5e47-4727-9320-91c0322b8a03","system_id":"levelo_inurba_marseille","lat":43.27689,"lon":5.38874,"is_reserved":false,"is_disabled":false,"rental_uris":{"android":"levelo://app?vid=09dee540-5e47-4727-9320-91c0322b8a03","ios":"levelo://app?vid=09dee540-5e47-4727-9320-91c0322b8a03"},"vehicle_type_id":"4","last_reported":1745328095,"current_range_meters":5600,"station_id":"ce4bhi12rcd13ifvqfo0","pricing_plan_id":"cebpf4jnsgd1na2vs0mg"},{"bike_id":"9ed3ff81-3b48-4a46-9802-008e96f1630c","system_id":"levelo_inurba_marseille","lat":43.30531,"lon":5.36536,"is_reserved":false,"is_disabled":false,"rental_uris":{"android":"levelo://app?vid=9ed3ff81-3b48-4a46-9802-008e96f1630c","ios":"levelo://app?vid=9ed3ff81-3b48-4a46-9802-008e96f1630c"},"vehicle_type_id":"4","last_reported":1745328095,"current_range_meters":6000,"station_id":"ce4bgs12rcd13ifvqcag","pricing_plan_id":"cebpf4jnsgd1na2vs0mg"},{"bike_id":"30b4c7c2-521f-45b1-9e85-303453cdc66e","system_id":"levelo_inurba_marseille","lat":43.24082,"lon":5.37752,"is_reserved":false,"is_disabled":false,"rental_uris":{"android":"levelo://app?vid=30b4c7c2-521f-45b1-9e85-303453cdc66e","ios":"levelo://app?vid=30b4c7c2-521f-45b1-9e85-303453cdc66e"},"vehicle_type_id":"4","last_reported":1745328095,"current_range_meters":6400,"station_id":"ce4bhnp2rcd13ifvqgvg","pricing_plan_id":"cebpf4jnsgd1na2vs0mg"},{"bike_id":"42b8c458-359e-4640-bd60-e3fefbb9e50b","system_id":"levelo_inurba_marseille","lat":43.315318,"lon":5.380434,"is_reserved":false,"is_disabled":false,"rental_uris":{"android":"levelo://app?vid=42b8c458-359e-4640-bd60-e3fefbb9e50b","ios":"levelo://app?vid=42b8c458-359e-4640-bd60-e3fefbb9e50b"},"vehicle_type_id":"4","last_reported":1745328095,"current_range_meters":6000,"station_id":"ce4bhsp2rcd13ifvqi50","pricing_plan_id":"cebpf4jnsgd1na2vs0mg"},{"bike_id":"0a144b4a-fc6a-4a53-a602-5298d59f38f0","system_id":"levelo_inurba_marseille","lat":43.32029,"lon":5.41575,"is_reserved":false,"is_disabled":false,"rental_uris":{"android":"levelo://app?vid=0a144b4a-fc6a-4a53-a602-5298d59f38f0","ios":"levelo://app?vid=0a144b4a-fc6a-4a53-a602-5298d59f38f0"},"vehicle_type_id":"4","last_reported":1745328095,"current_range_meters":6400,"station_id":"ce4bhq92rcd13ifvqhkg","pricing_plan_id":"cebpf4jnsgd1na2vs0mg"},{"bike_id":"006a54d5-f720-4acd-bfc7-fa083d25c9f6","system_id":"levelo_inurba_marseille","lat":43.30593,"lon":5.39355,"is_reserved":false,"is_disabled":false,"rental_uris":{"android":"levelo://app?vid=006a54d5-f720-4acd-bfc7-fa083d25c9f6","ios":"levelo://app?vid=006a54d5-f720-4acd-bfc7-fa083d25c9f6"},"vehicle_type_id":"4","last_reported":1745328095,"current_range_meters":6400,"station_id":"ce4bh0p2rcd13ifvqd80","pricing_plan_id":"cebpf4jnsgd1na2vs0mg"},{"bike_id":"e01597b2-46dd-4257-abcf-44fdf27683a0","system_id":"levelo_inurba_marseille","lat":43.28451,"lon":5.39206,"is_reserved":false,"is_disabled":false,"rental_uris":{"android":"levelo://app?vid=e01597b2-46dd-4257-abcf-44fdf27683a0","ios":"levelo://app?vid=e01597b2-46dd-4257-abcf-44fdf27683a0"},"vehicle_type_id":"4","last_reported":1745328095,"current_range_meters":6800,"station_id":"ce4bhoh2rcd13ifvqh5g","pricing_plan_id":"cebpf4jnsgd1na2vs0mg"},{"bike_id":"d7b9f60e-4d70-45b9-8c3b-70ba1a384f7d","system_id":"levelo_inurba_marseille","lat":43.27995,"lon":5.41654,"is_reserved":false,"is_disabled":false,"rental_uris":{"android":"levelo://app?vid=d7b9f60e-4d70-45b9-8c3b-70ba1a384f7d","ios":"levelo://app?vid=d7b9f60e-4d70-45b9-8c3b-70ba1a384f7d"},"vehicle_type_id":"4","last_reported":1745328095,"current_range_meters":6800,"station_id":"ce4bho12rcd13ifvqh1g","pricing_plan_id":"cebpf4jnsgd1na2vs0mg"},{"bike_id":"7329f081-778b-4488-91b5-53866ebea723","system_id":"levelo_inurba_marseille","lat":43.27207,"lon":5.39182,"is_reserved":false,"is_disabled":false,"rental_uris":{"android":"levelo://app?vid=7329f081-778b-4488-91b5-53866ebea723","ios":"levelo://app?vid=7329f081-778b-4488-91b5-53866ebea723"},"vehicle_type_id":"4","last_reported":1745328095,"current_range_meters":6800,"station_id":"ce4bhhp2rcd13ifvqfm0","pricing_plan_id":"cebpf4jnsgd1na2vs0mg"},{"bike_id":"399bb24c-ff53-4ece-8f1d-f08ffc602b21","system_id":"levelo_inurba_marseille","lat":43.23963,"lon":5.36638,"is_reserved":false,"is_disabled":false,"rental_uris":{"android":"levelo://app?vid=399bb24c-ff53-4ece-8f1d-f08ffc602b21","ios":"levelo://app?vid=399bb24c-ff53-4ece-8f1d-f08ffc602b21"},"vehicle_type_id":"4","last_reported":1745328095,"current_range_meters":7200,"station_id":"ce4bhi12rcd13ifvqfp0","pricing_plan_id":"cebpf4jnsgd1na2vs0mg"},{"bike_id":"bd3c1754-f5f3-4d87-8dc7-96dd2b03d4d2","system_id":"levelo_inurba_marseille","lat":43.33417,"lon":5.40053,"is_reserved":false,"is_disabled":false,"rental_uris":{"android":"levelo://app?vid=bd3c1754-f5f3-4d87-8dc7-96dd2b03d4d2","ios":"levelo://app?vid=bd3c1754-f5f3-4d87-8dc7-96dd2b03d4d2"},"vehicle_type_id":"4","last_reported":1745328095,"current_range_meters":7200,"station_id":"","pricing_plan_id":"cebpf4jnsgd1na2vs0mg"},{"bike_id":"615c6418-249d-4b89-9b9d-4239ab73dfbf","system_id":"levelo_inurba_marseille","lat":43.273874,"lon":5.390366,"is_reserved":false,"is_disabled":false,"rental_uris":{"android":"levelo://app?vid=615c6418-249d-4b89-9b9d-4239ab73dfbf","ios":"levelo://app?vid=615c6418-249d-4b89-9b9d-4239ab73dfbf"},"vehicle_type_id":"4","last_reported":1745328095,"current_range_meters":8000,"station_id":"ce4bhl92rcd13ifvqghg","pricing_plan_id":"cebpf4jnsgd1na2vs0mg"},{"bike_id":"80349d4c-4a0e-48a3-a927-7fee52468c5c","system_id":"levelo_inurba_marseille","lat":43.323586,"lon":5.367414,"is_reserved":false,"is_disabled":false,"rental_uris":{"android":"levelo://app?vid=80349d4c-4a0e-48a3-a927-7fee52468c5c","ios":"levelo://app?vid=80349d4c-4a0e-48a3-a927-7fee52468c5c"},"vehicle_type_id":"4","last_reported":1745328095,"current_range_meters":8000,"station_id":"ce4bhsh2rcd13ifvqi2g","pricing_plan_id":"cebpf4jnsgd1na2vs0mg"},{"bike_id":"e4147707-5426-4f3f-b655-c9b166be32b2","system_id":"levelo_inurba_marseille","lat":43.32045,"lon":5.41557,"is_reserved":false,"is_disabled":false,"rental_uris":{"android":"levelo://app?vid=e4147707-5426-4f3f-b655-c9b166be32b2","ios":"levelo://app?vid=e4147707-5426-4f3f-b655-c9b166be32b2"},"vehicle_type_id":"4","last_reported":1745328095,"current_range_meters":8400,"station_id":"ce4bhq92rcd13ifvqhkg","pricing_plan_id":"cebpf4jnsgd1na2vs0mg"},{"bike_id":"22ad8cd8-448d-4f6e-b2fe-740f8d592dd7","system_id":"levelo_inurba_marseille","lat":43.337699,"lon":5.374326,"is_reserved":false,"is_disabled":false,"rental_uris":{"android":"levelo://app?vid=22ad8cd8-448d-4f6e-b2fe-740f8d592dd7","ios":"levelo://app?vid=22ad8cd8-448d-4f6e-b2fe-740f8d592dd7"},"vehicle_type_id":"4","last_reported":1745328095,"current_range_meters":8400,"station_id":"","pricing_plan_id":"cebpf4jnsgd1na2vs0mg"},{"bike_id":"1c755526-7610-4241-9257-348acde561d3","system_id":"levelo_inurba_marseille","lat":43.24864,"lon":5.38189,"is_reserved":false,"is_disabled":false,"rental_uris":{"android":"levelo://app?vid=1c755526-7610-4241-9257-348acde561d3","ios":"levelo://app?vid=1c755526-7610-4241-9257-348acde561d3"},"vehicle_type_id":"4","last_reported":1745328095,"current_range_meters":8400,"station_id":"","pricing_plan_id":"cebpf4jnsgd1na2vs0mg"},{"bike_id":"e012801c-81d9-4d73-999a-0a65f78e7eb4","system_id":"levelo_inurba_marseille","lat":43.2944,"lon":5.39746,"is_reserved":false,"is_disabled":false,"rental_uris":{"android":"levelo://app?vid=e012801c-81d9-4d73-999a-0a65f78e7eb4","ios":"levelo://app?vid=e012801c-81d9-4d73-999a-0a65f78e7eb4"},"vehicle_type_id":"4","last_reported":1745328095,"current_range_meters":8400,"station_id":"ce4bh3h2rcd13ifvqdo0","pricing_plan_id":"cebpf4jnsgd1na2vs0mg"},{"bike_id":"a634f3bf-af6c-4d3c-8f43-d75bbb1dc2c8","system_id":"levelo_inurba_marseille","lat":43.28845,"lon":5.39298,"is_reserved":false,"is_disabled":false,"rental_uris":{"android":"levelo://app?vid=a634f3bf-af6c-4d3c-8f43-d75bbb1dc2c8","ios":"levelo://app?vid=a634f3bf-af6c-4d3c-8f43-d75bbb1dc2c8"},"vehicle_type_id":"4","last_reported":1745328095,"current_range_meters":8800,"station_id":"ce4bh2p2rcd13ifvqdi0","pricing_plan_id":"cebpf4jnsgd1na2vs0mg"},{"bike_id":"22750c2e-ec44-40a0-9503-5b5cbec87109","system_id":"levelo_inurba_marseille","lat":43.29921,"lon":5.37473,"is_reserved":false,"is_disabled":false,"rental_uris":{"android":"levelo://app?vid=22750c2e-ec44-40a0-9503-5b5cbec87109","ios":"levelo://app?vid=22750c2e-ec44-40a0-9503-5b5cbec87109"},"vehicle_type_id":"4","last_reported":1745328095,"current_range_meters":8800,"station_id":"ce4bgjh2rcd13ifvqbg0","pricing_plan_id":"cebpf4jnsgd1na2vs0mg"},{"bike_id":"6621aba9-34af-42b8-a6bb-29d0168b1c54","system_id":"levelo_inurba_marseille","lat":43.30415,"lon":5.41286,"is_reserved":false,"is_disabled":false,"rental_uris":{"android":"levelo://app?vid=6621aba9-34af-42b8-a6bb-29d0168b1c54","ios":"levelo://app?vid=6621aba9-34af-42b8-a6bb-29d0168b1c54"},"vehicle_type_id":"4","last_reported":1745328095,"current_range_meters":8800,"station_id":"ce4bhop2rcd13ifvqh8g","pricing_plan_id":"cebpf4jnsgd1na2vs0mg"},{"bike_id":"7ec71919-eb1e-4aa1-9b29-5ae167aa25dd","system_id":"levelo_inurba_marseille","lat":43.31342,"lon":5.3673,"is_reserved":false,"is_disabled":false,"rental_uris":{"android":"levelo://app?vid=7ec71919-eb1e-4aa1-9b29-5ae167aa25dd","ios":"levelo://app?vid=7ec71919-eb1e-4aa1-9b29-5ae167aa25dd"},"vehicle_type_id":"4","last_reported":1745328095,"current_range_meters":9200,"station_id":"ce4bgr92rcd13ifvqc6g","pricing_plan_id":"cebpf4jnsgd1na2vs0mg"},{"bike_id":"cee962ec-56f6-406e-a7d7-4ea49f1579ef","system_id":"levelo_inurba_marseille","lat":43.296147,"lon":5.378714,"is_reserved":false,"is_disabled":false,"rental_uris":{"android":"levelo://app?vid=cee962ec-56f6-406e-a7d7-4ea49f1579ef","ios":"levelo://app?vid=cee962ec-56f6-406e-a7d7-4ea49f1579ef"},"vehicle_type_id":"4","last_reported":1745328095,"current_range_meters":9600,"station_id":"ce4bguh2rcd13ifvqckg","pricing_plan_id":"cebpf4jnsgd1na2vs0mg"},{"bike_id":"a33c556c-084d-424a-8f00-00283835337c","system_id":"levelo_inurba_marseille","lat":43.31756,"lon":5.39016,"is_reserved":false,"is_disabled":false,"rental_uris":{"android":"levelo://app?vid=a33c556c-084d-424a-8f00-00283835337c","ios":"levelo://app?vid=a33c556c-084d-424a-8f00-00283835337c"},"vehicle_type_id":"4","last_reported":1745328095,"current_range_meters":9600,"station_id":"ce4bhqp2rcd13ifvqhng","pricing_plan_id":"cebpf4jnsgd1na2vs0mg"},{"bike_id":"1aabe5c9-09ca-44d1-bb3a-8c93e9abfee7","system_id":"levelo_inurba_marseille","lat":43.3235,"lon":5.36755,"is_reserved":false,"is_disabled":false,"rental_uris":{"android":"levelo://app?vid=1aabe5c9-09ca-44d1-bb3a-8c93e9abfee7","ios":"levelo://app?vid=1aabe5c9-09ca-44d1-bb3a-8c93e9abfee7"},"vehicle_type_id":"4","last_reported":1745328095,"current_range_meters":10000,"station_id":"ce4bhsh2rcd13ifvqi2g","pricing_plan_id":"cebpf4jnsgd1na2vs0mg"},{"bike_id":"2dc4e79a-33a8-48b0-bf03-f6328f1dc1f6","system_id":"levelo_inurba_marseille","lat":43.323683,"lon":5.388886,"is_reserved":false,"is_disabled":true,"rental_uris":{"android":"levelo://app?vid=2dc4e79a-33a8-48b0-bf03-f6328f1dc1f6","ios":"levelo://app?vid=2dc4e79a-33a8-48b0-bf03-f6328f1dc1f6"},"vehicle_type_id":"4","last_reported":1745328095,"current_range_meters":10000,"station_id":"ce4bhqp2rcd13ifvqhog","pricing_plan_id":"cebpf4jnsgd1na2vs0mg"},{"bike_id":"d484f13b-a8c2-475b-ab14-dda2e2db9c38","system_id":"levelo_inurba_marseille","lat":43.29305,"lon":5.37458,"is_reserved":false,"is_disabled":false,"rental_uris":{"android":"levelo://app?vid=d484f13b-a8c2-475b-ab14-dda2e2db9c38","ios":"levelo://app?vid=d484f13b-a8c2-475b-ab14-dda2e2db9c38"},"vehicle_type_id":"4","last_reported":1745328095,"current_range_meters":10000,"station_id":"ce4bgi12rcd13ifvqb70","pricing_plan_id":"cebpf4jnsgd1na2vs0mg"},{"bike_id":"67b1c6d8-8a5e-499b-9198-8c426a28ca39","system_id":"levelo_inurba_marseille","lat":43.30373,"lon":5.42479,"is_reserved":false,"is_disabled":false,"rental_uris":{"android":"levelo://app?vid=67b1c6d8-8a5e-499b-9198-8c426a28ca39","ios":"levelo://app?vid=67b1c6d8-8a5e-499b-9198-8c426a28ca39"},"vehicle_type_id":"4","last_reported":1745328095,"current_range_meters":10000,"station_id":"ce4bhoh2rcd13ifvqh6g","pricing_plan_id":"cebpf4jnsgd1na2vs0mg"},{"bike_id":"e9f964c8-df68-4236-82e7-cf2cccb13c84","system_id":"levelo_inurba_marseille","lat":43.295206,"lon":5.385344,"is_reserved":false,"is_disabled":false,"rental_uris":{"android":"levelo://app?vid=e9f964c8-df68-4236-82e7-cf2cccb13c84","ios":"levelo://app?vid=e9f964c8-df68-4236-82e7-cf2cccb13c84"},"vehicle_type_id":"4","last_reported":1745328095,"current_range_meters":10000,"station_id":"ce4bgih2rcd13ifvqba0","pricing_plan_id":"cebpf4jnsgd1na2vs0mg"},{"bike_id":"1bd0f847-a25f-4b63-846d-fe7e5ef29de9","system_id":"levelo_inurba_marseille","lat":43.23151,"lon":5.43689,"is_reserved":false,"is_disabled":false,"rental_uris":{"android":"levelo://app?vid=1bd0f847-a25f-4b63-846d-fe7e5ef29de9","ios":"levelo://app?vid=1bd0f847-a25f-4b63-846d-fe7e5ef29de9"},"vehicle_type_id":"4","last_reported":1745328095,"current_range_meters":10000,"station_id":"ce4bhmp2rcd13ifvqgog","pricing_plan_id":"cebpf4jnsgd1na2vs0mg"},{"bike_id":"89454146-7f6c-4563-9fd3-bacfdfb7c58d","system_id":"levelo_inurba_marseille","lat":43.26214,"lon":5.37439,"is_reserved":false,"is_disabled":false,"rental_uris":{"android":"levelo://app?vid=89454146-7f6c-4563-9fd3-bacfdfb7c58d","ios":"levelo://app?vid=89454146-7f6c-4563-9fd3-bacfdfb7c58d"},"vehicle_type_id":"4","last_reported":1745328095,"current_range_meters":10800,"station_id":"ce4bhgp2rcd13ifvqfc0","pricing_plan_id":"cebpf4jnsgd1na2vs0mg"},{"bike_id":"9a0451f9-5c1a-4d78-91cd-f36be7c3ec03","system_id":"levelo_inurba_marseille","lat":43.30521,"lon":5.38438,"is_reserved":false,"is_disabled":false,"rental_uris":{"android":"levelo://app?vid=9a0451f9-5c1a-4d78-91cd-f36be7c3ec03","ios":"levelo://app?vid=9a0451f9-5c1a-4d78-91cd-f36be7c3ec03"},"vehicle_type_id":"4","last_reported":1745328095,"current_range_meters":10800,"station_id":"ce4bgg92rcd13ifvqb30","pricing_plan_id":"cebpf4jnsgd1na2vs0mg"},{"bike_id":"e6990bb6-6756-4cff-8ff4-7d0288f9f28c","system_id":"levelo_inurba_marseille","lat":43.30534,"lon":5.36553,"is_reserved":false,"is_disabled":false,"rental_uris":{"android":"levelo://app?vid=e6990bb6-6756-4cff-8ff4-7d0288f9f28c","ios":"levelo://app?vid=e6990bb6-6756-4cff-8ff4-7d0288f9f28c"},"vehicle_type_id":"4","last_reported":1745328095,"current_range_meters":11200,"station_id":"ce4bgs12rcd13ifvqcag","pricing_plan_id":"cebpf4jnsgd1na2vs0mg"},{"bike_id":"0e8005a7-10a3-4bb6-9503-95d82e985efa","system_id":"levelo_inurba_marseille","lat":43.24672,"lon":5.38149,"is_reserved":false,"is_disabled":false,"rental_uris":{"android":"levelo://app?vid=0e8005a7-10a3-4bb6-9503-95d82e985efa","ios":"levelo://app?vid=0e8005a7-10a3-4bb6-9503-95d82e985efa"},"vehicle_type_id":"4","last_reported":1745328095,"current_range_meters":11200,"station_id":"ce4bhih2rcd13ifvqfr0","pricing_plan_id":"cebpf4jnsgd1na2vs0mg"},{"bike_id":"f91f0100-94bb-4ff9-a044-4ad7d7e876ee","system_id":"levelo_inurba_marseille","lat":43.29198,"lon":5.39314,"is_reserved":false,"is_disabled":false,"rental_uris":{"android":"levelo://app?vid=f91f0100-94bb-4ff9-a044-4ad7d7e876ee","ios":"levelo://app?vid=f91f0100-94bb-4ff9-a044-4ad7d7e876ee"},"vehicle_type_id":"4","last_reported":1745328095,"current_range_meters":11600,"station_id":"","pricing_plan_id":"cebpf4jnsgd1na2vs0mg"},{"bike_id":"d3cc4382-1cdf-483f-b52a-3f792d083520","system_id":"levelo_inurba_marseille","lat":43.27993,"lon":5.40023,"is_reserved":false,"is_disabled":false,"rental_uris":{"android":"levelo://app?vid=d3cc4382-1cdf-483f-b52a-3f792d083520","ios":"levelo://app?vid=d3cc4382-1cdf-483f-b52a-3f792d083520"},"vehicle_type_id":"4","last_reported":1745328095,"current_range_meters":11600,"station_id":"ce4bho92rcd13ifvqh4g","pricing_plan_id":"cebpf4jnsgd1na2vs0mg"},{"bike_id":"9d3ac418-6c55-463b-8572-20b41e9e68ba","system_id":"levelo_inurba_marseille","lat":43.25107,"lon":5.4032,"is_reserved":false,"is_disabled":false,"rental_uris":{"android":"levelo://app?vid=9d3ac418-6c55-463b-8572-20b41e9e68ba","ios":"levelo://app?vid=9d3ac418-6c55-463b-8572-20b41e9e68ba"},"vehicle_type_id":"4","last_reported":1745328095,"current_range_meters":12000,"station_id":"ce4bhlh2rcd13ifvqgig","pricing_plan_id":"cebpf4jnsgd1na2vs0mg"},{"bike_id":"26f2198e-4139-4354-bd77-0a06e9b2eb50","system_id":"levelo_inurba_marseille","lat":43.28034,"lon":5.36947,"is_reserved":false,"is_disabled":false,"rental_uris":{"android":"levelo://app?vid=26f2198e-4139-4354-bd77-0a06e9b2eb50","ios":"levelo://app?vid=26f2198e-4139-4354-bd77-0a06e9b2eb50"},"vehicle_type_id":"4","last_reported":1745328095,"current_range_meters":12000,"station_id":"ce4bha12rcd13ifvqef0","pricing_plan_id":"cebpf4jnsgd1na2vs0mg"},{"bike_id":"3634d611-7188-428d-911b-b0f6f492e893","system_id":"levelo_inurba_marseille","lat":43.2953,"lon":5.37508,"is_reserved":false,"is_disabled":false,"rental_uris":{"android":"levelo://app?vid=3634d611-7188-428d-911b-b0f6f492e893","ios":"levelo://app?vid=3634d611-7188-428d-911b-b0f6f492e893"},"vehicle_type_id":"4","last_reported":1745328095,"current_range_meters":12000,"station_id":"ce4bgkp2rcd13ifvqbmg","pricing_plan_id":"cebpf4jnsgd1na2vs0mg"},{"bike_id":"1071691b-8dbe-46bc-a800-61d87bc6786f","system_id":"levelo_inurba_marseille","lat":43.293116,"lon":5.371824,"is_reserved":false,"is_disabled":false,"rental_uris":{"android":"levelo://app?vid=1071691b-8dbe-46bc-a800-61d87bc6786f","ios":"levelo://app?vid=1071691b-8dbe-46bc-a800-61d87bc6786f"},"vehicle_type_id":"4","last_reported":1745328095,"current_range_meters":11600,"station_id":"ce4bgh92rcd13ifvqb40","pricing_plan_id":"cebpf4jnsgd1na2vs0mg"},{"bike_id":"5ab24232-a320-446b-a262-f9e52e8ea8e6","system_id":"levelo_inurba_marseille","lat":43.28714,"lon":5.37931,"is_reserved":false,"is_disabled":false,"rental_uris":{"android":"levelo://app?vid=5ab24232-a320-446b-a262-f9e52e8ea8e6","ios":"levelo://app?vid=5ab24232-a320-446b-a262-f9e52e8ea8e6"},"vehicle_type_id":"4","last_reported":1745328095,"current_range_meters":12000,"station_id":"ce4bh9p2rcd13ifvqec0","pricing_plan_id":"cebpf4jnsgd1na2vs0mg"},{"bike_id":"47768a28-4fff-4fc1-b4c4-b5ec8d452deb","system_id":"levelo_inurba_marseille","lat":43.295922,"lon":5.38107,"is_reserved":false,"is_disabled":true,"rental_uris":{"android":"levelo://app?vid=47768a28-4fff-4fc1-b4c4-b5ec8d452deb","ios":"levelo://app?vid=47768a28-4fff-4fc1-b4c4-b5ec8d452deb"},"vehicle_type_id":"4","last_reported":1745328095,"current_range_meters":12400,"station_id":"ce4bgl12rcd13ifvqbo0","pricing_plan_id":"cebpf4jnsgd1na2vs0mg"},{"bike_id":"efd378fb-dbf4-4361-a1fd-e862cfa5c91f","system_id":"levelo_inurba_marseille","lat":43.32546,"lon":5.41393,"is_reserved":false,"is_disabled":false,"rental_uris":{"android":"levelo://app?vid=efd378fb-dbf4-4361-a1fd-e862cfa5c91f","ios":"levelo://app?vid=efd378fb-dbf4-4361-a1fd-e862cfa5c91f"},"vehicle_type_id":"4","last_reported":1745328095,"current_range_meters":12800,"station_id":"ce4bhq12rcd13ifvqhhg","pricing_plan_id":"cebpf4jnsgd1na2vs0mg"},{"bike_id":"889080dd-a60d-487f-b704-c1dac29acd9e","system_id":"levelo_inurba_marseille","lat":43.28438,"lon":5.39194,"is_reserved":false,"is_disabled":true,"rental_uris":{"android":"levelo://app?vid=889080dd-a60d-487f-b704-c1dac29acd9e","ios":"levelo://app?vid=889080dd-a60d-487f-b704-c1dac29acd9e"},"vehicle_type_id":"4","last_reported":1745328095,"current_range_meters":12800,"station_id":"ce4bhoh2rcd13ifvqh5g","pricing_plan_id":"cebpf4jnsgd1na2vs0mg"},{"bike_id":"f1300840-291d-4ece-a09c-172514b0678c","system_id":"levelo_inurba_marseille","lat":43.29472,"lon":5.39721,"is_reserved":false,"is_disabled":true,"rental_uris":{"android":"levelo://app?vid=f1300840-291d-4ece-a09c-172514b0678c","ios":"levelo://app?vid=f1300840-291d-4ece-a09c-172514b0678c"},"vehicle_type_id":"4","last_reported":1745328095,"current_range_meters":12800,"station_id":"ce4bh3h2rcd13ifvqdo0","pricing_plan_id":"cebpf4jnsgd1na2vs0mg"},{"bike_id":"7758f5d3-738c-4daa-ae2e-37a448306391","system_id":"levelo_inurba_marseille","lat":43.25118,"lon":5.40317,"is_reserved":false,"is_disabled":false,"rental_uris":{"android":"levelo://app?vid=7758f5d3-738c-4daa-ae2e-37a448306391","ios":"levelo://app?vid=7758f5d3-738c-4daa-ae2e-37a448306391"},"vehicle_type_id":"4","last_reported":1745328095,"current_range_meters":12800,"station_id":"ce4bhlh2rcd13ifvqgig","pricing_plan_id":"cebpf4jnsgd1na2vs0mg"},{"bike_id":"366b7b97-2f9a-441f-909d-732cbe29fe31","system_id":"levelo_inurba_marseille","lat":43.2319,"lon":5.39986,"is_reserved":false,"is_disabled":false,"rental_uris":{"android":"levelo://app?vid=366b7b97-2f9a-441f-909d-732cbe29fe31","ios":"levelo://app?vid=366b7b97-2f9a-441f-909d-732cbe29fe31"},"vehicle_type_id":"4","last_reported":1745328095,"current_range_meters":11600,"station_id":"ce4bhn12rcd13ifvqgqg","pricing_plan_id":"cebpf4jnsgd1na2vs0mg"},{"bike_id":"e38390ce-dc9d-452e-8fe2-202c541753dc","system_id":"levelo_inurba_marseille","lat":43.27669,"lon":5.3889,"is_reserved":false,"is_disabled":false,"rental_uris":{"android":"levelo://app?vid=e38390ce-dc9d-452e-8fe2-202c541753dc","ios":"levelo://app?vid=e38390ce-dc9d-452e-8fe2-202c541753dc"},"vehicle_type_id":"4","last_reported":1745328095,"current_range_meters":12400,"station_id":"ce4bhi12rcd13ifvqfo0","pricing_plan_id":"cebpf4jnsgd1na2vs0mg"},{"bike_id":"f616d0ab-43d4-4fde-8820-d8165d2e22a8","system_id":"levelo_inurba_marseille","lat":43.27568,"lon":5.3842,"is_reserved":false,"is_disabled":false,"rental_uris":{"android":"levelo://app?vid=f616d0ab-43d4-4fde-8820-d8165d2e22a8","ios":"levelo://app?vid=f616d0ab-43d4-4fde-8820-d8165d2e22a8"},"vehicle_type_id":"4","last_reported":1745328095,"current_range_meters":12400,"station_id":"ce4bhh92rcd13ifvqfi0","pricing_plan_id":"cebpf4jnsgd1na2vs0mg"},{"bike_id":"c43ce252-25e9-4065-ab18-363f74e15c5b","system_id":"levelo_inurba_marseille","lat":43.29285,"lon":5.36849,"is_reserved":false,"is_disabled":false,"rental_uris":{"android":"levelo://app?vid=c43ce252-25e9-4065-ab18-363f74e15c5b","ios":"levelo://app?vid=c43ce252-25e9-4065-ab18-363f74e15c5b"},"vehicle_type_id":"4","last_reported":1745328095,"current_range_meters":12800,"station_id":"ce4bhbp2rcd13ifvqesg","pricing_plan_id":"cebpf4jnsgd1na2vs0mg"},{"bike_id":"a9d34528-0c5f-4e16-b1aa-9d6a65fd4bde","system_id":"levelo_inurba_marseille","lat":43.28937,"lon":5.39627,"is_reserved":false,"is_disabled":false,"rental_uris":{"android":"levelo://app?vid=a9d34528-0c5f-4e16-b1aa-9d6a65fd4bde","ios":"levelo://app?vid=a9d34528-0c5f-4e16-b1aa-9d6a65fd4bde"},"vehicle_type_id":"4","last_reported":1745328095,"current_range_meters":12400,"station_id":"ce4bh3h2rcd13ifvqdn0","pricing_plan_id":"cebpf4jnsgd1na2vs0mg"},{"bike_id":"41cd4d50-3bdd-4fa7-b5d1-d715f5a540e6","system_id":"levelo_inurba_marseille","lat":43.32319,"lon":5.36746,"is_reserved":false,"is_disabled":false,"rental_uris":{"android":"levelo://app?vid=41cd4d50-3bdd-4fa7-b5d1-d715f5a540e6","ios":"levelo://app?vid=41cd4d50-3bdd-4fa7-b5d1-d715f5a540e6"},"vehicle_type_id":"4","last_reported":1745328095,"current_range_meters":12800,"station_id":"ce4bhsh2rcd13ifvqi2g","pricing_plan_id":"cebpf4jnsgd1na2vs0mg"},{"bike_id":"f25d8672-7640-4033-8cc4-f80944c4dd44","system_id":"levelo_inurba_marseille","lat":43.272289,"lon":5.401034,"is_reserved":false,"is_disabled":false,"rental_uris":{"android":"levelo://app?vid=f25d8672-7640-4033-8cc4-f80944c4dd44","ios":"levelo://app?vid=f25d8672-7640-4033-8cc4-f80944c4dd44"},"vehicle_type_id":"4","last_reported":1745328095,"current_range_meters":13600,"station_id":"","pricing_plan_id":"cebpf4jnsgd1na2vs0mg"},{"bike_id":"a756bae3-49c1-4d6c-89e8-fcb7b0e7d2e2","system_id":"levelo_inurba_marseille","lat":43.29027,"lon":5.35937,"is_reserved":false,"is_disabled":true,"rental_uris":{"android":"levelo://app?vid=a756bae3-49c1-4d6c-89e8-fcb7b0e7d2e2","ios":"levelo://app?vid=a756bae3-49c1-4d6c-89e8-fcb7b0e7d2e2"},"vehicle_type_id":"4","last_reported":1745328095,"current_range_meters":13600,"station_id":"ce4bha92rcd13ifvqeg0","pricing_plan_id":"cebpf4jnsgd1na2vs0mg"},{"bike_id":"53c474a9-3d3d-4458-90ce-c600abce2aef","system_id":"levelo_inurba_marseille","lat":43.258282,"lon":5.399217,"is_reserved":false,"is_disabled":false,"rental_uris":{"android":"levelo://app?vid=53c474a9-3d3d-4458-90ce-c600abce2aef","ios":"levelo://app?vid=53c474a9-3d3d-4458-90ce-c600abce2aef"},"vehicle_type_id":"4","last_reported":1745328095,"current_range_meters":12800,"station_id":"ce4bhl92rcd13ifvqghg","pricing_plan_id":"cebpf4jnsgd1na2vs0mg"},{"bike_id":"633b8b80-efa6-4d54-af6b-15fac248dc62","system_id":"levelo_inurba_marseille","lat":43.30534,"lon":5.36544,"is_reserved":false,"is_disabled":false,"rental_uris":{"android":"levelo://app?vid=633b8b80-efa6-4d54-af6b-15fac248dc62","ios":"levelo://app?vid=633b8b80-efa6-4d54-af6b-15fac248dc62"},"vehicle_type_id":"4","last_reported":1745328095,"current_range_meters":13600,"station_id":"ce4bgs12rcd13ifvqcag","pricing_plan_id":"cebpf4jnsgd1na2vs0mg"},{"bike_id":"e02b0a8b-ff9c-4e03-8bbb-9fea44219542","system_id":"levelo_inurba_marseille","lat":43.29267,"lon":5.38433,"is_reserved":false,"is_disabled":false,"rental_uris":{"android":"levelo://app?vid=e02b0a8b-ff9c-4e03-8bbb-9fea44219542","ios":"levelo://app?vid=e02b0a8b-ff9c-4e03-8bbb-9fea44219542"},"vehicle_type_id":"4","last_reported":1745328095,"current_range_meters":13600,"station_id":"ce4bh692rcd13ifvqea0","pricing_plan_id":"cebpf4jnsgd1na2vs0mg"},{"bike_id":"87647668-ba75-4998-90da-90f45b654145","system_id":"levelo_inurba_marseille","lat":43.29799,"lon":5.40385,"is_reserved":false,"is_disabled":false,"rental_uris":{"android":"levelo://app?vid=87647668-ba75-4998-90da-90f45b654145","ios":"levelo://app?vid=87647668-ba75-4998-90da-90f45b654145"},"vehicle_type_id":"4","last_reported":1745328095,"current_range_meters":13600,"station_id":"ce4bh112rcd13ifvqd90","pricing_plan_id":"cebpf4jnsgd1na2vs0mg"},{"bike_id":"6b4a8849-67c5-408c-8001-75a38565ba5a","system_id":"levelo_inurba_marseille","lat":43.29585,"lon":5.36737,"is_reserved":false,"is_disabled":false,"rental_uris":{"android":"levelo://app?vid=6b4a8849-67c5-408c-8001-75a38565ba5a","ios":"levelo://app?vid=6b4a8849-67c5-408c-8001-75a38565ba5a"},"vehicle_type_id":"4","last_reported":1745328095,"current_range_meters":13600,"station_id":"ce4bgph2rcd13ifvqc2g","pricing_plan_id":"cebpf4jnsgd1na2vs0mg"},{"bike_id":"122bc2fe-96d7-4b3f-a8c6-233c19b0e703","system_id":"levelo_inurba_marseille","lat":43.30371,"lon":5.42477,"is_reserved":false,"is_disabled":false,"rental_uris":{"android":"levelo://app?vid=122bc2fe-96d7-4b3f-a8c6-233c19b0e703","ios":"levelo://app?vid=122bc2fe-96d7-4b3f-a8c6-233c19b0e703"},"vehicle_type_id":"4","last_reported":1745328095,"current_range_meters":13600,"station_id":"ce4bhoh2rcd13ifvqh6g","pricing_plan_id":"cebpf4jnsgd1na2vs0mg"},{"bike_id":"31f1c4a9-a303-4725-97f7-c93e26a76473","system_id":"levelo_inurba_marseille","lat":43.30924,"lon":5.36859,"is_reserved":false,"is_disabled":false,"rental_uris":{"android":"levelo://app?vid=31f1c4a9-a303-4725-97f7-c93e26a76473","ios":"levelo://app?vid=31f1c4a9-a303-4725-97f7-c93e26a76473"},"vehicle_type_id":"4","last_reported":1745328095,"current_range_meters":13600,"station_id":"ce4bgn92rcd13ifvqbvg","pricing_plan_id":"cebpf4jnsgd1na2vs0mg"},{"bike_id":"9636c664-9bc2-4172-9e5c-a0cdf92a5c73","system_id":"levelo_inurba_marseille","lat":43.29713,"lon":5.36603,"is_reserved":false,"is_disabled":false,"rental_uris":{"android":"levelo://app?vid=9636c664-9bc2-4172-9e5c-a0cdf92a5c73","ios":"levelo://app?vid=9636c664-9bc2-4172-9e5c-a0cdf92a5c73"},"vehicle_type_id":"4","last_reported":1745328095,"current_range_meters":14000,"station_id":"ce4bgn12rcd13ifvqbt0","pricing_plan_id":"cebpf4jnsgd1na2vs0mg"},{"bike_id":"013b0bba-3a8e-4176-aec5-9b030be1a006","system_id":"levelo_inurba_marseille","lat":43.31731,"lon":5.37776,"is_reserved":false,"is_disabled":false,"rental_uris":{"android":"levelo://app?vid=013b0bba-3a8e-4176-aec5-9b030be1a006","ios":"levelo://app?vid=013b0bba-3a8e-4176-aec5-9b030be1a006"},"vehicle_type_id":"4","last_reported":1745328095,"current_range_meters":14000,"station_id":"ce4bgth2rcd13ifvqch0","pricing_plan_id":"cebpf4jnsgd1na2vs0mg"},{"bike_id":"ef0157c6-e96f-43c1-8d34-540c1db3b6bc","system_id":"levelo_inurba_marseille","lat":43.30211,"lon":5.39474,"is_reserved":false,"is_disabled":false,"rental_uris":{"android":"levelo://app?vid=ef0157c6-e96f-43c1-8d34-540c1db3b6bc","ios":"levelo://app?vid=ef0157c6-e96f-43c1-8d34-540c1db3b6bc"},"vehicle_type_id":"4","last_reported":1745328095,"current_range_meters":14000,"station_id":"ce4bh0p2rcd13ifvqd70","pricing_plan_id":"cebpf4jnsgd1na2vs0mg"},{"bike_id":"719b9555-91d6-45cd-b817-0010baf67abf","system_id":"levelo_inurba_marseille","lat":43.28712,"lon":5.3794,"is_reserved":false,"is_disabled":false,"rental_uris":{"android":"levelo://app?vid=719b9555-91d6-45cd-b817-0010baf67abf","ios":"levelo://app?vid=719b9555-91d6-45cd-b817-0010baf67abf"},"vehicle_type_id":"4","last_reported":1745328095,"current_range_meters":14000,"station_id":"ce4bh9p2rcd13ifvqec0","pricing_plan_id":"cebpf4jnsgd1na2vs0mg"},{"bike_id":"d6eb0028-803c-43c6-99a1-ac9be08eee82","system_id":"levelo_inurba_marseille","lat":43.27491,"lon":5.42434,"is_reserved":false,"is_disabled":false,"rental_uris":{"android":"levelo://app?vid=d6eb0028-803c-43c6-99a1-ac9be08eee82","ios":"levelo://app?vid=d6eb0028-803c-43c6-99a1-ac9be08eee82"},"vehicle_type_id":"4","last_reported":1745328095,"current_range_meters":14400,"station_id":"ce4bhn92rcd13ifvqgrg","pricing_plan_id":"cebpf4jnsgd1na2vs0mg"},{"bike_id":"d5fa6a7e-ae6f-48cd-8dc8-6ec1473fc099","system_id":"levelo_inurba_marseille","lat":43.3138,"lon":5.3672,"is_reserved":false,"is_disabled":true,"rental_uris":{"android":"levelo://app?vid=d5fa6a7e-ae6f-48cd-8dc8-6ec1473fc099","ios":"levelo://app?vid=d5fa6a7e-ae6f-48cd-8dc8-6ec1473fc099"},"vehicle_type_id":"4","last_reported":1745328095,"current_range_meters":14400,"station_id":"ce4bgr92rcd13ifvqc6g","pricing_plan_id":"cebpf4jnsgd1na2vs0mg"},{"bike_id":"8ead3045-ec20-442e-ba76-4b488ceaa3e4","system_id":"levelo_inurba_marseille","lat":43.27497,"lon":5.42449,"is_reserved":false,"is_disabled":false,"rental_uris":{"android":"levelo://app?vid=8ead3045-ec20-442e-ba76-4b488ceaa3e4","ios":"levelo://app?vid=8ead3045-ec20-442e-ba76-4b488ceaa3e4"},"vehicle_type_id":"4","last_reported":1745328095,"current_range_meters":14800,"station_id":"ce4bhn92rcd13ifvqgrg","pricing_plan_id":"cebpf4jnsgd1na2vs0mg"},{"bike_id":"81f46d0c-114a-4c08-ac62-624ff4d9e0f6","system_id":"levelo_inurba_marseille","lat":43.27999,"lon":5.41661,"is_reserved":false,"is_disabled":false,"rental_uris":{"android":"levelo://app?vid=81f46d0c-114a-4c08-ac62-624ff4d9e0f6","ios":"levelo://app?vid=81f46d0c-114a-4c08-ac62-624ff4d9e0f6"},"vehicle_type_id":"4","last_reported":1745328095,"current_range_meters":14800,"station_id":"ce4bho12rcd13ifvqh1g","pricing_plan_id":"cebpf4jnsgd1na2vs0mg"},{"bike_id":"703d36b4-a767-42f2-b169-c9f7ab3e9960","system_id":"levelo_inurba_marseille","lat":43.23161,"lon":5.43697,"is_reserved":false,"is_disabled":false,"rental_uris":{"android":"levelo://app?vid=703d36b4-a767-42f2-b169-c9f7ab3e9960","ios":"levelo://app?vid=703d36b4-a767-42f2-b169-c9f7ab3e9960"},"vehicle_type_id":"4","last_reported":1745328095,"current_range_meters":14800,"station_id":"ce4bhmp2rcd13ifvqgog","pricing_plan_id":"cebpf4jnsgd1na2vs0mg"},{"bike_id":"2c8622d6-ca33-481f-bd61-605958ed205e","system_id":"levelo_inurba_marseille","lat":43.30274,"lon":5.37702,"is_reserved":false,"is_disabled":false,"rental_uris":{"android":"levelo://app?vid=2c8622d6-ca33-481f-bd61-605958ed205e","ios":"levelo://app?vid=2c8622d6-ca33-481f-bd61-605958ed205e"},"vehicle_type_id":"4","last_reported":1745328095,"current_range_meters":14800,"station_id":"ce4bguh2rcd13ifvqcj0","pricing_plan_id":"cebpf4jnsgd1na2vs0mg"},{"bike_id":"539242ec-0742-40ee-9ae9-c42db92d0dfb","system_id":"levelo_inurba_marseille","lat":43.248456,"lon":5.398058,"is_reserved":false,"is_disabled":false,"rental_uris":{"android":"levelo://app?vid=539242ec-0742-40ee-9ae9-c42db92d0dfb","ios":"levelo://app?vid=539242ec-0742-40ee-9ae9-c42db92d0dfb"},"vehicle_type_id":"4","last_reported":1745328095,"current_range_meters":14800,"station_id":"ce4bhm12rcd13ifvqgkg","pricing_plan_id":"cebpf4jnsgd1na2vs0mg"},{"bike_id":"2f852e55-13a6-4d23-bf59-dc4c8e974a18","system_id":"levelo_inurba_marseille","lat":43.30148,"lon":5.38085,"is_reserved":false,"is_disabled":false,"rental_uris":{"android":"levelo://app?vid=2f852e55-13a6-4d23-bf59-dc4c8e974a18","ios":"levelo://app?vid=2f852e55-13a6-4d23-bf59-dc4c8e974a18"},"vehicle_type_id":"4","last_reported":1745328095,"current_range_meters":15200,"station_id":"ce4bgjp2rcd13ifvqbh0","pricing_plan_id":"cebpf4jnsgd1na2vs0mg"},{"bike_id":"762a3c9a-b806-4847-b695-3434c25739c7","system_id":"levelo_inurba_marseille","lat":43.27948,"lon":5.4105,"is_reserved":false,"is_disabled":false,"rental_uris":{"android":"levelo://app?vid=762a3c9a-b806-4847-b695-3434c25739c7","ios":"levelo://app?vid=762a3c9a-b806-4847-b695-3434c25739c7"},"vehicle_type_id":"4","last_reported":1745328095,"current_range_meters":15200,"station_id":"ce4bhnp2rcd13ifvqh0g","pricing_plan_id":"cebpf4jnsgd1na2vs0mg"},{"bike_id":"9d710bb8-5c08-43a0-9e2e-2df35a950232","system_id":"levelo_inurba_marseille","lat":43.30527,"lon":5.3669,"is_reserved":false,"is_disabled":false,"rental_uris":{"android":"levelo://app?vid=9d710bb8-5c08-43a0-9e2e-2df35a950232","ios":"levelo://app?vid=9d710bb8-5c08-43a0-9e2e-2df35a950232"},"vehicle_type_id":"4","last_reported":1745328095,"current_range_meters":15200,"station_id":"ce4bgrp2rcd13ifvqc9g","pricing_plan_id":"cebpf4jnsgd1na2vs0mg"},{"bike_id":"7bb5b58c-28bf-42c4-bea4-2cd2b2bc992f","system_id":"levelo_inurba_marseille","lat":43.299178,"lon":5.374609,"is_reserved":false,"is_disabled":false,"rental_uris":{"android":"levelo://app?vid=7bb5b58c-28bf-42c4-bea4-2cd2b2bc992f","ios":"levelo://app?vid=7bb5b58c-28bf-42c4-bea4-2cd2b2bc992f"},"vehicle_type_id":"4","last_reported":1745328095,"current_range_meters":16000,"station_id":"ce4bgjh2rcd13ifvqbg0","pricing_plan_id":"cebpf4jnsgd1na2vs0mg"},{"bike_id":"afc1a72d-f3cd-4039-8f8e-8907957e6ee0","system_id":"levelo_inurba_marseille","lat":43.28417,"lon":5.37508,"is_reserved":false,"is_disabled":false,"rental_uris":{"android":"levelo://app?vid=afc1a72d-f3cd-4039-8f8e-8907957e6ee0","ios":"levelo://app?vid=afc1a72d-f3cd-4039-8f8e-8907957e6ee0"},"vehicle_type_id":"4","last_reported":1745328095,"current_range_meters":16000,"station_id":"ce4bh412rcd13ifvqds0","pricing_plan_id":"cebpf4jnsgd1na2vs0mg"},{"bike_id":"1997f017-1f54-487d-8355-11a4008b8a05","system_id":"levelo_inurba_marseille","lat":43.29902,"lon":5.43674,"is_reserved":false,"is_disabled":false,"rental_uris":{"android":"levelo://app?vid=1997f017-1f54-487d-8355-11a4008b8a05","ios":"levelo://app?vid=1997f017-1f54-487d-8355-11a4008b8a05"},"vehicle_type_id":"4","last_reported":1745328095,"current_range_meters":16000,"station_id":"ce4bhpp2rcd13ifvqhfg","pricing_plan_id":"cebpf4jnsgd1na2vs0mg"},{"bike_id":"d4403b44-1cc1-4c05-a9ac-9a218146c50e","system_id":"levelo_inurba_marseille","lat":43.27496,"lon":5.42444,"is_reserved":false,"is_disabled":false,"rental_uris":{"android":"levelo://app?vid=d4403b44-1cc1-4c05-a9ac-9a218146c50e","ios":"levelo://app?vid=d4403b44-1cc1-4c05-a9ac-9a218146c50e"},"vehicle_type_id":"4","last_reported":1745328095,"current_range_meters":16000,"station_id":"ce4bhn92rcd13ifvqgrg","pricing_plan_id":"cebpf4jnsgd1na2vs0mg"},{"bike_id":"1ce6e8c2-ed3e-4b66-bda7-38092b3cc27e","system_id":"levelo_inurba_marseille","lat":43.2841,"lon":5.37515,"is_reserved":false,"is_disabled":false,"rental_uris":{"android":"levelo://app?vid=1ce6e8c2-ed3e-4b66-bda7-38092b3cc27e","ios":"levelo://app?vid=1ce6e8c2-ed3e-4b66-bda7-38092b3cc27e"},"vehicle_type_id":"4","last_reported":1745328095,"current_range_meters":16000,"station_id":"ce4bh412rcd13ifvqds0","pricing_plan_id":"cebpf4jnsgd1na2vs0mg"},{"bike_id":"d3512a66-e223-4175-8f43-daca7af3b6c5","system_id":"levelo_inurba_marseille","lat":43.31472,"lon":5.37327,"is_reserved":false,"is_disabled":false,"rental_uris":{"android":"levelo://app?vid=d3512a66-e223-4175-8f43-daca7af3b6c5","ios":"levelo://app?vid=d3512a66-e223-4175-8f43-daca7af3b6c5"},"vehicle_type_id":"4","last_reported":1745328095,"current_range_meters":16000,"station_id":"ce4bgt12rcd13ifvqcd0","pricing_plan_id":"cebpf4jnsgd1na2vs0mg"},{"bike_id":"48939965-4329-495f-a3f1-b5cf562d2ecf","system_id":"levelo_inurba_marseille","lat":43.30642,"lon":5.40094,"is_reserved":false,"is_disabled":true,"rental_uris":{"android":"levelo://app?vid=48939965-4329-495f-a3f1-b5cf562d2ecf","ios":"levelo://app?vid=48939965-4329-495f-a3f1-b5cf562d2ecf"},"vehicle_type_id":"4","last_reported":1745328095,"current_range_meters":16000,"station_id":"ce4bh112rcd13ifvqda0","pricing_plan_id":"cebpf4jnsgd1na2vs0mg"},{"bike_id":"5032d450-c430-49e8-a529-edc37dd595de","system_id":"levelo_inurba_marseille","lat":43.29372,"lon":5.37828,"is_reserved":false,"is_disabled":false,"rental_uris":{"android":"levelo://app?vid=5032d450-c430-49e8-a529-edc37dd595de","ios":"levelo://app?vid=5032d450-c430-49e8-a529-edc37dd595de"},"vehicle_type_id":"4","last_reported":1745328095,"current_range_meters":16000,"station_id":"ce4bgjh2rcd13ifvqbf0","pricing_plan_id":"cebpf4jnsgd1na2vs0mg"},{"bike_id":"ded95c3c-4781-4b3e-a8a8-bc7bf2affbf8","system_id":"levelo_inurba_marseille","lat":43.31692,"lon":5.40472,"is_reserved":false,"is_disabled":false,"rental_uris":{"android":"levelo://app?vid=ded95c3c-4781-4b3e-a8a8-bc7bf2affbf8","ios":"levelo://app?vid=ded95c3c-4781-4b3e-a8a8-bc7bf2affbf8"},"vehicle_type_id":"4","last_reported":1745328095,"current_range_meters":16000,"station_id":"ce4bh012rcd13ifvqd00","pricing_plan_id":"cebpf4jnsgd1na2vs0mg"},{"bike_id":"a6b516b4-bd93-4d8e-9cef-63b8a45dea8a","system_id":"levelo_inurba_marseille","lat":43.31391,"lon":5.36688,"is_reserved":false,"is_disabled":false,"rental_uris":{"android":"levelo://app?vid=a6b516b4-bd93-4d8e-9cef-63b8a45dea8a","ios":"levelo://app?vid=a6b516b4-bd93-4d8e-9cef-63b8a45dea8a"},"vehicle_type_id":"4","last_reported":1745328095,"current_range_meters":16000,"station_id":"","pricing_plan_id":"cebpf4jnsgd1na2vs0mg"},{"bike_id":"bfae20da-3f72-4ccb-98fb-8aabd3108edc","system_id":"levelo_inurba_marseille","lat":43.32499,"lon":5.36549,"is_reserved":false,"is_disabled":false,"rental_uris":{"android":"levelo://app?vid=bfae20da-3f72-4ccb-98fb-8aabd3108edc","ios":"levelo://app?vid=bfae20da-3f72-4ccb-98fb-8aabd3108edc"},"vehicle_type_id":"4","last_reported":1745328095,"current_range_meters":16400,"station_id":"ce4bhs12rcd13ifvqhvg","pricing_plan_id":"cebpf4jnsgd1na2vs0mg"},{"bike_id":"3fba071c-9742-4b8e-a4b1-7682c7257d41","system_id":"levelo_inurba_marseille","lat":43.31403,"lon":5.36672,"is_reserved":false,"is_disabled":false,"rental_uris":{"android":"levelo://app?vid=3fba071c-9742-4b8e-a4b1-7682c7257d41","ios":"levelo://app?vid=3fba071c-9742-4b8e-a4b1-7682c7257d41"},"vehicle_type_id":"4","last_reported":1745328095,"current_range_meters":16000,"station_id":"ce4bgr92rcd13ifvqc6g","pricing_plan_id":"cebpf4jnsgd1na2vs0mg"},{"bike_id":"b150f532-6d12-4057-8954-b8b6d7335c09","system_id":"levelo_inurba_marseille","lat":43.28665,"lon":5.36354,"is_reserved":false,"is_disabled":false,"rental_uris":{"android":"levelo://app?vid=b150f532-6d12-4057-8954-b8b6d7335c09","ios":"levelo://app?vid=b150f532-6d12-4057-8954-b8b6d7335c09"},"vehicle_type_id":"4","last_reported":1745328095,"current_range_meters":16400,"station_id":"ce4bhah2rcd13ifvqej0","pricing_plan_id":"cebpf4jnsgd1na2vs0mg"},{"bike_id":"3f40b039-c62f-4ae3-ba08-4f397bf9ec9b","system_id":"levelo_inurba_marseille","lat":43.29544,"lon":5.37511,"is_reserved":false,"is_disabled":false,"rental_uris":{"android":"levelo://app?vid=3f40b039-c62f-4ae3-ba08-4f397bf9ec9b","ios":"levelo://app?vid=3f40b039-c62f-4ae3-ba08-4f397bf9ec9b"},"vehicle_type_id":"4","last_reported":1745328095,"current_range_meters":16400,"station_id":"ce4bgkp2rcd13ifvqbmg","pricing_plan_id":"cebpf4jnsgd1na2vs0mg"},{"bike_id":"14e59606-8fb3-429b-8a43-0225ac2a98b3","system_id":"levelo_inurba_marseille","lat":43.28153,"lon":5.42641,"is_reserved":false,"is_disabled":false,"rental_uris":{"android":"levelo://app?vid=14e59606-8fb3-429b-8a43-0225ac2a98b3","ios":"levelo://app?vid=14e59606-8fb3-429b-8a43-0225ac2a98b3"},"vehicle_type_id":"4","last_reported":1745328095,"current_range_meters":16400,"station_id":"ce4bhnh2rcd13ifvqgug","pricing_plan_id":"cebpf4jnsgd1na2vs0mg"},{"bike_id":"84d53afc-570e-4710-be21-8912352f92df","system_id":"levelo_inurba_marseille","lat":43.3092,"lon":5.36834,"is_reserved":false,"is_disabled":false,"rental_uris":{"android":"levelo://app?vid=84d53afc-570e-4710-be21-8912352f92df","ios":"levelo://app?vid=84d53afc-570e-4710-be21-8912352f92df"},"vehicle_type_id":"4","last_reported":1745328095,"current_range_meters":16000,"station_id":"ce4bgn92rcd13ifvqbvg","pricing_plan_id":"cebpf4jnsgd1na2vs0mg"},{"bike_id":"651968a8-eefb-4db5-b220-8192e8e1fb74","system_id":"levelo_inurba_marseille","lat":43.29257,"lon":5.409,"is_reserved":false,"is_disabled":false,"rental_uris":{"android":"levelo://app?vid=651968a8-eefb-4db5-b220-8192e8e1fb74","ios":"levelo://app?vid=651968a8-eefb-4db5-b220-8192e8e1fb74"},"vehicle_type_id":"4","last_reported":1745328095,"current_range_meters":16000,"station_id":"ce4bh192rcd13ifvqdc0","pricing_plan_id":"cebpf4jnsgd1na2vs0mg"},{"bike_id":"6fdfd6d1-a96c-4b8f-b8d7-2e2af8c87b3c","system_id":"levelo_inurba_marseille","lat":43.3361,"lon":5.410203,"is_reserved":false,"is_disabled":false,"rental_uris":{"android":"levelo://app?vid=6fdfd6d1-a96c-4b8f-b8d7-2e2af8c87b3c","ios":"levelo://app?vid=6fdfd6d1-a96c-4b8f-b8d7-2e2af8c87b3c"},"vehicle_type_id":"4","last_reported":1745328095,"current_range_meters":16800,"station_id":"ce4bhqh2rcd13ifvqhmg","pricing_plan_id":"cebpf4jnsgd1na2vs0mg"},{"bike_id":"7b2dc864-a4e9-468c-9cee-f3075a20977d","system_id":"levelo_inurba_marseille","lat":43.31468,"lon":5.3739,"is_reserved":false,"is_disabled":false,"rental_uris":{"android":"levelo://app?vid=7b2dc864-a4e9-468c-9cee-f3075a20977d","ios":"levelo://app?vid=7b2dc864-a4e9-468c-9cee-f3075a20977d"},"vehicle_type_id":"4","last_reported":1745328095,"current_range_meters":17200,"station_id":"","pricing_plan_id":"cebpf4jnsgd1na2vs0mg"},{"bike_id":"abd226a8-d003-4133-b9d2-b7c952b7ead1","system_id":"levelo_inurba_marseille","lat":43.23062,"lon":5.35479,"is_reserved":false,"is_disabled":false,"rental_uris":{"android":"levelo://app?vid=abd226a8-d003-4133-b9d2-b7c952b7ead1","ios":"levelo://app?vid=abd226a8-d003-4133-b9d2-b7c952b7ead1"},"vehicle_type_id":"4","last_reported":1745328095,"current_range_meters":17200,"station_id":"cpo3342slgdg3j2ifvpg","pricing_plan_id":"cebpf4jnsgd1na2vs0mg"},{"bike_id":"198bc6a6-de3d-4de7-9813-5f4c26e80e25","system_id":"levelo_inurba_marseille","lat":43.29963,"lon":5.38484,"is_reserved":false,"is_disabled":false,"rental_uris":{"android":"levelo://app?vid=198bc6a6-de3d-4de7-9813-5f4c26e80e25","ios":"levelo://app?vid=198bc6a6-de3d-4de7-9813-5f4c26e80e25"},"vehicle_type_id":"4","last_reported":1745328095,"current_range_meters":16800,"station_id":"ce4bgj92rcd13ifvqbd0","pricing_plan_id":"cebpf4jnsgd1na2vs0mg"},{"bike_id":"98176d01-c4bf-4fdf-83d6-6aa3ea2e2a6a","system_id":"levelo_inurba_marseille","lat":43.314538,"lon":5.370493,"is_reserved":false,"is_disabled":false,"rental_uris":{"android":"levelo://app?vid=98176d01-c4bf-4fdf-83d6-6aa3ea2e2a6a","ios":"levelo://app?vid=98176d01-c4bf-4fdf-83d6-6aa3ea2e2a6a"},"vehicle_type_id":"4","last_reported":1745328095,"current_range_meters":17600,"station_id":"","pricing_plan_id":"cebpf4jnsgd1na2vs0mg"},{"bike_id":"25724e14-14a2-4c65-ad80-c6743a962a25","system_id":"levelo_inurba_marseille","lat":43.30422,"lon":5.39759,"is_reserved":false,"is_disabled":false,"rental_uris":{"android":"levelo://app?vid=25724e14-14a2-4c65-ad80-c6743a962a25","ios":"levelo://app?vid=25724e14-14a2-4c65-ad80-c6743a962a25"},"vehicle_type_id":"4","last_reported":1745328095,"current_range_meters":17600,"station_id":"ce4bh092rcd13ifvqd20","pricing_plan_id":"cebpf4jnsgd1na2vs0mg"},{"bike_id":"1b903b38-38de-4714-9a2c-59836acfa168","system_id":"levelo_inurba_marseille","lat":43.31718,"lon":5.43691,"is_reserved":false,"is_disabled":true,"rental_uris":{"android":"levelo://app?vid=1b903b38-38de-4714-9a2c-59836acfa168","ios":"levelo://app?vid=1b903b38-38de-4714-9a2c-59836acfa168"},"vehicle_type_id":"4","last_reported":1745328095,"current_range_meters":17600,"station_id":"ce4bhp92rcd13ifvqhcg","pricing_plan_id":"cebpf4jnsgd1na2vs0mg"},{"bike_id":"81f5d192-606a-48e9-8833-d58c8d2be85d","system_id":"levelo_inurba_marseille","lat":43.289236,"lon":5.362341,"is_reserved":false,"is_disabled":false,"rental_uris":{"android":"levelo://app?vid=81f5d192-606a-48e9-8833-d58c8d2be85d","ios":"levelo://app?vid=81f5d192-606a-48e9-8833-d58c8d2be85d"},"vehicle_type_id":"4","last_reported":1745328095,"current_range_meters":18000,"station_id":"ce4bhch2rcd13ifvqeug","pricing_plan_id":"cebpf4jnsgd1na2vs0mg"},{"bike_id":"f84aeb92-bc88-468c-8e91-798d331a8e11","system_id":"levelo_inurba_marseille","lat":43.32487,"lon":5.36562,"is_reserved":false,"is_disabled":false,"rental_uris":{"android":"levelo://app?vid=f84aeb92-bc88-468c-8e91-798d331a8e11","ios":"levelo://app?vid=f84aeb92-bc88-468c-8e91-798d331a8e11"},"vehicle_type_id":"4","last_reported":1745328095,"current_range_meters":18000,"station_id":"ce4bhs12rcd13ifvqhvg","pricing_plan_id":"cebpf4jnsgd1na2vs0mg"},{"bike_id":"cb15f50a-d5cb-4017-b40b-b28b66eacf43","system_id":"levelo_inurba_marseille","lat":43.312314,"lon":5.368535,"is_reserved":false,"is_disabled":false,"rental_uris":{"android":"levelo://app?vid=cb15f50a-d5cb-4017-b40b-b28b66eacf43","ios":"levelo://app?vid=cb15f50a-d5cb-4017-b40b-b28b66eacf43"},"vehicle_type_id":"4","last_reported":1745328095,"current_range_meters":18000,"station_id":"ce4bgl92rcd13ifvqbq0","pricing_plan_id":"cebpf4jnsgd1na2vs0mg"},{"bike_id":"f85e70b3-c5c5-4298-b24c-ed25bbf6a57f","system_id":"levelo_inurba_marseille","lat":43.29967,"lon":5.38496,"is_reserved":false,"is_disabled":false,"rental_uris":{"android":"levelo://app?vid=f85e70b3-c5c5-4298-b24c-ed25bbf6a57f","ios":"levelo://app?vid=f85e70b3-c5c5-4298-b24c-ed25bbf6a57f"},"vehicle_type_id":"4","last_reported":1745328095,"current_range_meters":18000,"station_id":"ce4bgj92rcd13ifvqbd0","pricing_plan_id":"cebpf4jnsgd1na2vs0mg"},{"bike_id":"fc85245a-0cba-4542-ae4f-781761787025","system_id":"levelo_inurba_marseille","lat":43.30155,"lon":5.38093,"is_reserved":false,"is_disabled":false,"rental_uris":{"android":"levelo://app?vid=fc85245a-0cba-4542-ae4f-781761787025","ios":"levelo://app?vid=fc85245a-0cba-4542-ae4f-781761787025"},"vehicle_type_id":"4","last_reported":1745328095,"current_range_meters":18000,"station_id":"ce4bgjp2rcd13ifvqbh0","pricing_plan_id":"cebpf4jnsgd1na2vs0mg"},{"bike_id":"32b88e80-e4bd-43df-9b2e-5f1e78c2a593","system_id":"levelo_inurba_marseille","lat":43.31081,"lon":5.38345,"is_reserved":false,"is_disabled":false,"rental_uris":{"android":"levelo://app?vid=32b88e80-e4bd-43df-9b2e-5f1e78c2a593","ios":"levelo://app?vid=32b88e80-e4bd-43df-9b2e-5f1e78c2a593"},"vehicle_type_id":"4","last_reported":1745328095,"current_range_meters":21600,"station_id":"ce4bgv92rcd13ifvqcr0","pricing_plan_id":"cebpf4jnsgd1na2vs0mg"},{"bike_id":"74a60b9c-c1f7-4393-844e-82d3669aacbd","system_id":"levelo_inurba_marseille","lat":43.30472,"lon":5.37911,"is_reserved":false,"is_disabled":false,"rental_uris":{"android":"levelo://app?vid=74a60b9c-c1f7-4393-844e-82d3669aacbd","ios":"levelo://app?vid=74a60b9c-c1f7-4393-844e-82d3669aacbd"},"vehicle_type_id":"4","last_reported":1745328095,"current_range_meters":18000,"station_id":"ce4bgup2rcd13ifvqcn0","pricing_plan_id":"cebpf4jnsgd1na2vs0mg"},{"bike_id":"2b4c99a8-9f0e-4e8d-bf39-2ace93ff3d9d","system_id":"levelo_inurba_marseille","lat":43.22932,"lon":5.35375,"is_reserved":false,"is_disabled":false,"rental_uris":{"android":"levelo://app?vid=2b4c99a8-9f0e-4e8d-bf39-2ace93ff3d9d","ios":"levelo://app?vid=2b4c99a8-9f0e-4e8d-bf39-2ace93ff3d9d"},"vehicle_type_id":"4","last_reported":1745328095,"current_range_meters":18000,"station_id":"cpo3532slgdg3j2ikp40","pricing_plan_id":"cebpf4jnsgd1na2vs0mg"},{"bike_id":"d26aecca-5b94-4bac-9927-82be229216f1","system_id":"levelo_inurba_marseille","lat":43.32116,"lon":5.36765,"is_reserved":false,"is_disabled":false,"rental_uris":{"android":"levelo://app?vid=d26aecca-5b94-4bac-9927-82be229216f1","ios":"levelo://app?vid=d26aecca-5b94-4bac-9927-82be229216f1"},"vehicle_type_id":"4","last_reported":1745328095,"current_range_meters":18000,"station_id":"ce4bhrh2rcd13ifvqhug","pricing_plan_id":"cebpf4jnsgd1na2vs0mg"},{"bike_id":"9e6cd35d-ba60-487b-b07b-41bce23718f6","system_id":"levelo_inurba_marseille","lat":43.29026,"lon":5.38642,"is_reserved":false,"is_disabled":false,"rental_uris":{"android":"levelo://app?vid=9e6cd35d-ba60-487b-b07b-41bce23718f6","ios":"levelo://app?vid=9e6cd35d-ba60-487b-b07b-41bce23718f6"},"vehicle_type_id":"4","last_reported":1745328095,"current_range_meters":18000,"station_id":"ce4bh4p2rcd13ifvqe0g","pricing_plan_id":"cebpf4jnsgd1na2vs0mg"},{"bike_id":"b523c21f-c617-42c7-96d8-51087c838a02","system_id":"levelo_inurba_marseille","lat":43.30871,"lon":5.39666,"is_reserved":false,"is_disabled":false,"rental_uris":{"android":"levelo://app?vid=b523c21f-c617-42c7-96d8-51087c838a02","ios":"levelo://app?vid=b523c21f-c617-42c7-96d8-51087c838a02"},"vehicle_type_id":"4","last_reported":1745328095,"current_range_meters":18000,"station_id":"ce4bh012rcd13ifvqcv0","pricing_plan_id":"cebpf4jnsgd1na2vs0mg"},{"bike_id":"0acb45b5-e496-46f6-8358-6e82c09a3bb4","system_id":"levelo_inurba_marseille","lat":43.324783,"lon":5.36565,"is_reserved":false,"is_disabled":false,"rental_uris":{"android":"levelo://app?vid=0acb45b5-e496-46f6-8358-6e82c09a3bb4","ios":"levelo://app?vid=0acb45b5-e496-46f6-8358-6e82c09a3bb4"},"vehicle_type_id":"4","last_reported":1745328095,"current_range_meters":18800,"station_id":"ce4bhah2rcd13ifvqej0","pricing_plan_id":"cebpf4jnsgd1na2vs0mg"},{"bike_id":"73f157d4-10be-42e6-8ed0-4cf5e1ba4ac8","system_id":"levelo_inurba_marseille","lat":43.3176,"lon":5.39025,"is_reserved":false,"is_disabled":false,"rental_uris":{"android":"levelo://app?vid=73f157d4-10be-42e6-8ed0-4cf5e1ba4ac8","ios":"levelo://app?vid=73f157d4-10be-42e6-8ed0-4cf5e1ba4ac8"},"vehicle_type_id":"4","last_reported":1745328095,"current_range_meters":18800,"station_id":"ce4bhqp2rcd13ifvqhng","pricing_plan_id":"cebpf4jnsgd1na2vs0mg"},{"bike_id":"cf583199-8ef8-4ac5-8469-37ea083801f8","system_id":"levelo_inurba_marseille","lat":43.2834,"lon":5.38097,"is_reserved":false,"is_disabled":false,"rental_uris":{"android":"levelo://app?vid=cf583199-8ef8-4ac5-8469-37ea083801f8","ios":"levelo://app?vid=cf583199-8ef8-4ac5-8469-37ea083801f8"},"vehicle_type_id":"4","last_reported":1745328095,"current_range_meters":18800,"station_id":"ce4bh412rcd13ifvqdr0","pricing_plan_id":"cebpf4jnsgd1na2vs0mg"},{"bike_id":"427f805e-cfba-4025-b510-ca1d8419f957","system_id":"levelo_inurba_marseille","lat":43.31501,"lon":5.37325,"is_reserved":false,"is_disabled":false,"rental_uris":{"android":"levelo://app?vid=427f805e-cfba-4025-b510-ca1d8419f957","ios":"levelo://app?vid=427f805e-cfba-4025-b510-ca1d8419f957"},"vehicle_type_id":"4","last_reported":1745328095,"current_range_meters":18800,"station_id":"ce4bgt12rcd13ifvqcd0","pricing_plan_id":"cebpf4jnsgd1na2vs0mg"},{"bike_id":"389eaf09-67b7-4655-9e40-768e282547d8","system_id":"levelo_inurba_marseille","lat":43.29968,"lon":5.38484,"is_reserved":false,"is_disabled":false,"rental_uris":{"android":"levelo://app?vid=389eaf09-67b7-4655-9e40-768e282547d8","ios":"levelo://app?vid=389eaf09-67b7-4655-9e40-768e282547d8"},"vehicle_type_id":"4","last_reported":1745328095,"current_range_meters":18800,"station_id":"ce4bgj92rcd13ifvqbd0","pricing_plan_id":"cebpf4jnsgd1na2vs0mg"},{"bike_id":"c83e935b-fd87-47b2-a778-ed3e19aa9378","system_id":"levelo_inurba_marseille","lat":43.3028,"lon":5.37696,"is_reserved":false,"is_disabled":false,"rental_uris":{"android":"levelo://app?vid=c83e935b-fd87-47b2-a778-ed3e19aa9378","ios":"levelo://app?vid=c83e935b-fd87-47b2-a778-ed3e19aa9378"},"vehicle_type_id":"4","last_reported":1745328095,"current_range_meters":18800,"station_id":"ce4bguh2rcd13ifvqcj0","pricing_plan_id":"cebpf4jnsgd1na2vs0mg"},{"bike_id":"9e722b5a-26ee-4074-ad3a-d558f9914f1f","system_id":"levelo_inurba_marseille","lat":43.26228,"lon":5.40448,"is_reserved":false,"is_disabled":false,"rental_uris":{"android":"levelo://app?vid=9e722b5a-26ee-4074-ad3a-d558f9914f1f","ios":"levelo://app?vid=9e722b5a-26ee-4074-ad3a-d558f9914f1f"},"vehicle_type_id":"4","last_reported":1745328095,"current_range_meters":18800,"station_id":"ce4bhmh2rcd13ifvqgmg","pricing_plan_id":"cebpf4jnsgd1na2vs0mg"},{"bike_id":"516c3b90-7db4-4017-a9f0-e9a4e1b0165a","system_id":"levelo_inurba_marseille","lat":43.21748,"lon":5.34601,"is_reserved":false,"is_disabled":true,"rental_uris":{"android":"levelo://app?vid=516c3b90-7db4-4017-a9f0-e9a4e1b0165a","ios":"levelo://app?vid=516c3b90-7db4-4017-a9f0-e9a4e1b0165a"},"vehicle_type_id":"4","last_reported":1745328095,"current_range_meters":18800,"station_id":"","pricing_plan_id":"cebpf4jnsgd1na2vs0mg"},{"bike_id":"ebd5f51c-528c-4078-916b-87e982d1153d","system_id":"levelo_inurba_marseille","lat":43.281566,"lon":5.426522,"is_reserved":false,"is_disabled":false,"rental_uris":{"android":"levelo://app?vid=ebd5f51c-528c-4078-916b-87e982d1153d","ios":"levelo://app?vid=ebd5f51c-528c-4078-916b-87e982d1153d"},"vehicle_type_id":"4","last_reported":1745328095,"current_range_meters":18800,"station_id":"ce4bhnh2rcd13ifvqgug","pricing_plan_id":"cebpf4jnsgd1na2vs0mg"},{"bike_id":"84cc6382-570a-48e1-95cf-2056bb88a115","system_id":"levelo_inurba_marseille","lat":43.32769,"lon":5.39272,"is_reserved":false,"is_disabled":false,"rental_uris":{"android":"levelo://app?vid=84cc6382-570a-48e1-95cf-2056bb88a115","ios":"levelo://app?vid=84cc6382-570a-48e1-95cf-2056bb88a115"},"vehicle_type_id":"4","last_reported":1745328095,"current_range_meters":18800,"station_id":"","pricing_plan_id":"cebpf4jnsgd1na2vs0mg"},{"bike_id":"3b823fab-22a8-4c02-9ac2-9d77227daa1a","system_id":"levelo_inurba_marseille","lat":43.25943,"lon":5.40899,"is_reserved":false,"is_disabled":false,"rental_uris":{"android":"levelo://app?vid=3b823fab-22a8-4c02-9ac2-9d77227daa1a","ios":"levelo://app?vid=3b823fab-22a8-4c02-9ac2-9d77227daa1a"},"vehicle_type_id":"4","last_reported":1745328095,"current_range_meters":18800,"station_id":"ce4bhm92rcd13ifvqglg","pricing_plan_id":"cebpf4jnsgd1na2vs0mg"},{"bike_id":"84aca862-a846-4e3b-979a-f667cc4b9c82","system_id":"levelo_inurba_marseille","lat":43.28294,"lon":5.350446,"is_reserved":false,"is_disabled":false,"rental_uris":{"android":"levelo://app?vid=84aca862-a846-4e3b-979a-f667cc4b9c82","ios":"levelo://app?vid=84aca862-a846-4e3b-979a-f667cc4b9c82"},"vehicle_type_id":"4","last_reported":1745328095,"current_range_meters":19200,"station_id":"ce4bgi12rcd13ifvqb70","pricing_plan_id":"cebpf4jnsgd1na2vs0mg"},{"bike_id":"e8f39ccc-cdc5-4a34-b5c3-54dc652fdf01","system_id":"levelo_inurba_marseille","lat":43.27944,"lon":5.41052,"is_reserved":false,"is_disabled":false,"rental_uris":{"android":"levelo://app?vid=e8f39ccc-cdc5-4a34-b5c3-54dc652fdf01","ios":"levelo://app?vid=e8f39ccc-cdc5-4a34-b5c3-54dc652fdf01"},"vehicle_type_id":"4","last_reported":1745328095,"current_range_meters":19200,"station_id":"ce4bhnp2rcd13ifvqh0g","pricing_plan_id":"cebpf4jnsgd1na2vs0mg"},{"bike_id":"a1835b16-9e05-4b53-baf5-10eeb04320bb","system_id":"levelo_inurba_marseille","lat":43.28696,"lon":5.37393,"is_reserved":false,"is_disabled":true,"rental_uris":{"android":"levelo://app?vid=a1835b16-9e05-4b53-baf5-10eeb04320bb","ios":"levelo://app?vid=a1835b16-9e05-4b53-baf5-10eeb04320bb"},"vehicle_type_id":"4","last_reported":1745328095,"current_range_meters":19200,"station_id":"ce4bh3p2rcd13ifvqdq0","pricing_plan_id":"cebpf4jnsgd1na2vs0mg"},{"bike_id":"5292f775-aa53-42a8-a3e0-c63e6f16af9d","system_id":"levelo_inurba_marseille","lat":43.31569,"lon":5.37312,"is_reserved":false,"is_disabled":false,"rental_uris":{"android":"levelo://app?vid=5292f775-aa53-42a8-a3e0-c63e6f16af9d","ios":"levelo://app?vid=5292f775-aa53-42a8-a3e0-c63e6f16af9d"},"vehicle_type_id":"4","last_reported":1745328095,"current_range_meters":19200,"station_id":"","pricing_plan_id":"cebpf4jnsgd1na2vs0mg"},{"bike_id":"949b2832-41ca-4d93-84ec-91aa23d81cd6","system_id":"levelo_inurba_marseille","lat":43.24388,"lon":5.3706,"is_reserved":false,"is_disabled":false,"rental_uris":{"android":"levelo://app?vid=949b2832-41ca-4d93-84ec-91aa23d81cd6","ios":"levelo://app?vid=949b2832-41ca-4d93-84ec-91aa23d81cd6"},"vehicle_type_id":"4","last_reported":1745328095,"current_range_meters":18800,"station_id":"ce4bhhh2rcd13ifvqfk0","pricing_plan_id":"cebpf4jnsgd1na2vs0mg"},{"bike_id":"dd63a8b2-dce8-42be-9c59-58bd010e6960","system_id":"levelo_inurba_marseille","lat":43.29527,"lon":5.39044,"is_reserved":false,"is_disabled":false,"rental_uris":{"android":"levelo://app?vid=dd63a8b2-dce8-42be-9c59-58bd010e6960","ios":"levelo://app?vid=dd63a8b2-dce8-42be-9c59-58bd010e6960"},"vehicle_type_id":"4","last_reported":1745328095,"current_range_meters":19200,"station_id":"ce4bh3p2rcd13ifvqdp0","pricing_plan_id":"cebpf4jnsgd1na2vs0mg"},{"bike_id":"07e6e62a-d459-4fc9-9994-efb560002aa3","system_id":"levelo_inurba_marseille","lat":43.296445,"lon":5.377665,"is_reserved":false,"is_disabled":false,"rental_uris":{"android":"levelo://app?vid=07e6e62a-d459-4fc9-9994-efb560002aa3","ios":"levelo://app?vid=07e6e62a-d459-4fc9-9994-efb560002aa3"},"vehicle_type_id":"4","last_reported":1745328095,"current_range_meters":19600,"station_id":"ce4bgkh2rcd13ifvqbl0","pricing_plan_id":"cebpf4jnsgd1na2vs0mg"},{"bike_id":"0cd50dc6-7315-405f-ad57-d1668d56ee60","system_id":"levelo_inurba_marseille","lat":43.24082,"lon":5.37751,"is_reserved":false,"is_disabled":false,"rental_uris":{"android":"levelo://app?vid=0cd50dc6-7315-405f-ad57-d1668d56ee60","ios":"levelo://app?vid=0cd50dc6-7315-405f-ad57-d1668d56ee60"},"vehicle_type_id":"4","last_reported":1745328095,"current_range_meters":19600,"station_id":"ce4bhnp2rcd13ifvqgvg","pricing_plan_id":"cebpf4jnsgd1na2vs0mg"},{"bike_id":"cfdd8fbf-defc-4b92-ad23-d1e00fc819a8","system_id":"levelo_inurba_marseille","lat":43.29514,"lon":5.37499,"is_reserved":false,"is_disabled":false,"rental_uris":{"android":"levelo://app?vid=cfdd8fbf-defc-4b92-ad23-d1e00fc819a8","ios":"levelo://app?vid=cfdd8fbf-defc-4b92-ad23-d1e00fc819a8"},"vehicle_type_id":"4","last_reported":1745328095,"current_range_meters":19600,"station_id":"ce4bgkp2rcd13ifvqbmg","pricing_plan_id":"cebpf4jnsgd1na2vs0mg"},{"bike_id":"2360daed-a9a0-4e8c-991e-4d4371b35215","system_id":"levelo_inurba_marseille","lat":43.31082,"lon":5.42426,"is_reserved":false,"is_disabled":false,"rental_uris":{"android":"levelo://app?vid=2360daed-a9a0-4e8c-991e-4d4371b35215","ios":"levelo://app?vid=2360daed-a9a0-4e8c-991e-4d4371b35215"},"vehicle_type_id":"4","last_reported":1745328095,"current_range_meters":19600,"station_id":"ce4bhp92rcd13ifvqhag","pricing_plan_id":"cebpf4jnsgd1na2vs0mg"},{"bike_id":"1c86c1a3-2ae0-43f2-98b2-bbf4f09bcf2d","system_id":"levelo_inurba_marseille","lat":43.28468,"lon":5.3855,"is_reserved":false,"is_disabled":false,"rental_uris":{"android":"levelo://app?vid=1c86c1a3-2ae0-43f2-98b2-bbf4f09bcf2d","ios":"levelo://app?vid=1c86c1a3-2ae0-43f2-98b2-bbf4f09bcf2d"},"vehicle_type_id":"4","last_reported":1745328095,"current_range_meters":19600,"station_id":"ce4bh8p2rcd13ifvqeb0","pricing_plan_id":"cebpf4jnsgd1na2vs0mg"},{"bike_id":"05c7d23d-7757-4131-b978-b3c57b66151e","system_id":"levelo_inurba_marseille","lat":43.27968,"lon":5.3873,"is_reserved":false,"is_disabled":false,"rental_uris":{"android":"levelo://app?vid=05c7d23d-7757-4131-b978-b3c57b66151e","ios":"levelo://app?vid=05c7d23d-7757-4131-b978-b3c57b66151e"},"vehicle_type_id":"4","last_reported":1745328095,"current_range_meters":19600,"station_id":"ce4bhg12rcd13ifvqf80","pricing_plan_id":"cebpf4jnsgd1na2vs0mg"},{"bike_id":"f9edd094-c59c-4d80-96b2-7f66d5afbeb7","system_id":"levelo_inurba_marseille","lat":43.25723,"lon":5.41101,"is_reserved":false,"is_disabled":false,"rental_uris":{"android":"levelo://app?vid=f9edd094-c59c-4d80-96b2-7f66d5afbeb7","ios":"levelo://app?vid=f9edd094-c59c-4d80-96b2-7f66d5afbeb7"},"vehicle_type_id":"4","last_reported":1745328095,"current_range_meters":19600,"station_id":"ce4bhkp2rcd13ifvqgd0","pricing_plan_id":"cebpf4jnsgd1na2vs0mg"},{"bike_id":"819b369d-4fed-4b29-a6b1-6d29cde31d5f","system_id":"levelo_inurba_marseille","lat":43.23967,"lon":5.36638,"is_reserved":false,"is_disabled":false,"rental_uris":{"android":"levelo://app?vid=819b369d-4fed-4b29-a6b1-6d29cde31d5f","ios":"levelo://app?vid=819b369d-4fed-4b29-a6b1-6d29cde31d5f"},"vehicle_type_id":"4","last_reported":1745328095,"current_range_meters":19600,"station_id":"ce4bhi12rcd13ifvqfp0","pricing_plan_id":"cebpf4jnsgd1na2vs0mg"},{"bike_id":"20ede925-27e6-407f-8bf5-4c244f8341b4","system_id":"levelo_inurba_marseille","lat":43.24175,"lon":5.36407,"is_reserved":false,"is_disabled":false,"rental_uris":{"android":"levelo://app?vid=20ede925-27e6-407f-8bf5-4c244f8341b4","ios":"levelo://app?vid=20ede925-27e6-407f-8bf5-4c244f8341b4"},"vehicle_type_id":"4","last_reported":1745328095,"current_range_meters":20000,"station_id":"cpo36qri1sfpv3e86is0","pricing_plan_id":"cebpf4jnsgd1na2vs0mg"},{"bike_id":"bcf66fac-b0e5-4161-a69a-684349c04696","system_id":"levelo_inurba_marseille","lat":43.31271,"lon":5.40174,"is_reserved":false,"is_disabled":false,"rental_uris":{"android":"levelo://app?vid=bcf66fac-b0e5-4161-a69a-684349c04696","ios":"levelo://app?vid=bcf66fac-b0e5-4161-a69a-684349c04696"},"vehicle_type_id":"4","last_reported":1745328095,"current_range_meters":20000,"station_id":"ce4bh092rcd13ifvqd30","pricing_plan_id":"cebpf4jnsgd1na2vs0mg"},{"bike_id":"16cc45aa-0ac9-4058-8f40-6ff681fdac49","system_id":"levelo_inurba_marseille","lat":43.27677,"lon":5.38876,"is_reserved":false,"is_disabled":false,"rental_uris":{"android":"levelo://app?vid=16cc45aa-0ac9-4058-8f40-6ff681fdac49","ios":"levelo://app?vid=16cc45aa-0ac9-4058-8f40-6ff681fdac49"},"vehicle_type_id":"4","last_reported":1745328095,"current_range_meters":20000,"station_id":"ce4bhi12rcd13ifvqfo0","pricing_plan_id":"cebpf4jnsgd1na2vs0mg"},{"bike_id":"e458b062-a4e4-466e-b057-b319cd7613c0","system_id":"levelo_inurba_marseille","lat":43.27944,"lon":5.41054,"is_reserved":false,"is_disabled":false,"rental_uris":{"android":"levelo://app?vid=e458b062-a4e4-466e-b057-b319cd7613c0","ios":"levelo://app?vid=e458b062-a4e4-466e-b057-b319cd7613c0"},"vehicle_type_id":"4","last_reported":1745328095,"current_range_meters":20000,"station_id":"ce4bhnp2rcd13ifvqh0g","pricing_plan_id":"cebpf4jnsgd1na2vs0mg"},{"bike_id":"e7a535f8-ed78-40de-8cdc-f8a1d2d90b31","system_id":"levelo_inurba_marseille","lat":43.24812,"lon":5.37457,"is_reserved":false,"is_disabled":true,"rental_uris":{"android":"levelo://app?vid=e7a535f8-ed78-40de-8cdc-f8a1d2d90b31","ios":"levelo://app?vid=e7a535f8-ed78-40de-8cdc-f8a1d2d90b31"},"vehicle_type_id":"4","last_reported":1745328095,"current_range_meters":20000,"station_id":"ce4bhgh2rcd13ifvqfb0","pricing_plan_id":"cebpf4jnsgd1na2vs0mg"},{"bike_id":"7a9544b7-9381-4e29-940a-8b4b70bd705c","system_id":"levelo_inurba_marseille","lat":43.30538,"lon":5.38418,"is_reserved":false,"is_disabled":false,"rental_uris":{"android":"levelo://app?vid=7a9544b7-9381-4e29-940a-8b4b70bd705c","ios":"levelo://app?vid=7a9544b7-9381-4e29-940a-8b4b70bd705c"},"vehicle_type_id":"4","last_reported":1745328095,"current_range_meters":20000,"station_id":"ce4bgg92rcd13ifvqb30","pricing_plan_id":"cebpf4jnsgd1na2vs0mg"},{"bike_id":"9b19283d-4576-4443-ad48-eb823d9e5772","system_id":"levelo_inurba_marseille","lat":43.305444,"lon":5.36549,"is_reserved":false,"is_disabled":false,"rental_uris":{"android":"levelo://app?vid=9b19283d-4576-4443-ad48-eb823d9e5772","ios":"levelo://app?vid=9b19283d-4576-4443-ad48-eb823d9e5772"},"vehicle_type_id":"4","last_reported":1745328095,"current_range_meters":20000,"station_id":"ce4bgs12rcd13ifvqcag","pricing_plan_id":"cebpf4jnsgd1na2vs0mg"},{"bike_id":"d77043dc-9484-40e5-a53e-6e063399fcd3","system_id":"levelo_inurba_marseille","lat":43.294098,"lon":5.386186,"is_reserved":false,"is_disabled":false,"rental_uris":{"android":"levelo://app?vid=d77043dc-9484-40e5-a53e-6e063399fcd3","ios":"levelo://app?vid=d77043dc-9484-40e5-a53e-6e063399fcd3"},"vehicle_type_id":"4","last_reported":1745328095,"current_range_meters":20000,"station_id":"ce4bh2h2rcd13ifvqdh0","pricing_plan_id":"cebpf4jnsgd1na2vs0mg"},{"bike_id":"0feae36e-b422-44c1-8674-96ad9f2f7fd8","system_id":"levelo_inurba_marseille","lat":43.2656,"lon":5.38994,"is_reserved":false,"is_disabled":false,"rental_uris":{"android":"levelo://app?vid=0feae36e-b422-44c1-8674-96ad9f2f7fd8","ios":"levelo://app?vid=0feae36e-b422-44c1-8674-96ad9f2f7fd8"},"vehicle_type_id":"4","last_reported":1745328095,"current_range_meters":20000,"station_id":"ce4bhe12rcd13ifvqf30","pricing_plan_id":"cebpf4jnsgd1na2vs0mg"},{"bike_id":"b5d609bf-0c9b-49e3-9426-ce02cb8383b8","system_id":"levelo_inurba_marseille","lat":43.34156,"lon":5.40916,"is_reserved":false,"is_disabled":true,"rental_uris":{"android":"levelo://app?vid=b5d609bf-0c9b-49e3-9426-ce02cb8383b8","ios":"levelo://app?vid=b5d609bf-0c9b-49e3-9426-ce02cb8383b8"},"vehicle_type_id":"4","last_reported":1745328095,"current_range_meters":20400,"station_id":"ce4bhqh2rcd13ifvqhlg","pricing_plan_id":"cebpf4jnsgd1na2vs0mg"},{"bike_id":"46374c49-3adc-4c5a-8966-e00f056c0d57","system_id":"levelo_inurba_marseille","lat":43.27846,"lon":5.35442,"is_reserved":false,"is_disabled":false,"rental_uris":{"android":"levelo://app?vid=46374c49-3adc-4c5a-8966-e00f056c0d57","ios":"levelo://app?vid=46374c49-3adc-4c5a-8966-e00f056c0d57"},"vehicle_type_id":"4","last_reported":1745328095,"current_range_meters":20400,"station_id":"","pricing_plan_id":"cebpf4jnsgd1na2vs0mg"},{"bike_id":"f9dd9794-b14b-4ca6-8acc-42487c6877aa","system_id":"levelo_inurba_marseille","lat":43.21194,"lon":5.3507,"is_reserved":false,"is_disabled":false,"rental_uris":{"android":"levelo://app?vid=f9dd9794-b14b-4ca6-8acc-42487c6877aa","ios":"levelo://app?vid=f9dd9794-b14b-4ca6-8acc-42487c6877aa"},"vehicle_type_id":"4","last_reported":1745328095,"current_range_meters":20400,"station_id":"st_cvj6sg6p6f1abm77japg","pricing_plan_id":"cebpf4jnsgd1na2vs0mg"},{"bike_id":"ce98710d-864d-4822-95df-5551412af500","system_id":"levelo_inurba_marseille","lat":43.28156,"lon":5.42645,"is_reserved":false,"is_disabled":false,"rental_uris":{"android":"levelo://app?vid=ce98710d-864d-4822-95df-5551412af500","ios":"levelo://app?vid=ce98710d-864d-4822-95df-5551412af500"},"vehicle_type_id":"4","last_reported":1745328095,"current_range_meters":20400,"station_id":"ce4bhnh2rcd13ifvqgug","pricing_plan_id":"cebpf4jnsgd1na2vs0mg"},{"bike_id":"8674cae8-fefb-4d68-8fa9-4032a127fc0a","system_id":"levelo_inurba_marseille","lat":43.2418,"lon":5.39725,"is_reserved":false,"is_disabled":false,"rental_uris":{"android":"levelo://app?vid=8674cae8-fefb-4d68-8fa9-4032a127fc0a","ios":"levelo://app?vid=8674cae8-fefb-4d68-8fa9-4032a127fc0a"},"vehicle_type_id":"4","last_reported":1745328095,"current_range_meters":20400,"station_id":"ce4bhn12rcd13ifvqgpg","pricing_plan_id":"cebpf4jnsgd1na2vs0mg"},{"bike_id":"35e995c8-1006-4c8c-a755-ca9f3e1b150b","system_id":"levelo_inurba_marseille","lat":43.27367,"lon":5.36252,"is_reserved":false,"is_disabled":false,"rental_uris":{"android":"levelo://app?vid=35e995c8-1006-4c8c-a755-ca9f3e1b150b","ios":"levelo://app?vid=35e995c8-1006-4c8c-a755-ca9f3e1b150b"},"vehicle_type_id":"4","last_reported":1745328095,"current_range_meters":20400,"station_id":"ce4bhbh2rcd13ifvqeo0","pricing_plan_id":"cebpf4jnsgd1na2vs0mg"},{"bike_id":"28b9bf19-5ce7-49d4-8143-dc802d489c03","system_id":"levelo_inurba_marseille","lat":43.31334,"lon":5.39682,"is_reserved":false,"is_disabled":false,"rental_uris":{"android":"levelo://app?vid=28b9bf19-5ce7-49d4-8143-dc802d489c03","ios":"levelo://app?vid=28b9bf19-5ce7-49d4-8143-dc802d489c03"},"vehicle_type_id":"4","last_reported":1745328095,"current_range_meters":20400,"station_id":"ce4bgvp2rcd13ifvqcu0","pricing_plan_id":"cebpf4jnsgd1na2vs0mg"},{"bike_id":"cfacf3ec-39f2-4d9f-9046-9d202456ef6a","system_id":"levelo_inurba_marseille","lat":43.23968,"lon":5.36623,"is_reserved":false,"is_disabled":false,"rental_uris":{"android":"levelo://app?vid=cfacf3ec-39f2-4d9f-9046-9d202456ef6a","ios":"levelo://app?vid=cfacf3ec-39f2-4d9f-9046-9d202456ef6a"},"vehicle_type_id":"4","last_reported":1745328095,"current_range_meters":20800,"station_id":"ce4bhi12rcd13ifvqfp0","pricing_plan_id":"cebpf4jnsgd1na2vs0mg"},{"bike_id":"b2da8f6e-9bb9-4d38-95f6-147ce12a7fed","system_id":"levelo_inurba_marseille","lat":43.29712,"lon":5.37692,"is_reserved":false,"is_disabled":false,"rental_uris":{"android":"levelo://app?vid=b2da8f6e-9bb9-4d38-95f6-147ce12a7fed","ios":"levelo://app?vid=b2da8f6e-9bb9-4d38-95f6-147ce12a7fed"},"vehicle_type_id":"4","last_reported":1745328095,"current_range_meters":20400,"station_id":"ce4bgkh2rcd13ifvqbl0","pricing_plan_id":"cebpf4jnsgd1na2vs0mg"},{"bike_id":"bdf6dfbf-5830-4ac9-8efe-75afdfd8c2a3","system_id":"levelo_inurba_marseille","lat":43.29048,"lon":5.3591,"is_reserved":false,"is_disabled":false,"rental_uris":{"android":"levelo://app?vid=bdf6dfbf-5830-4ac9-8efe-75afdfd8c2a3","ios":"levelo://app?vid=bdf6dfbf-5830-4ac9-8efe-75afdfd8c2a3"},"vehicle_type_id":"4","last_reported":1745328095,"current_range_meters":20400,"station_id":"ce4bha92rcd13ifvqeg0","pricing_plan_id":"cebpf4jnsgd1na2vs0mg"},{"bike_id":"057ecee1-8707-4c50-b9f5-50ccc6147b4e","system_id":"levelo_inurba_marseille","lat":43.323649,"lon":5.388877,"is_reserved":false,"is_disabled":false,"rental_uris":{"android":"levelo://app?vid=057ecee1-8707-4c50-b9f5-50ccc6147b4e","ios":"levelo://app?vid=057ecee1-8707-4c50-b9f5-50ccc6147b4e"},"vehicle_type_id":"4","last_reported":1745328095,"current_range_meters":20800,"station_id":"ce4bhqp2rcd13ifvqhog","pricing_plan_id":"cebpf4jnsgd1na2vs0mg"},{"bike_id":"10ea0da2-7f2c-49aa-b34a-1a81fd173287","system_id":"levelo_inurba_marseille","lat":43.291931,"lon":5.357966,"is_reserved":false,"is_disabled":false,"rental_uris":{"android":"levelo://app?vid=10ea0da2-7f2c-49aa-b34a-1a81fd173287","ios":"levelo://app?vid=10ea0da2-7f2c-49aa-b34a-1a81fd173287"},"vehicle_type_id":"4","last_reported":1745328095,"current_range_meters":21600,"station_id":"ce4bhb12rcd13ifvqel0","pricing_plan_id":"cebpf4jnsgd1na2vs0mg"},{"bike_id":"4f1f61e3-9490-49a5-bfea-0c82a1e59ed9","system_id":"levelo_inurba_marseille","lat":43.297882,"lon":5.393401,"is_reserved":false,"is_disabled":false,"rental_uris":{"android":"levelo://app?vid=4f1f61e3-9490-49a5-bfea-0c82a1e59ed9","ios":"levelo://app?vid=4f1f61e3-9490-49a5-bfea-0c82a1e59ed9"},"vehicle_type_id":"4","last_reported":1745328095,"current_range_meters":20800,"station_id":"ce4bgjp2rcd13ifvqbh0","pricing_plan_id":"cebpf4jnsgd1na2vs0mg"},{"bike_id":"8893bb8f-fbdb-4d0d-932d-b0dc71fee152","system_id":"levelo_inurba_marseille","lat":43.27489,"lon":5.424513,"is_reserved":false,"is_disabled":false,"rental_uris":{"android":"levelo://app?vid=8893bb8f-fbdb-4d0d-932d-b0dc71fee152","ios":"levelo://app?vid=8893bb8f-fbdb-4d0d-932d-b0dc71fee152"},"vehicle_type_id":"4","last_reported":1745328095,"current_range_meters":22000,"station_id":"ce4bhn92rcd13ifvqgrg","pricing_plan_id":"cebpf4jnsgd1na2vs0mg"},{"bike_id":"de47c9c4-9d10-4485-8888-fe0646beb047","system_id":"levelo_inurba_marseille","lat":43.26818,"lon":5.40239,"is_reserved":false,"is_disabled":false,"rental_uris":{"android":"levelo://app?vid=de47c9c4-9d10-4485-8888-fe0646beb047","ios":"levelo://app?vid=de47c9c4-9d10-4485-8888-fe0646beb047"},"vehicle_type_id":"4","last_reported":1745328095,"current_range_meters":22000,"station_id":"ce501612rcd8frsf0b60","pricing_plan_id":"cebpf4jnsgd1na2vs0mg"},{"bike_id":"cf08c048-a187-4c85-8e56-1437d90de122","system_id":"levelo_inurba_marseille","lat":43.31694,"lon":5.40462,"is_reserved":false,"is_disabled":false,"rental_uris":{"android":"levelo://app?vid=cf08c048-a187-4c85-8e56-1437d90de122","ios":"levelo://app?vid=cf08c048-a187-4c85-8e56-1437d90de122"},"vehicle_type_id":"4","last_reported":1745328095,"current_range_meters":22000,"station_id":"ce4bh012rcd13ifvqd00","pricing_plan_id":"cebpf4jnsgd1na2vs0mg"},{"bike_id":"92c6c78a-dd46-4f49-b8d0-bdafb1ba42bb","system_id":"levelo_inurba_marseille","lat":43.2621,"lon":5.37439,"is_reserved":false,"is_disabled":false,"rental_uris":{"android":"levelo://app?vid=92c6c78a-dd46-4f49-b8d0-bdafb1ba42bb","ios":"levelo://app?vid=92c6c78a-dd46-4f49-b8d0-bdafb1ba42bb"},"vehicle_type_id":"4","last_reported":1745328095,"current_range_meters":22000,"station_id":"ce4bhgp2rcd13ifvqfc0","pricing_plan_id":"cebpf4jnsgd1na2vs0mg"},{"bike_id":"04573566-2c58-4855-a467-c080b56e136d","system_id":"levelo_inurba_marseille","lat":43.29274,"lon":5.3684,"is_reserved":false,"is_disabled":false,"rental_uris":{"android":"levelo://app?vid=04573566-2c58-4855-a467-c080b56e136d","ios":"levelo://app?vid=04573566-2c58-4855-a467-c080b56e136d"},"vehicle_type_id":"4","last_reported":1745328095,"current_range_meters":22000,"station_id":"ce4bhbp2rcd13ifvqesg","pricing_plan_id":"cebpf4jnsgd1na2vs0mg"},{"bike_id":"2cd35bb3-f0e9-414f-b226-4923242f161c","system_id":"levelo_inurba_marseille","lat":43.28077,"lon":5.39653,"is_reserved":false,"is_disabled":false,"rental_uris":{"android":"levelo://app?vid=2cd35bb3-f0e9-414f-b226-4923242f161c","ios":"levelo://app?vid=2cd35bb3-f0e9-414f-b226-4923242f161c"},"vehicle_type_id":"4","last_reported":1745328095,"current_range_meters":22000,"station_id":"ce4bho12rcd13ifvqh2g","pricing_plan_id":"cebpf4jnsgd1na2vs0mg"},{"bike_id":"78e35ad4-b990-457c-a5e9-5cb1b761d42b","system_id":"levelo_inurba_marseille","lat":43.30598,"lon":5.37208,"is_reserved":false,"is_disabled":false,"rental_uris":{"android":"levelo://app?vid=78e35ad4-b990-457c-a5e9-5cb1b761d42b","ios":"levelo://app?vid=78e35ad4-b990-457c-a5e9-5cb1b761d42b"},"vehicle_type_id":"4","last_reported":1745328095,"current_range_meters":22000,"station_id":"ce4bgqh2rcd13ifvqc4g","pricing_plan_id":"cebpf4jnsgd1na2vs0mg"},{"bike_id":"7f6f744b-444c-44ad-acfa-ce7756b452e2","system_id":"levelo_inurba_marseille","lat":43.25085,"lon":5.39523,"is_reserved":false,"is_disabled":false,"rental_uris":{"android":"levelo://app?vid=7f6f744b-444c-44ad-acfa-ce7756b452e2","ios":"levelo://app?vid=7f6f744b-444c-44ad-acfa-ce7756b452e2"},"vehicle_type_id":"4","last_reported":1745328095,"current_range_meters":22000,"station_id":"ce4bhm12rcd13ifvqgkg","pricing_plan_id":"cebpf4jnsgd1na2vs0mg"},{"bike_id":"47bb5ca8-1fa7-4077-9344-ccf97fb8cd14","system_id":"levelo_inurba_marseille","lat":43.29292,"lon":5.3686,"is_reserved":false,"is_disabled":false,"rental_uris":{"android":"levelo://app?vid=47bb5ca8-1fa7-4077-9344-ccf97fb8cd14","ios":"levelo://app?vid=47bb5ca8-1fa7-4077-9344-ccf97fb8cd14"},"vehicle_type_id":"4","last_reported":1745328095,"current_range_meters":22400,"station_id":"ce4bhbp2rcd13ifvqesg","pricing_plan_id":"cebpf4jnsgd1na2vs0mg"},{"bike_id":"072f7387-c5cc-4266-aadd-ad993e67aaa4","system_id":"levelo_inurba_marseille","lat":43.297028,"lon":5.366128,"is_reserved":false,"is_disabled":false,"rental_uris":{"android":"levelo://app?vid=072f7387-c5cc-4266-aadd-ad993e67aaa4","ios":"levelo://app?vid=072f7387-c5cc-4266-aadd-ad993e67aaa4"},"vehicle_type_id":"4","last_reported":1745328095,"current_range_meters":22400,"station_id":"ce4bgn12rcd13ifvqbt0","pricing_plan_id":"cebpf4jnsgd1na2vs0mg"},{"bike_id":"e205fccf-261c-4a0c-bc91-d9714bdf8d18","system_id":"levelo_inurba_marseille","lat":43.29688,"lon":5.36607,"is_reserved":false,"is_disabled":false,"rental_uris":{"android":"levelo://app?vid=e205fccf-261c-4a0c-bc91-d9714bdf8d18","ios":"levelo://app?vid=e205fccf-261c-4a0c-bc91-d9714bdf8d18"},"vehicle_type_id":"4","last_reported":1745328095,"current_range_meters":22000,"station_id":"ce4bgn12rcd13ifvqbt0","pricing_plan_id":"cebpf4jnsgd1na2vs0mg"},{"bike_id":"9181a354-49fa-45e3-b5c1-b7dca6746d38","system_id":"levelo_inurba_marseille","lat":43.2593,"lon":5.40892,"is_reserved":false,"is_disabled":false,"rental_uris":{"android":"levelo://app?vid=9181a354-49fa-45e3-b5c1-b7dca6746d38","ios":"levelo://app?vid=9181a354-49fa-45e3-b5c1-b7dca6746d38"},"vehicle_type_id":"4","last_reported":1745328095,"current_range_meters":22400,"station_id":"ce4bhm92rcd13ifvqglg","pricing_plan_id":"cebpf4jnsgd1na2vs0mg"},{"bike_id":"22dda939-b530-49af-837f-c70a9fe56061","system_id":"levelo_inurba_marseille","lat":43.25833,"lon":5.39402,"is_reserved":false,"is_disabled":false,"rental_uris":{"android":"levelo://app?vid=22dda939-b530-49af-837f-c70a9fe56061","ios":"levelo://app?vid=22dda939-b530-49af-837f-c70a9fe56061"},"vehicle_type_id":"4","last_reported":1745328095,"current_range_meters":22400,"station_id":"ce4bhip2rcd13ifvqft0","pricing_plan_id":"cebpf4jnsgd1na2vs0mg"},{"bike_id":"fd60dabb-1a0d-46f8-8d0b-24538a73506b","system_id":"levelo_inurba_marseille","lat":43.287221,"lon":5.389217,"is_reserved":false,"is_disabled":false,"rental_uris":{"android":"levelo://app?vid=fd60dabb-1a0d-46f8-8d0b-24538a73506b","ios":"levelo://app?vid=fd60dabb-1a0d-46f8-8d0b-24538a73506b"},"vehicle_type_id":"4","last_reported":1745328095,"current_range_meters":22400,"station_id":"ce4bh692rcd13ifvqea0","pricing_plan_id":"cebpf4jnsgd1na2vs0mg"},{"bike_id":"6e414e96-843a-4a99-93f1-690116b7ea0c","system_id":"levelo_inurba_marseille","lat":43.29523,"lon":5.39038,"is_reserved":false,"is_disabled":false,"rental_uris":{"android":"levelo://app?vid=6e414e96-843a-4a99-93f1-690116b7ea0c","ios":"levelo://app?vid=6e414e96-843a-4a99-93f1-690116b7ea0c"},"vehicle_type_id":"4","last_reported":1745328095,"current_range_meters":22800,"station_id":"ce4bh3p2rcd13ifvqdp0","pricing_plan_id":"cebpf4jnsgd1na2vs0mg"},{"bike_id":"5e0a03ef-3f32-4901-84c4-ef23a59f6451","system_id":"levelo_inurba_marseille","lat":43.32058,"lon":5.41538,"is_reserved":false,"is_disabled":false,"rental_uris":{"android":"levelo://app?vid=5e0a03ef-3f32-4901-84c4-ef23a59f6451","ios":"levelo://app?vid=5e0a03ef-3f32-4901-84c4-ef23a59f6451"},"vehicle_type_id":"4","last_reported":1745328095,"current_range_meters":22400,"station_id":"ce4bhq92rcd13ifvqhkg","pricing_plan_id":"cebpf4jnsgd1na2vs0mg"},{"bike_id":"ccfd3b75-9487-479b-ade5-170ff6d3b74e","system_id":"levelo_inurba_marseille","lat":43.24179,"lon":5.39727,"is_reserved":false,"is_disabled":false,"rental_uris":{"android":"levelo://app?vid=ccfd3b75-9487-479b-ade5-170ff6d3b74e","ios":"levelo://app?vid=ccfd3b75-9487-479b-ade5-170ff6d3b74e"},"vehicle_type_id":"4","last_reported":1745328095,"current_range_meters":22800,"station_id":"ce4bhn12rcd13ifvqgpg","pricing_plan_id":"cebpf4jnsgd1na2vs0mg"},{"bike_id":"c47aa52c-2684-42ab-a1e0-8ea4127d6a06","system_id":"levelo_inurba_marseille","lat":43.28453,"lon":5.35885,"is_reserved":false,"is_disabled":false,"rental_uris":{"android":"levelo://app?vid=c47aa52c-2684-42ab-a1e0-8ea4127d6a06","ios":"levelo://app?vid=c47aa52c-2684-42ab-a1e0-8ea4127d6a06"},"vehicle_type_id":"4","last_reported":1745328095,"current_range_meters":22800,"station_id":"ce4bhah2rcd13ifvqei0","pricing_plan_id":"cebpf4jnsgd1na2vs0mg"},{"bike_id":"d9d44bb1-7bfe-47ae-8064-8d3f60874589","system_id":"levelo_inurba_marseille","lat":43.30273,"lon":5.37707,"is_reserved":false,"is_disabled":false,"rental_uris":{"android":"levelo://app?vid=d9d44bb1-7bfe-47ae-8064-8d3f60874589","ios":"levelo://app?vid=d9d44bb1-7bfe-47ae-8064-8d3f60874589"},"vehicle_type_id":"4","last_reported":1745328095,"current_range_meters":22400,"station_id":"ce4bguh2rcd13ifvqcj0","pricing_plan_id":"cebpf4jnsgd1na2vs0mg"},{"bike_id":"00521804-826a-4c30-b03b-2fc2bdd37dd4","system_id":"levelo_inurba_marseille","lat":43.26785,"lon":5.39411,"is_reserved":false,"is_disabled":false,"rental_uris":{"android":"levelo://app?vid=00521804-826a-4c30-b03b-2fc2bdd37dd4","ios":"levelo://app?vid=00521804-826a-4c30-b03b-2fc2bdd37dd4"},"vehicle_type_id":"4","last_reported":1745328095,"current_range_meters":22800,"station_id":"ce4bhh12rcd13ifvqfg0","pricing_plan_id":"cebpf4jnsgd1na2vs0mg"},{"bike_id":"2bcc2ed9-a779-4e85-b5ba-6ef8a7be265a","system_id":"levelo_inurba_marseille","lat":43.3042,"lon":5.41282,"is_reserved":false,"is_disabled":false,"rental_uris":{"android":"levelo://app?vid=2bcc2ed9-a779-4e85-b5ba-6ef8a7be265a","ios":"levelo://app?vid=2bcc2ed9-a779-4e85-b5ba-6ef8a7be265a"},"vehicle_type_id":"4","last_reported":1745328095,"current_range_meters":22400,"station_id":"ce4bhop2rcd13ifvqh8g","pricing_plan_id":"cebpf4jnsgd1na2vs0mg"},{"bike_id":"294145c7-5da7-4086-82ca-815d8c63317c","system_id":"levelo_inurba_marseille","lat":43.291992,"lon":5.380627,"is_reserved":false,"is_disabled":false,"rental_uris":{"android":"levelo://app?vid=294145c7-5da7-4086-82ca-815d8c63317c","ios":"levelo://app?vid=294145c7-5da7-4086-82ca-815d8c63317c"},"vehicle_type_id":"4","last_reported":1745328095,"current_range_meters":22400,"station_id":"ce4bh2h2rcd13ifvqdh0","pricing_plan_id":"cebpf4jnsgd1na2vs0mg"},{"bike_id":"1c50f2b1-7771-497b-a03b-7b86ec2467f1","system_id":"levelo_inurba_marseille","lat":43.31115,"lon":5.37768,"is_reserved":false,"is_disabled":false,"rental_uris":{"android":"levelo://app?vid=1c50f2b1-7771-497b-a03b-7b86ec2467f1","ios":"levelo://app?vid=1c50f2b1-7771-497b-a03b-7b86ec2467f1"},"vehicle_type_id":"4","last_reported":1745328095,"current_range_meters":23200,"station_id":"ce4bgt92rcd13ifvqcg0","pricing_plan_id":"cebpf4jnsgd1na2vs0mg"},{"bike_id":"4bb29463-d435-43b7-bf38-b74255b6611a","system_id":"levelo_inurba_marseille","lat":43.29424,"lon":5.38619,"is_reserved":false,"is_disabled":false,"rental_uris":{"android":"levelo://app?vid=4bb29463-d435-43b7-bf38-b74255b6611a","ios":"levelo://app?vid=4bb29463-d435-43b7-bf38-b74255b6611a"},"vehicle_type_id":"4","last_reported":1745328095,"current_range_meters":22800,"station_id":"ce4bh2h2rcd13ifvqdh0","pricing_plan_id":"cebpf4jnsgd1na2vs0mg"},{"bike_id":"ac1db382-ef8a-4e6d-872b-99760272d17d","system_id":"levelo_inurba_marseille","lat":43.28113,"lon":5.37824,"is_reserved":false,"is_disabled":false,"rental_uris":{"android":"levelo://app?vid=ac1db382-ef8a-4e6d-872b-99760272d17d","ios":"levelo://app?vid=ac1db382-ef8a-4e6d-872b-99760272d17d"},"vehicle_type_id":"4","last_reported":1745328095,"current_range_meters":23200,"station_id":"ce4bha12rcd13ifvqee0","pricing_plan_id":"cebpf4jnsgd1na2vs0mg"},{"bike_id":"dc7c51bd-b5e5-4896-adea-5386c60261f4","system_id":"levelo_inurba_marseille","lat":43.31077,"lon":5.38346,"is_reserved":false,"is_disabled":false,"rental_uris":{"android":"levelo://app?vid=dc7c51bd-b5e5-4896-adea-5386c60261f4","ios":"levelo://app?vid=dc7c51bd-b5e5-4896-adea-5386c60261f4"},"vehicle_type_id":"4","last_reported":1745328095,"current_range_meters":23200,"station_id":"ce4bgv92rcd13ifvqcr0","pricing_plan_id":"cebpf4jnsgd1na2vs0mg"},{"bike_id":"557b3fc5-9358-4e67-8a32-9108b98963a4","system_id":"levelo_inurba_marseille","lat":43.28841,"lon":5.39309,"is_reserved":false,"is_disabled":false,"rental_uris":{"android":"levelo://app?vid=557b3fc5-9358-4e67-8a32-9108b98963a4","ios":"levelo://app?vid=557b3fc5-9358-4e67-8a32-9108b98963a4"},"vehicle_type_id":"4","last_reported":1745328095,"current_range_meters":23200,"station_id":"ce4bh2p2rcd13ifvqdi0","pricing_plan_id":"cebpf4jnsgd1na2vs0mg"},{"bike_id":"32575075-6954-4838-b8f4-c5daad1216f7","system_id":"levelo_inurba_marseille","lat":43.2318,"lon":5.39991,"is_reserved":false,"is_disabled":false,"rental_uris":{"android":"levelo://app?vid=32575075-6954-4838-b8f4-c5daad1216f7","ios":"levelo://app?vid=32575075-6954-4838-b8f4-c5daad1216f7"},"vehicle_type_id":"4","last_reported":1745328095,"current_range_meters":23200,"station_id":"ce4bhn12rcd13ifvqgqg","pricing_plan_id":"cebpf4jnsgd1na2vs0mg"},{"bike_id":"de94e796-5b52-4531-aa4d-8ea4cf4f8358","system_id":"levelo_inurba_marseille","lat":43.29303,"lon":5.37454,"is_reserved":false,"is_disabled":false,"rental_uris":{"android":"levelo://app?vid=de94e796-5b52-4531-aa4d-8ea4cf4f8358","ios":"levelo://app?vid=de94e796-5b52-4531-aa4d-8ea4cf4f8358"},"vehicle_type_id":"4","last_reported":1745328095,"current_range_meters":22800,"station_id":"ce4bgi12rcd13ifvqb70","pricing_plan_id":"cebpf4jnsgd1na2vs0mg"},{"bike_id":"8cedfd22-1360-4a69-9941-81d5132c19d3","system_id":"levelo_inurba_marseille","lat":43.33024,"lon":5.39042,"is_reserved":false,"is_disabled":false,"rental_uris":{"android":"levelo://app?vid=8cedfd22-1360-4a69-9941-81d5132c19d3","ios":"levelo://app?vid=8cedfd22-1360-4a69-9941-81d5132c19d3"},"vehicle_type_id":"4","last_reported":1745328095,"current_range_meters":23200,"station_id":"ce4bhr92rcd13ifvqhrg","pricing_plan_id":"cebpf4jnsgd1na2vs0mg"},{"bike_id":"30462698-9840-440a-83cb-e15db7f2511f","system_id":"levelo_inurba_marseille","lat":43.308845,"lon":5.39659,"is_reserved":false,"is_disabled":false,"rental_uris":{"android":"levelo://app?vid=30462698-9840-440a-83cb-e15db7f2511f","ios":"levelo://app?vid=30462698-9840-440a-83cb-e15db7f2511f"},"vehicle_type_id":"4","last_reported":1745328095,"current_range_meters":23200,"station_id":"ce4bh012rcd13ifvqcv0","pricing_plan_id":"cebpf4jnsgd1na2vs0mg"},{"bike_id":"d4061684-00ed-4373-92d0-e873b081fb53","system_id":"levelo_inurba_marseille","lat":43.28039,"lon":5.36943,"is_reserved":false,"is_disabled":false,"rental_uris":{"android":"levelo://app?vid=d4061684-00ed-4373-92d0-e873b081fb53","ios":"levelo://app?vid=d4061684-00ed-4373-92d0-e873b081fb53"},"vehicle_type_id":"4","last_reported":1745328095,"current_range_meters":24000,"station_id":"ce4bha12rcd13ifvqef0","pricing_plan_id":"cebpf4jnsgd1na2vs0mg"},{"bike_id":"5630f52d-0448-4fa0-94dd-5eaa69c05d03","system_id":"levelo_inurba_marseille","lat":43.27065,"lon":5.42276,"is_reserved":false,"is_disabled":false,"rental_uris":{"android":"levelo://app?vid=5630f52d-0448-4fa0-94dd-5eaa69c05d03","ios":"levelo://app?vid=5630f52d-0448-4fa0-94dd-5eaa69c05d03"},"vehicle_type_id":"4","last_reported":1745328095,"current_range_meters":24000,"station_id":"ce4bhk92rcd13ifvqgb0","pricing_plan_id":"cebpf4jnsgd1na2vs0mg"},{"bike_id":"00ddd704-134f-4f1e-8430-f98d20ea048f","system_id":"levelo_inurba_marseille","lat":43.30206,"lon":5.39478,"is_reserved":false,"is_disabled":false,"rental_uris":{"android":"levelo://app?vid=00ddd704-134f-4f1e-8430-f98d20ea048f","ios":"levelo://app?vid=00ddd704-134f-4f1e-8430-f98d20ea048f"},"vehicle_type_id":"4","last_reported":1745328095,"current_range_meters":24000,"station_id":"ce4bh0p2rcd13ifvqd70","pricing_plan_id":"cebpf4jnsgd1na2vs0mg"},{"bike_id":"6cfea59f-5168-40a6-b29a-372f683a97cc","system_id":"levelo_inurba_marseille","lat":43.30901,"lon":5.39633,"is_reserved":false,"is_disabled":false,"rental_uris":{"android":"levelo://app?vid=6cfea59f-5168-40a6-b29a-372f683a97cc","ios":"levelo://app?vid=6cfea59f-5168-40a6-b29a-372f683a97cc"},"vehicle_type_id":"4","last_reported":1745328095,"current_range_meters":24000,"station_id":"ce4bh012rcd13ifvqcv0","pricing_plan_id":"cebpf4jnsgd1na2vs0mg"},{"bike_id":"1e041d04-614c-480c-8556-e374afef8f25","system_id":"levelo_inurba_marseille","lat":43.30274,"lon":5.37704,"is_reserved":false,"is_disabled":false,"rental_uris":{"android":"levelo://app?vid=1e041d04-614c-480c-8556-e374afef8f25","ios":"levelo://app?vid=1e041d04-614c-480c-8556-e374afef8f25"},"vehicle_type_id":"4","last_reported":1745328095,"current_range_meters":24000,"station_id":"ce4bguh2rcd13ifvqcj0","pricing_plan_id":"cebpf4jnsgd1na2vs0mg"},{"bike_id":"3c95d66a-e149-4b36-9c6b-a9a5bd993755","system_id":"levelo_inurba_marseille","lat":43.26554,"lon":5.37281,"is_reserved":false,"is_disabled":false,"rental_uris":{"android":"levelo://app?vid=3c95d66a-e149-4b36-9c6b-a9a5bd993755","ios":"levelo://app?vid=3c95d66a-e149-4b36-9c6b-a9a5bd993755"},"vehicle_type_id":"4","last_reported":1745328095,"current_range_meters":24000,"station_id":"ce4bhg12rcd13ifvqf70","pricing_plan_id":"cebpf4jnsgd1na2vs0mg"},{"bike_id":"6da27505-89be-4a96-88ac-febbb1b1d1e6","system_id":"levelo_inurba_marseille","lat":43.27383,"lon":5.36253,"is_reserved":false,"is_disabled":false,"rental_uris":{"android":"levelo://app?vid=6da27505-89be-4a96-88ac-febbb1b1d1e6","ios":"levelo://app?vid=6da27505-89be-4a96-88ac-febbb1b1d1e6"},"vehicle_type_id":"4","last_reported":1745328095,"current_range_meters":24000,"station_id":"ce4bhbh2rcd13ifvqeo0","pricing_plan_id":"cebpf4jnsgd1na2vs0mg"},{"bike_id":"63ed34bf-d93c-447d-b4ae-e133fea8c9a2","system_id":"levelo_inurba_marseille","lat":43.292005,"lon":5.358053,"is_reserved":false,"is_disabled":false,"rental_uris":{"android":"levelo://app?vid=63ed34bf-d93c-447d-b4ae-e133fea8c9a2","ios":"levelo://app?vid=63ed34bf-d93c-447d-b4ae-e133fea8c9a2"},"vehicle_type_id":"4","last_reported":1745328095,"current_range_meters":24000,"station_id":"ce4bgkh2rcd13ifvqbl0","pricing_plan_id":"cebpf4jnsgd1na2vs0mg"},{"bike_id":"f98bcad6-534d-4647-9654-acf13ee2a765","system_id":"levelo_inurba_marseille","lat":43.30531,"lon":5.37309,"is_reserved":false,"is_disabled":false,"rental_uris":{"android":"levelo://app?vid=f98bcad6-534d-4647-9654-acf13ee2a765","ios":"levelo://app?vid=f98bcad6-534d-4647-9654-acf13ee2a765"},"vehicle_type_id":"4","last_reported":1745328095,"current_range_meters":24000,"station_id":"","pricing_plan_id":"cebpf4jnsgd1na2vs0mg"},{"bike_id":"230b068f-4a2b-44cb-888b-6e7b4a43478c","system_id":"levelo_inurba_marseille","lat":43.27905,"lon":5.38006,"is_reserved":false,"is_disabled":false,"rental_uris":{"android":"levelo://app?vid=230b068f-4a2b-44cb-888b-6e7b4a43478c","ios":"levelo://app?vid=230b068f-4a2b-44cb-888b-6e7b4a43478c"},"vehicle_type_id":"4","last_reported":1745328095,"current_range_meters":24000,"station_id":"ce4bhf92rcd13ifvqf50","pricing_plan_id":"cebpf4jnsgd1na2vs0mg"},{"bike_id":"2f7aa600-ad4a-40b4-abaa-c716bc6fa732","system_id":"levelo_inurba_marseille","lat":43.24074,"lon":5.37736,"is_reserved":false,"is_disabled":false,"rental_uris":{"android":"levelo://app?vid=2f7aa600-ad4a-40b4-abaa-c716bc6fa732","ios":"levelo://app?vid=2f7aa600-ad4a-40b4-abaa-c716bc6fa732"},"vehicle_type_id":"4","last_reported":1745328095,"current_range_meters":24000,"station_id":"ce4bhnp2rcd13ifvqgvg","pricing_plan_id":"cebpf4jnsgd1na2vs0mg"},{"bike_id":"3727d92d-c069-44a1-81bf-3d9b02fc37d8","system_id":"levelo_inurba_marseille","lat":43.26229,"lon":5.40452,"is_reserved":false,"is_disabled":false,"rental_uris":{"android":"levelo://app?vid=3727d92d-c069-44a1-81bf-3d9b02fc37d8","ios":"levelo://app?vid=3727d92d-c069-44a1-81bf-3d9b02fc37d8"},"vehicle_type_id":"4","last_reported":1745328095,"current_range_meters":24000,"station_id":"ce4bhmh2rcd13ifvqgmg","pricing_plan_id":"cebpf4jnsgd1na2vs0mg"},{"bike_id":"eddf388e-8873-45ba-ad33-881fd27c608c","system_id":"levelo_inurba_marseille","lat":43.29301,"lon":5.37452,"is_reserved":false,"is_disabled":true,"rental_uris":{"android":"levelo://app?vid=eddf388e-8873-45ba-ad33-881fd27c608c","ios":"levelo://app?vid=eddf388e-8873-45ba-ad33-881fd27c608c"},"vehicle_type_id":"4","last_reported":1745328095,"current_range_meters":24000,"station_id":"ce4bgi12rcd13ifvqb70","pricing_plan_id":"cebpf4jnsgd1na2vs0mg"},{"bike_id":"b0de3753-2b71-48aa-bccd-9cf82e63b1a3","system_id":"levelo_inurba_marseille","lat":43.315272,"lon":5.380394,"is_reserved":false,"is_disabled":false,"rental_uris":{"android":"levelo://app?vid=b0de3753-2b71-48aa-bccd-9cf82e63b1a3","ios":"levelo://app?vid=b0de3753-2b71-48aa-bccd-9cf82e63b1a3"},"vehicle_type_id":"4","last_reported":1745328095,"current_range_meters":24000,"station_id":"ce4bhsp2rcd13ifvqi50","pricing_plan_id":"cebpf4jnsgd1na2vs0mg"},{"bike_id":"916e3026-5c0f-4541-9dcd-3ea830389bd0","system_id":"levelo_inurba_marseille","lat":43.30463,"lon":5.37911,"is_reserved":false,"is_disabled":false,"rental_uris":{"android":"levelo://app?vid=916e3026-5c0f-4541-9dcd-3ea830389bd0","ios":"levelo://app?vid=916e3026-5c0f-4541-9dcd-3ea830389bd0"},"vehicle_type_id":"4","last_reported":1745328095,"current_range_meters":24000,"station_id":"ce4bgup2rcd13ifvqcn0","pricing_plan_id":"cebpf4jnsgd1na2vs0mg"},{"bike_id":"2f8e3607-4113-484d-a492-d4b0cfa60e37","system_id":"levelo_inurba_marseille","lat":43.337766,"lon":5.374339,"is_reserved":false,"is_disabled":false,"rental_uris":{"android":"levelo://app?vid=2f8e3607-4113-484d-a492-d4b0cfa60e37","ios":"levelo://app?vid=2f8e3607-4113-484d-a492-d4b0cfa60e37"},"vehicle_type_id":"4","last_reported":1745328095,"current_range_meters":24400,"station_id":"","pricing_plan_id":"cebpf4jnsgd1na2vs0mg"},