{"last_updated":1758654478,"ttl":60,"version":"2.2","data":{"bikes":[{"bike_id":"05977a29-4492-4e42-b026-696e72e1cc93","system_id":"levelo_inurba_marseille","lat":43.28255,"lon":5.37272,"is_reserved":false,"is_disabled":false,"rental_uris":{"android":"levelo://app?vid=05977a29-4492-4e42-b026-696e72e1cc93","ios":"levelo://app?vid=05977a29-4492-4e42-b026-696e72e1cc93"},"vehicle_type_id":"4","last_reported":1758654478,"current_range_meters":2800,"station_id":"","pricing_plan_id":"cebpf4jnsgd1na2vs0mg"},{"bike_id":"1b790372-5d34-489f-a29a-5f2319ad70e0","system_id":"levelo_inurba_marseille","lat":43.28261,"lon":5.35048,"is_reserved":false,"is_disabled":true,"rental_uris":{"android":"levelo://app?vid=1b790372-5d34-489f-a29a-5f2319ad70e0","ios":"levelo://app?vid=1b790372-5d34-489f-a29a-5f2319ad70e0"},"vehicle_type_id":"4","last_reported":1758654478,"current_range_meters":2800,"station_id":"ce4bhbp2rcd13ifvqerg","pricing_plan_id":"cebpf4jnsgd1na2vs0mg"},{"bike_id":"7ffb2ece-7fbf-479f-b60b-ebba8310dedb","system_id":"levelo_inurba_marseille","lat":43.24173,"lon":5.36388,"is_reserved":false,"is_disabled":false,"rental_uris":{"android":"levelo://app?vid=7ffb2ece-7fbf-479f-b60b-ebba8310dedb","ios":"levelo://app?vid=7ffb2ece-7fbf-479f-b60b-ebba8310dedb"},"vehicle_type_id":"4","last_reported":1758654478,"current_range_meters":2800,"station_id":"cpo36qri1sfpv3e86is0","pricing_plan_id":"cebpf4jnsgd1na2vs0mg"},{"bike_id":"59b1e2b3-8271-4748-b3ee-73f73a5a1d99","system_id":"levelo_inurba_marseille","lat":43.28426,"lon":5.37507,"is_reserved":false,"is_disabled":false,"rental_uris":{"android":"levelo://app?vid=59b1e2b3-8271-4748-b3ee-73f73a5a1d99","ios":"levelo://app?vid=59b1e2b3-8271-4748-b3ee-73f73a5a1d99"},"vehicle_type_id":"4","last_reported":1758654478,"current_range_meters":3200,"station_id":"ce4bh412rcd13ifvqds0","pricing_plan_id":"cebpf4jnsgd1na2vs0mg"},{"bike_id":"54502de0-09ba-43cd-a1f2-9f84e6e6c1cb","system_id":"levelo_inurba_marseille","lat":43.290149,"lon":5.381283,"is_reserved":false,"is_disabled":false,"rental_uris":{"android":"levelo://app?vid=54502de0-09ba-43cd-a1f2-9f84e6e6c1cb","ios":"levelo://app?vid=54502de0-09ba-43cd-a1f2-9f84e6e6c1cb"},"vehicle_type_id":"4","last_reported":1758654478,"current_range_meters":3200,"station_id":"","pricing_plan_id":"cebpf4jnsgd1na2vs0mg"},{"bike_id":"a026d568-9a99-421d-b296-4759af1c95af","system_id":"levelo_inurba_marseille","lat":43.24165,"lon":5.39732,"is_reserved":false,"is_disabled":false,"rental_uris":{"android":"levelo://app?vid=a026d568-9a99-421d-b296-4759af1c95af","ios":"levelo://app?vid=a026d568-9a99-421d-b296-4759af1c95af"},"vehicle_type_id":"4","last_reported":1758654478,"current_range_meters":3200,"station_id":"ce4bhn12rcd13ifvqgpg","pricing_plan_id":"cebpf4jnsgd1na2vs0mg"},{"bike_id":"abae6e8f-1820-484f-b35a-e17215d99e74","system_id":"levelo_inurba_marseille","lat":43.29374,"lon":5.37861,"is_reserved":false,"is_disabled":false,"rental_uris":{"android":"levelo://app?vid=abae6e8f-1820-484f-b35a-e17215d99e74","ios":"levelo://app?vid=abae6e8f-1820-484f-b35a-e17215d99e74"},"vehicle_type_id":"4","last_reported":1758654478,"current_range_meters":3200,"station_id":"ce4bgjh2rcd13ifvqbf0","pricing_plan_id":"cebpf4jnsgd1na2vs0mg"},{"bike_id":"449dc71d-24b8-47d0-9d11-66cce921dbbe","system_id":"levelo_inurba_marseille","lat":43.28354,"lon":5.38629,"is_reserved":false,"is_disabled":false,"rental_uris":{"android":"levelo://app?vid=449dc71d-24b8-47d0-9d11-66cce921dbbe","ios":"levelo://app?vid=449dc71d-24b8-47d0-9d11-66cce921dbbe"},"vehicle_type_id":"4","last_reported":1758654478,"current_range_meters":1200,"station_id":"ce4bh492rcd13ifvqdvg","pricing_plan_id":"cebpf4jnsgd1na2vs0mg"},{"bike_id":"f30b70dd-0587-473d-8fe4-3118f0848c07","system_id":"levelo_inurba_marseille","lat":43.27904,"lon":5.38012,"is_reserved":false,"is_disabled":false,"rental_uris":{"android":"levelo://app?vid=f30b70dd-0587-473d-8fe4-3118f0848c07","ios":"levelo://app?vid=f30b70dd-0587-473d-8fe4-3118f0848c07"},"vehicle_type_id":"4","last_reported":1758654478,"current_range_meters":3600,"station_id":"ce4bhf92rcd13ifvqf50","pricing_plan_id":"cebpf4jnsgd1na2vs0mg"},{"bike_id":"2744f3a7-e795-4148-9174-ee4c1df9b5d6","system_id":"levelo_inurba_marseille","lat":43.282739,"lon":5.387797,"is_reserved":false,"is_disabled":false,"rental_uris":{"android":"levelo://app?vid=2744f3a7-e795-4148-9174-ee4c1df9b5d6","ios":"levelo://app?vid=2744f3a7-e795-4148-9174-ee4c1df9b5d6"},"vehicle_type_id":"4","last_reported":1758654478,"current_range_meters":4000,"station_id":"ce4bh492rcd13ifvqdvg","pricing_plan_id":"cebpf4jnsgd1na2vs0mg"},{"bike_id":"11ba4b80-b9ff-42f0-ac68-30a9ca2fc52b","system_id":"levelo_inurba_marseille","lat":43.29899,"lon":5.43677,"is_reserved":false,"is_disabled":false,"rental_uris":{"android":"levelo://app?vid=11ba4b80-b9ff-42f0-ac68-30a9ca2fc52b","ios":"levelo://app?vid=11ba4b80-b9ff-42f0-ac68-30a9ca2fc52b"},"vehicle_type_id":"4","last_reported":1758654478,"current_range_meters":4000,"station_id":"ce4bhpp2rcd13ifvqhfg","pricing_plan_id":"cebpf4jnsgd1na2vs0mg"},{"bike_id":"6ab4a66e-7a65-4f29-b789-936dd211b77a","system_id":"levelo_inurba_marseille","lat":43.3092,"lon":5.3787,"is_reserved":false,"is_disabled":false,"rental_uris":{"android":"levelo://app?vid=6ab4a66e-7a65-4f29-b789-936dd211b77a","ios":"levelo://app?vid=6ab4a66e-7a65-4f29-b789-936dd211b77a"},"vehicle_type_id":"4","last_reported":1758654478,"current_range_meters":4400,"station_id":"","pricing_plan_id":"cebpf4jnsgd1na2vs0mg"},{"bike_id":"ff757efb-f1f5-4b11-9587-df6893fd26fd","system_id":"levelo_inurba_marseille","lat":43.29625,"lon":5.40597,"is_reserved":false,"is_disabled":false,"rental_uris":{"android":"levelo://app?vid=ff757efb-f1f5-4b11-9587-df6893fd26fd","ios":"levelo://app?vid=ff757efb-f1f5-4b11-9587-df6893fd26fd"},"vehicle_type_id":"4","last_reported":1758654478,"current_range_meters":4400,"station_id":"ce4bh0h2rcd13ifvqd60","pricing_plan_id":"cebpf4jnsgd1na2vs0mg"},{"bike_id":"8d004e1d-f1a8-4f52-8b79-e4a1fdf0aa13","system_id":"levelo_inurba_marseille","lat":43.28673,"lon":5.38663,"is_reserved":false,"is_disabled":false,"rental_uris":{"android":"levelo://app?vid=8d004e1d-f1a8-4f52-8b79-e4a1fdf0aa13","ios":"levelo://app?vid=8d004e1d-f1a8-4f52-8b79-e4a1fdf0aa13"},"vehicle_type_id":"4","last_reported":1758654478,"current_range_meters":4400,"station_id":"ce4bh492rcd13ifvqdug","pricing_plan_id":"cebpf4jnsgd1na2vs0mg"},{"bike_id":"9176512c-2cc1-4df2-a8e0-6be514fbcdbf","system_id":"levelo_inurba_marseille","lat":43.33748,"lon":5.37465,"is_reserved":false,"is_disabled":false,"rental_uris":{"android":"levelo://app?vid=9176512c-2cc1-4df2-a8e0-6be514fbcdbf","ios":"levelo://app?vid=9176512c-2cc1-4df2-a8e0-6be514fbcdbf"},"vehicle_type_id":"4","last_reported":1758654478,"current_range_meters":4400,"station_id":"","pricing_plan_id":"cebpf4jnsgd1na2vs0mg"},{"bike_id":"cfa36885-dbcc-4d29-b540-7f38d10a3645","system_id":"levelo_inurba_marseille","lat":43.28694,"lon":5.3998,"is_reserved":false,"is_disabled":false,"rental_uris":{"android":"levelo://app?vid=cfa36885-dbcc-4d29-b540-7f38d10a3645","ios":"levelo://app?vid=cfa36885-dbcc-4d29-b540-7f38d10a3645"},"vehicle_type_id":"4","last_reported":1758654478,"current_range_meters":2000,"station_id":"ce4bho92rcd13ifvqh3g","pricing_plan_id":"cebpf4jnsgd1na2vs0mg"},{"bike_id":"7e6cf436-12db-443d-821a-bd6f9966d83f","system_id":"levelo_inurba_marseille","lat":43.31325,"lon":5.39691,"is_reserved":false,"is_disabled":false,"rental_uris":{"android":"levelo://app?vid=7e6cf436-12db-443d-821a-bd6f9966d83f","ios":"levelo://app?vid=7e6cf436-12db-443d-821a-bd6f9966d83f"},"vehicle_type_id":"4","last_reported":1758654478,"current_range_meters":5600,"station_id":"ce4bgvp2rcd13ifvqcu0","pricing_plan_id":"cebpf4jnsgd1na2vs0mg"},{"bike_id":"e631c140-47b3-481f-ac38-a5c66ec4c45b","system_id":"levelo_inurba_marseille","lat":43.2862,"lon":5.35113,"is_reserved":false,"is_disabled":false,"rental_uris":{"android":"levelo://app?vid=e631c140-47b3-481f-ac38-a5c66ec4c45b","ios":"levelo://app?vid=e631c140-47b3-481f-ac38-a5c66ec4c45b"},"vehicle_type_id":"4","last_reported":1758654478,"current_range_meters":5600,"station_id":"ce4bhch2rcd13ifvqeug","pricing_plan_id":"cebpf4jnsgd1na2vs0mg"},{"bike_id":"b56461b5-12a7-4f05-9eab-a07bc192ad33","system_id":"levelo_inurba_marseille","lat":43.24622,"lon":5.38895,"is_reserved":false,"is_disabled":false,"rental_uris":{"android":"levelo://app?vid=b56461b5-12a7-4f05-9eab-a07bc192ad33","ios":"levelo://app?vid=b56461b5-12a7-4f05-9eab-a07bc192ad33"},"vehicle_type_id":"4","last_reported":1758654478,"current_range_meters":5600,"station_id":"ce4bhg12rcd13ifvqf60","pricing_plan_id":"cebpf4jnsgd1na2vs0mg"},{"bike_id":"5ddca04a-c070-432c-b33b-b04adf717b6d","system_id":"levelo_inurba_marseille","lat":43.299747,"lon":5.384802,"is_reserved":false,"is_disabled":false,"rental_uris":{"android":"levelo://app?vid=5ddca04a-c070-432c-b33b-b04adf717b6d","ios":"levelo://app?vid=5ddca04a-c070-432c-b33b-b04adf717b6d"},"vehicle_type_id":"4","last_reported":1758654478,"current_range_meters":6000,"station_id":"","pricing_plan_id":"cebpf4jnsgd1na2vs0mg"},{"bike_id":"58c3db58-d3a8-45d4-9fe8-7c9c225c343e","system_id":"levelo_inurba_marseille","lat":43.28682,"lon":5.38666,"is_reserved":false,"is_disabled":false,"rental_uris":{"android":"levelo://app?vid=58c3db58-d3a8-45d4-9fe8-7c9c225c343e","ios":"levelo://app?vid=58c3db58-d3a8-45d4-9fe8-7c9c225c343e"},"vehicle_type_id":"4","last_reported":1758654478,"current_range_meters":6000,"station_id":"ce4bh492rcd13ifvqdug","pricing_plan_id":"cebpf4jnsgd1na2vs0mg"},{"bike_id":"2ae6cd70-ddf5-44d7-bf34-209ffcbd33ad","system_id":"levelo_inurba_marseille","lat":43.30299,"lon":5.39202,"is_reserved":false,"is_disabled":true,"rental_uris":{"android":"levelo://app?vid=2ae6cd70-ddf5-44d7-bf34-209ffcbd33ad","ios":"levelo://app?vid=2ae6cd70-ddf5-44d7-bf34-209ffcbd33ad"},"vehicle_type_id":"4","last_reported":1758654478,"current_range_meters":6000,"station_id":"ce4bgkh2rcd13ifvqbk0","pricing_plan_id":"cebpf4jnsgd1na2vs0mg"},{"bike_id":"698a1659-1be4-4464-8e40-0054e6845364","system_id":"levelo_inurba_marseille","lat":43.29383,"lon":5.40376,"is_reserved":false,"is_disabled":false,"rental_uris":{"android":"levelo://app?vid=698a1659-1be4-4464-8e40-0054e6845364","ios":"levelo://app?vid=698a1659-1be4-4464-8e40-0054e6845364"},"vehicle_type_id":"4","last_reported":1758654478,"current_range_meters":6400,"station_id":"","pricing_plan_id":"cebpf4jnsgd1na2vs0mg"},{"bike_id":"af29bd4a-51c0-47f1-bce0-b9ca138339ea","system_id":"levelo_inurba_marseille","lat":43.31702,"lon":5.43712,"is_reserved":false,"is_disabled":false,"rental_uris":{"android":"levelo://app?vid=af29bd4a-51c0-47f1-bce0-b9ca138339ea","ios":"levelo://app?vid=af29bd4a-51c0-47f1-bce0-b9ca138339ea"},"vehicle_type_id":"4","last_reported":1758654478,"current_range_meters":6800,"station_id":"ce4bhp92rcd13ifvqhcg","pricing_plan_id":"cebpf4jnsgd1na2vs0mg"},{"bike_id":"d29b4d78-3706-403a-8b13-fb81efcc64f4","system_id":"levelo_inurba_marseille","lat":43.28664,"lon":5.38669,"is_reserved":false,"is_disabled":false,"rental_uris":{"android":"levelo://app?vid=d29b4d78-3706-403a-8b13-fb81efcc64f4","ios":"levelo://app?vid=d29b4d78-3706-403a-8b13-fb81efcc64f4"},"vehicle_type_id":"4","last_reported":1758654478,"current_range_meters":6400,"station_id":"ce4bh492rcd13ifvqdug","pricing_plan_id":"cebpf4jnsgd1na2vs0mg"},{"bike_id":"3d3616ae-55ab-4319-9346-2104e95c171f","system_id":"levelo_inurba_marseille","lat":43.30978,"lon":5.37958,"is_reserved":false,"is_disabled":false,"rental_uris":{"android":"levelo://app?vid=3d3616ae-55ab-4319-9346-2104e95c171f","ios":"levelo://app?vid=3d3616ae-55ab-4319-9346-2104e95c171f"},"vehicle_type_id":"4","last_reported":1758654478,"current_range_meters":6400,"station_id":"","pricing_plan_id":"cebpf4jnsgd1na2vs0mg"},{"bike_id":"e986687d-6f73-4f11-a1fb-90d6d6e4a54e","system_id":"levelo_inurba_marseille","lat":43.29606,"lon":5.38101,"is_reserved":false,"is_disabled":false,"rental_uris":{"android":"levelo://app?vid=e986687d-6f73-4f11-a1fb-90d6d6e4a54e","ios":"levelo://app?vid=e986687d-6f73-4f11-a1fb-90d6d6e4a54e"},"vehicle_type_id":"4","last_reported":1758654478,"current_range_meters":6400,"station_id":"ce4bgl12rcd13ifvqbo0","pricing_plan_id":"cebpf4jnsgd1na2vs0mg"},{"bike_id":"2e2d6ba0-2e68-4de8-b103-fd934276de2a","system_id":"levelo_inurba_marseille","lat":43.24076,"lon":5.37761,"is_reserved":false,"is_disabled":false,"rental_uris":{"android":"levelo://app?vid=2e2d6ba0-2e68-4de8-b103-fd934276de2a","ios":"levelo://app?vid=2e2d6ba0-2e68-4de8-b103-fd934276de2a"},"vehicle_type_id":"4","last_reported":1758654478,"current_range_meters":6400,"station_id":"ce4bhnp2rcd13ifvqgvg","pricing_plan_id":"cebpf4jnsgd1na2vs0mg"},{"bike_id":"0af29291-6201-49cc-a835-6249c573a214","system_id":"levelo_inurba_marseille","lat":43.30209,"lon":5.3947,"is_reserved":false,"is_disabled":false,"rental_uris":{"android":"levelo://app?vid=0af29291-6201-49cc-a835-6249c573a214","ios":"levelo://app?vid=0af29291-6201-49cc-a835-6249c573a214"},"vehicle_type_id":"4","last_reported":1758654478,"current_range_meters":6400,"station_id":"ce4bh0p2rcd13ifvqd70","pricing_plan_id":"cebpf4jnsgd1na2vs0mg"},{"bike_id":"1efddf8d-578f-4e4c-8c3f-e3a8bd592ba4","system_id":"levelo_inurba_marseille","lat":43.29985,"lon":5.37438,"is_reserved":false,"is_disabled":false,"rental_uris":{"android":"levelo://app?vid=1efddf8d-578f-4e4c-8c3f-e3a8bd592ba4","ios":"levelo://app?vid=1efddf8d-578f-4e4c-8c3f-e3a8bd592ba4"},"vehicle_type_id":"4","last_reported":1758654478,"current_range_meters":6800,"station_id":"","pricing_plan_id":"cebpf4jnsgd1na2vs0mg"},{"bike_id":"7fd14ad2-a454-423d-bbfa-04d2678cc6ac","system_id":"levelo_inurba_marseille","lat":43.29766,"lon":5.38101,"is_reserved":false,"is_disabled":false,"rental_uris":{"android":"levelo://app?vid=7fd14ad2-a454-423d-bbfa-04d2678cc6ac","ios":"levelo://app?vid=7fd14ad2-a454-423d-bbfa-04d2678cc6ac"},"vehicle_type_id":"4","last_reported":1758654478,"current_range_meters":6800,"station_id":"ce4bgip2rcd13ifvqbb0","pricing_plan_id":"cebpf4jnsgd1na2vs0mg"},{"bike_id":"ca000825-5d13-495e-af19-915ae846db43","system_id":"levelo_inurba_marseille","lat":43.33018,"lon":5.39045,"is_reserved":false,"is_disabled":false,"rental_uris":{"android":"levelo://app?vid=ca000825-5d13-495e-af19-915ae846db43","ios":"levelo://app?vid=ca000825-5d13-495e-af19-915ae846db43"},"vehicle_type_id":"4","last_reported":1758654478,"current_range_meters":6800,"station_id":"ce4bhr92rcd13ifvqhrg","pricing_plan_id":"cebpf4jnsgd1na2vs0mg"},{"bike_id":"4ea2ff40-a238-4aab-907a-2f3796525b9b","system_id":"levelo_inurba_marseille","lat":43.28686,"lon":5.38665,"is_reserved":false,"is_disabled":false,"rental_uris":{"android":"levelo://app?vid=4ea2ff40-a238-4aab-907a-2f3796525b9b","ios":"levelo://app?vid=4ea2ff40-a238-4aab-907a-2f3796525b9b"},"vehicle_type_id":"4","last_reported":1758654478,"current_range_meters":6800,"station_id":"ce4bh492rcd13ifvqdug","pricing_plan_id":"cebpf4jnsgd1na2vs0mg"},{"bike_id":"df9ecab4-6056-44cc-a720-250479e09d7c","system_id":"levelo_inurba_marseille","lat":43.292546,"lon":5.409015,"is_reserved":false,"is_disabled":false,"rental_uris":{"android":"levelo://app?vid=df9ecab4-6056-44cc-a720-250479e09d7c","ios":"levelo://app?vid=df9ecab4-6056-44cc-a720-250479e09d7c"},"vehicle_type_id":"4","last_reported":1758654478,"current_range_meters":6800,"station_id":"ce4bh192rcd13ifvqdc0","pricing_plan_id":"cebpf4jnsgd1na2vs0mg"},{"bike_id":"2289a0ff-9c3e-4f79-ad38-4b41158d6057","system_id":"levelo_inurba_marseille","lat":43.29882,"lon":5.37911,"is_reserved":false,"is_disabled":false,"rental_uris":{"android":"levelo://app?vid=2289a0ff-9c3e-4f79-ad38-4b41158d6057","ios":"levelo://app?vid=2289a0ff-9c3e-4f79-ad38-4b41158d6057"},"vehicle_type_id":"4","last_reported":1758654478,"current_range_meters":6800,"station_id":"","pricing_plan_id":"cebpf4jnsgd1na2vs0mg"},{"bike_id":"213937f4-0cd9-48b8-9d64-0b73c37bc721","system_id":"levelo_inurba_marseille","lat":43.29558,"lon":5.38174,"is_reserved":false,"is_disabled":false,"rental_uris":{"android":"levelo://app?vid=213937f4-0cd9-48b8-9d64-0b73c37bc721","ios":"levelo://app?vid=213937f4-0cd9-48b8-9d64-0b73c37bc721"},"vehicle_type_id":"4","last_reported":1758654478,"current_range_meters":6800,"station_id":"","pricing_plan_id":"cebpf4jnsgd1na2vs0mg"},{"bike_id":"e5a4ac5e-d4a7-4d1c-9973-394c86e50135","system_id":"levelo_inurba_marseille","lat":43.29196,"lon":5.35816,"is_reserved":false,"is_disabled":false,"rental_uris":{"android":"levelo://app?vid=e5a4ac5e-d4a7-4d1c-9973-394c86e50135","ios":"levelo://app?vid=e5a4ac5e-d4a7-4d1c-9973-394c86e50135"},"vehicle_type_id":"4","last_reported":1758654478,"current_range_meters":6800,"station_id":"ce4bhb12rcd13ifvqel0","pricing_plan_id":"cebpf4jnsgd1na2vs0mg"},{"bike_id":"f85dce54-a86e-48bb-9979-5386ee3e5506","system_id":"levelo_inurba_marseille","lat":43.28908,"lon":5.38403,"is_reserved":false,"is_disabled":false,"rental_uris":{"android":"levelo://app?vid=f85dce54-a86e-48bb-9979-5386ee3e5506","ios":"levelo://app?vid=f85dce54-a86e-48bb-9979-5386ee3e5506"},"vehicle_type_id":"4","last_reported":1758654478,"current_range_meters":6800,"station_id":"ce4bh612rcd13ifvqe6g","pricing_plan_id":"cebpf4jnsgd1na2vs0mg"},{"bike_id":"8e22b9e7-dd43-4c9b-8ba9-44f681df87bf","system_id":"levelo_inurba_marseille","lat":43.28686,"lon":5.38673,"is_reserved":false,"is_disabled":false,"rental_uris":{"android":"levelo://app?vid=8e22b9e7-dd43-4c9b-8ba9-44f681df87bf","ios":"levelo://app?vid=8e22b9e7-dd43-4c9b-8ba9-44f681df87bf"},"vehicle_type_id":"4","last_reported":1758654478,"current_range_meters":7200,"station_id":"ce4bh492rcd13ifvqdug","pricing_plan_id":"cebpf4jnsgd1na2vs0mg"},{"bike_id":"15407804-d5d2-482d-a75c-e8199d42738d","system_id":"levelo_inurba_marseille","lat":43.23182,"lon":5.39997,"is_reserved":false,"is_disabled":false,"rental_uris":{"android":"levelo://app?vid=15407804-d5d2-482d-a75c-e8199d42738d","ios":"levelo://app?vid=15407804-d5d2-482d-a75c-e8199d42738d"},"vehicle_type_id":"4","last_reported":1758654478,"current_range_meters":7200,"station_id":"ce4bhn12rcd13ifvqgqg","pricing_plan_id":"cebpf4jnsgd1na2vs0mg"},{"bike_id":"19063618-a2fe-4745-b4e0-97ac8e923a29","system_id":"levelo_inurba_marseille","lat":43.29169,"lon":5.37156,"is_reserved":false,"is_disabled":false,"rental_uris":{"android":"levelo://app?vid=19063618-a2fe-4745-b4e0-97ac8e923a29","ios":"levelo://app?vid=19063618-a2fe-4745-b4e0-97ac8e923a29"},"vehicle_type_id":"4","last_reported":1758654478,"current_range_meters":8000,"station_id":"ce4bha92rcd13ifvqeh0","pricing_plan_id":"cebpf4jnsgd1na2vs0mg"},{"bike_id":"fcf1bf44-5a13-4d1b-84d2-72432a05b3d8","system_id":"levelo_inurba_marseille","lat":43.32058,"lon":5.41547,"is_reserved":false,"is_disabled":false,"rental_uris":{"android":"levelo://app?vid=fcf1bf44-5a13-4d1b-84d2-72432a05b3d8","ios":"levelo://app?vid=fcf1bf44-5a13-4d1b-84d2-72432a05b3d8"},"vehicle_type_id":"4","last_reported":1758654478,"current_range_meters":8000,"station_id":"ce4bhq92rcd13ifvqhkg","pricing_plan_id":"cebpf4jnsgd1na2vs0mg"},{"bike_id":"437ac4f5-290d-416a-a98a-4488c6ff3899","system_id":"levelo_inurba_marseille","lat":43.319,"lon":5.40746,"is_reserved":false,"is_disabled":true,"rental_uris":{"android":"levelo://app?vid=437ac4f5-290d-416a-a98a-4488c6ff3899","ios":"levelo://app?vid=437ac4f5-290d-416a-a98a-4488c6ff3899"},"vehicle_type_id":"4","last_reported":1758654478,"current_range_meters":8000,"station_id":"ce4bhq12rcd13ifvqhig","pricing_plan_id":"cebpf4jnsgd1na2vs0mg"},{"bike_id":"29804318-285f-4c9a-9df4-1c6a32f19f0e","system_id":"levelo_inurba_marseille","lat":43.30315,"lon":5.36897,"is_reserved":false,"is_disabled":false,"rental_uris":{"android":"levelo://app?vid=29804318-285f-4c9a-9df4-1c6a32f19f0e","ios":"levelo://app?vid=29804318-285f-4c9a-9df4-1c6a32f19f0e"},"vehicle_type_id":"4","last_reported":1758654478,"current_range_meters":8000,"station_id":"ce4bgqh2rcd13ifvqc5g","pricing_plan_id":"cebpf4jnsgd1na2vs0mg"},{"bike_id":"d6a62b3c-f468-4e3c-993f-9f5010808096","system_id":"levelo_inurba_marseille","lat":43.284687,"lon":5.358823,"is_reserved":false,"is_disabled":false,"rental_uris":{"android":"levelo://app?vid=d6a62b3c-f468-4e3c-993f-9f5010808096","ios":"levelo://app?vid=d6a62b3c-f468-4e3c-993f-9f5010808096"},"vehicle_type_id":"4","last_reported":1758654478,"current_range_meters":8000,"station_id":"ce4bhah2rcd13ifvqei0","pricing_plan_id":"cebpf4jnsgd1na2vs0mg"},{"bike_id":"e38295ed-5064-47d5-b910-329faafbf1a0","system_id":"levelo_inurba_marseille","lat":43.29263,"lon":5.3844,"is_reserved":false,"is_disabled":false,"rental_uris":{"android":"levelo://app?vid=e38295ed-5064-47d5-b910-329faafbf1a0","ios":"levelo://app?vid=e38295ed-5064-47d5-b910-329faafbf1a0"},"vehicle_type_id":"4","last_reported":1758654478,"current_range_meters":8000,"station_id":"ce4bh692rcd13ifvqea0","pricing_plan_id":"cebpf4jnsgd1na2vs0mg"},{"bike_id":"1cd3d68b-ed7b-475c-b27b-454515eba6b1","system_id":"levelo_inurba_marseille","lat":43.30142,"lon":5.38779,"is_reserved":false,"is_disabled":false,"rental_uris":{"android":"levelo://app?vid=1cd3d68b-ed7b-475c-b27b-454515eba6b1","ios":"levelo://app?vid=1cd3d68b-ed7b-475c-b27b-454515eba6b1"},"vehicle_type_id":"4","last_reported":1758654478,"current_range_meters":8400,"station_id":"ce4bghh2rcd13ifvqb60","pricing_plan_id":"cebpf4jnsgd1na2vs0mg"},{"bike_id":"cb6bf7d2-2ed1-47c4-b0a7-9c935f0ebf1a","system_id":"levelo_inurba_marseille","lat":43.26856,"lon":5.40669,"is_reserved":false,"is_disabled":false,"rental_uris":{"android":"levelo://app?vid=cb6bf7d2-2ed1-47c4-b0a7-9c935f0ebf1a","ios":"levelo://app?vid=cb6bf7d2-2ed1-47c4-b0a7-9c935f0ebf1a"},"vehicle_type_id":"4","last_reported":1758654478,"current_range_meters":8400,"station_id":"","pricing_plan_id":"cebpf4jnsgd1na2vs0mg"},{"bike_id":"f8a2532a-7e0e-4316-8015-25acc40b6db7","system_id":"levelo_inurba_marseille","lat":43.283794,"lon":5.378488,"is_reserved":false,"is_disabled":false,"rental_uris":{"android":"levelo://app?vid=f8a2532a-7e0e-4316-8015-25acc40b6db7","ios":"levelo://app?vid=f8a2532a-7e0e-4316-8015-25acc40b6db7"},"vehicle_type_id":"4","last_reported":1758654478,"current_range_meters":8400,"station_id":"ce4bha12rcd13ifvqee0","pricing_plan_id":"cebpf4jnsgd1na2vs0mg"},{"bike_id":"eed2cf9a-36d5-4639-8402-2398b6fbd4cf","system_id":"levelo_inurba_marseille","lat":43.21746,"lon":5.34593,"is_reserved":false,"is_disabled":false,"rental_uris":{"android":"levelo://app?vid=eed2cf9a-36d5-4639-8402-2398b6fbd4cf","ios":"levelo://app?vid=eed2cf9a-36d5-4639-8402-2398b6fbd4cf"},"vehicle_type_id":"4","last_reported":1758654478,"current_range_meters":8400,"station_id":"st_cvj6r9ubvosntc0bgbag","pricing_plan_id":"cebpf4jnsgd1na2vs0mg"},{"bike_id":"ca72e0ee-abd6-4249-b757-0cb9b1a18836","system_id":"levelo_inurba_marseille","lat":43.27074,"lon":5.42282,"is_reserved":false,"is_disabled":false,"rental_uris":{"android":"levelo://app?vid=ca72e0ee-abd6-4249-b757-0cb9b1a18836","ios":"levelo://app?vid=ca72e0ee-abd6-4249-b757-0cb9b1a18836"},"vehicle_type_id":"4","last_reported":1758654478,"current_range_meters":8400,"station_id":"ce4bhk92rcd13ifvqgb0","pricing_plan_id":"cebpf4jnsgd1na2vs0mg"},{"bike_id":"6aa9f577-4ac6-4c0b-b097-a4b46b22cd92","system_id":"levelo_inurba_marseille","lat":43.29284,"lon":5.38448,"is_reserved":false,"is_disabled":false,"rental_uris":{"android":"levelo://app?vid=6aa9f577-4ac6-4c0b-b097-a4b46b22cd92","ios":"levelo://app?vid=6aa9f577-4ac6-4c0b-b097-a4b46b22cd92"},"vehicle_type_id":"4","last_reported":1758654478,"current_range_meters":8400,"station_id":"ce4bh692rcd13ifvqea0","pricing_plan_id":"cebpf4jnsgd1na2vs0mg"},{"bike_id":"d46536c1-b7ad-4df6-a9a1-6c4b8943878b","system_id":"levelo_inurba_marseille","lat":43.32372,"lon":5.38896,"is_reserved":false,"is_disabled":false,"rental_uris":{"android":"levelo://app?vid=d46536c1-b7ad-4df6-a9a1-6c4b8943878b","ios":"levelo://app?vid=d46536c1-b7ad-4df6-a9a1-6c4b8943878b"},"vehicle_type_id":"4","last_reported":1758654478,"current_range_meters":8400,"station_id":"ce4bhqp2rcd13ifvqhog","pricing_plan_id":"cebpf4jnsgd1na2vs0mg"},{"bike_id":"5096dd44-bb08-49f1-8f58-9d9dfb1faf50","system_id":"levelo_inurba_marseille","lat":43.33339,"lon":5.40072,"is_reserved":false,"is_disabled":false,"rental_uris":{"android":"levelo://app?vid=5096dd44-bb08-49f1-8f58-9d9dfb1faf50","ios":"levelo://app?vid=5096dd44-bb08-49f1-8f58-9d9dfb1faf50"},"vehicle_type_id":"4","last_reported":1758654478,"current_range_meters":8400,"station_id":"","pricing_plan_id":"cebpf4jnsgd1na2vs0mg"},{"bike_id":"c5c96d4e-b627-428c-ba5f-9228dc3f0147","system_id":"levelo_inurba_marseille","lat":43.2319,"lon":5.35556,"is_reserved":false,"is_disabled":false,"rental_uris":{"android":"levelo://app?vid=c5c96d4e-b627-428c-ba5f-9228dc3f0147","ios":"levelo://app?vid=c5c96d4e-b627-428c-ba5f-9228dc3f0147"},"vehicle_type_id":"4","last_reported":1758654478,"current_range_meters":8800,"station_id":"ce4bhu92rcd13ifvqi70","pricing_plan_id":"cebpf4jnsgd1na2vs0mg"},{"bike_id":"8c3d0157-53a2-4830-82b0-38da8541d138","system_id":"levelo_inurba_marseille","lat":43.28856,"lon":5.35879,"is_reserved":false,"is_disabled":false,"rental_uris":{"android":"levelo://app?vid=8c3d0157-53a2-4830-82b0-38da8541d138","ios":"levelo://app?vid=8c3d0157-53a2-4830-82b0-38da8541d138"},"vehicle_type_id":"4","last_reported":1758654478,"current_range_meters":8800,"station_id":"ce4bhb12rcd13ifvqem0","pricing_plan_id":"cebpf4jnsgd1na2vs0mg"},{"bike_id":"c3a85cd3-3cbb-4f5d-9290-813f4ce16e4a","system_id":"levelo_inurba_marseille","lat":43.29916,"lon":5.37479,"is_reserved":false,"is_disabled":false,"rental_uris":{"android":"levelo://app?vid=c3a85cd3-3cbb-4f5d-9290-813f4ce16e4a","ios":"levelo://app?vid=c3a85cd3-3cbb-4f5d-9290-813f4ce16e4a"},"vehicle_type_id":"4","last_reported":1758654478,"current_range_meters":8800,"station_id":"ce4bgjh2rcd13ifvqbg0","pricing_plan_id":"cebpf4jnsgd1na2vs0mg"},{"bike_id":"5b463f2f-7627-4983-ae9c-ca1fe6f78488","system_id":"levelo_inurba_marseille","lat":43.275,"lon":5.42446,"is_reserved":false,"is_disabled":false,"rental_uris":{"android":"levelo://app?vid=5b463f2f-7627-4983-ae9c-ca1fe6f78488","ios":"levelo://app?vid=5b463f2f-7627-4983-ae9c-ca1fe6f78488"},"vehicle_type_id":"4","last_reported":1758654478,"current_range_meters":8800,"station_id":"ce4bhn92rcd13ifvqgrg","pricing_plan_id":"cebpf4jnsgd1na2vs0mg"},{"bike_id":"513eadeb-6d5b-40e2-a199-9086420fc966","system_id":"levelo_inurba_marseille","lat":43.29256,"lon":5.40923,"is_reserved":false,"is_disabled":false,"rental_uris":{"android":"levelo://app?vid=513eadeb-6d5b-40e2-a199-9086420fc966","ios":"levelo://app?vid=513eadeb-6d5b-40e2-a199-9086420fc966"},"vehicle_type_id":"4","last_reported":1758654478,"current_range_meters":9200,"station_id":"ce4bh192rcd13ifvqdc0","pricing_plan_id":"cebpf4jnsgd1na2vs0mg"},{"bike_id":"69667a84-806c-4ffa-a8a8-1b228bdaf626","system_id":"levelo_inurba_marseille","lat":43.28671,"lon":5.38672,"is_reserved":false,"is_disabled":false,"rental_uris":{"android":"levelo://app?vid=69667a84-806c-4ffa-a8a8-1b228bdaf626","ios":"levelo://app?vid=69667a84-806c-4ffa-a8a8-1b228bdaf626"},"vehicle_type_id":"4","last_reported":1758654478,"current_range_meters":9600,"station_id":"ce4bh492rcd13ifvqdug","pricing_plan_id":"cebpf4jnsgd1na2vs0mg"},{"bike_id":"94d430e6-52b3-4d21-80c9-c6dd4519a8fb","system_id":"levelo_inurba_marseille","lat":43.3178,"lon":5.38297,"is_reserved":false,"is_disabled":false,"rental_uris":{"android":"levelo://app?vid=94d430e6-52b3-4d21-80c9-c6dd4519a8fb","ios":"levelo://app?vid=94d430e6-52b3-4d21-80c9-c6dd4519a8fb"},"vehicle_type_id":"4","last_reported":1758654478,"current_range_meters":9600,"station_id":"","pricing_plan_id":"cebpf4jnsgd1na2vs0mg"},{"bike_id":"7454ee95-d30e-471b-b427-27a5a8fa649e","system_id":"levelo_inurba_marseille","lat":43.24682,"lon":5.38164,"is_reserved":false,"is_disabled":false,"rental_uris":{"android":"levelo://app?vid=7454ee95-d30e-471b-b427-27a5a8fa649e","ios":"levelo://app?vid=7454ee95-d30e-471b-b427-27a5a8fa649e"},"vehicle_type_id":"4","last_reported":1758654478,"current_range_meters":9600,"station_id":"ce4bhih2rcd13ifvqfr0","pricing_plan_id":"cebpf4jnsgd1na2vs0mg"},{"bike_id":"2046e098-a278-46d7-be9e-c34190dc5e68","system_id":"levelo_inurba_marseille","lat":43.28667,"lon":5.38665,"is_reserved":false,"is_disabled":false,"rental_uris":{"android":"levelo://app?vid=2046e098-a278-46d7-be9e-c34190dc5e68","ios":"levelo://app?vid=2046e098-a278-46d7-be9e-c34190dc5e68"},"vehicle_type_id":"4","last_reported":1758654478,"current_range_meters":9600,"station_id":"ce4bh492rcd13ifvqdug","pricing_plan_id":"cebpf4jnsgd1na2vs0mg"},{"bike_id":"220990d4-e61a-4e3e-b67e-9e7af40938a1","system_id":"levelo_inurba_marseille","lat":43.33022,"lon":5.39038,"is_reserved":false,"is_disabled":false,"rental_uris":{"android":"levelo://app?vid=220990d4-e61a-4e3e-b67e-9e7af40938a1","ios":"levelo://app?vid=220990d4-e61a-4e3e-b67e-9e7af40938a1"},"vehicle_type_id":"4","last_reported":1758654478,"current_range_meters":9600,"station_id":"ce4bhr92rcd13ifvqhrg","pricing_plan_id":"cebpf4jnsgd1na2vs0mg"},{"bike_id":"f3517bd7-133c-47f0-9b2b-acdbc2bf37e4","system_id":"levelo_inurba_marseille","lat":43.30601,"lon":5.39363,"is_reserved":false,"is_disabled":false,"rental_uris":{"android":"levelo://app?vid=f3517bd7-133c-47f0-9b2b-acdbc2bf37e4","ios":"levelo://app?vid=f3517bd7-133c-47f0-9b2b-acdbc2bf37e4"},"vehicle_type_id":"4","last_reported":1758654478,"current_range_meters":9600,"station_id":"ce4bh0p2rcd13ifvqd80","pricing_plan_id":"cebpf4jnsgd1na2vs0mg"},{"bike_id":"93b81f87-690d-4789-957e-f56e5a05e128","system_id":"levelo_inurba_marseille","lat":43.31164,"lon":5.38729,"is_reserved":false,"is_disabled":false,"rental_uris":{"android":"levelo://app?vid=93b81f87-690d-4789-957e-f56e5a05e128","ios":"levelo://app?vid=93b81f87-690d-4789-957e-f56e5a05e128"},"vehicle_type_id":"4","last_reported":1758654478,"current_range_meters":9200,"station_id":"ce4bgv12rcd13ifvqcp0","pricing_plan_id":"cebpf4jnsgd1na2vs0mg"},{"bike_id":"18c620b0-ca2a-4008-8b49-85122b3b7af4","system_id":"levelo_inurba_marseille","lat":43.30436,"lon":5.39748,"is_reserved":false,"is_disabled":false,"rental_uris":{"android":"levelo://app?vid=18c620b0-ca2a-4008-8b49-85122b3b7af4","ios":"levelo://app?vid=18c620b0-ca2a-4008-8b49-85122b3b7af4"},"vehicle_type_id":"4","last_reported":1758654478,"current_range_meters":10000,"station_id":"ce4bh092rcd13ifvqd20","pricing_plan_id":"cebpf4jnsgd1na2vs0mg"},{"bike_id":"36675262-730f-41d5-88e0-b83e343efc97","system_id":"levelo_inurba_marseille","lat":43.2954,"lon":5.38541,"is_reserved":false,"is_disabled":false,"rental_uris":{"android":"levelo://app?vid=36675262-730f-41d5-88e0-b83e343efc97","ios":"levelo://app?vid=36675262-730f-41d5-88e0-b83e343efc97"},"vehicle_type_id":"4","last_reported":1758654478,"current_range_meters":10000,"station_id":"ce4bgih2rcd13ifvqba0","pricing_plan_id":"cebpf4jnsgd1na2vs0mg"},{"bike_id":"c61af5f2-3cb5-41a5-abf8-94a786759ecf","system_id":"levelo_inurba_marseille","lat":43.28623,"lon":5.35106,"is_reserved":false,"is_disabled":false,"rental_uris":{"android":"levelo://app?vid=c61af5f2-3cb5-41a5-abf8-94a786759ecf","ios":"levelo://app?vid=c61af5f2-3cb5-41a5-abf8-94a786759ecf"},"vehicle_type_id":"4","last_reported":1758654478,"current_range_meters":10000,"station_id":"ce4bhch2rcd13ifvqeug","pricing_plan_id":"cebpf4jnsgd1na2vs0mg"},{"bike_id":"ca4e0812-3d12-4a82-bc13-bf97739a4e53","system_id":"levelo_inurba_marseille","lat":43.30432,"lon":5.41314,"is_reserved":false,"is_disabled":false,"rental_uris":{"android":"levelo://app?vid=ca4e0812-3d12-4a82-bc13-bf97739a4e53","ios":"levelo://app?vid=ca4e0812-3d12-4a82-bc13-bf97739a4e53"},"vehicle_type_id":"4","last_reported":1758654478,"current_range_meters":10000,"station_id":"ce4bhop2rcd13ifvqh8g","pricing_plan_id":"cebpf4jnsgd1na2vs0mg"},{"bike_id":"9d968231-5edd-4764-92bb-48361e1568c7","system_id":"levelo_inurba_marseille","lat":43.298412,"lon":5.362754,"is_reserved":false,"is_disabled":false,"rental_uris":{"android":"levelo://app?vid=9d968231-5edd-4764-92bb-48361e1568c7","ios":"levelo://app?vid=9d968231-5edd-4764-92bb-48361e1568c7"},"vehicle_type_id":"4","last_reported":1758654478,"current_range_meters":10000,"station_id":"ce4bgpp2rcd13ifvqc3g","pricing_plan_id":"cebpf4jnsgd1na2vs0mg"},{"bike_id":"329fe514-7720-45e5-8444-abba70ba3372","system_id":"levelo_inurba_marseille","lat":43.29325,"lon":5.3725,"is_reserved":false,"is_disabled":false,"rental_uris":{"android":"levelo://app?vid=329fe514-7720-45e5-8444-abba70ba3372","ios":"levelo://app?vid=329fe514-7720-45e5-8444-abba70ba3372"},"vehicle_type_id":"4","last_reported":1758654478,"current_range_meters":10000,"station_id":"","pricing_plan_id":"cebpf4jnsgd1na2vs0mg"},{"bike_id":"8d243e83-cc74-44d3-bf18-f20421549672","system_id":"levelo_inurba_marseille","lat":43.289325,"lon":5.359342,"is_reserved":false,"is_disabled":false,"rental_uris":{"android":"levelo://app?vid=8d243e83-cc74-44d3-bf18-f20421549672","ios":"levelo://app?vid=8d243e83-cc74-44d3-bf18-f20421549672"},"vehicle_type_id":"4","last_reported":1758654478,"current_range_meters":10000,"station_id":"","pricing_plan_id":"cebpf4jnsgd1na2vs0mg"},{"bike_id":"7d7a0abe-83b8-4067-92d1-8adad0b45209","system_id":"levelo_inurba_marseille","lat":43.27074,"lon":5.42259,"is_reserved":false,"is_disabled":false,"rental_uris":{"android":"levelo://app?vid=7d7a0abe-83b8-4067-92d1-8adad0b45209","ios":"levelo://app?vid=7d7a0abe-83b8-4067-92d1-8adad0b45209"},"vehicle_type_id":"4","last_reported":1758654478,"current_range_meters":10800,"station_id":"ce4bhk92rcd13ifvqgb0","pricing_plan_id":"cebpf4jnsgd1na2vs0mg"},{"bike_id":"e5c821b0-7c7e-4a07-a377-afdc83d95d77","system_id":"levelo_inurba_marseille","lat":43.26935,"lon":5.40258,"is_reserved":false,"is_disabled":false,"rental_uris":{"android":"levelo://app?vid=e5c821b0-7c7e-4a07-a377-afdc83d95d77","ios":"levelo://app?vid=e5c821b0-7c7e-4a07-a377-afdc83d95d77"},"vehicle_type_id":"4","last_reported":1758654478,"current_range_meters":10800,"station_id":"cjm6bp8fraef2m0cb0m0","pricing_plan_id":"cebpf4jnsgd1na2vs0mg"},{"bike_id":"99cd9e28-97fc-4ca2-8f06-4d012db22872","system_id":"levelo_inurba_marseille","lat":43.277883,"lon":5.405548,"is_reserved":false,"is_disabled":false,"rental_uris":{"android":"levelo://app?vid=99cd9e28-97fc-4ca2-8f06-4d012db22872","ios":"levelo://app?vid=99cd9e28-97fc-4ca2-8f06-4d012db22872"},"vehicle_type_id":"4","last_reported":1758654478,"current_range_meters":10800,"station_id":"ce4bhnh2rcd13ifvqgtg","pricing_plan_id":"cebpf4jnsgd1na2vs0mg"},{"bike_id":"965cb6a5-9c9b-406b-9f07-104f9922cb73","system_id":"levelo_inurba_marseille","lat":43.30421,"lon":5.41294,"is_reserved":false,"is_disabled":false,"rental_uris":{"android":"levelo://app?vid=965cb6a5-9c9b-406b-9f07-104f9922cb73","ios":"levelo://app?vid=965cb6a5-9c9b-406b-9f07-104f9922cb73"},"vehicle_type_id":"4","last_reported":1758654478,"current_range_meters":10800,"station_id":"ce4bhop2rcd13ifvqh8g","pricing_plan_id":"cebpf4jnsgd1na2vs0mg"},{"bike_id":"77b88e73-1269-4ea4-82ee-171f3880fb0f","system_id":"levelo_inurba_marseille","lat":43.30878,"lon":5.39667,"is_reserved":false,"is_disabled":false,"rental_uris":{"android":"levelo://app?vid=77b88e73-1269-4ea4-82ee-171f3880fb0f","ios":"levelo://app?vid=77b88e73-1269-4ea4-82ee-171f3880fb0f"},"vehicle_type_id":"4","last_reported":1758654478,"current_range_meters":10800,"station_id":"ce4bh012rcd13ifvqcv0","pricing_plan_id":"cebpf4jnsgd1na2vs0mg"},{"bike_id":"8bad7692-d02d-4704-9c7e-be676438f13a","system_id":"levelo_inurba_marseille","lat":43.29527,"lon":5.37507,"is_reserved":false,"is_disabled":true,"rental_uris":{"android":"levelo://app?vid=8bad7692-d02d-4704-9c7e-be676438f13a","ios":"levelo://app?vid=8bad7692-d02d-4704-9c7e-be676438f13a"},"vehicle_type_id":"4","last_reported":1758654478,"current_range_meters":10800,"station_id":"ce4bgkp2rcd13ifvqbmg","pricing_plan_id":"cebpf4jnsgd1na2vs0mg"},{"bike_id":"614ec730-f7c9-42ad-be8f-942557f56e1c","system_id":"levelo_inurba_marseille","lat":43.28077,"lon":5.39663,"is_reserved":false,"is_disabled":false,"rental_uris":{"android":"levelo://app?vid=614ec730-f7c9-42ad-be8f-942557f56e1c","ios":"levelo://app?vid=614ec730-f7c9-42ad-be8f-942557f56e1c"},"vehicle_type_id":"4","last_reported":1758654478,"current_range_meters":9200,"station_id":"ce4bho12rcd13ifvqh2g","pricing_plan_id":"cebpf4jnsgd1na2vs0mg"},{"bike_id":"34668886-3c8e-4b12-a9ca-50cc13b4f47e","system_id":"levelo_inurba_marseille","lat":43.28115,"lon":5.40573,"is_reserved":false,"is_disabled":false,"rental_uris":{"android":"levelo://app?vid=34668886-3c8e-4b12-a9ca-50cc13b4f47e","ios":"levelo://app?vid=34668886-3c8e-4b12-a9ca-50cc13b4f47e"},"vehicle_type_id":"4","last_reported":1758654478,"current_range_meters":10800,"station_id":"","pricing_plan_id":"cebpf4jnsgd1na2vs0mg"},{"bike_id":"ab826234-9e24-40a8-9081-bd2ffcf3a23e","system_id":"levelo_inurba_marseille","lat":43.30131,"lon":5.39863,"is_reserved":false,"is_disabled":false,"rental_uris":{"android":"levelo://app?vid=ab826234-9e24-40a8-9081-bd2ffcf3a23e","ios":"levelo://app?vid=ab826234-9e24-40a8-9081-bd2ffcf3a23e"},"vehicle_type_id":"4","last_reported":1758654478,"current_range_meters":11200,"station_id":"ce4bh0h2rcd13ifvqd40","pricing_plan_id":"cebpf4jnsgd1na2vs0mg"},{"bike_id":"12077a69-0300-425d-80d1-3129554e0e24","system_id":"levelo_inurba_marseille","lat":43.32478,"lon":5.3657,"is_reserved":false,"is_disabled":false,"rental_uris":{"android":"levelo://app?vid=12077a69-0300-425d-80d1-3129554e0e24","ios":"levelo://app?vid=12077a69-0300-425d-80d1-3129554e0e24"},"vehicle_type_id":"4","last_reported":1758654478,"current_range_meters":11200,"station_id":"ce4bhs12rcd13ifvqhvg","pricing_plan_id":"cebpf4jnsgd1na2vs0mg"},{"bike_id":"eb01363f-6288-4e06-949e-41cf6e5e70c9","system_id":"levelo_inurba_marseille","lat":43.29783,"lon":5.37087,"is_reserved":false,"is_disabled":false,"rental_uris":{"android":"levelo://app?vid=eb01363f-6288-4e06-949e-41cf6e5e70c9","ios":"levelo://app?vid=eb01363f-6288-4e06-949e-41cf6e5e70c9"},"vehicle_type_id":"4","last_reported":1758654478,"current_range_meters":11200,"station_id":"ce4bgop2rcd13ifvqc1g","pricing_plan_id":"cebpf4jnsgd1na2vs0mg"},{"bike_id":"737ee2dd-4e81-4f8e-8eda-afe8ef69e991","system_id":"levelo_inurba_marseille","lat":43.295218,"lon":5.375099,"is_reserved":false,"is_disabled":false,"rental_uris":{"android":"levelo://app?vid=737ee2dd-4e81-4f8e-8eda-afe8ef69e991","ios":"levelo://app?vid=737ee2dd-4e81-4f8e-8eda-afe8ef69e991"},"vehicle_type_id":"4","last_reported":1758654478,"current_range_meters":11600,"station_id":"ce4bgkp2rcd13ifvqbmg","pricing_plan_id":"cebpf4jnsgd1na2vs0mg"},{"bike_id":"5c6070a0-0fa7-40a1-bae4-90214c4809f1","system_id":"levelo_inurba_marseille","lat":43.28598,"lon":5.35107,"is_reserved":false,"is_disabled":false,"rental_uris":{"android":"levelo://app?vid=5c6070a0-0fa7-40a1-bae4-90214c4809f1","ios":"levelo://app?vid=5c6070a0-0fa7-40a1-bae4-90214c4809f1"},"vehicle_type_id":"4","last_reported":1758654478,"current_range_meters":11600,"station_id":"ce4bhch2rcd13ifvqeug","pricing_plan_id":"cebpf4jnsgd1na2vs0mg"},{"bike_id":"ee4d55e3-09d7-4408-a76f-41b48df7a72c","system_id":"levelo_inurba_marseille","lat":43.29628,"lon":5.4059,"is_reserved":false,"is_disabled":false,"rental_uris":{"android":"levelo://app?vid=ee4d55e3-09d7-4408-a76f-41b48df7a72c","ios":"levelo://app?vid=ee4d55e3-09d7-4408-a76f-41b48df7a72c"},"vehicle_type_id":"4","last_reported":1758654478,"current_range_meters":11600,"station_id":"ce4bh0h2rcd13ifvqd60","pricing_plan_id":"cebpf4jnsgd1na2vs0mg"},{"bike_id":"887efa04-ef78-45db-879b-b408995e111f","system_id":"levelo_inurba_marseille","lat":43.28932,"lon":5.38407,"is_reserved":false,"is_disabled":false,"rental_uris":{"android":"levelo://app?vid=887efa04-ef78-45db-879b-b408995e111f","ios":"levelo://app?vid=887efa04-ef78-45db-879b-b408995e111f"},"vehicle_type_id":"4","last_reported":1758654478,"current_range_meters":11600,"station_id":"ce4bh612rcd13ifvqe6g","pricing_plan_id":"cebpf4jnsgd1na2vs0mg"},{"bike_id":"ec651223-374d-4eae-af06-a5d4bb8d2cb1","system_id":"levelo_inurba_marseille","lat":43.316991,"lon":5.404758,"is_reserved":false,"is_disabled":false,"rental_uris":{"android":"levelo://app?vid=ec651223-374d-4eae-af06-a5d4bb8d2cb1","ios":"levelo://app?vid=ec651223-374d-4eae-af06-a5d4bb8d2cb1"},"vehicle_type_id":"4","last_reported":1758654478,"current_range_meters":11600,"station_id":"ce4bh012rcd13ifvqd00","pricing_plan_id":"cebpf4jnsgd1na2vs0mg"},{"bike_id":"ba0f6327-d9b4-42c4-8563-8dfdb45c91d2","system_id":"levelo_inurba_marseille","lat":43.28983,"lon":5.37842,"is_reserved":false,"is_disabled":false,"rental_uris":{"android":"levelo://app?vid=ba0f6327-d9b4-42c4-8563-8dfdb45c91d2","ios":"levelo://app?vid=ba0f6327-d9b4-42c4-8563-8dfdb45c91d2"},"vehicle_type_id":"4","last_reported":1758654478,"current_range_meters":12000,"station_id":"ce4bh9p2rcd13ifvqed0","pricing_plan_id":"cebpf4jnsgd1na2vs0mg"},{"bike_id":"8190065d-15e8-406e-a402-257fe6740eef","system_id":"levelo_inurba_marseille","lat":43.28354,"lon":5.38118,"is_reserved":false,"is_disabled":false,"rental_uris":{"android":"levelo://app?vid=8190065d-15e8-406e-a402-257fe6740eef","ios":"levelo://app?vid=8190065d-15e8-406e-a402-257fe6740eef"},"vehicle_type_id":"4","last_reported":1758654478,"current_range_meters":12000,"station_id":"ce4bh412rcd13ifvqdr0","pricing_plan_id":"cebpf4jnsgd1na2vs0mg"},{"bike_id":"67b97e29-7ecb-4018-a464-041bbd85ed0b","system_id":"levelo_inurba_marseille","lat":43.28411,"lon":5.34985,"is_reserved":false,"is_disabled":false,"rental_uris":{"android":"levelo://app?vid=67b97e29-7ecb-4018-a464-041bbd85ed0b","ios":"levelo://app?vid=67b97e29-7ecb-4018-a464-041bbd85ed0b"},"vehicle_type_id":"4","last_reported":1758654478,"current_range_meters":12000,"station_id":"ce4bhbh2rcd13ifvqepg","pricing_plan_id":"cebpf4jnsgd1na2vs0mg"},{"bike_id":"1ca2c4fa-fa3c-4de1-ba4f-157f01b5a863","system_id":"levelo_inurba_marseille","lat":43.29633,"lon":5.40615,"is_reserved":false,"is_disabled":false,"rental_uris":{"android":"levelo://app?vid=1ca2c4fa-fa3c-4de1-ba4f-157f01b5a863","ios":"levelo://app?vid=1ca2c4fa-fa3c-4de1-ba4f-157f01b5a863"},"vehicle_type_id":"4","last_reported":1758654478,"current_range_meters":12000,"station_id":"ce4bh0h2rcd13ifvqd60","pricing_plan_id":"cebpf4jnsgd1na2vs0mg"},{"bike_id":"c0006fe7-b6ba-4bf1-9334-2053264941f7","system_id":"levelo_inurba_marseille","lat":43.26039,"lon":5.37556,"is_reserved":false,"is_disabled":false,"rental_uris":{"android":"levelo://app?vid=c0006fe7-b6ba-4bf1-9334-2053264941f7","ios":"levelo://app?vid=c0006fe7-b6ba-4bf1-9334-2053264941f7"},"vehicle_type_id":"4","last_reported":1758654478,"current_range_meters":12400,"station_id":"ce4bhgh2rcd13ifvqfa0","pricing_plan_id":"cebpf4jnsgd1na2vs0mg"},{"bike_id":"756ac4bd-91cb-4dc0-9ae6-4b778067d5c0","system_id":"levelo_inurba_marseille","lat":43.29162,"lon":5.37167,"is_reserved":false,"is_disabled":false,"rental_uris":{"android":"levelo://app?vid=756ac4bd-91cb-4dc0-9ae6-4b778067d5c0","ios":"levelo://app?vid=756ac4bd-91cb-4dc0-9ae6-4b778067d5c0"},"vehicle_type_id":"4","last_reported":1758654478,"current_range_meters":12400,"station_id":"ce4bha92rcd13ifvqeh0","pricing_plan_id":"cebpf4jnsgd1na2vs0mg"},{"bike_id":"20817f64-741a-4e20-8b44-5db8dc514eb9","system_id":"levelo_inurba_marseille","lat":43.32369,"lon":5.38888,"is_reserved":false,"is_disabled":false,"rental_uris":{"android":"levelo://app?vid=20817f64-741a-4e20-8b44-5db8dc514eb9","ios":"levelo://app?vid=20817f64-741a-4e20-8b44-5db8dc514eb9"},"vehicle_type_id":"4","last_reported":1758654478,"current_range_meters":12400,"station_id":"ce4bhqp2rcd13ifvqhog","pricing_plan_id":"cebpf4jnsgd1na2vs0mg"},{"bike_id":"61dc150d-6094-4d49-8f9f-fcf3c1a77503","system_id":"levelo_inurba_marseille","lat":43.29556,"lon":5.42295,"is_reserved":false,"is_disabled":false,"rental_uris":{"android":"levelo://app?vid=61dc150d-6094-4d49-8f9f-fcf3c1a77503","ios":"levelo://app?vid=61dc150d-6094-4d49-8f9f-fcf3c1a77503"},"vehicle_type_id":"4","last_reported":1758654478,"current_range_meters":12400,"station_id":"ce4bhph2rcd13ifvqhdg","pricing_plan_id":"cebpf4jnsgd1na2vs0mg"},{"bike_id":"bcef8554-3413-441c-a91c-58d734e6f982","system_id":"levelo_inurba_marseille","lat":43.30159,"lon":5.38085,"is_reserved":false,"is_disabled":false,"rental_uris":{"android":"levelo://app?vid=bcef8554-3413-441c-a91c-58d734e6f982","ios":"levelo://app?vid=bcef8554-3413-441c-a91c-58d734e6f982"},"vehicle_type_id":"4","last_reported":1758654478,"current_range_meters":12400,"station_id":"ce4bgjp2rcd13ifvqbh0","pricing_plan_id":"cebpf4jnsgd1na2vs0mg"},{"bike_id":"44ebeb15-4fcf-4ed3-9f48-42400ba2a1f6","system_id":"levelo_inurba_marseille","lat":43.29019,"lon":5.35593,"is_reserved":false,"is_disabled":false,"rental_uris":{"android":"levelo://app?vid=44ebeb15-4fcf-4ed3-9f48-42400ba2a1f6","ios":"levelo://app?vid=44ebeb15-4fcf-4ed3-9f48-42400ba2a1f6"},"vehicle_type_id":"4","last_reported":1758654478,"current_range_meters":12400,"station_id":"ce4bhb92rcd13ifvqen0","pricing_plan_id":"cebpf4jnsgd1na2vs0mg"},{"bike_id":"ca06e972-21e6-4fa3-8b58-8c53daf8b313","system_id":"levelo_inurba_marseille","lat":43.29542,"lon":5.38548,"is_reserved":false,"is_disabled":false,"rental_uris":{"android":"levelo://app?vid=ca06e972-21e6-4fa3-8b58-8c53daf8b313","ios":"levelo://app?vid=ca06e972-21e6-4fa3-8b58-8c53daf8b313"},"vehicle_type_id":"4","last_reported":1758654478,"current_range_meters":12400,"station_id":"ce4bgih2rcd13ifvqba0","pricing_plan_id":"cebpf4jnsgd1na2vs0mg"},{"bike_id":"062882c0-6810-4134-94b1-d58221c157d0","system_id":"levelo_inurba_marseille","lat":43.25341,"lon":5.42145,"is_reserved":false,"is_disabled":false,"rental_uris":{"android":"levelo://app?vid=062882c0-6810-4134-94b1-d58221c157d0","ios":"levelo://app?vid=062882c0-6810-4134-94b1-d58221c157d0"},"vehicle_type_id":"4","last_reported":1758654478,"current_range_meters":12400,"station_id":"st_d2m65c5bi1j21697t3ng","pricing_plan_id":"cebpf4jnsgd1na2vs0mg"},{"bike_id":"291234bc-74ba-4ba2-adb9-51987aee1b6f","system_id":"levelo_inurba_marseille","lat":43.299205,"lon":5.375471,"is_reserved":false,"is_disabled":false,"rental_uris":{"android":"levelo://app?vid=291234bc-74ba-4ba2-adb9-51987aee1b6f","ios":"levelo://app?vid=291234bc-74ba-4ba2-adb9-51987aee1b6f"},"vehicle_type_id":"4","last_reported":1758654478,"current_range_meters":12800,"station_id":"ce4bgm92rcd13ifvqbr0","pricing_plan_id":"cebpf4jnsgd1na2vs0mg"},{"bike_id":"fee98701-0b10-4a4b-855e-b5ee1cab5554","system_id":"levelo_inurba_marseille","lat":43.26197,"lon":5.37935,"is_reserved":false,"is_disabled":false,"rental_uris":{"android":"levelo://app?vid=fee98701-0b10-4a4b-855e-b5ee1cab5554","ios":"levelo://app?vid=fee98701-0b10-4a4b-855e-b5ee1cab5554"},"vehicle_type_id":"4","last_reported":1758654478,"current_range_meters":12800,"station_id":"ce4bhjp2rcd13ifvqg90","pricing_plan_id":"cebpf4jnsgd1na2vs0mg"},{"bike_id":"5b396e16-77d2-4d91-9726-e9579982442a","system_id":"levelo_inurba_marseille","lat":43.29888,"lon":5.39734,"is_reserved":false,"is_disabled":false,"rental_uris":{"android":"levelo://app?vid=5b396e16-77d2-4d91-9726-e9579982442a","ios":"levelo://app?vid=5b396e16-77d2-4d91-9726-e9579982442a"},"vehicle_type_id":"4","last_reported":1758654478,"current_range_meters":12800,"station_id":"ce4bh0h2rcd13ifvqd50","pricing_plan_id":"cebpf4jnsgd1na2vs0mg"},{"bike_id":"83d328ad-5813-4604-924f-41f4bcb71ceb","system_id":"levelo_inurba_marseille","lat":43.286633,"lon":5.363426,"is_reserved":false,"is_disabled":false,"rental_uris":{"android":"levelo://app?vid=83d328ad-5813-4604-924f-41f4bcb71ceb","ios":"levelo://app?vid=83d328ad-5813-4604-924f-41f4bcb71ceb"},"vehicle_type_id":"4","last_reported":1758654478,"current_range_meters":12800,"station_id":"ce4bhah2rcd13ifvqej0","pricing_plan_id":"cebpf4jnsgd1na2vs0mg"},{"bike_id":"109b1194-fc7c-4db6-b2eb-6c93d4cd22fc","system_id":"levelo_inurba_marseille","lat":43.253325,"lon":5.421745,"is_reserved":false,"is_disabled":false,"rental_uris":{"android":"levelo://app?vid=109b1194-fc7c-4db6-b2eb-6c93d4cd22fc","ios":"levelo://app?vid=109b1194-fc7c-4db6-b2eb-6c93d4cd22fc"},"vehicle_type_id":"4","last_reported":1758654478,"current_range_meters":12800,"station_id":"st_d2m65c5bi1j21697t3ng","pricing_plan_id":"cebpf4jnsgd1na2vs0mg"},{"bike_id":"e7408d88-6daa-49c4-aa96-5996c8b8e2fe","system_id":"levelo_inurba_marseille","lat":43.29255,"lon":5.37622,"is_reserved":false,"is_disabled":false,"rental_uris":{"android":"levelo://app?vid=e7408d88-6daa-49c4-aa96-5996c8b8e2fe","ios":"levelo://app?vid=e7408d88-6daa-49c4-aa96-5996c8b8e2fe"},"vehicle_type_id":"4","last_reported":1758654478,"current_range_meters":12800,"station_id":"ce4bgi12rcd13ifvqb80","pricing_plan_id":"cebpf4jnsgd1na2vs0mg"},{"bike_id":"9c7a180f-bee6-48c2-9ad2-181dea55ce36","system_id":"levelo_inurba_marseille","lat":43.31708,"lon":5.43705,"is_reserved":false,"is_disabled":false,"rental_uris":{"android":"levelo://app?vid=9c7a180f-bee6-48c2-9ad2-181dea55ce36","ios":"levelo://app?vid=9c7a180f-bee6-48c2-9ad2-181dea55ce36"},"vehicle_type_id":"4","last_reported":1758654478,"current_range_meters":13600,"station_id":"ce4bhp92rcd13ifvqhcg","pricing_plan_id":"cebpf4jnsgd1na2vs0mg"},{"bike_id":"0a93b7fa-898f-46ce-bd76-143a1182be97","system_id":"levelo_inurba_marseille","lat":43.27428,"lon":5.39375,"is_reserved":false,"is_disabled":true,"rental_uris":{"android":"levelo://app?vid=0a93b7fa-898f-46ce-bd76-143a1182be97","ios":"levelo://app?vid=0a93b7fa-898f-46ce-bd76-143a1182be97"},"vehicle_type_id":"4","last_reported":1758654478,"current_range_meters":13600,"station_id":"ce4bhdp2rcd13ifvqf20","pricing_plan_id":"cebpf4jnsgd1na2vs0mg"},{"bike_id":"7c0482c3-9253-4d1b-b4f3-be55cdb7721d","system_id":"levelo_inurba_marseille","lat":43.33757,"lon":5.37466,"is_reserved":false,"is_disabled":false,"rental_uris":{"android":"levelo://app?vid=7c0482c3-9253-4d1b-b4f3-be55cdb7721d","ios":"levelo://app?vid=7c0482c3-9253-4d1b-b4f3-be55cdb7721d"},"vehicle_type_id":"4","last_reported":1758654478,"current_range_meters":13600,"station_id":"","pricing_plan_id":"cebpf4jnsgd1na2vs0mg"},{"bike_id":"3a4bb8c7-912e-4fc0-8d4e-6251dc9a0b04","system_id":"levelo_inurba_marseille","lat":43.286181,"lon":5.351061,"is_reserved":false,"is_disabled":false,"rental_uris":{"android":"levelo://app?vid=3a4bb8c7-912e-4fc0-8d4e-6251dc9a0b04","ios":"levelo://app?vid=3a4bb8c7-912e-4fc0-8d4e-6251dc9a0b04"},"vehicle_type_id":"4","last_reported":1758654478,"current_range_meters":13600,"station_id":"ce4bhch2rcd13ifvqeug","pricing_plan_id":"cebpf4jnsgd1na2vs0mg"},{"bike_id":"0023c8ba-956b-4646-82fd-c8751074c246","system_id":"levelo_inurba_marseille","lat":43.24409,"lon":5.37039,"is_reserved":false,"is_disabled":false,"rental_uris":{"android":"levelo://app?vid=0023c8ba-956b-4646-82fd-c8751074c246","ios":"levelo://app?vid=0023c8ba-956b-4646-82fd-c8751074c246"},"vehicle_type_id":"4","last_reported":1758654478,"current_range_meters":13600,"station_id":"ce4bhhh2rcd13ifvqfk0","pricing_plan_id":"cebpf4jnsgd1na2vs0mg"},{"bike_id":"491f3345-2ff4-4c5a-af7c-9a55daaa69ad","system_id":"levelo_inurba_marseille","lat":43.28619,"lon":5.3509,"is_reserved":false,"is_disabled":false,"rental_uris":{"android":"levelo://app?vid=491f3345-2ff4-4c5a-af7c-9a55daaa69ad","ios":"levelo://app?vid=491f3345-2ff4-4c5a-af7c-9a55daaa69ad"},"vehicle_type_id":"4","last_reported":1758654478,"current_range_meters":13600,"station_id":"ce4bhch2rcd13ifvqeug","pricing_plan_id":"cebpf4jnsgd1na2vs0mg"},{"bike_id":"43d57fd4-047e-4ac8-97e5-ec9b96239472","system_id":"levelo_inurba_marseille","lat":43.33231,"lon":5.39821,"is_reserved":false,"is_disabled":false,"rental_uris":{"android":"levelo://app?vid=43d57fd4-047e-4ac8-97e5-ec9b96239472","ios":"levelo://app?vid=43d57fd4-047e-4ac8-97e5-ec9b96239472"},"vehicle_type_id":"4","last_reported":1758654478,"current_range_meters":13600,"station_id":"","pricing_plan_id":"cebpf4jnsgd1na2vs0mg"},{"bike_id":"2e586592-f08d-43dc-b657-a1ca511d1d1a","system_id":"levelo_inurba_marseille","lat":43.27933,"lon":5.41057,"is_reserved":false,"is_disabled":false,"rental_uris":{"android":"levelo://app?vid=2e586592-f08d-43dc-b657-a1ca511d1d1a","ios":"levelo://app?vid=2e586592-f08d-43dc-b657-a1ca511d1d1a"},"vehicle_type_id":"4","last_reported":1758654478,"current_range_meters":14000,"station_id":"ce4bhnp2rcd13ifvqh0g","pricing_plan_id":"cebpf4jnsgd1na2vs0mg"},{"bike_id":"82a112b4-38f7-4423-94d6-9c6ff358a145","system_id":"levelo_inurba_marseille","lat":43.29272,"lon":5.38445,"is_reserved":false,"is_disabled":false,"rental_uris":{"android":"levelo://app?vid=82a112b4-38f7-4423-94d6-9c6ff358a145","ios":"levelo://app?vid=82a112b4-38f7-4423-94d6-9c6ff358a145"},"vehicle_type_id":"4","last_reported":1758654478,"current_range_meters":14000,"station_id":"ce4bh692rcd13ifvqea0","pricing_plan_id":"cebpf4jnsgd1na2vs0mg"},{"bike_id":"20f75a6a-3b52-484c-b975-ca6efd4be349","system_id":"levelo_inurba_marseille","lat":43.2782,"lon":5.4074,"is_reserved":false,"is_disabled":false,"rental_uris":{"android":"levelo://app?vid=20f75a6a-3b52-484c-b975-ca6efd4be349","ios":"levelo://app?vid=20f75a6a-3b52-484c-b975-ca6efd4be349"},"vehicle_type_id":"4","last_reported":1758654478,"current_range_meters":14000,"station_id":"ce4bhnh2rcd13ifvqgtg","pricing_plan_id":"cebpf4jnsgd1na2vs0mg"},{"bike_id":"7657e1ba-50e8-42db-bbf5-2b06966c227b","system_id":"levelo_inurba_marseille","lat":43.29916,"lon":5.38157,"is_reserved":false,"is_disabled":false,"rental_uris":{"android":"levelo://app?vid=7657e1ba-50e8-42db-bbf5-2b06966c227b","ios":"levelo://app?vid=7657e1ba-50e8-42db-bbf5-2b06966c227b"},"vehicle_type_id":"4","last_reported":1758654478,"current_range_meters":13600,"station_id":"ce4bgj12rcd13ifvqbc0","pricing_plan_id":"cebpf4jnsgd1na2vs0mg"},{"bike_id":"b1ce93cc-c50a-4c33-91d4-e327b44da2b1","system_id":"levelo_inurba_marseille","lat":43.29876,"lon":5.38904,"is_reserved":false,"is_disabled":true,"rental_uris":{"android":"levelo://app?vid=b1ce93cc-c50a-4c33-91d4-e327b44da2b1","ios":"levelo://app?vid=b1ce93cc-c50a-4c33-91d4-e327b44da2b1"},"vehicle_type_id":"4","last_reported":1758654478,"current_range_meters":14000,"station_id":"ce4bh392rcd13ifvqdl0","pricing_plan_id":"cebpf4jnsgd1na2vs0mg"},{"bike_id":"7b4847fc-5210-4e4c-8d35-cac27aeef6ea","system_id":"levelo_inurba_marseille","lat":43.31165,"lon":5.38721,"is_reserved":false,"is_disabled":false,"rental_uris":{"android":"levelo://app?vid=7b4847fc-5210-4e4c-8d35-cac27aeef6ea","ios":"levelo://app?vid=7b4847fc-5210-4e4c-8d35-cac27aeef6ea"},"vehicle_type_id":"4","last_reported":1758654478,"current_range_meters":14000,"station_id":"ce4bgv12rcd13ifvqcp0","pricing_plan_id":"cebpf4jnsgd1na2vs0mg"},{"bike_id":"4d2bdcdd-8d27-45d5-b4ed-1ef7f3c1e4dc","system_id":"levelo_inurba_marseille","lat":43.30106,"lon":5.39862,"is_reserved":false,"is_disabled":false,"rental_uris":{"android":"levelo://app?vid=4d2bdcdd-8d27-45d5-b4ed-1ef7f3c1e4dc","ios":"levelo://app?vid=4d2bdcdd-8d27-45d5-b4ed-1ef7f3c1e4dc"},"vehicle_type_id":"4","last_reported":1758654478,"current_range_meters":14000,"station_id":"ce4bh0h2rcd13ifvqd40","pricing_plan_id":"cebpf4jnsgd1na2vs0mg"},{"bike_id":"ecc00072-936c-49cb-8e97-36c6aa07146c","system_id":"levelo_inurba_marseille","lat":43.29643,"lon":5.40609,"is_reserved":false,"is_disabled":false,"rental_uris":{"android":"levelo://app?vid=ecc00072-936c-49cb-8e97-36c6aa07146c","ios":"levelo://app?vid=ecc00072-936c-49cb-8e97-36c6aa07146c"},"vehicle_type_id":"4","last_reported":1758654478,"current_range_meters":14000,"station_id":"ce4bh0h2rcd13ifvqd60","pricing_plan_id":"cebpf4jnsgd1na2vs0mg"},{"bike_id":"def2a518-520c-4f1e-8cb4-42885014e3f8","system_id":"levelo_inurba_marseille","lat":43.30582,"lon":5.39339,"is_reserved":false,"is_disabled":false,"rental_uris":{"android":"levelo://app?vid=def2a518-520c-4f1e-8cb4-42885014e3f8","ios":"levelo://app?vid=def2a518-520c-4f1e-8cb4-42885014e3f8"},"vehicle_type_id":"4","last_reported":1758654478,"current_range_meters":14000,"station_id":"ce4bh0p2rcd13ifvqd80","pricing_plan_id":"cebpf4jnsgd1na2vs0mg"},{"bike_id":"20ac81b0-2003-4701-8a45-6c6cbbaf5e14","system_id":"levelo_inurba_marseille","lat":43.28002,"lon":5.40013,"is_reserved":false,"is_disabled":false,"rental_uris":{"android":"levelo://app?vid=20ac81b0-2003-4701-8a45-6c6cbbaf5e14","ios":"levelo://app?vid=20ac81b0-2003-4701-8a45-6c6cbbaf5e14"},"vehicle_type_id":"4","last_reported":1758654478,"current_range_meters":14000,"station_id":"ce4bho92rcd13ifvqh4g","pricing_plan_id":"cebpf4jnsgd1na2vs0mg"},{"bike_id":"34938a84-8c69-427d-ac76-3d11532bf34a","system_id":"levelo_inurba_marseille","lat":43.29193,"lon":5.35813,"is_reserved":false,"is_disabled":false,"rental_uris":{"android":"levelo://app?vid=34938a84-8c69-427d-ac76-3d11532bf34a","ios":"levelo://app?vid=34938a84-8c69-427d-ac76-3d11532bf34a"},"vehicle_type_id":"4","last_reported":1758654478,"current_range_meters":14000,"station_id":"ce4bhb12rcd13ifvqel0","pricing_plan_id":"cebpf4jnsgd1na2vs0mg"},{"bike_id":"06a24bce-028d-4b4a-b4a3-d45296145db5","system_id":"levelo_inurba_marseille","lat":43.28425,"lon":5.34991,"is_reserved":false,"is_disabled":true,"rental_uris":{"android":"levelo://app?vid=06a24bce-028d-4b4a-b4a3-d45296145db5","ios":"levelo://app?vid=06a24bce-028d-4b4a-b4a3-d45296145db5"},"vehicle_type_id":"4","last_reported":1758654478,"current_range_meters":14000,"station_id":"ce4bhch2rcd13ifvqeug","pricing_plan_id":"cebpf4jnsgd1na2vs0mg"},{"bike_id":"c0c46f8b-c352-43a2-85a5-27d67ef11639","system_id":"levelo_inurba_marseille","lat":43.24649,"lon":5.38891,"is_reserved":false,"is_disabled":false,"rental_uris":{"android":"levelo://app?vid=c0c46f8b-c352-43a2-85a5-27d67ef11639","ios":"levelo://app?vid=c0c46f8b-c352-43a2-85a5-27d67ef11639"},"vehicle_type_id":"4","last_reported":1758654478,"current_range_meters":14400,"station_id":"ce4bhg12rcd13ifvqf60","pricing_plan_id":"cebpf4jnsgd1na2vs0mg"},{"bike_id":"adc9b767-fa5a-487c-b17d-fb3c376c3f08","system_id":"levelo_inurba_marseille","lat":43.297415,"lon":5.377295,"is_reserved":false,"is_disabled":false,"rental_uris":{"android":"levelo://app?vid=adc9b767-fa5a-487c-b17d-fb3c376c3f08","ios":"levelo://app?vid=adc9b767-fa5a-487c-b17d-fb3c376c3f08"},"vehicle_type_id":"4","last_reported":1758654478,"current_range_meters":14400,"station_id":"","pricing_plan_id":"cebpf4jnsgd1na2vs0mg"},{"bike_id":"60738aa6-9b02-4be6-acf9-86615f4a04d7","system_id":"levelo_inurba_marseille","lat":43.29045,"lon":5.35908,"is_reserved":false,"is_disabled":false,"rental_uris":{"android":"levelo://app?vid=60738aa6-9b02-4be6-acf9-86615f4a04d7","ios":"levelo://app?vid=60738aa6-9b02-4be6-acf9-86615f4a04d7"},"vehicle_type_id":"4","last_reported":1758654478,"current_range_meters":14400,"station_id":"ce4bha92rcd13ifvqeg0","pricing_plan_id":"cebpf4jnsgd1na2vs0mg"},{"bike_id":"8b69df7e-0e1a-4ea2-a182-12c76d786c77","system_id":"levelo_inurba_marseille","lat":43.28699,"lon":5.37399,"is_reserved":false,"is_disabled":false,"rental_uris":{"android":"levelo://app?vid=8b69df7e-0e1a-4ea2-a182-12c76d786c77","ios":"levelo://app?vid=8b69df7e-0e1a-4ea2-a182-12c76d786c77"},"vehicle_type_id":"4","last_reported":1758654478,"current_range_meters":14400,"station_id":"ce4bh3p2rcd13ifvqdq0","pricing_plan_id":"cebpf4jnsgd1na2vs0mg"},{"bike_id":"e35dc3d8-0dfe-4bd4-87f7-5d3ca8bee4e5","system_id":"levelo_inurba_marseille","lat":43.25,"lon":5.4267,"is_reserved":false,"is_disabled":false,"rental_uris":{"android":"levelo://app?vid=e35dc3d8-0dfe-4bd4-87f7-5d3ca8bee4e5","ios":"levelo://app?vid=e35dc3d8-0dfe-4bd4-87f7-5d3ca8bee4e5"},"vehicle_type_id":"4","last_reported":1758654478,"current_range_meters":14400,"station_id":"","pricing_plan_id":"cebpf4jnsgd1na2vs0mg"},{"bike_id":"bf08355d-d0ed-49d0-b790-a31c0476ed93","system_id":"levelo_inurba_marseille","lat":43.25128,"lon":5.40328,"is_reserved":false,"is_disabled":false,"rental_uris":{"android":"levelo://app?vid=bf08355d-d0ed-49d0-b790-a31c0476ed93","ios":"levelo://app?vid=bf08355d-d0ed-49d0-b790-a31c0476ed93"},"vehicle_type_id":"4","last_reported":1758654478,"current_range_meters":14400,"station_id":"ce4bhlh2rcd13ifvqgig","pricing_plan_id":"cebpf4jnsgd1na2vs0mg"},{"bike_id":"7ceb30fe-361b-4824-90a1-c7abaa671fbe","system_id":"levelo_inurba_marseille","lat":43.28676,"lon":5.38668,"is_reserved":false,"is_disabled":false,"rental_uris":{"android":"levelo://app?vid=7ceb30fe-361b-4824-90a1-c7abaa671fbe","ios":"levelo://app?vid=7ceb30fe-361b-4824-90a1-c7abaa671fbe"},"vehicle_type_id":"4","last_reported":1758654478,"current_range_meters":14800,"station_id":"ce4bh492rcd13ifvqdug","pricing_plan_id":"cebpf4jnsgd1na2vs0mg"},{"bike_id":"6b86793b-9fff-41bc-84c2-c6e7d0406952","system_id":"levelo_inurba_marseille","lat":43.29274,"lon":5.38453,"is_reserved":false,"is_disabled":false,"rental_uris":{"android":"levelo://app?vid=6b86793b-9fff-41bc-84c2-c6e7d0406952","ios":"levelo://app?vid=6b86793b-9fff-41bc-84c2-c6e7d0406952"},"vehicle_type_id":"4","last_reported":1758654478,"current_range_meters":14800,"station_id":"ce4bh692rcd13ifvqea0","pricing_plan_id":"cebpf4jnsgd1na2vs0mg"},{"bike_id":"2884e01e-e8e5-4f64-839a-a54c238e1ae3","system_id":"levelo_inurba_marseille","lat":43.22543,"lon":5.34838,"is_reserved":false,"is_disabled":false,"rental_uris":{"android":"levelo://app?vid=2884e01e-e8e5-4f64-839a-a54c238e1ae3","ios":"levelo://app?vid=2884e01e-e8e5-4f64-839a-a54c238e1ae3"},"vehicle_type_id":"4","last_reported":1758654478,"current_range_meters":14800,"station_id":"","pricing_plan_id":"cebpf4jnsgd1na2vs0mg"},{"bike_id":"3b646189-9cd8-4845-9a8e-c4545f72c6de","system_id":"levelo_inurba_marseille","lat":43.31995,"lon":5.3816,"is_reserved":false,"is_disabled":false,"rental_uris":{"android":"levelo://app?vid=3b646189-9cd8-4845-9a8e-c4545f72c6de","ios":"levelo://app?vid=3b646189-9cd8-4845-9a8e-c4545f72c6de"},"vehicle_type_id":"4","last_reported":1758654478,"current_range_meters":14800,"station_id":"ce4bhr12rcd13ifvqhpg","pricing_plan_id":"cebpf4jnsgd1na2vs0mg"},{"bike_id":"e36b8523-28d4-4650-bb1a-56482550ea8b","system_id":"levelo_inurba_marseille","lat":43.297857,"lon":5.381,"is_reserved":false,"is_disabled":true,"rental_uris":{"android":"levelo://app?vid=e36b8523-28d4-4650-bb1a-56482550ea8b","ios":"levelo://app?vid=e36b8523-28d4-4650-bb1a-56482550ea8b"},"vehicle_type_id":"4","last_reported":1758654478,"current_range_meters":14800,"station_id":"ce4bgip2rcd13ifvqbb0","pricing_plan_id":"cebpf4jnsgd1na2vs0mg"},{"bike_id":"4c0b651b-953c-4759-a0f7-0074f59a45eb","system_id":"levelo_inurba_marseille","lat":43.25772,"lon":5.3927,"is_reserved":false,"is_disabled":false,"rental_uris":{"android":"levelo://app?vid=4c0b651b-953c-4759-a0f7-0074f59a45eb","ios":"levelo://app?vid=4c0b651b-953c-4759-a0f7-0074f59a45eb"},"vehicle_type_id":"4","last_reported":1758654478,"current_range_meters":14800,"station_id":"","pricing_plan_id":"cebpf4jnsgd1na2vs0mg"},{"bike_id":"75bd8d0f-7c3d-4c0b-8248-380558f41775","system_id":"levelo_inurba_marseille","lat":43.29269,"lon":5.38442,"is_reserved":false,"is_disabled":false,"rental_uris":{"android":"levelo://app?vid=75bd8d0f-7c3d-4c0b-8248-380558f41775","ios":"levelo://app?vid=75bd8d0f-7c3d-4c0b-8248-380558f41775"},"vehicle_type_id":"4","last_reported":1758654478,"current_range_meters":15200,"station_id":"ce4bh692rcd13ifvqea0","pricing_plan_id":"cebpf4jnsgd1na2vs0mg"},{"bike_id":"7df788c7-541b-4260-ba0c-9a90fc5f524a","system_id":"levelo_inurba_marseille","lat":43.26945,"lon":5.40262,"is_reserved":false,"is_disabled":false,"rental_uris":{"android":"levelo://app?vid=7df788c7-541b-4260-ba0c-9a90fc5f524a","ios":"levelo://app?vid=7df788c7-541b-4260-ba0c-9a90fc5f524a"},"vehicle_type_id":"4","last_reported":1758654478,"current_range_meters":15200,"station_id":"cjm6bp8fraef2m0cb0m0","pricing_plan_id":"cebpf4jnsgd1na2vs0mg"},{"bike_id":"7824bd17-03cc-4c39-a805-784b2442328c","system_id":"levelo_inurba_marseille","lat":43.29536,"lon":5.3855,"is_reserved":false,"is_disabled":false,"rental_uris":{"android":"levelo://app?vid=7824bd17-03cc-4c39-a805-784b2442328c","ios":"levelo://app?vid=7824bd17-03cc-4c39-a805-784b2442328c"},"vehicle_type_id":"4","last_reported":1758654478,"current_range_meters":15200,"station_id":"ce4bgih2rcd13ifvqba0","pricing_plan_id":"cebpf4jnsgd1na2vs0mg"},{"bike_id":"82da3909-afe4-4ffd-b0cc-293dc1055e08","system_id":"levelo_inurba_marseille","lat":43.32478,"lon":5.36516,"is_reserved":false,"is_disabled":false,"rental_uris":{"android":"levelo://app?vid=82da3909-afe4-4ffd-b0cc-293dc1055e08","ios":"levelo://app?vid=82da3909-afe4-4ffd-b0cc-293dc1055e08"},"vehicle_type_id":"4","last_reported":1758654478,"current_range_meters":15200,"station_id":"ce4bhs12rcd13ifvqhvg","pricing_plan_id":"cebpf4jnsgd1na2vs0mg"},{"bike_id":"83e4e41c-1efa-4297-bd41-ee8c05121677","system_id":"levelo_inurba_marseille","lat":43.28672,"lon":5.38677,"is_reserved":false,"is_disabled":false,"rental_uris":{"android":"levelo://app?vid=83e4e41c-1efa-4297-bd41-ee8c05121677","ios":"levelo://app?vid=83e4e41c-1efa-4297-bd41-ee8c05121677"},"vehicle_type_id":"4","last_reported":1758654478,"current_range_meters":15200,"station_id":"ce4bh492rcd13ifvqdug","pricing_plan_id":"cebpf4jnsgd1na2vs0mg"},{"bike_id":"dddca5ef-4a33-499b-936a-6d8e6136a417","system_id":"levelo_inurba_marseille","lat":43.22934,"lon":5.35389,"is_reserved":false,"is_disabled":false,"rental_uris":{"android":"levelo://app?vid=dddca5ef-4a33-499b-936a-6d8e6136a417","ios":"levelo://app?vid=dddca5ef-4a33-499b-936a-6d8e6136a417"},"vehicle_type_id":"4","last_reported":1758654478,"current_range_meters":15200,"station_id":"cpo3532slgdg3j2ikp40","pricing_plan_id":"cebpf4jnsgd1na2vs0mg"},{"bike_id":"df9fd904-4100-4d28-b004-33d1b1254366","system_id":"levelo_inurba_marseille","lat":43.29858,"lon":5.37673,"is_reserved":false,"is_disabled":false,"rental_uris":{"android":"levelo://app?vid=df9fd904-4100-4d28-b004-33d1b1254366","ios":"levelo://app?vid=df9fd904-4100-4d28-b004-33d1b1254366"},"vehicle_type_id":"4","last_reported":1758654478,"current_range_meters":15200,"station_id":"ce4bh012rcd13ifvqd10","pricing_plan_id":"cebpf4jnsgd1na2vs0mg"},{"bike_id":"9feb0e0f-24fa-4463-b0f3-30472830c043","system_id":"levelo_inurba_marseille","lat":43.31757,"lon":5.39002,"is_reserved":false,"is_disabled":false,"rental_uris":{"android":"levelo://app?vid=9feb0e0f-24fa-4463-b0f3-30472830c043","ios":"levelo://app?vid=9feb0e0f-24fa-4463-b0f3-30472830c043"},"vehicle_type_id":"4","last_reported":1758654478,"current_range_meters":16000,"station_id":"ce4bhqp2rcd13ifvqhng","pricing_plan_id":"cebpf4jnsgd1na2vs0mg"},{"bike_id":"a60abba9-f9b8-477b-8786-175fc2b6218b","system_id":"levelo_inurba_marseille","lat":43.30882,"lon":5.37161,"is_reserved":false,"is_disabled":false,"rental_uris":{"android":"levelo://app?vid=a60abba9-f9b8-477b-8786-175fc2b6218b","ios":"levelo://app?vid=a60abba9-f9b8-477b-8786-175fc2b6218b"},"vehicle_type_id":"4","last_reported":1758654478,"current_range_meters":16000,"station_id":"ce4bguh2rcd13ifvqckg","pricing_plan_id":"cebpf4jnsgd1na2vs0mg"},{"bike_id":"1ca7349c-97bc-4f27-846e-1fa6b6691717","system_id":"levelo_inurba_marseille","lat":43.24077,"lon":5.37758,"is_reserved":false,"is_disabled":false,"rental_uris":{"android":"levelo://app?vid=1ca7349c-97bc-4f27-846e-1fa6b6691717","ios":"levelo://app?vid=1ca7349c-97bc-4f27-846e-1fa6b6691717"},"vehicle_type_id":"4","last_reported":1758654478,"current_range_meters":16000,"station_id":"ce4bhnp2rcd13ifvqgvg","pricing_plan_id":"cebpf4jnsgd1na2vs0mg"},{"bike_id":"c56ed273-f816-44e8-ba62-5d6f60b481d4","system_id":"levelo_inurba_marseille","lat":43.27908,"lon":5.3801,"is_reserved":false,"is_disabled":false,"rental_uris":{"android":"levelo://app?vid=c56ed273-f816-44e8-ba62-5d6f60b481d4","ios":"levelo://app?vid=c56ed273-f816-44e8-ba62-5d6f60b481d4"},"vehicle_type_id":"4","last_reported":1758654478,"current_range_meters":16000,"station_id":"ce4bhf92rcd13ifvqf50","pricing_plan_id":"cebpf4jnsgd1na2vs0mg"},{"bike_id":"0ede7616-1d90-43d4-a37a-60c9664e7016","system_id":"levelo_inurba_marseille","lat":43.23196,"lon":5.39992,"is_reserved":false,"is_disabled":false,"rental_uris":{"android":"levelo://app?vid=0ede7616-1d90-43d4-a37a-60c9664e7016","ios":"levelo://app?vid=0ede7616-1d90-43d4-a37a-60c9664e7016"},"vehicle_type_id":"4","last_reported":1758654478,"current_range_meters":16000,"station_id":"ce4bhn12rcd13ifvqgqg","pricing_plan_id":"cebpf4jnsgd1na2vs0mg"},{"bike_id":"fdf1b283-7a32-4a79-95b7-48946e4f94a1","system_id":"levelo_inurba_marseille","lat":43.24082,"lon":5.37754,"is_reserved":false,"is_disabled":false,"rental_uris":{"android":"levelo://app?vid=fdf1b283-7a32-4a79-95b7-48946e4f94a1","ios":"levelo://app?vid=fdf1b283-7a32-4a79-95b7-48946e4f94a1"},"vehicle_type_id":"4","last_reported":1758654478,"current_range_meters":16000,"station_id":"ce4bhnp2rcd13ifvqgvg","pricing_plan_id":"cebpf4jnsgd1na2vs0mg"},{"bike_id":"503e9fe5-3f4f-4661-a209-e71c434a7680","system_id":"levelo_inurba_marseille","lat":43.2796,"lon":5.38721,"is_reserved":false,"is_disabled":true,"rental_uris":{"android":"levelo://app?vid=503e9fe5-3f4f-4661-a209-e71c434a7680","ios":"levelo://app?vid=503e9fe5-3f4f-4661-a209-e71c434a7680"},"vehicle_type_id":"4","last_reported":1758654478,"current_range_meters":16000,"station_id":"ce4bhg12rcd13ifvqf80","pricing_plan_id":"cebpf4jnsgd1na2vs0mg"},{"bike_id":"175f158f-b450-4297-8fca-bfdd81b52cf8","system_id":"levelo_inurba_marseille","lat":43.308,"lon":5.38149,"is_reserved":false,"is_disabled":false,"rental_uris":{"android":"levelo://app?vid=175f158f-b450-4297-8fca-bfdd81b52cf8","ios":"levelo://app?vid=175f158f-b450-4297-8fca-bfdd81b52cf8"},"vehicle_type_id":"4","last_reported":1758654478,"current_range_meters":16000,"station_id":"ce4bgt12rcd13ifvqce0","pricing_plan_id":"cebpf4jnsgd1na2vs0mg"},{"bike_id":"438ead59-de14-4fa0-a61d-03a70a4122ae","system_id":"levelo_inurba_marseille","lat":43.97269,"lon":4.89111,"is_reserved":false,"is_disabled":true,"rental_uris":{"android":"levelo://app?vid=438ead59-de14-4fa0-a61d-03a70a4122ae","ios":"levelo://app?vid=438ead59-de14-4fa0-a61d-03a70a4122ae"},"vehicle_type_id":"4","last_reported":1758654478,"current_range_meters":16000,"station_id":"","pricing_plan_id":"cebpf4jnsgd1na2vs0mg"},{"bike_id":"6fb04c64-ef8c-4421-a5e6-f3cc96fb7cff","system_id":"levelo_inurba_marseille","lat":43.246652,"lon":5.381634,"is_reserved":false,"is_disabled":false,"rental_uris":{"android":"levelo://app?vid=6fb04c64-ef8c-4421-a5e6-f3cc96fb7cff","ios":"levelo://app?vid=6fb04c64-ef8c-4421-a5e6-f3cc96fb7cff"},"vehicle_type_id":"4","last_reported":1758654478,"current_range_meters":16000,"station_id":"ce4bhih2rcd13ifvqfr0","pricing_plan_id":"cebpf4jnsgd1na2vs0mg"},{"bike_id":"9e28a774-d336-4995-921f-c826bee8dc91","system_id":"levelo_inurba_marseille","lat":43.30131,"lon":5.38784,"is_reserved":false,"is_disabled":true,"rental_uris":{"android":"levelo://app?vid=9e28a774-d336-4995-921f-c826bee8dc91","ios":"levelo://app?vid=9e28a774-d336-4995-921f-c826bee8dc91"},"vehicle_type_id":"4","last_reported":1758654478,"current_range_meters":16400,"station_id":"ce4bghh2rcd13ifvqb60","pricing_plan_id":"cebpf4jnsgd1na2vs0mg"},{"bike_id":"ae140a32-5f79-427f-90a7-d410e17b7823","system_id":"levelo_inurba_marseille","lat":43.26683,"lon":5.38276,"is_reserved":false,"is_disabled":true,"rental_uris":{"android":"levelo://app?vid=ae140a32-5f79-427f-90a7-d410e17b7823","ios":"levelo://app?vid=ae140a32-5f79-427f-90a7-d410e17b7823"},"vehicle_type_id":"4","last_reported":1758654478,"current_range_meters":16400,"station_id":"ce4bhg92rcd13ifvqf90","pricing_plan_id":"cebpf4jnsgd1na2vs0mg"},{"bike_id":"93f8abc5-7bf2-42ae-a85e-b4a1a5de88d5","system_id":"levelo_inurba_marseille","lat":43.337444,"lon":5.374475,"is_reserved":false,"is_disabled":false,"rental_uris":{"android":"levelo://app?vid=93f8abc5-7bf2-42ae-a85e-b4a1a5de88d5","ios":"levelo://app?vid=93f8abc5-7bf2-42ae-a85e-b4a1a5de88d5"},"vehicle_type_id":"4","last_reported":1758654478,"current_range_meters":16400,"station_id":"","pricing_plan_id":"cebpf4jnsgd1na2vs0mg"},{"bike_id":"b9641ea9-2ce5-415f-97d5-6b562fcc70cb","system_id":"levelo_inurba_marseille","lat":43.284585,"lon":5.358796,"is_reserved":false,"is_disabled":false,"rental_uris":{"android":"levelo://app?vid=b9641ea9-2ce5-415f-97d5-6b562fcc70cb","ios":"levelo://app?vid=b9641ea9-2ce5-415f-97d5-6b562fcc70cb"},"vehicle_type_id":"4","last_reported":1758654478,"current_range_meters":16400,"station_id":"ce4bhah2rcd13ifvqei0","pricing_plan_id":"cebpf4jnsgd1na2vs0mg"},{"bike_id":"1c392273-5f97-4344-b316-0fef6254e71d","system_id":"levelo_inurba_marseille","lat":43.29284,"lon":5.38458,"is_reserved":false,"is_disabled":false,"rental_uris":{"android":"levelo://app?vid=1c392273-5f97-4344-b316-0fef6254e71d","ios":"levelo://app?vid=1c392273-5f97-4344-b316-0fef6254e71d"},"vehicle_type_id":"4","last_reported":1758654478,"current_range_meters":16400,"station_id":"ce4bh692rcd13ifvqea0","pricing_plan_id":"cebpf4jnsgd1na2vs0mg"},{"bike_id":"878212e1-9f3a-4147-b86c-65eaf928a45d","system_id":"levelo_inurba_marseille","lat":43.21744,"lon":5.3461,"is_reserved":false,"is_disabled":false,"rental_uris":{"android":"levelo://app?vid=878212e1-9f3a-4147-b86c-65eaf928a45d","ios":"levelo://app?vid=878212e1-9f3a-4147-b86c-65eaf928a45d"},"vehicle_type_id":"4","last_reported":1758654478,"current_range_meters":16400,"station_id":"","pricing_plan_id":"cebpf4jnsgd1na2vs0mg"},{"bike_id":"bc5e5951-8efa-474d-bb4f-c79e92883e92","system_id":"levelo_inurba_marseille","lat":43.28158,"lon":5.42678,"is_reserved":false,"is_disabled":false,"rental_uris":{"android":"levelo://app?vid=bc5e5951-8efa-474d-bb4f-c79e92883e92","ios":"levelo://app?vid=bc5e5951-8efa-474d-bb4f-c79e92883e92"},"vehicle_type_id":"4","last_reported":1758654478,"current_range_meters":16400,"station_id":"ce4bhnh2rcd13ifvqgug","pricing_plan_id":"cebpf4jnsgd1na2vs0mg"},{"bike_id":"e3dc3807-da3b-4107-abcd-b128895b5784","system_id":"levelo_inurba_marseille","lat":43.28648,"lon":5.36349,"is_reserved":false,"is_disabled":false,"rental_uris":{"android":"levelo://app?vid=e3dc3807-da3b-4107-abcd-b128895b5784","ios":"levelo://app?vid=e3dc3807-da3b-4107-abcd-b128895b5784"},"vehicle_type_id":"4","last_reported":1758654478,"current_range_meters":16400,"station_id":"ce4bhah2rcd13ifvqej0","pricing_plan_id":"cebpf4jnsgd1na2vs0mg"},{"bike_id":"07a3da83-35aa-49cd-9114-560a979e4044","system_id":"levelo_inurba_marseille","lat":43.290955,"lon":5.381382,"is_reserved":false,"is_disabled":false,"rental_uris":{"android":"levelo://app?vid=07a3da83-35aa-49cd-9114-560a979e4044","ios":"levelo://app?vid=07a3da83-35aa-49cd-9114-560a979e4044"},"vehicle_type_id":"4","last_reported":1758654478,"current_range_meters":16400,"station_id":"ce4bh512rcd13ifvqe2g","pricing_plan_id":"cebpf4jnsgd1na2vs0mg"},{"bike_id":"6d3a8c5e-557b-4223-902c-598a4a4dccf7","system_id":"levelo_inurba_marseille","lat":43.28464,"lon":5.35884,"is_reserved":false,"is_disabled":false,"rental_uris":{"android":"levelo://app?vid=6d3a8c5e-557b-4223-902c-598a4a4dccf7","ios":"levelo://app?vid=6d3a8c5e-557b-4223-902c-598a4a4dccf7"},"vehicle_type_id":"4","last_reported":1758654478,"current_range_meters":16400,"station_id":"ce4bhah2rcd13ifvqei0","pricing_plan_id":"cebpf4jnsgd1na2vs0mg"},{"bike_id":"ffc3a653-8c7b-4a6d-8ddd-817f5c202363","system_id":"levelo_inurba_marseille","lat":43.28699,"lon":5.37386,"is_reserved":false,"is_disabled":false,"rental_uris":{"android":"levelo://app?vid=ffc3a653-8c7b-4a6d-8ddd-817f5c202363","ios":"levelo://app?vid=ffc3a653-8c7b-4a6d-8ddd-817f5c202363"},"vehicle_type_id":"4","last_reported":1758654478,"current_range_meters":16000,"station_id":"ce4bh3p2rcd13ifvqdq0","pricing_plan_id":"cebpf4jnsgd1na2vs0mg"},{"bike_id":"cdb34a35-654a-4805-a2f8-ca8e48aa3508","system_id":"levelo_inurba_marseille","lat":43.28001,"lon":5.4,"is_reserved":false,"is_disabled":false,"rental_uris":{"android":"levelo://app?vid=cdb34a35-654a-4805-a2f8-ca8e48aa3508","ios":"levelo://app?vid=cdb34a35-654a-4805-a2f8-ca8e48aa3508"},"vehicle_type_id":"4","last_reported":1758654478,"current_range_meters":16400,"station_id":"ce4bho92rcd13ifvqh4g","pricing_plan_id":"cebpf4jnsgd1na2vs0mg"},{"bike_id":"c7f6a08b-c655-4213-b2ba-7d02e7f382fe","system_id":"levelo_inurba_marseille","lat":43.27987,"lon":5.39479,"is_reserved":false,"is_disabled":false,"rental_uris":{"android":"levelo://app?vid=c7f6a08b-c655-4213-b2ba-7d02e7f382fe","ios":"levelo://app?vid=c7f6a08b-c655-4213-b2ba-7d02e7f382fe"},"vehicle_type_id":"4","last_reported":1758654478,"current_range_meters":16400,"station_id":"","pricing_plan_id":"cebpf4jnsgd1na2vs0mg"},{"bike_id":"7ee54a5a-c571-463d-baff-80a1a8ed87ce","system_id":"levelo_inurba_marseille","lat":43.25324,"lon":5.42152,"is_reserved":false,"is_disabled":false,"rental_uris":{"android":"levelo://app?vid=7ee54a5a-c571-463d-baff-80a1a8ed87ce","ios":"levelo://app?vid=7ee54a5a-c571-463d-baff-80a1a8ed87ce"},"vehicle_type_id":"4","last_reported":1758654478,"current_range_meters":16400,"station_id":"st_d2m65c5bi1j21697t3ng","pricing_plan_id":"cebpf4jnsgd1na2vs0mg"},{"bike_id":"8efaf49e-9186-4bf4-b789-a519c667a643","system_id":"levelo_inurba_marseille","lat":43.29974,"lon":5.38486,"is_reserved":false,"is_disabled":false,"rental_uris":{"android":"levelo://app?vid=8efaf49e-9186-4bf4-b789-a519c667a643","ios":"levelo://app?vid=8efaf49e-9186-4bf4-b789-a519c667a643"},"vehicle_type_id":"4","last_reported":1758654478,"current_range_meters":16800,"station_id":"ce4bgj92rcd13ifvqbd0","pricing_plan_id":"cebpf4jnsgd1na2vs0mg"},{"bike_id":"73191c81-1d43-414e-9511-6c6ae5e9c556","system_id":"levelo_inurba_marseille","lat":43.291979,"lon":5.358052,"is_reserved":false,"is_disabled":false,"rental_uris":{"android":"levelo://app?vid=73191c81-1d43-414e-9511-6c6ae5e9c556","ios":"levelo://app?vid=73191c81-1d43-414e-9511-6c6ae5e9c556"},"vehicle_type_id":"4","last_reported":1758654478,"current_range_meters":16800,"station_id":"ce4bhb12rcd13ifvqel0","pricing_plan_id":"cebpf4jnsgd1na2vs0mg"},{"bike_id":"b5097eea-9912-4be2-9cf9-14c224c5fab6","system_id":"levelo_inurba_marseille","lat":43.232004,"lon":5.355483,"is_reserved":false,"is_disabled":false,"rental_uris":{"android":"levelo://app?vid=b5097eea-9912-4be2-9cf9-14c224c5fab6","ios":"levelo://app?vid=b5097eea-9912-4be2-9cf9-14c224c5fab6"},"vehicle_type_id":"4","last_reported":1758654478,"current_range_meters":16800,"station_id":"ce4bhu92rcd13ifvqi70","pricing_plan_id":"cebpf4jnsgd1na2vs0mg"},{"bike_id":"986b9cd9-8427-481d-80a2-063b18f9f5cc","system_id":"levelo_inurba_marseille","lat":43.28084,"lon":5.39662,"is_reserved":false,"is_disabled":false,"rental_uris":{"android":"levelo://app?vid=986b9cd9-8427-481d-80a2-063b18f9f5cc","ios":"levelo://app?vid=986b9cd9-8427-481d-80a2-063b18f9f5cc"},"vehicle_type_id":"4","last_reported":1758654478,"current_range_meters":16800,"station_id":"ce4bho12rcd13ifvqh2g","pricing_plan_id":"cebpf4jnsgd1na2vs0mg"},{"bike_id":"d56b66aa-5043-4450-b88c-fceff5ad38e6","system_id":"levelo_inurba_marseille","lat":43.30797,"lon":5.38151,"is_reserved":false,"is_disabled":false,"rental_uris":{"android":"levelo://app?vid=d56b66aa-5043-4450-b88c-fceff5ad38e6","ios":"levelo://app?vid=d56b66aa-5043-4450-b88c-fceff5ad38e6"},"vehicle_type_id":"4","last_reported":1758654478,"current_range_meters":16800,"station_id":"ce4bgt12rcd13ifvqce0","pricing_plan_id":"cebpf4jnsgd1na2vs0mg"},{"bike_id":"ad53b459-78ba-40bc-95af-2c2786ff47ef","system_id":"levelo_inurba_marseille","lat":43.266789,"lon":5.382687,"is_reserved":false,"is_disabled":false,"rental_uris":{"android":"levelo://app?vid=ad53b459-78ba-40bc-95af-2c2786ff47ef","ios":"levelo://app?vid=ad53b459-78ba-40bc-95af-2c2786ff47ef"},"vehicle_type_id":"4","last_reported":1758654478,"current_range_meters":16800,"station_id":"ce4bhg92rcd13ifvqf90","pricing_plan_id":"cebpf4jnsgd1na2vs0mg"},{"bike_id":"aeff8009-2813-4940-8328-64ea13188782","system_id":"levelo_inurba_marseille","lat":43.29273,"lon":5.38439,"is_reserved":false,"is_disabled":false,"rental_uris":{"android":"levelo://app?vid=aeff8009-2813-4940-8328-64ea13188782","ios":"levelo://app?vid=aeff8009-2813-4940-8328-64ea13188782"},"vehicle_type_id":"4","last_reported":1758654478,"current_range_meters":16800,"station_id":"ce4bh692rcd13ifvqea0","pricing_plan_id":"cebpf4jnsgd1na2vs0mg"},{"bike_id":"a02e8d20-ecf4-4275-a385-8d0c2594544d","system_id":"levelo_inurba_marseille","lat":43.29614,"lon":5.381211,"is_reserved":false,"is_disabled":false,"rental_uris":{"android":"levelo://app?vid=a02e8d20-ecf4-4275-a385-8d0c2594544d","ios":"levelo://app?vid=a02e8d20-ecf4-4275-a385-8d0c2594544d"},"vehicle_type_id":"4","last_reported":1758654478,"current_range_meters":16800,"station_id":"ce4bgl12rcd13ifvqbo0","pricing_plan_id":"cebpf4jnsgd1na2vs0mg"},{"bike_id":"e65f73d7-da5a-4016-9db2-a209ce44d327","system_id":"levelo_inurba_marseille","lat":43.28613,"lon":5.35107,"is_reserved":false,"is_disabled":false,"rental_uris":{"android":"levelo://app?vid=e65f73d7-da5a-4016-9db2-a209ce44d327","ios":"levelo://app?vid=e65f73d7-da5a-4016-9db2-a209ce44d327"},"vehicle_type_id":"4","last_reported":1758654478,"current_range_meters":16800,"station_id":"ce4bhch2rcd13ifvqeug","pricing_plan_id":"cebpf4jnsgd1na2vs0mg"},{"bike_id":"24f1c4f0-9fd4-4fe7-808c-93dd959e3a6e","system_id":"levelo_inurba_marseille","lat":43.33022,"lon":5.39042,"is_reserved":false,"is_disabled":false,"rental_uris":{"android":"levelo://app?vid=24f1c4f0-9fd4-4fe7-808c-93dd959e3a6e","ios":"levelo://app?vid=24f1c4f0-9fd4-4fe7-808c-93dd959e3a6e"},"vehicle_type_id":"4","last_reported":1758654478,"current_range_meters":17200,"station_id":"ce4bhr92rcd13ifvqhrg","pricing_plan_id":"cebpf4jnsgd1na2vs0mg"},{"bike_id":"d5e7f1db-a250-433c-8992-01d3a8d6d17c","system_id":"levelo_inurba_marseille","lat":43.318205,"lon":5.42275,"is_reserved":false,"is_disabled":false,"rental_uris":{"android":"levelo://app?vid=d5e7f1db-a250-433c-8992-01d3a8d6d17c","ios":"levelo://app?vid=d5e7f1db-a250-433c-8992-01d3a8d6d17c"},"vehicle_type_id":"4","last_reported":1758654478,"current_range_meters":17200,"station_id":"ce4bhp92rcd13ifvqhbg","pricing_plan_id":"cebpf4jnsgd1na2vs0mg"},{"bike_id":"d68b9cdd-055c-48e6-b5c7-c6c683b923e5","system_id":"levelo_inurba_marseille","lat":43.28619,"lon":5.35111,"is_reserved":false,"is_disabled":true,"rental_uris":{"android":"levelo://app?vid=d68b9cdd-055c-48e6-b5c7-c6c683b923e5","ios":"levelo://app?vid=d68b9cdd-055c-48e6-b5c7-c6c683b923e5"},"vehicle_type_id":"4","last_reported":1758654478,"current_range_meters":17200,"station_id":"ce4bhch2rcd13ifvqeug","pricing_plan_id":"cebpf4jnsgd1na2vs0mg"},{"bike_id":"e6a4559e-044b-4fa9-9fe1-3b359406244f","system_id":"levelo_inurba_marseille","lat":43.27995,"lon":5.40024,"is_reserved":false,"is_disabled":false,"rental_uris":{"android":"levelo://app?vid=e6a4559e-044b-4fa9-9fe1-3b359406244f","ios":"levelo://app?vid=e6a4559e-044b-4fa9-9fe1-3b359406244f"},"vehicle_type_id":"4","last_reported":1758654478,"current_range_meters":17200,"station_id":"ce4bho92rcd13ifvqh4g","pricing_plan_id":"cebpf4jnsgd1na2vs0mg"},{"bike_id":"36b070bb-df09-4433-b99c-aab79ada22d5","system_id":"levelo_inurba_marseille","lat":43.29287,"lon":5.3744,"is_reserved":false,"is_disabled":false,"rental_uris":{"android":"levelo://app?vid=36b070bb-df09-4433-b99c-aab79ada22d5","ios":"levelo://app?vid=36b070bb-df09-4433-b99c-aab79ada22d5"},"vehicle_type_id":"4","last_reported":1758654478,"current_range_meters":17200,"station_id":"","pricing_plan_id":"cebpf4jnsgd1na2vs0mg"},{"bike_id":"1f366195-0f7d-42ef-bd0c-4c9914cdfa9a","system_id":"levelo_inurba_marseille","lat":43.295361,"lon":5.385523,"is_reserved":false,"is_disabled":false,"rental_uris":{"android":"levelo://app?vid=1f366195-0f7d-42ef-bd0c-4c9914cdfa9a","ios":"levelo://app?vid=1f366195-0f7d-42ef-bd0c-4c9914cdfa9a"},"vehicle_type_id":"4","last_reported":1758654478,"current_range_meters":17200,"station_id":"ce4bgih2rcd13ifvqba0","pricing_plan_id":"cebpf4jnsgd1na2vs0mg"},{"bike_id":"0412dbb0-08ae-49a0-afef-1ad2c96f78ef","system_id":"levelo_inurba_marseille","lat":43.26569,"lon":5.40325,"is_reserved":false,"is_disabled":false,"rental_uris":{"android":"levelo://app?vid=0412dbb0-08ae-49a0-afef-1ad2c96f78ef","ios":"levelo://app?vid=0412dbb0-08ae-49a0-afef-1ad2c96f78ef"},"vehicle_type_id":"4","last_reported":1758654478,"current_range_meters":17200,"station_id":"ce4bhmp2rcd13ifvqgng","pricing_plan_id":"cebpf4jnsgd1na2vs0mg"},{"bike_id":"f8c06f7d-03bd-4462-954a-b00f606bc63d","system_id":"levelo_inurba_marseille","lat":43.253304,"lon":5.421712,"is_reserved":false,"is_disabled":false,"rental_uris":{"android":"levelo://app?vid=f8c06f7d-03bd-4462-954a-b00f606bc63d","ios":"levelo://app?vid=f8c06f7d-03bd-4462-954a-b00f606bc63d"},"vehicle_type_id":"4","last_reported":1758654478,"current_range_meters":17600,"station_id":"st_d2m65c5bi1j21697t3ng","pricing_plan_id":"cebpf4jnsgd1na2vs0mg"},{"bike_id":"ef00c611-56e3-4d87-83a8-6fad9627913a","system_id":"levelo_inurba_marseille","lat":43.308894,"lon":5.371943,"is_reserved":false,"is_disabled":false,"rental_uris":{"android":"levelo://app?vid=ef00c611-56e3-4d87-83a8-6fad9627913a","ios":"levelo://app?vid=ef00c611-56e3-4d87-83a8-6fad9627913a"},"vehicle_type_id":"4","last_reported":1758654478,"current_range_meters":17600,"station_id":"ce4bguh2rcd13ifvqckg","pricing_plan_id":"cebpf4jnsgd1na2vs0mg"},{"bike_id":"0ee7c44f-23ce-458a-9e87-469204bb5d2d","system_id":"levelo_inurba_marseille","lat":43.29991,"lon":5.40109,"is_reserved":false,"is_disabled":false,"rental_uris":{"android":"levelo://app?vid=0ee7c44f-23ce-458a-9e87-469204bb5d2d","ios":"levelo://app?vid=0ee7c44f-23ce-458a-9e87-469204bb5d2d"},"vehicle_type_id":"4","last_reported":1758654478,"current_range_meters":17600,"station_id":"","pricing_plan_id":"cebpf4jnsgd1na2vs0mg"},{"bike_id":"e9d5154a-0471-4aea-b4f4-5ebe242279c1","system_id":"levelo_inurba_marseille","lat":43.28224,"lon":5.39072,"is_reserved":false,"is_disabled":false,"rental_uris":{"android":"levelo://app?vid=e9d5154a-0471-4aea-b4f4-5ebe242279c1","ios":"levelo://app?vid=e9d5154a-0471-4aea-b4f4-5ebe242279c1"},"vehicle_type_id":"4","last_reported":1758654478,"current_range_meters":17600,"station_id":"ce4bhn92rcd13ifvqgsg","pricing_plan_id":"cebpf4jnsgd1na2vs0mg"},{"bike_id":"817a7689-6721-44f0-8d80-02a933ee2211","system_id":"levelo_inurba_marseille","lat":43.32497,"lon":5.41523,"is_reserved":false,"is_disabled":false,"rental_uris":{"android":"levelo://app?vid=817a7689-6721-44f0-8d80-02a933ee2211","ios":"levelo://app?vid=817a7689-6721-44f0-8d80-02a933ee2211"},"vehicle_type_id":"4","last_reported":1758654478,"current_range_meters":17600,"station_id":"","pricing_plan_id":"cebpf4jnsgd1na2vs0mg"},{"bike_id":"aeb210d1-d893-4162-9b85-83121db737e0","system_id":"levelo_inurba_marseille","lat":43.3012,"lon":5.39877,"is_reserved":false,"is_disabled":false,"rental_uris":{"android":"levelo://app?vid=aeb210d1-d893-4162-9b85-83121db737e0","ios":"levelo://app?vid=aeb210d1-d893-4162-9b85-83121db737e0"},"vehicle_type_id":"4","last_reported":1758654478,"current_range_meters":17600,"station_id":"ce4bh0h2rcd13ifvqd40","pricing_plan_id":"cebpf4jnsgd1na2vs0mg"},{"bike_id":"f4065818-e2c9-4ada-baf1-0e205374aea3","system_id":"levelo_inurba_marseille","lat":43.31332,"lon":5.39699,"is_reserved":false,"is_disabled":false,"rental_uris":{"android":"levelo://app?vid=f4065818-e2c9-4ada-baf1-0e205374aea3","ios":"levelo://app?vid=f4065818-e2c9-4ada-baf1-0e205374aea3"},"vehicle_type_id":"4","last_reported":1758654478,"current_range_meters":17600,"station_id":"ce4bgvp2rcd13ifvqcu0","pricing_plan_id":"cebpf4jnsgd1na2vs0mg"},{"bike_id":"da1711f5-0094-4af0-8ba4-2a480898d938","system_id":"levelo_inurba_marseille","lat":43.29324,"lon":5.37407,"is_reserved":false,"is_disabled":false,"rental_uris":{"android":"levelo://app?vid=da1711f5-0094-4af0-8ba4-2a480898d938","ios":"levelo://app?vid=da1711f5-0094-4af0-8ba4-2a480898d938"},"vehicle_type_id":"4","last_reported":1758654478,"current_range_meters":17600,"station_id":"ce4bgi12rcd13ifvqb70","pricing_plan_id":"cebpf4jnsgd1na2vs0mg"},{"bike_id":"f46b9806-b0c0-4e5e-9703-6682f4eeb8ed","system_id":"levelo_inurba_marseille","lat":43.260634,"lon":5.394014,"is_reserved":false,"is_disabled":false,"rental_uris":{"android":"levelo://app?vid=f46b9806-b0c0-4e5e-9703-6682f4eeb8ed","ios":"levelo://app?vid=f46b9806-b0c0-4e5e-9703-6682f4eeb8ed"},"vehicle_type_id":"4","last_reported":1758654478,"current_range_meters":17600,"station_id":"ce4bhh92rcd13ifvqfj0","pricing_plan_id":"cebpf4jnsgd1na2vs0mg"},{"bike_id":"b48e70b2-53f1-4641-819c-a53cac59b8ed","system_id":"levelo_inurba_marseille","lat":43.258241,"lon":5.39439,"is_reserved":false,"is_disabled":false,"rental_uris":{"android":"levelo://app?vid=b48e70b2-53f1-4641-819c-a53cac59b8ed","ios":"levelo://app?vid=b48e70b2-53f1-4641-819c-a53cac59b8ed"},"vehicle_type_id":"4","last_reported":1758654478,"current_range_meters":17600,"station_id":"ce4bhip2rcd13ifvqft0","pricing_plan_id":"cebpf4jnsgd1na2vs0mg"},{"bike_id":"cb9bf425-655c-4d43-a4f3-ff5777bddbc6","system_id":"levelo_inurba_marseille","lat":43.284595,"lon":5.358803,"is_reserved":false,"is_disabled":false,"rental_uris":{"android":"levelo://app?vid=cb9bf425-655c-4d43-a4f3-ff5777bddbc6","ios":"levelo://app?vid=cb9bf425-655c-4d43-a4f3-ff5777bddbc6"},"vehicle_type_id":"4","last_reported":1758654478,"current_range_meters":17600,"station_id":"ce4bhah2rcd13ifvqei0","pricing_plan_id":"cebpf4jnsgd1na2vs0mg"},{"bike_id":"12daa927-cdf2-4554-b237-0c08d5659292","system_id":"levelo_inurba_marseille","lat":43.2799,"lon":5.40021,"is_reserved":false,"is_disabled":false,"rental_uris":{"android":"levelo://app?vid=12daa927-cdf2-4554-b237-0c08d5659292","ios":"levelo://app?vid=12daa927-cdf2-4554-b237-0c08d5659292"},"vehicle_type_id":"4","last_reported":1758654478,"current_range_meters":17600,"station_id":"ce4bho92rcd13ifvqh4g","pricing_plan_id":"cebpf4jnsgd1na2vs0mg"},{"bike_id":"8c0227e3-55e8-4994-aa0c-9b6ee99b7e26","system_id":"levelo_inurba_marseille","lat":43.23061,"lon":5.35497,"is_reserved":false,"is_disabled":false,"rental_uris":{"android":"levelo://app?vid=8c0227e3-55e8-4994-aa0c-9b6ee99b7e26","ios":"levelo://app?vid=8c0227e3-55e8-4994-aa0c-9b6ee99b7e26"},"vehicle_type_id":"4","last_reported":1758654478,"current_range_meters":18000,"station_id":"cpo3342slgdg3j2ifvpg","pricing_plan_id":"cebpf4jnsgd1na2vs0mg"},{"bike_id":"f1109d1c-3dfd-4013-af5e-deeaec240c17","system_id":"levelo_inurba_marseille","lat":43.32113,"lon":5.36765,"is_reserved":false,"is_disabled":false,"rental_uris":{"android":"levelo://app?vid=f1109d1c-3dfd-4013-af5e-deeaec240c17","ios":"levelo://app?vid=f1109d1c-3dfd-4013-af5e-deeaec240c17"},"vehicle_type_id":"4","last_reported":1758654478,"current_range_meters":18000,"station_id":"ce4bhrh2rcd13ifvqhug","pricing_plan_id":"cebpf4jnsgd1na2vs0mg"},{"bike_id":"57b14c92-2a17-45b3-beb1-cbb460ef441b","system_id":"levelo_inurba_marseille","lat":43.23192,"lon":5.4002,"is_reserved":false,"is_disabled":false,"rental_uris":{"android":"levelo://app?vid=57b14c92-2a17-45b3-beb1-cbb460ef441b","ios":"levelo://app?vid=57b14c92-2a17-45b3-beb1-cbb460ef441b"},"vehicle_type_id":"4","last_reported":1758654478,"current_range_meters":18000,"station_id":"ce4bhn12rcd13ifvqgqg","pricing_plan_id":"cebpf4jnsgd1na2vs0mg"},{"bike_id":"787fb8c7-9cda-4d69-b8c5-42fcd262adf0","system_id":"levelo_inurba_marseille","lat":43.28348,"lon":5.38651,"is_reserved":false,"is_disabled":true,"rental_uris":{"android":"levelo://app?vid=787fb8c7-9cda-4d69-b8c5-42fcd262adf0","ios":"levelo://app?vid=787fb8c7-9cda-4d69-b8c5-42fcd262adf0"},"vehicle_type_id":"4","last_reported":1758654478,"current_range_meters":18000,"station_id":"ce4bh492rcd13ifvqdvg","pricing_plan_id":"cebpf4jnsgd1na2vs0mg"},{"bike_id":"a851cae0-b395-441e-9dd1-21300baf3396","system_id":"levelo_inurba_marseille","lat":43.31512,"lon":5.3871,"is_reserved":false,"is_disabled":false,"rental_uris":{"android":"levelo://app?vid=a851cae0-b395-441e-9dd1-21300baf3396","ios":"levelo://app?vid=a851cae0-b395-441e-9dd1-21300baf3396"},"vehicle_type_id":"4","last_reported":1758654478,"current_range_meters":18000,"station_id":"","pricing_plan_id":"cebpf4jnsgd1na2vs0mg"},{"bike_id":"3df2f030-fc4d-4c67-bde1-11bdf3af76d8","system_id":"levelo_inurba_marseille","lat":43.31358,"lon":5.38497,"is_reserved":false,"is_disabled":false,"rental_uris":{"android":"levelo://app?vid=3df2f030-fc4d-4c67-bde1-11bdf3af76d8","ios":"levelo://app?vid=3df2f030-fc4d-4c67-bde1-11bdf3af76d8"},"vehicle_type_id":"4","last_reported":1758654478,"current_range_meters":18000,"station_id":"ce4bgt92rcd13ifvqcf0","pricing_plan_id":"cebpf4jnsgd1na2vs0mg"},{"bike_id":"bf7922d8-f04c-44a6-912b-505ec561dd82","system_id":"levelo_inurba_marseille","lat":43.28154,"lon":5.4265,"is_reserved":false,"is_disabled":false,"rental_uris":{"android":"levelo://app?vid=bf7922d8-f04c-44a6-912b-505ec561dd82","ios":"levelo://app?vid=bf7922d8-f04c-44a6-912b-505ec561dd82"},"vehicle_type_id":"4","last_reported":1758654478,"current_range_meters":18000,"station_id":"ce4bhnh2rcd13ifvqgug","pricing_plan_id":"cebpf4jnsgd1na2vs0mg"},{"bike_id":"74b7cf0c-4054-48b9-8478-1319b7e85efb","system_id":"levelo_inurba_marseille","lat":43.28704,"lon":5.37387,"is_reserved":false,"is_disabled":false,"rental_uris":{"android":"levelo://app?vid=74b7cf0c-4054-48b9-8478-1319b7e85efb","ios":"levelo://app?vid=74b7cf0c-4054-48b9-8478-1319b7e85efb"},"vehicle_type_id":"4","last_reported":1758654478,"current_range_meters":18000,"station_id":"ce4bh3p2rcd13ifvqdq0","pricing_plan_id":"cebpf4jnsgd1na2vs0mg"},{"bike_id":"8bff35f1-befa-4da1-b2ee-743b29668c88","system_id":"levelo_inurba_marseille","lat":43.28964,"lon":5.36427,"is_reserved":false,"is_disabled":false,"rental_uris":{"android":"levelo://app?vid=8bff35f1-befa-4da1-b2ee-743b29668c88","ios":"levelo://app?vid=8bff35f1-befa-4da1-b2ee-743b29668c88"},"vehicle_type_id":"4","last_reported":1758654478,"current_range_meters":17600,"station_id":"ce4bhc92rcd13ifvqetg","pricing_plan_id":"cebpf4jnsgd1na2vs0mg"},{"bike_id":"e2017298-7010-4fcc-9644-9ccfb0f46125","system_id":"levelo_inurba_marseille","lat":43.30124,"lon":5.4153,"is_reserved":false,"is_disabled":false,"rental_uris":{"android":"levelo://app?vid=e2017298-7010-4fcc-9644-9ccfb0f46125","ios":"levelo://app?vid=e2017298-7010-4fcc-9644-9ccfb0f46125"},"vehicle_type_id":"4","last_reported":1758654478,"current_range_meters":18000,"station_id":"","pricing_plan_id":"cebpf4jnsgd1na2vs0mg"},{"bike_id":"1b73a7dd-d0a8-4ce2-b0c4-81360391abb5","system_id":"levelo_inurba_marseille","lat":43.29026,"lon":5.37567,"is_reserved":false,"is_disabled":false,"rental_uris":{"android":"levelo://app?vid=1b73a7dd-d0a8-4ce2-b0c4-81360391abb5","ios":"levelo://app?vid=1b73a7dd-d0a8-4ce2-b0c4-81360391abb5"},"vehicle_type_id":"4","last_reported":1758654478,"current_range_meters":18000,"station_id":"ce4bh692rcd13ifvqe90","pricing_plan_id":"cebpf4jnsgd1na2vs0mg"},{"bike_id":"67c0d94f-0ed1-433b-bbf5-2d76ec32f766","system_id":"levelo_inurba_marseille","lat":43.29916,"lon":5.37497,"is_reserved":false,"is_disabled":false,"rental_uris":{"android":"levelo://app?vid=67c0d94f-0ed1-433b-bbf5-2d76ec32f766","ios":"levelo://app?vid=67c0d94f-0ed1-433b-bbf5-2d76ec32f766"},"vehicle_type_id":"4","last_reported":1758654478,"current_range_meters":18800,"station_id":"ce4bgjh2rcd13ifvqbg0","pricing_plan_id":"cebpf4jnsgd1na2vs0mg"},{"bike_id":"3cb1dae7-6bcd-41e5-b1b7-c1d25c751a99","system_id":"levelo_inurba_marseille","lat":43.337594,"lon":5.374419,"is_reserved":false,"is_disabled":false,"rental_uris":{"android":"levelo://app?vid=3cb1dae7-6bcd-41e5-b1b7-c1d25c751a99","ios":"levelo://app?vid=3cb1dae7-6bcd-41e5-b1b7-c1d25c751a99"},"vehicle_type_id":"4","last_reported":1758654478,"current_range_meters":18800,"station_id":"","pricing_plan_id":"cebpf4jnsgd1na2vs0mg"},{"bike_id":"e758b01b-ca98-467a-bdcc-b51ccfc96ed6","system_id":"levelo_inurba_marseille","lat":43.33787,"lon":5.3748,"is_reserved":false,"is_disabled":false,"rental_uris":{"android":"levelo://app?vid=e758b01b-ca98-467a-bdcc-b51ccfc96ed6","ios":"levelo://app?vid=e758b01b-ca98-467a-bdcc-b51ccfc96ed6"},"vehicle_type_id":"4","last_reported":1758654478,"current_range_meters":18800,"station_id":"","pricing_plan_id":"cebpf4jnsgd1na2vs0mg"},{"bike_id":"6e096c1f-ab29-40db-8160-ca57d01233ba","system_id":"levelo_inurba_marseille","lat":43.31541,"lon":5.38018,"is_reserved":false,"is_disabled":false,"rental_uris":{"android":"levelo://app?vid=6e096c1f-ab29-40db-8160-ca57d01233ba","ios":"levelo://app?vid=6e096c1f-ab29-40db-8160-ca57d01233ba"},"vehicle_type_id":"4","last_reported":1758654478,"current_range_meters":18800,"station_id":"ce4bhsp2rcd13ifvqi50","pricing_plan_id":"cebpf4jnsgd1na2vs0mg"},{"bike_id":"e19472f1-87e0-4943-97f3-e785d2a10054","system_id":"levelo_inurba_marseille","lat":43.28882,"lon":5.4254,"is_reserved":false,"is_disabled":false,"rental_uris":{"android":"levelo://app?vid=e19472f1-87e0-4943-97f3-e785d2a10054","ios":"levelo://app?vid=e19472f1-87e0-4943-97f3-e785d2a10054"},"vehicle_type_id":"4","last_reported":1758654478,"current_range_meters":18800,"station_id":"","pricing_plan_id":"cebpf4jnsgd1na2vs0mg"},{"bike_id":"db310650-7b1f-40b5-84aa-9d24d957ca95","system_id":"levelo_inurba_marseille","lat":43.31526,"lon":5.38036,"is_reserved":false,"is_disabled":false,"rental_uris":{"android":"levelo://app?vid=db310650-7b1f-40b5-84aa-9d24d957ca95","ios":"levelo://app?vid=db310650-7b1f-40b5-84aa-9d24d957ca95"},"vehicle_type_id":"4","last_reported":1758654478,"current_range_meters":20000,"station_id":"ce4bhsp2rcd13ifvqi50","pricing_plan_id":"cebpf4jnsgd1na2vs0mg"},{"bike_id":"f51c1abc-0c02-4215-b3ba-2a93ae8d5cfd","system_id":"levelo_inurba_marseille","lat":43.32368,"lon":5.38883,"is_reserved":false,"is_disabled":false,"rental_uris":{"android":"levelo://app?vid=f51c1abc-0c02-4215-b3ba-2a93ae8d5cfd","ios":"levelo://app?vid=f51c1abc-0c02-4215-b3ba-2a93ae8d5cfd"},"vehicle_type_id":"4","last_reported":1758654478,"current_range_meters":18800,"station_id":"ce4bhqp2rcd13ifvqhog","pricing_plan_id":"cebpf4jnsgd1na2vs0mg"},{"bike_id":"03849a70-d7ef-41f8-88ba-159277ee2a59","system_id":"levelo_inurba_marseille","lat":43.29267,"lon":5.38434,"is_reserved":false,"is_disabled":false,"rental_uris":{"android":"levelo://app?vid=03849a70-d7ef-41f8-88ba-159277ee2a59","ios":"levelo://app?vid=03849a70-d7ef-41f8-88ba-159277ee2a59"},"vehicle_type_id":"4","last_reported":1758654478,"current_range_meters":19200,"station_id":"ce4bh692rcd13ifvqea0","pricing_plan_id":"cebpf4jnsgd1na2vs0mg"},{"bike_id":"6be0e269-722d-4703-a73b-0b24dbae26f8","system_id":"levelo_inurba_marseille","lat":43.28941,"lon":5.36639,"is_reserved":false,"is_disabled":false,"rental_uris":{"android":"levelo://app?vid=6be0e269-722d-4703-a73b-0b24dbae26f8","ios":"levelo://app?vid=6be0e269-722d-4703-a73b-0b24dbae26f8"},"vehicle_type_id":"4","last_reported":1758654478,"current_range_meters":19200,"station_id":"ce4bhap2rcd13ifvqek0","pricing_plan_id":"cebpf4jnsgd1na2vs0mg"},{"bike_id":"0afddaf2-b693-441a-8462-07795becb654","system_id":"levelo_inurba_marseille","lat":43.3229,"lon":5.38259,"is_reserved":false,"is_disabled":false,"rental_uris":{"android":"levelo://app?vid=0afddaf2-b693-441a-8462-07795becb654","ios":"levelo://app?vid=0afddaf2-b693-441a-8462-07795becb654"},"vehicle_type_id":"4","last_reported":1758654478,"current_range_meters":19200,"station_id":"ce4bhr12rcd13ifvqhqg","pricing_plan_id":"cebpf4jnsgd1na2vs0mg"},{"bike_id":"04ab470d-efc4-4dd7-becf-d8d6e661896d","system_id":"levelo_inurba_marseille","lat":43.29686,"lon":5.37289,"is_reserved":false,"is_disabled":false,"rental_uris":{"android":"levelo://app?vid=04ab470d-efc4-4dd7-becf-d8d6e661896d","ios":"levelo://app?vid=04ab470d-efc4-4dd7-becf-d8d6e661896d"},"vehicle_type_id":"4","last_reported":1758654478,"current_range_meters":19200,"station_id":"ce4bgk12rcd13ifvqbj0","pricing_plan_id":"cebpf4jnsgd1na2vs0mg"},{"bike_id":"189e953a-f0f5-4c03-b7b5-2321dcc67751","system_id":"levelo_inurba_marseille","lat":43.29528,"lon":5.39035,"is_reserved":false,"is_disabled":true,"rental_uris":{"android":"levelo://app?vid=189e953a-f0f5-4c03-b7b5-2321dcc67751","ios":"levelo://app?vid=189e953a-f0f5-4c03-b7b5-2321dcc67751"},"vehicle_type_id":"4","last_reported":1758654478,"current_range_meters":19200,"station_id":"ce4bh3p2rcd13ifvqdp0","pricing_plan_id":"cebpf4jnsgd1na2vs0mg"},