{"last_updated":1730740091,"ttl":60,"version":"2.2","data":{"bikes":[{"bike_id":"2de734db-7500-4e0f-a5d5-b73454ba31e1","system_id":"levelo_inurba_marseille","lat":43.28711,"lon":5.3999,"is_reserved":false,"is_disabled":false,"rental_uris":{"android":"levelo://app?vid=2de734db-7500-4e0f-a5d5-b73454ba31e1","ios":"levelo://app?vid=2de734db-7500-4e0f-a5d5-b73454ba31e1"},"vehicle_type_id":"4","last_reported":1730740091,"current_range_meters":19600,"station_id":"ce4bho92rcd13ifvqh3g","pricing_plan_id":"cebpf4jnsgd1na2vs0mg"},{"bike_id":"c5692c6a-7dc6-4e36-8910-d17bac539f9c","system_id":"levelo_inurba_marseille","lat":43.26219,"lon":5.37445,"is_reserved":false,"is_disabled":false,"rental_uris":{"android":"levelo://app?vid=c5692c6a-7dc6-4e36-8910-d17bac539f9c","ios":"levelo://app?vid=c5692c6a-7dc6-4e36-8910-d17bac539f9c"},"vehicle_type_id":"4","last_reported":1730740091,"current_range_meters":20800,"station_id":"ce4bhlp2rcd13ifvqgjg","pricing_plan_id":"cebpf4jnsgd1na2vs0mg"},{"bike_id":"2b6c8443-1848-4bd1-a5f7-cb79fbd151e5","system_id":"levelo_inurba_marseille","lat":43.28461,"lon":5.35894,"is_reserved":false,"is_disabled":false,"rental_uris":{"android":"levelo://app?vid=2b6c8443-1848-4bd1-a5f7-cb79fbd151e5","ios":"levelo://app?vid=2b6c8443-1848-4bd1-a5f7-cb79fbd151e5"},"vehicle_type_id":"4","last_reported":1730740091,"current_range_meters":35200,"station_id":"ce4bhah2rcd13ifvqei0","pricing_plan_id":"cebpf4jnsgd1na2vs0mg"},{"bike_id":"809ec096-2b1d-47b2-8694-0e61be2d8738","system_id":"levelo_inurba_marseille","lat":43.27632,"lon":5.36107,"is_reserved":false,"is_disabled":false,"rental_uris":{"android":"levelo://app?vid=809ec096-2b1d-47b2-8694-0e61be2d8738","ios":"levelo://app?vid=809ec096-2b1d-47b2-8694-0e61be2d8738"},"vehicle_type_id":"4","last_reported":1730740091,"current_range_meters":11600,"station_id":"ce4bgj92rcd13ifvqbe0","pricing_plan_id":"cebpf4jnsgd1na2vs0mg"},{"bike_id":"48b17310-ca40-48df-a45d-1d7732766389","system_id":"levelo_inurba_marseille","lat":43.28938,"lon":5.39628,"is_reserved":false,"is_disabled":false,"rental_uris":{"android":"levelo://app?vid=48b17310-ca40-48df-a45d-1d7732766389","ios":"levelo://app?vid=48b17310-ca40-48df-a45d-1d7732766389"},"vehicle_type_id":"4","last_reported":1730740091,"current_range_meters":9600,"station_id":"ce4bh3h2rcd13ifvqdn0","pricing_plan_id":"cebpf4jnsgd1na2vs0mg"},{"bike_id":"6b50b699-42bc-438e-ad22-dc1eec7ee64e","system_id":"levelo_inurba_marseille","lat":43.30088,"lon":5.39077,"is_reserved":false,"is_disabled":false,"rental_uris":{"android":"levelo://app?vid=6b50b699-42bc-438e-ad22-dc1eec7ee64e","ios":"levelo://app?vid=6b50b699-42bc-438e-ad22-dc1eec7ee64e"},"vehicle_type_id":"4","last_reported":1730740091,"current_range_meters":40000,"station_id":"ce4bh192rcd13ifvqdb0","pricing_plan_id":"cebpf4jnsgd1na2vs0mg"},{"bike_id":"7d640c47-a4ae-4641-8ed6-4165bb1caeb6","system_id":"levelo_inurba_marseille","lat":43.26491,"lon":5.39548,"is_reserved":false,"is_disabled":false,"rental_uris":{"android":"levelo://app?vid=7d640c47-a4ae-4641-8ed6-4165bb1caeb6","ios":"levelo://app?vid=7d640c47-a4ae-4641-8ed6-4165bb1caeb6"},"vehicle_type_id":"4","last_reported":1730740091,"current_range_meters":38400,"station_id":"ce4bhi12rcd13ifvqfq0","pricing_plan_id":"cebpf4jnsgd1na2vs0mg"},{"bike_id":"b6580bc8-d98b-4752-9794-223fcddd7069","system_id":"levelo_inurba_marseille","lat":43.26199,"lon":5.37925,"is_reserved":false,"is_disabled":false,"rental_uris":{"android":"levelo://app?vid=b6580bc8-d98b-4752-9794-223fcddd7069","ios":"levelo://app?vid=b6580bc8-d98b-4752-9794-223fcddd7069"},"vehicle_type_id":"4","last_reported":1730740091,"current_range_meters":24400,"station_id":"ce4bhjp2rcd13ifvqg90","pricing_plan_id":"cebpf4jnsgd1na2vs0mg"},{"bike_id":"e05927bc-ac05-4b8f-a8c0-068da08a0ef2","system_id":"levelo_inurba_marseille","lat":43.3009,"lon":5.39088,"is_reserved":false,"is_disabled":false,"rental_uris":{"android":"levelo://app?vid=e05927bc-ac05-4b8f-a8c0-068da08a0ef2","ios":"levelo://app?vid=e05927bc-ac05-4b8f-a8c0-068da08a0ef2"},"vehicle_type_id":"4","last_reported":1730740091,"current_range_meters":18800,"station_id":"ce4bh192rcd13ifvqdb0","pricing_plan_id":"cebpf4jnsgd1na2vs0mg"},{"bike_id":"f6f4931e-2ca9-4cbc-8987-312f0acf0b1f","system_id":"levelo_inurba_marseille","lat":43.30894,"lon":5.37196,"is_reserved":false,"is_disabled":false,"rental_uris":{"android":"levelo://app?vid=f6f4931e-2ca9-4cbc-8987-312f0acf0b1f","ios":"levelo://app?vid=f6f4931e-2ca9-4cbc-8987-312f0acf0b1f"},"vehicle_type_id":"4","last_reported":1730740091,"current_range_meters":12400,"station_id":"ce4bguh2rcd13ifvqckg","pricing_plan_id":"cebpf4jnsgd1na2vs0mg"},{"bike_id":"d7680b91-790b-4028-b988-1d6c2608791c","system_id":"levelo_inurba_marseille","lat":43.32363,"lon":5.38885,"is_reserved":false,"is_disabled":false,"rental_uris":{"android":"levelo://app?vid=d7680b91-790b-4028-b988-1d6c2608791c","ios":"levelo://app?vid=d7680b91-790b-4028-b988-1d6c2608791c"},"vehicle_type_id":"4","last_reported":1730740091,"current_range_meters":24400,"station_id":"ce4bhqp2rcd13ifvqhog","pricing_plan_id":"cebpf4jnsgd1na2vs0mg"},{"bike_id":"0ad87dac-cd0f-4b5f-9cd2-a70cf3195a1b","system_id":"levelo_inurba_marseille","lat":43.32366,"lon":5.38883,"is_reserved":false,"is_disabled":false,"rental_uris":{"android":"levelo://app?vid=0ad87dac-cd0f-4b5f-9cd2-a70cf3195a1b","ios":"levelo://app?vid=0ad87dac-cd0f-4b5f-9cd2-a70cf3195a1b"},"vehicle_type_id":"4","last_reported":1730740091,"current_range_meters":2000,"station_id":"ce4bhqp2rcd13ifvqhog","pricing_plan_id":"cebpf4jnsgd1na2vs0mg"},{"bike_id":"cf19e645-54c2-4635-906a-eea2e8a28adb","system_id":"levelo_inurba_marseille","lat":43.29037,"lon":5.38638,"is_reserved":false,"is_disabled":false,"rental_uris":{"android":"levelo://app?vid=cf19e645-54c2-4635-906a-eea2e8a28adb","ios":"levelo://app?vid=cf19e645-54c2-4635-906a-eea2e8a28adb"},"vehicle_type_id":"4","last_reported":1730740091,"current_range_meters":10000,"station_id":"ce4bh4p2rcd13ifvqe0g","pricing_plan_id":"cebpf4jnsgd1na2vs0mg"},{"bike_id":"4147bbfb-4b14-4aca-b782-8ec6c0473609","system_id":"levelo_inurba_marseille","lat":43.23602,"lon":5.40349,"is_reserved":false,"is_disabled":false,"rental_uris":{"android":"levelo://app?vid=4147bbfb-4b14-4aca-b782-8ec6c0473609","ios":"levelo://app?vid=4147bbfb-4b14-4aca-b782-8ec6c0473609"},"vehicle_type_id":"4","last_reported":1730740091,"current_range_meters":13600,"station_id":"","pricing_plan_id":"cebpf4jnsgd1na2vs0mg"},{"bike_id":"273e1c6e-88e9-427a-9e07-6f62ccf2f09c","system_id":"levelo_inurba_marseille","lat":43.304643,"lon":5.389335,"is_reserved":false,"is_disabled":false,"rental_uris":{"android":"levelo://app?vid=273e1c6e-88e9-427a-9e07-6f62ccf2f09c","ios":"levelo://app?vid=273e1c6e-88e9-427a-9e07-6f62ccf2f09c"},"vehicle_type_id":"4","last_reported":1730740091,"current_range_meters":24800,"station_id":"ce4bgk12rcd13ifvqbi0","pricing_plan_id":"cebpf4jnsgd1na2vs0mg"},{"bike_id":"7116e2f1-abfa-4754-ba08-be01a3375860","system_id":"levelo_inurba_marseille","lat":43.27835,"lon":5.39212,"is_reserved":false,"is_disabled":false,"rental_uris":{"android":"levelo://app?vid=7116e2f1-abfa-4754-ba08-be01a3375860","ios":"levelo://app?vid=7116e2f1-abfa-4754-ba08-be01a3375860"},"vehicle_type_id":"4","last_reported":1730740091,"current_range_meters":34000,"station_id":"ce4bhjp2rcd13ifvqga0","pricing_plan_id":"cebpf4jnsgd1na2vs0mg"},{"bike_id":"057d5ad8-ffab-452a-b1d2-5238de118f5c","system_id":"levelo_inurba_marseille","lat":43.25119,"lon":5.4032,"is_reserved":false,"is_disabled":false,"rental_uris":{"android":"levelo://app?vid=057d5ad8-ffab-452a-b1d2-5238de118f5c","ios":"levelo://app?vid=057d5ad8-ffab-452a-b1d2-5238de118f5c"},"vehicle_type_id":"4","last_reported":1730740091,"current_range_meters":29600,"station_id":"ce4bhlh2rcd13ifvqgig","pricing_plan_id":"cebpf4jnsgd1na2vs0mg"},{"bike_id":"f60a19d9-ea00-431c-ad71-fad1c6d773bd","system_id":"levelo_inurba_marseille","lat":43.25113,"lon":5.40318,"is_reserved":false,"is_disabled":false,"rental_uris":{"android":"levelo://app?vid=f60a19d9-ea00-431c-ad71-fad1c6d773bd","ios":"levelo://app?vid=f60a19d9-ea00-431c-ad71-fad1c6d773bd"},"vehicle_type_id":"4","last_reported":1730740091,"current_range_meters":25600,"station_id":"ce4bhlh2rcd13ifvqgig","pricing_plan_id":"cebpf4jnsgd1na2vs0mg"},{"bike_id":"47662166-db17-4d16-a97b-519c42566d41","system_id":"levelo_inurba_marseille","lat":43.27812,"lon":5.40717,"is_reserved":false,"is_disabled":false,"rental_uris":{"android":"levelo://app?vid=47662166-db17-4d16-a97b-519c42566d41","ios":"levelo://app?vid=47662166-db17-4d16-a97b-519c42566d41"},"vehicle_type_id":"4","last_reported":1730740091,"current_range_meters":8000,"station_id":"ce4bhnh2rcd13ifvqgtg","pricing_plan_id":"cebpf4jnsgd1na2vs0mg"},{"bike_id":"77e6040e-077a-4822-bbe7-c09819ecc6e9","system_id":"levelo_inurba_marseille","lat":43.29554,"lon":5.42295,"is_reserved":false,"is_disabled":false,"rental_uris":{"android":"levelo://app?vid=77e6040e-077a-4822-bbe7-c09819ecc6e9","ios":"levelo://app?vid=77e6040e-077a-4822-bbe7-c09819ecc6e9"},"vehicle_type_id":"4","last_reported":1730740091,"current_range_meters":12400,"station_id":"ce4bhph2rcd13ifvqhdg","pricing_plan_id":"cebpf4jnsgd1na2vs0mg"},{"bike_id":"5473bf0b-6f83-4939-bb76-c092f0056136","system_id":"levelo_inurba_marseille","lat":43.29852,"lon":5.36284,"is_reserved":false,"is_disabled":false,"rental_uris":{"android":"levelo://app?vid=5473bf0b-6f83-4939-bb76-c092f0056136","ios":"levelo://app?vid=5473bf0b-6f83-4939-bb76-c092f0056136"},"vehicle_type_id":"4","last_reported":1730740091,"current_range_meters":20400,"station_id":"ce4bgpp2rcd13ifvqc3g","pricing_plan_id":"cebpf4jnsgd1na2vs0mg"},{"bike_id":"655abb43-3be7-4d4b-b87e-5f4a06aabbab","system_id":"levelo_inurba_marseille","lat":43.30213,"lon":5.39466,"is_reserved":false,"is_disabled":false,"rental_uris":{"android":"levelo://app?vid=655abb43-3be7-4d4b-b87e-5f4a06aabbab","ios":"levelo://app?vid=655abb43-3be7-4d4b-b87e-5f4a06aabbab"},"vehicle_type_id":"4","last_reported":1730740091,"current_range_meters":6800,"station_id":"ce4bh0p2rcd13ifvqd70","pricing_plan_id":"cebpf4jnsgd1na2vs0mg"},{"bike_id":"68056403-8200-470e-8b9f-a45a106c6e01","system_id":"levelo_inurba_marseille","lat":43.2997,"lon":5.37181,"is_reserved":false,"is_disabled":false,"rental_uris":{"android":"levelo://app?vid=68056403-8200-470e-8b9f-a45a106c6e01","ios":"levelo://app?vid=68056403-8200-470e-8b9f-a45a106c6e01"},"vehicle_type_id":"4","last_reported":1730740091,"current_range_meters":39200,"station_id":"ce4bgr92rcd13ifvqc7g","pricing_plan_id":"cebpf4jnsgd1na2vs0mg"},{"bike_id":"2378f453-72a7-4eb2-ab3b-946285d406fd","system_id":"levelo_inurba_marseille","lat":43.29219,"lon":5.37727,"is_reserved":false,"is_disabled":false,"rental_uris":{"android":"levelo://app?vid=2378f453-72a7-4eb2-ab3b-946285d406fd","ios":"levelo://app?vid=2378f453-72a7-4eb2-ab3b-946285d406fd"},"vehicle_type_id":"4","last_reported":1730740091,"current_range_meters":8000,"station_id":"","pricing_plan_id":"cebpf4jnsgd1na2vs0mg"},{"bike_id":"f0988fd7-d894-452c-b470-8dc5cd7a0e1d","system_id":"levelo_inurba_marseille","lat":43.28439,"lon":5.392,"is_reserved":false,"is_disabled":false,"rental_uris":{"android":"levelo://app?vid=f0988fd7-d894-452c-b470-8dc5cd7a0e1d","ios":"levelo://app?vid=f0988fd7-d894-452c-b470-8dc5cd7a0e1d"},"vehicle_type_id":"4","last_reported":1730740091,"current_range_meters":19200,"station_id":"ce4bhoh2rcd13ifvqh5g","pricing_plan_id":"cebpf4jnsgd1na2vs0mg"},{"bike_id":"4b06723e-5dc4-4a8a-8011-58503bb1b0d9","system_id":"levelo_inurba_marseille","lat":43.28954,"lon":5.36409,"is_reserved":false,"is_disabled":false,"rental_uris":{"android":"levelo://app?vid=4b06723e-5dc4-4a8a-8011-58503bb1b0d9","ios":"levelo://app?vid=4b06723e-5dc4-4a8a-8011-58503bb1b0d9"},"vehicle_type_id":"4","last_reported":1730740091,"current_range_meters":14400,"station_id":"ce4bhc92rcd13ifvqetg","pricing_plan_id":"cebpf4jnsgd1na2vs0mg"},{"bike_id":"1bb6981b-cc35-417d-aa8c-e1a5b9228c71","system_id":"levelo_inurba_marseille","lat":43.278304,"lon":5.391976,"is_reserved":false,"is_disabled":false,"rental_uris":{"android":"levelo://app?vid=1bb6981b-cc35-417d-aa8c-e1a5b9228c71","ios":"levelo://app?vid=1bb6981b-cc35-417d-aa8c-e1a5b9228c71"},"vehicle_type_id":"4","last_reported":1730740091,"current_range_meters":39200,"station_id":"ce4bhjp2rcd13ifvqga0","pricing_plan_id":"cebpf4jnsgd1na2vs0mg"},{"bike_id":"0b7d0ae7-ffeb-4496-8142-829148a60016","system_id":"levelo_inurba_marseille","lat":43.291903,"lon":5.380033,"is_reserved":false,"is_disabled":false,"rental_uris":{"android":"levelo://app?vid=0b7d0ae7-ffeb-4496-8142-829148a60016","ios":"levelo://app?vid=0b7d0ae7-ffeb-4496-8142-829148a60016"},"vehicle_type_id":"4","last_reported":1730740091,"current_range_meters":20400,"station_id":"ce4bhb12rcd13ifvqel0","pricing_plan_id":"cebpf4jnsgd1na2vs0mg"},{"bike_id":"97b2308a-8548-475f-9626-d340283d6c59","system_id":"levelo_inurba_marseille","lat":43.26209,"lon":5.37446,"is_reserved":false,"is_disabled":false,"rental_uris":{"android":"levelo://app?vid=97b2308a-8548-475f-9626-d340283d6c59","ios":"levelo://app?vid=97b2308a-8548-475f-9626-d340283d6c59"},"vehicle_type_id":"4","last_reported":1730740091,"current_range_meters":19600,"station_id":"ce4bhgp2rcd13ifvqfc0","pricing_plan_id":"cebpf4jnsgd1na2vs0mg"},{"bike_id":"e12d7650-f1b2-4c4b-8eb8-23651f70543b","system_id":"levelo_inurba_marseille","lat":43.32367,"lon":5.38881,"is_reserved":false,"is_disabled":false,"rental_uris":{"android":"levelo://app?vid=e12d7650-f1b2-4c4b-8eb8-23651f70543b","ios":"levelo://app?vid=e12d7650-f1b2-4c4b-8eb8-23651f70543b"},"vehicle_type_id":"4","last_reported":1730740091,"current_range_meters":14800,"station_id":"ce4bhqp2rcd13ifvqhog","pricing_plan_id":"cebpf4jnsgd1na2vs0mg"},{"bike_id":"88040fe9-75b2-47e3-a3d6-73a94033b14c","system_id":"levelo_inurba_marseille","lat":43.309,"lon":5.36846,"is_reserved":false,"is_disabled":false,"rental_uris":{"android":"levelo://app?vid=88040fe9-75b2-47e3-a3d6-73a94033b14c","ios":"levelo://app?vid=88040fe9-75b2-47e3-a3d6-73a94033b14c"},"vehicle_type_id":"4","last_reported":1730740091,"current_range_meters":7200,"station_id":"ce4bgn92rcd13ifvqbvg","pricing_plan_id":"cebpf4jnsgd1na2vs0mg"},{"bike_id":"ff04c4f0-d503-4807-9cb5-abc54912560f","system_id":"levelo_inurba_marseille","lat":43.29882,"lon":5.39735,"is_reserved":false,"is_disabled":false,"rental_uris":{"android":"levelo://app?vid=ff04c4f0-d503-4807-9cb5-abc54912560f","ios":"levelo://app?vid=ff04c4f0-d503-4807-9cb5-abc54912560f"},"vehicle_type_id":"4","last_reported":1730740091,"current_range_meters":37600,"station_id":"ce4bh0h2rcd13ifvqd50","pricing_plan_id":"cebpf4jnsgd1na2vs0mg"},{"bike_id":"19505a76-095a-4d4b-aea1-1efd3b3c4792","system_id":"levelo_inurba_marseille","lat":43.25865,"lon":5.39908,"is_reserved":false,"is_disabled":false,"rental_uris":{"android":"levelo://app?vid=19505a76-095a-4d4b-aea1-1efd3b3c4792","ios":"levelo://app?vid=19505a76-095a-4d4b-aea1-1efd3b3c4792"},"vehicle_type_id":"4","last_reported":1730740091,"current_range_meters":27600,"station_id":"ce4bhl92rcd13ifvqghg","pricing_plan_id":"cebpf4jnsgd1na2vs0mg"},{"bike_id":"bfb4e9f1-502b-4eee-ad84-0c905afe5629","system_id":"levelo_inurba_marseille","lat":43.32482,"lon":5.36574,"is_reserved":false,"is_disabled":false,"rental_uris":{"android":"levelo://app?vid=bfb4e9f1-502b-4eee-ad84-0c905afe5629","ios":"levelo://app?vid=bfb4e9f1-502b-4eee-ad84-0c905afe5629"},"vehicle_type_id":"4","last_reported":1730740091,"current_range_meters":28400,"station_id":"ce4bhs12rcd13ifvqhvg","pricing_plan_id":"cebpf4jnsgd1na2vs0mg"},{"bike_id":"fa91f0d3-8c33-4dbd-8d60-7e88c49d100c","system_id":"levelo_inurba_marseille","lat":43.25113,"lon":5.40321,"is_reserved":false,"is_disabled":false,"rental_uris":{"android":"levelo://app?vid=fa91f0d3-8c33-4dbd-8d60-7e88c49d100c","ios":"levelo://app?vid=fa91f0d3-8c33-4dbd-8d60-7e88c49d100c"},"vehicle_type_id":"4","last_reported":1730740091,"current_range_meters":25200,"station_id":"ce4bhlh2rcd13ifvqgig","pricing_plan_id":"cebpf4jnsgd1na2vs0mg"},{"bike_id":"0688e1f9-1bf1-4863-9a6f-f01b30b1aed3","system_id":"levelo_inurba_marseille","lat":43.28465,"lon":5.35886,"is_reserved":false,"is_disabled":false,"rental_uris":{"android":"levelo://app?vid=0688e1f9-1bf1-4863-9a6f-f01b30b1aed3","ios":"levelo://app?vid=0688e1f9-1bf1-4863-9a6f-f01b30b1aed3"},"vehicle_type_id":"4","last_reported":1730740091,"current_range_meters":19200,"station_id":"ce4bhah2rcd13ifvqei0","pricing_plan_id":"cebpf4jnsgd1na2vs0mg"},{"bike_id":"15ccbf1d-f88c-4c09-962f-8c8a88988eb9","system_id":"levelo_inurba_marseille","lat":43.30133,"lon":5.39873,"is_reserved":false,"is_disabled":false,"rental_uris":{"android":"levelo://app?vid=15ccbf1d-f88c-4c09-962f-8c8a88988eb9","ios":"levelo://app?vid=15ccbf1d-f88c-4c09-962f-8c8a88988eb9"},"vehicle_type_id":"4","last_reported":1730740091,"current_range_meters":38800,"station_id":"ce4bh0h2rcd13ifvqd40","pricing_plan_id":"cebpf4jnsgd1na2vs0mg"},{"bike_id":"146d97b6-f2dc-4480-a68d-b214db281df8","system_id":"levelo_inurba_marseille","lat":43.29304,"lon":5.37179,"is_reserved":false,"is_disabled":false,"rental_uris":{"android":"levelo://app?vid=146d97b6-f2dc-4480-a68d-b214db281df8","ios":"levelo://app?vid=146d97b6-f2dc-4480-a68d-b214db281df8"},"vehicle_type_id":"4","last_reported":1730740091,"current_range_meters":26000,"station_id":"ce4bgh92rcd13ifvqb40","pricing_plan_id":"cebpf4jnsgd1na2vs0mg"},{"bike_id":"c7e8b2dd-03b8-443f-87df-d3e959ef07b4","system_id":"levelo_inurba_marseille","lat":43.279053,"lon":5.380052,"is_reserved":false,"is_disabled":false,"rental_uris":{"android":"levelo://app?vid=c7e8b2dd-03b8-443f-87df-d3e959ef07b4","ios":"levelo://app?vid=c7e8b2dd-03b8-443f-87df-d3e959ef07b4"},"vehicle_type_id":"4","last_reported":1730740091,"current_range_meters":12800,"station_id":"ce4bhf92rcd13ifvqf50","pricing_plan_id":"cebpf4jnsgd1na2vs0mg"},{"bike_id":"8d5faf28-e526-4d5b-93d3-399bd2cb1046","system_id":"levelo_inurba_marseille","lat":43.31756,"lon":5.3902,"is_reserved":false,"is_disabled":false,"rental_uris":{"android":"levelo://app?vid=8d5faf28-e526-4d5b-93d3-399bd2cb1046","ios":"levelo://app?vid=8d5faf28-e526-4d5b-93d3-399bd2cb1046"},"vehicle_type_id":"4","last_reported":1730740091,"current_range_meters":11200,"station_id":"ce4bhqp2rcd13ifvqhng","pricing_plan_id":"cebpf4jnsgd1na2vs0mg"},{"bike_id":"f87d0a78-7a59-4349-a12e-8e4f96e25815","system_id":"levelo_inurba_marseille","lat":43.323408,"lon":5.406218,"is_reserved":false,"is_disabled":false,"rental_uris":{"android":"levelo://app?vid=f87d0a78-7a59-4349-a12e-8e4f96e25815","ios":"levelo://app?vid=f87d0a78-7a59-4349-a12e-8e4f96e25815"},"vehicle_type_id":"4","last_reported":1730740091,"current_range_meters":33600,"station_id":"ce4bhq92rcd13ifvqhjg","pricing_plan_id":"cebpf4jnsgd1na2vs0mg"},{"bike_id":"fd2e826f-7873-4356-9c73-f6b88980b0c1","system_id":"levelo_inurba_marseille","lat":43.32368,"lon":5.38882,"is_reserved":false,"is_disabled":false,"rental_uris":{"android":"levelo://app?vid=fd2e826f-7873-4356-9c73-f6b88980b0c1","ios":"levelo://app?vid=fd2e826f-7873-4356-9c73-f6b88980b0c1"},"vehicle_type_id":"4","last_reported":1730740091,"current_range_meters":8400,"station_id":"ce4bhqp2rcd13ifvqhog","pricing_plan_id":"cebpf4jnsgd1na2vs0mg"},{"bike_id":"0f1757a3-aa39-44a5-aae6-7031ae914e51","system_id":"levelo_inurba_marseille","lat":43.30263,"lon":5.40083,"is_reserved":false,"is_disabled":false,"rental_uris":{"android":"levelo://app?vid=0f1757a3-aa39-44a5-aae6-7031ae914e51","ios":"levelo://app?vid=0f1757a3-aa39-44a5-aae6-7031ae914e51"},"vehicle_type_id":"4","last_reported":1730740091,"current_range_meters":14000,"station_id":"ce4bgvh2rcd13ifvqcs0","pricing_plan_id":"cebpf4jnsgd1na2vs0mg"},{"bike_id":"4ae07473-4760-44ed-a357-e55827c5fc34","system_id":"levelo_inurba_marseille","lat":43.29034,"lon":5.39974,"is_reserved":false,"is_disabled":false,"rental_uris":{"android":"levelo://app?vid=4ae07473-4760-44ed-a357-e55827c5fc34","ios":"levelo://app?vid=4ae07473-4760-44ed-a357-e55827c5fc34"},"vehicle_type_id":"4","last_reported":1730740091,"current_range_meters":38800,"station_id":"ce4bh392rcd13ifvqdm0","pricing_plan_id":"cebpf4jnsgd1na2vs0mg"},{"bike_id":"98afce04-7eeb-4b36-a668-e32799204e11","system_id":"levelo_inurba_marseille","lat":43.24178,"lon":5.39729,"is_reserved":false,"is_disabled":false,"rental_uris":{"android":"levelo://app?vid=98afce04-7eeb-4b36-a668-e32799204e11","ios":"levelo://app?vid=98afce04-7eeb-4b36-a668-e32799204e11"},"vehicle_type_id":"4","last_reported":1730740091,"current_range_meters":3600,"station_id":"ce4bhn12rcd13ifvqgpg","pricing_plan_id":"cebpf4jnsgd1na2vs0mg"},{"bike_id":"48fc5442-ebe5-4255-b81e-20925fb04017","system_id":"levelo_inurba_marseille","lat":43.26577,"lon":5.39011,"is_reserved":false,"is_disabled":false,"rental_uris":{"android":"levelo://app?vid=48fc5442-ebe5-4255-b81e-20925fb04017","ios":"levelo://app?vid=48fc5442-ebe5-4255-b81e-20925fb04017"},"vehicle_type_id":"4","last_reported":1730740091,"current_range_meters":17200,"station_id":"ce4bhe12rcd13ifvqf30","pricing_plan_id":"cebpf4jnsgd1na2vs0mg"},{"bike_id":"28c4470e-7c65-48b5-a4f3-82bb5ef8f8cd","system_id":"levelo_inurba_marseille","lat":43.32338,"lon":5.40624,"is_reserved":false,"is_disabled":false,"rental_uris":{"android":"levelo://app?vid=28c4470e-7c65-48b5-a4f3-82bb5ef8f8cd","ios":"levelo://app?vid=28c4470e-7c65-48b5-a4f3-82bb5ef8f8cd"},"vehicle_type_id":"4","last_reported":1730740091,"current_range_meters":38800,"station_id":"ce4bhq92rcd13ifvqhjg","pricing_plan_id":"cebpf4jnsgd1na2vs0mg"},{"bike_id":"c1d9de5b-72de-4c23-acfa-ea5bcd9c8c68","system_id":"levelo_inurba_marseille","lat":43.2952,"lon":5.39403,"is_reserved":false,"is_disabled":false,"rental_uris":{"android":"levelo://app?vid=c1d9de5b-72de-4c23-acfa-ea5bcd9c8c68","ios":"levelo://app?vid=c1d9de5b-72de-4c23-acfa-ea5bcd9c8c68"},"vehicle_type_id":"4","last_reported":1730740091,"current_range_meters":16000,"station_id":"ce4bh292rcd13ifvqdf0","pricing_plan_id":"cebpf4jnsgd1na2vs0mg"},{"bike_id":"41a857c7-4e7f-4d5f-9c0e-c90a3cbd5984","system_id":"levelo_inurba_marseille","lat":43.29973,"lon":5.37164,"is_reserved":false,"is_disabled":false,"rental_uris":{"android":"levelo://app?vid=41a857c7-4e7f-4d5f-9c0e-c90a3cbd5984","ios":"levelo://app?vid=41a857c7-4e7f-4d5f-9c0e-c90a3cbd5984"},"vehicle_type_id":"4","last_reported":1730740091,"current_range_meters":28000,"station_id":"ce4bgr92rcd13ifvqc7g","pricing_plan_id":"cebpf4jnsgd1na2vs0mg"},{"bike_id":"d1d34db9-8fe9-49dd-b3e0-7854fd392bd6","system_id":"levelo_inurba_marseille","lat":43.268188,"lon":5.389004,"is_reserved":false,"is_disabled":false,"rental_uris":{"android":"levelo://app?vid=d1d34db9-8fe9-49dd-b3e0-7854fd392bd6","ios":"levelo://app?vid=d1d34db9-8fe9-49dd-b3e0-7854fd392bd6"},"vehicle_type_id":"4","last_reported":1730740091,"current_range_meters":16000,"station_id":"ce4bhhh2rcd13ifvqfl0","pricing_plan_id":"cebpf4jnsgd1na2vs0mg"},{"bike_id":"07783dcd-420f-4b3d-be4e-26c77735a7b3","system_id":"levelo_inurba_marseille","lat":43.27612,"lon":5.36109,"is_reserved":false,"is_disabled":false,"rental_uris":{"android":"levelo://app?vid=07783dcd-420f-4b3d-be4e-26c77735a7b3","ios":"levelo://app?vid=07783dcd-420f-4b3d-be4e-26c77735a7b3"},"vehicle_type_id":"4","last_reported":1730740091,"current_range_meters":16000,"station_id":"ce4bgj92rcd13ifvqbe0","pricing_plan_id":"cebpf4jnsgd1na2vs0mg"},{"bike_id":"99aab957-79ae-4343-a8bc-56f317b23858","system_id":"levelo_inurba_marseille","lat":43.260071,"lon":5.375586,"is_reserved":false,"is_disabled":false,"rental_uris":{"android":"levelo://app?vid=99aab957-79ae-4343-a8bc-56f317b23858","ios":"levelo://app?vid=99aab957-79ae-4343-a8bc-56f317b23858"},"vehicle_type_id":"4","last_reported":1730740091,"current_range_meters":22800,"station_id":"ce4bha12rcd13ifvqef0","pricing_plan_id":"cebpf4jnsgd1na2vs0mg"},{"bike_id":"d4472d20-9c4b-4c70-ad00-3a005519a429","system_id":"levelo_inurba_marseille","lat":43.35366,"lon":5.35735,"is_reserved":false,"is_disabled":false,"rental_uris":{"android":"levelo://app?vid=d4472d20-9c4b-4c70-ad00-3a005519a429","ios":"levelo://app?vid=d4472d20-9c4b-4c70-ad00-3a005519a429"},"vehicle_type_id":"4","last_reported":1730740091,"current_range_meters":8800,"station_id":"","pricing_plan_id":"cebpf4jnsgd1na2vs0mg"},{"bike_id":"751d6548-b304-49e5-8632-f4a0ec15e0ef","system_id":"levelo_inurba_marseille","lat":43.28002,"lon":5.40002,"is_reserved":false,"is_disabled":false,"rental_uris":{"android":"levelo://app?vid=751d6548-b304-49e5-8632-f4a0ec15e0ef","ios":"levelo://app?vid=751d6548-b304-49e5-8632-f4a0ec15e0ef"},"vehicle_type_id":"4","last_reported":1730740091,"current_range_meters":10800,"station_id":"ce4bho92rcd13ifvqh4g","pricing_plan_id":"cebpf4jnsgd1na2vs0mg"},{"bike_id":"2393a05b-4888-4701-9056-4cf47e767493","system_id":"levelo_inurba_marseille","lat":43.31333,"lon":5.38424,"is_reserved":false,"is_disabled":false,"rental_uris":{"android":"levelo://app?vid=2393a05b-4888-4701-9056-4cf47e767493","ios":"levelo://app?vid=2393a05b-4888-4701-9056-4cf47e767493"},"vehicle_type_id":"4","last_reported":1730740091,"current_range_meters":13600,"station_id":"ce4bgt92rcd13ifvqcf0","pricing_plan_id":"cebpf4jnsgd1na2vs0mg"},{"bike_id":"a17bd7d5-0ce7-4e89-b714-23012e2f2f5c","system_id":"levelo_inurba_marseille","lat":43.31491,"lon":5.37307,"is_reserved":false,"is_disabled":false,"rental_uris":{"android":"levelo://app?vid=a17bd7d5-0ce7-4e89-b714-23012e2f2f5c","ios":"levelo://app?vid=a17bd7d5-0ce7-4e89-b714-23012e2f2f5c"},"vehicle_type_id":"4","last_reported":1730740091,"current_range_meters":24400,"station_id":"ce4bgt12rcd13ifvqcd0","pricing_plan_id":"cebpf4jnsgd1na2vs0mg"},{"bike_id":"be5bb167-8e9d-4764-9cac-04dc5e3697e1","system_id":"levelo_inurba_marseille","lat":43.284788,"lon":5.359247,"is_reserved":false,"is_disabled":false,"rental_uris":{"android":"levelo://app?vid=be5bb167-8e9d-4764-9cac-04dc5e3697e1","ios":"levelo://app?vid=be5bb167-8e9d-4764-9cac-04dc5e3697e1"},"vehicle_type_id":"4","last_reported":1730740091,"current_range_meters":26000,"station_id":"ce4bhah2rcd13ifvqei0","pricing_plan_id":"cebpf4jnsgd1na2vs0mg"},{"bike_id":"8eee3976-5560-4618-bbb0-44d7c6693519","system_id":"levelo_inurba_marseille","lat":43.29001,"lon":5.3562,"is_reserved":false,"is_disabled":false,"rental_uris":{"android":"levelo://app?vid=8eee3976-5560-4618-bbb0-44d7c6693519","ios":"levelo://app?vid=8eee3976-5560-4618-bbb0-44d7c6693519"},"vehicle_type_id":"4","last_reported":1730740091,"current_range_meters":38800,"station_id":"ce4bhb92rcd13ifvqen0","pricing_plan_id":"cebpf4jnsgd1na2vs0mg"},{"bike_id":"1862e88a-db89-4dec-84dd-4b659e656c98","system_id":"levelo_inurba_marseille","lat":43.28858,"lon":5.35877,"is_reserved":false,"is_disabled":false,"rental_uris":{"android":"levelo://app?vid=1862e88a-db89-4dec-84dd-4b659e656c98","ios":"levelo://app?vid=1862e88a-db89-4dec-84dd-4b659e656c98"},"vehicle_type_id":"4","last_reported":1730740091,"current_range_meters":20000,"station_id":"ce4bhb12rcd13ifvqem0","pricing_plan_id":"cebpf4jnsgd1na2vs0mg"},{"bike_id":"2dd40e8a-347a-4069-9f04-901c41b0a3c7","system_id":"levelo_inurba_marseille","lat":43.321009,"lon":5.367723,"is_reserved":false,"is_disabled":false,"rental_uris":{"android":"levelo://app?vid=2dd40e8a-347a-4069-9f04-901c41b0a3c7","ios":"levelo://app?vid=2dd40e8a-347a-4069-9f04-901c41b0a3c7"},"vehicle_type_id":"4","last_reported":1730740091,"current_range_meters":38800,"station_id":"ce4bhrh2rcd13ifvqhug","pricing_plan_id":"cebpf4jnsgd1na2vs0mg"},{"bike_id":"6fc2326c-4cde-4ad0-9f66-cc0b4811ab5d","system_id":"levelo_inurba_marseille","lat":43.319982,"lon":5.381581,"is_reserved":false,"is_disabled":false,"rental_uris":{"android":"levelo://app?vid=6fc2326c-4cde-4ad0-9f66-cc0b4811ab5d","ios":"levelo://app?vid=6fc2326c-4cde-4ad0-9f66-cc0b4811ab5d"},"vehicle_type_id":"4","last_reported":1730740091,"current_range_meters":38800,"station_id":"ce4bhr12rcd13ifvqhpg","pricing_plan_id":"cebpf4jnsgd1na2vs0mg"},{"bike_id":"78f1dd21-f4df-4702-bacd-b7fcd831c3d3","system_id":"levelo_inurba_marseille","lat":43.26831,"lon":5.3844,"is_reserved":false,"is_disabled":false,"rental_uris":{"android":"levelo://app?vid=78f1dd21-f4df-4702-bacd-b7fcd831c3d3","ios":"levelo://app?vid=78f1dd21-f4df-4702-bacd-b7fcd831c3d3"},"vehicle_type_id":"4","last_reported":1730740091,"current_range_meters":16800,"station_id":"","pricing_plan_id":"cebpf4jnsgd1na2vs0mg"},{"bike_id":"e7bd7867-100b-4bda-9e19-1f746dc5475c","system_id":"levelo_inurba_marseille","lat":43.26214,"lon":5.37438,"is_reserved":false,"is_disabled":false,"rental_uris":{"android":"levelo://app?vid=e7bd7867-100b-4bda-9e19-1f746dc5475c","ios":"levelo://app?vid=e7bd7867-100b-4bda-9e19-1f746dc5475c"},"vehicle_type_id":"4","last_reported":1730740091,"current_range_meters":24400,"station_id":"ce4bhgp2rcd13ifvqfc0","pricing_plan_id":"cebpf4jnsgd1na2vs0mg"},{"bike_id":"383465cc-7646-4ef1-a055-d48e091c606e","system_id":"levelo_inurba_marseille","lat":43.28002,"lon":5.40012,"is_reserved":false,"is_disabled":false,"rental_uris":{"android":"levelo://app?vid=383465cc-7646-4ef1-a055-d48e091c606e","ios":"levelo://app?vid=383465cc-7646-4ef1-a055-d48e091c606e"},"vehicle_type_id":"4","last_reported":1730740091,"current_range_meters":3600,"station_id":"ce4bho92rcd13ifvqh4g","pricing_plan_id":"cebpf4jnsgd1na2vs0mg"},{"bike_id":"64af68ed-dd09-48ea-90bc-3a25e162ca47","system_id":"levelo_inurba_marseille","lat":43.28447,"lon":5.39206,"is_reserved":false,"is_disabled":false,"rental_uris":{"android":"levelo://app?vid=64af68ed-dd09-48ea-90bc-3a25e162ca47","ios":"levelo://app?vid=64af68ed-dd09-48ea-90bc-3a25e162ca47"},"vehicle_type_id":"4","last_reported":1730740091,"current_range_meters":35200,"station_id":"ce4bhoh2rcd13ifvqh5g","pricing_plan_id":"cebpf4jnsgd1na2vs0mg"},{"bike_id":"676ee3e1-74f6-4d69-bd53-7175388510b3","system_id":"levelo_inurba_marseille","lat":43.3137,"lon":5.3849,"is_reserved":false,"is_disabled":false,"rental_uris":{"android":"levelo://app?vid=676ee3e1-74f6-4d69-bd53-7175388510b3","ios":"levelo://app?vid=676ee3e1-74f6-4d69-bd53-7175388510b3"},"vehicle_type_id":"4","last_reported":1730740091,"current_range_meters":18800,"station_id":"ce4bgt92rcd13ifvqcf0","pricing_plan_id":"cebpf4jnsgd1na2vs0mg"},{"bike_id":"284a58f0-ac34-4623-8869-59696274e7c5","system_id":"levelo_inurba_marseille","lat":43.31076,"lon":5.38369,"is_reserved":false,"is_disabled":false,"rental_uris":{"android":"levelo://app?vid=284a58f0-ac34-4623-8869-59696274e7c5","ios":"levelo://app?vid=284a58f0-ac34-4623-8869-59696274e7c5"},"vehicle_type_id":"4","last_reported":1730740091,"current_range_meters":23200,"station_id":"ce4bgv92rcd13ifvqcr0","pricing_plan_id":"cebpf4jnsgd1na2vs0mg"},{"bike_id":"c7a1cc67-0671-4013-810e-3a3f8f555025","system_id":"levelo_inurba_marseille","lat":43.29894,"lon":5.38893,"is_reserved":false,"is_disabled":false,"rental_uris":{"android":"levelo://app?vid=c7a1cc67-0671-4013-810e-3a3f8f555025","ios":"levelo://app?vid=c7a1cc67-0671-4013-810e-3a3f8f555025"},"vehicle_type_id":"4","last_reported":1730740091,"current_range_meters":16400,"station_id":"ce4bh392rcd13ifvqdl0","pricing_plan_id":"cebpf4jnsgd1na2vs0mg"},{"bike_id":"dbb9ad32-5548-4c27-b0a7-a99efcf0372b","system_id":"levelo_inurba_marseille","lat":43.290359,"lon":5.38648,"is_reserved":false,"is_disabled":false,"rental_uris":{"android":"levelo://app?vid=dbb9ad32-5548-4c27-b0a7-a99efcf0372b","ios":"levelo://app?vid=dbb9ad32-5548-4c27-b0a7-a99efcf0372b"},"vehicle_type_id":"4","last_reported":1730740091,"current_range_meters":12800,"station_id":"ce4bhlh2rcd13ifvqgig","pricing_plan_id":"cebpf4jnsgd1na2vs0mg"},{"bike_id":"ba8f5d9a-4861-4465-b828-23e2245ef053","system_id":"levelo_inurba_marseille","lat":43.23184,"lon":5.39984,"is_reserved":false,"is_disabled":false,"rental_uris":{"android":"levelo://app?vid=ba8f5d9a-4861-4465-b828-23e2245ef053","ios":"levelo://app?vid=ba8f5d9a-4861-4465-b828-23e2245ef053"},"vehicle_type_id":"4","last_reported":1730740091,"current_range_meters":39200,"station_id":"ce4bhn12rcd13ifvqgqg","pricing_plan_id":"cebpf4jnsgd1na2vs0mg"},{"bike_id":"6c78a033-e104-48bc-bb54-3615bf76d1ad","system_id":"levelo_inurba_marseille","lat":43.25873,"lon":5.39899,"is_reserved":false,"is_disabled":false,"rental_uris":{"android":"levelo://app?vid=6c78a033-e104-48bc-bb54-3615bf76d1ad","ios":"levelo://app?vid=6c78a033-e104-48bc-bb54-3615bf76d1ad"},"vehicle_type_id":"4","last_reported":1730740091,"current_range_meters":6000,"station_id":"ce4bhl92rcd13ifvqghg","pricing_plan_id":"cebpf4jnsgd1na2vs0mg"},{"bike_id":"772f5a1a-0240-4436-8273-7fb69704d5fd","system_id":"levelo_inurba_marseille","lat":43.25088,"lon":5.39524,"is_reserved":false,"is_disabled":false,"rental_uris":{"android":"levelo://app?vid=772f5a1a-0240-4436-8273-7fb69704d5fd","ios":"levelo://app?vid=772f5a1a-0240-4436-8273-7fb69704d5fd"},"vehicle_type_id":"4","last_reported":1730740091,"current_range_meters":30800,"station_id":"ce4bhm12rcd13ifvqgkg","pricing_plan_id":"cebpf4jnsgd1na2vs0mg"},{"bike_id":"b402d15c-37c3-477a-898f-e03500cda6b3","system_id":"levelo_inurba_marseille","lat":43.317005,"lon":5.376753,"is_reserved":false,"is_disabled":false,"rental_uris":{"android":"levelo://app?vid=b402d15c-37c3-477a-898f-e03500cda6b3","ios":"levelo://app?vid=b402d15c-37c3-477a-898f-e03500cda6b3"},"vehicle_type_id":"4","last_reported":1730740091,"current_range_meters":30000,"station_id":"ce4bgth2rcd13ifvqch0","pricing_plan_id":"cebpf4jnsgd1na2vs0mg"},{"bike_id":"0a25506b-185f-44d5-9b4e-67bb41a02f17","system_id":"levelo_inurba_marseille","lat":43.33025,"lon":5.39036,"is_reserved":false,"is_disabled":false,"rental_uris":{"android":"levelo://app?vid=0a25506b-185f-44d5-9b4e-67bb41a02f17","ios":"levelo://app?vid=0a25506b-185f-44d5-9b4e-67bb41a02f17"},"vehicle_type_id":"4","last_reported":1730740091,"current_range_meters":18000,"station_id":"ce4bhr92rcd13ifvqhrg","pricing_plan_id":"cebpf4jnsgd1na2vs0mg"},{"bike_id":"beeef4e4-0d45-4dfa-9ccc-aedb2ce31115","system_id":"levelo_inurba_marseille","lat":43.32109,"lon":5.36779,"is_reserved":false,"is_disabled":false,"rental_uris":{"android":"levelo://app?vid=beeef4e4-0d45-4dfa-9ccc-aedb2ce31115","ios":"levelo://app?vid=beeef4e4-0d45-4dfa-9ccc-aedb2ce31115"},"vehicle_type_id":"4","last_reported":1730740091,"current_range_meters":29600,"station_id":"ce4bhrh2rcd13ifvqhug","pricing_plan_id":"cebpf4jnsgd1na2vs0mg"},{"bike_id":"30b91e22-e780-483b-b680-a233fa892c28","system_id":"levelo_inurba_marseille","lat":43.2511,"lon":5.40323,"is_reserved":false,"is_disabled":false,"rental_uris":{"android":"levelo://app?vid=30b91e22-e780-483b-b680-a233fa892c28","ios":"levelo://app?vid=30b91e22-e780-483b-b680-a233fa892c28"},"vehicle_type_id":"4","last_reported":1730740091,"current_range_meters":12800,"station_id":"ce4bhlh2rcd13ifvqgig","pricing_plan_id":"cebpf4jnsgd1na2vs0mg"},{"bike_id":"d48baee9-8af3-4ee2-b896-7e4ee0c6903c","system_id":"levelo_inurba_marseille","lat":43.301464,"lon":5.380796,"is_reserved":false,"is_disabled":false,"rental_uris":{"android":"levelo://app?vid=d48baee9-8af3-4ee2-b896-7e4ee0c6903c","ios":"levelo://app?vid=d48baee9-8af3-4ee2-b896-7e4ee0c6903c"},"vehicle_type_id":"4","last_reported":1730740091,"current_range_meters":38800,"station_id":"ce4bgjp2rcd13ifvqbh0","pricing_plan_id":"cebpf4jnsgd1na2vs0mg"},{"bike_id":"7622e7dd-8692-41f0-ac73-9d2d2c2fc77b","system_id":"levelo_inurba_marseille","lat":43.27819,"lon":5.40716,"is_reserved":false,"is_disabled":false,"rental_uris":{"android":"levelo://app?vid=7622e7dd-8692-41f0-ac73-9d2d2c2fc77b","ios":"levelo://app?vid=7622e7dd-8692-41f0-ac73-9d2d2c2fc77b"},"vehicle_type_id":"4","last_reported":1730740091,"current_range_meters":9200,"station_id":"ce4bhnh2rcd13ifvqgtg","pricing_plan_id":"cebpf4jnsgd1na2vs0mg"},{"bike_id":"25cc06ee-03ae-4065-aa55-82c6400f049c","system_id":"levelo_inurba_marseille","lat":43.24999,"lon":5.38925,"is_reserved":false,"is_disabled":false,"rental_uris":{"android":"levelo://app?vid=25cc06ee-03ae-4065-aa55-82c6400f049c","ios":"levelo://app?vid=25cc06ee-03ae-4065-aa55-82c6400f049c"},"vehicle_type_id":"4","last_reported":1730740091,"current_range_meters":16400,"station_id":"ce4bhgp2rcd13ifvqfd0","pricing_plan_id":"cebpf4jnsgd1na2vs0mg"},{"bike_id":"71721fe2-35d7-41f2-9225-983e1943836f","system_id":"levelo_inurba_marseille","lat":43.33755,"lon":5.37471,"is_reserved":false,"is_disabled":false,"rental_uris":{"android":"levelo://app?vid=71721fe2-35d7-41f2-9225-983e1943836f","ios":"levelo://app?vid=71721fe2-35d7-41f2-9225-983e1943836f"},"vehicle_type_id":"4","last_reported":1730740091,"current_range_meters":38000,"station_id":"","pricing_plan_id":"cebpf4jnsgd1na2vs0mg"},{"bike_id":"ad5faac2-9cf2-4ca5-a68a-86e9f9cdf7c6","system_id":"levelo_inurba_marseille","lat":43.29907,"lon":5.3813,"is_reserved":false,"is_disabled":false,"rental_uris":{"android":"levelo://app?vid=ad5faac2-9cf2-4ca5-a68a-86e9f9cdf7c6","ios":"levelo://app?vid=ad5faac2-9cf2-4ca5-a68a-86e9f9cdf7c6"},"vehicle_type_id":"4","last_reported":1730740091,"current_range_meters":19200,"station_id":"ce4bgj12rcd13ifvqbc0","pricing_plan_id":"cebpf4jnsgd1na2vs0mg"},{"bike_id":"697dd118-268c-406e-bad8-371dfe74ed47","system_id":"levelo_inurba_marseille","lat":43.31755,"lon":5.39015,"is_reserved":false,"is_disabled":false,"rental_uris":{"android":"levelo://app?vid=697dd118-268c-406e-bad8-371dfe74ed47","ios":"levelo://app?vid=697dd118-268c-406e-bad8-371dfe74ed47"},"vehicle_type_id":"4","last_reported":1730740091,"current_range_meters":37600,"station_id":"ce4bhqp2rcd13ifvqhng","pricing_plan_id":"cebpf4jnsgd1na2vs0mg"},{"bike_id":"03bbc6d2-f172-4113-b18e-2a2e4c120113","system_id":"levelo_inurba_marseille","lat":43.305156,"lon":5.380694,"is_reserved":false,"is_disabled":false,"rental_uris":{"android":"levelo://app?vid=03bbc6d2-f172-4113-b18e-2a2e4c120113","ios":"levelo://app?vid=03bbc6d2-f172-4113-b18e-2a2e4c120113"},"vehicle_type_id":"4","last_reported":1730740091,"current_range_meters":25200,"station_id":"","pricing_plan_id":"cebpf4jnsgd1na2vs0mg"},{"bike_id":"64da24df-20a0-4dbb-b795-e691fb5453dc","system_id":"levelo_inurba_marseille","lat":43.29806,"lon":5.40393,"is_reserved":false,"is_disabled":false,"rental_uris":{"android":"levelo://app?vid=64da24df-20a0-4dbb-b795-e691fb5453dc","ios":"levelo://app?vid=64da24df-20a0-4dbb-b795-e691fb5453dc"},"vehicle_type_id":"4","last_reported":1730740091,"current_range_meters":8800,"station_id":"ce4bh112rcd13ifvqd90","pricing_plan_id":"cebpf4jnsgd1na2vs0mg"},{"bike_id":"b7687285-9a7c-44ba-ba78-6f3b28eb6097","system_id":"levelo_inurba_marseille","lat":43.30129,"lon":5.39871,"is_reserved":false,"is_disabled":false,"rental_uris":{"android":"levelo://app?vid=b7687285-9a7c-44ba-ba78-6f3b28eb6097","ios":"levelo://app?vid=b7687285-9a7c-44ba-ba78-6f3b28eb6097"},"vehicle_type_id":"4","last_reported":1730740091,"current_range_meters":7200,"station_id":"ce4bh0h2rcd13ifvqd40","pricing_plan_id":"cebpf4jnsgd1na2vs0mg"},{"bike_id":"ce35ce3c-636d-4c7a-927b-ee42ec6c7ac2","system_id":"levelo_inurba_marseille","lat":43.29254,"lon":5.40902,"is_reserved":false,"is_disabled":false,"rental_uris":{"android":"levelo://app?vid=ce35ce3c-636d-4c7a-927b-ee42ec6c7ac2","ios":"levelo://app?vid=ce35ce3c-636d-4c7a-927b-ee42ec6c7ac2"},"vehicle_type_id":"4","last_reported":1730740091,"current_range_meters":23200,"station_id":"ce4bh192rcd13ifvqdc0","pricing_plan_id":"cebpf4jnsgd1na2vs0mg"},{"bike_id":"7580d83e-3d7c-46be-82b1-25f013a114af","system_id":"levelo_inurba_marseille","lat":43.31078,"lon":5.40098,"is_reserved":false,"is_disabled":false,"rental_uris":{"android":"levelo://app?vid=7580d83e-3d7c-46be-82b1-25f013a114af","ios":"levelo://app?vid=7580d83e-3d7c-46be-82b1-25f013a114af"},"vehicle_type_id":"4","last_reported":1730740091,"current_range_meters":20800,"station_id":"","pricing_plan_id":"cebpf4jnsgd1na2vs0mg"},{"bike_id":"c3cf87f3-3dc1-43b9-a448-1adbdc808356","system_id":"levelo_inurba_marseille","lat":43.2952,"lon":5.39047,"is_reserved":false,"is_disabled":false,"rental_uris":{"android":"levelo://app?vid=c3cf87f3-3dc1-43b9-a448-1adbdc808356","ios":"levelo://app?vid=c3cf87f3-3dc1-43b9-a448-1adbdc808356"},"vehicle_type_id":"4","last_reported":1730740091,"current_range_meters":20400,"station_id":"ce4bh3p2rcd13ifvqdp0","pricing_plan_id":"cebpf4jnsgd1na2vs0mg"},{"bike_id":"be90c6d5-ad41-4c51-bcce-d203d087b10f","system_id":"levelo_inurba_marseille","lat":43.31756,"lon":5.39015,"is_reserved":false,"is_disabled":false,"rental_uris":{"android":"levelo://app?vid=be90c6d5-ad41-4c51-bcce-d203d087b10f","ios":"levelo://app?vid=be90c6d5-ad41-4c51-bcce-d203d087b10f"},"vehicle_type_id":"4","last_reported":1730740091,"current_range_meters":8000,"station_id":"ce4bhqp2rcd13ifvqhng","pricing_plan_id":"cebpf4jnsgd1na2vs0mg"},{"bike_id":"ba04515b-2530-4f99-bfe4-78243134c10b","system_id":"levelo_inurba_marseille","lat":43.280579,"lon":5.409851,"is_reserved":false,"is_disabled":false,"rental_uris":{"android":"levelo://app?vid=ba04515b-2530-4f99-bfe4-78243134c10b","ios":"levelo://app?vid=ba04515b-2530-4f99-bfe4-78243134c10b"},"vehicle_type_id":"4","last_reported":1730740091,"current_range_meters":36000,"station_id":"","pricing_plan_id":"cebpf4jnsgd1na2vs0mg"},{"bike_id":"819340a6-562b-46a4-9301-df7b52968f6c","system_id":"levelo_inurba_marseille","lat":43.25121,"lon":5.40322,"is_reserved":false,"is_disabled":false,"rental_uris":{"android":"levelo://app?vid=819340a6-562b-46a4-9301-df7b52968f6c","ios":"levelo://app?vid=819340a6-562b-46a4-9301-df7b52968f6c"},"vehicle_type_id":"4","last_reported":1730740091,"current_range_meters":10000,"station_id":"ce4bhlh2rcd13ifvqgig","pricing_plan_id":"cebpf4jnsgd1na2vs0mg"},{"bike_id":"b2902cc5-60b3-4302-8d56-61b7ecf58a47","system_id":"levelo_inurba_marseille","lat":43.29428,"lon":5.39758,"is_reserved":false,"is_disabled":false,"rental_uris":{"android":"levelo://app?vid=b2902cc5-60b3-4302-8d56-61b7ecf58a47","ios":"levelo://app?vid=b2902cc5-60b3-4302-8d56-61b7ecf58a47"},"vehicle_type_id":"4","last_reported":1730740091,"current_range_meters":19600,"station_id":"ce4bh3h2rcd13ifvqdo0","pricing_plan_id":"cebpf4jnsgd1na2vs0mg"},{"bike_id":"c04b1e85-66fa-4e9c-bd6f-9b56aac0fc79","system_id":"levelo_inurba_marseille","lat":43.31639,"lon":5.4042,"is_reserved":false,"is_disabled":false,"rental_uris":{"android":"levelo://app?vid=c04b1e85-66fa-4e9c-bd6f-9b56aac0fc79","ios":"levelo://app?vid=c04b1e85-66fa-4e9c-bd6f-9b56aac0fc79"},"vehicle_type_id":"4","last_reported":1730740091,"current_range_meters":38400,"station_id":"ce4bh092rcd13ifvqd30","pricing_plan_id":"cebpf4jnsgd1na2vs0mg"},{"bike_id":"8e868ed0-1cfc-4dd9-83f8-18660b8fe0f2","system_id":"levelo_inurba_marseille","lat":43.27178,"lon":5.40992,"is_reserved":false,"is_disabled":false,"rental_uris":{"android":"levelo://app?vid=8e868ed0-1cfc-4dd9-83f8-18660b8fe0f2","ios":"levelo://app?vid=8e868ed0-1cfc-4dd9-83f8-18660b8fe0f2"},"vehicle_type_id":"4","last_reported":1730740091,"current_range_meters":9200,"station_id":"ce4bhl12rcd13ifvqgf0","pricing_plan_id":"cebpf4jnsgd1na2vs0mg"},{"bike_id":"32226b21-dbcc-474c-9004-398b3fdc8208","system_id":"levelo_inurba_marseille","lat":43.28449,"lon":5.35885,"is_reserved":false,"is_disabled":false,"rental_uris":{"android":"levelo://app?vid=32226b21-dbcc-474c-9004-398b3fdc8208","ios":"levelo://app?vid=32226b21-dbcc-474c-9004-398b3fdc8208"},"vehicle_type_id":"4","last_reported":1730740091,"current_range_meters":17600,"station_id":"ce4bhah2rcd13ifvqei0","pricing_plan_id":"cebpf4jnsgd1na2vs0mg"},{"bike_id":"fd14b105-3a9e-4d25-9323-4a0e3eedf4cb","system_id":"levelo_inurba_marseille","lat":43.30303,"lon":5.39202,"is_reserved":false,"is_disabled":false,"rental_uris":{"android":"levelo://app?vid=fd14b105-3a9e-4d25-9323-4a0e3eedf4cb","ios":"levelo://app?vid=fd14b105-3a9e-4d25-9323-4a0e3eedf4cb"},"vehicle_type_id":"4","last_reported":1730740091,"current_range_meters":38800,"station_id":"ce4bgkh2rcd13ifvqbk0","pricing_plan_id":"cebpf4jnsgd1na2vs0mg"},{"bike_id":"909fd824-d8fe-4d38-b958-5046d8c9169b","system_id":"levelo_inurba_marseille","lat":43.32485,"lon":5.36561,"is_reserved":false,"is_disabled":false,"rental_uris":{"android":"levelo://app?vid=909fd824-d8fe-4d38-b958-5046d8c9169b","ios":"levelo://app?vid=909fd824-d8fe-4d38-b958-5046d8c9169b"},"vehicle_type_id":"4","last_reported":1730740091,"current_range_meters":38800,"station_id":"ce4bhs12rcd13ifvqhvg","pricing_plan_id":"cebpf4jnsgd1na2vs0mg"},{"bike_id":"ad9bde84-2330-4a58-9dc2-b8a85815f0e8","system_id":"levelo_inurba_marseille","lat":43.3096,"lon":5.39028,"is_reserved":false,"is_disabled":false,"rental_uris":{"android":"levelo://app?vid=ad9bde84-2330-4a58-9dc2-b8a85815f0e8","ios":"levelo://app?vid=ad9bde84-2330-4a58-9dc2-b8a85815f0e8"},"vehicle_type_id":"4","last_reported":1730740091,"current_range_meters":4800,"station_id":"ce4bgup2rcd13ifvqco0","pricing_plan_id":"cebpf4jnsgd1na2vs0mg"},{"bike_id":"fa9381b7-4d70-441e-80cb-0580427563e2","system_id":"levelo_inurba_marseille","lat":43.23197,"lon":5.35555,"is_reserved":false,"is_disabled":false,"rental_uris":{"android":"levelo://app?vid=fa9381b7-4d70-441e-80cb-0580427563e2","ios":"levelo://app?vid=fa9381b7-4d70-441e-80cb-0580427563e2"},"vehicle_type_id":"4","last_reported":1730740091,"current_range_meters":38400,"station_id":"ce4bhu92rcd13ifvqi70","pricing_plan_id":"cebpf4jnsgd1na2vs0mg"},{"bike_id":"43332cb8-0085-4284-b46d-09f51b9b56be","system_id":"levelo_inurba_marseille","lat":43.287117,"lon":5.360676,"is_reserved":false,"is_disabled":false,"rental_uris":{"android":"levelo://app?vid=43332cb8-0085-4284-b46d-09f51b9b56be","ios":"levelo://app?vid=43332cb8-0085-4284-b46d-09f51b9b56be"},"vehicle_type_id":"4","last_reported":1730740091,"current_range_meters":3200,"station_id":"cki0cbj6b192h4jlfktg","pricing_plan_id":"cebpf4jnsgd1na2vs0mg"},{"bike_id":"371ed9b9-117f-4304-a294-be3251d3642c","system_id":"levelo_inurba_marseille","lat":43.31756,"lon":5.39016,"is_reserved":false,"is_disabled":false,"rental_uris":{"android":"levelo://app?vid=371ed9b9-117f-4304-a294-be3251d3642c","ios":"levelo://app?vid=371ed9b9-117f-4304-a294-be3251d3642c"},"vehicle_type_id":"4","last_reported":1730740091,"current_range_meters":30000,"station_id":"ce4bhqp2rcd13ifvqhng","pricing_plan_id":"cebpf4jnsgd1na2vs0mg"},{"bike_id":"dbcbbd02-a6cd-4967-9038-e3b355b4447b","system_id":"levelo_inurba_marseille","lat":43.2942,"lon":5.38625,"is_reserved":false,"is_disabled":false,"rental_uris":{"android":"levelo://app?vid=dbcbbd02-a6cd-4967-9038-e3b355b4447b","ios":"levelo://app?vid=dbcbbd02-a6cd-4967-9038-e3b355b4447b"},"vehicle_type_id":"4","last_reported":1730740091,"current_range_meters":27200,"station_id":"ce4bh2h2rcd13ifvqdh0","pricing_plan_id":"cebpf4jnsgd1na2vs0mg"},{"bike_id":"ddbe9ad4-f34e-4f30-8c09-c48c64b47111","system_id":"levelo_inurba_marseille","lat":43.29262,"lon":5.40906,"is_reserved":false,"is_disabled":false,"rental_uris":{"android":"levelo://app?vid=ddbe9ad4-f34e-4f30-8c09-c48c64b47111","ios":"levelo://app?vid=ddbe9ad4-f34e-4f30-8c09-c48c64b47111"},"vehicle_type_id":"4","last_reported":1730740091,"current_range_meters":38000,"station_id":"ce4bh192rcd13ifvqdc0","pricing_plan_id":"cebpf4jnsgd1na2vs0mg"},{"bike_id":"b97d231f-b06d-444f-93ba-90193ccee906","system_id":"levelo_inurba_marseille","lat":43.25083,"lon":5.39525,"is_reserved":false,"is_disabled":false,"rental_uris":{"android":"levelo://app?vid=b97d231f-b06d-444f-93ba-90193ccee906","ios":"levelo://app?vid=b97d231f-b06d-444f-93ba-90193ccee906"},"vehicle_type_id":"4","last_reported":1730740091,"current_range_meters":14800,"station_id":"ce4bhm12rcd13ifvqgkg","pricing_plan_id":"cebpf4jnsgd1na2vs0mg"},{"bike_id":"ed3cc475-9352-4500-9e2a-f8144dc4b6f1","system_id":"levelo_inurba_marseille","lat":43.33026,"lon":5.39053,"is_reserved":false,"is_disabled":false,"rental_uris":{"android":"levelo://app?vid=ed3cc475-9352-4500-9e2a-f8144dc4b6f1","ios":"levelo://app?vid=ed3cc475-9352-4500-9e2a-f8144dc4b6f1"},"vehicle_type_id":"4","last_reported":1730740091,"current_range_meters":40000,"station_id":"ce4bhr92rcd13ifvqhrg","pricing_plan_id":"cebpf4jnsgd1na2vs0mg"},{"bike_id":"5d90149c-737f-49db-9871-6478a4116279","system_id":"levelo_inurba_marseille","lat":43.30547,"lon":5.36535,"is_reserved":false,"is_disabled":false,"rental_uris":{"android":"levelo://app?vid=5d90149c-737f-49db-9871-6478a4116279","ios":"levelo://app?vid=5d90149c-737f-49db-9871-6478a4116279"},"vehicle_type_id":"4","last_reported":1730740091,"current_range_meters":38800,"station_id":"ce4bgs12rcd13ifvqcag","pricing_plan_id":"cebpf4jnsgd1na2vs0mg"},{"bike_id":"7a58136c-3165-4313-8fac-2c364b399752","system_id":"levelo_inurba_marseille","lat":43.33728,"lon":5.391778,"is_reserved":false,"is_disabled":false,"rental_uris":{"android":"levelo://app?vid=7a58136c-3165-4313-8fac-2c364b399752","ios":"levelo://app?vid=7a58136c-3165-4313-8fac-2c364b399752"},"vehicle_type_id":"4","last_reported":1730740091,"current_range_meters":27600,"station_id":"ce4bhr92rcd13ifvqhsg","pricing_plan_id":"cebpf4jnsgd1na2vs0mg"},{"bike_id":"204800a6-ed73-46e2-b49c-4e8b68cbec69","system_id":"levelo_inurba_marseille","lat":43.29435,"lon":5.39756,"is_reserved":false,"is_disabled":false,"rental_uris":{"android":"levelo://app?vid=204800a6-ed73-46e2-b49c-4e8b68cbec69","ios":"levelo://app?vid=204800a6-ed73-46e2-b49c-4e8b68cbec69"},"vehicle_type_id":"4","last_reported":1730740091,"current_range_meters":7200,"station_id":"ce4bh3h2rcd13ifvqdo0","pricing_plan_id":"cebpf4jnsgd1na2vs0mg"},{"bike_id":"77ead988-3f51-4e2c-86f8-3d1119da2e13","system_id":"levelo_inurba_marseille","lat":43.28839,"lon":5.39275,"is_reserved":false,"is_disabled":false,"rental_uris":{"android":"levelo://app?vid=77ead988-3f51-4e2c-86f8-3d1119da2e13","ios":"levelo://app?vid=77ead988-3f51-4e2c-86f8-3d1119da2e13"},"vehicle_type_id":"4","last_reported":1730740091,"current_range_meters":6800,"station_id":"ce4bh2p2rcd13ifvqdi0","pricing_plan_id":"cebpf4jnsgd1na2vs0mg"},{"bike_id":"50845716-b98a-4eec-bb87-52344fa5356b","system_id":"levelo_inurba_marseille","lat":43.27973,"lon":5.38725,"is_reserved":false,"is_disabled":false,"rental_uris":{"android":"levelo://app?vid=50845716-b98a-4eec-bb87-52344fa5356b","ios":"levelo://app?vid=50845716-b98a-4eec-bb87-52344fa5356b"},"vehicle_type_id":"4","last_reported":1730740091,"current_range_meters":2800,"station_id":"ce4bhg12rcd13ifvqf80","pricing_plan_id":"cebpf4jnsgd1na2vs0mg"},{"bike_id":"6e3d6d0d-7777-45bd-99b4-48246d045f3c","system_id":"levelo_inurba_marseille","lat":43.30118,"lon":5.39859,"is_reserved":false,"is_disabled":false,"rental_uris":{"android":"levelo://app?vid=6e3d6d0d-7777-45bd-99b4-48246d045f3c","ios":"levelo://app?vid=6e3d6d0d-7777-45bd-99b4-48246d045f3c"},"vehicle_type_id":"4","last_reported":1730740091,"current_range_meters":16400,"station_id":"ce4bh0h2rcd13ifvqd40","pricing_plan_id":"cebpf4jnsgd1na2vs0mg"},{"bike_id":"5fc7697d-503e-4786-89d0-c5a0408a66b0","system_id":"levelo_inurba_marseille","lat":43.32107,"lon":5.36771,"is_reserved":false,"is_disabled":false,"rental_uris":{"android":"levelo://app?vid=5fc7697d-503e-4786-89d0-c5a0408a66b0","ios":"levelo://app?vid=5fc7697d-503e-4786-89d0-c5a0408a66b0"},"vehicle_type_id":"4","last_reported":1730740091,"current_range_meters":8400,"station_id":"ce4bhrh2rcd13ifvqhug","pricing_plan_id":"cebpf4jnsgd1na2vs0mg"},{"bike_id":"35c069d8-41c5-4653-b4bb-6569383034d0","system_id":"levelo_inurba_marseille","lat":43.23181,"lon":5.4,"is_reserved":false,"is_disabled":false,"rental_uris":{"android":"levelo://app?vid=35c069d8-41c5-4653-b4bb-6569383034d0","ios":"levelo://app?vid=35c069d8-41c5-4653-b4bb-6569383034d0"},"vehicle_type_id":"4","last_reported":1730740091,"current_range_meters":26800,"station_id":"ce4bhn12rcd13ifvqgqg","pricing_plan_id":"cebpf4jnsgd1na2vs0mg"},{"bike_id":"11631e5a-25f5-4552-899d-dc0c452dab65","system_id":"levelo_inurba_marseille","lat":43.32365,"lon":5.38886,"is_reserved":false,"is_disabled":false,"rental_uris":{"android":"levelo://app?vid=11631e5a-25f5-4552-899d-dc0c452dab65","ios":"levelo://app?vid=11631e5a-25f5-4552-899d-dc0c452dab65"},"vehicle_type_id":"4","last_reported":1730740091,"current_range_meters":38800,"station_id":"ce4bhqp2rcd13ifvqhog","pricing_plan_id":"cebpf4jnsgd1na2vs0mg"},{"bike_id":"6b22af91-f7aa-4ef6-98e8-ff81a3411457","system_id":"levelo_inurba_marseille","lat":43.32109,"lon":5.36775,"is_reserved":false,"is_disabled":false,"rental_uris":{"android":"levelo://app?vid=6b22af91-f7aa-4ef6-98e8-ff81a3411457","ios":"levelo://app?vid=6b22af91-f7aa-4ef6-98e8-ff81a3411457"},"vehicle_type_id":"4","last_reported":1730740091,"current_range_meters":36400,"station_id":"ce4bhrh2rcd13ifvqhug","pricing_plan_id":"cebpf4jnsgd1na2vs0mg"},{"bike_id":"d4a49fc7-3e3e-48f7-b2fa-9f2885af5a37","system_id":"levelo_inurba_marseille","lat":43.29325,"lon":5.41158,"is_reserved":false,"is_disabled":false,"rental_uris":{"android":"levelo://app?vid=d4a49fc7-3e3e-48f7-b2fa-9f2885af5a37","ios":"levelo://app?vid=d4a49fc7-3e3e-48f7-b2fa-9f2885af5a37"},"vehicle_type_id":"4","last_reported":1730740091,"current_range_meters":12800,"station_id":"","pricing_plan_id":"cebpf4jnsgd1na2vs0mg"},{"bike_id":"b4cd1ccb-a0b9-4019-8461-cda84b7c9894","system_id":"levelo_inurba_marseille","lat":43.26489,"lon":5.39547,"is_reserved":false,"is_disabled":false,"rental_uris":{"android":"levelo://app?vid=b4cd1ccb-a0b9-4019-8461-cda84b7c9894","ios":"levelo://app?vid=b4cd1ccb-a0b9-4019-8461-cda84b7c9894"},"vehicle_type_id":"4","last_reported":1730740091,"current_range_meters":4400,"station_id":"ce4bhi12rcd13ifvqfq0","pricing_plan_id":"cebpf4jnsgd1na2vs0mg"},{"bike_id":"39945d1a-6f08-4199-9fe9-515b6e71a63d","system_id":"levelo_inurba_marseille","lat":43.28727,"lon":5.36099,"is_reserved":false,"is_disabled":false,"rental_uris":{"android":"levelo://app?vid=39945d1a-6f08-4199-9fe9-515b6e71a63d","ios":"levelo://app?vid=39945d1a-6f08-4199-9fe9-515b6e71a63d"},"vehicle_type_id":"4","last_reported":1730740091,"current_range_meters":29600,"station_id":"cki0cbj6b192h4jlfktg","pricing_plan_id":"cebpf4jnsgd1na2vs0mg"},{"bike_id":"c2051cc7-25f7-4097-902d-15035d9a10cc","system_id":"levelo_inurba_marseille","lat":43.25122,"lon":5.40321,"is_reserved":false,"is_disabled":false,"rental_uris":{"android":"levelo://app?vid=c2051cc7-25f7-4097-902d-15035d9a10cc","ios":"levelo://app?vid=c2051cc7-25f7-4097-902d-15035d9a10cc"},"vehicle_type_id":"4","last_reported":1730740091,"current_range_meters":7200,"station_id":"ce4bhlh2rcd13ifvqgig","pricing_plan_id":"cebpf4jnsgd1na2vs0mg"},{"bike_id":"ce8e5906-0d4f-4085-a6e2-c7f244080cc6","system_id":"levelo_inurba_marseille","lat":43.32289,"lon":5.38281,"is_reserved":false,"is_disabled":false,"rental_uris":{"android":"levelo://app?vid=ce8e5906-0d4f-4085-a6e2-c7f244080cc6","ios":"levelo://app?vid=ce8e5906-0d4f-4085-a6e2-c7f244080cc6"},"vehicle_type_id":"4","last_reported":1730740091,"current_range_meters":23200,"station_id":"ce4bhr12rcd13ifvqhqg","pricing_plan_id":"cebpf4jnsgd1na2vs0mg"},{"bike_id":"6db0df53-e51c-44c4-b87e-fc6acdf253e2","system_id":"levelo_inurba_marseille","lat":43.2681,"lon":5.40271,"is_reserved":false,"is_disabled":false,"rental_uris":{"android":"levelo://app?vid=6db0df53-e51c-44c4-b87e-fc6acdf253e2","ios":"levelo://app?vid=6db0df53-e51c-44c4-b87e-fc6acdf253e2"},"vehicle_type_id":"4","last_reported":1730740091,"current_range_meters":38800,"station_id":"ce501612rcd8frsf0b60","pricing_plan_id":"cebpf4jnsgd1na2vs0mg"},{"bike_id":"a7d8adab-756d-4085-b723-7fd541211f21","system_id":"levelo_inurba_marseille","lat":43.29047,"lon":5.39942,"is_reserved":false,"is_disabled":false,"rental_uris":{"android":"levelo://app?vid=a7d8adab-756d-4085-b723-7fd541211f21","ios":"levelo://app?vid=a7d8adab-756d-4085-b723-7fd541211f21"},"vehicle_type_id":"4","last_reported":1730740091,"current_range_meters":16800,"station_id":"ce4bh392rcd13ifvqdm0","pricing_plan_id":"cebpf4jnsgd1na2vs0mg"},{"bike_id":"7ff0acce-06b8-4c84-9632-ef83fcc6939b","system_id":"levelo_inurba_marseille","lat":43.2738,"lon":5.36263,"is_reserved":false,"is_disabled":false,"rental_uris":{"android":"levelo://app?vid=7ff0acce-06b8-4c84-9632-ef83fcc6939b","ios":"levelo://app?vid=7ff0acce-06b8-4c84-9632-ef83fcc6939b"},"vehicle_type_id":"4","last_reported":1730740091,"current_range_meters":28800,"station_id":"ce4bhbh2rcd13ifvqeo0","pricing_plan_id":"cebpf4jnsgd1na2vs0mg"},{"bike_id":"3d905fef-98e6-446e-8eca-4cad0f1b6b59","system_id":"levelo_inurba_marseille","lat":43.29576,"lon":5.39965,"is_reserved":false,"is_disabled":false,"rental_uris":{"android":"levelo://app?vid=3d905fef-98e6-446e-8eca-4cad0f1b6b59","ios":"levelo://app?vid=3d905fef-98e6-446e-8eca-4cad0f1b6b59"},"vehicle_type_id":"4","last_reported":1730740091,"current_range_meters":7200,"station_id":"ce4bh312rcd13ifvqdj0","pricing_plan_id":"cebpf4jnsgd1na2vs0mg"},{"bike_id":"4e72ee59-bdfc-4fc6-9bd8-4ee90be7da9c","system_id":"levelo_inurba_marseille","lat":43.25114,"lon":5.40321,"is_reserved":false,"is_disabled":false,"rental_uris":{"android":"levelo://app?vid=4e72ee59-bdfc-4fc6-9bd8-4ee90be7da9c","ios":"levelo://app?vid=4e72ee59-bdfc-4fc6-9bd8-4ee90be7da9c"},"vehicle_type_id":"4","last_reported":1730740091,"current_range_meters":27200,"station_id":"ce4bhlh2rcd13ifvqgig","pricing_plan_id":"cebpf4jnsgd1na2vs0mg"},{"bike_id":"206b53cc-a0a9-44c0-8fb7-1992135e3687","system_id":"levelo_inurba_marseille","lat":43.23965,"lon":5.36635,"is_reserved":false,"is_disabled":false,"rental_uris":{"android":"levelo://app?vid=206b53cc-a0a9-44c0-8fb7-1992135e3687","ios":"levelo://app?vid=206b53cc-a0a9-44c0-8fb7-1992135e3687"},"vehicle_type_id":"4","last_reported":1730740091,"current_range_meters":17200,"station_id":"ce4bhi12rcd13ifvqfp0","pricing_plan_id":"cebpf4jnsgd1na2vs0mg"},{"bike_id":"1ccb1e8d-670e-4ba6-8a30-1f12c2c18628","system_id":"levelo_inurba_marseille","lat":43.28161,"lon":5.42646,"is_reserved":false,"is_disabled":false,"rental_uris":{"android":"levelo://app?vid=1ccb1e8d-670e-4ba6-8a30-1f12c2c18628","ios":"levelo://app?vid=1ccb1e8d-670e-4ba6-8a30-1f12c2c18628"},"vehicle_type_id":"4","last_reported":1730740091,"current_range_meters":6400,"station_id":"ce4bhnh2rcd13ifvqgug","pricing_plan_id":"cebpf4jnsgd1na2vs0mg"},{"bike_id":"29490a6a-4ca9-4889-8f95-2162d8f3472e","system_id":"levelo_inurba_marseille","lat":43.29574,"lon":5.37511,"is_reserved":false,"is_disabled":false,"rental_uris":{"android":"levelo://app?vid=29490a6a-4ca9-4889-8f95-2162d8f3472e","ios":"levelo://app?vid=29490a6a-4ca9-4889-8f95-2162d8f3472e"},"vehicle_type_id":"4","last_reported":1730740091,"current_range_meters":29600,"station_id":"ce4bgh92rcd13ifvqb50","pricing_plan_id":"cebpf4jnsgd1na2vs0mg"},{"bike_id":"375ae97f-d3b8-4c34-a54c-e41ba9532f44","system_id":"levelo_inurba_marseille","lat":43.32488,"lon":5.36568,"is_reserved":false,"is_disabled":false,"rental_uris":{"android":"levelo://app?vid=375ae97f-d3b8-4c34-a54c-e41ba9532f44","ios":"levelo://app?vid=375ae97f-d3b8-4c34-a54c-e41ba9532f44"},"vehicle_type_id":"4","last_reported":1730740091,"current_range_meters":22000,"station_id":"ce4bhs12rcd13ifvqhvg","pricing_plan_id":"cebpf4jnsgd1na2vs0mg"},{"bike_id":"fc2d4b29-81e7-4f16-9ffb-6ae43b275efc","system_id":"levelo_inurba_marseille","lat":43.31334,"lon":5.39696,"is_reserved":false,"is_disabled":false,"rental_uris":{"android":"levelo://app?vid=fc2d4b29-81e7-4f16-9ffb-6ae43b275efc","ios":"levelo://app?vid=fc2d4b29-81e7-4f16-9ffb-6ae43b275efc"},"vehicle_type_id":"4","last_reported":1730740091,"current_range_meters":11200,"station_id":"ce4bgvp2rcd13ifvqcu0","pricing_plan_id":"cebpf4jnsgd1na2vs0mg"},{"bike_id":"dcb7a669-4a51-4af0-99fd-2bd6bd494665","system_id":"levelo_inurba_marseille","lat":43.3237,"lon":5.36775,"is_reserved":false,"is_disabled":false,"rental_uris":{"android":"levelo://app?vid=dcb7a669-4a51-4af0-99fd-2bd6bd494665","ios":"levelo://app?vid=dcb7a669-4a51-4af0-99fd-2bd6bd494665"},"vehicle_type_id":"4","last_reported":1730740091,"current_range_meters":6800,"station_id":"ce4bhsh2rcd13ifvqi2g","pricing_plan_id":"cebpf4jnsgd1na2vs0mg"},{"bike_id":"8f6ae032-9bce-4fab-b9c5-8174447ce3ce","system_id":"levelo_inurba_marseille","lat":43.29522,"lon":5.39035,"is_reserved":false,"is_disabled":false,"rental_uris":{"android":"levelo://app?vid=8f6ae032-9bce-4fab-b9c5-8174447ce3ce","ios":"levelo://app?vid=8f6ae032-9bce-4fab-b9c5-8174447ce3ce"},"vehicle_type_id":"4","last_reported":1730740091,"current_range_meters":32400,"station_id":"ce4bh3p2rcd13ifvqdp0","pricing_plan_id":"cebpf4jnsgd1na2vs0mg"},{"bike_id":"07752058-de18-45fb-9532-037f072df478","system_id":"levelo_inurba_marseille","lat":43.29267,"lon":5.3845,"is_reserved":false,"is_disabled":false,"rental_uris":{"android":"levelo://app?vid=07752058-de18-45fb-9532-037f072df478","ios":"levelo://app?vid=07752058-de18-45fb-9532-037f072df478"},"vehicle_type_id":"4","last_reported":1730740091,"current_range_meters":3600,"station_id":"ce4bh692rcd13ifvqea0","pricing_plan_id":"cebpf4jnsgd1na2vs0mg"},{"bike_id":"9650d764-e888-43f6-9d04-341dbd770544","system_id":"levelo_inurba_marseille","lat":43.29869,"lon":5.39737,"is_reserved":false,"is_disabled":false,"rental_uris":{"android":"levelo://app?vid=9650d764-e888-43f6-9d04-341dbd770544","ios":"levelo://app?vid=9650d764-e888-43f6-9d04-341dbd770544"},"vehicle_type_id":"4","last_reported":1730740091,"current_range_meters":22400,"station_id":"ce4bh0h2rcd13ifvqd50","pricing_plan_id":"cebpf4jnsgd1na2vs0mg"},{"bike_id":"9b4779ab-89f2-4f31-8ebf-bb8e9c94afd6","system_id":"levelo_inurba_marseille","lat":43.2467,"lon":5.38169,"is_reserved":false,"is_disabled":false,"rental_uris":{"android":"levelo://app?vid=9b4779ab-89f2-4f31-8ebf-bb8e9c94afd6","ios":"levelo://app?vid=9b4779ab-89f2-4f31-8ebf-bb8e9c94afd6"},"vehicle_type_id":"4","last_reported":1730740091,"current_range_meters":23200,"station_id":"ce4bhih2rcd13ifvqfr0","pricing_plan_id":"cebpf4jnsgd1na2vs0mg"},{"bike_id":"2aef2044-d47a-442e-8f6b-7fe0cf5a8a1d","system_id":"levelo_inurba_marseille","lat":43.28421,"lon":5.37507,"is_reserved":false,"is_disabled":false,"rental_uris":{"android":"levelo://app?vid=2aef2044-d47a-442e-8f6b-7fe0cf5a8a1d","ios":"levelo://app?vid=2aef2044-d47a-442e-8f6b-7fe0cf5a8a1d"},"vehicle_type_id":"4","last_reported":1730740091,"current_range_meters":24800,"station_id":"ce4bh412rcd13ifvqds0","pricing_plan_id":"cebpf4jnsgd1na2vs0mg"},{"bike_id":"cc164c79-47b7-41a2-8ddf-f6e1442291cb","system_id":"levelo_inurba_marseille","lat":43.2782,"lon":5.40717,"is_reserved":false,"is_disabled":false,"rental_uris":{"android":"levelo://app?vid=cc164c79-47b7-41a2-8ddf-f6e1442291cb","ios":"levelo://app?vid=cc164c79-47b7-41a2-8ddf-f6e1442291cb"},"vehicle_type_id":"4","last_reported":1730740091,"current_range_meters":27600,"station_id":"ce4bhnh2rcd13ifvqgtg","pricing_plan_id":"cebpf4jnsgd1na2vs0mg"},{"bike_id":"a7adc7ea-055f-47bb-b719-ed2702addb6b","system_id":"levelo_inurba_marseille","lat":43.28459,"lon":5.35895,"is_reserved":false,"is_disabled":false,"rental_uris":{"android":"levelo://app?vid=a7adc7ea-055f-47bb-b719-ed2702addb6b","ios":"levelo://app?vid=a7adc7ea-055f-47bb-b719-ed2702addb6b"},"vehicle_type_id":"4","last_reported":1730740091,"current_range_meters":36400,"station_id":"ce4bhah2rcd13ifvqei0","pricing_plan_id":"cebpf4jnsgd1na2vs0mg"},{"bike_id":"db895ee5-bc71-42a4-aa02-e93386a97a93","system_id":"levelo_inurba_marseille","lat":43.30341,"lon":5.40427,"is_reserved":false,"is_disabled":false,"rental_uris":{"android":"levelo://app?vid=db895ee5-bc71-42a4-aa02-e93386a97a93","ios":"levelo://app?vid=db895ee5-bc71-42a4-aa02-e93386a97a93"},"vehicle_type_id":"4","last_reported":1730740091,"current_range_meters":24800,"station_id":"ce4bh012rcd13ifvqd10","pricing_plan_id":"cebpf4jnsgd1na2vs0mg"},{"bike_id":"16b757ce-7414-4fcb-9548-d134dab1fa12","system_id":"levelo_inurba_marseille","lat":43.26512,"lon":5.39534,"is_reserved":false,"is_disabled":false,"rental_uris":{"android":"levelo://app?vid=16b757ce-7414-4fcb-9548-d134dab1fa12","ios":"levelo://app?vid=16b757ce-7414-4fcb-9548-d134dab1fa12"},"vehicle_type_id":"4","last_reported":1730740091,"current_range_meters":30000,"station_id":"ce4bhi12rcd13ifvqfq0","pricing_plan_id":"cebpf4jnsgd1na2vs0mg"},{"bike_id":"4c8e72b5-aba7-4439-8dcc-1e2370b4bb8a","system_id":"levelo_inurba_marseille","lat":43.308,"lon":5.43524,"is_reserved":false,"is_disabled":false,"rental_uris":{"android":"levelo://app?vid=4c8e72b5-aba7-4439-8dcc-1e2370b4bb8a","ios":"levelo://app?vid=4c8e72b5-aba7-4439-8dcc-1e2370b4bb8a"},"vehicle_type_id":"4","last_reported":1730740091,"current_range_meters":39200,"station_id":"ce4bhph2rcd13ifvqheg","pricing_plan_id":"cebpf4jnsgd1na2vs0mg"},{"bike_id":"29c3b5d2-596b-48ea-b011-1d58b7700a3e","system_id":"levelo_inurba_marseille","lat":43.28459,"lon":5.35887,"is_reserved":false,"is_disabled":false,"rental_uris":{"android":"levelo://app?vid=29c3b5d2-596b-48ea-b011-1d58b7700a3e","ios":"levelo://app?vid=29c3b5d2-596b-48ea-b011-1d58b7700a3e"},"vehicle_type_id":"4","last_reported":1730740091,"current_range_meters":11600,"station_id":"ce4bhah2rcd13ifvqei0","pricing_plan_id":"cebpf4jnsgd1na2vs0mg"},{"bike_id":"75ed7478-abbb-49b2-99e0-8898b4b807f8","system_id":"levelo_inurba_marseille","lat":43.27618,"lon":5.36111,"is_reserved":false,"is_disabled":false,"rental_uris":{"android":"levelo://app?vid=75ed7478-abbb-49b2-99e0-8898b4b807f8","ios":"levelo://app?vid=75ed7478-abbb-49b2-99e0-8898b4b807f8"},"vehicle_type_id":"4","last_reported":1730740091,"current_range_meters":7200,"station_id":"ce4bgj92rcd13ifvqbe0","pricing_plan_id":"cebpf4jnsgd1na2vs0mg"},{"bike_id":"3f9eba84-9d0d-4eb1-8e69-d5a2b0e85e7c","system_id":"levelo_inurba_marseille","lat":43.28578,"lon":5.39502,"is_reserved":false,"is_disabled":false,"rental_uris":{"android":"levelo://app?vid=3f9eba84-9d0d-4eb1-8e69-d5a2b0e85e7c","ios":"levelo://app?vid=3f9eba84-9d0d-4eb1-8e69-d5a2b0e85e7c"},"vehicle_type_id":"4","last_reported":1730740091,"current_range_meters":6800,"station_id":"ce4bh292rcd13ifvqdg0","pricing_plan_id":"cebpf4jnsgd1na2vs0mg"},{"bike_id":"64f77d45-11f3-43d9-ba38-41959be5d62b","system_id":"levelo_inurba_marseille","lat":43.2732,"lon":5.39068,"is_reserved":false,"is_disabled":false,"rental_uris":{"android":"levelo://app?vid=64f77d45-11f3-43d9-ba38-41959be5d62b","ios":"levelo://app?vid=64f77d45-11f3-43d9-ba38-41959be5d62b"},"vehicle_type_id":"4","last_reported":1730740091,"current_range_meters":39200,"station_id":"ce4bhgp2rcd13ifvqfe0","pricing_plan_id":"cebpf4jnsgd1na2vs0mg"},{"bike_id":"4ad7c7c2-8ff3-4ca5-9524-58a7633dd278","system_id":"levelo_inurba_marseille","lat":43.32483,"lon":5.36559,"is_reserved":false,"is_disabled":false,"rental_uris":{"android":"levelo://app?vid=4ad7c7c2-8ff3-4ca5-9524-58a7633dd278","ios":"levelo://app?vid=4ad7c7c2-8ff3-4ca5-9524-58a7633dd278"},"vehicle_type_id":"4","last_reported":1730740091,"current_range_meters":39200,"station_id":"ce4bhs12rcd13ifvqhvg","pricing_plan_id":"cebpf4jnsgd1na2vs0mg"},{"bike_id":"a48f8051-16c1-42f2-ae1f-45cf856647ce","system_id":"levelo_inurba_marseille","lat":43.29897,"lon":5.43677,"is_reserved":false,"is_disabled":false,"rental_uris":{"android":"levelo://app?vid=a48f8051-16c1-42f2-ae1f-45cf856647ce","ios":"levelo://app?vid=a48f8051-16c1-42f2-ae1f-45cf856647ce"},"vehicle_type_id":"4","last_reported":1730740091,"current_range_meters":12000,"station_id":"ce4bhpp2rcd13ifvqhfg","pricing_plan_id":"cebpf4jnsgd1na2vs0mg"},{"bike_id":"b03e9bdf-c54e-462a-82b0-f3fb2be4bd17","system_id":"levelo_inurba_marseille","lat":43.23185,"lon":5.39989,"is_reserved":false,"is_disabled":false,"rental_uris":{"android":"levelo://app?vid=b03e9bdf-c54e-462a-82b0-f3fb2be4bd17","ios":"levelo://app?vid=b03e9bdf-c54e-462a-82b0-f3fb2be4bd17"},"vehicle_type_id":"4","last_reported":1730740091,"current_range_meters":29600,"station_id":"ce4bhn12rcd13ifvqgqg","pricing_plan_id":"cebpf4jnsgd1na2vs0mg"},{"bike_id":"740f96c3-2e7c-4205-8a09-78483280bb9f","system_id":"levelo_inurba_marseille","lat":43.299,"lon":5.4367,"is_reserved":false,"is_disabled":false,"rental_uris":{"android":"levelo://app?vid=740f96c3-2e7c-4205-8a09-78483280bb9f","ios":"levelo://app?vid=740f96c3-2e7c-4205-8a09-78483280bb9f"},"vehicle_type_id":"4","last_reported":1730740091,"current_range_meters":30000,"station_id":"ce4bhpp2rcd13ifvqhfg","pricing_plan_id":"cebpf4jnsgd1na2vs0mg"},{"bike_id":"41bd49b9-1950-41c9-b858-83b6dfe232ea","system_id":"levelo_inurba_marseille","lat":43.23177,"lon":5.3999,"is_reserved":false,"is_disabled":false,"rental_uris":{"android":"levelo://app?vid=41bd49b9-1950-41c9-b858-83b6dfe232ea","ios":"levelo://app?vid=41bd49b9-1950-41c9-b858-83b6dfe232ea"},"vehicle_type_id":"4","last_reported":1730740091,"current_range_meters":28400,"station_id":"ce4bhn12rcd13ifvqgqg","pricing_plan_id":"cebpf4jnsgd1na2vs0mg"},{"bike_id":"722faac8-cbf7-49ec-94da-bec39e552085","system_id":"levelo_inurba_marseille","lat":43.30909,"lon":5.37188,"is_reserved":false,"is_disabled":false,"rental_uris":{"android":"levelo://app?vid=722faac8-cbf7-49ec-94da-bec39e552085","ios":"levelo://app?vid=722faac8-cbf7-49ec-94da-bec39e552085"},"vehicle_type_id":"4","last_reported":1730740091,"current_range_meters":23200,"station_id":"ce4bguh2rcd13ifvqckg","pricing_plan_id":"cebpf4jnsgd1na2vs0mg"},{"bike_id":"71bcb08e-e7af-4ed1-907c-5d1bb83b0408","system_id":"levelo_inurba_marseille","lat":43.3248,"lon":5.36558,"is_reserved":false,"is_disabled":false,"rental_uris":{"android":"levelo://app?vid=71bcb08e-e7af-4ed1-907c-5d1bb83b0408","ios":"levelo://app?vid=71bcb08e-e7af-4ed1-907c-5d1bb83b0408"},"vehicle_type_id":"4","last_reported":1730740091,"current_range_meters":39200,"station_id":"ce4bhs12rcd13ifvqhvg","pricing_plan_id":"cebpf4jnsgd1na2vs0mg"},{"bike_id":"5104bffa-6cc2-477d-a62e-a4a4226f9b28","system_id":"levelo_inurba_marseille","lat":43.23176,"lon":5.39993,"is_reserved":false,"is_disabled":false,"rental_uris":{"android":"levelo://app?vid=5104bffa-6cc2-477d-a62e-a4a4226f9b28","ios":"levelo://app?vid=5104bffa-6cc2-477d-a62e-a4a4226f9b28"},"vehicle_type_id":"4","last_reported":1730740091,"current_range_meters":2000,"station_id":"ce4bhn12rcd13ifvqgqg","pricing_plan_id":"cebpf4jnsgd1na2vs0mg"},{"bike_id":"67e5d0e7-9b13-4e5f-8ce2-0b04c520e849","system_id":"levelo_inurba_marseille","lat":43.25087,"lon":5.39525,"is_reserved":false,"is_disabled":false,"rental_uris":{"android":"levelo://app?vid=67e5d0e7-9b13-4e5f-8ce2-0b04c520e849","ios":"levelo://app?vid=67e5d0e7-9b13-4e5f-8ce2-0b04c520e849"},"vehicle_type_id":"4","last_reported":1730740091,"current_range_meters":8400,"station_id":"ce4bhm12rcd13ifvqgkg","pricing_plan_id":"cebpf4jnsgd1na2vs0mg"},{"bike_id":"a71ccd2c-562f-495e-826e-42653221645d","system_id":"levelo_inurba_marseille","lat":43.31702,"lon":5.37732,"is_reserved":false,"is_disabled":false,"rental_uris":{"android":"levelo://app?vid=a71ccd2c-562f-495e-826e-42653221645d","ios":"levelo://app?vid=a71ccd2c-562f-495e-826e-42653221645d"},"vehicle_type_id":"4","last_reported":1730740091,"current_range_meters":8400,"station_id":"ce4bgth2rcd13ifvqch0","pricing_plan_id":"cebpf4jnsgd1na2vs0mg"},{"bike_id":"5c2f3c4a-2b73-45da-9d81-ec69a9adceb4","system_id":"levelo_inurba_marseille","lat":43.25866,"lon":5.39903,"is_reserved":false,"is_disabled":false,"rental_uris":{"android":"levelo://app?vid=5c2f3c4a-2b73-45da-9d81-ec69a9adceb4","ios":"levelo://app?vid=5c2f3c4a-2b73-45da-9d81-ec69a9adceb4"},"vehicle_type_id":"4","last_reported":1730740091,"current_range_meters":6400,"station_id":"ce4bhl92rcd13ifvqghg","pricing_plan_id":"cebpf4jnsgd1na2vs0mg"},{"bike_id":"641668fb-7821-4ad5-a704-60e491c215d6","system_id":"levelo_inurba_marseille","lat":43.29867,"lon":5.39725,"is_reserved":false,"is_disabled":false,"rental_uris":{"android":"levelo://app?vid=641668fb-7821-4ad5-a704-60e491c215d6","ios":"levelo://app?vid=641668fb-7821-4ad5-a704-60e491c215d6"},"vehicle_type_id":"4","last_reported":1730740091,"current_range_meters":8800,"station_id":"ce4bh0h2rcd13ifvqd50","pricing_plan_id":"cebpf4jnsgd1na2vs0mg"},{"bike_id":"6455d4dd-e00c-4cff-935b-0b44b4254bf2","system_id":"levelo_inurba_marseille","lat":43.31326,"lon":5.39695,"is_reserved":false,"is_disabled":false,"rental_uris":{"android":"levelo://app?vid=6455d4dd-e00c-4cff-935b-0b44b4254bf2","ios":"levelo://app?vid=6455d4dd-e00c-4cff-935b-0b44b4254bf2"},"vehicle_type_id":"4","last_reported":1730740091,"current_range_meters":24000,"station_id":"ce4bgvp2rcd13ifvqcu0","pricing_plan_id":"cebpf4jnsgd1na2vs0mg"},{"bike_id":"09c4e025-0035-4b02-9331-e4c6e4b55438","system_id":"levelo_inurba_marseille","lat":43.30361,"lon":5.39151,"is_reserved":false,"is_disabled":false,"rental_uris":{"android":"levelo://app?vid=09c4e025-0035-4b02-9331-e4c6e4b55438","ios":"levelo://app?vid=09c4e025-0035-4b02-9331-e4c6e4b55438"},"vehicle_type_id":"4","last_reported":1730740091,"current_range_meters":28000,"station_id":"","pricing_plan_id":"cebpf4jnsgd1na2vs0mg"},{"bike_id":"0e85ac30-2803-4b92-845c-91ccee4229e9","system_id":"levelo_inurba_marseille","lat":43.29879,"lon":5.39737,"is_reserved":false,"is_disabled":false,"rental_uris":{"android":"levelo://app?vid=0e85ac30-2803-4b92-845c-91ccee4229e9","ios":"levelo://app?vid=0e85ac30-2803-4b92-845c-91ccee4229e9"},"vehicle_type_id":"4","last_reported":1730740091,"current_range_meters":9600,"station_id":"ce4bh0h2rcd13ifvqd50","pricing_plan_id":"cebpf4jnsgd1na2vs0mg"},{"bike_id":"1d814d4d-7579-4003-b98c-d69a9bcefb96","system_id":"levelo_inurba_marseille","lat":43.30424,"lon":5.41299,"is_reserved":false,"is_disabled":false,"rental_uris":{"android":"levelo://app?vid=1d814d4d-7579-4003-b98c-d69a9bcefb96","ios":"levelo://app?vid=1d814d4d-7579-4003-b98c-d69a9bcefb96"},"vehicle_type_id":"4","last_reported":1730740091,"current_range_meters":25600,"station_id":"ce4bhop2rcd13ifvqh8g","pricing_plan_id":"cebpf4jnsgd1na2vs0mg"},{"bike_id":"37fe2743-6c50-4c6a-bae4-fa92b9306a26","system_id":"levelo_inurba_marseille","lat":43.30805,"lon":5.38172,"is_reserved":false,"is_disabled":false,"rental_uris":{"android":"levelo://app?vid=37fe2743-6c50-4c6a-bae4-fa92b9306a26","ios":"levelo://app?vid=37fe2743-6c50-4c6a-bae4-fa92b9306a26"},"vehicle_type_id":"4","last_reported":1730740091,"current_range_meters":16800,"station_id":"ce4bguh2rcd13ifvqckg","pricing_plan_id":"cebpf4jnsgd1na2vs0mg"},{"bike_id":"2274338d-825b-45f7-9d65-08dc30936a15","system_id":"levelo_inurba_marseille","lat":43.26215,"lon":5.37441,"is_reserved":false,"is_disabled":false,"rental_uris":{"android":"levelo://app?vid=2274338d-825b-45f7-9d65-08dc30936a15","ios":"levelo://app?vid=2274338d-825b-45f7-9d65-08dc30936a15"},"vehicle_type_id":"4","last_reported":1730740091,"current_range_meters":27600,"station_id":"ce4bhgp2rcd13ifvqfc0","pricing_plan_id":"cebpf4jnsgd1na2vs0mg"},{"bike_id":"05673940-bbaf-4d06-9d95-650ec4ebb7e5","system_id":"levelo_inurba_marseille","lat":43.30306,"lon":5.39213,"is_reserved":false,"is_disabled":false,"rental_uris":{"android":"levelo://app?vid=05673940-bbaf-4d06-9d95-650ec4ebb7e5","ios":"levelo://app?vid=05673940-bbaf-4d06-9d95-650ec4ebb7e5"},"vehicle_type_id":"4","last_reported":1730740091,"current_range_meters":17600,"station_id":"ce4bgkh2rcd13ifvqbk0","pricing_plan_id":"cebpf4jnsgd1na2vs0mg"},{"bike_id":"3e3c98d6-0054-4161-9654-9a791ea46f64","system_id":"levelo_inurba_marseille","lat":43.28083,"lon":5.39665,"is_reserved":false,"is_disabled":false,"rental_uris":{"android":"levelo://app?vid=3e3c98d6-0054-4161-9654-9a791ea46f64","ios":"levelo://app?vid=3e3c98d6-0054-4161-9654-9a791ea46f64"},"vehicle_type_id":"4","last_reported":1730740091,"current_range_meters":14000,"station_id":"ce4bho12rcd13ifvqh2g","pricing_plan_id":"cebpf4jnsgd1na2vs0mg"},{"bike_id":"3013f184-78da-45a1-a8cd-1f840bac8632","system_id":"levelo_inurba_marseille","lat":43.30123,"lon":5.39868,"is_reserved":false,"is_disabled":false,"rental_uris":{"android":"levelo://app?vid=3013f184-78da-45a1-a8cd-1f840bac8632","ios":"levelo://app?vid=3013f184-78da-45a1-a8cd-1f840bac8632"},"vehicle_type_id":"4","last_reported":1730740091,"current_range_meters":2000,"station_id":"ce4bh0h2rcd13ifvqd40","pricing_plan_id":"cebpf4jnsgd1na2vs0mg"},{"bike_id":"9a44c08f-c808-47ff-8d0d-0bf8b328bc1d","system_id":"levelo_inurba_marseille","lat":43.30327,"lon":5.40445,"is_reserved":false,"is_disabled":false,"rental_uris":{"android":"levelo://app?vid=9a44c08f-c808-47ff-8d0d-0bf8b328bc1d","ios":"levelo://app?vid=9a44c08f-c808-47ff-8d0d-0bf8b328bc1d"},"vehicle_type_id":"4","last_reported":1730740091,"current_range_meters":28800,"station_id":"ce4bh012rcd13ifvqd10","pricing_plan_id":"cebpf4jnsgd1na2vs0mg"},{"bike_id":"89860ea7-c0de-43dc-9049-302182c93865","system_id":"levelo_inurba_marseille","lat":43.27382,"lon":5.36266,"is_reserved":false,"is_disabled":false,"rental_uris":{"android":"levelo://app?vid=89860ea7-c0de-43dc-9049-302182c93865","ios":"levelo://app?vid=89860ea7-c0de-43dc-9049-302182c93865"},"vehicle_type_id":"4","last_reported":1730740091,"current_range_meters":30400,"station_id":"ce4bhbh2rcd13ifvqeo0","pricing_plan_id":"cebpf4jnsgd1na2vs0mg"},{"bike_id":"ee04f985-fea8-4fde-a7dd-90765ad98b72","system_id":"levelo_inurba_marseille","lat":43.27182,"lon":5.40998,"is_reserved":false,"is_disabled":false,"rental_uris":{"android":"levelo://app?vid=ee04f985-fea8-4fde-a7dd-90765ad98b72","ios":"levelo://app?vid=ee04f985-fea8-4fde-a7dd-90765ad98b72"},"vehicle_type_id":"4","last_reported":1730740091,"current_range_meters":39200,"station_id":"ce4bhl12rcd13ifvqgf0","pricing_plan_id":"cebpf4jnsgd1na2vs0mg"},{"bike_id":"1df10c6f-3957-4fe6-b347-02bbbdfcad6c","system_id":"levelo_inurba_marseille","lat":43.28065,"lon":5.3784,"is_reserved":false,"is_disabled":false,"rental_uris":{"android":"levelo://app?vid=1df10c6f-3957-4fe6-b347-02bbbdfcad6c","ios":"levelo://app?vid=1df10c6f-3957-4fe6-b347-02bbbdfcad6c"},"vehicle_type_id":"4","last_reported":1730740091,"current_range_meters":38400,"station_id":"ce4bhf92rcd13ifvqf50","pricing_plan_id":"cebpf4jnsgd1na2vs0mg"},{"bike_id":"1288e3cd-5eab-435a-b769-6436a3319d16","system_id":"levelo_inurba_marseille","lat":43.29911,"lon":5.38149,"is_reserved":false,"is_disabled":false,"rental_uris":{"android":"levelo://app?vid=1288e3cd-5eab-435a-b769-6436a3319d16","ios":"levelo://app?vid=1288e3cd-5eab-435a-b769-6436a3319d16"},"vehicle_type_id":"4","last_reported":1730740091,"current_range_meters":11200,"station_id":"ce4bgj12rcd13ifvqbc0","pricing_plan_id":"cebpf4jnsgd1na2vs0mg"},{"bike_id":"3a801cbb-1e2e-46c3-bc85-0c5198b9902c","system_id":"levelo_inurba_marseille","lat":43.26529,"lon":5.38845,"is_reserved":false,"is_disabled":false,"rental_uris":{"android":"levelo://app?vid=3a801cbb-1e2e-46c3-bc85-0c5198b9902c","ios":"levelo://app?vid=3a801cbb-1e2e-46c3-bc85-0c5198b9902c"},"vehicle_type_id":"4","last_reported":1730740091,"current_range_meters":26000,"station_id":"","pricing_plan_id":"cebpf4jnsgd1na2vs0mg"},{"bike_id":"0ad4d9f0-5cfb-456e-98d1-4eb95ab7d61c","system_id":"levelo_inurba_marseille","lat":43.31711,"lon":5.37739,"is_reserved":false,"is_disabled":false,"rental_uris":{"android":"levelo://app?vid=0ad4d9f0-5cfb-456e-98d1-4eb95ab7d61c","ios":"levelo://app?vid=0ad4d9f0-5cfb-456e-98d1-4eb95ab7d61c"},"vehicle_type_id":"4","last_reported":1730740091,"current_range_meters":21600,"station_id":"ce4bgth2rcd13ifvqch0","pricing_plan_id":"cebpf4jnsgd1na2vs0mg"},{"bike_id":"1f3b29e9-ef68-461d-86bc-8ab46a43a8ab","system_id":"levelo_inurba_marseille","lat":43.24548,"lon":5.39528,"is_reserved":false,"is_disabled":false,"rental_uris":{"android":"levelo://app?vid=1f3b29e9-ef68-461d-86bc-8ab46a43a8ab","ios":"levelo://app?vid=1f3b29e9-ef68-461d-86bc-8ab46a43a8ab"},"vehicle_type_id":"4","last_reported":1730740091,"current_range_meters":16400,"station_id":"ce4bhlp2rcd13ifvqgjg","pricing_plan_id":"cebpf4jnsgd1na2vs0mg"},{"bike_id":"17438aa3-9b53-4bf2-bd09-4449e2700a5a","system_id":"levelo_inurba_marseille","lat":43.27416,"lon":5.39416,"is_reserved":false,"is_disabled":false,"rental_uris":{"android":"levelo://app?vid=17438aa3-9b53-4bf2-bd09-4449e2700a5a","ios":"levelo://app?vid=17438aa3-9b53-4bf2-bd09-4449e2700a5a"},"vehicle_type_id":"4","last_reported":1730740091,"current_range_meters":19600,"station_id":"ce4bhdp2rcd13ifvqf20","pricing_plan_id":"cebpf4jnsgd1na2vs0mg"},{"bike_id":"ffaa6031-4bac-44d2-9a47-7e68e8c361c7","system_id":"levelo_inurba_marseille","lat":43.30416,"lon":5.41291,"is_reserved":false,"is_disabled":false,"rental_uris":{"android":"levelo://app?vid=ffaa6031-4bac-44d2-9a47-7e68e8c361c7","ios":"levelo://app?vid=ffaa6031-4bac-44d2-9a47-7e68e8c361c7"},"vehicle_type_id":"4","last_reported":1730740091,"current_range_meters":9200,"station_id":"ce4bhop2rcd13ifvqh8g","pricing_plan_id":"cebpf4jnsgd1na2vs0mg"},{"bike_id":"55c81b3e-7732-4c87-a61b-ea0eddd50a17","system_id":"levelo_inurba_marseille","lat":43.271592,"lon":5.421788,"is_reserved":false,"is_disabled":false,"rental_uris":{"android":"levelo://app?vid=55c81b3e-7732-4c87-a61b-ea0eddd50a17","ios":"levelo://app?vid=55c81b3e-7732-4c87-a61b-ea0eddd50a17"},"vehicle_type_id":"4","last_reported":1730740091,"current_range_meters":28400,"station_id":"","pricing_plan_id":"cebpf4jnsgd1na2vs0mg"},{"bike_id":"cb2d98a3-3e83-4623-8e78-18ba44e61287","system_id":"levelo_inurba_marseille","lat":43.24081,"lon":5.37749,"is_reserved":false,"is_disabled":false,"rental_uris":{"android":"levelo://app?vid=cb2d98a3-3e83-4623-8e78-18ba44e61287","ios":"levelo://app?vid=cb2d98a3-3e83-4623-8e78-18ba44e61287"},"vehicle_type_id":"4","last_reported":1730740091,"current_range_meters":13600,"station_id":"ce4bhnp2rcd13ifvqgvg","pricing_plan_id":"cebpf4jnsgd1na2vs0mg"},{"bike_id":"d0737b84-a716-465a-99f2-970fac21df30","system_id":"levelo_inurba_marseille","lat":43.31757,"lon":5.39017,"is_reserved":false,"is_disabled":false,"rental_uris":{"android":"levelo://app?vid=d0737b84-a716-465a-99f2-970fac21df30","ios":"levelo://app?vid=d0737b84-a716-465a-99f2-970fac21df30"},"vehicle_type_id":"4","last_reported":1730740091,"current_range_meters":34000,"station_id":"ce4bhqp2rcd13ifvqhng","pricing_plan_id":"cebpf4jnsgd1na2vs0mg"},{"bike_id":"86e2edf2-6c68-4fd0-a42d-112551ca1d63","system_id":"levelo_inurba_marseille","lat":43.30321,"lon":5.40438,"is_reserved":false,"is_disabled":false,"rental_uris":{"android":"levelo://app?vid=86e2edf2-6c68-4fd0-a42d-112551ca1d63","ios":"levelo://app?vid=86e2edf2-6c68-4fd0-a42d-112551ca1d63"},"vehicle_type_id":"4","last_reported":1730740091,"current_range_meters":24400,"station_id":"ce4bh012rcd13ifvqd10","pricing_plan_id":"cebpf4jnsgd1na2vs0mg"},{"bike_id":"f25784a8-1fcb-453a-aee1-ed9ac2a153a7","system_id":"levelo_inurba_marseille","lat":43.311293,"lon":5.388509,"is_reserved":false,"is_disabled":false,"rental_uris":{"android":"levelo://app?vid=f25784a8-1fcb-453a-aee1-ed9ac2a153a7","ios":"levelo://app?vid=f25784a8-1fcb-453a-aee1-ed9ac2a153a7"},"vehicle_type_id":"4","last_reported":1730740091,"current_range_meters":11200,"station_id":"ce4bgqh2rcd13ifvqc5g","pricing_plan_id":"cebpf4jnsgd1na2vs0mg"},{"bike_id":"e17e8883-a89d-42b2-a2c9-e4aba26df99c","system_id":"levelo_inurba_marseille","lat":43.32483,"lon":5.36567,"is_reserved":false,"is_disabled":false,"rental_uris":{"android":"levelo://app?vid=e17e8883-a89d-42b2-a2c9-e4aba26df99c","ios":"levelo://app?vid=e17e8883-a89d-42b2-a2c9-e4aba26df99c"},"vehicle_type_id":"4","last_reported":1730740091,"current_range_meters":35600,"station_id":"ce4bhs12rcd13ifvqhvg","pricing_plan_id":"cebpf4jnsgd1na2vs0mg"},{"bike_id":"49da4fd8-9f95-43e6-86fe-9c73fb527dc8","system_id":"levelo_inurba_marseille","lat":43.26205,"lon":5.37932,"is_reserved":false,"is_disabled":false,"rental_uris":{"android":"levelo://app?vid=49da4fd8-9f95-43e6-86fe-9c73fb527dc8","ios":"levelo://app?vid=49da4fd8-9f95-43e6-86fe-9c73fb527dc8"},"vehicle_type_id":"4","last_reported":1730740091,"current_range_meters":6400,"station_id":"ce4bhjp2rcd13ifvqg90","pricing_plan_id":"cebpf4jnsgd1na2vs0mg"},{"bike_id":"8c9fc334-2a89-4091-a74d-fc08b501f264","system_id":"levelo_inurba_marseille","lat":43.30895,"lon":5.37187,"is_reserved":false,"is_disabled":false,"rental_uris":{"android":"levelo://app?vid=8c9fc334-2a89-4091-a74d-fc08b501f264","ios":"levelo://app?vid=8c9fc334-2a89-4091-a74d-fc08b501f264"},"vehicle_type_id":"4","last_reported":1730740091,"current_range_meters":34000,"station_id":"ce4bguh2rcd13ifvqckg","pricing_plan_id":"cebpf4jnsgd1na2vs0mg"},{"bike_id":"73c7333d-3aaf-41ff-ac5e-f415aac965c1","system_id":"levelo_inurba_marseille","lat":43.27816,"lon":5.40711,"is_reserved":false,"is_disabled":false,"rental_uris":{"android":"levelo://app?vid=73c7333d-3aaf-41ff-ac5e-f415aac965c1","ios":"levelo://app?vid=73c7333d-3aaf-41ff-ac5e-f415aac965c1"},"vehicle_type_id":"4","last_reported":1730740091,"current_range_meters":7200,"station_id":"ce4bhnh2rcd13ifvqgtg","pricing_plan_id":"cebpf4jnsgd1na2vs0mg"},{"bike_id":"8662ff61-dd99-4b62-b484-3a3c26938b9d","system_id":"levelo_inurba_marseille","lat":43.27955,"lon":5.38711,"is_reserved":false,"is_disabled":false,"rental_uris":{"android":"levelo://app?vid=8662ff61-dd99-4b62-b484-3a3c26938b9d","ios":"levelo://app?vid=8662ff61-dd99-4b62-b484-3a3c26938b9d"},"vehicle_type_id":"4","last_reported":1730740091,"current_range_meters":14000,"station_id":"ce4bhg12rcd13ifvqf80","pricing_plan_id":"cebpf4jnsgd1na2vs0mg"},{"bike_id":"97af30e0-f9d2-4a28-adc2-1ec5e8b5cb52","system_id":"levelo_inurba_marseille","lat":43.29232,"lon":5.36055,"is_reserved":false,"is_disabled":false,"rental_uris":{"android":"levelo://app?vid=97af30e0-f9d2-4a28-adc2-1ec5e8b5cb52","ios":"levelo://app?vid=97af30e0-f9d2-4a28-adc2-1ec5e8b5cb52"},"vehicle_type_id":"4","last_reported":1730740091,"current_range_meters":21600,"station_id":"ce4bhbh2rcd13ifvqeqg","pricing_plan_id":"cebpf4jnsgd1na2vs0mg"},{"bike_id":"b906bf5f-c2a6-4055-8388-e9209427a755","system_id":"levelo_inurba_marseille","lat":43.29574,"lon":5.39979,"is_reserved":false,"is_disabled":false,"rental_uris":{"android":"levelo://app?vid=b906bf5f-c2a6-4055-8388-e9209427a755","ios":"levelo://app?vid=b906bf5f-c2a6-4055-8388-e9209427a755"},"vehicle_type_id":"4","last_reported":1730740091,"current_range_meters":7200,"station_id":"ce4bh312rcd13ifvqdj0","pricing_plan_id":"cebpf4jnsgd1na2vs0mg"},{"bike_id":"c1234f4b-1ed8-47e8-b487-9140336210b1","system_id":"levelo_inurba_marseille","lat":43.28052,"lon":5.4098,"is_reserved":false,"is_disabled":false,"rental_uris":{"android":"levelo://app?vid=c1234f4b-1ed8-47e8-b487-9140336210b1","ios":"levelo://app?vid=c1234f4b-1ed8-47e8-b487-9140336210b1"},"vehicle_type_id":"4","last_reported":1730740091,"current_range_meters":8000,"station_id":"","pricing_plan_id":"cebpf4jnsgd1na2vs0mg"},{"bike_id":"c3f9f29d-b79a-40db-b2a3-e715ef506ff9","system_id":"levelo_inurba_marseille","lat":43.26579,"lon":5.39012,"is_reserved":false,"is_disabled":false,"rental_uris":{"android":"levelo://app?vid=c3f9f29d-b79a-40db-b2a3-e715ef506ff9","ios":"levelo://app?vid=c3f9f29d-b79a-40db-b2a3-e715ef506ff9"},"vehicle_type_id":"4","last_reported":1730740091,"current_range_meters":9200,"station_id":"ce4bhe12rcd13ifvqf30","pricing_plan_id":"cebpf4jnsgd1na2vs0mg"},{"bike_id":"e4c1efce-11ef-4051-9798-286a72639db7","system_id":"levelo_inurba_marseille","lat":43.29581,"lon":5.36737,"is_reserved":false,"is_disabled":false,"rental_uris":{"android":"levelo://app?vid=e4c1efce-11ef-4051-9798-286a72639db7","ios":"levelo://app?vid=e4c1efce-11ef-4051-9798-286a72639db7"},"vehicle_type_id":"4","last_reported":1730740091,"current_range_meters":3200,"station_id":"ce4bgph2rcd13ifvqc2g","pricing_plan_id":"cebpf4jnsgd1na2vs0mg"},{"bike_id":"d4bda4f6-1dcf-4378-8d64-456d1fa5c221","system_id":"levelo_inurba_marseille","lat":43.24807,"lon":5.37458,"is_reserved":false,"is_disabled":false,"rental_uris":{"android":"levelo://app?vid=d4bda4f6-1dcf-4378-8d64-456d1fa5c221","ios":"levelo://app?vid=d4bda4f6-1dcf-4378-8d64-456d1fa5c221"},"vehicle_type_id":"4","last_reported":1730740091,"current_range_meters":8400,"station_id":"ce4bhgh2rcd13ifvqfb0","pricing_plan_id":"cebpf4jnsgd1na2vs0mg"},{"bike_id":"5a6d03a1-e9a4-4130-a668-e311251bef45","system_id":"levelo_inurba_marseille","lat":43.30939,"lon":5.40138,"is_reserved":false,"is_disabled":false,"rental_uris":{"android":"levelo://app?vid=5a6d03a1-e9a4-4130-a668-e311251bef45","ios":"levelo://app?vid=5a6d03a1-e9a4-4130-a668-e311251bef45"},"vehicle_type_id":"4","last_reported":1730740091,"current_range_meters":3600,"station_id":"ce4bgvp2rcd13ifvqct0","pricing_plan_id":"cebpf4jnsgd1na2vs0mg"},{"bike_id":"e83df9b7-8a3f-4289-9d96-bb514665443c","system_id":"levelo_inurba_marseille","lat":43.29087,"lon":5.35919,"is_reserved":false,"is_disabled":false,"rental_uris":{"android":"levelo://app?vid=e83df9b7-8a3f-4289-9d96-bb514665443c","ios":"levelo://app?vid=e83df9b7-8a3f-4289-9d96-bb514665443c"},"vehicle_type_id":"4","last_reported":1730740091,"current_range_meters":23200,"station_id":"ce4bha92rcd13ifvqeg0","pricing_plan_id":"cebpf4jnsgd1na2vs0mg"},{"bike_id":"678a6a9f-ffed-44e0-81b5-df268c825550","system_id":"levelo_inurba_marseille","lat":43.325509,"lon":5.414313,"is_reserved":false,"is_disabled":false,"rental_uris":{"android":"levelo://app?vid=678a6a9f-ffed-44e0-81b5-df268c825550","ios":"levelo://app?vid=678a6a9f-ffed-44e0-81b5-df268c825550"},"vehicle_type_id":"4","last_reported":1730740091,"current_range_meters":8400,"station_id":"ce4bhq92rcd13ifvqhjg","pricing_plan_id":"cebpf4jnsgd1na2vs0mg"},{"bike_id":"d0cfa011-8f7e-4823-8aca-70509b47b826","system_id":"levelo_inurba_marseille","lat":43.29867,"lon":5.39744,"is_reserved":false,"is_disabled":false,"rental_uris":{"android":"levelo://app?vid=d0cfa011-8f7e-4823-8aca-70509b47b826","ios":"levelo://app?vid=d0cfa011-8f7e-4823-8aca-70509b47b826"},"vehicle_type_id":"4","last_reported":1730740091,"current_range_meters":4000,"station_id":"ce4bh0h2rcd13ifvqd50","pricing_plan_id":"cebpf4jnsgd1na2vs0mg"},{"bike_id":"c2d6d9b4-0b07-44c9-9351-a069c349af25","system_id":"levelo_inurba_marseille","lat":43.28418,"lon":5.3751,"is_reserved":false,"is_disabled":false,"rental_uris":{"android":"levelo://app?vid=c2d6d9b4-0b07-44c9-9351-a069c349af25","ios":"levelo://app?vid=c2d6d9b4-0b07-44c9-9351-a069c349af25"},"vehicle_type_id":"4","last_reported":1730740091,"current_range_meters":8000,"station_id":"ce4bh412rcd13ifvqds0","pricing_plan_id":"cebpf4jnsgd1na2vs0mg"},{"bike_id":"75521313-67a8-4e6c-8f75-f85aa0bf2cc3","system_id":"levelo_inurba_marseille","lat":43.30421,"lon":5.4129,"is_reserved":false,"is_disabled":false,"rental_uris":{"android":"levelo://app?vid=75521313-67a8-4e6c-8f75-f85aa0bf2cc3","ios":"levelo://app?vid=75521313-67a8-4e6c-8f75-f85aa0bf2cc3"},"vehicle_type_id":"4","last_reported":1730740091,"current_range_meters":16000,"station_id":"ce4bhop2rcd13ifvqh8g","pricing_plan_id":"cebpf4jnsgd1na2vs0mg"},{"bike_id":"b1399778-76a6-4226-8fed-bc8e7a510afe","system_id":"levelo_inurba_marseille","lat":43.26061,"lon":5.394,"is_reserved":false,"is_disabled":false,"rental_uris":{"android":"levelo://app?vid=b1399778-76a6-4226-8fed-bc8e7a510afe","ios":"levelo://app?vid=b1399778-76a6-4226-8fed-bc8e7a510afe"},"vehicle_type_id":"4","last_reported":1730740091,"current_range_meters":4400,"station_id":"ce4bhh92rcd13ifvqfj0","pricing_plan_id":"cebpf4jnsgd1na2vs0mg"},{"bike_id":"aefcffad-6813-471a-8e0c-3f321a3b7d1d","system_id":"levelo_inurba_marseille","lat":43.25119,"lon":5.40323,"is_reserved":false,"is_disabled":false,"rental_uris":{"android":"levelo://app?vid=aefcffad-6813-471a-8e0c-3f321a3b7d1d","ios":"levelo://app?vid=aefcffad-6813-471a-8e0c-3f321a3b7d1d"},"vehicle_type_id":"4","last_reported":1730740091,"current_range_meters":3600,"station_id":"ce4bhlh2rcd13ifvqgig","pricing_plan_id":"cebpf4jnsgd1na2vs0mg"},{"bike_id":"53a3e52a-039d-4c12-b775-e25fc6a3b184","system_id":"levelo_inurba_marseille","lat":43.25084,"lon":5.39521,"is_reserved":false,"is_disabled":false,"rental_uris":{"android":"levelo://app?vid=53a3e52a-039d-4c12-b775-e25fc6a3b184","ios":"levelo://app?vid=53a3e52a-039d-4c12-b775-e25fc6a3b184"},"vehicle_type_id":"4","last_reported":1730740091,"current_range_meters":36800,"station_id":"ce4bhm12rcd13ifvqgkg","pricing_plan_id":"cebpf4jnsgd1na2vs0mg"},{"bike_id":"d7ab2829-3071-4501-8732-9582a88b28e6","system_id":"levelo_inurba_marseille","lat":43.29795,"lon":5.40403,"is_reserved":false,"is_disabled":false,"rental_uris":{"android":"levelo://app?vid=d7ab2829-3071-4501-8732-9582a88b28e6","ios":"levelo://app?vid=d7ab2829-3071-4501-8732-9582a88b28e6"},"vehicle_type_id":"4","last_reported":1730740091,"current_range_meters":27200,"station_id":"ce4bh112rcd13ifvqd90","pricing_plan_id":"cebpf4jnsgd1na2vs0mg"},{"bike_id":"96fe31a7-4b28-4dac-9cd5-1e46c97eef72","system_id":"levelo_inurba_marseille","lat":43.26211,"lon":5.3744,"is_reserved":false,"is_disabled":false,"rental_uris":{"android":"levelo://app?vid=96fe31a7-4b28-4dac-9cd5-1e46c97eef72","ios":"levelo://app?vid=96fe31a7-4b28-4dac-9cd5-1e46c97eef72"},"vehicle_type_id":"4","last_reported":1730740091,"current_range_meters":18800,"station_id":"ce4bhgp2rcd13ifvqfc0","pricing_plan_id":"cebpf4jnsgd1na2vs0mg"},{"bike_id":"688ec8d5-0eab-45b9-bda3-3f21674fd48b","system_id":"levelo_inurba_marseille","lat":43.26192,"lon":5.37446,"is_reserved":false,"is_disabled":false,"rental_uris":{"android":"levelo://app?vid=688ec8d5-0eab-45b9-bda3-3f21674fd48b","ios":"levelo://app?vid=688ec8d5-0eab-45b9-bda3-3f21674fd48b"},"vehicle_type_id":"4","last_reported":1730740091,"current_range_meters":12800,"station_id":"ce4bhgp2rcd13ifvqfc0","pricing_plan_id":"cebpf4jnsgd1na2vs0mg"},{"bike_id":"bd79b1ed-8dc1-4f49-abec-aa336fa9bd43","system_id":"levelo_inurba_marseille","lat":43.31752,"lon":5.3901,"is_reserved":false,"is_disabled":false,"rental_uris":{"android":"levelo://app?vid=bd79b1ed-8dc1-4f49-abec-aa336fa9bd43","ios":"levelo://app?vid=bd79b1ed-8dc1-4f49-abec-aa336fa9bd43"},"vehicle_type_id":"4","last_reported":1730740091,"current_range_meters":19600,"station_id":"ce4bhqp2rcd13ifvqhng","pricing_plan_id":"cebpf4jnsgd1na2vs0mg"},{"bike_id":"97725306-b0b7-4afb-bb88-bb3402ddd66a","system_id":"levelo_inurba_marseille","lat":43.27048,"lon":5.40262,"is_reserved":false,"is_disabled":false,"rental_uris":{"android":"levelo://app?vid=97725306-b0b7-4afb-bb88-bb3402ddd66a","ios":"levelo://app?vid=97725306-b0b7-4afb-bb88-bb3402ddd66a"},"vehicle_type_id":"4","last_reported":1730740091,"current_range_meters":39200,"station_id":"ce4bhk92rcd13ifvqgc0","pricing_plan_id":"cebpf4jnsgd1na2vs0mg"},{"bike_id":"09c77ec5-9cac-4f04-8dfd-b2486f3f5751","system_id":"levelo_inurba_marseille","lat":43.28001,"lon":5.41664,"is_reserved":false,"is_disabled":false,"rental_uris":{"android":"levelo://app?vid=09c77ec5-9cac-4f04-8dfd-b2486f3f5751","ios":"levelo://app?vid=09c77ec5-9cac-4f04-8dfd-b2486f3f5751"},"vehicle_type_id":"4","last_reported":1730740091,"current_range_meters":38000,"station_id":"ce4bho12rcd13ifvqh1g","pricing_plan_id":"cebpf4jnsgd1na2vs0mg"},{"bike_id":"40c3aa4e-300a-4bdb-8e55-72571934d1b6","system_id":"levelo_inurba_marseille","lat":43.25833,"lon":5.39437,"is_reserved":false,"is_disabled":false,"rental_uris":{"android":"levelo://app?vid=40c3aa4e-300a-4bdb-8e55-72571934d1b6","ios":"levelo://app?vid=40c3aa4e-300a-4bdb-8e55-72571934d1b6"},"vehicle_type_id":"4","last_reported":1730740091,"current_range_meters":26800,"station_id":"ce4bhip2rcd13ifvqft0","pricing_plan_id":"cebpf4jnsgd1na2vs0mg"},{"bike_id":"dc0118c2-ec42-4b43-b183-ee120388cdf7","system_id":"levelo_inurba_marseille","lat":43.30892,"lon":5.36849,"is_reserved":false,"is_disabled":false,"rental_uris":{"android":"levelo://app?vid=dc0118c2-ec42-4b43-b183-ee120388cdf7","ios":"levelo://app?vid=dc0118c2-ec42-4b43-b183-ee120388cdf7"},"vehicle_type_id":"4","last_reported":1730740091,"current_range_meters":38400,"station_id":"ce4bgn92rcd13ifvqbvg","pricing_plan_id":"cebpf4jnsgd1na2vs0mg"},{"bike_id":"17506e79-6976-4e9b-aed1-3a55b91a5bde","system_id":"levelo_inurba_marseille","lat":43.28042,"lon":5.36955,"is_reserved":false,"is_disabled":false,"rental_uris":{"android":"levelo://app?vid=17506e79-6976-4e9b-aed1-3a55b91a5bde","ios":"levelo://app?vid=17506e79-6976-4e9b-aed1-3a55b91a5bde"},"vehicle_type_id":"4","last_reported":1730740091,"current_range_meters":27600,"station_id":"ce4bha12rcd13ifvqef0","pricing_plan_id":"cebpf4jnsgd1na2vs0mg"},{"bike_id":"731b9a7c-6ad2-4482-b60b-f045ede0b1a1","system_id":"levelo_inurba_marseille","lat":43.31712,"lon":5.43708,"is_reserved":false,"is_disabled":false,"rental_uris":{"android":"levelo://app?vid=731b9a7c-6ad2-4482-b60b-f045ede0b1a1","ios":"levelo://app?vid=731b9a7c-6ad2-4482-b60b-f045ede0b1a1"},"vehicle_type_id":"4","last_reported":1730740091,"current_range_meters":16800,"station_id":"ce4bhp92rcd13ifvqhcg","pricing_plan_id":"cebpf4jnsgd1na2vs0mg"},{"bike_id":"dca67f38-76ae-4b64-bb8f-f8aba957b060","system_id":"levelo_inurba_marseille","lat":43.307007,"lon":5.375176,"is_reserved":false,"is_disabled":false,"rental_uris":{"android":"levelo://app?vid=dca67f38-76ae-4b64-bb8f-f8aba957b060","ios":"levelo://app?vid=dca67f38-76ae-4b64-bb8f-f8aba957b060"},"vehicle_type_id":"4","last_reported":1730740091,"current_range_meters":30000,"station_id":"ce4bgv92rcd13ifvqcq0","pricing_plan_id":"cebpf4jnsgd1na2vs0mg"},{"bike_id":"12e39e5a-419d-4d78-a22b-537ea78e303e","system_id":"levelo_inurba_marseille","lat":43.27177,"lon":5.40993,"is_reserved":false,"is_disabled":false,"rental_uris":{"android":"levelo://app?vid=12e39e5a-419d-4d78-a22b-537ea78e303e","ios":"levelo://app?vid=12e39e5a-419d-4d78-a22b-537ea78e303e"},"vehicle_type_id":"4","last_reported":1730740091,"current_range_meters":22000,"station_id":"ce4bhl12rcd13ifvqgf0","pricing_plan_id":"cebpf4jnsgd1na2vs0mg"},{"bike_id":"3b277d8e-6771-4372-ab4c-4fac572e1700","system_id":"levelo_inurba_marseille","lat":43.305872,"lon":5.393235,"is_reserved":false,"is_disabled":false,"rental_uris":{"android":"levelo://app?vid=3b277d8e-6771-4372-ab4c-4fac572e1700","ios":"levelo://app?vid=3b277d8e-6771-4372-ab4c-4fac572e1700"},"vehicle_type_id":"4","last_reported":1730740091,"current_range_meters":19600,"station_id":"ce4bh0p2rcd13ifvqd80","pricing_plan_id":"cebpf4jnsgd1na2vs0mg"},{"bike_id":"43110929-02e3-41b0-8247-d0970fc45dea","system_id":"levelo_inurba_marseille","lat":43.28726,"lon":5.36079,"is_reserved":false,"is_disabled":false,"rental_uris":{"android":"levelo://app?vid=43110929-02e3-41b0-8247-d0970fc45dea","ios":"levelo://app?vid=43110929-02e3-41b0-8247-d0970fc45dea"},"vehicle_type_id":"4","last_reported":1730740091,"current_range_meters":32000,"station_id":"cki0cbj6b192h4jlfktg","pricing_plan_id":"cebpf4jnsgd1na2vs0mg"},{"bike_id":"06d83ffb-53a2-4130-aff5-e97337cb9935","system_id":"levelo_inurba_marseille","lat":43.32374,"lon":5.38881,"is_reserved":false,"is_disabled":false,"rental_uris":{"android":"levelo://app?vid=06d83ffb-53a2-4130-aff5-e97337cb9935","ios":"levelo://app?vid=06d83ffb-53a2-4130-aff5-e97337cb9935"},"vehicle_type_id":"4","last_reported":1730740091,"current_range_meters":30000,"station_id":"ce4bhqp2rcd13ifvqhog","pricing_plan_id":"cebpf4jnsgd1na2vs0mg"},{"bike_id":"19fd1f5b-c950-4de3-9aa4-3d7ce9416eaa","system_id":"levelo_inurba_marseille","lat":43.29869,"lon":5.3891,"is_reserved":false,"is_disabled":false,"rental_uris":{"android":"levelo://app?vid=19fd1f5b-c950-4de3-9aa4-3d7ce9416eaa","ios":"levelo://app?vid=19fd1f5b-c950-4de3-9aa4-3d7ce9416eaa"},"vehicle_type_id":"4","last_reported":1730740091,"current_range_meters":22800,"station_id":"ce4bh392rcd13ifvqdl0","pricing_plan_id":"cebpf4jnsgd1na2vs0mg"},{"bike_id":"f607ea96-a4e1-4462-a3ee-783290c84e69","system_id":"levelo_inurba_marseille","lat":43.30332,"lon":5.40431,"is_reserved":false,"is_disabled":false,"rental_uris":{"android":"levelo://app?vid=f607ea96-a4e1-4462-a3ee-783290c84e69","ios":"levelo://app?vid=f607ea96-a4e1-4462-a3ee-783290c84e69"},"vehicle_type_id":"4","last_reported":1730740091,"current_range_meters":38400,"station_id":"ce4bh012rcd13ifvqd10","pricing_plan_id":"cebpf4jnsgd1na2vs0mg"},{"bike_id":"e36b2e3c-6a50-4172-8bc2-d735282f97f8","system_id":"levelo_inurba_marseille","lat":43.291,"lon":5.38146,"is_reserved":false,"is_disabled":false,"rental_uris":{"android":"levelo://app?vid=e36b2e3c-6a50-4172-8bc2-d735282f97f8","ios":"levelo://app?vid=e36b2e3c-6a50-4172-8bc2-d735282f97f8"},"vehicle_type_id":"4","last_reported":1730740091,"current_range_meters":0,"station_id":"ce4bh512rcd13ifvqe2g","pricing_plan_id":"cebpf4jnsgd1na2vs0mg"},