{"last_updated":1731535669,"ttl":60,"version":"2.2","data":{"bikes":[{"bike_id":"a9e32afe-028a-4d94-95f4-042295ca9c9d","system_id":"levelo_inurba_marseille","lat":43.25586,"lon":5.38223,"is_reserved":false,"is_disabled":false,"rental_uris":{"android":"levelo://app?vid=a9e32afe-028a-4d94-95f4-042295ca9c9d","ios":"levelo://app?vid=a9e32afe-028a-4d94-95f4-042295ca9c9d"},"vehicle_type_id":"4","last_reported":1731535669,"current_range_meters":38800,"station_id":"ce4bhih2rcd13ifvqfs0","pricing_plan_id":"cebpf4jnsgd1na2vs0mg"},{"bike_id":"77cdb67a-18e3-47a2-8371-0b326871aa22","system_id":"levelo_inurba_marseille","lat":43.289795,"lon":5.365955,"is_reserved":false,"is_disabled":false,"rental_uris":{"android":"levelo://app?vid=77cdb67a-18e3-47a2-8371-0b326871aa22","ios":"levelo://app?vid=77cdb67a-18e3-47a2-8371-0b326871aa22"},"vehicle_type_id":"4","last_reported":1731535669,"current_range_meters":6400,"station_id":"ce4bhc92rcd13ifvqetg","pricing_plan_id":"cebpf4jnsgd1na2vs0mg"},{"bike_id":"b74cb09f-382c-42dd-9f0b-cfd941347c2c","system_id":"levelo_inurba_marseille","lat":43.30886,"lon":5.39652,"is_reserved":false,"is_disabled":false,"rental_uris":{"android":"levelo://app?vid=b74cb09f-382c-42dd-9f0b-cfd941347c2c","ios":"levelo://app?vid=b74cb09f-382c-42dd-9f0b-cfd941347c2c"},"vehicle_type_id":"4","last_reported":1731535669,"current_range_meters":32000,"station_id":"ce4bh012rcd13ifvqcv0","pricing_plan_id":"cebpf4jnsgd1na2vs0mg"},{"bike_id":"4c6f81c8-c2ea-4292-aa7a-9ac037143110","system_id":"levelo_inurba_marseille","lat":43.28963,"lon":5.36411,"is_reserved":false,"is_disabled":false,"rental_uris":{"android":"levelo://app?vid=4c6f81c8-c2ea-4292-aa7a-9ac037143110","ios":"levelo://app?vid=4c6f81c8-c2ea-4292-aa7a-9ac037143110"},"vehicle_type_id":"4","last_reported":1731535669,"current_range_meters":38800,"station_id":"ce4bhc92rcd13ifvqetg","pricing_plan_id":"cebpf4jnsgd1na2vs0mg"},{"bike_id":"2d85a8c9-73cd-4fa7-9d24-3a50ba732dcc","system_id":"levelo_inurba_marseille","lat":43.23965,"lon":5.36632,"is_reserved":false,"is_disabled":false,"rental_uris":{"android":"levelo://app?vid=2d85a8c9-73cd-4fa7-9d24-3a50ba732dcc","ios":"levelo://app?vid=2d85a8c9-73cd-4fa7-9d24-3a50ba732dcc"},"vehicle_type_id":"4","last_reported":1731535669,"current_range_meters":25600,"station_id":"ce4bhi12rcd13ifvqfp0","pricing_plan_id":"cebpf4jnsgd1na2vs0mg"},{"bike_id":"a8523969-7310-41b8-ba95-7f5054b6a770","system_id":"levelo_inurba_marseille","lat":43.32653,"lon":5.40993,"is_reserved":false,"is_disabled":false,"rental_uris":{"android":"levelo://app?vid=a8523969-7310-41b8-ba95-7f5054b6a770","ios":"levelo://app?vid=a8523969-7310-41b8-ba95-7f5054b6a770"},"vehicle_type_id":"4","last_reported":1731535669,"current_range_meters":39200,"station_id":"ce4bhpp2rcd13ifvqhgg","pricing_plan_id":"cebpf4jnsgd1na2vs0mg"},{"bike_id":"5d2cae9d-2ba8-4446-84db-83ab3c33b8d0","system_id":"levelo_inurba_marseille","lat":43.28847,"lon":5.35856,"is_reserved":false,"is_disabled":false,"rental_uris":{"android":"levelo://app?vid=5d2cae9d-2ba8-4446-84db-83ab3c33b8d0","ios":"levelo://app?vid=5d2cae9d-2ba8-4446-84db-83ab3c33b8d0"},"vehicle_type_id":"4","last_reported":1731535669,"current_range_meters":16800,"station_id":"ce4bhb12rcd13ifvqem0","pricing_plan_id":"cebpf4jnsgd1na2vs0mg"},{"bike_id":"a22cd8f4-1177-4c7f-b390-9302bcd3f321","system_id":"levelo_inurba_marseille","lat":43.2958,"lon":5.37521,"is_reserved":false,"is_disabled":false,"rental_uris":{"android":"levelo://app?vid=a22cd8f4-1177-4c7f-b390-9302bcd3f321","ios":"levelo://app?vid=a22cd8f4-1177-4c7f-b390-9302bcd3f321"},"vehicle_type_id":"4","last_reported":1731535669,"current_range_meters":26800,"station_id":"ce4bgh92rcd13ifvqb50","pricing_plan_id":"cebpf4jnsgd1na2vs0mg"},{"bike_id":"eb66c83e-9c22-451e-9a96-11fcf0b6a22c","system_id":"levelo_inurba_marseille","lat":43.31796,"lon":5.39009,"is_reserved":false,"is_disabled":false,"rental_uris":{"android":"levelo://app?vid=eb66c83e-9c22-451e-9a96-11fcf0b6a22c","ios":"levelo://app?vid=eb66c83e-9c22-451e-9a96-11fcf0b6a22c"},"vehicle_type_id":"4","last_reported":1731535669,"current_range_meters":38800,"station_id":"ce4bhqp2rcd13ifvqhng","pricing_plan_id":"cebpf4jnsgd1na2vs0mg"},{"bike_id":"77b69f18-7c6a-412a-9655-4f3da3f95e57","system_id":"levelo_inurba_marseille","lat":43.26025,"lon":5.3755,"is_reserved":false,"is_disabled":false,"rental_uris":{"android":"levelo://app?vid=77b69f18-7c6a-412a-9655-4f3da3f95e57","ios":"levelo://app?vid=77b69f18-7c6a-412a-9655-4f3da3f95e57"},"vehicle_type_id":"4","last_reported":1731535669,"current_range_meters":38800,"station_id":"ce4bhgh2rcd13ifvqfa0","pricing_plan_id":"cebpf4jnsgd1na2vs0mg"},{"bike_id":"8b235568-4587-4bba-a6c1-f45220fd350b","system_id":"levelo_inurba_marseille","lat":43.29301,"lon":5.37461,"is_reserved":false,"is_disabled":false,"rental_uris":{"android":"levelo://app?vid=8b235568-4587-4bba-a6c1-f45220fd350b","ios":"levelo://app?vid=8b235568-4587-4bba-a6c1-f45220fd350b"},"vehicle_type_id":"4","last_reported":1731535669,"current_range_meters":26800,"station_id":"ce4bgi12rcd13ifvqb70","pricing_plan_id":"cebpf4jnsgd1na2vs0mg"},{"bike_id":"052f9b93-6cd6-4b1f-acb9-36b85dbc4923","system_id":"levelo_inurba_marseille","lat":43.28452,"lon":5.35902,"is_reserved":false,"is_disabled":false,"rental_uris":{"android":"levelo://app?vid=052f9b93-6cd6-4b1f-acb9-36b85dbc4923","ios":"levelo://app?vid=052f9b93-6cd6-4b1f-acb9-36b85dbc4923"},"vehicle_type_id":"4","last_reported":1731535669,"current_range_meters":10000,"station_id":"ce4bhah2rcd13ifvqei0","pricing_plan_id":"cebpf4jnsgd1na2vs0mg"},{"bike_id":"ae292185-8e91-4db6-a612-c3563674c7fa","system_id":"levelo_inurba_marseille","lat":43.31773,"lon":5.39012,"is_reserved":false,"is_disabled":false,"rental_uris":{"android":"levelo://app?vid=ae292185-8e91-4db6-a612-c3563674c7fa","ios":"levelo://app?vid=ae292185-8e91-4db6-a612-c3563674c7fa"},"vehicle_type_id":"4","last_reported":1731535669,"current_range_meters":24400,"station_id":"ce4bhqp2rcd13ifvqhng","pricing_plan_id":"cebpf4jnsgd1na2vs0mg"},{"bike_id":"e284bf0f-8cbf-463b-a39e-6af10373216e","system_id":"levelo_inurba_marseille","lat":43.2782,"lon":5.40703,"is_reserved":false,"is_disabled":false,"rental_uris":{"android":"levelo://app?vid=e284bf0f-8cbf-463b-a39e-6af10373216e","ios":"levelo://app?vid=e284bf0f-8cbf-463b-a39e-6af10373216e"},"vehicle_type_id":"4","last_reported":1731535669,"current_range_meters":27600,"station_id":"ce4bhnh2rcd13ifvqgtg","pricing_plan_id":"cebpf4jnsgd1na2vs0mg"},{"bike_id":"290c5108-ce9f-4f06-b208-70beacf18b67","system_id":"levelo_inurba_marseille","lat":43.29897,"lon":5.4367,"is_reserved":false,"is_disabled":false,"rental_uris":{"android":"levelo://app?vid=290c5108-ce9f-4f06-b208-70beacf18b67","ios":"levelo://app?vid=290c5108-ce9f-4f06-b208-70beacf18b67"},"vehicle_type_id":"4","last_reported":1731535669,"current_range_meters":27600,"station_id":"ce4bhpp2rcd13ifvqhfg","pricing_plan_id":"cebpf4jnsgd1na2vs0mg"},{"bike_id":"f5c3439b-e8e8-48e2-b9cd-0c4b842fb896","system_id":"levelo_inurba_marseille","lat":43.25097,"lon":5.39515,"is_reserved":false,"is_disabled":false,"rental_uris":{"android":"levelo://app?vid=f5c3439b-e8e8-48e2-b9cd-0c4b842fb896","ios":"levelo://app?vid=f5c3439b-e8e8-48e2-b9cd-0c4b842fb896"},"vehicle_type_id":"4","last_reported":1731535669,"current_range_meters":25200,"station_id":"ce4bhm12rcd13ifvqgkg","pricing_plan_id":"cebpf4jnsgd1na2vs0mg"},{"bike_id":"4f6386c1-cffb-4610-b64d-62e0d4870946","system_id":"levelo_inurba_marseille","lat":43.2873,"lon":5.3607,"is_reserved":false,"is_disabled":false,"rental_uris":{"android":"levelo://app?vid=4f6386c1-cffb-4610-b64d-62e0d4870946","ios":"levelo://app?vid=4f6386c1-cffb-4610-b64d-62e0d4870946"},"vehicle_type_id":"4","last_reported":1731535669,"current_range_meters":20400,"station_id":"cki0cbj6b192h4jlfktg","pricing_plan_id":"cebpf4jnsgd1na2vs0mg"},{"bike_id":"3b18cb70-5566-4f31-8dbf-ae39d6d51962","system_id":"levelo_inurba_marseille","lat":43.30936,"lon":5.40144,"is_reserved":false,"is_disabled":false,"rental_uris":{"android":"levelo://app?vid=3b18cb70-5566-4f31-8dbf-ae39d6d51962","ios":"levelo://app?vid=3b18cb70-5566-4f31-8dbf-ae39d6d51962"},"vehicle_type_id":"4","last_reported":1731535669,"current_range_meters":8800,"station_id":"ce4bgvp2rcd13ifvqct0","pricing_plan_id":"cebpf4jnsgd1na2vs0mg"},{"bike_id":"9c10df56-b58b-4a9b-bc10-aaa5ebc0f6d7","system_id":"levelo_inurba_marseille","lat":43.29036,"lon":5.38644,"is_reserved":false,"is_disabled":false,"rental_uris":{"android":"levelo://app?vid=9c10df56-b58b-4a9b-bc10-aaa5ebc0f6d7","ios":"levelo://app?vid=9c10df56-b58b-4a9b-bc10-aaa5ebc0f6d7"},"vehicle_type_id":"4","last_reported":1731535669,"current_range_meters":38800,"station_id":"ce4bh4p2rcd13ifvqe0g","pricing_plan_id":"cebpf4jnsgd1na2vs0mg"},{"bike_id":"d9c902c9-ceb4-4faa-92db-38f2e5e1d341","system_id":"levelo_inurba_marseille","lat":43.25823,"lon":5.39443,"is_reserved":false,"is_disabled":false,"rental_uris":{"android":"levelo://app?vid=d9c902c9-ceb4-4faa-92db-38f2e5e1d341","ios":"levelo://app?vid=d9c902c9-ceb4-4faa-92db-38f2e5e1d341"},"vehicle_type_id":"4","last_reported":1731535669,"current_range_meters":6400,"station_id":"ce4bhip2rcd13ifvqft0","pricing_plan_id":"cebpf4jnsgd1na2vs0mg"},{"bike_id":"6731da3f-d8a2-49d1-abf3-b85f7793c4b9","system_id":"levelo_inurba_marseille","lat":43.30807,"lon":5.38151,"is_reserved":false,"is_disabled":false,"rental_uris":{"android":"levelo://app?vid=6731da3f-d8a2-49d1-abf3-b85f7793c4b9","ios":"levelo://app?vid=6731da3f-d8a2-49d1-abf3-b85f7793c4b9"},"vehicle_type_id":"4","last_reported":1731535669,"current_range_meters":32000,"station_id":"ce4bgt12rcd13ifvqce0","pricing_plan_id":"cebpf4jnsgd1na2vs0mg"},{"bike_id":"01ecd40e-2276-4e4f-8718-c6fcd768f34c","system_id":"levelo_inurba_marseille","lat":43.24808,"lon":5.37456,"is_reserved":false,"is_disabled":false,"rental_uris":{"android":"levelo://app?vid=01ecd40e-2276-4e4f-8718-c6fcd768f34c","ios":"levelo://app?vid=01ecd40e-2276-4e4f-8718-c6fcd768f34c"},"vehicle_type_id":"4","last_reported":1731535669,"current_range_meters":30800,"station_id":"ce4bhgh2rcd13ifvqfb0","pricing_plan_id":"cebpf4jnsgd1na2vs0mg"},{"bike_id":"a4a33d79-2d5f-4c36-9857-7422f1659d79","system_id":"levelo_inurba_marseille","lat":43.27212,"lon":5.39179,"is_reserved":false,"is_disabled":false,"rental_uris":{"android":"levelo://app?vid=a4a33d79-2d5f-4c36-9857-7422f1659d79","ios":"levelo://app?vid=a4a33d79-2d5f-4c36-9857-7422f1659d79"},"vehicle_type_id":"4","last_reported":1731535669,"current_range_meters":17200,"station_id":"ce4bhhp2rcd13ifvqfm0","pricing_plan_id":"cebpf4jnsgd1na2vs0mg"},{"bike_id":"57787bb0-1cf7-4460-ad20-7da83147c060","system_id":"levelo_inurba_marseille","lat":43.31173,"lon":5.38708,"is_reserved":false,"is_disabled":false,"rental_uris":{"android":"levelo://app?vid=57787bb0-1cf7-4460-ad20-7da83147c060","ios":"levelo://app?vid=57787bb0-1cf7-4460-ad20-7da83147c060"},"vehicle_type_id":"4","last_reported":1731535669,"current_range_meters":29600,"station_id":"ce4bgv12rcd13ifvqcp0","pricing_plan_id":"cebpf4jnsgd1na2vs0mg"},{"bike_id":"c897524d-09d0-4cff-aa35-750582633667","system_id":"levelo_inurba_marseille","lat":43.291138,"lon":5.382331,"is_reserved":false,"is_disabled":false,"rental_uris":{"android":"levelo://app?vid=c897524d-09d0-4cff-aa35-750582633667","ios":"levelo://app?vid=c897524d-09d0-4cff-aa35-750582633667"},"vehicle_type_id":"4","last_reported":1731535669,"current_range_meters":6400,"station_id":"ce4bhbp2rcd13ifvqerg","pricing_plan_id":"cebpf4jnsgd1na2vs0mg"},{"bike_id":"67cc0176-d02d-4779-bd99-3da0a1e49a5d","system_id":"levelo_inurba_marseille","lat":43.30421,"lon":5.41283,"is_reserved":false,"is_disabled":false,"rental_uris":{"android":"levelo://app?vid=67cc0176-d02d-4779-bd99-3da0a1e49a5d","ios":"levelo://app?vid=67cc0176-d02d-4779-bd99-3da0a1e49a5d"},"vehicle_type_id":"4","last_reported":1731535669,"current_range_meters":26800,"station_id":"ce4bhop2rcd13ifvqh8g","pricing_plan_id":"cebpf4jnsgd1na2vs0mg"},{"bike_id":"10f83ea1-21fc-49d5-934a-4b6f18d7a2b7","system_id":"levelo_inurba_marseille","lat":43.33602,"lon":5.41037,"is_reserved":false,"is_disabled":false,"rental_uris":{"android":"levelo://app?vid=10f83ea1-21fc-49d5-934a-4b6f18d7a2b7","ios":"levelo://app?vid=10f83ea1-21fc-49d5-934a-4b6f18d7a2b7"},"vehicle_type_id":"4","last_reported":1731535669,"current_range_meters":7200,"station_id":"ce4bhqh2rcd13ifvqhmg","pricing_plan_id":"cebpf4jnsgd1na2vs0mg"},{"bike_id":"af23c437-9c01-4e48-a6af-488f0359b3d8","system_id":"levelo_inurba_marseille","lat":43.23967,"lon":5.36632,"is_reserved":false,"is_disabled":false,"rental_uris":{"android":"levelo://app?vid=af23c437-9c01-4e48-a6af-488f0359b3d8","ios":"levelo://app?vid=af23c437-9c01-4e48-a6af-488f0359b3d8"},"vehicle_type_id":"4","last_reported":1731535669,"current_range_meters":28400,"station_id":"ce4bhi12rcd13ifvqfp0","pricing_plan_id":"cebpf4jnsgd1na2vs0mg"},{"bike_id":"d0733b5e-6bfa-4bdb-8b6a-792a1167a5b8","system_id":"levelo_inurba_marseille","lat":43.31165,"lon":5.38717,"is_reserved":false,"is_disabled":false,"rental_uris":{"android":"levelo://app?vid=d0733b5e-6bfa-4bdb-8b6a-792a1167a5b8","ios":"levelo://app?vid=d0733b5e-6bfa-4bdb-8b6a-792a1167a5b8"},"vehicle_type_id":"4","last_reported":1731535669,"current_range_meters":39200,"station_id":"ce4bgv12rcd13ifvqcp0","pricing_plan_id":"cebpf4jnsgd1na2vs0mg"},{"bike_id":"341b4146-f80f-4069-97ee-692e0462699f","system_id":"levelo_inurba_marseille","lat":43.31073,"lon":5.38357,"is_reserved":false,"is_disabled":false,"rental_uris":{"android":"levelo://app?vid=341b4146-f80f-4069-97ee-692e0462699f","ios":"levelo://app?vid=341b4146-f80f-4069-97ee-692e0462699f"},"vehicle_type_id":"4","last_reported":1731535669,"current_range_meters":18000,"station_id":"ce4bgv92rcd13ifvqcr0","pricing_plan_id":"cebpf4jnsgd1na2vs0mg"},{"bike_id":"55eaa616-6069-4488-b2c4-a1d4f41baf53","system_id":"levelo_inurba_marseille","lat":43.28698,"lon":5.37398,"is_reserved":false,"is_disabled":false,"rental_uris":{"android":"levelo://app?vid=55eaa616-6069-4488-b2c4-a1d4f41baf53","ios":"levelo://app?vid=55eaa616-6069-4488-b2c4-a1d4f41baf53"},"vehicle_type_id":"4","last_reported":1731535669,"current_range_meters":22800,"station_id":"ce4bh3p2rcd13ifvqdq0","pricing_plan_id":"cebpf4jnsgd1na2vs0mg"},{"bike_id":"4a74f469-1d99-48ee-a8ca-9199898c00a4","system_id":"levelo_inurba_marseille","lat":43.23199,"lon":5.35549,"is_reserved":false,"is_disabled":false,"rental_uris":{"android":"levelo://app?vid=4a74f469-1d99-48ee-a8ca-9199898c00a4","ios":"levelo://app?vid=4a74f469-1d99-48ee-a8ca-9199898c00a4"},"vehicle_type_id":"4","last_reported":1731535669,"current_range_meters":24800,"station_id":"ce4bhu92rcd13ifvqi70","pricing_plan_id":"cebpf4jnsgd1na2vs0mg"},{"bike_id":"e5e9dd88-80af-4126-951b-7ed4cb02e928","system_id":"levelo_inurba_marseille","lat":43.25821,"lon":5.39434,"is_reserved":false,"is_disabled":false,"rental_uris":{"android":"levelo://app?vid=e5e9dd88-80af-4126-951b-7ed4cb02e928","ios":"levelo://app?vid=e5e9dd88-80af-4126-951b-7ed4cb02e928"},"vehicle_type_id":"4","last_reported":1731535669,"current_range_meters":27200,"station_id":"ce4bhip2rcd13ifvqft0","pricing_plan_id":"cebpf4jnsgd1na2vs0mg"},{"bike_id":"77849bd5-5bfe-4445-8191-82da714d15fa","system_id":"levelo_inurba_marseille","lat":43.27813,"lon":5.4071,"is_reserved":false,"is_disabled":false,"rental_uris":{"android":"levelo://app?vid=77849bd5-5bfe-4445-8191-82da714d15fa","ios":"levelo://app?vid=77849bd5-5bfe-4445-8191-82da714d15fa"},"vehicle_type_id":"4","last_reported":1731535669,"current_range_meters":36400,"station_id":"ce4bhnh2rcd13ifvqgtg","pricing_plan_id":"cebpf4jnsgd1na2vs0mg"},{"bike_id":"665699a5-6b6c-4677-82d6-c491fd2c4a6f","system_id":"levelo_inurba_marseille","lat":43.26575,"lon":5.39008,"is_reserved":false,"is_disabled":false,"rental_uris":{"android":"levelo://app?vid=665699a5-6b6c-4677-82d6-c491fd2c4a6f","ios":"levelo://app?vid=665699a5-6b6c-4677-82d6-c491fd2c4a6f"},"vehicle_type_id":"4","last_reported":1731535669,"current_range_meters":38800,"station_id":"ce4bhe12rcd13ifvqf30","pricing_plan_id":"cebpf4jnsgd1na2vs0mg"},{"bike_id":"baeed238-b5b4-482c-9e5c-2accf4da025a","system_id":"levelo_inurba_marseille","lat":43.28031,"lon":5.36943,"is_reserved":false,"is_disabled":false,"rental_uris":{"android":"levelo://app?vid=baeed238-b5b4-482c-9e5c-2accf4da025a","ios":"levelo://app?vid=baeed238-b5b4-482c-9e5c-2accf4da025a"},"vehicle_type_id":"4","last_reported":1731535669,"current_range_meters":27600,"station_id":"ce4bha12rcd13ifvqef0","pricing_plan_id":"cebpf4jnsgd1na2vs0mg"},{"bike_id":"c686a523-a68c-45a9-a771-1fc5ac658cfe","system_id":"levelo_inurba_marseille","lat":43.32337,"lon":5.40623,"is_reserved":false,"is_disabled":false,"rental_uris":{"android":"levelo://app?vid=c686a523-a68c-45a9-a771-1fc5ac658cfe","ios":"levelo://app?vid=c686a523-a68c-45a9-a771-1fc5ac658cfe"},"vehicle_type_id":"4","last_reported":1731535669,"current_range_meters":30800,"station_id":"ce4bhq92rcd13ifvqhjg","pricing_plan_id":"cebpf4jnsgd1na2vs0mg"},{"bike_id":"eae8b2c9-2653-4abe-b14b-f7576b503ae2","system_id":"levelo_inurba_marseille","lat":43.29578,"lon":5.37516,"is_reserved":false,"is_disabled":false,"rental_uris":{"android":"levelo://app?vid=eae8b2c9-2653-4abe-b14b-f7576b503ae2","ios":"levelo://app?vid=eae8b2c9-2653-4abe-b14b-f7576b503ae2"},"vehicle_type_id":"4","last_reported":1731535669,"current_range_meters":38800,"station_id":"ce4bgh92rcd13ifvqb50","pricing_plan_id":"cebpf4jnsgd1na2vs0mg"},{"bike_id":"4a5ca1e0-4e13-4a04-b77d-92aecf8fbba5","system_id":"levelo_inurba_marseille","lat":43.30648,"lon":5.40101,"is_reserved":false,"is_disabled":false,"rental_uris":{"android":"levelo://app?vid=4a5ca1e0-4e13-4a04-b77d-92aecf8fbba5","ios":"levelo://app?vid=4a5ca1e0-4e13-4a04-b77d-92aecf8fbba5"},"vehicle_type_id":"4","last_reported":1731535669,"current_range_meters":36000,"station_id":"ce4bh112rcd13ifvqda0","pricing_plan_id":"cebpf4jnsgd1na2vs0mg"},{"bike_id":"75659cfe-2d87-40df-8a8a-06fea6680d55","system_id":"levelo_inurba_marseille","lat":43.29442,"lon":5.39743,"is_reserved":false,"is_disabled":false,"rental_uris":{"android":"levelo://app?vid=75659cfe-2d87-40df-8a8a-06fea6680d55","ios":"levelo://app?vid=75659cfe-2d87-40df-8a8a-06fea6680d55"},"vehicle_type_id":"4","last_reported":1731535669,"current_range_meters":11600,"station_id":"ce4bh3h2rcd13ifvqdo0","pricing_plan_id":"cebpf4jnsgd1na2vs0mg"},{"bike_id":"d90d861b-f246-48e4-b5c6-8f100bd8f91c","system_id":"levelo_inurba_marseille","lat":43.25091,"lon":5.39522,"is_reserved":false,"is_disabled":false,"rental_uris":{"android":"levelo://app?vid=d90d861b-f246-48e4-b5c6-8f100bd8f91c","ios":"levelo://app?vid=d90d861b-f246-48e4-b5c6-8f100bd8f91c"},"vehicle_type_id":"4","last_reported":1731535669,"current_range_meters":27200,"station_id":"ce4bhm12rcd13ifvqgkg","pricing_plan_id":"cebpf4jnsgd1na2vs0mg"},{"bike_id":"263d9352-745d-4496-b9ba-001591edf2fa","system_id":"levelo_inurba_marseille","lat":43.25505,"lon":5.37648,"is_reserved":false,"is_disabled":false,"rental_uris":{"android":"levelo://app?vid=263d9352-745d-4496-b9ba-001591edf2fa","ios":"levelo://app?vid=263d9352-745d-4496-b9ba-001591edf2fa"},"vehicle_type_id":"4","last_reported":1731535669,"current_range_meters":37600,"station_id":"ce4bhh12rcd13ifvqff0","pricing_plan_id":"cebpf4jnsgd1na2vs0mg"},{"bike_id":"4dbbe8c3-bc64-4591-be54-71f48705519a","system_id":"levelo_inurba_marseille","lat":43.27987,"lon":5.41655,"is_reserved":false,"is_disabled":false,"rental_uris":{"android":"levelo://app?vid=4dbbe8c3-bc64-4591-be54-71f48705519a","ios":"levelo://app?vid=4dbbe8c3-bc64-4591-be54-71f48705519a"},"vehicle_type_id":"4","last_reported":1731535669,"current_range_meters":36400,"station_id":"ce4bho12rcd13ifvqh1g","pricing_plan_id":"cebpf4jnsgd1na2vs0mg"},{"bike_id":"e96be754-1b7a-4c97-ab4b-5ca29a573804","system_id":"levelo_inurba_marseille","lat":43.30094,"lon":5.39078,"is_reserved":false,"is_disabled":false,"rental_uris":{"android":"levelo://app?vid=e96be754-1b7a-4c97-ab4b-5ca29a573804","ios":"levelo://app?vid=e96be754-1b7a-4c97-ab4b-5ca29a573804"},"vehicle_type_id":"4","last_reported":1731535669,"current_range_meters":12800,"station_id":"ce4bh192rcd13ifvqdb0","pricing_plan_id":"cebpf4jnsgd1na2vs0mg"},{"bike_id":"58ba5ea2-470c-498b-b318-3980922fb046","system_id":"levelo_inurba_marseille","lat":43.30889,"lon":5.37208,"is_reserved":false,"is_disabled":false,"rental_uris":{"android":"levelo://app?vid=58ba5ea2-470c-498b-b318-3980922fb046","ios":"levelo://app?vid=58ba5ea2-470c-498b-b318-3980922fb046"},"vehicle_type_id":"4","last_reported":1731535669,"current_range_meters":24400,"station_id":"ce4bguh2rcd13ifvqckg","pricing_plan_id":"cebpf4jnsgd1na2vs0mg"},{"bike_id":"44376c3b-e62c-4341-acee-1fb0b2497c4c","system_id":"levelo_inurba_marseille","lat":43.23972,"lon":5.36623,"is_reserved":false,"is_disabled":false,"rental_uris":{"android":"levelo://app?vid=44376c3b-e62c-4341-acee-1fb0b2497c4c","ios":"levelo://app?vid=44376c3b-e62c-4341-acee-1fb0b2497c4c"},"vehicle_type_id":"4","last_reported":1731535669,"current_range_meters":35200,"station_id":"ce4bhi12rcd13ifvqfp0","pricing_plan_id":"cebpf4jnsgd1na2vs0mg"},{"bike_id":"7cdb67bd-0174-4b2a-a978-6d8f0879f18a","system_id":"levelo_inurba_marseille","lat":43.3176,"lon":5.39013,"is_reserved":false,"is_disabled":false,"rental_uris":{"android":"levelo://app?vid=7cdb67bd-0174-4b2a-a978-6d8f0879f18a","ios":"levelo://app?vid=7cdb67bd-0174-4b2a-a978-6d8f0879f18a"},"vehicle_type_id":"4","last_reported":1731535669,"current_range_meters":38800,"station_id":"ce4bhqp2rcd13ifvqhng","pricing_plan_id":"cebpf4jnsgd1na2vs0mg"},{"bike_id":"45865806-bc2c-4c6c-8332-c61b5ccd45c4","system_id":"levelo_inurba_marseille","lat":43.31534,"lon":5.38028,"is_reserved":false,"is_disabled":false,"rental_uris":{"android":"levelo://app?vid=45865806-bc2c-4c6c-8332-c61b5ccd45c4","ios":"levelo://app?vid=45865806-bc2c-4c6c-8332-c61b5ccd45c4"},"vehicle_type_id":"4","last_reported":1731535669,"current_range_meters":39200,"station_id":"ce4bhsp2rcd13ifvqi50","pricing_plan_id":"cebpf4jnsgd1na2vs0mg"},{"bike_id":"e8c29f09-ca6d-40ba-8178-db92cf2e907e","system_id":"levelo_inurba_marseille","lat":43.2886,"lon":5.39329,"is_reserved":false,"is_disabled":false,"rental_uris":{"android":"levelo://app?vid=e8c29f09-ca6d-40ba-8178-db92cf2e907e","ios":"levelo://app?vid=e8c29f09-ca6d-40ba-8178-db92cf2e907e"},"vehicle_type_id":"4","last_reported":1731535669,"current_range_meters":38400,"station_id":"ce4bh2p2rcd13ifvqdi0","pricing_plan_id":"cebpf4jnsgd1na2vs0mg"},{"bike_id":"f6be5a9f-da9f-4673-8aa7-5387ec0333e4","system_id":"levelo_inurba_marseille","lat":43.28079,"lon":5.39655,"is_reserved":false,"is_disabled":false,"rental_uris":{"android":"levelo://app?vid=f6be5a9f-da9f-4673-8aa7-5387ec0333e4","ios":"levelo://app?vid=f6be5a9f-da9f-4673-8aa7-5387ec0333e4"},"vehicle_type_id":"4","last_reported":1731535669,"current_range_meters":17200,"station_id":"ce4bho12rcd13ifvqh2g","pricing_plan_id":"cebpf4jnsgd1na2vs0mg"},{"bike_id":"558355e9-bfb9-4b65-9aa9-8b11f75a01f6","system_id":"levelo_inurba_marseille","lat":43.3249,"lon":5.36563,"is_reserved":false,"is_disabled":false,"rental_uris":{"android":"levelo://app?vid=558355e9-bfb9-4b65-9aa9-8b11f75a01f6","ios":"levelo://app?vid=558355e9-bfb9-4b65-9aa9-8b11f75a01f6"},"vehicle_type_id":"4","last_reported":1731535669,"current_range_meters":8400,"station_id":"ce4bhs12rcd13ifvqhvg","pricing_plan_id":"cebpf4jnsgd1na2vs0mg"},{"bike_id":"e7dba591-5900-402e-97ff-bd9dd1890971","system_id":"levelo_inurba_marseille","lat":43.29862,"lon":5.39742,"is_reserved":false,"is_disabled":false,"rental_uris":{"android":"levelo://app?vid=e7dba591-5900-402e-97ff-bd9dd1890971","ios":"levelo://app?vid=e7dba591-5900-402e-97ff-bd9dd1890971"},"vehicle_type_id":"4","last_reported":1731535669,"current_range_meters":38800,"station_id":"ce4bh0h2rcd13ifvqd50","pricing_plan_id":"cebpf4jnsgd1na2vs0mg"},{"bike_id":"88f4a0ea-f89b-4e50-88f3-da55f603f69a","system_id":"levelo_inurba_marseille","lat":43.32107,"lon":5.36775,"is_reserved":false,"is_disabled":false,"rental_uris":{"android":"levelo://app?vid=88f4a0ea-f89b-4e50-88f3-da55f603f69a","ios":"levelo://app?vid=88f4a0ea-f89b-4e50-88f3-da55f603f69a"},"vehicle_type_id":"4","last_reported":1731535669,"current_range_meters":19200,"station_id":"ce4bhrh2rcd13ifvqhug","pricing_plan_id":"cebpf4jnsgd1na2vs0mg"},{"bike_id":"d2ed4da5-c7f5-4a7f-99c0-0bad629e4afd","system_id":"levelo_inurba_marseille","lat":43.29308,"lon":5.37454,"is_reserved":false,"is_disabled":false,"rental_uris":{"android":"levelo://app?vid=d2ed4da5-c7f5-4a7f-99c0-0bad629e4afd","ios":"levelo://app?vid=d2ed4da5-c7f5-4a7f-99c0-0bad629e4afd"},"vehicle_type_id":"4","last_reported":1731535669,"current_range_meters":38800,"station_id":"ce4bgi12rcd13ifvqb70","pricing_plan_id":"cebpf4jnsgd1na2vs0mg"},{"bike_id":"d629aba1-1b75-4b3a-8c37-a357eb3d6c15","system_id":"levelo_inurba_marseille","lat":43.28458,"lon":5.35894,"is_reserved":false,"is_disabled":false,"rental_uris":{"android":"levelo://app?vid=d629aba1-1b75-4b3a-8c37-a357eb3d6c15","ios":"levelo://app?vid=d629aba1-1b75-4b3a-8c37-a357eb3d6c15"},"vehicle_type_id":"4","last_reported":1731535669,"current_range_meters":8000,"station_id":"ce4bhah2rcd13ifvqei0","pricing_plan_id":"cebpf4jnsgd1na2vs0mg"},{"bike_id":"19f28e5b-5fba-40ba-a41f-21578246d721","system_id":"levelo_inurba_marseille","lat":43.29864,"lon":5.39742,"is_reserved":false,"is_disabled":false,"rental_uris":{"android":"levelo://app?vid=19f28e5b-5fba-40ba-a41f-21578246d721","ios":"levelo://app?vid=19f28e5b-5fba-40ba-a41f-21578246d721"},"vehicle_type_id":"4","last_reported":1731535669,"current_range_meters":26000,"station_id":"ce4bh0h2rcd13ifvqd50","pricing_plan_id":"cebpf4jnsgd1na2vs0mg"},{"bike_id":"f8c7b545-cb78-457a-b979-a8f8f51ff7ed","system_id":"levelo_inurba_marseille","lat":43.28932,"lon":5.38401,"is_reserved":false,"is_disabled":false,"rental_uris":{"android":"levelo://app?vid=f8c7b545-cb78-457a-b979-a8f8f51ff7ed","ios":"levelo://app?vid=f8c7b545-cb78-457a-b979-a8f8f51ff7ed"},"vehicle_type_id":"4","last_reported":1731535669,"current_range_meters":12000,"station_id":"ce4bh612rcd13ifvqe6g","pricing_plan_id":"cebpf4jnsgd1na2vs0mg"},{"bike_id":"12817c99-3b1a-40e0-be55-c1f1ccfaedd7","system_id":"levelo_inurba_marseille","lat":43.27816,"lon":5.40709,"is_reserved":false,"is_disabled":false,"rental_uris":{"android":"levelo://app?vid=12817c99-3b1a-40e0-be55-c1f1ccfaedd7","ios":"levelo://app?vid=12817c99-3b1a-40e0-be55-c1f1ccfaedd7"},"vehicle_type_id":"4","last_reported":1731535669,"current_range_meters":38800,"station_id":"ce4bhnh2rcd13ifvqgtg","pricing_plan_id":"cebpf4jnsgd1na2vs0mg"},{"bike_id":"b5c48233-4f2d-4568-a512-177511afea67","system_id":"levelo_inurba_marseille","lat":43.29049,"lon":5.35899,"is_reserved":false,"is_disabled":false,"rental_uris":{"android":"levelo://app?vid=b5c48233-4f2d-4568-a512-177511afea67","ios":"levelo://app?vid=b5c48233-4f2d-4568-a512-177511afea67"},"vehicle_type_id":"4","last_reported":1731535669,"current_range_meters":20400,"station_id":"ce4bha92rcd13ifvqeg0","pricing_plan_id":"cebpf4jnsgd1na2vs0mg"},{"bike_id":"2834bc61-5c31-4729-8445-00c3cd376eb2","system_id":"levelo_inurba_marseille","lat":43.29794,"lon":5.39336,"is_reserved":false,"is_disabled":false,"rental_uris":{"android":"levelo://app?vid=2834bc61-5c31-4729-8445-00c3cd376eb2","ios":"levelo://app?vid=2834bc61-5c31-4729-8445-00c3cd376eb2"},"vehicle_type_id":"4","last_reported":1731535669,"current_range_meters":36800,"station_id":"chh1huq6cuj3fo74tm60","pricing_plan_id":"cebpf4jnsgd1na2vs0mg"},{"bike_id":"5d7c50d9-a10f-4e3b-afec-77c1a7e640d5","system_id":"levelo_inurba_marseille","lat":43.30771,"lon":5.37661,"is_reserved":false,"is_disabled":false,"rental_uris":{"android":"levelo://app?vid=5d7c50d9-a10f-4e3b-afec-77c1a7e640d5","ios":"levelo://app?vid=5d7c50d9-a10f-4e3b-afec-77c1a7e640d5"},"vehicle_type_id":"4","last_reported":1731535669,"current_range_meters":29600,"station_id":"ce4bgv92rcd13ifvqcq0","pricing_plan_id":"cebpf4jnsgd1na2vs0mg"},{"bike_id":"3dd2ef49-ad1c-43a1-ac6b-b877c1801c2f","system_id":"levelo_inurba_marseille","lat":43.27905,"lon":5.38023,"is_reserved":false,"is_disabled":false,"rental_uris":{"android":"levelo://app?vid=3dd2ef49-ad1c-43a1-ac6b-b877c1801c2f","ios":"levelo://app?vid=3dd2ef49-ad1c-43a1-ac6b-b877c1801c2f"},"vehicle_type_id":"4","last_reported":1731535669,"current_range_meters":19600,"station_id":"ce4bhf92rcd13ifvqf50","pricing_plan_id":"cebpf4jnsgd1na2vs0mg"},{"bike_id":"9cf5fe7b-47e5-4da9-8f85-ef1aeead96c5","system_id":"levelo_inurba_marseille","lat":43.30649,"lon":5.401,"is_reserved":false,"is_disabled":false,"rental_uris":{"android":"levelo://app?vid=9cf5fe7b-47e5-4da9-8f85-ef1aeead96c5","ios":"levelo://app?vid=9cf5fe7b-47e5-4da9-8f85-ef1aeead96c5"},"vehicle_type_id":"4","last_reported":1731535669,"current_range_meters":27200,"station_id":"ce4bh112rcd13ifvqda0","pricing_plan_id":"cebpf4jnsgd1na2vs0mg"},{"bike_id":"7a56d0a8-a4a2-4acb-8323-25d4cda32662","system_id":"levelo_inurba_marseille","lat":43.24068,"lon":5.37762,"is_reserved":false,"is_disabled":false,"rental_uris":{"android":"levelo://app?vid=7a56d0a8-a4a2-4acb-8323-25d4cda32662","ios":"levelo://app?vid=7a56d0a8-a4a2-4acb-8323-25d4cda32662"},"vehicle_type_id":"4","last_reported":1731535669,"current_range_meters":38400,"station_id":"ce4bhnp2rcd13ifvqgvg","pricing_plan_id":"cebpf4jnsgd1na2vs0mg"},{"bike_id":"d99bff46-e3e0-4c25-9719-3fa3dd9a1a6e","system_id":"levelo_inurba_marseille","lat":43.31419,"lon":5.37413,"is_reserved":false,"is_disabled":false,"rental_uris":{"android":"levelo://app?vid=d99bff46-e3e0-4c25-9719-3fa3dd9a1a6e","ios":"levelo://app?vid=d99bff46-e3e0-4c25-9719-3fa3dd9a1a6e"},"vehicle_type_id":"4","last_reported":1731535669,"current_range_meters":21600,"station_id":"","pricing_plan_id":"cebpf4jnsgd1na2vs0mg"},{"bike_id":"5579cd69-e39d-4d61-b692-e7e80a49b424","system_id":"levelo_inurba_marseille","lat":43.30437,"lon":5.38894,"is_reserved":false,"is_disabled":false,"rental_uris":{"android":"levelo://app?vid=5579cd69-e39d-4d61-b692-e7e80a49b424","ios":"levelo://app?vid=5579cd69-e39d-4d61-b692-e7e80a49b424"},"vehicle_type_id":"4","last_reported":1731535669,"current_range_meters":36800,"station_id":"ce4bgk12rcd13ifvqbi0","pricing_plan_id":"cebpf4jnsgd1na2vs0mg"},{"bike_id":"1f9bbbe2-6d43-4695-ad1c-62239c6576c6","system_id":"levelo_inurba_marseille","lat":43.28455,"lon":5.35886,"is_reserved":false,"is_disabled":false,"rental_uris":{"android":"levelo://app?vid=1f9bbbe2-6d43-4695-ad1c-62239c6576c6","ios":"levelo://app?vid=1f9bbbe2-6d43-4695-ad1c-62239c6576c6"},"vehicle_type_id":"4","last_reported":1731535669,"current_range_meters":10000,"station_id":"ce4bhah2rcd13ifvqei0","pricing_plan_id":"cebpf4jnsgd1na2vs0mg"},{"bike_id":"4e2374da-ae8a-4e80-b322-a311f399cd72","system_id":"levelo_inurba_marseille","lat":43.30637,"lon":5.40077,"is_reserved":false,"is_disabled":false,"rental_uris":{"android":"levelo://app?vid=4e2374da-ae8a-4e80-b322-a311f399cd72","ios":"levelo://app?vid=4e2374da-ae8a-4e80-b322-a311f399cd72"},"vehicle_type_id":"4","last_reported":1731535669,"current_range_meters":12000,"station_id":"ce4bh112rcd13ifvqda0","pricing_plan_id":"cebpf4jnsgd1na2vs0mg"},{"bike_id":"41216121-f9a5-4d0d-b4ad-c65a5f5a6201","system_id":"levelo_inurba_marseille","lat":43.337216,"lon":5.391836,"is_reserved":false,"is_disabled":false,"rental_uris":{"android":"levelo://app?vid=41216121-f9a5-4d0d-b4ad-c65a5f5a6201","ios":"levelo://app?vid=41216121-f9a5-4d0d-b4ad-c65a5f5a6201"},"vehicle_type_id":"4","last_reported":1731535669,"current_range_meters":37600,"station_id":"ce4bhr92rcd13ifvqhsg","pricing_plan_id":"cebpf4jnsgd1na2vs0mg"},{"bike_id":"07df449b-4274-4142-8432-30fbab1e34c7","system_id":"levelo_inurba_marseille","lat":43.316925,"lon":5.423986,"is_reserved":false,"is_disabled":false,"rental_uris":{"android":"levelo://app?vid=07df449b-4274-4142-8432-30fbab1e34c7","ios":"levelo://app?vid=07df449b-4274-4142-8432-30fbab1e34c7"},"vehicle_type_id":"4","last_reported":1731535669,"current_range_meters":8000,"station_id":"ce4bhp92rcd13ifvqhbg","pricing_plan_id":"cebpf4jnsgd1na2vs0mg"},{"bike_id":"805bb8b1-9cc6-4f3e-a15b-1d33acae2c35","system_id":"levelo_inurba_marseille","lat":43.25085,"lon":5.39525,"is_reserved":false,"is_disabled":false,"rental_uris":{"android":"levelo://app?vid=805bb8b1-9cc6-4f3e-a15b-1d33acae2c35","ios":"levelo://app?vid=805bb8b1-9cc6-4f3e-a15b-1d33acae2c35"},"vehicle_type_id":"4","last_reported":1731535669,"current_range_meters":16400,"station_id":"ce4bhm12rcd13ifvqgkg","pricing_plan_id":"cebpf4jnsgd1na2vs0mg"},{"bike_id":"9e9a2369-1d14-4981-a72c-1ddb3ebe0ae3","system_id":"levelo_inurba_marseille","lat":43.27985,"lon":5.41661,"is_reserved":false,"is_disabled":false,"rental_uris":{"android":"levelo://app?vid=9e9a2369-1d14-4981-a72c-1ddb3ebe0ae3","ios":"levelo://app?vid=9e9a2369-1d14-4981-a72c-1ddb3ebe0ae3"},"vehicle_type_id":"4","last_reported":1731535669,"current_range_meters":38800,"station_id":"ce4bho12rcd13ifvqh1g","pricing_plan_id":"cebpf4jnsgd1na2vs0mg"},{"bike_id":"e84c3e0e-ecb8-4ff3-a803-0156741b8ebd","system_id":"levelo_inurba_marseille","lat":43.31361,"lon":5.38504,"is_reserved":false,"is_disabled":false,"rental_uris":{"android":"levelo://app?vid=e84c3e0e-ecb8-4ff3-a803-0156741b8ebd","ios":"levelo://app?vid=e84c3e0e-ecb8-4ff3-a803-0156741b8ebd"},"vehicle_type_id":"4","last_reported":1731535669,"current_range_meters":21600,"station_id":"ce4bgt92rcd13ifvqcf0","pricing_plan_id":"cebpf4jnsgd1na2vs0mg"},{"bike_id":"c7190943-6068-43f7-8523-f40d0bf48839","system_id":"levelo_inurba_marseille","lat":43.28704,"lon":5.37396,"is_reserved":false,"is_disabled":false,"rental_uris":{"android":"levelo://app?vid=c7190943-6068-43f7-8523-f40d0bf48839","ios":"levelo://app?vid=c7190943-6068-43f7-8523-f40d0bf48839"},"vehicle_type_id":"4","last_reported":1731535669,"current_range_meters":31200,"station_id":"ce4bh3p2rcd13ifvqdq0","pricing_plan_id":"cebpf4jnsgd1na2vs0mg"},{"bike_id":"ce9011f8-0e25-4828-8fa4-9d5237998707","system_id":"levelo_inurba_marseille","lat":43.30248,"lon":5.40058,"is_reserved":false,"is_disabled":false,"rental_uris":{"android":"levelo://app?vid=ce9011f8-0e25-4828-8fa4-9d5237998707","ios":"levelo://app?vid=ce9011f8-0e25-4828-8fa4-9d5237998707"},"vehicle_type_id":"4","last_reported":1731535669,"current_range_meters":29600,"station_id":"ce4bgvh2rcd13ifvqcs0","pricing_plan_id":"cebpf4jnsgd1na2vs0mg"},{"bike_id":"e310a17a-40c4-4a75-85fa-ab8c2d50d79e","system_id":"levelo_inurba_marseille","lat":43.29787,"lon":5.37091,"is_reserved":false,"is_disabled":false,"rental_uris":{"android":"levelo://app?vid=e310a17a-40c4-4a75-85fa-ab8c2d50d79e","ios":"levelo://app?vid=e310a17a-40c4-4a75-85fa-ab8c2d50d79e"},"vehicle_type_id":"4","last_reported":1731535669,"current_range_meters":18000,"station_id":"ce4bgop2rcd13ifvqc1g","pricing_plan_id":"cebpf4jnsgd1na2vs0mg"},{"bike_id":"c922eb02-035c-4fd0-a78f-29ec8348d4e8","system_id":"levelo_inurba_marseille","lat":43.29204,"lon":5.39334,"is_reserved":false,"is_disabled":false,"rental_uris":{"android":"levelo://app?vid=c922eb02-035c-4fd0-a78f-29ec8348d4e8","ios":"levelo://app?vid=c922eb02-035c-4fd0-a78f-29ec8348d4e8"},"vehicle_type_id":"4","last_reported":1731535669,"current_range_meters":30800,"station_id":"ce4bh192rcd13ifvqdd0","pricing_plan_id":"cebpf4jnsgd1na2vs0mg"},{"bike_id":"cb9a6aa0-0b19-47f1-9052-a16185b299c2","system_id":"levelo_inurba_marseille","lat":43.2987,"lon":5.39733,"is_reserved":false,"is_disabled":false,"rental_uris":{"android":"levelo://app?vid=cb9a6aa0-0b19-47f1-9052-a16185b299c2","ios":"levelo://app?vid=cb9a6aa0-0b19-47f1-9052-a16185b299c2"},"vehicle_type_id":"4","last_reported":1731535669,"current_range_meters":38400,"station_id":"ce4bh0h2rcd13ifvqd50","pricing_plan_id":"cebpf4jnsgd1na2vs0mg"},{"bike_id":"7d3eacf7-6154-44a8-8611-005a20a78b16","system_id":"levelo_inurba_marseille","lat":43.31074,"lon":5.38357,"is_reserved":false,"is_disabled":false,"rental_uris":{"android":"levelo://app?vid=7d3eacf7-6154-44a8-8611-005a20a78b16","ios":"levelo://app?vid=7d3eacf7-6154-44a8-8611-005a20a78b16"},"vehicle_type_id":"4","last_reported":1731535669,"current_range_meters":25600,"station_id":"ce4bgv92rcd13ifvqcr0","pricing_plan_id":"cebpf4jnsgd1na2vs0mg"},{"bike_id":"4d588559-87d9-4b67-ac55-1a3523c0923d","system_id":"levelo_inurba_marseille","lat":43.29897,"lon":5.43662,"is_reserved":false,"is_disabled":false,"rental_uris":{"android":"levelo://app?vid=4d588559-87d9-4b67-ac55-1a3523c0923d","ios":"levelo://app?vid=4d588559-87d9-4b67-ac55-1a3523c0923d"},"vehicle_type_id":"4","last_reported":1731535669,"current_range_meters":38800,"station_id":"ce4bhpp2rcd13ifvqhfg","pricing_plan_id":"cebpf4jnsgd1na2vs0mg"},{"bike_id":"c4cd912c-a38b-4bea-8dd2-1adccd444902","system_id":"levelo_inurba_marseille","lat":43.32293,"lon":5.38275,"is_reserved":false,"is_disabled":false,"rental_uris":{"android":"levelo://app?vid=c4cd912c-a38b-4bea-8dd2-1adccd444902","ios":"levelo://app?vid=c4cd912c-a38b-4bea-8dd2-1adccd444902"},"vehicle_type_id":"4","last_reported":1731535669,"current_range_meters":4800,"station_id":"ce4bhr12rcd13ifvqhqg","pricing_plan_id":"cebpf4jnsgd1na2vs0mg"},{"bike_id":"eaca7b48-8b40-4d92-90a1-e5d7b199bc3d","system_id":"levelo_inurba_marseille","lat":43.28929,"lon":5.38393,"is_reserved":false,"is_disabled":false,"rental_uris":{"android":"levelo://app?vid=eaca7b48-8b40-4d92-90a1-e5d7b199bc3d","ios":"levelo://app?vid=eaca7b48-8b40-4d92-90a1-e5d7b199bc3d"},"vehicle_type_id":"4","last_reported":1731535669,"current_range_meters":38800,"station_id":"ce4bh612rcd13ifvqe6g","pricing_plan_id":"cebpf4jnsgd1na2vs0mg"},{"bike_id":"fb92e3a5-1901-41f7-b537-1987e5bce9fc","system_id":"levelo_inurba_marseille","lat":43.29256,"lon":5.40901,"is_reserved":false,"is_disabled":false,"rental_uris":{"android":"levelo://app?vid=fb92e3a5-1901-41f7-b537-1987e5bce9fc","ios":"levelo://app?vid=fb92e3a5-1901-41f7-b537-1987e5bce9fc"},"vehicle_type_id":"4","last_reported":1731535669,"current_range_meters":34800,"station_id":"ce4bh192rcd13ifvqdc0","pricing_plan_id":"cebpf4jnsgd1na2vs0mg"},{"bike_id":"6a013f38-7997-41e7-ac4a-77fc2e02fba8","system_id":"levelo_inurba_marseille","lat":43.30297,"lon":5.39209,"is_reserved":false,"is_disabled":false,"rental_uris":{"android":"levelo://app?vid=6a013f38-7997-41e7-ac4a-77fc2e02fba8","ios":"levelo://app?vid=6a013f38-7997-41e7-ac4a-77fc2e02fba8"},"vehicle_type_id":"4","last_reported":1731535669,"current_range_meters":36400,"station_id":"ce4bgkh2rcd13ifvqbk0","pricing_plan_id":"cebpf4jnsgd1na2vs0mg"},{"bike_id":"8889ce2c-aa97-491c-a8b4-11b49466b5c3","system_id":"levelo_inurba_marseille","lat":43.30306,"lon":5.39217,"is_reserved":false,"is_disabled":false,"rental_uris":{"android":"levelo://app?vid=8889ce2c-aa97-491c-a8b4-11b49466b5c3","ios":"levelo://app?vid=8889ce2c-aa97-491c-a8b4-11b49466b5c3"},"vehicle_type_id":"4","last_reported":1731535669,"current_range_meters":39200,"station_id":"ce4bgkh2rcd13ifvqbk0","pricing_plan_id":"cebpf4jnsgd1na2vs0mg"},{"bike_id":"4e2cc13b-4ce0-4143-bd06-200641b22073","system_id":"levelo_inurba_marseille","lat":43.30807,"lon":5.38158,"is_reserved":false,"is_disabled":false,"rental_uris":{"android":"levelo://app?vid=4e2cc13b-4ce0-4143-bd06-200641b22073","ios":"levelo://app?vid=4e2cc13b-4ce0-4143-bd06-200641b22073"},"vehicle_type_id":"4","last_reported":1731535669,"current_range_meters":3600,"station_id":"ce4bgt12rcd13ifvqce0","pricing_plan_id":"cebpf4jnsgd1na2vs0mg"},{"bike_id":"08d87011-e4d0-49f6-b92d-f2f42fbc888b","system_id":"levelo_inurba_marseille","lat":43.28944,"lon":5.39637,"is_reserved":false,"is_disabled":false,"rental_uris":{"android":"levelo://app?vid=08d87011-e4d0-49f6-b92d-f2f42fbc888b","ios":"levelo://app?vid=08d87011-e4d0-49f6-b92d-f2f42fbc888b"},"vehicle_type_id":"4","last_reported":1731535669,"current_range_meters":8000,"station_id":"ce4bh3h2rcd13ifvqdn0","pricing_plan_id":"cebpf4jnsgd1na2vs0mg"},{"bike_id":"2dfe3ff7-15f1-44d8-8056-486b409d3678","system_id":"levelo_inurba_marseille","lat":43.31685,"lon":5.40469,"is_reserved":false,"is_disabled":false,"rental_uris":{"android":"levelo://app?vid=2dfe3ff7-15f1-44d8-8056-486b409d3678","ios":"levelo://app?vid=2dfe3ff7-15f1-44d8-8056-486b409d3678"},"vehicle_type_id":"4","last_reported":1731535669,"current_range_meters":16400,"station_id":"ce4bh012rcd13ifvqd00","pricing_plan_id":"cebpf4jnsgd1na2vs0mg"},{"bike_id":"8963f262-bdcb-43f5-9e37-237198779ba8","system_id":"levelo_inurba_marseille","lat":43.33773,"lon":5.37442,"is_reserved":false,"is_disabled":false,"rental_uris":{"android":"levelo://app?vid=8963f262-bdcb-43f5-9e37-237198779ba8","ios":"levelo://app?vid=8963f262-bdcb-43f5-9e37-237198779ba8"},"vehicle_type_id":"4","last_reported":1731535669,"current_range_meters":36400,"station_id":"","pricing_plan_id":"cebpf4jnsgd1na2vs0mg"},{"bike_id":"131d5275-8201-4abf-89e3-9cd3bb0ce7b5","system_id":"levelo_inurba_marseille","lat":43.306834,"lon":5.380212,"is_reserved":false,"is_disabled":false,"rental_uris":{"android":"levelo://app?vid=131d5275-8201-4abf-89e3-9cd3bb0ce7b5","ios":"levelo://app?vid=131d5275-8201-4abf-89e3-9cd3bb0ce7b5"},"vehicle_type_id":"4","last_reported":1731535669,"current_range_meters":36000,"station_id":"","pricing_plan_id":"cebpf4jnsgd1na2vs0mg"},{"bike_id":"398b47b3-a042-4cec-b1dd-254773a78263","system_id":"levelo_inurba_marseille","lat":43.27411,"lon":5.38946,"is_reserved":false,"is_disabled":false,"rental_uris":{"android":"levelo://app?vid=398b47b3-a042-4cec-b1dd-254773a78263","ios":"levelo://app?vid=398b47b3-a042-4cec-b1dd-254773a78263"},"vehicle_type_id":"4","last_reported":1731535669,"current_range_meters":8000,"station_id":"","pricing_plan_id":"cebpf4jnsgd1na2vs0mg"},{"bike_id":"b7c2faf1-ecf1-4884-aba5-2bb342652a82","system_id":"levelo_inurba_marseille","lat":43.30621,"lon":5.37219,"is_reserved":false,"is_disabled":false,"rental_uris":{"android":"levelo://app?vid=b7c2faf1-ecf1-4884-aba5-2bb342652a82","ios":"levelo://app?vid=b7c2faf1-ecf1-4884-aba5-2bb342652a82"},"vehicle_type_id":"4","last_reported":1731535669,"current_range_meters":30800,"station_id":"ce4bgqh2rcd13ifvqc4g","pricing_plan_id":"cebpf4jnsgd1na2vs0mg"},{"bike_id":"aeed913e-49c0-4ab0-8437-51150ca5a1d8","system_id":"levelo_inurba_marseille","lat":43.27946,"lon":5.41053,"is_reserved":false,"is_disabled":false,"rental_uris":{"android":"levelo://app?vid=aeed913e-49c0-4ab0-8437-51150ca5a1d8","ios":"levelo://app?vid=aeed913e-49c0-4ab0-8437-51150ca5a1d8"},"vehicle_type_id":"4","last_reported":1731535669,"current_range_meters":28000,"station_id":"ce4bhnp2rcd13ifvqh0g","pricing_plan_id":"cebpf4jnsgd1na2vs0mg"},{"bike_id":"44d4aeee-f0c2-4734-b402-fb62f0186632","system_id":"levelo_inurba_marseille","lat":43.24387,"lon":5.37051,"is_reserved":false,"is_disabled":false,"rental_uris":{"android":"levelo://app?vid=44d4aeee-f0c2-4734-b402-fb62f0186632","ios":"levelo://app?vid=44d4aeee-f0c2-4734-b402-fb62f0186632"},"vehicle_type_id":"4","last_reported":1731535669,"current_range_meters":30800,"station_id":"ce4bhhh2rcd13ifvqfk0","pricing_plan_id":"cebpf4jnsgd1na2vs0mg"},{"bike_id":"68e917fb-7a0e-415a-99ab-50edab48b82a","system_id":"levelo_inurba_marseille","lat":43.30896,"lon":5.39654,"is_reserved":false,"is_disabled":false,"rental_uris":{"android":"levelo://app?vid=68e917fb-7a0e-415a-99ab-50edab48b82a","ios":"levelo://app?vid=68e917fb-7a0e-415a-99ab-50edab48b82a"},"vehicle_type_id":"4","last_reported":1731535669,"current_range_meters":33200,"station_id":"ce4bh012rcd13ifvqcv0","pricing_plan_id":"cebpf4jnsgd1na2vs0mg"},{"bike_id":"80b7a411-f20b-4eee-ba8a-e47419f89860","system_id":"levelo_inurba_marseille","lat":43.2894,"lon":5.3663,"is_reserved":false,"is_disabled":false,"rental_uris":{"android":"levelo://app?vid=80b7a411-f20b-4eee-ba8a-e47419f89860","ios":"levelo://app?vid=80b7a411-f20b-4eee-ba8a-e47419f89860"},"vehicle_type_id":"4","last_reported":1731535669,"current_range_meters":38800,"station_id":"ce4bhap2rcd13ifvqek0","pricing_plan_id":"cebpf4jnsgd1na2vs0mg"},{"bike_id":"92e3ad17-17c9-4714-a148-ef9436ad6113","system_id":"levelo_inurba_marseille","lat":43.22933,"lon":5.35383,"is_reserved":false,"is_disabled":false,"rental_uris":{"android":"levelo://app?vid=92e3ad17-17c9-4714-a148-ef9436ad6113","ios":"levelo://app?vid=92e3ad17-17c9-4714-a148-ef9436ad6113"},"vehicle_type_id":"4","last_reported":1731535669,"current_range_meters":39200,"station_id":"cpo3532slgdg3j2ikp40","pricing_plan_id":"cebpf4jnsgd1na2vs0mg"},{"bike_id":"6d3b6101-e514-4fa7-8db1-6dc1e101fc47","system_id":"levelo_inurba_marseille","lat":43.29202,"lon":5.39337,"is_reserved":false,"is_disabled":false,"rental_uris":{"android":"levelo://app?vid=6d3b6101-e514-4fa7-8db1-6dc1e101fc47","ios":"levelo://app?vid=6d3b6101-e514-4fa7-8db1-6dc1e101fc47"},"vehicle_type_id":"4","last_reported":1731535669,"current_range_meters":38800,"station_id":"ce4bh192rcd13ifvqdd0","pricing_plan_id":"cebpf4jnsgd1na2vs0mg"},{"bike_id":"e6a03aba-3d73-49a9-891f-883f2f916f86","system_id":"levelo_inurba_marseille","lat":43.30886,"lon":5.3963,"is_reserved":false,"is_disabled":false,"rental_uris":{"android":"levelo://app?vid=e6a03aba-3d73-49a9-891f-883f2f916f86","ios":"levelo://app?vid=e6a03aba-3d73-49a9-891f-883f2f916f86"},"vehicle_type_id":"4","last_reported":1731535669,"current_range_meters":38000,"station_id":"ce4bh012rcd13ifvqcv0","pricing_plan_id":"cebpf4jnsgd1na2vs0mg"},{"bike_id":"187dab1e-6f52-4db4-a1d6-a502ef5495b2","system_id":"levelo_inurba_marseille","lat":43.28637,"lon":5.38352,"is_reserved":false,"is_disabled":false,"rental_uris":{"android":"levelo://app?vid=187dab1e-6f52-4db4-a1d6-a502ef5495b2","ios":"levelo://app?vid=187dab1e-6f52-4db4-a1d6-a502ef5495b2"},"vehicle_type_id":"4","last_reported":1731535669,"current_range_meters":34800,"station_id":"","pricing_plan_id":"cebpf4jnsgd1na2vs0mg"},{"bike_id":"beb7b9bd-a544-4d0c-b0ee-a6204f3f5108","system_id":"levelo_inurba_marseille","lat":43.291962,"lon":5.385193,"is_reserved":false,"is_disabled":false,"rental_uris":{"android":"levelo://app?vid=beb7b9bd-a544-4d0c-b0ee-a6204f3f5108","ios":"levelo://app?vid=beb7b9bd-a544-4d0c-b0ee-a6204f3f5108"},"vehicle_type_id":"4","last_reported":1731535669,"current_range_meters":27200,"station_id":"","pricing_plan_id":"cebpf4jnsgd1na2vs0mg"},{"bike_id":"82f309e6-c4ae-421f-89cb-1d64a8e0ef10","system_id":"levelo_inurba_marseille","lat":43.337444,"lon":5.374475,"is_reserved":false,"is_disabled":false,"rental_uris":{"android":"levelo://app?vid=82f309e6-c4ae-421f-89cb-1d64a8e0ef10","ios":"levelo://app?vid=82f309e6-c4ae-421f-89cb-1d64a8e0ef10"},"vehicle_type_id":"4","last_reported":1731535669,"current_range_meters":35600,"station_id":"","pricing_plan_id":"cebpf4jnsgd1na2vs0mg"},{"bike_id":"5419d154-3ce9-4c40-9294-d16b9d2b3431","system_id":"levelo_inurba_marseille","lat":43.337444,"lon":5.374475,"is_reserved":false,"is_disabled":false,"rental_uris":{"android":"levelo://app?vid=5419d154-3ce9-4c40-9294-d16b9d2b3431","ios":"levelo://app?vid=5419d154-3ce9-4c40-9294-d16b9d2b3431"},"vehicle_type_id":"4","last_reported":1731535669,"current_range_meters":35600,"station_id":"","pricing_plan_id":"cebpf4jnsgd1na2vs0mg"},{"bike_id":"b615b6de-5530-40a5-9554-a272be97687a","system_id":"levelo_inurba_marseille","lat":43.31362,"lon":5.38503,"is_reserved":false,"is_disabled":false,"rental_uris":{"android":"levelo://app?vid=b615b6de-5530-40a5-9554-a272be97687a","ios":"levelo://app?vid=b615b6de-5530-40a5-9554-a272be97687a"},"vehicle_type_id":"4","last_reported":1731535669,"current_range_meters":32800,"station_id":"ce4bgt92rcd13ifvqcf0","pricing_plan_id":"cebpf4jnsgd1na2vs0mg"},{"bike_id":"6e4ab7d2-c1df-4ea4-bb4b-2f5c43ed5717","system_id":"levelo_inurba_marseille","lat":43.33768,"lon":5.37439,"is_reserved":false,"is_disabled":false,"rental_uris":{"android":"levelo://app?vid=6e4ab7d2-c1df-4ea4-bb4b-2f5c43ed5717","ios":"levelo://app?vid=6e4ab7d2-c1df-4ea4-bb4b-2f5c43ed5717"},"vehicle_type_id":"4","last_reported":1731535669,"current_range_meters":35600,"station_id":"","pricing_plan_id":"cebpf4jnsgd1na2vs0mg"},{"bike_id":"1bfb47d6-f2f6-48e2-85e8-6c354de9dbed","system_id":"levelo_inurba_marseille","lat":43.29573,"lon":5.39972,"is_reserved":false,"is_disabled":false,"rental_uris":{"android":"levelo://app?vid=1bfb47d6-f2f6-48e2-85e8-6c354de9dbed","ios":"levelo://app?vid=1bfb47d6-f2f6-48e2-85e8-6c354de9dbed"},"vehicle_type_id":"4","last_reported":1731535669,"current_range_meters":14000,"station_id":"ce4bh312rcd13ifvqdj0","pricing_plan_id":"cebpf4jnsgd1na2vs0mg"},{"bike_id":"e9c22987-e77f-4667-8b0b-54aee6909c3e","system_id":"levelo_inurba_marseille","lat":43.30194,"lon":5.36623,"is_reserved":false,"is_disabled":false,"rental_uris":{"android":"levelo://app?vid=e9c22987-e77f-4667-8b0b-54aee6909c3e","ios":"levelo://app?vid=e9c22987-e77f-4667-8b0b-54aee6909c3e"},"vehicle_type_id":"4","last_reported":1731535669,"current_range_meters":18800,"station_id":"ce4bgrh2rcd13ifvqc8g","pricing_plan_id":"cebpf4jnsgd1na2vs0mg"},{"bike_id":"2e10cc50-770f-4f75-be0f-4e12b149451d","system_id":"levelo_inurba_marseille","lat":43.31891,"lon":5.40743,"is_reserved":false,"is_disabled":false,"rental_uris":{"android":"levelo://app?vid=2e10cc50-770f-4f75-be0f-4e12b149451d","ios":"levelo://app?vid=2e10cc50-770f-4f75-be0f-4e12b149451d"},"vehicle_type_id":"4","last_reported":1731535669,"current_range_meters":37600,"station_id":"ce4bhq12rcd13ifvqhig","pricing_plan_id":"cebpf4jnsgd1na2vs0mg"},{"bike_id":"bf572986-72e5-4ae6-bf1e-d22b0a1d0215","system_id":"levelo_inurba_marseille","lat":43.31174,"lon":5.38721,"is_reserved":false,"is_disabled":false,"rental_uris":{"android":"levelo://app?vid=bf572986-72e5-4ae6-bf1e-d22b0a1d0215","ios":"levelo://app?vid=bf572986-72e5-4ae6-bf1e-d22b0a1d0215"},"vehicle_type_id":"4","last_reported":1731535669,"current_range_meters":8800,"station_id":"ce4bgv12rcd13ifvqcp0","pricing_plan_id":"cebpf4jnsgd1na2vs0mg"},{"bike_id":"9722550f-1a69-4d6e-8160-2610e45f09a4","system_id":"levelo_inurba_marseille","lat":43.280331,"lon":5.369478,"is_reserved":false,"is_disabled":false,"rental_uris":{"android":"levelo://app?vid=9722550f-1a69-4d6e-8160-2610e45f09a4","ios":"levelo://app?vid=9722550f-1a69-4d6e-8160-2610e45f09a4"},"vehicle_type_id":"4","last_reported":1731535669,"current_range_meters":35600,"station_id":"ce4bha12rcd13ifvqef0","pricing_plan_id":"cebpf4jnsgd1na2vs0mg"},{"bike_id":"42744b5d-4b77-4c92-808c-ebf462138a5f","system_id":"levelo_inurba_marseille","lat":43.31557,"lon":5.386238,"is_reserved":false,"is_disabled":false,"rental_uris":{"android":"levelo://app?vid=42744b5d-4b77-4c92-808c-ebf462138a5f","ios":"levelo://app?vid=42744b5d-4b77-4c92-808c-ebf462138a5f"},"vehicle_type_id":"4","last_reported":1731535669,"current_range_meters":26000,"station_id":"","pricing_plan_id":"cebpf4jnsgd1na2vs0mg"},{"bike_id":"c9d041c0-acec-4cf4-bba2-e01a92441368","system_id":"levelo_inurba_marseille","lat":43.337444,"lon":5.374475,"is_reserved":false,"is_disabled":false,"rental_uris":{"android":"levelo://app?vid=c9d041c0-acec-4cf4-bba2-e01a92441368","ios":"levelo://app?vid=c9d041c0-acec-4cf4-bba2-e01a92441368"},"vehicle_type_id":"4","last_reported":1731535669,"current_range_meters":34000,"station_id":"","pricing_plan_id":"cebpf4jnsgd1na2vs0mg"},{"bike_id":"06ce8277-6238-4e82-9a81-1df8844cbd38","system_id":"levelo_inurba_marseille","lat":43.31535,"lon":5.38036,"is_reserved":false,"is_disabled":false,"rental_uris":{"android":"levelo://app?vid=06ce8277-6238-4e82-9a81-1df8844cbd38","ios":"levelo://app?vid=06ce8277-6238-4e82-9a81-1df8844cbd38"},"vehicle_type_id":"4","last_reported":1731535669,"current_range_meters":14800,"station_id":"ce4bhsp2rcd13ifvqi50","pricing_plan_id":"cebpf4jnsgd1na2vs0mg"},{"bike_id":"38bbdcff-2bf0-472f-b7a7-55224c74f01e","system_id":"levelo_inurba_marseille","lat":43.2884,"lon":5.35842,"is_reserved":false,"is_disabled":false,"rental_uris":{"android":"levelo://app?vid=38bbdcff-2bf0-472f-b7a7-55224c74f01e","ios":"levelo://app?vid=38bbdcff-2bf0-472f-b7a7-55224c74f01e"},"vehicle_type_id":"4","last_reported":1731535669,"current_range_meters":38400,"station_id":"ce4bhb12rcd13ifvqem0","pricing_plan_id":"cebpf4jnsgd1na2vs0mg"},{"bike_id":"5a35f5f6-3fbd-4daf-92c1-fe655d427fb3","system_id":"levelo_inurba_marseille","lat":43.29586,"lon":5.37516,"is_reserved":false,"is_disabled":false,"rental_uris":{"android":"levelo://app?vid=5a35f5f6-3fbd-4daf-92c1-fe655d427fb3","ios":"levelo://app?vid=5a35f5f6-3fbd-4daf-92c1-fe655d427fb3"},"vehicle_type_id":"4","last_reported":1731535669,"current_range_meters":33600,"station_id":"ce4bgh92rcd13ifvqb50","pricing_plan_id":"cebpf4jnsgd1na2vs0mg"},{"bike_id":"2e6a1118-1c5f-4c27-9a47-3bd23eaff188","system_id":"levelo_inurba_marseille","lat":43.30884,"lon":5.372,"is_reserved":false,"is_disabled":false,"rental_uris":{"android":"levelo://app?vid=2e6a1118-1c5f-4c27-9a47-3bd23eaff188","ios":"levelo://app?vid=2e6a1118-1c5f-4c27-9a47-3bd23eaff188"},"vehicle_type_id":"4","last_reported":1731535669,"current_range_meters":11600,"station_id":"ce4bguh2rcd13ifvqckg","pricing_plan_id":"cebpf4jnsgd1na2vs0mg"},{"bike_id":"811b12e1-b915-4795-adb1-dcaa217b059a","system_id":"levelo_inurba_marseille","lat":43.29709,"lon":5.36615,"is_reserved":false,"is_disabled":false,"rental_uris":{"android":"levelo://app?vid=811b12e1-b915-4795-adb1-dcaa217b059a","ios":"levelo://app?vid=811b12e1-b915-4795-adb1-dcaa217b059a"},"vehicle_type_id":"4","last_reported":1731535669,"current_range_meters":18000,"station_id":"ce4bgn12rcd13ifvqbt0","pricing_plan_id":"cebpf4jnsgd1na2vs0mg"},{"bike_id":"7cd628f6-74fa-4f71-b36c-47ea37f47b53","system_id":"levelo_inurba_marseille","lat":43.27835,"lon":5.39217,"is_reserved":false,"is_disabled":false,"rental_uris":{"android":"levelo://app?vid=7cd628f6-74fa-4f71-b36c-47ea37f47b53","ios":"levelo://app?vid=7cd628f6-74fa-4f71-b36c-47ea37f47b53"},"vehicle_type_id":"4","last_reported":1731535669,"current_range_meters":38000,"station_id":"ce4bhjp2rcd13ifvqga0","pricing_plan_id":"cebpf4jnsgd1na2vs0mg"},{"bike_id":"29360ffb-5bb0-45c0-9f91-b2659345b235","system_id":"levelo_inurba_marseille","lat":43.30088,"lon":5.39069,"is_reserved":false,"is_disabled":false,"rental_uris":{"android":"levelo://app?vid=29360ffb-5bb0-45c0-9f91-b2659345b235","ios":"levelo://app?vid=29360ffb-5bb0-45c0-9f91-b2659345b235"},"vehicle_type_id":"4","last_reported":1731535669,"current_range_meters":24800,"station_id":"ce4bh192rcd13ifvqdb0","pricing_plan_id":"cebpf4jnsgd1na2vs0mg"},{"bike_id":"38802a9b-8f78-4f74-a840-ae4a145a1890","system_id":"levelo_inurba_marseille","lat":43.30461,"lon":5.37904,"is_reserved":false,"is_disabled":false,"rental_uris":{"android":"levelo://app?vid=38802a9b-8f78-4f74-a840-ae4a145a1890","ios":"levelo://app?vid=38802a9b-8f78-4f74-a840-ae4a145a1890"},"vehicle_type_id":"4","last_reported":1731535669,"current_range_meters":12000,"station_id":"ce4bgup2rcd13ifvqcn0","pricing_plan_id":"cebpf4jnsgd1na2vs0mg"},{"bike_id":"5f1b89ae-1266-4792-91ad-55b706dc1643","system_id":"levelo_inurba_marseille","lat":43.23973,"lon":5.3663,"is_reserved":false,"is_disabled":false,"rental_uris":{"android":"levelo://app?vid=5f1b89ae-1266-4792-91ad-55b706dc1643","ios":"levelo://app?vid=5f1b89ae-1266-4792-91ad-55b706dc1643"},"vehicle_type_id":"4","last_reported":1731535669,"current_range_meters":32000,"station_id":"ce4bhi12rcd13ifvqfp0","pricing_plan_id":"cebpf4jnsgd1na2vs0mg"},{"bike_id":"82f4f361-39ee-4faf-8f0a-08e876e0576c","system_id":"levelo_inurba_marseille","lat":43.31282,"lon":5.36891,"is_reserved":false,"is_disabled":false,"rental_uris":{"android":"levelo://app?vid=82f4f361-39ee-4faf-8f0a-08e876e0576c","ios":"levelo://app?vid=82f4f361-39ee-4faf-8f0a-08e876e0576c"},"vehicle_type_id":"4","last_reported":1731535669,"current_range_meters":37600,"station_id":"ce4bgl92rcd13ifvqbq0","pricing_plan_id":"cebpf4jnsgd1na2vs0mg"},{"bike_id":"56b95c73-8922-4454-af0c-d312d9510ff0","system_id":"levelo_inurba_marseille","lat":43.30646,"lon":5.40079,"is_reserved":false,"is_disabled":false,"rental_uris":{"android":"levelo://app?vid=56b95c73-8922-4454-af0c-d312d9510ff0","ios":"levelo://app?vid=56b95c73-8922-4454-af0c-d312d9510ff0"},"vehicle_type_id":"4","last_reported":1731535669,"current_range_meters":32000,"station_id":"ce4bh112rcd13ifvqda0","pricing_plan_id":"cebpf4jnsgd1na2vs0mg"},{"bike_id":"5164f3a8-922f-488f-8ce2-4806c9a0e188","system_id":"levelo_inurba_marseille","lat":43.3089,"lon":5.39652,"is_reserved":false,"is_disabled":false,"rental_uris":{"android":"levelo://app?vid=5164f3a8-922f-488f-8ce2-4806c9a0e188","ios":"levelo://app?vid=5164f3a8-922f-488f-8ce2-4806c9a0e188"},"vehicle_type_id":"4","last_reported":1731535669,"current_range_meters":22000,"station_id":"ce4bh012rcd13ifvqcv0","pricing_plan_id":"cebpf4jnsgd1na2vs0mg"},{"bike_id":"93ded467-1347-4f92-8aad-47c2c60f3292","system_id":"levelo_inurba_marseille","lat":43.29573,"lon":5.39983,"is_reserved":false,"is_disabled":false,"rental_uris":{"android":"levelo://app?vid=93ded467-1347-4f92-8aad-47c2c60f3292","ios":"levelo://app?vid=93ded467-1347-4f92-8aad-47c2c60f3292"},"vehicle_type_id":"4","last_reported":1731535669,"current_range_meters":38000,"station_id":"ce4bh312rcd13ifvqdj0","pricing_plan_id":"cebpf4jnsgd1na2vs0mg"},{"bike_id":"b25c6e12-ba13-4e06-91ed-e42c3c5e4469","system_id":"levelo_inurba_marseille","lat":43.29298,"lon":5.37465,"is_reserved":false,"is_disabled":false,"rental_uris":{"android":"levelo://app?vid=b25c6e12-ba13-4e06-91ed-e42c3c5e4469","ios":"levelo://app?vid=b25c6e12-ba13-4e06-91ed-e42c3c5e4469"},"vehicle_type_id":"4","last_reported":1731535669,"current_range_meters":38800,"station_id":"ce4bgi12rcd13ifvqb70","pricing_plan_id":"cebpf4jnsgd1na2vs0mg"},{"bike_id":"929996c8-eb75-49bc-a4c9-6cfd09c05ed2","system_id":"levelo_inurba_marseille","lat":43.32368,"lon":5.38886,"is_reserved":false,"is_disabled":false,"rental_uris":{"android":"levelo://app?vid=929996c8-eb75-49bc-a4c9-6cfd09c05ed2","ios":"levelo://app?vid=929996c8-eb75-49bc-a4c9-6cfd09c05ed2"},"vehicle_type_id":"4","last_reported":1731535669,"current_range_meters":37600,"station_id":"ce4bhqp2rcd13ifvqhog","pricing_plan_id":"cebpf4jnsgd1na2vs0mg"},{"bike_id":"6a5996b1-4945-467a-a167-28f468a8c83e","system_id":"levelo_inurba_marseille","lat":43.305997,"lon":5.393329,"is_reserved":false,"is_disabled":false,"rental_uris":{"android":"levelo://app?vid=6a5996b1-4945-467a-a167-28f468a8c83e","ios":"levelo://app?vid=6a5996b1-4945-467a-a167-28f468a8c83e"},"vehicle_type_id":"4","last_reported":1731535669,"current_range_meters":2800,"station_id":"ce4bh0p2rcd13ifvqd80","pricing_plan_id":"cebpf4jnsgd1na2vs0mg"},{"bike_id":"83a46b88-087d-4287-b780-84d4db7aff44","system_id":"levelo_inurba_marseille","lat":43.32369,"lon":5.38883,"is_reserved":false,"is_disabled":false,"rental_uris":{"android":"levelo://app?vid=83a46b88-087d-4287-b780-84d4db7aff44","ios":"levelo://app?vid=83a46b88-087d-4287-b780-84d4db7aff44"},"vehicle_type_id":"4","last_reported":1731535669,"current_range_meters":24400,"station_id":"ce4bhqp2rcd13ifvqhog","pricing_plan_id":"cebpf4jnsgd1na2vs0mg"},{"bike_id":"033c5c19-203a-4d11-a7e6-91e96fa07efd","system_id":"levelo_inurba_marseille","lat":43.31331,"lon":5.39694,"is_reserved":false,"is_disabled":false,"rental_uris":{"android":"levelo://app?vid=033c5c19-203a-4d11-a7e6-91e96fa07efd","ios":"levelo://app?vid=033c5c19-203a-4d11-a7e6-91e96fa07efd"},"vehicle_type_id":"4","last_reported":1731535669,"current_range_meters":19600,"station_id":"ce4bgvp2rcd13ifvqcu0","pricing_plan_id":"cebpf4jnsgd1na2vs0mg"},{"bike_id":"4d8f881f-ecad-4bd3-ab56-d00a4cc82962","system_id":"levelo_inurba_marseille","lat":43.24801,"lon":5.37454,"is_reserved":false,"is_disabled":false,"rental_uris":{"android":"levelo://app?vid=4d8f881f-ecad-4bd3-ab56-d00a4cc82962","ios":"levelo://app?vid=4d8f881f-ecad-4bd3-ab56-d00a4cc82962"},"vehicle_type_id":"4","last_reported":1731535669,"current_range_meters":26800,"station_id":"ce4bhgh2rcd13ifvqfb0","pricing_plan_id":"cebpf4jnsgd1na2vs0mg"},{"bike_id":"170905c7-f490-4232-b141-663a4bd15902","system_id":"levelo_inurba_marseille","lat":43.29861,"lon":5.39724,"is_reserved":false,"is_disabled":false,"rental_uris":{"android":"levelo://app?vid=170905c7-f490-4232-b141-663a4bd15902","ios":"levelo://app?vid=170905c7-f490-4232-b141-663a4bd15902"},"vehicle_type_id":"4","last_reported":1731535669,"current_range_meters":38800,"station_id":"ce4bh0h2rcd13ifvqd50","pricing_plan_id":"cebpf4jnsgd1na2vs0mg"},{"bike_id":"337ea833-1b01-4041-a864-7a3676c066d7","system_id":"levelo_inurba_marseille","lat":43.27076,"lon":5.4228,"is_reserved":false,"is_disabled":false,"rental_uris":{"android":"levelo://app?vid=337ea833-1b01-4041-a864-7a3676c066d7","ios":"levelo://app?vid=337ea833-1b01-4041-a864-7a3676c066d7"},"vehicle_type_id":"4","last_reported":1731535669,"current_range_meters":8800,"station_id":"ce4bhk92rcd13ifvqgb0","pricing_plan_id":"cebpf4jnsgd1na2vs0mg"},{"bike_id":"7616a63e-4040-448c-a84b-1c511a4e52ab","system_id":"levelo_inurba_marseille","lat":43.31078,"lon":5.38358,"is_reserved":false,"is_disabled":false,"rental_uris":{"android":"levelo://app?vid=7616a63e-4040-448c-a84b-1c511a4e52ab","ios":"levelo://app?vid=7616a63e-4040-448c-a84b-1c511a4e52ab"},"vehicle_type_id":"4","last_reported":1731535669,"current_range_meters":18800,"station_id":"ce4bgv92rcd13ifvqcr0","pricing_plan_id":"cebpf4jnsgd1na2vs0mg"},{"bike_id":"3f9812b0-ae2e-482c-b8cc-baca997f3efc","system_id":"levelo_inurba_marseille","lat":43.28489,"lon":5.38559,"is_reserved":false,"is_disabled":false,"rental_uris":{"android":"levelo://app?vid=3f9812b0-ae2e-482c-b8cc-baca997f3efc","ios":"levelo://app?vid=3f9812b0-ae2e-482c-b8cc-baca997f3efc"},"vehicle_type_id":"4","last_reported":1731535669,"current_range_meters":26800,"station_id":"ce4bh8p2rcd13ifvqeb0","pricing_plan_id":"cebpf4jnsgd1na2vs0mg"},{"bike_id":"3ff2aa7c-e831-4438-9ae0-9f2a11b31e2f","system_id":"levelo_inurba_marseille","lat":43.28704,"lon":5.3999,"is_reserved":false,"is_disabled":false,"rental_uris":{"android":"levelo://app?vid=3ff2aa7c-e831-4438-9ae0-9f2a11b31e2f","ios":"levelo://app?vid=3ff2aa7c-e831-4438-9ae0-9f2a11b31e2f"},"vehicle_type_id":"4","last_reported":1731535669,"current_range_meters":24800,"station_id":"ce4bho92rcd13ifvqh3g","pricing_plan_id":"cebpf4jnsgd1na2vs0mg"},{"bike_id":"0067b0cb-61ea-498b-adca-ce961c6d3a08","system_id":"levelo_inurba_marseille","lat":43.30139,"lon":5.38778,"is_reserved":false,"is_disabled":false,"rental_uris":{"android":"levelo://app?vid=0067b0cb-61ea-498b-adca-ce961c6d3a08","ios":"levelo://app?vid=0067b0cb-61ea-498b-adca-ce961c6d3a08"},"vehicle_type_id":"4","last_reported":1731535669,"current_range_meters":29600,"station_id":"ce4bghh2rcd13ifvqb60","pricing_plan_id":"cebpf4jnsgd1na2vs0mg"},{"bike_id":"1ed7d770-636b-47b3-afbf-c1d47b213604","system_id":"levelo_inurba_marseille","lat":43.30881,"lon":5.39634,"is_reserved":false,"is_disabled":false,"rental_uris":{"android":"levelo://app?vid=1ed7d770-636b-47b3-afbf-c1d47b213604","ios":"levelo://app?vid=1ed7d770-636b-47b3-afbf-c1d47b213604"},"vehicle_type_id":"4","last_reported":1731535669,"current_range_meters":26000,"station_id":"ce4bh012rcd13ifvqcv0","pricing_plan_id":"cebpf4jnsgd1na2vs0mg"},{"bike_id":"0017d6cf-6c90-4bf0-9626-a3ec2112cc8e","system_id":"levelo_inurba_marseille","lat":43.27933,"lon":5.38028,"is_reserved":false,"is_disabled":false,"rental_uris":{"android":"levelo://app?vid=0017d6cf-6c90-4bf0-9626-a3ec2112cc8e","ios":"levelo://app?vid=0017d6cf-6c90-4bf0-9626-a3ec2112cc8e"},"vehicle_type_id":"4","last_reported":1731535669,"current_range_meters":10000,"station_id":"ce4bhf92rcd13ifvqf50","pricing_plan_id":"cebpf4jnsgd1na2vs0mg"},{"bike_id":"244fe09c-487d-4a26-a9e4-c62125f82ee6","system_id":"levelo_inurba_marseille","lat":43.27813,"lon":5.40715,"is_reserved":false,"is_disabled":false,"rental_uris":{"android":"levelo://app?vid=244fe09c-487d-4a26-a9e4-c62125f82ee6","ios":"levelo://app?vid=244fe09c-487d-4a26-a9e4-c62125f82ee6"},"vehicle_type_id":"4","last_reported":1731535669,"current_range_meters":30800,"station_id":"ce4bhnh2rcd13ifvqgtg","pricing_plan_id":"cebpf4jnsgd1na2vs0mg"},{"bike_id":"f03bcde4-7a0f-47cc-bf92-10221891ef90","system_id":"levelo_inurba_marseille","lat":43.29276,"lon":5.36843,"is_reserved":false,"is_disabled":false,"rental_uris":{"android":"levelo://app?vid=f03bcde4-7a0f-47cc-bf92-10221891ef90","ios":"levelo://app?vid=f03bcde4-7a0f-47cc-bf92-10221891ef90"},"vehicle_type_id":"4","last_reported":1731535669,"current_range_meters":26800,"station_id":"ce4bhbp2rcd13ifvqesg","pricing_plan_id":"cebpf4jnsgd1na2vs0mg"},{"bike_id":"5b41e762-1614-46f6-92e6-bba5e7d3cb79","system_id":"levelo_inurba_marseille","lat":43.28453,"lon":5.35884,"is_reserved":false,"is_disabled":false,"rental_uris":{"android":"levelo://app?vid=5b41e762-1614-46f6-92e6-bba5e7d3cb79","ios":"levelo://app?vid=5b41e762-1614-46f6-92e6-bba5e7d3cb79"},"vehicle_type_id":"4","last_reported":1731535669,"current_range_meters":38800,"station_id":"ce4bhah2rcd13ifvqei0","pricing_plan_id":"cebpf4jnsgd1na2vs0mg"},{"bike_id":"012927f2-0ce0-4abc-933c-6366952c031d","system_id":"levelo_inurba_marseille","lat":43.24182,"lon":5.39736,"is_reserved":false,"is_disabled":false,"rental_uris":{"android":"levelo://app?vid=012927f2-0ce0-4abc-933c-6366952c031d","ios":"levelo://app?vid=012927f2-0ce0-4abc-933c-6366952c031d"},"vehicle_type_id":"4","last_reported":1731535669,"current_range_meters":29600,"station_id":"ce4bhn12rcd13ifvqgpg","pricing_plan_id":"cebpf4jnsgd1na2vs0mg"},{"bike_id":"8675afc5-8405-46c1-8ef3-ebdc03bfa44f","system_id":"levelo_inurba_marseille","lat":43.30248,"lon":5.4007,"is_reserved":false,"is_disabled":false,"rental_uris":{"android":"levelo://app?vid=8675afc5-8405-46c1-8ef3-ebdc03bfa44f","ios":"levelo://app?vid=8675afc5-8405-46c1-8ef3-ebdc03bfa44f"},"vehicle_type_id":"4","last_reported":1731535669,"current_range_meters":36000,"station_id":"ce4bgvh2rcd13ifvqcs0","pricing_plan_id":"cebpf4jnsgd1na2vs0mg"},{"bike_id":"0df27a03-8e74-41dd-acc5-65d32248cd46","system_id":"levelo_inurba_marseille","lat":43.28941,"lon":5.36637,"is_reserved":false,"is_disabled":false,"rental_uris":{"android":"levelo://app?vid=0df27a03-8e74-41dd-acc5-65d32248cd46","ios":"levelo://app?vid=0df27a03-8e74-41dd-acc5-65d32248cd46"},"vehicle_type_id":"4","last_reported":1731535669,"current_range_meters":38400,"station_id":"ce4bhap2rcd13ifvqek0","pricing_plan_id":"cebpf4jnsgd1na2vs0mg"},{"bike_id":"697d6997-6ec7-4c98-9d0f-26396c1d5e70","system_id":"levelo_inurba_marseille","lat":43.31481,"lon":5.37299,"is_reserved":false,"is_disabled":false,"rental_uris":{"android":"levelo://app?vid=697d6997-6ec7-4c98-9d0f-26396c1d5e70","ios":"levelo://app?vid=697d6997-6ec7-4c98-9d0f-26396c1d5e70"},"vehicle_type_id":"4","last_reported":1731535669,"current_range_meters":10000,"station_id":"ce4bgt12rcd13ifvqcd0","pricing_plan_id":"cebpf4jnsgd1na2vs0mg"},{"bike_id":"85358b47-b147-41bf-9e92-5e6b5279e626","system_id":"levelo_inurba_marseille","lat":43.3043,"lon":5.39756,"is_reserved":false,"is_disabled":false,"rental_uris":{"android":"levelo://app?vid=85358b47-b147-41bf-9e92-5e6b5279e626","ios":"levelo://app?vid=85358b47-b147-41bf-9e92-5e6b5279e626"},"vehicle_type_id":"4","last_reported":1731535669,"current_range_meters":24400,"station_id":"ce4bh092rcd13ifvqd20","pricing_plan_id":"cebpf4jnsgd1na2vs0mg"},{"bike_id":"db7c3fc8-fa4f-44db-834a-bab8df14450c","system_id":"levelo_inurba_marseille","lat":43.29063,"lon":5.37179,"is_reserved":false,"is_disabled":false,"rental_uris":{"android":"levelo://app?vid=db7c3fc8-fa4f-44db-834a-bab8df14450c","ios":"levelo://app?vid=db7c3fc8-fa4f-44db-834a-bab8df14450c"},"vehicle_type_id":"4","last_reported":1731535669,"current_range_meters":34000,"station_id":"ce4bh5p2rcd13ifvqe4g","pricing_plan_id":"cebpf4jnsgd1na2vs0mg"},{"bike_id":"1951ed30-ed91-4241-95e7-23f48f436d43","system_id":"levelo_inurba_marseille","lat":43.30327,"lon":5.4043,"is_reserved":false,"is_disabled":false,"rental_uris":{"android":"levelo://app?vid=1951ed30-ed91-4241-95e7-23f48f436d43","ios":"levelo://app?vid=1951ed30-ed91-4241-95e7-23f48f436d43"},"vehicle_type_id":"4","last_reported":1731535669,"current_range_meters":37600,"station_id":"cjm6bp8fraef2m0cb0m0","pricing_plan_id":"cebpf4jnsgd1na2vs0mg"},{"bike_id":"fd1e7b30-f859-4736-a101-5352f5409432","system_id":"levelo_inurba_marseille","lat":43.2804,"lon":5.36952,"is_reserved":false,"is_disabled":false,"rental_uris":{"android":"levelo://app?vid=fd1e7b30-f859-4736-a101-5352f5409432","ios":"levelo://app?vid=fd1e7b30-f859-4736-a101-5352f5409432"},"vehicle_type_id":"4","last_reported":1731535669,"current_range_meters":22800,"station_id":"ce4bha12rcd13ifvqef0","pricing_plan_id":"cebpf4jnsgd1na2vs0mg"},{"bike_id":"6debc5ae-a72a-433a-9fc1-d13955da3076","system_id":"levelo_inurba_marseille","lat":43.2841,"lon":5.37513,"is_reserved":false,"is_disabled":false,"rental_uris":{"android":"levelo://app?vid=6debc5ae-a72a-433a-9fc1-d13955da3076","ios":"levelo://app?vid=6debc5ae-a72a-433a-9fc1-d13955da3076"},"vehicle_type_id":"4","last_reported":1731535669,"current_range_meters":22800,"station_id":"ce4bh412rcd13ifvqds0","pricing_plan_id":"cebpf4jnsgd1na2vs0mg"},{"bike_id":"7c9b8995-ac96-4708-b4eb-b4b17631b9d8","system_id":"levelo_inurba_marseille","lat":43.337444,"lon":5.374475,"is_reserved":false,"is_disabled":false,"rental_uris":{"android":"levelo://app?vid=7c9b8995-ac96-4708-b4eb-b4b17631b9d8","ios":"levelo://app?vid=7c9b8995-ac96-4708-b4eb-b4b17631b9d8"},"vehicle_type_id":"4","last_reported":1731535669,"current_range_meters":36000,"station_id":"","pricing_plan_id":"cebpf4jnsgd1na2vs0mg"},{"bike_id":"8ab17290-17a8-48a2-8dba-505756bb84a7","system_id":"levelo_inurba_marseille","lat":43.28432,"lon":5.39193,"is_reserved":false,"is_disabled":false,"rental_uris":{"android":"levelo://app?vid=8ab17290-17a8-48a2-8dba-505756bb84a7","ios":"levelo://app?vid=8ab17290-17a8-48a2-8dba-505756bb84a7"},"vehicle_type_id":"4","last_reported":1731535669,"current_range_meters":30000,"station_id":"ce4bhoh2rcd13ifvqh5g","pricing_plan_id":"cebpf4jnsgd1na2vs0mg"},{"bike_id":"e657baf3-6e6a-41cd-bcb2-51145758bd92","system_id":"levelo_inurba_marseille","lat":43.2512,"lon":5.40317,"is_reserved":false,"is_disabled":false,"rental_uris":{"android":"levelo://app?vid=e657baf3-6e6a-41cd-bcb2-51145758bd92","ios":"levelo://app?vid=e657baf3-6e6a-41cd-bcb2-51145758bd92"},"vehicle_type_id":"4","last_reported":1731535669,"current_range_meters":8800,"station_id":"ce4bhlh2rcd13ifvqgig","pricing_plan_id":"cebpf4jnsgd1na2vs0mg"},{"bike_id":"bfa998e5-f39d-4565-8083-ac8883bcdd82","system_id":"levelo_inurba_marseille","lat":43.2407,"lon":5.37757,"is_reserved":false,"is_disabled":false,"rental_uris":{"android":"levelo://app?vid=bfa998e5-f39d-4565-8083-ac8883bcdd82","ios":"levelo://app?vid=bfa998e5-f39d-4565-8083-ac8883bcdd82"},"vehicle_type_id":"4","last_reported":1731535669,"current_range_meters":11200,"station_id":"ce4bhnp2rcd13ifvqgvg","pricing_plan_id":"cebpf4jnsgd1na2vs0mg"},{"bike_id":"a4df5d8f-a96e-44fd-a33c-a0551b9dcb5d","system_id":"levelo_inurba_marseille","lat":43.27068,"lon":5.42277,"is_reserved":false,"is_disabled":false,"rental_uris":{"android":"levelo://app?vid=a4df5d8f-a96e-44fd-a33c-a0551b9dcb5d","ios":"levelo://app?vid=a4df5d8f-a96e-44fd-a33c-a0551b9dcb5d"},"vehicle_type_id":"4","last_reported":1731535669,"current_range_meters":39200,"station_id":"ce4bhk92rcd13ifvqgb0","pricing_plan_id":"cebpf4jnsgd1na2vs0mg"},{"bike_id":"ea9d824b-e109-408d-9583-880839570f08","system_id":"levelo_inurba_marseille","lat":43.31848,"lon":5.4024,"is_reserved":false,"is_disabled":false,"rental_uris":{"android":"levelo://app?vid=ea9d824b-e109-408d-9583-880839570f08","ios":"levelo://app?vid=ea9d824b-e109-408d-9583-880839570f08"},"vehicle_type_id":"4","last_reported":1731535669,"current_range_meters":38400,"station_id":"","pricing_plan_id":"cebpf4jnsgd1na2vs0mg"},{"bike_id":"643a117a-39a2-4ef6-9bb2-0f8281e7d118","system_id":"levelo_inurba_marseille","lat":43.292542,"lon":5.384013,"is_reserved":false,"is_disabled":false,"rental_uris":{"android":"levelo://app?vid=643a117a-39a2-4ef6-9bb2-0f8281e7d118","ios":"levelo://app?vid=643a117a-39a2-4ef6-9bb2-0f8281e7d118"},"vehicle_type_id":"4","last_reported":1731535669,"current_range_meters":5600,"station_id":"ce4bhlh2rcd13ifvqgig","pricing_plan_id":"cebpf4jnsgd1na2vs0mg"},{"bike_id":"caed76f8-7fcb-4143-a047-45544b91ced9","system_id":"levelo_inurba_marseille","lat":43.30418,"lon":5.39753,"is_reserved":false,"is_disabled":false,"rental_uris":{"android":"levelo://app?vid=caed76f8-7fcb-4143-a047-45544b91ced9","ios":"levelo://app?vid=caed76f8-7fcb-4143-a047-45544b91ced9"},"vehicle_type_id":"4","last_reported":1731535669,"current_range_meters":38000,"station_id":"ce4bh092rcd13ifvqd20","pricing_plan_id":"cebpf4jnsgd1na2vs0mg"},{"bike_id":"cff9a9b2-0a99-4fd7-bab4-15454d4bffba","system_id":"levelo_inurba_marseille","lat":43.30331,"lon":5.40444,"is_reserved":false,"is_disabled":false,"rental_uris":{"android":"levelo://app?vid=cff9a9b2-0a99-4fd7-bab4-15454d4bffba","ios":"levelo://app?vid=cff9a9b2-0a99-4fd7-bab4-15454d4bffba"},"vehicle_type_id":"4","last_reported":1731535669,"current_range_meters":7200,"station_id":"ce4bh012rcd13ifvqd10","pricing_plan_id":"cebpf4jnsgd1na2vs0mg"},{"bike_id":"b3b5223c-5272-409d-bc43-d2e21832bcd1","system_id":"levelo_inurba_marseille","lat":43.30352,"lon":5.41873,"is_reserved":false,"is_disabled":false,"rental_uris":{"android":"levelo://app?vid=b3b5223c-5272-409d-bc43-d2e21832bcd1","ios":"levelo://app?vid=b3b5223c-5272-409d-bc43-d2e21832bcd1"},"vehicle_type_id":"4","last_reported":1731535669,"current_range_meters":38000,"station_id":"ce4bhop2rcd13ifvqh7g","pricing_plan_id":"cebpf4jnsgd1na2vs0mg"},{"bike_id":"87d93078-85b6-4456-ba43-4faf2544291e","system_id":"levelo_inurba_marseille","lat":43.31335,"lon":5.39696,"is_reserved":false,"is_disabled":false,"rental_uris":{"android":"levelo://app?vid=87d93078-85b6-4456-ba43-4faf2544291e","ios":"levelo://app?vid=87d93078-85b6-4456-ba43-4faf2544291e"},"vehicle_type_id":"4","last_reported":1731535669,"current_range_meters":32000,"station_id":"ce4bgvp2rcd13ifvqcu0","pricing_plan_id":"cebpf4jnsgd1na2vs0mg"},{"bike_id":"c89636c4-78e9-4446-96fb-7618bf9057be","system_id":"levelo_inurba_marseille","lat":43.28418,"lon":5.37516,"is_reserved":false,"is_disabled":false,"rental_uris":{"android":"levelo://app?vid=c89636c4-78e9-4446-96fb-7618bf9057be","ios":"levelo://app?vid=c89636c4-78e9-4446-96fb-7618bf9057be"},"vehicle_type_id":"4","last_reported":1731535669,"current_range_meters":27200,"station_id":"ce4bh412rcd13ifvqds0","pricing_plan_id":"cebpf4jnsgd1na2vs0mg"},{"bike_id":"92adb336-5165-474e-9737-637bddb603ea","system_id":"levelo_inurba_marseille","lat":43.28616,"lon":5.35106,"is_reserved":false,"is_disabled":false,"rental_uris":{"android":"levelo://app?vid=92adb336-5165-474e-9737-637bddb603ea","ios":"levelo://app?vid=92adb336-5165-474e-9737-637bddb603ea"},"vehicle_type_id":"4","last_reported":1731535669,"current_range_meters":35200,"station_id":"ce4bhch2rcd13ifvqeug","pricing_plan_id":"cebpf4jnsgd1na2vs0mg"},{"bike_id":"83f700c3-f7b1-4a09-9190-340c479d326a","system_id":"levelo_inurba_marseille","lat":43.31166,"lon":5.38715,"is_reserved":false,"is_disabled":false,"rental_uris":{"android":"levelo://app?vid=83f700c3-f7b1-4a09-9190-340c479d326a","ios":"levelo://app?vid=83f700c3-f7b1-4a09-9190-340c479d326a"},"vehicle_type_id":"4","last_reported":1731535669,"current_range_meters":9200,"station_id":"ce4bgv12rcd13ifvqcp0","pricing_plan_id":"cebpf4jnsgd1na2vs0mg"},{"bike_id":"200ccbcd-2376-442e-b02b-103dd43743c7","system_id":"levelo_inurba_marseille","lat":43.27681,"lon":5.38903,"is_reserved":false,"is_disabled":false,"rental_uris":{"android":"levelo://app?vid=200ccbcd-2376-442e-b02b-103dd43743c7","ios":"levelo://app?vid=200ccbcd-2376-442e-b02b-103dd43743c7"},"vehicle_type_id":"4","last_reported":1731535669,"current_range_meters":38000,"station_id":"ce4bhi12rcd13ifvqfo0","pricing_plan_id":"cebpf4jnsgd1na2vs0mg"},{"bike_id":"834a0463-5b54-480b-975c-3b9e0f2f4889","system_id":"levelo_inurba_marseille","lat":43.28974,"lon":5.37845,"is_reserved":false,"is_disabled":false,"rental_uris":{"android":"levelo://app?vid=834a0463-5b54-480b-975c-3b9e0f2f4889","ios":"levelo://app?vid=834a0463-5b54-480b-975c-3b9e0f2f4889"},"vehicle_type_id":"4","last_reported":1731535669,"current_range_meters":22000,"station_id":"ce4bh9p2rcd13ifvqed0","pricing_plan_id":"cebpf4jnsgd1na2vs0mg"},{"bike_id":"1f6b3c61-9259-434c-b5ca-122f9ce10181","system_id":"levelo_inurba_marseille","lat":43.28572,"lon":5.39502,"is_reserved":false,"is_disabled":false,"rental_uris":{"android":"levelo://app?vid=1f6b3c61-9259-434c-b5ca-122f9ce10181","ios":"levelo://app?vid=1f6b3c61-9259-434c-b5ca-122f9ce10181"},"vehicle_type_id":"4","last_reported":1731535669,"current_range_meters":37600,"station_id":"ce4bh292rcd13ifvqdg0","pricing_plan_id":"cebpf4jnsgd1na2vs0mg"},{"bike_id":"dc61d19c-1cee-4753-936b-7b21a8abe5b9","system_id":"levelo_inurba_marseille","lat":43.29791,"lon":5.39348,"is_reserved":false,"is_disabled":false,"rental_uris":{"android":"levelo://app?vid=dc61d19c-1cee-4753-936b-7b21a8abe5b9","ios":"levelo://app?vid=dc61d19c-1cee-4753-936b-7b21a8abe5b9"},"vehicle_type_id":"4","last_reported":1731535669,"current_range_meters":22800,"station_id":"chh1huq6cuj3fo74tm60","pricing_plan_id":"cebpf4jnsgd1na2vs0mg"},{"bike_id":"e95f9beb-7b9b-409e-81dc-51045503c6fd","system_id":"levelo_inurba_marseille","lat":43.29277,"lon":5.36857,"is_reserved":false,"is_disabled":false,"rental_uris":{"android":"levelo://app?vid=e95f9beb-7b9b-409e-81dc-51045503c6fd","ios":"levelo://app?vid=e95f9beb-7b9b-409e-81dc-51045503c6fd"},"vehicle_type_id":"4","last_reported":1731535669,"current_range_meters":30000,"station_id":"ce4bhbp2rcd13ifvqesg","pricing_plan_id":"cebpf4jnsgd1na2vs0mg"},{"bike_id":"7735a892-8d6b-4a93-b64f-341778d38d92","system_id":"levelo_inurba_marseille","lat":43.33611,"lon":5.41028,"is_reserved":false,"is_disabled":false,"rental_uris":{"android":"levelo://app?vid=7735a892-8d6b-4a93-b64f-341778d38d92","ios":"levelo://app?vid=7735a892-8d6b-4a93-b64f-341778d38d92"},"vehicle_type_id":"4","last_reported":1731535669,"current_range_meters":28000,"station_id":"ce4bhqh2rcd13ifvqhmg","pricing_plan_id":"cebpf4jnsgd1na2vs0mg"},{"bike_id":"a4ec425c-e618-4c93-8518-14aaf2cc1493","system_id":"levelo_inurba_marseille","lat":43.31761,"lon":5.39017,"is_reserved":false,"is_disabled":false,"rental_uris":{"android":"levelo://app?vid=a4ec425c-e618-4c93-8518-14aaf2cc1493","ios":"levelo://app?vid=a4ec425c-e618-4c93-8518-14aaf2cc1493"},"vehicle_type_id":"4","last_reported":1731535669,"current_range_meters":38800,"station_id":"ce4bhqp2rcd13ifvqhng","pricing_plan_id":"cebpf4jnsgd1na2vs0mg"},{"bike_id":"fc143304-8322-476c-92b2-342e70284c3c","system_id":"levelo_inurba_marseille","lat":43.27435,"lon":5.39415,"is_reserved":false,"is_disabled":false,"rental_uris":{"android":"levelo://app?vid=fc143304-8322-476c-92b2-342e70284c3c","ios":"levelo://app?vid=fc143304-8322-476c-92b2-342e70284c3c"},"vehicle_type_id":"4","last_reported":1731535669,"current_range_meters":28800,"station_id":"ce4bhdp2rcd13ifvqf20","pricing_plan_id":"cebpf4jnsgd1na2vs0mg"},{"bike_id":"dae5cfe0-b8b5-4b7f-a29e-18f7f77aa5ed","system_id":"levelo_inurba_marseille","lat":43.29937,"lon":5.38036,"is_reserved":false,"is_disabled":false,"rental_uris":{"android":"levelo://app?vid=dae5cfe0-b8b5-4b7f-a29e-18f7f77aa5ed","ios":"levelo://app?vid=dae5cfe0-b8b5-4b7f-a29e-18f7f77aa5ed"},"vehicle_type_id":"4","last_reported":1731535669,"current_range_meters":32800,"station_id":"","pricing_plan_id":"cebpf4jnsgd1na2vs0mg"},{"bike_id":"1606602f-da62-4339-8912-118cec5ef4b9","system_id":"levelo_inurba_marseille","lat":43.28697,"lon":5.39979,"is_reserved":false,"is_disabled":false,"rental_uris":{"android":"levelo://app?vid=1606602f-da62-4339-8912-118cec5ef4b9","ios":"levelo://app?vid=1606602f-da62-4339-8912-118cec5ef4b9"},"vehicle_type_id":"4","last_reported":1731535669,"current_range_meters":19600,"station_id":"ce4bho92rcd13ifvqh3g","pricing_plan_id":"cebpf4jnsgd1na2vs0mg"},{"bike_id":"9e4868d1-d7bd-46d5-a321-e3594e2b8567","system_id":"levelo_inurba_marseille","lat":43.28696,"lon":5.37402,"is_reserved":false,"is_disabled":false,"rental_uris":{"android":"levelo://app?vid=9e4868d1-d7bd-46d5-a321-e3594e2b8567","ios":"levelo://app?vid=9e4868d1-d7bd-46d5-a321-e3594e2b8567"},"vehicle_type_id":"4","last_reported":1731535669,"current_range_meters":32400,"station_id":"ce4bh3p2rcd13ifvqdq0","pricing_plan_id":"cebpf4jnsgd1na2vs0mg"},{"bike_id":"763a0d0b-adc4-4f6c-8ca3-5d5ac74d0652","system_id":"levelo_inurba_marseille","lat":43.28412,"lon":5.37527,"is_reserved":false,"is_disabled":false,"rental_uris":{"android":"levelo://app?vid=763a0d0b-adc4-4f6c-8ca3-5d5ac74d0652","ios":"levelo://app?vid=763a0d0b-adc4-4f6c-8ca3-5d5ac74d0652"},"vehicle_type_id":"4","last_reported":1731535669,"current_range_meters":20000,"station_id":"ce4bh412rcd13ifvqds0","pricing_plan_id":"cebpf4jnsgd1na2vs0mg"},{"bike_id":"11b58e82-fdbc-427f-87c7-fd1b2690fd50","system_id":"levelo_inurba_marseille","lat":43.265587,"lon":5.373351,"is_reserved":false,"is_disabled":false,"rental_uris":{"android":"levelo://app?vid=11b58e82-fdbc-427f-87c7-fd1b2690fd50","ios":"levelo://app?vid=11b58e82-fdbc-427f-87c7-fd1b2690fd50"},"vehicle_type_id":"4","last_reported":1731535669,"current_range_meters":39200,"station_id":"ce4bhg12rcd13ifvqf70","pricing_plan_id":"cebpf4jnsgd1na2vs0mg"},{"bike_id":"7891995d-7c39-4fa5-ab0a-02ee601a522d","system_id":"levelo_inurba_marseille","lat":43.32001,"lon":5.38149,"is_reserved":false,"is_disabled":false,"rental_uris":{"android":"levelo://app?vid=7891995d-7c39-4fa5-ab0a-02ee601a522d","ios":"levelo://app?vid=7891995d-7c39-4fa5-ab0a-02ee601a522d"},"vehicle_type_id":"4","last_reported":1731535669,"current_range_meters":37600,"station_id":"ce4bhr12rcd13ifvqhpg","pricing_plan_id":"cebpf4jnsgd1na2vs0mg"},{"bike_id":"e4935905-67da-4e99-bbf5-f13614b8f314","system_id":"levelo_inurba_marseille","lat":43.23971,"lon":5.36626,"is_reserved":false,"is_disabled":false,"rental_uris":{"android":"levelo://app?vid=e4935905-67da-4e99-bbf5-f13614b8f314","ios":"levelo://app?vid=e4935905-67da-4e99-bbf5-f13614b8f314"},"vehicle_type_id":"4","last_reported":1731535669,"current_range_meters":12800,"station_id":"ce4bhi12rcd13ifvqfp0","pricing_plan_id":"cebpf4jnsgd1na2vs0mg"},{"bike_id":"58e244c1-4fc0-4be5-a598-59c5ada0c569","system_id":"levelo_inurba_marseille","lat":43.27954,"lon":5.4103,"is_reserved":false,"is_disabled":false,"rental_uris":{"android":"levelo://app?vid=58e244c1-4fc0-4be5-a598-59c5ada0c569","ios":"levelo://app?vid=58e244c1-4fc0-4be5-a598-59c5ada0c569"},"vehicle_type_id":"4","last_reported":1731535669,"current_range_meters":38800,"station_id":"ce4bhnp2rcd13ifvqh0g","pricing_plan_id":"cebpf4jnsgd1na2vs0mg"},{"bike_id":"5c0f47bd-9e5b-453a-892d-9245ea8fbc46","system_id":"levelo_inurba_marseille","lat":43.29204,"lon":5.39306,"is_reserved":false,"is_disabled":false,"rental_uris":{"android":"levelo://app?vid=5c0f47bd-9e5b-453a-892d-9245ea8fbc46","ios":"levelo://app?vid=5c0f47bd-9e5b-453a-892d-9245ea8fbc46"},"vehicle_type_id":"4","last_reported":1731535669,"current_range_meters":4000,"station_id":"ce4bh192rcd13ifvqdd0","pricing_plan_id":"cebpf4jnsgd1na2vs0mg"},{"bike_id":"8bbddea8-bd9b-4382-a8f4-748b385024f3","system_id":"levelo_inurba_marseille","lat":43.25728,"lon":5.41107,"is_reserved":false,"is_disabled":false,"rental_uris":{"android":"levelo://app?vid=8bbddea8-bd9b-4382-a8f4-748b385024f3","ios":"levelo://app?vid=8bbddea8-bd9b-4382-a8f4-748b385024f3"},"vehicle_type_id":"4","last_reported":1731535669,"current_range_meters":18000,"station_id":"ce4bhkp2rcd13ifvqgd0","pricing_plan_id":"cebpf4jnsgd1na2vs0mg"},{"bike_id":"f2c0c674-a5e7-4997-8a27-413af9bcc481","system_id":"levelo_inurba_marseille","lat":43.28611,"lon":5.35101,"is_reserved":false,"is_disabled":false,"rental_uris":{"android":"levelo://app?vid=f2c0c674-a5e7-4997-8a27-413af9bcc481","ios":"levelo://app?vid=f2c0c674-a5e7-4997-8a27-413af9bcc481"},"vehicle_type_id":"4","last_reported":1731535669,"current_range_meters":15200,"station_id":"ce4bhch2rcd13ifvqeug","pricing_plan_id":"cebpf4jnsgd1na2vs0mg"},{"bike_id":"828cbcfe-6c6b-4507-8ddf-f4d69c2d8108","system_id":"levelo_inurba_marseille","lat":43.24081,"lon":5.37754,"is_reserved":false,"is_disabled":false,"rental_uris":{"android":"levelo://app?vid=828cbcfe-6c6b-4507-8ddf-f4d69c2d8108","ios":"levelo://app?vid=828cbcfe-6c6b-4507-8ddf-f4d69c2d8108"},"vehicle_type_id":"4","last_reported":1731535669,"current_range_meters":38000,"station_id":"ce4bhnp2rcd13ifvqgvg","pricing_plan_id":"cebpf4jnsgd1na2vs0mg"},{"bike_id":"f64f8a56-bc81-4ee1-a898-ff585bdcf3f8","system_id":"levelo_inurba_marseille","lat":43.26938,"lon":5.40253,"is_reserved":false,"is_disabled":false,"rental_uris":{"android":"levelo://app?vid=f64f8a56-bc81-4ee1-a898-ff585bdcf3f8","ios":"levelo://app?vid=f64f8a56-bc81-4ee1-a898-ff585bdcf3f8"},"vehicle_type_id":"4","last_reported":1731535669,"current_range_meters":35200,"station_id":"cjm6bp8fraef2m0cb0m0","pricing_plan_id":"cebpf4jnsgd1na2vs0mg"},{"bike_id":"1311c692-6e9d-4afb-b7b0-20686564fe7a","system_id":"levelo_inurba_marseille","lat":43.337444,"lon":5.374475,"is_reserved":false,"is_disabled":false,"rental_uris":{"android":"levelo://app?vid=1311c692-6e9d-4afb-b7b0-20686564fe7a","ios":"levelo://app?vid=1311c692-6e9d-4afb-b7b0-20686564fe7a"},"vehicle_type_id":"4","last_reported":1731535669,"current_range_meters":35600,"station_id":"","pricing_plan_id":"cebpf4jnsgd1na2vs0mg"},{"bike_id":"1b2d9da6-2a08-4590-94ad-8a9273c61dc7","system_id":"levelo_inurba_marseille","lat":43.296279,"lon":5.377086,"is_reserved":false,"is_disabled":false,"rental_uris":{"android":"levelo://app?vid=1b2d9da6-2a08-4590-94ad-8a9273c61dc7","ios":"levelo://app?vid=1b2d9da6-2a08-4590-94ad-8a9273c61dc7"},"vehicle_type_id":"4","last_reported":1731535669,"current_range_meters":38800,"station_id":"ce4bgi92rcd13ifvqb90","pricing_plan_id":"cebpf4jnsgd1na2vs0mg"},{"bike_id":"aff65d08-9286-4f70-8928-f558d9492f6f","system_id":"levelo_inurba_marseille","lat":43.29691,"lon":5.36577,"is_reserved":false,"is_disabled":false,"rental_uris":{"android":"levelo://app?vid=aff65d08-9286-4f70-8928-f558d9492f6f","ios":"levelo://app?vid=aff65d08-9286-4f70-8928-f558d9492f6f"},"vehicle_type_id":"4","last_reported":1731535669,"current_range_meters":12800,"station_id":"ce4bgn12rcd13ifvqbt0","pricing_plan_id":"cebpf4jnsgd1na2vs0mg"},{"bike_id":"07a4be1c-5cf0-4f3e-8c27-4c3e24078daa","system_id":"levelo_inurba_marseille","lat":43.24814,"lon":5.37452,"is_reserved":false,"is_disabled":false,"rental_uris":{"android":"levelo://app?vid=07a4be1c-5cf0-4f3e-8c27-4c3e24078daa","ios":"levelo://app?vid=07a4be1c-5cf0-4f3e-8c27-4c3e24078daa"},"vehicle_type_id":"4","last_reported":1731535669,"current_range_meters":18000,"station_id":"ce4bhgh2rcd13ifvqfb0","pricing_plan_id":"cebpf4jnsgd1na2vs0mg"},{"bike_id":"ecb3cc37-9673-4250-b386-228d12a366ea","system_id":"levelo_inurba_marseille","lat":43.27813,"lon":5.40708,"is_reserved":false,"is_disabled":false,"rental_uris":{"android":"levelo://app?vid=ecb3cc37-9673-4250-b386-228d12a366ea","ios":"levelo://app?vid=ecb3cc37-9673-4250-b386-228d12a366ea"},"vehicle_type_id":"4","last_reported":1731535669,"current_range_meters":38800,"station_id":"ce4bhnh2rcd13ifvqgtg","pricing_plan_id":"cebpf4jnsgd1na2vs0mg"},{"bike_id":"4236ba3b-ca60-447f-9fcf-44724f3d403a","system_id":"levelo_inurba_marseille","lat":43.287046,"lon":5.373888,"is_reserved":false,"is_disabled":false,"rental_uris":{"android":"levelo://app?vid=4236ba3b-ca60-447f-9fcf-44724f3d403a","ios":"levelo://app?vid=4236ba3b-ca60-447f-9fcf-44724f3d403a"},"vehicle_type_id":"4","last_reported":1731535669,"current_range_meters":24800,"station_id":"ce4bh3p2rcd13ifvqdq0","pricing_plan_id":"cebpf4jnsgd1na2vs0mg"},{"bike_id":"d7595a11-9b28-4bec-b99f-e0f1cad51f41","system_id":"levelo_inurba_marseille","lat":43.29813,"lon":5.40414,"is_reserved":false,"is_disabled":false,"rental_uris":{"android":"levelo://app?vid=d7595a11-9b28-4bec-b99f-e0f1cad51f41","ios":"levelo://app?vid=d7595a11-9b28-4bec-b99f-e0f1cad51f41"},"vehicle_type_id":"4","last_reported":1731535669,"current_range_meters":39200,"station_id":"ce4bh112rcd13ifvqd90","pricing_plan_id":"cebpf4jnsgd1na2vs0mg"},{"bike_id":"064785b1-570d-4d3d-b30e-ad791fb7597f","system_id":"levelo_inurba_marseille","lat":43.304188,"lon":5.397517,"is_reserved":false,"is_disabled":false,"rental_uris":{"android":"levelo://app?vid=064785b1-570d-4d3d-b30e-ad791fb7597f","ios":"levelo://app?vid=064785b1-570d-4d3d-b30e-ad791fb7597f"},"vehicle_type_id":"4","last_reported":1731535669,"current_range_meters":38000,"station_id":"ce4bh092rcd13ifvqd20","pricing_plan_id":"cebpf4jnsgd1na2vs0mg"},{"bike_id":"75f71ef1-6e08-415a-bb8b-dfb0f44294ba","system_id":"levelo_inurba_marseille","lat":43.27989,"lon":5.4166,"is_reserved":false,"is_disabled":false,"rental_uris":{"android":"levelo://app?vid=75f71ef1-6e08-415a-bb8b-dfb0f44294ba","ios":"levelo://app?vid=75f71ef1-6e08-415a-bb8b-dfb0f44294ba"},"vehicle_type_id":"4","last_reported":1731535669,"current_range_meters":8400,"station_id":"ce4bho12rcd13ifvqh1g","pricing_plan_id":"cebpf4jnsgd1na2vs0mg"},{"bike_id":"a365b508-1ef5-4939-b750-e9d43b113938","system_id":"levelo_inurba_marseille","lat":43.31758,"lon":5.39007,"is_reserved":false,"is_disabled":false,"rental_uris":{"android":"levelo://app?vid=a365b508-1ef5-4939-b750-e9d43b113938","ios":"levelo://app?vid=a365b508-1ef5-4939-b750-e9d43b113938"},"vehicle_type_id":"4","last_reported":1731535669,"current_range_meters":36800,"station_id":"ce4bhqp2rcd13ifvqhng","pricing_plan_id":"cebpf4jnsgd1na2vs0mg"},{"bike_id":"50b9b110-0620-4136-879b-a71176745a66","system_id":"levelo_inurba_marseille","lat":43.28941,"lon":5.36633,"is_reserved":false,"is_disabled":false,"rental_uris":{"android":"levelo://app?vid=50b9b110-0620-4136-879b-a71176745a66","ios":"levelo://app?vid=50b9b110-0620-4136-879b-a71176745a66"},"vehicle_type_id":"4","last_reported":1731535669,"current_range_meters":30000,"station_id":"ce4bhap2rcd13ifvqek0","pricing_plan_id":"cebpf4jnsgd1na2vs0mg"},{"bike_id":"df2444a8-b871-4d0b-a323-1eec57a9d35d","system_id":"levelo_inurba_marseille","lat":43.28707,"lon":5.37395,"is_reserved":false,"is_disabled":false,"rental_uris":{"android":"levelo://app?vid=df2444a8-b871-4d0b-a323-1eec57a9d35d","ios":"levelo://app?vid=df2444a8-b871-4d0b-a323-1eec57a9d35d"},"vehicle_type_id":"4","last_reported":1731535669,"current_range_meters":35200,"station_id":"ce4bh3p2rcd13ifvqdq0","pricing_plan_id":"cebpf4jnsgd1na2vs0mg"},{"bike_id":"20a6022f-93e7-457d-9e65-34fc2c4ed419","system_id":"levelo_inurba_marseille","lat":43.2844,"lon":5.3919,"is_reserved":false,"is_disabled":false,"rental_uris":{"android":"levelo://app?vid=20a6022f-93e7-457d-9e65-34fc2c4ed419","ios":"levelo://app?vid=20a6022f-93e7-457d-9e65-34fc2c4ed419"},"vehicle_type_id":"4","last_reported":1731535669,"current_range_meters":16400,"station_id":"ce4bhoh2rcd13ifvqh5g","pricing_plan_id":"cebpf4jnsgd1na2vs0mg"},{"bike_id":"275910d3-550e-4463-a16c-60d15d52368a","system_id":"levelo_inurba_marseille","lat":43.30277,"lon":5.37714,"is_reserved":false,"is_disabled":false,"rental_uris":{"android":"levelo://app?vid=275910d3-550e-4463-a16c-60d15d52368a","ios":"levelo://app?vid=275910d3-550e-4463-a16c-60d15d52368a"},"vehicle_type_id":"4","last_reported":1731535669,"current_range_meters":15200,"station_id":"ce4bguh2rcd13ifvqcj0","pricing_plan_id":"cebpf4jnsgd1na2vs0mg"},{"bike_id":"5d6eb1fd-7eb3-432a-9caa-77c3fa12a6f4","system_id":"levelo_inurba_marseille","lat":43.30542,"lon":5.36701,"is_reserved":false,"is_disabled":false,"rental_uris":{"android":"levelo://app?vid=5d6eb1fd-7eb3-432a-9caa-77c3fa12a6f4","ios":"levelo://app?vid=5d6eb1fd-7eb3-432a-9caa-77c3fa12a6f4"},"vehicle_type_id":"4","last_reported":1731535669,"current_range_meters":16400,"station_id":"ce4bgrp2rcd13ifvqc9g","pricing_plan_id":"cebpf4jnsgd1na2vs0mg"},{"bike_id":"0ebd35ea-1a86-4433-a0dc-7f464492b4e6","system_id":"levelo_inurba_marseille","lat":43.3031,"lon":5.39211,"is_reserved":false,"is_disabled":false,"rental_uris":{"android":"levelo://app?vid=0ebd35ea-1a86-4433-a0dc-7f464492b4e6","ios":"levelo://app?vid=0ebd35ea-1a86-4433-a0dc-7f464492b4e6"},"vehicle_type_id":"4","last_reported":1731535669,"current_range_meters":22000,"station_id":"ce4bgkh2rcd13ifvqbk0","pricing_plan_id":"cebpf4jnsgd1na2vs0mg"},{"bike_id":"7dc814f5-6091-4ac1-87d7-cf23c08e1f89","system_id":"levelo_inurba_marseille","lat":43.30927,"lon":5.4014,"is_reserved":false,"is_disabled":false,"rental_uris":{"android":"levelo://app?vid=7dc814f5-6091-4ac1-87d7-cf23c08e1f89","ios":"levelo://app?vid=7dc814f5-6091-4ac1-87d7-cf23c08e1f89"},"vehicle_type_id":"4","last_reported":1731535669,"current_range_meters":18800,"station_id":"ce4bgvp2rcd13ifvqct0","pricing_plan_id":"cebpf4jnsgd1na2vs0mg"},{"bike_id":"da7a5838-5dff-47c2-a13d-af2f9d4868d3","system_id":"levelo_inurba_marseille","lat":43.299164,"lon":5.374729,"is_reserved":false,"is_disabled":false,"rental_uris":{"android":"levelo://app?vid=da7a5838-5dff-47c2-a13d-af2f9d4868d3","ios":"levelo://app?vid=da7a5838-5dff-47c2-a13d-af2f9d4868d3"},"vehicle_type_id":"4","last_reported":1731535669,"current_range_meters":24400,"station_id":"ce4bgjh2rcd13ifvqbg0","pricing_plan_id":"cebpf4jnsgd1na2vs0mg"},{"bike_id":"ed2d8bd5-9c27-40ae-959f-74a893930887","system_id":"levelo_inurba_marseille","lat":43.25585,"lon":5.38238,"is_reserved":false,"is_disabled":false,"rental_uris":{"android":"levelo://app?vid=ed2d8bd5-9c27-40ae-959f-74a893930887","ios":"levelo://app?vid=ed2d8bd5-9c27-40ae-959f-74a893930887"},"vehicle_type_id":"4","last_reported":1731535669,"current_range_meters":11200,"station_id":"ce4bhih2rcd13ifvqfs0","pricing_plan_id":"cebpf4jnsgd1na2vs0mg"},{"bike_id":"f5df91d9-4a7c-43df-9009-00af233090e5","system_id":"levelo_inurba_marseille","lat":43.33611,"lon":5.41025,"is_reserved":false,"is_disabled":false,"rental_uris":{"android":"levelo://app?vid=f5df91d9-4a7c-43df-9009-00af233090e5","ios":"levelo://app?vid=f5df91d9-4a7c-43df-9009-00af233090e5"},"vehicle_type_id":"4","last_reported":1731535669,"current_range_meters":37600,"station_id":"ce4bhqh2rcd13ifvqhmg","pricing_plan_id":"cebpf4jnsgd1na2vs0mg"},{"bike_id":"a351fa12-a76b-4950-b3f5-bcba51fa6aee","system_id":"levelo_inurba_marseille","lat":43.32333,"lon":5.40617,"is_reserved":false,"is_disabled":false,"rental_uris":{"android":"levelo://app?vid=a351fa12-a76b-4950-b3f5-bcba51fa6aee","ios":"levelo://app?vid=a351fa12-a76b-4950-b3f5-bcba51fa6aee"},"vehicle_type_id":"4","last_reported":1731535669,"current_range_meters":24400,"station_id":"ce4bhq92rcd13ifvqhjg","pricing_plan_id":"cebpf4jnsgd1na2vs0mg"},{"bike_id":"3da22c96-18a6-4d3a-a579-0c04984c3537","system_id":"levelo_inurba_marseille","lat":43.2621,"lon":5.37436,"is_reserved":false,"is_disabled":false,"rental_uris":{"android":"levelo://app?vid=3da22c96-18a6-4d3a-a579-0c04984c3537","ios":"levelo://app?vid=3da22c96-18a6-4d3a-a579-0c04984c3537"},"vehicle_type_id":"4","last_reported":1731535669,"current_range_meters":20000,"station_id":"ce4bhgp2rcd13ifvqfc0","pricing_plan_id":"cebpf4jnsgd1na2vs0mg"},{"bike_id":"117049e4-9d47-4473-8b41-072627c59b15","system_id":"levelo_inurba_marseille","lat":43.30257,"lon":5.40079,"is_reserved":false,"is_disabled":false,"rental_uris":{"android":"levelo://app?vid=117049e4-9d47-4473-8b41-072627c59b15","ios":"levelo://app?vid=117049e4-9d47-4473-8b41-072627c59b15"},"vehicle_type_id":"4","last_reported":1731535669,"current_range_meters":38000,"station_id":"ce4bgvh2rcd13ifvqcs0","pricing_plan_id":"cebpf4jnsgd1na2vs0mg"},{"bike_id":"142cc613-291c-4ade-afdd-7169a8a4d477","system_id":"levelo_inurba_marseille","lat":43.31082,"lon":5.42431,"is_reserved":false,"is_disabled":false,"rental_uris":{"android":"levelo://app?vid=142cc613-291c-4ade-afdd-7169a8a4d477","ios":"levelo://app?vid=142cc613-291c-4ade-afdd-7169a8a4d477"},"vehicle_type_id":"4","last_reported":1731535669,"current_range_meters":36000,"station_id":"ce4bhp92rcd13ifvqhag","pricing_plan_id":"cebpf4jnsgd1na2vs0mg"},{"bike_id":"84e8a957-1ee6-4c4c-aaaf-26133b95fa13","system_id":"levelo_inurba_marseille","lat":43.28443,"lon":5.39186,"is_reserved":false,"is_disabled":false,"rental_uris":{"android":"levelo://app?vid=84e8a957-1ee6-4c4c-aaaf-26133b95fa13","ios":"levelo://app?vid=84e8a957-1ee6-4c4c-aaaf-26133b95fa13"},"vehicle_type_id":"4","last_reported":1731535669,"current_range_meters":24800,"station_id":"ce4bhoh2rcd13ifvqh5g","pricing_plan_id":"cebpf4jnsgd1na2vs0mg"},{"bike_id":"6ed73e7b-b745-4c26-8870-236fd53f0f1e","system_id":"levelo_inurba_marseille","lat":43.30195,"lon":5.366215,"is_reserved":false,"is_disabled":false,"rental_uris":{"android":"levelo://app?vid=6ed73e7b-b745-4c26-8870-236fd53f0f1e","ios":"levelo://app?vid=6ed73e7b-b745-4c26-8870-236fd53f0f1e"},"vehicle_type_id":"4","last_reported":1731535669,"current_range_meters":34000,"station_id":"ce4bgrh2rcd13ifvqc8g","pricing_plan_id":"cebpf4jnsgd1na2vs0mg"},{"bike_id":"ab677a34-6aec-4cad-961a-4899d0b65523","system_id":"levelo_inurba_marseille","lat":43.28976,"lon":5.37836,"is_reserved":false,"is_disabled":false,"rental_uris":{"android":"levelo://app?vid=ab677a34-6aec-4cad-961a-4899d0b65523","ios":"levelo://app?vid=ab677a34-6aec-4cad-961a-4899d0b65523"},"vehicle_type_id":"4","last_reported":1731535669,"current_range_meters":38000,"station_id":"ce4bh9p2rcd13ifvqed0","pricing_plan_id":"cebpf4jnsgd1na2vs0mg"},{"bike_id":"bff54997-1790-4727-a556-bbaeb5e5c93c","system_id":"levelo_inurba_marseille","lat":43.27905,"lon":5.39583,"is_reserved":false,"is_disabled":false,"rental_uris":{"android":"levelo://app?vid=bff54997-1790-4727-a556-bbaeb5e5c93c","ios":"levelo://app?vid=bff54997-1790-4727-a556-bbaeb5e5c93c"},"vehicle_type_id":"4","last_reported":1731535669,"current_range_meters":10000,"station_id":"ce4bhf92rcd13ifvqf40","pricing_plan_id":"cebpf4jnsgd1na2vs0mg"},{"bike_id":"a01a5074-6141-4543-b8ee-07a008c9c4e5","system_id":"levelo_inurba_marseille","lat":43.2737,"lon":5.3626,"is_reserved":false,"is_disabled":false,"rental_uris":{"android":"levelo://app?vid=a01a5074-6141-4543-b8ee-07a008c9c4e5","ios":"levelo://app?vid=a01a5074-6141-4543-b8ee-07a008c9c4e5"},"vehicle_type_id":"4","last_reported":1731535669,"current_range_meters":11200,"station_id":"ce4bhbh2rcd13ifvqeo0","pricing_plan_id":"cebpf4jnsgd1na2vs0mg"},{"bike_id":"a43d1870-89ce-4a4f-92bf-7c83dad695e2","system_id":"levelo_inurba_marseille","lat":43.29045,"lon":5.35917,"is_reserved":false,"is_disabled":false,"rental_uris":{"android":"levelo://app?vid=a43d1870-89ce-4a4f-92bf-7c83dad695e2","ios":"levelo://app?vid=a43d1870-89ce-4a4f-92bf-7c83dad695e2"},"vehicle_type_id":"4","last_reported":1731535669,"current_range_meters":29600,"station_id":"ce4bha92rcd13ifvqeg0","pricing_plan_id":"cebpf4jnsgd1na2vs0mg"},{"bike_id":"57489f75-402f-411d-ac18-b7e38a45b7d9","system_id":"levelo_inurba_marseille","lat":43.31172,"lon":5.38713,"is_reserved":false,"is_disabled":false,"rental_uris":{"android":"levelo://app?vid=57489f75-402f-411d-ac18-b7e38a45b7d9","ios":"levelo://app?vid=57489f75-402f-411d-ac18-b7e38a45b7d9"},"vehicle_type_id":"4","last_reported":1731535669,"current_range_meters":33200,"station_id":"ce4bgv12rcd13ifvqcp0","pricing_plan_id":"cebpf4jnsgd1na2vs0mg"},{"bike_id":"8759ae07-5bad-4a84-ada3-f28f57811112","system_id":"levelo_inurba_marseille","lat":43.28853,"lon":5.3586,"is_reserved":false,"is_disabled":false,"rental_uris":{"android":"levelo://app?vid=8759ae07-5bad-4a84-ada3-f28f57811112","ios":"levelo://app?vid=8759ae07-5bad-4a84-ada3-f28f57811112"},"vehicle_type_id":"4","last_reported":1731535669,"current_range_meters":40000,"station_id":"ce4bhb12rcd13ifvqem0","pricing_plan_id":"cebpf4jnsgd1na2vs0mg"},{"bike_id":"679ee1d8-7b89-4ae0-9ad7-ede305765404","system_id":"levelo_inurba_marseille","lat":43.30328,"lon":5.4044,"is_reserved":false,"is_disabled":false,"rental_uris":{"android":"levelo://app?vid=679ee1d8-7b89-4ae0-9ad7-ede305765404","ios":"levelo://app?vid=679ee1d8-7b89-4ae0-9ad7-ede305765404"},"vehicle_type_id":"4","last_reported":1731535669,"current_range_meters":36400,"station_id":"ce4bh012rcd13ifvqd10","pricing_plan_id":"cebpf4jnsgd1na2vs0mg"},