{"last_updated":1747955415,"ttl":60,"version":"2.2","data":{"bikes":[{"bike_id":"c57d2346-f44f-40e9-88b8-b38969205265","system_id":"levelo_inurba_marseille","lat":43.241642,"lon":5.364029,"is_reserved":false,"is_disabled":false,"rental_uris":{"android":"levelo://app?vid=c57d2346-f44f-40e9-88b8-b38969205265","ios":"levelo://app?vid=c57d2346-f44f-40e9-88b8-b38969205265"},"vehicle_type_id":"4","last_reported":1747955415,"current_range_meters":2800,"station_id":"cpo36qri1sfpv3e86is0","pricing_plan_id":"cebpf4jnsgd1na2vs0mg"},{"bike_id":"2cbc7a2b-10c0-4df3-817a-4beb6610be80","system_id":"levelo_inurba_marseille","lat":43.29312,"lon":5.37459,"is_reserved":false,"is_disabled":false,"rental_uris":{"android":"levelo://app?vid=2cbc7a2b-10c0-4df3-817a-4beb6610be80","ios":"levelo://app?vid=2cbc7a2b-10c0-4df3-817a-4beb6610be80"},"vehicle_type_id":"4","last_reported":1747955415,"current_range_meters":2800,"station_id":"ce4bgi12rcd13ifvqb70","pricing_plan_id":"cebpf4jnsgd1na2vs0mg"},{"bike_id":"4069e2da-6478-47a4-ad42-ae3baa724ea9","system_id":"levelo_inurba_marseille","lat":43.26571,"lon":5.39005,"is_reserved":false,"is_disabled":false,"rental_uris":{"android":"levelo://app?vid=4069e2da-6478-47a4-ad42-ae3baa724ea9","ios":"levelo://app?vid=4069e2da-6478-47a4-ad42-ae3baa724ea9"},"vehicle_type_id":"4","last_reported":1747955415,"current_range_meters":3200,"station_id":"ce4bhe12rcd13ifvqf30","pricing_plan_id":"cebpf4jnsgd1na2vs0mg"},{"bike_id":"742803ab-81c7-4148-8fb7-b86fa6a34d83","system_id":"levelo_inurba_marseille","lat":43.2465,"lon":5.38893,"is_reserved":false,"is_disabled":false,"rental_uris":{"android":"levelo://app?vid=742803ab-81c7-4148-8fb7-b86fa6a34d83","ios":"levelo://app?vid=742803ab-81c7-4148-8fb7-b86fa6a34d83"},"vehicle_type_id":"4","last_reported":1747955415,"current_range_meters":3200,"station_id":"ce4bhg12rcd13ifvqf60","pricing_plan_id":"cebpf4jnsgd1na2vs0mg"},{"bike_id":"9ca4f59d-3c55-4461-b31b-bb418fa2395e","system_id":"levelo_inurba_marseille","lat":43.23963,"lon":5.36626,"is_reserved":false,"is_disabled":false,"rental_uris":{"android":"levelo://app?vid=9ca4f59d-3c55-4461-b31b-bb418fa2395e","ios":"levelo://app?vid=9ca4f59d-3c55-4461-b31b-bb418fa2395e"},"vehicle_type_id":"4","last_reported":1747955415,"current_range_meters":3600,"station_id":"ce4bhi12rcd13ifvqfp0","pricing_plan_id":"cebpf4jnsgd1na2vs0mg"},{"bike_id":"0fcb0883-bd59-40ff-b3a2-c7bc9655de75","system_id":"levelo_inurba_marseille","lat":43.24782,"lon":5.37377,"is_reserved":false,"is_disabled":false,"rental_uris":{"android":"levelo://app?vid=0fcb0883-bd59-40ff-b3a2-c7bc9655de75","ios":"levelo://app?vid=0fcb0883-bd59-40ff-b3a2-c7bc9655de75"},"vehicle_type_id":"4","last_reported":1747955415,"current_range_meters":3600,"station_id":"ce4bhgh2rcd13ifvqfb0","pricing_plan_id":"cebpf4jnsgd1na2vs0mg"},{"bike_id":"a965f51f-aafb-4afe-bfe3-121b43346203","system_id":"levelo_inurba_marseille","lat":43.280007,"lon":5.400106,"is_reserved":false,"is_disabled":false,"rental_uris":{"android":"levelo://app?vid=a965f51f-aafb-4afe-bfe3-121b43346203","ios":"levelo://app?vid=a965f51f-aafb-4afe-bfe3-121b43346203"},"vehicle_type_id":"4","last_reported":1747955415,"current_range_meters":4000,"station_id":"ce4bho92rcd13ifvqh4g","pricing_plan_id":"cebpf4jnsgd1na2vs0mg"},{"bike_id":"6270d96f-40fe-41a6-a327-68ce235193c3","system_id":"levelo_inurba_marseille","lat":43.280768,"lon":5.396531,"is_reserved":false,"is_disabled":false,"rental_uris":{"android":"levelo://app?vid=6270d96f-40fe-41a6-a327-68ce235193c3","ios":"levelo://app?vid=6270d96f-40fe-41a6-a327-68ce235193c3"},"vehicle_type_id":"4","last_reported":1747955415,"current_range_meters":4000,"station_id":"ce4bho12rcd13ifvqh2g","pricing_plan_id":"cebpf4jnsgd1na2vs0mg"},{"bike_id":"983efcff-6ccf-46ba-b82f-3b37c8247064","system_id":"levelo_inurba_marseille","lat":43.248134,"lon":5.374586,"is_reserved":false,"is_disabled":false,"rental_uris":{"android":"levelo://app?vid=983efcff-6ccf-46ba-b82f-3b37c8247064","ios":"levelo://app?vid=983efcff-6ccf-46ba-b82f-3b37c8247064"},"vehicle_type_id":"4","last_reported":1747955415,"current_range_meters":4000,"station_id":"ce4bhgh2rcd13ifvqfb0","pricing_plan_id":"cebpf4jnsgd1na2vs0mg"},{"bike_id":"b5e11a81-2b3f-49e4-851a-0e4d42bd02f7","system_id":"levelo_inurba_marseille","lat":43.277886,"lon":5.399623,"is_reserved":false,"is_disabled":false,"rental_uris":{"android":"levelo://app?vid=b5e11a81-2b3f-49e4-851a-0e4d42bd02f7","ios":"levelo://app?vid=b5e11a81-2b3f-49e4-851a-0e4d42bd02f7"},"vehicle_type_id":"4","last_reported":1747955415,"current_range_meters":4400,"station_id":"","pricing_plan_id":"cebpf4jnsgd1na2vs0mg"},{"bike_id":"31907cb9-b067-459a-920f-da7df97f835b","system_id":"levelo_inurba_marseille","lat":43.25111,"lon":5.403213,"is_reserved":false,"is_disabled":false,"rental_uris":{"android":"levelo://app?vid=31907cb9-b067-459a-920f-da7df97f835b","ios":"levelo://app?vid=31907cb9-b067-459a-920f-da7df97f835b"},"vehicle_type_id":"4","last_reported":1747955415,"current_range_meters":4400,"station_id":"ce4bhlh2rcd13ifvqgig","pricing_plan_id":"cebpf4jnsgd1na2vs0mg"},{"bike_id":"4aaa0c9a-06f9-4739-9a58-ee92848a6f4b","system_id":"levelo_inurba_marseille","lat":43.23195,"lon":5.35561,"is_reserved":false,"is_disabled":false,"rental_uris":{"android":"levelo://app?vid=4aaa0c9a-06f9-4739-9a58-ee92848a6f4b","ios":"levelo://app?vid=4aaa0c9a-06f9-4739-9a58-ee92848a6f4b"},"vehicle_type_id":"4","last_reported":1747955415,"current_range_meters":4400,"station_id":"ce4bhu92rcd13ifvqi70","pricing_plan_id":"cebpf4jnsgd1na2vs0mg"},{"bike_id":"2aa52d73-83e9-44f9-80ca-e0ce5c9fc417","system_id":"levelo_inurba_marseille","lat":43.27073,"lon":5.42285,"is_reserved":false,"is_disabled":false,"rental_uris":{"android":"levelo://app?vid=2aa52d73-83e9-44f9-80ca-e0ce5c9fc417","ios":"levelo://app?vid=2aa52d73-83e9-44f9-80ca-e0ce5c9fc417"},"vehicle_type_id":"4","last_reported":1747955415,"current_range_meters":4800,"station_id":"ce4bhk92rcd13ifvqgb0","pricing_plan_id":"cebpf4jnsgd1na2vs0mg"},{"bike_id":"43d20b8b-8f46-43ed-b2af-873dffbecba1","system_id":"levelo_inurba_marseille","lat":43.280922,"lon":5.378536,"is_reserved":false,"is_disabled":true,"rental_uris":{"android":"levelo://app?vid=43d20b8b-8f46-43ed-b2af-873dffbecba1","ios":"levelo://app?vid=43d20b8b-8f46-43ed-b2af-873dffbecba1"},"vehicle_type_id":"4","last_reported":1747955415,"current_range_meters":4800,"station_id":"ce4bha12rcd13ifvqee0","pricing_plan_id":"cebpf4jnsgd1na2vs0mg"},{"bike_id":"76394c4d-3056-444e-93db-abd92353dc1c","system_id":"levelo_inurba_marseille","lat":43.23968,"lon":5.36631,"is_reserved":false,"is_disabled":false,"rental_uris":{"android":"levelo://app?vid=76394c4d-3056-444e-93db-abd92353dc1c","ios":"levelo://app?vid=76394c4d-3056-444e-93db-abd92353dc1c"},"vehicle_type_id":"4","last_reported":1747955415,"current_range_meters":4800,"station_id":"ce4bhi12rcd13ifvqfp0","pricing_plan_id":"cebpf4jnsgd1na2vs0mg"},{"bike_id":"2118b775-a212-4cde-9a12-650bdcd2bf8a","system_id":"levelo_inurba_marseille","lat":43.34139,"lon":5.40906,"is_reserved":false,"is_disabled":false,"rental_uris":{"android":"levelo://app?vid=2118b775-a212-4cde-9a12-650bdcd2bf8a","ios":"levelo://app?vid=2118b775-a212-4cde-9a12-650bdcd2bf8a"},"vehicle_type_id":"4","last_reported":1747955415,"current_range_meters":4400,"station_id":"ce4bhqh2rcd13ifvqhlg","pricing_plan_id":"cebpf4jnsgd1na2vs0mg"},{"bike_id":"aaa97f4a-d4e4-4722-902e-9752d10c7e22","system_id":"levelo_inurba_marseille","lat":43.2677,"lon":5.39427,"is_reserved":false,"is_disabled":false,"rental_uris":{"android":"levelo://app?vid=aaa97f4a-d4e4-4722-902e-9752d10c7e22","ios":"levelo://app?vid=aaa97f4a-d4e4-4722-902e-9752d10c7e22"},"vehicle_type_id":"4","last_reported":1747955415,"current_range_meters":5600,"station_id":"ce4bhh12rcd13ifvqfg0","pricing_plan_id":"cebpf4jnsgd1na2vs0mg"},{"bike_id":"7c97ffa2-186f-4514-91a7-b4e8d2150c4d","system_id":"levelo_inurba_marseille","lat":43.30208,"lon":5.39467,"is_reserved":false,"is_disabled":false,"rental_uris":{"android":"levelo://app?vid=7c97ffa2-186f-4514-91a7-b4e8d2150c4d","ios":"levelo://app?vid=7c97ffa2-186f-4514-91a7-b4e8d2150c4d"},"vehicle_type_id":"4","last_reported":1747955415,"current_range_meters":4800,"station_id":"ce4bh0p2rcd13ifvqd70","pricing_plan_id":"cebpf4jnsgd1na2vs0mg"},{"bike_id":"d2ce9dad-fdd8-4f21-b77a-4b5fcb8237f9","system_id":"levelo_inurba_marseille","lat":43.28352,"lon":5.38098,"is_reserved":false,"is_disabled":false,"rental_uris":{"android":"levelo://app?vid=d2ce9dad-fdd8-4f21-b77a-4b5fcb8237f9","ios":"levelo://app?vid=d2ce9dad-fdd8-4f21-b77a-4b5fcb8237f9"},"vehicle_type_id":"4","last_reported":1747955415,"current_range_meters":5600,"station_id":"ce4bh412rcd13ifvqdr0","pricing_plan_id":"cebpf4jnsgd1na2vs0mg"},{"bike_id":"35b62aa6-a570-48d8-8fff-f4a2c0f14560","system_id":"levelo_inurba_marseille","lat":43.22947,"lon":5.35356,"is_reserved":false,"is_disabled":false,"rental_uris":{"android":"levelo://app?vid=35b62aa6-a570-48d8-8fff-f4a2c0f14560","ios":"levelo://app?vid=35b62aa6-a570-48d8-8fff-f4a2c0f14560"},"vehicle_type_id":"4","last_reported":1747955415,"current_range_meters":6000,"station_id":"cpo3532slgdg3j2ikp40","pricing_plan_id":"cebpf4jnsgd1na2vs0mg"},{"bike_id":"2bc60531-66c5-4beb-98d9-3f95fb40010c","system_id":"levelo_inurba_marseille","lat":43.27072,"lon":5.40244,"is_reserved":false,"is_disabled":false,"rental_uris":{"android":"levelo://app?vid=2bc60531-66c5-4beb-98d9-3f95fb40010c","ios":"levelo://app?vid=2bc60531-66c5-4beb-98d9-3f95fb40010c"},"vehicle_type_id":"4","last_reported":1747955415,"current_range_meters":6400,"station_id":"ce4bhk92rcd13ifvqgc0","pricing_plan_id":"cebpf4jnsgd1na2vs0mg"},{"bike_id":"490cfea9-fbaf-4353-81f0-ee1052d69c71","system_id":"levelo_inurba_marseille","lat":43.254938,"lon":5.376452,"is_reserved":false,"is_disabled":false,"rental_uris":{"android":"levelo://app?vid=490cfea9-fbaf-4353-81f0-ee1052d69c71","ios":"levelo://app?vid=490cfea9-fbaf-4353-81f0-ee1052d69c71"},"vehicle_type_id":"4","last_reported":1747955415,"current_range_meters":6400,"station_id":"ce4bhh12rcd13ifvqff0","pricing_plan_id":"cebpf4jnsgd1na2vs0mg"},{"bike_id":"b02202c4-15f1-4faf-863d-7ec08e15df02","system_id":"levelo_inurba_marseille","lat":43.265663,"lon":5.390007,"is_reserved":false,"is_disabled":false,"rental_uris":{"android":"levelo://app?vid=b02202c4-15f1-4faf-863d-7ec08e15df02","ios":"levelo://app?vid=b02202c4-15f1-4faf-863d-7ec08e15df02"},"vehicle_type_id":"4","last_reported":1747955415,"current_range_meters":6400,"station_id":"ce4bhe12rcd13ifvqf30","pricing_plan_id":"cebpf4jnsgd1na2vs0mg"},{"bike_id":"62a9a0e3-c6f4-42d8-b387-84a332526d44","system_id":"levelo_inurba_marseille","lat":43.27994,"lon":5.40007,"is_reserved":false,"is_disabled":false,"rental_uris":{"android":"levelo://app?vid=62a9a0e3-c6f4-42d8-b387-84a332526d44","ios":"levelo://app?vid=62a9a0e3-c6f4-42d8-b387-84a332526d44"},"vehicle_type_id":"4","last_reported":1747955415,"current_range_meters":6400,"station_id":"ce4bho92rcd13ifvqh4g","pricing_plan_id":"cebpf4jnsgd1na2vs0mg"},{"bike_id":"2c0b40ab-8e6e-451c-9ca9-7ac68cabe65f","system_id":"levelo_inurba_marseille","lat":43.248097,"lon":5.374535,"is_reserved":false,"is_disabled":false,"rental_uris":{"android":"levelo://app?vid=2c0b40ab-8e6e-451c-9ca9-7ac68cabe65f","ios":"levelo://app?vid=2c0b40ab-8e6e-451c-9ca9-7ac68cabe65f"},"vehicle_type_id":"4","last_reported":1747955415,"current_range_meters":6400,"station_id":"ce4bhgh2rcd13ifvqfb0","pricing_plan_id":"cebpf4jnsgd1na2vs0mg"},{"bike_id":"3fe3d6c4-138a-47df-b6b4-e6f19e8f7d46","system_id":"levelo_inurba_marseille","lat":43.21415,"lon":5.34098,"is_reserved":false,"is_disabled":false,"rental_uris":{"android":"levelo://app?vid=3fe3d6c4-138a-47df-b6b4-e6f19e8f7d46","ios":"levelo://app?vid=3fe3d6c4-138a-47df-b6b4-e6f19e8f7d46"},"vehicle_type_id":"4","last_reported":1747955415,"current_range_meters":6800,"station_id":"","pricing_plan_id":"cebpf4jnsgd1na2vs0mg"},{"bike_id":"af3db64d-95f6-4881-9efd-137863ebac96","system_id":"levelo_inurba_marseille","lat":43.24653,"lon":5.38893,"is_reserved":false,"is_disabled":false,"rental_uris":{"android":"levelo://app?vid=af3db64d-95f6-4881-9efd-137863ebac96","ios":"levelo://app?vid=af3db64d-95f6-4881-9efd-137863ebac96"},"vehicle_type_id":"4","last_reported":1747955415,"current_range_meters":6800,"station_id":"ce4bhg12rcd13ifvqf60","pricing_plan_id":"cebpf4jnsgd1na2vs0mg"},{"bike_id":"d5a1dc7e-b461-4f5d-832d-faaca881d5a3","system_id":"levelo_inurba_marseille","lat":43.27058,"lon":5.40256,"is_reserved":false,"is_disabled":false,"rental_uris":{"android":"levelo://app?vid=d5a1dc7e-b461-4f5d-832d-faaca881d5a3","ios":"levelo://app?vid=d5a1dc7e-b461-4f5d-832d-faaca881d5a3"},"vehicle_type_id":"4","last_reported":1747955415,"current_range_meters":6800,"station_id":"ce4bhk92rcd13ifvqgc0","pricing_plan_id":"cebpf4jnsgd1na2vs0mg"},{"bike_id":"14feda73-7baf-4b64-8ae9-79f4fe7d4a5f","system_id":"levelo_inurba_marseille","lat":43.32377,"lon":5.36761,"is_reserved":false,"is_disabled":false,"rental_uris":{"android":"levelo://app?vid=14feda73-7baf-4b64-8ae9-79f4fe7d4a5f","ios":"levelo://app?vid=14feda73-7baf-4b64-8ae9-79f4fe7d4a5f"},"vehicle_type_id":"4","last_reported":1747955415,"current_range_meters":6800,"station_id":"ce4bhsh2rcd13ifvqi2g","pricing_plan_id":"cebpf4jnsgd1na2vs0mg"},{"bike_id":"7f374a0c-9ab4-412c-a8dd-1f59fe7a5317","system_id":"levelo_inurba_marseille","lat":43.25554,"lon":5.38247,"is_reserved":false,"is_disabled":false,"rental_uris":{"android":"levelo://app?vid=7f374a0c-9ab4-412c-a8dd-1f59fe7a5317","ios":"levelo://app?vid=7f374a0c-9ab4-412c-a8dd-1f59fe7a5317"},"vehicle_type_id":"4","last_reported":1747955415,"current_range_meters":6800,"station_id":"ce4bhih2rcd13ifvqfs0","pricing_plan_id":"cebpf4jnsgd1na2vs0mg"},{"bike_id":"3cc70f64-af75-4877-adc7-e044243dde50","system_id":"levelo_inurba_marseille","lat":43.24181,"lon":5.39737,"is_reserved":false,"is_disabled":false,"rental_uris":{"android":"levelo://app?vid=3cc70f64-af75-4877-adc7-e044243dde50","ios":"levelo://app?vid=3cc70f64-af75-4877-adc7-e044243dde50"},"vehicle_type_id":"4","last_reported":1747955415,"current_range_meters":6800,"station_id":"ce4bhn12rcd13ifvqgpg","pricing_plan_id":"cebpf4jnsgd1na2vs0mg"},{"bike_id":"abe05535-e77a-49d1-9030-e7e29fc62a9f","system_id":"levelo_inurba_marseille","lat":43.32338,"lon":5.40621,"is_reserved":false,"is_disabled":false,"rental_uris":{"android":"levelo://app?vid=abe05535-e77a-49d1-9030-e7e29fc62a9f","ios":"levelo://app?vid=abe05535-e77a-49d1-9030-e7e29fc62a9f"},"vehicle_type_id":"4","last_reported":1747955415,"current_range_meters":7200,"station_id":"ce4bhq92rcd13ifvqhjg","pricing_plan_id":"cebpf4jnsgd1na2vs0mg"},{"bike_id":"b91980aa-60ff-467c-bd75-7d53cde9d475","system_id":"levelo_inurba_marseille","lat":43.25103,"lon":5.40313,"is_reserved":false,"is_disabled":false,"rental_uris":{"android":"levelo://app?vid=b91980aa-60ff-467c-bd75-7d53cde9d475","ios":"levelo://app?vid=b91980aa-60ff-467c-bd75-7d53cde9d475"},"vehicle_type_id":"4","last_reported":1747955415,"current_range_meters":7200,"station_id":"ce4bhlh2rcd13ifvqgig","pricing_plan_id":"cebpf4jnsgd1na2vs0mg"},{"bike_id":"c3c7ae58-40dc-49fe-91c8-045c830c98b8","system_id":"levelo_inurba_marseille","lat":43.31804,"lon":5.44915,"is_reserved":false,"is_disabled":false,"rental_uris":{"android":"levelo://app?vid=c3c7ae58-40dc-49fe-91c8-045c830c98b8","ios":"levelo://app?vid=c3c7ae58-40dc-49fe-91c8-045c830c98b8"},"vehicle_type_id":"4","last_reported":1747955415,"current_range_meters":7200,"station_id":"","pricing_plan_id":"cebpf4jnsgd1na2vs0mg"},{"bike_id":"bcd1ea0a-8867-4236-be07-69f347e65bb9","system_id":"levelo_inurba_marseille","lat":43.301377,"lon":5.39871,"is_reserved":false,"is_disabled":false,"rental_uris":{"android":"levelo://app?vid=bcd1ea0a-8867-4236-be07-69f347e65bb9","ios":"levelo://app?vid=bcd1ea0a-8867-4236-be07-69f347e65bb9"},"vehicle_type_id":"4","last_reported":1747955415,"current_range_meters":7200,"station_id":"ce4bh0h2rcd13ifvqd40","pricing_plan_id":"cebpf4jnsgd1na2vs0mg"},{"bike_id":"2146e882-97c1-4fc0-b5e3-c8f6eb252218","system_id":"levelo_inurba_marseille","lat":43.279755,"lon":5.4284,"is_reserved":false,"is_disabled":false,"rental_uris":{"android":"levelo://app?vid=2146e882-97c1-4fc0-b5e3-c8f6eb252218","ios":"levelo://app?vid=2146e882-97c1-4fc0-b5e3-c8f6eb252218"},"vehicle_type_id":"4","last_reported":1747955415,"current_range_meters":7200,"station_id":"ce4bhnh2rcd13ifvqgug","pricing_plan_id":"cebpf4jnsgd1na2vs0mg"},{"bike_id":"ad4d8099-03a6-43ca-966f-189fb83ff678","system_id":"levelo_inurba_marseille","lat":43.312693,"lon":5.374005,"is_reserved":false,"is_disabled":false,"rental_uris":{"android":"levelo://app?vid=ad4d8099-03a6-43ca-966f-189fb83ff678","ios":"levelo://app?vid=ad4d8099-03a6-43ca-966f-189fb83ff678"},"vehicle_type_id":"4","last_reported":1747955415,"current_range_meters":7200,"station_id":"","pricing_plan_id":"cebpf4jnsgd1na2vs0mg"},{"bike_id":"cd54e08a-fd8a-4429-903c-83d502d7e729","system_id":"levelo_inurba_marseille","lat":43.27217,"lon":5.39179,"is_reserved":false,"is_disabled":false,"rental_uris":{"android":"levelo://app?vid=cd54e08a-fd8a-4429-903c-83d502d7e729","ios":"levelo://app?vid=cd54e08a-fd8a-4429-903c-83d502d7e729"},"vehicle_type_id":"4","last_reported":1747955415,"current_range_meters":6800,"station_id":"ce4bhhp2rcd13ifvqfm0","pricing_plan_id":"cebpf4jnsgd1na2vs0mg"},{"bike_id":"903ef82a-556d-490d-a1a9-a75106b22908","system_id":"levelo_inurba_marseille","lat":43.303013,"lon":5.392037,"is_reserved":false,"is_disabled":false,"rental_uris":{"android":"levelo://app?vid=903ef82a-556d-490d-a1a9-a75106b22908","ios":"levelo://app?vid=903ef82a-556d-490d-a1a9-a75106b22908"},"vehicle_type_id":"4","last_reported":1747955415,"current_range_meters":7200,"station_id":"ce4bgkh2rcd13ifvqbk0","pricing_plan_id":"cebpf4jnsgd1na2vs0mg"},{"bike_id":"3944f00c-e9fc-4706-a38a-ade0f43ef779","system_id":"levelo_inurba_marseille","lat":43.251014,"lon":5.403236,"is_reserved":false,"is_disabled":false,"rental_uris":{"android":"levelo://app?vid=3944f00c-e9fc-4706-a38a-ade0f43ef779","ios":"levelo://app?vid=3944f00c-e9fc-4706-a38a-ade0f43ef779"},"vehicle_type_id":"4","last_reported":1747955415,"current_range_meters":7200,"station_id":"ce4bhlh2rcd13ifvqgig","pricing_plan_id":"cebpf4jnsgd1na2vs0mg"},{"bike_id":"b99e8633-de01-4259-88d4-efb2ee19f3ed","system_id":"levelo_inurba_marseille","lat":43.240684,"lon":5.377584,"is_reserved":false,"is_disabled":false,"rental_uris":{"android":"levelo://app?vid=b99e8633-de01-4259-88d4-efb2ee19f3ed","ios":"levelo://app?vid=b99e8633-de01-4259-88d4-efb2ee19f3ed"},"vehicle_type_id":"4","last_reported":1747955415,"current_range_meters":8000,"station_id":"ce4bhnp2rcd13ifvqgvg","pricing_plan_id":"cebpf4jnsgd1na2vs0mg"},{"bike_id":"29e28d4f-56b9-4580-b82b-d3f0b7ef5a1b","system_id":"levelo_inurba_marseille","lat":43.25499,"lon":5.37637,"is_reserved":false,"is_disabled":false,"rental_uris":{"android":"levelo://app?vid=29e28d4f-56b9-4580-b82b-d3f0b7ef5a1b","ios":"levelo://app?vid=29e28d4f-56b9-4580-b82b-d3f0b7ef5a1b"},"vehicle_type_id":"4","last_reported":1747955415,"current_range_meters":8000,"station_id":"ce4bhh12rcd13ifvqff0","pricing_plan_id":"cebpf4jnsgd1na2vs0mg"},{"bike_id":"5883899d-e067-4d21-9246-1c7d41ce7947","system_id":"levelo_inurba_marseille","lat":43.309304,"lon":5.401442,"is_reserved":false,"is_disabled":false,"rental_uris":{"android":"levelo://app?vid=5883899d-e067-4d21-9246-1c7d41ce7947","ios":"levelo://app?vid=5883899d-e067-4d21-9246-1c7d41ce7947"},"vehicle_type_id":"4","last_reported":1747955415,"current_range_meters":8000,"station_id":"ce4bgvp2rcd13ifvqct0","pricing_plan_id":"cebpf4jnsgd1na2vs0mg"},{"bike_id":"cd2b9d97-3676-4c83-8e3b-aa4857457d9a","system_id":"levelo_inurba_marseille","lat":43.31506,"lon":5.37036,"is_reserved":false,"is_disabled":false,"rental_uris":{"android":"levelo://app?vid=cd2b9d97-3676-4c83-8e3b-aa4857457d9a","ios":"levelo://app?vid=cd2b9d97-3676-4c83-8e3b-aa4857457d9a"},"vehicle_type_id":"4","last_reported":1747955415,"current_range_meters":8000,"station_id":"","pricing_plan_id":"cebpf4jnsgd1na2vs0mg"},{"bike_id":"81a0461f-4c84-4147-bd21-6bdb298382e0","system_id":"levelo_inurba_marseille","lat":43.25103,"lon":5.40334,"is_reserved":false,"is_disabled":false,"rental_uris":{"android":"levelo://app?vid=81a0461f-4c84-4147-bd21-6bdb298382e0","ios":"levelo://app?vid=81a0461f-4c84-4147-bd21-6bdb298382e0"},"vehicle_type_id":"4","last_reported":1747955415,"current_range_meters":8000,"station_id":"ce4bhlh2rcd13ifvqgig","pricing_plan_id":"cebpf4jnsgd1na2vs0mg"},{"bike_id":"e4ccd2ca-5899-4e38-9a7d-85747cd7c75d","system_id":"levelo_inurba_marseille","lat":43.25865,"lon":5.39892,"is_reserved":false,"is_disabled":false,"rental_uris":{"android":"levelo://app?vid=e4ccd2ca-5899-4e38-9a7d-85747cd7c75d","ios":"levelo://app?vid=e4ccd2ca-5899-4e38-9a7d-85747cd7c75d"},"vehicle_type_id":"4","last_reported":1747955415,"current_range_meters":8000,"station_id":"ce4bhl92rcd13ifvqghg","pricing_plan_id":"cebpf4jnsgd1na2vs0mg"},{"bike_id":"8022b9c5-3b31-46a7-933d-93d8ae4cd439","system_id":"levelo_inurba_marseille","lat":43.251118,"lon":5.403246,"is_reserved":false,"is_disabled":false,"rental_uris":{"android":"levelo://app?vid=8022b9c5-3b31-46a7-933d-93d8ae4cd439","ios":"levelo://app?vid=8022b9c5-3b31-46a7-933d-93d8ae4cd439"},"vehicle_type_id":"4","last_reported":1747955415,"current_range_meters":8000,"station_id":"ce4bhlh2rcd13ifvqgig","pricing_plan_id":"cebpf4jnsgd1na2vs0mg"},{"bike_id":"f9fb40c0-1fcd-48cb-8e26-3f2dc0fb2451","system_id":"levelo_inurba_marseille","lat":43.33751,"lon":5.37509,"is_reserved":false,"is_disabled":false,"rental_uris":{"android":"levelo://app?vid=f9fb40c0-1fcd-48cb-8e26-3f2dc0fb2451","ios":"levelo://app?vid=f9fb40c0-1fcd-48cb-8e26-3f2dc0fb2451"},"vehicle_type_id":"4","last_reported":1747955415,"current_range_meters":8000,"station_id":"","pricing_plan_id":"cebpf4jnsgd1na2vs0mg"},{"bike_id":"7aae4ae8-7818-4c68-aea7-b7f338b36e37","system_id":"levelo_inurba_marseille","lat":43.24071,"lon":5.37733,"is_reserved":false,"is_disabled":false,"rental_uris":{"android":"levelo://app?vid=7aae4ae8-7818-4c68-aea7-b7f338b36e37","ios":"levelo://app?vid=7aae4ae8-7818-4c68-aea7-b7f338b36e37"},"vehicle_type_id":"4","last_reported":1747955415,"current_range_meters":8400,"station_id":"ce4bhnp2rcd13ifvqgvg","pricing_plan_id":"cebpf4jnsgd1na2vs0mg"},{"bike_id":"fd2f99fe-1ea1-481b-832b-39a1fe20e03b","system_id":"levelo_inurba_marseille","lat":43.26805,"lon":5.40272,"is_reserved":false,"is_disabled":false,"rental_uris":{"android":"levelo://app?vid=fd2f99fe-1ea1-481b-832b-39a1fe20e03b","ios":"levelo://app?vid=fd2f99fe-1ea1-481b-832b-39a1fe20e03b"},"vehicle_type_id":"4","last_reported":1747955415,"current_range_meters":8400,"station_id":"ce501612rcd8frsf0b60","pricing_plan_id":"cebpf4jnsgd1na2vs0mg"},{"bike_id":"40c1961e-6fde-4a19-9608-959fd903f308","system_id":"levelo_inurba_marseille","lat":43.24803,"lon":5.37452,"is_reserved":false,"is_disabled":false,"rental_uris":{"android":"levelo://app?vid=40c1961e-6fde-4a19-9608-959fd903f308","ios":"levelo://app?vid=40c1961e-6fde-4a19-9608-959fd903f308"},"vehicle_type_id":"4","last_reported":1747955415,"current_range_meters":8400,"station_id":"ce4bhgh2rcd13ifvqfb0","pricing_plan_id":"cebpf4jnsgd1na2vs0mg"},{"bike_id":"325a04d7-0c6c-4a4d-804e-27b29ba6514b","system_id":"levelo_inurba_marseille","lat":43.23968,"lon":5.36626,"is_reserved":false,"is_disabled":false,"rental_uris":{"android":"levelo://app?vid=325a04d7-0c6c-4a4d-804e-27b29ba6514b","ios":"levelo://app?vid=325a04d7-0c6c-4a4d-804e-27b29ba6514b"},"vehicle_type_id":"4","last_reported":1747955415,"current_range_meters":8400,"station_id":"ce4bhi12rcd13ifvqfp0","pricing_plan_id":"cebpf4jnsgd1na2vs0mg"},{"bike_id":"27653dcd-dec9-4f13-b172-8968c20c1725","system_id":"levelo_inurba_marseille","lat":43.23845,"lon":5.43101,"is_reserved":false,"is_disabled":false,"rental_uris":{"android":"levelo://app?vid=27653dcd-dec9-4f13-b172-8968c20c1725","ios":"levelo://app?vid=27653dcd-dec9-4f13-b172-8968c20c1725"},"vehicle_type_id":"4","last_reported":1747955415,"current_range_meters":8400,"station_id":"","pricing_plan_id":"cebpf4jnsgd1na2vs0mg"},{"bike_id":"7840330f-1868-47b7-b454-a81947a4dcc6","system_id":"levelo_inurba_marseille","lat":43.217565,"lon":5.346013,"is_reserved":false,"is_disabled":false,"rental_uris":{"android":"levelo://app?vid=7840330f-1868-47b7-b454-a81947a4dcc6","ios":"levelo://app?vid=7840330f-1868-47b7-b454-a81947a4dcc6"},"vehicle_type_id":"4","last_reported":1747955415,"current_range_meters":8400,"station_id":"st_cvj6r9ubvosntc0bgbag","pricing_plan_id":"cebpf4jnsgd1na2vs0mg"},{"bike_id":"0815fd33-a825-49ef-90ec-ee19dc7387e0","system_id":"levelo_inurba_marseille","lat":43.2777,"lon":5.39988,"is_reserved":false,"is_disabled":false,"rental_uris":{"android":"levelo://app?vid=0815fd33-a825-49ef-90ec-ee19dc7387e0","ios":"levelo://app?vid=0815fd33-a825-49ef-90ec-ee19dc7387e0"},"vehicle_type_id":"4","last_reported":1747955415,"current_range_meters":8400,"station_id":"","pricing_plan_id":"cebpf4jnsgd1na2vs0mg"},{"bike_id":"a07478c7-80ac-4f15-a1ee-c92951f16d5e","system_id":"levelo_inurba_marseille","lat":43.308042,"lon":5.435209,"is_reserved":false,"is_disabled":true,"rental_uris":{"android":"levelo://app?vid=a07478c7-80ac-4f15-a1ee-c92951f16d5e","ios":"levelo://app?vid=a07478c7-80ac-4f15-a1ee-c92951f16d5e"},"vehicle_type_id":"4","last_reported":1747955415,"current_range_meters":8800,"station_id":"ce4bhph2rcd13ifvqheg","pricing_plan_id":"cebpf4jnsgd1na2vs0mg"},{"bike_id":"971c8a5c-db56-48ea-b476-188519cb0562","system_id":"levelo_inurba_marseille","lat":43.30066,"lon":5.40503,"is_reserved":false,"is_disabled":false,"rental_uris":{"android":"levelo://app?vid=971c8a5c-db56-48ea-b476-188519cb0562","ios":"levelo://app?vid=971c8a5c-db56-48ea-b476-188519cb0562"},"vehicle_type_id":"4","last_reported":1747955415,"current_range_meters":8800,"station_id":"","pricing_plan_id":"cebpf4jnsgd1na2vs0mg"},{"bike_id":"f6060218-a4fa-4cc9-bdb7-79b96992d8b3","system_id":"levelo_inurba_marseille","lat":43.29981,"lon":5.3849,"is_reserved":false,"is_disabled":true,"rental_uris":{"android":"levelo://app?vid=f6060218-a4fa-4cc9-bdb7-79b96992d8b3","ios":"levelo://app?vid=f6060218-a4fa-4cc9-bdb7-79b96992d8b3"},"vehicle_type_id":"4","last_reported":1747955415,"current_range_meters":8800,"station_id":"ce4bgj92rcd13ifvqbd0","pricing_plan_id":"cebpf4jnsgd1na2vs0mg"},{"bike_id":"72f4aa09-97c3-4c3a-907d-a9c4f3e38074","system_id":"levelo_inurba_marseille","lat":43.30416,"lon":5.41293,"is_reserved":false,"is_disabled":false,"rental_uris":{"android":"levelo://app?vid=72f4aa09-97c3-4c3a-907d-a9c4f3e38074","ios":"levelo://app?vid=72f4aa09-97c3-4c3a-907d-a9c4f3e38074"},"vehicle_type_id":"4","last_reported":1747955415,"current_range_meters":8800,"station_id":"ce4bhop2rcd13ifvqh8g","pricing_plan_id":"cebpf4jnsgd1na2vs0mg"},{"bike_id":"74512240-d5c9-4544-ae43-a879ce9f7bd3","system_id":"levelo_inurba_marseille","lat":43.28437,"lon":5.39195,"is_reserved":false,"is_disabled":false,"rental_uris":{"android":"levelo://app?vid=74512240-d5c9-4544-ae43-a879ce9f7bd3","ios":"levelo://app?vid=74512240-d5c9-4544-ae43-a879ce9f7bd3"},"vehicle_type_id":"4","last_reported":1747955415,"current_range_meters":8800,"station_id":"ce4bhoh2rcd13ifvqh5g","pricing_plan_id":"cebpf4jnsgd1na2vs0mg"},{"bike_id":"3022497e-9a24-4d16-b5d2-78aa7c07375d","system_id":"levelo_inurba_marseille","lat":43.290317,"lon":5.378149,"is_reserved":false,"is_disabled":false,"rental_uris":{"android":"levelo://app?vid=3022497e-9a24-4d16-b5d2-78aa7c07375d","ios":"levelo://app?vid=3022497e-9a24-4d16-b5d2-78aa7c07375d"},"vehicle_type_id":"4","last_reported":1747955415,"current_range_meters":8800,"station_id":"","pricing_plan_id":"cebpf4jnsgd1na2vs0mg"},{"bike_id":"e8e92a3e-6435-4312-b5fb-b5a6c40cca4f","system_id":"levelo_inurba_marseille","lat":43.313563,"lon":5.384972,"is_reserved":false,"is_disabled":false,"rental_uris":{"android":"levelo://app?vid=e8e92a3e-6435-4312-b5fb-b5a6c40cca4f","ios":"levelo://app?vid=e8e92a3e-6435-4312-b5fb-b5a6c40cca4f"},"vehicle_type_id":"4","last_reported":1747955415,"current_range_meters":8800,"station_id":"ce4bgt92rcd13ifvqcf0","pricing_plan_id":"cebpf4jnsgd1na2vs0mg"},{"bike_id":"b2421589-4e6b-4946-a0a8-9c5526af668b","system_id":"levelo_inurba_marseille","lat":43.240713,"lon":5.377646,"is_reserved":false,"is_disabled":false,"rental_uris":{"android":"levelo://app?vid=b2421589-4e6b-4946-a0a8-9c5526af668b","ios":"levelo://app?vid=b2421589-4e6b-4946-a0a8-9c5526af668b"},"vehicle_type_id":"4","last_reported":1747955415,"current_range_meters":8800,"station_id":"ce4bhnp2rcd13ifvqgvg","pricing_plan_id":"cebpf4jnsgd1na2vs0mg"},{"bike_id":"6f292ab3-2899-4f1b-8b79-40d26ddd0df1","system_id":"levelo_inurba_marseille","lat":43.27099,"lon":5.38507,"is_reserved":false,"is_disabled":false,"rental_uris":{"android":"levelo://app?vid=6f292ab3-2899-4f1b-8b79-40d26ddd0df1","ios":"levelo://app?vid=6f292ab3-2899-4f1b-8b79-40d26ddd0df1"},"vehicle_type_id":"4","last_reported":1747955415,"current_range_meters":8800,"station_id":"","pricing_plan_id":"cebpf4jnsgd1na2vs0mg"},{"bike_id":"950cad50-4e47-43b4-ba8e-d97ac6386634","system_id":"levelo_inurba_marseille","lat":43.25567,"lon":5.38237,"is_reserved":false,"is_disabled":false,"rental_uris":{"android":"levelo://app?vid=950cad50-4e47-43b4-ba8e-d97ac6386634","ios":"levelo://app?vid=950cad50-4e47-43b4-ba8e-d97ac6386634"},"vehicle_type_id":"4","last_reported":1747955415,"current_range_meters":8800,"station_id":"ce4bhih2rcd13ifvqfs0","pricing_plan_id":"cebpf4jnsgd1na2vs0mg"},{"bike_id":"e184a245-540f-406d-99e5-38e13bcd8797","system_id":"levelo_inurba_marseille","lat":43.25502,"lon":5.37634,"is_reserved":false,"is_disabled":false,"rental_uris":{"android":"levelo://app?vid=e184a245-540f-406d-99e5-38e13bcd8797","ios":"levelo://app?vid=e184a245-540f-406d-99e5-38e13bcd8797"},"vehicle_type_id":"4","last_reported":1747955415,"current_range_meters":9200,"station_id":"ce4bhh12rcd13ifvqff0","pricing_plan_id":"cebpf4jnsgd1na2vs0mg"},{"bike_id":"6a85369f-636f-4448-91f6-e3994a0fb52b","system_id":"levelo_inurba_marseille","lat":43.27738,"lon":5.38722,"is_reserved":false,"is_disabled":false,"rental_uris":{"android":"levelo://app?vid=6a85369f-636f-4448-91f6-e3994a0fb52b","ios":"levelo://app?vid=6a85369f-636f-4448-91f6-e3994a0fb52b"},"vehicle_type_id":"4","last_reported":1747955415,"current_range_meters":9200,"station_id":"","pricing_plan_id":"cebpf4jnsgd1na2vs0mg"},{"bike_id":"3c5bab0b-88c1-4211-939a-90ecdbd04d6e","system_id":"levelo_inurba_marseille","lat":43.28731,"lon":5.36074,"is_reserved":false,"is_disabled":false,"rental_uris":{"android":"levelo://app?vid=3c5bab0b-88c1-4211-939a-90ecdbd04d6e","ios":"levelo://app?vid=3c5bab0b-88c1-4211-939a-90ecdbd04d6e"},"vehicle_type_id":"4","last_reported":1747955415,"current_range_meters":8800,"station_id":"cki0cbj6b192h4jlfktg","pricing_plan_id":"cebpf4jnsgd1na2vs0mg"},{"bike_id":"5dc9a4bd-3265-47eb-93b1-1ebd847847d8","system_id":"levelo_inurba_marseille","lat":43.31083,"lon":5.42432,"is_reserved":false,"is_disabled":false,"rental_uris":{"android":"levelo://app?vid=5dc9a4bd-3265-47eb-93b1-1ebd847847d8","ios":"levelo://app?vid=5dc9a4bd-3265-47eb-93b1-1ebd847847d8"},"vehicle_type_id":"4","last_reported":1747955415,"current_range_meters":9200,"station_id":"ce4bhp92rcd13ifvqhag","pricing_plan_id":"cebpf4jnsgd1na2vs0mg"},{"bike_id":"fb6be265-eb83-4439-bfcc-163b25b9a602","system_id":"levelo_inurba_marseille","lat":43.27182,"lon":5.40991,"is_reserved":false,"is_disabled":false,"rental_uris":{"android":"levelo://app?vid=fb6be265-eb83-4439-bfcc-163b25b9a602","ios":"levelo://app?vid=fb6be265-eb83-4439-bfcc-163b25b9a602"},"vehicle_type_id":"4","last_reported":1747955415,"current_range_meters":9200,"station_id":"ce4bhl12rcd13ifvqgf0","pricing_plan_id":"cebpf4jnsgd1na2vs0mg"},{"bike_id":"31110881-d64f-45f8-9810-bbf84a002836","system_id":"levelo_inurba_marseille","lat":43.28346,"lon":5.4601,"is_reserved":false,"is_disabled":false,"rental_uris":{"android":"levelo://app?vid=31110881-d64f-45f8-9810-bbf84a002836","ios":"levelo://app?vid=31110881-d64f-45f8-9810-bbf84a002836"},"vehicle_type_id":"4","last_reported":1747955415,"current_range_meters":9200,"station_id":"","pricing_plan_id":"cebpf4jnsgd1na2vs0mg"},{"bike_id":"e4562ad1-0a39-4300-91ec-1f0dc2c1ff97","system_id":"levelo_inurba_marseille","lat":43.32478,"lon":5.36556,"is_reserved":false,"is_disabled":false,"rental_uris":{"android":"levelo://app?vid=e4562ad1-0a39-4300-91ec-1f0dc2c1ff97","ios":"levelo://app?vid=e4562ad1-0a39-4300-91ec-1f0dc2c1ff97"},"vehicle_type_id":"4","last_reported":1747955415,"current_range_meters":9200,"station_id":"ce4bhs12rcd13ifvqhvg","pricing_plan_id":"cebpf4jnsgd1na2vs0mg"},{"bike_id":"d5cc390d-c834-41e3-9772-e597e0b5c2da","system_id":"levelo_inurba_marseille","lat":43.251431,"lon":5.403953,"is_reserved":false,"is_disabled":false,"rental_uris":{"android":"levelo://app?vid=d5cc390d-c834-41e3-9772-e597e0b5c2da","ios":"levelo://app?vid=d5cc390d-c834-41e3-9772-e597e0b5c2da"},"vehicle_type_id":"4","last_reported":1747955415,"current_range_meters":9200,"station_id":"","pricing_plan_id":"cebpf4jnsgd1na2vs0mg"},{"bike_id":"26dffcce-923d-48d2-aeb9-22b9f556f70b","system_id":"levelo_inurba_marseille","lat":43.28031,"lon":5.36944,"is_reserved":false,"is_disabled":false,"rental_uris":{"android":"levelo://app?vid=26dffcce-923d-48d2-aeb9-22b9f556f70b","ios":"levelo://app?vid=26dffcce-923d-48d2-aeb9-22b9f556f70b"},"vehicle_type_id":"4","last_reported":1747955415,"current_range_meters":9200,"station_id":"ce4bha12rcd13ifvqef0","pricing_plan_id":"cebpf4jnsgd1na2vs0mg"},{"bike_id":"d2154540-b55c-455c-bf22-0708547dd516","system_id":"levelo_inurba_marseille","lat":43.25137,"lon":5.40323,"is_reserved":false,"is_disabled":false,"rental_uris":{"android":"levelo://app?vid=d2154540-b55c-455c-bf22-0708547dd516","ios":"levelo://app?vid=d2154540-b55c-455c-bf22-0708547dd516"},"vehicle_type_id":"4","last_reported":1747955415,"current_range_meters":9600,"station_id":"ce4bhlh2rcd13ifvqgig","pricing_plan_id":"cebpf4jnsgd1na2vs0mg"},{"bike_id":"b50982dc-c688-4ce7-bf41-cefc41d4e965","system_id":"levelo_inurba_marseille","lat":43.306475,"lon":5.400594,"is_reserved":false,"is_disabled":false,"rental_uris":{"android":"levelo://app?vid=b50982dc-c688-4ce7-bf41-cefc41d4e965","ios":"levelo://app?vid=b50982dc-c688-4ce7-bf41-cefc41d4e965"},"vehicle_type_id":"4","last_reported":1747955415,"current_range_meters":9600,"station_id":"ce4bh112rcd13ifvqda0","pricing_plan_id":"cebpf4jnsgd1na2vs0mg"},{"bike_id":"c0b3d8ef-98e0-480a-81ce-3c2423a041be","system_id":"levelo_inurba_marseille","lat":43.302,"lon":5.36612,"is_reserved":false,"is_disabled":true,"rental_uris":{"android":"levelo://app?vid=c0b3d8ef-98e0-480a-81ce-3c2423a041be","ios":"levelo://app?vid=c0b3d8ef-98e0-480a-81ce-3c2423a041be"},"vehicle_type_id":"4","last_reported":1747955415,"current_range_meters":9600,"station_id":"ce4bgrh2rcd13ifvqc8g","pricing_plan_id":"cebpf4jnsgd1na2vs0mg"},{"bike_id":"daa1fa20-a4fc-4e4c-a5e0-a46c69fa4a94","system_id":"levelo_inurba_marseille","lat":43.251165,"lon":5.403105,"is_reserved":false,"is_disabled":false,"rental_uris":{"android":"levelo://app?vid=daa1fa20-a4fc-4e4c-a5e0-a46c69fa4a94","ios":"levelo://app?vid=daa1fa20-a4fc-4e4c-a5e0-a46c69fa4a94"},"vehicle_type_id":"4","last_reported":1747955415,"current_range_meters":9600,"station_id":"ce4bhlh2rcd13ifvqgig","pricing_plan_id":"cebpf4jnsgd1na2vs0mg"},{"bike_id":"ca5d4306-f84c-4e20-9b88-830ffa4263d2","system_id":"levelo_inurba_marseille","lat":43.22935,"lon":5.35349,"is_reserved":false,"is_disabled":false,"rental_uris":{"android":"levelo://app?vid=ca5d4306-f84c-4e20-9b88-830ffa4263d2","ios":"levelo://app?vid=ca5d4306-f84c-4e20-9b88-830ffa4263d2"},"vehicle_type_id":"4","last_reported":1747955415,"current_range_meters":9600,"station_id":"cpo3532slgdg3j2ikp40","pricing_plan_id":"cebpf4jnsgd1na2vs0mg"},{"bike_id":"c06d4a6e-6860-463d-8390-d6d7ae798ce5","system_id":"levelo_inurba_marseille","lat":43.30886,"lon":5.39631,"is_reserved":false,"is_disabled":false,"rental_uris":{"android":"levelo://app?vid=c06d4a6e-6860-463d-8390-d6d7ae798ce5","ios":"levelo://app?vid=c06d4a6e-6860-463d-8390-d6d7ae798ce5"},"vehicle_type_id":"4","last_reported":1747955415,"current_range_meters":9600,"station_id":"ce4bh012rcd13ifvqcv0","pricing_plan_id":"cebpf4jnsgd1na2vs0mg"},{"bike_id":"7dfdfdc8-9c79-46b6-9a4b-924773b53f29","system_id":"levelo_inurba_marseille","lat":43.26879,"lon":5.391662,"is_reserved":false,"is_disabled":false,"rental_uris":{"android":"levelo://app?vid=7dfdfdc8-9c79-46b6-9a4b-924773b53f29","ios":"levelo://app?vid=7dfdfdc8-9c79-46b6-9a4b-924773b53f29"},"vehicle_type_id":"4","last_reported":1747955415,"current_range_meters":9600,"station_id":"","pricing_plan_id":"cebpf4jnsgd1na2vs0mg"},{"bike_id":"44304d33-9683-47e3-bc91-caadd304a557","system_id":"levelo_inurba_marseille","lat":43.27187,"lon":5.40997,"is_reserved":false,"is_disabled":true,"rental_uris":{"android":"levelo://app?vid=44304d33-9683-47e3-bc91-caadd304a557","ios":"levelo://app?vid=44304d33-9683-47e3-bc91-caadd304a557"},"vehicle_type_id":"4","last_reported":1747955415,"current_range_meters":9600,"station_id":"ce4bhl12rcd13ifvqgf0","pricing_plan_id":"cebpf4jnsgd1na2vs0mg"},{"bike_id":"f2078ae5-2f5e-4d79-b314-93d80adc7ac8","system_id":"levelo_inurba_marseille","lat":43.30441,"lon":5.38892,"is_reserved":false,"is_disabled":false,"rental_uris":{"android":"levelo://app?vid=f2078ae5-2f5e-4d79-b314-93d80adc7ac8","ios":"levelo://app?vid=f2078ae5-2f5e-4d79-b314-93d80adc7ac8"},"vehicle_type_id":"4","last_reported":1747955415,"current_range_meters":9600,"station_id":"ce4bgk12rcd13ifvqbi0","pricing_plan_id":"cebpf4jnsgd1na2vs0mg"},{"bike_id":"fb338999-43d7-40ab-8484-01e01b2819d8","system_id":"levelo_inurba_marseille","lat":43.27376,"lon":5.362485,"is_reserved":false,"is_disabled":true,"rental_uris":{"android":"levelo://app?vid=fb338999-43d7-40ab-8484-01e01b2819d8","ios":"levelo://app?vid=fb338999-43d7-40ab-8484-01e01b2819d8"},"vehicle_type_id":"4","last_reported":1747955415,"current_range_meters":9600,"station_id":"ce4bhbh2rcd13ifvqeo0","pricing_plan_id":"cebpf4jnsgd1na2vs0mg"},{"bike_id":"bc71ac0c-23e5-4f9f-8046-eae94d67cdf4","system_id":"levelo_inurba_marseille","lat":43.248068,"lon":5.374608,"is_reserved":false,"is_disabled":false,"rental_uris":{"android":"levelo://app?vid=bc71ac0c-23e5-4f9f-8046-eae94d67cdf4","ios":"levelo://app?vid=bc71ac0c-23e5-4f9f-8046-eae94d67cdf4"},"vehicle_type_id":"4","last_reported":1747955415,"current_range_meters":9600,"station_id":"ce4bhgh2rcd13ifvqfb0","pricing_plan_id":"cebpf4jnsgd1na2vs0mg"},{"bike_id":"b1f47978-a543-462a-baa9-7bb070a2cba9","system_id":"levelo_inurba_marseille","lat":43.33607,"lon":5.41003,"is_reserved":false,"is_disabled":false,"rental_uris":{"android":"levelo://app?vid=b1f47978-a543-462a-baa9-7bb070a2cba9","ios":"levelo://app?vid=b1f47978-a543-462a-baa9-7bb070a2cba9"},"vehicle_type_id":"4","last_reported":1747955415,"current_range_meters":9600,"station_id":"ce4bhqh2rcd13ifvqhmg","pricing_plan_id":"cebpf4jnsgd1na2vs0mg"},{"bike_id":"97ebe8c6-51f4-4e9c-afba-5a56e66cb0eb","system_id":"levelo_inurba_marseille","lat":43.280777,"lon":5.396537,"is_reserved":false,"is_disabled":false,"rental_uris":{"android":"levelo://app?vid=97ebe8c6-51f4-4e9c-afba-5a56e66cb0eb","ios":"levelo://app?vid=97ebe8c6-51f4-4e9c-afba-5a56e66cb0eb"},"vehicle_type_id":"4","last_reported":1747955415,"current_range_meters":10000,"station_id":"ce4bho12rcd13ifvqh2g","pricing_plan_id":"cebpf4jnsgd1na2vs0mg"},{"bike_id":"cd682ff5-8c20-4e32-9385-312636eb3939","system_id":"levelo_inurba_marseille","lat":43.25144,"lon":5.4032,"is_reserved":false,"is_disabled":false,"rental_uris":{"android":"levelo://app?vid=cd682ff5-8c20-4e32-9385-312636eb3939","ios":"levelo://app?vid=cd682ff5-8c20-4e32-9385-312636eb3939"},"vehicle_type_id":"4","last_reported":1747955415,"current_range_meters":10000,"station_id":"ce4bhlh2rcd13ifvqgig","pricing_plan_id":"cebpf4jnsgd1na2vs0mg"},{"bike_id":"e61ffd66-609d-40f0-bfdc-1af5f284f921","system_id":"levelo_inurba_marseille","lat":43.286188,"lon":5.350984,"is_reserved":false,"is_disabled":false,"rental_uris":{"android":"levelo://app?vid=e61ffd66-609d-40f0-bfdc-1af5f284f921","ios":"levelo://app?vid=e61ffd66-609d-40f0-bfdc-1af5f284f921"},"vehicle_type_id":"4","last_reported":1747955415,"current_range_meters":10000,"station_id":"ce4bhch2rcd13ifvqeug","pricing_plan_id":"cebpf4jnsgd1na2vs0mg"},{"bike_id":"77d351e7-4031-43fb-a118-368e81529b6f","system_id":"levelo_inurba_marseille","lat":43.286187,"lon":5.351052,"is_reserved":false,"is_disabled":false,"rental_uris":{"android":"levelo://app?vid=77d351e7-4031-43fb-a118-368e81529b6f","ios":"levelo://app?vid=77d351e7-4031-43fb-a118-368e81529b6f"},"vehicle_type_id":"4","last_reported":1747955415,"current_range_meters":10000,"station_id":"ce4bhch2rcd13ifvqeug","pricing_plan_id":"cebpf4jnsgd1na2vs0mg"},{"bike_id":"c2ea5a9c-8fd7-40ac-8515-427466010d70","system_id":"levelo_inurba_marseille","lat":43.321078,"lon":5.367767,"is_reserved":false,"is_disabled":false,"rental_uris":{"android":"levelo://app?vid=c2ea5a9c-8fd7-40ac-8515-427466010d70","ios":"levelo://app?vid=c2ea5a9c-8fd7-40ac-8515-427466010d70"},"vehicle_type_id":"4","last_reported":1747955415,"current_range_meters":10000,"station_id":"ce4bhrh2rcd13ifvqhug","pricing_plan_id":"cebpf4jnsgd1na2vs0mg"},{"bike_id":"3b5d9f51-416e-4a45-9f66-3a9403c36d60","system_id":"levelo_inurba_marseille","lat":43.27958,"lon":5.38694,"is_reserved":false,"is_disabled":false,"rental_uris":{"android":"levelo://app?vid=3b5d9f51-416e-4a45-9f66-3a9403c36d60","ios":"levelo://app?vid=3b5d9f51-416e-4a45-9f66-3a9403c36d60"},"vehicle_type_id":"4","last_reported":1747955415,"current_range_meters":10000,"station_id":"ce4bhg12rcd13ifvqf80","pricing_plan_id":"cebpf4jnsgd1na2vs0mg"},{"bike_id":"beba2d62-15d6-47a9-a467-1e6c70004af0","system_id":"levelo_inurba_marseille","lat":43.26027,"lon":5.37549,"is_reserved":false,"is_disabled":false,"rental_uris":{"android":"levelo://app?vid=beba2d62-15d6-47a9-a467-1e6c70004af0","ios":"levelo://app?vid=beba2d62-15d6-47a9-a467-1e6c70004af0"},"vehicle_type_id":"4","last_reported":1747955415,"current_range_meters":10800,"station_id":"ce4bhgh2rcd13ifvqfa0","pricing_plan_id":"cebpf4jnsgd1na2vs0mg"},{"bike_id":"244c5b14-4f1f-4fac-bd47-616cded14903","system_id":"levelo_inurba_marseille","lat":43.29275,"lon":5.3685,"is_reserved":false,"is_disabled":false,"rental_uris":{"android":"levelo://app?vid=244c5b14-4f1f-4fac-bd47-616cded14903","ios":"levelo://app?vid=244c5b14-4f1f-4fac-bd47-616cded14903"},"vehicle_type_id":"4","last_reported":1747955415,"current_range_meters":10800,"station_id":"ce4bhbp2rcd13ifvqesg","pricing_plan_id":"cebpf4jnsgd1na2vs0mg"},{"bike_id":"d7711212-38f9-487d-a4d4-1fb36d3675a0","system_id":"levelo_inurba_marseille","lat":43.246578,"lon":5.388797,"is_reserved":false,"is_disabled":false,"rental_uris":{"android":"levelo://app?vid=d7711212-38f9-487d-a4d4-1fb36d3675a0","ios":"levelo://app?vid=d7711212-38f9-487d-a4d4-1fb36d3675a0"},"vehicle_type_id":"4","last_reported":1747955415,"current_range_meters":10800,"station_id":"ce4bhg12rcd13ifvqf60","pricing_plan_id":"cebpf4jnsgd1na2vs0mg"},{"bike_id":"2c001321-46c5-49fc-baa0-41a5b51fafc1","system_id":"levelo_inurba_marseille","lat":43.24074,"lon":5.37755,"is_reserved":false,"is_disabled":false,"rental_uris":{"android":"levelo://app?vid=2c001321-46c5-49fc-baa0-41a5b51fafc1","ios":"levelo://app?vid=2c001321-46c5-49fc-baa0-41a5b51fafc1"},"vehicle_type_id":"4","last_reported":1747955415,"current_range_meters":10800,"station_id":"ce4bhnp2rcd13ifvqgvg","pricing_plan_id":"cebpf4jnsgd1na2vs0mg"},{"bike_id":"fc478b53-8c86-4331-b685-e08cb1f0dc78","system_id":"levelo_inurba_marseille","lat":43.284276,"lon":5.349929,"is_reserved":false,"is_disabled":false,"rental_uris":{"android":"levelo://app?vid=fc478b53-8c86-4331-b685-e08cb1f0dc78","ios":"levelo://app?vid=fc478b53-8c86-4331-b685-e08cb1f0dc78"},"vehicle_type_id":"4","last_reported":1747955415,"current_range_meters":10800,"station_id":"ce4bhbh2rcd13ifvqepg","pricing_plan_id":"cebpf4jnsgd1na2vs0mg"},{"bike_id":"bcbce528-f9d7-44b0-8e7c-a8ac87c23372","system_id":"levelo_inurba_marseille","lat":43.310846,"lon":5.424301,"is_reserved":false,"is_disabled":false,"rental_uris":{"android":"levelo://app?vid=bcbce528-f9d7-44b0-8e7c-a8ac87c23372","ios":"levelo://app?vid=bcbce528-f9d7-44b0-8e7c-a8ac87c23372"},"vehicle_type_id":"4","last_reported":1747955415,"current_range_meters":11200,"station_id":"ce4bhp92rcd13ifvqhag","pricing_plan_id":"cebpf4jnsgd1na2vs0mg"},{"bike_id":"d5ef9bfd-47f0-45d4-b59f-f18ac0ae1387","system_id":"levelo_inurba_marseille","lat":43.24051,"lon":5.37752,"is_reserved":false,"is_disabled":false,"rental_uris":{"android":"levelo://app?vid=d5ef9bfd-47f0-45d4-b59f-f18ac0ae1387","ios":"levelo://app?vid=d5ef9bfd-47f0-45d4-b59f-f18ac0ae1387"},"vehicle_type_id":"4","last_reported":1747955415,"current_range_meters":11200,"station_id":"ce4bhnp2rcd13ifvqgvg","pricing_plan_id":"cebpf4jnsgd1na2vs0mg"},{"bike_id":"32d53416-3fc4-4bf2-9313-a939b6ab6fe7","system_id":"levelo_inurba_marseille","lat":43.24184,"lon":5.3972,"is_reserved":false,"is_disabled":false,"rental_uris":{"android":"levelo://app?vid=32d53416-3fc4-4bf2-9313-a939b6ab6fe7","ios":"levelo://app?vid=32d53416-3fc4-4bf2-9313-a939b6ab6fe7"},"vehicle_type_id":"4","last_reported":1747955415,"current_range_meters":11200,"station_id":"ce4bhn12rcd13ifvqgpg","pricing_plan_id":"cebpf4jnsgd1na2vs0mg"},{"bike_id":"e1d26ee9-7978-41cf-a355-b7bc981ee8e0","system_id":"levelo_inurba_marseille","lat":43.2467,"lon":5.38162,"is_reserved":false,"is_disabled":false,"rental_uris":{"android":"levelo://app?vid=e1d26ee9-7978-41cf-a355-b7bc981ee8e0","ios":"levelo://app?vid=e1d26ee9-7978-41cf-a355-b7bc981ee8e0"},"vehicle_type_id":"4","last_reported":1747955415,"current_range_meters":11200,"station_id":"ce4bhih2rcd13ifvqfr0","pricing_plan_id":"cebpf4jnsgd1na2vs0mg"},{"bike_id":"b5f9e8c1-abe5-4841-898d-cc6d95725c25","system_id":"levelo_inurba_marseille","lat":43.24177,"lon":5.39724,"is_reserved":false,"is_disabled":false,"rental_uris":{"android":"levelo://app?vid=b5f9e8c1-abe5-4841-898d-cc6d95725c25","ios":"levelo://app?vid=b5f9e8c1-abe5-4841-898d-cc6d95725c25"},"vehicle_type_id":"4","last_reported":1747955415,"current_range_meters":11200,"station_id":"ce4bhn12rcd13ifvqgpg","pricing_plan_id":"cebpf4jnsgd1na2vs0mg"},{"bike_id":"b0e2af63-2637-422b-809d-60c963aaba68","system_id":"levelo_inurba_marseille","lat":43.28696,"lon":5.37381,"is_reserved":false,"is_disabled":false,"rental_uris":{"android":"levelo://app?vid=b0e2af63-2637-422b-809d-60c963aaba68","ios":"levelo://app?vid=b0e2af63-2637-422b-809d-60c963aaba68"},"vehicle_type_id":"4","last_reported":1747955415,"current_range_meters":11600,"station_id":"ce4bh3p2rcd13ifvqdq0","pricing_plan_id":"cebpf4jnsgd1na2vs0mg"},{"bike_id":"84f00b51-2429-41be-8a43-83978d7764de","system_id":"levelo_inurba_marseille","lat":43.280003,"lon":5.400193,"is_reserved":false,"is_disabled":false,"rental_uris":{"android":"levelo://app?vid=84f00b51-2429-41be-8a43-83978d7764de","ios":"levelo://app?vid=84f00b51-2429-41be-8a43-83978d7764de"},"vehicle_type_id":"4","last_reported":1747955415,"current_range_meters":11600,"station_id":"ce4bho92rcd13ifvqh4g","pricing_plan_id":"cebpf4jnsgd1na2vs0mg"},{"bike_id":"290aa04f-bf46-4c80-b54b-c53e6f3a978b","system_id":"levelo_inurba_marseille","lat":43.2944,"lon":5.39757,"is_reserved":false,"is_disabled":false,"rental_uris":{"android":"levelo://app?vid=290aa04f-bf46-4c80-b54b-c53e6f3a978b","ios":"levelo://app?vid=290aa04f-bf46-4c80-b54b-c53e6f3a978b"},"vehicle_type_id":"4","last_reported":1747955415,"current_range_meters":11600,"station_id":"ce4bh3h2rcd13ifvqdo0","pricing_plan_id":"cebpf4jnsgd1na2vs0mg"},{"bike_id":"82e0b8f7-3422-4587-ac56-37577d27ecdc","system_id":"levelo_inurba_marseille","lat":43.26226,"lon":5.40437,"is_reserved":false,"is_disabled":false,"rental_uris":{"android":"levelo://app?vid=82e0b8f7-3422-4587-ac56-37577d27ecdc","ios":"levelo://app?vid=82e0b8f7-3422-4587-ac56-37577d27ecdc"},"vehicle_type_id":"4","last_reported":1747955415,"current_range_meters":12000,"station_id":"ce4bhmh2rcd13ifvqgmg","pricing_plan_id":"cebpf4jnsgd1na2vs0mg"},{"bike_id":"682e8c54-3f77-4582-937b-7490f31456f6","system_id":"levelo_inurba_marseille","lat":43.258728,"lon":5.398961,"is_reserved":false,"is_disabled":false,"rental_uris":{"android":"levelo://app?vid=682e8c54-3f77-4582-937b-7490f31456f6","ios":"levelo://app?vid=682e8c54-3f77-4582-937b-7490f31456f6"},"vehicle_type_id":"4","last_reported":1747955415,"current_range_meters":12000,"station_id":"ce4bhl92rcd13ifvqghg","pricing_plan_id":"cebpf4jnsgd1na2vs0mg"},{"bike_id":"6eb8b916-4eae-4ca2-a682-410dd24a2d36","system_id":"levelo_inurba_marseille","lat":43.31078,"lon":5.38359,"is_reserved":false,"is_disabled":false,"rental_uris":{"android":"levelo://app?vid=6eb8b916-4eae-4ca2-a682-410dd24a2d36","ios":"levelo://app?vid=6eb8b916-4eae-4ca2-a682-410dd24a2d36"},"vehicle_type_id":"4","last_reported":1747955415,"current_range_meters":12000,"station_id":"ce4bgv92rcd13ifvqcr0","pricing_plan_id":"cebpf4jnsgd1na2vs0mg"},{"bike_id":"665b73db-847c-4162-be3a-f9fe18819e9a","system_id":"levelo_inurba_marseille","lat":43.286215,"lon":5.350886,"is_reserved":false,"is_disabled":false,"rental_uris":{"android":"levelo://app?vid=665b73db-847c-4162-be3a-f9fe18819e9a","ios":"levelo://app?vid=665b73db-847c-4162-be3a-f9fe18819e9a"},"vehicle_type_id":"4","last_reported":1747955415,"current_range_meters":12000,"station_id":"ce4bhch2rcd13ifvqeug","pricing_plan_id":"cebpf4jnsgd1na2vs0mg"},{"bike_id":"e77b9d43-a803-4f5c-912a-7a91f5e7da59","system_id":"levelo_inurba_marseille","lat":43.28417,"lon":5.35015,"is_reserved":false,"is_disabled":false,"rental_uris":{"android":"levelo://app?vid=e77b9d43-a803-4f5c-912a-7a91f5e7da59","ios":"levelo://app?vid=e77b9d43-a803-4f5c-912a-7a91f5e7da59"},"vehicle_type_id":"4","last_reported":1747955415,"current_range_meters":12000,"station_id":"ce4bhbh2rcd13ifvqepg","pricing_plan_id":"cebpf4jnsgd1na2vs0mg"},{"bike_id":"3ef0589e-206e-474e-a831-938094697272","system_id":"levelo_inurba_marseille","lat":43.29006,"lon":5.35607,"is_reserved":false,"is_disabled":false,"rental_uris":{"android":"levelo://app?vid=3ef0589e-206e-474e-a831-938094697272","ios":"levelo://app?vid=3ef0589e-206e-474e-a831-938094697272"},"vehicle_type_id":"4","last_reported":1747955415,"current_range_meters":12000,"station_id":"ce4bhb92rcd13ifvqen0","pricing_plan_id":"cebpf4jnsgd1na2vs0mg"},{"bike_id":"e28ac931-3ffd-4918-a141-beb765a6a446","system_id":"levelo_inurba_marseille","lat":43.25861,"lon":5.3992,"is_reserved":false,"is_disabled":false,"rental_uris":{"android":"levelo://app?vid=e28ac931-3ffd-4918-a141-beb765a6a446","ios":"levelo://app?vid=e28ac931-3ffd-4918-a141-beb765a6a446"},"vehicle_type_id":"4","last_reported":1747955415,"current_range_meters":12000,"station_id":"ce4bhl92rcd13ifvqghg","pricing_plan_id":"cebpf4jnsgd1na2vs0mg"},{"bike_id":"e3e19b90-9823-4b53-b8a7-4c599b3176c2","system_id":"levelo_inurba_marseille","lat":43.251145,"lon":5.403274,"is_reserved":false,"is_disabled":false,"rental_uris":{"android":"levelo://app?vid=e3e19b90-9823-4b53-b8a7-4c599b3176c2","ios":"levelo://app?vid=e3e19b90-9823-4b53-b8a7-4c599b3176c2"},"vehicle_type_id":"4","last_reported":1747955415,"current_range_meters":12400,"station_id":"ce4bhlh2rcd13ifvqgig","pricing_plan_id":"cebpf4jnsgd1na2vs0mg"},{"bike_id":"23d143d1-3ad0-448c-a704-752010e19e0b","system_id":"levelo_inurba_marseille","lat":43.25459,"lon":5.37644,"is_reserved":false,"is_disabled":false,"rental_uris":{"android":"levelo://app?vid=23d143d1-3ad0-448c-a704-752010e19e0b","ios":"levelo://app?vid=23d143d1-3ad0-448c-a704-752010e19e0b"},"vehicle_type_id":"4","last_reported":1747955415,"current_range_meters":12400,"station_id":"ce4bhh12rcd13ifvqff0","pricing_plan_id":"cebpf4jnsgd1na2vs0mg"},{"bike_id":"2c87c810-7a38-4e57-b8f4-53b1ff151be1","system_id":"levelo_inurba_marseille","lat":43.286173,"lon":5.351043,"is_reserved":false,"is_disabled":false,"rental_uris":{"android":"levelo://app?vid=2c87c810-7a38-4e57-b8f4-53b1ff151be1","ios":"levelo://app?vid=2c87c810-7a38-4e57-b8f4-53b1ff151be1"},"vehicle_type_id":"4","last_reported":1747955415,"current_range_meters":12400,"station_id":"ce4bhch2rcd13ifvqeug","pricing_plan_id":"cebpf4jnsgd1na2vs0mg"},{"bike_id":"525a1123-0a66-4980-b424-b7bc3ddde924","system_id":"levelo_inurba_marseille","lat":43.30645,"lon":5.40084,"is_reserved":false,"is_disabled":false,"rental_uris":{"android":"levelo://app?vid=525a1123-0a66-4980-b424-b7bc3ddde924","ios":"levelo://app?vid=525a1123-0a66-4980-b424-b7bc3ddde924"},"vehicle_type_id":"4","last_reported":1747955415,"current_range_meters":12400,"station_id":"ce4bh112rcd13ifvqda0","pricing_plan_id":"cebpf4jnsgd1na2vs0mg"},{"bike_id":"b12e85ba-1f90-411b-a117-438d637191d3","system_id":"levelo_inurba_marseille","lat":43.30643,"lon":5.40079,"is_reserved":false,"is_disabled":false,"rental_uris":{"android":"levelo://app?vid=b12e85ba-1f90-411b-a117-438d637191d3","ios":"levelo://app?vid=b12e85ba-1f90-411b-a117-438d637191d3"},"vehicle_type_id":"4","last_reported":1747955415,"current_range_meters":12800,"station_id":"ce4bh112rcd13ifvqda0","pricing_plan_id":"cebpf4jnsgd1na2vs0mg"},{"bike_id":"3e0030b5-dec3-44b2-a586-484fa4a8920f","system_id":"levelo_inurba_marseille","lat":43.29061,"lon":5.37166,"is_reserved":false,"is_disabled":false,"rental_uris":{"android":"levelo://app?vid=3e0030b5-dec3-44b2-a586-484fa4a8920f","ios":"levelo://app?vid=3e0030b5-dec3-44b2-a586-484fa4a8920f"},"vehicle_type_id":"4","last_reported":1747955415,"current_range_meters":13600,"station_id":"ce4bh5p2rcd13ifvqe4g","pricing_plan_id":"cebpf4jnsgd1na2vs0mg"},{"bike_id":"60e4ed4d-cb67-42d1-aa59-cd42a0868b56","system_id":"levelo_inurba_marseille","lat":43.241849,"lon":5.397264,"is_reserved":false,"is_disabled":false,"rental_uris":{"android":"levelo://app?vid=60e4ed4d-cb67-42d1-aa59-cd42a0868b56","ios":"levelo://app?vid=60e4ed4d-cb67-42d1-aa59-cd42a0868b56"},"vehicle_type_id":"4","last_reported":1747955415,"current_range_meters":12800,"station_id":"ce4bhn12rcd13ifvqgpg","pricing_plan_id":"cebpf4jnsgd1na2vs0mg"},{"bike_id":"eed511be-1a62-4434-a2ef-3b183c6b312b","system_id":"levelo_inurba_marseille","lat":43.3037,"lon":5.42489,"is_reserved":false,"is_disabled":false,"rental_uris":{"android":"levelo://app?vid=eed511be-1a62-4434-a2ef-3b183c6b312b","ios":"levelo://app?vid=eed511be-1a62-4434-a2ef-3b183c6b312b"},"vehicle_type_id":"4","last_reported":1747955415,"current_range_meters":12800,"station_id":"ce4bhoh2rcd13ifvqh6g","pricing_plan_id":"cebpf4jnsgd1na2vs0mg"},{"bike_id":"fd8f6f5d-a213-413a-ba2a-2c9bbbf02a79","system_id":"levelo_inurba_marseille","lat":43.279213,"lon":5.395801,"is_reserved":false,"is_disabled":false,"rental_uris":{"android":"levelo://app?vid=fd8f6f5d-a213-413a-ba2a-2c9bbbf02a79","ios":"levelo://app?vid=fd8f6f5d-a213-413a-ba2a-2c9bbbf02a79"},"vehicle_type_id":"4","last_reported":1747955415,"current_range_meters":13600,"station_id":"ce4bhf92rcd13ifvqf40","pricing_plan_id":"cebpf4jnsgd1na2vs0mg"},{"bike_id":"a160216d-3789-4d24-933b-7d7c8e97084a","system_id":"levelo_inurba_marseille","lat":43.288566,"lon":5.35853,"is_reserved":false,"is_disabled":false,"rental_uris":{"android":"levelo://app?vid=a160216d-3789-4d24-933b-7d7c8e97084a","ios":"levelo://app?vid=a160216d-3789-4d24-933b-7d7c8e97084a"},"vehicle_type_id":"4","last_reported":1747955415,"current_range_meters":13600,"station_id":"ce4bhb12rcd13ifvqem0","pricing_plan_id":"cebpf4jnsgd1na2vs0mg"},{"bike_id":"70fe806d-6b8b-4310-8fe1-5a3e8b0e57d8","system_id":"levelo_inurba_marseille","lat":43.229257,"lon":5.3537,"is_reserved":false,"is_disabled":false,"rental_uris":{"android":"levelo://app?vid=70fe806d-6b8b-4310-8fe1-5a3e8b0e57d8","ios":"levelo://app?vid=70fe806d-6b8b-4310-8fe1-5a3e8b0e57d8"},"vehicle_type_id":"4","last_reported":1747955415,"current_range_meters":13600,"station_id":"cpo3532slgdg3j2ikp40","pricing_plan_id":"cebpf4jnsgd1na2vs0mg"},{"bike_id":"85142c3d-3ba2-4b4a-bc77-ebbfc5378a88","system_id":"levelo_inurba_marseille","lat":43.25503,"lon":5.37637,"is_reserved":false,"is_disabled":false,"rental_uris":{"android":"levelo://app?vid=85142c3d-3ba2-4b4a-bc77-ebbfc5378a88","ios":"levelo://app?vid=85142c3d-3ba2-4b4a-bc77-ebbfc5378a88"},"vehicle_type_id":"4","last_reported":1747955415,"current_range_meters":12800,"station_id":"ce4bhh12rcd13ifvqff0","pricing_plan_id":"cebpf4jnsgd1na2vs0mg"},{"bike_id":"d9cedd87-60a9-44d9-b244-855865e44d16","system_id":"levelo_inurba_marseille","lat":43.26047,"lon":5.37569,"is_reserved":false,"is_disabled":false,"rental_uris":{"android":"levelo://app?vid=d9cedd87-60a9-44d9-b244-855865e44d16","ios":"levelo://app?vid=d9cedd87-60a9-44d9-b244-855865e44d16"},"vehicle_type_id":"4","last_reported":1747955415,"current_range_meters":13600,"station_id":"ce4bhgh2rcd13ifvqfa0","pricing_plan_id":"cebpf4jnsgd1na2vs0mg"},{"bike_id":"817348e2-fb05-4de7-96f6-c8b207cb8ed8","system_id":"levelo_inurba_marseille","lat":43.211973,"lon":5.350681,"is_reserved":false,"is_disabled":false,"rental_uris":{"android":"levelo://app?vid=817348e2-fb05-4de7-96f6-c8b207cb8ed8","ios":"levelo://app?vid=817348e2-fb05-4de7-96f6-c8b207cb8ed8"},"vehicle_type_id":"4","last_reported":1747955415,"current_range_meters":13600,"station_id":"st_cvj6sg6p6f1abm77japg","pricing_plan_id":"cebpf4jnsgd1na2vs0mg"},{"bike_id":"78d6a209-fed5-4de9-a5db-bd3b974836d1","system_id":"levelo_inurba_marseille","lat":43.28613,"lon":5.35093,"is_reserved":false,"is_disabled":false,"rental_uris":{"android":"levelo://app?vid=78d6a209-fed5-4de9-a5db-bd3b974836d1","ios":"levelo://app?vid=78d6a209-fed5-4de9-a5db-bd3b974836d1"},"vehicle_type_id":"4","last_reported":1747955415,"current_range_meters":14000,"station_id":"ce4bhch2rcd13ifvqeug","pricing_plan_id":"cebpf4jnsgd1na2vs0mg"},{"bike_id":"55a7da7f-07a4-449d-be63-76b2699f7dfd","system_id":"levelo_inurba_marseille","lat":43.284826,"lon":5.385688,"is_reserved":false,"is_disabled":false,"rental_uris":{"android":"levelo://app?vid=55a7da7f-07a4-449d-be63-76b2699f7dfd","ios":"levelo://app?vid=55a7da7f-07a4-449d-be63-76b2699f7dfd"},"vehicle_type_id":"4","last_reported":1747955415,"current_range_meters":14000,"station_id":"ce4bh8p2rcd13ifvqeb0","pricing_plan_id":"cebpf4jnsgd1na2vs0mg"},{"bike_id":"dc124a7c-dbfd-46bd-843a-bf0349e3f108","system_id":"levelo_inurba_marseille","lat":43.31351,"lon":5.38501,"is_reserved":false,"is_disabled":false,"rental_uris":{"android":"levelo://app?vid=dc124a7c-dbfd-46bd-843a-bf0349e3f108","ios":"levelo://app?vid=dc124a7c-dbfd-46bd-843a-bf0349e3f108"},"vehicle_type_id":"4","last_reported":1747955415,"current_range_meters":14000,"station_id":"ce4bgt92rcd13ifvqcf0","pricing_plan_id":"cebpf4jnsgd1na2vs0mg"},{"bike_id":"d084dc71-41a3-42a0-bb47-05c4c340e7ba","system_id":"levelo_inurba_marseille","lat":43.25586,"lon":5.382325,"is_reserved":false,"is_disabled":false,"rental_uris":{"android":"levelo://app?vid=d084dc71-41a3-42a0-bb47-05c4c340e7ba","ios":"levelo://app?vid=d084dc71-41a3-42a0-bb47-05c4c340e7ba"},"vehicle_type_id":"4","last_reported":1747955415,"current_range_meters":14000,"station_id":"ce4bhih2rcd13ifvqfs0","pricing_plan_id":"cebpf4jnsgd1na2vs0mg"},{"bike_id":"41bef200-0210-46a9-afd1-c001d345c4b0","system_id":"levelo_inurba_marseille","lat":43.336421,"lon":5.378233,"is_reserved":false,"is_disabled":false,"rental_uris":{"android":"levelo://app?vid=41bef200-0210-46a9-afd1-c001d345c4b0","ios":"levelo://app?vid=41bef200-0210-46a9-afd1-c001d345c4b0"},"vehicle_type_id":"4","last_reported":1747955415,"current_range_meters":14000,"station_id":"","pricing_plan_id":"cebpf4jnsgd1na2vs0mg"},{"bike_id":"eba94b44-828d-49f7-98a7-d0ee9d195143","system_id":"levelo_inurba_marseille","lat":43.31707,"lon":5.40458,"is_reserved":false,"is_disabled":false,"rental_uris":{"android":"levelo://app?vid=eba94b44-828d-49f7-98a7-d0ee9d195143","ios":"levelo://app?vid=eba94b44-828d-49f7-98a7-d0ee9d195143"},"vehicle_type_id":"4","last_reported":1747955415,"current_range_meters":14000,"station_id":"ce4bh012rcd13ifvqd00","pricing_plan_id":"cebpf4jnsgd1na2vs0mg"},{"bike_id":"33416cf4-f5b4-4c12-8feb-dff0d93413c2","system_id":"levelo_inurba_marseille","lat":43.217559,"lon":5.345931,"is_reserved":false,"is_disabled":false,"rental_uris":{"android":"levelo://app?vid=33416cf4-f5b4-4c12-8feb-dff0d93413c2","ios":"levelo://app?vid=33416cf4-f5b4-4c12-8feb-dff0d93413c2"},"vehicle_type_id":"4","last_reported":1747955415,"current_range_meters":14000,"station_id":"","pricing_plan_id":"cebpf4jnsgd1na2vs0mg"},{"bike_id":"44f061b8-068d-4a92-bca5-c53906810d3f","system_id":"levelo_inurba_marseille","lat":43.30933,"lon":5.40148,"is_reserved":false,"is_disabled":false,"rental_uris":{"android":"levelo://app?vid=44f061b8-068d-4a92-bca5-c53906810d3f","ios":"levelo://app?vid=44f061b8-068d-4a92-bca5-c53906810d3f"},"vehicle_type_id":"4","last_reported":1747955415,"current_range_meters":14000,"station_id":"ce4bgvp2rcd13ifvqct0","pricing_plan_id":"cebpf4jnsgd1na2vs0mg"},{"bike_id":"1f8f2cf8-e258-4b66-9b66-66da44b9c55c","system_id":"levelo_inurba_marseille","lat":43.30987,"lon":5.40216,"is_reserved":false,"is_disabled":false,"rental_uris":{"android":"levelo://app?vid=1f8f2cf8-e258-4b66-9b66-66da44b9c55c","ios":"levelo://app?vid=1f8f2cf8-e258-4b66-9b66-66da44b9c55c"},"vehicle_type_id":"4","last_reported":1747955415,"current_range_meters":14000,"station_id":"","pricing_plan_id":"cebpf4jnsgd1na2vs0mg"},{"bike_id":"9f460d3d-f9bb-492b-abf4-8862d9a02303","system_id":"levelo_inurba_marseille","lat":43.27922,"lon":5.39564,"is_reserved":false,"is_disabled":false,"rental_uris":{"android":"levelo://app?vid=9f460d3d-f9bb-492b-abf4-8862d9a02303","ios":"levelo://app?vid=9f460d3d-f9bb-492b-abf4-8862d9a02303"},"vehicle_type_id":"4","last_reported":1747955415,"current_range_meters":14000,"station_id":"ce4bhf92rcd13ifvqf40","pricing_plan_id":"cebpf4jnsgd1na2vs0mg"},{"bike_id":"8f318e31-6b77-4c4f-9465-912220e9e66a","system_id":"levelo_inurba_marseille","lat":43.29974,"lon":5.4005,"is_reserved":false,"is_disabled":false,"rental_uris":{"android":"levelo://app?vid=8f318e31-6b77-4c4f-9465-912220e9e66a","ios":"levelo://app?vid=8f318e31-6b77-4c4f-9465-912220e9e66a"},"vehicle_type_id":"4","last_reported":1747955415,"current_range_meters":14400,"station_id":"","pricing_plan_id":"cebpf4jnsgd1na2vs0mg"},{"bike_id":"3a1e6be1-b28c-44d5-9fff-616b72420ce6","system_id":"levelo_inurba_marseille","lat":43.32262,"lon":5.36785,"is_reserved":false,"is_disabled":false,"rental_uris":{"android":"levelo://app?vid=3a1e6be1-b28c-44d5-9fff-616b72420ce6","ios":"levelo://app?vid=3a1e6be1-b28c-44d5-9fff-616b72420ce6"},"vehicle_type_id":"4","last_reported":1747955415,"current_range_meters":14400,"station_id":"","pricing_plan_id":"cebpf4jnsgd1na2vs0mg"},{"bike_id":"0e3eeac2-af98-42ad-979a-1e08def8c0a5","system_id":"levelo_inurba_marseille","lat":43.2928,"lon":5.40116,"is_reserved":false,"is_disabled":false,"rental_uris":{"android":"levelo://app?vid=0e3eeac2-af98-42ad-979a-1e08def8c0a5","ios":"levelo://app?vid=0e3eeac2-af98-42ad-979a-1e08def8c0a5"},"vehicle_type_id":"4","last_reported":1747955415,"current_range_meters":14400,"station_id":"ce4bh312rcd13ifvqdk0","pricing_plan_id":"cebpf4jnsgd1na2vs0mg"},{"bike_id":"b4b7cb88-0621-40ae-a71e-e68719132e95","system_id":"levelo_inurba_marseille","lat":43.292263,"lon":5.360565,"is_reserved":false,"is_disabled":false,"rental_uris":{"android":"levelo://app?vid=b4b7cb88-0621-40ae-a71e-e68719132e95","ios":"levelo://app?vid=b4b7cb88-0621-40ae-a71e-e68719132e95"},"vehicle_type_id":"4","last_reported":1747955415,"current_range_meters":14400,"station_id":"ce4bhbh2rcd13ifvqeqg","pricing_plan_id":"cebpf4jnsgd1na2vs0mg"},{"bike_id":"06860ac7-5060-4573-b679-f409ec2b7a5c","system_id":"levelo_inurba_marseille","lat":43.255025,"lon":5.37651,"is_reserved":false,"is_disabled":false,"rental_uris":{"android":"levelo://app?vid=06860ac7-5060-4573-b679-f409ec2b7a5c","ios":"levelo://app?vid=06860ac7-5060-4573-b679-f409ec2b7a5c"},"vehicle_type_id":"4","last_reported":1747955415,"current_range_meters":14400,"station_id":"ce4bhh12rcd13ifvqff0","pricing_plan_id":"cebpf4jnsgd1na2vs0mg"},{"bike_id":"605be4bf-deee-4b33-a4cb-0294e9797557","system_id":"levelo_inurba_marseille","lat":43.2306,"lon":5.35475,"is_reserved":false,"is_disabled":false,"rental_uris":{"android":"levelo://app?vid=605be4bf-deee-4b33-a4cb-0294e9797557","ios":"levelo://app?vid=605be4bf-deee-4b33-a4cb-0294e9797557"},"vehicle_type_id":"4","last_reported":1747955415,"current_range_meters":14400,"station_id":"cpo3342slgdg3j2ifvpg","pricing_plan_id":"cebpf4jnsgd1na2vs0mg"},{"bike_id":"7c33674e-f645-4533-9c15-6d20a3b495ec","system_id":"levelo_inurba_marseille","lat":43.28351,"lon":5.38098,"is_reserved":false,"is_disabled":false,"rental_uris":{"android":"levelo://app?vid=7c33674e-f645-4533-9c15-6d20a3b495ec","ios":"levelo://app?vid=7c33674e-f645-4533-9c15-6d20a3b495ec"},"vehicle_type_id":"4","last_reported":1747955415,"current_range_meters":14800,"station_id":"ce4bh412rcd13ifvqdr0","pricing_plan_id":"cebpf4jnsgd1na2vs0mg"},{"bike_id":"b17f4d77-4af5-4e2c-ba22-92595ad072e2","system_id":"levelo_inurba_marseille","lat":43.246512,"lon":5.388963,"is_reserved":false,"is_disabled":false,"rental_uris":{"android":"levelo://app?vid=b17f4d77-4af5-4e2c-ba22-92595ad072e2","ios":"levelo://app?vid=b17f4d77-4af5-4e2c-ba22-92595ad072e2"},"vehicle_type_id":"4","last_reported":1747955415,"current_range_meters":14800,"station_id":"ce4bhg12rcd13ifvqf60","pricing_plan_id":"cebpf4jnsgd1na2vs0mg"},{"bike_id":"7a174cf0-49bb-442b-9787-ed977ba34ca4","system_id":"levelo_inurba_marseille","lat":43.241838,"lon":5.397206,"is_reserved":false,"is_disabled":false,"rental_uris":{"android":"levelo://app?vid=7a174cf0-49bb-442b-9787-ed977ba34ca4","ios":"levelo://app?vid=7a174cf0-49bb-442b-9787-ed977ba34ca4"},"vehicle_type_id":"4","last_reported":1747955415,"current_range_meters":14800,"station_id":"ce4bhn12rcd13ifvqgpg","pricing_plan_id":"cebpf4jnsgd1na2vs0mg"},{"bike_id":"9c0df6dd-2af8-4ae4-a6ee-0103205a2a01","system_id":"levelo_inurba_marseille","lat":43.28703,"lon":5.37389,"is_reserved":false,"is_disabled":false,"rental_uris":{"android":"levelo://app?vid=9c0df6dd-2af8-4ae4-a6ee-0103205a2a01","ios":"levelo://app?vid=9c0df6dd-2af8-4ae4-a6ee-0103205a2a01"},"vehicle_type_id":"4","last_reported":1747955415,"current_range_meters":14400,"station_id":"ce4bh3p2rcd13ifvqdq0","pricing_plan_id":"cebpf4jnsgd1na2vs0mg"},{"bike_id":"6dde22b3-be2c-4353-838d-05c85608e4d3","system_id":"levelo_inurba_marseille","lat":43.323619,"lon":5.367511,"is_reserved":false,"is_disabled":false,"rental_uris":{"android":"levelo://app?vid=6dde22b3-be2c-4353-838d-05c85608e4d3","ios":"levelo://app?vid=6dde22b3-be2c-4353-838d-05c85608e4d3"},"vehicle_type_id":"4","last_reported":1747955415,"current_range_meters":14800,"station_id":"ce4bhsh2rcd13ifvqi2g","pricing_plan_id":"cebpf4jnsgd1na2vs0mg"},{"bike_id":"1c0b0f9e-9869-4e1d-87a0-7efd1e974b3b","system_id":"levelo_inurba_marseille","lat":43.29275,"lon":5.36851,"is_reserved":false,"is_disabled":false,"rental_uris":{"android":"levelo://app?vid=1c0b0f9e-9869-4e1d-87a0-7efd1e974b3b","ios":"levelo://app?vid=1c0b0f9e-9869-4e1d-87a0-7efd1e974b3b"},"vehicle_type_id":"4","last_reported":1747955415,"current_range_meters":15200,"station_id":"ce4bhbp2rcd13ifvqesg","pricing_plan_id":"cebpf4jnsgd1na2vs0mg"},{"bike_id":"1a340bac-8012-4c7c-b50a-247d19f083a9","system_id":"levelo_inurba_marseille","lat":43.22526,"lon":5.34784,"is_reserved":false,"is_disabled":false,"rental_uris":{"android":"levelo://app?vid=1a340bac-8012-4c7c-b50a-247d19f083a9","ios":"levelo://app?vid=1a340bac-8012-4c7c-b50a-247d19f083a9"},"vehicle_type_id":"4","last_reported":1747955415,"current_range_meters":15200,"station_id":"st_cvj5dfep6f1abm77gieg","pricing_plan_id":"cebpf4jnsgd1na2vs0mg"},{"bike_id":"77b1dc6b-3ee8-4d01-b1b4-d6d11f01824a","system_id":"levelo_inurba_marseille","lat":43.30648,"lon":5.40148,"is_reserved":false,"is_disabled":false,"rental_uris":{"android":"levelo://app?vid=77b1dc6b-3ee8-4d01-b1b4-d6d11f01824a","ios":"levelo://app?vid=77b1dc6b-3ee8-4d01-b1b4-d6d11f01824a"},"vehicle_type_id":"4","last_reported":1747955415,"current_range_meters":15200,"station_id":"ce4bh112rcd13ifvqda0","pricing_plan_id":"cebpf4jnsgd1na2vs0mg"},{"bike_id":"cb7153c0-2f9d-4913-b4c7-5cc3e034b3bb","system_id":"levelo_inurba_marseille","lat":43.282199,"lon":5.390657,"is_reserved":false,"is_disabled":false,"rental_uris":{"android":"levelo://app?vid=cb7153c0-2f9d-4913-b4c7-5cc3e034b3bb","ios":"levelo://app?vid=cb7153c0-2f9d-4913-b4c7-5cc3e034b3bb"},"vehicle_type_id":"4","last_reported":1747955415,"current_range_meters":15200,"station_id":"","pricing_plan_id":"cebpf4jnsgd1na2vs0mg"},{"bike_id":"b547f121-8021-4e52-bca0-211537e13151","system_id":"levelo_inurba_marseille","lat":43.29569,"lon":5.39976,"is_reserved":false,"is_disabled":false,"rental_uris":{"android":"levelo://app?vid=b547f121-8021-4e52-bca0-211537e13151","ios":"levelo://app?vid=b547f121-8021-4e52-bca0-211537e13151"},"vehicle_type_id":"4","last_reported":1747955415,"current_range_meters":14800,"station_id":"ce4bh312rcd13ifvqdj0","pricing_plan_id":"cebpf4jnsgd1na2vs0mg"},{"bike_id":"1e164eaf-2ffb-4814-9442-b43f6b5c9f80","system_id":"levelo_inurba_marseille","lat":43.241556,"lon":5.364048,"is_reserved":false,"is_disabled":false,"rental_uris":{"android":"levelo://app?vid=1e164eaf-2ffb-4814-9442-b43f6b5c9f80","ios":"levelo://app?vid=1e164eaf-2ffb-4814-9442-b43f6b5c9f80"},"vehicle_type_id":"4","last_reported":1747955415,"current_range_meters":15200,"station_id":"cpo36qri1sfpv3e86is0","pricing_plan_id":"cebpf4jnsgd1na2vs0mg"},{"bike_id":"5c53fd65-82fd-41a3-b8fa-9542c5356de1","system_id":"levelo_inurba_marseille","lat":43.306362,"lon":5.400713,"is_reserved":false,"is_disabled":false,"rental_uris":{"android":"levelo://app?vid=5c53fd65-82fd-41a3-b8fa-9542c5356de1","ios":"levelo://app?vid=5c53fd65-82fd-41a3-b8fa-9542c5356de1"},"vehicle_type_id":"4","last_reported":1747955415,"current_range_meters":15200,"station_id":"ce4bh112rcd13ifvqda0","pricing_plan_id":"cebpf4jnsgd1na2vs0mg"},{"bike_id":"7d37bcaf-228b-4f83-987a-923c29f46b61","system_id":"levelo_inurba_marseille","lat":43.280755,"lon":5.39659,"is_reserved":false,"is_disabled":false,"rental_uris":{"android":"levelo://app?vid=7d37bcaf-228b-4f83-987a-923c29f46b61","ios":"levelo://app?vid=7d37bcaf-228b-4f83-987a-923c29f46b61"},"vehicle_type_id":"4","last_reported":1747955415,"current_range_meters":15200,"station_id":"ce4bho12rcd13ifvqh2g","pricing_plan_id":"cebpf4jnsgd1na2vs0mg"},{"bike_id":"b5d219f3-a9c3-4f8e-b8d9-c239463b65ad","system_id":"levelo_inurba_marseille","lat":43.246654,"lon":5.381674,"is_reserved":false,"is_disabled":false,"rental_uris":{"android":"levelo://app?vid=b5d219f3-a9c3-4f8e-b8d9-c239463b65ad","ios":"levelo://app?vid=b5d219f3-a9c3-4f8e-b8d9-c239463b65ad"},"vehicle_type_id":"4","last_reported":1747955415,"current_range_meters":15200,"station_id":"ce4bhih2rcd13ifvqfr0","pricing_plan_id":"cebpf4jnsgd1na2vs0mg"},{"bike_id":"356272d3-31fb-42a2-bddb-7056d8393b3b","system_id":"levelo_inurba_marseille","lat":43.280759,"lon":5.39654,"is_reserved":false,"is_disabled":false,"rental_uris":{"android":"levelo://app?vid=356272d3-31fb-42a2-bddb-7056d8393b3b","ios":"levelo://app?vid=356272d3-31fb-42a2-bddb-7056d8393b3b"},"vehicle_type_id":"4","last_reported":1747955415,"current_range_meters":15200,"station_id":"ce4bho12rcd13ifvqh2g","pricing_plan_id":"cebpf4jnsgd1na2vs0mg"},{"bike_id":"0e27a530-5aca-4bdb-bcfe-2711f03311f8","system_id":"levelo_inurba_marseille","lat":43.217599,"lon":5.345978,"is_reserved":false,"is_disabled":false,"rental_uris":{"android":"levelo://app?vid=0e27a530-5aca-4bdb-bcfe-2711f03311f8","ios":"levelo://app?vid=0e27a530-5aca-4bdb-bcfe-2711f03311f8"},"vehicle_type_id":"4","last_reported":1747955415,"current_range_meters":15200,"station_id":"st_cvj6r9ubvosntc0bgbag","pricing_plan_id":"cebpf4jnsgd1na2vs0mg"},{"bike_id":"4f2c7c91-d68d-4efe-8986-de015db4d362","system_id":"levelo_inurba_marseille","lat":43.2803,"lon":5.36945,"is_reserved":false,"is_disabled":false,"rental_uris":{"android":"levelo://app?vid=4f2c7c91-d68d-4efe-8986-de015db4d362","ios":"levelo://app?vid=4f2c7c91-d68d-4efe-8986-de015db4d362"},"vehicle_type_id":"4","last_reported":1747955415,"current_range_meters":16000,"station_id":"ce4bha12rcd13ifvqef0","pricing_plan_id":"cebpf4jnsgd1na2vs0mg"},{"bike_id":"b524f370-847d-4ec1-9ede-6a4024cf9277","system_id":"levelo_inurba_marseille","lat":43.279507,"lon":5.410496,"is_reserved":false,"is_disabled":false,"rental_uris":{"android":"levelo://app?vid=b524f370-847d-4ec1-9ede-6a4024cf9277","ios":"levelo://app?vid=b524f370-847d-4ec1-9ede-6a4024cf9277"},"vehicle_type_id":"4","last_reported":1747955415,"current_range_meters":16000,"station_id":"ce4bhnp2rcd13ifvqh0g","pricing_plan_id":"cebpf4jnsgd1na2vs0mg"},{"bike_id":"2282a231-67fe-464c-b438-14a17b052caf","system_id":"levelo_inurba_marseille","lat":43.24791,"lon":5.37473,"is_reserved":false,"is_disabled":false,"rental_uris":{"android":"levelo://app?vid=2282a231-67fe-464c-b438-14a17b052caf","ios":"levelo://app?vid=2282a231-67fe-464c-b438-14a17b052caf"},"vehicle_type_id":"4","last_reported":1747955415,"current_range_meters":16000,"station_id":"ce4bhgh2rcd13ifvqfb0","pricing_plan_id":"cebpf4jnsgd1na2vs0mg"},{"bike_id":"124d038b-39ac-4185-9861-0d91e8953561","system_id":"levelo_inurba_marseille","lat":43.313838,"lon":5.38495,"is_reserved":false,"is_disabled":false,"rental_uris":{"android":"levelo://app?vid=124d038b-39ac-4185-9861-0d91e8953561","ios":"levelo://app?vid=124d038b-39ac-4185-9861-0d91e8953561"},"vehicle_type_id":"4","last_reported":1747955415,"current_range_meters":16000,"station_id":"ce4bgt92rcd13ifvqcf0","pricing_plan_id":"cebpf4jnsgd1na2vs0mg"},{"bike_id":"beb93ece-8a2b-401d-b7e3-ad77b01ce941","system_id":"levelo_inurba_marseille","lat":43.217531,"lon":5.345986,"is_reserved":false,"is_disabled":false,"rental_uris":{"android":"levelo://app?vid=beb93ece-8a2b-401d-b7e3-ad77b01ce941","ios":"levelo://app?vid=beb93ece-8a2b-401d-b7e3-ad77b01ce941"},"vehicle_type_id":"4","last_reported":1747955415,"current_range_meters":16000,"station_id":"st_cvj6r9ubvosntc0bgbag","pricing_plan_id":"cebpf4jnsgd1na2vs0mg"},{"bike_id":"8f5ad702-5ff8-41ee-b034-3d5a2428c0c5","system_id":"levelo_inurba_marseille","lat":43.251098,"lon":5.403253,"is_reserved":false,"is_disabled":false,"rental_uris":{"android":"levelo://app?vid=8f5ad702-5ff8-41ee-b034-3d5a2428c0c5","ios":"levelo://app?vid=8f5ad702-5ff8-41ee-b034-3d5a2428c0c5"},"vehicle_type_id":"4","last_reported":1747955415,"current_range_meters":16000,"station_id":"ce4bhlh2rcd13ifvqgig","pricing_plan_id":"cebpf4jnsgd1na2vs0mg"},{"bike_id":"efb53ea1-49c1-4efa-b078-f1dbccc260cf","system_id":"levelo_inurba_marseille","lat":43.27212,"lon":5.39182,"is_reserved":false,"is_disabled":false,"rental_uris":{"android":"levelo://app?vid=efb53ea1-49c1-4efa-b078-f1dbccc260cf","ios":"levelo://app?vid=efb53ea1-49c1-4efa-b078-f1dbccc260cf"},"vehicle_type_id":"4","last_reported":1747955415,"current_range_meters":15200,"station_id":"ce4bhhp2rcd13ifvqfm0","pricing_plan_id":"cebpf4jnsgd1na2vs0mg"},{"bike_id":"0fd9ce8e-0202-4555-be94-2223a47ec615","system_id":"levelo_inurba_marseille","lat":43.30651,"lon":5.40068,"is_reserved":false,"is_disabled":false,"rental_uris":{"android":"levelo://app?vid=0fd9ce8e-0202-4555-be94-2223a47ec615","ios":"levelo://app?vid=0fd9ce8e-0202-4555-be94-2223a47ec615"},"vehicle_type_id":"4","last_reported":1747955415,"current_range_meters":16000,"station_id":"ce4bh112rcd13ifvqda0","pricing_plan_id":"cebpf4jnsgd1na2vs0mg"},{"bike_id":"b138d1cc-9fe4-4dad-b078-790748d99d8e","system_id":"levelo_inurba_marseille","lat":43.273749,"lon":5.362513,"is_reserved":false,"is_disabled":false,"rental_uris":{"android":"levelo://app?vid=b138d1cc-9fe4-4dad-b078-790748d99d8e","ios":"levelo://app?vid=b138d1cc-9fe4-4dad-b078-790748d99d8e"},"vehicle_type_id":"4","last_reported":1747955415,"current_range_meters":16000,"station_id":"ce4bhbh2rcd13ifvqeo0","pricing_plan_id":"cebpf4jnsgd1na2vs0mg"},{"bike_id":"7c125543-8f8b-41ce-be6e-fce514026096","system_id":"levelo_inurba_marseille","lat":43.29196,"lon":5.35803,"is_reserved":false,"is_disabled":false,"rental_uris":{"android":"levelo://app?vid=7c125543-8f8b-41ce-be6e-fce514026096","ios":"levelo://app?vid=7c125543-8f8b-41ce-be6e-fce514026096"},"vehicle_type_id":"4","last_reported":1747955415,"current_range_meters":16400,"station_id":"ce4bhb12rcd13ifvqel0","pricing_plan_id":"cebpf4jnsgd1na2vs0mg"},{"bike_id":"c7896a7d-b73c-4ce8-91f1-7fbe5362b2e3","system_id":"levelo_inurba_marseille","lat":43.32363,"lon":5.36766,"is_reserved":false,"is_disabled":false,"rental_uris":{"android":"levelo://app?vid=c7896a7d-b73c-4ce8-91f1-7fbe5362b2e3","ios":"levelo://app?vid=c7896a7d-b73c-4ce8-91f1-7fbe5362b2e3"},"vehicle_type_id":"4","last_reported":1747955415,"current_range_meters":16400,"station_id":"ce4bhsh2rcd13ifvqi2g","pricing_plan_id":"cebpf4jnsgd1na2vs0mg"},{"bike_id":"a63517d6-1d09-4803-a217-893c80757b63","system_id":"levelo_inurba_marseille","lat":43.28404,"lon":5.34977,"is_reserved":false,"is_disabled":false,"rental_uris":{"android":"levelo://app?vid=a63517d6-1d09-4803-a217-893c80757b63","ios":"levelo://app?vid=a63517d6-1d09-4803-a217-893c80757b63"},"vehicle_type_id":"4","last_reported":1747955415,"current_range_meters":16400,"station_id":"ce4bhbh2rcd13ifvqepg","pricing_plan_id":"cebpf4jnsgd1na2vs0mg"},{"bike_id":"1daed858-eab9-44a6-990a-cd3dc3a8078f","system_id":"levelo_inurba_marseille","lat":43.24081,"lon":5.377342,"is_reserved":false,"is_disabled":true,"rental_uris":{"android":"levelo://app?vid=1daed858-eab9-44a6-990a-cd3dc3a8078f","ios":"levelo://app?vid=1daed858-eab9-44a6-990a-cd3dc3a8078f"},"vehicle_type_id":"4","last_reported":1747955415,"current_range_meters":16400,"station_id":"ce4bhnp2rcd13ifvqgvg","pricing_plan_id":"cebpf4jnsgd1na2vs0mg"},{"bike_id":"3f66cb67-d77d-438d-9cea-3915d2842f58","system_id":"levelo_inurba_marseille","lat":43.31478,"lon":5.37298,"is_reserved":false,"is_disabled":false,"rental_uris":{"android":"levelo://app?vid=3f66cb67-d77d-438d-9cea-3915d2842f58","ios":"levelo://app?vid=3f66cb67-d77d-438d-9cea-3915d2842f58"},"vehicle_type_id":"4","last_reported":1747955415,"current_range_meters":16400,"station_id":"ce4bgt12rcd13ifvqcd0","pricing_plan_id":"cebpf4jnsgd1na2vs0mg"},{"bike_id":"6551eb7c-3b9e-4dfa-884c-9eb21912501f","system_id":"levelo_inurba_marseille","lat":43.28704,"lon":5.37383,"is_reserved":false,"is_disabled":false,"rental_uris":{"android":"levelo://app?vid=6551eb7c-3b9e-4dfa-884c-9eb21912501f","ios":"levelo://app?vid=6551eb7c-3b9e-4dfa-884c-9eb21912501f"},"vehicle_type_id":"4","last_reported":1747955415,"current_range_meters":16400,"station_id":"ce4bh3p2rcd13ifvqdq0","pricing_plan_id":"cebpf4jnsgd1na2vs0mg"},{"bike_id":"7221b0b2-e8b1-422d-b154-3a7361668a1e","system_id":"levelo_inurba_marseille","lat":43.299593,"lon":5.413228,"is_reserved":false,"is_disabled":false,"rental_uris":{"android":"levelo://app?vid=7221b0b2-e8b1-422d-b154-3a7361668a1e","ios":"levelo://app?vid=7221b0b2-e8b1-422d-b154-3a7361668a1e"},"vehicle_type_id":"4","last_reported":1747955415,"current_range_meters":16000,"station_id":"ce4bhp12rcd13ifvqh9g","pricing_plan_id":"cebpf4jnsgd1na2vs0mg"},{"bike_id":"9dfb58ea-b4a0-4dcc-89df-86dde419a48f","system_id":"levelo_inurba_marseille","lat":43.31115,"lon":5.37771,"is_reserved":false,"is_disabled":false,"rental_uris":{"android":"levelo://app?vid=9dfb58ea-b4a0-4dcc-89df-86dde419a48f","ios":"levelo://app?vid=9dfb58ea-b4a0-4dcc-89df-86dde419a48f"},"vehicle_type_id":"4","last_reported":1747955415,"current_range_meters":16400,"station_id":"ce4bgt92rcd13ifvqcg0","pricing_plan_id":"cebpf4jnsgd1na2vs0mg"},{"bike_id":"d490691b-9a9e-4395-8762-22362bdd30b7","system_id":"levelo_inurba_marseille","lat":43.30328,"lon":5.4044,"is_reserved":false,"is_disabled":false,"rental_uris":{"android":"levelo://app?vid=d490691b-9a9e-4395-8762-22362bdd30b7","ios":"levelo://app?vid=d490691b-9a9e-4395-8762-22362bdd30b7"},"vehicle_type_id":"4","last_reported":1747955415,"current_range_meters":16400,"station_id":"ce4bh012rcd13ifvqd10","pricing_plan_id":"cebpf4jnsgd1na2vs0mg"},{"bike_id":"c6bf2e46-fb2f-4485-b1e5-f93500b0678b","system_id":"levelo_inurba_marseille","lat":43.2305,"lon":5.35477,"is_reserved":false,"is_disabled":false,"rental_uris":{"android":"levelo://app?vid=c6bf2e46-fb2f-4485-b1e5-f93500b0678b","ios":"levelo://app?vid=c6bf2e46-fb2f-4485-b1e5-f93500b0678b"},"vehicle_type_id":"4","last_reported":1747955415,"current_range_meters":16400,"station_id":"cpo3342slgdg3j2ifvpg","pricing_plan_id":"cebpf4jnsgd1na2vs0mg"},{"bike_id":"a798eef8-c007-4e16-853c-244b6e137a9a","system_id":"levelo_inurba_marseille","lat":43.28426,"lon":5.34986,"is_reserved":false,"is_disabled":false,"rental_uris":{"android":"levelo://app?vid=a798eef8-c007-4e16-853c-244b6e137a9a","ios":"levelo://app?vid=a798eef8-c007-4e16-853c-244b6e137a9a"},"vehicle_type_id":"4","last_reported":1747955415,"current_range_meters":16400,"station_id":"ce4bhbh2rcd13ifvqepg","pricing_plan_id":"cebpf4jnsgd1na2vs0mg"},{"bike_id":"34d4113c-1559-4750-a287-aa6c21337605","system_id":"levelo_inurba_marseille","lat":43.2925,"lon":5.40174,"is_reserved":false,"is_disabled":false,"rental_uris":{"android":"levelo://app?vid=34d4113c-1559-4750-a287-aa6c21337605","ios":"levelo://app?vid=34d4113c-1559-4750-a287-aa6c21337605"},"vehicle_type_id":"4","last_reported":1747955415,"current_range_meters":16800,"station_id":"ce4bh312rcd13ifvqdk0","pricing_plan_id":"cebpf4jnsgd1na2vs0mg"},{"bike_id":"3c627d69-a2b4-4f60-8a0a-c04c968f8c35","system_id":"levelo_inurba_marseille","lat":43.2172,"lon":5.34583,"is_reserved":false,"is_disabled":false,"rental_uris":{"android":"levelo://app?vid=3c627d69-a2b4-4f60-8a0a-c04c968f8c35","ios":"levelo://app?vid=3c627d69-a2b4-4f60-8a0a-c04c968f8c35"},"vehicle_type_id":"4","last_reported":1747955415,"current_range_meters":16800,"station_id":"st_cvj6r9ubvosntc0bgbag","pricing_plan_id":"cebpf4jnsgd1na2vs0mg"},{"bike_id":"ad28e2f8-38a2-4c91-945b-6eaeb4ede8f1","system_id":"levelo_inurba_marseille","lat":43.251109,"lon":5.403291,"is_reserved":false,"is_disabled":false,"rental_uris":{"android":"levelo://app?vid=ad28e2f8-38a2-4c91-945b-6eaeb4ede8f1","ios":"levelo://app?vid=ad28e2f8-38a2-4c91-945b-6eaeb4ede8f1"},"vehicle_type_id":"4","last_reported":1747955415,"current_range_meters":16800,"station_id":"ce4bhlh2rcd13ifvqgig","pricing_plan_id":"cebpf4jnsgd1na2vs0mg"},{"bike_id":"09d83860-6c8c-4fa0-a8b8-a20938dec2c1","system_id":"levelo_inurba_marseille","lat":43.30448,"lon":5.3974,"is_reserved":false,"is_disabled":false,"rental_uris":{"android":"levelo://app?vid=09d83860-6c8c-4fa0-a8b8-a20938dec2c1","ios":"levelo://app?vid=09d83860-6c8c-4fa0-a8b8-a20938dec2c1"},"vehicle_type_id":"4","last_reported":1747955415,"current_range_meters":16800,"station_id":"ce4bh092rcd13ifvqd20","pricing_plan_id":"cebpf4jnsgd1na2vs0mg"},{"bike_id":"89651539-cdcb-4f5e-8fbc-6ae98d671197","system_id":"levelo_inurba_marseille","lat":43.298961,"lon":5.436545,"is_reserved":false,"is_disabled":false,"rental_uris":{"android":"levelo://app?vid=89651539-cdcb-4f5e-8fbc-6ae98d671197","ios":"levelo://app?vid=89651539-cdcb-4f5e-8fbc-6ae98d671197"},"vehicle_type_id":"4","last_reported":1747955415,"current_range_meters":16800,"station_id":"ce4bhpp2rcd13ifvqhfg","pricing_plan_id":"cebpf4jnsgd1na2vs0mg"},{"bike_id":"1f6bca8b-903e-498d-8ef0-7f16f5de50b5","system_id":"levelo_inurba_marseille","lat":43.28948,"lon":5.36386,"is_reserved":false,"is_disabled":true,"rental_uris":{"android":"levelo://app?vid=1f6bca8b-903e-498d-8ef0-7f16f5de50b5","ios":"levelo://app?vid=1f6bca8b-903e-498d-8ef0-7f16f5de50b5"},"vehicle_type_id":"4","last_reported":1747955415,"current_range_meters":16800,"station_id":"ce4bhc92rcd13ifvqetg","pricing_plan_id":"cebpf4jnsgd1na2vs0mg"},{"bike_id":"9b6564bd-c549-4a66-83d1-ae24a73fef06","system_id":"levelo_inurba_marseille","lat":43.29282,"lon":5.40121,"is_reserved":false,"is_disabled":false,"rental_uris":{"android":"levelo://app?vid=9b6564bd-c549-4a66-83d1-ae24a73fef06","ios":"levelo://app?vid=9b6564bd-c549-4a66-83d1-ae24a73fef06"},"vehicle_type_id":"4","last_reported":1747955415,"current_range_meters":16800,"station_id":"ce4bh312rcd13ifvqdk0","pricing_plan_id":"cebpf4jnsgd1na2vs0mg"},{"bike_id":"03c27706-dafc-4e44-b173-3742dda15e11","system_id":"levelo_inurba_marseille","lat":43.23183,"lon":5.35545,"is_reserved":false,"is_disabled":false,"rental_uris":{"android":"levelo://app?vid=03c27706-dafc-4e44-b173-3742dda15e11","ios":"levelo://app?vid=03c27706-dafc-4e44-b173-3742dda15e11"},"vehicle_type_id":"4","last_reported":1747955415,"current_range_meters":16800,"station_id":"ce4bhu92rcd13ifvqi70","pricing_plan_id":"cebpf4jnsgd1na2vs0mg"},{"bike_id":"385a65af-0f0c-4b2d-bfb3-0a61e71f87d1","system_id":"levelo_inurba_marseille","lat":43.28622,"lon":5.35085,"is_reserved":false,"is_disabled":false,"rental_uris":{"android":"levelo://app?vid=385a65af-0f0c-4b2d-bfb3-0a61e71f87d1","ios":"levelo://app?vid=385a65af-0f0c-4b2d-bfb3-0a61e71f87d1"},"vehicle_type_id":"4","last_reported":1747955415,"current_range_meters":17200,"station_id":"ce4bhch2rcd13ifvqeug","pricing_plan_id":"cebpf4jnsgd1na2vs0mg"},{"bike_id":"88369cac-7b7c-4aa9-940f-328dcc1ff633","system_id":"levelo_inurba_marseille","lat":43.24788,"lon":5.37452,"is_reserved":false,"is_disabled":false,"rental_uris":{"android":"levelo://app?vid=88369cac-7b7c-4aa9-940f-328dcc1ff633","ios":"levelo://app?vid=88369cac-7b7c-4aa9-940f-328dcc1ff633"},"vehicle_type_id":"4","last_reported":1747955415,"current_range_meters":17200,"station_id":"ce4bhgh2rcd13ifvqfb0","pricing_plan_id":"cebpf4jnsgd1na2vs0mg"},{"bike_id":"a90f8e9a-f6e2-4b3d-9d6c-5156fa8f0a33","system_id":"levelo_inurba_marseille","lat":43.23205,"lon":5.3552,"is_reserved":false,"is_disabled":false,"rental_uris":{"android":"levelo://app?vid=a90f8e9a-f6e2-4b3d-9d6c-5156fa8f0a33","ios":"levelo://app?vid=a90f8e9a-f6e2-4b3d-9d6c-5156fa8f0a33"},"vehicle_type_id":"4","last_reported":1747955415,"current_range_meters":17200,"station_id":"ce4bhu92rcd13ifvqi70","pricing_plan_id":"cebpf4jnsgd1na2vs0mg"},{"bike_id":"d2cc243e-031f-4e1f-8668-89352a577155","system_id":"levelo_inurba_marseille","lat":43.28006,"lon":5.40006,"is_reserved":false,"is_disabled":false,"rental_uris":{"android":"levelo://app?vid=d2cc243e-031f-4e1f-8668-89352a577155","ios":"levelo://app?vid=d2cc243e-031f-4e1f-8668-89352a577155"},"vehicle_type_id":"4","last_reported":1747955415,"current_range_meters":17200,"station_id":"ce4bho92rcd13ifvqh4g","pricing_plan_id":"cebpf4jnsgd1na2vs0mg"},{"bike_id":"59e86a7a-e8b9-481c-93cf-968bdb5ba166","system_id":"levelo_inurba_marseille","lat":43.212,"lon":5.35097,"is_reserved":false,"is_disabled":false,"rental_uris":{"android":"levelo://app?vid=59e86a7a-e8b9-481c-93cf-968bdb5ba166","ios":"levelo://app?vid=59e86a7a-e8b9-481c-93cf-968bdb5ba166"},"vehicle_type_id":"4","last_reported":1747955415,"current_range_meters":17200,"station_id":"st_cvj6sg6p6f1abm77japg","pricing_plan_id":"cebpf4jnsgd1na2vs0mg"},{"bike_id":"6a4c7252-44b1-49df-a0f9-8b8fe5610dac","system_id":"levelo_inurba_marseille","lat":43.270574,"lon":5.40257,"is_reserved":false,"is_disabled":false,"rental_uris":{"android":"levelo://app?vid=6a4c7252-44b1-49df-a0f9-8b8fe5610dac","ios":"levelo://app?vid=6a4c7252-44b1-49df-a0f9-8b8fe5610dac"},"vehicle_type_id":"4","last_reported":1747955415,"current_range_meters":17200,"station_id":"ce4bhk92rcd13ifvqgc0","pricing_plan_id":"cebpf4jnsgd1na2vs0mg"},{"bike_id":"7a5bbfb1-dafb-4777-8f4b-4b1e0e7c5d19","system_id":"levelo_inurba_marseille","lat":43.2737,"lon":5.36239,"is_reserved":false,"is_disabled":false,"rental_uris":{"android":"levelo://app?vid=7a5bbfb1-dafb-4777-8f4b-4b1e0e7c5d19","ios":"levelo://app?vid=7a5bbfb1-dafb-4777-8f4b-4b1e0e7c5d19"},"vehicle_type_id":"4","last_reported":1747955415,"current_range_meters":17200,"station_id":"ce4bhbh2rcd13ifvqeo0","pricing_plan_id":"cebpf4jnsgd1na2vs0mg"},{"bike_id":"52d01f9b-55dd-44ba-9e97-fc48dc0990fd","system_id":"levelo_inurba_marseille","lat":43.29442,"lon":5.397507,"is_reserved":false,"is_disabled":false,"rental_uris":{"android":"levelo://app?vid=52d01f9b-55dd-44ba-9e97-fc48dc0990fd","ios":"levelo://app?vid=52d01f9b-55dd-44ba-9e97-fc48dc0990fd"},"vehicle_type_id":"4","last_reported":1747955415,"current_range_meters":17200,"station_id":"ce4bh3h2rcd13ifvqdo0","pricing_plan_id":"cebpf4jnsgd1na2vs0mg"},{"bike_id":"fc8c72ad-ca61-42c6-ae90-f61b57e45328","system_id":"levelo_inurba_marseille","lat":43.279001,"lon":5.418588,"is_reserved":false,"is_disabled":false,"rental_uris":{"android":"levelo://app?vid=fc8c72ad-ca61-42c6-ae90-f61b57e45328","ios":"levelo://app?vid=fc8c72ad-ca61-42c6-ae90-f61b57e45328"},"vehicle_type_id":"4","last_reported":1747955415,"current_range_meters":17600,"station_id":"","pricing_plan_id":"cebpf4jnsgd1na2vs0mg"},{"bike_id":"3a286402-74d8-43fe-bbea-bd87cdef6b45","system_id":"levelo_inurba_marseille","lat":43.27678,"lon":5.38866,"is_reserved":false,"is_disabled":false,"rental_uris":{"android":"levelo://app?vid=3a286402-74d8-43fe-bbea-bd87cdef6b45","ios":"levelo://app?vid=3a286402-74d8-43fe-bbea-bd87cdef6b45"},"vehicle_type_id":"4","last_reported":1747955415,"current_range_meters":17200,"station_id":"ce4bhi12rcd13ifvqfo0","pricing_plan_id":"cebpf4jnsgd1na2vs0mg"},{"bike_id":"3df8af3d-f2ba-4f97-9a85-703e222bd030","system_id":"levelo_inurba_marseille","lat":43.30891,"lon":5.39657,"is_reserved":false,"is_disabled":false,"rental_uris":{"android":"levelo://app?vid=3df8af3d-f2ba-4f97-9a85-703e222bd030","ios":"levelo://app?vid=3df8af3d-f2ba-4f97-9a85-703e222bd030"},"vehicle_type_id":"4","last_reported":1747955415,"current_range_meters":17600,"station_id":"ce4bh012rcd13ifvqcv0","pricing_plan_id":"cebpf4jnsgd1na2vs0mg"},{"bike_id":"a43ff10e-2c97-4249-ab0b-56ac8fce5a8c","system_id":"levelo_inurba_marseille","lat":43.289404,"lon":5.364028,"is_reserved":false,"is_disabled":false,"rental_uris":{"android":"levelo://app?vid=a43ff10e-2c97-4249-ab0b-56ac8fce5a8c","ios":"levelo://app?vid=a43ff10e-2c97-4249-ab0b-56ac8fce5a8c"},"vehicle_type_id":"4","last_reported":1747955415,"current_range_meters":17600,"station_id":"ce4bhc92rcd13ifvqetg","pricing_plan_id":"cebpf4jnsgd1na2vs0mg"},{"bike_id":"3018d689-e596-4461-b1de-4f7fdc55911e","system_id":"levelo_inurba_marseille","lat":43.28623,"lon":5.35095,"is_reserved":false,"is_disabled":false,"rental_uris":{"android":"levelo://app?vid=3018d689-e596-4461-b1de-4f7fdc55911e","ios":"levelo://app?vid=3018d689-e596-4461-b1de-4f7fdc55911e"},"vehicle_type_id":"4","last_reported":1747955415,"current_range_meters":17600,"station_id":"ce4bhch2rcd13ifvqeug","pricing_plan_id":"cebpf4jnsgd1na2vs0mg"},{"bike_id":"840f050a-655e-4426-a41f-bf4f758fbc6c","system_id":"levelo_inurba_marseille","lat":43.28939,"lon":5.39617,"is_reserved":false,"is_disabled":false,"rental_uris":{"android":"levelo://app?vid=840f050a-655e-4426-a41f-bf4f758fbc6c","ios":"levelo://app?vid=840f050a-655e-4426-a41f-bf4f758fbc6c"},"vehicle_type_id":"4","last_reported":1747955415,"current_range_meters":17600,"station_id":"ce4bh3h2rcd13ifvqdn0","pricing_plan_id":"cebpf4jnsgd1na2vs0mg"},{"bike_id":"f84e7850-4e38-4a2f-8058-4b5888bcc49b","system_id":"levelo_inurba_marseille","lat":43.32147,"lon":5.36778,"is_reserved":false,"is_disabled":false,"rental_uris":{"android":"levelo://app?vid=f84e7850-4e38-4a2f-8058-4b5888bcc49b","ios":"levelo://app?vid=f84e7850-4e38-4a2f-8058-4b5888bcc49b"},"vehicle_type_id":"4","last_reported":1747955415,"current_range_meters":18000,"station_id":"","pricing_plan_id":"cebpf4jnsgd1na2vs0mg"},{"bike_id":"ee691d4e-a26d-4171-8fbd-6def5ed786af","system_id":"levelo_inurba_marseille","lat":43.288368,"lon":5.358762,"is_reserved":false,"is_disabled":true,"rental_uris":{"android":"levelo://app?vid=ee691d4e-a26d-4171-8fbd-6def5ed786af","ios":"levelo://app?vid=ee691d4e-a26d-4171-8fbd-6def5ed786af"},"vehicle_type_id":"4","last_reported":1747955415,"current_range_meters":18000,"station_id":"ce4bhb12rcd13ifvqem0","pricing_plan_id":"cebpf4jnsgd1na2vs0mg"},{"bike_id":"75e91607-f093-41b1-947a-69b62fe724b6","system_id":"levelo_inurba_marseille","lat":43.346878,"lon":5.345384,"is_reserved":false,"is_disabled":false,"rental_uris":{"android":"levelo://app?vid=75e91607-f093-41b1-947a-69b62fe724b6","ios":"levelo://app?vid=75e91607-f093-41b1-947a-69b62fe724b6"},"vehicle_type_id":"4","last_reported":1747955415,"current_range_meters":18000,"station_id":"","pricing_plan_id":"cebpf4jnsgd1na2vs0mg"},{"bike_id":"f461d1e0-6d79-46b1-b321-3dbe076220d4","system_id":"levelo_inurba_marseille","lat":43.28627,"lon":5.35064,"is_reserved":false,"is_disabled":false,"rental_uris":{"android":"levelo://app?vid=f461d1e0-6d79-46b1-b321-3dbe076220d4","ios":"levelo://app?vid=f461d1e0-6d79-46b1-b321-3dbe076220d4"},"vehicle_type_id":"4","last_reported":1747955415,"current_range_meters":18000,"station_id":"ce4bhch2rcd13ifvqeug","pricing_plan_id":"cebpf4jnsgd1na2vs0mg"},{"bike_id":"77f30024-81a0-4787-8c59-87f17c670108","system_id":"levelo_inurba_marseille","lat":43.212029,"lon":5.350779,"is_reserved":false,"is_disabled":false,"rental_uris":{"android":"levelo://app?vid=77f30024-81a0-4787-8c59-87f17c670108","ios":"levelo://app?vid=77f30024-81a0-4787-8c59-87f17c670108"},"vehicle_type_id":"4","last_reported":1747955415,"current_range_meters":18000,"station_id":"st_cvj6sg6p6f1abm77japg","pricing_plan_id":"cebpf4jnsgd1na2vs0mg"},{"bike_id":"01e09790-234a-4c0f-85e6-b033b224dd39","system_id":"levelo_inurba_marseille","lat":43.25868,"lon":5.398927,"is_reserved":false,"is_disabled":false,"rental_uris":{"android":"levelo://app?vid=01e09790-234a-4c0f-85e6-b033b224dd39","ios":"levelo://app?vid=01e09790-234a-4c0f-85e6-b033b224dd39"},"vehicle_type_id":"4","last_reported":1747955415,"current_range_meters":18000,"station_id":"ce4bhl92rcd13ifvqghg","pricing_plan_id":"cebpf4jnsgd1na2vs0mg"},{"bike_id":"33c323cb-a07e-4648-a17c-2e400a29ab0c","system_id":"levelo_inurba_marseille","lat":43.23962,"lon":5.36633,"is_reserved":false,"is_disabled":false,"rental_uris":{"android":"levelo://app?vid=33c323cb-a07e-4648-a17c-2e400a29ab0c","ios":"levelo://app?vid=33c323cb-a07e-4648-a17c-2e400a29ab0c"},"vehicle_type_id":"4","last_reported":1747955415,"current_range_meters":18000,"station_id":"ce4bhi12rcd13ifvqfp0","pricing_plan_id":"cebpf4jnsgd1na2vs0mg"},{"bike_id":"c10e3d58-9804-4ac0-a19d-28f8a995d759","system_id":"levelo_inurba_marseille","lat":43.2582,"lon":5.39437,"is_reserved":false,"is_disabled":false,"rental_uris":{"android":"levelo://app?vid=c10e3d58-9804-4ac0-a19d-28f8a995d759","ios":"levelo://app?vid=c10e3d58-9804-4ac0-a19d-28f8a995d759"},"vehicle_type_id":"4","last_reported":1747955415,"current_range_meters":18000,"station_id":"ce4bhip2rcd13ifvqft0","pricing_plan_id":"cebpf4jnsgd1na2vs0mg"},{"bike_id":"1d95ccfd-fd6b-4697-91cf-ffb5b8e4ce88","system_id":"levelo_inurba_marseille","lat":43.26211,"lon":5.37439,"is_reserved":false,"is_disabled":false,"rental_uris":{"android":"levelo://app?vid=1d95ccfd-fd6b-4697-91cf-ffb5b8e4ce88","ios":"levelo://app?vid=1d95ccfd-fd6b-4697-91cf-ffb5b8e4ce88"},"vehicle_type_id":"4","last_reported":1747955415,"current_range_meters":18000,"station_id":"ce4bhgp2rcd13ifvqfc0","pricing_plan_id":"cebpf4jnsgd1na2vs0mg"},{"bike_id":"f9a7351f-1dd1-42b7-aec4-8a5d40ff7dc4","system_id":"levelo_inurba_marseille","lat":43.28676,"lon":5.36338,"is_reserved":false,"is_disabled":false,"rental_uris":{"android":"levelo://app?vid=f9a7351f-1dd1-42b7-aec4-8a5d40ff7dc4","ios":"levelo://app?vid=f9a7351f-1dd1-42b7-aec4-8a5d40ff7dc4"},"vehicle_type_id":"4","last_reported":1747955415,"current_range_meters":18000,"station_id":"ce4bhah2rcd13ifvqej0","pricing_plan_id":"cebpf4jnsgd1na2vs0mg"},{"bike_id":"2221deb5-be1c-45be-8f51-ce44cae27970","system_id":"levelo_inurba_marseille","lat":43.3026,"lon":5.40075,"is_reserved":false,"is_disabled":false,"rental_uris":{"android":"levelo://app?vid=2221deb5-be1c-45be-8f51-ce44cae27970","ios":"levelo://app?vid=2221deb5-be1c-45be-8f51-ce44cae27970"},"vehicle_type_id":"4","last_reported":1747955415,"current_range_meters":18000,"station_id":"ce4bgvh2rcd13ifvqcs0","pricing_plan_id":"cebpf4jnsgd1na2vs0mg"},{"bike_id":"8b13014a-e70a-4d4f-a87c-96e45ce8d2dc","system_id":"levelo_inurba_marseille","lat":43.24654,"lon":5.38887,"is_reserved":false,"is_disabled":false,"rental_uris":{"android":"levelo://app?vid=8b13014a-e70a-4d4f-a87c-96e45ce8d2dc","ios":"levelo://app?vid=8b13014a-e70a-4d4f-a87c-96e45ce8d2dc"},"vehicle_type_id":"4","last_reported":1747955415,"current_range_meters":18800,"station_id":"ce4bhg12rcd13ifvqf60","pricing_plan_id":"cebpf4jnsgd1na2vs0mg"},{"bike_id":"913a1c2d-c5b2-44e2-93fb-fec05c6624e6","system_id":"levelo_inurba_marseille","lat":43.28946,"lon":5.3837,"is_reserved":false,"is_disabled":false,"rental_uris":{"android":"levelo://app?vid=913a1c2d-c5b2-44e2-93fb-fec05c6624e6","ios":"levelo://app?vid=913a1c2d-c5b2-44e2-93fb-fec05c6624e6"},"vehicle_type_id":"4","last_reported":1747955415,"current_range_meters":18000,"station_id":"ce4bh612rcd13ifvqe6g","pricing_plan_id":"cebpf4jnsgd1na2vs0mg"},{"bike_id":"897c1566-59bc-4c21-aaf2-be2e1f840bc5","system_id":"levelo_inurba_marseille","lat":43.25115,"lon":5.40326,"is_reserved":false,"is_disabled":false,"rental_uris":{"android":"levelo://app?vid=897c1566-59bc-4c21-aaf2-be2e1f840bc5","ios":"levelo://app?vid=897c1566-59bc-4c21-aaf2-be2e1f840bc5"},"vehicle_type_id":"4","last_reported":1747955415,"current_range_meters":18800,"station_id":"ce4bhlh2rcd13ifvqgig","pricing_plan_id":"cebpf4jnsgd1na2vs0mg"},{"bike_id":"14fea90a-d76b-4f84-9515-6f335c10a3d8","system_id":"levelo_inurba_marseille","lat":43.28155,"lon":5.42646,"is_reserved":false,"is_disabled":false,"rental_uris":{"android":"levelo://app?vid=14fea90a-d76b-4f84-9515-6f335c10a3d8","ios":"levelo://app?vid=14fea90a-d76b-4f84-9515-6f335c10a3d8"},"vehicle_type_id":"4","last_reported":1747955415,"current_range_meters":18800,"station_id":"ce4bhnh2rcd13ifvqgug","pricing_plan_id":"cebpf4jnsgd1na2vs0mg"},{"bike_id":"6a42cade-1217-4e53-9913-ba135248ee6a","system_id":"levelo_inurba_marseille","lat":43.25578,"lon":5.38236,"is_reserved":false,"is_disabled":false,"rental_uris":{"android":"levelo://app?vid=6a42cade-1217-4e53-9913-ba135248ee6a","ios":"levelo://app?vid=6a42cade-1217-4e53-9913-ba135248ee6a"},"vehicle_type_id":"4","last_reported":1747955415,"current_range_meters":18800,"station_id":"ce4bhih2rcd13ifvqfs0","pricing_plan_id":"cebpf4jnsgd1na2vs0mg"},{"bike_id":"549cdb9d-74f7-4497-bb2f-7af942d71412","system_id":"levelo_inurba_marseille","lat":43.25865,"lon":5.39883,"is_reserved":false,"is_disabled":false,"rental_uris":{"android":"levelo://app?vid=549cdb9d-74f7-4497-bb2f-7af942d71412","ios":"levelo://app?vid=549cdb9d-74f7-4497-bb2f-7af942d71412"},"vehicle_type_id":"4","last_reported":1747955415,"current_range_meters":18800,"station_id":"ce4bhl92rcd13ifvqghg","pricing_plan_id":"cebpf4jnsgd1na2vs0mg"},{"bike_id":"c49fdfc3-c468-4c64-82f3-bc7507d6293c","system_id":"levelo_inurba_marseille","lat":43.27947,"lon":5.41044,"is_reserved":false,"is_disabled":false,"rental_uris":{"android":"levelo://app?vid=c49fdfc3-c468-4c64-82f3-bc7507d6293c","ios":"levelo://app?vid=c49fdfc3-c468-4c64-82f3-bc7507d6293c"},"vehicle_type_id":"4","last_reported":1747955415,"current_range_meters":18800,"station_id":"ce4bhnp2rcd13ifvqh0g","pricing_plan_id":"cebpf4jnsgd1na2vs0mg"},{"bike_id":"c1cb82f7-556d-44cd-a6f7-4bc295106682","system_id":"levelo_inurba_marseille","lat":43.284908,"lon":5.384299,"is_reserved":false,"is_disabled":true,"rental_uris":{"android":"levelo://app?vid=c1cb82f7-556d-44cd-a6f7-4bc295106682","ios":"levelo://app?vid=c1cb82f7-556d-44cd-a6f7-4bc295106682"},"vehicle_type_id":"4","last_reported":1747955415,"current_range_meters":18800,"station_id":"ce4bh512rcd13ifvqe3g","pricing_plan_id":"cebpf4jnsgd1na2vs0mg"},