{"last_updated":1741770603,"ttl":60,"version":"2.2","data":{"bikes":[{"bike_id":"1b65ecb6-6150-4dc7-bb71-1d4da4659976","system_id":"levelo_inurba_marseille","lat":43.29277,"lon":5.36861,"is_reserved":false,"is_disabled":false,"rental_uris":{"android":"levelo://app?vid=1b65ecb6-6150-4dc7-bb71-1d4da4659976","ios":"levelo://app?vid=1b65ecb6-6150-4dc7-bb71-1d4da4659976"},"vehicle_type_id":"4","last_reported":1741770603,"current_range_meters":2800,"station_id":"ce4bhbp2rcd13ifvqesg","pricing_plan_id":"cebpf4jnsgd1na2vs0mg"},{"bike_id":"d14ed43f-4581-47f2-85e1-26851b3323f3","system_id":"levelo_inurba_marseille","lat":43.30882,"lon":5.39661,"is_reserved":false,"is_disabled":false,"rental_uris":{"android":"levelo://app?vid=d14ed43f-4581-47f2-85e1-26851b3323f3","ios":"levelo://app?vid=d14ed43f-4581-47f2-85e1-26851b3323f3"},"vehicle_type_id":"4","last_reported":1741770603,"current_range_meters":2800,"station_id":"ce4bh012rcd13ifvqcv0","pricing_plan_id":"cebpf4jnsgd1na2vs0mg"},{"bike_id":"1fbf857d-cdf3-4872-8401-d14e24a5ad9a","system_id":"levelo_inurba_marseille","lat":43.27047,"lon":5.4026,"is_reserved":false,"is_disabled":false,"rental_uris":{"android":"levelo://app?vid=1fbf857d-cdf3-4872-8401-d14e24a5ad9a","ios":"levelo://app?vid=1fbf857d-cdf3-4872-8401-d14e24a5ad9a"},"vehicle_type_id":"4","last_reported":1741770603,"current_range_meters":2800,"station_id":"ce4bhk92rcd13ifvqgc0","pricing_plan_id":"cebpf4jnsgd1na2vs0mg"},{"bike_id":"dc42e161-3661-4fd6-b581-259d0f327bf6","system_id":"levelo_inurba_marseille","lat":43.23219,"lon":5.39979,"is_reserved":false,"is_disabled":false,"rental_uris":{"android":"levelo://app?vid=dc42e161-3661-4fd6-b581-259d0f327bf6","ios":"levelo://app?vid=dc42e161-3661-4fd6-b581-259d0f327bf6"},"vehicle_type_id":"4","last_reported":1741770603,"current_range_meters":3200,"station_id":"ce4bhn12rcd13ifvqgqg","pricing_plan_id":"cebpf4jnsgd1na2vs0mg"},{"bike_id":"a71e5ff1-05e3-4d61-9823-a445d099e0c5","system_id":"levelo_inurba_marseille","lat":43.28493,"lon":5.38561,"is_reserved":false,"is_disabled":false,"rental_uris":{"android":"levelo://app?vid=a71e5ff1-05e3-4d61-9823-a445d099e0c5","ios":"levelo://app?vid=a71e5ff1-05e3-4d61-9823-a445d099e0c5"},"vehicle_type_id":"4","last_reported":1741770603,"current_range_meters":3200,"station_id":"ce4bh8p2rcd13ifvqeb0","pricing_plan_id":"cebpf4jnsgd1na2vs0mg"},{"bike_id":"69240521-5c86-4da8-9d31-b38720cfb532","system_id":"levelo_inurba_marseille","lat":43.26209,"lon":5.40443,"is_reserved":false,"is_disabled":false,"rental_uris":{"android":"levelo://app?vid=69240521-5c86-4da8-9d31-b38720cfb532","ios":"levelo://app?vid=69240521-5c86-4da8-9d31-b38720cfb532"},"vehicle_type_id":"4","last_reported":1741770603,"current_range_meters":3200,"station_id":"ce4bhmh2rcd13ifvqgmg","pricing_plan_id":"cebpf4jnsgd1na2vs0mg"},{"bike_id":"bb043eff-9cfc-4a24-932c-80f2c11569e4","system_id":"levelo_inurba_marseille","lat":43.29777,"lon":5.3711,"is_reserved":false,"is_disabled":false,"rental_uris":{"android":"levelo://app?vid=bb043eff-9cfc-4a24-932c-80f2c11569e4","ios":"levelo://app?vid=bb043eff-9cfc-4a24-932c-80f2c11569e4"},"vehicle_type_id":"4","last_reported":1741770603,"current_range_meters":3200,"station_id":"ce4bgop2rcd13ifvqc1g","pricing_plan_id":"cebpf4jnsgd1na2vs0mg"},{"bike_id":"e4e7b0f4-be16-4e67-8045-462e24fe9df7","system_id":"levelo_inurba_marseille","lat":43.2315,"lon":5.43705,"is_reserved":false,"is_disabled":false,"rental_uris":{"android":"levelo://app?vid=e4e7b0f4-be16-4e67-8045-462e24fe9df7","ios":"levelo://app?vid=e4e7b0f4-be16-4e67-8045-462e24fe9df7"},"vehicle_type_id":"4","last_reported":1741770603,"current_range_meters":3600,"station_id":"ce4bhmp2rcd13ifvqgog","pricing_plan_id":"cebpf4jnsgd1na2vs0mg"},{"bike_id":"5af850c6-2e38-404f-87a2-9e59a795b2a9","system_id":"levelo_inurba_marseille","lat":43.25928,"lon":5.40894,"is_reserved":false,"is_disabled":false,"rental_uris":{"android":"levelo://app?vid=5af850c6-2e38-404f-87a2-9e59a795b2a9","ios":"levelo://app?vid=5af850c6-2e38-404f-87a2-9e59a795b2a9"},"vehicle_type_id":"4","last_reported":1741770603,"current_range_meters":3600,"station_id":"ce4bhm92rcd13ifvqglg","pricing_plan_id":"cebpf4jnsgd1na2vs0mg"},{"bike_id":"6337bc7d-9c92-4339-b778-937e1bf566f5","system_id":"levelo_inurba_marseille","lat":43.29229,"lon":5.35997,"is_reserved":false,"is_disabled":false,"rental_uris":{"android":"levelo://app?vid=6337bc7d-9c92-4339-b778-937e1bf566f5","ios":"levelo://app?vid=6337bc7d-9c92-4339-b778-937e1bf566f5"},"vehicle_type_id":"4","last_reported":1741770603,"current_range_meters":3600,"station_id":"ce4bhbh2rcd13ifvqeqg","pricing_plan_id":"cebpf4jnsgd1na2vs0mg"},{"bike_id":"d3a582bb-e844-424a-be06-03d4001ccee4","system_id":"levelo_inurba_marseille","lat":43.31184,"lon":5.38709,"is_reserved":false,"is_disabled":false,"rental_uris":{"android":"levelo://app?vid=d3a582bb-e844-424a-be06-03d4001ccee4","ios":"levelo://app?vid=d3a582bb-e844-424a-be06-03d4001ccee4"},"vehicle_type_id":"4","last_reported":1741770603,"current_range_meters":3600,"station_id":"ce4bgv12rcd13ifvqcp0","pricing_plan_id":"cebpf4jnsgd1na2vs0mg"},{"bike_id":"c86d68f5-55ee-4a68-ba82-758fa1373f1d","system_id":"levelo_inurba_marseille","lat":43.3171,"lon":5.43724,"is_reserved":false,"is_disabled":false,"rental_uris":{"android":"levelo://app?vid=c86d68f5-55ee-4a68-ba82-758fa1373f1d","ios":"levelo://app?vid=c86d68f5-55ee-4a68-ba82-758fa1373f1d"},"vehicle_type_id":"4","last_reported":1741770603,"current_range_meters":4000,"station_id":"ce4bhp92rcd13ifvqhcg","pricing_plan_id":"cebpf4jnsgd1na2vs0mg"},{"bike_id":"6b42988a-de91-4a30-b407-bb1347588844","system_id":"levelo_inurba_marseille","lat":43.27817,"lon":5.40731,"is_reserved":false,"is_disabled":false,"rental_uris":{"android":"levelo://app?vid=6b42988a-de91-4a30-b407-bb1347588844","ios":"levelo://app?vid=6b42988a-de91-4a30-b407-bb1347588844"},"vehicle_type_id":"4","last_reported":1741770603,"current_range_meters":4000,"station_id":"ce4bhnh2rcd13ifvqgtg","pricing_plan_id":"cebpf4jnsgd1na2vs0mg"},{"bike_id":"ec8d0a32-a001-4cb1-a65c-a1e344565ea8","system_id":"levelo_inurba_marseille","lat":43.27212,"lon":5.39179,"is_reserved":false,"is_disabled":false,"rental_uris":{"android":"levelo://app?vid=ec8d0a32-a001-4cb1-a65c-a1e344565ea8","ios":"levelo://app?vid=ec8d0a32-a001-4cb1-a65c-a1e344565ea8"},"vehicle_type_id":"4","last_reported":1741770603,"current_range_meters":4000,"station_id":"ce4bhhp2rcd13ifvqfm0","pricing_plan_id":"cebpf4jnsgd1na2vs0mg"},{"bike_id":"6041dd02-f8d6-466f-8b31-ac472776911f","system_id":"levelo_inurba_marseille","lat":43.25583,"lon":5.38228,"is_reserved":false,"is_disabled":false,"rental_uris":{"android":"levelo://app?vid=6041dd02-f8d6-466f-8b31-ac472776911f","ios":"levelo://app?vid=6041dd02-f8d6-466f-8b31-ac472776911f"},"vehicle_type_id":"4","last_reported":1741770603,"current_range_meters":4000,"station_id":"ce4bhih2rcd13ifvqfs0","pricing_plan_id":"cebpf4jnsgd1na2vs0mg"},{"bike_id":"848095da-7240-4b07-a607-3c081d58ff31","system_id":"levelo_inurba_marseille","lat":43.31359,"lon":5.38494,"is_reserved":false,"is_disabled":false,"rental_uris":{"android":"levelo://app?vid=848095da-7240-4b07-a607-3c081d58ff31","ios":"levelo://app?vid=848095da-7240-4b07-a607-3c081d58ff31"},"vehicle_type_id":"4","last_reported":1741770603,"current_range_meters":4000,"station_id":"ce4bgt92rcd13ifvqcf0","pricing_plan_id":"cebpf4jnsgd1na2vs0mg"},{"bike_id":"3ac71b9e-3b30-457c-8471-e3fc9cbb7fb6","system_id":"levelo_inurba_marseille","lat":43.27306,"lon":5.39096,"is_reserved":false,"is_disabled":false,"rental_uris":{"android":"levelo://app?vid=3ac71b9e-3b30-457c-8471-e3fc9cbb7fb6","ios":"levelo://app?vid=3ac71b9e-3b30-457c-8471-e3fc9cbb7fb6"},"vehicle_type_id":"4","last_reported":1741770603,"current_range_meters":4400,"station_id":"ce4bhgp2rcd13ifvqfe0","pricing_plan_id":"cebpf4jnsgd1na2vs0mg"},{"bike_id":"c834a232-20fe-4875-8d3e-915ad8df0460","system_id":"levelo_inurba_marseille","lat":43.28152,"lon":5.42642,"is_reserved":false,"is_disabled":false,"rental_uris":{"android":"levelo://app?vid=c834a232-20fe-4875-8d3e-915ad8df0460","ios":"levelo://app?vid=c834a232-20fe-4875-8d3e-915ad8df0460"},"vehicle_type_id":"4","last_reported":1741770603,"current_range_meters":4400,"station_id":"ce4bhnh2rcd13ifvqgug","pricing_plan_id":"cebpf4jnsgd1na2vs0mg"},{"bike_id":"5c2b8625-ecdb-4bc3-91fe-9ffd55a67c66","system_id":"levelo_inurba_marseille","lat":43.30142,"lon":5.37417,"is_reserved":false,"is_disabled":false,"rental_uris":{"android":"levelo://app?vid=5c2b8625-ecdb-4bc3-91fe-9ffd55a67c66","ios":"levelo://app?vid=5c2b8625-ecdb-4bc3-91fe-9ffd55a67c66"},"vehicle_type_id":"4","last_reported":1741770603,"current_range_meters":4400,"station_id":"ce4bgs92rcd13ifvqcc0","pricing_plan_id":"cebpf4jnsgd1na2vs0mg"},{"bike_id":"03690356-08e9-4ea7-b9a3-8e88bf471e93","system_id":"levelo_inurba_marseille","lat":43.337444,"lon":5.374475,"is_reserved":false,"is_disabled":true,"rental_uris":{"android":"levelo://app?vid=03690356-08e9-4ea7-b9a3-8e88bf471e93","ios":"levelo://app?vid=03690356-08e9-4ea7-b9a3-8e88bf471e93"},"vehicle_type_id":"4","last_reported":1741770603,"current_range_meters":4400,"station_id":"","pricing_plan_id":"cebpf4jnsgd1na2vs0mg"},{"bike_id":"1cccf9ee-139c-4dc2-8dd0-ced14ebbe202","system_id":"levelo_inurba_marseille","lat":43.23964,"lon":5.36605,"is_reserved":false,"is_disabled":false,"rental_uris":{"android":"levelo://app?vid=1cccf9ee-139c-4dc2-8dd0-ced14ebbe202","ios":"levelo://app?vid=1cccf9ee-139c-4dc2-8dd0-ced14ebbe202"},"vehicle_type_id":"4","last_reported":1741770603,"current_range_meters":4800,"station_id":"ce4bhi12rcd13ifvqfp0","pricing_plan_id":"cebpf4jnsgd1na2vs0mg"},{"bike_id":"cbd6f8ee-d91a-4c06-a50f-8aefa40d8ceb","system_id":"levelo_inurba_marseille","lat":43.29887,"lon":5.43693,"is_reserved":false,"is_disabled":false,"rental_uris":{"android":"levelo://app?vid=cbd6f8ee-d91a-4c06-a50f-8aefa40d8ceb","ios":"levelo://app?vid=cbd6f8ee-d91a-4c06-a50f-8aefa40d8ceb"},"vehicle_type_id":"4","last_reported":1741770603,"current_range_meters":5600,"station_id":"ce4bhpp2rcd13ifvqhfg","pricing_plan_id":"cebpf4jnsgd1na2vs0mg"},{"bike_id":"09bbb690-af86-458c-bbad-70d10e2033ee","system_id":"levelo_inurba_marseille","lat":43.23069,"lon":5.3548,"is_reserved":false,"is_disabled":false,"rental_uris":{"android":"levelo://app?vid=09bbb690-af86-458c-bbad-70d10e2033ee","ios":"levelo://app?vid=09bbb690-af86-458c-bbad-70d10e2033ee"},"vehicle_type_id":"4","last_reported":1741770603,"current_range_meters":5600,"station_id":"cpo3342slgdg3j2ifvpg","pricing_plan_id":"cebpf4jnsgd1na2vs0mg"},{"bike_id":"c49d7d39-2ba5-4b14-a80d-d0e980270603","system_id":"levelo_inurba_marseille","lat":43.27307,"lon":5.39083,"is_reserved":false,"is_disabled":false,"rental_uris":{"android":"levelo://app?vid=c49d7d39-2ba5-4b14-a80d-d0e980270603","ios":"levelo://app?vid=c49d7d39-2ba5-4b14-a80d-d0e980270603"},"vehicle_type_id":"4","last_reported":1741770603,"current_range_meters":6000,"station_id":"ce4bhgp2rcd13ifvqfe0","pricing_plan_id":"cebpf4jnsgd1na2vs0mg"},{"bike_id":"0ba1ee1b-2f5c-4871-b4dc-90a5522ad020","system_id":"levelo_inurba_marseille","lat":43.30536,"lon":5.367,"is_reserved":false,"is_disabled":false,"rental_uris":{"android":"levelo://app?vid=0ba1ee1b-2f5c-4871-b4dc-90a5522ad020","ios":"levelo://app?vid=0ba1ee1b-2f5c-4871-b4dc-90a5522ad020"},"vehicle_type_id":"4","last_reported":1741770603,"current_range_meters":6000,"station_id":"ce4bgrp2rcd13ifvqc9g","pricing_plan_id":"cebpf4jnsgd1na2vs0mg"},{"bike_id":"d3acab28-3125-4afa-b5eb-02e807f46858","system_id":"levelo_inurba_marseille","lat":43.24176,"lon":5.39727,"is_reserved":false,"is_disabled":false,"rental_uris":{"android":"levelo://app?vid=d3acab28-3125-4afa-b5eb-02e807f46858","ios":"levelo://app?vid=d3acab28-3125-4afa-b5eb-02e807f46858"},"vehicle_type_id":"4","last_reported":1741770603,"current_range_meters":6000,"station_id":"ce4bhn12rcd13ifvqgpg","pricing_plan_id":"cebpf4jnsgd1na2vs0mg"},{"bike_id":"bf2feb02-4272-4476-92f9-9420844c4078","system_id":"levelo_inurba_marseille","lat":43.31196,"lon":5.37671,"is_reserved":false,"is_disabled":false,"rental_uris":{"android":"levelo://app?vid=bf2feb02-4272-4476-92f9-9420844c4078","ios":"levelo://app?vid=bf2feb02-4272-4476-92f9-9420844c4078"},"vehicle_type_id":"4","last_reported":1741770603,"current_range_meters":6000,"station_id":"","pricing_plan_id":"cebpf4jnsgd1na2vs0mg"},{"bike_id":"a93065ac-3cfc-483a-8856-6ac97fb9a0cf","system_id":"levelo_inurba_marseille","lat":43.25728,"lon":5.41108,"is_reserved":false,"is_disabled":false,"rental_uris":{"android":"levelo://app?vid=a93065ac-3cfc-483a-8856-6ac97fb9a0cf","ios":"levelo://app?vid=a93065ac-3cfc-483a-8856-6ac97fb9a0cf"},"vehicle_type_id":"4","last_reported":1741770603,"current_range_meters":6000,"station_id":"ce4bhkp2rcd13ifvqgd0","pricing_plan_id":"cebpf4jnsgd1na2vs0mg"},{"bike_id":"74a1feae-7826-497c-8902-71de67cbde10","system_id":"levelo_inurba_marseille","lat":43.29566,"lon":5.3997,"is_reserved":false,"is_disabled":false,"rental_uris":{"android":"levelo://app?vid=74a1feae-7826-497c-8902-71de67cbde10","ios":"levelo://app?vid=74a1feae-7826-497c-8902-71de67cbde10"},"vehicle_type_id":"4","last_reported":1741770603,"current_range_meters":6400,"station_id":"ce4bh312rcd13ifvqdj0","pricing_plan_id":"cebpf4jnsgd1na2vs0mg"},{"bike_id":"d4acb34b-3c11-4c77-a449-917739ce4b7b","system_id":"levelo_inurba_marseille","lat":43.26946,"lon":5.38648,"is_reserved":false,"is_disabled":false,"rental_uris":{"android":"levelo://app?vid=d4acb34b-3c11-4c77-a449-917739ce4b7b","ios":"levelo://app?vid=d4acb34b-3c11-4c77-a449-917739ce4b7b"},"vehicle_type_id":"4","last_reported":1741770603,"current_range_meters":6400,"station_id":"ce4bhh92rcd13ifvqfh0","pricing_plan_id":"cebpf4jnsgd1na2vs0mg"},{"bike_id":"5da83c6c-b448-43ca-8b01-8ecb4a475849","system_id":"levelo_inurba_marseille","lat":43.26941,"lon":5.38635,"is_reserved":false,"is_disabled":false,"rental_uris":{"android":"levelo://app?vid=5da83c6c-b448-43ca-8b01-8ecb4a475849","ios":"levelo://app?vid=5da83c6c-b448-43ca-8b01-8ecb4a475849"},"vehicle_type_id":"4","last_reported":1741770603,"current_range_meters":6400,"station_id":"ce4bhh92rcd13ifvqfh0","pricing_plan_id":"cebpf4jnsgd1na2vs0mg"},{"bike_id":"472fc3c9-ff81-4115-97ad-d3af3a7c64d6","system_id":"levelo_inurba_marseille","lat":43.27201,"lon":5.41036,"is_reserved":false,"is_disabled":false,"rental_uris":{"android":"levelo://app?vid=472fc3c9-ff81-4115-97ad-d3af3a7c64d6","ios":"levelo://app?vid=472fc3c9-ff81-4115-97ad-d3af3a7c64d6"},"vehicle_type_id":"4","last_reported":1741770603,"current_range_meters":6400,"station_id":"ce4bhl12rcd13ifvqgf0","pricing_plan_id":"cebpf4jnsgd1na2vs0mg"},{"bike_id":"3d5825db-5c8f-44a7-8459-516e8e09237f","system_id":"levelo_inurba_marseille","lat":43.25941,"lon":5.40909,"is_reserved":false,"is_disabled":false,"rental_uris":{"android":"levelo://app?vid=3d5825db-5c8f-44a7-8459-516e8e09237f","ios":"levelo://app?vid=3d5825db-5c8f-44a7-8459-516e8e09237f"},"vehicle_type_id":"4","last_reported":1741770603,"current_range_meters":6400,"station_id":"ce4bhm92rcd13ifvqglg","pricing_plan_id":"cebpf4jnsgd1na2vs0mg"},{"bike_id":"80771939-f406-42f7-81c5-33180fd8a338","system_id":"levelo_inurba_marseille","lat":43.23193,"lon":5.35555,"is_reserved":false,"is_disabled":false,"rental_uris":{"android":"levelo://app?vid=80771939-f406-42f7-81c5-33180fd8a338","ios":"levelo://app?vid=80771939-f406-42f7-81c5-33180fd8a338"},"vehicle_type_id":"4","last_reported":1741770603,"current_range_meters":6400,"station_id":"ce4bhu92rcd13ifvqi70","pricing_plan_id":"cebpf4jnsgd1na2vs0mg"},{"bike_id":"3bfcd74d-53e6-4773-a3ba-ccaff6147af1","system_id":"levelo_inurba_marseille","lat":43.25932,"lon":5.40908,"is_reserved":false,"is_disabled":false,"rental_uris":{"android":"levelo://app?vid=3bfcd74d-53e6-4773-a3ba-ccaff6147af1","ios":"levelo://app?vid=3bfcd74d-53e6-4773-a3ba-ccaff6147af1"},"vehicle_type_id":"4","last_reported":1741770603,"current_range_meters":6800,"station_id":"ce4bhm92rcd13ifvqglg","pricing_plan_id":"cebpf4jnsgd1na2vs0mg"},{"bike_id":"a6907114-91e5-4406-958d-4b895c3084d0","system_id":"levelo_inurba_marseille","lat":43.29892,"lon":5.436661,"is_reserved":false,"is_disabled":true,"rental_uris":{"android":"levelo://app?vid=a6907114-91e5-4406-958d-4b895c3084d0","ios":"levelo://app?vid=a6907114-91e5-4406-958d-4b895c3084d0"},"vehicle_type_id":"4","last_reported":1741770603,"current_range_meters":6800,"station_id":"ce4bhpp2rcd13ifvqhfg","pricing_plan_id":"cebpf4jnsgd1na2vs0mg"},{"bike_id":"cec6458d-2bf5-4cc3-b72a-8930c855e1a8","system_id":"levelo_inurba_marseille","lat":43.31082,"lon":5.42427,"is_reserved":false,"is_disabled":false,"rental_uris":{"android":"levelo://app?vid=cec6458d-2bf5-4cc3-b72a-8930c855e1a8","ios":"levelo://app?vid=cec6458d-2bf5-4cc3-b72a-8930c855e1a8"},"vehicle_type_id":"4","last_reported":1741770603,"current_range_meters":6800,"station_id":"ce4bhp92rcd13ifvqhag","pricing_plan_id":"cebpf4jnsgd1na2vs0mg"},{"bike_id":"b9680ac6-d12e-4a12-9dd8-1396db5e067b","system_id":"levelo_inurba_marseille","lat":43.23153,"lon":5.437,"is_reserved":false,"is_disabled":false,"rental_uris":{"android":"levelo://app?vid=b9680ac6-d12e-4a12-9dd8-1396db5e067b","ios":"levelo://app?vid=b9680ac6-d12e-4a12-9dd8-1396db5e067b"},"vehicle_type_id":"4","last_reported":1741770603,"current_range_meters":7200,"station_id":"ce4bhmp2rcd13ifvqgog","pricing_plan_id":"cebpf4jnsgd1na2vs0mg"},{"bike_id":"cbbbca20-7607-414f-8d22-22c80866f0ce","system_id":"levelo_inurba_marseille","lat":43.24166,"lon":5.39726,"is_reserved":false,"is_disabled":false,"rental_uris":{"android":"levelo://app?vid=cbbbca20-7607-414f-8d22-22c80866f0ce","ios":"levelo://app?vid=cbbbca20-7607-414f-8d22-22c80866f0ce"},"vehicle_type_id":"4","last_reported":1741770603,"current_range_meters":7200,"station_id":"ce4bhn12rcd13ifvqgpg","pricing_plan_id":"cebpf4jnsgd1na2vs0mg"},{"bike_id":"9b75f73b-4e4f-4d50-8655-4ca7749a5646","system_id":"levelo_inurba_marseille","lat":43.27836,"lon":5.40714,"is_reserved":false,"is_disabled":false,"rental_uris":{"android":"levelo://app?vid=9b75f73b-4e4f-4d50-8655-4ca7749a5646","ios":"levelo://app?vid=9b75f73b-4e4f-4d50-8655-4ca7749a5646"},"vehicle_type_id":"4","last_reported":1741770603,"current_range_meters":7200,"station_id":"ce4bhnh2rcd13ifvqgtg","pricing_plan_id":"cebpf4jnsgd1na2vs0mg"},{"bike_id":"4004cd83-7832-479a-b42c-67f973543029","system_id":"levelo_inurba_marseille","lat":43.25726,"lon":5.41108,"is_reserved":false,"is_disabled":false,"rental_uris":{"android":"levelo://app?vid=4004cd83-7832-479a-b42c-67f973543029","ios":"levelo://app?vid=4004cd83-7832-479a-b42c-67f973543029"},"vehicle_type_id":"4","last_reported":1741770603,"current_range_meters":7200,"station_id":"ce4bhkp2rcd13ifvqgd0","pricing_plan_id":"cebpf4jnsgd1na2vs0mg"},{"bike_id":"8299210e-eab9-4d32-b1b6-08a5ad4b235b","system_id":"levelo_inurba_marseille","lat":43.27972,"lon":5.3876,"is_reserved":false,"is_disabled":false,"rental_uris":{"android":"levelo://app?vid=8299210e-eab9-4d32-b1b6-08a5ad4b235b","ios":"levelo://app?vid=8299210e-eab9-4d32-b1b6-08a5ad4b235b"},"vehicle_type_id":"4","last_reported":1741770603,"current_range_meters":7200,"station_id":"ce4bhg12rcd13ifvqf80","pricing_plan_id":"cebpf4jnsgd1na2vs0mg"},{"bike_id":"9d00341a-b11d-46a7-97c4-5ca87c07f707","system_id":"levelo_inurba_marseille","lat":43.26682,"lon":5.38266,"is_reserved":false,"is_disabled":false,"rental_uris":{"android":"levelo://app?vid=9d00341a-b11d-46a7-97c4-5ca87c07f707","ios":"levelo://app?vid=9d00341a-b11d-46a7-97c4-5ca87c07f707"},"vehicle_type_id":"4","last_reported":1741770603,"current_range_meters":7200,"station_id":"ce4bhg92rcd13ifvqf90","pricing_plan_id":"cebpf4jnsgd1na2vs0mg"},{"bike_id":"c835eee2-01bf-4ff1-a164-4c90e0a065d9","system_id":"levelo_inurba_marseille","lat":43.25023,"lon":5.38923,"is_reserved":false,"is_disabled":false,"rental_uris":{"android":"levelo://app?vid=c835eee2-01bf-4ff1-a164-4c90e0a065d9","ios":"levelo://app?vid=c835eee2-01bf-4ff1-a164-4c90e0a065d9"},"vehicle_type_id":"4","last_reported":1741770603,"current_range_meters":7200,"station_id":"ce4bhgp2rcd13ifvqfd0","pricing_plan_id":"cebpf4jnsgd1na2vs0mg"},{"bike_id":"05388ace-665a-4114-a828-939b708a2589","system_id":"levelo_inurba_marseille","lat":43.23189,"lon":5.39983,"is_reserved":false,"is_disabled":false,"rental_uris":{"android":"levelo://app?vid=05388ace-665a-4114-a828-939b708a2589","ios":"levelo://app?vid=05388ace-665a-4114-a828-939b708a2589"},"vehicle_type_id":"4","last_reported":1741770603,"current_range_meters":7200,"station_id":"ce4bhn12rcd13ifvqgqg","pricing_plan_id":"cebpf4jnsgd1na2vs0mg"},{"bike_id":"58d1b5b3-d322-4418-97d0-3066ec3d9afc","system_id":"levelo_inurba_marseille","lat":43.23196,"lon":5.35539,"is_reserved":false,"is_disabled":false,"rental_uris":{"android":"levelo://app?vid=58d1b5b3-d322-4418-97d0-3066ec3d9afc","ios":"levelo://app?vid=58d1b5b3-d322-4418-97d0-3066ec3d9afc"},"vehicle_type_id":"4","last_reported":1741770603,"current_range_meters":7200,"station_id":"ce4bhu92rcd13ifvqi70","pricing_plan_id":"cebpf4jnsgd1na2vs0mg"},{"bike_id":"6ac2c4d0-92d7-45ed-9763-dac656ace903","system_id":"levelo_inurba_marseille","lat":43.29428,"lon":5.38653,"is_reserved":false,"is_disabled":false,"rental_uris":{"android":"levelo://app?vid=6ac2c4d0-92d7-45ed-9763-dac656ace903","ios":"levelo://app?vid=6ac2c4d0-92d7-45ed-9763-dac656ace903"},"vehicle_type_id":"4","last_reported":1741770603,"current_range_meters":8000,"station_id":"ce4bh2h2rcd13ifvqdh0","pricing_plan_id":"cebpf4jnsgd1na2vs0mg"},{"bike_id":"00559a84-bfdd-4a60-a5de-01556800e8d9","system_id":"levelo_inurba_marseille","lat":43.24175,"lon":5.39725,"is_reserved":false,"is_disabled":false,"rental_uris":{"android":"levelo://app?vid=00559a84-bfdd-4a60-a5de-01556800e8d9","ios":"levelo://app?vid=00559a84-bfdd-4a60-a5de-01556800e8d9"},"vehicle_type_id":"4","last_reported":1741770603,"current_range_meters":8000,"station_id":"ce4bhn12rcd13ifvqgpg","pricing_plan_id":"cebpf4jnsgd1na2vs0mg"},{"bike_id":"b9240381-73fa-4e41-88b7-ade9a83b5ed8","system_id":"levelo_inurba_marseille","lat":43.26226,"lon":5.4045,"is_reserved":false,"is_disabled":false,"rental_uris":{"android":"levelo://app?vid=b9240381-73fa-4e41-88b7-ade9a83b5ed8","ios":"levelo://app?vid=b9240381-73fa-4e41-88b7-ade9a83b5ed8"},"vehicle_type_id":"4","last_reported":1741770603,"current_range_meters":8000,"station_id":"ce4bhmh2rcd13ifvqgmg","pricing_plan_id":"cebpf4jnsgd1na2vs0mg"},{"bike_id":"f640465e-8c9e-425a-8e36-08d8d5201bf6","system_id":"levelo_inurba_marseille","lat":43.23196,"lon":5.35541,"is_reserved":false,"is_disabled":false,"rental_uris":{"android":"levelo://app?vid=f640465e-8c9e-425a-8e36-08d8d5201bf6","ios":"levelo://app?vid=f640465e-8c9e-425a-8e36-08d8d5201bf6"},"vehicle_type_id":"4","last_reported":1741770603,"current_range_meters":8000,"station_id":"ce4bhu92rcd13ifvqi70","pricing_plan_id":"cebpf4jnsgd1na2vs0mg"},{"bike_id":"7270e3a1-ea48-45d4-aa0e-e1bb1295c598","system_id":"levelo_inurba_marseille","lat":43.24558,"lon":5.39537,"is_reserved":false,"is_disabled":false,"rental_uris":{"android":"levelo://app?vid=7270e3a1-ea48-45d4-aa0e-e1bb1295c598","ios":"levelo://app?vid=7270e3a1-ea48-45d4-aa0e-e1bb1295c598"},"vehicle_type_id":"4","last_reported":1741770603,"current_range_meters":8000,"station_id":"ce4bhlp2rcd13ifvqgjg","pricing_plan_id":"cebpf4jnsgd1na2vs0mg"},{"bike_id":"415e7a31-245d-4ead-9f33-dad092a04302","system_id":"levelo_inurba_marseille","lat":43.23067,"lon":5.35505,"is_reserved":false,"is_disabled":false,"rental_uris":{"android":"levelo://app?vid=415e7a31-245d-4ead-9f33-dad092a04302","ios":"levelo://app?vid=415e7a31-245d-4ead-9f33-dad092a04302"},"vehicle_type_id":"4","last_reported":1741770603,"current_range_meters":8400,"station_id":"cpo3342slgdg3j2ifvpg","pricing_plan_id":"cebpf4jnsgd1na2vs0mg"},{"bike_id":"a3734521-686c-4745-b64a-740493820ac5","system_id":"levelo_inurba_marseille","lat":43.30465,"lon":5.37917,"is_reserved":false,"is_disabled":false,"rental_uris":{"android":"levelo://app?vid=a3734521-686c-4745-b64a-740493820ac5","ios":"levelo://app?vid=a3734521-686c-4745-b64a-740493820ac5"},"vehicle_type_id":"4","last_reported":1741770603,"current_range_meters":8400,"station_id":"ce4bgup2rcd13ifvqcn0","pricing_plan_id":"cebpf4jnsgd1na2vs0mg"},{"bike_id":"29dcf4e5-3fc4-4240-b459-5be7b3d8998f","system_id":"levelo_inurba_marseille","lat":43.33613,"lon":5.41034,"is_reserved":false,"is_disabled":false,"rental_uris":{"android":"levelo://app?vid=29dcf4e5-3fc4-4240-b459-5be7b3d8998f","ios":"levelo://app?vid=29dcf4e5-3fc4-4240-b459-5be7b3d8998f"},"vehicle_type_id":"4","last_reported":1741770603,"current_range_meters":8400,"station_id":"ce4bhqh2rcd13ifvqhmg","pricing_plan_id":"cebpf4jnsgd1na2vs0mg"},{"bike_id":"9acab34d-76c9-4fd5-bed6-0265a89df8bb","system_id":"levelo_inurba_marseille","lat":43.25733,"lon":5.41108,"is_reserved":false,"is_disabled":false,"rental_uris":{"android":"levelo://app?vid=9acab34d-76c9-4fd5-bed6-0265a89df8bb","ios":"levelo://app?vid=9acab34d-76c9-4fd5-bed6-0265a89df8bb"},"vehicle_type_id":"4","last_reported":1741770603,"current_range_meters":8400,"station_id":"ce4bhkp2rcd13ifvqgd0","pricing_plan_id":"cebpf4jnsgd1na2vs0mg"},{"bike_id":"9586252d-cc3c-44ce-ad1f-1491be69b7a0","system_id":"levelo_inurba_marseille","lat":43.26946,"lon":5.38629,"is_reserved":false,"is_disabled":false,"rental_uris":{"android":"levelo://app?vid=9586252d-cc3c-44ce-ad1f-1491be69b7a0","ios":"levelo://app?vid=9586252d-cc3c-44ce-ad1f-1491be69b7a0"},"vehicle_type_id":"4","last_reported":1741770603,"current_range_meters":8400,"station_id":"ce4bhh92rcd13ifvqfh0","pricing_plan_id":"cebpf4jnsgd1na2vs0mg"},{"bike_id":"241d79a7-8164-4ee5-8d3f-2565e2e0b3e8","system_id":"levelo_inurba_marseille","lat":43.31369,"lon":5.37975,"is_reserved":false,"is_disabled":false,"rental_uris":{"android":"levelo://app?vid=241d79a7-8164-4ee5-8d3f-2565e2e0b3e8","ios":"levelo://app?vid=241d79a7-8164-4ee5-8d3f-2565e2e0b3e8"},"vehicle_type_id":"4","last_reported":1741770603,"current_range_meters":8400,"station_id":"","pricing_plan_id":"cebpf4jnsgd1na2vs0mg"},{"bike_id":"120633ee-9b4c-4852-a513-ca6ef1052dee","system_id":"levelo_inurba_marseille","lat":43.29573,"lon":5.39961,"is_reserved":false,"is_disabled":false,"rental_uris":{"android":"levelo://app?vid=120633ee-9b4c-4852-a513-ca6ef1052dee","ios":"levelo://app?vid=120633ee-9b4c-4852-a513-ca6ef1052dee"},"vehicle_type_id":"4","last_reported":1741770603,"current_range_meters":8400,"station_id":"ce4bh312rcd13ifvqdj0","pricing_plan_id":"cebpf4jnsgd1na2vs0mg"},{"bike_id":"512c4bea-01ec-4a77-9442-bae8cc15ba12","system_id":"levelo_inurba_marseille","lat":43.26063,"lon":5.39409,"is_reserved":false,"is_disabled":false,"rental_uris":{"android":"levelo://app?vid=512c4bea-01ec-4a77-9442-bae8cc15ba12","ios":"levelo://app?vid=512c4bea-01ec-4a77-9442-bae8cc15ba12"},"vehicle_type_id":"4","last_reported":1741770603,"current_range_meters":8400,"station_id":"ce4bhh92rcd13ifvqfj0","pricing_plan_id":"cebpf4jnsgd1na2vs0mg"},{"bike_id":"2890b67d-79ce-49a4-a794-71e9792687a8","system_id":"levelo_inurba_marseille","lat":43.25107,"lon":5.4032,"is_reserved":false,"is_disabled":false,"rental_uris":{"android":"levelo://app?vid=2890b67d-79ce-49a4-a794-71e9792687a8","ios":"levelo://app?vid=2890b67d-79ce-49a4-a794-71e9792687a8"},"vehicle_type_id":"4","last_reported":1741770603,"current_range_meters":8800,"station_id":"ce4bhlh2rcd13ifvqgig","pricing_plan_id":"cebpf4jnsgd1na2vs0mg"},{"bike_id":"1d67a017-4d6e-4ca8-b7b4-a55b0b1673fa","system_id":"levelo_inurba_marseille","lat":43.28772,"lon":5.37908,"is_reserved":false,"is_disabled":false,"rental_uris":{"android":"levelo://app?vid=1d67a017-4d6e-4ca8-b7b4-a55b0b1673fa","ios":"levelo://app?vid=1d67a017-4d6e-4ca8-b7b4-a55b0b1673fa"},"vehicle_type_id":"4","last_reported":1741770603,"current_range_meters":8800,"station_id":"","pricing_plan_id":"cebpf4jnsgd1na2vs0mg"},{"bike_id":"1b149b4e-6cd5-4296-b92f-c5d69438443b","system_id":"levelo_inurba_marseille","lat":43.23138,"lon":5.437123,"is_reserved":false,"is_disabled":false,"rental_uris":{"android":"levelo://app?vid=1b149b4e-6cd5-4296-b92f-c5d69438443b","ios":"levelo://app?vid=1b149b4e-6cd5-4296-b92f-c5d69438443b"},"vehicle_type_id":"4","last_reported":1741770603,"current_range_meters":8800,"station_id":"ce4bhmp2rcd13ifvqgog","pricing_plan_id":"cebpf4jnsgd1na2vs0mg"},{"bike_id":"ebdc0adc-86d4-4882-8983-2d6c86413625","system_id":"levelo_inurba_marseille","lat":43.23145,"lon":5.43717,"is_reserved":false,"is_disabled":false,"rental_uris":{"android":"levelo://app?vid=ebdc0adc-86d4-4882-8983-2d6c86413625","ios":"levelo://app?vid=ebdc0adc-86d4-4882-8983-2d6c86413625"},"vehicle_type_id":"4","last_reported":1741770603,"current_range_meters":8800,"station_id":"ce4bhmp2rcd13ifvqgog","pricing_plan_id":"cebpf4jnsgd1na2vs0mg"},{"bike_id":"30a3a008-7160-4279-8740-ac0a8591383d","system_id":"levelo_inurba_marseille","lat":43.24545,"lon":5.39535,"is_reserved":false,"is_disabled":false,"rental_uris":{"android":"levelo://app?vid=30a3a008-7160-4279-8740-ac0a8591383d","ios":"levelo://app?vid=30a3a008-7160-4279-8740-ac0a8591383d"},"vehicle_type_id":"4","last_reported":1741770603,"current_range_meters":8800,"station_id":"ce4bhlp2rcd13ifvqgjg","pricing_plan_id":"cebpf4jnsgd1na2vs0mg"},{"bike_id":"91835cfe-54b4-485a-8b96-12d524b8f3d5","system_id":"levelo_inurba_marseille","lat":43.293,"lon":5.37465,"is_reserved":false,"is_disabled":false,"rental_uris":{"android":"levelo://app?vid=91835cfe-54b4-485a-8b96-12d524b8f3d5","ios":"levelo://app?vid=91835cfe-54b4-485a-8b96-12d524b8f3d5"},"vehicle_type_id":"4","last_reported":1741770603,"current_range_meters":8800,"station_id":"ce4bgi12rcd13ifvqb70","pricing_plan_id":"cebpf4jnsgd1na2vs0mg"},{"bike_id":"e684ff0d-ffbb-4303-9c2e-1cebf7f952f3","system_id":"levelo_inurba_marseille","lat":43.26574,"lon":5.39046,"is_reserved":false,"is_disabled":false,"rental_uris":{"android":"levelo://app?vid=e684ff0d-ffbb-4303-9c2e-1cebf7f952f3","ios":"levelo://app?vid=e684ff0d-ffbb-4303-9c2e-1cebf7f952f3"},"vehicle_type_id":"4","last_reported":1741770603,"current_range_meters":9200,"station_id":"ce4bhe12rcd13ifvqf30","pricing_plan_id":"cebpf4jnsgd1na2vs0mg"},{"bike_id":"72ab2c75-5587-494f-826f-81e3a01ecd70","system_id":"levelo_inurba_marseille","lat":43.2295,"lon":5.35406,"is_reserved":false,"is_disabled":false,"rental_uris":{"android":"levelo://app?vid=72ab2c75-5587-494f-826f-81e3a01ecd70","ios":"levelo://app?vid=72ab2c75-5587-494f-826f-81e3a01ecd70"},"vehicle_type_id":"4","last_reported":1741770603,"current_range_meters":9200,"station_id":"cpo3532slgdg3j2ikp40","pricing_plan_id":"cebpf4jnsgd1na2vs0mg"},{"bike_id":"e0882758-540a-4ac9-8b1c-c6cbff85ff33","system_id":"levelo_inurba_marseille","lat":43.2987,"lon":5.39744,"is_reserved":false,"is_disabled":false,"rental_uris":{"android":"levelo://app?vid=e0882758-540a-4ac9-8b1c-c6cbff85ff33","ios":"levelo://app?vid=e0882758-540a-4ac9-8b1c-c6cbff85ff33"},"vehicle_type_id":"4","last_reported":1741770603,"current_range_meters":9200,"station_id":"ce4bh0h2rcd13ifvqd50","pricing_plan_id":"cebpf4jnsgd1na2vs0mg"},{"bike_id":"1e383331-4cf9-4f27-840c-e013f13c25d8","system_id":"levelo_inurba_marseille","lat":43.23187,"lon":5.39977,"is_reserved":false,"is_disabled":false,"rental_uris":{"android":"levelo://app?vid=1e383331-4cf9-4f27-840c-e013f13c25d8","ios":"levelo://app?vid=1e383331-4cf9-4f27-840c-e013f13c25d8"},"vehicle_type_id":"4","last_reported":1741770603,"current_range_meters":9200,"station_id":"ce4bhn12rcd13ifvqgqg","pricing_plan_id":"cebpf4jnsgd1na2vs0mg"},{"bike_id":"93c03407-fc3c-4cdb-b5ea-85c893776223","system_id":"levelo_inurba_marseille","lat":43.30546,"lon":5.36713,"is_reserved":false,"is_disabled":false,"rental_uris":{"android":"levelo://app?vid=93c03407-fc3c-4cdb-b5ea-85c893776223","ios":"levelo://app?vid=93c03407-fc3c-4cdb-b5ea-85c893776223"},"vehicle_type_id":"4","last_reported":1741770603,"current_range_meters":9200,"station_id":"ce4bgrp2rcd13ifvqc9g","pricing_plan_id":"cebpf4jnsgd1na2vs0mg"},{"bike_id":"2931d81f-abb3-45b8-9224-dc3fce2fae31","system_id":"levelo_inurba_marseille","lat":43.32366,"lon":5.36764,"is_reserved":false,"is_disabled":false,"rental_uris":{"android":"levelo://app?vid=2931d81f-abb3-45b8-9224-dc3fce2fae31","ios":"levelo://app?vid=2931d81f-abb3-45b8-9224-dc3fce2fae31"},"vehicle_type_id":"4","last_reported":1741770603,"current_range_meters":9200,"station_id":"ce4bhsh2rcd13ifvqi2g","pricing_plan_id":"cebpf4jnsgd1na2vs0mg"},{"bike_id":"6860da02-483a-444a-bdc1-831dec67789c","system_id":"levelo_inurba_marseille","lat":43.3134,"lon":5.36731,"is_reserved":false,"is_disabled":false,"rental_uris":{"android":"levelo://app?vid=6860da02-483a-444a-bdc1-831dec67789c","ios":"levelo://app?vid=6860da02-483a-444a-bdc1-831dec67789c"},"vehicle_type_id":"4","last_reported":1741770603,"current_range_meters":9200,"station_id":"ce4bgr92rcd13ifvqc6g","pricing_plan_id":"cebpf4jnsgd1na2vs0mg"},{"bike_id":"8dabc24d-4dcb-4954-9ea5-584f283fee4d","system_id":"levelo_inurba_marseille","lat":43.25934,"lon":5.40907,"is_reserved":false,"is_disabled":false,"rental_uris":{"android":"levelo://app?vid=8dabc24d-4dcb-4954-9ea5-584f283fee4d","ios":"levelo://app?vid=8dabc24d-4dcb-4954-9ea5-584f283fee4d"},"vehicle_type_id":"4","last_reported":1741770603,"current_range_meters":9200,"station_id":"ce4bhm92rcd13ifvqglg","pricing_plan_id":"cebpf4jnsgd1na2vs0mg"},{"bike_id":"dfebedf4-d78b-4900-b03f-86ea1fb225e4","system_id":"levelo_inurba_marseille","lat":43.28732,"lon":5.37909,"is_reserved":false,"is_disabled":false,"rental_uris":{"android":"levelo://app?vid=dfebedf4-d78b-4900-b03f-86ea1fb225e4","ios":"levelo://app?vid=dfebedf4-d78b-4900-b03f-86ea1fb225e4"},"vehicle_type_id":"4","last_reported":1741770603,"current_range_meters":9600,"station_id":"ce4bh9p2rcd13ifvqec0","pricing_plan_id":"cebpf4jnsgd1na2vs0mg"},{"bike_id":"ca981dba-ddba-46be-9f7a-ecc196c329e0","system_id":"levelo_inurba_marseille","lat":43.33104,"lon":5.39327,"is_reserved":false,"is_disabled":false,"rental_uris":{"android":"levelo://app?vid=ca981dba-ddba-46be-9f7a-ecc196c329e0","ios":"levelo://app?vid=ca981dba-ddba-46be-9f7a-ecc196c329e0"},"vehicle_type_id":"4","last_reported":1741770603,"current_range_meters":9600,"station_id":"","pricing_plan_id":"cebpf4jnsgd1na2vs0mg"},{"bike_id":"82512acd-d4a4-4e69-ad68-d5bb4078ae7a","system_id":"levelo_inurba_marseille","lat":43.23963,"lon":5.36631,"is_reserved":false,"is_disabled":false,"rental_uris":{"android":"levelo://app?vid=82512acd-d4a4-4e69-ad68-d5bb4078ae7a","ios":"levelo://app?vid=82512acd-d4a4-4e69-ad68-d5bb4078ae7a"},"vehicle_type_id":"4","last_reported":1741770603,"current_range_meters":9600,"station_id":"ce4bhi12rcd13ifvqfp0","pricing_plan_id":"cebpf4jnsgd1na2vs0mg"},{"bike_id":"9880b3b3-4334-44f1-88d3-e581c8981652","system_id":"levelo_inurba_marseille","lat":43.270819,"lon":5.402544,"is_reserved":false,"is_disabled":false,"rental_uris":{"android":"levelo://app?vid=9880b3b3-4334-44f1-88d3-e581c8981652","ios":"levelo://app?vid=9880b3b3-4334-44f1-88d3-e581c8981652"},"vehicle_type_id":"4","last_reported":1741770603,"current_range_meters":9600,"station_id":"ce4bhk92rcd13ifvqgc0","pricing_plan_id":"cebpf4jnsgd1na2vs0mg"},{"bike_id":"47fa1a31-5bb3-4522-abd9-b87b4a821178","system_id":"levelo_inurba_marseille","lat":43.27818,"lon":5.40711,"is_reserved":false,"is_disabled":false,"rental_uris":{"android":"levelo://app?vid=47fa1a31-5bb3-4522-abd9-b87b4a821178","ios":"levelo://app?vid=47fa1a31-5bb3-4522-abd9-b87b4a821178"},"vehicle_type_id":"4","last_reported":1741770603,"current_range_meters":9600,"station_id":"ce4bhnh2rcd13ifvqgtg","pricing_plan_id":"cebpf4jnsgd1na2vs0mg"},{"bike_id":"7c3a3e1c-68d6-4463-8175-9bda204ce949","system_id":"levelo_inurba_marseille","lat":43.31534,"lon":5.38036,"is_reserved":false,"is_disabled":false,"rental_uris":{"android":"levelo://app?vid=7c3a3e1c-68d6-4463-8175-9bda204ce949","ios":"levelo://app?vid=7c3a3e1c-68d6-4463-8175-9bda204ce949"},"vehicle_type_id":"4","last_reported":1741770603,"current_range_meters":9600,"station_id":"ce4bhsp2rcd13ifvqi50","pricing_plan_id":"cebpf4jnsgd1na2vs0mg"},{"bike_id":"9294a26b-c088-4208-917f-c73e3c4f5f46","system_id":"levelo_inurba_marseille","lat":43.30375,"lon":5.40764,"is_reserved":false,"is_disabled":false,"rental_uris":{"android":"levelo://app?vid=9294a26b-c088-4208-917f-c73e3c4f5f46","ios":"levelo://app?vid=9294a26b-c088-4208-917f-c73e3c4f5f46"},"vehicle_type_id":"4","last_reported":1741770603,"current_range_meters":9600,"station_id":"","pricing_plan_id":"cebpf4jnsgd1na2vs0mg"},{"bike_id":"9776d519-3376-4f51-aaa3-2da63911d7cc","system_id":"levelo_inurba_marseille","lat":43.25096,"lon":5.39508,"is_reserved":false,"is_disabled":false,"rental_uris":{"android":"levelo://app?vid=9776d519-3376-4f51-aaa3-2da63911d7cc","ios":"levelo://app?vid=9776d519-3376-4f51-aaa3-2da63911d7cc"},"vehicle_type_id":"4","last_reported":1741770603,"current_range_meters":9600,"station_id":"ce4bhm12rcd13ifvqgkg","pricing_plan_id":"cebpf4jnsgd1na2vs0mg"},{"bike_id":"453f5d19-0c6d-4feb-923e-26ac1adaeb34","system_id":"levelo_inurba_marseille","lat":43.30555,"lon":5.36705,"is_reserved":false,"is_disabled":false,"rental_uris":{"android":"levelo://app?vid=453f5d19-0c6d-4feb-923e-26ac1adaeb34","ios":"levelo://app?vid=453f5d19-0c6d-4feb-923e-26ac1adaeb34"},"vehicle_type_id":"4","last_reported":1741770603,"current_range_meters":9600,"station_id":"ce4bgrp2rcd13ifvqc9g","pricing_plan_id":"cebpf4jnsgd1na2vs0mg"},{"bike_id":"6216841f-c9be-4e6e-bcf4-810c7dd12453","system_id":"levelo_inurba_marseille","lat":43.31206,"lon":5.36852,"is_reserved":false,"is_disabled":false,"rental_uris":{"android":"levelo://app?vid=6216841f-c9be-4e6e-bcf4-810c7dd12453","ios":"levelo://app?vid=6216841f-c9be-4e6e-bcf4-810c7dd12453"},"vehicle_type_id":"4","last_reported":1741770603,"current_range_meters":9600,"station_id":"","pricing_plan_id":"cebpf4jnsgd1na2vs0mg"},{"bike_id":"c1fdf776-5ff6-4f38-96ad-d3bee4a7cebb","system_id":"levelo_inurba_marseille","lat":43.23148,"lon":5.43715,"is_reserved":false,"is_disabled":false,"rental_uris":{"android":"levelo://app?vid=c1fdf776-5ff6-4f38-96ad-d3bee4a7cebb","ios":"levelo://app?vid=c1fdf776-5ff6-4f38-96ad-d3bee4a7cebb"},"vehicle_type_id":"4","last_reported":1741770603,"current_range_meters":9600,"station_id":"ce4bhmp2rcd13ifvqgog","pricing_plan_id":"cebpf4jnsgd1na2vs0mg"},{"bike_id":"f580e5c3-37d1-46f2-8d64-19e1db5d79b5","system_id":"levelo_inurba_marseille","lat":43.275631,"lon":5.423859,"is_reserved":false,"is_disabled":false,"rental_uris":{"android":"levelo://app?vid=f580e5c3-37d1-46f2-8d64-19e1db5d79b5","ios":"levelo://app?vid=f580e5c3-37d1-46f2-8d64-19e1db5d79b5"},"vehicle_type_id":"4","last_reported":1741770603,"current_range_meters":9600,"station_id":"ce4bhn92rcd13ifvqgrg","pricing_plan_id":"cebpf4jnsgd1na2vs0mg"},{"bike_id":"a9a143c8-ddde-463a-9162-d394cf497fa5","system_id":"levelo_inurba_marseille","lat":43.292397,"lon":5.417403,"is_reserved":false,"is_disabled":false,"rental_uris":{"android":"levelo://app?vid=a9a143c8-ddde-463a-9162-d394cf497fa5","ios":"levelo://app?vid=a9a143c8-ddde-463a-9162-d394cf497fa5"},"vehicle_type_id":"4","last_reported":1741770603,"current_range_meters":9600,"station_id":"ce4bhph2rcd13ifvqhdg","pricing_plan_id":"cebpf4jnsgd1na2vs0mg"},{"bike_id":"b39827a8-4d10-4d4c-877f-b9948aa7e9e3","system_id":"levelo_inurba_marseille","lat":43.286041,"lon":5.351051,"is_reserved":false,"is_disabled":false,"rental_uris":{"android":"levelo://app?vid=b39827a8-4d10-4d4c-877f-b9948aa7e9e3","ios":"levelo://app?vid=b39827a8-4d10-4d4c-877f-b9948aa7e9e3"},"vehicle_type_id":"4","last_reported":1741770603,"current_range_meters":9600,"station_id":"ce4bhb12rcd13ifvqem0","pricing_plan_id":"cebpf4jnsgd1na2vs0mg"},{"bike_id":"9c775991-61d5-42d4-b148-d34afa9109e3","system_id":"levelo_inurba_marseille","lat":43.24079,"lon":5.37757,"is_reserved":false,"is_disabled":false,"rental_uris":{"android":"levelo://app?vid=9c775991-61d5-42d4-b148-d34afa9109e3","ios":"levelo://app?vid=9c775991-61d5-42d4-b148-d34afa9109e3"},"vehicle_type_id":"4","last_reported":1741770603,"current_range_meters":9600,"station_id":"ce4bhnp2rcd13ifvqgvg","pricing_plan_id":"cebpf4jnsgd1na2vs0mg"},{"bike_id":"511a478b-16c6-4549-a89d-177a4b1ec633","system_id":"levelo_inurba_marseille","lat":43.2656,"lon":5.37297,"is_reserved":false,"is_disabled":false,"rental_uris":{"android":"levelo://app?vid=511a478b-16c6-4549-a89d-177a4b1ec633","ios":"levelo://app?vid=511a478b-16c6-4549-a89d-177a4b1ec633"},"vehicle_type_id":"4","last_reported":1741770603,"current_range_meters":9600,"station_id":"ce4bhg12rcd13ifvqf70","pricing_plan_id":"cebpf4jnsgd1na2vs0mg"},{"bike_id":"0117055b-abaa-4782-a83e-c23d24cb8a2e","system_id":"levelo_inurba_marseille","lat":43.24649,"lon":5.38903,"is_reserved":false,"is_disabled":false,"rental_uris":{"android":"levelo://app?vid=0117055b-abaa-4782-a83e-c23d24cb8a2e","ios":"levelo://app?vid=0117055b-abaa-4782-a83e-c23d24cb8a2e"},"vehicle_type_id":"4","last_reported":1741770603,"current_range_meters":9600,"station_id":"ce4bhg12rcd13ifvqf60","pricing_plan_id":"cebpf4jnsgd1na2vs0mg"},{"bike_id":"ba18639b-98cc-4ab3-ad63-4ac259cc4916","system_id":"levelo_inurba_marseille","lat":43.23959,"lon":5.3663,"is_reserved":false,"is_disabled":false,"rental_uris":{"android":"levelo://app?vid=ba18639b-98cc-4ab3-ad63-4ac259cc4916","ios":"levelo://app?vid=ba18639b-98cc-4ab3-ad63-4ac259cc4916"},"vehicle_type_id":"4","last_reported":1741770603,"current_range_meters":10000,"station_id":"ce4bhi12rcd13ifvqfp0","pricing_plan_id":"cebpf4jnsgd1na2vs0mg"},{"bike_id":"13038f8e-ae85-4d9c-ac24-31f2124a973b","system_id":"levelo_inurba_marseille","lat":43.24649,"lon":5.3889,"is_reserved":false,"is_disabled":false,"rental_uris":{"android":"levelo://app?vid=13038f8e-ae85-4d9c-ac24-31f2124a973b","ios":"levelo://app?vid=13038f8e-ae85-4d9c-ac24-31f2124a973b"},"vehicle_type_id":"4","last_reported":1741770603,"current_range_meters":10000,"station_id":"ce4bhg12rcd13ifvqf60","pricing_plan_id":"cebpf4jnsgd1na2vs0mg"},{"bike_id":"6b1ac625-c5b4-4d9a-9806-8b50b8e2e4e3","system_id":"levelo_inurba_marseille","lat":43.304199,"lon":5.397472,"is_reserved":false,"is_disabled":false,"rental_uris":{"android":"levelo://app?vid=6b1ac625-c5b4-4d9a-9806-8b50b8e2e4e3","ios":"levelo://app?vid=6b1ac625-c5b4-4d9a-9806-8b50b8e2e4e3"},"vehicle_type_id":"4","last_reported":1741770603,"current_range_meters":10000,"station_id":"ce4bh092rcd13ifvqd20","pricing_plan_id":"cebpf4jnsgd1na2vs0mg"},{"bike_id":"447166a1-bb31-4c42-8f9a-7cb2052fe7e5","system_id":"levelo_inurba_marseille","lat":43.30313,"lon":5.36899,"is_reserved":false,"is_disabled":false,"rental_uris":{"android":"levelo://app?vid=447166a1-bb31-4c42-8f9a-7cb2052fe7e5","ios":"levelo://app?vid=447166a1-bb31-4c42-8f9a-7cb2052fe7e5"},"vehicle_type_id":"4","last_reported":1741770603,"current_range_meters":10000,"station_id":"ce4bgqh2rcd13ifvqc5g","pricing_plan_id":"cebpf4jnsgd1na2vs0mg"},{"bike_id":"766adbd8-a527-4af4-b2a6-af964efd9fd5","system_id":"levelo_inurba_marseille","lat":43.33602,"lon":5.41029,"is_reserved":false,"is_disabled":false,"rental_uris":{"android":"levelo://app?vid=766adbd8-a527-4af4-b2a6-af964efd9fd5","ios":"levelo://app?vid=766adbd8-a527-4af4-b2a6-af964efd9fd5"},"vehicle_type_id":"4","last_reported":1741770603,"current_range_meters":10000,"station_id":"ce4bhqh2rcd13ifvqhmg","pricing_plan_id":"cebpf4jnsgd1na2vs0mg"},{"bike_id":"8dee66dd-a753-4e90-9df0-a75f60b0d66f","system_id":"levelo_inurba_marseille","lat":43.28569,"lon":5.42485,"is_reserved":false,"is_disabled":false,"rental_uris":{"android":"levelo://app?vid=8dee66dd-a753-4e90-9df0-a75f60b0d66f","ios":"levelo://app?vid=8dee66dd-a753-4e90-9df0-a75f60b0d66f"},"vehicle_type_id":"4","last_reported":1741770603,"current_range_meters":10000,"station_id":"","pricing_plan_id":"cebpf4jnsgd1na2vs0mg"},{"bike_id":"03fcef79-f017-4d15-a10d-891c5cd96db2","system_id":"levelo_inurba_marseille","lat":43.23061,"lon":5.35488,"is_reserved":false,"is_disabled":false,"rental_uris":{"android":"levelo://app?vid=03fcef79-f017-4d15-a10d-891c5cd96db2","ios":"levelo://app?vid=03fcef79-f017-4d15-a10d-891c5cd96db2"},"vehicle_type_id":"4","last_reported":1741770603,"current_range_meters":10000,"station_id":"cpo3342slgdg3j2ifvpg","pricing_plan_id":"cebpf4jnsgd1na2vs0mg"},{"bike_id":"f829a819-671e-4b71-9c22-56c5f8047725","system_id":"levelo_inurba_marseille","lat":43.3236,"lon":5.36773,"is_reserved":false,"is_disabled":false,"rental_uris":{"android":"levelo://app?vid=f829a819-671e-4b71-9c22-56c5f8047725","ios":"levelo://app?vid=f829a819-671e-4b71-9c22-56c5f8047725"},"vehicle_type_id":"4","last_reported":1741770603,"current_range_meters":10000,"station_id":"ce4bhsh2rcd13ifvqi2g","pricing_plan_id":"cebpf4jnsgd1na2vs0mg"},{"bike_id":"28ddcdf4-024a-4f42-80ff-fb3bac3f5f61","system_id":"levelo_inurba_marseille","lat":43.24212,"lon":5.36475,"is_reserved":false,"is_disabled":false,"rental_uris":{"android":"levelo://app?vid=28ddcdf4-024a-4f42-80ff-fb3bac3f5f61","ios":"levelo://app?vid=28ddcdf4-024a-4f42-80ff-fb3bac3f5f61"},"vehicle_type_id":"4","last_reported":1741770603,"current_range_meters":10800,"station_id":"","pricing_plan_id":"cebpf4jnsgd1na2vs0mg"},{"bike_id":"5f3f1a70-0201-4f14-a95d-efec88c05d00","system_id":"levelo_inurba_marseille","lat":43.26952,"lon":5.38643,"is_reserved":false,"is_disabled":false,"rental_uris":{"android":"levelo://app?vid=5f3f1a70-0201-4f14-a95d-efec88c05d00","ios":"levelo://app?vid=5f3f1a70-0201-4f14-a95d-efec88c05d00"},"vehicle_type_id":"4","last_reported":1741770603,"current_range_meters":10800,"station_id":"ce4bhh92rcd13ifvqfh0","pricing_plan_id":"cebpf4jnsgd1na2vs0mg"},{"bike_id":"73e322c8-7ded-47ba-9855-1e50f41f6948","system_id":"levelo_inurba_marseille","lat":43.30472,"lon":5.37889,"is_reserved":false,"is_disabled":false,"rental_uris":{"android":"levelo://app?vid=73e322c8-7ded-47ba-9855-1e50f41f6948","ios":"levelo://app?vid=73e322c8-7ded-47ba-9855-1e50f41f6948"},"vehicle_type_id":"4","last_reported":1741770603,"current_range_meters":10800,"station_id":"ce4bgup2rcd13ifvqcn0","pricing_plan_id":"cebpf4jnsgd1na2vs0mg"},{"bike_id":"a9a6863f-abd9-4104-b36e-df800d626d22","system_id":"levelo_inurba_marseille","lat":43.28712,"lon":5.37952,"is_reserved":false,"is_disabled":false,"rental_uris":{"android":"levelo://app?vid=a9a6863f-abd9-4104-b36e-df800d626d22","ios":"levelo://app?vid=a9a6863f-abd9-4104-b36e-df800d626d22"},"vehicle_type_id":"4","last_reported":1741770603,"current_range_meters":10800,"station_id":"ce4bh9p2rcd13ifvqec0","pricing_plan_id":"cebpf4jnsgd1na2vs0mg"},{"bike_id":"f089405c-d65a-4a6b-a39c-5cde3f352c4b","system_id":"levelo_inurba_marseille","lat":43.30557,"lon":5.36698,"is_reserved":false,"is_disabled":false,"rental_uris":{"android":"levelo://app?vid=f089405c-d65a-4a6b-a39c-5cde3f352c4b","ios":"levelo://app?vid=f089405c-d65a-4a6b-a39c-5cde3f352c4b"},"vehicle_type_id":"4","last_reported":1741770603,"current_range_meters":10800,"station_id":"ce4bgrp2rcd13ifvqc9g","pricing_plan_id":"cebpf4jnsgd1na2vs0mg"},{"bike_id":"78a2cf06-a187-45b3-b29d-575bf2a09b16","system_id":"levelo_inurba_marseille","lat":43.24071,"lon":5.37764,"is_reserved":false,"is_disabled":false,"rental_uris":{"android":"levelo://app?vid=78a2cf06-a187-45b3-b29d-575bf2a09b16","ios":"levelo://app?vid=78a2cf06-a187-45b3-b29d-575bf2a09b16"},"vehicle_type_id":"4","last_reported":1741770603,"current_range_meters":10800,"station_id":"ce4bhnp2rcd13ifvqgvg","pricing_plan_id":"cebpf4jnsgd1na2vs0mg"},{"bike_id":"fcb04a08-f6ed-4f5a-9cc1-eb836ef3cba6","system_id":"levelo_inurba_marseille","lat":43.25931,"lon":5.40904,"is_reserved":false,"is_disabled":false,"rental_uris":{"android":"levelo://app?vid=fcb04a08-f6ed-4f5a-9cc1-eb836ef3cba6","ios":"levelo://app?vid=fcb04a08-f6ed-4f5a-9cc1-eb836ef3cba6"},"vehicle_type_id":"4","last_reported":1741770603,"current_range_meters":11200,"station_id":"ce4bhm92rcd13ifvqglg","pricing_plan_id":"cebpf4jnsgd1na2vs0mg"},{"bike_id":"ec5d08ce-934d-49b5-9a73-c20b44942d11","system_id":"levelo_inurba_marseille","lat":43.31409,"lon":5.37569,"is_reserved":false,"is_disabled":false,"rental_uris":{"android":"levelo://app?vid=ec5d08ce-934d-49b5-9a73-c20b44942d11","ios":"levelo://app?vid=ec5d08ce-934d-49b5-9a73-c20b44942d11"},"vehicle_type_id":"4","last_reported":1741770603,"current_range_meters":11200,"station_id":"","pricing_plan_id":"cebpf4jnsgd1na2vs0mg"},{"bike_id":"25937fb7-9dcc-40e4-8919-d293a5121ca0","system_id":"levelo_inurba_marseille","lat":43.28696,"lon":5.37938,"is_reserved":false,"is_disabled":false,"rental_uris":{"android":"levelo://app?vid=25937fb7-9dcc-40e4-8919-d293a5121ca0","ios":"levelo://app?vid=25937fb7-9dcc-40e4-8919-d293a5121ca0"},"vehicle_type_id":"4","last_reported":1741770603,"current_range_meters":11200,"station_id":"ce4bh9p2rcd13ifvqec0","pricing_plan_id":"cebpf4jnsgd1na2vs0mg"},{"bike_id":"6190eac7-4d69-4aee-8885-569caf678aef","system_id":"levelo_inurba_marseille","lat":43.25734,"lon":5.41109,"is_reserved":false,"is_disabled":false,"rental_uris":{"android":"levelo://app?vid=6190eac7-4d69-4aee-8885-569caf678aef","ios":"levelo://app?vid=6190eac7-4d69-4aee-8885-569caf678aef"},"vehicle_type_id":"4","last_reported":1741770603,"current_range_meters":11200,"station_id":"ce4bhkp2rcd13ifvqgd0","pricing_plan_id":"cebpf4jnsgd1na2vs0mg"},{"bike_id":"a4ce6389-69c8-41eb-a2cb-27e113df5153","system_id":"levelo_inurba_marseille","lat":43.2862,"lon":5.35092,"is_reserved":false,"is_disabled":false,"rental_uris":{"android":"levelo://app?vid=a4ce6389-69c8-41eb-a2cb-27e113df5153","ios":"levelo://app?vid=a4ce6389-69c8-41eb-a2cb-27e113df5153"},"vehicle_type_id":"4","last_reported":1741770603,"current_range_meters":11600,"station_id":"ce4bhch2rcd13ifvqeug","pricing_plan_id":"cebpf4jnsgd1na2vs0mg"},{"bike_id":"eb1ba1b6-2e87-45ed-8cf3-925b9709627f","system_id":"levelo_inurba_marseille","lat":43.29347,"lon":5.39302,"is_reserved":false,"is_disabled":false,"rental_uris":{"android":"levelo://app?vid=eb1ba1b6-2e87-45ed-8cf3-925b9709627f","ios":"levelo://app?vid=eb1ba1b6-2e87-45ed-8cf3-925b9709627f"},"vehicle_type_id":"4","last_reported":1741770603,"current_range_meters":11600,"station_id":"ce4bh3p2rcd13ifvqdp0","pricing_plan_id":"cebpf4jnsgd1na2vs0mg"},{"bike_id":"d34c486a-1f4c-4633-aedb-8d2096ade05a","system_id":"levelo_inurba_marseille","lat":43.3079,"lon":5.43508,"is_reserved":false,"is_disabled":false,"rental_uris":{"android":"levelo://app?vid=d34c486a-1f4c-4633-aedb-8d2096ade05a","ios":"levelo://app?vid=d34c486a-1f4c-4633-aedb-8d2096ade05a"},"vehicle_type_id":"4","last_reported":1741770603,"current_range_meters":11600,"station_id":"ce4bhph2rcd13ifvqheg","pricing_plan_id":"cebpf4jnsgd1na2vs0mg"},{"bike_id":"ae3eaafa-ca44-44cc-ad3d-c094da7635c2","system_id":"levelo_inurba_marseille","lat":43.30906,"lon":5.36847,"is_reserved":false,"is_disabled":false,"rental_uris":{"android":"levelo://app?vid=ae3eaafa-ca44-44cc-ad3d-c094da7635c2","ios":"levelo://app?vid=ae3eaafa-ca44-44cc-ad3d-c094da7635c2"},"vehicle_type_id":"4","last_reported":1741770603,"current_range_meters":11600,"station_id":"ce4bgn92rcd13ifvqbvg","pricing_plan_id":"cebpf4jnsgd1na2vs0mg"},{"bike_id":"5dff7e4b-00a4-4649-9663-d77c949847a1","system_id":"levelo_inurba_marseille","lat":43.24176,"lon":5.36403,"is_reserved":false,"is_disabled":false,"rental_uris":{"android":"levelo://app?vid=5dff7e4b-00a4-4649-9663-d77c949847a1","ios":"levelo://app?vid=5dff7e4b-00a4-4649-9663-d77c949847a1"},"vehicle_type_id":"4","last_reported":1741770603,"current_range_meters":11600,"station_id":"cpo36qri1sfpv3e86is0","pricing_plan_id":"cebpf4jnsgd1na2vs0mg"},{"bike_id":"11cd1bed-56ed-4dc0-b424-0daa0b9fc2a3","system_id":"levelo_inurba_marseille","lat":43.29699,"lon":5.37704,"is_reserved":false,"is_disabled":false,"rental_uris":{"android":"levelo://app?vid=11cd1bed-56ed-4dc0-b424-0daa0b9fc2a3","ios":"levelo://app?vid=11cd1bed-56ed-4dc0-b424-0daa0b9fc2a3"},"vehicle_type_id":"4","last_reported":1741770603,"current_range_meters":11600,"station_id":"ce4bgkh2rcd13ifvqbl0","pricing_plan_id":"cebpf4jnsgd1na2vs0mg"},{"bike_id":"def84d26-b13d-4e4f-90cd-257f700cfc2b","system_id":"levelo_inurba_marseille","lat":43.26682,"lon":5.38265,"is_reserved":false,"is_disabled":false,"rental_uris":{"android":"levelo://app?vid=def84d26-b13d-4e4f-90cd-257f700cfc2b","ios":"levelo://app?vid=def84d26-b13d-4e4f-90cd-257f700cfc2b"},"vehicle_type_id":"4","last_reported":1741770603,"current_range_meters":11600,"station_id":"ce4bhg92rcd13ifvqf90","pricing_plan_id":"cebpf4jnsgd1na2vs0mg"},{"bike_id":"35e1c8de-568f-4d43-8c4f-5ad221c99a90","system_id":"levelo_inurba_marseille","lat":43.30188,"lon":5.3663,"is_reserved":false,"is_disabled":false,"rental_uris":{"android":"levelo://app?vid=35e1c8de-568f-4d43-8c4f-5ad221c99a90","ios":"levelo://app?vid=35e1c8de-568f-4d43-8c4f-5ad221c99a90"},"vehicle_type_id":"4","last_reported":1741770603,"current_range_meters":11600,"station_id":"ce4bgrh2rcd13ifvqc8g","pricing_plan_id":"cebpf4jnsgd1na2vs0mg"},{"bike_id":"61280d30-2090-41a2-bd6e-9011a1f3a8c8","system_id":"levelo_inurba_marseille","lat":43.24201,"lon":5.39731,"is_reserved":false,"is_disabled":false,"rental_uris":{"android":"levelo://app?vid=61280d30-2090-41a2-bd6e-9011a1f3a8c8","ios":"levelo://app?vid=61280d30-2090-41a2-bd6e-9011a1f3a8c8"},"vehicle_type_id":"4","last_reported":1741770603,"current_range_meters":11600,"station_id":"ce4bhn12rcd13ifvqgpg","pricing_plan_id":"cebpf4jnsgd1na2vs0mg"},{"bike_id":"ffd681f3-884e-426e-bab9-0fabeb2bc924","system_id":"levelo_inurba_marseille","lat":43.27305,"lon":5.3908,"is_reserved":false,"is_disabled":false,"rental_uris":{"android":"levelo://app?vid=ffd681f3-884e-426e-bab9-0fabeb2bc924","ios":"levelo://app?vid=ffd681f3-884e-426e-bab9-0fabeb2bc924"},"vehicle_type_id":"4","last_reported":1741770603,"current_range_meters":12000,"station_id":"ce4bhgp2rcd13ifvqfe0","pricing_plan_id":"cebpf4jnsgd1na2vs0mg"},{"bike_id":"0a995a9a-6122-4f4b-b298-a8b06cbca7e2","system_id":"levelo_inurba_marseille","lat":43.24988,"lon":5.38917,"is_reserved":false,"is_disabled":false,"rental_uris":{"android":"levelo://app?vid=0a995a9a-6122-4f4b-b298-a8b06cbca7e2","ios":"levelo://app?vid=0a995a9a-6122-4f4b-b298-a8b06cbca7e2"},"vehicle_type_id":"4","last_reported":1741770603,"current_range_meters":12000,"station_id":"ce4bhgp2rcd13ifvqfd0","pricing_plan_id":"cebpf4jnsgd1na2vs0mg"},{"bike_id":"543bee84-d96b-46ff-b88b-0908fee8b27b","system_id":"levelo_inurba_marseille","lat":43.32532,"lon":5.41458,"is_reserved":false,"is_disabled":false,"rental_uris":{"android":"levelo://app?vid=543bee84-d96b-46ff-b88b-0908fee8b27b","ios":"levelo://app?vid=543bee84-d96b-46ff-b88b-0908fee8b27b"},"vehicle_type_id":"4","last_reported":1741770603,"current_range_meters":12000,"station_id":"ce4bhq12rcd13ifvqhhg","pricing_plan_id":"cebpf4jnsgd1na2vs0mg"},{"bike_id":"ccddbd62-8b1a-4859-89fb-c1196cb6d5ae","system_id":"levelo_inurba_marseille","lat":43.25109,"lon":5.40321,"is_reserved":false,"is_disabled":false,"rental_uris":{"android":"levelo://app?vid=ccddbd62-8b1a-4859-89fb-c1196cb6d5ae","ios":"levelo://app?vid=ccddbd62-8b1a-4859-89fb-c1196cb6d5ae"},"vehicle_type_id":"4","last_reported":1741770603,"current_range_meters":12000,"station_id":"ce4bhlh2rcd13ifvqgig","pricing_plan_id":"cebpf4jnsgd1na2vs0mg"},{"bike_id":"1c01930b-65ad-457e-945b-28c1041e2a4c","system_id":"levelo_inurba_marseille","lat":43.31349,"lon":5.36739,"is_reserved":false,"is_disabled":false,"rental_uris":{"android":"levelo://app?vid=1c01930b-65ad-457e-945b-28c1041e2a4c","ios":"levelo://app?vid=1c01930b-65ad-457e-945b-28c1041e2a4c"},"vehicle_type_id":"4","last_reported":1741770603,"current_range_meters":12000,"station_id":"ce4bgr92rcd13ifvqc6g","pricing_plan_id":"cebpf4jnsgd1na2vs0mg"},{"bike_id":"601c8bbf-10e2-4e43-ae99-9fe0a98265c5","system_id":"levelo_inurba_marseille","lat":43.25936,"lon":5.40903,"is_reserved":false,"is_disabled":false,"rental_uris":{"android":"levelo://app?vid=601c8bbf-10e2-4e43-ae99-9fe0a98265c5","ios":"levelo://app?vid=601c8bbf-10e2-4e43-ae99-9fe0a98265c5"},"vehicle_type_id":"4","last_reported":1741770603,"current_range_meters":12000,"station_id":"ce4bhm92rcd13ifvqglg","pricing_plan_id":"cebpf4jnsgd1na2vs0mg"},{"bike_id":"5513c195-ca66-4cb6-ac62-82329b095ea7","system_id":"levelo_inurba_marseille","lat":43.31368,"lon":5.36715,"is_reserved":false,"is_disabled":false,"rental_uris":{"android":"levelo://app?vid=5513c195-ca66-4cb6-ac62-82329b095ea7","ios":"levelo://app?vid=5513c195-ca66-4cb6-ac62-82329b095ea7"},"vehicle_type_id":"4","last_reported":1741770603,"current_range_meters":12400,"station_id":"ce4bgr92rcd13ifvqc6g","pricing_plan_id":"cebpf4jnsgd1na2vs0mg"},{"bike_id":"9cd9549f-d9ce-4915-97f4-0282e09d4c24","system_id":"levelo_inurba_marseille","lat":43.28978,"lon":5.37836,"is_reserved":false,"is_disabled":false,"rental_uris":{"android":"levelo://app?vid=9cd9549f-d9ce-4915-97f4-0282e09d4c24","ios":"levelo://app?vid=9cd9549f-d9ce-4915-97f4-0282e09d4c24"},"vehicle_type_id":"4","last_reported":1741770603,"current_range_meters":12400,"station_id":"ce4bh9p2rcd13ifvqed0","pricing_plan_id":"cebpf4jnsgd1na2vs0mg"},{"bike_id":"a44a1505-94ea-4877-94c3-6f225c9b04fc","system_id":"levelo_inurba_marseille","lat":43.27494,"lon":5.42446,"is_reserved":false,"is_disabled":false,"rental_uris":{"android":"levelo://app?vid=a44a1505-94ea-4877-94c3-6f225c9b04fc","ios":"levelo://app?vid=a44a1505-94ea-4877-94c3-6f225c9b04fc"},"vehicle_type_id":"4","last_reported":1741770603,"current_range_meters":12400,"station_id":"ce4bhn92rcd13ifvqgrg","pricing_plan_id":"cebpf4jnsgd1na2vs0mg"},{"bike_id":"a81d7902-8b48-4eec-8665-39e329864078","system_id":"levelo_inurba_marseille","lat":43.30175,"lon":5.36617,"is_reserved":false,"is_disabled":false,"rental_uris":{"android":"levelo://app?vid=a81d7902-8b48-4eec-8665-39e329864078","ios":"levelo://app?vid=a81d7902-8b48-4eec-8665-39e329864078"},"vehicle_type_id":"4","last_reported":1741770603,"current_range_meters":12400,"station_id":"ce4bgrh2rcd13ifvqc8g","pricing_plan_id":"cebpf4jnsgd1na2vs0mg"},{"bike_id":"6dbc9b4a-c5a1-4dbf-a00f-5bb7462d2694","system_id":"levelo_inurba_marseille","lat":43.281067,"lon":5.39853,"is_reserved":false,"is_disabled":true,"rental_uris":{"android":"levelo://app?vid=6dbc9b4a-c5a1-4dbf-a00f-5bb7462d2694","ios":"levelo://app?vid=6dbc9b4a-c5a1-4dbf-a00f-5bb7462d2694"},"vehicle_type_id":"4","last_reported":1741770603,"current_range_meters":12400,"station_id":"","pricing_plan_id":"cebpf4jnsgd1na2vs0mg"},{"bike_id":"8afc345b-56b8-46e6-a0b1-6f81dadf6638","system_id":"levelo_inurba_marseille","lat":43.24177,"lon":5.39733,"is_reserved":false,"is_disabled":false,"rental_uris":{"android":"levelo://app?vid=8afc345b-56b8-46e6-a0b1-6f81dadf6638","ios":"levelo://app?vid=8afc345b-56b8-46e6-a0b1-6f81dadf6638"},"vehicle_type_id":"4","last_reported":1741770603,"current_range_meters":12400,"station_id":"ce4bhn12rcd13ifvqgpg","pricing_plan_id":"cebpf4jnsgd1na2vs0mg"},{"bike_id":"b44022d5-a3c8-45f9-9984-eaba76929c7b","system_id":"levelo_inurba_marseille","lat":43.2784,"lon":5.40723,"is_reserved":false,"is_disabled":false,"rental_uris":{"android":"levelo://app?vid=b44022d5-a3c8-45f9-9984-eaba76929c7b","ios":"levelo://app?vid=b44022d5-a3c8-45f9-9984-eaba76929c7b"},"vehicle_type_id":"4","last_reported":1741770603,"current_range_meters":12400,"station_id":"ce4bhnh2rcd13ifvqgtg","pricing_plan_id":"cebpf4jnsgd1na2vs0mg"},{"bike_id":"45345445-a78a-493f-a730-c619602e3241","system_id":"levelo_inurba_marseille","lat":43.256073,"lon":5.385491,"is_reserved":false,"is_disabled":false,"rental_uris":{"android":"levelo://app?vid=45345445-a78a-493f-a730-c619602e3241","ios":"levelo://app?vid=45345445-a78a-493f-a730-c619602e3241"},"vehicle_type_id":"4","last_reported":1741770603,"current_range_meters":12400,"station_id":"","pricing_plan_id":"cebpf4jnsgd1na2vs0mg"},{"bike_id":"885ff003-ec85-480a-9687-77cb94ebb1b4","system_id":"levelo_inurba_marseille","lat":43.33606,"lon":5.41035,"is_reserved":false,"is_disabled":false,"rental_uris":{"android":"levelo://app?vid=885ff003-ec85-480a-9687-77cb94ebb1b4","ios":"levelo://app?vid=885ff003-ec85-480a-9687-77cb94ebb1b4"},"vehicle_type_id":"4","last_reported":1741770603,"current_range_meters":12400,"station_id":"ce4bhqh2rcd13ifvqhmg","pricing_plan_id":"cebpf4jnsgd1na2vs0mg"},{"bike_id":"843c81a9-3053-4a25-8ea4-9fed425794d0","system_id":"levelo_inurba_marseille","lat":43.30466,"lon":5.379,"is_reserved":false,"is_disabled":false,"rental_uris":{"android":"levelo://app?vid=843c81a9-3053-4a25-8ea4-9fed425794d0","ios":"levelo://app?vid=843c81a9-3053-4a25-8ea4-9fed425794d0"},"vehicle_type_id":"4","last_reported":1741770603,"current_range_meters":12400,"station_id":"ce4bgup2rcd13ifvqcn0","pricing_plan_id":"cebpf4jnsgd1na2vs0mg"},{"bike_id":"cd06313c-d9cb-4a80-8ba9-4f9e1f0cba80","system_id":"levelo_inurba_marseille","lat":43.33602,"lon":5.41032,"is_reserved":false,"is_disabled":false,"rental_uris":{"android":"levelo://app?vid=cd06313c-d9cb-4a80-8ba9-4f9e1f0cba80","ios":"levelo://app?vid=cd06313c-d9cb-4a80-8ba9-4f9e1f0cba80"},"vehicle_type_id":"4","last_reported":1741770603,"current_range_meters":12400,"station_id":"ce4bhqh2rcd13ifvqhmg","pricing_plan_id":"cebpf4jnsgd1na2vs0mg"},{"bike_id":"fb55f9d1-18dc-4569-919c-3c5a2e705317","system_id":"levelo_inurba_marseille","lat":43.324831,"lon":5.36589,"is_reserved":false,"is_disabled":false,"rental_uris":{"android":"levelo://app?vid=fb55f9d1-18dc-4569-919c-3c5a2e705317","ios":"levelo://app?vid=fb55f9d1-18dc-4569-919c-3c5a2e705317"},"vehicle_type_id":"4","last_reported":1741770603,"current_range_meters":12800,"station_id":"ce4bhs12rcd13ifvqhvg","pricing_plan_id":"cebpf4jnsgd1na2vs0mg"},{"bike_id":"9cc134b4-3275-4f84-9961-51fb6068a565","system_id":"levelo_inurba_marseille","lat":43.30907,"lon":5.36856,"is_reserved":false,"is_disabled":false,"rental_uris":{"android":"levelo://app?vid=9cc134b4-3275-4f84-9961-51fb6068a565","ios":"levelo://app?vid=9cc134b4-3275-4f84-9961-51fb6068a565"},"vehicle_type_id":"4","last_reported":1741770603,"current_range_meters":13600,"station_id":"ce4bgn92rcd13ifvqbvg","pricing_plan_id":"cebpf4jnsgd1na2vs0mg"},{"bike_id":"a7c2e7e0-7201-4785-9233-c26ab8f60f63","system_id":"levelo_inurba_marseille","lat":43.299,"lon":5.37472,"is_reserved":false,"is_disabled":false,"rental_uris":{"android":"levelo://app?vid=a7c2e7e0-7201-4785-9233-c26ab8f60f63","ios":"levelo://app?vid=a7c2e7e0-7201-4785-9233-c26ab8f60f63"},"vehicle_type_id":"4","last_reported":1741770603,"current_range_meters":13600,"station_id":"ce4bgjh2rcd13ifvqbg0","pricing_plan_id":"cebpf4jnsgd1na2vs0mg"},{"bike_id":"c2fdc035-3896-46f1-aee2-5294a5907071","system_id":"levelo_inurba_marseille","lat":43.24999,"lon":5.38932,"is_reserved":false,"is_disabled":false,"rental_uris":{"android":"levelo://app?vid=c2fdc035-3896-46f1-aee2-5294a5907071","ios":"levelo://app?vid=c2fdc035-3896-46f1-aee2-5294a5907071"},"vehicle_type_id":"4","last_reported":1741770603,"current_range_meters":13600,"station_id":"ce4bhgp2rcd13ifvqfd0","pricing_plan_id":"cebpf4jnsgd1na2vs0mg"},{"bike_id":"29a79942-87b6-4add-bc4a-da907bdbb506","system_id":"levelo_inurba_marseille","lat":43.23156,"lon":5.43715,"is_reserved":false,"is_disabled":false,"rental_uris":{"android":"levelo://app?vid=29a79942-87b6-4add-bc4a-da907bdbb506","ios":"levelo://app?vid=29a79942-87b6-4add-bc4a-da907bdbb506"},"vehicle_type_id":"4","last_reported":1741770603,"current_range_meters":13600,"station_id":"ce4bhmp2rcd13ifvqgog","pricing_plan_id":"cebpf4jnsgd1na2vs0mg"},{"bike_id":"07ae81dc-aa2e-4f6c-bbd1-2309993788ef","system_id":"levelo_inurba_marseille","lat":43.29858,"lon":5.36278,"is_reserved":false,"is_disabled":false,"rental_uris":{"android":"levelo://app?vid=07ae81dc-aa2e-4f6c-bbd1-2309993788ef","ios":"levelo://app?vid=07ae81dc-aa2e-4f6c-bbd1-2309993788ef"},"vehicle_type_id":"4","last_reported":1741770603,"current_range_meters":14000,"station_id":"ce4bgpp2rcd13ifvqc3g","pricing_plan_id":"cebpf4jnsgd1na2vs0mg"},{"bike_id":"d4df08b0-e4dd-4c4b-ac7e-66a43d848ae1","system_id":"levelo_inurba_marseille","lat":43.312505,"lon":5.368425,"is_reserved":false,"is_disabled":false,"rental_uris":{"android":"levelo://app?vid=d4df08b0-e4dd-4c4b-ac7e-66a43d848ae1","ios":"levelo://app?vid=d4df08b0-e4dd-4c4b-ac7e-66a43d848ae1"},"vehicle_type_id":"4","last_reported":1741770603,"current_range_meters":14000,"station_id":"ce4bgl92rcd13ifvqbq0","pricing_plan_id":"cebpf4jnsgd1na2vs0mg"},{"bike_id":"af922a79-15d2-4675-aa44-21fc2b05c5f5","system_id":"levelo_inurba_marseille","lat":43.30144,"lon":5.39849,"is_reserved":false,"is_disabled":false,"rental_uris":{"android":"levelo://app?vid=af922a79-15d2-4675-aa44-21fc2b05c5f5","ios":"levelo://app?vid=af922a79-15d2-4675-aa44-21fc2b05c5f5"},"vehicle_type_id":"4","last_reported":1741770603,"current_range_meters":14000,"station_id":"ce4bh0h2rcd13ifvqd40","pricing_plan_id":"cebpf4jnsgd1na2vs0mg"},{"bike_id":"5c5a1211-6311-48bc-9e2b-a941e0264db1","system_id":"levelo_inurba_marseille","lat":43.33601,"lon":5.41031,"is_reserved":false,"is_disabled":false,"rental_uris":{"android":"levelo://app?vid=5c5a1211-6311-48bc-9e2b-a941e0264db1","ios":"levelo://app?vid=5c5a1211-6311-48bc-9e2b-a941e0264db1"},"vehicle_type_id":"4","last_reported":1741770603,"current_range_meters":14000,"station_id":"ce4bhqh2rcd13ifvqhmg","pricing_plan_id":"cebpf4jnsgd1na2vs0mg"},{"bike_id":"c48df662-5b71-424d-adcd-5061f3fda701","system_id":"levelo_inurba_marseille","lat":43.30906,"lon":5.36845,"is_reserved":false,"is_disabled":false,"rental_uris":{"android":"levelo://app?vid=c48df662-5b71-424d-adcd-5061f3fda701","ios":"levelo://app?vid=c48df662-5b71-424d-adcd-5061f3fda701"},"vehicle_type_id":"4","last_reported":1741770603,"current_range_meters":14400,"station_id":"ce4bgn92rcd13ifvqbvg","pricing_plan_id":"cebpf4jnsgd1na2vs0mg"},{"bike_id":"1b570085-2c5a-471f-a15f-d39cc32c0176","system_id":"levelo_inurba_marseille","lat":43.27944,"lon":5.41052,"is_reserved":false,"is_disabled":false,"rental_uris":{"android":"levelo://app?vid=1b570085-2c5a-471f-a15f-d39cc32c0176","ios":"levelo://app?vid=1b570085-2c5a-471f-a15f-d39cc32c0176"},"vehicle_type_id":"4","last_reported":1741770603,"current_range_meters":14400,"station_id":"ce4bhnp2rcd13ifvqh0g","pricing_plan_id":"cebpf4jnsgd1na2vs0mg"},{"bike_id":"a742c346-5270-4892-9c19-a4694828d3d8","system_id":"levelo_inurba_marseille","lat":43.30273,"lon":5.37725,"is_reserved":false,"is_disabled":false,"rental_uris":{"android":"levelo://app?vid=a742c346-5270-4892-9c19-a4694828d3d8","ios":"levelo://app?vid=a742c346-5270-4892-9c19-a4694828d3d8"},"vehicle_type_id":"4","last_reported":1741770603,"current_range_meters":14400,"station_id":"ce4bguh2rcd13ifvqcj0","pricing_plan_id":"cebpf4jnsgd1na2vs0mg"},{"bike_id":"55460cd7-9b41-4f6b-8ca9-a135ac7ebf19","system_id":"levelo_inurba_marseille","lat":43.25087,"lon":5.39503,"is_reserved":false,"is_disabled":false,"rental_uris":{"android":"levelo://app?vid=55460cd7-9b41-4f6b-8ca9-a135ac7ebf19","ios":"levelo://app?vid=55460cd7-9b41-4f6b-8ca9-a135ac7ebf19"},"vehicle_type_id":"4","last_reported":1741770603,"current_range_meters":14400,"station_id":"ce4bhm12rcd13ifvqgkg","pricing_plan_id":"cebpf4jnsgd1na2vs0mg"},{"bike_id":"984b22ce-2048-4307-9b4e-f52ecf46c0a3","system_id":"levelo_inurba_marseille","lat":43.29001,"lon":5.35608,"is_reserved":false,"is_disabled":false,"rental_uris":{"android":"levelo://app?vid=984b22ce-2048-4307-9b4e-f52ecf46c0a3","ios":"levelo://app?vid=984b22ce-2048-4307-9b4e-f52ecf46c0a3"},"vehicle_type_id":"4","last_reported":1741770603,"current_range_meters":14800,"station_id":"ce4bhb92rcd13ifvqen0","pricing_plan_id":"cebpf4jnsgd1na2vs0mg"},{"bike_id":"13f25f1c-e9b5-4f78-bf4f-12d45715847f","system_id":"levelo_inurba_marseille","lat":43.26681,"lon":5.38267,"is_reserved":false,"is_disabled":false,"rental_uris":{"android":"levelo://app?vid=13f25f1c-e9b5-4f78-bf4f-12d45715847f","ios":"levelo://app?vid=13f25f1c-e9b5-4f78-bf4f-12d45715847f"},"vehicle_type_id":"4","last_reported":1741770603,"current_range_meters":14800,"station_id":"ce4bhg92rcd13ifvqf90","pricing_plan_id":"cebpf4jnsgd1na2vs0mg"},{"bike_id":"6138af76-a43f-4070-ad14-584621e56e8e","system_id":"levelo_inurba_marseille","lat":43.30958,"lon":5.39053,"is_reserved":false,"is_disabled":false,"rental_uris":{"android":"levelo://app?vid=6138af76-a43f-4070-ad14-584621e56e8e","ios":"levelo://app?vid=6138af76-a43f-4070-ad14-584621e56e8e"},"vehicle_type_id":"4","last_reported":1741770603,"current_range_meters":14800,"station_id":"ce4bgup2rcd13ifvqco0","pricing_plan_id":"cebpf4jnsgd1na2vs0mg"},{"bike_id":"4c607265-c996-4d9b-81fd-daa80dd99e32","system_id":"levelo_inurba_marseille","lat":43.28747,"lon":5.38422,"is_reserved":false,"is_disabled":false,"rental_uris":{"android":"levelo://app?vid=4c607265-c996-4d9b-81fd-daa80dd99e32","ios":"levelo://app?vid=4c607265-c996-4d9b-81fd-daa80dd99e32"},"vehicle_type_id":"4","last_reported":1741770603,"current_range_meters":14800,"station_id":"","pricing_plan_id":"cebpf4jnsgd1na2vs0mg"},{"bike_id":"cd6f362f-25b2-4037-a5e5-fdc63e984209","system_id":"levelo_inurba_marseille","lat":43.23156,"lon":5.43698,"is_reserved":false,"is_disabled":false,"rental_uris":{"android":"levelo://app?vid=cd6f362f-25b2-4037-a5e5-fdc63e984209","ios":"levelo://app?vid=cd6f362f-25b2-4037-a5e5-fdc63e984209"},"vehicle_type_id":"4","last_reported":1741770603,"current_range_meters":14800,"station_id":"ce4bhmp2rcd13ifvqgog","pricing_plan_id":"cebpf4jnsgd1na2vs0mg"},{"bike_id":"ba12daba-d8c9-4d0d-a041-99082b815d6f","system_id":"levelo_inurba_marseille","lat":43.30533,"lon":5.36722,"is_reserved":false,"is_disabled":false,"rental_uris":{"android":"levelo://app?vid=ba12daba-d8c9-4d0d-a041-99082b815d6f","ios":"levelo://app?vid=ba12daba-d8c9-4d0d-a041-99082b815d6f"},"vehicle_type_id":"4","last_reported":1741770603,"current_range_meters":14800,"station_id":"ce4bgrp2rcd13ifvqc9g","pricing_plan_id":"cebpf4jnsgd1na2vs0mg"},{"bike_id":"f595a602-36be-42b2-bf6e-1706bf5d1263","system_id":"levelo_inurba_marseille","lat":43.30907,"lon":5.36844,"is_reserved":false,"is_disabled":false,"rental_uris":{"android":"levelo://app?vid=f595a602-36be-42b2-bf6e-1706bf5d1263","ios":"levelo://app?vid=f595a602-36be-42b2-bf6e-1706bf5d1263"},"vehicle_type_id":"4","last_reported":1741770603,"current_range_meters":15200,"station_id":"ce4bgn92rcd13ifvqbvg","pricing_plan_id":"cebpf4jnsgd1na2vs0mg"},{"bike_id":"5d921864-461d-43e0-8068-dbf8d25be452","system_id":"levelo_inurba_marseille","lat":43.28973,"lon":5.37838,"is_reserved":false,"is_disabled":false,"rental_uris":{"android":"levelo://app?vid=5d921864-461d-43e0-8068-dbf8d25be452","ios":"levelo://app?vid=5d921864-461d-43e0-8068-dbf8d25be452"},"vehicle_type_id":"4","last_reported":1741770603,"current_range_meters":15200,"station_id":"ce4bh9p2rcd13ifvqed0","pricing_plan_id":"cebpf4jnsgd1na2vs0mg"},{"bike_id":"520e5777-8ffd-4e86-b742-bf08e55e782e","system_id":"levelo_inurba_marseille","lat":43.30092,"lon":5.3907,"is_reserved":false,"is_disabled":false,"rental_uris":{"android":"levelo://app?vid=520e5777-8ffd-4e86-b742-bf08e55e782e","ios":"levelo://app?vid=520e5777-8ffd-4e86-b742-bf08e55e782e"},"vehicle_type_id":"4","last_reported":1741770603,"current_range_meters":15200,"station_id":"ce4bh192rcd13ifvqdb0","pricing_plan_id":"cebpf4jnsgd1na2vs0mg"},{"bike_id":"7e0a8a39-e289-4f36-b5ae-3df7ffe15883","system_id":"levelo_inurba_marseille","lat":43.31113,"lon":5.37781,"is_reserved":false,"is_disabled":false,"rental_uris":{"android":"levelo://app?vid=7e0a8a39-e289-4f36-b5ae-3df7ffe15883","ios":"levelo://app?vid=7e0a8a39-e289-4f36-b5ae-3df7ffe15883"},"vehicle_type_id":"4","last_reported":1741770603,"current_range_meters":15200,"station_id":"ce4bgt92rcd13ifvqcg0","pricing_plan_id":"cebpf4jnsgd1na2vs0mg"},{"bike_id":"6f4c9526-e882-40d0-bbc5-c3775986ec76","system_id":"levelo_inurba_marseille","lat":43.2407,"lon":5.37755,"is_reserved":false,"is_disabled":false,"rental_uris":{"android":"levelo://app?vid=6f4c9526-e882-40d0-bbc5-c3775986ec76","ios":"levelo://app?vid=6f4c9526-e882-40d0-bbc5-c3775986ec76"},"vehicle_type_id":"4","last_reported":1741770603,"current_range_meters":15200,"station_id":"ce4bhnp2rcd13ifvqgvg","pricing_plan_id":"cebpf4jnsgd1na2vs0mg"},{"bike_id":"89f1e0f5-2be8-400b-8787-5c6c43ec615d","system_id":"levelo_inurba_marseille","lat":43.25935,"lon":5.4091,"is_reserved":false,"is_disabled":false,"rental_uris":{"android":"levelo://app?vid=89f1e0f5-2be8-400b-8787-5c6c43ec615d","ios":"levelo://app?vid=89f1e0f5-2be8-400b-8787-5c6c43ec615d"},"vehicle_type_id":"4","last_reported":1741770603,"current_range_meters":15200,"station_id":"ce4bhm92rcd13ifvqglg","pricing_plan_id":"cebpf4jnsgd1na2vs0mg"},{"bike_id":"5a2fac9e-7560-4954-8011-a7bd59004a4d","system_id":"levelo_inurba_marseille","lat":43.29839,"lon":5.362617,"is_reserved":false,"is_disabled":false,"rental_uris":{"android":"levelo://app?vid=5a2fac9e-7560-4954-8011-a7bd59004a4d","ios":"levelo://app?vid=5a2fac9e-7560-4954-8011-a7bd59004a4d"},"vehicle_type_id":"4","last_reported":1741770603,"current_range_meters":16000,"station_id":"ce4bgpp2rcd13ifvqc3g","pricing_plan_id":"cebpf4jnsgd1na2vs0mg"},{"bike_id":"d3ac1ba6-6349-4d47-99e4-9f85d3ef1aa5","system_id":"levelo_inurba_marseille","lat":43.28504,"lon":5.36876,"is_reserved":false,"is_disabled":false,"rental_uris":{"android":"levelo://app?vid=d3ac1ba6-6349-4d47-99e4-9f85d3ef1aa5","ios":"levelo://app?vid=d3ac1ba6-6349-4d47-99e4-9f85d3ef1aa5"},"vehicle_type_id":"4","last_reported":1741770603,"current_range_meters":16000,"station_id":"","pricing_plan_id":"cebpf4jnsgd1na2vs0mg"},{"bike_id":"f56fd108-4f2b-4a8c-8de6-76f811587164","system_id":"levelo_inurba_marseille","lat":43.26785,"lon":5.39418,"is_reserved":false,"is_disabled":false,"rental_uris":{"android":"levelo://app?vid=f56fd108-4f2b-4a8c-8de6-76f811587164","ios":"levelo://app?vid=f56fd108-4f2b-4a8c-8de6-76f811587164"},"vehicle_type_id":"4","last_reported":1741770603,"current_range_meters":16000,"station_id":"ce4bhh12rcd13ifvqfg0","pricing_plan_id":"cebpf4jnsgd1na2vs0mg"},{"bike_id":"7315a875-fa76-4210-b51f-8653ba99a23c","system_id":"levelo_inurba_marseille","lat":43.2731,"lon":5.39118,"is_reserved":false,"is_disabled":false,"rental_uris":{"android":"levelo://app?vid=7315a875-fa76-4210-b51f-8653ba99a23c","ios":"levelo://app?vid=7315a875-fa76-4210-b51f-8653ba99a23c"},"vehicle_type_id":"4","last_reported":1741770603,"current_range_meters":16000,"station_id":"ce4bhgp2rcd13ifvqfe0","pricing_plan_id":"cebpf4jnsgd1na2vs0mg"},{"bike_id":"2872f208-7a92-4283-a98c-8da021fd4c46","system_id":"levelo_inurba_marseille","lat":43.30273,"lon":5.37701,"is_reserved":false,"is_disabled":false,"rental_uris":{"android":"levelo://app?vid=2872f208-7a92-4283-a98c-8da021fd4c46","ios":"levelo://app?vid=2872f208-7a92-4283-a98c-8da021fd4c46"},"vehicle_type_id":"4","last_reported":1741770603,"current_range_meters":16000,"station_id":"ce4bguh2rcd13ifvqcj0","pricing_plan_id":"cebpf4jnsgd1na2vs0mg"},{"bike_id":"c8f5a7aa-328f-49c1-a785-9624fa888d07","system_id":"levelo_inurba_marseille","lat":43.25028,"lon":5.38934,"is_reserved":false,"is_disabled":false,"rental_uris":{"android":"levelo://app?vid=c8f5a7aa-328f-49c1-a785-9624fa888d07","ios":"levelo://app?vid=c8f5a7aa-328f-49c1-a785-9624fa888d07"},"vehicle_type_id":"4","last_reported":1741770603,"current_range_meters":16000,"station_id":"ce4bhgp2rcd13ifvqfd0","pricing_plan_id":"cebpf4jnsgd1na2vs0mg"},{"bike_id":"9041a4bf-04f9-4306-a354-61b29a20ba3f","system_id":"levelo_inurba_marseille","lat":43.30433,"lon":5.39741,"is_reserved":false,"is_disabled":false,"rental_uris":{"android":"levelo://app?vid=9041a4bf-04f9-4306-a354-61b29a20ba3f","ios":"levelo://app?vid=9041a4bf-04f9-4306-a354-61b29a20ba3f"},"vehicle_type_id":"4","last_reported":1741770603,"current_range_meters":16000,"station_id":"ce4bh092rcd13ifvqd20","pricing_plan_id":"cebpf4jnsgd1na2vs0mg"},{"bike_id":"583e9a08-8a7b-47cc-aaab-563ec5211ebd","system_id":"levelo_inurba_marseille","lat":43.30533,"lon":5.36564,"is_reserved":false,"is_disabled":false,"rental_uris":{"android":"levelo://app?vid=583e9a08-8a7b-47cc-aaab-563ec5211ebd","ios":"levelo://app?vid=583e9a08-8a7b-47cc-aaab-563ec5211ebd"},"vehicle_type_id":"4","last_reported":1741770603,"current_range_meters":16000,"station_id":"ce4bgs12rcd13ifvqcag","pricing_plan_id":"cebpf4jnsgd1na2vs0mg"},{"bike_id":"2e69c038-1f0e-4b59-88ae-dcbb2615c1eb","system_id":"levelo_inurba_marseille","lat":43.29291,"lon":5.40135,"is_reserved":false,"is_disabled":false,"rental_uris":{"android":"levelo://app?vid=2e69c038-1f0e-4b59-88ae-dcbb2615c1eb","ios":"levelo://app?vid=2e69c038-1f0e-4b59-88ae-dcbb2615c1eb"},"vehicle_type_id":"4","last_reported":1741770603,"current_range_meters":16000,"station_id":"ce4bh312rcd13ifvqdk0","pricing_plan_id":"cebpf4jnsgd1na2vs0mg"},{"bike_id":"06c2343e-22ea-46c4-bebc-d383c0ea6807","system_id":"levelo_inurba_marseille","lat":43.29973,"lon":5.38491,"is_reserved":false,"is_disabled":false,"rental_uris":{"android":"levelo://app?vid=06c2343e-22ea-46c4-bebc-d383c0ea6807","ios":"levelo://app?vid=06c2343e-22ea-46c4-bebc-d383c0ea6807"},"vehicle_type_id":"4","last_reported":1741770603,"current_range_meters":16000,"station_id":"ce4bgj92rcd13ifvqbd0","pricing_plan_id":"cebpf4jnsgd1na2vs0mg"},{"bike_id":"f4703ec0-2e9c-49e1-90f1-d1bdf69a84d4","system_id":"levelo_inurba_marseille","lat":43.26679,"lon":5.38264,"is_reserved":false,"is_disabled":false,"rental_uris":{"android":"levelo://app?vid=f4703ec0-2e9c-49e1-90f1-d1bdf69a84d4","ios":"levelo://app?vid=f4703ec0-2e9c-49e1-90f1-d1bdf69a84d4"},"vehicle_type_id":"4","last_reported":1741770603,"current_range_meters":16400,"station_id":"ce4bhg92rcd13ifvqf90","pricing_plan_id":"cebpf4jnsgd1na2vs0mg"},{"bike_id":"9ee3b534-911c-448d-bb36-2434c5536575","system_id":"levelo_inurba_marseille","lat":43.24554,"lon":5.39545,"is_reserved":false,"is_disabled":false,"rental_uris":{"android":"levelo://app?vid=9ee3b534-911c-448d-bb36-2434c5536575","ios":"levelo://app?vid=9ee3b534-911c-448d-bb36-2434c5536575"},"vehicle_type_id":"4","last_reported":1741770603,"current_range_meters":16400,"station_id":"ce4bhlp2rcd13ifvqgjg","pricing_plan_id":"cebpf4jnsgd1na2vs0mg"},{"bike_id":"b479f388-c785-4947-8169-e12f78c8d169","system_id":"levelo_inurba_marseille","lat":43.23179,"lon":5.39954,"is_reserved":false,"is_disabled":false,"rental_uris":{"android":"levelo://app?vid=b479f388-c785-4947-8169-e12f78c8d169","ios":"levelo://app?vid=b479f388-c785-4947-8169-e12f78c8d169"},"vehicle_type_id":"4","last_reported":1741770603,"current_range_meters":16400,"station_id":"ce4bhn12rcd13ifvqgqg","pricing_plan_id":"cebpf4jnsgd1na2vs0mg"},{"bike_id":"223e3379-9e12-491c-a6e0-15c33ad5def1","system_id":"levelo_inurba_marseille","lat":43.29907,"lon":5.38139,"is_reserved":false,"is_disabled":false,"rental_uris":{"android":"levelo://app?vid=223e3379-9e12-491c-a6e0-15c33ad5def1","ios":"levelo://app?vid=223e3379-9e12-491c-a6e0-15c33ad5def1"},"vehicle_type_id":"4","last_reported":1741770603,"current_range_meters":16400,"station_id":"ce4bgj12rcd13ifvqbc0","pricing_plan_id":"cebpf4jnsgd1na2vs0mg"},{"bike_id":"d1235ce3-1007-4d2d-9e28-ea39398a63a8","system_id":"levelo_inurba_marseille","lat":43.23196,"lon":5.35545,"is_reserved":false,"is_disabled":false,"rental_uris":{"android":"levelo://app?vid=d1235ce3-1007-4d2d-9e28-ea39398a63a8","ios":"levelo://app?vid=d1235ce3-1007-4d2d-9e28-ea39398a63a8"},"vehicle_type_id":"4","last_reported":1741770603,"current_range_meters":16400,"station_id":"ce4bhu92rcd13ifvqi70","pricing_plan_id":"cebpf4jnsgd1na2vs0mg"},{"bike_id":"2085ceb8-6e0e-430a-a72c-4a267cbb2c2f","system_id":"levelo_inurba_marseille","lat":43.24072,"lon":5.37762,"is_reserved":false,"is_disabled":false,"rental_uris":{"android":"levelo://app?vid=2085ceb8-6e0e-430a-a72c-4a267cbb2c2f","ios":"levelo://app?vid=2085ceb8-6e0e-430a-a72c-4a267cbb2c2f"},"vehicle_type_id":"4","last_reported":1741770603,"current_range_meters":16400,"station_id":"ce4bhnp2rcd13ifvqgvg","pricing_plan_id":"cebpf4jnsgd1na2vs0mg"},{"bike_id":"ca762409-3e9b-49eb-b311-18b138aaa95f","system_id":"levelo_inurba_marseille","lat":43.33701,"lon":5.39172,"is_reserved":false,"is_disabled":false,"rental_uris":{"android":"levelo://app?vid=ca762409-3e9b-49eb-b311-18b138aaa95f","ios":"levelo://app?vid=ca762409-3e9b-49eb-b311-18b138aaa95f"},"vehicle_type_id":"4","last_reported":1741770603,"current_range_meters":16400,"station_id":"ce4bhr92rcd13ifvqhsg","pricing_plan_id":"cebpf4jnsgd1na2vs0mg"},{"bike_id":"cefa473e-a97a-4a96-a483-db5a16038982","system_id":"levelo_inurba_marseille","lat":43.26071,"lon":5.39391,"is_reserved":false,"is_disabled":false,"rental_uris":{"android":"levelo://app?vid=cefa473e-a97a-4a96-a483-db5a16038982","ios":"levelo://app?vid=cefa473e-a97a-4a96-a483-db5a16038982"},"vehicle_type_id":"4","last_reported":1741770603,"current_range_meters":16400,"station_id":"ce4bhh92rcd13ifvqfj0","pricing_plan_id":"cebpf4jnsgd1na2vs0mg"},{"bike_id":"99a3f406-b0b8-4066-adb6-b7e55216ac38","system_id":"levelo_inurba_marseille","lat":43.30279,"lon":5.37702,"is_reserved":false,"is_disabled":false,"rental_uris":{"android":"levelo://app?vid=99a3f406-b0b8-4066-adb6-b7e55216ac38","ios":"levelo://app?vid=99a3f406-b0b8-4066-adb6-b7e55216ac38"},"vehicle_type_id":"4","last_reported":1741770603,"current_range_meters":16400,"station_id":"ce4bguh2rcd13ifvqcj0","pricing_plan_id":"cebpf4jnsgd1na2vs0mg"},{"bike_id":"e65eeaba-6ddc-4e1d-b451-59b5b5fdeeec","system_id":"levelo_inurba_marseille","lat":43.29057,"lon":5.37774,"is_reserved":false,"is_disabled":false,"rental_uris":{"android":"levelo://app?vid=e65eeaba-6ddc-4e1d-b451-59b5b5fdeeec","ios":"levelo://app?vid=e65eeaba-6ddc-4e1d-b451-59b5b5fdeeec"},"vehicle_type_id":"4","last_reported":1741770603,"current_range_meters":16400,"station_id":"","pricing_plan_id":"cebpf4jnsgd1na2vs0mg"},{"bike_id":"c2706a7e-a77b-44ef-bc8f-95c2f6e1b539","system_id":"levelo_inurba_marseille","lat":43.29307,"lon":5.37462,"is_reserved":false,"is_disabled":false,"rental_uris":{"android":"levelo://app?vid=c2706a7e-a77b-44ef-bc8f-95c2f6e1b539","ios":"levelo://app?vid=c2706a7e-a77b-44ef-bc8f-95c2f6e1b539"},"vehicle_type_id":"4","last_reported":1741770603,"current_range_meters":16400,"station_id":"ce4bgi12rcd13ifvqb70","pricing_plan_id":"cebpf4jnsgd1na2vs0mg"},{"bike_id":"1a84c1c7-f858-46de-9274-61e3cb567a6b","system_id":"levelo_inurba_marseille","lat":43.29093,"lon":5.38151,"is_reserved":false,"is_disabled":false,"rental_uris":{"android":"levelo://app?vid=1a84c1c7-f858-46de-9274-61e3cb567a6b","ios":"levelo://app?vid=1a84c1c7-f858-46de-9274-61e3cb567a6b"},"vehicle_type_id":"4","last_reported":1741770603,"current_range_meters":16400,"station_id":"ce4bh512rcd13ifvqe2g","pricing_plan_id":"cebpf4jnsgd1na2vs0mg"},{"bike_id":"4f845a34-b0f1-4aed-b9a2-399a79dba468","system_id":"levelo_inurba_marseille","lat":43.2973,"lon":5.3653,"is_reserved":false,"is_disabled":false,"rental_uris":{"android":"levelo://app?vid=4f845a34-b0f1-4aed-b9a2-399a79dba468","ios":"levelo://app?vid=4f845a34-b0f1-4aed-b9a2-399a79dba468"},"vehicle_type_id":"4","last_reported":1741770603,"current_range_meters":16400,"station_id":"","pricing_plan_id":"cebpf4jnsgd1na2vs0mg"},{"bike_id":"477f0f7d-623d-4729-bb21-676982812ce6","system_id":"levelo_inurba_marseille","lat":43.30949,"lon":5.39036,"is_reserved":false,"is_disabled":false,"rental_uris":{"android":"levelo://app?vid=477f0f7d-623d-4729-bb21-676982812ce6","ios":"levelo://app?vid=477f0f7d-623d-4729-bb21-676982812ce6"},"vehicle_type_id":"4","last_reported":1741770603,"current_range_meters":16800,"station_id":"ce4bgup2rcd13ifvqco0","pricing_plan_id":"cebpf4jnsgd1na2vs0mg"},{"bike_id":"ff05992d-a0ec-47c8-b666-697641799788","system_id":"levelo_inurba_marseille","lat":43.28454,"lon":5.35893,"is_reserved":false,"is_disabled":false,"rental_uris":{"android":"levelo://app?vid=ff05992d-a0ec-47c8-b666-697641799788","ios":"levelo://app?vid=ff05992d-a0ec-47c8-b666-697641799788"},"vehicle_type_id":"4","last_reported":1741770603,"current_range_meters":16800,"station_id":"ce4bhah2rcd13ifvqei0","pricing_plan_id":"cebpf4jnsgd1na2vs0mg"},{"bike_id":"894adb72-eba3-4c31-be33-a34cdb918fbd","system_id":"levelo_inurba_marseille","lat":43.25723,"lon":5.411,"is_reserved":false,"is_disabled":false,"rental_uris":{"android":"levelo://app?vid=894adb72-eba3-4c31-be33-a34cdb918fbd","ios":"levelo://app?vid=894adb72-eba3-4c31-be33-a34cdb918fbd"},"vehicle_type_id":"4","last_reported":1741770603,"current_range_meters":16800,"station_id":"ce4bhkp2rcd13ifvqgd0","pricing_plan_id":"cebpf4jnsgd1na2vs0mg"},{"bike_id":"0118782e-a9be-4c57-a3c6-f989e8d3b9bf","system_id":"levelo_inurba_marseille","lat":43.2418,"lon":5.39715,"is_reserved":false,"is_disabled":false,"rental_uris":{"android":"levelo://app?vid=0118782e-a9be-4c57-a3c6-f989e8d3b9bf","ios":"levelo://app?vid=0118782e-a9be-4c57-a3c6-f989e8d3b9bf"},"vehicle_type_id":"4","last_reported":1741770603,"current_range_meters":16800,"station_id":"ce4bhn12rcd13ifvqgpg","pricing_plan_id":"cebpf4jnsgd1na2vs0mg"},{"bike_id":"8668d73d-cd4c-4fcf-ad93-a88dd3e98bd7","system_id":"levelo_inurba_marseille","lat":43.28612,"lon":5.37064,"is_reserved":false,"is_disabled":false,"rental_uris":{"android":"levelo://app?vid=8668d73d-cd4c-4fcf-ad93-a88dd3e98bd7","ios":"levelo://app?vid=8668d73d-cd4c-4fcf-ad93-a88dd3e98bd7"},"vehicle_type_id":"4","last_reported":1741770603,"current_range_meters":16800,"station_id":"ce4bht12rcd13ifvqi60","pricing_plan_id":"cebpf4jnsgd1na2vs0mg"},{"bike_id":"6f8a817b-9683-40fa-bfa4-b740fec02c70","system_id":"levelo_inurba_marseille","lat":43.24998,"lon":5.38943,"is_reserved":false,"is_disabled":false,"rental_uris":{"android":"levelo://app?vid=6f8a817b-9683-40fa-bfa4-b740fec02c70","ios":"levelo://app?vid=6f8a817b-9683-40fa-bfa4-b740fec02c70"},"vehicle_type_id":"4","last_reported":1741770603,"current_range_meters":16800,"station_id":"ce4bhgp2rcd13ifvqfd0","pricing_plan_id":"cebpf4jnsgd1na2vs0mg"},{"bike_id":"15fd3d6f-21af-4625-a756-246f15f4db58","system_id":"levelo_inurba_marseille","lat":43.29044,"lon":5.39951,"is_reserved":false,"is_disabled":false,"rental_uris":{"android":"levelo://app?vid=15fd3d6f-21af-4625-a756-246f15f4db58","ios":"levelo://app?vid=15fd3d6f-21af-4625-a756-246f15f4db58"},"vehicle_type_id":"4","last_reported":1741770603,"current_range_meters":16800,"station_id":"ce4bh392rcd13ifvqdm0","pricing_plan_id":"cebpf4jnsgd1na2vs0mg"},{"bike_id":"2fc1eb71-c5ce-4e6a-9f9e-69565d5ecb68","system_id":"levelo_inurba_marseille","lat":43.311761,"lon":5.38712,"is_reserved":false,"is_disabled":false,"rental_uris":{"android":"levelo://app?vid=2fc1eb71-c5ce-4e6a-9f9e-69565d5ecb68","ios":"levelo://app?vid=2fc1eb71-c5ce-4e6a-9f9e-69565d5ecb68"},"vehicle_type_id":"4","last_reported":1741770603,"current_range_meters":17200,"station_id":"ce4bgqh2rcd13ifvqc4g","pricing_plan_id":"cebpf4jnsgd1na2vs0mg"},{"bike_id":"94b30f95-19e8-4b24-809a-d279976d82ea","system_id":"levelo_inurba_marseille","lat":43.3136,"lon":5.39634,"is_reserved":false,"is_disabled":false,"rental_uris":{"android":"levelo://app?vid=94b30f95-19e8-4b24-809a-d279976d82ea","ios":"levelo://app?vid=94b30f95-19e8-4b24-809a-d279976d82ea"},"vehicle_type_id":"4","last_reported":1741770603,"current_range_meters":17200,"station_id":"","pricing_plan_id":"cebpf4jnsgd1na2vs0mg"},{"bike_id":"965c6e2e-00d9-4046-b73d-f62e57eb5592","system_id":"levelo_inurba_marseille","lat":43.30951,"lon":5.39041,"is_reserved":false,"is_disabled":false,"rental_uris":{"android":"levelo://app?vid=965c6e2e-00d9-4046-b73d-f62e57eb5592","ios":"levelo://app?vid=965c6e2e-00d9-4046-b73d-f62e57eb5592"},"vehicle_type_id":"4","last_reported":1741770603,"current_range_meters":17200,"station_id":"ce4bgup2rcd13ifvqco0","pricing_plan_id":"cebpf4jnsgd1na2vs0mg"},{"bike_id":"e85e7281-8ded-4f9f-9074-cd43c73f5f32","system_id":"levelo_inurba_marseille","lat":43.31345,"lon":5.37364,"is_reserved":false,"is_disabled":false,"rental_uris":{"android":"levelo://app?vid=e85e7281-8ded-4f9f-9074-cd43c73f5f32","ios":"levelo://app?vid=e85e7281-8ded-4f9f-9074-cd43c73f5f32"},"vehicle_type_id":"4","last_reported":1741770603,"current_range_meters":17200,"station_id":"","pricing_plan_id":"cebpf4jnsgd1na2vs0mg"},{"bike_id":"71675af1-eb7f-4644-bb83-88c03d675021","system_id":"levelo_inurba_marseille","lat":43.31494,"lon":5.37309,"is_reserved":false,"is_disabled":false,"rental_uris":{"android":"levelo://app?vid=71675af1-eb7f-4644-bb83-88c03d675021","ios":"levelo://app?vid=71675af1-eb7f-4644-bb83-88c03d675021"},"vehicle_type_id":"4","last_reported":1741770603,"current_range_meters":17200,"station_id":"ce4bgt12rcd13ifvqcd0","pricing_plan_id":"cebpf4jnsgd1na2vs0mg"},{"bike_id":"d635fc4e-d0d5-48cd-9305-906594fe2b69","system_id":"levelo_inurba_marseille","lat":43.29961,"lon":5.36519,"is_reserved":false,"is_disabled":false,"rental_uris":{"android":"levelo://app?vid=d635fc4e-d0d5-48cd-9305-906594fe2b69","ios":"levelo://app?vid=d635fc4e-d0d5-48cd-9305-906594fe2b69"},"vehicle_type_id":"4","last_reported":1741770603,"current_range_meters":17200,"station_id":"ce4bgm92rcd13ifvqbr0","pricing_plan_id":"cebpf4jnsgd1na2vs0mg"},{"bike_id":"96114f57-f074-443d-9ee4-282b0360c01e","system_id":"levelo_inurba_marseille","lat":43.28723,"lon":5.37947,"is_reserved":false,"is_disabled":false,"rental_uris":{"android":"levelo://app?vid=96114f57-f074-443d-9ee4-282b0360c01e","ios":"levelo://app?vid=96114f57-f074-443d-9ee4-282b0360c01e"},"vehicle_type_id":"4","last_reported":1741770603,"current_range_meters":17200,"station_id":"ce4bh9p2rcd13ifvqec0","pricing_plan_id":"cebpf4jnsgd1na2vs0mg"},{"bike_id":"64131d47-ed22-438b-a2f9-804d73ae742c","system_id":"levelo_inurba_marseille","lat":43.27198,"lon":5.39187,"is_reserved":false,"is_disabled":false,"rental_uris":{"android":"levelo://app?vid=64131d47-ed22-438b-a2f9-804d73ae742c","ios":"levelo://app?vid=64131d47-ed22-438b-a2f9-804d73ae742c"},"vehicle_type_id":"4","last_reported":1741770603,"current_range_meters":17200,"station_id":"ce4bhhp2rcd13ifvqfm0","pricing_plan_id":"cebpf4jnsgd1na2vs0mg"},{"bike_id":"c9ebdca2-1182-4f42-8a5c-781863399328","system_id":"levelo_inurba_marseille","lat":43.29105,"lon":5.38132,"is_reserved":false,"is_disabled":false,"rental_uris":{"android":"levelo://app?vid=c9ebdca2-1182-4f42-8a5c-781863399328","ios":"levelo://app?vid=c9ebdca2-1182-4f42-8a5c-781863399328"},"vehicle_type_id":"4","last_reported":1741770603,"current_range_meters":17200,"station_id":"ce4bh512rcd13ifvqe2g","pricing_plan_id":"cebpf4jnsgd1na2vs0mg"},{"bike_id":"5af46931-f3ee-4f37-a67e-5d0a29a0f4e8","system_id":"levelo_inurba_marseille","lat":43.26777,"lon":5.39415,"is_reserved":false,"is_disabled":false,"rental_uris":{"android":"levelo://app?vid=5af46931-f3ee-4f37-a67e-5d0a29a0f4e8","ios":"levelo://app?vid=5af46931-f3ee-4f37-a67e-5d0a29a0f4e8"},"vehicle_type_id":"4","last_reported":1741770603,"current_range_meters":17200,"station_id":"ce4bhh12rcd13ifvqfg0","pricing_plan_id":"cebpf4jnsgd1na2vs0mg"},{"bike_id":"2dd8ad7d-ee5f-49bb-9601-8024de6badae","system_id":"levelo_inurba_marseille","lat":43.30301,"lon":5.3687,"is_reserved":false,"is_disabled":false,"rental_uris":{"android":"levelo://app?vid=2dd8ad7d-ee5f-49bb-9601-8024de6badae","ios":"levelo://app?vid=2dd8ad7d-ee5f-49bb-9601-8024de6badae"},"vehicle_type_id":"4","last_reported":1741770603,"current_range_meters":17600,"station_id":"ce4bgqh2rcd13ifvqc5g","pricing_plan_id":"cebpf4jnsgd1na2vs0mg"},{"bike_id":"ea2c76ad-4224-4435-b152-3ed2743e1890","system_id":"levelo_inurba_marseille","lat":43.290734,"lon":5.38102,"is_reserved":false,"is_disabled":false,"rental_uris":{"android":"levelo://app?vid=ea2c76ad-4224-4435-b152-3ed2743e1890","ios":"levelo://app?vid=ea2c76ad-4224-4435-b152-3ed2743e1890"},"vehicle_type_id":"4","last_reported":1741770603,"current_range_meters":17600,"station_id":"ce4bhmp2rcd13ifvqgog","pricing_plan_id":"cebpf4jnsgd1na2vs0mg"},{"bike_id":"0a6985ed-b84c-4033-8e3e-05aa091718f5","system_id":"levelo_inurba_marseille","lat":43.29892,"lon":5.39737,"is_reserved":false,"is_disabled":false,"rental_uris":{"android":"levelo://app?vid=0a6985ed-b84c-4033-8e3e-05aa091718f5","ios":"levelo://app?vid=0a6985ed-b84c-4033-8e3e-05aa091718f5"},"vehicle_type_id":"4","last_reported":1741770603,"current_range_meters":17600,"station_id":"ce4bh0h2rcd13ifvqd50","pricing_plan_id":"cebpf4jnsgd1na2vs0mg"},{"bike_id":"1af93f70-afd6-4145-9b60-ff8aff8e87c8","system_id":"levelo_inurba_marseille","lat":43.30903,"lon":5.36842,"is_reserved":false,"is_disabled":false,"rental_uris":{"android":"levelo://app?vid=1af93f70-afd6-4145-9b60-ff8aff8e87c8","ios":"levelo://app?vid=1af93f70-afd6-4145-9b60-ff8aff8e87c8"},"vehicle_type_id":"4","last_reported":1741770603,"current_range_meters":17600,"station_id":"ce4bgn92rcd13ifvqbvg","pricing_plan_id":"cebpf4jnsgd1na2vs0mg"},{"bike_id":"21046dbc-a06f-469a-816f-2eeb2a6e89a8","system_id":"levelo_inurba_marseille","lat":43.30949,"lon":5.39047,"is_reserved":false,"is_disabled":false,"rental_uris":{"android":"levelo://app?vid=21046dbc-a06f-469a-816f-2eeb2a6e89a8","ios":"levelo://app?vid=21046dbc-a06f-469a-816f-2eeb2a6e89a8"},"vehicle_type_id":"4","last_reported":1741770603,"current_range_meters":17600,"station_id":"ce4bgup2rcd13ifvqco0","pricing_plan_id":"cebpf4jnsgd1na2vs0mg"},{"bike_id":"b1c7a451-abec-44ed-b609-05317f1b0196","system_id":"levelo_inurba_marseille","lat":43.25934,"lon":5.40909,"is_reserved":false,"is_disabled":false,"rental_uris":{"android":"levelo://app?vid=b1c7a451-abec-44ed-b609-05317f1b0196","ios":"levelo://app?vid=b1c7a451-abec-44ed-b609-05317f1b0196"},"vehicle_type_id":"4","last_reported":1741770603,"current_range_meters":17600,"station_id":"ce4bhm92rcd13ifvqglg","pricing_plan_id":"cebpf4jnsgd1na2vs0mg"},{"bike_id":"43bdff70-0e5f-493c-9b32-a2ba7253f876","system_id":"levelo_inurba_marseille","lat":43.30776,"lon":5.3765,"is_reserved":false,"is_disabled":false,"rental_uris":{"android":"levelo://app?vid=43bdff70-0e5f-493c-9b32-a2ba7253f876","ios":"levelo://app?vid=43bdff70-0e5f-493c-9b32-a2ba7253f876"},"vehicle_type_id":"4","last_reported":1741770603,"current_range_meters":17600,"station_id":"ce4bgv92rcd13ifvqcq0","pricing_plan_id":"cebpf4jnsgd1na2vs0mg"},{"bike_id":"f550acae-a478-493d-8418-eb4ab17dc323","system_id":"levelo_inurba_marseille","lat":43.25029,"lon":5.38929,"is_reserved":false,"is_disabled":false,"rental_uris":{"android":"levelo://app?vid=f550acae-a478-493d-8418-eb4ab17dc323","ios":"levelo://app?vid=f550acae-a478-493d-8418-eb4ab17dc323"},"vehicle_type_id":"4","last_reported":1741770603,"current_range_meters":17600,"station_id":"ce4bhgp2rcd13ifvqfd0","pricing_plan_id":"cebpf4jnsgd1na2vs0mg"},{"bike_id":"f4fc54fa-8ee4-49e5-903f-910399b62c1d","system_id":"levelo_inurba_marseille","lat":43.28851,"lon":5.39311,"is_reserved":false,"is_disabled":false,"rental_uris":{"android":"levelo://app?vid=f4fc54fa-8ee4-49e5-903f-910399b62c1d","ios":"levelo://app?vid=f4fc54fa-8ee4-49e5-903f-910399b62c1d"},"vehicle_type_id":"4","last_reported":1741770603,"current_range_meters":18000,"station_id":"ce4bh2p2rcd13ifvqdi0","pricing_plan_id":"cebpf4jnsgd1na2vs0mg"},{"bike_id":"a823fe98-0845-44f0-af70-a3e75e70ed04","system_id":"levelo_inurba_marseille","lat":43.25003,"lon":5.3892,"is_reserved":false,"is_disabled":false,"rental_uris":{"android":"levelo://app?vid=a823fe98-0845-44f0-af70-a3e75e70ed04","ios":"levelo://app?vid=a823fe98-0845-44f0-af70-a3e75e70ed04"},"vehicle_type_id":"4","last_reported":1741770603,"current_range_meters":18000,"station_id":"ce4bhgp2rcd13ifvqfd0","pricing_plan_id":"cebpf4jnsgd1na2vs0mg"},{"bike_id":"138950fe-6475-45f2-9756-9aeb93c609d4","system_id":"levelo_inurba_marseille","lat":43.24176,"lon":5.39732,"is_reserved":false,"is_disabled":false,"rental_uris":{"android":"levelo://app?vid=138950fe-6475-45f2-9756-9aeb93c609d4","ios":"levelo://app?vid=138950fe-6475-45f2-9756-9aeb93c609d4"},"vehicle_type_id":"4","last_reported":1741770603,"current_range_meters":18000,"station_id":"ce4bhn12rcd13ifvqgpg","pricing_plan_id":"cebpf4jnsgd1na2vs0mg"},{"bike_id":"ad906abc-b7a3-4881-a391-f3ba60929c52","system_id":"levelo_inurba_marseille","lat":43.29572,"lon":5.37505,"is_reserved":false,"is_disabled":false,"rental_uris":{"android":"levelo://app?vid=ad906abc-b7a3-4881-a391-f3ba60929c52","ios":"levelo://app?vid=ad906abc-b7a3-4881-a391-f3ba60929c52"},"vehicle_type_id":"4","last_reported":1741770603,"current_range_meters":18000,"station_id":"ce4bgh92rcd13ifvqb50","pricing_plan_id":"cebpf4jnsgd1na2vs0mg"},{"bike_id":"2c542a09-e66b-400a-a635-ed3442b0a9f5","system_id":"levelo_inurba_marseille","lat":43.23963,"lon":5.36655,"is_reserved":false,"is_disabled":false,"rental_uris":{"android":"levelo://app?vid=2c542a09-e66b-400a-a635-ed3442b0a9f5","ios":"levelo://app?vid=2c542a09-e66b-400a-a635-ed3442b0a9f5"},"vehicle_type_id":"4","last_reported":1741770603,"current_range_meters":18000,"station_id":"ce4bhi12rcd13ifvqfp0","pricing_plan_id":"cebpf4jnsgd1na2vs0mg"},{"bike_id":"dd728069-2be6-4b0a-931b-c137e799ada3","system_id":"levelo_inurba_marseille","lat":43.25936,"lon":5.40899,"is_reserved":false,"is_disabled":false,"rental_uris":{"android":"levelo://app?vid=dd728069-2be6-4b0a-931b-c137e799ada3","ios":"levelo://app?vid=dd728069-2be6-4b0a-931b-c137e799ada3"},"vehicle_type_id":"4","last_reported":1741770603,"current_range_meters":18000,"station_id":"ce4bhm92rcd13ifvqglg","pricing_plan_id":"cebpf4jnsgd1na2vs0mg"},{"bike_id":"e403288d-b468-4ea8-b33d-644efb4c82c2","system_id":"levelo_inurba_marseille","lat":43.27837,"lon":5.40735,"is_reserved":false,"is_disabled":false,"rental_uris":{"android":"levelo://app?vid=e403288d-b468-4ea8-b33d-644efb4c82c2","ios":"levelo://app?vid=e403288d-b468-4ea8-b33d-644efb4c82c2"},"vehicle_type_id":"4","last_reported":1741770603,"current_range_meters":18000,"station_id":"ce4bhnh2rcd13ifvqgtg","pricing_plan_id":"cebpf4jnsgd1na2vs0mg"},{"bike_id":"5675e631-bee5-4037-b81e-7d1567db01ce","system_id":"levelo_inurba_marseille","lat":43.25931,"lon":5.4091,"is_reserved":false,"is_disabled":false,"rental_uris":{"android":"levelo://app?vid=5675e631-bee5-4037-b81e-7d1567db01ce","ios":"levelo://app?vid=5675e631-bee5-4037-b81e-7d1567db01ce"},"vehicle_type_id":"4","last_reported":1741770603,"current_range_meters":18000,"station_id":"ce4bhm92rcd13ifvqglg","pricing_plan_id":"cebpf4jnsgd1na2vs0mg"},{"bike_id":"5167d198-5092-4014-ae89-548e22f776e7","system_id":"levelo_inurba_marseille","lat":43.25823,"lon":5.394585,"is_reserved":false,"is_disabled":false,"rental_uris":{"android":"levelo://app?vid=5167d198-5092-4014-ae89-548e22f776e7","ios":"levelo://app?vid=5167d198-5092-4014-ae89-548e22f776e7"},"vehicle_type_id":"4","last_reported":1741770603,"current_range_meters":18000,"station_id":"ce4bhip2rcd13ifvqft0","pricing_plan_id":"cebpf4jnsgd1na2vs0mg"},{"bike_id":"d499aa7d-37fe-4efe-8d86-7fc011ad17ad","system_id":"levelo_inurba_marseille","lat":43.23049,"lon":5.35489,"is_reserved":false,"is_disabled":false,"rental_uris":{"android":"levelo://app?vid=d499aa7d-37fe-4efe-8d86-7fc011ad17ad","ios":"levelo://app?vid=d499aa7d-37fe-4efe-8d86-7fc011ad17ad"},"vehicle_type_id":"4","last_reported":1741770603,"current_range_meters":18000,"station_id":"cpo3342slgdg3j2ifvpg","pricing_plan_id":"cebpf4jnsgd1na2vs0mg"},{"bike_id":"73378016-be0c-49d2-8434-acfb6aa54948","system_id":"levelo_inurba_marseille","lat":43.24061,"lon":5.37713,"is_reserved":false,"is_disabled":false,"rental_uris":{"android":"levelo://app?vid=73378016-be0c-49d2-8434-acfb6aa54948","ios":"levelo://app?vid=73378016-be0c-49d2-8434-acfb6aa54948"},"vehicle_type_id":"4","last_reported":1741770603,"current_range_meters":18000,"station_id":"ce4bhnp2rcd13ifvqgvg","pricing_plan_id":"cebpf4jnsgd1na2vs0mg"},{"bike_id":"a6b37f3f-4ea1-4bc0-bfe9-5a7e41257530","system_id":"levelo_inurba_marseille","lat":43.23958,"lon":5.36633,"is_reserved":false,"is_disabled":false,"rental_uris":{"android":"levelo://app?vid=a6b37f3f-4ea1-4bc0-bfe9-5a7e41257530","ios":"levelo://app?vid=a6b37f3f-4ea1-4bc0-bfe9-5a7e41257530"},"vehicle_type_id":"4","last_reported":1741770603,"current_range_meters":18800,"station_id":"ce4bhi12rcd13ifvqfp0","pricing_plan_id":"cebpf4jnsgd1na2vs0mg"},{"bike_id":"45a13d77-f108-43b1-81fe-df5d5ab8ad87","system_id":"levelo_inurba_marseille","lat":43.29844,"lon":5.36267,"is_reserved":false,"is_disabled":false,"rental_uris":{"android":"levelo://app?vid=45a13d77-f108-43b1-81fe-df5d5ab8ad87","ios":"levelo://app?vid=45a13d77-f108-43b1-81fe-df5d5ab8ad87"},