{"last_updated":1728688126,"ttl":60,"version":"2.2","data":{"bikes":[{"bike_id":"4420ed1d-5f3b-4b86-af4b-f965ab1ccca3","system_id":"levelo_inurba_marseille","lat":43.28415,"lon":5.37512,"is_reserved":false,"is_disabled":false,"rental_uris":{"android":"levelo://app?vid=4420ed1d-5f3b-4b86-af4b-f965ab1ccca3","ios":"levelo://app?vid=4420ed1d-5f3b-4b86-af4b-f965ab1ccca3"},"vehicle_type_id":"4","last_reported":1728688126,"current_range_meters":28800,"station_id":"ce4bh412rcd13ifvqds0","pricing_plan_id":"cebpf4jnsgd1na2vs0mg"},{"bike_id":"a3869703-b2b5-40c3-9afc-f7fde4f873c8","system_id":"levelo_inurba_marseille","lat":43.29254,"lon":5.40899,"is_reserved":false,"is_disabled":false,"rental_uris":{"android":"levelo://app?vid=a3869703-b2b5-40c3-9afc-f7fde4f873c8","ios":"levelo://app?vid=a3869703-b2b5-40c3-9afc-f7fde4f873c8"},"vehicle_type_id":"4","last_reported":1728688126,"current_range_meters":27600,"station_id":"ce4bh192rcd13ifvqdc0","pricing_plan_id":"cebpf4jnsgd1na2vs0mg"},{"bike_id":"c1f74955-3289-4b68-adec-b56741d49e6e","system_id":"levelo_inurba_marseille","lat":43.24074,"lon":5.37758,"is_reserved":false,"is_disabled":false,"rental_uris":{"android":"levelo://app?vid=c1f74955-3289-4b68-adec-b56741d49e6e","ios":"levelo://app?vid=c1f74955-3289-4b68-adec-b56741d49e6e"},"vehicle_type_id":"4","last_reported":1728688126,"current_range_meters":31200,"station_id":"ce4bhnp2rcd13ifvqgvg","pricing_plan_id":"cebpf4jnsgd1na2vs0mg"},{"bike_id":"c013130f-af52-4fbb-b71c-e9f5c537bcf4","system_id":"levelo_inurba_marseille","lat":43.30638,"lon":5.40073,"is_reserved":false,"is_disabled":false,"rental_uris":{"android":"levelo://app?vid=c013130f-af52-4fbb-b71c-e9f5c537bcf4","ios":"levelo://app?vid=c013130f-af52-4fbb-b71c-e9f5c537bcf4"},"vehicle_type_id":"4","last_reported":1728688126,"current_range_meters":24800,"station_id":"ce4bh112rcd13ifvqda0","pricing_plan_id":"cebpf4jnsgd1na2vs0mg"},{"bike_id":"a44a543f-b1f5-472e-bd43-8e0cefb0249f","system_id":"levelo_inurba_marseille","lat":43.27898,"lon":5.37994,"is_reserved":false,"is_disabled":false,"rental_uris":{"android":"levelo://app?vid=a44a543f-b1f5-472e-bd43-8e0cefb0249f","ios":"levelo://app?vid=a44a543f-b1f5-472e-bd43-8e0cefb0249f"},"vehicle_type_id":"4","last_reported":1728688126,"current_range_meters":38800,"station_id":"ce4bhf92rcd13ifvqf50","pricing_plan_id":"cebpf4jnsgd1na2vs0mg"},{"bike_id":"964286a9-b2dd-4a11-8166-04f82e664f65","system_id":"levelo_inurba_marseille","lat":43.26029,"lon":5.3755,"is_reserved":false,"is_disabled":false,"rental_uris":{"android":"levelo://app?vid=964286a9-b2dd-4a11-8166-04f82e664f65","ios":"levelo://app?vid=964286a9-b2dd-4a11-8166-04f82e664f65"},"vehicle_type_id":"4","last_reported":1728688126,"current_range_meters":7200,"station_id":"ce4bhgh2rcd13ifvqfa0","pricing_plan_id":"cebpf4jnsgd1na2vs0mg"},{"bike_id":"51dd5005-a195-4642-bd5f-8cbea71cb3b3","system_id":"levelo_inurba_marseille","lat":43.2293,"lon":5.35372,"is_reserved":false,"is_disabled":false,"rental_uris":{"android":"levelo://app?vid=51dd5005-a195-4642-bd5f-8cbea71cb3b3","ios":"levelo://app?vid=51dd5005-a195-4642-bd5f-8cbea71cb3b3"},"vehicle_type_id":"4","last_reported":1728688126,"current_range_meters":38400,"station_id":"cpo3532slgdg3j2ikp40","pricing_plan_id":"cebpf4jnsgd1na2vs0mg"},{"bike_id":"81649cb7-ee84-422c-91a5-9f5afa834ec8","system_id":"levelo_inurba_marseille","lat":43.25585,"lon":5.38229,"is_reserved":false,"is_disabled":false,"rental_uris":{"android":"levelo://app?vid=81649cb7-ee84-422c-91a5-9f5afa834ec8","ios":"levelo://app?vid=81649cb7-ee84-422c-91a5-9f5afa834ec8"},"vehicle_type_id":"4","last_reported":1728688126,"current_range_meters":24800,"station_id":"ce4bhih2rcd13ifvqfs0","pricing_plan_id":"cebpf4jnsgd1na2vs0mg"},{"bike_id":"b474cc28-429d-4bf6-a453-cfd8e447da8a","system_id":"levelo_inurba_marseille","lat":43.33724,"lon":5.39181,"is_reserved":false,"is_disabled":false,"rental_uris":{"android":"levelo://app?vid=b474cc28-429d-4bf6-a453-cfd8e447da8a","ios":"levelo://app?vid=b474cc28-429d-4bf6-a453-cfd8e447da8a"},"vehicle_type_id":"4","last_reported":1728688126,"current_range_meters":38400,"station_id":"ce4bhr92rcd13ifvqhsg","pricing_plan_id":"cebpf4jnsgd1na2vs0mg"},{"bike_id":"8a3ea5a6-b0cd-48da-acf8-ccf7be6f48c6","system_id":"levelo_inurba_marseille","lat":43.32272,"lon":5.38619,"is_reserved":false,"is_disabled":false,"rental_uris":{"android":"levelo://app?vid=8a3ea5a6-b0cd-48da-acf8-ccf7be6f48c6","ios":"levelo://app?vid=8a3ea5a6-b0cd-48da-acf8-ccf7be6f48c6"},"vehicle_type_id":"4","last_reported":1728688126,"current_range_meters":8400,"station_id":"","pricing_plan_id":"cebpf4jnsgd1na2vs0mg"},{"bike_id":"4f1ac9db-36fd-4126-b3cc-b859636a6a29","system_id":"levelo_inurba_marseille","lat":43.2293,"lon":5.35375,"is_reserved":false,"is_disabled":false,"rental_uris":{"android":"levelo://app?vid=4f1ac9db-36fd-4126-b3cc-b859636a6a29","ios":"levelo://app?vid=4f1ac9db-36fd-4126-b3cc-b859636a6a29"},"vehicle_type_id":"4","last_reported":1728688126,"current_range_meters":38800,"station_id":"cpo3532slgdg3j2ikp40","pricing_plan_id":"cebpf4jnsgd1na2vs0mg"},{"bike_id":"7e804513-a2d3-4ba9-84eb-75c603aae038","system_id":"levelo_inurba_marseille","lat":43.29047,"lon":5.39973,"is_reserved":false,"is_disabled":false,"rental_uris":{"android":"levelo://app?vid=7e804513-a2d3-4ba9-84eb-75c603aae038","ios":"levelo://app?vid=7e804513-a2d3-4ba9-84eb-75c603aae038"},"vehicle_type_id":"4","last_reported":1728688126,"current_range_meters":35200,"station_id":"ce4bh392rcd13ifvqdm0","pricing_plan_id":"cebpf4jnsgd1na2vs0mg"},{"bike_id":"0f681b24-8152-427a-8add-5021fec4f8a3","system_id":"levelo_inurba_marseille","lat":43.31329,"lon":5.39688,"is_reserved":false,"is_disabled":false,"rental_uris":{"android":"levelo://app?vid=0f681b24-8152-427a-8add-5021fec4f8a3","ios":"levelo://app?vid=0f681b24-8152-427a-8add-5021fec4f8a3"},"vehicle_type_id":"4","last_reported":1728688126,"current_range_meters":29600,"station_id":"ce4bgvp2rcd13ifvqcu0","pricing_plan_id":"cebpf4jnsgd1na2vs0mg"},{"bike_id":"15c0b725-f49d-4a1f-b83e-29cf64df59d9","system_id":"levelo_inurba_marseille","lat":43.29409,"lon":5.38626,"is_reserved":false,"is_disabled":false,"rental_uris":{"android":"levelo://app?vid=15c0b725-f49d-4a1f-b83e-29cf64df59d9","ios":"levelo://app?vid=15c0b725-f49d-4a1f-b83e-29cf64df59d9"},"vehicle_type_id":"4","last_reported":1728688126,"current_range_meters":38800,"station_id":"ce4bh2h2rcd13ifvqdh0","pricing_plan_id":"cebpf4jnsgd1na2vs0mg"},{"bike_id":"5600c01e-1e16-4fe6-bf88-d41d79f964a5","system_id":"levelo_inurba_marseille","lat":43.28438,"lon":5.39191,"is_reserved":false,"is_disabled":false,"rental_uris":{"android":"levelo://app?vid=5600c01e-1e16-4fe6-bf88-d41d79f964a5","ios":"levelo://app?vid=5600c01e-1e16-4fe6-bf88-d41d79f964a5"},"vehicle_type_id":"4","last_reported":1728688126,"current_range_meters":9200,"station_id":"ce4bhoh2rcd13ifvqh5g","pricing_plan_id":"cebpf4jnsgd1na2vs0mg"},{"bike_id":"68d41322-5a7f-4a5e-aca0-d8f3c5665fb0","system_id":"levelo_inurba_marseille","lat":43.27621,"lon":5.36112,"is_reserved":false,"is_disabled":false,"rental_uris":{"android":"levelo://app?vid=68d41322-5a7f-4a5e-aca0-d8f3c5665fb0","ios":"levelo://app?vid=68d41322-5a7f-4a5e-aca0-d8f3c5665fb0"},"vehicle_type_id":"4","last_reported":1728688126,"current_range_meters":34000,"station_id":"ce4bgj92rcd13ifvqbe0","pricing_plan_id":"cebpf4jnsgd1na2vs0mg"},{"bike_id":"418eb975-d061-48f2-a056-8c75e497f3ed","system_id":"levelo_inurba_marseille","lat":43.33711,"lon":5.3918,"is_reserved":false,"is_disabled":false,"rental_uris":{"android":"levelo://app?vid=418eb975-d061-48f2-a056-8c75e497f3ed","ios":"levelo://app?vid=418eb975-d061-48f2-a056-8c75e497f3ed"},"vehicle_type_id":"4","last_reported":1728688126,"current_range_meters":39200,"station_id":"ce4bhr92rcd13ifvqhsg","pricing_plan_id":"cebpf4jnsgd1na2vs0mg"},{"bike_id":"ff6a76fd-b32d-4e4d-8142-8b51dc57c458","system_id":"levelo_inurba_marseille","lat":43.28408,"lon":5.37516,"is_reserved":false,"is_disabled":false,"rental_uris":{"android":"levelo://app?vid=ff6a76fd-b32d-4e4d-8142-8b51dc57c458","ios":"levelo://app?vid=ff6a76fd-b32d-4e4d-8142-8b51dc57c458"},"vehicle_type_id":"4","last_reported":1728688126,"current_range_meters":16800,"station_id":"ce4bh412rcd13ifvqds0","pricing_plan_id":"cebpf4jnsgd1na2vs0mg"},{"bike_id":"e34acc7c-4576-4996-90bb-c87b63dcf0de","system_id":"levelo_inurba_marseille","lat":43.32325,"lon":5.40621,"is_reserved":false,"is_disabled":false,"rental_uris":{"android":"levelo://app?vid=e34acc7c-4576-4996-90bb-c87b63dcf0de","ios":"levelo://app?vid=e34acc7c-4576-4996-90bb-c87b63dcf0de"},"vehicle_type_id":"4","last_reported":1728688126,"current_range_meters":27600,"station_id":"ce4bhq92rcd13ifvqhjg","pricing_plan_id":"cebpf4jnsgd1na2vs0mg"},{"bike_id":"239b2d16-d924-4783-b8ce-c19d7d78fab4","system_id":"levelo_inurba_marseille","lat":43.27502,"lon":5.42457,"is_reserved":false,"is_disabled":false,"rental_uris":{"android":"levelo://app?vid=239b2d16-d924-4783-b8ce-c19d7d78fab4","ios":"levelo://app?vid=239b2d16-d924-4783-b8ce-c19d7d78fab4"},"vehicle_type_id":"4","last_reported":1728688126,"current_range_meters":18800,"station_id":"ce4bhn92rcd13ifvqgrg","pricing_plan_id":"cebpf4jnsgd1na2vs0mg"},{"bike_id":"42b98502-17ac-4056-a474-7bbc35a3c95e","system_id":"levelo_inurba_marseille","lat":43.31068,"lon":5.38343,"is_reserved":false,"is_disabled":false,"rental_uris":{"android":"levelo://app?vid=42b98502-17ac-4056-a474-7bbc35a3c95e","ios":"levelo://app?vid=42b98502-17ac-4056-a474-7bbc35a3c95e"},"vehicle_type_id":"4","last_reported":1728688126,"current_range_meters":38400,"station_id":"ce4bgv92rcd13ifvqcr0","pricing_plan_id":"cebpf4jnsgd1na2vs0mg"},{"bike_id":"29de172f-c4d5-4343-8c2e-51dd15363c2b","system_id":"levelo_inurba_marseille","lat":43.29419,"lon":5.38621,"is_reserved":false,"is_disabled":false,"rental_uris":{"android":"levelo://app?vid=29de172f-c4d5-4343-8c2e-51dd15363c2b","ios":"levelo://app?vid=29de172f-c4d5-4343-8c2e-51dd15363c2b"},"vehicle_type_id":"4","last_reported":1728688126,"current_range_meters":38800,"station_id":"ce4bh2h2rcd13ifvqdh0","pricing_plan_id":"cebpf4jnsgd1na2vs0mg"},{"bike_id":"acde84b9-95a7-4b94-9ad2-889a14984862","system_id":"levelo_inurba_marseille","lat":43.26955,"lon":5.38638,"is_reserved":false,"is_disabled":false,"rental_uris":{"android":"levelo://app?vid=acde84b9-95a7-4b94-9ad2-889a14984862","ios":"levelo://app?vid=acde84b9-95a7-4b94-9ad2-889a14984862"},"vehicle_type_id":"4","last_reported":1728688126,"current_range_meters":22400,"station_id":"ce4bhh92rcd13ifvqfh0","pricing_plan_id":"cebpf4jnsgd1na2vs0mg"},{"bike_id":"17ccbc6f-dc76-407c-bd03-cfe01f00f19e","system_id":"levelo_inurba_marseille","lat":43.26487,"lon":5.39549,"is_reserved":false,"is_disabled":false,"rental_uris":{"android":"levelo://app?vid=17ccbc6f-dc76-407c-bd03-cfe01f00f19e","ios":"levelo://app?vid=17ccbc6f-dc76-407c-bd03-cfe01f00f19e"},"vehicle_type_id":"4","last_reported":1728688126,"current_range_meters":2800,"station_id":"ce4bhi12rcd13ifvqfq0","pricing_plan_id":"cebpf4jnsgd1na2vs0mg"},{"bike_id":"361e1290-b9b9-4073-a99b-723bcee584a6","system_id":"levelo_inurba_marseille","lat":43.29769,"lon":5.39332,"is_reserved":false,"is_disabled":false,"rental_uris":{"android":"levelo://app?vid=361e1290-b9b9-4073-a99b-723bcee584a6","ios":"levelo://app?vid=361e1290-b9b9-4073-a99b-723bcee584a6"},"vehicle_type_id":"4","last_reported":1728688126,"current_range_meters":39200,"station_id":"chh1huq6cuj3fo74tm60","pricing_plan_id":"cebpf4jnsgd1na2vs0mg"},{"bike_id":"631afeb3-ff24-4869-b570-0bf0c9ce47b0","system_id":"levelo_inurba_marseille","lat":43.32026,"lon":5.38617,"is_reserved":false,"is_disabled":false,"rental_uris":{"android":"levelo://app?vid=631afeb3-ff24-4869-b570-0bf0c9ce47b0","ios":"levelo://app?vid=631afeb3-ff24-4869-b570-0bf0c9ce47b0"},"vehicle_type_id":"4","last_reported":1728688126,"current_range_meters":20000,"station_id":"","pricing_plan_id":"cebpf4jnsgd1na2vs0mg"},{"bike_id":"a343ef2a-9dab-4dfa-aae7-81033db70aac","system_id":"levelo_inurba_marseille","lat":43.2318,"lon":5.39983,"is_reserved":false,"is_disabled":false,"rental_uris":{"android":"levelo://app?vid=a343ef2a-9dab-4dfa-aae7-81033db70aac","ios":"levelo://app?vid=a343ef2a-9dab-4dfa-aae7-81033db70aac"},"vehicle_type_id":"4","last_reported":1728688126,"current_range_meters":18800,"station_id":"ce4bhn12rcd13ifvqgqg","pricing_plan_id":"cebpf4jnsgd1na2vs0mg"},{"bike_id":"6ecf43cd-4bb1-441e-8899-174d35efbd0b","system_id":"levelo_inurba_marseille","lat":43.27926,"lon":5.39594,"is_reserved":false,"is_disabled":false,"rental_uris":{"android":"levelo://app?vid=6ecf43cd-4bb1-441e-8899-174d35efbd0b","ios":"levelo://app?vid=6ecf43cd-4bb1-441e-8899-174d35efbd0b"},"vehicle_type_id":"4","last_reported":1728688126,"current_range_meters":17200,"station_id":"ce4bhf92rcd13ifvqf40","pricing_plan_id":"cebpf4jnsgd1na2vs0mg"},{"bike_id":"946485a9-4277-4957-8546-1df937d706d7","system_id":"levelo_inurba_marseille","lat":43.30639,"lon":5.40101,"is_reserved":false,"is_disabled":false,"rental_uris":{"android":"levelo://app?vid=946485a9-4277-4957-8546-1df937d706d7","ios":"levelo://app?vid=946485a9-4277-4957-8546-1df937d706d7"},"vehicle_type_id":"4","last_reported":1728688126,"current_range_meters":35600,"station_id":"ce4bh112rcd13ifvqda0","pricing_plan_id":"cebpf4jnsgd1na2vs0mg"},{"bike_id":"4ae873b4-083d-4804-8059-f44b65811c68","system_id":"levelo_inurba_marseille","lat":43.312765,"lon":5.401658,"is_reserved":false,"is_disabled":false,"rental_uris":{"android":"levelo://app?vid=4ae873b4-083d-4804-8059-f44b65811c68","ios":"levelo://app?vid=4ae873b4-083d-4804-8059-f44b65811c68"},"vehicle_type_id":"4","last_reported":1728688126,"current_range_meters":8800,"station_id":"ce4bh092rcd13ifvqd30","pricing_plan_id":"cebpf4jnsgd1na2vs0mg"},{"bike_id":"064b6e67-aa01-4c68-81ea-1fecbd187ab2","system_id":"levelo_inurba_marseille","lat":43.31071,"lon":5.38349,"is_reserved":false,"is_disabled":false,"rental_uris":{"android":"levelo://app?vid=064b6e67-aa01-4c68-81ea-1fecbd187ab2","ios":"levelo://app?vid=064b6e67-aa01-4c68-81ea-1fecbd187ab2"},"vehicle_type_id":"4","last_reported":1728688126,"current_range_meters":32400,"station_id":"ce4bgv92rcd13ifvqcr0","pricing_plan_id":"cebpf4jnsgd1na2vs0mg"},{"bike_id":"91aa0f0e-f007-4bc8-8e7f-28c28d61940c","system_id":"levelo_inurba_marseille","lat":43.310699,"lon":5.38356,"is_reserved":false,"is_disabled":false,"rental_uris":{"android":"levelo://app?vid=91aa0f0e-f007-4bc8-8e7f-28c28d61940c","ios":"levelo://app?vid=91aa0f0e-f007-4bc8-8e7f-28c28d61940c"},"vehicle_type_id":"4","last_reported":1728688126,"current_range_meters":38800,"station_id":"ce4bgv92rcd13ifvqcr0","pricing_plan_id":"cebpf4jnsgd1na2vs0mg"},{"bike_id":"ee07c02b-d551-4d47-b823-c2e7ac073308","system_id":"levelo_inurba_marseille","lat":43.283506,"lon":5.381086,"is_reserved":false,"is_disabled":false,"rental_uris":{"android":"levelo://app?vid=ee07c02b-d551-4d47-b823-c2e7ac073308","ios":"levelo://app?vid=ee07c02b-d551-4d47-b823-c2e7ac073308"},"vehicle_type_id":"4","last_reported":1728688126,"current_range_meters":35200,"station_id":"ce4bh412rcd13ifvqdr0","pricing_plan_id":"cebpf4jnsgd1na2vs0mg"},{"bike_id":"791d34e4-5f14-4623-8885-7b697689fb2a","system_id":"levelo_inurba_marseille","lat":43.29256,"lon":5.40907,"is_reserved":false,"is_disabled":false,"rental_uris":{"android":"levelo://app?vid=791d34e4-5f14-4623-8885-7b697689fb2a","ios":"levelo://app?vid=791d34e4-5f14-4623-8885-7b697689fb2a"},"vehicle_type_id":"4","last_reported":1728688126,"current_range_meters":9600,"station_id":"ce4bh192rcd13ifvqdc0","pricing_plan_id":"cebpf4jnsgd1na2vs0mg"},{"bike_id":"ddf121a2-aab1-4deb-98ba-0858be9ed27a","system_id":"levelo_inurba_marseille","lat":43.28456,"lon":5.35887,"is_reserved":false,"is_disabled":false,"rental_uris":{"android":"levelo://app?vid=ddf121a2-aab1-4deb-98ba-0858be9ed27a","ios":"levelo://app?vid=ddf121a2-aab1-4deb-98ba-0858be9ed27a"},"vehicle_type_id":"4","last_reported":1728688126,"current_range_meters":14000,"station_id":"ce4bhah2rcd13ifvqei0","pricing_plan_id":"cebpf4jnsgd1na2vs0mg"},{"bike_id":"293443a5-ce09-4190-b244-f581c225f846","system_id":"levelo_inurba_marseille","lat":43.27902,"lon":5.3799,"is_reserved":false,"is_disabled":false,"rental_uris":{"android":"levelo://app?vid=293443a5-ce09-4190-b244-f581c225f846","ios":"levelo://app?vid=293443a5-ce09-4190-b244-f581c225f846"},"vehicle_type_id":"4","last_reported":1728688126,"current_range_meters":38000,"station_id":"ce4bhf92rcd13ifvqf50","pricing_plan_id":"cebpf4jnsgd1na2vs0mg"},{"bike_id":"0bf9c706-4f80-400e-9a5d-b7583be1ce6b","system_id":"levelo_inurba_marseille","lat":43.30608,"lon":5.37218,"is_reserved":false,"is_disabled":false,"rental_uris":{"android":"levelo://app?vid=0bf9c706-4f80-400e-9a5d-b7583be1ce6b","ios":"levelo://app?vid=0bf9c706-4f80-400e-9a5d-b7583be1ce6b"},"vehicle_type_id":"4","last_reported":1728688126,"current_range_meters":38800,"station_id":"ce4bgqh2rcd13ifvqc4g","pricing_plan_id":"cebpf4jnsgd1na2vs0mg"},{"bike_id":"b8d351ef-130d-4283-8987-b02d9053e2af","system_id":"levelo_inurba_marseille","lat":43.30605,"lon":5.37226,"is_reserved":false,"is_disabled":false,"rental_uris":{"android":"levelo://app?vid=b8d351ef-130d-4283-8987-b02d9053e2af","ios":"levelo://app?vid=b8d351ef-130d-4283-8987-b02d9053e2af"},"vehicle_type_id":"4","last_reported":1728688126,"current_range_meters":38800,"station_id":"ce4bgqh2rcd13ifvqc4g","pricing_plan_id":"cebpf4jnsgd1na2vs0mg"},{"bike_id":"96f5193f-820c-4e97-bb84-7fad00193b1d","system_id":"levelo_inurba_marseille","lat":43.30293,"lon":5.39208,"is_reserved":false,"is_disabled":false,"rental_uris":{"android":"levelo://app?vid=96f5193f-820c-4e97-bb84-7fad00193b1d","ios":"levelo://app?vid=96f5193f-820c-4e97-bb84-7fad00193b1d"},"vehicle_type_id":"4","last_reported":1728688126,"current_range_meters":38000,"station_id":"ce4bgkh2rcd13ifvqbk0","pricing_plan_id":"cebpf4jnsgd1na2vs0mg"},{"bike_id":"18e50b7c-f98f-46f1-90ae-1ebf8e17e6aa","system_id":"levelo_inurba_marseille","lat":43.27185,"lon":5.40977,"is_reserved":false,"is_disabled":false,"rental_uris":{"android":"levelo://app?vid=18e50b7c-f98f-46f1-90ae-1ebf8e17e6aa","ios":"levelo://app?vid=18e50b7c-f98f-46f1-90ae-1ebf8e17e6aa"},"vehicle_type_id":"4","last_reported":1728688126,"current_range_meters":28800,"station_id":"ce4bhl12rcd13ifvqgf0","pricing_plan_id":"cebpf4jnsgd1na2vs0mg"},{"bike_id":"7f73a880-62d4-4c8a-b266-f5c770ce3bd0","system_id":"levelo_inurba_marseille","lat":43.29555,"lon":5.42295,"is_reserved":false,"is_disabled":false,"rental_uris":{"android":"levelo://app?vid=7f73a880-62d4-4c8a-b266-f5c770ce3bd0","ios":"levelo://app?vid=7f73a880-62d4-4c8a-b266-f5c770ce3bd0"},"vehicle_type_id":"4","last_reported":1728688126,"current_range_meters":37600,"station_id":"ce4bhph2rcd13ifvqhdg","pricing_plan_id":"cebpf4jnsgd1na2vs0mg"},{"bike_id":"e3de75fa-eb08-4bef-a680-231d1c38a9eb","system_id":"levelo_inurba_marseille","lat":43.3372,"lon":5.39176,"is_reserved":false,"is_disabled":false,"rental_uris":{"android":"levelo://app?vid=e3de75fa-eb08-4bef-a680-231d1c38a9eb","ios":"levelo://app?vid=e3de75fa-eb08-4bef-a680-231d1c38a9eb"},"vehicle_type_id":"4","last_reported":1728688126,"current_range_meters":34000,"station_id":"ce4bhr92rcd13ifvqhsg","pricing_plan_id":"cebpf4jnsgd1na2vs0mg"},{"bike_id":"e14f7b74-ada3-4a6d-9840-33d43fd32643","system_id":"levelo_inurba_marseille","lat":43.28154,"lon":5.42647,"is_reserved":false,"is_disabled":false,"rental_uris":{"android":"levelo://app?vid=e14f7b74-ada3-4a6d-9840-33d43fd32643","ios":"levelo://app?vid=e14f7b74-ada3-4a6d-9840-33d43fd32643"},"vehicle_type_id":"4","last_reported":1728688126,"current_range_meters":39200,"station_id":"ce4bhnh2rcd13ifvqgug","pricing_plan_id":"cebpf4jnsgd1na2vs0mg"},{"bike_id":"c43b90fe-b1cf-4e98-956f-85ab60fd1421","system_id":"levelo_inurba_marseille","lat":43.24646,"lon":5.38888,"is_reserved":false,"is_disabled":false,"rental_uris":{"android":"levelo://app?vid=c43b90fe-b1cf-4e98-956f-85ab60fd1421","ios":"levelo://app?vid=c43b90fe-b1cf-4e98-956f-85ab60fd1421"},"vehicle_type_id":"4","last_reported":1728688126,"current_range_meters":19600,"station_id":"ce4bhg12rcd13ifvqf60","pricing_plan_id":"cebpf4jnsgd1na2vs0mg"},{"bike_id":"b27220ce-643c-4cda-b1cf-ddebfd37a8aa","system_id":"levelo_inurba_marseille","lat":43.23182,"lon":5.39993,"is_reserved":false,"is_disabled":false,"rental_uris":{"android":"levelo://app?vid=b27220ce-643c-4cda-b1cf-ddebfd37a8aa","ios":"levelo://app?vid=b27220ce-643c-4cda-b1cf-ddebfd37a8aa"},"vehicle_type_id":"4","last_reported":1728688126,"current_range_meters":39200,"station_id":"ce4bhn12rcd13ifvqgqg","pricing_plan_id":"cebpf4jnsgd1na2vs0mg"},{"bike_id":"3392ebf7-bca0-4284-9786-c6359ba370d8","system_id":"levelo_inurba_marseille","lat":43.2784,"lon":5.3921,"is_reserved":false,"is_disabled":false,"rental_uris":{"android":"levelo://app?vid=3392ebf7-bca0-4284-9786-c6359ba370d8","ios":"levelo://app?vid=3392ebf7-bca0-4284-9786-c6359ba370d8"},"vehicle_type_id":"4","last_reported":1728688126,"current_range_meters":5600,"station_id":"ce4bhjp2rcd13ifvqga0","pricing_plan_id":"cebpf4jnsgd1na2vs0mg"},{"bike_id":"c39993eb-dd21-45bc-b8fa-133bab65de5e","system_id":"levelo_inurba_marseille","lat":43.28454,"lon":5.35894,"is_reserved":false,"is_disabled":false,"rental_uris":{"android":"levelo://app?vid=c39993eb-dd21-45bc-b8fa-133bab65de5e","ios":"levelo://app?vid=c39993eb-dd21-45bc-b8fa-133bab65de5e"},"vehicle_type_id":"4","last_reported":1728688126,"current_range_meters":38400,"station_id":"ce4bhah2rcd13ifvqei0","pricing_plan_id":"cebpf4jnsgd1na2vs0mg"},{"bike_id":"2f98b35e-ff4a-4fa7-8546-b79e5825b426","system_id":"levelo_inurba_marseille","lat":43.25579,"lon":5.3823,"is_reserved":false,"is_disabled":false,"rental_uris":{"android":"levelo://app?vid=2f98b35e-ff4a-4fa7-8546-b79e5825b426","ios":"levelo://app?vid=2f98b35e-ff4a-4fa7-8546-b79e5825b426"},"vehicle_type_id":"4","last_reported":1728688126,"current_range_meters":32000,"station_id":"ce4bhih2rcd13ifvqfs0","pricing_plan_id":"cebpf4jnsgd1na2vs0mg"},{"bike_id":"75e00e20-4fc1-4f12-8948-78162919d77f","system_id":"levelo_inurba_marseille","lat":43.28703,"lon":5.39979,"is_reserved":false,"is_disabled":false,"rental_uris":{"android":"levelo://app?vid=75e00e20-4fc1-4f12-8948-78162919d77f","ios":"levelo://app?vid=75e00e20-4fc1-4f12-8948-78162919d77f"},"vehicle_type_id":"4","last_reported":1728688126,"current_range_meters":38800,"station_id":"ce4bho92rcd13ifvqh3g","pricing_plan_id":"cebpf4jnsgd1na2vs0mg"},{"bike_id":"c2709d8c-182c-4c66-9678-32143d413767","system_id":"levelo_inurba_marseille","lat":43.2293,"lon":5.35377,"is_reserved":false,"is_disabled":false,"rental_uris":{"android":"levelo://app?vid=c2709d8c-182c-4c66-9678-32143d413767","ios":"levelo://app?vid=c2709d8c-182c-4c66-9678-32143d413767"},"vehicle_type_id":"4","last_reported":1728688126,"current_range_meters":28800,"station_id":"cpo3532slgdg3j2ikp40","pricing_plan_id":"cebpf4jnsgd1na2vs0mg"},{"bike_id":"9795e3a8-775d-458a-888e-29d10d28be1a","system_id":"levelo_inurba_marseille","lat":43.28253,"lon":5.35084,"is_reserved":false,"is_disabled":false,"rental_uris":{"android":"levelo://app?vid=9795e3a8-775d-458a-888e-29d10d28be1a","ios":"levelo://app?vid=9795e3a8-775d-458a-888e-29d10d28be1a"},"vehicle_type_id":"4","last_reported":1728688126,"current_range_meters":9600,"station_id":"ce4bhbp2rcd13ifvqerg","pricing_plan_id":"cebpf4jnsgd1na2vs0mg"},{"bike_id":"bdff7517-fecc-40d5-96f7-0fd7066343d4","system_id":"levelo_inurba_marseille","lat":43.29252,"lon":5.4091,"is_reserved":false,"is_disabled":false,"rental_uris":{"android":"levelo://app?vid=bdff7517-fecc-40d5-96f7-0fd7066343d4","ios":"levelo://app?vid=bdff7517-fecc-40d5-96f7-0fd7066343d4"},"vehicle_type_id":"4","last_reported":1728688126,"current_range_meters":8000,"station_id":"ce4bh192rcd13ifvqdc0","pricing_plan_id":"cebpf4jnsgd1na2vs0mg"},{"bike_id":"cd7ef2d2-cbd3-4cde-acf0-b8da754228a8","system_id":"levelo_inurba_marseille","lat":43.31371,"lon":5.38501,"is_reserved":false,"is_disabled":false,"rental_uris":{"android":"levelo://app?vid=cd7ef2d2-cbd3-4cde-acf0-b8da754228a8","ios":"levelo://app?vid=cd7ef2d2-cbd3-4cde-acf0-b8da754228a8"},"vehicle_type_id":"4","last_reported":1728688126,"current_range_meters":39200,"station_id":"ce4bgt92rcd13ifvqcf0","pricing_plan_id":"cebpf4jnsgd1na2vs0mg"},{"bike_id":"57c19fb9-e976-453a-86a6-a777dfe9160f","system_id":"levelo_inurba_marseille","lat":43.28078,"lon":5.39658,"is_reserved":false,"is_disabled":false,"rental_uris":{"android":"levelo://app?vid=57c19fb9-e976-453a-86a6-a777dfe9160f","ios":"levelo://app?vid=57c19fb9-e976-453a-86a6-a777dfe9160f"},"vehicle_type_id":"4","last_reported":1728688126,"current_range_meters":39200,"station_id":"ce4bho12rcd13ifvqh2g","pricing_plan_id":"cebpf4jnsgd1na2vs0mg"},{"bike_id":"ddab0e12-ba97-4e06-86f6-0b889c402408","system_id":"levelo_inurba_marseille","lat":43.323641,"lon":5.388833,"is_reserved":false,"is_disabled":false,"rental_uris":{"android":"levelo://app?vid=ddab0e12-ba97-4e06-86f6-0b889c402408","ios":"levelo://app?vid=ddab0e12-ba97-4e06-86f6-0b889c402408"},"vehicle_type_id":"4","last_reported":1728688126,"current_range_meters":38800,"station_id":"ce4bhqp2rcd13ifvqhog","pricing_plan_id":"cebpf4jnsgd1na2vs0mg"},{"bike_id":"9ec6e1e0-7b84-4fd6-9453-00710f7a41d1","system_id":"levelo_inurba_marseille","lat":43.32542,"lon":5.41457,"is_reserved":false,"is_disabled":false,"rental_uris":{"android":"levelo://app?vid=9ec6e1e0-7b84-4fd6-9453-00710f7a41d1","ios":"levelo://app?vid=9ec6e1e0-7b84-4fd6-9453-00710f7a41d1"},"vehicle_type_id":"4","last_reported":1728688126,"current_range_meters":39200,"station_id":"ce4bhq12rcd13ifvqhhg","pricing_plan_id":"cebpf4jnsgd1na2vs0mg"},{"bike_id":"fe499ee7-6375-4ecd-b57e-a932fe0f65cf","system_id":"levelo_inurba_marseille","lat":43.33727,"lon":5.39181,"is_reserved":false,"is_disabled":false,"rental_uris":{"android":"levelo://app?vid=fe499ee7-6375-4ecd-b57e-a932fe0f65cf","ios":"levelo://app?vid=fe499ee7-6375-4ecd-b57e-a932fe0f65cf"},"vehicle_type_id":"4","last_reported":1728688126,"current_range_meters":11200,"station_id":"ce4bhr92rcd13ifvqhsg","pricing_plan_id":"cebpf4jnsgd1na2vs0mg"},{"bike_id":"fbffa957-ac49-4590-b223-7d57f26e111b","system_id":"levelo_inurba_marseille","lat":43.32264,"lon":5.38267,"is_reserved":false,"is_disabled":false,"rental_uris":{"android":"levelo://app?vid=fbffa957-ac49-4590-b223-7d57f26e111b","ios":"levelo://app?vid=fbffa957-ac49-4590-b223-7d57f26e111b"},"vehicle_type_id":"4","last_reported":1728688126,"current_range_meters":31200,"station_id":"ce4bhr12rcd13ifvqhqg","pricing_plan_id":"cebpf4jnsgd1na2vs0mg"},{"bike_id":"ac03a479-46d0-4fa1-b7d4-7d04e5c49fa6","system_id":"levelo_inurba_marseille","lat":43.2439,"lon":5.37062,"is_reserved":false,"is_disabled":false,"rental_uris":{"android":"levelo://app?vid=ac03a479-46d0-4fa1-b7d4-7d04e5c49fa6","ios":"levelo://app?vid=ac03a479-46d0-4fa1-b7d4-7d04e5c49fa6"},"vehicle_type_id":"4","last_reported":1728688126,"current_range_meters":39200,"station_id":"ce4bhhh2rcd13ifvqfk0","pricing_plan_id":"cebpf4jnsgd1na2vs0mg"},{"bike_id":"e8134384-9f2e-430f-8d41-28d909a67feb","system_id":"levelo_inurba_marseille","lat":43.30651,"lon":5.40079,"is_reserved":false,"is_disabled":false,"rental_uris":{"android":"levelo://app?vid=e8134384-9f2e-430f-8d41-28d909a67feb","ios":"levelo://app?vid=e8134384-9f2e-430f-8d41-28d909a67feb"},"vehicle_type_id":"4","last_reported":1728688126,"current_range_meters":24400,"station_id":"ce4bh112rcd13ifvqda0","pricing_plan_id":"cebpf4jnsgd1na2vs0mg"},{"bike_id":"3bd6033b-b9e1-4e43-9cda-44c3e3f9f5ad","system_id":"levelo_inurba_marseille","lat":43.32332,"lon":5.40625,"is_reserved":false,"is_disabled":false,"rental_uris":{"android":"levelo://app?vid=3bd6033b-b9e1-4e43-9cda-44c3e3f9f5ad","ios":"levelo://app?vid=3bd6033b-b9e1-4e43-9cda-44c3e3f9f5ad"},"vehicle_type_id":"4","last_reported":1728688126,"current_range_meters":24400,"station_id":"ce4bhq92rcd13ifvqhjg","pricing_plan_id":"cebpf4jnsgd1na2vs0mg"},{"bike_id":"11ec4295-780d-40b8-b327-d2c11563238d","system_id":"levelo_inurba_marseille","lat":43.35173,"lon":5.36447,"is_reserved":false,"is_disabled":false,"rental_uris":{"android":"levelo://app?vid=11ec4295-780d-40b8-b327-d2c11563238d","ios":"levelo://app?vid=11ec4295-780d-40b8-b327-d2c11563238d"},"vehicle_type_id":"4","last_reported":1728688126,"current_range_meters":17200,"station_id":"","pricing_plan_id":"cebpf4jnsgd1na2vs0mg"},{"bike_id":"a00e3b80-e51e-46e7-b268-8f63b4e78c72","system_id":"levelo_inurba_marseille","lat":43.29422,"lon":5.38625,"is_reserved":false,"is_disabled":false,"rental_uris":{"android":"levelo://app?vid=a00e3b80-e51e-46e7-b268-8f63b4e78c72","ios":"levelo://app?vid=a00e3b80-e51e-46e7-b268-8f63b4e78c72"},"vehicle_type_id":"4","last_reported":1728688126,"current_range_meters":38800,"station_id":"ce4bh2h2rcd13ifvqdh0","pricing_plan_id":"cebpf4jnsgd1na2vs0mg"},{"bike_id":"5eda1e4e-8f05-4c52-a6c4-e3483e007081","system_id":"levelo_inurba_marseille","lat":43.30926,"lon":5.40142,"is_reserved":false,"is_disabled":false,"rental_uris":{"android":"levelo://app?vid=5eda1e4e-8f05-4c52-a6c4-e3483e007081","ios":"levelo://app?vid=5eda1e4e-8f05-4c52-a6c4-e3483e007081"},"vehicle_type_id":"4","last_reported":1728688126,"current_range_meters":38800,"station_id":"ce4bgvp2rcd13ifvqct0","pricing_plan_id":"cebpf4jnsgd1na2vs0mg"},{"bike_id":"6b10fb70-8928-448c-9332-a992ab5f585a","system_id":"levelo_inurba_marseille","lat":43.24995,"lon":5.38933,"is_reserved":false,"is_disabled":false,"rental_uris":{"android":"levelo://app?vid=6b10fb70-8928-448c-9332-a992ab5f585a","ios":"levelo://app?vid=6b10fb70-8928-448c-9332-a992ab5f585a"},"vehicle_type_id":"4","last_reported":1728688126,"current_range_meters":10800,"station_id":"ce4bhgp2rcd13ifvqfd0","pricing_plan_id":"cebpf4jnsgd1na2vs0mg"},{"bike_id":"2c536d90-e7da-4f30-9364-85fd1ded2f75","system_id":"levelo_inurba_marseille","lat":43.25865,"lon":5.39901,"is_reserved":false,"is_disabled":false,"rental_uris":{"android":"levelo://app?vid=2c536d90-e7da-4f30-9364-85fd1ded2f75","ios":"levelo://app?vid=2c536d90-e7da-4f30-9364-85fd1ded2f75"},"vehicle_type_id":"4","last_reported":1728688126,"current_range_meters":24000,"station_id":"ce4bhl92rcd13ifvqghg","pricing_plan_id":"cebpf4jnsgd1na2vs0mg"},{"bike_id":"5bc82fca-43af-4201-891c-b197527e32ad","system_id":"levelo_inurba_marseille","lat":43.2318,"lon":5.39985,"is_reserved":false,"is_disabled":false,"rental_uris":{"android":"levelo://app?vid=5bc82fca-43af-4201-891c-b197527e32ad","ios":"levelo://app?vid=5bc82fca-43af-4201-891c-b197527e32ad"},"vehicle_type_id":"4","last_reported":1728688126,"current_range_meters":11200,"station_id":"ce4bhn12rcd13ifvqgqg","pricing_plan_id":"cebpf4jnsgd1na2vs0mg"},{"bike_id":"f8a7fa8c-ba73-4e53-bc85-011b1a73959b","system_id":"levelo_inurba_marseille","lat":43.29511,"lon":5.39405,"is_reserved":false,"is_disabled":false,"rental_uris":{"android":"levelo://app?vid=f8a7fa8c-ba73-4e53-bc85-011b1a73959b","ios":"levelo://app?vid=f8a7fa8c-ba73-4e53-bc85-011b1a73959b"},"vehicle_type_id":"4","last_reported":1728688126,"current_range_meters":19600,"station_id":"ce4bh292rcd13ifvqdf0","pricing_plan_id":"cebpf4jnsgd1na2vs0mg"},{"bike_id":"a49f0919-36fa-4eb4-8b1e-4f56526b00f7","system_id":"levelo_inurba_marseille","lat":43.27175,"lon":5.40995,"is_reserved":false,"is_disabled":false,"rental_uris":{"android":"levelo://app?vid=a49f0919-36fa-4eb4-8b1e-4f56526b00f7","ios":"levelo://app?vid=a49f0919-36fa-4eb4-8b1e-4f56526b00f7"},"vehicle_type_id":"4","last_reported":1728688126,"current_range_meters":17200,"station_id":"ce4bhl12rcd13ifvqgf0","pricing_plan_id":"cebpf4jnsgd1na2vs0mg"},{"bike_id":"23d8589a-f57d-424d-a70a-057d6e0dae5b","system_id":"levelo_inurba_marseille","lat":43.30651,"lon":5.40084,"is_reserved":false,"is_disabled":false,"rental_uris":{"android":"levelo://app?vid=23d8589a-f57d-424d-a70a-057d6e0dae5b","ios":"levelo://app?vid=23d8589a-f57d-424d-a70a-057d6e0dae5b"},"vehicle_type_id":"4","last_reported":1728688126,"current_range_meters":8000,"station_id":"ce4bh112rcd13ifvqda0","pricing_plan_id":"cebpf4jnsgd1na2vs0mg"},{"bike_id":"181f74b0-293f-4d0e-a89c-8e96919b398a","system_id":"levelo_inurba_marseille","lat":43.30882,"lon":5.3965,"is_reserved":false,"is_disabled":false,"rental_uris":{"android":"levelo://app?vid=181f74b0-293f-4d0e-a89c-8e96919b398a","ios":"levelo://app?vid=181f74b0-293f-4d0e-a89c-8e96919b398a"},"vehicle_type_id":"4","last_reported":1728688126,"current_range_meters":10000,"station_id":"ce4bh012rcd13ifvqcv0","pricing_plan_id":"cebpf4jnsgd1na2vs0mg"},{"bike_id":"efa451ba-b4e7-436e-893f-d42f06b73dc5","system_id":"levelo_inurba_marseille","lat":43.28763,"lon":5.39427,"is_reserved":false,"is_disabled":false,"rental_uris":{"android":"levelo://app?vid=efa451ba-b4e7-436e-893f-d42f06b73dc5","ios":"levelo://app?vid=efa451ba-b4e7-436e-893f-d42f06b73dc5"},"vehicle_type_id":"4","last_reported":1728688126,"current_range_meters":26000,"station_id":"ce4bh0h2rcd13ifvqd50","pricing_plan_id":"cebpf4jnsgd1na2vs0mg"},{"bike_id":"1bf9e9fd-50e1-4cf4-9c20-adc74f4aa391","system_id":"levelo_inurba_marseille","lat":43.301317,"lon":5.387787,"is_reserved":false,"is_disabled":false,"rental_uris":{"android":"levelo://app?vid=1bf9e9fd-50e1-4cf4-9c20-adc74f4aa391","ios":"levelo://app?vid=1bf9e9fd-50e1-4cf4-9c20-adc74f4aa391"},"vehicle_type_id":"4","last_reported":1728688126,"current_range_meters":22800,"station_id":"ce4bghh2rcd13ifvqb60","pricing_plan_id":"cebpf4jnsgd1na2vs0mg"},{"bike_id":"43c9404a-94a6-4312-ba19-34f87f21dfc7","system_id":"levelo_inurba_marseille","lat":43.28712,"lon":5.39983,"is_reserved":false,"is_disabled":false,"rental_uris":{"android":"levelo://app?vid=43c9404a-94a6-4312-ba19-34f87f21dfc7","ios":"levelo://app?vid=43c9404a-94a6-4312-ba19-34f87f21dfc7"},"vehicle_type_id":"4","last_reported":1728688126,"current_range_meters":24400,"station_id":"ce4bho92rcd13ifvqh3g","pricing_plan_id":"cebpf4jnsgd1na2vs0mg"},{"bike_id":"ca1ed932-7218-46d7-8a7e-03755c22a57b","system_id":"levelo_inurba_marseille","lat":43.3117,"lon":5.38719,"is_reserved":false,"is_disabled":false,"rental_uris":{"android":"levelo://app?vid=ca1ed932-7218-46d7-8a7e-03755c22a57b","ios":"levelo://app?vid=ca1ed932-7218-46d7-8a7e-03755c22a57b"},"vehicle_type_id":"4","last_reported":1728688126,"current_range_meters":16400,"station_id":"ce4bgv12rcd13ifvqcp0","pricing_plan_id":"cebpf4jnsgd1na2vs0mg"},{"bike_id":"e5025e93-6a7a-4667-9a1b-c9f4560a2313","system_id":"levelo_inurba_marseille","lat":43.2783,"lon":5.39209,"is_reserved":false,"is_disabled":false,"rental_uris":{"android":"levelo://app?vid=e5025e93-6a7a-4667-9a1b-c9f4560a2313","ios":"levelo://app?vid=e5025e93-6a7a-4667-9a1b-c9f4560a2313"},"vehicle_type_id":"4","last_reported":1728688126,"current_range_meters":24800,"station_id":"ce4bhjp2rcd13ifvqga0","pricing_plan_id":"cebpf4jnsgd1na2vs0mg"},{"bike_id":"d4cf8c25-ba43-4224-aa32-c57be9cb781c","system_id":"levelo_inurba_marseille","lat":43.30606,"lon":5.37228,"is_reserved":false,"is_disabled":false,"rental_uris":{"android":"levelo://app?vid=d4cf8c25-ba43-4224-aa32-c57be9cb781c","ios":"levelo://app?vid=d4cf8c25-ba43-4224-aa32-c57be9cb781c"},"vehicle_type_id":"4","last_reported":1728688126,"current_range_meters":38400,"station_id":"ce4bgqh2rcd13ifvqc4g","pricing_plan_id":"cebpf4jnsgd1na2vs0mg"},{"bike_id":"ff68b789-7173-415f-860f-fb58c1b9d01d","system_id":"levelo_inurba_marseille","lat":43.22929,"lon":5.3538,"is_reserved":false,"is_disabled":false,"rental_uris":{"android":"levelo://app?vid=ff68b789-7173-415f-860f-fb58c1b9d01d","ios":"levelo://app?vid=ff68b789-7173-415f-860f-fb58c1b9d01d"},"vehicle_type_id":"4","last_reported":1728688126,"current_range_meters":28800,"station_id":"cpo3532slgdg3j2ikp40","pricing_plan_id":"cebpf4jnsgd1na2vs0mg"},{"bike_id":"57ed6f37-1825-4ff5-969a-7dab7ae663f3","system_id":"levelo_inurba_marseille","lat":43.29199,"lon":5.39326,"is_reserved":false,"is_disabled":false,"rental_uris":{"android":"levelo://app?vid=57ed6f37-1825-4ff5-969a-7dab7ae663f3","ios":"levelo://app?vid=57ed6f37-1825-4ff5-969a-7dab7ae663f3"},"vehicle_type_id":"4","last_reported":1728688126,"current_range_meters":31200,"station_id":"ce4bh192rcd13ifvqdd0","pricing_plan_id":"cebpf4jnsgd1na2vs0mg"},{"bike_id":"e4d4b18b-ebc6-434b-9a32-10cd0cb26283","system_id":"levelo_inurba_marseille","lat":43.29553,"lon":5.42281,"is_reserved":false,"is_disabled":false,"rental_uris":{"android":"levelo://app?vid=e4d4b18b-ebc6-434b-9a32-10cd0cb26283","ios":"levelo://app?vid=e4d4b18b-ebc6-434b-9a32-10cd0cb26283"},"vehicle_type_id":"4","last_reported":1728688126,"current_range_meters":14000,"station_id":"ce4bhph2rcd13ifvqhdg","pricing_plan_id":"cebpf4jnsgd1na2vs0mg"},{"bike_id":"53fc49f4-ab0d-412f-8641-8f10348c310c","system_id":"levelo_inurba_marseille","lat":43.30954,"lon":5.39047,"is_reserved":false,"is_disabled":false,"rental_uris":{"android":"levelo://app?vid=53fc49f4-ab0d-412f-8641-8f10348c310c","ios":"levelo://app?vid=53fc49f4-ab0d-412f-8641-8f10348c310c"},"vehicle_type_id":"4","last_reported":1728688126,"current_range_meters":39200,"station_id":"ce4bgup2rcd13ifvqco0","pricing_plan_id":"cebpf4jnsgd1na2vs0mg"},{"bike_id":"6cb5b02c-2401-484a-8b7d-b4d2106d6b08","system_id":"levelo_inurba_marseille","lat":43.2319,"lon":5.35558,"is_reserved":false,"is_disabled":false,"rental_uris":{"android":"levelo://app?vid=6cb5b02c-2401-484a-8b7d-b4d2106d6b08","ios":"levelo://app?vid=6cb5b02c-2401-484a-8b7d-b4d2106d6b08"},"vehicle_type_id":"4","last_reported":1728688126,"current_range_meters":35200,"station_id":"ce4bhu92rcd13ifvqi70","pricing_plan_id":"cebpf4jnsgd1na2vs0mg"},{"bike_id":"751ab8f4-b66e-4832-9b92-433be04fd785","system_id":"levelo_inurba_marseille","lat":43.33025,"lon":5.39037,"is_reserved":false,"is_disabled":false,"rental_uris":{"android":"levelo://app?vid=751ab8f4-b66e-4832-9b92-433be04fd785","ios":"levelo://app?vid=751ab8f4-b66e-4832-9b92-433be04fd785"},"vehicle_type_id":"4","last_reported":1728688126,"current_range_meters":26800,"station_id":"ce4bhr92rcd13ifvqhrg","pricing_plan_id":"cebpf4jnsgd1na2vs0mg"},{"bike_id":"461cadf8-4f61-47fd-8829-1d12d9b635b6","system_id":"levelo_inurba_marseille","lat":43.31756,"lon":5.39023,"is_reserved":false,"is_disabled":false,"rental_uris":{"android":"levelo://app?vid=461cadf8-4f61-47fd-8829-1d12d9b635b6","ios":"levelo://app?vid=461cadf8-4f61-47fd-8829-1d12d9b635b6"},"vehicle_type_id":"4","last_reported":1728688126,"current_range_meters":33200,"station_id":"ce4bhqp2rcd13ifvqhng","pricing_plan_id":"cebpf4jnsgd1na2vs0mg"},{"bike_id":"7ca55e86-9c7c-46ab-895b-d04de23dc7ec","system_id":"levelo_inurba_marseille","lat":43.3088,"lon":5.3719,"is_reserved":false,"is_disabled":false,"rental_uris":{"android":"levelo://app?vid=7ca55e86-9c7c-46ab-895b-d04de23dc7ec","ios":"levelo://app?vid=7ca55e86-9c7c-46ab-895b-d04de23dc7ec"},"vehicle_type_id":"4","last_reported":1728688126,"current_range_meters":9200,"station_id":"ce4bguh2rcd13ifvqckg","pricing_plan_id":"cebpf4jnsgd1na2vs0mg"},{"bike_id":"a6f101ba-ce20-4c36-9a53-277496ed829c","system_id":"levelo_inurba_marseille","lat":43.31116,"lon":5.37758,"is_reserved":false,"is_disabled":false,"rental_uris":{"android":"levelo://app?vid=a6f101ba-ce20-4c36-9a53-277496ed829c","ios":"levelo://app?vid=a6f101ba-ce20-4c36-9a53-277496ed829c"},"vehicle_type_id":"4","last_reported":1728688126,"current_range_meters":28000,"station_id":"ce4bgt92rcd13ifvqcg0","pricing_plan_id":"cebpf4jnsgd1na2vs0mg"},{"bike_id":"7fc3f7e7-7809-4f18-b936-d8f740ae97a7","system_id":"levelo_inurba_marseille","lat":43.32334,"lon":5.40626,"is_reserved":false,"is_disabled":false,"rental_uris":{"android":"levelo://app?vid=7fc3f7e7-7809-4f18-b936-d8f740ae97a7","ios":"levelo://app?vid=7fc3f7e7-7809-4f18-b936-d8f740ae97a7"},"vehicle_type_id":"4","last_reported":1728688126,"current_range_meters":6000,"station_id":"ce4bhq92rcd13ifvqhjg","pricing_plan_id":"cebpf4jnsgd1na2vs0mg"},{"bike_id":"b7ccc876-2133-4ac1-abb7-13055af0c477","system_id":"levelo_inurba_marseille","lat":43.29187,"lon":5.40752,"is_reserved":false,"is_disabled":false,"rental_uris":{"android":"levelo://app?vid=b7ccc876-2133-4ac1-abb7-13055af0c477","ios":"levelo://app?vid=b7ccc876-2133-4ac1-abb7-13055af0c477"},"vehicle_type_id":"4","last_reported":1728688126,"current_range_meters":22000,"station_id":"","pricing_plan_id":"cebpf4jnsgd1na2vs0mg"},{"bike_id":"b1a4cdcc-6c71-4b95-aa7e-92d88f73ff39","system_id":"levelo_inurba_marseille","lat":43.29419,"lon":5.38626,"is_reserved":false,"is_disabled":false,"rental_uris":{"android":"levelo://app?vid=b1a4cdcc-6c71-4b95-aa7e-92d88f73ff39","ios":"levelo://app?vid=b1a4cdcc-6c71-4b95-aa7e-92d88f73ff39"},"vehicle_type_id":"4","last_reported":1728688126,"current_range_meters":38800,"station_id":"ce4bh2h2rcd13ifvqdh0","pricing_plan_id":"cebpf4jnsgd1na2vs0mg"},{"bike_id":"74b71dea-f5e6-4b43-b66b-181db5a0d47f","system_id":"levelo_inurba_marseille","lat":43.28664,"lon":5.36353,"is_reserved":false,"is_disabled":false,"rental_uris":{"android":"levelo://app?vid=74b71dea-f5e6-4b43-b66b-181db5a0d47f","ios":"levelo://app?vid=74b71dea-f5e6-4b43-b66b-181db5a0d47f"},"vehicle_type_id":"4","last_reported":1728688126,"current_range_meters":39200,"station_id":"ce4bhah2rcd13ifvqej0","pricing_plan_id":"cebpf4jnsgd1na2vs0mg"},{"bike_id":"f80c2e75-b47f-4161-9783-8454957aba75","system_id":"levelo_inurba_marseille","lat":43.32097,"lon":5.3677,"is_reserved":false,"is_disabled":false,"rental_uris":{"android":"levelo://app?vid=f80c2e75-b47f-4161-9783-8454957aba75","ios":"levelo://app?vid=f80c2e75-b47f-4161-9783-8454957aba75"},"vehicle_type_id":"4","last_reported":1728688126,"current_range_meters":38400,"station_id":"ce4bhrh2rcd13ifvqhug","pricing_plan_id":"cebpf4jnsgd1na2vs0mg"},{"bike_id":"264d2141-1e20-485f-a145-9f11d899c8da","system_id":"levelo_inurba_marseille","lat":43.3171,"lon":5.43703,"is_reserved":false,"is_disabled":false,"rental_uris":{"android":"levelo://app?vid=264d2141-1e20-485f-a145-9f11d899c8da","ios":"levelo://app?vid=264d2141-1e20-485f-a145-9f11d899c8da"},"vehicle_type_id":"4","last_reported":1728688126,"current_range_meters":16000,"station_id":"ce4bhp92rcd13ifvqhcg","pricing_plan_id":"cebpf4jnsgd1na2vs0mg"},{"bike_id":"47800cc3-b4aa-4d02-bd42-90cb5272b1a4","system_id":"levelo_inurba_marseille","lat":43.23179,"lon":5.39993,"is_reserved":false,"is_disabled":false,"rental_uris":{"android":"levelo://app?vid=47800cc3-b4aa-4d02-bd42-90cb5272b1a4","ios":"levelo://app?vid=47800cc3-b4aa-4d02-bd42-90cb5272b1a4"},"vehicle_type_id":"4","last_reported":1728688126,"current_range_meters":23200,"station_id":"ce4bhn12rcd13ifvqgqg","pricing_plan_id":"cebpf4jnsgd1na2vs0mg"},{"bike_id":"df17eff2-8021-4979-a2b0-b8b956c3dafc","system_id":"levelo_inurba_marseille","lat":43.27176,"lon":5.40995,"is_reserved":false,"is_disabled":false,"rental_uris":{"android":"levelo://app?vid=df17eff2-8021-4979-a2b0-b8b956c3dafc","ios":"levelo://app?vid=df17eff2-8021-4979-a2b0-b8b956c3dafc"},"vehicle_type_id":"4","last_reported":1728688126,"current_range_meters":6400,"station_id":"ce4bhl12rcd13ifvqgf0","pricing_plan_id":"cebpf4jnsgd1na2vs0mg"},{"bike_id":"cab1a808-bbfc-447d-bf73-9b89a6db647e","system_id":"levelo_inurba_marseille","lat":43.27812,"lon":5.40714,"is_reserved":false,"is_disabled":false,"rental_uris":{"android":"levelo://app?vid=cab1a808-bbfc-447d-bf73-9b89a6db647e","ios":"levelo://app?vid=cab1a808-bbfc-447d-bf73-9b89a6db647e"},"vehicle_type_id":"4","last_reported":1728688126,"current_range_meters":9600,"station_id":"ce4bhnh2rcd13ifvqgtg","pricing_plan_id":"cebpf4jnsgd1na2vs0mg"},{"bike_id":"4ad6fd42-f540-4a7c-95c1-6e20141307a7","system_id":"levelo_inurba_marseille","lat":43.29251,"lon":5.40725,"is_reserved":false,"is_disabled":false,"rental_uris":{"android":"levelo://app?vid=4ad6fd42-f540-4a7c-95c1-6e20141307a7","ios":"levelo://app?vid=4ad6fd42-f540-4a7c-95c1-6e20141307a7"},"vehicle_type_id":"4","last_reported":1728688126,"current_range_meters":17200,"station_id":"ce4bh192rcd13ifvqdc0","pricing_plan_id":"cebpf4jnsgd1na2vs0mg"},{"bike_id":"eb13ce98-c7cd-4847-9fd8-cfd12e303ad0","system_id":"levelo_inurba_marseille","lat":43.28037,"lon":5.36947,"is_reserved":false,"is_disabled":false,"rental_uris":{"android":"levelo://app?vid=eb13ce98-c7cd-4847-9fd8-cfd12e303ad0","ios":"levelo://app?vid=eb13ce98-c7cd-4847-9fd8-cfd12e303ad0"},"vehicle_type_id":"4","last_reported":1728688126,"current_range_meters":4800,"station_id":"ce4bha12rcd13ifvqef0","pricing_plan_id":"cebpf4jnsgd1na2vs0mg"},{"bike_id":"b933402b-d1ca-49a8-bbf7-fb19281d941c","system_id":"levelo_inurba_marseille","lat":43.23195,"lon":5.35563,"is_reserved":false,"is_disabled":false,"rental_uris":{"android":"levelo://app?vid=b933402b-d1ca-49a8-bbf7-fb19281d941c","ios":"levelo://app?vid=b933402b-d1ca-49a8-bbf7-fb19281d941c"},"vehicle_type_id":"4","last_reported":1728688126,"current_range_meters":24800,"station_id":"ce4bhu92rcd13ifvqi70","pricing_plan_id":"cebpf4jnsgd1na2vs0mg"},{"bike_id":"6cf88230-62a2-44a3-b59e-c9b25f770edd","system_id":"levelo_inurba_marseille","lat":43.24661,"lon":5.38165,"is_reserved":false,"is_disabled":false,"rental_uris":{"android":"levelo://app?vid=6cf88230-62a2-44a3-b59e-c9b25f770edd","ios":"levelo://app?vid=6cf88230-62a2-44a3-b59e-c9b25f770edd"},"vehicle_type_id":"4","last_reported":1728688126,"current_range_meters":31200,"station_id":"ce4bhih2rcd13ifvqfr0","pricing_plan_id":"cebpf4jnsgd1na2vs0mg"},{"bike_id":"0db66df0-a352-45a7-b97a-79c2d6b8bb1d","system_id":"levelo_inurba_marseille","lat":43.27182,"lon":5.40991,"is_reserved":false,"is_disabled":false,"rental_uris":{"android":"levelo://app?vid=0db66df0-a352-45a7-b97a-79c2d6b8bb1d","ios":"levelo://app?vid=0db66df0-a352-45a7-b97a-79c2d6b8bb1d"},"vehicle_type_id":"4","last_reported":1728688126,"current_range_meters":28400,"station_id":"ce4bhl12rcd13ifvqgf0","pricing_plan_id":"cebpf4jnsgd1na2vs0mg"},{"bike_id":"adc92101-8579-406c-bd4a-5a4c768356dd","system_id":"levelo_inurba_marseille","lat":43.29193,"lon":5.3581,"is_reserved":false,"is_disabled":false,"rental_uris":{"android":"levelo://app?vid=adc92101-8579-406c-bd4a-5a4c768356dd","ios":"levelo://app?vid=adc92101-8579-406c-bd4a-5a4c768356dd"},"vehicle_type_id":"4","last_reported":1728688126,"current_range_meters":38800,"station_id":"ce4bhb12rcd13ifvqel0","pricing_plan_id":"cebpf4jnsgd1na2vs0mg"},{"bike_id":"934c41a5-ce93-46a1-a494-3ae14076bbf1","system_id":"levelo_inurba_marseille","lat":43.31067,"lon":5.38354,"is_reserved":false,"is_disabled":false,"rental_uris":{"android":"levelo://app?vid=934c41a5-ce93-46a1-a494-3ae14076bbf1","ios":"levelo://app?vid=934c41a5-ce93-46a1-a494-3ae14076bbf1"},"vehicle_type_id":"4","last_reported":1728688126,"current_range_meters":38800,"station_id":"ce4bgv92rcd13ifvqcr0","pricing_plan_id":"cebpf4jnsgd1na2vs0mg"},{"bike_id":"aeabab61-1f42-410d-b606-563d91c535e3","system_id":"levelo_inurba_marseille","lat":43.29783,"lon":5.39356,"is_reserved":false,"is_disabled":false,"rental_uris":{"android":"levelo://app?vid=aeabab61-1f42-410d-b606-563d91c535e3","ios":"levelo://app?vid=aeabab61-1f42-410d-b606-563d91c535e3"},"vehicle_type_id":"4","last_reported":1728688126,"current_range_meters":28400,"station_id":"chh1huq6cuj3fo74tm60","pricing_plan_id":"cebpf4jnsgd1na2vs0mg"},{"bike_id":"9d1d620b-66c5-4751-b96b-2d2834ca74c8","system_id":"levelo_inurba_marseille","lat":43.34141,"lon":5.40908,"is_reserved":false,"is_disabled":false,"rental_uris":{"android":"levelo://app?vid=9d1d620b-66c5-4751-b96b-2d2834ca74c8","ios":"levelo://app?vid=9d1d620b-66c5-4751-b96b-2d2834ca74c8"},"vehicle_type_id":"4","last_reported":1728688126,"current_range_meters":38400,"station_id":"ce4bhqh2rcd13ifvqhlg","pricing_plan_id":"cebpf4jnsgd1na2vs0mg"},{"bike_id":"3871984b-2d7d-41a4-9aa7-2f8c4ecb9958","system_id":"levelo_inurba_marseille","lat":43.28102,"lon":5.37839,"is_reserved":false,"is_disabled":false,"rental_uris":{"android":"levelo://app?vid=3871984b-2d7d-41a4-9aa7-2f8c4ecb9958","ios":"levelo://app?vid=3871984b-2d7d-41a4-9aa7-2f8c4ecb9958"},"vehicle_type_id":"4","last_reported":1728688126,"current_range_meters":11200,"station_id":"ce4bha12rcd13ifvqee0","pricing_plan_id":"cebpf4jnsgd1na2vs0mg"},{"bike_id":"2a932492-0f15-4cf0-823e-1ce1b91d20ad","system_id":"levelo_inurba_marseille","lat":43.27991,"lon":5.41668,"is_reserved":false,"is_disabled":false,"rental_uris":{"android":"levelo://app?vid=2a932492-0f15-4cf0-823e-1ce1b91d20ad","ios":"levelo://app?vid=2a932492-0f15-4cf0-823e-1ce1b91d20ad"},"vehicle_type_id":"4","last_reported":1728688126,"current_range_meters":35200,"station_id":"ce4bho12rcd13ifvqh1g","pricing_plan_id":"cebpf4jnsgd1na2vs0mg"},{"bike_id":"484a4c63-4ef1-4433-b27a-9a9ca5ad2f9a","system_id":"levelo_inurba_marseille","lat":43.22926,"lon":5.35381,"is_reserved":false,"is_disabled":false,"rental_uris":{"android":"levelo://app?vid=484a4c63-4ef1-4433-b27a-9a9ca5ad2f9a","ios":"levelo://app?vid=484a4c63-4ef1-4433-b27a-9a9ca5ad2f9a"},"vehicle_type_id":"4","last_reported":1728688126,"current_range_meters":13600,"station_id":"cpo3532slgdg3j2ikp40","pricing_plan_id":"cebpf4jnsgd1na2vs0mg"},{"bike_id":"ac630ff4-f036-4870-b81a-553d503e95d1","system_id":"levelo_inurba_marseille","lat":43.29255,"lon":5.40912,"is_reserved":false,"is_disabled":false,"rental_uris":{"android":"levelo://app?vid=ac630ff4-f036-4870-b81a-553d503e95d1","ios":"levelo://app?vid=ac630ff4-f036-4870-b81a-553d503e95d1"},"vehicle_type_id":"4","last_reported":1728688126,"current_range_meters":34000,"station_id":"ce4bh192rcd13ifvqdc0","pricing_plan_id":"cebpf4jnsgd1na2vs0mg"},{"bike_id":"4620d63a-873d-4561-8511-c14073990746","system_id":"levelo_inurba_marseille","lat":43.31324,"lon":5.39691,"is_reserved":false,"is_disabled":false,"rental_uris":{"android":"levelo://app?vid=4620d63a-873d-4561-8511-c14073990746","ios":"levelo://app?vid=4620d63a-873d-4561-8511-c14073990746"},"vehicle_type_id":"4","last_reported":1728688126,"current_range_meters":6400,"station_id":"ce4bgvp2rcd13ifvqcu0","pricing_plan_id":"cebpf4jnsgd1na2vs0mg"},{"bike_id":"e6336660-e5d0-4336-aab6-9e2081b4b551","system_id":"levelo_inurba_marseille","lat":43.33721,"lon":5.39198,"is_reserved":false,"is_disabled":false,"rental_uris":{"android":"levelo://app?vid=e6336660-e5d0-4336-aab6-9e2081b4b551","ios":"levelo://app?vid=e6336660-e5d0-4336-aab6-9e2081b4b551"},"vehicle_type_id":"4","last_reported":1728688126,"current_range_meters":26800,"station_id":"ce4bhr92rcd13ifvqhsg","pricing_plan_id":"cebpf4jnsgd1na2vs0mg"},{"bike_id":"eea7b379-dd77-40f6-878f-9bf82690cfa0","system_id":"levelo_inurba_marseille","lat":43.300713,"lon":5.370472,"is_reserved":false,"is_disabled":false,"rental_uris":{"android":"levelo://app?vid=eea7b379-dd77-40f6-878f-9bf82690cfa0","ios":"levelo://app?vid=eea7b379-dd77-40f6-878f-9bf82690cfa0"},"vehicle_type_id":"4","last_reported":1728688126,"current_range_meters":19600,"station_id":"","pricing_plan_id":"cebpf4jnsgd1na2vs0mg"},{"bike_id":"e24567e0-075d-41da-9e9f-82def655a0e1","system_id":"levelo_inurba_marseille","lat":43.30597,"lon":5.37221,"is_reserved":false,"is_disabled":false,"rental_uris":{"android":"levelo://app?vid=e24567e0-075d-41da-9e9f-82def655a0e1","ios":"levelo://app?vid=e24567e0-075d-41da-9e9f-82def655a0e1"},"vehicle_type_id":"4","last_reported":1728688126,"current_range_meters":9200,"station_id":"ce4bgqh2rcd13ifvqc4g","pricing_plan_id":"cebpf4jnsgd1na2vs0mg"},{"bike_id":"c7932ebc-40c2-41af-92e1-9d5f28b5738a","system_id":"levelo_inurba_marseille","lat":43.23183,"lon":5.39982,"is_reserved":false,"is_disabled":false,"rental_uris":{"android":"levelo://app?vid=c7932ebc-40c2-41af-92e1-9d5f28b5738a","ios":"levelo://app?vid=c7932ebc-40c2-41af-92e1-9d5f28b5738a"},"vehicle_type_id":"4","last_reported":1728688126,"current_range_meters":8000,"station_id":"ce4bhn12rcd13ifvqgqg","pricing_plan_id":"cebpf4jnsgd1na2vs0mg"},{"bike_id":"013915b0-a4f2-44d9-807c-b51ce417c921","system_id":"levelo_inurba_marseille","lat":43.27833,"lon":5.3921,"is_reserved":false,"is_disabled":false,"rental_uris":{"android":"levelo://app?vid=013915b0-a4f2-44d9-807c-b51ce417c921","ios":"levelo://app?vid=013915b0-a4f2-44d9-807c-b51ce417c921"},"vehicle_type_id":"4","last_reported":1728688126,"current_range_meters":20000,"station_id":"ce4bhjp2rcd13ifvqga0","pricing_plan_id":"cebpf4jnsgd1na2vs0mg"},{"bike_id":"0bb7ddfd-36b6-4bca-9b60-fa225ffd9753","system_id":"levelo_inurba_marseille","lat":43.25861,"lon":5.39905,"is_reserved":false,"is_disabled":false,"rental_uris":{"android":"levelo://app?vid=0bb7ddfd-36b6-4bca-9b60-fa225ffd9753","ios":"levelo://app?vid=0bb7ddfd-36b6-4bca-9b60-fa225ffd9753"},"vehicle_type_id":"4","last_reported":1728688126,"current_range_meters":23200,"station_id":"ce4bhl92rcd13ifvqghg","pricing_plan_id":"cebpf4jnsgd1na2vs0mg"},{"bike_id":"5b9f2409-af94-4530-bdcb-ef3b7e257a37","system_id":"levelo_inurba_marseille","lat":43.31994,"lon":5.38147,"is_reserved":false,"is_disabled":false,"rental_uris":{"android":"levelo://app?vid=5b9f2409-af94-4530-bdcb-ef3b7e257a37","ios":"levelo://app?vid=5b9f2409-af94-4530-bdcb-ef3b7e257a37"},"vehicle_type_id":"4","last_reported":1728688126,"current_range_meters":39200,"station_id":"ce4bhr12rcd13ifvqhpg","pricing_plan_id":"cebpf4jnsgd1na2vs0mg"},{"bike_id":"869e112c-22a0-4862-8333-ff20b02f153f","system_id":"levelo_inurba_marseille","lat":43.29191,"lon":5.39323,"is_reserved":false,"is_disabled":false,"rental_uris":{"android":"levelo://app?vid=869e112c-22a0-4862-8333-ff20b02f153f","ios":"levelo://app?vid=869e112c-22a0-4862-8333-ff20b02f153f"},"vehicle_type_id":"4","last_reported":1728688126,"current_range_meters":39200,"station_id":"ce4bh192rcd13ifvqdd0","pricing_plan_id":"cebpf4jnsgd1na2vs0mg"},{"bike_id":"967c19e4-3b92-445b-b71c-a3384263962d","system_id":"levelo_inurba_marseille","lat":43.31525,"lon":5.38038,"is_reserved":false,"is_disabled":false,"rental_uris":{"android":"levelo://app?vid=967c19e4-3b92-445b-b71c-a3384263962d","ios":"levelo://app?vid=967c19e4-3b92-445b-b71c-a3384263962d"},"vehicle_type_id":"4","last_reported":1728688126,"current_range_meters":11200,"station_id":"ce4bhsp2rcd13ifvqi50","pricing_plan_id":"cebpf4jnsgd1na2vs0mg"},{"bike_id":"1daa9aba-edf3-4752-8919-ce8a71ac9a5b","system_id":"levelo_inurba_marseille","lat":43.30637,"lon":5.40076,"is_reserved":false,"is_disabled":false,"rental_uris":{"android":"levelo://app?vid=1daa9aba-edf3-4752-8919-ce8a71ac9a5b","ios":"levelo://app?vid=1daa9aba-edf3-4752-8919-ce8a71ac9a5b"},"vehicle_type_id":"4","last_reported":1728688126,"current_range_meters":36800,"station_id":"ce4bh112rcd13ifvqda0","pricing_plan_id":"cebpf4jnsgd1na2vs0mg"},{"bike_id":"9420c6dc-b19d-4421-8c0c-72e39b809c6b","system_id":"levelo_inurba_marseille","lat":43.2293,"lon":5.35377,"is_reserved":false,"is_disabled":false,"rental_uris":{"android":"levelo://app?vid=9420c6dc-b19d-4421-8c0c-72e39b809c6b","ios":"levelo://app?vid=9420c6dc-b19d-4421-8c0c-72e39b809c6b"},"vehicle_type_id":"4","last_reported":1728688126,"current_range_meters":38800,"station_id":"cpo3532slgdg3j2ikp40","pricing_plan_id":"cebpf4jnsgd1na2vs0mg"},{"bike_id":"5a5649e8-a9bc-4d0f-be41-ed6fc56a9baf","system_id":"levelo_inurba_marseille","lat":43.22925,"lon":5.35379,"is_reserved":false,"is_disabled":false,"rental_uris":{"android":"levelo://app?vid=5a5649e8-a9bc-4d0f-be41-ed6fc56a9baf","ios":"levelo://app?vid=5a5649e8-a9bc-4d0f-be41-ed6fc56a9baf"},"vehicle_type_id":"4","last_reported":1728688126,"current_range_meters":35200,"station_id":"cpo3532slgdg3j2ikp40","pricing_plan_id":"cebpf4jnsgd1na2vs0mg"},{"bike_id":"2c5b7bda-4afa-4a06-a2c7-42f201e18a2e","system_id":"levelo_inurba_marseille","lat":43.313584,"lon":5.384889,"is_reserved":false,"is_disabled":false,"rental_uris":{"android":"levelo://app?vid=2c5b7bda-4afa-4a06-a2c7-42f201e18a2e","ios":"levelo://app?vid=2c5b7bda-4afa-4a06-a2c7-42f201e18a2e"},"vehicle_type_id":"4","last_reported":1728688126,"current_range_meters":34800,"station_id":"ce4bgt92rcd13ifvqcf0","pricing_plan_id":"cebpf4jnsgd1na2vs0mg"},{"bike_id":"d66fdf2f-07a9-4b26-b71a-667699602f45","system_id":"levelo_inurba_marseille","lat":43.27941,"lon":5.41041,"is_reserved":false,"is_disabled":false,"rental_uris":{"android":"levelo://app?vid=d66fdf2f-07a9-4b26-b71a-667699602f45","ios":"levelo://app?vid=d66fdf2f-07a9-4b26-b71a-667699602f45"},"vehicle_type_id":"4","last_reported":1728688126,"current_range_meters":8400,"station_id":"ce4bhnp2rcd13ifvqh0g","pricing_plan_id":"cebpf4jnsgd1na2vs0mg"},{"bike_id":"e7b80a9d-8eab-4c55-afa3-0f8d67be8e22","system_id":"levelo_inurba_marseille","lat":43.24387,"lon":5.37054,"is_reserved":false,"is_disabled":false,"rental_uris":{"android":"levelo://app?vid=e7b80a9d-8eab-4c55-afa3-0f8d67be8e22","ios":"levelo://app?vid=e7b80a9d-8eab-4c55-afa3-0f8d67be8e22"},"vehicle_type_id":"4","last_reported":1728688126,"current_range_meters":38400,"station_id":"ce4bhhh2rcd13ifvqfk0","pricing_plan_id":"cebpf4jnsgd1na2vs0mg"},{"bike_id":"379d6363-9152-4e84-bd42-6ec02dd02b54","system_id":"levelo_inurba_marseille","lat":43.32,"lon":5.38159,"is_reserved":false,"is_disabled":false,"rental_uris":{"android":"levelo://app?vid=379d6363-9152-4e84-bd42-6ec02dd02b54","ios":"levelo://app?vid=379d6363-9152-4e84-bd42-6ec02dd02b54"},"vehicle_type_id":"4","last_reported":1728688126,"current_range_meters":39200,"station_id":"ce4bhr12rcd13ifvqhpg","pricing_plan_id":"cebpf4jnsgd1na2vs0mg"},{"bike_id":"8fb2b431-bcb9-46ba-80fb-e26e84592fc5","system_id":"levelo_inurba_marseille","lat":43.23192,"lon":5.35555,"is_reserved":false,"is_disabled":false,"rental_uris":{"android":"levelo://app?vid=8fb2b431-bcb9-46ba-80fb-e26e84592fc5","ios":"levelo://app?vid=8fb2b431-bcb9-46ba-80fb-e26e84592fc5"},"vehicle_type_id":"4","last_reported":1728688126,"current_range_meters":35200,"station_id":"ce4bhu92rcd13ifvqi70","pricing_plan_id":"cebpf4jnsgd1na2vs0mg"},{"bike_id":"d25e2e0f-501d-4262-8147-167fff2c0578","system_id":"levelo_inurba_marseille","lat":43.30932,"lon":5.40138,"is_reserved":false,"is_disabled":false,"rental_uris":{"android":"levelo://app?vid=d25e2e0f-501d-4262-8147-167fff2c0578","ios":"levelo://app?vid=d25e2e0f-501d-4262-8147-167fff2c0578"},"vehicle_type_id":"4","last_reported":1728688126,"current_range_meters":14000,"station_id":"ce4bgvp2rcd13ifvqct0","pricing_plan_id":"cebpf4jnsgd1na2vs0mg"},{"bike_id":"a53b276c-67b6-4397-8369-5717d22041e1","system_id":"levelo_inurba_marseille","lat":43.30885,"lon":5.39648,"is_reserved":false,"is_disabled":false,"rental_uris":{"android":"levelo://app?vid=a53b276c-67b6-4397-8369-5717d22041e1","ios":"levelo://app?vid=a53b276c-67b6-4397-8369-5717d22041e1"},"vehicle_type_id":"4","last_reported":1728688126,"current_range_meters":24400,"station_id":"ce4bh012rcd13ifvqcv0","pricing_plan_id":"cebpf4jnsgd1na2vs0mg"},{"bike_id":"6e78bd64-8eea-4f6d-92b3-de18fcbdf4b0","system_id":"levelo_inurba_marseille","lat":43.3088,"lon":5.39639,"is_reserved":false,"is_disabled":false,"rental_uris":{"android":"levelo://app?vid=6e78bd64-8eea-4f6d-92b3-de18fcbdf4b0","ios":"levelo://app?vid=6e78bd64-8eea-4f6d-92b3-de18fcbdf4b0"},"vehicle_type_id":"4","last_reported":1728688126,"current_range_meters":30000,"station_id":"ce4bh012rcd13ifvqcv0","pricing_plan_id":"cebpf4jnsgd1na2vs0mg"},{"bike_id":"33382ad5-301e-4225-b07e-4ebef7096343","system_id":"levelo_inurba_marseille","lat":43.24073,"lon":5.37755,"is_reserved":false,"is_disabled":false,"rental_uris":{"android":"levelo://app?vid=33382ad5-301e-4225-b07e-4ebef7096343","ios":"levelo://app?vid=33382ad5-301e-4225-b07e-4ebef7096343"},"vehicle_type_id":"4","last_reported":1728688126,"current_range_meters":10800,"station_id":"ce4bhnp2rcd13ifvqgvg","pricing_plan_id":"cebpf4jnsgd1na2vs0mg"},{"bike_id":"8233b71b-891a-4e52-ba59-3fa8be51a63e","system_id":"levelo_inurba_marseille","lat":43.26802,"lon":5.39401,"is_reserved":false,"is_disabled":false,"rental_uris":{"android":"levelo://app?vid=8233b71b-891a-4e52-ba59-3fa8be51a63e","ios":"levelo://app?vid=8233b71b-891a-4e52-ba59-3fa8be51a63e"},"vehicle_type_id":"4","last_reported":1728688126,"current_range_meters":38000,"station_id":"ce4bhh12rcd13ifvqfg0","pricing_plan_id":"cebpf4jnsgd1na2vs0mg"},{"bike_id":"570b7377-ff19-41ff-8cdb-fb1baf24410c","system_id":"levelo_inurba_marseille","lat":43.294475,"lon":5.387317,"is_reserved":false,"is_disabled":false,"rental_uris":{"android":"levelo://app?vid=570b7377-ff19-41ff-8cdb-fb1baf24410c","ios":"levelo://app?vid=570b7377-ff19-41ff-8cdb-fb1baf24410c"},"vehicle_type_id":"4","last_reported":1728688126,"current_range_meters":30400,"station_id":"ce4bgvp2rcd13ifvqct0","pricing_plan_id":"cebpf4jnsgd1na2vs0mg"},{"bike_id":"ada7472e-6027-403a-a239-d414f24cd2e0","system_id":"levelo_inurba_marseille","lat":43.32331,"lon":5.40616,"is_reserved":false,"is_disabled":false,"rental_uris":{"android":"levelo://app?vid=ada7472e-6027-403a-a239-d414f24cd2e0","ios":"levelo://app?vid=ada7472e-6027-403a-a239-d414f24cd2e0"},"vehicle_type_id":"4","last_reported":1728688126,"current_range_meters":36800,"station_id":"ce4bhq92rcd13ifvqhjg","pricing_plan_id":"cebpf4jnsgd1na2vs0mg"},{"bike_id":"7e1ddba8-7450-4208-9e1f-1b36cd00e2bc","system_id":"levelo_inurba_marseille","lat":43.31884,"lon":5.40725,"is_reserved":false,"is_disabled":false,"rental_uris":{"android":"levelo://app?vid=7e1ddba8-7450-4208-9e1f-1b36cd00e2bc","ios":"levelo://app?vid=7e1ddba8-7450-4208-9e1f-1b36cd00e2bc"},"vehicle_type_id":"4","last_reported":1728688126,"current_range_meters":30400,"station_id":"ce4bhq12rcd13ifvqhig","pricing_plan_id":"cebpf4jnsgd1na2vs0mg"},{"bike_id":"a27554a6-a50a-485f-8f1f-4487a4aa2e01","system_id":"levelo_inurba_marseille","lat":43.305968,"lon":5.380746,"is_reserved":false,"is_disabled":false,"rental_uris":{"android":"levelo://app?vid=a27554a6-a50a-485f-8f1f-4487a4aa2e01","ios":"levelo://app?vid=a27554a6-a50a-485f-8f1f-4487a4aa2e01"},"vehicle_type_id":"4","last_reported":1728688126,"current_range_meters":29600,"station_id":"","pricing_plan_id":"cebpf4jnsgd1na2vs0mg"},{"bike_id":"15950427-53d4-4f8f-904a-876c198ae26c","system_id":"levelo_inurba_marseille","lat":43.279747,"lon":5.387363,"is_reserved":false,"is_disabled":false,"rental_uris":{"android":"levelo://app?vid=15950427-53d4-4f8f-904a-876c198ae26c","ios":"levelo://app?vid=15950427-53d4-4f8f-904a-876c198ae26c"},"vehicle_type_id":"4","last_reported":1728688126,"current_range_meters":32000,"station_id":"ce4bhg12rcd13ifvqf80","pricing_plan_id":"cebpf4jnsgd1na2vs0mg"},{"bike_id":"e4e0c7d9-743e-4987-b12c-cc30909aebea","system_id":"levelo_inurba_marseille","lat":43.24649,"lon":5.38898,"is_reserved":false,"is_disabled":false,"rental_uris":{"android":"levelo://app?vid=e4e0c7d9-743e-4987-b12c-cc30909aebea","ios":"levelo://app?vid=e4e0c7d9-743e-4987-b12c-cc30909aebea"},"vehicle_type_id":"4","last_reported":1728688126,"current_range_meters":30000,"station_id":"ce4bhg12rcd13ifvqf60","pricing_plan_id":"cebpf4jnsgd1na2vs0mg"},{"bike_id":"549aa92d-1d57-4f68-860e-b86ca10a5955","system_id":"levelo_inurba_marseille","lat":43.32287,"lon":5.38272,"is_reserved":false,"is_disabled":false,"rental_uris":{"android":"levelo://app?vid=549aa92d-1d57-4f68-860e-b86ca10a5955","ios":"levelo://app?vid=549aa92d-1d57-4f68-860e-b86ca10a5955"},"vehicle_type_id":"4","last_reported":1728688126,"current_range_meters":38000,"station_id":"ce4bhr12rcd13ifvqhqg","pricing_plan_id":"cebpf4jnsgd1na2vs0mg"},{"bike_id":"8d4fa04b-4062-460e-b516-8963625f5487","system_id":"levelo_inurba_marseille","lat":43.31081,"lon":5.42427,"is_reserved":false,"is_disabled":false,"rental_uris":{"android":"levelo://app?vid=8d4fa04b-4062-460e-b516-8963625f5487","ios":"levelo://app?vid=8d4fa04b-4062-460e-b516-8963625f5487"},"vehicle_type_id":"4","last_reported":1728688126,"current_range_meters":24400,"station_id":"ce4bhp92rcd13ifvqhag","pricing_plan_id":"cebpf4jnsgd1na2vs0mg"},{"bike_id":"1b5de233-f433-4158-82fa-838c8878b17f","system_id":"levelo_inurba_marseille","lat":43.27612,"lon":5.36109,"is_reserved":false,"is_disabled":false,"rental_uris":{"android":"levelo://app?vid=1b5de233-f433-4158-82fa-838c8878b17f","ios":"levelo://app?vid=1b5de233-f433-4158-82fa-838c8878b17f"},"vehicle_type_id":"4","last_reported":1728688126,"current_range_meters":22000,"station_id":"ce4bgj92rcd13ifvqbe0","pricing_plan_id":"cebpf4jnsgd1na2vs0mg"},{"bike_id":"facab282-a00a-42c6-b102-647c7dc5306e","system_id":"levelo_inurba_marseille","lat":43.30883,"lon":5.39647,"is_reserved":false,"is_disabled":false,"rental_uris":{"android":"levelo://app?vid=facab282-a00a-42c6-b102-647c7dc5306e","ios":"levelo://app?vid=facab282-a00a-42c6-b102-647c7dc5306e"},"vehicle_type_id":"4","last_reported":1728688126,"current_range_meters":3600,"station_id":"ce4bh012rcd13ifvqcv0","pricing_plan_id":"cebpf4jnsgd1na2vs0mg"},{"bike_id":"8970f247-f3e1-417e-aa3c-bb5b7ef663d8","system_id":"levelo_inurba_marseille","lat":43.33601,"lon":5.41031,"is_reserved":false,"is_disabled":false,"rental_uris":{"android":"levelo://app?vid=8970f247-f3e1-417e-aa3c-bb5b7ef663d8","ios":"levelo://app?vid=8970f247-f3e1-417e-aa3c-bb5b7ef663d8"},"vehicle_type_id":"4","last_reported":1728688126,"current_range_meters":22000,"station_id":"ce4bhqh2rcd13ifvqhmg","pricing_plan_id":"cebpf4jnsgd1na2vs0mg"},{"bike_id":"cd715bee-de24-47bc-be20-293d51979159","system_id":"levelo_inurba_marseille","lat":43.30543,"lon":5.38438,"is_reserved":false,"is_disabled":false,"rental_uris":{"android":"levelo://app?vid=cd715bee-de24-47bc-be20-293d51979159","ios":"levelo://app?vid=cd715bee-de24-47bc-be20-293d51979159"},"vehicle_type_id":"4","last_reported":1728688126,"current_range_meters":10000,"station_id":"ce4bgg92rcd13ifvqb30","pricing_plan_id":"cebpf4jnsgd1na2vs0mg"},{"bike_id":"4f084084-81b7-4d98-8eac-e8894430c993","system_id":"levelo_inurba_marseille","lat":43.2866,"lon":5.36356,"is_reserved":false,"is_disabled":false,"rental_uris":{"android":"levelo://app?vid=4f084084-81b7-4d98-8eac-e8894430c993","ios":"levelo://app?vid=4f084084-81b7-4d98-8eac-e8894430c993"},"vehicle_type_id":"4","last_reported":1728688126,"current_range_meters":39200,"station_id":"ce4bhah2rcd13ifvqej0","pricing_plan_id":"cebpf4jnsgd1na2vs0mg"},{"bike_id":"3327da40-e09c-41d4-9643-92c159401260","system_id":"levelo_inurba_marseille","lat":43.29964,"lon":5.38503,"is_reserved":false,"is_disabled":false,"rental_uris":{"android":"levelo://app?vid=3327da40-e09c-41d4-9643-92c159401260","ios":"levelo://app?vid=3327da40-e09c-41d4-9643-92c159401260"},"vehicle_type_id":"4","last_reported":1728688126,"current_range_meters":38800,"station_id":"ce4bgj92rcd13ifvqbd0","pricing_plan_id":"cebpf4jnsgd1na2vs0mg"},{"bike_id":"676b3cd4-77c7-4df0-af04-3aff81f98245","system_id":"levelo_inurba_marseille","lat":43.33028,"lon":5.39039,"is_reserved":false,"is_disabled":false,"rental_uris":{"android":"levelo://app?vid=676b3cd4-77c7-4df0-af04-3aff81f98245","ios":"levelo://app?vid=676b3cd4-77c7-4df0-af04-3aff81f98245"},"vehicle_type_id":"4","last_reported":1728688126,"current_range_meters":39200,"station_id":"ce4bhr92rcd13ifvqhrg","pricing_plan_id":"cebpf4jnsgd1na2vs0mg"},{"bike_id":"e5bd0faf-e2e0-4933-bde0-abec19aa0d5b","system_id":"levelo_inurba_marseille","lat":43.28098,"lon":5.37838,"is_reserved":false,"is_disabled":false,"rental_uris":{"android":"levelo://app?vid=e5bd0faf-e2e0-4933-bde0-abec19aa0d5b","ios":"levelo://app?vid=e5bd0faf-e2e0-4933-bde0-abec19aa0d5b"},"vehicle_type_id":"4","last_reported":1728688126,"current_range_meters":38000,"station_id":"ce4bha12rcd13ifvqee0","pricing_plan_id":"cebpf4jnsgd1na2vs0mg"},{"bike_id":"e7d71244-5904-451f-8274-fab900376afb","system_id":"levelo_inurba_marseille","lat":43.282623,"lon":5.350518,"is_reserved":false,"is_disabled":false,"rental_uris":{"android":"levelo://app?vid=e7d71244-5904-451f-8274-fab900376afb","ios":"levelo://app?vid=e7d71244-5904-451f-8274-fab900376afb"},"vehicle_type_id":"4","last_reported":1728688126,"current_range_meters":22000,"station_id":"ce4bhbp2rcd13ifvqerg","pricing_plan_id":"cebpf4jnsgd1na2vs0mg"},{"bike_id":"07565f7d-6f02-471c-82a1-16a7c1c15713","system_id":"levelo_inurba_marseille","lat":43.31884,"lon":5.40738,"is_reserved":false,"is_disabled":false,"rental_uris":{"android":"levelo://app?vid=07565f7d-6f02-471c-82a1-16a7c1c15713","ios":"levelo://app?vid=07565f7d-6f02-471c-82a1-16a7c1c15713"},"vehicle_type_id":"4","last_reported":1728688126,"current_range_meters":19200,"station_id":"ce4bhq12rcd13ifvqhig","pricing_plan_id":"cebpf4jnsgd1na2vs0mg"},{"bike_id":"fa788d65-ef44-407c-8d29-e3cbbca2e385","system_id":"levelo_inurba_marseille","lat":43.32266,"lon":5.38653,"is_reserved":false,"is_disabled":false,"rental_uris":{"android":"levelo://app?vid=fa788d65-ef44-407c-8d29-e3cbbca2e385","ios":"levelo://app?vid=fa788d65-ef44-407c-8d29-e3cbbca2e385"},"vehicle_type_id":"4","last_reported":1728688126,"current_range_meters":4800,"station_id":"","pricing_plan_id":"cebpf4jnsgd1na2vs0mg"},{"bike_id":"7e5f7e17-fadb-48d5-ae5b-60d41d7f782a","system_id":"levelo_inurba_marseille","lat":43.28072,"lon":5.39661,"is_reserved":false,"is_disabled":false,"rental_uris":{"android":"levelo://app?vid=7e5f7e17-fadb-48d5-ae5b-60d41d7f782a","ios":"levelo://app?vid=7e5f7e17-fadb-48d5-ae5b-60d41d7f782a"},"vehicle_type_id":"4","last_reported":1728688126,"current_range_meters":22000,"station_id":"ce4bho12rcd13ifvqh2g","pricing_plan_id":"cebpf4jnsgd1na2vs0mg"},{"bike_id":"50a7ca7e-8a04-42f6-9727-81cc3d09eb19","system_id":"levelo_inurba_marseille","lat":43.28719,"lon":5.37947,"is_reserved":false,"is_disabled":false,"rental_uris":{"android":"levelo://app?vid=50a7ca7e-8a04-42f6-9727-81cc3d09eb19","ios":"levelo://app?vid=50a7ca7e-8a04-42f6-9727-81cc3d09eb19"},"vehicle_type_id":"4","last_reported":1728688126,"current_range_meters":23200,"station_id":"ce4bh9p2rcd13ifvqec0","pricing_plan_id":"cebpf4jnsgd1na2vs0mg"},{"bike_id":"15fcc99e-2d24-439c-ba4d-01602d079cc1","system_id":"levelo_inurba_marseille","lat":43.29262,"lon":5.409,"is_reserved":false,"is_disabled":false,"rental_uris":{"android":"levelo://app?vid=15fcc99e-2d24-439c-ba4d-01602d079cc1","ios":"levelo://app?vid=15fcc99e-2d24-439c-ba4d-01602d079cc1"},"vehicle_type_id":"4","last_reported":1728688126,"current_range_meters":3200,"station_id":"ce4bh192rcd13ifvqdc0","pricing_plan_id":"cebpf4jnsgd1na2vs0mg"},{"bike_id":"8509fa5d-c6d9-4cb2-b4b1-4f2065b2666e","system_id":"levelo_inurba_marseille","lat":43.283407,"lon":5.410545,"is_reserved":false,"is_disabled":false,"rental_uris":{"android":"levelo://app?vid=8509fa5d-c6d9-4cb2-b4b1-4f2065b2666e","ios":"levelo://app?vid=8509fa5d-c6d9-4cb2-b4b1-4f2065b2666e"},"vehicle_type_id":"4","last_reported":1728688126,"current_range_meters":4000,"station_id":"","pricing_plan_id":"cebpf4jnsgd1na2vs0mg"},{"bike_id":"06a6cd5f-dc12-4ad9-ade4-2a000588a3cd","system_id":"levelo_inurba_marseille","lat":43.30641,"lon":5.40076,"is_reserved":false,"is_disabled":false,"rental_uris":{"android":"levelo://app?vid=06a6cd5f-dc12-4ad9-ade4-2a000588a3cd","ios":"levelo://app?vid=06a6cd5f-dc12-4ad9-ade4-2a000588a3cd"},"vehicle_type_id":"4","last_reported":1728688126,"current_range_meters":36000,"station_id":"ce4bh112rcd13ifvqda0","pricing_plan_id":"cebpf4jnsgd1na2vs0mg"},{"bike_id":"3a2c4e1d-400c-46ef-aca0-38caaf561c85","system_id":"levelo_inurba_marseille","lat":43.31074,"lon":5.38361,"is_reserved":false,"is_disabled":false,"rental_uris":{"android":"levelo://app?vid=3a2c4e1d-400c-46ef-aca0-38caaf561c85","ios":"levelo://app?vid=3a2c4e1d-400c-46ef-aca0-38caaf561c85"},"vehicle_type_id":"4","last_reported":1728688126,"current_range_meters":28000,"station_id":"ce4bgv92rcd13ifvqcr0","pricing_plan_id":"cebpf4jnsgd1na2vs0mg"},{"bike_id":"e2f32d73-5f17-4115-97b7-71d95775cf79","system_id":"levelo_inurba_marseille","lat":43.28102,"lon":5.37841,"is_reserved":false,"is_disabled":false,"rental_uris":{"android":"levelo://app?vid=e2f32d73-5f17-4115-97b7-71d95775cf79","ios":"levelo://app?vid=e2f32d73-5f17-4115-97b7-71d95775cf79"},"vehicle_type_id":"4","last_reported":1728688126,"current_range_meters":24400,"station_id":"ce4bha12rcd13ifvqee0","pricing_plan_id":"cebpf4jnsgd1na2vs0mg"},{"bike_id":"07276e12-43cd-44df-bd81-e35fbb0f693f","system_id":"levelo_inurba_marseille","lat":43.27898,"lon":5.38014,"is_reserved":false,"is_disabled":false,"rental_uris":{"android":"levelo://app?vid=07276e12-43cd-44df-bd81-e35fbb0f693f","ios":"levelo://app?vid=07276e12-43cd-44df-bd81-e35fbb0f693f"},"vehicle_type_id":"4","last_reported":1728688126,"current_range_meters":39200,"station_id":"ce4bhf92rcd13ifvqf50","pricing_plan_id":"cebpf4jnsgd1na2vs0mg"},{"bike_id":"734e414b-a3c5-4285-bfe1-4534f8f780ed","system_id":"levelo_inurba_marseille","lat":43.29248,"lon":5.4091,"is_reserved":false,"is_disabled":false,"rental_uris":{"android":"levelo://app?vid=734e414b-a3c5-4285-bfe1-4534f8f780ed","ios":"levelo://app?vid=734e414b-a3c5-4285-bfe1-4534f8f780ed"},"vehicle_type_id":"4","last_reported":1728688126,"current_range_meters":23200,"station_id":"ce4bh192rcd13ifvqdc0","pricing_plan_id":"cebpf4jnsgd1na2vs0mg"},{"bike_id":"c72f1aae-588f-41eb-a78e-0099908f19eb","system_id":"levelo_inurba_marseille","lat":43.30636,"lon":5.40082,"is_reserved":false,"is_disabled":false,"rental_uris":{"android":"levelo://app?vid=c72f1aae-588f-41eb-a78e-0099908f19eb","ios":"levelo://app?vid=c72f1aae-588f-41eb-a78e-0099908f19eb"},"vehicle_type_id":"4","last_reported":1728688126,"current_range_meters":16800,"station_id":"ce4bh112rcd13ifvqda0","pricing_plan_id":"cebpf4jnsgd1na2vs0mg"},{"bike_id":"06e3ae6d-6942-4ece-9a8f-e27300ab6c6d","system_id":"levelo_inurba_marseille","lat":43.301453,"lon":5.387665,"is_reserved":false,"is_disabled":false,"rental_uris":{"android":"levelo://app?vid=06e3ae6d-6942-4ece-9a8f-e27300ab6c6d","ios":"levelo://app?vid=06e3ae6d-6942-4ece-9a8f-e27300ab6c6d"},"vehicle_type_id":"4","last_reported":1728688126,"current_range_meters":6400,"station_id":"ce4bghh2rcd13ifvqb60","pricing_plan_id":"cebpf4jnsgd1na2vs0mg"},{"bike_id":"be66f2d4-b94b-47b2-84e3-9827ddb439c8","system_id":"levelo_inurba_marseille","lat":43.29223,"lon":5.36067,"is_reserved":false,"is_disabled":false,"rental_uris":{"android":"levelo://app?vid=be66f2d4-b94b-47b2-84e3-9827ddb439c8","ios":"levelo://app?vid=be66f2d4-b94b-47b2-84e3-9827ddb439c8"},"vehicle_type_id":"4","last_reported":1728688126,"current_range_meters":5600,"station_id":"ce4bhbh2rcd13ifvqeqg","pricing_plan_id":"cebpf4jnsgd1na2vs0mg"},{"bike_id":"7706a2ed-6fe5-42b4-ac61-64836e2a2251","system_id":"levelo_inurba_marseille","lat":43.24647,"lon":5.38894,"is_reserved":false,"is_disabled":false,"rental_uris":{"android":"levelo://app?vid=7706a2ed-6fe5-42b4-ac61-64836e2a2251","ios":"levelo://app?vid=7706a2ed-6fe5-42b4-ac61-64836e2a2251"},"vehicle_type_id":"4","last_reported":1728688126,"current_range_meters":18000,"station_id":"ce4bhg12rcd13ifvqf60","pricing_plan_id":"cebpf4jnsgd1na2vs0mg"},{"bike_id":"d89ae172-f9f8-4826-abdd-53d8067f66f1","system_id":"levelo_inurba_marseille","lat":43.288513,"lon":5.393135,"is_reserved":false,"is_disabled":false,"rental_uris":{"android":"levelo://app?vid=d89ae172-f9f8-4826-abdd-53d8067f66f1","ios":"levelo://app?vid=d89ae172-f9f8-4826-abdd-53d8067f66f1"},"vehicle_type_id":"4","last_reported":1728688126,"current_range_meters":29600,"station_id":"ce4bh2p2rcd13ifvqdi0","pricing_plan_id":"cebpf4jnsgd1na2vs0mg"},{"bike_id":"0dfada49-df75-45e2-9152-65c8c56d9104","system_id":"levelo_inurba_marseille","lat":43.30888,"lon":5.39653,"is_reserved":false,"is_disabled":false,"rental_uris":{"android":"levelo://app?vid=0dfada49-df75-45e2-9152-65c8c56d9104","ios":"levelo://app?vid=0dfada49-df75-45e2-9152-65c8c56d9104"},"vehicle_type_id":"4","last_reported":1728688126,"current_range_meters":37600,"station_id":"ce4bh012rcd13ifvqcv0","pricing_plan_id":"cebpf4jnsgd1na2vs0mg"},{"bike_id":"b65d5423-83c5-40ad-b80d-6ef60cecbd18","system_id":"levelo_inurba_marseille","lat":43.31273,"lon":5.40171,"is_reserved":false,"is_disabled":false,"rental_uris":{"android":"levelo://app?vid=b65d5423-83c5-40ad-b80d-6ef60cecbd18","ios":"levelo://app?vid=b65d5423-83c5-40ad-b80d-6ef60cecbd18"},"vehicle_type_id":"4","last_reported":1728688126,"current_range_meters":27200,"station_id":"ce4bh092rcd13ifvqd30","pricing_plan_id":"cebpf4jnsgd1na2vs0mg"},{"bike_id":"54ac4cc6-8406-4874-a04c-5f3584531f54","system_id":"levelo_inurba_marseille","lat":43.2815,"lon":5.42638,"is_reserved":false,"is_disabled":false,"rental_uris":{"android":"levelo://app?vid=54ac4cc6-8406-4874-a04c-5f3584531f54","ios":"levelo://app?vid=54ac4cc6-8406-4874-a04c-5f3584531f54"},"vehicle_type_id":"4","last_reported":1728688126,"current_range_meters":6000,"station_id":"ce4bhnh2rcd13ifvqgug","pricing_plan_id":"cebpf4jnsgd1na2vs0mg"},{"bike_id":"8c9a5779-48c6-4a49-b87c-4b9241d4f44b","system_id":"levelo_inurba_marseille","lat":43.337444,"lon":5.374475,"is_reserved":false,"is_disabled":false,"rental_uris":{"android":"levelo://app?vid=8c9a5779-48c6-4a49-b87c-4b9241d4f44b","ios":"levelo://app?vid=8c9a5779-48c6-4a49-b87c-4b9241d4f44b"},"vehicle_type_id":"4","last_reported":1728688126,"current_range_meters":9200,"station_id":"","pricing_plan_id":"cebpf4jnsgd1na2vs0mg"},{"bike_id":"1f220d5c-b79f-4c8d-b644-0fd0de7b432b","system_id":"levelo_inurba_marseille","lat":43.3091,"lon":5.36847,"is_reserved":false,"is_disabled":false,"rental_uris":{"android":"levelo://app?vid=1f220d5c-b79f-4c8d-b644-0fd0de7b432b","ios":"levelo://app?vid=1f220d5c-b79f-4c8d-b644-0fd0de7b432b"},"vehicle_type_id":"4","last_reported":1728688126,"current_range_meters":38000,"station_id":"ce4bgn92rcd13ifvqbvg","pricing_plan_id":"cebpf4jnsgd1na2vs0mg"},{"bike_id":"b5f1c919-7873-433f-a8d2-3d0eeb72b87f","system_id":"levelo_inurba_marseille","lat":43.31711,"lon":5.43709,"is_reserved":false,"is_disabled":false,"rental_uris":{"android":"levelo://app?vid=b5f1c919-7873-433f-a8d2-3d0eeb72b87f","ios":"levelo://app?vid=b5f1c919-7873-433f-a8d2-3d0eeb72b87f"},"vehicle_type_id":"4","last_reported":1728688126,"current_range_meters":28800,"station_id":"ce4bhp92rcd13ifvqhcg","pricing_plan_id":"cebpf4jnsgd1na2vs0mg"},{"bike_id":"f0aa32d8-4ddd-496a-9571-e8bae9de7c44","system_id":"levelo_inurba_marseille","lat":43.27148,"lon":5.38605,"is_reserved":false,"is_disabled":false,"rental_uris":{"android":"levelo://app?vid=f0aa32d8-4ddd-496a-9571-e8bae9de7c44","ios":"levelo://app?vid=f0aa32d8-4ddd-496a-9571-e8bae9de7c44"},"vehicle_type_id":"4","last_reported":1728688126,"current_range_meters":18000,"station_id":"","pricing_plan_id":"cebpf4jnsgd1na2vs0mg"},{"bike_id":"fe8bfe5f-6b56-4544-a987-9773c5b6594d","system_id":"levelo_inurba_marseille","lat":43.337444,"lon":5.374475,"is_reserved":false,"is_disabled":false,"rental_uris":{"android":"levelo://app?vid=fe8bfe5f-6b56-4544-a987-9773c5b6594d","ios":"levelo://app?vid=fe8bfe5f-6b56-4544-a987-9773c5b6594d"},"vehicle_type_id":"4","last_reported":1728688126,"current_range_meters":34000,"station_id":"","pricing_plan_id":"cebpf4jnsgd1na2vs0mg"},{"bike_id":"a7e223fe-d537-4e96-b47d-d36fb8fa18b4","system_id":"levelo_inurba_marseille","lat":43.29193,"lon":5.39329,"is_reserved":false,"is_disabled":false,"rental_uris":{"android":"levelo://app?vid=a7e223fe-d537-4e96-b47d-d36fb8fa18b4","ios":"levelo://app?vid=a7e223fe-d537-4e96-b47d-d36fb8fa18b4"},"vehicle_type_id":"4","last_reported":1728688126,"current_range_meters":19600,"station_id":"ce4bh192rcd13ifvqdd0","pricing_plan_id":"cebpf4jnsgd1na2vs0mg"},{"bike_id":"463262ef-0741-4812-8470-f2b6c96ce745","system_id":"levelo_inurba_marseille","lat":43.28104,"lon":5.37841,"is_reserved":false,"is_disabled":false,"rental_uris":{"android":"levelo://app?vid=463262ef-0741-4812-8470-f2b6c96ce745","ios":"levelo://app?vid=463262ef-0741-4812-8470-f2b6c96ce745"},"vehicle_type_id":"4","last_reported":1728688126,"current_range_meters":6400,"station_id":"ce4bha12rcd13ifvqee0","pricing_plan_id":"cebpf4jnsgd1na2vs0mg"},{"bike_id":"7f01b871-6eab-4448-ba9a-da0c8b1b336d","system_id":"levelo_inurba_marseille","lat":43.28353,"lon":5.38096,"is_reserved":false,"is_disabled":false,"rental_uris":{"android":"levelo://app?vid=7f01b871-6eab-4448-ba9a-da0c8b1b336d","ios":"levelo://app?vid=7f01b871-6eab-4448-ba9a-da0c8b1b336d"},"vehicle_type_id":"4","last_reported":1728688126,"current_range_meters":32800,"station_id":"ce4bh412rcd13ifvqdr0","pricing_plan_id":"cebpf4jnsgd1na2vs0mg"},{"bike_id":"8ab3d457-1235-47d3-936c-08dead5a7a6b","system_id":"levelo_inurba_marseille","lat":43.265503,"lon":5.372866,"is_reserved":false,"is_disabled":false,"rental_uris":{"android":"levelo://app?vid=8ab3d457-1235-47d3-936c-08dead5a7a6b","ios":"levelo://app?vid=8ab3d457-1235-47d3-936c-08dead5a7a6b"},"vehicle_type_id":"4","last_reported":1728688126,"current_range_meters":16400,"station_id":"","pricing_plan_id":"cebpf4jnsgd1na2vs0mg"},{"bike_id":"cdd26d21-81eb-4333-8d7f-3457b5a7caf2","system_id":"levelo_inurba_marseille","lat":43.33017,"lon":5.3904,"is_reserved":false,"is_disabled":false,"rental_uris":{"android":"levelo://app?vid=cdd26d21-81eb-4333-8d7f-3457b5a7caf2","ios":"levelo://app?vid=cdd26d21-81eb-4333-8d7f-3457b5a7caf2"},"vehicle_type_id":"4","last_reported":1728688126,"current_range_meters":39200,"station_id":"ce4bhr92rcd13ifvqhrg","pricing_plan_id":"cebpf4jnsgd1na2vs0mg"},{"bike_id":"c8fd8c08-7af9-44d6-b8fe-10f7c421f0f1","system_id":"levelo_inurba_marseille","lat":43.31281,"lon":5.40174,"is_reserved":false,"is_disabled":false,"rental_uris":{"android":"levelo://app?vid=c8fd8c08-7af9-44d6-b8fe-10f7c421f0f1","ios":"levelo://app?vid=c8fd8c08-7af9-44d6-b8fe-10f7c421f0f1"},"vehicle_type_id":"4","last_reported":1728688126,"current_range_meters":10800,"station_id":"ce4bh092rcd13ifvqd30","pricing_plan_id":"cebpf4jnsgd1na2vs0mg"},{"bike_id":"904f6451-caa3-488f-83ab-a0f59030a247","system_id":"levelo_inurba_marseille","lat":43.31079,"lon":5.42432,"is_reserved":false,"is_disabled":false,"rental_uris":{"android":"levelo://app?vid=904f6451-caa3-488f-83ab-a0f59030a247","ios":"levelo://app?vid=904f6451-caa3-488f-83ab-a0f59030a247"},"vehicle_type_id":"4","last_reported":1728688126,"current_range_meters":16000,"station_id":"ce4bhp92rcd13ifvqhag","pricing_plan_id":"cebpf4jnsgd1na2vs0mg"},{"bike_id":"b7ec7e13-e739-425e-a8c1-6e8f947a49e5","system_id":"levelo_inurba_marseille","lat":43.29184,"lon":5.35803,"is_reserved":false,"is_disabled":false,"rental_uris":{"android":"levelo://app?vid=b7ec7e13-e739-425e-a8c1-6e8f947a49e5","ios":"levelo://app?vid=b7ec7e13-e739-425e-a8c1-6e8f947a49e5"},"vehicle_type_id":"4","last_reported":1728688126,"current_range_meters":38000,"station_id":"ce4bhb12rcd13ifvqel0","pricing_plan_id":"cebpf4jnsgd1na2vs0mg"},{"bike_id":"1a063bd2-ca98-4091-a7be-19c8bc30d0b5","system_id":"levelo_inurba_marseille","lat":43.313575,"lon":5.384952,"is_reserved":false,"is_disabled":false,"rental_uris":{"android":"levelo://app?vid=1a063bd2-ca98-4091-a7be-19c8bc30d0b5","ios":"levelo://app?vid=1a063bd2-ca98-4091-a7be-19c8bc30d0b5"},"vehicle_type_id":"4","last_reported":1728688126,"current_range_meters":39200,"station_id":"ce4bgt92rcd13ifvqcf0","pricing_plan_id":"cebpf4jnsgd1na2vs0mg"},{"bike_id":"b59fea3b-50b9-4675-a2d7-f929277172ab","system_id":"levelo_inurba_marseille","lat":43.24665,"lon":5.38157,"is_reserved":false,"is_disabled":false,"rental_uris":{"android":"levelo://app?vid=b59fea3b-50b9-4675-a2d7-f929277172ab","ios":"levelo://app?vid=b59fea3b-50b9-4675-a2d7-f929277172ab"},"vehicle_type_id":"4","last_reported":1728688126,"current_range_meters":37600,"station_id":"ce4bhih2rcd13ifvqfr0","pricing_plan_id":"cebpf4jnsgd1na2vs0mg"},{"bike_id":"2f56efb1-549f-4acb-952f-8a7efdd07df5","system_id":"levelo_inurba_marseille","lat":43.2944,"lon":5.39739,"is_reserved":false,"is_disabled":false,"rental_uris":{"android":"levelo://app?vid=2f56efb1-549f-4acb-952f-8a7efdd07df5","ios":"levelo://app?vid=2f56efb1-549f-4acb-952f-8a7efdd07df5"},"vehicle_type_id":"4","last_reported":1728688126,"current_range_meters":18000,"station_id":"ce4bh3h2rcd13ifvqdo0","pricing_plan_id":"cebpf4jnsgd1na2vs0mg"},{"bike_id":"5ad37ccf-4015-4c1b-88dd-0d0b40230c5b","system_id":"levelo_inurba_marseille","lat":43.30415,"lon":5.41287,"is_reserved":false,"is_disabled":false,"rental_uris":{"android":"levelo://app?vid=5ad37ccf-4015-4c1b-88dd-0d0b40230c5b","ios":"levelo://app?vid=5ad37ccf-4015-4c1b-88dd-0d0b40230c5b"},"vehicle_type_id":"4","last_reported":1728688126,"current_range_meters":28400,"station_id":"ce4bhop2rcd13ifvqh8g","pricing_plan_id":"cebpf4jnsgd1na2vs0mg"},{"bike_id":"40c0aa1a-71cb-482c-abbb-3ddc65234ec2","system_id":"levelo_inurba_marseille","lat":43.32476,"lon":5.36553,"is_reserved":false,"is_disabled":false,"rental_uris":{"android":"levelo://app?vid=40c0aa1a-71cb-482c-abbb-3ddc65234ec2","ios":"levelo://app?vid=40c0aa1a-71cb-482c-abbb-3ddc65234ec2"},"vehicle_type_id":"4","last_reported":1728688126,"current_range_meters":9200,"station_id":"ce4bhs12rcd13ifvqhvg","pricing_plan_id":"cebpf4jnsgd1na2vs0mg"},{"bike_id":"3543abbc-0b58-4a9b-9514-e9be77c7106d","system_id":"levelo_inurba_marseille","lat":43.31543,"lon":5.38032,"is_reserved":false,"is_disabled":false,"rental_uris":{"android":"levelo://app?vid=3543abbc-0b58-4a9b-9514-e9be77c7106d","ios":"levelo://app?vid=3543abbc-0b58-4a9b-9514-e9be77c7106d"},"vehicle_type_id":"4","last_reported":1728688126,"current_range_meters":8400,"station_id":"ce4bhsp2rcd13ifvqi50","pricing_plan_id":"cebpf4jnsgd1na2vs0mg"},{"bike_id":"2023895c-7eca-4274-ae2a-3a8271ae0b84","system_id":"levelo_inurba_marseille","lat":43.31272,"lon":5.40166,"is_reserved":false,"is_disabled":false,"rental_uris":{"android":"levelo://app?vid=2023895c-7eca-4274-ae2a-3a8271ae0b84","ios":"levelo://app?vid=2023895c-7eca-4274-ae2a-3a8271ae0b84"},"vehicle_type_id":"4","last_reported":1728688126,"current_range_meters":39200,"station_id":"ce4bh092rcd13ifvqd30","pricing_plan_id":"cebpf4jnsgd1na2vs0mg"},{"bike_id":"400c2bff-d158-4c34-addc-fa4953b14e91","system_id":"levelo_inurba_marseille","lat":43.28104,"lon":5.37835,"is_reserved":false,"is_disabled":false,"rental_uris":{"android":"levelo://app?vid=400c2bff-d158-4c34-addc-fa4953b14e91","ios":"levelo://app?vid=400c2bff-d158-4c34-addc-fa4953b14e91"},"vehicle_type_id":"4","last_reported":1728688126,"current_range_meters":16800,"station_id":"ce4bha12rcd13ifvqee0","pricing_plan_id":"cebpf4jnsgd1na2vs0mg"},{"bike_id":"aa9ada03-1346-4a78-b44f-a32bff5937ae","system_id":"levelo_inurba_marseille","lat":43.24748,"lon":5.37431,"is_reserved":false,"is_disabled":false,"rental_uris":{"android":"levelo://app?vid=aa9ada03-1346-4a78-b44f-a32bff5937ae","ios":"levelo://app?vid=aa9ada03-1346-4a78-b44f-a32bff5937ae"},"vehicle_type_id":"4","last_reported":1728688126,"current_range_meters":14800,"station_id":"","pricing_plan_id":"cebpf4jnsgd1na2vs0mg"},{"bike_id":"d3e75cce-fa27-408c-ae2e-1ae81506d5be","system_id":"levelo_inurba_marseille","lat":43.31061,"lon":5.40106,"is_reserved":false,"is_disabled":false,"rental_uris":{"android":"levelo://app?vid=d3e75cce-fa27-408c-ae2e-1ae81506d5be","ios":"levelo://app?vid=d3e75cce-fa27-408c-ae2e-1ae81506d5be"},"vehicle_type_id":"4","last_reported":1728688126,"current_range_meters":38000,"station_id":"","pricing_plan_id":"cebpf4jnsgd1na2vs0mg"},{"bike_id":"3075a076-f20f-4cff-a628-94759c8306cb","system_id":"levelo_inurba_marseille","lat":43.28071,"lon":5.39641,"is_reserved":false,"is_disabled":false,"rental_uris":{"android":"levelo://app?vid=3075a076-f20f-4cff-a628-94759c8306cb","ios":"levelo://app?vid=3075a076-f20f-4cff-a628-94759c8306cb"},"vehicle_type_id":"4","last_reported":1728688126,"current_range_meters":29600,"station_id":"ce4bho12rcd13ifvqh2g","pricing_plan_id":"cebpf4jnsgd1na2vs0mg"},{"bike_id":"a46673cf-4928-49cb-8c44-9f668342015a","system_id":"levelo_inurba_marseille","lat":43.33021,"lon":5.39036,"is_reserved":false,"is_disabled":false,"rental_uris":{"android":"levelo://app?vid=a46673cf-4928-49cb-8c44-9f668342015a","ios":"levelo://app?vid=a46673cf-4928-49cb-8c44-9f668342015a"},"vehicle_type_id":"4","last_reported":1728688126,"current_range_meters":39200,"station_id":"ce4bhr92rcd13ifvqhrg","pricing_plan_id":"cebpf4jnsgd1na2vs0mg"},{"bike_id":"f7e2b475-215c-4422-967c-cd482c16c7de","system_id":"levelo_inurba_marseille","lat":43.30125,"lon":5.39874,"is_reserved":false,"is_disabled":false,"rental_uris":{"android":"levelo://app?vid=f7e2b475-215c-4422-967c-cd482c16c7de","ios":"levelo://app?vid=f7e2b475-215c-4422-967c-cd482c16c7de"},"vehicle_type_id":"4","last_reported":1728688126,"current_range_meters":38800,"station_id":"ce4bh0h2rcd13ifvqd40","pricing_plan_id":"cebpf4jnsgd1na2vs0mg"},{"bike_id":"04297339-b0e6-4e0c-ba57-2ecfb29a6f77","system_id":"levelo_inurba_marseille","lat":43.23178,"lon":5.4001,"is_reserved":false,"is_disabled":false,"rental_uris":{"android":"levelo://app?vid=04297339-b0e6-4e0c-ba57-2ecfb29a6f77","ios":"levelo://app?vid=04297339-b0e6-4e0c-ba57-2ecfb29a6f77"},"vehicle_type_id":"4","last_reported":1728688126,"current_range_meters":26800,"station_id":"ce4bhn12rcd13ifvqgqg","pricing_plan_id":"cebpf4jnsgd1na2vs0mg"},{"bike_id":"31031e71-4087-470b-8496-67314cdbff5a","system_id":"levelo_inurba_marseille","lat":43.317056,"lon":5.377539,"is_reserved":false,"is_disabled":false,"rental_uris":{"android":"levelo://app?vid=31031e71-4087-470b-8496-67314cdbff5a","ios":"levelo://app?vid=31031e71-4087-470b-8496-67314cdbff5a"},"vehicle_type_id":"4","last_reported":1728688126,"current_range_meters":38800,"station_id":"ce4bgth2rcd13ifvqch0","pricing_plan_id":"cebpf4jnsgd1na2vs0mg"},{"bike_id":"c8c77019-5208-437d-a8eb-0a8e4fcb851b","system_id":"levelo_inurba_marseille","lat":43.31486,"lon":5.37308,"is_reserved":false,"is_disabled":false,"rental_uris":{"android":"levelo://app?vid=c8c77019-5208-437d-a8eb-0a8e4fcb851b","ios":"levelo://app?vid=c8c77019-5208-437d-a8eb-0a8e4fcb851b"},"vehicle_type_id":"4","last_reported":1728688126,"current_range_meters":10000,"station_id":"ce4bgt12rcd13ifvqcd0","pricing_plan_id":"cebpf4jnsgd1na2vs0mg"},{"bike_id":"e30bb225-c9bd-464d-ad70-0d17d296b72f","system_id":"levelo_inurba_marseille","lat":43.2942,"lon":5.3861,"is_reserved":false,"is_disabled":false,"rental_uris":{"android":"levelo://app?vid=e30bb225-c9bd-464d-ad70-0d17d296b72f","ios":"levelo://app?vid=e30bb225-c9bd-464d-ad70-0d17d296b72f"},"vehicle_type_id":"4","last_reported":1728688126,"current_range_meters":16400,"station_id":"ce4bh2h2rcd13ifvqdh0","pricing_plan_id":"cebpf4jnsgd1na2vs0mg"},{"bike_id":"4466009b-142c-4f7d-ba3b-305d45752cea","system_id":"levelo_inurba_marseille","lat":43.28154,"lon":5.42646,"is_reserved":false,"is_disabled":false,"rental_uris":{"android":"levelo://app?vid=4466009b-142c-4f7d-ba3b-305d45752cea","ios":"levelo://app?vid=4466009b-142c-4f7d-ba3b-305d45752cea"},"vehicle_type_id":"4","last_reported":1728688126,"current_range_meters":28800,"station_id":"ce4bhnh2rcd13ifvqgug","pricing_plan_id":"cebpf4jnsgd1na2vs0mg"},{"bike_id":"d42c6fc9-9ac9-47c5-882e-b5984b7c9a4c","system_id":"levelo_inurba_marseille","lat":43.30936,"lon":5.4015,"is_reserved":false,"is_disabled":false,"rental_uris":{"android":"levelo://app?vid=d42c6fc9-9ac9-47c5-882e-b5984b7c9a4c","ios":"levelo://app?vid=d42c6fc9-9ac9-47c5-882e-b5984b7c9a4c"},"vehicle_type_id":"4","last_reported":1728688126,"current_range_meters":39200,"station_id":"ce4bgvp2rcd13ifvqct0","pricing_plan_id":"cebpf4jnsgd1na2vs0mg"},{"bike_id":"12421d9a-8f06-4fa9-9065-6c93c9222443","system_id":"levelo_inurba_marseille","lat":43.24069,"lon":5.37761,"is_reserved":false,"is_disabled":false,"rental_uris":{"android":"levelo://app?vid=12421d9a-8f06-4fa9-9065-6c93c9222443","ios":"levelo://app?vid=12421d9a-8f06-4fa9-9065-6c93c9222443"},"vehicle_type_id":"4","last_reported":1728688126,"current_range_meters":8400,"station_id":"ce4bhnp2rcd13ifvqgvg","pricing_plan_id":"cebpf4jnsgd1na2vs0mg"},{"bike_id":"02aa03fe-fd4c-44a4-b32a-e06d59ef5f2c","system_id":"levelo_inurba_marseille","lat":43.28264,"lon":5.35076,"is_reserved":false,"is_disabled":false,"rental_uris":{"android":"levelo://app?vid=02aa03fe-fd4c-44a4-b32a-e06d59ef5f2c","ios":"levelo://app?vid=02aa03fe-fd4c-44a4-b32a-e06d59ef5f2c"},"vehicle_type_id":"4","last_reported":1728688126,"current_range_meters":10800,"station_id":"ce4bhbp2rcd13ifvqerg","pricing_plan_id":"cebpf4jnsgd1na2vs0mg"},{"bike_id":"e30a3f6b-6f37-4772-adcc-0c9557a69478","system_id":"levelo_inurba_marseille","lat":43.33599,"lon":5.41021,"is_reserved":false,"is_disabled":false,"rental_uris":{"android":"levelo://app?vid=e30a3f6b-6f37-4772-adcc-0c9557a69478","ios":"levelo://app?vid=e30a3f6b-6f37-4772-adcc-0c9557a69478"},"vehicle_type_id":"4","last_reported":1728688126,"current_range_meters":12400,"station_id":"ce4bhqh2rcd13ifvqhmg","pricing_plan_id":"cebpf4jnsgd1na2vs0mg"},{"bike_id":"7518065d-80a9-4d25-b8a6-b4a2fc3b298e","system_id":"levelo_inurba_marseille","lat":43.31068,"lon":5.38352,"is_reserved":false,"is_disabled":false,"rental_uris":{"android":"levelo://app?vid=7518065d-80a9-4d25-b8a6-b4a2fc3b298e","ios":"levelo://app?vid=7518065d-80a9-4d25-b8a6-b4a2fc3b298e"},"vehicle_type_id":"4","last_reported":1728688126,"current_range_meters":18000,"station_id":"ce4bgv92rcd13ifvqcr0","pricing_plan_id":"cebpf4jnsgd1na2vs0mg"},{"bike_id":"ac001957-0c7d-45aa-acdc-953213739057","system_id":"levelo_inurba_marseille","lat":43.319061,"lon":5.408138,"is_reserved":false,"is_disabled":false,"rental_uris":{"android":"levelo://app?vid=ac001957-0c7d-45aa-acdc-953213739057","ios":"levelo://app?vid=ac001957-0c7d-45aa-acdc-953213739057"},"vehicle_type_id":"4","last_reported":1728688126,"current_range_meters":28000,"station_id":"ce4bhq12rcd13ifvqhig","pricing_plan_id":"cebpf4jnsgd1na2vs0mg"},{"bike_id":"4842f991-2d99-4ea8-a23b-a6e29bba7638","system_id":"levelo_inurba_marseille","lat":43.27372,"lon":5.36263,"is_reserved":false,"is_disabled":false,"rental_uris":{"android":"levelo://app?vid=4842f991-2d99-4ea8-a23b-a6e29bba7638","ios":"levelo://app?vid=4842f991-2d99-4ea8-a23b-a6e29bba7638"},"vehicle_type_id":"4","last_reported":1728688126,"current_range_meters":30000,"station_id":"ce4bhbh2rcd13ifvqeo0","pricing_plan_id":"cebpf4jnsgd1na2vs0mg"},{"bike_id":"c6d451c3-2cf5-4438-8e61-77cde3c837a8","system_id":"levelo_inurba_marseille","lat":43.29778,"lon":5.39337,"is_reserved":false,"is_disabled":false,"rental_uris":{"android":"levelo://app?vid=c6d451c3-2cf5-4438-8e61-77cde3c837a8","ios":"levelo://app?vid=c6d451c3-2cf5-4438-8e61-77cde3c837a8"},"vehicle_type_id":"4","last_reported":1728688126,"current_range_meters":39200,"station_id":"chh1huq6cuj3fo74tm60","pricing_plan_id":"cebpf4jnsgd1na2vs0mg"},{"bike_id":"72c0a8f8-76f7-40ed-9bf1-ff6488ec2e9f","system_id":"levelo_inurba_marseille","lat":43.31542,"lon":5.38025,"is_reserved":false,"is_disabled":false,"rental_uris":{"android":"levelo://app?vid=72c0a8f8-76f7-40ed-9bf1-ff6488ec2e9f","ios":"levelo://app?vid=72c0a8f8-76f7-40ed-9bf1-ff6488ec2e9f"},"vehicle_type_id":"4","last_reported":1728688126,"current_range_meters":36800,"station_id":"ce4bhsp2rcd13ifvqi50","pricing_plan_id":"cebpf4jnsgd1na2vs0mg"},{"bike_id":"57a8a4e4-fb43-474f-af8c-fa1abb87ecef","system_id":"levelo_inurba_marseille","lat":43.33022,"lon":5.39039,"is_reserved":false,"is_disabled":false,"rental_uris":{"android":"levelo://app?vid=57a8a4e4-fb43-474f-af8c-fa1abb87ecef","ios":"levelo://app?vid=57a8a4e4-fb43-474f-af8c-fa1abb87ecef"},"vehicle_type_id":"4","last_reported":1728688126,"current_range_meters":37600,"station_id":"ce4bhr92rcd13ifvqhrg","pricing_plan_id":"cebpf4jnsgd1na2vs0mg"},{"bike_id":"df0f8ce5-e716-43dd-8e18-79cb8dbf2fde","system_id":"levelo_inurba_marseille","lat":43.31987,"lon":5.38144,"is_reserved":false,"is_disabled":false,"rental_uris":{"android":"levelo://app?vid=df0f8ce5-e716-43dd-8e18-79cb8dbf2fde","ios":"levelo://app?vid=df0f8ce5-e716-43dd-8e18-79cb8dbf2fde"},"vehicle_type_id":"4","last_reported":1728688126,"current_range_meters":38000,"station_id":"ce4bhr12rcd13ifvqhpg","pricing_plan_id":"cebpf4jnsgd1na2vs0mg"},{"bike_id":"dc37f136-6963-42af-9f30-963ea0a58970","system_id":"levelo_inurba_marseille","lat":43.29037,"lon":5.35923,"is_reserved":false,"is_disabled":false,"rental_uris":{"android":"levelo://app?vid=dc37f136-6963-42af-9f30-963ea0a58970","ios":"levelo://app?vid=dc37f136-6963-42af-9f30-963ea0a58970"},"vehicle_type_id":"4","last_reported":1728688126,"current_range_meters":25200,"station_id":"ce4bha92rcd13ifvqeg0","pricing_plan_id":"cebpf4jnsgd1na2vs0mg"},{"bike_id":"7d923f0b-0a62-49e6-96d9-dd96de70f1a9","system_id":"levelo_inurba_marseille","lat":43.30887,"lon":5.38052,"is_reserved":false,"is_disabled":false,"rental_uris":{"android":"levelo://app?vid=7d923f0b-0a62-49e6-96d9-dd96de70f1a9","ios":"levelo://app?vid=7d923f0b-0a62-49e6-96d9-dd96de70f1a9"},"vehicle_type_id":"4","last_reported":1728688126,"current_range_meters":7200,"station_id":"ce4bgt12rcd13ifvqce0","pricing_plan_id":"cebpf4jnsgd1na2vs0mg"},{"bike_id":"135cd036-89da-43ee-9637-ca2cbb7ec68f","system_id":"levelo_inurba_marseille","lat":43.29551,"lon":5.42293,"is_reserved":false,"is_disabled":false,"rental_uris":{"android":"levelo://app?vid=135cd036-89da-43ee-9637-ca2cbb7ec68f","ios":"levelo://app?vid=135cd036-89da-43ee-9637-ca2cbb7ec68f"},"vehicle_type_id":"4","last_reported":1728688126,"current_range_meters":8400,"station_id":"ce4bhph2rcd13ifvqhdg","pricing_plan_id":"cebpf4jnsgd1na2vs0mg"},{"bike_id":"c4bb9e5c-20d3-4351-95e6-aac5702d681e","system_id":"levelo_inurba_marseille","lat":43.315354,"lon":5.380366,"is_reserved":false,"is_disabled":false,"rental_uris":{"android":"levelo://app?vid=c4bb9e5c-20d3-4351-95e6-aac5702d681e","ios":"levelo://app?vid=c4bb9e5c-20d3-4351-95e6-aac5702d681e"},"vehicle_type_id":"4","last_reported":1728688126,"current_range_meters":38400,"station_id":"ce4bhsp2rcd13ifvqi50","pricing_plan_id":"cebpf4jnsgd1na2vs0mg"},{"bike_id":"0ad58474-645b-4173-a8cd-4877df53a908","system_id":"levelo_inurba_marseille","lat":43.31324,"lon":5.39687,"is_reserved":false,"is_disabled":false,"rental_uris":{"android":"levelo://app?vid=0ad58474-645b-4173-a8cd-4877df53a908","ios":"levelo://app?vid=0ad58474-645b-4173-a8cd-4877df53a908"},"vehicle_type_id":"4","last_reported":1728688126,"current_range_meters":4000,"station_id":"ce4bgvp2rcd13ifvqcu0","pricing_plan_id":"cebpf4jnsgd1na2vs0mg"},{"bike_id":"64404112-da1c-4a64-b29b-c099d125227d","system_id":"levelo_inurba_marseille","lat":43.313687,"lon":5.38495,"is_reserved":false,"is_disabled":false,"rental_uris":{"android":"levelo://app?vid=64404112-da1c-4a64-b29b-c099d125227d","ios":"levelo://app?vid=64404112-da1c-4a64-b29b-c099d125227d"},"vehicle_type_id":"4","last_reported":1728688126,"current_range_meters":18000,"station_id":"ce4bgt92rcd13ifvqcf0","pricing_plan_id":"cebpf4jnsgd1na2vs0mg"},{"bike_id":"7988bc6a-8e0c-49ed-b3a3-e305d07a23b2","system_id":"levelo_inurba_marseille","lat":43.2658,"lon":5.39001,"is_reserved":false,"is_disabled":false,"rental_uris":{"android":"levelo://app?vid=7988bc6a-8e0c-49ed-b3a3-e305d07a23b2","ios":"levelo://app?vid=7988bc6a-8e0c-49ed-b3a3-e305d07a23b2"},"vehicle_type_id":"4","last_reported":1728688126,"current_range_meters":20800,"station_id":"ce4bhe12rcd13ifvqf30","pricing_plan_id":"cebpf4jnsgd1na2vs0mg"},{"bike_id":"a90ff1bb-b7f8-4690-af3f-22455766aefa","system_id":"levelo_inurba_marseille","lat":43.29527,"lon":5.38549,"is_reserved":false,"is_disabled":false,"rental_uris":{"android":"levelo://app?vid=a90ff1bb-b7f8-4690-af3f-22455766aefa","ios":"levelo://app?vid=a90ff1bb-b7f8-4690-af3f-22455766aefa"},"vehicle_type_id":"4","last_reported":1728688126,"current_range_meters":3600,"station_id":"ce4bgih2rcd13ifvqba0","pricing_plan_id":"cebpf4jnsgd1na2vs0mg"},{"bike_id":"600a6ea5-5c70-4f25-9b57-c621b8210681","system_id":"levelo_inurba_marseille","lat":43.32658,"lon":5.40986,"is_reserved":false,"is_disabled":false,"rental_uris":{"android":"levelo://app?vid=600a6ea5-5c70-4f25-9b57-c621b8210681","ios":"levelo://app?vid=600a6ea5-5c70-4f25-9b57-c621b8210681"},"vehicle_type_id":"4","last_reported":1728688126,"current_range_meters":36400,"station_id":"ce4bhpp2rcd13ifvqhgg","pricing_plan_id":"cebpf4jnsgd1na2vs0mg"},{"bike_id":"8e5f9b6c-cf2e-4517-87b5-9ecf83711555","system_id":"levelo_inurba_marseille","lat":43.2782,"lon":5.39211,"is_reserved":false,"is_disabled":false,"rental_uris":{"android":"levelo://app?vid=8e5f9b6c-cf2e-4517-87b5-9ecf83711555","ios":"levelo://app?vid=8e5f9b6c-cf2e-4517-87b5-9ecf83711555"},"vehicle_type_id":"4","last_reported":1728688126,"current_range_meters":28000,"station_id":"ce4bhjp2rcd13ifvqga0","pricing_plan_id":"cebpf4jnsgd1na2vs0mg"},