{"last_updated":1750080429,"ttl":60,"version":"2.2","data":{"bikes":[{"bike_id":"3da29fb8-fc97-44c6-b9ac-31dd456b2fd4","system_id":"levelo_inurba_marseille","lat":43.33771,"lon":5.37424,"is_reserved":false,"is_disabled":true,"rental_uris":{"android":"levelo://app?vid=3da29fb8-fc97-44c6-b9ac-31dd456b2fd4","ios":"levelo://app?vid=3da29fb8-fc97-44c6-b9ac-31dd456b2fd4"},"vehicle_type_id":"4","last_reported":1750080429,"current_range_meters":0,"station_id":"","pricing_plan_id":"cebpf4jnsgd1na2vs0mg"},{"bike_id":"01861ad8-a8d7-4be6-816e-651927c87584","system_id":"levelo_inurba_marseille","lat":43.33751,"lon":5.37456,"is_reserved":false,"is_disabled":true,"rental_uris":{"android":"levelo://app?vid=01861ad8-a8d7-4be6-816e-651927c87584","ios":"levelo://app?vid=01861ad8-a8d7-4be6-816e-651927c87584"},"vehicle_type_id":"4","last_reported":1750080429,"current_range_meters":0,"station_id":"","pricing_plan_id":"cebpf4jnsgd1na2vs0mg"},{"bike_id":"d2bd57c8-6b64-48db-ad24-5398eb3fd9d6","system_id":"levelo_inurba_marseille","lat":43.337444,"lon":5.374475,"is_reserved":false,"is_disabled":true,"rental_uris":{"android":"levelo://app?vid=d2bd57c8-6b64-48db-ad24-5398eb3fd9d6","ios":"levelo://app?vid=d2bd57c8-6b64-48db-ad24-5398eb3fd9d6"},"vehicle_type_id":"4","last_reported":1750080429,"current_range_meters":0,"station_id":"","pricing_plan_id":"cebpf4jnsgd1na2vs0mg"},{"bike_id":"31efc9ba-0c74-4af5-9228-1de18fc992e3","system_id":"levelo_inurba_marseille","lat":43.30013,"lon":5.37004,"is_reserved":false,"is_disabled":true,"rental_uris":{"android":"levelo://app?vid=31efc9ba-0c74-4af5-9228-1de18fc992e3","ios":"levelo://app?vid=31efc9ba-0c74-4af5-9228-1de18fc992e3"},"vehicle_type_id":"4","last_reported":1750080429,"current_range_meters":0,"station_id":"","pricing_plan_id":"cebpf4jnsgd1na2vs0mg"},{"bike_id":"62a493c7-4534-4419-ad43-0582de34a72a","system_id":"levelo_inurba_marseille","lat":43.21362,"lon":5.35522,"is_reserved":false,"is_disabled":true,"rental_uris":{"android":"levelo://app?vid=62a493c7-4534-4419-ad43-0582de34a72a","ios":"levelo://app?vid=62a493c7-4534-4419-ad43-0582de34a72a"},"vehicle_type_id":"4","last_reported":1750080429,"current_range_meters":0,"station_id":"","pricing_plan_id":"cebpf4jnsgd1na2vs0mg"},{"bike_id":"117f24b3-d6ce-455f-99fd-f28a795c0458","system_id":"levelo_inurba_marseille","lat":43.27979,"lon":5.38482,"is_reserved":false,"is_disabled":true,"rental_uris":{"android":"levelo://app?vid=117f24b3-d6ce-455f-99fd-f28a795c0458","ios":"levelo://app?vid=117f24b3-d6ce-455f-99fd-f28a795c0458"},"vehicle_type_id":"4","last_reported":1750080429,"current_range_meters":0,"station_id":"","pricing_plan_id":"cebpf4jnsgd1na2vs0mg"},{"bike_id":"946f5633-31c1-46bf-ab81-23560e476e56","system_id":"levelo_inurba_marseille","lat":43.26052,"lon":5.38735,"is_reserved":false,"is_disabled":true,"rental_uris":{"android":"levelo://app?vid=946f5633-31c1-46bf-ab81-23560e476e56","ios":"levelo://app?vid=946f5633-31c1-46bf-ab81-23560e476e56"},"vehicle_type_id":"4","last_reported":1750080429,"current_range_meters":0,"station_id":"","pricing_plan_id":"cebpf4jnsgd1na2vs0mg"},{"bike_id":"caca20da-18e0-443e-a3dc-04ab1bbad8db","system_id":"levelo_inurba_marseille","lat":43.27124,"lon":5.363949,"is_reserved":false,"is_disabled":true,"rental_uris":{"android":"levelo://app?vid=caca20da-18e0-443e-a3dc-04ab1bbad8db","ios":"levelo://app?vid=caca20da-18e0-443e-a3dc-04ab1bbad8db"},"vehicle_type_id":"4","last_reported":1750080429,"current_range_meters":0,"station_id":"","pricing_plan_id":"cebpf4jnsgd1na2vs0mg"},{"bike_id":"93af304b-67b5-47b8-a3fd-e0775f7cde8c","system_id":"levelo_inurba_marseille","lat":43.2151,"lon":5.3471,"is_reserved":false,"is_disabled":true,"rental_uris":{"android":"levelo://app?vid=93af304b-67b5-47b8-a3fd-e0775f7cde8c","ios":"levelo://app?vid=93af304b-67b5-47b8-a3fd-e0775f7cde8c"},"vehicle_type_id":"4","last_reported":1750080429,"current_range_meters":0,"station_id":"","pricing_plan_id":"cebpf4jnsgd1na2vs0mg"},{"bike_id":"d6609b4f-333b-43c1-9ebe-8726f5e76e88","system_id":"levelo_inurba_marseille","lat":43.337444,"lon":5.374475,"is_reserved":false,"is_disabled":true,"rental_uris":{"android":"levelo://app?vid=d6609b4f-333b-43c1-9ebe-8726f5e76e88","ios":"levelo://app?vid=d6609b4f-333b-43c1-9ebe-8726f5e76e88"},"vehicle_type_id":"4","last_reported":1750080429,"current_range_meters":0,"station_id":"","pricing_plan_id":"cebpf4jnsgd1na2vs0mg"},{"bike_id":"a354a693-87cc-4bf2-b99d-b0ea81e88075","system_id":"levelo_inurba_marseille","lat":43.261539,"lon":5.388241,"is_reserved":false,"is_disabled":true,"rental_uris":{"android":"levelo://app?vid=a354a693-87cc-4bf2-b99d-b0ea81e88075","ios":"levelo://app?vid=a354a693-87cc-4bf2-b99d-b0ea81e88075"},"vehicle_type_id":"4","last_reported":1750080429,"current_range_meters":0,"station_id":"","pricing_plan_id":"cebpf4jnsgd1na2vs0mg"},{"bike_id":"90ca3147-ed25-4da2-9603-2478b49dbb18","system_id":"levelo_inurba_marseille","lat":43.30882,"lon":5.39652,"is_reserved":false,"is_disabled":true,"rental_uris":{"android":"levelo://app?vid=90ca3147-ed25-4da2-9603-2478b49dbb18","ios":"levelo://app?vid=90ca3147-ed25-4da2-9603-2478b49dbb18"},"vehicle_type_id":"4","last_reported":1750080429,"current_range_meters":0,"station_id":"ce4bh012rcd13ifvqcv0","pricing_plan_id":"cebpf4jnsgd1na2vs0mg"},{"bike_id":"133e81f6-7754-46dc-82cb-612d8d1f8d35","system_id":"levelo_inurba_marseille","lat":43.28655,"lon":5.3635,"is_reserved":false,"is_disabled":true,"rental_uris":{"android":"levelo://app?vid=133e81f6-7754-46dc-82cb-612d8d1f8d35","ios":"levelo://app?vid=133e81f6-7754-46dc-82cb-612d8d1f8d35"},"vehicle_type_id":"4","last_reported":1750080429,"current_range_meters":0,"station_id":"ce4bhah2rcd13ifvqej0","pricing_plan_id":"cebpf4jnsgd1na2vs0mg"},{"bike_id":"5de79fb1-0dc1-4adb-8e96-acf65acecb76","system_id":"levelo_inurba_marseille","lat":43.28999,"lon":5.35608,"is_reserved":false,"is_disabled":true,"rental_uris":{"android":"levelo://app?vid=5de79fb1-0dc1-4adb-8e96-acf65acecb76","ios":"levelo://app?vid=5de79fb1-0dc1-4adb-8e96-acf65acecb76"},"vehicle_type_id":"4","last_reported":1750080429,"current_range_meters":0,"station_id":"ce4bhb92rcd13ifvqen0","pricing_plan_id":"cebpf4jnsgd1na2vs0mg"},{"bike_id":"ce7ffca0-480c-4b06-9629-ac05a695a291","system_id":"levelo_inurba_marseille","lat":43.28421,"lon":5.3499,"is_reserved":false,"is_disabled":true,"rental_uris":{"android":"levelo://app?vid=ce7ffca0-480c-4b06-9629-ac05a695a291","ios":"levelo://app?vid=ce7ffca0-480c-4b06-9629-ac05a695a291"},"vehicle_type_id":"4","last_reported":1750080429,"current_range_meters":0,"station_id":"ce4bhbh2rcd13ifvqepg","pricing_plan_id":"cebpf4jnsgd1na2vs0mg"},{"bike_id":"f6dc8aaa-849c-4aea-bd57-4fa51ad92986","system_id":"levelo_inurba_marseille","lat":43.24815,"lon":5.3746,"is_reserved":false,"is_disabled":true,"rental_uris":{"android":"levelo://app?vid=f6dc8aaa-849c-4aea-bd57-4fa51ad92986","ios":"levelo://app?vid=f6dc8aaa-849c-4aea-bd57-4fa51ad92986"},"vehicle_type_id":"4","last_reported":1750080429,"current_range_meters":0,"station_id":"ce4bhgh2rcd13ifvqfb0","pricing_plan_id":"cebpf4jnsgd1na2vs0mg"},{"bike_id":"eae7287a-e130-4e15-923c-5131f9752f54","system_id":"levelo_inurba_marseille","lat":43.25497,"lon":5.37639,"is_reserved":false,"is_disabled":true,"rental_uris":{"android":"levelo://app?vid=eae7287a-e130-4e15-923c-5131f9752f54","ios":"levelo://app?vid=eae7287a-e130-4e15-923c-5131f9752f54"},"vehicle_type_id":"4","last_reported":1750080429,"current_range_meters":0,"station_id":"ce4bhh12rcd13ifvqff0","pricing_plan_id":"cebpf4jnsgd1na2vs0mg"},{"bike_id":"a9a82a51-ec5a-4e99-866a-998c5aaff547","system_id":"levelo_inurba_marseille","lat":43.26505,"lon":5.39532,"is_reserved":false,"is_disabled":true,"rental_uris":{"android":"levelo://app?vid=a9a82a51-ec5a-4e99-866a-998c5aaff547","ios":"levelo://app?vid=a9a82a51-ec5a-4e99-866a-998c5aaff547"},"vehicle_type_id":"4","last_reported":1750080429,"current_range_meters":0,"station_id":"ce4bhi12rcd13ifvqfq0","pricing_plan_id":"cebpf4jnsgd1na2vs0mg"},{"bike_id":"b7824ee6-b870-4f99-9662-47394f8af809","system_id":"levelo_inurba_marseille","lat":43.23147,"lon":5.43728,"is_reserved":false,"is_disabled":true,"rental_uris":{"android":"levelo://app?vid=b7824ee6-b870-4f99-9662-47394f8af809","ios":"levelo://app?vid=b7824ee6-b870-4f99-9662-47394f8af809"},"vehicle_type_id":"4","last_reported":1750080429,"current_range_meters":0,"station_id":"ce4bhmp2rcd13ifvqgog","pricing_plan_id":"cebpf4jnsgd1na2vs0mg"},{"bike_id":"cfed63dc-a842-45da-91be-7bce07eb7ff7","system_id":"levelo_inurba_marseille","lat":43.23151,"lon":5.437,"is_reserved":false,"is_disabled":true,"rental_uris":{"android":"levelo://app?vid=cfed63dc-a842-45da-91be-7bce07eb7ff7","ios":"levelo://app?vid=cfed63dc-a842-45da-91be-7bce07eb7ff7"},"vehicle_type_id":"4","last_reported":1750080429,"current_range_meters":0,"station_id":"ce4bhmp2rcd13ifvqgog","pricing_plan_id":"cebpf4jnsgd1na2vs0mg"},{"bike_id":"ba1c2eaa-f5de-4bc7-9a22-7284a7d6827a","system_id":"levelo_inurba_marseille","lat":43.23154,"lon":5.4371,"is_reserved":false,"is_disabled":true,"rental_uris":{"android":"levelo://app?vid=ba1c2eaa-f5de-4bc7-9a22-7284a7d6827a","ios":"levelo://app?vid=ba1c2eaa-f5de-4bc7-9a22-7284a7d6827a"},"vehicle_type_id":"4","last_reported":1750080429,"current_range_meters":0,"station_id":"ce4bhmp2rcd13ifvqgog","pricing_plan_id":"cebpf4jnsgd1na2vs0mg"},{"bike_id":"165fde51-7a4d-4b23-92f6-5b0c8a6bc057","system_id":"levelo_inurba_marseille","lat":43.2318,"lon":5.3557,"is_reserved":false,"is_disabled":true,"rental_uris":{"android":"levelo://app?vid=165fde51-7a4d-4b23-92f6-5b0c8a6bc057","ios":"levelo://app?vid=165fde51-7a4d-4b23-92f6-5b0c8a6bc057"},"vehicle_type_id":"4","last_reported":1750080429,"current_range_meters":0,"station_id":"ce4bhu92rcd13ifvqi70","pricing_plan_id":"cebpf4jnsgd1na2vs0mg"},{"bike_id":"713787d9-eb0f-4bb5-8c27-01bb32e634c8","system_id":"levelo_inurba_marseille","lat":43.2978,"lon":5.3934,"is_reserved":false,"is_disabled":true,"rental_uris":{"android":"levelo://app?vid=713787d9-eb0f-4bb5-8c27-01bb32e634c8","ios":"levelo://app?vid=713787d9-eb0f-4bb5-8c27-01bb32e634c8"},"vehicle_type_id":"4","last_reported":1750080429,"current_range_meters":0,"station_id":"chh1huq6cuj3fo74tm60","pricing_plan_id":"cebpf4jnsgd1na2vs0mg"},{"bike_id":"c62a3532-5b9b-4775-9c30-3af76a7d3009","system_id":"levelo_inurba_marseille","lat":43.27251,"lon":5.36259,"is_reserved":false,"is_disabled":true,"rental_uris":{"android":"levelo://app?vid=c62a3532-5b9b-4775-9c30-3af76a7d3009","ios":"levelo://app?vid=c62a3532-5b9b-4775-9c30-3af76a7d3009"},"vehicle_type_id":"4","last_reported":1750080429,"current_range_meters":400,"station_id":"","pricing_plan_id":"cebpf4jnsgd1na2vs0mg"},{"bike_id":"2decfe78-4e9c-4ff2-bfb1-b9a97d867597","system_id":"levelo_inurba_marseille","lat":43.28935,"lon":5.36632,"is_reserved":false,"is_disabled":true,"rental_uris":{"android":"levelo://app?vid=2decfe78-4e9c-4ff2-bfb1-b9a97d867597","ios":"levelo://app?vid=2decfe78-4e9c-4ff2-bfb1-b9a97d867597"},"vehicle_type_id":"4","last_reported":1750080429,"current_range_meters":400,"station_id":"ce4bhap2rcd13ifvqek0","pricing_plan_id":"cebpf4jnsgd1na2vs0mg"},{"bike_id":"5355fb41-25aa-4acc-b0c4-5c1441183e0e","system_id":"levelo_inurba_marseille","lat":43.2668,"lon":5.38266,"is_reserved":false,"is_disabled":true,"rental_uris":{"android":"levelo://app?vid=5355fb41-25aa-4acc-b0c4-5c1441183e0e","ios":"levelo://app?vid=5355fb41-25aa-4acc-b0c4-5c1441183e0e"},"vehicle_type_id":"4","last_reported":1750080429,"current_range_meters":400,"station_id":"ce4bhg92rcd13ifvqf90","pricing_plan_id":"cebpf4jnsgd1na2vs0mg"},{"bike_id":"25fdf3b6-7f5f-4a5a-824d-41c329760aa4","system_id":"levelo_inurba_marseille","lat":43.26481,"lon":5.39549,"is_reserved":false,"is_disabled":true,"rental_uris":{"android":"levelo://app?vid=25fdf3b6-7f5f-4a5a-824d-41c329760aa4","ios":"levelo://app?vid=25fdf3b6-7f5f-4a5a-824d-41c329760aa4"},"vehicle_type_id":"4","last_reported":1750080429,"current_range_meters":400,"station_id":"ce4bhi12rcd13ifvqfq0","pricing_plan_id":"cebpf4jnsgd1na2vs0mg"},{"bike_id":"db0f206c-38df-429b-aaea-3a453f5c0d42","system_id":"levelo_inurba_marseille","lat":43.29279,"lon":5.40123,"is_reserved":false,"is_disabled":true,"rental_uris":{"android":"levelo://app?vid=db0f206c-38df-429b-aaea-3a453f5c0d42","ios":"levelo://app?vid=db0f206c-38df-429b-aaea-3a453f5c0d42"},"vehicle_type_id":"4","last_reported":1750080429,"current_range_meters":800,"station_id":"ce4bh312rcd13ifvqdk0","pricing_plan_id":"cebpf4jnsgd1na2vs0mg"},{"bike_id":"28c3f56b-d629-4758-ab87-a7a89e9e2ff2","system_id":"levelo_inurba_marseille","lat":43.30417,"lon":5.3975,"is_reserved":false,"is_disabled":true,"rental_uris":{"android":"levelo://app?vid=28c3f56b-d629-4758-ab87-a7a89e9e2ff2","ios":"levelo://app?vid=28c3f56b-d629-4758-ab87-a7a89e9e2ff2"},"vehicle_type_id":"4","last_reported":1750080429,"current_range_meters":1200,"station_id":"ce4bh092rcd13ifvqd20","pricing_plan_id":"cebpf4jnsgd1na2vs0mg"},{"bike_id":"90c6a337-b404-4645-8112-b1fe98ce36d9","system_id":"levelo_inurba_marseille","lat":43.292283,"lon":5.360624,"is_reserved":false,"is_disabled":true,"rental_uris":{"android":"levelo://app?vid=90c6a337-b404-4645-8112-b1fe98ce36d9","ios":"levelo://app?vid=90c6a337-b404-4645-8112-b1fe98ce36d9"},"vehicle_type_id":"4","last_reported":1750080429,"current_range_meters":1200,"station_id":"ce4bhbh2rcd13ifvqeqg","pricing_plan_id":"cebpf4jnsgd1na2vs0mg"},{"bike_id":"2eb08ac7-2e62-4aae-bb93-6c33ca44ff48","system_id":"levelo_inurba_marseille","lat":43.33599,"lon":5.41032,"is_reserved":false,"is_disabled":true,"rental_uris":{"android":"levelo://app?vid=2eb08ac7-2e62-4aae-bb93-6c33ca44ff48","ios":"levelo://app?vid=2eb08ac7-2e62-4aae-bb93-6c33ca44ff48"},"vehicle_type_id":"4","last_reported":1750080429,"current_range_meters":1200,"station_id":"ce4bhqh2rcd13ifvqhmg","pricing_plan_id":"cebpf4jnsgd1na2vs0mg"},{"bike_id":"f9292606-50eb-4f85-b091-030572f4d150","system_id":"levelo_inurba_marseille","lat":43.29235,"lon":5.36877,"is_reserved":false,"is_disabled":true,"rental_uris":{"android":"levelo://app?vid=f9292606-50eb-4f85-b091-030572f4d150","ios":"levelo://app?vid=f9292606-50eb-4f85-b091-030572f4d150"},"vehicle_type_id":"4","last_reported":1750080429,"current_range_meters":2000,"station_id":"","pricing_plan_id":"cebpf4jnsgd1na2vs0mg"},{"bike_id":"75c11227-464d-4060-9e5b-a9146b5c4a1b","system_id":"levelo_inurba_marseille","lat":43.302801,"lon":5.377077,"is_reserved":false,"is_disabled":true,"rental_uris":{"android":"levelo://app?vid=75c11227-464d-4060-9e5b-a9146b5c4a1b","ios":"levelo://app?vid=75c11227-464d-4060-9e5b-a9146b5c4a1b"},"vehicle_type_id":"4","last_reported":1750080429,"current_range_meters":2000,"station_id":"ce4bguh2rcd13ifvqcj0","pricing_plan_id":"cebpf4jnsgd1na2vs0mg"},{"bike_id":"2c157289-c05c-404b-b5ea-a80c5226c94a","system_id":"levelo_inurba_marseille","lat":43.27554,"lon":5.38413,"is_reserved":false,"is_disabled":false,"rental_uris":{"android":"levelo://app?vid=2c157289-c05c-404b-b5ea-a80c5226c94a","ios":"levelo://app?vid=2c157289-c05c-404b-b5ea-a80c5226c94a"},"vehicle_type_id":"4","last_reported":1750080429,"current_range_meters":2000,"station_id":"ce4bhh92rcd13ifvqfi0","pricing_plan_id":"cebpf4jnsgd1na2vs0mg"},{"bike_id":"0c033a04-65e2-4b75-b352-e763f3879ba2","system_id":"levelo_inurba_marseille","lat":43.2903,"lon":5.39944,"is_reserved":false,"is_disabled":false,"rental_uris":{"android":"levelo://app?vid=0c033a04-65e2-4b75-b352-e763f3879ba2","ios":"levelo://app?vid=0c033a04-65e2-4b75-b352-e763f3879ba2"},"vehicle_type_id":"4","last_reported":1750080429,"current_range_meters":2800,"station_id":"ce4bh392rcd13ifvqdm0","pricing_plan_id":"cebpf4jnsgd1na2vs0mg"},{"bike_id":"4c6a512c-4581-4827-abe5-7240f508e1bb","system_id":"levelo_inurba_marseille","lat":43.31332,"lon":5.39693,"is_reserved":false,"is_disabled":false,"rental_uris":{"android":"levelo://app?vid=4c6a512c-4581-4827-abe5-7240f508e1bb","ios":"levelo://app?vid=4c6a512c-4581-4827-abe5-7240f508e1bb"},"vehicle_type_id":"4","last_reported":1750080429,"current_range_meters":3200,"station_id":"ce4bgvp2rcd13ifvqcu0","pricing_plan_id":"cebpf4jnsgd1na2vs0mg"},{"bike_id":"e905d6f2-f2b0-487a-9709-ccfdac9baee4","system_id":"levelo_inurba_marseille","lat":43.30834,"lon":5.3705,"is_reserved":false,"is_disabled":false,"rental_uris":{"android":"levelo://app?vid=e905d6f2-f2b0-487a-9709-ccfdac9baee4","ios":"levelo://app?vid=e905d6f2-f2b0-487a-9709-ccfdac9baee4"},"vehicle_type_id":"4","last_reported":1750080429,"current_range_meters":3600,"station_id":"","pricing_plan_id":"cebpf4jnsgd1na2vs0mg"},{"bike_id":"4279f66c-fb0d-4444-bb99-802c70b9e69f","system_id":"levelo_inurba_marseille","lat":43.29511,"lon":5.37513,"is_reserved":false,"is_disabled":false,"rental_uris":{"android":"levelo://app?vid=4279f66c-fb0d-4444-bb99-802c70b9e69f","ios":"levelo://app?vid=4279f66c-fb0d-4444-bb99-802c70b9e69f"},"vehicle_type_id":"4","last_reported":1750080429,"current_range_meters":3600,"station_id":"ce4bgkp2rcd13ifvqbmg","pricing_plan_id":"cebpf4jnsgd1na2vs0mg"},{"bike_id":"1df70cbf-e001-4a39-b7c8-e42bc5cb5988","system_id":"levelo_inurba_marseille","lat":43.28622,"lon":5.35107,"is_reserved":false,"is_disabled":false,"rental_uris":{"android":"levelo://app?vid=1df70cbf-e001-4a39-b7c8-e42bc5cb5988","ios":"levelo://app?vid=1df70cbf-e001-4a39-b7c8-e42bc5cb5988"},"vehicle_type_id":"4","last_reported":1750080429,"current_range_meters":3600,"station_id":"ce4bhch2rcd13ifvqeug","pricing_plan_id":"cebpf4jnsgd1na2vs0mg"},{"bike_id":"61a8f1ea-a9fa-4637-8274-ff42a2b76149","system_id":"levelo_inurba_marseille","lat":43.23154,"lon":5.43713,"is_reserved":false,"is_disabled":false,"rental_uris":{"android":"levelo://app?vid=61a8f1ea-a9fa-4637-8274-ff42a2b76149","ios":"levelo://app?vid=61a8f1ea-a9fa-4637-8274-ff42a2b76149"},"vehicle_type_id":"4","last_reported":1750080429,"current_range_meters":3600,"station_id":"ce4bhmp2rcd13ifvqgog","pricing_plan_id":"cebpf4jnsgd1na2vs0mg"},{"bike_id":"cbfb4586-8460-4b4b-b682-17f011d5235f","system_id":"levelo_inurba_marseille","lat":43.3086,"lon":5.37042,"is_reserved":false,"is_disabled":false,"rental_uris":{"android":"levelo://app?vid=cbfb4586-8460-4b4b-b682-17f011d5235f","ios":"levelo://app?vid=cbfb4586-8460-4b4b-b682-17f011d5235f"},"vehicle_type_id":"4","last_reported":1750080429,"current_range_meters":4000,"station_id":"","pricing_plan_id":"cebpf4jnsgd1na2vs0mg"},{"bike_id":"1827d622-e20d-4be6-99ac-0d1e0724dbb6","system_id":"levelo_inurba_marseille","lat":43.337444,"lon":5.374475,"is_reserved":false,"is_disabled":false,"rental_uris":{"android":"levelo://app?vid=1827d622-e20d-4be6-99ac-0d1e0724dbb6","ios":"levelo://app?vid=1827d622-e20d-4be6-99ac-0d1e0724dbb6"},"vehicle_type_id":"4","last_reported":1750080429,"current_range_meters":4000,"station_id":"","pricing_plan_id":"cebpf4jnsgd1na2vs0mg"},{"bike_id":"927ed34e-0991-488f-be9d-3282cbecca58","system_id":"levelo_inurba_marseille","lat":43.28271,"lon":5.35085,"is_reserved":false,"is_disabled":false,"rental_uris":{"android":"levelo://app?vid=927ed34e-0991-488f-be9d-3282cbecca58","ios":"levelo://app?vid=927ed34e-0991-488f-be9d-3282cbecca58"},"vehicle_type_id":"4","last_reported":1750080429,"current_range_meters":4000,"station_id":"ce4bhbp2rcd13ifvqerg","pricing_plan_id":"cebpf4jnsgd1na2vs0mg"},{"bike_id":"5c5ce329-f331-4dd3-a050-e971631ee442","system_id":"levelo_inurba_marseille","lat":43.30543,"lon":5.36563,"is_reserved":false,"is_disabled":false,"rental_uris":{"android":"levelo://app?vid=5c5ce329-f331-4dd3-a050-e971631ee442","ios":"levelo://app?vid=5c5ce329-f331-4dd3-a050-e971631ee442"},"vehicle_type_id":"4","last_reported":1750080429,"current_range_meters":4400,"station_id":"ce4bgs12rcd13ifvqcag","pricing_plan_id":"cebpf4jnsgd1na2vs0mg"},{"bike_id":"b45b0212-2e64-4e7d-8c95-8b7263d4e6d1","system_id":"levelo_inurba_marseille","lat":43.30799,"lon":5.38158,"is_reserved":false,"is_disabled":false,"rental_uris":{"android":"levelo://app?vid=b45b0212-2e64-4e7d-8c95-8b7263d4e6d1","ios":"levelo://app?vid=b45b0212-2e64-4e7d-8c95-8b7263d4e6d1"},"vehicle_type_id":"4","last_reported":1750080429,"current_range_meters":4400,"station_id":"ce4bgt12rcd13ifvqce0","pricing_plan_id":"cebpf4jnsgd1na2vs0mg"},{"bike_id":"705569e0-6faf-4034-9de2-3d79edaed004","system_id":"levelo_inurba_marseille","lat":43.27378,"lon":5.36256,"is_reserved":false,"is_disabled":false,"rental_uris":{"android":"levelo://app?vid=705569e0-6faf-4034-9de2-3d79edaed004","ios":"levelo://app?vid=705569e0-6faf-4034-9de2-3d79edaed004"},"vehicle_type_id":"4","last_reported":1750080429,"current_range_meters":4400,"station_id":"ce4bhbh2rcd13ifvqeo0","pricing_plan_id":"cebpf4jnsgd1na2vs0mg"},{"bike_id":"97efce8c-7ed4-460c-8322-6c22cefb3a5d","system_id":"levelo_inurba_marseille","lat":43.28263,"lon":5.35062,"is_reserved":false,"is_disabled":false,"rental_uris":{"android":"levelo://app?vid=97efce8c-7ed4-460c-8322-6c22cefb3a5d","ios":"levelo://app?vid=97efce8c-7ed4-460c-8322-6c22cefb3a5d"},"vehicle_type_id":"4","last_reported":1750080429,"current_range_meters":4400,"station_id":"ce4bhbp2rcd13ifvqerg","pricing_plan_id":"cebpf4jnsgd1na2vs0mg"},{"bike_id":"8b14c98e-0d12-45c2-814e-b770675c723b","system_id":"levelo_inurba_marseille","lat":43.23151,"lon":5.43708,"is_reserved":false,"is_disabled":false,"rental_uris":{"android":"levelo://app?vid=8b14c98e-0d12-45c2-814e-b770675c723b","ios":"levelo://app?vid=8b14c98e-0d12-45c2-814e-b770675c723b"},"vehicle_type_id":"4","last_reported":1750080429,"current_range_meters":4800,"station_id":"ce4bhmp2rcd13ifvqgog","pricing_plan_id":"cebpf4jnsgd1na2vs0mg"},{"bike_id":"b35b4ebd-d8ec-46d6-aee1-0b2640a62bae","system_id":"levelo_inurba_marseille","lat":43.23184,"lon":5.39985,"is_reserved":false,"is_disabled":false,"rental_uris":{"android":"levelo://app?vid=b35b4ebd-d8ec-46d6-aee1-0b2640a62bae","ios":"levelo://app?vid=b35b4ebd-d8ec-46d6-aee1-0b2640a62bae"},"vehicle_type_id":"4","last_reported":1750080429,"current_range_meters":4800,"station_id":"ce4bhn12rcd13ifvqgqg","pricing_plan_id":"cebpf4jnsgd1na2vs0mg"},{"bike_id":"48d2a524-0042-4caf-9073-47523029f547","system_id":"levelo_inurba_marseille","lat":43.3042,"lon":5.4128,"is_reserved":false,"is_disabled":false,"rental_uris":{"android":"levelo://app?vid=48d2a524-0042-4caf-9073-47523029f547","ios":"levelo://app?vid=48d2a524-0042-4caf-9073-47523029f547"},"vehicle_type_id":"4","last_reported":1750080429,"current_range_meters":5600,"station_id":"ce4bhop2rcd13ifvqh8g","pricing_plan_id":"cebpf4jnsgd1na2vs0mg"},{"bike_id":"87e5d40c-0215-431f-9660-81de08cb8d31","system_id":"levelo_inurba_marseille","lat":43.30946,"lon":5.39049,"is_reserved":false,"is_disabled":false,"rental_uris":{"android":"levelo://app?vid=87e5d40c-0215-431f-9660-81de08cb8d31","ios":"levelo://app?vid=87e5d40c-0215-431f-9660-81de08cb8d31"},"vehicle_type_id":"4","last_reported":1750080429,"current_range_meters":6000,"station_id":"ce4bgup2rcd13ifvqco0","pricing_plan_id":"cebpf4jnsgd1na2vs0mg"},{"bike_id":"ffe26af0-b598-463f-a499-d46d5ba5002f","system_id":"levelo_inurba_marseille","lat":43.31072,"lon":5.38358,"is_reserved":false,"is_disabled":false,"rental_uris":{"android":"levelo://app?vid=ffe26af0-b598-463f-a499-d46d5ba5002f","ios":"levelo://app?vid=ffe26af0-b598-463f-a499-d46d5ba5002f"},"vehicle_type_id":"4","last_reported":1750080429,"current_range_meters":6000,"station_id":"ce4bgv92rcd13ifvqcr0","pricing_plan_id":"cebpf4jnsgd1na2vs0mg"},{"bike_id":"e7c42df1-0013-43ca-b58c-9a158c792469","system_id":"levelo_inurba_marseille","lat":43.280029,"lon":5.351983,"is_reserved":false,"is_disabled":false,"rental_uris":{"android":"levelo://app?vid=e7c42df1-0013-43ca-b58c-9a158c792469","ios":"levelo://app?vid=e7c42df1-0013-43ca-b58c-9a158c792469"},"vehicle_type_id":"4","last_reported":1750080429,"current_range_meters":6000,"station_id":"ce4bh692rcd13ifvqea0","pricing_plan_id":"cebpf4jnsgd1na2vs0mg"},{"bike_id":"dbfce7a3-3423-4296-b193-a177dea644ac","system_id":"levelo_inurba_marseille","lat":43.27262,"lon":5.41628,"is_reserved":false,"is_disabled":false,"rental_uris":{"android":"levelo://app?vid=dbfce7a3-3423-4296-b193-a177dea644ac","ios":"levelo://app?vid=dbfce7a3-3423-4296-b193-a177dea644ac"},"vehicle_type_id":"4","last_reported":1750080429,"current_range_meters":6400,"station_id":"","pricing_plan_id":"cebpf4jnsgd1na2vs0mg"},{"bike_id":"7fee34aa-52e3-4096-a771-8f6063bd1772","system_id":"levelo_inurba_marseille","lat":43.305437,"lon":5.365387,"is_reserved":false,"is_disabled":false,"rental_uris":{"android":"levelo://app?vid=7fee34aa-52e3-4096-a771-8f6063bd1772","ios":"levelo://app?vid=7fee34aa-52e3-4096-a771-8f6063bd1772"},"vehicle_type_id":"4","last_reported":1750080429,"current_range_meters":6400,"station_id":"ce4bgs12rcd13ifvqcag","pricing_plan_id":"cebpf4jnsgd1na2vs0mg"},{"bike_id":"e43f67ed-f3bd-4220-ad34-63b73515f30f","system_id":"levelo_inurba_marseille","lat":43.23189,"lon":5.35552,"is_reserved":false,"is_disabled":false,"rental_uris":{"android":"levelo://app?vid=e43f67ed-f3bd-4220-ad34-63b73515f30f","ios":"levelo://app?vid=e43f67ed-f3bd-4220-ad34-63b73515f30f"},"vehicle_type_id":"4","last_reported":1750080429,"current_range_meters":6400,"station_id":"ce4bhu92rcd13ifvqi70","pricing_plan_id":"cebpf4jnsgd1na2vs0mg"},{"bike_id":"f16a5698-ddc2-4e59-97f5-5526424b5a60","system_id":"levelo_inurba_marseille","lat":43.21189,"lon":5.35075,"is_reserved":false,"is_disabled":false,"rental_uris":{"android":"levelo://app?vid=f16a5698-ddc2-4e59-97f5-5526424b5a60","ios":"levelo://app?vid=f16a5698-ddc2-4e59-97f5-5526424b5a60"},"vehicle_type_id":"4","last_reported":1750080429,"current_range_meters":6400,"station_id":"st_cvj6sg6p6f1abm77japg","pricing_plan_id":"cebpf4jnsgd1na2vs0mg"},{"bike_id":"7bbc7918-5607-4eb5-8c31-a17b7c5ff130","system_id":"levelo_inurba_marseille","lat":43.31173,"lon":5.38718,"is_reserved":false,"is_disabled":false,"rental_uris":{"android":"levelo://app?vid=7bbc7918-5607-4eb5-8c31-a17b7c5ff130","ios":"levelo://app?vid=7bbc7918-5607-4eb5-8c31-a17b7c5ff130"},"vehicle_type_id":"4","last_reported":1750080429,"current_range_meters":6800,"station_id":"ce4bgv12rcd13ifvqcp0","pricing_plan_id":"cebpf4jnsgd1na2vs0mg"},{"bike_id":"d1e63fa1-9b8e-4776-be50-790726c58dc5","system_id":"levelo_inurba_marseille","lat":43.292666,"lon":5.384357,"is_reserved":false,"is_disabled":false,"rental_uris":{"android":"levelo://app?vid=d1e63fa1-9b8e-4776-be50-790726c58dc5","ios":"levelo://app?vid=d1e63fa1-9b8e-4776-be50-790726c58dc5"},"vehicle_type_id":"4","last_reported":1750080429,"current_range_meters":6800,"station_id":"ce4bh692rcd13ifvqea0","pricing_plan_id":"cebpf4jnsgd1na2vs0mg"},{"bike_id":"02309486-cccd-406c-ab75-b3999395ebb2","system_id":"levelo_inurba_marseille","lat":43.23202,"lon":5.39998,"is_reserved":false,"is_disabled":false,"rental_uris":{"android":"levelo://app?vid=02309486-cccd-406c-ab75-b3999395ebb2","ios":"levelo://app?vid=02309486-cccd-406c-ab75-b3999395ebb2"},"vehicle_type_id":"4","last_reported":1750080429,"current_range_meters":6800,"station_id":"ce4bhn12rcd13ifvqgqg","pricing_plan_id":"cebpf4jnsgd1na2vs0mg"},{"bike_id":"dbfca594-3761-41f6-991a-e43e1017d609","system_id":"levelo_inurba_marseille","lat":43.241018,"lon":5.368241,"is_reserved":false,"is_disabled":false,"rental_uris":{"android":"levelo://app?vid=dbfca594-3761-41f6-991a-e43e1017d609","ios":"levelo://app?vid=dbfca594-3761-41f6-991a-e43e1017d609"},"vehicle_type_id":"4","last_reported":1750080429,"current_range_meters":7200,"station_id":"","pricing_plan_id":"cebpf4jnsgd1na2vs0mg"},{"bike_id":"b20a41df-61b4-45db-9979-aa122ff20da3","system_id":"levelo_inurba_marseille","lat":43.29275,"lon":5.40123,"is_reserved":false,"is_disabled":false,"rental_uris":{"android":"levelo://app?vid=b20a41df-61b4-45db-9979-aa122ff20da3","ios":"levelo://app?vid=b20a41df-61b4-45db-9979-aa122ff20da3"},"vehicle_type_id":"4","last_reported":1750080429,"current_range_meters":7200,"station_id":"ce4bh312rcd13ifvqdk0","pricing_plan_id":"cebpf4jnsgd1na2vs0mg"},{"bike_id":"3e94c06c-944e-421a-ae4f-cd190081da28","system_id":"levelo_inurba_marseille","lat":43.284119,"lon":5.349781,"is_reserved":false,"is_disabled":false,"rental_uris":{"android":"levelo://app?vid=3e94c06c-944e-421a-ae4f-cd190081da28","ios":"levelo://app?vid=3e94c06c-944e-421a-ae4f-cd190081da28"},"vehicle_type_id":"4","last_reported":1750080429,"current_range_meters":8000,"station_id":"ce4bhbh2rcd13ifvqepg","pricing_plan_id":"cebpf4jnsgd1na2vs0mg"},{"bike_id":"4bd3e9e0-a973-4c06-969d-3bc51696dc27","system_id":"levelo_inurba_marseille","lat":43.32339,"lon":5.36719,"is_reserved":false,"is_disabled":false,"rental_uris":{"android":"levelo://app?vid=4bd3e9e0-a973-4c06-969d-3bc51696dc27","ios":"levelo://app?vid=4bd3e9e0-a973-4c06-969d-3bc51696dc27"},"vehicle_type_id":"4","last_reported":1750080429,"current_range_meters":8000,"station_id":"ce4bhsh2rcd13ifvqi2g","pricing_plan_id":"cebpf4jnsgd1na2vs0mg"},{"bike_id":"12f3380e-ed27-4d38-9fc0-6167ece46198","system_id":"levelo_inurba_marseille","lat":43.29276,"lon":5.40152,"is_reserved":false,"is_disabled":false,"rental_uris":{"android":"levelo://app?vid=12f3380e-ed27-4d38-9fc0-6167ece46198","ios":"levelo://app?vid=12f3380e-ed27-4d38-9fc0-6167ece46198"},"vehicle_type_id":"4","last_reported":1750080429,"current_range_meters":8400,"station_id":"","pricing_plan_id":"cebpf4jnsgd1na2vs0mg"},{"bike_id":"dd22377a-a6bf-464f-a818-92e630cfed55","system_id":"levelo_inurba_marseille","lat":43.30548,"lon":5.38445,"is_reserved":false,"is_disabled":false,"rental_uris":{"android":"levelo://app?vid=dd22377a-a6bf-464f-a818-92e630cfed55","ios":"levelo://app?vid=dd22377a-a6bf-464f-a818-92e630cfed55"},"vehicle_type_id":"4","last_reported":1750080429,"current_range_meters":8400,"station_id":"ce4bgg92rcd13ifvqb30","pricing_plan_id":"cebpf4jnsgd1na2vs0mg"},{"bike_id":"09d174f9-1405-420a-b5e7-c6fe3885cc7e","system_id":"levelo_inurba_marseille","lat":43.30133,"lon":5.38775,"is_reserved":false,"is_disabled":false,"rental_uris":{"android":"levelo://app?vid=09d174f9-1405-420a-b5e7-c6fe3885cc7e","ios":"levelo://app?vid=09d174f9-1405-420a-b5e7-c6fe3885cc7e"},"vehicle_type_id":"4","last_reported":1750080429,"current_range_meters":8400,"station_id":"ce4bghh2rcd13ifvqb60","pricing_plan_id":"cebpf4jnsgd1na2vs0mg"},{"bike_id":"d915d17c-2c6c-4e82-ba13-5c67c529360c","system_id":"levelo_inurba_marseille","lat":43.29368,"lon":5.37837,"is_reserved":false,"is_disabled":false,"rental_uris":{"android":"levelo://app?vid=d915d17c-2c6c-4e82-ba13-5c67c529360c","ios":"levelo://app?vid=d915d17c-2c6c-4e82-ba13-5c67c529360c"},"vehicle_type_id":"4","last_reported":1750080429,"current_range_meters":8400,"station_id":"ce4bgjh2rcd13ifvqbf0","pricing_plan_id":"cebpf4jnsgd1na2vs0mg"},{"bike_id":"59ebea85-86d7-44cf-8e27-1c208a2ff220","system_id":"levelo_inurba_marseille","lat":43.32102,"lon":5.3678,"is_reserved":false,"is_disabled":false,"rental_uris":{"android":"levelo://app?vid=59ebea85-86d7-44cf-8e27-1c208a2ff220","ios":"levelo://app?vid=59ebea85-86d7-44cf-8e27-1c208a2ff220"},"vehicle_type_id":"4","last_reported":1750080429,"current_range_meters":8400,"station_id":"ce4bhrh2rcd13ifvqhug","pricing_plan_id":"cebpf4jnsgd1na2vs0mg"},{"bike_id":"130c44f0-0181-4499-a0c8-b294fffcfc83","system_id":"levelo_inurba_marseille","lat":43.22929,"lon":5.35381,"is_reserved":false,"is_disabled":false,"rental_uris":{"android":"levelo://app?vid=130c44f0-0181-4499-a0c8-b294fffcfc83","ios":"levelo://app?vid=130c44f0-0181-4499-a0c8-b294fffcfc83"},"vehicle_type_id":"4","last_reported":1750080429,"current_range_meters":8400,"station_id":"cpo3532slgdg3j2ikp40","pricing_plan_id":"cebpf4jnsgd1na2vs0mg"},{"bike_id":"178abcea-a4e3-4969-b29c-7d16d7874f97","system_id":"levelo_inurba_marseille","lat":43.30546,"lon":5.365499,"is_reserved":false,"is_disabled":false,"rental_uris":{"android":"levelo://app?vid=178abcea-a4e3-4969-b29c-7d16d7874f97","ios":"levelo://app?vid=178abcea-a4e3-4969-b29c-7d16d7874f97"},"vehicle_type_id":"4","last_reported":1750080429,"current_range_meters":8800,"station_id":"ce4bgs12rcd13ifvqcag","pricing_plan_id":"cebpf4jnsgd1na2vs0mg"},{"bike_id":"66fcc1c4-3a97-43dc-a5be-2e3877c0d389","system_id":"levelo_inurba_marseille","lat":43.279986,"lon":5.400121,"is_reserved":false,"is_disabled":false,"rental_uris":{"android":"levelo://app?vid=66fcc1c4-3a97-43dc-a5be-2e3877c0d389","ios":"levelo://app?vid=66fcc1c4-3a97-43dc-a5be-2e3877c0d389"},"vehicle_type_id":"4","last_reported":1750080429,"current_range_meters":8800,"station_id":"ce4bho92rcd13ifvqh4g","pricing_plan_id":"cebpf4jnsgd1na2vs0mg"},{"bike_id":"79eeb666-d8d8-469a-94d3-68222c812a1d","system_id":"levelo_inurba_marseille","lat":43.3178,"lon":5.37463,"is_reserved":false,"is_disabled":false,"rental_uris":{"android":"levelo://app?vid=79eeb666-d8d8-469a-94d3-68222c812a1d","ios":"levelo://app?vid=79eeb666-d8d8-469a-94d3-68222c812a1d"},"vehicle_type_id":"4","last_reported":1750080429,"current_range_meters":9200,"station_id":"","pricing_plan_id":"cebpf4jnsgd1na2vs0mg"},{"bike_id":"65d1df58-dfc3-4540-8845-1af262cc7c79","system_id":"levelo_inurba_marseille","lat":43.29251,"lon":5.36829,"is_reserved":false,"is_disabled":false,"rental_uris":{"android":"levelo://app?vid=65d1df58-dfc3-4540-8845-1af262cc7c79","ios":"levelo://app?vid=65d1df58-dfc3-4540-8845-1af262cc7c79"},"vehicle_type_id":"4","last_reported":1750080429,"current_range_meters":9200,"station_id":"ce4bhbp2rcd13ifvqesg","pricing_plan_id":"cebpf4jnsgd1na2vs0mg"},{"bike_id":"02a35223-0b09-4704-8e44-579d07e6035a","system_id":"levelo_inurba_marseille","lat":43.23959,"lon":5.36646,"is_reserved":false,"is_disabled":false,"rental_uris":{"android":"levelo://app?vid=02a35223-0b09-4704-8e44-579d07e6035a","ios":"levelo://app?vid=02a35223-0b09-4704-8e44-579d07e6035a"},"vehicle_type_id":"4","last_reported":1750080429,"current_range_meters":9200,"station_id":"ce4bhi12rcd13ifvqfp0","pricing_plan_id":"cebpf4jnsgd1na2vs0mg"},{"bike_id":"4525c8fc-c649-4305-87ba-fe0c5fadbe83","system_id":"levelo_inurba_marseille","lat":43.23958,"lon":5.36645,"is_reserved":false,"is_disabled":false,"rental_uris":{"android":"levelo://app?vid=4525c8fc-c649-4305-87ba-fe0c5fadbe83","ios":"levelo://app?vid=4525c8fc-c649-4305-87ba-fe0c5fadbe83"},"vehicle_type_id":"4","last_reported":1750080429,"current_range_meters":9200,"station_id":"ce4bhi12rcd13ifvqfp0","pricing_plan_id":"cebpf4jnsgd1na2vs0mg"},{"bike_id":"10d8703f-8168-48d3-b44c-9eaaf686e239","system_id":"levelo_inurba_marseille","lat":43.305682,"lon":5.37174,"is_reserved":false,"is_disabled":false,"rental_uris":{"android":"levelo://app?vid=10d8703f-8168-48d3-b44c-9eaaf686e239","ios":"levelo://app?vid=10d8703f-8168-48d3-b44c-9eaaf686e239"},"vehicle_type_id":"4","last_reported":1750080429,"current_range_meters":9600,"station_id":"","pricing_plan_id":"cebpf4jnsgd1na2vs0mg"},{"bike_id":"96f28763-58d8-41d3-90ae-00e2aae7e5cc","system_id":"levelo_inurba_marseille","lat":43.29686,"lon":5.38,"is_reserved":false,"is_disabled":false,"rental_uris":{"android":"levelo://app?vid=96f28763-58d8-41d3-90ae-00e2aae7e5cc","ios":"levelo://app?vid=96f28763-58d8-41d3-90ae-00e2aae7e5cc"},"vehicle_type_id":"4","last_reported":1750080429,"current_range_meters":9600,"station_id":"","pricing_plan_id":"cebpf4jnsgd1na2vs0mg"},{"bike_id":"3aeb45b5-551d-4b93-a965-3f7f5fd1c89e","system_id":"levelo_inurba_marseille","lat":43.293915,"lon":5.373726,"is_reserved":false,"is_disabled":false,"rental_uris":{"android":"levelo://app?vid=3aeb45b5-551d-4b93-a965-3f7f5fd1c89e","ios":"levelo://app?vid=3aeb45b5-551d-4b93-a965-3f7f5fd1c89e"},"vehicle_type_id":"4","last_reported":1750080429,"current_range_meters":9600,"station_id":"ce4bgh92rcd13ifvqb50","pricing_plan_id":"cebpf4jnsgd1na2vs0mg"},{"bike_id":"dd064b72-729e-4f4d-9a4c-6decd26bc526","system_id":"levelo_inurba_marseille","lat":43.28412,"lon":5.34997,"is_reserved":false,"is_disabled":false,"rental_uris":{"android":"levelo://app?vid=dd064b72-729e-4f4d-9a4c-6decd26bc526","ios":"levelo://app?vid=dd064b72-729e-4f4d-9a4c-6decd26bc526"},"vehicle_type_id":"4","last_reported":1750080429,"current_range_meters":9600,"station_id":"ce4bhbh2rcd13ifvqepg","pricing_plan_id":"cebpf4jnsgd1na2vs0mg"},{"bike_id":"5af08327-39d7-4ef6-9cf2-a3d00633d3f8","system_id":"levelo_inurba_marseille","lat":43.24785,"lon":5.37488,"is_reserved":false,"is_disabled":false,"rental_uris":{"android":"levelo://app?vid=5af08327-39d7-4ef6-9cf2-a3d00633d3f8","ios":"levelo://app?vid=5af08327-39d7-4ef6-9cf2-a3d00633d3f8"},"vehicle_type_id":"4","last_reported":1750080429,"current_range_meters":9600,"station_id":"ce4bhgh2rcd13ifvqfb0","pricing_plan_id":"cebpf4jnsgd1na2vs0mg"},{"bike_id":"71a51adc-b8da-443c-83f9-670b85610e44","system_id":"levelo_inurba_marseille","lat":43.23962,"lon":5.3664,"is_reserved":false,"is_disabled":false,"rental_uris":{"android":"levelo://app?vid=71a51adc-b8da-443c-83f9-670b85610e44","ios":"levelo://app?vid=71a51adc-b8da-443c-83f9-670b85610e44"},"vehicle_type_id":"4","last_reported":1750080429,"current_range_meters":9600,"station_id":"ce4bhi12rcd13ifvqfp0","pricing_plan_id":"cebpf4jnsgd1na2vs0mg"},{"bike_id":"a337d380-02b9-44ae-b548-d5d0f8820b97","system_id":"levelo_inurba_marseille","lat":43.32461,"lon":5.36588,"is_reserved":false,"is_disabled":false,"rental_uris":{"android":"levelo://app?vid=a337d380-02b9-44ae-b548-d5d0f8820b97","ios":"levelo://app?vid=a337d380-02b9-44ae-b548-d5d0f8820b97"},"vehicle_type_id":"4","last_reported":1750080429,"current_range_meters":9600,"station_id":"ce4bhs12rcd13ifvqhvg","pricing_plan_id":"cebpf4jnsgd1na2vs0mg"},{"bike_id":"058989ef-7f7b-4865-a6d7-0783324b0cd3","system_id":"levelo_inurba_marseille","lat":43.23208,"lon":5.35532,"is_reserved":false,"is_disabled":false,"rental_uris":{"android":"levelo://app?vid=058989ef-7f7b-4865-a6d7-0783324b0cd3","ios":"levelo://app?vid=058989ef-7f7b-4865-a6d7-0783324b0cd3"},"vehicle_type_id":"4","last_reported":1750080429,"current_range_meters":9600,"station_id":"ce4bhu92rcd13ifvqi70","pricing_plan_id":"cebpf4jnsgd1na2vs0mg"},{"bike_id":"a4b2c8cb-9c61-4c32-9ede-8a56720b5f6a","system_id":"levelo_inurba_marseille","lat":43.21759,"lon":5.34602,"is_reserved":false,"is_disabled":false,"rental_uris":{"android":"levelo://app?vid=a4b2c8cb-9c61-4c32-9ede-8a56720b5f6a","ios":"levelo://app?vid=a4b2c8cb-9c61-4c32-9ede-8a56720b5f6a"},"vehicle_type_id":"4","last_reported":1750080429,"current_range_meters":9600,"station_id":"st_cvj6r9ubvosntc0bgbag","pricing_plan_id":"cebpf4jnsgd1na2vs0mg"},{"bike_id":"6a928840-95ce-4cd4-9d12-3642916c54ed","system_id":"levelo_inurba_marseille","lat":43.31502,"lon":5.37337,"is_reserved":false,"is_disabled":false,"rental_uris":{"android":"levelo://app?vid=6a928840-95ce-4cd4-9d12-3642916c54ed","ios":"levelo://app?vid=6a928840-95ce-4cd4-9d12-3642916c54ed"},"vehicle_type_id":"4","last_reported":1750080429,"current_range_meters":10000,"station_id":"ce4bgt12rcd13ifvqcd0","pricing_plan_id":"cebpf4jnsgd1na2vs0mg"},{"bike_id":"b4688cff-0531-4985-b27d-8f998147c542","system_id":"levelo_inurba_marseille","lat":43.30884,"lon":5.39662,"is_reserved":false,"is_disabled":false,"rental_uris":{"android":"levelo://app?vid=b4688cff-0531-4985-b27d-8f998147c542","ios":"levelo://app?vid=b4688cff-0531-4985-b27d-8f998147c542"},"vehicle_type_id":"4","last_reported":1750080429,"current_range_meters":10000,"station_id":"ce4bh012rcd13ifvqcv0","pricing_plan_id":"cebpf4jnsgd1na2vs0mg"},{"bike_id":"9cd93c98-7855-4abe-bdba-b1156a06e3eb","system_id":"levelo_inurba_marseille","lat":43.29008,"lon":5.35614,"is_reserved":false,"is_disabled":false,"rental_uris":{"android":"levelo://app?vid=9cd93c98-7855-4abe-bdba-b1156a06e3eb","ios":"levelo://app?vid=9cd93c98-7855-4abe-bdba-b1156a06e3eb"},"vehicle_type_id":"4","last_reported":1750080429,"current_range_meters":10000,"station_id":"ce4bhb92rcd13ifvqen0","pricing_plan_id":"cebpf4jnsgd1na2vs0mg"},{"bike_id":"6df01832-9bc3-4321-8e8a-b68f337bda9c","system_id":"levelo_inurba_marseille","lat":43.24386,"lon":5.37056,"is_reserved":false,"is_disabled":false,"rental_uris":{"android":"levelo://app?vid=6df01832-9bc3-4321-8e8a-b68f337bda9c","ios":"levelo://app?vid=6df01832-9bc3-4321-8e8a-b68f337bda9c"},"vehicle_type_id":"4","last_reported":1750080429,"current_range_meters":10000,"station_id":"ce4bhhh2rcd13ifvqfk0","pricing_plan_id":"cebpf4jnsgd1na2vs0mg"},{"bike_id":"a3e0cb5b-07b7-489e-8ca9-903686b4dc1a","system_id":"levelo_inurba_marseille","lat":43.32341,"lon":5.36724,"is_reserved":false,"is_disabled":false,"rental_uris":{"android":"levelo://app?vid=a3e0cb5b-07b7-489e-8ca9-903686b4dc1a","ios":"levelo://app?vid=a3e0cb5b-07b7-489e-8ca9-903686b4dc1a"},"vehicle_type_id":"4","last_reported":1750080429,"current_range_meters":10000,"station_id":"ce4bhsh2rcd13ifvqi2g","pricing_plan_id":"cebpf4jnsgd1na2vs0mg"},{"bike_id":"87a73488-390c-4e28-a3b3-5d6b7a9184c3","system_id":"levelo_inurba_marseille","lat":43.337444,"lon":5.374475,"is_reserved":false,"is_disabled":false,"rental_uris":{"android":"levelo://app?vid=87a73488-390c-4e28-a3b3-5d6b7a9184c3","ios":"levelo://app?vid=87a73488-390c-4e28-a3b3-5d6b7a9184c3"},"vehicle_type_id":"4","last_reported":1750080429,"current_range_meters":10800,"station_id":"","pricing_plan_id":"cebpf4jnsgd1na2vs0mg"},{"bike_id":"d69bc089-f59e-460f-8f04-5e31bfb69ea6","system_id":"levelo_inurba_marseille","lat":43.24405,"lon":5.37166,"is_reserved":false,"is_disabled":false,"rental_uris":{"android":"levelo://app?vid=d69bc089-f59e-460f-8f04-5e31bfb69ea6","ios":"levelo://app?vid=d69bc089-f59e-460f-8f04-5e31bfb69ea6"},"vehicle_type_id":"4","last_reported":1750080429,"current_range_meters":10800,"station_id":"","pricing_plan_id":"cebpf4jnsgd1na2vs0mg"},{"bike_id":"a15ceba0-dacb-4c93-9211-8709d4dec4a5","system_id":"levelo_inurba_marseille","lat":43.30951,"lon":5.39063,"is_reserved":false,"is_disabled":false,"rental_uris":{"android":"levelo://app?vid=a15ceba0-dacb-4c93-9211-8709d4dec4a5","ios":"levelo://app?vid=a15ceba0-dacb-4c93-9211-8709d4dec4a5"},"vehicle_type_id":"4","last_reported":1750080429,"current_range_meters":10800,"station_id":"ce4bgup2rcd13ifvqco0","pricing_plan_id":"cebpf4jnsgd1na2vs0mg"},{"bike_id":"09fecbeb-8244-4c61-9eb6-1676bbca65c6","system_id":"levelo_inurba_marseille","lat":43.31064,"lon":5.38358,"is_reserved":false,"is_disabled":false,"rental_uris":{"android":"levelo://app?vid=09fecbeb-8244-4c61-9eb6-1676bbca65c6","ios":"levelo://app?vid=09fecbeb-8244-4c61-9eb6-1676bbca65c6"},"vehicle_type_id":"4","last_reported":1750080429,"current_range_meters":11200,"station_id":"ce4bgv92rcd13ifvqcr0","pricing_plan_id":"cebpf4jnsgd1na2vs0mg"},{"bike_id":"3e5970a0-f252-42ff-bcae-b90d20a01989","system_id":"levelo_inurba_marseille","lat":43.23967,"lon":5.36659,"is_reserved":false,"is_disabled":false,"rental_uris":{"android":"levelo://app?vid=3e5970a0-f252-42ff-bcae-b90d20a01989","ios":"levelo://app?vid=3e5970a0-f252-42ff-bcae-b90d20a01989"},"vehicle_type_id":"4","last_reported":1750080429,"current_range_meters":11200,"station_id":"ce4bhi12rcd13ifvqfp0","pricing_plan_id":"cebpf4jnsgd1na2vs0mg"},{"bike_id":"40fe9ef5-bce5-4867-873f-894747d76148","system_id":"levelo_inurba_marseille","lat":43.287098,"lon":5.400027,"is_reserved":false,"is_disabled":false,"rental_uris":{"android":"levelo://app?vid=40fe9ef5-bce5-4867-873f-894747d76148","ios":"levelo://app?vid=40fe9ef5-bce5-4867-873f-894747d76148"},"vehicle_type_id":"4","last_reported":1750080429,"current_range_meters":11200,"station_id":"ce4bho92rcd13ifvqh3g","pricing_plan_id":"cebpf4jnsgd1na2vs0mg"},{"bike_id":"6afc644c-08c3-42de-8619-3f94e2ba41cd","system_id":"levelo_inurba_marseille","lat":43.299064,"lon":5.436603,"is_reserved":false,"is_disabled":false,"rental_uris":{"android":"levelo://app?vid=6afc644c-08c3-42de-8619-3f94e2ba41cd","ios":"levelo://app?vid=6afc644c-08c3-42de-8619-3f94e2ba41cd"},"vehicle_type_id":"4","last_reported":1750080429,"current_range_meters":11200,"station_id":"ce4bhpp2rcd13ifvqhfg","pricing_plan_id":"cebpf4jnsgd1na2vs0mg"},{"bike_id":"6bed16c8-fe11-44a8-9d8c-6d5bf94f3d9d","system_id":"levelo_inurba_marseille","lat":43.32082,"lon":5.36753,"is_reserved":false,"is_disabled":false,"rental_uris":{"android":"levelo://app?vid=6bed16c8-fe11-44a8-9d8c-6d5bf94f3d9d","ios":"levelo://app?vid=6bed16c8-fe11-44a8-9d8c-6d5bf94f3d9d"},"vehicle_type_id":"4","last_reported":1750080429,"current_range_meters":11200,"station_id":"ce4bhrh2rcd13ifvqhug","pricing_plan_id":"cebpf4jnsgd1na2vs0mg"},{"bike_id":"9136f898-3e93-428e-a994-b31580c34e2e","system_id":"levelo_inurba_marseille","lat":43.297174,"lon":5.394241,"is_reserved":false,"is_disabled":false,"rental_uris":{"android":"levelo://app?vid=9136f898-3e93-428e-a994-b31580c34e2e","ios":"levelo://app?vid=9136f898-3e93-428e-a994-b31580c34e2e"},"vehicle_type_id":"4","last_reported":1750080429,"current_range_meters":11200,"station_id":"chh1huq6cuj3fo74tm60","pricing_plan_id":"cebpf4jnsgd1na2vs0mg"},{"bike_id":"a218f7b1-1ede-42b6-9f21-577bc879a2fb","system_id":"levelo_inurba_marseille","lat":43.21189,"lon":5.35083,"is_reserved":false,"is_disabled":false,"rental_uris":{"android":"levelo://app?vid=a218f7b1-1ede-42b6-9f21-577bc879a2fb","ios":"levelo://app?vid=a218f7b1-1ede-42b6-9f21-577bc879a2fb"},"vehicle_type_id":"4","last_reported":1750080429,"current_range_meters":11200,"station_id":"st_cvj6sg6p6f1abm77japg","pricing_plan_id":"cebpf4jnsgd1na2vs0mg"},{"bike_id":"25be301b-e50b-4f31-a209-462aec1b4ce5","system_id":"levelo_inurba_marseille","lat":43.21185,"lon":5.35109,"is_reserved":false,"is_disabled":false,"rental_uris":{"android":"levelo://app?vid=25be301b-e50b-4f31-a209-462aec1b4ce5","ios":"levelo://app?vid=25be301b-e50b-4f31-a209-462aec1b4ce5"},"vehicle_type_id":"4","last_reported":1750080429,"current_range_meters":11600,"station_id":"st_cvj6sg6p6f1abm77japg","pricing_plan_id":"cebpf4jnsgd1na2vs0mg"},{"bike_id":"0a438aa5-4014-46af-bbab-2a4202883423","system_id":"levelo_inurba_marseille","lat":43.27385,"lon":5.36266,"is_reserved":false,"is_disabled":false,"rental_uris":{"android":"levelo://app?vid=0a438aa5-4014-46af-bbab-2a4202883423","ios":"levelo://app?vid=0a438aa5-4014-46af-bbab-2a4202883423"},"vehicle_type_id":"4","last_reported":1750080429,"current_range_meters":12000,"station_id":"ce4bhbh2rcd13ifvqeo0","pricing_plan_id":"cebpf4jnsgd1na2vs0mg"},{"bike_id":"7f7d8f86-bd42-41e4-8840-62e56144ec2f","system_id":"levelo_inurba_marseille","lat":43.284,"lon":5.35015,"is_reserved":false,"is_disabled":false,"rental_uris":{"android":"levelo://app?vid=7f7d8f86-bd42-41e4-8840-62e56144ec2f","ios":"levelo://app?vid=7f7d8f86-bd42-41e4-8840-62e56144ec2f"},"vehicle_type_id":"4","last_reported":1750080429,"current_range_meters":12000,"station_id":"ce4bhbh2rcd13ifvqepg","pricing_plan_id":"cebpf4jnsgd1na2vs0mg"},{"bike_id":"232581a2-33b4-4eac-9339-1ddfca3758d5","system_id":"levelo_inurba_marseille","lat":43.24163,"lon":5.36416,"is_reserved":false,"is_disabled":false,"rental_uris":{"android":"levelo://app?vid=232581a2-33b4-4eac-9339-1ddfca3758d5","ios":"levelo://app?vid=232581a2-33b4-4eac-9339-1ddfca3758d5"},"vehicle_type_id":"4","last_reported":1750080429,"current_range_meters":12000,"station_id":"cpo36qri1sfpv3e86is0","pricing_plan_id":"cebpf4jnsgd1na2vs0mg"},{"bike_id":"4c907e21-8060-4659-949d-6351c136fabc","system_id":"levelo_inurba_marseille","lat":43.22503,"lon":5.3479,"is_reserved":false,"is_disabled":false,"rental_uris":{"android":"levelo://app?vid=4c907e21-8060-4659-949d-6351c136fabc","ios":"levelo://app?vid=4c907e21-8060-4659-949d-6351c136fabc"},"vehicle_type_id":"4","last_reported":1750080429,"current_range_meters":12000,"station_id":"st_cvj5dfep6f1abm77gieg","pricing_plan_id":"cebpf4jnsgd1na2vs0mg"},{"bike_id":"4f97842f-52eb-440d-9107-a510c1c2ed45","system_id":"levelo_inurba_marseille","lat":43.298465,"lon":5.362813,"is_reserved":false,"is_disabled":false,"rental_uris":{"android":"levelo://app?vid=4f97842f-52eb-440d-9107-a510c1c2ed45","ios":"levelo://app?vid=4f97842f-52eb-440d-9107-a510c1c2ed45"},"vehicle_type_id":"4","last_reported":1750080429,"current_range_meters":12400,"station_id":"ce4bgpp2rcd13ifvqc3g","pricing_plan_id":"cebpf4jnsgd1na2vs0mg"},{"bike_id":"a66728c4-f2e7-428e-b872-e7406fb70732","system_id":"levelo_inurba_marseille","lat":43.211978,"lon":5.351033,"is_reserved":false,"is_disabled":false,"rental_uris":{"android":"levelo://app?vid=a66728c4-f2e7-428e-b872-e7406fb70732","ios":"levelo://app?vid=a66728c4-f2e7-428e-b872-e7406fb70732"},"vehicle_type_id":"4","last_reported":1750080429,"current_range_meters":12400,"station_id":"st_cvj6sg6p6f1abm77japg","pricing_plan_id":"cebpf4jnsgd1na2vs0mg"},{"bike_id":"a36c098b-b833-4ca1-8130-465f1215eb1d","system_id":"levelo_inurba_marseille","lat":43.30537,"lon":5.36542,"is_reserved":false,"is_disabled":false,"rental_uris":{"android":"levelo://app?vid=a36c098b-b833-4ca1-8130-465f1215eb1d","ios":"levelo://app?vid=a36c098b-b833-4ca1-8130-465f1215eb1d"},"vehicle_type_id":"4","last_reported":1750080429,"current_range_meters":12800,"station_id":"ce4bgs12rcd13ifvqcag","pricing_plan_id":"cebpf4jnsgd1na2vs0mg"},{"bike_id":"8faa7941-d798-4e63-a6a6-1f6103af292c","system_id":"levelo_inurba_marseille","lat":43.3096,"lon":5.39036,"is_reserved":false,"is_disabled":false,"rental_uris":{"android":"levelo://app?vid=8faa7941-d798-4e63-a6a6-1f6103af292c","ios":"levelo://app?vid=8faa7941-d798-4e63-a6a6-1f6103af292c"},"vehicle_type_id":"4","last_reported":1750080429,"current_range_meters":12800,"station_id":"ce4bgup2rcd13ifvqco0","pricing_plan_id":"cebpf4jnsgd1na2vs0mg"},{"bike_id":"d0c6b551-4765-4114-aa10-e8fbbdc1a4a7","system_id":"levelo_inurba_marseille","lat":43.27371,"lon":5.36266,"is_reserved":false,"is_disabled":false,"rental_uris":{"android":"levelo://app?vid=d0c6b551-4765-4114-aa10-e8fbbdc1a4a7","ios":"levelo://app?vid=d0c6b551-4765-4114-aa10-e8fbbdc1a4a7"},"vehicle_type_id":"4","last_reported":1750080429,"current_range_meters":12800,"station_id":"ce4bhbh2rcd13ifvqeo0","pricing_plan_id":"cebpf4jnsgd1na2vs0mg"},{"bike_id":"bc65c7e5-0556-4970-aa94-fd78a2a5ff43","system_id":"levelo_inurba_marseille","lat":43.27374,"lon":5.36264,"is_reserved":false,"is_disabled":false,"rental_uris":{"android":"levelo://app?vid=bc65c7e5-0556-4970-aa94-fd78a2a5ff43","ios":"levelo://app?vid=bc65c7e5-0556-4970-aa94-fd78a2a5ff43"},"vehicle_type_id":"4","last_reported":1750080429,"current_range_meters":12800,"station_id":"ce4bhbh2rcd13ifvqeo0","pricing_plan_id":"cebpf4jnsgd1na2vs0mg"},{"bike_id":"96b6957b-9065-43ca-aec5-03a99aaacd73","system_id":"levelo_inurba_marseille","lat":43.23959,"lon":5.36637,"is_reserved":false,"is_disabled":false,"rental_uris":{"android":"levelo://app?vid=96b6957b-9065-43ca-aec5-03a99aaacd73","ios":"levelo://app?vid=96b6957b-9065-43ca-aec5-03a99aaacd73"},"vehicle_type_id":"4","last_reported":1750080429,"current_range_meters":12800,"station_id":"ce4bhi12rcd13ifvqfp0","pricing_plan_id":"cebpf4jnsgd1na2vs0mg"},{"bike_id":"564c18d3-8f89-4216-b14e-7b00707be914","system_id":"levelo_inurba_marseille","lat":43.23156,"lon":5.43721,"is_reserved":false,"is_disabled":false,"rental_uris":{"android":"levelo://app?vid=564c18d3-8f89-4216-b14e-7b00707be914","ios":"levelo://app?vid=564c18d3-8f89-4216-b14e-7b00707be914"},"vehicle_type_id":"4","last_reported":1750080429,"current_range_meters":12800,"station_id":"ce4bhmp2rcd13ifvqgog","pricing_plan_id":"cebpf4jnsgd1na2vs0mg"},{"bike_id":"da3e1724-606c-4f9a-9130-d56dd48e22e0","system_id":"levelo_inurba_marseille","lat":43.3292,"lon":5.40592,"is_reserved":false,"is_disabled":false,"rental_uris":{"android":"levelo://app?vid=da3e1724-606c-4f9a-9130-d56dd48e22e0","ios":"levelo://app?vid=da3e1724-606c-4f9a-9130-d56dd48e22e0"},"vehicle_type_id":"4","last_reported":1750080429,"current_range_meters":13600,"station_id":"","pricing_plan_id":"cebpf4jnsgd1na2vs0mg"},{"bike_id":"64c6d212-acc6-47e3-9e04-fbaf04a7ed4e","system_id":"levelo_inurba_marseille","lat":43.270029,"lon":5.387662,"is_reserved":false,"is_disabled":false,"rental_uris":{"android":"levelo://app?vid=64c6d212-acc6-47e3-9e04-fbaf04a7ed4e","ios":"levelo://app?vid=64c6d212-acc6-47e3-9e04-fbaf04a7ed4e"},"vehicle_type_id":"4","last_reported":1750080429,"current_range_meters":13600,"station_id":"","pricing_plan_id":"cebpf4jnsgd1na2vs0mg"},{"bike_id":"88d4fd99-6294-4e6d-a1d4-ea2437f96cef","system_id":"levelo_inurba_marseille","lat":43.27378,"lon":5.3626,"is_reserved":false,"is_disabled":false,"rental_uris":{"android":"levelo://app?vid=88d4fd99-6294-4e6d-a1d4-ea2437f96cef","ios":"levelo://app?vid=88d4fd99-6294-4e6d-a1d4-ea2437f96cef"},"vehicle_type_id":"4","last_reported":1750080429,"current_range_meters":13600,"station_id":"ce4bhbh2rcd13ifvqeo0","pricing_plan_id":"cebpf4jnsgd1na2vs0mg"},{"bike_id":"48e98c35-6eaf-4651-a68c-7876f7d82eba","system_id":"levelo_inurba_marseille","lat":43.24804,"lon":5.37468,"is_reserved":false,"is_disabled":false,"rental_uris":{"android":"levelo://app?vid=48e98c35-6eaf-4651-a68c-7876f7d82eba","ios":"levelo://app?vid=48e98c35-6eaf-4651-a68c-7876f7d82eba"},"vehicle_type_id":"4","last_reported":1750080429,"current_range_meters":13600,"station_id":"ce4bhgh2rcd13ifvqfb0","pricing_plan_id":"cebpf4jnsgd1na2vs0mg"},{"bike_id":"45853a76-b280-4527-b8cb-f602f3f9dbe8","system_id":"levelo_inurba_marseille","lat":43.23963,"lon":5.36638,"is_reserved":false,"is_disabled":false,"rental_uris":{"android":"levelo://app?vid=45853a76-b280-4527-b8cb-f602f3f9dbe8","ios":"levelo://app?vid=45853a76-b280-4527-b8cb-f602f3f9dbe8"},"vehicle_type_id":"4","last_reported":1750080429,"current_range_meters":13600,"station_id":"ce4bhi12rcd13ifvqfp0","pricing_plan_id":"cebpf4jnsgd1na2vs0mg"},{"bike_id":"044e1236-bae9-4d66-8f7e-4401ea872c92","system_id":"levelo_inurba_marseille","lat":43.30505,"lon":5.36511,"is_reserved":false,"is_disabled":false,"rental_uris":{"android":"levelo://app?vid=044e1236-bae9-4d66-8f7e-4401ea872c92","ios":"levelo://app?vid=044e1236-bae9-4d66-8f7e-4401ea872c92"},"vehicle_type_id":"4","last_reported":1750080429,"current_range_meters":14000,"station_id":"","pricing_plan_id":"cebpf4jnsgd1na2vs0mg"},{"bike_id":"601e811b-898b-4499-9b02-d5e8b65b998b","system_id":"levelo_inurba_marseille","lat":43.2827,"lon":5.35083,"is_reserved":false,"is_disabled":false,"rental_uris":{"android":"levelo://app?vid=601e811b-898b-4499-9b02-d5e8b65b998b","ios":"levelo://app?vid=601e811b-898b-4499-9b02-d5e8b65b998b"},"vehicle_type_id":"4","last_reported":1750080429,"current_range_meters":14000,"station_id":"ce4bhbp2rcd13ifvqerg","pricing_plan_id":"cebpf4jnsgd1na2vs0mg"},{"bike_id":"dae5480a-f8b2-48ab-a8de-b9bc22408a08","system_id":"levelo_inurba_marseille","lat":43.33774,"lon":5.37436,"is_reserved":false,"is_disabled":false,"rental_uris":{"android":"levelo://app?vid=dae5480a-f8b2-48ab-a8de-b9bc22408a08","ios":"levelo://app?vid=dae5480a-f8b2-48ab-a8de-b9bc22408a08"},"vehicle_type_id":"4","last_reported":1750080429,"current_range_meters":14400,"station_id":"","pricing_plan_id":"cebpf4jnsgd1na2vs0mg"},{"bike_id":"aecd16be-c375-4bea-9ea9-483ac5562cc7","system_id":"levelo_inurba_marseille","lat":43.2937,"lon":5.3784,"is_reserved":false,"is_disabled":false,"rental_uris":{"android":"levelo://app?vid=aecd16be-c375-4bea-9ea9-483ac5562cc7","ios":"levelo://app?vid=aecd16be-c375-4bea-9ea9-483ac5562cc7"},"vehicle_type_id":"4","last_reported":1750080429,"current_range_meters":14400,"station_id":"ce4bgjh2rcd13ifvqbf0","pricing_plan_id":"cebpf4jnsgd1na2vs0mg"},{"bike_id":"74b40740-7b07-4c32-bbd0-61ea7ca93554","system_id":"levelo_inurba_marseille","lat":43.30931,"lon":5.39038,"is_reserved":false,"is_disabled":false,"rental_uris":{"android":"levelo://app?vid=74b40740-7b07-4c32-bbd0-61ea7ca93554","ios":"levelo://app?vid=74b40740-7b07-4c32-bbd0-61ea7ca93554"},"vehicle_type_id":"4","last_reported":1750080429,"current_range_meters":14400,"station_id":"ce4bgup2rcd13ifvqco0","pricing_plan_id":"cebpf4jnsgd1na2vs0mg"},{"bike_id":"398a0bbf-4f1e-4b6e-a4e1-0e8ceb1b1dbe","system_id":"levelo_inurba_marseille","lat":43.2396,"lon":5.36637,"is_reserved":false,"is_disabled":false,"rental_uris":{"android":"levelo://app?vid=398a0bbf-4f1e-4b6e-a4e1-0e8ceb1b1dbe","ios":"levelo://app?vid=398a0bbf-4f1e-4b6e-a4e1-0e8ceb1b1dbe"},"vehicle_type_id":"4","last_reported":1750080429,"current_range_meters":14400,"station_id":"ce4bhi12rcd13ifvqfp0","pricing_plan_id":"cebpf4jnsgd1na2vs0mg"},{"bike_id":"d2868572-6fee-4690-8a81-283adbeec80c","system_id":"levelo_inurba_marseille","lat":43.2119,"lon":5.35086,"is_reserved":false,"is_disabled":false,"rental_uris":{"android":"levelo://app?vid=d2868572-6fee-4690-8a81-283adbeec80c","ios":"levelo://app?vid=d2868572-6fee-4690-8a81-283adbeec80c"},"vehicle_type_id":"4","last_reported":1750080429,"current_range_meters":14400,"station_id":"st_cvj6sg6p6f1abm77japg","pricing_plan_id":"cebpf4jnsgd1na2vs0mg"},{"bike_id":"4f1f7e55-82af-47d4-8740-2a50326cb66f","system_id":"levelo_inurba_marseille","lat":43.30952,"lon":5.39055,"is_reserved":false,"is_disabled":false,"rental_uris":{"android":"levelo://app?vid=4f1f7e55-82af-47d4-8740-2a50326cb66f","ios":"levelo://app?vid=4f1f7e55-82af-47d4-8740-2a50326cb66f"},"vehicle_type_id":"4","last_reported":1750080429,"current_range_meters":14800,"station_id":"ce4bgup2rcd13ifvqco0","pricing_plan_id":"cebpf4jnsgd1na2vs0mg"},{"bike_id":"a8ee3653-e560-40d9-baa9-42b1c91ce544","system_id":"levelo_inurba_marseille","lat":43.3014,"lon":5.39876,"is_reserved":false,"is_disabled":false,"rental_uris":{"android":"levelo://app?vid=a8ee3653-e560-40d9-baa9-42b1c91ce544","ios":"levelo://app?vid=a8ee3653-e560-40d9-baa9-42b1c91ce544"},"vehicle_type_id":"4","last_reported":1750080429,"current_range_meters":14800,"station_id":"ce4bh0h2rcd13ifvqd40","pricing_plan_id":"cebpf4jnsgd1na2vs0mg"},{"bike_id":"e9307d5b-81f6-412e-ab0e-5f6acb32333c","system_id":"levelo_inurba_marseille","lat":43.273657,"lon":5.36247,"is_reserved":false,"is_disabled":false,"rental_uris":{"android":"levelo://app?vid=e9307d5b-81f6-412e-ab0e-5f6acb32333c","ios":"levelo://app?vid=e9307d5b-81f6-412e-ab0e-5f6acb32333c"},"vehicle_type_id":"4","last_reported":1750080429,"current_range_meters":14800,"station_id":"ce4bhbh2rcd13ifvqeo0","pricing_plan_id":"cebpf4jnsgd1na2vs0mg"},{"bike_id":"c1ba07ad-731d-49d8-9fd6-a826431f3438","system_id":"levelo_inurba_marseille","lat":43.298984,"lon":5.436706,"is_reserved":false,"is_disabled":false,"rental_uris":{"android":"levelo://app?vid=c1ba07ad-731d-49d8-9fd6-a826431f3438","ios":"levelo://app?vid=c1ba07ad-731d-49d8-9fd6-a826431f3438"},"vehicle_type_id":"4","last_reported":1750080429,"current_range_meters":14800,"station_id":"ce4bhpp2rcd13ifvqhfg","pricing_plan_id":"cebpf4jnsgd1na2vs0mg"},{"bike_id":"facffe97-7224-4e25-9501-b641cfba5566","system_id":"levelo_inurba_marseille","lat":43.32478,"lon":5.3655,"is_reserved":false,"is_disabled":false,"rental_uris":{"android":"levelo://app?vid=facffe97-7224-4e25-9501-b641cfba5566","ios":"levelo://app?vid=facffe97-7224-4e25-9501-b641cfba5566"},"vehicle_type_id":"4","last_reported":1750080429,"current_range_meters":14800,"station_id":"ce4bhs12rcd13ifvqhvg","pricing_plan_id":"cebpf4jnsgd1na2vs0mg"},{"bike_id":"8b6b2bc5-278d-48a6-9e2d-bcf6f36c9be6","system_id":"levelo_inurba_marseille","lat":43.24159,"lon":5.36406,"is_reserved":false,"is_disabled":false,"rental_uris":{"android":"levelo://app?vid=8b6b2bc5-278d-48a6-9e2d-bcf6f36c9be6","ios":"levelo://app?vid=8b6b2bc5-278d-48a6-9e2d-bcf6f36c9be6"},"vehicle_type_id":"4","last_reported":1750080429,"current_range_meters":14800,"station_id":"cpo36qri1sfpv3e86is0","pricing_plan_id":"cebpf4jnsgd1na2vs0mg"},{"bike_id":"757906b4-eb86-4ed8-a0a5-7f582bcde75a","system_id":"levelo_inurba_marseille","lat":43.265332,"lon":5.395246,"is_reserved":false,"is_disabled":false,"rental_uris":{"android":"levelo://app?vid=757906b4-eb86-4ed8-a0a5-7f582bcde75a","ios":"levelo://app?vid=757906b4-eb86-4ed8-a0a5-7f582bcde75a"},"vehicle_type_id":"4","last_reported":1750080429,"current_range_meters":15200,"station_id":"","pricing_plan_id":"cebpf4jnsgd1na2vs0mg"},{"bike_id":"4a9f7e47-138a-482b-94c7-7697ab3cf6d5","system_id":"levelo_inurba_marseille","lat":43.30138,"lon":5.37425,"is_reserved":false,"is_disabled":false,"rental_uris":{"android":"levelo://app?vid=4a9f7e47-138a-482b-94c7-7697ab3cf6d5","ios":"levelo://app?vid=4a9f7e47-138a-482b-94c7-7697ab3cf6d5"},"vehicle_type_id":"4","last_reported":1750080429,"current_range_meters":15200,"station_id":"ce4bgs92rcd13ifvqcc0","pricing_plan_id":"cebpf4jnsgd1na2vs0mg"},{"bike_id":"f0cd2656-b52e-4226-a4f9-726e7130eb1a","system_id":"levelo_inurba_marseille","lat":43.26674,"lon":5.38265,"is_reserved":false,"is_disabled":false,"rental_uris":{"android":"levelo://app?vid=f0cd2656-b52e-4226-a4f9-726e7130eb1a","ios":"levelo://app?vid=f0cd2656-b52e-4226-a4f9-726e7130eb1a"},"vehicle_type_id":"4","last_reported":1750080429,"current_range_meters":15200,"station_id":"ce4bhg92rcd13ifvqf90","pricing_plan_id":"cebpf4jnsgd1na2vs0mg"},{"bike_id":"ff3e1354-47e0-4719-87c5-08dbc5c733f5","system_id":"levelo_inurba_marseille","lat":43.23957,"lon":5.36629,"is_reserved":false,"is_disabled":false,"rental_uris":{"android":"levelo://app?vid=ff3e1354-47e0-4719-87c5-08dbc5c733f5","ios":"levelo://app?vid=ff3e1354-47e0-4719-87c5-08dbc5c733f5"},"vehicle_type_id":"4","last_reported":1750080429,"current_range_meters":15200,"station_id":"ce4bhi12rcd13ifvqfp0","pricing_plan_id":"cebpf4jnsgd1na2vs0mg"},{"bike_id":"686aabb5-2163-405d-9fb9-683d1365234e","system_id":"levelo_inurba_marseille","lat":43.29893,"lon":5.43675,"is_reserved":false,"is_disabled":false,"rental_uris":{"android":"levelo://app?vid=686aabb5-2163-405d-9fb9-683d1365234e","ios":"levelo://app?vid=686aabb5-2163-405d-9fb9-683d1365234e"},"vehicle_type_id":"4","last_reported":1750080429,"current_range_meters":15200,"station_id":"ce4bhpp2rcd13ifvqhfg","pricing_plan_id":"cebpf4jnsgd1na2vs0mg"},{"bike_id":"d05c512f-ecf8-4d54-8646-fa719dc17ab7","system_id":"levelo_inurba_marseille","lat":43.27582,"lon":5.41763,"is_reserved":false,"is_disabled":false,"rental_uris":{"android":"levelo://app?vid=d05c512f-ecf8-4d54-8646-fa719dc17ab7","ios":"levelo://app?vid=d05c512f-ecf8-4d54-8646-fa719dc17ab7"},"vehicle_type_id":"4","last_reported":1750080429,"current_range_meters":16000,"station_id":"","pricing_plan_id":"cebpf4jnsgd1na2vs0mg"},{"bike_id":"abf4143e-f97b-45b3-903c-3aa19d2a618f","system_id":"levelo_inurba_marseille","lat":43.28805,"lon":5.35818,"is_reserved":false,"is_disabled":false,"rental_uris":{"android":"levelo://app?vid=abf4143e-f97b-45b3-903c-3aa19d2a618f","ios":"levelo://app?vid=abf4143e-f97b-45b3-903c-3aa19d2a618f"},"vehicle_type_id":"4","last_reported":1750080429,"current_range_meters":16000,"station_id":"ce4bhb12rcd13ifvqem0","pricing_plan_id":"cebpf4jnsgd1na2vs0mg"},{"bike_id":"cb9cf34d-e81d-4e93-b448-d64732d642a6","system_id":"levelo_inurba_marseille","lat":43.28423,"lon":5.34981,"is_reserved":false,"is_disabled":false,"rental_uris":{"android":"levelo://app?vid=cb9cf34d-e81d-4e93-b448-d64732d642a6","ios":"levelo://app?vid=cb9cf34d-e81d-4e93-b448-d64732d642a6"},"vehicle_type_id":"4","last_reported":1750080429,"current_range_meters":16000,"station_id":"ce4bhbh2rcd13ifvqepg","pricing_plan_id":"cebpf4jnsgd1na2vs0mg"},{"bike_id":"31788ed6-cea5-42ad-b287-d04d2b4fc823","system_id":"levelo_inurba_marseille","lat":43.28613,"lon":5.35115,"is_reserved":false,"is_disabled":false,"rental_uris":{"android":"levelo://app?vid=31788ed6-cea5-42ad-b287-d04d2b4fc823","ios":"levelo://app?vid=31788ed6-cea5-42ad-b287-d04d2b4fc823"},"vehicle_type_id":"4","last_reported":1750080429,"current_range_meters":16000,"station_id":"ce4bhch2rcd13ifvqeug","pricing_plan_id":"cebpf4jnsgd1na2vs0mg"},{"bike_id":"6030d17f-2d9c-452e-927d-594c19300602","system_id":"levelo_inurba_marseille","lat":43.24648,"lon":5.38892,"is_reserved":false,"is_disabled":false,"rental_uris":{"android":"levelo://app?vid=6030d17f-2d9c-452e-927d-594c19300602","ios":"levelo://app?vid=6030d17f-2d9c-452e-927d-594c19300602"},"vehicle_type_id":"4","last_reported":1750080429,"current_range_meters":16000,"station_id":"ce4bhg12rcd13ifvqf60","pricing_plan_id":"cebpf4jnsgd1na2vs0mg"},{"bike_id":"89e07e41-784e-43f5-b9a7-88da600e3ab5","system_id":"levelo_inurba_marseille","lat":43.23146,"lon":5.43715,"is_reserved":false,"is_disabled":false,"rental_uris":{"android":"levelo://app?vid=89e07e41-784e-43f5-b9a7-88da600e3ab5","ios":"levelo://app?vid=89e07e41-784e-43f5-b9a7-88da600e3ab5"},"vehicle_type_id":"4","last_reported":1750080429,"current_range_meters":16000,"station_id":"ce4bhmp2rcd13ifvqgog","pricing_plan_id":"cebpf4jnsgd1na2vs0mg"},{"bike_id":"6b75a80e-12fa-4bd0-b8db-b509b9abce19","system_id":"levelo_inurba_marseille","lat":43.21203,"lon":5.35086,"is_reserved":false,"is_disabled":false,"rental_uris":{"android":"levelo://app?vid=6b75a80e-12fa-4bd0-b8db-b509b9abce19","ios":"levelo://app?vid=6b75a80e-12fa-4bd0-b8db-b509b9abce19"},"vehicle_type_id":"4","last_reported":1750080429,"current_range_meters":16000,"station_id":"st_cvj6sg6p6f1abm77japg","pricing_plan_id":"cebpf4jnsgd1na2vs0mg"},{"bike_id":"c6e11e18-206f-4bff-84da-d0aa44e03a49","system_id":"levelo_inurba_marseille","lat":43.27378,"lon":5.36256,"is_reserved":false,"is_disabled":false,"rental_uris":{"android":"levelo://app?vid=c6e11e18-206f-4bff-84da-d0aa44e03a49","ios":"levelo://app?vid=c6e11e18-206f-4bff-84da-d0aa44e03a49"},"vehicle_type_id":"4","last_reported":1750080429,"current_range_meters":16400,"station_id":"ce4bhbh2rcd13ifvqeo0","pricing_plan_id":"cebpf4jnsgd1na2vs0mg"},{"bike_id":"22e9ace7-8a96-4dff-9dee-1420492e72f0","system_id":"levelo_inurba_marseille","lat":43.27322,"lon":5.39094,"is_reserved":false,"is_disabled":false,"rental_uris":{"android":"levelo://app?vid=22e9ace7-8a96-4dff-9dee-1420492e72f0","ios":"levelo://app?vid=22e9ace7-8a96-4dff-9dee-1420492e72f0"},"vehicle_type_id":"4","last_reported":1750080429,"current_range_meters":16400,"station_id":"ce4bhgp2rcd13ifvqfe0","pricing_plan_id":"cebpf4jnsgd1na2vs0mg"},{"bike_id":"9415b781-418f-456e-9d2b-5e838508ee01","system_id":"levelo_inurba_marseille","lat":43.2472,"lon":5.38228,"is_reserved":false,"is_disabled":false,"rental_uris":{"android":"levelo://app?vid=9415b781-418f-456e-9d2b-5e838508ee01","ios":"levelo://app?vid=9415b781-418f-456e-9d2b-5e838508ee01"},"vehicle_type_id":"4","last_reported":1750080429,"current_range_meters":16400,"station_id":"ce4bhih2rcd13ifvqfr0","pricing_plan_id":"cebpf4jnsgd1na2vs0mg"},{"bike_id":"e5b7e971-b042-4cdf-93d5-3d1b2f1106fc","system_id":"levelo_inurba_marseille","lat":43.21746,"lon":5.34603,"is_reserved":false,"is_disabled":false,"rental_uris":{"android":"levelo://app?vid=e5b7e971-b042-4cdf-93d5-3d1b2f1106fc","ios":"levelo://app?vid=e5b7e971-b042-4cdf-93d5-3d1b2f1106fc"},"vehicle_type_id":"4","last_reported":1750080429,"current_range_meters":16400,"station_id":"st_cvj6r9ubvosntc0bgbag","pricing_plan_id":"cebpf4jnsgd1na2vs0mg"},{"bike_id":"25960fd9-8509-4555-9b23-fa4fae1e21d0","system_id":"levelo_inurba_marseille","lat":43.29017,"lon":5.38209,"is_reserved":false,"is_disabled":false,"rental_uris":{"android":"levelo://app?vid=25960fd9-8509-4555-9b23-fa4fae1e21d0","ios":"levelo://app?vid=25960fd9-8509-4555-9b23-fa4fae1e21d0"},"vehicle_type_id":"4","last_reported":1750080429,"current_range_meters":16800,"station_id":"","pricing_plan_id":"cebpf4jnsgd1na2vs0mg"},{"bike_id":"1d4151bb-c97d-4858-b3a7-618db8cf4e66","system_id":"levelo_inurba_marseille","lat":43.30561,"lon":5.36549,"is_reserved":false,"is_disabled":false,"rental_uris":{"android":"levelo://app?vid=1d4151bb-c97d-4858-b3a7-618db8cf4e66","ios":"levelo://app?vid=1d4151bb-c97d-4858-b3a7-618db8cf4e66"},"vehicle_type_id":"4","last_reported":1750080429,"current_range_meters":16800,"station_id":"ce4bgs12rcd13ifvqcag","pricing_plan_id":"cebpf4jnsgd1na2vs0mg"},{"bike_id":"b1e93f6c-9e4b-45e9-92bb-557744619914","system_id":"levelo_inurba_marseille","lat":43.28403,"lon":5.34972,"is_reserved":false,"is_disabled":false,"rental_uris":{"android":"levelo://app?vid=b1e93f6c-9e4b-45e9-92bb-557744619914","ios":"levelo://app?vid=b1e93f6c-9e4b-45e9-92bb-557744619914"},"vehicle_type_id":"4","last_reported":1750080429,"current_range_meters":16800,"station_id":"ce4bhbh2rcd13ifvqepg","pricing_plan_id":"cebpf4jnsgd1na2vs0mg"},{"bike_id":"6d7d84f3-3abd-4f5b-997a-adc6e1753605","system_id":"levelo_inurba_marseille","lat":43.25823,"lon":5.39433,"is_reserved":false,"is_disabled":false,"rental_uris":{"android":"levelo://app?vid=6d7d84f3-3abd-4f5b-997a-adc6e1753605","ios":"levelo://app?vid=6d7d84f3-3abd-4f5b-997a-adc6e1753605"},"vehicle_type_id":"4","last_reported":1750080429,"current_range_meters":16800,"station_id":"ce4bhip2rcd13ifvqft0","pricing_plan_id":"cebpf4jnsgd1na2vs0mg"},{"bike_id":"3cc99279-a540-415b-ad9a-c69a19698cd7","system_id":"levelo_inurba_marseille","lat":43.27169,"lon":5.40991,"is_reserved":false,"is_disabled":false,"rental_uris":{"android":"levelo://app?vid=3cc99279-a540-415b-ad9a-c69a19698cd7","ios":"levelo://app?vid=3cc99279-a540-415b-ad9a-c69a19698cd7"},"vehicle_type_id":"4","last_reported":1750080429,"current_range_meters":16800,"station_id":"ce4bhl12rcd13ifvqgf0","pricing_plan_id":"cebpf4jnsgd1na2vs0mg"},{"bike_id":"1e373418-986e-4d3c-9ff7-c37dd7c7a214","system_id":"levelo_inurba_marseille","lat":43.299031,"lon":5.4367,"is_reserved":false,"is_disabled":false,"rental_uris":{"android":"levelo://app?vid=1e373418-986e-4d3c-9ff7-c37dd7c7a214","ios":"levelo://app?vid=1e373418-986e-4d3c-9ff7-c37dd7c7a214"},"vehicle_type_id":"4","last_reported":1750080429,"current_range_meters":16800,"station_id":"ce4bhpp2rcd13ifvqhfg","pricing_plan_id":"cebpf4jnsgd1na2vs0mg"},{"bike_id":"0e27dafc-21df-4fb1-bd36-2450a7866702","system_id":"levelo_inurba_marseille","lat":43.27176,"lon":5.40015,"is_reserved":false,"is_disabled":false,"rental_uris":{"android":"levelo://app?vid=0e27dafc-21df-4fb1-bd36-2450a7866702","ios":"levelo://app?vid=0e27dafc-21df-4fb1-bd36-2450a7866702"},"vehicle_type_id":"4","last_reported":1750080429,"current_range_meters":17200,"station_id":"","pricing_plan_id":"cebpf4jnsgd1na2vs0mg"},{"bike_id":"91389cd7-b7b0-4108-a91a-2056d165dc0f","system_id":"levelo_inurba_marseille","lat":43.292681,"lon":5.384415,"is_reserved":false,"is_disabled":false,"rental_uris":{"android":"levelo://app?vid=91389cd7-b7b0-4108-a91a-2056d165dc0f","ios":"levelo://app?vid=91389cd7-b7b0-4108-a91a-2056d165dc0f"},"vehicle_type_id":"4","last_reported":1750080429,"current_range_meters":17200,"station_id":"ce4bh692rcd13ifvqea0","pricing_plan_id":"cebpf4jnsgd1na2vs0mg"},{"bike_id":"f8d1e557-c806-403e-b093-89a899d624dd","system_id":"levelo_inurba_marseille","lat":43.28613,"lon":5.35118,"is_reserved":false,"is_disabled":false,"rental_uris":{"android":"levelo://app?vid=f8d1e557-c806-403e-b093-89a899d624dd","ios":"levelo://app?vid=f8d1e557-c806-403e-b093-89a899d624dd"},"vehicle_type_id":"4","last_reported":1750080429,"current_range_meters":17200,"station_id":"ce4bhch2rcd13ifvqeug","pricing_plan_id":"cebpf4jnsgd1na2vs0mg"},{"bike_id":"3ff72a70-ddeb-4eee-a085-0a08ddc9d3db","system_id":"levelo_inurba_marseille","lat":43.24188,"lon":5.39725,"is_reserved":false,"is_disabled":false,"rental_uris":{"android":"levelo://app?vid=3ff72a70-ddeb-4eee-a085-0a08ddc9d3db","ios":"levelo://app?vid=3ff72a70-ddeb-4eee-a085-0a08ddc9d3db"},"vehicle_type_id":"4","last_reported":1750080429,"current_range_meters":17200,"station_id":"ce4bhn12rcd13ifvqgpg","pricing_plan_id":"cebpf4jnsgd1na2vs0mg"},{"bike_id":"3d746d05-37d1-4551-9d44-989e03198898","system_id":"levelo_inurba_marseille","lat":43.31998,"lon":5.38158,"is_reserved":false,"is_disabled":false,"rental_uris":{"android":"levelo://app?vid=3d746d05-37d1-4551-9d44-989e03198898","ios":"levelo://app?vid=3d746d05-37d1-4551-9d44-989e03198898"},"vehicle_type_id":"4","last_reported":1750080429,"current_range_meters":17200,"station_id":"ce4bhr12rcd13ifvqhpg","pricing_plan_id":"cebpf4jnsgd1na2vs0mg"},{"bike_id":"3416a707-2d70-496d-9def-98dfa1a8af2c","system_id":"levelo_inurba_marseille","lat":43.23061,"lon":5.35491,"is_reserved":false,"is_disabled":false,"rental_uris":{"android":"levelo://app?vid=3416a707-2d70-496d-9def-98dfa1a8af2c","ios":"levelo://app?vid=3416a707-2d70-496d-9def-98dfa1a8af2c"},"vehicle_type_id":"4","last_reported":1750080429,"current_range_meters":17200,"station_id":"cpo3342slgdg3j2ifvpg","pricing_plan_id":"cebpf4jnsgd1na2vs0mg"},{"bike_id":"9cad6b1f-bac0-427a-bdb6-00879abca636","system_id":"levelo_inurba_marseille","lat":43.31497,"lon":5.37351,"is_reserved":false,"is_disabled":false,"rental_uris":{"android":"levelo://app?vid=9cad6b1f-bac0-427a-bdb6-00879abca636","ios":"levelo://app?vid=9cad6b1f-bac0-427a-bdb6-00879abca636"},"vehicle_type_id":"4","last_reported":1750080429,"current_range_meters":17600,"station_id":"ce4bgt12rcd13ifvqcd0","pricing_plan_id":"cebpf4jnsgd1na2vs0mg"},{"bike_id":"10188679-e214-41ec-a5d1-070d48aea0f4","system_id":"levelo_inurba_marseille","lat":43.30294,"lon":5.37672,"is_reserved":false,"is_disabled":false,"rental_uris":{"android":"levelo://app?vid=10188679-e214-41ec-a5d1-070d48aea0f4","ios":"levelo://app?vid=10188679-e214-41ec-a5d1-070d48aea0f4"},"vehicle_type_id":"4","last_reported":1750080429,"current_range_meters":17600,"station_id":"ce4bguh2rcd13ifvqcj0","pricing_plan_id":"cebpf4jnsgd1na2vs0mg"},{"bike_id":"404b450f-6352-4674-9a2a-f51c6591d8da","system_id":"levelo_inurba_marseille","lat":43.299,"lon":5.43663,"is_reserved":false,"is_disabled":false,"rental_uris":{"android":"levelo://app?vid=404b450f-6352-4674-9a2a-f51c6591d8da","ios":"levelo://app?vid=404b450f-6352-4674-9a2a-f51c6591d8da"},"vehicle_type_id":"4","last_reported":1750080429,"current_range_meters":17600,"station_id":"ce4bhpp2rcd13ifvqhfg","pricing_plan_id":"cebpf4jnsgd1na2vs0mg"},{"bike_id":"8d8216b7-70be-4e0e-b02f-ed276d5ecd5f","system_id":"levelo_inurba_marseille","lat":43.23052,"lon":5.35489,"is_reserved":false,"is_disabled":false,"rental_uris":{"android":"levelo://app?vid=8d8216b7-70be-4e0e-b02f-ed276d5ecd5f","ios":"levelo://app?vid=8d8216b7-70be-4e0e-b02f-ed276d5ecd5f"},"vehicle_type_id":"4","last_reported":1750080429,"current_range_meters":17600,"station_id":"cpo3342slgdg3j2ifvpg","pricing_plan_id":"cebpf4jnsgd1na2vs0mg"},{"bike_id":"83cfee7d-980d-496a-98c8-745c7e44c68d","system_id":"levelo_inurba_marseille","lat":43.32882,"lon":5.390883,"is_reserved":false,"is_disabled":false,"rental_uris":{"android":"levelo://app?vid=83cfee7d-980d-496a-98c8-745c7e44c68d","ios":"levelo://app?vid=83cfee7d-980d-496a-98c8-745c7e44c68d"},"vehicle_type_id":"4","last_reported":1750080429,"current_range_meters":18000,"station_id":"","pricing_plan_id":"cebpf4jnsgd1na2vs0mg"},{"bike_id":"151d2a7d-4546-4a58-97fd-bdd590765d92","system_id":"levelo_inurba_marseille","lat":43.30126,"lon":5.38801,"is_reserved":false,"is_disabled":false,"rental_uris":{"android":"levelo://app?vid=151d2a7d-4546-4a58-97fd-bdd590765d92","ios":"levelo://app?vid=151d2a7d-4546-4a58-97fd-bdd590765d92"},"vehicle_type_id":"4","last_reported":1750080429,"current_range_meters":18000,"station_id":"ce4bghh2rcd13ifvqb60","pricing_plan_id":"cebpf4jnsgd1na2vs0mg"},{"bike_id":"df2202ca-5c76-480f-9ba2-bd1ae66e971c","system_id":"levelo_inurba_marseille","lat":43.30544,"lon":5.36521,"is_reserved":false,"is_disabled":false,"rental_uris":{"android":"levelo://app?vid=df2202ca-5c76-480f-9ba2-bd1ae66e971c","ios":"levelo://app?vid=df2202ca-5c76-480f-9ba2-bd1ae66e971c"},"vehicle_type_id":"4","last_reported":1750080429,"current_range_meters":18000,"station_id":"ce4bgs12rcd13ifvqcag","pricing_plan_id":"cebpf4jnsgd1na2vs0mg"},{"bike_id":"e9a5fd6d-c88f-44ce-961a-6fb9700045a6","system_id":"levelo_inurba_marseille","lat":43.31485,"lon":5.3731,"is_reserved":false,"is_disabled":false,"rental_uris":{"android":"levelo://app?vid=e9a5fd6d-c88f-44ce-961a-6fb9700045a6","ios":"levelo://app?vid=e9a5fd6d-c88f-44ce-961a-6fb9700045a6"},"vehicle_type_id":"4","last_reported":1750080429,"current_range_meters":18000,"station_id":"ce4bgt12rcd13ifvqcd0","pricing_plan_id":"cebpf4jnsgd1na2vs0mg"},{"bike_id":"1c2c01a0-a0bc-4003-9a28-e54122ac7bca","system_id":"levelo_inurba_marseille","lat":43.2887,"lon":5.35852,"is_reserved":false,"is_disabled":false,"rental_uris":{"android":"levelo://app?vid=1c2c01a0-a0bc-4003-9a28-e54122ac7bca","ios":"levelo://app?vid=1c2c01a0-a0bc-4003-9a28-e54122ac7bca"},"vehicle_type_id":"4","last_reported":1750080429,"current_range_meters":18000,"station_id":"ce4bhb12rcd13ifvqem0","pricing_plan_id":"cebpf4jnsgd1na2vs0mg"},{"bike_id":"2b969f3c-8353-4798-be7a-9cd51ae2cc44","system_id":"levelo_inurba_marseille","lat":43.2466,"lon":5.38173,"is_reserved":false,"is_disabled":false,"rental_uris":{"android":"levelo://app?vid=2b969f3c-8353-4798-be7a-9cd51ae2cc44","ios":"levelo://app?vid=2b969f3c-8353-4798-be7a-9cd51ae2cc44"},"vehicle_type_id":"4","last_reported":1750080429,"current_range_meters":18000,"station_id":"ce4bhih2rcd13ifvqfr0","pricing_plan_id":"cebpf4jnsgd1na2vs0mg"},{"bike_id":"0af7f3a2-e0f5-46f4-a4dd-2ab41fe2d0ff","system_id":"levelo_inurba_marseille","lat":43.23194,"lon":5.35549,"is_reserved":false,"is_disabled":false,"rental_uris":{"android":"levelo://app?vid=0af7f3a2-e0f5-46f4-a4dd-2ab41fe2d0ff","ios":"levelo://app?vid=0af7f3a2-e0f5-46f4-a4dd-2ab41fe2d0ff"},"vehicle_type_id":"4","last_reported":1750080429,"current_range_meters":18000,"station_id":"ce4bhu92rcd13ifvqi70","pricing_plan_id":"cebpf4jnsgd1na2vs0mg"},{"bike_id":"4cde782a-5ed1-45b7-a134-3d7a4520ca41","system_id":"levelo_inurba_marseille","lat":43.29851,"lon":5.40406,"is_reserved":false,"is_disabled":false,"rental_uris":{"android":"levelo://app?vid=4cde782a-5ed1-45b7-a134-3d7a4520ca41","ios":"levelo://app?vid=4cde782a-5ed1-45b7-a134-3d7a4520ca41"},"vehicle_type_id":"4","last_reported":1750080429,"current_range_meters":18800,"station_id":"","pricing_plan_id":"cebpf4jnsgd1na2vs0mg"},{"bike_id":"c1b255c6-d75c-4af1-91a5-ddf915918b53","system_id":"levelo_inurba_marseille","lat":43.309582,"lon":5.390417,"is_reserved":false,"is_disabled":false,"rental_uris":{"android":"levelo://app?vid=c1b255c6-d75c-4af1-91a5-ddf915918b53","ios":"levelo://app?vid=c1b255c6-d75c-4af1-91a5-ddf915918b53"},"vehicle_type_id":"4","last_reported":1750080429,"current_range_meters":18800,"station_id":"ce4bgup2rcd13ifvqco0","pricing_plan_id":"cebpf4jnsgd1na2vs0mg"},{"bike_id":"9fac50a8-129e-415a-b390-de8d4c2e2d62","system_id":"levelo_inurba_marseille","lat":43.28662,"lon":5.38663,"is_reserved":false,"is_disabled":false,"rental_uris":{"android":"levelo://app?vid=9fac50a8-129e-415a-b390-de8d4c2e2d62","ios":"levelo://app?vid=9fac50a8-129e-415a-b390-de8d4c2e2d62"},"vehicle_type_id":"4","last_reported":1750080429,"current_range_meters":18800,"station_id":"ce4bh492rcd13ifvqdug","pricing_plan_id":"cebpf4jnsgd1na2vs0mg"},{"bike_id":"13d7396c-b21e-41a0-a404-981679e2ba81","system_id":"levelo_inurba_marseille","lat":43.27379,"lon":5.36261,"is_reserved":false,"is_disabled":false,"rental_uris":{"android":"levelo://app?vid=13d7396c-b21e-41a0-a404-981679e2ba81","ios":"levelo://app?vid=13d7396c-b21e-41a0-a404-981679e2ba81"},"vehicle_type_id":"4","last_reported":1750080429,"current_range_meters":18800,"station_id":"ce4bhbh2rcd13ifvqeo0","pricing_plan_id":"cebpf4jnsgd1na2vs0mg"},{"bike_id":"ceb7da22-f5ca-42c3-b40a-f7a4c92e8024","system_id":"levelo_inurba_marseille","lat":43.27368,"lon":5.36255,"is_reserved":false,"is_disabled":false,"rental_uris":{"android":"levelo://app?vid=ceb7da22-f5ca-42c3-b40a-f7a4c92e8024","ios":"levelo://app?vid=ceb7da22-f5ca-42c3-b40a-f7a4c92e8024"},"vehicle_type_id":"4","last_reported":1750080429,"current_range_meters":18800,"station_id":"ce4bhbh2rcd13ifvqeo0","pricing_plan_id":"cebpf4jnsgd1na2vs0mg"},{"bike_id":"014dc693-f604-40c7-9b2a-272b4c0a26c3","system_id":"levelo_inurba_marseille","lat":43.26793,"lon":5.39411,"is_reserved":false,"is_disabled":false,"rental_uris":{"android":"levelo://app?vid=014dc693-f604-40c7-9b2a-272b4c0a26c3","ios":"levelo://app?vid=014dc693-f604-40c7-9b2a-272b4c0a26c3"},"vehicle_type_id":"4","last_reported":1750080429,"current_range_meters":18800,"station_id":"ce4bhh12rcd13ifvqfg0","pricing_plan_id":"cebpf4jnsgd1na2vs0mg"},{"bike_id":"2c680722-6dbc-4fd7-beff-3f308d827e50","system_id":"levelo_inurba_marseille","lat":43.24195,"lon":5.39737,"is_reserved":false,"is_disabled":false,"rental_uris":{"android":"levelo://app?vid=2c680722-6dbc-4fd7-beff-3f308d827e50","ios":"levelo://app?vid=2c680722-6dbc-4fd7-beff-3f308d827e50"},"vehicle_type_id":"4","last_reported":1750080429,"current_range_meters":18800,"station_id":"ce4bhn12rcd13ifvqgpg","pricing_plan_id":"cebpf4jnsgd1na2vs0mg"},{"bike_id":"6a35743d-0253-46b2-8092-47c84a5bfbfc","system_id":"levelo_inurba_marseille","lat":43.24183,"lon":5.39731,"is_reserved":false,"is_disabled":false,"rental_uris":{"android":"levelo://app?vid=6a35743d-0253-46b2-8092-47c84a5bfbfc","ios":"levelo://app?vid=6a35743d-0253-46b2-8092-47c84a5bfbfc"},"vehicle_type_id":"4","last_reported":1750080429,"current_range_meters":18800,"station_id":"ce4bhn12rcd13ifvqgpg","pricing_plan_id":"cebpf4jnsgd1na2vs0mg"},{"bike_id":"2aa78b25-7a9c-4a83-ae64-b82d5f142295","system_id":"levelo_inurba_marseille","lat":43.32352,"lon":5.367423,"is_reserved":false,"is_disabled":false,"rental_uris":{"android":"levelo://app?vid=2aa78b25-7a9c-4a83-ae64-b82d5f142295","ios":"levelo://app?vid=2aa78b25-7a9c-4a83-ae64-b82d5f142295"},"vehicle_type_id":"4","last_reported":1750080429,"current_range_meters":18800,"station_id":"ce4bhsh2rcd13ifvqi2g","pricing_plan_id":"cebpf4jnsgd1na2vs0mg"},{"bike_id":"7565e69a-4005-4eab-a191-81e302dbc63e","system_id":"levelo_inurba_marseille","lat":43.21189,"lon":5.35058,"is_reserved":false,"is_disabled":false,"rental_uris":{"android":"levelo://app?vid=7565e69a-4005-4eab-a191-81e302dbc63e","ios":"levelo://app?vid=7565e69a-4005-4eab-a191-81e302dbc63e"},"vehicle_type_id":"4","last_reported":1750080429,"current_range_meters":18800,"station_id":"st_cvj6sg6p6f1abm77japg","pricing_plan_id":"cebpf4jnsgd1na2vs0mg"},{"bike_id":"63d8f8de-6fb5-461e-8196-70d15c64a587","system_id":"levelo_inurba_marseille","lat":43.21206,"lon":5.35089,"is_reserved":false,"is_disabled":false,"rental_uris":{"android":"levelo://app?vid=63d8f8de-6fb5-461e-8196-70d15c64a587","ios":"levelo://app?vid=63d8f8de-6fb5-461e-8196-70d15c64a587"},"vehicle_type_id":"4","last_reported":1750080429,"current_range_meters":18800,"station_id":"st_cvj6sg6p6f1abm77japg","pricing_plan_id":"cebpf4jnsgd1na2vs0mg"},{"bike_id":"7ef8806e-06fe-4614-b380-d044aa8dc755","system_id":"levelo_inurba_marseille","lat":43.253188,"lon":5.393831,"is_reserved":false,"is_disabled":false,"rental_uris":{"android":"levelo://app?vid=7ef8806e-06fe-4614-b380-d044aa8dc755","ios":"levelo://app?vid=7ef8806e-06fe-4614-b380-d044aa8dc755"},"vehicle_type_id":"4","last_reported":1750080429,"current_range_meters":19200,"station_id":"","pricing_plan_id":"cebpf4jnsgd1na2vs0mg"},{"bike_id":"f5a5ab7e-19ca-4719-8e26-02229fb1fd2c","system_id":"levelo_inurba_marseille","lat":43.25479,"lon":5.40943,"is_reserved":false,"is_disabled":false,"rental_uris":{"android":"levelo://app?vid=f5a5ab7e-19ca-4719-8e26-02229fb1fd2c","ios":"levelo://app?vid=f5a5ab7e-19ca-4719-8e26-02229fb1fd2c"},"vehicle_type_id":"4","last_reported":1750080429,"current_range_meters":19200,"station_id":"","pricing_plan_id":"cebpf4jnsgd1na2vs0mg"},{"bike_id":"86bf937a-79c3-4613-938a-2c5e4a6ddb7a","system_id":"levelo_inurba_marseille","lat":43.301413,"lon":5.38789,"is_reserved":false,"is_disabled":false,"rental_uris":{"android":"levelo://app?vid=86bf937a-79c3-4613-938a-2c5e4a6ddb7a","ios":"levelo://app?vid=86bf937a-79c3-4613-938a-2c5e4a6ddb7a"},"vehicle_type_id":"4","last_reported":1750080429,"current_range_meters":19200,"station_id":"ce4bghh2rcd13ifvqb60","pricing_plan_id":"cebpf4jnsgd1na2vs0mg"},{"bike_id":"fec8b9f3-6dc7-4766-a52c-6958ac70ab31","system_id":"levelo_inurba_marseille","lat":43.314956,"lon":5.373074,"is_reserved":false,"is_disabled":false,"rental_uris":{"android":"levelo://app?vid=fec8b9f3-6dc7-4766-a52c-6958ac70ab31","ios":"levelo://app?vid=fec8b9f3-6dc7-4766-a52c-6958ac70ab31"},"vehicle_type_id":"4","last_reported":1750080429,"current_range_meters":19200,"station_id":"ce4bgt12rcd13ifvqcd0","pricing_plan_id":"cebpf4jnsgd1na2vs0mg"},{"bike_id":"33f17190-01a3-4dd7-96b9-71909e3f7fa2","system_id":"levelo_inurba_marseille","lat":43.291989,"lon":5.357921,"is_reserved":false,"is_disabled":false,"rental_uris":{"android":"levelo://app?vid=33f17190-01a3-4dd7-96b9-71909e3f7fa2","ios":"levelo://app?vid=33f17190-01a3-4dd7-96b9-71909e3f7fa2"},"vehicle_type_id":"4","last_reported":1750080429,"current_range_meters":19200,"station_id":"ce4bhb12rcd13ifvqel0","pricing_plan_id":"cebpf4jnsgd1na2vs0mg"},{"bike_id":"b3e7b03b-5d0f-45e7-b0a1-a405de069ddb","system_id":"levelo_inurba_marseille","lat":43.289988,"lon":5.356163,"is_reserved":false,"is_disabled":false,"rental_uris":{"android":"levelo://app?vid=b3e7b03b-5d0f-45e7-b0a1-a405de069ddb","ios":"levelo://app?vid=b3e7b03b-5d0f-45e7-b0a1-a405de069ddb"},"vehicle_type_id":"4","last_reported":1750080429,"current_range_meters":19200,"station_id":"ce4bhb92rcd13ifvqen0","pricing_plan_id":"cebpf4jnsgd1na2vs0mg"},{"bike_id":"3dde3bca-46fc-4164-a167-3eaf1a11c0a3","system_id":"levelo_inurba_marseille","lat":43.28617,"lon":5.35097,"is_reserved":false,"is_disabled":false,"rental_uris":{"android":"levelo://app?vid=3dde3bca-46fc-4164-a167-3eaf1a11c0a3","ios":"levelo://app?vid=3dde3bca-46fc-4164-a167-3eaf1a11c0a3"},"vehicle_type_id":"4","last_reported":1750080429,"current_range_meters":19200,"station_id":"ce4bhch2rcd13ifvqeug","pricing_plan_id":"cebpf4jnsgd1na2vs0mg"},{"bike_id":"22e353fa-1b93-4c91-b3b3-4024e8cf1ddc","system_id":"levelo_inurba_marseille","lat":43.24672,"lon":5.38168,"is_reserved":false,"is_disabled":false,"rental_uris":{"android":"levelo://app?vid=22e353fa-1b93-4c91-b3b3-4024e8cf1ddc","ios":"levelo://app?vid=22e353fa-1b93-4c91-b3b3-4024e8cf1ddc"},"vehicle_type_id":"4","last_reported":1750080429,"current_range_meters":19200,"station_id":"ce4bhih2rcd13ifvqfr0","pricing_plan_id":"cebpf4jnsgd1na2vs0mg"},{"bike_id":"fd94693b-9d2b-49a3-9ee9-bfbcc4203e10","system_id":"levelo_inurba_marseille","lat":43.31996,"lon":5.38165,"is_reserved":false,"is_disabled":false,"rental_uris":{"android":"levelo://app?vid=fd94693b-9d2b-49a3-9ee9-bfbcc4203e10","ios":"levelo://app?vid=fd94693b-9d2b-49a3-9ee9-bfbcc4203e10"},"vehicle_type_id":"4","last_reported":1750080429,"current_range_meters":19200,"station_id":"ce4bhr12rcd13ifvqhpg","pricing_plan_id":"cebpf4jnsgd1na2vs0mg"},{"bike_id":"3a2a3307-1c1f-4c3c-978f-1ffe7fe68894","system_id":"levelo_inurba_marseille","lat":43.287219,"lon":5.360803,"is_reserved":false,"is_disabled":false,"rental_uris":{"android":"levelo://app?vid=3a2a3307-1c1f-4c3c-978f-1ffe7fe68894","ios":"levelo://app?vid=3a2a3307-1c1f-4c3c-978f-1ffe7fe68894"},"vehicle_type_id":"4","last_reported":1750080429,"current_range_meters":19200,"station_id":"cki0cbj6b192h4jlfktg","pricing_plan_id":"cebpf4jnsgd1na2vs0mg"},{"bike_id":"190a12a2-6869-42fa-9694-b72690cb2074","system_id":"levelo_inurba_marseille","lat":43.2416,"lon":5.36409,"is_reserved":false,"is_disabled":false,"rental_uris":{"android":"levelo://app?vid=190a12a2-6869-42fa-9694-b72690cb2074","ios":"levelo://app?vid=190a12a2-6869-42fa-9694-b72690cb2074"},"vehicle_type_id":"4","last_reported":1750080429,"current_range_meters":19200,"station_id":"cpo36qri1sfpv3e86is0","pricing_plan_id":"cebpf4jnsgd1na2vs0mg"},{"bike_id":"8170a59d-59b5-417b-9e7e-4b0c279a9254","system_id":"levelo_inurba_marseille","lat":43.2119,"lon":5.35068,"is_reserved":false,"is_disabled":false,"rental_uris":{"android":"levelo://app?vid=8170a59d-59b5-417b-9e7e-4b0c279a9254","ios":"levelo://app?vid=8170a59d-59b5-417b-9e7e-4b0c279a9254"},"vehicle_type_id":"4","last_reported":1750080429,"current_range_meters":19200,"station_id":"st_cvj6sg6p6f1abm77japg","pricing_plan_id":"cebpf4jnsgd1na2vs0mg"},{"bike_id":"4ce5b165-f22d-40cf-abd3-1cb294861955","system_id":"levelo_inurba_marseille","lat":43.211982,"lon":5.350725,"is_reserved":false,"is_disabled":false,"rental_uris":{"android":"levelo://app?vid=4ce5b165-f22d-40cf-abd3-1cb294861955","ios":"levelo://app?vid=4ce5b165-f22d-40cf-abd3-1cb294861955"},"vehicle_type_id":"4","last_reported":1750080429,"current_range_meters":19600,"station_id":"","pricing_plan_id":"cebpf4jnsgd1na2vs0mg"},{"bike_id":"15a64469-8e35-4495-98f0-849e5cb26090","system_id":"levelo_inurba_marseille","lat":43.29851,"lon":5.36276,"is_reserved":false,"is_disabled":false,"rental_uris":{"android":"levelo://app?vid=15a64469-8e35-4495-98f0-849e5cb26090","ios":"levelo://app?vid=15a64469-8e35-4495-98f0-849e5cb26090"},"vehicle_type_id":"4","last_reported":1750080429,"current_range_meters":19600,"station_id":"ce4bgpp2rcd13ifvqc3g","pricing_plan_id":"cebpf4jnsgd1na2vs0mg"},{"bike_id":"9a7dcaa3-1d3c-4863-afb0-833aa0527397","system_id":"levelo_inurba_marseille","lat":43.3091,"lon":5.3721,"is_reserved":false,"is_disabled":false,"rental_uris":{"android":"levelo://app?vid=9a7dcaa3-1d3c-4863-afb0-833aa0527397","ios":"levelo://app?vid=9a7dcaa3-1d3c-4863-afb0-833aa0527397"},"vehicle_type_id":"4","last_reported":1750080429,"current_range_meters":19600,"station_id":"ce4bguh2rcd13ifvqckg","pricing_plan_id":"cebpf4jnsgd1na2vs0mg"},{"bike_id":"5d9ee516-11e4-45f1-9c52-c3491484aaf2","system_id":"levelo_inurba_marseille","lat":43.31194,"lon":5.38711,"is_reserved":false,"is_disabled":false,"rental_uris":{"android":"levelo://app?vid=5d9ee516-11e4-45f1-9c52-c3491484aaf2","ios":"levelo://app?vid=5d9ee516-11e4-45f1-9c52-c3491484aaf2"},"vehicle_type_id":"4","last_reported":1750080429,"current_range_meters":19600,"station_id":"ce4bgv12rcd13ifvqcp0","pricing_plan_id":"cebpf4jnsgd1na2vs0mg"},{"bike_id":"0114c649-15e9-44bd-8ec2-ff4d4d735aa0","system_id":"levelo_inurba_marseille","lat":43.29187,"lon":5.35802,"is_reserved":false,"is_disabled":false,"rental_uris":{"android":"levelo://app?vid=0114c649-15e9-44bd-8ec2-ff4d4d735aa0","ios":"levelo://app?vid=0114c649-15e9-44bd-8ec2-ff4d4d735aa0"},"vehicle_type_id":"4","last_reported":1750080429,"current_range_meters":19600,"station_id":"ce4bhb12rcd13ifvqel0","pricing_plan_id":"cebpf4jnsgd1na2vs0mg"},{"bike_id":"6b2dcf8c-4c61-43ec-b992-8e27926fe276","system_id":"levelo_inurba_marseille","lat":43.24158,"lon":5.39735,"is_reserved":false,"is_disabled":false,"rental_uris":{"android":"levelo://app?vid=6b2dcf8c-4c61-43ec-b992-8e27926fe276","ios":"levelo://app?vid=6b2dcf8c-4c61-43ec-b992-8e27926fe276"},"vehicle_type_id":"4","last_reported":1750080429,"current_range_meters":19600,"station_id":"ce4bhn12rcd13ifvqgpg","pricing_plan_id":"cebpf4jnsgd1na2vs0mg"},{"bike_id":"2090556a-ebe6-4fcd-b60b-df67d7c8e4f7","system_id":"levelo_inurba_marseille","lat":43.29918,"lon":5.43706,"is_reserved":false,"is_disabled":false,"rental_uris":{"android":"levelo://app?vid=2090556a-ebe6-4fcd-b60b-df67d7c8e4f7","ios":"levelo://app?vid=2090556a-ebe6-4fcd-b60b-df67d7c8e4f7"},"vehicle_type_id":"4","last_reported":1750080429,"current_range_meters":19600,"station_id":"ce4bhpp2rcd13ifvqhfg","pricing_plan_id":"cebpf4jnsgd1na2vs0mg"},{"bike_id":"7516c593-6640-4b00-96c9-31c1b5678a8a","system_id":"levelo_inurba_marseille","lat":43.32363,"lon":5.38886,"is_reserved":false,"is_disabled":false,"rental_uris":{"android":"levelo://app?vid=7516c593-6640-4b00-96c9-31c1b5678a8a","ios":"levelo://app?vid=7516c593-6640-4b00-96c9-31c1b5678a8a"},"vehicle_type_id":"4","last_reported":1750080429,"current_range_meters":19600,"station_id":"ce4bhqp2rcd13ifvqhog","pricing_plan_id":"cebpf4jnsgd1na2vs0mg"},{"bike_id":"3bd179b0-fda0-4ef1-b98c-6ec63ec90115","system_id":"levelo_inurba_marseille","lat":43.229285,"lon":5.353781,"is_reserved":false,"is_disabled":false,"rental_uris":{"android":"levelo://app?vid=3bd179b0-fda0-4ef1-b98c-6ec63ec90115","ios":"levelo://app?vid=3bd179b0-fda0-4ef1-b98c-6ec63ec90115"},"vehicle_type_id":"4","last_reported":1750080429,"current_range_meters":19600,"station_id":"cpo3532slgdg3j2ikp40","pricing_plan_id":"cebpf4jnsgd1na2vs0mg"},{"bike_id":"7cecaea5-02e5-406e-a9d3-87654513645c","system_id":"levelo_inurba_marseille","lat":43.295269,"lon":5.38538,"is_reserved":false,"is_disabled":false,"rental_uris":{"android":"levelo://app?vid=7cecaea5-02e5-406e-a9d3-87654513645c","ios":"levelo://app?vid=7cecaea5-02e5-406e-a9d3-87654513645c"},"vehicle_type_id":"4","last_reported":1750080429,"current_range_meters":20000,"station_id":"","pricing_plan_id":"cebpf4jnsgd1na2vs0mg"},{"bike_id":"f83e23ee-a46c-4ffc-bf79-a2a951b15a92","system_id":"levelo_inurba_marseille","lat":43.29181,"lon":5.35614,"is_reserved":false,"is_disabled":false,"rental_uris":{"android":"levelo://app?vid=f83e23ee-a46c-4ffc-bf79-a2a951b15a92","ios":"levelo://app?vid=f83e23ee-a46c-4ffc-bf79-a2a951b15a92"},"vehicle_type_id":"4","last_reported":1750080429,"current_range_meters":20000,"station_id":"","pricing_plan_id":"cebpf4jnsgd1na2vs0mg"},{"bike_id":"26f8d458-9daf-4fd8-9018-5d235343deaa","system_id":"levelo_inurba_marseille","lat":43.292663,"lon":5.384441,"is_reserved":false,"is_disabled":false,"rental_uris":{"android":"levelo://app?vid=26f8d458-9daf-4fd8-9018-5d235343deaa","ios":"levelo://app?vid=26f8d458-9daf-4fd8-9018-5d235343deaa"},"vehicle_type_id":"4","last_reported":1750080429,"current_range_meters":20000,"station_id":"ce4bh692rcd13ifvqea0","pricing_plan_id":"cebpf4jnsgd1na2vs0mg"},{"bike_id":"ee0d507f-d0bf-4fe4-a3ec-1108fefda5c3","system_id":"levelo_inurba_marseille","lat":43.29254,"lon":5.38441,"is_reserved":false,"is_disabled":false,"rental_uris":{"android":"levelo://app?vid=ee0d507f-d0bf-4fe4-a3ec-1108fefda5c3","ios":"levelo://app?vid=ee0d507f-d0bf-4fe4-a3ec-1108fefda5c3"},"vehicle_type_id":"4","last_reported":1750080429,"current_range_meters":20000,"station_id":"ce4bh692rcd13ifvqea0","pricing_plan_id":"cebpf4jnsgd1na2vs0mg"},{"bike_id":"4438ffe8-8155-4909-8392-1242f273382f","system_id":"levelo_inurba_marseille","lat":43.23961,"lon":5.36626,"is_reserved":false,"is_disabled":false,"rental_uris":{"android":"levelo://app?vid=4438ffe8-8155-4909-8392-1242f273382f","ios":"levelo://app?vid=4438ffe8-8155-4909-8392-1242f273382f"},"vehicle_type_id":"4","last_reported":1750080429,"current_range_meters":20000,"station_id":"ce4bhi12rcd13ifvqfp0","pricing_plan_id":"cebpf4jnsgd1na2vs0mg"},{"bike_id":"7626db2f-8581-4200-8af0-5ce97614bd80","system_id":"levelo_inurba_marseille","lat":43.2396,"lon":5.36639,"is_reserved":false,"is_disabled":false,"rental_uris":{"android":"levelo://app?vid=7626db2f-8581-4200-8af0-5ce97614bd80","ios":"levelo://app?vid=7626db2f-8581-4200-8af0-5ce97614bd80"},"vehicle_type_id":"4","last_reported":1750080429,"current_range_meters":20000,"station_id":"ce4bhi12rcd13ifvqfp0","pricing_plan_id":"cebpf4jnsgd1na2vs0mg"},{"bike_id":"4fadfdf2-eac5-4af1-9fe5-bd6ca9fa5a87","system_id":"levelo_inurba_marseille","lat":43.27837,"lon":5.39204,"is_reserved":false,"is_disabled":false,"rental_uris":{"android":"levelo://app?vid=4fadfdf2-eac5-4af1-9fe5-bd6ca9fa5a87","ios":"levelo://app?vid=4fadfdf2-eac5-4af1-9fe5-bd6ca9fa5a87"},"vehicle_type_id":"4","last_reported":1750080429,"current_range_meters":20000,"station_id":"ce4bhjp2rcd13ifvqga0","pricing_plan_id":"cebpf4jnsgd1na2vs0mg"},{"bike_id":"a66f2271-2829-49a5-97bf-64ccaa765daa","system_id":"levelo_inurba_marseille","lat":43.25116,"lon":5.40321,"is_reserved":false,"is_disabled":false,"rental_uris":{"android":"levelo://app?vid=a66f2271-2829-49a5-97bf-64ccaa765daa","ios":"levelo://app?vid=a66f2271-2829-49a5-97bf-64ccaa765daa"},"vehicle_type_id":"4","last_reported":1750080429,"current_range_meters":20000,"station_id":"ce4bhlh2rcd13ifvqgig","pricing_plan_id":"cebpf4jnsgd1na2vs0mg"},{"bike_id":"578d79a3-41a5-40c6-87e5-334edd365c06","system_id":"levelo_inurba_marseille","lat":43.324853,"lon":5.365559,"is_reserved":false,"is_disabled":false,"rental_uris":{"android":"levelo://app?vid=578d79a3-41a5-40c6-87e5-334edd365c06","ios":"levelo://app?vid=578d79a3-41a5-40c6-87e5-334edd365c06"},"vehicle_type_id":"4","last_reported":1750080429,"current_range_meters":20000,"station_id":"ce4bhs12rcd13ifvqhvg","pricing_plan_id":"cebpf4jnsgd1na2vs0mg"},{"bike_id":"4cfcd6ac-29dc-4441-a0e2-99bee7cc7789","system_id":"levelo_inurba_marseille","lat":43.21753,"lon":5.345996,"is_reserved":false,"is_disabled":false,"rental_uris":{"android":"levelo://app?vid=4cfcd6ac-29dc-4441-a0e2-99bee7cc7789","ios":"levelo://app?vid=4cfcd6ac-29dc-4441-a0e2-99bee7cc7789"},"vehicle_type_id":"4","last_reported":1750080429,"current_range_meters":20400,"station_id":"","pricing_plan_id":"cebpf4jnsgd1na2vs0mg"},{"bike_id":"5a66efa4-406f-47a9-9d54-0082814f1beb","system_id":"levelo_inurba_marseille","lat":43.337444,"lon":5.374475,"is_reserved":false,"is_disabled":false,"rental_uris":{"android":"levelo://app?vid=5a66efa4-406f-47a9-9d54-0082814f1beb","ios":"levelo://app?vid=5a66efa4-406f-47a9-9d54-0082814f1beb"},"vehicle_type_id":"4","last_reported":1750080429,"current_range_meters":20400,"station_id":"","pricing_plan_id":"cebpf4jnsgd1na2vs0mg"},{"bike_id":"e4545242-0d34-410b-9092-52e20d435c24","system_id":"levelo_inurba_marseille","lat":43.30844,"lon":5.37048,"is_reserved":false,"is_disabled":false,"rental_uris":{"android":"levelo://app?vid=e4545242-0d34-410b-9092-52e20d435c24","ios":"levelo://app?vid=e4545242-0d34-410b-9092-52e20d435c24"},"vehicle_type_id":"4","last_reported":1750080429,"current_range_meters":20400,"station_id":"","pricing_plan_id":"cebpf4jnsgd1na2vs0mg"},{"bike_id":"a8f9e697-30cf-458f-bd47-e14782fac29b","system_id":"levelo_inurba_marseille","lat":43.3096,"lon":5.37428,"is_reserved":false,"is_disabled":false,"rental_uris":{"android":"levelo://app?vid=a8f9e697-30cf-458f-bd47-e14782fac29b","ios":"levelo://app?vid=a8f9e697-30cf-458f-bd47-e14782fac29b"},"vehicle_type_id":"4","last_reported":1750080429,"current_range_meters":20400,"station_id":"","pricing_plan_id":"cebpf4jnsgd1na2vs0mg"},{"bike_id":"63486806-75b5-407d-96c1-6e645b9762bf","system_id":"levelo_inurba_marseille","lat":43.30547,"lon":5.36553,"is_reserved":false,"is_disabled":false,"rental_uris":{"android":"levelo://app?vid=63486806-75b5-407d-96c1-6e645b9762bf","ios":"levelo://app?vid=63486806-75b5-407d-96c1-6e645b9762bf"},"vehicle_type_id":"4","last_reported":1750080429,"current_range_meters":20400,"station_id":"ce4bgs12rcd13ifvqcag","pricing_plan_id":"cebpf4jnsgd1na2vs0mg"},{"bike_id":"8c37b5fd-cac6-45ee-80ca-979f66f81efb","system_id":"levelo_inurba_marseille","lat":43.31504,"lon":5.37315,"is_reserved":false,"is_disabled":false,"rental_uris":{"android":"levelo://app?vid=8c37b5fd-cac6-45ee-80ca-979f66f81efb","ios":"levelo://app?vid=8c37b5fd-cac6-45ee-80ca-979f66f81efb"},"vehicle_type_id":"4","last_reported":1750080429,"current_range_meters":20400,"station_id":"ce4bgt12rcd13ifvqcd0","pricing_plan_id":"cebpf4jnsgd1na2vs0mg"},{"bike_id":"b95d0014-14ac-470c-9a34-8d3c00f12828","system_id":"levelo_inurba_marseille","lat":43.29,"lon":5.35611,"is_reserved":false,"is_disabled":false,"rental_uris":{"android":"levelo://app?vid=b95d0014-14ac-470c-9a34-8d3c00f12828","ios":"levelo://app?vid=b95d0014-14ac-470c-9a34-8d3c00f12828"},"vehicle_type_id":"4","last_reported":1750080429,"current_range_meters":20400,"station_id":"ce4bhb92rcd13ifvqen0","pricing_plan_id":"cebpf4jnsgd1na2vs0mg"},{"bike_id":"f1501383-0c54-4bdc-a395-17cc7b3f99e3","system_id":"levelo_inurba_marseille","lat":43.27389,"lon":5.36272,"is_reserved":false,"is_disabled":false,"rental_uris":{"android":"levelo://app?vid=f1501383-0c54-4bdc-a395-17cc7b3f99e3","ios":"levelo://app?vid=f1501383-0c54-4bdc-a395-17cc7b3f99e3"},"vehicle_type_id":"4","last_reported":1750080429,"current_range_meters":20400,"station_id":"ce4bhbh2rcd13ifvqeo0","pricing_plan_id":"cebpf4jnsgd1na2vs0mg"},{"bike_id":"14117a21-5ede-4e67-920a-7eb3274156d1","system_id":"levelo_inurba_marseille","lat":43.23959,"lon":5.36646,"is_reserved":false,"is_disabled":false,"rental_uris":{"android":"levelo://app?vid=14117a21-5ede-4e67-920a-7eb3274156d1","ios":"levelo://app?vid=14117a21-5ede-4e67-920a-7eb3274156d1"},"vehicle_type_id":"4","last_reported":1750080429,"current_range_meters":20400,"station_id":"ce4bhi12rcd13ifvqfp0","pricing_plan_id":"cebpf4jnsgd1na2vs0mg"},{"bike_id":"75ea499d-8c23-468a-96a9-46d9a68d2dc7","system_id":"levelo_inurba_marseille","lat":43.26499,"lon":5.39554,"is_reserved":false,"is_disabled":false,"rental_uris":{"android":"levelo://app?vid=75ea499d-8c23-468a-96a9-46d9a68d2dc7","ios":"levelo://app?vid=75ea499d-8c23-468a-96a9-46d9a68d2dc7"},