{"last_updated":1762769581,"ttl":60,"version":"2.2","data":{"bikes":[{"bike_id":"9f611ac1-6f6a-4437-9025-ea87f35606a4","system_id":"levelo_inurba_marseille","lat":43.28526,"lon":5.37759,"is_reserved":false,"is_disabled":false,"rental_uris":{"android":"levelo://app?vid=9f611ac1-6f6a-4437-9025-ea87f35606a4","ios":"levelo://app?vid=9f611ac1-6f6a-4437-9025-ea87f35606a4"},"vehicle_type_id":"4","last_reported":1762769581,"current_range_meters":2800,"station_id":"","pricing_plan_id":"cebpf4jnsgd1na2vs0mg"},{"bike_id":"9dda5635-a624-436d-9b12-22fb00320230","system_id":"levelo_inurba_marseille","lat":43.29322,"lon":5.37155,"is_reserved":false,"is_disabled":false,"rental_uris":{"android":"levelo://app?vid=9dda5635-a624-436d-9b12-22fb00320230","ios":"levelo://app?vid=9dda5635-a624-436d-9b12-22fb00320230"},"vehicle_type_id":"4","last_reported":1762769581,"current_range_meters":3200,"station_id":"","pricing_plan_id":"cebpf4jnsgd1na2vs0mg"},{"bike_id":"04f6e0bb-dbec-4a8f-ad51-3913dfd8663d","system_id":"levelo_inurba_marseille","lat":43.29818,"lon":5.38781,"is_reserved":false,"is_disabled":false,"rental_uris":{"android":"levelo://app?vid=04f6e0bb-dbec-4a8f-ad51-3913dfd8663d","ios":"levelo://app?vid=04f6e0bb-dbec-4a8f-ad51-3913dfd8663d"},"vehicle_type_id":"4","last_reported":1762769581,"current_range_meters":3200,"station_id":"","pricing_plan_id":"cebpf4jnsgd1na2vs0mg"},{"bike_id":"3a6491a3-f886-4df5-b4be-1fe51dd4fd20","system_id":"levelo_inurba_marseille","lat":43.27384,"lon":5.3623,"is_reserved":false,"is_disabled":false,"rental_uris":{"android":"levelo://app?vid=3a6491a3-f886-4df5-b4be-1fe51dd4fd20","ios":"levelo://app?vid=3a6491a3-f886-4df5-b4be-1fe51dd4fd20"},"vehicle_type_id":"4","last_reported":1762769581,"current_range_meters":3200,"station_id":"","pricing_plan_id":"cebpf4jnsgd1na2vs0mg"},{"bike_id":"f6a9555e-a2c8-427e-8a3e-5a883338c243","system_id":"levelo_inurba_marseille","lat":43.288649,"lon":5.425114,"is_reserved":false,"is_disabled":false,"rental_uris":{"android":"levelo://app?vid=f6a9555e-a2c8-427e-8a3e-5a883338c243","ios":"levelo://app?vid=f6a9555e-a2c8-427e-8a3e-5a883338c243"},"vehicle_type_id":"4","last_reported":1762769581,"current_range_meters":3200,"station_id":"st_d3b462108ojc7389ooeg","pricing_plan_id":"cebpf4jnsgd1na2vs0mg"},{"bike_id":"34031a1d-b834-4da4-bb4c-a04c1672e398","system_id":"levelo_inurba_marseille","lat":43.31692,"lon":5.40472,"is_reserved":false,"is_disabled":false,"rental_uris":{"android":"levelo://app?vid=34031a1d-b834-4da4-bb4c-a04c1672e398","ios":"levelo://app?vid=34031a1d-b834-4da4-bb4c-a04c1672e398"},"vehicle_type_id":"4","last_reported":1762769581,"current_range_meters":3600,"station_id":"ce4bh012rcd13ifvqd00","pricing_plan_id":"cebpf4jnsgd1na2vs0mg"},{"bike_id":"58a4a60c-b9e0-436f-a5d1-ad067d8e1cd1","system_id":"levelo_inurba_marseille","lat":43.25335,"lon":5.42173,"is_reserved":false,"is_disabled":false,"rental_uris":{"android":"levelo://app?vid=58a4a60c-b9e0-436f-a5d1-ad067d8e1cd1","ios":"levelo://app?vid=58a4a60c-b9e0-436f-a5d1-ad067d8e1cd1"},"vehicle_type_id":"4","last_reported":1762769581,"current_range_meters":3600,"station_id":"st_d2m65c5bi1j21697t3ng","pricing_plan_id":"cebpf4jnsgd1na2vs0mg"},{"bike_id":"8040d437-b793-4c7c-83dd-8a60b4a68d3a","system_id":"levelo_inurba_marseille","lat":43.259323,"lon":5.409168,"is_reserved":false,"is_disabled":true,"rental_uris":{"android":"levelo://app?vid=8040d437-b793-4c7c-83dd-8a60b4a68d3a","ios":"levelo://app?vid=8040d437-b793-4c7c-83dd-8a60b4a68d3a"},"vehicle_type_id":"4","last_reported":1762769581,"current_range_meters":3600,"station_id":"ce4bhm92rcd13ifvqglg","pricing_plan_id":"cebpf4jnsgd1na2vs0mg"},{"bike_id":"3b294fa9-3f9f-4381-a2a8-e3592d375a68","system_id":"levelo_inurba_marseille","lat":43.26709,"lon":5.3966,"is_reserved":false,"is_disabled":false,"rental_uris":{"android":"levelo://app?vid=3b294fa9-3f9f-4381-a2a8-e3592d375a68","ios":"levelo://app?vid=3b294fa9-3f9f-4381-a2a8-e3592d375a68"},"vehicle_type_id":"4","last_reported":1762769581,"current_range_meters":3600,"station_id":"","pricing_plan_id":"cebpf4jnsgd1na2vs0mg"},{"bike_id":"910cc3ae-7ba4-48e5-a244-931e2df10a06","system_id":"levelo_inurba_marseille","lat":43.27112,"lon":5.39272,"is_reserved":false,"is_disabled":false,"rental_uris":{"android":"levelo://app?vid=910cc3ae-7ba4-48e5-a244-931e2df10a06","ios":"levelo://app?vid=910cc3ae-7ba4-48e5-a244-931e2df10a06"},"vehicle_type_id":"4","last_reported":1762769581,"current_range_meters":3600,"station_id":"","pricing_plan_id":"cebpf4jnsgd1na2vs0mg"},{"bike_id":"321d43c2-a97c-419e-a110-a172b4ee23e9","system_id":"levelo_inurba_marseille","lat":43.261623,"lon":5.417772,"is_reserved":false,"is_disabled":false,"rental_uris":{"android":"levelo://app?vid=321d43c2-a97c-419e-a110-a172b4ee23e9","ios":"levelo://app?vid=321d43c2-a97c-419e-a110-a172b4ee23e9"},"vehicle_type_id":"4","last_reported":1762769581,"current_range_meters":4000,"station_id":"","pricing_plan_id":"cebpf4jnsgd1na2vs0mg"},{"bike_id":"063d8ea3-eac1-4d86-84b9-a0393ac5022f","system_id":"levelo_inurba_marseille","lat":43.28303,"lon":5.39015,"is_reserved":false,"is_disabled":true,"rental_uris":{"android":"levelo://app?vid=063d8ea3-eac1-4d86-84b9-a0393ac5022f","ios":"levelo://app?vid=063d8ea3-eac1-4d86-84b9-a0393ac5022f"},"vehicle_type_id":"4","last_reported":1762769581,"current_range_meters":4000,"station_id":"","pricing_plan_id":"cebpf4jnsgd1na2vs0mg"},{"bike_id":"c844113e-14a6-4a8e-888e-1422d895e633","system_id":"levelo_inurba_marseille","lat":43.259407,"lon":5.40901,"is_reserved":false,"is_disabled":false,"rental_uris":{"android":"levelo://app?vid=c844113e-14a6-4a8e-888e-1422d895e633","ios":"levelo://app?vid=c844113e-14a6-4a8e-888e-1422d895e633"},"vehicle_type_id":"4","last_reported":1762769581,"current_range_meters":4000,"station_id":"ce4bhm92rcd13ifvqglg","pricing_plan_id":"cebpf4jnsgd1na2vs0mg"},{"bike_id":"81911acb-0fc2-4400-889c-812346caaaf0","system_id":"levelo_inurba_marseille","lat":43.28443,"lon":5.39202,"is_reserved":false,"is_disabled":false,"rental_uris":{"android":"levelo://app?vid=81911acb-0fc2-4400-889c-812346caaaf0","ios":"levelo://app?vid=81911acb-0fc2-4400-889c-812346caaaf0"},"vehicle_type_id":"4","last_reported":1762769581,"current_range_meters":4000,"station_id":"ce4bhoh2rcd13ifvqh5g","pricing_plan_id":"cebpf4jnsgd1na2vs0mg"},{"bike_id":"b36c7388-867a-4a7a-abfa-18d78b13beb6","system_id":"levelo_inurba_marseille","lat":43.23156,"lon":5.43712,"is_reserved":false,"is_disabled":false,"rental_uris":{"android":"levelo://app?vid=b36c7388-867a-4a7a-abfa-18d78b13beb6","ios":"levelo://app?vid=b36c7388-867a-4a7a-abfa-18d78b13beb6"},"vehicle_type_id":"4","last_reported":1762769581,"current_range_meters":4400,"station_id":"ce4bhmp2rcd13ifvqgog","pricing_plan_id":"cebpf4jnsgd1na2vs0mg"},{"bike_id":"866b6a7f-05a9-4361-85a6-13ea71d268d5","system_id":"levelo_inurba_marseille","lat":43.29621,"lon":5.37729,"is_reserved":false,"is_disabled":false,"rental_uris":{"android":"levelo://app?vid=866b6a7f-05a9-4361-85a6-13ea71d268d5","ios":"levelo://app?vid=866b6a7f-05a9-4361-85a6-13ea71d268d5"},"vehicle_type_id":"4","last_reported":1762769581,"current_range_meters":4400,"station_id":"ce4bgi92rcd13ifvqb90","pricing_plan_id":"cebpf4jnsgd1na2vs0mg"},{"bike_id":"5cdb8250-cc17-4091-bc99-828f2a284ec9","system_id":"levelo_inurba_marseille","lat":43.25863,"lon":5.39899,"is_reserved":false,"is_disabled":false,"rental_uris":{"android":"levelo://app?vid=5cdb8250-cc17-4091-bc99-828f2a284ec9","ios":"levelo://app?vid=5cdb8250-cc17-4091-bc99-828f2a284ec9"},"vehicle_type_id":"4","last_reported":1762769581,"current_range_meters":4400,"station_id":"ce4bhl92rcd13ifvqghg","pricing_plan_id":"cebpf4jnsgd1na2vs0mg"},{"bike_id":"dce6c1e6-7f1a-4c82-96b4-8ba2a1930222","system_id":"levelo_inurba_marseille","lat":43.2832,"lon":5.39976,"is_reserved":false,"is_disabled":false,"rental_uris":{"android":"levelo://app?vid=dce6c1e6-7f1a-4c82-96b4-8ba2a1930222","ios":"levelo://app?vid=dce6c1e6-7f1a-4c82-96b4-8ba2a1930222"},"vehicle_type_id":"4","last_reported":1762769581,"current_range_meters":4800,"station_id":"","pricing_plan_id":"cebpf4jnsgd1na2vs0mg"},{"bike_id":"7e1604fc-6bf9-4624-aaec-f69b43a10dfd","system_id":"levelo_inurba_marseille","lat":43.26791,"lon":5.39441,"is_reserved":false,"is_disabled":false,"rental_uris":{"android":"levelo://app?vid=7e1604fc-6bf9-4624-aaec-f69b43a10dfd","ios":"levelo://app?vid=7e1604fc-6bf9-4624-aaec-f69b43a10dfd"},"vehicle_type_id":"4","last_reported":1762769581,"current_range_meters":4800,"station_id":"ce4bhh12rcd13ifvqfg0","pricing_plan_id":"cebpf4jnsgd1na2vs0mg"},{"bike_id":"d58162db-574a-44f0-b573-b59c9312a09d","system_id":"levelo_inurba_marseille","lat":43.28272,"lon":5.3506,"is_reserved":false,"is_disabled":true,"rental_uris":{"android":"levelo://app?vid=d58162db-574a-44f0-b573-b59c9312a09d","ios":"levelo://app?vid=d58162db-574a-44f0-b573-b59c9312a09d"},"vehicle_type_id":"4","last_reported":1762769581,"current_range_meters":4800,"station_id":"ce4bhbp2rcd13ifvqerg","pricing_plan_id":"cebpf4jnsgd1na2vs0mg"},{"bike_id":"870a9ad1-db35-4ab0-bc9a-84476efc6571","system_id":"levelo_inurba_marseille","lat":43.32799,"lon":5.42663,"is_reserved":false,"is_disabled":false,"rental_uris":{"android":"levelo://app?vid=870a9ad1-db35-4ab0-bc9a-84476efc6571","ios":"levelo://app?vid=870a9ad1-db35-4ab0-bc9a-84476efc6571"},"vehicle_type_id":"4","last_reported":1762769581,"current_range_meters":4800,"station_id":"","pricing_plan_id":"cebpf4jnsgd1na2vs0mg"},{"bike_id":"1c189e2a-7a0e-4c97-b2bb-89da3071334b","system_id":"levelo_inurba_marseille","lat":43.326578,"lon":5.409975,"is_reserved":false,"is_disabled":false,"rental_uris":{"android":"levelo://app?vid=1c189e2a-7a0e-4c97-b2bb-89da3071334b","ios":"levelo://app?vid=1c189e2a-7a0e-4c97-b2bb-89da3071334b"},"vehicle_type_id":"4","last_reported":1762769581,"current_range_meters":5600,"station_id":"ce4bhpp2rcd13ifvqhgg","pricing_plan_id":"cebpf4jnsgd1na2vs0mg"},{"bike_id":"e01d30d1-b5c9-4025-a250-e80c05028503","system_id":"levelo_inurba_marseille","lat":43.30641,"lon":5.40088,"is_reserved":false,"is_disabled":false,"rental_uris":{"android":"levelo://app?vid=e01d30d1-b5c9-4025-a250-e80c05028503","ios":"levelo://app?vid=e01d30d1-b5c9-4025-a250-e80c05028503"},"vehicle_type_id":"4","last_reported":1762769581,"current_range_meters":5600,"station_id":"ce4bh112rcd13ifvqda0","pricing_plan_id":"cebpf4jnsgd1na2vs0mg"},{"bike_id":"b05048b6-3636-4628-97b9-678771374061","system_id":"levelo_inurba_marseille","lat":43.30451,"lon":5.36744,"is_reserved":false,"is_disabled":false,"rental_uris":{"android":"levelo://app?vid=b05048b6-3636-4628-97b9-678771374061","ios":"levelo://app?vid=b05048b6-3636-4628-97b9-678771374061"},"vehicle_type_id":"4","last_reported":1762769581,"current_range_meters":5600,"station_id":"","pricing_plan_id":"cebpf4jnsgd1na2vs0mg"},{"bike_id":"e8a39ed3-9bc6-49db-aa7a-f17eda9f8064","system_id":"levelo_inurba_marseille","lat":43.26802,"lon":5.40267,"is_reserved":false,"is_disabled":false,"rental_uris":{"android":"levelo://app?vid=e8a39ed3-9bc6-49db-aa7a-f17eda9f8064","ios":"levelo://app?vid=e8a39ed3-9bc6-49db-aa7a-f17eda9f8064"},"vehicle_type_id":"4","last_reported":1762769581,"current_range_meters":5600,"station_id":"ce501612rcd8frsf0b60","pricing_plan_id":"cebpf4jnsgd1na2vs0mg"},{"bike_id":"308e49a2-83d1-44c9-8257-4edcd264e26c","system_id":"levelo_inurba_marseille","lat":43.29193,"lon":5.39328,"is_reserved":false,"is_disabled":false,"rental_uris":{"android":"levelo://app?vid=308e49a2-83d1-44c9-8257-4edcd264e26c","ios":"levelo://app?vid=308e49a2-83d1-44c9-8257-4edcd264e26c"},"vehicle_type_id":"4","last_reported":1762769581,"current_range_meters":6000,"station_id":"ce4bh192rcd13ifvqdd0","pricing_plan_id":"cebpf4jnsgd1na2vs0mg"},{"bike_id":"825a1957-d327-49da-97b3-2485c79c40e7","system_id":"levelo_inurba_marseille","lat":43.217495,"lon":5.346054,"is_reserved":false,"is_disabled":true,"rental_uris":{"android":"levelo://app?vid=825a1957-d327-49da-97b3-2485c79c40e7","ios":"levelo://app?vid=825a1957-d327-49da-97b3-2485c79c40e7"},"vehicle_type_id":"4","last_reported":1762769581,"current_range_meters":6000,"station_id":"st_cvj6r9ubvosntc0bgbag","pricing_plan_id":"cebpf4jnsgd1na2vs0mg"},{"bike_id":"1478ca2b-70a5-4541-b69d-0bf9318a6ed7","system_id":"levelo_inurba_marseille","lat":43.31495,"lon":5.37306,"is_reserved":false,"is_disabled":false,"rental_uris":{"android":"levelo://app?vid=1478ca2b-70a5-4541-b69d-0bf9318a6ed7","ios":"levelo://app?vid=1478ca2b-70a5-4541-b69d-0bf9318a6ed7"},"vehicle_type_id":"4","last_reported":1762769581,"current_range_meters":6000,"station_id":"ce4bgt12rcd13ifvqcd0","pricing_plan_id":"cebpf4jnsgd1na2vs0mg"},{"bike_id":"6a5cb119-1a64-415c-a949-ec0bb54d8799","system_id":"levelo_inurba_marseille","lat":43.33174,"lon":5.37675,"is_reserved":false,"is_disabled":false,"rental_uris":{"android":"levelo://app?vid=6a5cb119-1a64-415c-a949-ec0bb54d8799","ios":"levelo://app?vid=6a5cb119-1a64-415c-a949-ec0bb54d8799"},"vehicle_type_id":"4","last_reported":1762769581,"current_range_meters":6000,"station_id":"st_d46cu089ee8s73dldbu0","pricing_plan_id":"cebpf4jnsgd1na2vs0mg"},{"bike_id":"55960d12-7d91-4f5d-bf51-269b24a92b50","system_id":"levelo_inurba_marseille","lat":43.25825,"lon":5.39435,"is_reserved":false,"is_disabled":false,"rental_uris":{"android":"levelo://app?vid=55960d12-7d91-4f5d-bf51-269b24a92b50","ios":"levelo://app?vid=55960d12-7d91-4f5d-bf51-269b24a92b50"},"vehicle_type_id":"4","last_reported":1762769581,"current_range_meters":6000,"station_id":"ce4bhip2rcd13ifvqft0","pricing_plan_id":"cebpf4jnsgd1na2vs0mg"},{"bike_id":"8c27c03b-fa4d-4f53-a78b-9c07f2f1f500","system_id":"levelo_inurba_marseille","lat":43.29329,"lon":5.42453,"is_reserved":false,"is_disabled":true,"rental_uris":{"android":"levelo://app?vid=8c27c03b-fa4d-4f53-a78b-9c07f2f1f500","ios":"levelo://app?vid=8c27c03b-fa4d-4f53-a78b-9c07f2f1f500"},"vehicle_type_id":"4","last_reported":1762769581,"current_range_meters":6400,"station_id":"","pricing_plan_id":"cebpf4jnsgd1na2vs0mg"},{"bike_id":"4d87334b-7440-4f45-bdef-32c83fb16981","system_id":"levelo_inurba_marseille","lat":43.29786,"lon":5.370961,"is_reserved":false,"is_disabled":false,"rental_uris":{"android":"levelo://app?vid=4d87334b-7440-4f45-bdef-32c83fb16981","ios":"levelo://app?vid=4d87334b-7440-4f45-bdef-32c83fb16981"},"vehicle_type_id":"4","last_reported":1762769581,"current_range_meters":6400,"station_id":"ce4bgop2rcd13ifvqc1g","pricing_plan_id":"cebpf4jnsgd1na2vs0mg"},{"bike_id":"682120cb-f435-4ac8-97cc-a7e9a1aac5e8","system_id":"levelo_inurba_marseille","lat":43.27073,"lon":5.42277,"is_reserved":false,"is_disabled":false,"rental_uris":{"android":"levelo://app?vid=682120cb-f435-4ac8-97cc-a7e9a1aac5e8","ios":"levelo://app?vid=682120cb-f435-4ac8-97cc-a7e9a1aac5e8"},"vehicle_type_id":"4","last_reported":1762769581,"current_range_meters":6400,"station_id":"ce4bhk92rcd13ifvqgb0","pricing_plan_id":"cebpf4jnsgd1na2vs0mg"},{"bike_id":"03c1040d-0cd6-4d1f-add6-4023bd5b5777","system_id":"levelo_inurba_marseille","lat":43.25913,"lon":5.4089,"is_reserved":false,"is_disabled":false,"rental_uris":{"android":"levelo://app?vid=03c1040d-0cd6-4d1f-add6-4023bd5b5777","ios":"levelo://app?vid=03c1040d-0cd6-4d1f-add6-4023bd5b5777"},"vehicle_type_id":"4","last_reported":1762769581,"current_range_meters":6400,"station_id":"ce4bhm92rcd13ifvqglg","pricing_plan_id":"cebpf4jnsgd1na2vs0mg"},{"bike_id":"eebc9f8a-254a-4286-9970-d203c936264d","system_id":"levelo_inurba_marseille","lat":43.31653,"lon":5.37461,"is_reserved":false,"is_disabled":false,"rental_uris":{"android":"levelo://app?vid=eebc9f8a-254a-4286-9970-d203c936264d","ios":"levelo://app?vid=eebc9f8a-254a-4286-9970-d203c936264d"},"vehicle_type_id":"4","last_reported":1762769581,"current_range_meters":6400,"station_id":"","pricing_plan_id":"cebpf4jnsgd1na2vs0mg"},{"bike_id":"c1e5a122-89c3-4ef3-983b-07b99228e84c","system_id":"levelo_inurba_marseille","lat":43.28362,"lon":5.3863,"is_reserved":false,"is_disabled":false,"rental_uris":{"android":"levelo://app?vid=c1e5a122-89c3-4ef3-983b-07b99228e84c","ios":"levelo://app?vid=c1e5a122-89c3-4ef3-983b-07b99228e84c"},"vehicle_type_id":"4","last_reported":1762769581,"current_range_meters":6800,"station_id":"ce4bh492rcd13ifvqdvg","pricing_plan_id":"cebpf4jnsgd1na2vs0mg"},{"bike_id":"8dd1ed28-bfa7-4eb0-87f5-478259406c5a","system_id":"levelo_inurba_marseille","lat":43.29793,"lon":5.38098,"is_reserved":false,"is_disabled":false,"rental_uris":{"android":"levelo://app?vid=8dd1ed28-bfa7-4eb0-87f5-478259406c5a","ios":"levelo://app?vid=8dd1ed28-bfa7-4eb0-87f5-478259406c5a"},"vehicle_type_id":"4","last_reported":1762769581,"current_range_meters":6800,"station_id":"ce4bgip2rcd13ifvqbb0","pricing_plan_id":"cebpf4jnsgd1na2vs0mg"},{"bike_id":"15db09df-59b0-446a-87c5-e354a3319258","system_id":"levelo_inurba_marseille","lat":43.28481,"lon":5.48392,"is_reserved":false,"is_disabled":false,"rental_uris":{"android":"levelo://app?vid=15db09df-59b0-446a-87c5-e354a3319258","ios":"levelo://app?vid=15db09df-59b0-446a-87c5-e354a3319258"},"vehicle_type_id":"4","last_reported":1762769581,"current_range_meters":6800,"station_id":"","pricing_plan_id":"cebpf4jnsgd1na2vs0mg"},{"bike_id":"a468abfc-41a1-4cf8-84ac-466c31dd44ec","system_id":"levelo_inurba_marseille","lat":43.2677,"lon":5.39074,"is_reserved":false,"is_disabled":false,"rental_uris":{"android":"levelo://app?vid=a468abfc-41a1-4cf8-84ac-466c31dd44ec","ios":"levelo://app?vid=a468abfc-41a1-4cf8-84ac-466c31dd44ec"},"vehicle_type_id":"4","last_reported":1762769581,"current_range_meters":6800,"station_id":"","pricing_plan_id":"cebpf4jnsgd1na2vs0mg"},{"bike_id":"6f98b7a7-ae98-40be-aded-6fe2b547bfca","system_id":"levelo_inurba_marseille","lat":43.337444,"lon":5.374475,"is_reserved":false,"is_disabled":false,"rental_uris":{"android":"levelo://app?vid=6f98b7a7-ae98-40be-aded-6fe2b547bfca","ios":"levelo://app?vid=6f98b7a7-ae98-40be-aded-6fe2b547bfca"},"vehicle_type_id":"4","last_reported":1762769581,"current_range_meters":6800,"station_id":"","pricing_plan_id":"cebpf4jnsgd1na2vs0mg"},{"bike_id":"c1a8951c-0b8b-4e04-9556-ddc347871e56","system_id":"levelo_inurba_marseille","lat":43.33615,"lon":5.35422,"is_reserved":false,"is_disabled":false,"rental_uris":{"android":"levelo://app?vid=c1a8951c-0b8b-4e04-9556-ddc347871e56","ios":"levelo://app?vid=c1a8951c-0b8b-4e04-9556-ddc347871e56"},"vehicle_type_id":"4","last_reported":1762769581,"current_range_meters":6800,"station_id":"","pricing_plan_id":"cebpf4jnsgd1na2vs0mg"},{"bike_id":"21dcb4e2-bef4-415f-aa59-cd0b9e2cb07b","system_id":"levelo_inurba_marseille","lat":43.22808,"lon":5.43494,"is_reserved":false,"is_disabled":false,"rental_uris":{"android":"levelo://app?vid=21dcb4e2-bef4-415f-aa59-cd0b9e2cb07b","ios":"levelo://app?vid=21dcb4e2-bef4-415f-aa59-cd0b9e2cb07b"},"vehicle_type_id":"4","last_reported":1762769581,"current_range_meters":6800,"station_id":"","pricing_plan_id":"cebpf4jnsgd1na2vs0mg"},{"bike_id":"cfb3aa89-7dc2-442b-871a-5cb550504306","system_id":"levelo_inurba_marseille","lat":43.29614,"lon":5.37727,"is_reserved":false,"is_disabled":false,"rental_uris":{"android":"levelo://app?vid=cfb3aa89-7dc2-442b-871a-5cb550504306","ios":"levelo://app?vid=cfb3aa89-7dc2-442b-871a-5cb550504306"},"vehicle_type_id":"4","last_reported":1762769581,"current_range_meters":7200,"station_id":"ce4bgi92rcd13ifvqb90","pricing_plan_id":"cebpf4jnsgd1na2vs0mg"},{"bike_id":"16c91c78-aaed-418c-984a-daf01968f546","system_id":"levelo_inurba_marseille","lat":43.23152,"lon":5.43718,"is_reserved":false,"is_disabled":false,"rental_uris":{"android":"levelo://app?vid=16c91c78-aaed-418c-984a-daf01968f546","ios":"levelo://app?vid=16c91c78-aaed-418c-984a-daf01968f546"},"vehicle_type_id":"4","last_reported":1762769581,"current_range_meters":7200,"station_id":"ce4bhmp2rcd13ifvqgog","pricing_plan_id":"cebpf4jnsgd1na2vs0mg"},{"bike_id":"dc5ff696-ef26-4fb6-baa5-cf03461d60dd","system_id":"levelo_inurba_marseille","lat":43.26565,"lon":5.37253,"is_reserved":false,"is_disabled":false,"rental_uris":{"android":"levelo://app?vid=dc5ff696-ef26-4fb6-baa5-cf03461d60dd","ios":"levelo://app?vid=dc5ff696-ef26-4fb6-baa5-cf03461d60dd"},"vehicle_type_id":"4","last_reported":1762769581,"current_range_meters":8000,"station_id":"ce4bhg12rcd13ifvqf70","pricing_plan_id":"cebpf4jnsgd1na2vs0mg"},{"bike_id":"0d5eeceb-b970-4948-ba22-099c4a7653bd","system_id":"levelo_inurba_marseille","lat":43.296234,"lon":5.377313,"is_reserved":false,"is_disabled":false,"rental_uris":{"android":"levelo://app?vid=0d5eeceb-b970-4948-ba22-099c4a7653bd","ios":"levelo://app?vid=0d5eeceb-b970-4948-ba22-099c4a7653bd"},"vehicle_type_id":"4","last_reported":1762769581,"current_range_meters":8000,"station_id":"ce4bgi92rcd13ifvqb90","pricing_plan_id":"cebpf4jnsgd1na2vs0mg"},{"bike_id":"f67f33ef-23fe-4ff5-8a43-7b241a0de7da","system_id":"levelo_inurba_marseille","lat":43.32114,"lon":5.36775,"is_reserved":false,"is_disabled":false,"rental_uris":{"android":"levelo://app?vid=f67f33ef-23fe-4ff5-8a43-7b241a0de7da","ios":"levelo://app?vid=f67f33ef-23fe-4ff5-8a43-7b241a0de7da"},"vehicle_type_id":"4","last_reported":1762769581,"current_range_meters":8400,"station_id":"ce4bhrh2rcd13ifvqhug","pricing_plan_id":"cebpf4jnsgd1na2vs0mg"},{"bike_id":"bcb7664a-39c2-46f8-930f-41cebd3d0b86","system_id":"levelo_inurba_marseille","lat":43.2119,"lon":5.350746,"is_reserved":false,"is_disabled":true,"rental_uris":{"android":"levelo://app?vid=bcb7664a-39c2-46f8-930f-41cebd3d0b86","ios":"levelo://app?vid=bcb7664a-39c2-46f8-930f-41cebd3d0b86"},"vehicle_type_id":"4","last_reported":1762769581,"current_range_meters":8400,"station_id":"st_cvj6sg6p6f1abm77japg","pricing_plan_id":"cebpf4jnsgd1na2vs0mg"},{"bike_id":"c2872b73-c5a5-49bb-8619-0e6d00e69063","system_id":"levelo_inurba_marseille","lat":43.29196,"lon":5.393219,"is_reserved":false,"is_disabled":false,"rental_uris":{"android":"levelo://app?vid=c2872b73-c5a5-49bb-8619-0e6d00e69063","ios":"levelo://app?vid=c2872b73-c5a5-49bb-8619-0e6d00e69063"},"vehicle_type_id":"4","last_reported":1762769581,"current_range_meters":8400,"station_id":"ce4bh192rcd13ifvqdd0","pricing_plan_id":"cebpf4jnsgd1na2vs0mg"},{"bike_id":"6d663309-373d-4be9-a509-9a408d0d7fb6","system_id":"levelo_inurba_marseille","lat":43.296176,"lon":5.376961,"is_reserved":false,"is_disabled":false,"rental_uris":{"android":"levelo://app?vid=6d663309-373d-4be9-a509-9a408d0d7fb6","ios":"levelo://app?vid=6d663309-373d-4be9-a509-9a408d0d7fb6"},"vehicle_type_id":"4","last_reported":1762769581,"current_range_meters":8800,"station_id":"ce4bgi92rcd13ifvqb90","pricing_plan_id":"cebpf4jnsgd1na2vs0mg"},{"bike_id":"6abba11b-eca9-4bcf-be29-28c3321e79e9","system_id":"levelo_inurba_marseille","lat":43.26571,"lon":5.38999,"is_reserved":false,"is_disabled":false,"rental_uris":{"android":"levelo://app?vid=6abba11b-eca9-4bcf-be29-28c3321e79e9","ios":"levelo://app?vid=6abba11b-eca9-4bcf-be29-28c3321e79e9"},"vehicle_type_id":"4","last_reported":1762769581,"current_range_meters":8800,"station_id":"ce4bhe12rcd13ifvqf30","pricing_plan_id":"cebpf4jnsgd1na2vs0mg"},{"bike_id":"0048371b-78b8-4e41-b20f-3db69368ec80","system_id":"levelo_inurba_marseille","lat":43.2841,"lon":5.37515,"is_reserved":false,"is_disabled":true,"rental_uris":{"android":"levelo://app?vid=0048371b-78b8-4e41-b20f-3db69368ec80","ios":"levelo://app?vid=0048371b-78b8-4e41-b20f-3db69368ec80"},"vehicle_type_id":"4","last_reported":1762769581,"current_range_meters":8800,"station_id":"ce4bh412rcd13ifvqds0","pricing_plan_id":"cebpf4jnsgd1na2vs0mg"},{"bike_id":"d6907741-003a-4b7f-9dbb-039941ccc88e","system_id":"levelo_inurba_marseille","lat":43.31806,"lon":5.40974,"is_reserved":false,"is_disabled":false,"rental_uris":{"android":"levelo://app?vid=d6907741-003a-4b7f-9dbb-039941ccc88e","ios":"levelo://app?vid=d6907741-003a-4b7f-9dbb-039941ccc88e"},"vehicle_type_id":"4","last_reported":1762769581,"current_range_meters":8800,"station_id":"","pricing_plan_id":"cebpf4jnsgd1na2vs0mg"},{"bike_id":"d5d6ef90-f5ba-4362-a6be-af5b0859d68e","system_id":"levelo_inurba_marseille","lat":43.29515,"lon":5.39394,"is_reserved":false,"is_disabled":false,"rental_uris":{"android":"levelo://app?vid=d5d6ef90-f5ba-4362-a6be-af5b0859d68e","ios":"levelo://app?vid=d5d6ef90-f5ba-4362-a6be-af5b0859d68e"},"vehicle_type_id":"4","last_reported":1762769581,"current_range_meters":8800,"station_id":"ce4bh292rcd13ifvqdf0","pricing_plan_id":"cebpf4jnsgd1na2vs0mg"},{"bike_id":"5268660e-26a7-4210-949c-f92d460f9bec","system_id":"levelo_inurba_marseille","lat":43.30947,"lon":5.39039,"is_reserved":false,"is_disabled":false,"rental_uris":{"android":"levelo://app?vid=5268660e-26a7-4210-949c-f92d460f9bec","ios":"levelo://app?vid=5268660e-26a7-4210-949c-f92d460f9bec"},"vehicle_type_id":"4","last_reported":1762769581,"current_range_meters":8800,"station_id":"ce4bgup2rcd13ifvqco0","pricing_plan_id":"cebpf4jnsgd1na2vs0mg"},{"bike_id":"320f268f-0a9c-4e43-b653-d75f8f56ca84","system_id":"levelo_inurba_marseille","lat":43.336056,"lon":5.41035,"is_reserved":false,"is_disabled":false,"rental_uris":{"android":"levelo://app?vid=320f268f-0a9c-4e43-b653-d75f8f56ca84","ios":"levelo://app?vid=320f268f-0a9c-4e43-b653-d75f8f56ca84"},"vehicle_type_id":"4","last_reported":1762769581,"current_range_meters":8800,"station_id":"ce4bhqh2rcd13ifvqhmg","pricing_plan_id":"cebpf4jnsgd1na2vs0mg"},{"bike_id":"0d8ce77a-91eb-4f37-aa56-20c967d92953","system_id":"levelo_inurba_marseille","lat":43.30938,"lon":5.40149,"is_reserved":false,"is_disabled":false,"rental_uris":{"android":"levelo://app?vid=0d8ce77a-91eb-4f37-aa56-20c967d92953","ios":"levelo://app?vid=0d8ce77a-91eb-4f37-aa56-20c967d92953"},"vehicle_type_id":"4","last_reported":1762769581,"current_range_meters":8800,"station_id":"ce4bgvp2rcd13ifvqct0","pricing_plan_id":"cebpf4jnsgd1na2vs0mg"},{"bike_id":"04e196a2-320c-4aa9-ab08-8da5b5ae100a","system_id":"levelo_inurba_marseille","lat":43.26782,"lon":5.39418,"is_reserved":false,"is_disabled":false,"rental_uris":{"android":"levelo://app?vid=04e196a2-320c-4aa9-ab08-8da5b5ae100a","ios":"levelo://app?vid=04e196a2-320c-4aa9-ab08-8da5b5ae100a"},"vehicle_type_id":"4","last_reported":1762769581,"current_range_meters":8800,"station_id":"ce4bhh12rcd13ifvqfg0","pricing_plan_id":"cebpf4jnsgd1na2vs0mg"},{"bike_id":"5997c6b0-b0f4-4848-a8f1-63ca201df211","system_id":"levelo_inurba_marseille","lat":43.3394,"lon":5.4151,"is_reserved":false,"is_disabled":false,"rental_uris":{"android":"levelo://app?vid=5997c6b0-b0f4-4848-a8f1-63ca201df211","ios":"levelo://app?vid=5997c6b0-b0f4-4848-a8f1-63ca201df211"},"vehicle_type_id":"4","last_reported":1762769581,"current_range_meters":8800,"station_id":"","pricing_plan_id":"cebpf4jnsgd1na2vs0mg"},{"bike_id":"bfff8a5c-ac86-44da-af63-97b996025461","system_id":"levelo_inurba_marseille","lat":43.2937,"lon":5.37857,"is_reserved":false,"is_disabled":false,"rental_uris":{"android":"levelo://app?vid=bfff8a5c-ac86-44da-af63-97b996025461","ios":"levelo://app?vid=bfff8a5c-ac86-44da-af63-97b996025461"},"vehicle_type_id":"4","last_reported":1762769581,"current_range_meters":9200,"station_id":"ce4bgjh2rcd13ifvqbf0","pricing_plan_id":"cebpf4jnsgd1na2vs0mg"},{"bike_id":"e5483597-d10d-4437-ba0c-12982f3a50a6","system_id":"levelo_inurba_marseille","lat":43.26575,"lon":5.38995,"is_reserved":false,"is_disabled":false,"rental_uris":{"android":"levelo://app?vid=e5483597-d10d-4437-ba0c-12982f3a50a6","ios":"levelo://app?vid=e5483597-d10d-4437-ba0c-12982f3a50a6"},"vehicle_type_id":"4","last_reported":1762769581,"current_range_meters":9200,"station_id":"ce4bhe12rcd13ifvqf30","pricing_plan_id":"cebpf4jnsgd1na2vs0mg"},{"bike_id":"ffec7cd0-bc82-463a-9300-bf2f7f46426e","system_id":"levelo_inurba_marseille","lat":43.28994,"lon":5.35607,"is_reserved":false,"is_disabled":false,"rental_uris":{"android":"levelo://app?vid=ffec7cd0-bc82-463a-9300-bf2f7f46426e","ios":"levelo://app?vid=ffec7cd0-bc82-463a-9300-bf2f7f46426e"},"vehicle_type_id":"4","last_reported":1762769581,"current_range_meters":9200,"station_id":"ce4bhb92rcd13ifvqen0","pricing_plan_id":"cebpf4jnsgd1na2vs0mg"},{"bike_id":"4eac3eb9-9ac1-4ff6-ad57-ed359befeed2","system_id":"levelo_inurba_marseille","lat":43.2287,"lon":5.40242,"is_reserved":false,"is_disabled":false,"rental_uris":{"android":"levelo://app?vid=4eac3eb9-9ac1-4ff6-ad57-ed359befeed2","ios":"levelo://app?vid=4eac3eb9-9ac1-4ff6-ad57-ed359befeed2"},"vehicle_type_id":"4","last_reported":1762769581,"current_range_meters":9200,"station_id":"","pricing_plan_id":"cebpf4jnsgd1na2vs0mg"},{"bike_id":"786e0787-cbd6-411e-ac80-95402ac639b7","system_id":"levelo_inurba_marseille","lat":43.29024,"lon":5.38646,"is_reserved":false,"is_disabled":false,"rental_uris":{"android":"levelo://app?vid=786e0787-cbd6-411e-ac80-95402ac639b7","ios":"levelo://app?vid=786e0787-cbd6-411e-ac80-95402ac639b7"},"vehicle_type_id":"4","last_reported":1762769581,"current_range_meters":9600,"station_id":"ce4bh4p2rcd13ifvqe0g","pricing_plan_id":"cebpf4jnsgd1na2vs0mg"},{"bike_id":"50da1aee-7d19-41f6-8a84-c20fda02cba2","system_id":"levelo_inurba_marseille","lat":43.27336,"lon":5.39066,"is_reserved":false,"is_disabled":false,"rental_uris":{"android":"levelo://app?vid=50da1aee-7d19-41f6-8a84-c20fda02cba2","ios":"levelo://app?vid=50da1aee-7d19-41f6-8a84-c20fda02cba2"},"vehicle_type_id":"4","last_reported":1762769581,"current_range_meters":9600,"station_id":"ce4bhgp2rcd13ifvqfe0","pricing_plan_id":"cebpf4jnsgd1na2vs0mg"},{"bike_id":"296b35f4-bf34-48bd-a614-0084f905815f","system_id":"levelo_inurba_marseille","lat":43.29929,"lon":5.36376,"is_reserved":false,"is_disabled":false,"rental_uris":{"android":"levelo://app?vid=296b35f4-bf34-48bd-a614-0084f905815f","ios":"levelo://app?vid=296b35f4-bf34-48bd-a614-0084f905815f"},"vehicle_type_id":"4","last_reported":1762769581,"current_range_meters":9600,"station_id":"","pricing_plan_id":"cebpf4jnsgd1na2vs0mg"},{"bike_id":"d8a2355e-a776-4b85-8a3e-22368796688d","system_id":"levelo_inurba_marseille","lat":43.30794,"lon":5.36883,"is_reserved":false,"is_disabled":false,"rental_uris":{"android":"levelo://app?vid=d8a2355e-a776-4b85-8a3e-22368796688d","ios":"levelo://app?vid=d8a2355e-a776-4b85-8a3e-22368796688d"},"vehicle_type_id":"4","last_reported":1762769581,"current_range_meters":9600,"station_id":"","pricing_plan_id":"cebpf4jnsgd1na2vs0mg"},{"bike_id":"a71871fb-5c9d-4f09-9d89-3c8ba06ee97d","system_id":"levelo_inurba_marseille","lat":43.22566,"lon":5.41621,"is_reserved":false,"is_disabled":false,"rental_uris":{"android":"levelo://app?vid=a71871fb-5c9d-4f09-9d89-3c8ba06ee97d","ios":"levelo://app?vid=a71871fb-5c9d-4f09-9d89-3c8ba06ee97d"},"vehicle_type_id":"4","last_reported":1762769581,"current_range_meters":10000,"station_id":"st_d2o4gvlbi1j2169b742g","pricing_plan_id":"cebpf4jnsgd1na2vs0mg"},{"bike_id":"1c68d6e6-cce0-44cb-a781-43a39a3ee70a","system_id":"levelo_inurba_marseille","lat":43.30304,"lon":5.39207,"is_reserved":false,"is_disabled":true,"rental_uris":{"android":"levelo://app?vid=1c68d6e6-cce0-44cb-a781-43a39a3ee70a","ios":"levelo://app?vid=1c68d6e6-cce0-44cb-a781-43a39a3ee70a"},"vehicle_type_id":"4","last_reported":1762769581,"current_range_meters":10000,"station_id":"ce4bgkh2rcd13ifvqbk0","pricing_plan_id":"cebpf4jnsgd1na2vs0mg"},{"bike_id":"970709d9-5b24-44bb-beb3-4dbbfc3d4098","system_id":"levelo_inurba_marseille","lat":43.287179,"lon":5.399819,"is_reserved":false,"is_disabled":true,"rental_uris":{"android":"levelo://app?vid=970709d9-5b24-44bb-beb3-4dbbfc3d4098","ios":"levelo://app?vid=970709d9-5b24-44bb-beb3-4dbbfc3d4098"},"vehicle_type_id":"4","last_reported":1762769581,"current_range_meters":10000,"station_id":"ce4bho92rcd13ifvqh3g","pricing_plan_id":"cebpf4jnsgd1na2vs0mg"},{"bike_id":"b182d1b9-20c3-47c7-94a5-bbce8d941b24","system_id":"levelo_inurba_marseille","lat":43.23144,"lon":5.43708,"is_reserved":false,"is_disabled":false,"rental_uris":{"android":"levelo://app?vid=b182d1b9-20c3-47c7-94a5-bbce8d941b24","ios":"levelo://app?vid=b182d1b9-20c3-47c7-94a5-bbce8d941b24"},"vehicle_type_id":"4","last_reported":1762769581,"current_range_meters":10000,"station_id":"ce4bhmp2rcd13ifvqgog","pricing_plan_id":"cebpf4jnsgd1na2vs0mg"},{"bike_id":"6638d58e-d5eb-4975-9864-1daf403fad4c","system_id":"levelo_inurba_marseille","lat":43.31228,"lon":5.36852,"is_reserved":false,"is_disabled":false,"rental_uris":{"android":"levelo://app?vid=6638d58e-d5eb-4975-9864-1daf403fad4c","ios":"levelo://app?vid=6638d58e-d5eb-4975-9864-1daf403fad4c"},"vehicle_type_id":"4","last_reported":1762769581,"current_range_meters":10000,"station_id":"ce4bgl92rcd13ifvqbq0","pricing_plan_id":"cebpf4jnsgd1na2vs0mg"},{"bike_id":"9b371437-79fe-44e6-aef3-ed61671d7b25","system_id":"levelo_inurba_marseille","lat":43.2378,"lon":5.36629,"is_reserved":false,"is_disabled":false,"rental_uris":{"android":"levelo://app?vid=9b371437-79fe-44e6-aef3-ed61671d7b25","ios":"levelo://app?vid=9b371437-79fe-44e6-aef3-ed61671d7b25"},"vehicle_type_id":"4","last_reported":1762769581,"current_range_meters":10000,"station_id":"st_d3nk18o9ro0c73en2l3g","pricing_plan_id":"cebpf4jnsgd1na2vs0mg"},{"bike_id":"ee931cc9-cd7f-4dbb-9e6c-ad6d4dac686b","system_id":"levelo_inurba_marseille","lat":43.32097,"lon":5.36797,"is_reserved":false,"is_disabled":false,"rental_uris":{"android":"levelo://app?vid=ee931cc9-cd7f-4dbb-9e6c-ad6d4dac686b","ios":"levelo://app?vid=ee931cc9-cd7f-4dbb-9e6c-ad6d4dac686b"},"vehicle_type_id":"4","last_reported":1762769581,"current_range_meters":10000,"station_id":"ce4bhrh2rcd13ifvqhug","pricing_plan_id":"cebpf4jnsgd1na2vs0mg"},{"bike_id":"bd7a8cc7-0ed2-4d39-b560-9cdd894a0d6a","system_id":"levelo_inurba_marseille","lat":43.28932,"lon":5.38409,"is_reserved":false,"is_disabled":false,"rental_uris":{"android":"levelo://app?vid=bd7a8cc7-0ed2-4d39-b560-9cdd894a0d6a","ios":"levelo://app?vid=bd7a8cc7-0ed2-4d39-b560-9cdd894a0d6a"},"vehicle_type_id":"4","last_reported":1762769581,"current_range_meters":10800,"station_id":"","pricing_plan_id":"cebpf4jnsgd1na2vs0mg"},{"bike_id":"1139d791-4fe5-49fb-bace-99fdab3474e4","system_id":"levelo_inurba_marseille","lat":43.30307,"lon":5.36886,"is_reserved":false,"is_disabled":false,"rental_uris":{"android":"levelo://app?vid=1139d791-4fe5-49fb-bace-99fdab3474e4","ios":"levelo://app?vid=1139d791-4fe5-49fb-bace-99fdab3474e4"},"vehicle_type_id":"4","last_reported":1762769581,"current_range_meters":10800,"station_id":"ce4bgqh2rcd13ifvqc5g","pricing_plan_id":"cebpf4jnsgd1na2vs0mg"},{"bike_id":"d9d91017-19e5-4474-b0f8-c613656a4a3a","system_id":"levelo_inurba_marseille","lat":43.28413,"lon":5.37528,"is_reserved":false,"is_disabled":true,"rental_uris":{"android":"levelo://app?vid=d9d91017-19e5-4474-b0f8-c613656a4a3a","ios":"levelo://app?vid=d9d91017-19e5-4474-b0f8-c613656a4a3a"},"vehicle_type_id":"4","last_reported":1762769581,"current_range_meters":10800,"station_id":"ce4bh412rcd13ifvqds0","pricing_plan_id":"cebpf4jnsgd1na2vs0mg"},{"bike_id":"d32acf6f-21aa-4fbf-bed6-33d296ca0f9f","system_id":"levelo_inurba_marseille","lat":43.21759,"lon":5.34602,"is_reserved":false,"is_disabled":false,"rental_uris":{"android":"levelo://app?vid=d32acf6f-21aa-4fbf-bed6-33d296ca0f9f","ios":"levelo://app?vid=d32acf6f-21aa-4fbf-bed6-33d296ca0f9f"},"vehicle_type_id":"4","last_reported":1762769581,"current_range_meters":10800,"station_id":"st_cvj6r9ubvosntc0bgbag","pricing_plan_id":"cebpf4jnsgd1na2vs0mg"},{"bike_id":"b6ba799f-93a0-474d-970a-cd786094f7da","system_id":"levelo_inurba_marseille","lat":43.28477,"lon":5.3842,"is_reserved":false,"is_disabled":true,"rental_uris":{"android":"levelo://app?vid=b6ba799f-93a0-474d-970a-cd786094f7da","ios":"levelo://app?vid=b6ba799f-93a0-474d-970a-cd786094f7da"},"vehicle_type_id":"4","last_reported":1762769581,"current_range_meters":10800,"station_id":"ce4bh512rcd13ifvqe3g","pricing_plan_id":"cebpf4jnsgd1na2vs0mg"},{"bike_id":"683b85db-4db7-402b-99fc-ef7871001ccc","system_id":"levelo_inurba_marseille","lat":43.26558,"lon":5.39006,"is_reserved":false,"is_disabled":false,"rental_uris":{"android":"levelo://app?vid=683b85db-4db7-402b-99fc-ef7871001ccc","ios":"levelo://app?vid=683b85db-4db7-402b-99fc-ef7871001ccc"},"vehicle_type_id":"4","last_reported":1762769581,"current_range_meters":10800,"station_id":"ce4bhe12rcd13ifvqf30","pricing_plan_id":"cebpf4jnsgd1na2vs0mg"},{"bike_id":"ccae0f86-2f92-46a2-86e3-fc35beeaeb0c","system_id":"levelo_inurba_marseille","lat":43.312228,"lon":5.368642,"is_reserved":false,"is_disabled":false,"rental_uris":{"android":"levelo://app?vid=ccae0f86-2f92-46a2-86e3-fc35beeaeb0c","ios":"levelo://app?vid=ccae0f86-2f92-46a2-86e3-fc35beeaeb0c"},"vehicle_type_id":"4","last_reported":1762769581,"current_range_meters":10800,"station_id":"ce4bgl92rcd13ifvqbq0","pricing_plan_id":"cebpf4jnsgd1na2vs0mg"},{"bike_id":"9340ce7b-5e0d-47b4-908b-9509c17f1dcf","system_id":"levelo_inurba_marseille","lat":43.2962,"lon":5.37736,"is_reserved":false,"is_disabled":false,"rental_uris":{"android":"levelo://app?vid=9340ce7b-5e0d-47b4-908b-9509c17f1dcf","ios":"levelo://app?vid=9340ce7b-5e0d-47b4-908b-9509c17f1dcf"},"vehicle_type_id":"4","last_reported":1762769581,"current_range_meters":10800,"station_id":"ce4bgi92rcd13ifvqb90","pricing_plan_id":"cebpf4jnsgd1na2vs0mg"},{"bike_id":"a75768ff-0419-4a9e-b2e1-91bc6e46b6c0","system_id":"levelo_inurba_marseille","lat":43.28265,"lon":5.35055,"is_reserved":false,"is_disabled":false,"rental_uris":{"android":"levelo://app?vid=a75768ff-0419-4a9e-b2e1-91bc6e46b6c0","ios":"levelo://app?vid=a75768ff-0419-4a9e-b2e1-91bc6e46b6c0"},"vehicle_type_id":"4","last_reported":1762769581,"current_range_meters":10800,"station_id":"ce4bhbp2rcd13ifvqerg","pricing_plan_id":"cebpf4jnsgd1na2vs0mg"},{"bike_id":"c3dc2564-bae0-4dbb-b241-c4a633b88120","system_id":"levelo_inurba_marseille","lat":43.29304,"lon":5.37172,"is_reserved":false,"is_disabled":false,"rental_uris":{"android":"levelo://app?vid=c3dc2564-bae0-4dbb-b241-c4a633b88120","ios":"levelo://app?vid=c3dc2564-bae0-4dbb-b241-c4a633b88120"},"vehicle_type_id":"4","last_reported":1762769581,"current_range_meters":10800,"station_id":"ce4bgh92rcd13ifvqb40","pricing_plan_id":"cebpf4jnsgd1na2vs0mg"},{"bike_id":"f08621f1-92b2-4985-8a3a-96dd283a7c2b","system_id":"levelo_inurba_marseille","lat":43.31354,"lon":5.37932,"is_reserved":false,"is_disabled":false,"rental_uris":{"android":"levelo://app?vid=f08621f1-92b2-4985-8a3a-96dd283a7c2b","ios":"levelo://app?vid=f08621f1-92b2-4985-8a3a-96dd283a7c2b"},"vehicle_type_id":"4","last_reported":1762769581,"current_range_meters":10800,"station_id":"","pricing_plan_id":"cebpf4jnsgd1na2vs0mg"},{"bike_id":"382f597e-181c-4839-b1de-04339df9aa55","system_id":"levelo_inurba_marseille","lat":43.26805,"lon":5.40263,"is_reserved":false,"is_disabled":false,"rental_uris":{"android":"levelo://app?vid=382f597e-181c-4839-b1de-04339df9aa55","ios":"levelo://app?vid=382f597e-181c-4839-b1de-04339df9aa55"},"vehicle_type_id":"4","last_reported":1762769581,"current_range_meters":11200,"station_id":"ce501612rcd8frsf0b60","pricing_plan_id":"cebpf4jnsgd1na2vs0mg"},{"bike_id":"a274914b-c5b0-46b2-9fe3-8151f6638f0f","system_id":"levelo_inurba_marseille","lat":43.25936,"lon":5.40904,"is_reserved":false,"is_disabled":false,"rental_uris":{"android":"levelo://app?vid=a274914b-c5b0-46b2-9fe3-8151f6638f0f","ios":"levelo://app?vid=a274914b-c5b0-46b2-9fe3-8151f6638f0f"},"vehicle_type_id":"4","last_reported":1762769581,"current_range_meters":11200,"station_id":"ce4bhm92rcd13ifvqglg","pricing_plan_id":"cebpf4jnsgd1na2vs0mg"},{"bike_id":"3f229283-4156-40f5-8b33-733d496807b4","system_id":"levelo_inurba_marseille","lat":43.29282,"lon":5.37286,"is_reserved":false,"is_disabled":false,"rental_uris":{"android":"levelo://app?vid=3f229283-4156-40f5-8b33-733d496807b4","ios":"levelo://app?vid=3f229283-4156-40f5-8b33-733d496807b4"},"vehicle_type_id":"4","last_reported":1762769581,"current_range_meters":11200,"station_id":"","pricing_plan_id":"cebpf4jnsgd1na2vs0mg"},{"bike_id":"10de2418-70a8-4022-b7da-1b7dd0f8ea83","system_id":"levelo_inurba_marseille","lat":43.29369,"lon":5.37848,"is_reserved":false,"is_disabled":false,"rental_uris":{"android":"levelo://app?vid=10de2418-70a8-4022-b7da-1b7dd0f8ea83","ios":"levelo://app?vid=10de2418-70a8-4022-b7da-1b7dd0f8ea83"},"vehicle_type_id":"4","last_reported":1762769581,"current_range_meters":11200,"station_id":"ce4bgjh2rcd13ifvqbf0","pricing_plan_id":"cebpf4jnsgd1na2vs0mg"},{"bike_id":"b4cb9bc3-2674-422b-8c74-5594292dd02e","system_id":"levelo_inurba_marseille","lat":43.27529,"lon":5.37514,"is_reserved":false,"is_disabled":false,"rental_uris":{"android":"levelo://app?vid=b4cb9bc3-2674-422b-8c74-5594292dd02e","ios":"levelo://app?vid=b4cb9bc3-2674-422b-8c74-5594292dd02e"},"vehicle_type_id":"4","last_reported":1762769581,"current_range_meters":11200,"station_id":"","pricing_plan_id":"cebpf4jnsgd1na2vs0mg"},{"bike_id":"080f45dc-b57e-461f-9fda-89984f522f0a","system_id":"levelo_inurba_marseille","lat":43.259372,"lon":5.40911,"is_reserved":false,"is_disabled":false,"rental_uris":{"android":"levelo://app?vid=080f45dc-b57e-461f-9fda-89984f522f0a","ios":"levelo://app?vid=080f45dc-b57e-461f-9fda-89984f522f0a"},"vehicle_type_id":"4","last_reported":1762769581,"current_range_meters":11200,"station_id":"ce4bhm92rcd13ifvqglg","pricing_plan_id":"cebpf4jnsgd1na2vs0mg"},{"bike_id":"a69dd88c-c11d-4cbd-af5f-9c836f55e711","system_id":"levelo_inurba_marseille","lat":43.295577,"lon":5.422962,"is_reserved":false,"is_disabled":false,"rental_uris":{"android":"levelo://app?vid=a69dd88c-c11d-4cbd-af5f-9c836f55e711","ios":"levelo://app?vid=a69dd88c-c11d-4cbd-af5f-9c836f55e711"},"vehicle_type_id":"4","last_reported":1762769581,"current_range_meters":11200,"station_id":"ce4bhph2rcd13ifvqhdg","pricing_plan_id":"cebpf4jnsgd1na2vs0mg"},{"bike_id":"46098262-b6fb-43bf-bbce-4134e8bd462e","system_id":"levelo_inurba_marseille","lat":43.23962,"lon":5.36626,"is_reserved":false,"is_disabled":false,"rental_uris":{"android":"levelo://app?vid=46098262-b6fb-43bf-bbce-4134e8bd462e","ios":"levelo://app?vid=46098262-b6fb-43bf-bbce-4134e8bd462e"},"vehicle_type_id":"4","last_reported":1762769581,"current_range_meters":11600,"station_id":"ce4bhi12rcd13ifvqfp0","pricing_plan_id":"cebpf4jnsgd1na2vs0mg"},{"bike_id":"8142a16a-13a8-4636-80c8-f6fe96871316","system_id":"levelo_inurba_marseille","lat":43.24401,"lon":5.3707,"is_reserved":false,"is_disabled":false,"rental_uris":{"android":"levelo://app?vid=8142a16a-13a8-4636-80c8-f6fe96871316","ios":"levelo://app?vid=8142a16a-13a8-4636-80c8-f6fe96871316"},"vehicle_type_id":"4","last_reported":1762769581,"current_range_meters":11600,"station_id":"ce4bhhh2rcd13ifvqfk0","pricing_plan_id":"cebpf4jnsgd1na2vs0mg"},{"bike_id":"07618fb4-fdf4-452a-a76e-4b0defae3541","system_id":"levelo_inurba_marseille","lat":43.22537,"lon":5.34834,"is_reserved":false,"is_disabled":false,"rental_uris":{"android":"levelo://app?vid=07618fb4-fdf4-452a-a76e-4b0defae3541","ios":"levelo://app?vid=07618fb4-fdf4-452a-a76e-4b0defae3541"},"vehicle_type_id":"4","last_reported":1762769581,"current_range_meters":11600,"station_id":"","pricing_plan_id":"cebpf4jnsgd1na2vs0mg"},{"bike_id":"dcfad8f4-2cd6-4912-99b0-ab83fb113477","system_id":"levelo_inurba_marseille","lat":43.26572,"lon":5.38996,"is_reserved":false,"is_disabled":false,"rental_uris":{"android":"levelo://app?vid=dcfad8f4-2cd6-4912-99b0-ab83fb113477","ios":"levelo://app?vid=dcfad8f4-2cd6-4912-99b0-ab83fb113477"},"vehicle_type_id":"4","last_reported":1762769581,"current_range_meters":11600,"station_id":"ce4bhe12rcd13ifvqf30","pricing_plan_id":"cebpf4jnsgd1na2vs0mg"},{"bike_id":"77dd386a-c491-4903-b512-c2486567c465","system_id":"levelo_inurba_marseille","lat":43.28976,"lon":5.36637,"is_reserved":false,"is_disabled":false,"rental_uris":{"android":"levelo://app?vid=77dd386a-c491-4903-b512-c2486567c465","ios":"levelo://app?vid=77dd386a-c491-4903-b512-c2486567c465"},"vehicle_type_id":"4","last_reported":1762769581,"current_range_meters":11600,"station_id":"","pricing_plan_id":"cebpf4jnsgd1na2vs0mg"},{"bike_id":"82bdd151-9574-4b21-92d4-d1ca7f2510bb","system_id":"levelo_inurba_marseille","lat":43.29877,"lon":5.36264,"is_reserved":false,"is_disabled":false,"rental_uris":{"android":"levelo://app?vid=82bdd151-9574-4b21-92d4-d1ca7f2510bb","ios":"levelo://app?vid=82bdd151-9574-4b21-92d4-d1ca7f2510bb"},"vehicle_type_id":"4","last_reported":1762769581,"current_range_meters":12000,"station_id":"ce4bgpp2rcd13ifvqc3g","pricing_plan_id":"cebpf4jnsgd1na2vs0mg"},{"bike_id":"4a7e2a87-1f25-4152-8095-b66c9fec7995","system_id":"levelo_inurba_marseille","lat":43.308896,"lon":5.371875,"is_reserved":false,"is_disabled":false,"rental_uris":{"android":"levelo://app?vid=4a7e2a87-1f25-4152-8095-b66c9fec7995","ios":"levelo://app?vid=4a7e2a87-1f25-4152-8095-b66c9fec7995"},"vehicle_type_id":"4","last_reported":1762769581,"current_range_meters":12000,"station_id":"ce4bguh2rcd13ifvqckg","pricing_plan_id":"cebpf4jnsgd1na2vs0mg"},{"bike_id":"ab4ac132-5519-4aac-ac12-8b8c2929bb7e","system_id":"levelo_inurba_marseille","lat":43.32302,"lon":5.38493,"is_reserved":false,"is_disabled":false,"rental_uris":{"android":"levelo://app?vid=ab4ac132-5519-4aac-ac12-8b8c2929bb7e","ios":"levelo://app?vid=ab4ac132-5519-4aac-ac12-8b8c2929bb7e"},"vehicle_type_id":"4","last_reported":1762769581,"current_range_meters":12000,"station_id":"st_d45171o9ee8s73djdqug","pricing_plan_id":"cebpf4jnsgd1na2vs0mg"},{"bike_id":"f6b2fed1-0ca2-423d-8dec-4ae2abcb7d8f","system_id":"levelo_inurba_marseille","lat":43.30743,"lon":5.4246,"is_reserved":false,"is_disabled":false,"rental_uris":{"android":"levelo://app?vid=f6b2fed1-0ca2-423d-8dec-4ae2abcb7d8f","ios":"levelo://app?vid=f6b2fed1-0ca2-423d-8dec-4ae2abcb7d8f"},"vehicle_type_id":"4","last_reported":1762769581,"current_range_meters":12000,"station_id":"st_cvj6ca6bvosntc0bfgr0","pricing_plan_id":"cebpf4jnsgd1na2vs0mg"},{"bike_id":"cf41bac8-b3bf-4d78-b58b-1504370da1f3","system_id":"levelo_inurba_marseille","lat":43.217517,"lon":5.345998,"is_reserved":false,"is_disabled":false,"rental_uris":{"android":"levelo://app?vid=cf41bac8-b3bf-4d78-b58b-1504370da1f3","ios":"levelo://app?vid=cf41bac8-b3bf-4d78-b58b-1504370da1f3"},"vehicle_type_id":"4","last_reported":1762769581,"current_range_meters":12000,"station_id":"st_cvj6r9ubvosntc0bgbag","pricing_plan_id":"cebpf4jnsgd1na2vs0mg"},{"bike_id":"5794bf14-58c8-4b0e-96f2-accbf36c9ffc","system_id":"levelo_inurba_marseille","lat":43.27811,"lon":5.40717,"is_reserved":false,"is_disabled":false,"rental_uris":{"android":"levelo://app?vid=5794bf14-58c8-4b0e-96f2-accbf36c9ffc","ios":"levelo://app?vid=5794bf14-58c8-4b0e-96f2-accbf36c9ffc"},"vehicle_type_id":"4","last_reported":1762769581,"current_range_meters":12000,"station_id":"ce4bhnh2rcd13ifvqgtg","pricing_plan_id":"cebpf4jnsgd1na2vs0mg"},{"bike_id":"069efeef-bdb3-422c-a536-554a1dd528eb","system_id":"levelo_inurba_marseille","lat":43.27494,"lon":5.42461,"is_reserved":false,"is_disabled":false,"rental_uris":{"android":"levelo://app?vid=069efeef-bdb3-422c-a536-554a1dd528eb","ios":"levelo://app?vid=069efeef-bdb3-422c-a536-554a1dd528eb"},"vehicle_type_id":"4","last_reported":1762769581,"current_range_meters":12000,"station_id":"ce4bhn92rcd13ifvqgrg","pricing_plan_id":"cebpf4jnsgd1na2vs0mg"},{"bike_id":"f222ed09-2e63-4296-8868-2cbd5a70db4b","system_id":"levelo_inurba_marseille","lat":43.3054,"lon":5.36551,"is_reserved":false,"is_disabled":false,"rental_uris":{"android":"levelo://app?vid=f222ed09-2e63-4296-8868-2cbd5a70db4b","ios":"levelo://app?vid=f222ed09-2e63-4296-8868-2cbd5a70db4b"},"vehicle_type_id":"4","last_reported":1762769581,"current_range_meters":12000,"station_id":"ce4bgs12rcd13ifvqcag","pricing_plan_id":"cebpf4jnsgd1na2vs0mg"},{"bike_id":"0d7725d3-ebe7-4d1a-947f-cf09a30a68ce","system_id":"levelo_inurba_marseille","lat":43.28903,"lon":5.39223,"is_reserved":false,"is_disabled":false,"rental_uris":{"android":"levelo://app?vid=0d7725d3-ebe7-4d1a-947f-cf09a30a68ce","ios":"levelo://app?vid=0d7725d3-ebe7-4d1a-947f-cf09a30a68ce"},"vehicle_type_id":"4","last_reported":1762769581,"current_range_meters":12000,"station_id":"","pricing_plan_id":"cebpf4jnsgd1na2vs0mg"},{"bike_id":"886acaf1-25b9-421f-879d-9d86ad53d809","system_id":"levelo_inurba_marseille","lat":43.292938,"lon":5.374558,"is_reserved":false,"is_disabled":false,"rental_uris":{"android":"levelo://app?vid=886acaf1-25b9-421f-879d-9d86ad53d809","ios":"levelo://app?vid=886acaf1-25b9-421f-879d-9d86ad53d809"},"vehicle_type_id":"4","last_reported":1762769581,"current_range_meters":12400,"station_id":"ce4bgi12rcd13ifvqb70","pricing_plan_id":"cebpf4jnsgd1na2vs0mg"},{"bike_id":"6ac4027e-e104-4653-aff1-b787c24c7ca1","system_id":"levelo_inurba_marseille","lat":43.281498,"lon":5.426474,"is_reserved":false,"is_disabled":false,"rental_uris":{"android":"levelo://app?vid=6ac4027e-e104-4653-aff1-b787c24c7ca1","ios":"levelo://app?vid=6ac4027e-e104-4653-aff1-b787c24c7ca1"},"vehicle_type_id":"4","last_reported":1762769581,"current_range_meters":12400,"station_id":"ce4bhnh2rcd13ifvqgug","pricing_plan_id":"cebpf4jnsgd1na2vs0mg"},{"bike_id":"2b646297-8654-4539-9404-edb5238f787c","system_id":"levelo_inurba_marseille","lat":43.24073,"lon":5.37755,"is_reserved":false,"is_disabled":false,"rental_uris":{"android":"levelo://app?vid=2b646297-8654-4539-9404-edb5238f787c","ios":"levelo://app?vid=2b646297-8654-4539-9404-edb5238f787c"},"vehicle_type_id":"4","last_reported":1762769581,"current_range_meters":12400,"station_id":"ce4bhnp2rcd13ifvqgvg","pricing_plan_id":"cebpf4jnsgd1na2vs0mg"},{"bike_id":"39ff6a52-7c15-4e36-9056-950efe8be9ca","system_id":"levelo_inurba_marseille","lat":43.28478,"lon":5.48398,"is_reserved":false,"is_disabled":false,"rental_uris":{"android":"levelo://app?vid=39ff6a52-7c15-4e36-9056-950efe8be9ca","ios":"levelo://app?vid=39ff6a52-7c15-4e36-9056-950efe8be9ca"},"vehicle_type_id":"4","last_reported":1762769581,"current_range_meters":12400,"station_id":"","pricing_plan_id":"cebpf4jnsgd1na2vs0mg"},{"bike_id":"80f81225-6e74-4216-89ba-d95028aacd0b","system_id":"levelo_inurba_marseille","lat":43.27498,"lon":5.42453,"is_reserved":false,"is_disabled":false,"rental_uris":{"android":"levelo://app?vid=80f81225-6e74-4216-89ba-d95028aacd0b","ios":"levelo://app?vid=80f81225-6e74-4216-89ba-d95028aacd0b"},"vehicle_type_id":"4","last_reported":1762769581,"current_range_meters":12400,"station_id":"ce4bhn92rcd13ifvqgrg","pricing_plan_id":"cebpf4jnsgd1na2vs0mg"},{"bike_id":"c34db9cf-050a-4c4b-ac45-1ad5e312cdd4","system_id":"levelo_inurba_marseille","lat":43.2657,"lon":5.40317,"is_reserved":false,"is_disabled":false,"rental_uris":{"android":"levelo://app?vid=c34db9cf-050a-4c4b-ac45-1ad5e312cdd4","ios":"levelo://app?vid=c34db9cf-050a-4c4b-ac45-1ad5e312cdd4"},"vehicle_type_id":"4","last_reported":1762769581,"current_range_meters":12800,"station_id":"ce4bhmp2rcd13ifvqgng","pricing_plan_id":"cebpf4jnsgd1na2vs0mg"},{"bike_id":"96807a8e-1b45-4a36-b7ed-92091f4bcaf6","system_id":"levelo_inurba_marseille","lat":43.309306,"lon":5.401424,"is_reserved":false,"is_disabled":false,"rental_uris":{"android":"levelo://app?vid=96807a8e-1b45-4a36-b7ed-92091f4bcaf6","ios":"levelo://app?vid=96807a8e-1b45-4a36-b7ed-92091f4bcaf6"},"vehicle_type_id":"4","last_reported":1762769581,"current_range_meters":12800,"station_id":"","pricing_plan_id":"cebpf4jnsgd1na2vs0mg"},{"bike_id":"062032e1-fdcc-4a2c-85d8-7ca14269cc2e","system_id":"levelo_inurba_marseille","lat":43.31093,"lon":5.42431,"is_reserved":false,"is_disabled":false,"rental_uris":{"android":"levelo://app?vid=062032e1-fdcc-4a2c-85d8-7ca14269cc2e","ios":"levelo://app?vid=062032e1-fdcc-4a2c-85d8-7ca14269cc2e"},"vehicle_type_id":"4","last_reported":1762769581,"current_range_meters":12800,"station_id":"ce4bhp92rcd13ifvqhag","pricing_plan_id":"cebpf4jnsgd1na2vs0mg"},{"bike_id":"4ec3f419-cbd7-4847-b143-249c507d1684","system_id":"levelo_inurba_marseille","lat":43.231591,"lon":5.437586,"is_reserved":false,"is_disabled":false,"rental_uris":{"android":"levelo://app?vid=4ec3f419-cbd7-4847-b143-249c507d1684","ios":"levelo://app?vid=4ec3f419-cbd7-4847-b143-249c507d1684"},"vehicle_type_id":"4","last_reported":1762769581,"current_range_meters":12800,"station_id":"ce4bhmp2rcd13ifvqgog","pricing_plan_id":"cebpf4jnsgd1na2vs0mg"},{"bike_id":"8d9431f8-80ba-48bc-914d-87851dd2de94","system_id":"levelo_inurba_marseille","lat":43.2594,"lon":5.40878,"is_reserved":false,"is_disabled":false,"rental_uris":{"android":"levelo://app?vid=8d9431f8-80ba-48bc-914d-87851dd2de94","ios":"levelo://app?vid=8d9431f8-80ba-48bc-914d-87851dd2de94"},"vehicle_type_id":"4","last_reported":1762769581,"current_range_meters":12800,"station_id":"ce4bhm92rcd13ifvqglg","pricing_plan_id":"cebpf4jnsgd1na2vs0mg"},{"bike_id":"f73b4e39-69b3-4086-8d13-60b0da429e4b","system_id":"levelo_inurba_marseille","lat":43.26568,"lon":5.38991,"is_reserved":false,"is_disabled":false,"rental_uris":{"android":"levelo://app?vid=f73b4e39-69b3-4086-8d13-60b0da429e4b","ios":"levelo://app?vid=f73b4e39-69b3-4086-8d13-60b0da429e4b"},"vehicle_type_id":"4","last_reported":1762769581,"current_range_meters":12800,"station_id":"ce4bhe12rcd13ifvqf30","pricing_plan_id":"cebpf4jnsgd1na2vs0mg"},{"bike_id":"e17839a3-96d6-489d-881e-36b6da5aeb29","system_id":"levelo_inurba_marseille","lat":43.28617,"lon":5.37062,"is_reserved":false,"is_disabled":false,"rental_uris":{"android":"levelo://app?vid=e17839a3-96d6-489d-881e-36b6da5aeb29","ios":"levelo://app?vid=e17839a3-96d6-489d-881e-36b6da5aeb29"},"vehicle_type_id":"4","last_reported":1762769581,"current_range_meters":12800,"station_id":"ce4bht12rcd13ifvqi60","pricing_plan_id":"cebpf4jnsgd1na2vs0mg"},{"bike_id":"ac8a8750-1d87-4cf8-9c77-e78b99da5512","system_id":"levelo_inurba_marseille","lat":43.23605,"lon":5.361713,"is_reserved":false,"is_disabled":false,"rental_uris":{"android":"levelo://app?vid=ac8a8750-1d87-4cf8-9c77-e78b99da5512","ios":"levelo://app?vid=ac8a8750-1d87-4cf8-9c77-e78b99da5512"},"vehicle_type_id":"4","last_reported":1762769581,"current_range_meters":13600,"station_id":"","pricing_plan_id":"cebpf4jnsgd1na2vs0mg"},{"bike_id":"896a0fc4-e98e-425f-b646-7db4d5ace172","system_id":"levelo_inurba_marseille","lat":43.3199,"lon":5.38155,"is_reserved":false,"is_disabled":false,"rental_uris":{"android":"levelo://app?vid=896a0fc4-e98e-425f-b646-7db4d5ace172","ios":"levelo://app?vid=896a0fc4-e98e-425f-b646-7db4d5ace172"},"vehicle_type_id":"4","last_reported":1762769581,"current_range_meters":13600,"station_id":"ce4bhr12rcd13ifvqhpg","pricing_plan_id":"cebpf4jnsgd1na2vs0mg"},{"bike_id":"3fe8dc5d-c387-4f1a-9c4c-484bc8924e3c","system_id":"levelo_inurba_marseille","lat":43.2617,"lon":5.40394,"is_reserved":false,"is_disabled":false,"rental_uris":{"android":"levelo://app?vid=3fe8dc5d-c387-4f1a-9c4c-484bc8924e3c","ios":"levelo://app?vid=3fe8dc5d-c387-4f1a-9c4c-484bc8924e3c"},"vehicle_type_id":"4","last_reported":1762769581,"current_range_meters":13600,"station_id":"","pricing_plan_id":"cebpf4jnsgd1na2vs0mg"},{"bike_id":"24de70df-9b80-4721-8771-f61cb7be1ef9","system_id":"levelo_inurba_marseille","lat":43.3192,"lon":5.38126,"is_reserved":false,"is_disabled":false,"rental_uris":{"android":"levelo://app?vid=24de70df-9b80-4721-8771-f61cb7be1ef9","ios":"levelo://app?vid=24de70df-9b80-4721-8771-f61cb7be1ef9"},"vehicle_type_id":"4","last_reported":1762769581,"current_range_meters":13600,"station_id":"","pricing_plan_id":"cebpf4jnsgd1na2vs0mg"},{"bike_id":"d331b58f-0754-4181-93f7-d4d5e2f8b496","system_id":"levelo_inurba_marseille","lat":43.225347,"lon":5.348291,"is_reserved":false,"is_disabled":false,"rental_uris":{"android":"levelo://app?vid=d331b58f-0754-4181-93f7-d4d5e2f8b496","ios":"levelo://app?vid=d331b58f-0754-4181-93f7-d4d5e2f8b496"},"vehicle_type_id":"4","last_reported":1762769581,"current_range_meters":13600,"station_id":"","pricing_plan_id":"cebpf4jnsgd1na2vs0mg"},{"bike_id":"46748178-17b8-4dc8-80b3-39159ff743e0","system_id":"levelo_inurba_marseille","lat":43.30028,"lon":5.38328,"is_reserved":false,"is_disabled":false,"rental_uris":{"android":"levelo://app?vid=46748178-17b8-4dc8-80b3-39159ff743e0","ios":"levelo://app?vid=46748178-17b8-4dc8-80b3-39159ff743e0"},"vehicle_type_id":"4","last_reported":1762769581,"current_range_meters":13600,"station_id":"","pricing_plan_id":"cebpf4jnsgd1na2vs0mg"},{"bike_id":"ee676784-715b-4226-9bd3-48c659f578c3","system_id":"levelo_inurba_marseille","lat":43.275048,"lon":5.424476,"is_reserved":false,"is_disabled":false,"rental_uris":{"android":"levelo://app?vid=ee676784-715b-4226-9bd3-48c659f578c3","ios":"levelo://app?vid=ee676784-715b-4226-9bd3-48c659f578c3"},"vehicle_type_id":"4","last_reported":1762769581,"current_range_meters":13600,"station_id":"ce4bhn92rcd13ifvqgrg","pricing_plan_id":"cebpf4jnsgd1na2vs0mg"},{"bike_id":"0f4f6d58-47b7-4e12-865b-8802e8d41703","system_id":"levelo_inurba_marseille","lat":43.23141,"lon":5.43712,"is_reserved":false,"is_disabled":false,"rental_uris":{"android":"levelo://app?vid=0f4f6d58-47b7-4e12-865b-8802e8d41703","ios":"levelo://app?vid=0f4f6d58-47b7-4e12-865b-8802e8d41703"},"vehicle_type_id":"4","last_reported":1762769581,"current_range_meters":13600,"station_id":"ce4bhmp2rcd13ifvqgog","pricing_plan_id":"cebpf4jnsgd1na2vs0mg"},{"bike_id":"93b49ebf-d9fa-49cd-9da3-22e867a810f3","system_id":"levelo_inurba_marseille","lat":43.29755,"lon":5.41113,"is_reserved":false,"is_disabled":false,"rental_uris":{"android":"levelo://app?vid=93b49ebf-d9fa-49cd-9da3-22e867a810f3","ios":"levelo://app?vid=93b49ebf-d9fa-49cd-9da3-22e867a810f3"},"vehicle_type_id":"4","last_reported":1762769581,"current_range_meters":13600,"station_id":"","pricing_plan_id":"cebpf4jnsgd1na2vs0mg"},{"bike_id":"2d003246-289e-4235-87e3-d86a55465f5e","system_id":"levelo_inurba_marseille","lat":43.29892,"lon":5.37537,"is_reserved":false,"is_disabled":false,"rental_uris":{"android":"levelo://app?vid=2d003246-289e-4235-87e3-d86a55465f5e","ios":"levelo://app?vid=2d003246-289e-4235-87e3-d86a55465f5e"},"vehicle_type_id":"4","last_reported":1762769581,"current_range_meters":14000,"station_id":"","pricing_plan_id":"cebpf4jnsgd1na2vs0mg"},{"bike_id":"29957527-d4ee-49a7-b561-7e1ae2c0cee5","system_id":"levelo_inurba_marseille","lat":43.29744,"lon":5.42793,"is_reserved":false,"is_disabled":false,"rental_uris":{"android":"levelo://app?vid=29957527-d4ee-49a7-b561-7e1ae2c0cee5","ios":"levelo://app?vid=29957527-d4ee-49a7-b561-7e1ae2c0cee5"},"vehicle_type_id":"4","last_reported":1762769581,"current_range_meters":14000,"station_id":"st_d3md5207bmas73dh9klg","pricing_plan_id":"cebpf4jnsgd1na2vs0mg"},{"bike_id":"a9da678b-e027-4d15-82ec-ec9b42ecd092","system_id":"levelo_inurba_marseille","lat":43.26559,"lon":5.37284,"is_reserved":false,"is_disabled":false,"rental_uris":{"android":"levelo://app?vid=a9da678b-e027-4d15-82ec-ec9b42ecd092","ios":"levelo://app?vid=a9da678b-e027-4d15-82ec-ec9b42ecd092"},"vehicle_type_id":"4","last_reported":1762769581,"current_range_meters":14000,"station_id":"ce4bhg12rcd13ifvqf70","pricing_plan_id":"cebpf4jnsgd1na2vs0mg"},{"bike_id":"fc0cf699-a697-4e1c-8936-adc962a8287e","system_id":"levelo_inurba_marseille","lat":43.23193,"lon":5.35549,"is_reserved":false,"is_disabled":false,"rental_uris":{"android":"levelo://app?vid=fc0cf699-a697-4e1c-8936-adc962a8287e","ios":"levelo://app?vid=fc0cf699-a697-4e1c-8936-adc962a8287e"},"vehicle_type_id":"4","last_reported":1762769581,"current_range_meters":14400,"station_id":"ce4bhu92rcd13ifvqi70","pricing_plan_id":"cebpf4jnsgd1na2vs0mg"},{"bike_id":"c537fdfd-0637-4a7f-a89e-e18c76758e7f","system_id":"levelo_inurba_marseille","lat":43.25584,"lon":5.38232,"is_reserved":false,"is_disabled":false,"rental_uris":{"android":"levelo://app?vid=c537fdfd-0637-4a7f-a89e-e18c76758e7f","ios":"levelo://app?vid=c537fdfd-0637-4a7f-a89e-e18c76758e7f"},"vehicle_type_id":"4","last_reported":1762769581,"current_range_meters":14400,"station_id":"ce4bhih2rcd13ifvqfs0","pricing_plan_id":"cebpf4jnsgd1na2vs0mg"},{"bike_id":"3801f78c-6f24-4c0c-b231-07d479d348fc","system_id":"levelo_inurba_marseille","lat":43.24082,"lon":5.37758,"is_reserved":false,"is_disabled":false,"rental_uris":{"android":"levelo://app?vid=3801f78c-6f24-4c0c-b231-07d479d348fc","ios":"levelo://app?vid=3801f78c-6f24-4c0c-b231-07d479d348fc"},"vehicle_type_id":"4","last_reported":1762769581,"current_range_meters":14400,"station_id":"ce4bhnp2rcd13ifvqgvg","pricing_plan_id":"cebpf4jnsgd1na2vs0mg"},{"bike_id":"ffe050e8-e964-43f0-affe-fdb013a22c0b","system_id":"levelo_inurba_marseille","lat":43.337444,"lon":5.374475,"is_reserved":false,"is_disabled":false,"rental_uris":{"android":"levelo://app?vid=ffe050e8-e964-43f0-affe-fdb013a22c0b","ios":"levelo://app?vid=ffe050e8-e964-43f0-affe-fdb013a22c0b"},"vehicle_type_id":"4","last_reported":1762769581,"current_range_meters":14400,"station_id":"","pricing_plan_id":"cebpf4jnsgd1na2vs0mg"},{"bike_id":"50cbe181-b923-4b43-acba-16f0a6ef7dea","system_id":"levelo_inurba_marseille","lat":43.27837,"lon":5.39205,"is_reserved":false,"is_disabled":false,"rental_uris":{"android":"levelo://app?vid=50cbe181-b923-4b43-acba-16f0a6ef7dea","ios":"levelo://app?vid=50cbe181-b923-4b43-acba-16f0a6ef7dea"},"vehicle_type_id":"4","last_reported":1762769581,"current_range_meters":14400,"station_id":"ce4bhjp2rcd13ifvqga0","pricing_plan_id":"cebpf4jnsgd1na2vs0mg"},{"bike_id":"b4bb7519-aef8-412f-a187-8d2f74f5add5","system_id":"levelo_inurba_marseille","lat":43.30094,"lon":5.39083,"is_reserved":false,"is_disabled":false,"rental_uris":{"android":"levelo://app?vid=b4bb7519-aef8-412f-a187-8d2f74f5add5","ios":"levelo://app?vid=b4bb7519-aef8-412f-a187-8d2f74f5add5"},"vehicle_type_id":"4","last_reported":1762769581,"current_range_meters":14400,"station_id":"ce4bh192rcd13ifvqdb0","pricing_plan_id":"cebpf4jnsgd1na2vs0mg"},{"bike_id":"3ae4a2e8-d4c0-42b4-a176-909ddc88d127","system_id":"levelo_inurba_marseille","lat":43.30423,"lon":5.38864,"is_reserved":false,"is_disabled":false,"rental_uris":{"android":"levelo://app?vid=3ae4a2e8-d4c0-42b4-a176-909ddc88d127","ios":"levelo://app?vid=3ae4a2e8-d4c0-42b4-a176-909ddc88d127"},"vehicle_type_id":"4","last_reported":1762769581,"current_range_meters":14800,"station_id":"","pricing_plan_id":"cebpf4jnsgd1na2vs0mg"},{"bike_id":"f7f8c5ec-3459-4e53-b264-869ca4568d1a","system_id":"levelo_inurba_marseille","lat":43.309117,"lon":5.368482,"is_reserved":false,"is_disabled":false,"rental_uris":{"android":"levelo://app?vid=f7f8c5ec-3459-4e53-b264-869ca4568d1a","ios":"levelo://app?vid=f7f8c5ec-3459-4e53-b264-869ca4568d1a"},"vehicle_type_id":"4","last_reported":1762769581,"current_range_meters":14800,"station_id":"ce4bgn92rcd13ifvqbvg","pricing_plan_id":"cebpf4jnsgd1na2vs0mg"},{"bike_id":"14fef565-149f-4338-9048-9c0a3feb4cdd","system_id":"levelo_inurba_marseille","lat":43.23146,"lon":5.43715,"is_reserved":false,"is_disabled":false,"rental_uris":{"android":"levelo://app?vid=14fef565-149f-4338-9048-9c0a3feb4cdd","ios":"levelo://app?vid=14fef565-149f-4338-9048-9c0a3feb4cdd"},"vehicle_type_id":"4","last_reported":1762769581,"current_range_meters":14800,"station_id":"ce4bhmp2rcd13ifvqgog","pricing_plan_id":"cebpf4jnsgd1na2vs0mg"},{"bike_id":"b3120a5e-0b2d-48d6-9be0-52ae548067f7","system_id":"levelo_inurba_marseille","lat":43.28261,"lon":5.35061,"is_reserved":false,"is_disabled":false,"rental_uris":{"android":"levelo://app?vid=b3120a5e-0b2d-48d6-9be0-52ae548067f7","ios":"levelo://app?vid=b3120a5e-0b2d-48d6-9be0-52ae548067f7"},"vehicle_type_id":"4","last_reported":1762769581,"current_range_meters":14800,"station_id":"ce4bhbp2rcd13ifvqerg","pricing_plan_id":"cebpf4jnsgd1na2vs0mg"},{"bike_id":"aa7def0f-4f6d-4ddd-bf71-1d61c6a0e1f5","system_id":"levelo_inurba_marseille","lat":43.28031,"lon":5.36945,"is_reserved":false,"is_disabled":false,"rental_uris":{"android":"levelo://app?vid=aa7def0f-4f6d-4ddd-bf71-1d61c6a0e1f5","ios":"levelo://app?vid=aa7def0f-4f6d-4ddd-bf71-1d61c6a0e1f5"},"vehicle_type_id":"4","last_reported":1762769581,"current_range_meters":14800,"station_id":"ce4bha12rcd13ifvqef0","pricing_plan_id":"cebpf4jnsgd1na2vs0mg"},{"bike_id":"92077ffb-59a2-4dd0-9c95-33ae88f9ae38","system_id":"levelo_inurba_marseille","lat":43.246429,"lon":5.388893,"is_reserved":false,"is_disabled":false,"rental_uris":{"android":"levelo://app?vid=92077ffb-59a2-4dd0-9c95-33ae88f9ae38","ios":"levelo://app?vid=92077ffb-59a2-4dd0-9c95-33ae88f9ae38"},"vehicle_type_id":"4","last_reported":1762769581,"current_range_meters":15200,"station_id":"","pricing_plan_id":"cebpf4jnsgd1na2vs0mg"},{"bike_id":"cafa7506-82fc-41ee-bd9f-938b258b78e3","system_id":"levelo_inurba_marseille","lat":43.26787,"lon":5.39411,"is_reserved":false,"is_disabled":false,"rental_uris":{"android":"levelo://app?vid=cafa7506-82fc-41ee-bd9f-938b258b78e3","ios":"levelo://app?vid=cafa7506-82fc-41ee-bd9f-938b258b78e3"},"vehicle_type_id":"4","last_reported":1762769581,"current_range_meters":15200,"station_id":"ce4bhh12rcd13ifvqfg0","pricing_plan_id":"cebpf4jnsgd1na2vs0mg"},{"bike_id":"81ae76cc-b801-4759-b58f-2b51d812735a","system_id":"levelo_inurba_marseille","lat":43.21751,"lon":5.3461,"is_reserved":false,"is_disabled":true,"rental_uris":{"android":"levelo://app?vid=81ae76cc-b801-4759-b58f-2b51d812735a","ios":"levelo://app?vid=81ae76cc-b801-4759-b58f-2b51d812735a"},"vehicle_type_id":"4","last_reported":1762769581,"current_range_meters":15200,"station_id":"st_cvj6r9ubvosntc0bgbag","pricing_plan_id":"cebpf4jnsgd1na2vs0mg"},{"bike_id":"a2261492-19dd-44fa-8c32-b4eeed495387","system_id":"levelo_inurba_marseille","lat":43.29855,"lon":5.36288,"is_reserved":false,"is_disabled":false,"rental_uris":{"android":"levelo://app?vid=a2261492-19dd-44fa-8c32-b4eeed495387","ios":"levelo://app?vid=a2261492-19dd-44fa-8c32-b4eeed495387"},"vehicle_type_id":"4","last_reported":1762769581,"current_range_meters":15200,"station_id":"","pricing_plan_id":"cebpf4jnsgd1na2vs0mg"},{"bike_id":"e3ca31e7-8c60-464d-95fd-3aad12a4aaf3","system_id":"levelo_inurba_marseille","lat":43.30962,"lon":5.38294,"is_reserved":false,"is_disabled":false,"rental_uris":{"android":"levelo://app?vid=e3ca31e7-8c60-464d-95fd-3aad12a4aaf3","ios":"levelo://app?vid=e3ca31e7-8c60-464d-95fd-3aad12a4aaf3"},"vehicle_type_id":"4","last_reported":1762769581,"current_range_meters":15200,"station_id":"","pricing_plan_id":"cebpf4jnsgd1na2vs0mg"},{"bike_id":"3b00737e-136b-4a6b-a505-f387273f75dd","system_id":"levelo_inurba_marseille","lat":43.24389,"lon":5.37062,"is_reserved":false,"is_disabled":false,"rental_uris":{"android":"levelo://app?vid=3b00737e-136b-4a6b-a505-f387273f75dd","ios":"levelo://app?vid=3b00737e-136b-4a6b-a505-f387273f75dd"},"vehicle_type_id":"4","last_reported":1762769581,"current_range_meters":15200,"station_id":"ce4bhhh2rcd13ifvqfk0","pricing_plan_id":"cebpf4jnsgd1na2vs0mg"},{"bike_id":"7203e0af-e31e-41f0-b84f-6f5adae963c5","system_id":"levelo_inurba_marseille","lat":43.25003,"lon":5.38935,"is_reserved":false,"is_disabled":false,"rental_uris":{"android":"levelo://app?vid=7203e0af-e31e-41f0-b84f-6f5adae963c5","ios":"levelo://app?vid=7203e0af-e31e-41f0-b84f-6f5adae963c5"},"vehicle_type_id":"4","last_reported":1762769581,"current_range_meters":15200,"station_id":"ce4bhgp2rcd13ifvqfd0","pricing_plan_id":"cebpf4jnsgd1na2vs0mg"},{"bike_id":"44331fa7-9d08-4286-b964-9dc5ad26bac9","system_id":"levelo_inurba_marseille","lat":43.26231,"lon":5.40451,"is_reserved":false,"is_disabled":false,"rental_uris":{"android":"levelo://app?vid=44331fa7-9d08-4286-b964-9dc5ad26bac9","ios":"levelo://app?vid=44331fa7-9d08-4286-b964-9dc5ad26bac9"},"vehicle_type_id":"4","last_reported":1762769581,"current_range_meters":15200,"station_id":"ce4bhmh2rcd13ifvqgmg","pricing_plan_id":"cebpf4jnsgd1na2vs0mg"},{"bike_id":"258c9e4e-d429-4d2e-8236-14659aee2ab5","system_id":"levelo_inurba_marseille","lat":43.29307,"lon":5.37171,"is_reserved":false,"is_disabled":false,"rental_uris":{"android":"levelo://app?vid=258c9e4e-d429-4d2e-8236-14659aee2ab5","ios":"levelo://app?vid=258c9e4e-d429-4d2e-8236-14659aee2ab5"},"vehicle_type_id":"4","last_reported":1762769581,"current_range_meters":15200,"station_id":"ce4bgh92rcd13ifvqb40","pricing_plan_id":"cebpf4jnsgd1na2vs0mg"},{"bike_id":"99891c1d-9d50-4787-b2eb-1c68be846d92","system_id":"levelo_inurba_marseille","lat":43.32093,"lon":5.36762,"is_reserved":false,"is_disabled":false,"rental_uris":{"android":"levelo://app?vid=99891c1d-9d50-4787-b2eb-1c68be846d92","ios":"levelo://app?vid=99891c1d-9d50-4787-b2eb-1c68be846d92"},"vehicle_type_id":"4","last_reported":1762769581,"current_range_meters":15200,"station_id":"ce4bhrh2rcd13ifvqhug","pricing_plan_id":"cebpf4jnsgd1na2vs0mg"},{"bike_id":"2c8c6aa9-0512-474e-8945-2eda900b63fa","system_id":"levelo_inurba_marseille","lat":43.26562,"lon":5.40331,"is_reserved":false,"is_disabled":false,"rental_uris":{"android":"levelo://app?vid=2c8c6aa9-0512-474e-8945-2eda900b63fa","ios":"levelo://app?vid=2c8c6aa9-0512-474e-8945-2eda900b63fa"},"vehicle_type_id":"4","last_reported":1762769581,"current_range_meters":15200,"station_id":"ce4bhmp2rcd13ifvqgng","pricing_plan_id":"cebpf4jnsgd1na2vs0mg"},{"bike_id":"67c1440e-c3bb-44d6-8c09-f43d2ff7f424","system_id":"levelo_inurba_marseille","lat":43.28614,"lon":5.35108,"is_reserved":false,"is_disabled":false,"rental_uris":{"android":"levelo://app?vid=67c1440e-c3bb-44d6-8c09-f43d2ff7f424","ios":"levelo://app?vid=67c1440e-c3bb-44d6-8c09-f43d2ff7f424"},"vehicle_type_id":"4","last_reported":1762769581,"current_range_meters":15200,"station_id":"ce4bhch2rcd13ifvqeug","pricing_plan_id":"cebpf4jnsgd1na2vs0mg"},{"bike_id":"fb0e6bea-d078-4452-905b-07db49a4858c","system_id":"levelo_inurba_marseille","lat":43.28472,"lon":5.48385,"is_reserved":false,"is_disabled":false,"rental_uris":{"android":"levelo://app?vid=fb0e6bea-d078-4452-905b-07db49a4858c","ios":"levelo://app?vid=fb0e6bea-d078-4452-905b-07db49a4858c"},"vehicle_type_id":"4","last_reported":1762769581,"current_range_meters":15200,"station_id":"","pricing_plan_id":"cebpf4jnsgd1na2vs0mg"},{"bike_id":"ba6114fd-558e-4e3e-b68c-7027f7e70564","system_id":"levelo_inurba_marseille","lat":43.30558,"lon":5.36515,"is_reserved":false,"is_disabled":false,"rental_uris":{"android":"levelo://app?vid=ba6114fd-558e-4e3e-b68c-7027f7e70564","ios":"levelo://app?vid=ba6114fd-558e-4e3e-b68c-7027f7e70564"},"vehicle_type_id":"4","last_reported":1762769581,"current_range_meters":15200,"station_id":"ce4bgs12rcd13ifvqcag","pricing_plan_id":"cebpf4jnsgd1na2vs0mg"},{"bike_id":"b9e76fcb-2bdf-494f-829b-b057ac14ba99","system_id":"levelo_inurba_marseille","lat":43.32106,"lon":5.36762,"is_reserved":false,"is_disabled":false,"rental_uris":{"android":"levelo://app?vid=b9e76fcb-2bdf-494f-829b-b057ac14ba99","ios":"levelo://app?vid=b9e76fcb-2bdf-494f-829b-b057ac14ba99"},"vehicle_type_id":"4","last_reported":1762769581,"current_range_meters":15200,"station_id":"ce4bhrh2rcd13ifvqhug","pricing_plan_id":"cebpf4jnsgd1na2vs0mg"},{"bike_id":"968a0123-9c52-42d7-bc28-9e49597d1766","system_id":"levelo_inurba_marseille","lat":43.31443,"lon":5.37369,"is_reserved":false,"is_disabled":false,"rental_uris":{"android":"levelo://app?vid=968a0123-9c52-42d7-bc28-9e49597d1766","ios":"levelo://app?vid=968a0123-9c52-42d7-bc28-9e49597d1766"},"vehicle_type_id":"4","last_reported":1762769581,"current_range_meters":16000,"station_id":"","pricing_plan_id":"cebpf4jnsgd1na2vs0mg"},{"bike_id":"1086c95b-b74f-4e99-9e15-ae33be8101e5","system_id":"levelo_inurba_marseille","lat":43.30171,"lon":5.37636,"is_reserved":false,"is_disabled":false,"rental_uris":{"android":"levelo://app?vid=1086c95b-b74f-4e99-9e15-ae33be8101e5","ios":"levelo://app?vid=1086c95b-b74f-4e99-9e15-ae33be8101e5"},"vehicle_type_id":"4","last_reported":1762769581,"current_range_meters":16000,"station_id":"","pricing_plan_id":"cebpf4jnsgd1na2vs0mg"},{"bike_id":"3a04f9c7-e08e-4429-8b60-3f57df5d4f6c","system_id":"levelo_inurba_marseille","lat":43.33151,"lon":5.37683,"is_reserved":false,"is_disabled":false,"rental_uris":{"android":"levelo://app?vid=3a04f9c7-e08e-4429-8b60-3f57df5d4f6c","ios":"levelo://app?vid=3a04f9c7-e08e-4429-8b60-3f57df5d4f6c"},"vehicle_type_id":"4","last_reported":1762769581,"current_range_meters":16000,"station_id":"st_d46cu089ee8s73dldbu0","pricing_plan_id":"cebpf4jnsgd1na2vs0mg"},{"bike_id":"44881977-641c-4397-b8e6-0a8b940b427e","system_id":"levelo_inurba_marseille","lat":43.29256,"lon":5.40905,"is_reserved":false,"is_disabled":false,"rental_uris":{"android":"levelo://app?vid=44881977-641c-4397-b8e6-0a8b940b427e","ios":"levelo://app?vid=44881977-641c-4397-b8e6-0a8b940b427e"},"vehicle_type_id":"4","last_reported":1762769581,"current_range_meters":16000,"station_id":"ce4bh192rcd13ifvqdc0","pricing_plan_id":"cebpf4jnsgd1na2vs0mg"},{"bike_id":"4ef56f27-b618-4191-843e-9c861890082c","system_id":"levelo_inurba_marseille","lat":43.28555,"lon":5.39247,"is_reserved":false,"is_disabled":true,"rental_uris":{"android":"levelo://app?vid=4ef56f27-b618-4191-843e-9c861890082c","ios":"levelo://app?vid=4ef56f27-b618-4191-843e-9c861890082c"},"vehicle_type_id":"4","last_reported":1762769581,"current_range_meters":16000,"station_id":"","pricing_plan_id":"cebpf4jnsgd1na2vs0mg"},{"bike_id":"3757c277-a222-4608-baf0-fb11f83a36ad","system_id":"levelo_inurba_marseille","lat":43.24069,"lon":5.3775,"is_reserved":false,"is_disabled":false,"rental_uris":{"android":"levelo://app?vid=3757c277-a222-4608-baf0-fb11f83a36ad","ios":"levelo://app?vid=3757c277-a222-4608-baf0-fb11f83a36ad"},"vehicle_type_id":"4","last_reported":1762769581,"current_range_meters":16400,"station_id":"ce4bhnp2rcd13ifvqgvg","pricing_plan_id":"cebpf4jnsgd1na2vs0mg"},{"bike_id":"33084756-8ef7-48df-8626-0860cb1babef","system_id":"levelo_inurba_marseille","lat":43.26556,"lon":5.37272,"is_reserved":false,"is_disabled":false,"rental_uris":{"android":"levelo://app?vid=33084756-8ef7-48df-8626-0860cb1babef","ios":"levelo://app?vid=33084756-8ef7-48df-8626-0860cb1babef"},"vehicle_type_id":"4","last_reported":1762769581,"current_range_meters":16400,"station_id":"ce4bhg12rcd13ifvqf70","pricing_plan_id":"cebpf4jnsgd1na2vs0mg"},{"bike_id":"98887341-9773-478e-9b04-ea8557d3e59d","system_id":"levelo_inurba_marseille","lat":43.276909,"lon":5.38913,"is_reserved":false,"is_disabled":false,"rental_uris":{"android":"levelo://app?vid=98887341-9773-478e-9b04-ea8557d3e59d","ios":"levelo://app?vid=98887341-9773-478e-9b04-ea8557d3e59d"},"vehicle_type_id":"4","last_reported":1762769581,"current_range_meters":16400,"station_id":"ce4bhi12rcd13ifvqfo0","pricing_plan_id":"cebpf4jnsgd1na2vs0mg"},{"bike_id":"9f00f928-b8e0-4019-bb15-3e0f7197fbd2","system_id":"levelo_inurba_marseille","lat":43.22568,"lon":5.41624,"is_reserved":false,"is_disabled":false,"rental_uris":{"android":"levelo://app?vid=9f00f928-b8e0-4019-bb15-3e0f7197fbd2","ios":"levelo://app?vid=9f00f928-b8e0-4019-bb15-3e0f7197fbd2"},"vehicle_type_id":"4","last_reported":1762769581,"current_range_meters":16400,"station_id":"st_d2o4gvlbi1j2169b742g","pricing_plan_id":"cebpf4jnsgd1na2vs0mg"},{"bike_id":"b7589c36-c725-4ae0-a367-12f6a2c5f1ef","system_id":"levelo_inurba_marseille","lat":43.29832,"lon":5.44046,"is_reserved":false,"is_disabled":false,"rental_uris":{"android":"levelo://app?vid=b7589c36-c725-4ae0-a367-12f6a2c5f1ef","ios":"levelo://app?vid=b7589c36-c725-4ae0-a367-12f6a2c5f1ef"},"vehicle_type_id":"4","last_reported":1762769581,"current_range_meters":16400,"station_id":"st_d3jp68qikq2c7381ktn0","pricing_plan_id":"cebpf4jnsgd1na2vs0mg"},{"bike_id":"3db12d6f-0ae2-48c5-86bd-f2d8947e47e8","system_id":"levelo_inurba_marseille","lat":43.23056,"lon":5.35493,"is_reserved":false,"is_disabled":false,"rental_uris":{"android":"levelo://app?vid=3db12d6f-0ae2-48c5-86bd-f2d8947e47e8","ios":"levelo://app?vid=3db12d6f-0ae2-48c5-86bd-f2d8947e47e8"},"vehicle_type_id":"4","last_reported":1762769581,"current_range_meters":16400,"station_id":"cpo3342slgdg3j2ifvpg","pricing_plan_id":"cebpf4jnsgd1na2vs0mg"},{"bike_id":"0b65d485-0742-49d0-8c7b-b70591fbb2ac","system_id":"levelo_inurba_marseille","lat":43.2315,"lon":5.43725,"is_reserved":false,"is_disabled":false,"rental_uris":{"android":"levelo://app?vid=0b65d485-0742-49d0-8c7b-b70591fbb2ac","ios":"levelo://app?vid=0b65d485-0742-49d0-8c7b-b70591fbb2ac"},"vehicle_type_id":"4","last_reported":1762769581,"current_range_meters":16400,"station_id":"ce4bhmp2rcd13ifvqgog","pricing_plan_id":"cebpf4jnsgd1na2vs0mg"},{"bike_id":"859a2f9b-b277-4dbf-ba4a-391d6704fdfb","system_id":"levelo_inurba_marseille","lat":43.23953,"lon":5.36653,"is_reserved":false,"is_disabled":false,"rental_uris":{"android":"levelo://app?vid=859a2f9b-b277-4dbf-ba4a-391d6704fdfb","ios":"levelo://app?vid=859a2f9b-b277-4dbf-ba4a-391d6704fdfb"},"vehicle_type_id":"4","last_reported":1762769581,"current_range_meters":16400,"station_id":"ce4bhi12rcd13ifvqfp0","pricing_plan_id":"cebpf4jnsgd1na2vs0mg"},{"bike_id":"9be94b56-15ef-463f-ba7e-e63df6171cb1","system_id":"levelo_inurba_marseille","lat":43.217491,"lon":5.345992,"is_reserved":false,"is_disabled":false,"rental_uris":{"android":"levelo://app?vid=9be94b56-15ef-463f-ba7e-e63df6171cb1","ios":"levelo://app?vid=9be94b56-15ef-463f-ba7e-e63df6171cb1"},"vehicle_type_id":"4","last_reported":1762769581,"current_range_meters":16400,"station_id":"st_cvj6r9ubvosntc0bgbag","pricing_plan_id":"cebpf4jnsgd1na2vs0mg"},{"bike_id":"42b6c966-6737-4f56-9852-94da986cf0f1","system_id":"levelo_inurba_marseille","lat":43.239643,"lon":5.366304,"is_reserved":false,"is_disabled":false,"rental_uris":{"android":"levelo://app?vid=42b6c966-6737-4f56-9852-94da986cf0f1","ios":"levelo://app?vid=42b6c966-6737-4f56-9852-94da986cf0f1"},"vehicle_type_id":"4","last_reported":1762769581,"current_range_meters":16800,"station_id":"ce4bhi12rcd13ifvqfp0","pricing_plan_id":"cebpf4jnsgd1na2vs0mg"},{"bike_id":"50bd906f-f66c-4773-8e69-65d41802e55d","system_id":"levelo_inurba_marseille","lat":43.22533,"lon":5.34834,"is_reserved":false,"is_disabled":false,"rental_uris":{"android":"levelo://app?vid=50bd906f-f66c-4773-8e69-65d41802e55d","ios":"levelo://app?vid=50bd906f-f66c-4773-8e69-65d41802e55d"},"vehicle_type_id":"4","last_reported":1762769581,"current_range_meters":16800,"station_id":"","pricing_plan_id":"cebpf4jnsgd1na2vs0mg"},{"bike_id":"99d9d76d-d94f-48e3-abc3-f50dd41e3269","system_id":"levelo_inurba_marseille","lat":43.31147,"lon":5.38331,"is_reserved":false,"is_disabled":false,"rental_uris":{"android":"levelo://app?vid=99d9d76d-d94f-48e3-abc3-f50dd41e3269","ios":"levelo://app?vid=99d9d76d-d94f-48e3-abc3-f50dd41e3269"},"vehicle_type_id":"4","last_reported":1762769581,"current_range_meters":16800,"station_id":"","pricing_plan_id":"cebpf4jnsgd1na2vs0mg"},{"bike_id":"f46ad7eb-f85b-4432-be90-167e726c28e3","system_id":"levelo_inurba_marseille","lat":43.23141,"lon":5.43709,"is_reserved":false,"is_disabled":false,"rental_uris":{"android":"levelo://app?vid=f46ad7eb-f85b-4432-be90-167e726c28e3","ios":"levelo://app?vid=f46ad7eb-f85b-4432-be90-167e726c28e3"},"vehicle_type_id":"4","last_reported":1762769581,"current_range_meters":16800,"station_id":"ce4bhmp2rcd13ifvqgog","pricing_plan_id":"cebpf4jnsgd1na2vs0mg"},{"bike_id":"180a70a9-8924-4885-9ca3-10c578c02589","system_id":"levelo_inurba_marseille","lat":43.22537,"lon":5.348321,"is_reserved":false,"is_disabled":false,"rental_uris":{"android":"levelo://app?vid=180a70a9-8924-4885-9ca3-10c578c02589","ios":"levelo://app?vid=180a70a9-8924-4885-9ca3-10c578c02589"},"vehicle_type_id":"4","last_reported":1762769581,"current_range_meters":16800,"station_id":"","pricing_plan_id":"cebpf4jnsgd1na2vs0mg"},{"bike_id":"963b5220-6e80-4159-ab93-0eee20b627ec","system_id":"levelo_inurba_marseille","lat":43.26552,"lon":5.37295,"is_reserved":false,"is_disabled":false,"rental_uris":{"android":"levelo://app?vid=963b5220-6e80-4159-ab93-0eee20b627ec","ios":"levelo://app?vid=963b5220-6e80-4159-ab93-0eee20b627ec"},"vehicle_type_id":"4","last_reported":1762769581,"current_range_meters":16800,"station_id":"ce4bhg12rcd13ifvqf70","pricing_plan_id":"cebpf4jnsgd1na2vs0mg"},{"bike_id":"b0f65dd5-7080-42f8-bb3b-b5fdbbaffdce","system_id":"levelo_inurba_marseille","lat":43.23152,"lon":5.4372,"is_reserved":false,"is_disabled":false,"rental_uris":{"android":"levelo://app?vid=b0f65dd5-7080-42f8-bb3b-b5fdbbaffdce","ios":"levelo://app?vid=b0f65dd5-7080-42f8-bb3b-b5fdbbaffdce"},"vehicle_type_id":"4","last_reported":1762769581,"current_range_meters":16800,"station_id":"ce4bhmp2rcd13ifvqgog","pricing_plan_id":"cebpf4jnsgd1na2vs0mg"},{"bike_id":"4b68d13f-f5d9-4b23-871f-a9d0ced8871b","system_id":"levelo_inurba_marseille","lat":43.3127,"lon":5.37834,"is_reserved":false,"is_disabled":false,"rental_uris":{"android":"levelo://app?vid=4b68d13f-f5d9-4b23-871f-a9d0ced8871b","ios":"levelo://app?vid=4b68d13f-f5d9-4b23-871f-a9d0ced8871b"},"vehicle_type_id":"4","last_reported":1762769581,"current_range_meters":17200,"station_id":"","pricing_plan_id":"cebpf4jnsgd1na2vs0mg"},{"bike_id":"f25693e3-c731-4ac1-bec9-aaba4495290b","system_id":"levelo_inurba_marseille","lat":43.29515,"lon":5.37491,"is_reserved":false,"is_disabled":false,"rental_uris":{"android":"levelo://app?vid=f25693e3-c731-4ac1-bec9-aaba4495290b","ios":"levelo://app?vid=f25693e3-c731-4ac1-bec9-aaba4495290b"},"vehicle_type_id":"4","last_reported":1762769581,"current_range_meters":17200,"station_id":"ce4bgkp2rcd13ifvqbmg","pricing_plan_id":"cebpf4jnsgd1na2vs0mg"},{"bike_id":"3d4f2d0b-e070-4022-bb5d-10097e35b85a","system_id":"levelo_inurba_marseille","lat":43.312719,"lon":5.401738,"is_reserved":false,"is_disabled":false,"rental_uris":{"android":"levelo://app?vid=3d4f2d0b-e070-4022-bb5d-10097e35b85a","ios":"levelo://app?vid=3d4f2d0b-e070-4022-bb5d-10097e35b85a"},"vehicle_type_id":"4","last_reported":1762769581,"current_range_meters":17200,"station_id":"","pricing_plan_id":"cebpf4jnsgd1na2vs0mg"},{"bike_id":"a355011f-e8a5-40d3-b984-5567cee2c105","system_id":"levelo_inurba_marseille","lat":43.2826,"lon":5.35068,"is_reserved":false,"is_disabled":false,"rental_uris":{"android":"levelo://app?vid=a355011f-e8a5-40d3-b984-5567cee2c105","ios":"levelo://app?vid=a355011f-e8a5-40d3-b984-5567cee2c105"},"vehicle_type_id":"4","last_reported":1762769581,"current_range_meters":17200,"station_id":"ce4bhbp2rcd13ifvqerg","pricing_plan_id":"cebpf4jnsgd1na2vs0mg"},{"bike_id":"4c9f9c32-8f71-4790-be92-8b23c1dac120","system_id":"levelo_inurba_marseille","lat":43.34138,"lon":5.40904,"is_reserved":false,"is_disabled":false,"rental_uris":{"android":"levelo://app?vid=4c9f9c32-8f71-4790-be92-8b23c1dac120","ios":"levelo://app?vid=4c9f9c32-8f71-4790-be92-8b23c1dac120"},"vehicle_type_id":"4","last_reported":1762769581,"current_range_meters":17200,"station_id":"ce4bhqh2rcd13ifvqhlg","pricing_plan_id":"cebpf4jnsgd1na2vs0mg"},{"bike_id":"1016aac3-b163-4bd4-b914-896c361c935b","system_id":"levelo_inurba_marseille","lat":43.32111,"lon":5.38842,"is_reserved":false,"is_disabled":false,"rental_uris":{"android":"levelo://app?vid=1016aac3-b163-4bd4-b914-896c361c935b","ios":"levelo://app?vid=1016aac3-b163-4bd4-b914-896c361c935b"},"vehicle_type_id":"4","last_reported":1762769581,"current_range_meters":17200,"station_id":"","pricing_plan_id":"cebpf4jnsgd1na2vs0mg"},{"bike_id":"576d9b4d-9c8d-4c43-809a-a4e6d31a27ed","system_id":"levelo_inurba_marseille","lat":43.29974,"lon":5.38508,"is_reserved":false,"is_disabled":false,"rental_uris":{"android":"levelo://app?vid=576d9b4d-9c8d-4c43-809a-a4e6d31a27ed","ios":"levelo://app?vid=576d9b4d-9c8d-4c43-809a-a4e6d31a27ed"},"vehicle_type_id":"4","last_reported":1762769581,"current_range_meters":17200,"station_id":"ce4bgj92rcd13ifvqbd0","pricing_plan_id":"cebpf4jnsgd1na2vs0mg"},{"bike_id":"e8f26262-51ba-41e4-baa8-fee3433c6fb3","system_id":"levelo_inurba_marseille","lat":43.225311,"lon":5.348257,"is_reserved":false,"is_disabled":false,"rental_uris":{"android":"levelo://app?vid=e8f26262-51ba-41e4-baa8-fee3433c6fb3","ios":"levelo://app?vid=e8f26262-51ba-41e4-baa8-fee3433c6fb3"},"vehicle_type_id":"4","last_reported":1762769581,"current_range_meters":17200,"station_id":"","pricing_plan_id":"cebpf4jnsgd1na2vs0mg"},{"bike_id":"0001f610-ee0b-4dfa-a101-19ef82b4afb7","system_id":"levelo_inurba_marseille","lat":43.29805,"lon":5.44079,"is_reserved":false,"is_disabled":false,"rental_uris":{"android":"levelo://app?vid=0001f610-ee0b-4dfa-a101-19ef82b4afb7","ios":"levelo://app?vid=0001f610-ee0b-4dfa-a101-19ef82b4afb7"},"vehicle_type_id":"4","last_reported":1762769581,"current_range_meters":17200,"station_id":"st_d3jp68qikq2c7381ktn0","pricing_plan_id":"cebpf4jnsgd1na2vs0mg"},{"bike_id":"394fe008-6aee-4895-9fdf-b6a85ec32574","system_id":"levelo_inurba_marseille","lat":43.30815,"lon":5.38133,"is_reserved":false,"is_disabled":false,"rental_uris":{"android":"levelo://app?vid=394fe008-6aee-4895-9fdf-b6a85ec32574","ios":"levelo://app?vid=394fe008-6aee-4895-9fdf-b6a85ec32574"},"vehicle_type_id":"4","last_reported":1762769581,"current_range_meters":17600,"station_id":"ce4bgt12rcd13ifvqce0","pricing_plan_id":"cebpf4jnsgd1na2vs0mg"},{"bike_id":"eb981f96-c1a6-4158-ab39-357b040342db","system_id":"levelo_inurba_marseille","lat":43.27497,"lon":5.4247,"is_reserved":false,"is_disabled":false,"rental_uris":{"android":"levelo://app?vid=eb981f96-c1a6-4158-ab39-357b040342db","ios":"levelo://app?vid=eb981f96-c1a6-4158-ab39-357b040342db"},"vehicle_type_id":"4","last_reported":1762769581,"current_range_meters":17600,"station_id":"ce4bhn92rcd13ifvqgrg","pricing_plan_id":"cebpf4jnsgd1na2vs0mg"},{"bike_id":"42bbdb4f-c9b7-4299-b4a6-0178a6a32bf3","system_id":"levelo_inurba_marseille","lat":43.31834,"lon":5.37412,"is_reserved":false,"is_disabled":false,"rental_uris":{"android":"levelo://app?vid=42bbdb4f-c9b7-4299-b4a6-0178a6a32bf3","ios":"levelo://app?vid=42bbdb4f-c9b7-4299-b4a6-0178a6a32bf3"},"vehicle_type_id":"4","last_reported":1762769581,"current_range_meters":17600,"station_id":"","pricing_plan_id":"cebpf4jnsgd1na2vs0mg"},{"bike_id":"66b0d514-dae2-4dc7-bd19-b20bae729fa6","system_id":"levelo_inurba_marseille","lat":43.24653,"lon":5.38878,"is_reserved":false,"is_disabled":false,"rental_uris":{"android":"levelo://app?vid=66b0d514-dae2-4dc7-bd19-b20bae729fa6","ios":"levelo://app?vid=66b0d514-dae2-4dc7-bd19-b20bae729fa6"},"vehicle_type_id":"4","last_reported":1762769581,"current_range_meters":17600,"station_id":"ce4bhg12rcd13ifvqf60","pricing_plan_id":"cebpf4jnsgd1na2vs0mg"},{"bike_id":"eaf38be0-8bc4-4e69-b883-b178f771e6cf","system_id":"levelo_inurba_marseille","lat":43.329129,"lon":5.361737,"is_reserved":false,"is_disabled":false,"rental_uris":{"android":"levelo://app?vid=eaf38be0-8bc4-4e69-b883-b178f771e6cf","ios":"levelo://app?vid=eaf38be0-8bc4-4e69-b883-b178f771e6cf"},"vehicle_type_id":"4","last_reported":1762769581,"current_range_meters":17600,"station_id":"","pricing_plan_id":"cebpf4jnsgd1na2vs0mg"},{"bike_id":"add179cc-c88d-4128-8d15-3632eecc76a6","system_id":"levelo_inurba_marseille","lat":43.30476,"lon":5.37901,"is_reserved":false,"is_disabled":false,"rental_uris":{"android":"levelo://app?vid=add179cc-c88d-4128-8d15-3632eecc76a6","ios":"levelo://app?vid=add179cc-c88d-4128-8d15-3632eecc76a6"},"vehicle_type_id":"4","last_reported":1762769581,"current_range_meters":17600,"station_id":"ce4bgup2rcd13ifvqcn0","pricing_plan_id":"cebpf4jnsgd1na2vs0mg"},{"bike_id":"7101f486-0127-4fc0-93f5-4b597b09dc60","system_id":"levelo_inurba_marseille","lat":43.23059,"lon":5.35493,"is_reserved":false,"is_disabled":false,"rental_uris":{"android":"levelo://app?vid=7101f486-0127-4fc0-93f5-4b597b09dc60","ios":"levelo://app?vid=7101f486-0127-4fc0-93f5-4b597b09dc60"},"vehicle_type_id":"4","last_reported":1762769581,"current_range_meters":17600,"station_id":"cpo3342slgdg3j2ifvpg","pricing_plan_id":"cebpf4jnsgd1na2vs0mg"},{"bike_id":"47c49550-431e-443c-b745-93915c5aa86f","system_id":"levelo_inurba_marseille","lat":43.23191,"lon":5.35557,"is_reserved":false,"is_disabled":false,"rental_uris":{"android":"levelo://app?vid=47c49550-431e-443c-b745-93915c5aa86f","ios":"levelo://app?vid=47c49550-431e-443c-b745-93915c5aa86f"},"vehicle_type_id":"4","last_reported":1762769581,"current_range_meters":17600,"station_id":"ce4bhu92rcd13ifvqi70","pricing_plan_id":"cebpf4jnsgd1na2vs0mg"},{"bike_id":"0f82dec7-4a1c-4e61-8247-5e6250dee55a","system_id":"levelo_inurba_marseille","lat":43.26557,"lon":5.39008,"is_reserved":false,"is_disabled":false,"rental_uris":{"android":"levelo://app?vid=0f82dec7-4a1c-4e61-8247-5e6250dee55a","ios":"levelo://app?vid=0f82dec7-4a1c-4e61-8247-5e6250dee55a"},"vehicle_type_id":"4","last_reported":1762769581,"current_range_meters":17600,"station_id":"ce4bhe12rcd13ifvqf30","pricing_plan_id":"cebpf4jnsgd1na2vs0mg"},{"bike_id":"8e2fdece-e853-4ec5-9b8f-10cb99b9c768","system_id":"levelo_inurba_marseille","lat":43.29892,"lon":5.43671,"is_reserved":false,"is_disabled":false,"rental_uris":{"android":"levelo://app?vid=8e2fdece-e853-4ec5-9b8f-10cb99b9c768","ios":"levelo://app?vid=8e2fdece-e853-4ec5-9b8f-10cb99b9c768"},"vehicle_type_id":"4","last_reported":1762769581,"current_range_meters":18000,"station_id":"ce4bhpp2rcd13ifvqhfg","pricing_plan_id":"cebpf4jnsgd1na2vs0mg"},{"bike_id":"95ae17e3-7c0d-4f86-b2d5-4b691c67860d","system_id":"levelo_inurba_marseille","lat":43.31494,"lon":5.37305,"is_reserved":false,"is_disabled":false,"rental_uris":{"android":"levelo://app?vid=95ae17e3-7c0d-4f86-b2d5-4b691c67860d","ios":"levelo://app?vid=95ae17e3-7c0d-4f86-b2d5-4b691c67860d"},"vehicle_type_id":"4","last_reported":1762769581,"current_range_meters":18000,"station_id":"ce4bgt12rcd13ifvqcd0","pricing_plan_id":"cebpf4jnsgd1na2vs0mg"},{"bike_id":"4cae9d5c-a24c-41f1-9f54-aaa487e732a6","system_id":"levelo_inurba_marseille","lat":43.29972,"lon":5.38187,"is_reserved":false,"is_disabled":false,"rental_uris":{"android":"levelo://app?vid=4cae9d5c-a24c-41f1-9f54-aaa487e732a6","ios":"levelo://app?vid=4cae9d5c-a24c-41f1-9f54-aaa487e732a6"},"vehicle_type_id":"4","last_reported":1762769581,"current_range_meters":18000,"station_id":"","pricing_plan_id":"cebpf4jnsgd1na2vs0mg"},{"bike_id":"40e564a1-a6ec-468b-875a-2a48ec9d0cad","system_id":"levelo_inurba_marseille","lat":43.26063,"lon":5.39395,"is_reserved":false,"is_disabled":false,"rental_uris":{"android":"levelo://app?vid=40e564a1-a6ec-468b-875a-2a48ec9d0cad","ios":"levelo://app?vid=40e564a1-a6ec-468b-875a-2a48ec9d0cad"},"vehicle_type_id":"4","last_reported":1762769581,"current_range_meters":18000,"station_id":"ce4bhh92rcd13ifvqfj0","pricing_plan_id":"cebpf4jnsgd1na2vs0mg"},{"bike_id":"6ae87b41-3981-4b69-b43c-0b6bde62265a","system_id":"levelo_inurba_marseille","lat":43.337739,"lon":5.37429,"is_reserved":false,"is_disabled":false,"rental_uris":{"android":"levelo://app?vid=6ae87b41-3981-4b69-b43c-0b6bde62265a","ios":"levelo://app?vid=6ae87b41-3981-4b69-b43c-0b6bde62265a"},"vehicle_type_id":"4","last_reported":1762769581,"current_range_meters":18000,"station_id":"","pricing_plan_id":"cebpf4jnsgd1na2vs0mg"},{"bike_id":"a506955a-debf-4b40-a307-aa2bd90a16c0","system_id":"levelo_inurba_marseille","lat":43.28924,"lon":5.38383,"is_reserved":false,"is_disabled":false,"rental_uris":{"android":"levelo://app?vid=a506955a-debf-4b40-a307-aa2bd90a16c0","ios":"levelo://app?vid=a506955a-debf-4b40-a307-aa2bd90a16c0"},"vehicle_type_id":"4","last_reported":1762769581,"current_range_meters":18000,"station_id":"ce4bh612rcd13ifvqe6g","pricing_plan_id":"cebpf4jnsgd1na2vs0mg"},{"bike_id":"a1841d02-b053-4f88-89ac-a2a3e0997d3f","system_id":"levelo_inurba_marseille","lat":43.21735,"lon":5.34616,"is_reserved":false,"is_disabled":false,"rental_uris":{"android":"levelo://app?vid=a1841d02-b053-4f88-89ac-a2a3e0997d3f","ios":"levelo://app?vid=a1841d02-b053-4f88-89ac-a2a3e0997d3f"},"vehicle_type_id":"4","last_reported":1762769581,"current_range_meters":18000,"station_id":"st_cvj6r9ubvosntc0bgbag","pricing_plan_id":"cebpf4jnsgd1na2vs0mg"},{"bike_id":"122bdab4-68f6-41de-a130-9cd3d01ccdfd","system_id":"levelo_inurba_marseille","lat":43.22533,"lon":5.34829,"is_reserved":false,"is_disabled":false,"rental_uris":{"android":"levelo://app?vid=122bdab4-68f6-41de-a130-9cd3d01ccdfd","ios":"levelo://app?vid=122bdab4-68f6-41de-a130-9cd3d01ccdfd"},"vehicle_type_id":"4","last_reported":1762769581,"current_range_meters":18000,"station_id":"","pricing_plan_id":"cebpf4jnsgd1na2vs0mg"},{"bike_id":"851e52a7-7701-41a2-9335-4b4a9404896b","system_id":"levelo_inurba_marseille","lat":43.29824,"lon":5.44059,"is_reserved":false,"is_disabled":false,"rental_uris":{"android":"levelo://app?vid=851e52a7-7701-41a2-9335-4b4a9404896b","ios":"levelo://app?vid=851e52a7-7701-41a2-9335-4b4a9404896b"},"vehicle_type_id":"4","last_reported":1762769581,"current_range_meters":18000,"station_id":"st_d3jp68qikq2c7381ktn0","pricing_plan_id":"cebpf4jnsgd1na2vs0mg"},{"bike_id":"2464f496-6052-429f-bc36-da5f3580651f","system_id":"levelo_inurba_marseille","lat":43.29781,"lon":5.37094,"is_reserved":false,"is_disabled":false,"rental_uris":{"android":"levelo://app?vid=2464f496-6052-429f-bc36-da5f3580651f","ios":"levelo://app?vid=2464f496-6052-429f-bc36-da5f3580651f"},"vehicle_type_id":"4","last_reported":1762769581,"current_range_meters":18000,"station_id":"ce4bgop2rcd13ifvqc1g","pricing_plan_id":"cebpf4jnsgd1na2vs0mg"},{"bike_id":"db0fd77d-283f-400a-a9f0-2704580943d1","system_id":"levelo_inurba_marseille","lat":43.30947,"lon":5.39101,"is_reserved":false,"is_disabled":false,"rental_uris":{"android":"levelo://app?vid=db0fd77d-283f-400a-a9f0-2704580943d1","ios":"levelo://app?vid=db0fd77d-283f-400a-a9f0-2704580943d1"},"vehicle_type_id":"4","last_reported":1762769581,"current_range_meters":18000,"station_id":"","pricing_plan_id":"cebpf4jnsgd1na2vs0mg"},{"bike_id":"a883b8f5-f4b3-468d-bd94-803e6672cff2","system_id":"levelo_inurba_marseille","lat":43.31234,"lon":5.36849,"is_reserved":false,"is_disabled":false,"rental_uris":{"android":"levelo://app?vid=a883b8f5-f4b3-468d-bd94-803e6672cff2","ios":"levelo://app?vid=a883b8f5-f4b3-468d-bd94-803e6672cff2"},"vehicle_type_id":"4","last_reported":1762769581,"current_range_meters":18000,"station_id":"ce4bgl92rcd13ifvqbq0","pricing_plan_id":"cebpf4jnsgd1na2vs0mg"},{"bike_id":"d9f0d509-b83b-41e4-95c6-83af38b3244c","system_id":"levelo_inurba_marseille","lat":43.29,"lon":5.35605,"is_reserved":false,"is_disabled":false,"rental_uris":{"android":"levelo://app?vid=d9f0d509-b83b-41e4-95c6-83af38b3244c","ios":"levelo://app?vid=d9f0d509-b83b-41e4-95c6-83af38b3244c"},"vehicle_type_id":"4","last_reported":1762769581,"current_range_meters":18000,"station_id":"ce4bhb92rcd13ifvqen0","pricing_plan_id":"cebpf4jnsgd1na2vs0mg"},{"bike_id":"206c8ef5-b58f-47d8-bf12-20a780f61487","system_id":"levelo_inurba_marseille","lat":43.278112,"lon":5.407162,"is_reserved":false,"is_disabled":false,"rental_uris":{"android":"levelo://app?vid=206c8ef5-b58f-47d8-bf12-20a780f61487","ios":"levelo://app?vid=206c8ef5-b58f-47d8-bf12-20a780f61487"},"vehicle_type_id":"4","last_reported":1762769581,"current_range_meters":18800,"station_id":"","pricing_plan_id":"cebpf4jnsgd1na2vs0mg"},{"bike_id":"5eb28dc9-1056-4fe2-a3f0-4c13efc57df0","system_id":"levelo_inurba_marseille","lat":43.25959,"lon":5.40931,"is_reserved":false,"is_disabled":false,"rental_uris":{"android":"levelo://app?vid=5eb28dc9-1056-4fe2-a3f0-4c13efc57df0","ios":"levelo://app?vid=5eb28dc9-1056-4fe2-a3f0-4c13efc57df0"},"vehicle_type_id":"4","last_reported":1762769581,"current_range_meters":18800,"station_id":"ce4bhm92rcd13ifvqglg","pricing_plan_id":"cebpf4jnsgd1na2vs0mg"},{"bike_id":"e9a6e28c-dd1a-4f55-8f45-cb7f4b7664a8","system_id":"levelo_inurba_marseille","lat":43.272146,"lon":5.391781,"is_reserved":false,"is_disabled":false,"rental_uris":{"android":"levelo://app?vid=e9a6e28c-dd1a-4f55-8f45-cb7f4b7664a8","ios":"levelo://app?vid=e9a6e28c-dd1a-4f55-8f45-cb7f4b7664a8"},"vehicle_type_id":"4","last_reported":1762769581,"current_range_meters":18800,"station_id":"ce4bhhp2rcd13ifvqfm0","pricing_plan_id":"cebpf4jnsgd1na2vs0mg"},{"bike_id":"a5435a88-a619-47f3-9ae6-c860a89e9176","system_id":"levelo_inurba_marseille","lat":43.29746,"lon":5.37667,"is_reserved":false,"is_disabled":false,"rental_uris":{"android":"levelo://app?vid=a5435a88-a619-47f3-9ae6-c860a89e9176","ios":"levelo://app?vid=a5435a88-a619-47f3-9ae6-c860a89e9176"},"vehicle_type_id":"4","last_reported":1762769581,"current_range_meters":18800,"station_id":"ce4bgkh2rcd13ifvqbl0","pricing_plan_id":"cebpf4jnsgd1na2vs0mg"},{"bike_id":"60c5cdaa-363a-458c-a732-52b49323ea9f","system_id":"levelo_inurba_marseille","lat":43.28707,"lon":5.37947,"is_reserved":false,"is_disabled":false,"rental_uris":{"android":"levelo://app?vid=60c5cdaa-363a-458c-a732-52b49323ea9f","ios":"levelo://app?vid=60c5cdaa-363a-458c-a732-52b49323ea9f"},"vehicle_type_id":"4","last_reported":1762769581,"current_range_meters":18800,"station_id":"ce4bh9p2rcd13ifvqec0","pricing_plan_id":"cebpf4jnsgd1na2vs0mg"},{"bike_id":"1c1e5e86-f0e6-459d-b631-49a91d6953f1","system_id":"levelo_inurba_marseille","lat":43.29844,"lon":5.36276,"is_reserved":false,"is_disabled":false,"rental_uris":{"android":"levelo://app?vid=1c1e5e86-f0e6-459d-b631-49a91d6953f1","ios":"levelo://app?vid=1c1e5e86-f0e6-459d-b631-49a91d6953f1"},"vehicle_type_id":"4","last_reported":1762769581,"current_range_meters":19200,"station_id":"ce4bgpp2rcd13ifvqc3g","pricing_plan_id":"cebpf4jnsgd1na2vs0mg"},{"bike_id":"d610cd16-c813-406e-bee7-295ec8ce6047","system_id":"levelo_inurba_marseille","lat":43.31472,"lon":5.37389,"is_reserved":false,"is_disabled":false,"rental_uris":{"android":"levelo://app?vid=d610cd16-c813-406e-bee7-295ec8ce6047","ios":"levelo://app?vid=d610cd16-c813-406e-bee7-295ec8ce6047"},"vehicle_type_id":"4","last_reported":1762769581,"current_range_meters":19200,"station_id":"","pricing_plan_id":"cebpf4jnsgd1na2vs0mg"},{"bike_id":"69118933-bbe9-4517-98b3-f83194b1bf74","system_id":"levelo_inurba_marseille","lat":43.31123,"lon":5.377688,"is_reserved":false,"is_disabled":false,"rental_uris":{"android":"levelo://app?vid=69118933-bbe9-4517-98b3-f83194b1bf74","ios":"levelo://app?vid=69118933-bbe9-4517-98b3-f83194b1bf74"},"vehicle_type_id":"4","last_reported":1762769581,"current_range_meters":19200,"station_id":"ce4bgt92rcd13ifvqcg0","pricing_plan_id":"cebpf4jnsgd1na2vs0mg"},{"bike_id":"d900c339-5489-4108-89e5-9b53f0f4d1db","system_id":"levelo_inurba_marseille","lat":43.225329,"lon":5.348353,"is_reserved":false,"is_disabled":false,"rental_uris":{"android":"levelo://app?vid=d900c339-5489-4108-89e5-9b53f0f4d1db","ios":"levelo://app?vid=d900c339-5489-4108-89e5-9b53f0f4d1db"},"vehicle_type_id":"4","last_reported":1762769581,"current_range_meters":19200,"station_id":"","pricing_plan_id":"cebpf4jnsgd1na2vs0mg"},{"bike_id":"27b4a801-4235-4582-8ab7-9991dbe54d08","system_id":"levelo_inurba_marseille","lat":43.25941,"lon":5.40882,"is_reserved":false,"is_disabled":false,"rental_uris":{"android":"levelo://app?vid=27b4a801-4235-4582-8ab7-9991dbe54d08","ios":"levelo://app?vid=27b4a801-4235-4582-8ab7-9991dbe54d08"},"vehicle_type_id":"4","last_reported":1762769581,"current_range_meters":19200,"station_id":"ce4bhm92rcd13ifvqglg","pricing_plan_id":"cebpf4jnsgd1na2vs0mg"},{"bike_id":"fc1f5c57-3eec-4587-8f48-2d82447f64fc","system_id":"levelo_inurba_marseille","lat":43.28959,"lon":5.37828,"is_reserved":false,"is_disabled":false,"rental_uris":{"android":"levelo://app?vid=fc1f5c57-3eec-4587-8f48-2d82447f64fc","ios":"levelo://app?vid=fc1f5c57-3eec-4587-8f48-2d82447f64fc"},"vehicle_type_id":"4","last_reported":1762769581,"current_range_meters":19200,"station_id":"ce4bh9p2rcd13ifvqed0","pricing_plan_id":"cebpf4jnsgd1na2vs0mg"},{"bike_id":"e2104b6a-7e12-4a20-ae1b-cf4b446d5e26","system_id":"levelo_inurba_marseille","lat":43.28479,"lon":5.48365,"is_reserved":false,"is_disabled":false,"rental_uris":{"android":"levelo://app?vid=e2104b6a-7e12-4a20-ae1b-cf4b446d5e26","ios":"levelo://app?vid=e2104b6a-7e12-4a20-ae1b-cf4b446d5e26"},"vehicle_type_id":"4","last_reported":1762769581,"current_range_meters":19200,"station_id":"st_d3svhcjqgbts73a3dn0g","pricing_plan_id":"cebpf4jnsgd1na2vs0mg"},{"bike_id":"3a6f4c5e-f76c-4fa9-8ff9-7f4114497bfe","system_id":"levelo_inurba_marseille","lat":43.27497,"lon":5.42451,"is_reserved":false,"is_disabled":false,"rental_uris":{"android":"levelo://app?vid=3a6f4c5e-f76c-4fa9-8ff9-7f4114497bfe","ios":"levelo://app?vid=3a6f4c5e-f76c-4fa9-8ff9-7f4114497bfe"},"vehicle_type_id":"4","last_reported":1762769581,"current_range_meters":19200,"station_id":"ce4bhn92rcd13ifvqgrg","pricing_plan_id":"cebpf4jnsgd1na2vs0mg"},