{"last_updated":1753899409,"ttl":60,"version":"2.2","data":{"bikes":[{"bike_id":"a229b45a-9ff3-4264-b2fc-cfaec2c3e418","system_id":"levelo_inurba_marseille","lat":43.28479,"lon":5.384088,"is_reserved":false,"is_disabled":false,"rental_uris":{"android":"levelo://app?vid=a229b45a-9ff3-4264-b2fc-cfaec2c3e418","ios":"levelo://app?vid=a229b45a-9ff3-4264-b2fc-cfaec2c3e418"},"vehicle_type_id":"4","last_reported":1753899410,"current_range_meters":1600,"station_id":"ce4bh512rcd13ifvqe3g","pricing_plan_id":"cebpf4jnsgd1na2vs0mg"},{"bike_id":"bc393535-ad13-4fb1-ba45-8033e1f62169","system_id":"levelo_inurba_marseille","lat":43.27947,"lon":5.41035,"is_reserved":false,"is_disabled":true,"rental_uris":{"android":"levelo://app?vid=bc393535-ad13-4fb1-ba45-8033e1f62169","ios":"levelo://app?vid=bc393535-ad13-4fb1-ba45-8033e1f62169"},"vehicle_type_id":"4","last_reported":1753899410,"current_range_meters":2800,"station_id":"ce4bhnp2rcd13ifvqh0g","pricing_plan_id":"cebpf4jnsgd1na2vs0mg"},{"bike_id":"80915a30-ef88-4d81-b5d1-969d1c17a42d","system_id":"levelo_inurba_marseille","lat":43.30414,"lon":5.40832,"is_reserved":false,"is_disabled":false,"rental_uris":{"android":"levelo://app?vid=80915a30-ef88-4d81-b5d1-969d1c17a42d","ios":"levelo://app?vid=80915a30-ef88-4d81-b5d1-969d1c17a42d"},"vehicle_type_id":"4","last_reported":1753899410,"current_range_meters":2800,"station_id":"","pricing_plan_id":"cebpf4jnsgd1na2vs0mg"},{"bike_id":"61048ece-b528-444a-a267-1b6f26d9e541","system_id":"levelo_inurba_marseille","lat":43.23962,"lon":5.36627,"is_reserved":false,"is_disabled":false,"rental_uris":{"android":"levelo://app?vid=61048ece-b528-444a-a267-1b6f26d9e541","ios":"levelo://app?vid=61048ece-b528-444a-a267-1b6f26d9e541"},"vehicle_type_id":"4","last_reported":1753899410,"current_range_meters":3200,"station_id":"ce4bhi12rcd13ifvqfp0","pricing_plan_id":"cebpf4jnsgd1na2vs0mg"},{"bike_id":"8a569b31-55c0-441f-9435-5ac594ac9c22","system_id":"levelo_inurba_marseille","lat":43.297302,"lon":5.374166,"is_reserved":false,"is_disabled":false,"rental_uris":{"android":"levelo://app?vid=8a569b31-55c0-441f-9435-5ac594ac9c22","ios":"levelo://app?vid=8a569b31-55c0-441f-9435-5ac594ac9c22"},"vehicle_type_id":"4","last_reported":1753899410,"current_range_meters":3200,"station_id":"","pricing_plan_id":"cebpf4jnsgd1na2vs0mg"},{"bike_id":"85eb3dd6-ba9d-4d7c-9159-94fcdf327503","system_id":"levelo_inurba_marseille","lat":43.28621,"lon":5.351,"is_reserved":false,"is_disabled":false,"rental_uris":{"android":"levelo://app?vid=85eb3dd6-ba9d-4d7c-9159-94fcdf327503","ios":"levelo://app?vid=85eb3dd6-ba9d-4d7c-9159-94fcdf327503"},"vehicle_type_id":"4","last_reported":1753899410,"current_range_meters":3200,"station_id":"ce4bhch2rcd13ifvqeug","pricing_plan_id":"cebpf4jnsgd1na2vs0mg"},{"bike_id":"817fb0b2-2b89-4a76-bfcf-a6401a94880b","system_id":"levelo_inurba_marseille","lat":43.2175,"lon":5.346,"is_reserved":false,"is_disabled":false,"rental_uris":{"android":"levelo://app?vid=817fb0b2-2b89-4a76-bfcf-a6401a94880b","ios":"levelo://app?vid=817fb0b2-2b89-4a76-bfcf-a6401a94880b"},"vehicle_type_id":"4","last_reported":1753899410,"current_range_meters":3200,"station_id":"","pricing_plan_id":"cebpf4jnsgd1na2vs0mg"},{"bike_id":"95dd70e4-879c-49e7-b318-a6c71b22a43e","system_id":"levelo_inurba_marseille","lat":43.2703,"lon":5.39295,"is_reserved":false,"is_disabled":false,"rental_uris":{"android":"levelo://app?vid=95dd70e4-879c-49e7-b318-a6c71b22a43e","ios":"levelo://app?vid=95dd70e4-879c-49e7-b318-a6c71b22a43e"},"vehicle_type_id":"4","last_reported":1753899410,"current_range_meters":3200,"station_id":"","pricing_plan_id":"cebpf4jnsgd1na2vs0mg"},{"bike_id":"56b51451-9ff5-43bb-a3af-d6b9b19dc09f","system_id":"levelo_inurba_marseille","lat":43.30461,"lon":5.37899,"is_reserved":false,"is_disabled":false,"rental_uris":{"android":"levelo://app?vid=56b51451-9ff5-43bb-a3af-d6b9b19dc09f","ios":"levelo://app?vid=56b51451-9ff5-43bb-a3af-d6b9b19dc09f"},"vehicle_type_id":"4","last_reported":1753899410,"current_range_meters":2800,"station_id":"ce4bgup2rcd13ifvqcn0","pricing_plan_id":"cebpf4jnsgd1na2vs0mg"},{"bike_id":"209c73e6-1f69-4d13-9fed-77cb46eecd05","system_id":"levelo_inurba_marseille","lat":43.34681,"lon":5.38065,"is_reserved":false,"is_disabled":false,"rental_uris":{"android":"levelo://app?vid=209c73e6-1f69-4d13-9fed-77cb46eecd05","ios":"levelo://app?vid=209c73e6-1f69-4d13-9fed-77cb46eecd05"},"vehicle_type_id":"4","last_reported":1753899410,"current_range_meters":3200,"station_id":"","pricing_plan_id":"cebpf4jnsgd1na2vs0mg"},{"bike_id":"181c8049-4fb7-4c27-a6b2-7bb8fea4f09f","system_id":"levelo_inurba_marseille","lat":43.29532,"lon":5.39268,"is_reserved":false,"is_disabled":false,"rental_uris":{"android":"levelo://app?vid=181c8049-4fb7-4c27-a6b2-7bb8fea4f09f","ios":"levelo://app?vid=181c8049-4fb7-4c27-a6b2-7bb8fea4f09f"},"vehicle_type_id":"4","last_reported":1753899410,"current_range_meters":3600,"station_id":"","pricing_plan_id":"cebpf4jnsgd1na2vs0mg"},{"bike_id":"e3776532-a00a-4a37-ad22-7b5b8c5c8838","system_id":"levelo_inurba_marseille","lat":43.28998,"lon":5.35619,"is_reserved":false,"is_disabled":false,"rental_uris":{"android":"levelo://app?vid=e3776532-a00a-4a37-ad22-7b5b8c5c8838","ios":"levelo://app?vid=e3776532-a00a-4a37-ad22-7b5b8c5c8838"},"vehicle_type_id":"4","last_reported":1753899410,"current_range_meters":3600,"station_id":"ce4bhb92rcd13ifvqen0","pricing_plan_id":"cebpf4jnsgd1na2vs0mg"},{"bike_id":"1cd0e315-c184-4ab2-adfc-60569c557416","system_id":"levelo_inurba_marseille","lat":43.28612,"lon":5.35102,"is_reserved":false,"is_disabled":false,"rental_uris":{"android":"levelo://app?vid=1cd0e315-c184-4ab2-adfc-60569c557416","ios":"levelo://app?vid=1cd0e315-c184-4ab2-adfc-60569c557416"},"vehicle_type_id":"4","last_reported":1753899410,"current_range_meters":3600,"station_id":"ce4bhch2rcd13ifvqeug","pricing_plan_id":"cebpf4jnsgd1na2vs0mg"},{"bike_id":"8c103cc7-3db2-4716-a3e1-fd911d22e4f2","system_id":"levelo_inurba_marseille","lat":43.276215,"lon":5.360967,"is_reserved":false,"is_disabled":false,"rental_uris":{"android":"levelo://app?vid=8c103cc7-3db2-4716-a3e1-fd911d22e4f2","ios":"levelo://app?vid=8c103cc7-3db2-4716-a3e1-fd911d22e4f2"},"vehicle_type_id":"4","last_reported":1753899410,"current_range_meters":4000,"station_id":"ce4bgj92rcd13ifvqbe0","pricing_plan_id":"cebpf4jnsgd1na2vs0mg"},{"bike_id":"901c8621-3a99-402d-840c-f10431344ffc","system_id":"levelo_inurba_marseille","lat":43.25724,"lon":5.411106,"is_reserved":false,"is_disabled":false,"rental_uris":{"android":"levelo://app?vid=901c8621-3a99-402d-840c-f10431344ffc","ios":"levelo://app?vid=901c8621-3a99-402d-840c-f10431344ffc"},"vehicle_type_id":"4","last_reported":1753899410,"current_range_meters":4000,"station_id":"ce4bhkp2rcd13ifvqgd0","pricing_plan_id":"cebpf4jnsgd1na2vs0mg"},{"bike_id":"4f16f69d-d8fa-4720-931a-5af6e370a6ae","system_id":"levelo_inurba_marseille","lat":43.27617,"lon":5.36112,"is_reserved":false,"is_disabled":false,"rental_uris":{"android":"levelo://app?vid=4f16f69d-d8fa-4720-931a-5af6e370a6ae","ios":"levelo://app?vid=4f16f69d-d8fa-4720-931a-5af6e370a6ae"},"vehicle_type_id":"4","last_reported":1753899410,"current_range_meters":4400,"station_id":"ce4bgj92rcd13ifvqbe0","pricing_plan_id":"cebpf4jnsgd1na2vs0mg"},{"bike_id":"7ead535a-e7f2-4489-9051-59e4f5eeec8a","system_id":"levelo_inurba_marseille","lat":43.30678,"lon":5.37364,"is_reserved":false,"is_disabled":false,"rental_uris":{"android":"levelo://app?vid=7ead535a-e7f2-4489-9051-59e4f5eeec8a","ios":"levelo://app?vid=7ead535a-e7f2-4489-9051-59e4f5eeec8a"},"vehicle_type_id":"4","last_reported":1753899410,"current_range_meters":4400,"station_id":"","pricing_plan_id":"cebpf4jnsgd1na2vs0mg"},{"bike_id":"29c631a3-f515-4483-97f0-b3b8b1ee2b64","system_id":"levelo_inurba_marseille","lat":43.303,"lon":5.3922,"is_reserved":false,"is_disabled":false,"rental_uris":{"android":"levelo://app?vid=29c631a3-f515-4483-97f0-b3b8b1ee2b64","ios":"levelo://app?vid=29c631a3-f515-4483-97f0-b3b8b1ee2b64"},"vehicle_type_id":"4","last_reported":1753899410,"current_range_meters":4000,"station_id":"ce4bgkh2rcd13ifvqbk0","pricing_plan_id":"cebpf4jnsgd1na2vs0mg"},{"bike_id":"aaed349c-e0b8-4ec7-be41-95dc0fec03af","system_id":"levelo_inurba_marseille","lat":43.26227,"lon":5.40453,"is_reserved":false,"is_disabled":false,"rental_uris":{"android":"levelo://app?vid=aaed349c-e0b8-4ec7-be41-95dc0fec03af","ios":"levelo://app?vid=aaed349c-e0b8-4ec7-be41-95dc0fec03af"},"vehicle_type_id":"4","last_reported":1753899410,"current_range_meters":4400,"station_id":"ce4bhmh2rcd13ifvqgmg","pricing_plan_id":"cebpf4jnsgd1na2vs0mg"},{"bike_id":"149fbe11-3bce-47a0-b584-c7c7bd6bb12f","system_id":"levelo_inurba_marseille","lat":43.21615,"lon":5.34448,"is_reserved":false,"is_disabled":false,"rental_uris":{"android":"levelo://app?vid=149fbe11-3bce-47a0-b584-c7c7bd6bb12f","ios":"levelo://app?vid=149fbe11-3bce-47a0-b584-c7c7bd6bb12f"},"vehicle_type_id":"4","last_reported":1753899410,"current_range_meters":4400,"station_id":"","pricing_plan_id":"cebpf4jnsgd1na2vs0mg"},{"bike_id":"a64a62c7-0270-40a8-aad8-e9d5dfb9670f","system_id":"levelo_inurba_marseille","lat":43.28404,"lon":5.37501,"is_reserved":false,"is_disabled":false,"rental_uris":{"android":"levelo://app?vid=a64a62c7-0270-40a8-aad8-e9d5dfb9670f","ios":"levelo://app?vid=a64a62c7-0270-40a8-aad8-e9d5dfb9670f"},"vehicle_type_id":"4","last_reported":1753899410,"current_range_meters":4400,"station_id":"ce4bh412rcd13ifvqds0","pricing_plan_id":"cebpf4jnsgd1na2vs0mg"},{"bike_id":"72c6b06c-f46c-41bc-aa28-265dfc98e739","system_id":"levelo_inurba_marseille","lat":43.29265,"lon":5.38438,"is_reserved":false,"is_disabled":false,"rental_uris":{"android":"levelo://app?vid=72c6b06c-f46c-41bc-aa28-265dfc98e739","ios":"levelo://app?vid=72c6b06c-f46c-41bc-aa28-265dfc98e739"},"vehicle_type_id":"4","last_reported":1753899410,"current_range_meters":4400,"station_id":"ce4bh692rcd13ifvqea0","pricing_plan_id":"cebpf4jnsgd1na2vs0mg"},{"bike_id":"882bdff1-651a-41c1-9ab0-596f43205cf1","system_id":"levelo_inurba_marseille","lat":43.337444,"lon":5.374475,"is_reserved":false,"is_disabled":false,"rental_uris":{"android":"levelo://app?vid=882bdff1-651a-41c1-9ab0-596f43205cf1","ios":"levelo://app?vid=882bdff1-651a-41c1-9ab0-596f43205cf1"},"vehicle_type_id":"4","last_reported":1753899410,"current_range_meters":4800,"station_id":"ce4bgkp2rcd13ifvqbmg","pricing_plan_id":"cebpf4jnsgd1na2vs0mg"},{"bike_id":"80549901-3000-48cb-92d6-ba46a3cc755c","system_id":"levelo_inurba_marseille","lat":43.25496,"lon":5.37649,"is_reserved":false,"is_disabled":false,"rental_uris":{"android":"levelo://app?vid=80549901-3000-48cb-92d6-ba46a3cc755c","ios":"levelo://app?vid=80549901-3000-48cb-92d6-ba46a3cc755c"},"vehicle_type_id":"4","last_reported":1753899410,"current_range_meters":4800,"station_id":"ce4bhh12rcd13ifvqff0","pricing_plan_id":"cebpf4jnsgd1na2vs0mg"},{"bike_id":"4b110646-74fa-4974-8ad7-94c66dd844ba","system_id":"levelo_inurba_marseille","lat":43.26667,"lon":5.3824,"is_reserved":false,"is_disabled":false,"rental_uris":{"android":"levelo://app?vid=4b110646-74fa-4974-8ad7-94c66dd844ba","ios":"levelo://app?vid=4b110646-74fa-4974-8ad7-94c66dd844ba"},"vehicle_type_id":"4","last_reported":1753899410,"current_range_meters":4800,"station_id":"ce4bhg92rcd13ifvqf90","pricing_plan_id":"cebpf4jnsgd1na2vs0mg"},{"bike_id":"82fb8aad-cf41-4ec7-90b1-5e83aa38a64b","system_id":"levelo_inurba_marseille","lat":43.27318,"lon":5.39074,"is_reserved":false,"is_disabled":false,"rental_uris":{"android":"levelo://app?vid=82fb8aad-cf41-4ec7-90b1-5e83aa38a64b","ios":"levelo://app?vid=82fb8aad-cf41-4ec7-90b1-5e83aa38a64b"},"vehicle_type_id":"4","last_reported":1753899410,"current_range_meters":4800,"station_id":"ce4bhgp2rcd13ifvqfe0","pricing_plan_id":"cebpf4jnsgd1na2vs0mg"},{"bike_id":"2c82a57c-4374-44b9-ad74-c625a7e4d6da","system_id":"levelo_inurba_marseille","lat":43.30136,"lon":5.39864,"is_reserved":false,"is_disabled":false,"rental_uris":{"android":"levelo://app?vid=2c82a57c-4374-44b9-ad74-c625a7e4d6da","ios":"levelo://app?vid=2c82a57c-4374-44b9-ad74-c625a7e4d6da"},"vehicle_type_id":"4","last_reported":1753899410,"current_range_meters":4800,"station_id":"ce4bh0h2rcd13ifvqd40","pricing_plan_id":"cebpf4jnsgd1na2vs0mg"},{"bike_id":"4de57933-10bc-49f5-bac9-e9e5f8e409f6","system_id":"levelo_inurba_marseille","lat":43.29551,"lon":5.42294,"is_reserved":false,"is_disabled":false,"rental_uris":{"android":"levelo://app?vid=4de57933-10bc-49f5-bac9-e9e5f8e409f6","ios":"levelo://app?vid=4de57933-10bc-49f5-bac9-e9e5f8e409f6"},"vehicle_type_id":"4","last_reported":1753899410,"current_range_meters":5600,"station_id":"ce4bhph2rcd13ifvqhdg","pricing_plan_id":"cebpf4jnsgd1na2vs0mg"},{"bike_id":"d5299820-c0ed-4bcc-a7ab-49a99bebd4bd","system_id":"levelo_inurba_marseille","lat":43.2866,"lon":5.36343,"is_reserved":false,"is_disabled":false,"rental_uris":{"android":"levelo://app?vid=d5299820-c0ed-4bcc-a7ab-49a99bebd4bd","ios":"levelo://app?vid=d5299820-c0ed-4bcc-a7ab-49a99bebd4bd"},"vehicle_type_id":"4","last_reported":1753899410,"current_range_meters":5600,"station_id":"ce4bhah2rcd13ifvqej0","pricing_plan_id":"cebpf4jnsgd1na2vs0mg"},{"bike_id":"4f90119a-1406-41d7-90c8-26a6a8896ea6","system_id":"levelo_inurba_marseille","lat":43.292658,"lon":5.384518,"is_reserved":false,"is_disabled":false,"rental_uris":{"android":"levelo://app?vid=4f90119a-1406-41d7-90c8-26a6a8896ea6","ios":"levelo://app?vid=4f90119a-1406-41d7-90c8-26a6a8896ea6"},"vehicle_type_id":"4","last_reported":1753899410,"current_range_meters":5600,"station_id":"ce4bh692rcd13ifvqea0","pricing_plan_id":"cebpf4jnsgd1na2vs0mg"},{"bike_id":"a969385d-6cf5-4644-9ed3-08ad0f7ce888","system_id":"levelo_inurba_marseille","lat":43.28616,"lon":5.35102,"is_reserved":false,"is_disabled":false,"rental_uris":{"android":"levelo://app?vid=a969385d-6cf5-4644-9ed3-08ad0f7ce888","ios":"levelo://app?vid=a969385d-6cf5-4644-9ed3-08ad0f7ce888"},"vehicle_type_id":"4","last_reported":1753899410,"current_range_meters":5600,"station_id":"ce4bhch2rcd13ifvqeug","pricing_plan_id":"cebpf4jnsgd1na2vs0mg"},{"bike_id":"fecf8af3-313b-45da-a3f0-18df855261b0","system_id":"levelo_inurba_marseille","lat":43.27562,"lon":5.38421,"is_reserved":false,"is_disabled":false,"rental_uris":{"android":"levelo://app?vid=fecf8af3-313b-45da-a3f0-18df855261b0","ios":"levelo://app?vid=fecf8af3-313b-45da-a3f0-18df855261b0"},"vehicle_type_id":"4","last_reported":1753899410,"current_range_meters":4800,"station_id":"ce4bhh92rcd13ifvqfi0","pricing_plan_id":"cebpf4jnsgd1na2vs0mg"},{"bike_id":"e3b07b26-145a-4470-a2f3-10a351561542","system_id":"levelo_inurba_marseille","lat":43.28885,"lon":5.36862,"is_reserved":false,"is_disabled":false,"rental_uris":{"android":"levelo://app?vid=e3b07b26-145a-4470-a2f3-10a351561542","ios":"levelo://app?vid=e3b07b26-145a-4470-a2f3-10a351561542"},"vehicle_type_id":"4","last_reported":1753899410,"current_range_meters":6000,"station_id":"","pricing_plan_id":"cebpf4jnsgd1na2vs0mg"},{"bike_id":"6dc788ab-7c8d-4530-8182-6dce14a4d06a","system_id":"levelo_inurba_marseille","lat":43.25108,"lon":5.40323,"is_reserved":false,"is_disabled":false,"rental_uris":{"android":"levelo://app?vid=6dc788ab-7c8d-4530-8182-6dce14a4d06a","ios":"levelo://app?vid=6dc788ab-7c8d-4530-8182-6dce14a4d06a"},"vehicle_type_id":"4","last_reported":1753899410,"current_range_meters":6000,"station_id":"ce4bhlh2rcd13ifvqgig","pricing_plan_id":"cebpf4jnsgd1na2vs0mg"},{"bike_id":"d4b0442d-37e3-4887-8827-87b59f4e9086","system_id":"levelo_inurba_marseille","lat":43.2977,"lon":5.38108,"is_reserved":false,"is_disabled":false,"rental_uris":{"android":"levelo://app?vid=d4b0442d-37e3-4887-8827-87b59f4e9086","ios":"levelo://app?vid=d4b0442d-37e3-4887-8827-87b59f4e9086"},"vehicle_type_id":"4","last_reported":1753899410,"current_range_meters":6000,"station_id":"","pricing_plan_id":"cebpf4jnsgd1na2vs0mg"},{"bike_id":"fa8d42f8-e2f0-4e1b-9277-010d8576afff","system_id":"levelo_inurba_marseille","lat":43.282759,"lon":5.350604,"is_reserved":false,"is_disabled":false,"rental_uris":{"android":"levelo://app?vid=fa8d42f8-e2f0-4e1b-9277-010d8576afff","ios":"levelo://app?vid=fa8d42f8-e2f0-4e1b-9277-010d8576afff"},"vehicle_type_id":"4","last_reported":1753899410,"current_range_meters":6400,"station_id":"ce4bhbp2rcd13ifvqerg","pricing_plan_id":"cebpf4jnsgd1na2vs0mg"},{"bike_id":"acc9c709-60fd-46c9-94af-73520d5971c8","system_id":"levelo_inurba_marseille","lat":43.28422,"lon":5.34988,"is_reserved":false,"is_disabled":false,"rental_uris":{"android":"levelo://app?vid=acc9c709-60fd-46c9-94af-73520d5971c8","ios":"levelo://app?vid=acc9c709-60fd-46c9-94af-73520d5971c8"},"vehicle_type_id":"4","last_reported":1753899410,"current_range_meters":6400,"station_id":"ce4bhbh2rcd13ifvqepg","pricing_plan_id":"cebpf4jnsgd1na2vs0mg"},{"bike_id":"37fcf059-83b8-4b6e-bc28-0c83f77e3c05","system_id":"levelo_inurba_marseille","lat":43.22557,"lon":5.34759,"is_reserved":false,"is_disabled":false,"rental_uris":{"android":"levelo://app?vid=37fcf059-83b8-4b6e-bc28-0c83f77e3c05","ios":"levelo://app?vid=37fcf059-83b8-4b6e-bc28-0c83f77e3c05"},"vehicle_type_id":"4","last_reported":1753899410,"current_range_meters":6400,"station_id":"","pricing_plan_id":"cebpf4jnsgd1na2vs0mg"},{"bike_id":"d2dad233-5182-49c2-9165-fef6fa7d135e","system_id":"levelo_inurba_marseille","lat":43.25108,"lon":5.4032,"is_reserved":false,"is_disabled":false,"rental_uris":{"android":"levelo://app?vid=d2dad233-5182-49c2-9165-fef6fa7d135e","ios":"levelo://app?vid=d2dad233-5182-49c2-9165-fef6fa7d135e"},"vehicle_type_id":"4","last_reported":1753899410,"current_range_meters":6000,"station_id":"ce4bhlh2rcd13ifvqgig","pricing_plan_id":"cebpf4jnsgd1na2vs0mg"},{"bike_id":"4f068703-e07b-4924-b29d-792d366371eb","system_id":"levelo_inurba_marseille","lat":43.27371,"lon":5.36263,"is_reserved":false,"is_disabled":false,"rental_uris":{"android":"levelo://app?vid=4f068703-e07b-4924-b29d-792d366371eb","ios":"levelo://app?vid=4f068703-e07b-4924-b29d-792d366371eb"},"vehicle_type_id":"4","last_reported":1753899410,"current_range_meters":6400,"station_id":"ce4bhbh2rcd13ifvqeo0","pricing_plan_id":"cebpf4jnsgd1na2vs0mg"},{"bike_id":"fa9b45b9-ac47-47d0-9a2d-35aa29a4fd2e","system_id":"levelo_inurba_marseille","lat":43.30785,"lon":5.37639,"is_reserved":false,"is_disabled":false,"rental_uris":{"android":"levelo://app?vid=fa9b45b9-ac47-47d0-9a2d-35aa29a4fd2e","ios":"levelo://app?vid=fa9b45b9-ac47-47d0-9a2d-35aa29a4fd2e"},"vehicle_type_id":"4","last_reported":1753899410,"current_range_meters":6400,"station_id":"ce4bgv92rcd13ifvqcq0","pricing_plan_id":"cebpf4jnsgd1na2vs0mg"},{"bike_id":"7e4a0d00-0d9a-4f5f-84b1-5c2ccf9f1b2f","system_id":"levelo_inurba_marseille","lat":43.32028,"lon":5.41576,"is_reserved":false,"is_disabled":true,"rental_uris":{"android":"levelo://app?vid=7e4a0d00-0d9a-4f5f-84b1-5c2ccf9f1b2f","ios":"levelo://app?vid=7e4a0d00-0d9a-4f5f-84b1-5c2ccf9f1b2f"},"vehicle_type_id":"4","last_reported":1753899410,"current_range_meters":6400,"station_id":"ce4bhq92rcd13ifvqhkg","pricing_plan_id":"cebpf4jnsgd1na2vs0mg"},{"bike_id":"df006721-a1e9-4a2f-8e74-596c3e97570c","system_id":"levelo_inurba_marseille","lat":43.2657,"lon":5.39005,"is_reserved":false,"is_disabled":false,"rental_uris":{"android":"levelo://app?vid=df006721-a1e9-4a2f-8e74-596c3e97570c","ios":"levelo://app?vid=df006721-a1e9-4a2f-8e74-596c3e97570c"},"vehicle_type_id":"4","last_reported":1753899410,"current_range_meters":6400,"station_id":"ce4bhe12rcd13ifvqf30","pricing_plan_id":"cebpf4jnsgd1na2vs0mg"},{"bike_id":"1b0b55e9-561f-4aac-aca2-334d6e2b1104","system_id":"levelo_inurba_marseille","lat":43.22506,"lon":5.34769,"is_reserved":false,"is_disabled":false,"rental_uris":{"android":"levelo://app?vid=1b0b55e9-561f-4aac-aca2-334d6e2b1104","ios":"levelo://app?vid=1b0b55e9-561f-4aac-aca2-334d6e2b1104"},"vehicle_type_id":"4","last_reported":1753899410,"current_range_meters":6400,"station_id":"st_cvj5dfep6f1abm77gieg","pricing_plan_id":"cebpf4jnsgd1na2vs0mg"},{"bike_id":"0fb6ae34-5dcc-4ccd-9f34-77d689d9b0b5","system_id":"levelo_inurba_marseille","lat":43.27367,"lon":5.3625,"is_reserved":false,"is_disabled":false,"rental_uris":{"android":"levelo://app?vid=0fb6ae34-5dcc-4ccd-9f34-77d689d9b0b5","ios":"levelo://app?vid=0fb6ae34-5dcc-4ccd-9f34-77d689d9b0b5"},"vehicle_type_id":"4","last_reported":1753899410,"current_range_meters":6800,"station_id":"ce4bhbh2rcd13ifvqeo0","pricing_plan_id":"cebpf4jnsgd1na2vs0mg"},{"bike_id":"1527510f-695d-4ec5-b632-31e54a30d803","system_id":"levelo_inurba_marseille","lat":43.29305,"lon":5.37173,"is_reserved":false,"is_disabled":false,"rental_uris":{"android":"levelo://app?vid=1527510f-695d-4ec5-b632-31e54a30d803","ios":"levelo://app?vid=1527510f-695d-4ec5-b632-31e54a30d803"},"vehicle_type_id":"4","last_reported":1753899410,"current_range_meters":6800,"station_id":"ce4bgh92rcd13ifvqb40","pricing_plan_id":"cebpf4jnsgd1na2vs0mg"},{"bike_id":"1e0b420d-4dba-4a88-9164-b1f7ac4eadfa","system_id":"levelo_inurba_marseille","lat":43.29535,"lon":5.37499,"is_reserved":false,"is_disabled":false,"rental_uris":{"android":"levelo://app?vid=1e0b420d-4dba-4a88-9164-b1f7ac4eadfa","ios":"levelo://app?vid=1e0b420d-4dba-4a88-9164-b1f7ac4eadfa"},"vehicle_type_id":"4","last_reported":1753899410,"current_range_meters":6800,"station_id":"ce4bgkp2rcd13ifvqbmg","pricing_plan_id":"cebpf4jnsgd1na2vs0mg"},{"bike_id":"a3bd221b-4105-4313-9ff3-1b2e82aa099e","system_id":"levelo_inurba_marseille","lat":43.29603,"lon":5.38124,"is_reserved":false,"is_disabled":false,"rental_uris":{"android":"levelo://app?vid=a3bd221b-4105-4313-9ff3-1b2e82aa099e","ios":"levelo://app?vid=a3bd221b-4105-4313-9ff3-1b2e82aa099e"},"vehicle_type_id":"4","last_reported":1753899410,"current_range_meters":6800,"station_id":"ce4bgl12rcd13ifvqbo0","pricing_plan_id":"cebpf4jnsgd1na2vs0mg"},{"bike_id":"6f467bd3-5d7c-4449-9ac3-cb0767cd0543","system_id":"levelo_inurba_marseille","lat":43.30299,"lon":5.39224,"is_reserved":false,"is_disabled":false,"rental_uris":{"android":"levelo://app?vid=6f467bd3-5d7c-4449-9ac3-cb0767cd0543","ios":"levelo://app?vid=6f467bd3-5d7c-4449-9ac3-cb0767cd0543"},"vehicle_type_id":"4","last_reported":1753899410,"current_range_meters":6800,"station_id":"ce4bgkh2rcd13ifvqbk0","pricing_plan_id":"cebpf4jnsgd1na2vs0mg"},{"bike_id":"c9e5cf98-36fd-4b86-b6b1-31cf99619f3e","system_id":"levelo_inurba_marseille","lat":43.23181,"lon":5.400041,"is_reserved":false,"is_disabled":true,"rental_uris":{"android":"levelo://app?vid=c9e5cf98-36fd-4b86-b6b1-31cf99619f3e","ios":"levelo://app?vid=c9e5cf98-36fd-4b86-b6b1-31cf99619f3e"},"vehicle_type_id":"4","last_reported":1753899410,"current_range_meters":6800,"station_id":"ce4bhn12rcd13ifvqgqg","pricing_plan_id":"cebpf4jnsgd1na2vs0mg"},{"bike_id":"8be5d2e8-42d5-48ea-aa8f-d84035d9fb5d","system_id":"levelo_inurba_marseille","lat":43.29541,"lon":5.38524,"is_reserved":false,"is_disabled":false,"rental_uris":{"android":"levelo://app?vid=8be5d2e8-42d5-48ea-aa8f-d84035d9fb5d","ios":"levelo://app?vid=8be5d2e8-42d5-48ea-aa8f-d84035d9fb5d"},"vehicle_type_id":"4","last_reported":1753899410,"current_range_meters":6800,"station_id":"ce4bgih2rcd13ifvqba0","pricing_plan_id":"cebpf4jnsgd1na2vs0mg"},{"bike_id":"5fc618e0-331d-48d5-9a12-c5f03988e973","system_id":"levelo_inurba_marseille","lat":43.28158,"lon":5.42626,"is_reserved":false,"is_disabled":false,"rental_uris":{"android":"levelo://app?vid=5fc618e0-331d-48d5-9a12-c5f03988e973","ios":"levelo://app?vid=5fc618e0-331d-48d5-9a12-c5f03988e973"},"vehicle_type_id":"4","last_reported":1753899410,"current_range_meters":6800,"station_id":"ce4bhnh2rcd13ifvqgug","pricing_plan_id":"cebpf4jnsgd1na2vs0mg"},{"bike_id":"ac44a3cc-6bcb-4708-8427-0eaf7bb75ba0","system_id":"levelo_inurba_marseille","lat":43.2894,"lon":5.36638,"is_reserved":false,"is_disabled":false,"rental_uris":{"android":"levelo://app?vid=ac44a3cc-6bcb-4708-8427-0eaf7bb75ba0","ios":"levelo://app?vid=ac44a3cc-6bcb-4708-8427-0eaf7bb75ba0"},"vehicle_type_id":"4","last_reported":1753899410,"current_range_meters":7200,"station_id":"ce4bhap2rcd13ifvqek0","pricing_plan_id":"cebpf4jnsgd1na2vs0mg"},{"bike_id":"ef643d27-8518-4bac-a8aa-c547732d2a80","system_id":"levelo_inurba_marseille","lat":43.29523,"lon":5.37508,"is_reserved":false,"is_disabled":false,"rental_uris":{"android":"levelo://app?vid=ef643d27-8518-4bac-a8aa-c547732d2a80","ios":"levelo://app?vid=ef643d27-8518-4bac-a8aa-c547732d2a80"},"vehicle_type_id":"4","last_reported":1753899410,"current_range_meters":7200,"station_id":"ce4bgkp2rcd13ifvqbmg","pricing_plan_id":"cebpf4jnsgd1na2vs0mg"},{"bike_id":"9e463afa-462b-44f4-bc40-2ad7d3880ce2","system_id":"levelo_inurba_marseille","lat":43.29782,"lon":5.37103,"is_reserved":false,"is_disabled":false,"rental_uris":{"android":"levelo://app?vid=9e463afa-462b-44f4-bc40-2ad7d3880ce2","ios":"levelo://app?vid=9e463afa-462b-44f4-bc40-2ad7d3880ce2"},"vehicle_type_id":"4","last_reported":1753899410,"current_range_meters":6800,"station_id":"ce4bgop2rcd13ifvqc1g","pricing_plan_id":"cebpf4jnsgd1na2vs0mg"},{"bike_id":"4d87f96f-79ff-4693-941f-b003c0905736","system_id":"levelo_inurba_marseille","lat":43.296226,"lon":5.377153,"is_reserved":false,"is_disabled":false,"rental_uris":{"android":"levelo://app?vid=4d87f96f-79ff-4693-941f-b003c0905736","ios":"levelo://app?vid=4d87f96f-79ff-4693-941f-b003c0905736"},"vehicle_type_id":"4","last_reported":1753899410,"current_range_meters":8000,"station_id":"ce4bgi92rcd13ifvqb90","pricing_plan_id":"cebpf4jnsgd1na2vs0mg"},{"bike_id":"d8390a9b-0aa8-45a4-b83a-777fdf8030ca","system_id":"levelo_inurba_marseille","lat":43.296656,"lon":5.362854,"is_reserved":false,"is_disabled":false,"rental_uris":{"android":"levelo://app?vid=d8390a9b-0aa8-45a4-b83a-777fdf8030ca","ios":"levelo://app?vid=d8390a9b-0aa8-45a4-b83a-777fdf8030ca"},"vehicle_type_id":"4","last_reported":1753899410,"current_range_meters":8000,"station_id":"","pricing_plan_id":"cebpf4jnsgd1na2vs0mg"},{"bike_id":"0817d913-9d7b-491c-ae3d-68dc46916efa","system_id":"levelo_inurba_marseille","lat":43.28851,"lon":5.35845,"is_reserved":false,"is_disabled":false,"rental_uris":{"android":"levelo://app?vid=0817d913-9d7b-491c-ae3d-68dc46916efa","ios":"levelo://app?vid=0817d913-9d7b-491c-ae3d-68dc46916efa"},"vehicle_type_id":"4","last_reported":1753899410,"current_range_meters":8000,"station_id":"ce4bhb12rcd13ifvqem0","pricing_plan_id":"cebpf4jnsgd1na2vs0mg"},{"bike_id":"bdcab433-9374-4a91-a108-901a0564deeb","system_id":"levelo_inurba_marseille","lat":43.28671,"lon":5.38666,"is_reserved":false,"is_disabled":false,"rental_uris":{"android":"levelo://app?vid=bdcab433-9374-4a91-a108-901a0564deeb","ios":"levelo://app?vid=bdcab433-9374-4a91-a108-901a0564deeb"},"vehicle_type_id":"4","last_reported":1753899410,"current_range_meters":7200,"station_id":"ce4bh492rcd13ifvqdug","pricing_plan_id":"cebpf4jnsgd1na2vs0mg"},{"bike_id":"b5e469a6-8e8f-4b1a-91cc-e9f6f04151ad","system_id":"levelo_inurba_marseille","lat":43.29583,"lon":5.43685,"is_reserved":false,"is_disabled":false,"rental_uris":{"android":"levelo://app?vid=b5e469a6-8e8f-4b1a-91cc-e9f6f04151ad","ios":"levelo://app?vid=b5e469a6-8e8f-4b1a-91cc-e9f6f04151ad"},"vehicle_type_id":"4","last_reported":1753899410,"current_range_meters":8000,"station_id":"","pricing_plan_id":"cebpf4jnsgd1na2vs0mg"},{"bike_id":"e7af8ee2-90bd-4006-8e62-cad3ab2bf954","system_id":"levelo_inurba_marseille","lat":43.281073,"lon":5.378346,"is_reserved":false,"is_disabled":false,"rental_uris":{"android":"levelo://app?vid=e7af8ee2-90bd-4006-8e62-cad3ab2bf954","ios":"levelo://app?vid=e7af8ee2-90bd-4006-8e62-cad3ab2bf954"},"vehicle_type_id":"4","last_reported":1753899410,"current_range_meters":8000,"station_id":"ce4bha12rcd13ifvqee0","pricing_plan_id":"cebpf4jnsgd1na2vs0mg"},{"bike_id":"b218db0f-ac9d-49fa-b497-443aae0a03d3","system_id":"levelo_inurba_marseille","lat":43.28418,"lon":5.34998,"is_reserved":false,"is_disabled":false,"rental_uris":{"android":"levelo://app?vid=b218db0f-ac9d-49fa-b497-443aae0a03d3","ios":"levelo://app?vid=b218db0f-ac9d-49fa-b497-443aae0a03d3"},"vehicle_type_id":"4","last_reported":1753899410,"current_range_meters":7200,"station_id":"ce4bhbh2rcd13ifvqepg","pricing_plan_id":"cebpf4jnsgd1na2vs0mg"},{"bike_id":"b65ec082-fb15-4eac-aacf-81a260a54bef","system_id":"levelo_inurba_marseille","lat":43.26202,"lon":5.37933,"is_reserved":false,"is_disabled":false,"rental_uris":{"android":"levelo://app?vid=b65ec082-fb15-4eac-aacf-81a260a54bef","ios":"levelo://app?vid=b65ec082-fb15-4eac-aacf-81a260a54bef"},"vehicle_type_id":"4","last_reported":1753899410,"current_range_meters":8000,"station_id":"ce4bhjp2rcd13ifvqg90","pricing_plan_id":"cebpf4jnsgd1na2vs0mg"},{"bike_id":"f99d505f-2ea1-4443-93b1-c19166df511d","system_id":"levelo_inurba_marseille","lat":43.30462,"lon":5.37907,"is_reserved":false,"is_disabled":false,"rental_uris":{"android":"levelo://app?vid=f99d505f-2ea1-4443-93b1-c19166df511d","ios":"levelo://app?vid=f99d505f-2ea1-4443-93b1-c19166df511d"},"vehicle_type_id":"4","last_reported":1753899410,"current_range_meters":7200,"station_id":"ce4bgup2rcd13ifvqcn0","pricing_plan_id":"cebpf4jnsgd1na2vs0mg"},{"bike_id":"0d6212fe-0f02-4d65-ae42-9c7f300ecd5d","system_id":"levelo_inurba_marseille","lat":43.24808,"lon":5.37454,"is_reserved":false,"is_disabled":false,"rental_uris":{"android":"levelo://app?vid=0d6212fe-0f02-4d65-ae42-9c7f300ecd5d","ios":"levelo://app?vid=0d6212fe-0f02-4d65-ae42-9c7f300ecd5d"},"vehicle_type_id":"4","last_reported":1753899410,"current_range_meters":8400,"station_id":"ce4bhgh2rcd13ifvqfb0","pricing_plan_id":"cebpf4jnsgd1na2vs0mg"},{"bike_id":"14e10116-7a71-4a87-9b55-2c88189e4303","system_id":"levelo_inurba_marseille","lat":43.29805,"lon":5.37103,"is_reserved":false,"is_disabled":false,"rental_uris":{"android":"levelo://app?vid=14e10116-7a71-4a87-9b55-2c88189e4303","ios":"levelo://app?vid=14e10116-7a71-4a87-9b55-2c88189e4303"},"vehicle_type_id":"4","last_reported":1753899410,"current_range_meters":8400,"station_id":"ce4bgop2rcd13ifvqc1g","pricing_plan_id":"cebpf4jnsgd1na2vs0mg"},{"bike_id":"527a9c15-e04b-4bb8-9236-674d306067e4","system_id":"levelo_inurba_marseille","lat":43.260275,"lon":5.37539,"is_reserved":false,"is_disabled":false,"rental_uris":{"android":"levelo://app?vid=527a9c15-e04b-4bb8-9236-674d306067e4","ios":"levelo://app?vid=527a9c15-e04b-4bb8-9236-674d306067e4"},"vehicle_type_id":"4","last_reported":1753899410,"current_range_meters":8400,"station_id":"ce4bhgh2rcd13ifvqfa0","pricing_plan_id":"cebpf4jnsgd1na2vs0mg"},{"bike_id":"b0f2b2c1-b378-4164-a22b-6eceaa434acc","system_id":"levelo_inurba_marseille","lat":43.29249,"lon":5.42707,"is_reserved":false,"is_disabled":false,"rental_uris":{"android":"levelo://app?vid=b0f2b2c1-b378-4164-a22b-6eceaa434acc","ios":"levelo://app?vid=b0f2b2c1-b378-4164-a22b-6eceaa434acc"},"vehicle_type_id":"4","last_reported":1753899410,"current_range_meters":8400,"station_id":"","pricing_plan_id":"cebpf4jnsgd1na2vs0mg"},{"bike_id":"12f82fdf-36a7-4fa4-bf14-55f713ddcaf5","system_id":"levelo_inurba_marseille","lat":43.292049,"lon":5.393297,"is_reserved":false,"is_disabled":false,"rental_uris":{"android":"levelo://app?vid=12f82fdf-36a7-4fa4-bf14-55f713ddcaf5","ios":"levelo://app?vid=12f82fdf-36a7-4fa4-bf14-55f713ddcaf5"},"vehicle_type_id":"4","last_reported":1753899410,"current_range_meters":8400,"station_id":"ce4bh192rcd13ifvqdd0","pricing_plan_id":"cebpf4jnsgd1na2vs0mg"},{"bike_id":"e137dc03-26cf-440c-b3ea-1ea522645199","system_id":"levelo_inurba_marseille","lat":43.280815,"lon":5.396626,"is_reserved":false,"is_disabled":false,"rental_uris":{"android":"levelo://app?vid=e137dc03-26cf-440c-b3ea-1ea522645199","ios":"levelo://app?vid=e137dc03-26cf-440c-b3ea-1ea522645199"},"vehicle_type_id":"4","last_reported":1753899410,"current_range_meters":8400,"station_id":"","pricing_plan_id":"cebpf4jnsgd1na2vs0mg"},{"bike_id":"4ef2adbf-555e-4bcf-a25b-d6c8c7960706","system_id":"levelo_inurba_marseille","lat":43.28289,"lon":5.35093,"is_reserved":false,"is_disabled":false,"rental_uris":{"android":"levelo://app?vid=4ef2adbf-555e-4bcf-a25b-d6c8c7960706","ios":"levelo://app?vid=4ef2adbf-555e-4bcf-a25b-d6c8c7960706"},"vehicle_type_id":"4","last_reported":1753899410,"current_range_meters":8400,"station_id":"ce4bhbp2rcd13ifvqerg","pricing_plan_id":"cebpf4jnsgd1na2vs0mg"},{"bike_id":"0dc99cab-1546-4588-8ef9-e9c6ae8e0a6f","system_id":"levelo_inurba_marseille","lat":43.23056,"lon":5.354925,"is_reserved":false,"is_disabled":true,"rental_uris":{"android":"levelo://app?vid=0dc99cab-1546-4588-8ef9-e9c6ae8e0a6f","ios":"levelo://app?vid=0dc99cab-1546-4588-8ef9-e9c6ae8e0a6f"},"vehicle_type_id":"4","last_reported":1753899410,"current_range_meters":8400,"station_id":"cpo3342slgdg3j2ifvpg","pricing_plan_id":"cebpf4jnsgd1na2vs0mg"},{"bike_id":"ea017aba-6af6-46ef-88a7-8467708524ee","system_id":"levelo_inurba_marseille","lat":43.21183,"lon":5.35063,"is_reserved":false,"is_disabled":false,"rental_uris":{"android":"levelo://app?vid=ea017aba-6af6-46ef-88a7-8467708524ee","ios":"levelo://app?vid=ea017aba-6af6-46ef-88a7-8467708524ee"},"vehicle_type_id":"4","last_reported":1753899410,"current_range_meters":8800,"station_id":"st_cvj6sg6p6f1abm77japg","pricing_plan_id":"cebpf4jnsgd1na2vs0mg"},{"bike_id":"a56a2d14-73b0-4ae0-a921-2578782e16db","system_id":"levelo_inurba_marseille","lat":43.26027,"lon":5.37547,"is_reserved":false,"is_disabled":false,"rental_uris":{"android":"levelo://app?vid=a56a2d14-73b0-4ae0-a921-2578782e16db","ios":"levelo://app?vid=a56a2d14-73b0-4ae0-a921-2578782e16db"},"vehicle_type_id":"4","last_reported":1753899410,"current_range_meters":8800,"station_id":"ce4bhgh2rcd13ifvqfa0","pricing_plan_id":"cebpf4jnsgd1na2vs0mg"},{"bike_id":"49dde59b-0f32-482e-9fe5-7727db7ff936","system_id":"levelo_inurba_marseille","lat":43.298691,"lon":5.362813,"is_reserved":false,"is_disabled":false,"rental_uris":{"android":"levelo://app?vid=49dde59b-0f32-482e-9fe5-7727db7ff936","ios":"levelo://app?vid=49dde59b-0f32-482e-9fe5-7727db7ff936"},"vehicle_type_id":"4","last_reported":1753899410,"current_range_meters":8800,"station_id":"ce4bgpp2rcd13ifvqc3g","pricing_plan_id":"cebpf4jnsgd1na2vs0mg"},{"bike_id":"42f1a8c2-5c8e-47df-8f30-e8c83b7652ab","system_id":"levelo_inurba_marseille","lat":43.29848,"lon":5.36283,"is_reserved":false,"is_disabled":false,"rental_uris":{"android":"levelo://app?vid=42f1a8c2-5c8e-47df-8f30-e8c83b7652ab","ios":"levelo://app?vid=42f1a8c2-5c8e-47df-8f30-e8c83b7652ab"},"vehicle_type_id":"4","last_reported":1753899410,"current_range_meters":8800,"station_id":"ce4bgpp2rcd13ifvqc3g","pricing_plan_id":"cebpf4jnsgd1na2vs0mg"},{"bike_id":"19780fb2-95a4-4109-a672-18399f990228","system_id":"levelo_inurba_marseille","lat":43.289648,"lon":5.378385,"is_reserved":false,"is_disabled":false,"rental_uris":{"android":"levelo://app?vid=19780fb2-95a4-4109-a672-18399f990228","ios":"levelo://app?vid=19780fb2-95a4-4109-a672-18399f990228"},"vehicle_type_id":"4","last_reported":1753899410,"current_range_meters":8800,"station_id":"ce4bh9p2rcd13ifvqed0","pricing_plan_id":"cebpf4jnsgd1na2vs0mg"},{"bike_id":"b1515945-40a6-4f42-9bd5-fb25f7e71cee","system_id":"levelo_inurba_marseille","lat":43.28864,"lon":5.35839,"is_reserved":false,"is_disabled":false,"rental_uris":{"android":"levelo://app?vid=b1515945-40a6-4f42-9bd5-fb25f7e71cee","ios":"levelo://app?vid=b1515945-40a6-4f42-9bd5-fb25f7e71cee"},"vehicle_type_id":"4","last_reported":1753899410,"current_range_meters":8800,"station_id":"ce4bhb12rcd13ifvqem0","pricing_plan_id":"cebpf4jnsgd1na2vs0mg"},{"bike_id":"0ce6c0f8-5f03-416f-ab2d-7c11c7e616dd","system_id":"levelo_inurba_marseille","lat":43.29973,"lon":5.38496,"is_reserved":false,"is_disabled":false,"rental_uris":{"android":"levelo://app?vid=0ce6c0f8-5f03-416f-ab2d-7c11c7e616dd","ios":"levelo://app?vid=0ce6c0f8-5f03-416f-ab2d-7c11c7e616dd"},"vehicle_type_id":"4","last_reported":1753899410,"current_range_meters":8800,"station_id":"ce4bgj92rcd13ifvqbd0","pricing_plan_id":"cebpf4jnsgd1na2vs0mg"},{"bike_id":"d5a4fb3b-88ad-4493-b9f3-5b599c0007c9","system_id":"levelo_inurba_marseille","lat":43.29779,"lon":5.37107,"is_reserved":false,"is_disabled":false,"rental_uris":{"android":"levelo://app?vid=d5a4fb3b-88ad-4493-b9f3-5b599c0007c9","ios":"levelo://app?vid=d5a4fb3b-88ad-4493-b9f3-5b599c0007c9"},"vehicle_type_id":"4","last_reported":1753899410,"current_range_meters":8800,"station_id":"ce4bgop2rcd13ifvqc1g","pricing_plan_id":"cebpf4jnsgd1na2vs0mg"},{"bike_id":"180e8c87-a234-4fd9-a7c1-f556f9fe2cf4","system_id":"levelo_inurba_marseille","lat":43.26026,"lon":5.37542,"is_reserved":false,"is_disabled":false,"rental_uris":{"android":"levelo://app?vid=180e8c87-a234-4fd9-a7c1-f556f9fe2cf4","ios":"levelo://app?vid=180e8c87-a234-4fd9-a7c1-f556f9fe2cf4"},"vehicle_type_id":"4","last_reported":1753899410,"current_range_meters":8800,"station_id":"ce4bhgh2rcd13ifvqfa0","pricing_plan_id":"cebpf4jnsgd1na2vs0mg"},{"bike_id":"fde81424-321e-48f2-a5e2-44450ce47961","system_id":"levelo_inurba_marseille","lat":43.29198,"lon":5.3578,"is_reserved":false,"is_disabled":false,"rental_uris":{"android":"levelo://app?vid=fde81424-321e-48f2-a5e2-44450ce47961","ios":"levelo://app?vid=fde81424-321e-48f2-a5e2-44450ce47961"},"vehicle_type_id":"4","last_reported":1753899410,"current_range_meters":9200,"station_id":"ce4bhb12rcd13ifvqel0","pricing_plan_id":"cebpf4jnsgd1na2vs0mg"},{"bike_id":"fe99de2d-c87f-4c23-a97f-7f150bf62e89","system_id":"levelo_inurba_marseille","lat":43.27847,"lon":5.39214,"is_reserved":false,"is_disabled":false,"rental_uris":{"android":"levelo://app?vid=fe99de2d-c87f-4c23-a97f-7f150bf62e89","ios":"levelo://app?vid=fe99de2d-c87f-4c23-a97f-7f150bf62e89"},"vehicle_type_id":"4","last_reported":1753899410,"current_range_meters":9200,"station_id":"ce4bhjp2rcd13ifvqga0","pricing_plan_id":"cebpf4jnsgd1na2vs0mg"},{"bike_id":"05899e99-fef8-448a-83e6-2b3ee2967619","system_id":"levelo_inurba_marseille","lat":43.30959,"lon":5.39054,"is_reserved":false,"is_disabled":false,"rental_uris":{"android":"levelo://app?vid=05899e99-fef8-448a-83e6-2b3ee2967619","ios":"levelo://app?vid=05899e99-fef8-448a-83e6-2b3ee2967619"},"vehicle_type_id":"4","last_reported":1753899410,"current_range_meters":9200,"station_id":"ce4bgup2rcd13ifvqco0","pricing_plan_id":"cebpf4jnsgd1na2vs0mg"},{"bike_id":"a1566de4-6e23-4b7d-b7f7-eeb2c0103b8a","system_id":"levelo_inurba_marseille","lat":43.289368,"lon":5.366423,"is_reserved":false,"is_disabled":false,"rental_uris":{"android":"levelo://app?vid=a1566de4-6e23-4b7d-b7f7-eeb2c0103b8a","ios":"levelo://app?vid=a1566de4-6e23-4b7d-b7f7-eeb2c0103b8a"},"vehicle_type_id":"4","last_reported":1753899410,"current_range_meters":9200,"station_id":"ce4bhap2rcd13ifvqek0","pricing_plan_id":"cebpf4jnsgd1na2vs0mg"},{"bike_id":"00de3457-bb26-4f86-be97-d29604933a4d","system_id":"levelo_inurba_marseille","lat":43.28644,"lon":5.37183,"is_reserved":false,"is_disabled":false,"rental_uris":{"android":"levelo://app?vid=00de3457-bb26-4f86-be97-d29604933a4d","ios":"levelo://app?vid=00de3457-bb26-4f86-be97-d29604933a4d"},"vehicle_type_id":"4","last_reported":1753899410,"current_range_meters":9200,"station_id":"","pricing_plan_id":"cebpf4jnsgd1na2vs0mg"},{"bike_id":"0e36fba3-4a0e-495d-884f-00d86bc6564b","system_id":"levelo_inurba_marseille","lat":43.33765,"lon":5.37479,"is_reserved":false,"is_disabled":false,"rental_uris":{"android":"levelo://app?vid=0e36fba3-4a0e-495d-884f-00d86bc6564b","ios":"levelo://app?vid=0e36fba3-4a0e-495d-884f-00d86bc6564b"},"vehicle_type_id":"4","last_reported":1753899410,"current_range_meters":9600,"station_id":"","pricing_plan_id":"cebpf4jnsgd1na2vs0mg"},{"bike_id":"c5c13fb2-58a7-4e6a-aecc-2b24c33271b6","system_id":"levelo_inurba_marseille","lat":43.30951,"lon":5.39029,"is_reserved":false,"is_disabled":false,"rental_uris":{"android":"levelo://app?vid=c5c13fb2-58a7-4e6a-aecc-2b24c33271b6","ios":"levelo://app?vid=c5c13fb2-58a7-4e6a-aecc-2b24c33271b6"},"vehicle_type_id":"4","last_reported":1753899410,"current_range_meters":9200,"station_id":"ce4bgup2rcd13ifvqco0","pricing_plan_id":"cebpf4jnsgd1na2vs0mg"},{"bike_id":"9871a633-a38c-459b-b571-fe72ec8271a4","system_id":"levelo_inurba_marseille","lat":43.30296,"lon":5.39195,"is_reserved":false,"is_disabled":false,"rental_uris":{"android":"levelo://app?vid=9871a633-a38c-459b-b571-fe72ec8271a4","ios":"levelo://app?vid=9871a633-a38c-459b-b571-fe72ec8271a4"},"vehicle_type_id":"4","last_reported":1753899410,"current_range_meters":9600,"station_id":"ce4bgkh2rcd13ifvqbk0","pricing_plan_id":"cebpf4jnsgd1na2vs0mg"},{"bike_id":"4220b516-8a0c-4b55-9e78-4e369fcc38d3","system_id":"levelo_inurba_marseille","lat":43.30545,"lon":5.36704,"is_reserved":false,"is_disabled":false,"rental_uris":{"android":"levelo://app?vid=4220b516-8a0c-4b55-9e78-4e369fcc38d3","ios":"levelo://app?vid=4220b516-8a0c-4b55-9e78-4e369fcc38d3"},"vehicle_type_id":"4","last_reported":1753899410,"current_range_meters":9200,"station_id":"ce4bgrp2rcd13ifvqc9g","pricing_plan_id":"cebpf4jnsgd1na2vs0mg"},{"bike_id":"1ef9f16b-5423-4243-845e-fb0594513f17","system_id":"levelo_inurba_marseille","lat":43.312675,"lon":5.40163,"is_reserved":false,"is_disabled":false,"rental_uris":{"android":"levelo://app?vid=1ef9f16b-5423-4243-845e-fb0594513f17","ios":"levelo://app?vid=1ef9f16b-5423-4243-845e-fb0594513f17"},"vehicle_type_id":"4","last_reported":1753899410,"current_range_meters":9200,"station_id":"ce4bh092rcd13ifvqd30","pricing_plan_id":"cebpf4jnsgd1na2vs0mg"},{"bike_id":"28451c2c-9877-4a62-a188-53a50586b925","system_id":"levelo_inurba_marseille","lat":43.24167,"lon":5.3639,"is_reserved":false,"is_disabled":false,"rental_uris":{"android":"levelo://app?vid=28451c2c-9877-4a62-a188-53a50586b925","ios":"levelo://app?vid=28451c2c-9877-4a62-a188-53a50586b925"},"vehicle_type_id":"4","last_reported":1753899410,"current_range_meters":9600,"station_id":"cpo36qri1sfpv3e86is0","pricing_plan_id":"cebpf4jnsgd1na2vs0mg"},{"bike_id":"96212761-df84-4222-9c58-df86d033536b","system_id":"levelo_inurba_marseille","lat":43.25105,"lon":5.4032,"is_reserved":false,"is_disabled":false,"rental_uris":{"android":"levelo://app?vid=96212761-df84-4222-9c58-df86d033536b","ios":"levelo://app?vid=96212761-df84-4222-9c58-df86d033536b"},"vehicle_type_id":"4","last_reported":1753899410,"current_range_meters":7200,"station_id":"ce4bhlh2rcd13ifvqgig","pricing_plan_id":"cebpf4jnsgd1na2vs0mg"},{"bike_id":"de8ca940-4c02-4d6c-b30c-1aa0effdc3ce","system_id":"levelo_inurba_marseille","lat":43.23961,"lon":5.36625,"is_reserved":false,"is_disabled":false,"rental_uris":{"android":"levelo://app?vid=de8ca940-4c02-4d6c-b30c-1aa0effdc3ce","ios":"levelo://app?vid=de8ca940-4c02-4d6c-b30c-1aa0effdc3ce"},"vehicle_type_id":"4","last_reported":1753899410,"current_range_meters":10000,"station_id":"ce4bhi12rcd13ifvqfp0","pricing_plan_id":"cebpf4jnsgd1na2vs0mg"},{"bike_id":"863b21e8-ae9b-427b-816b-c7b51eb0a296","system_id":"levelo_inurba_marseille","lat":43.29005,"lon":5.35618,"is_reserved":false,"is_disabled":false,"rental_uris":{"android":"levelo://app?vid=863b21e8-ae9b-427b-816b-c7b51eb0a296","ios":"levelo://app?vid=863b21e8-ae9b-427b-816b-c7b51eb0a296"},"vehicle_type_id":"4","last_reported":1753899410,"current_range_meters":9600,"station_id":"ce4bhb92rcd13ifvqen0","pricing_plan_id":"cebpf4jnsgd1na2vs0mg"},{"bike_id":"991eedc3-747e-465e-a42d-c49b23355959","system_id":"levelo_inurba_marseille","lat":43.31762,"lon":5.39018,"is_reserved":false,"is_disabled":false,"rental_uris":{"android":"levelo://app?vid=991eedc3-747e-465e-a42d-c49b23355959","ios":"levelo://app?vid=991eedc3-747e-465e-a42d-c49b23355959"},"vehicle_type_id":"4","last_reported":1753899410,"current_range_meters":10000,"station_id":"ce4bhqp2rcd13ifvqhng","pricing_plan_id":"cebpf4jnsgd1na2vs0mg"},{"bike_id":"f8c6bb99-ba0d-4469-81d4-5789a8295473","system_id":"levelo_inurba_marseille","lat":43.28398,"lon":5.34967,"is_reserved":false,"is_disabled":false,"rental_uris":{"android":"levelo://app?vid=f8c6bb99-ba0d-4469-81d4-5789a8295473","ios":"levelo://app?vid=f8c6bb99-ba0d-4469-81d4-5789a8295473"},"vehicle_type_id":"4","last_reported":1753899410,"current_range_meters":10000,"station_id":"ce4bhbh2rcd13ifvqepg","pricing_plan_id":"cebpf4jnsgd1na2vs0mg"},{"bike_id":"e0120ed2-ad40-4362-88ba-54d2e6233804","system_id":"levelo_inurba_marseille","lat":43.29029,"lon":5.38133,"is_reserved":false,"is_disabled":false,"rental_uris":{"android":"levelo://app?vid=e0120ed2-ad40-4362-88ba-54d2e6233804","ios":"levelo://app?vid=e0120ed2-ad40-4362-88ba-54d2e6233804"},"vehicle_type_id":"4","last_reported":1753899410,"current_range_meters":10000,"station_id":"ce4bh4p2rcd13ifvqe1g","pricing_plan_id":"cebpf4jnsgd1na2vs0mg"},{"bike_id":"0d6a7874-c1a0-4a9f-a797-d1cb341b0d6a","system_id":"levelo_inurba_marseille","lat":43.29555,"lon":5.42293,"is_reserved":false,"is_disabled":false,"rental_uris":{"android":"levelo://app?vid=0d6a7874-c1a0-4a9f-a797-d1cb341b0d6a","ios":"levelo://app?vid=0d6a7874-c1a0-4a9f-a797-d1cb341b0d6a"},"vehicle_type_id":"4","last_reported":1753899410,"current_range_meters":10000,"station_id":"ce4bhph2rcd13ifvqhdg","pricing_plan_id":"cebpf4jnsgd1na2vs0mg"},{"bike_id":"0480d9c4-9692-4d8a-ae07-a2c8f312fe13","system_id":"levelo_inurba_marseille","lat":43.29028,"lon":5.38639,"is_reserved":false,"is_disabled":false,"rental_uris":{"android":"levelo://app?vid=0480d9c4-9692-4d8a-ae07-a2c8f312fe13","ios":"levelo://app?vid=0480d9c4-9692-4d8a-ae07-a2c8f312fe13"},"vehicle_type_id":"4","last_reported":1753899410,"current_range_meters":10000,"station_id":"ce4bh4p2rcd13ifvqe0g","pricing_plan_id":"cebpf4jnsgd1na2vs0mg"},{"bike_id":"f8b2f2c6-3403-40e4-b89c-53ff035270cb","system_id":"levelo_inurba_marseille","lat":43.261905,"lon":5.374515,"is_reserved":false,"is_disabled":true,"rental_uris":{"android":"levelo://app?vid=f8b2f2c6-3403-40e4-b89c-53ff035270cb","ios":"levelo://app?vid=f8b2f2c6-3403-40e4-b89c-53ff035270cb"},"vehicle_type_id":"4","last_reported":1753899410,"current_range_meters":10800,"station_id":"ce4bhgp2rcd13ifvqfc0","pricing_plan_id":"cebpf4jnsgd1na2vs0mg"},{"bike_id":"a6774141-73f4-469e-b53c-846ea49b8a62","system_id":"levelo_inurba_marseille","lat":43.26191,"lon":5.37447,"is_reserved":false,"is_disabled":false,"rental_uris":{"android":"levelo://app?vid=a6774141-73f4-469e-b53c-846ea49b8a62","ios":"levelo://app?vid=a6774141-73f4-469e-b53c-846ea49b8a62"},"vehicle_type_id":"4","last_reported":1753899410,"current_range_meters":10800,"station_id":"ce4bhgp2rcd13ifvqfc0","pricing_plan_id":"cebpf4jnsgd1na2vs0mg"},{"bike_id":"f3a3489e-6644-4c57-a37a-08a9616ed32f","system_id":"levelo_inurba_marseille","lat":43.28425,"lon":5.34978,"is_reserved":false,"is_disabled":false,"rental_uris":{"android":"levelo://app?vid=f3a3489e-6644-4c57-a37a-08a9616ed32f","ios":"levelo://app?vid=f3a3489e-6644-4c57-a37a-08a9616ed32f"},"vehicle_type_id":"4","last_reported":1753899410,"current_range_meters":10800,"station_id":"ce4bhbh2rcd13ifvqepg","pricing_plan_id":"cebpf4jnsgd1na2vs0mg"},{"bike_id":"1418ae07-4d0e-4901-a7f3-b7c0f907ceb2","system_id":"levelo_inurba_marseille","lat":43.28402,"lon":5.34978,"is_reserved":false,"is_disabled":false,"rental_uris":{"android":"levelo://app?vid=1418ae07-4d0e-4901-a7f3-b7c0f907ceb2","ios":"levelo://app?vid=1418ae07-4d0e-4901-a7f3-b7c0f907ceb2"},"vehicle_type_id":"4","last_reported":1753899410,"current_range_meters":10800,"station_id":"ce4bhbh2rcd13ifvqepg","pricing_plan_id":"cebpf4jnsgd1na2vs0mg"},{"bike_id":"83e2a976-b1ba-4c43-af2d-4a0967f5498f","system_id":"levelo_inurba_marseille","lat":43.28938,"lon":5.36399,"is_reserved":false,"is_disabled":false,"rental_uris":{"android":"levelo://app?vid=83e2a976-b1ba-4c43-af2d-4a0967f5498f","ios":"levelo://app?vid=83e2a976-b1ba-4c43-af2d-4a0967f5498f"},"vehicle_type_id":"4","last_reported":1753899410,"current_range_meters":10800,"station_id":"ce4bhc92rcd13ifvqetg","pricing_plan_id":"cebpf4jnsgd1na2vs0mg"},{"bike_id":"58d60ef7-501e-48a0-a97f-c0e09ff3aab0","system_id":"levelo_inurba_marseille","lat":43.222792,"lon":5.345958,"is_reserved":false,"is_disabled":false,"rental_uris":{"android":"levelo://app?vid=58d60ef7-501e-48a0-a97f-c0e09ff3aab0","ios":"levelo://app?vid=58d60ef7-501e-48a0-a97f-c0e09ff3aab0"},"vehicle_type_id":"4","last_reported":1753899410,"current_range_meters":10800,"station_id":"ce4bhp92rcd13ifvqhag","pricing_plan_id":"cebpf4jnsgd1na2vs0mg"},{"bike_id":"a123e3e4-263d-4cdf-a385-b17478a576cc","system_id":"levelo_inurba_marseille","lat":43.33762,"lon":5.37481,"is_reserved":false,"is_disabled":false,"rental_uris":{"android":"levelo://app?vid=a123e3e4-263d-4cdf-a385-b17478a576cc","ios":"levelo://app?vid=a123e3e4-263d-4cdf-a385-b17478a576cc"},"vehicle_type_id":"4","last_reported":1753899410,"current_range_meters":10800,"station_id":"","pricing_plan_id":"cebpf4jnsgd1na2vs0mg"},{"bike_id":"1493f391-1c3c-480a-867b-9d99a6ee72b2","system_id":"levelo_inurba_marseille","lat":43.267767,"lon":5.394233,"is_reserved":false,"is_disabled":false,"rental_uris":{"android":"levelo://app?vid=1493f391-1c3c-480a-867b-9d99a6ee72b2","ios":"levelo://app?vid=1493f391-1c3c-480a-867b-9d99a6ee72b2"},"vehicle_type_id":"4","last_reported":1753899410,"current_range_meters":10800,"station_id":"ce4bhh12rcd13ifvqfg0","pricing_plan_id":"cebpf4jnsgd1na2vs0mg"},{"bike_id":"5b278dd2-034d-43e6-a786-1e15ef04e54d","system_id":"levelo_inurba_marseille","lat":43.28935,"lon":5.3663,"is_reserved":false,"is_disabled":false,"rental_uris":{"android":"levelo://app?vid=5b278dd2-034d-43e6-a786-1e15ef04e54d","ios":"levelo://app?vid=5b278dd2-034d-43e6-a786-1e15ef04e54d"},"vehicle_type_id":"4","last_reported":1753899410,"current_range_meters":10800,"station_id":"ce4bhap2rcd13ifvqek0","pricing_plan_id":"cebpf4jnsgd1na2vs0mg"},{"bike_id":"5fdeab66-ff2a-4660-8fe8-cacaa04824fe","system_id":"levelo_inurba_marseille","lat":43.28937,"lon":5.36352,"is_reserved":false,"is_disabled":false,"rental_uris":{"android":"levelo://app?vid=5fdeab66-ff2a-4660-8fe8-cacaa04824fe","ios":"levelo://app?vid=5fdeab66-ff2a-4660-8fe8-cacaa04824fe"},"vehicle_type_id":"4","last_reported":1753899410,"current_range_meters":10800,"station_id":"ce4bhc92rcd13ifvqetg","pricing_plan_id":"cebpf4jnsgd1na2vs0mg"},{"bike_id":"39f734e3-ca53-49c1-9924-95f1e5bf0e82","system_id":"levelo_inurba_marseille","lat":43.28927,"lon":5.38397,"is_reserved":false,"is_disabled":false,"rental_uris":{"android":"levelo://app?vid=39f734e3-ca53-49c1-9924-95f1e5bf0e82","ios":"levelo://app?vid=39f734e3-ca53-49c1-9924-95f1e5bf0e82"},"vehicle_type_id":"4","last_reported":1753899410,"current_range_meters":10800,"station_id":"ce4bh612rcd13ifvqe6g","pricing_plan_id":"cebpf4jnsgd1na2vs0mg"},{"bike_id":"02db7cb1-3bde-4001-9009-b776831133b6","system_id":"levelo_inurba_marseille","lat":43.28438,"lon":5.34984,"is_reserved":false,"is_disabled":true,"rental_uris":{"android":"levelo://app?vid=02db7cb1-3bde-4001-9009-b776831133b6","ios":"levelo://app?vid=02db7cb1-3bde-4001-9009-b776831133b6"},"vehicle_type_id":"4","last_reported":1753899410,"current_range_meters":11200,"station_id":"ce4bhbh2rcd13ifvqepg","pricing_plan_id":"cebpf4jnsgd1na2vs0mg"},{"bike_id":"1bf423ca-80db-49b2-be0a-34029a5c756a","system_id":"levelo_inurba_marseille","lat":43.27615,"lon":5.36103,"is_reserved":false,"is_disabled":false,"rental_uris":{"android":"levelo://app?vid=1bf423ca-80db-49b2-be0a-34029a5c756a","ios":"levelo://app?vid=1bf423ca-80db-49b2-be0a-34029a5c756a"},"vehicle_type_id":"4","last_reported":1753899410,"current_range_meters":11200,"station_id":"ce4bgj92rcd13ifvqbe0","pricing_plan_id":"cebpf4jnsgd1na2vs0mg"},{"bike_id":"f129605f-c561-462b-9dd8-38b1fae764e6","system_id":"levelo_inurba_marseille","lat":43.323666,"lon":5.367652,"is_reserved":false,"is_disabled":false,"rental_uris":{"android":"levelo://app?vid=f129605f-c561-462b-9dd8-38b1fae764e6","ios":"levelo://app?vid=f129605f-c561-462b-9dd8-38b1fae764e6"},"vehicle_type_id":"4","last_reported":1753899410,"current_range_meters":11200,"station_id":"ce4bhsh2rcd13ifvqi2g","pricing_plan_id":"cebpf4jnsgd1na2vs0mg"},{"bike_id":"8f41ed9d-1778-4af7-b2ad-fd1607beff4e","system_id":"levelo_inurba_marseille","lat":43.2249,"lon":5.34799,"is_reserved":false,"is_disabled":false,"rental_uris":{"android":"levelo://app?vid=8f41ed9d-1778-4af7-b2ad-fd1607beff4e","ios":"levelo://app?vid=8f41ed9d-1778-4af7-b2ad-fd1607beff4e"},"vehicle_type_id":"4","last_reported":1753899410,"current_range_meters":11200,"station_id":"st_cvj5dfep6f1abm77gieg","pricing_plan_id":"cebpf4jnsgd1na2vs0mg"},{"bike_id":"f5d32554-9ce5-45fd-964b-dd08ddb5722d","system_id":"levelo_inurba_marseille","lat":43.30935,"lon":5.40135,"is_reserved":false,"is_disabled":false,"rental_uris":{"android":"levelo://app?vid=f5d32554-9ce5-45fd-964b-dd08ddb5722d","ios":"levelo://app?vid=f5d32554-9ce5-45fd-964b-dd08ddb5722d"},"vehicle_type_id":"4","last_reported":1753899410,"current_range_meters":10800,"station_id":"ce4bgvp2rcd13ifvqct0","pricing_plan_id":"cebpf4jnsgd1na2vs0mg"},{"bike_id":"45b039cb-ba59-49d2-a5e5-9cde5718b116","system_id":"levelo_inurba_marseille","lat":43.30141,"lon":5.38058,"is_reserved":false,"is_disabled":false,"rental_uris":{"android":"levelo://app?vid=45b039cb-ba59-49d2-a5e5-9cde5718b116","ios":"levelo://app?vid=45b039cb-ba59-49d2-a5e5-9cde5718b116"},"vehicle_type_id":"4","last_reported":1753899410,"current_range_meters":10800,"station_id":"ce4bgjp2rcd13ifvqbh0","pricing_plan_id":"cebpf4jnsgd1na2vs0mg"},{"bike_id":"135ab1ea-fc9a-4785-9240-6bfa3adf7c7c","system_id":"levelo_inurba_marseille","lat":43.32258,"lon":5.36635,"is_reserved":false,"is_disabled":false,"rental_uris":{"android":"levelo://app?vid=135ab1ea-fc9a-4785-9240-6bfa3adf7c7c","ios":"levelo://app?vid=135ab1ea-fc9a-4785-9240-6bfa3adf7c7c"},"vehicle_type_id":"4","last_reported":1753899410,"current_range_meters":11600,"station_id":"","pricing_plan_id":"cebpf4jnsgd1na2vs0mg"},{"bike_id":"49c09c42-0ffd-4fc6-a9ae-9ef84963e222","system_id":"levelo_inurba_marseille","lat":43.26531,"lon":5.39526,"is_reserved":false,"is_disabled":false,"rental_uris":{"android":"levelo://app?vid=49c09c42-0ffd-4fc6-a9ae-9ef84963e222","ios":"levelo://app?vid=49c09c42-0ffd-4fc6-a9ae-9ef84963e222"},"vehicle_type_id":"4","last_reported":1753899410,"current_range_meters":11200,"station_id":"ce4bhi12rcd13ifvqfq0","pricing_plan_id":"cebpf4jnsgd1na2vs0mg"},{"bike_id":"454f5e39-7ba4-4ca5-8916-b651f54da5fb","system_id":"levelo_inurba_marseille","lat":43.28937,"lon":5.36633,"is_reserved":false,"is_disabled":false,"rental_uris":{"android":"levelo://app?vid=454f5e39-7ba4-4ca5-8916-b651f54da5fb","ios":"levelo://app?vid=454f5e39-7ba4-4ca5-8916-b651f54da5fb"},"vehicle_type_id":"4","last_reported":1753899410,"current_range_meters":11600,"station_id":"ce4bhap2rcd13ifvqek0","pricing_plan_id":"cebpf4jnsgd1na2vs0mg"},{"bike_id":"85d95a9a-bae1-4127-a50f-dff98ce29fd5","system_id":"levelo_inurba_marseille","lat":43.32057,"lon":5.37217,"is_reserved":false,"is_disabled":false,"rental_uris":{"android":"levelo://app?vid=85d95a9a-bae1-4127-a50f-dff98ce29fd5","ios":"levelo://app?vid=85d95a9a-bae1-4127-a50f-dff98ce29fd5"},"vehicle_type_id":"4","last_reported":1753899410,"current_range_meters":11600,"station_id":"","pricing_plan_id":"cebpf4jnsgd1na2vs0mg"},{"bike_id":"21dd3b2c-9fca-4c83-93ca-966c62dadd82","system_id":"levelo_inurba_marseille","lat":43.287172,"lon":5.379322,"is_reserved":false,"is_disabled":true,"rental_uris":{"android":"levelo://app?vid=21dd3b2c-9fca-4c83-93ca-966c62dadd82","ios":"levelo://app?vid=21dd3b2c-9fca-4c83-93ca-966c62dadd82"},"vehicle_type_id":"4","last_reported":1753899410,"current_range_meters":11600,"station_id":"","pricing_plan_id":"cebpf4jnsgd1na2vs0mg"},{"bike_id":"1800c6c5-a424-4180-91b8-0a571d04aeb6","system_id":"levelo_inurba_marseille","lat":43.29077,"lon":5.37178,"is_reserved":false,"is_disabled":false,"rental_uris":{"android":"levelo://app?vid=1800c6c5-a424-4180-91b8-0a571d04aeb6","ios":"levelo://app?vid=1800c6c5-a424-4180-91b8-0a571d04aeb6"},"vehicle_type_id":"4","last_reported":1753899410,"current_range_meters":11200,"station_id":"ce4bh5p2rcd13ifvqe4g","pricing_plan_id":"cebpf4jnsgd1na2vs0mg"},{"bike_id":"056e4f3d-4ab7-42da-9834-2ca05b8a0f52","system_id":"levelo_inurba_marseille","lat":43.31496,"lon":5.36861,"is_reserved":false,"is_disabled":false,"rental_uris":{"android":"levelo://app?vid=056e4f3d-4ab7-42da-9834-2ca05b8a0f52","ios":"levelo://app?vid=056e4f3d-4ab7-42da-9834-2ca05b8a0f52"},"vehicle_type_id":"4","last_reported":1753899410,"current_range_meters":11600,"station_id":"","pricing_plan_id":"cebpf4jnsgd1na2vs0mg"},{"bike_id":"b812e6b6-cfc4-4dbf-8b73-f93c0560ccad","system_id":"levelo_inurba_marseille","lat":43.27515,"lon":5.42545,"is_reserved":false,"is_disabled":false,"rental_uris":{"android":"levelo://app?vid=b812e6b6-cfc4-4dbf-8b73-f93c0560ccad","ios":"levelo://app?vid=b812e6b6-cfc4-4dbf-8b73-f93c0560ccad"},"vehicle_type_id":"4","last_reported":1753899410,"current_range_meters":11600,"station_id":"ce4bhn92rcd13ifvqgrg","pricing_plan_id":"cebpf4jnsgd1na2vs0mg"},{"bike_id":"f4b0ebb9-ebca-48d7-b3aa-8272f98b1b18","system_id":"levelo_inurba_marseille","lat":43.28612,"lon":5.35103,"is_reserved":false,"is_disabled":false,"rental_uris":{"android":"levelo://app?vid=f4b0ebb9-ebca-48d7-b3aa-8272f98b1b18","ios":"levelo://app?vid=f4b0ebb9-ebca-48d7-b3aa-8272f98b1b18"},"vehicle_type_id":"4","last_reported":1753899410,"current_range_meters":12000,"station_id":"ce4bhch2rcd13ifvqeug","pricing_plan_id":"cebpf4jnsgd1na2vs0mg"},{"bike_id":"f10a9d4c-bb74-4cb0-ad08-10e05cfc21d9","system_id":"levelo_inurba_marseille","lat":43.2894,"lon":5.36643,"is_reserved":false,"is_disabled":false,"rental_uris":{"android":"levelo://app?vid=f10a9d4c-bb74-4cb0-ad08-10e05cfc21d9","ios":"levelo://app?vid=f10a9d4c-bb74-4cb0-ad08-10e05cfc21d9"},"vehicle_type_id":"4","last_reported":1753899410,"current_range_meters":12000,"station_id":"ce4bhap2rcd13ifvqek0","pricing_plan_id":"cebpf4jnsgd1na2vs0mg"},{"bike_id":"887f6f93-0eac-4bcd-a75b-a8c98047a14d","system_id":"levelo_inurba_marseille","lat":43.21193,"lon":5.3506,"is_reserved":false,"is_disabled":false,"rental_uris":{"android":"levelo://app?vid=887f6f93-0eac-4bcd-a75b-a8c98047a14d","ios":"levelo://app?vid=887f6f93-0eac-4bcd-a75b-a8c98047a14d"},"vehicle_type_id":"4","last_reported":1753899410,"current_range_meters":12000,"station_id":"","pricing_plan_id":"cebpf4jnsgd1na2vs0mg"},{"bike_id":"3a92206f-68ef-4fcd-a0b4-30cbca565fd1","system_id":"levelo_inurba_marseille","lat":43.27374,"lon":5.36255,"is_reserved":false,"is_disabled":false,"rental_uris":{"android":"levelo://app?vid=3a92206f-68ef-4fcd-a0b4-30cbca565fd1","ios":"levelo://app?vid=3a92206f-68ef-4fcd-a0b4-30cbca565fd1"},"vehicle_type_id":"4","last_reported":1753899410,"current_range_meters":12000,"station_id":"ce4bhbh2rcd13ifvqeo0","pricing_plan_id":"cebpf4jnsgd1na2vs0mg"},{"bike_id":"671701a9-7243-46ba-9df9-fa49b6935265","system_id":"levelo_inurba_marseille","lat":43.25987,"lon":5.37234,"is_reserved":false,"is_disabled":false,"rental_uris":{"android":"levelo://app?vid=671701a9-7243-46ba-9df9-fa49b6935265","ios":"levelo://app?vid=671701a9-7243-46ba-9df9-fa49b6935265"},"vehicle_type_id":"4","last_reported":1753899410,"current_range_meters":12000,"station_id":"","pricing_plan_id":"cebpf4jnsgd1na2vs0mg"},{"bike_id":"24ddc855-9db1-447b-8cc7-fb33f85a47fb","system_id":"levelo_inurba_marseille","lat":43.30595,"lon":5.37213,"is_reserved":false,"is_disabled":false,"rental_uris":{"android":"levelo://app?vid=24ddc855-9db1-447b-8cc7-fb33f85a47fb","ios":"levelo://app?vid=24ddc855-9db1-447b-8cc7-fb33f85a47fb"},"vehicle_type_id":"4","last_reported":1753899410,"current_range_meters":12000,"station_id":"ce4bgqh2rcd13ifvqc4g","pricing_plan_id":"cebpf4jnsgd1na2vs0mg"},{"bike_id":"43d63219-1aa2-4c91-90fe-88b28ddfbee3","system_id":"levelo_inurba_marseille","lat":43.29034,"lon":5.3812,"is_reserved":false,"is_disabled":true,"rental_uris":{"android":"levelo://app?vid=43d63219-1aa2-4c91-90fe-88b28ddfbee3","ios":"levelo://app?vid=43d63219-1aa2-4c91-90fe-88b28ddfbee3"},"vehicle_type_id":"4","last_reported":1753899410,"current_range_meters":12000,"station_id":"ce4bh4p2rcd13ifvqe1g","pricing_plan_id":"cebpf4jnsgd1na2vs0mg"},{"bike_id":"c8da7faa-72aa-464b-a095-66e7ea1e333e","system_id":"levelo_inurba_marseille","lat":43.28421,"lon":5.34981,"is_reserved":false,"is_disabled":false,"rental_uris":{"android":"levelo://app?vid=c8da7faa-72aa-464b-a095-66e7ea1e333e","ios":"levelo://app?vid=c8da7faa-72aa-464b-a095-66e7ea1e333e"},"vehicle_type_id":"4","last_reported":1753899410,"current_range_meters":12000,"station_id":"ce4bhbh2rcd13ifvqepg","pricing_plan_id":"cebpf4jnsgd1na2vs0mg"},{"bike_id":"a6a46ae2-d764-44ee-baf2-a76e49bd9084","system_id":"levelo_inurba_marseille","lat":43.269894,"lon":5.403048,"is_reserved":false,"is_disabled":false,"rental_uris":{"android":"levelo://app?vid=a6a46ae2-d764-44ee-baf2-a76e49bd9084","ios":"levelo://app?vid=a6a46ae2-d764-44ee-baf2-a76e49bd9084"},"vehicle_type_id":"4","last_reported":1753899410,"current_range_meters":12000,"station_id":"","pricing_plan_id":"cebpf4jnsgd1na2vs0mg"},{"bike_id":"5ff7b424-be72-460e-9279-c80ac3b388ac","system_id":"levelo_inurba_marseille","lat":43.23212,"lon":5.39941,"is_reserved":false,"is_disabled":false,"rental_uris":{"android":"levelo://app?vid=5ff7b424-be72-460e-9279-c80ac3b388ac","ios":"levelo://app?vid=5ff7b424-be72-460e-9279-c80ac3b388ac"},"vehicle_type_id":"4","last_reported":1753899410,"current_range_meters":12000,"station_id":"ce4bhn12rcd13ifvqgqg","pricing_plan_id":"cebpf4jnsgd1na2vs0mg"},{"bike_id":"3d60e95a-8706-4e13-b31f-ac7a913f607a","system_id":"levelo_inurba_marseille","lat":43.22933,"lon":5.35383,"is_reserved":false,"is_disabled":false,"rental_uris":{"android":"levelo://app?vid=3d60e95a-8706-4e13-b31f-ac7a913f607a","ios":"levelo://app?vid=3d60e95a-8706-4e13-b31f-ac7a913f607a"},"vehicle_type_id":"4","last_reported":1753899410,"current_range_meters":12400,"station_id":"cpo3532slgdg3j2ikp40","pricing_plan_id":"cebpf4jnsgd1na2vs0mg"},{"bike_id":"5f2c329e-f2c7-42ad-8f42-e95dfce5b61a","system_id":"levelo_inurba_marseille","lat":43.23066,"lon":5.35481,"is_reserved":false,"is_disabled":false,"rental_uris":{"android":"levelo://app?vid=5f2c329e-f2c7-42ad-8f42-e95dfce5b61a","ios":"levelo://app?vid=5f2c329e-f2c7-42ad-8f42-e95dfce5b61a"},"vehicle_type_id":"4","last_reported":1753899410,"current_range_meters":12400,"station_id":"cpo3342slgdg3j2ifvpg","pricing_plan_id":"cebpf4jnsgd1na2vs0mg"},{"bike_id":"5dfb8113-69c3-431e-8bc5-a7c3e634ba3d","system_id":"levelo_inurba_marseille","lat":43.25087,"lon":5.39522,"is_reserved":false,"is_disabled":false,"rental_uris":{"android":"levelo://app?vid=5dfb8113-69c3-431e-8bc5-a7c3e634ba3d","ios":"levelo://app?vid=5dfb8113-69c3-431e-8bc5-a7c3e634ba3d"},"vehicle_type_id":"4","last_reported":1753899410,"current_range_meters":12000,"station_id":"ce4bhm12rcd13ifvqgkg","pricing_plan_id":"cebpf4jnsgd1na2vs0mg"},{"bike_id":"92a9790d-f35f-4c7f-a461-974b54168a9d","system_id":"levelo_inurba_marseille","lat":43.29701,"lon":5.36618,"is_reserved":false,"is_disabled":false,"rental_uris":{"android":"levelo://app?vid=92a9790d-f35f-4c7f-a461-974b54168a9d","ios":"levelo://app?vid=92a9790d-f35f-4c7f-a461-974b54168a9d"},"vehicle_type_id":"4","last_reported":1753899410,"current_range_meters":12400,"station_id":"ce4bgn12rcd13ifvqbt0","pricing_plan_id":"cebpf4jnsgd1na2vs0mg"},{"bike_id":"c686771c-e4d6-4ee5-934b-f3ca190b833e","system_id":"levelo_inurba_marseille","lat":43.32765,"lon":5.39204,"is_reserved":false,"is_disabled":false,"rental_uris":{"android":"levelo://app?vid=c686771c-e4d6-4ee5-934b-f3ca190b833e","ios":"levelo://app?vid=c686771c-e4d6-4ee5-934b-f3ca190b833e"},"vehicle_type_id":"4","last_reported":1753899410,"current_range_meters":12400,"station_id":"","pricing_plan_id":"cebpf4jnsgd1na2vs0mg"},{"bike_id":"d4cc33e6-20cd-4c7f-bff4-48460b007530","system_id":"levelo_inurba_marseille","lat":43.27375,"lon":5.36257,"is_reserved":false,"is_disabled":false,"rental_uris":{"android":"levelo://app?vid=d4cc33e6-20cd-4c7f-bff4-48460b007530","ios":"levelo://app?vid=d4cc33e6-20cd-4c7f-bff4-48460b007530"},"vehicle_type_id":"4","last_reported":1753899410,"current_range_meters":12400,"station_id":"ce4bhbh2rcd13ifvqeo0","pricing_plan_id":"cebpf4jnsgd1na2vs0mg"},{"bike_id":"5f714f69-a784-4d28-99a3-8a9ce0bd3c4e","system_id":"levelo_inurba_marseille","lat":43.295983,"lon":5.380953,"is_reserved":false,"is_disabled":false,"rental_uris":{"android":"levelo://app?vid=5f714f69-a784-4d28-99a3-8a9ce0bd3c4e","ios":"levelo://app?vid=5f714f69-a784-4d28-99a3-8a9ce0bd3c4e"},"vehicle_type_id":"4","last_reported":1753899410,"current_range_meters":12400,"station_id":"ce4bgl12rcd13ifvqbo0","pricing_plan_id":"cebpf4jnsgd1na2vs0mg"},{"bike_id":"5e89c3d6-3c69-4ae2-8c32-b66a6479c5eb","system_id":"levelo_inurba_marseille","lat":43.26775,"lon":5.39406,"is_reserved":false,"is_disabled":true,"rental_uris":{"android":"levelo://app?vid=5e89c3d6-3c69-4ae2-8c32-b66a6479c5eb","ios":"levelo://app?vid=5e89c3d6-3c69-4ae2-8c32-b66a6479c5eb"},"vehicle_type_id":"4","last_reported":1753899410,"current_range_meters":12400,"station_id":"ce4bhh12rcd13ifvqfg0","pricing_plan_id":"cebpf4jnsgd1na2vs0mg"},{"bike_id":"b1f16876-485e-44c7-ba70-9d27c1c1d5dc","system_id":"levelo_inurba_marseille","lat":43.32563,"lon":5.36586,"is_reserved":false,"is_disabled":false,"rental_uris":{"android":"levelo://app?vid=b1f16876-485e-44c7-ba70-9d27c1c1d5dc","ios":"levelo://app?vid=b1f16876-485e-44c7-ba70-9d27c1c1d5dc"},"vehicle_type_id":"4","last_reported":1753899410,"current_range_meters":12800,"station_id":"","pricing_plan_id":"cebpf4jnsgd1na2vs0mg"},{"bike_id":"f1b26f93-f42e-49ee-977f-70660299db71","system_id":"levelo_inurba_marseille","lat":43.2958,"lon":5.36751,"is_reserved":false,"is_disabled":false,"rental_uris":{"android":"levelo://app?vid=f1b26f93-f42e-49ee-977f-70660299db71","ios":"levelo://app?vid=f1b26f93-f42e-49ee-977f-70660299db71"},"vehicle_type_id":"4","last_reported":1753899410,"current_range_meters":12800,"station_id":"ce4bgph2rcd13ifvqc2g","pricing_plan_id":"cebpf4jnsgd1na2vs0mg"},{"bike_id":"674bcb42-7426-4215-afee-c75cb0b44f85","system_id":"levelo_inurba_marseille","lat":43.21748,"lon":5.34596,"is_reserved":false,"is_disabled":false,"rental_uris":{"android":"levelo://app?vid=674bcb42-7426-4215-afee-c75cb0b44f85","ios":"levelo://app?vid=674bcb42-7426-4215-afee-c75cb0b44f85"},"vehicle_type_id":"4","last_reported":1753899410,"current_range_meters":12800,"station_id":"st_cvj6r9ubvosntc0bgbag","pricing_plan_id":"cebpf4jnsgd1na2vs0mg"},{"bike_id":"ac92d12d-b1db-4c1c-8a6d-bc3335f7c222","system_id":"levelo_inurba_marseille","lat":43.308102,"lon":5.400907,"is_reserved":false,"is_disabled":false,"rental_uris":{"android":"levelo://app?vid=ac92d12d-b1db-4c1c-8a6d-bc3335f7c222","ios":"levelo://app?vid=ac92d12d-b1db-4c1c-8a6d-bc3335f7c222"},"vehicle_type_id":"4","last_reported":1753899410,"current_range_meters":12800,"station_id":"ce4bgvp2rcd13ifvqct0","pricing_plan_id":"cebpf4jnsgd1na2vs0mg"},{"bike_id":"0fe52ec0-07a4-40d3-aa6c-4b31a0f1df05","system_id":"levelo_inurba_marseille","lat":43.29557,"lon":5.42292,"is_reserved":false,"is_disabled":false,"rental_uris":{"android":"levelo://app?vid=0fe52ec0-07a4-40d3-aa6c-4b31a0f1df05","ios":"levelo://app?vid=0fe52ec0-07a4-40d3-aa6c-4b31a0f1df05"},"vehicle_type_id":"4","last_reported":1753899410,"current_range_meters":12800,"station_id":"ce4bhph2rcd13ifvqhdg","pricing_plan_id":"cebpf4jnsgd1na2vs0mg"},{"bike_id":"b44d763b-4f92-4731-b76a-85ebcd91acd5","system_id":"levelo_inurba_marseille","lat":43.302,"lon":5.37161,"is_reserved":false,"is_disabled":false,"rental_uris":{"android":"levelo://app?vid=b44d763b-4f92-4731-b76a-85ebcd91acd5","ios":"levelo://app?vid=b44d763b-4f92-4731-b76a-85ebcd91acd5"},"vehicle_type_id":"4","last_reported":1753899410,"current_range_meters":12800,"station_id":"","pricing_plan_id":"cebpf4jnsgd1na2vs0mg"},{"bike_id":"ae6c8428-e39e-40be-9df7-f418521aa777","system_id":"levelo_inurba_marseille","lat":43.229248,"lon":5.353803,"is_reserved":false,"is_disabled":false,"rental_uris":{"android":"levelo://app?vid=ae6c8428-e39e-40be-9df7-f418521aa777","ios":"levelo://app?vid=ae6c8428-e39e-40be-9df7-f418521aa777"},"vehicle_type_id":"4","last_reported":1753899410,"current_range_meters":12800,"station_id":"cpo3532slgdg3j2ikp40","pricing_plan_id":"cebpf4jnsgd1na2vs0mg"},{"bike_id":"c4060285-8b2b-439c-829d-a51d23cf0a71","system_id":"levelo_inurba_marseille","lat":43.25488,"lon":5.37641,"is_reserved":false,"is_disabled":false,"rental_uris":{"android":"levelo://app?vid=c4060285-8b2b-439c-829d-a51d23cf0a71","ios":"levelo://app?vid=c4060285-8b2b-439c-829d-a51d23cf0a71"},"vehicle_type_id":"4","last_reported":1753899410,"current_range_meters":12800,"station_id":"ce4bhh12rcd13ifvqff0","pricing_plan_id":"cebpf4jnsgd1na2vs0mg"},{"bike_id":"1de7455e-1072-4437-8d71-f8d950ef1a8b","system_id":"levelo_inurba_marseille","lat":43.26199,"lon":5.37932,"is_reserved":false,"is_disabled":false,"rental_uris":{"android":"levelo://app?vid=1de7455e-1072-4437-8d71-f8d950ef1a8b","ios":"levelo://app?vid=1de7455e-1072-4437-8d71-f8d950ef1a8b"},"vehicle_type_id":"4","last_reported":1753899410,"current_range_meters":12400,"station_id":"ce4bhjp2rcd13ifvqg90","pricing_plan_id":"cebpf4jnsgd1na2vs0mg"},{"bike_id":"cd033b91-9cf1-4bbf-8d41-35dd51b47d23","system_id":"levelo_inurba_marseille","lat":43.27372,"lon":5.36252,"is_reserved":false,"is_disabled":false,"rental_uris":{"android":"levelo://app?vid=cd033b91-9cf1-4bbf-8d41-35dd51b47d23","ios":"levelo://app?vid=cd033b91-9cf1-4bbf-8d41-35dd51b47d23"},"vehicle_type_id":"4","last_reported":1753899410,"current_range_meters":12800,"station_id":"ce4bhbh2rcd13ifvqeo0","pricing_plan_id":"cebpf4jnsgd1na2vs0mg"},{"bike_id":"c45791e4-959f-47a4-a90d-ba849f8a8eaa","system_id":"levelo_inurba_marseille","lat":43.24805,"lon":5.37458,"is_reserved":false,"is_disabled":false,"rental_uris":{"android":"levelo://app?vid=c45791e4-959f-47a4-a90d-ba849f8a8eaa","ios":"levelo://app?vid=c45791e4-959f-47a4-a90d-ba849f8a8eaa"},"vehicle_type_id":"4","last_reported":1753899410,"current_range_meters":12800,"station_id":"ce4bhgh2rcd13ifvqfb0","pricing_plan_id":"cebpf4jnsgd1na2vs0mg"},{"bike_id":"a05992f6-1f51-4dbf-8921-4ad77bab57e9","system_id":"levelo_inurba_marseille","lat":43.24167,"lon":5.3639,"is_reserved":false,"is_disabled":false,"rental_uris":{"android":"levelo://app?vid=a05992f6-1f51-4dbf-8921-4ad77bab57e9","ios":"levelo://app?vid=a05992f6-1f51-4dbf-8921-4ad77bab57e9"},"vehicle_type_id":"4","last_reported":1753899410,"current_range_meters":12800,"station_id":"cpo36qri1sfpv3e86is0","pricing_plan_id":"cebpf4jnsgd1na2vs0mg"},{"bike_id":"5c9160ef-4dfa-47d2-93ef-2b30f19b283e","system_id":"levelo_inurba_marseille","lat":43.22946,"lon":5.3536,"is_reserved":false,"is_disabled":false,"rental_uris":{"android":"levelo://app?vid=5c9160ef-4dfa-47d2-93ef-2b30f19b283e","ios":"levelo://app?vid=5c9160ef-4dfa-47d2-93ef-2b30f19b283e"},"vehicle_type_id":"4","last_reported":1753899410,"current_range_meters":12800,"station_id":"cpo3532slgdg3j2ikp40","pricing_plan_id":"cebpf4jnsgd1na2vs0mg"},{"bike_id":"f1ccfa9e-3c4b-4fae-8ae3-e3cbe6d863f7","system_id":"levelo_inurba_marseille","lat":43.27374,"lon":5.36249,"is_reserved":false,"is_disabled":false,"rental_uris":{"android":"levelo://app?vid=f1ccfa9e-3c4b-4fae-8ae3-e3cbe6d863f7","ios":"levelo://app?vid=f1ccfa9e-3c4b-4fae-8ae3-e3cbe6d863f7"},"vehicle_type_id":"4","last_reported":1753899410,"current_range_meters":12800,"station_id":"ce4bhbh2rcd13ifvqeo0","pricing_plan_id":"cebpf4jnsgd1na2vs0mg"},{"bike_id":"e213ca07-589a-48eb-964b-1d3bb0bd2f28","system_id":"levelo_inurba_marseille","lat":43.29225,"lon":5.36053,"is_reserved":false,"is_disabled":false,"rental_uris":{"android":"levelo://app?vid=e213ca07-589a-48eb-964b-1d3bb0bd2f28","ios":"levelo://app?vid=e213ca07-589a-48eb-964b-1d3bb0bd2f28"},"vehicle_type_id":"4","last_reported":1753899410,"current_range_meters":12800,"station_id":"ce4bhbh2rcd13ifvqeqg","pricing_plan_id":"cebpf4jnsgd1na2vs0mg"},{"bike_id":"d8f689c7-1982-487f-a63d-c0078c7d159f","system_id":"levelo_inurba_marseille","lat":43.28424,"lon":5.34983,"is_reserved":false,"is_disabled":false,"rental_uris":{"android":"levelo://app?vid=d8f689c7-1982-487f-a63d-c0078c7d159f","ios":"levelo://app?vid=d8f689c7-1982-487f-a63d-c0078c7d159f"},"vehicle_type_id":"4","last_reported":1753899410,"current_range_meters":13600,"station_id":"ce4bhbh2rcd13ifvqepg","pricing_plan_id":"cebpf4jnsgd1na2vs0mg"},{"bike_id":"19295018-235d-4f62-9c12-0203c908e699","system_id":"levelo_inurba_marseille","lat":43.229231,"lon":5.353712,"is_reserved":false,"is_disabled":false,"rental_uris":{"android":"levelo://app?vid=19295018-235d-4f62-9c12-0203c908e699","ios":"levelo://app?vid=19295018-235d-4f62-9c12-0203c908e699"},"vehicle_type_id":"4","last_reported":1753899410,"current_range_meters":13600,"station_id":"cpo3532slgdg3j2ikp40","pricing_plan_id":"cebpf4jnsgd1na2vs0mg"},{"bike_id":"9a96198c-07c7-4b35-8a70-3f8f7bd8f1e5","system_id":"levelo_inurba_marseille","lat":43.33755,"lon":5.37472,"is_reserved":false,"is_disabled":false,"rental_uris":{"android":"levelo://app?vid=9a96198c-07c7-4b35-8a70-3f8f7bd8f1e5","ios":"levelo://app?vid=9a96198c-07c7-4b35-8a70-3f8f7bd8f1e5"},"vehicle_type_id":"4","last_reported":1753899410,"current_range_meters":13600,"station_id":"","pricing_plan_id":"cebpf4jnsgd1na2vs0mg"},{"bike_id":"f3f658f0-d0f5-42fe-9f40-7fc8cff12e61","system_id":"levelo_inurba_marseille","lat":43.295288,"lon":5.385464,"is_reserved":false,"is_disabled":false,"rental_uris":{"android":"levelo://app?vid=f3f658f0-d0f5-42fe-9f40-7fc8cff12e61","ios":"levelo://app?vid=f3f658f0-d0f5-42fe-9f40-7fc8cff12e61"},"vehicle_type_id":"4","last_reported":1753899410,"current_range_meters":13600,"station_id":"ce4bgih2rcd13ifvqba0","pricing_plan_id":"cebpf4jnsgd1na2vs0mg"},{"bike_id":"88f52d5d-8e76-45fe-a217-14a4904e4f57","system_id":"levelo_inurba_marseille","lat":43.26205,"lon":5.37448,"is_reserved":false,"is_disabled":false,"rental_uris":{"android":"levelo://app?vid=88f52d5d-8e76-45fe-a217-14a4904e4f57","ios":"levelo://app?vid=88f52d5d-8e76-45fe-a217-14a4904e4f57"},"vehicle_type_id":"4","last_reported":1753899410,"current_range_meters":13600,"station_id":"ce4bhgp2rcd13ifvqfc0","pricing_plan_id":"cebpf4jnsgd1na2vs0mg"},{"bike_id":"5bcc0932-58f4-42ae-859c-d56aac2c8456","system_id":"levelo_inurba_marseille","lat":43.24171,"lon":5.36374,"is_reserved":false,"is_disabled":false,"rental_uris":{"android":"levelo://app?vid=5bcc0932-58f4-42ae-859c-d56aac2c8456","ios":"levelo://app?vid=5bcc0932-58f4-42ae-859c-d56aac2c8456"},"vehicle_type_id":"4","last_reported":1753899410,"current_range_meters":13600,"station_id":"cpo36qri1sfpv3e86is0","pricing_plan_id":"cebpf4jnsgd1na2vs0mg"},{"bike_id":"97e0cc1c-fa5d-41b9-8b72-3eed848ec1f7","system_id":"levelo_inurba_marseille","lat":43.330295,"lon":5.390706,"is_reserved":false,"is_disabled":false,"rental_uris":{"android":"levelo://app?vid=97e0cc1c-fa5d-41b9-8b72-3eed848ec1f7","ios":"levelo://app?vid=97e0cc1c-fa5d-41b9-8b72-3eed848ec1f7"},"vehicle_type_id":"4","last_reported":1753899410,"current_range_meters":13600,"station_id":"ce4bhr92rcd13ifvqhrg","pricing_plan_id":"cebpf4jnsgd1na2vs0mg"},{"bike_id":"5f72df66-2d68-4c6e-a917-44e1dcfede98","system_id":"levelo_inurba_marseille","lat":43.22942,"lon":5.35355,"is_reserved":false,"is_disabled":false,"rental_uris":{"android":"levelo://app?vid=5f72df66-2d68-4c6e-a917-44e1dcfede98","ios":"levelo://app?vid=5f72df66-2d68-4c6e-a917-44e1dcfede98"},"vehicle_type_id":"4","last_reported":1753899410,"current_range_meters":13600,"station_id":"cpo3532slgdg3j2ikp40","pricing_plan_id":"cebpf4jnsgd1na2vs0mg"},{"bike_id":"0143bc07-02f9-46ea-8811-3bf1158d74e2","system_id":"levelo_inurba_marseille","lat":43.24143,"lon":5.36409,"is_reserved":false,"is_disabled":false,"rental_uris":{"android":"levelo://app?vid=0143bc07-02f9-46ea-8811-3bf1158d74e2","ios":"levelo://app?vid=0143bc07-02f9-46ea-8811-3bf1158d74e2"},"vehicle_type_id":"4","last_reported":1753899410,"current_range_meters":14000,"station_id":"cpo36qri1sfpv3e86is0","pricing_plan_id":"cebpf4jnsgd1na2vs0mg"},{"bike_id":"38579418-837a-4714-baf2-4117aca1d484","system_id":"levelo_inurba_marseille","lat":43.28937,"lon":5.36382,"is_reserved":false,"is_disabled":false,"rental_uris":{"android":"levelo://app?vid=38579418-837a-4714-baf2-4117aca1d484","ios":"levelo://app?vid=38579418-837a-4714-baf2-4117aca1d484"},"vehicle_type_id":"4","last_reported":1753899410,"current_range_meters":13600,"station_id":"ce4bhc92rcd13ifvqetg","pricing_plan_id":"cebpf4jnsgd1na2vs0mg"},{"bike_id":"af02ffc5-2bd6-48c7-8fab-ecfe8bea9713","system_id":"levelo_inurba_marseille","lat":43.28945,"lon":5.364,"is_reserved":false,"is_disabled":false,"rental_uris":{"android":"levelo://app?vid=af02ffc5-2bd6-48c7-8fab-ecfe8bea9713","ios":"levelo://app?vid=af02ffc5-2bd6-48c7-8fab-ecfe8bea9713"},"vehicle_type_id":"4","last_reported":1753899410,"current_range_meters":14000,"station_id":"ce4bhc92rcd13ifvqetg","pricing_plan_id":"cebpf4jnsgd1na2vs0mg"},{"bike_id":"350e3c4f-49e3-48a4-973f-127c85f14d8a","system_id":"levelo_inurba_marseille","lat":43.289462,"lon":5.363906,"is_reserved":false,"is_disabled":false,"rental_uris":{"android":"levelo://app?vid=350e3c4f-49e3-48a4-973f-127c85f14d8a","ios":"levelo://app?vid=350e3c4f-49e3-48a4-973f-127c85f14d8a"},"vehicle_type_id":"4","last_reported":1753899410,"current_range_meters":14000,"station_id":"ce4bhc92rcd13ifvqetg","pricing_plan_id":"cebpf4jnsgd1na2vs0mg"},{"bike_id":"258208fd-626e-4fa2-a64c-19fbd71af95f","system_id":"levelo_inurba_marseille","lat":43.30125,"lon":5.39058,"is_reserved":false,"is_disabled":true,"rental_uris":{"android":"levelo://app?vid=258208fd-626e-4fa2-a64c-19fbd71af95f","ios":"levelo://app?vid=258208fd-626e-4fa2-a64c-19fbd71af95f"},"vehicle_type_id":"4","last_reported":1753899410,"current_range_meters":14000,"station_id":"ce4bh192rcd13ifvqdb0","pricing_plan_id":"cebpf4jnsgd1na2vs0mg"},{"bike_id":"7d256236-820a-43cf-ae09-20c40f7f0a6f","system_id":"levelo_inurba_marseille","lat":43.26209,"lon":5.37438,"is_reserved":false,"is_disabled":false,"rental_uris":{"android":"levelo://app?vid=7d256236-820a-43cf-ae09-20c40f7f0a6f","ios":"levelo://app?vid=7d256236-820a-43cf-ae09-20c40f7f0a6f"},"vehicle_type_id":"4","last_reported":1753899410,"current_range_meters":14000,"station_id":"ce4bhgp2rcd13ifvqfc0","pricing_plan_id":"cebpf4jnsgd1na2vs0mg"},{"bike_id":"db83eb00-126a-4166-ae8b-1579738c041a","system_id":"levelo_inurba_marseille","lat":43.28031,"lon":5.36951,"is_reserved":false,"is_disabled":false,"rental_uris":{"android":"levelo://app?vid=db83eb00-126a-4166-ae8b-1579738c041a","ios":"levelo://app?vid=db83eb00-126a-4166-ae8b-1579738c041a"},"vehicle_type_id":"4","last_reported":1753899410,"current_range_meters":14000,"station_id":"ce4bha12rcd13ifvqef0","pricing_plan_id":"cebpf4jnsgd1na2vs0mg"},{"bike_id":"ba1180e1-eb5b-4985-8375-c8de5de62bac","system_id":"levelo_inurba_marseille","lat":43.267823,"lon":5.394191,"is_reserved":false,"is_disabled":false,"rental_uris":{"android":"levelo://app?vid=ba1180e1-eb5b-4985-8375-c8de5de62bac","ios":"levelo://app?vid=ba1180e1-eb5b-4985-8375-c8de5de62bac"},"vehicle_type_id":"4","last_reported":1753899410,"current_range_meters":14000,"station_id":"ce4bhhp2rcd13ifvqfm0","pricing_plan_id":"cebpf4jnsgd1na2vs0mg"},{"bike_id":"daabd21d-fe72-4bef-9caa-c5886e1b6fe4","system_id":"levelo_inurba_marseille","lat":43.31653,"lon":5.3728,"is_reserved":false,"is_disabled":false,"rental_uris":{"android":"levelo://app?vid=daabd21d-fe72-4bef-9caa-c5886e1b6fe4","ios":"levelo://app?vid=daabd21d-fe72-4bef-9caa-c5886e1b6fe4"},"vehicle_type_id":"4","last_reported":1753899410,"current_range_meters":14000,"station_id":"","pricing_plan_id":"cebpf4jnsgd1na2vs0mg"},{"bike_id":"1a0ca16f-4b93-4052-acd5-440501907ad3","system_id":"levelo_inurba_marseille","lat":43.231931,"lon":5.355539,"is_reserved":false,"is_disabled":false,"rental_uris":{"android":"levelo://app?vid=1a0ca16f-4b93-4052-acd5-440501907ad3","ios":"levelo://app?vid=1a0ca16f-4b93-4052-acd5-440501907ad3"},"vehicle_type_id":"4","last_reported":1753899410,"current_range_meters":14400,"station_id":"ce4bhu92rcd13ifvqi70","pricing_plan_id":"cebpf4jnsgd1na2vs0mg"},{"bike_id":"1a25e852-449b-42c8-9d84-4bfe15663642","system_id":"levelo_inurba_marseille","lat":43.26195,"lon":5.37447,"is_reserved":false,"is_disabled":false,"rental_uris":{"android":"levelo://app?vid=1a25e852-449b-42c8-9d84-4bfe15663642","ios":"levelo://app?vid=1a25e852-449b-42c8-9d84-4bfe15663642"},"vehicle_type_id":"4","last_reported":1753899410,"current_range_meters":14400,"station_id":"ce4bhgp2rcd13ifvqfc0","pricing_plan_id":"cebpf4jnsgd1na2vs0mg"},{"bike_id":"be5b9519-fb61-4234-9e7d-b6e757ac2a69","system_id":"levelo_inurba_marseille","lat":43.28861,"lon":5.35863,"is_reserved":false,"is_disabled":false,"rental_uris":{"android":"levelo://app?vid=be5b9519-fb61-4234-9e7d-b6e757ac2a69","ios":"levelo://app?vid=be5b9519-fb61-4234-9e7d-b6e757ac2a69"},"vehicle_type_id":"4","last_reported":1753899410,"current_range_meters":14400,"station_id":"ce4bhb12rcd13ifvqem0","pricing_plan_id":"cebpf4jnsgd1na2vs0mg"},{"bike_id":"2e1bdbd1-042c-4bf4-b623-908b6301c20d","system_id":"levelo_inurba_marseille","lat":43.28158,"lon":5.442,"is_reserved":false,"is_disabled":false,"rental_uris":{"android":"levelo://app?vid=2e1bdbd1-042c-4bf4-b623-908b6301c20d","ios":"levelo://app?vid=2e1bdbd1-042c-4bf4-b623-908b6301c20d"},"vehicle_type_id":"4","last_reported":1753899410,"current_range_meters":14400,"station_id":"","pricing_plan_id":"cebpf4jnsgd1na2vs0mg"},{"bike_id":"92d1b695-1582-4bc5-8902-512e73b8e6b0","system_id":"levelo_inurba_marseille","lat":43.23048,"lon":5.35507,"is_reserved":false,"is_disabled":false,"rental_uris":{"android":"levelo://app?vid=92d1b695-1582-4bc5-8902-512e73b8e6b0","ios":"levelo://app?vid=92d1b695-1582-4bc5-8902-512e73b8e6b0"},"vehicle_type_id":"4","last_reported":1753899410,"current_range_meters":14400,"station_id":"cpo3342slgdg3j2ifvpg","pricing_plan_id":"cebpf4jnsgd1na2vs0mg"},{"bike_id":"e1842ec5-8832-4d4b-a815-e609638deba1","system_id":"levelo_inurba_marseille","lat":43.301483,"lon":5.370015,"is_reserved":false,"is_disabled":false,"rental_uris":{"android":"levelo://app?vid=e1842ec5-8832-4d4b-a815-e609638deba1","ios":"levelo://app?vid=e1842ec5-8832-4d4b-a815-e609638deba1"},"vehicle_type_id":"4","last_reported":1753899410,"current_range_meters":14400,"station_id":"","pricing_plan_id":"cebpf4jnsgd1na2vs0mg"},{"bike_id":"807ee3ac-ec42-44be-a33b-e36724ceb7c0","system_id":"levelo_inurba_marseille","lat":43.308,"lon":5.38164,"is_reserved":false,"is_disabled":true,"rental_uris":{"android":"levelo://app?vid=807ee3ac-ec42-44be-a33b-e36724ceb7c0","ios":"levelo://app?vid=807ee3ac-ec42-44be-a33b-e36724ceb7c0"},"vehicle_type_id":"4","last_reported":1753899410,"current_range_meters":14400,"station_id":"ce4bgt12rcd13ifvqce0","pricing_plan_id":"cebpf4jnsgd1na2vs0mg"},{"bike_id":"59583874-48c1-4e5f-ae5f-62c2c23e9f23","system_id":"levelo_inurba_marseille","lat":43.29038,"lon":5.37557,"is_reserved":false,"is_disabled":false,"rental_uris":{"android":"levelo://app?vid=59583874-48c1-4e5f-ae5f-62c2c23e9f23","ios":"levelo://app?vid=59583874-48c1-4e5f-ae5f-62c2c23e9f23"},"vehicle_type_id":"4","last_reported":1753899410,"current_range_meters":14400,"station_id":"ce4bh692rcd13ifvqe90","pricing_plan_id":"cebpf4jnsgd1na2vs0mg"},{"bike_id":"d1ecc77d-626f-40f5-b975-e8acaa000fea","system_id":"levelo_inurba_marseille","lat":43.25497,"lon":5.37647,"is_reserved":false,"is_disabled":false,"rental_uris":{"android":"levelo://app?vid=d1ecc77d-626f-40f5-b975-e8acaa000fea","ios":"levelo://app?vid=d1ecc77d-626f-40f5-b975-e8acaa000fea"},"vehicle_type_id":"4","last_reported":1753899410,"current_range_meters":14800,"station_id":"ce4bhh12rcd13ifvqff0","pricing_plan_id":"cebpf4jnsgd1na2vs0mg"},{"bike_id":"6590494b-43e7-43e0-b312-c754fd5ea433","system_id":"levelo_inurba_marseille","lat":43.29038,"lon":5.4299,"is_reserved":false,"is_disabled":false,"rental_uris":{"android":"levelo://app?vid=6590494b-43e7-43e0-b312-c754fd5ea433","ios":"levelo://app?vid=6590494b-43e7-43e0-b312-c754fd5ea433"},"vehicle_type_id":"4","last_reported":1753899410,"current_range_meters":14800,"station_id":"","pricing_plan_id":"cebpf4jnsgd1na2vs0mg"},{"bike_id":"d076e265-2a54-4297-9670-5745543050ab","system_id":"levelo_inurba_marseille","lat":43.28405,"lon":5.34991,"is_reserved":false,"is_disabled":false,"rental_uris":{"android":"levelo://app?vid=d076e265-2a54-4297-9670-5745543050ab","ios":"levelo://app?vid=d076e265-2a54-4297-9670-5745543050ab"},"vehicle_type_id":"4","last_reported":1753899410,"current_range_meters":14800,"station_id":"ce4bhbh2rcd13ifvqepg","pricing_plan_id":"cebpf4jnsgd1na2vs0mg"},{"bike_id":"3f8bb2f1-5b95-4cb2-9155-9263547cd32c","system_id":"levelo_inurba_marseille","lat":43.31227,"lon":5.36842,"is_reserved":false,"is_disabled":false,"rental_uris":{"android":"levelo://app?vid=3f8bb2f1-5b95-4cb2-9155-9263547cd32c","ios":"levelo://app?vid=3f8bb2f1-5b95-4cb2-9155-9263547cd32c"},"vehicle_type_id":"4","last_reported":1753899410,"current_range_meters":14800,"station_id":"ce4bgl92rcd13ifvqbq0","pricing_plan_id":"cebpf4jnsgd1na2vs0mg"},{"bike_id":"d6e73d77-7eaf-429e-8e60-c6d22d59faca","system_id":"levelo_inurba_marseille","lat":43.27891,"lon":5.38008,"is_reserved":false,"is_disabled":false,"rental_uris":{"android":"levelo://app?vid=d6e73d77-7eaf-429e-8e60-c6d22d59faca","ios":"levelo://app?vid=d6e73d77-7eaf-429e-8e60-c6d22d59faca"},"vehicle_type_id":"4","last_reported":1753899410,"current_range_meters":14800,"station_id":"ce4bhf92rcd13ifvqf50","pricing_plan_id":"cebpf4jnsgd1na2vs0mg"},{"bike_id":"c064f227-400f-480f-8503-c1bd98c5cc41","system_id":"levelo_inurba_marseille","lat":43.25492,"lon":5.37644,"is_reserved":false,"is_disabled":false,"rental_uris":{"android":"levelo://app?vid=c064f227-400f-480f-8503-c1bd98c5cc41","ios":"levelo://app?vid=c064f227-400f-480f-8503-c1bd98c5cc41"},"vehicle_type_id":"4","last_reported":1753899410,"current_range_meters":14800,"station_id":"ce4bhh12rcd13ifvqff0","pricing_plan_id":"cebpf4jnsgd1na2vs0mg"},{"bike_id":"b89ad748-f7c1-4685-8c85-3009b186b7d0","system_id":"levelo_inurba_marseille","lat":43.24818,"lon":5.37463,"is_reserved":false,"is_disabled":false,"rental_uris":{"android":"levelo://app?vid=b89ad748-f7c1-4685-8c85-3009b186b7d0","ios":"levelo://app?vid=b89ad748-f7c1-4685-8c85-3009b186b7d0"},"vehicle_type_id":"4","last_reported":1753899410,"current_range_meters":14800,"station_id":"ce4bhgh2rcd13ifvqfb0","pricing_plan_id":"cebpf4jnsgd1na2vs0mg"},{"bike_id":"a993868a-0234-4754-a06b-22fd582168b7","system_id":"levelo_inurba_marseille","lat":43.23183,"lon":5.39994,"is_reserved":false,"is_disabled":false,"rental_uris":{"android":"levelo://app?vid=a993868a-0234-4754-a06b-22fd582168b7","ios":"levelo://app?vid=a993868a-0234-4754-a06b-22fd582168b7"},"vehicle_type_id":"4","last_reported":1753899410,"current_range_meters":14800,"station_id":"ce4bhn12rcd13ifvqgqg","pricing_plan_id":"cebpf4jnsgd1na2vs0mg"},{"bike_id":"2c4400c7-2bd6-4d8f-805d-b1037b3fe518","system_id":"levelo_inurba_marseille","lat":43.22517,"lon":5.34778,"is_reserved":false,"is_disabled":false,"rental_uris":{"android":"levelo://app?vid=2c4400c7-2bd6-4d8f-805d-b1037b3fe518","ios":"levelo://app?vid=2c4400c7-2bd6-4d8f-805d-b1037b3fe518"},"vehicle_type_id":"4","last_reported":1753899410,"current_range_meters":15200,"station_id":"st_cvj5dfep6f1abm77gieg","pricing_plan_id":"cebpf4jnsgd1na2vs0mg"},{"bike_id":"72ca459c-a966-48ac-a970-e21e90051fac","system_id":"levelo_inurba_marseille","lat":43.30128,"lon":5.37404,"is_reserved":false,"is_disabled":false,"rental_uris":{"android":"levelo://app?vid=72ca459c-a966-48ac-a970-e21e90051fac","ios":"levelo://app?vid=72ca459c-a966-48ac-a970-e21e90051fac"},"vehicle_type_id":"4","last_reported":1753899410,"current_range_meters":15200,"station_id":"ce4bgs92rcd13ifvqcc0","pricing_plan_id":"cebpf4jnsgd1na2vs0mg"},{"bike_id":"42def24e-0a17-4aab-b576-3fa28034a480","system_id":"levelo_inurba_marseille","lat":43.28616,"lon":5.35089,"is_reserved":false,"is_disabled":false,"rental_uris":{"android":"levelo://app?vid=42def24e-0a17-4aab-b576-3fa28034a480","ios":"levelo://app?vid=42def24e-0a17-4aab-b576-3fa28034a480"},"vehicle_type_id":"4","last_reported":1753899410,"current_range_meters":15200,"station_id":"ce4bhch2rcd13ifvqeug","pricing_plan_id":"cebpf4jnsgd1na2vs0mg"},{"bike_id":"30d425b9-6532-4584-ae56-a015f4c9f632","system_id":"levelo_inurba_marseille","lat":43.29224,"lon":5.36052,"is_reserved":false,"is_disabled":false,"rental_uris":{"android":"levelo://app?vid=30d425b9-6532-4584-ae56-a015f4c9f632","ios":"levelo://app?vid=30d425b9-6532-4584-ae56-a015f4c9f632"},"vehicle_type_id":"4","last_reported":1753899410,"current_range_meters":16000,"station_id":"ce4bhbh2rcd13ifvqeqg","pricing_plan_id":"cebpf4jnsgd1na2vs0mg"},{"bike_id":"99f600f0-e052-4706-a1d6-b8d652ece3b4","system_id":"levelo_inurba_marseille","lat":43.24176,"lon":5.39732,"is_reserved":false,"is_disabled":false,"rental_uris":{"android":"levelo://app?vid=99f600f0-e052-4706-a1d6-b8d652ece3b4","ios":"levelo://app?vid=99f600f0-e052-4706-a1d6-b8d652ece3b4"},"vehicle_type_id":"4","last_reported":1753899410,"current_range_meters":16000,"station_id":"ce4bhn12rcd13ifvqgpg","pricing_plan_id":"cebpf4jnsgd1na2vs0mg"},{"bike_id":"84649319-ccdc-47d2-a350-9bec002e91d2","system_id":"levelo_inurba_marseille","lat":43.30086,"lon":5.39075,"is_reserved":false,"is_disabled":false,"rental_uris":{"android":"levelo://app?vid=84649319-ccdc-47d2-a350-9bec002e91d2","ios":"levelo://app?vid=84649319-ccdc-47d2-a350-9bec002e91d2"},"vehicle_type_id":"4","last_reported":1753899410,"current_range_meters":15200,"station_id":"ce4bh192rcd13ifvqdb0","pricing_plan_id":"cebpf4jnsgd1na2vs0mg"},{"bike_id":"36c11242-6e7f-4d89-97be-c2933f4606a5","system_id":"levelo_inurba_marseille","lat":43.26207,"lon":5.37446,"is_reserved":false,"is_disabled":false,"rental_uris":{"android":"levelo://app?vid=36c11242-6e7f-4d89-97be-c2933f4606a5","ios":"levelo://app?vid=36c11242-6e7f-4d89-97be-c2933f4606a5"},"vehicle_type_id":"4","last_reported":1753899410,"current_range_meters":16000,"station_id":"ce4bhgp2rcd13ifvqfc0","pricing_plan_id":"cebpf4jnsgd1na2vs0mg"},{"bike_id":"99fcb636-1ff0-49a3-8d5b-39262b618bc6","system_id":"levelo_inurba_marseille","lat":43.23053,"lon":5.354857,"is_reserved":false,"is_disabled":false,"rental_uris":{"android":"levelo://app?vid=99fcb636-1ff0-49a3-8d5b-39262b618bc6","ios":"levelo://app?vid=99fcb636-1ff0-49a3-8d5b-39262b618bc6"},"vehicle_type_id":"4","last_reported":1753899410,"current_range_meters":16000,"station_id":"cpo3342slgdg3j2ifvpg","pricing_plan_id":"cebpf4jnsgd1na2vs0mg"},{"bike_id":"fb30b846-de5a-499a-a976-5656aa4d0f7d","system_id":"levelo_inurba_marseille","lat":43.28958,"lon":5.36385,"is_reserved":false,"is_disabled":false,"rental_uris":{"android":"levelo://app?vid=fb30b846-de5a-499a-a976-5656aa4d0f7d","ios":"levelo://app?vid=fb30b846-de5a-499a-a976-5656aa4d0f7d"},"vehicle_type_id":"4","last_reported":1753899410,"current_range_meters":16000,"station_id":"ce4bhc92rcd13ifvqetg","pricing_plan_id":"cebpf4jnsgd1na2vs0mg"},{"bike_id":"de51aa0b-260c-4c1e-8b5a-1392239894a3","system_id":"levelo_inurba_marseille","lat":43.24068,"lon":5.37763,"is_reserved":false,"is_disabled":false,"rental_uris":{"android":"levelo://app?vid=de51aa0b-260c-4c1e-8b5a-1392239894a3","ios":"levelo://app?vid=de51aa0b-260c-4c1e-8b5a-1392239894a3"},"vehicle_type_id":"4","last_reported":1753899410,"current_range_meters":16000,"station_id":"ce4bhnp2rcd13ifvqgvg","pricing_plan_id":"cebpf4jnsgd1na2vs0mg"},{"bike_id":"db014187-01b2-4f5e-8ddb-34e3fc61b446","system_id":"levelo_inurba_marseille","lat":43.27618,"lon":5.3611,"is_reserved":false,"is_disabled":false,"rental_uris":{"android":"levelo://app?vid=db014187-01b2-4f5e-8ddb-34e3fc61b446","ios":"levelo://app?vid=db014187-01b2-4f5e-8ddb-34e3fc61b446"},"vehicle_type_id":"4","last_reported":1753899410,"current_range_meters":16000,"station_id":"ce4bgj92rcd13ifvqbe0","pricing_plan_id":"cebpf4jnsgd1na2vs0mg"},{"bike_id":"52aa1d0d-4466-44b5-a116-ec1102c8f422","system_id":"levelo_inurba_marseille","lat":43.32877,"lon":5.36065,"is_reserved":false,"is_disabled":false,"rental_uris":{"android":"levelo://app?vid=52aa1d0d-4466-44b5-a116-ec1102c8f422","ios":"levelo://app?vid=52aa1d0d-4466-44b5-a116-ec1102c8f422"},"vehicle_type_id":"4","last_reported":1753899410,"current_range_meters":16000,"station_id":"","pricing_plan_id":"cebpf4jnsgd1na2vs0mg"},{"bike_id":"5b41c5ac-c0bd-4cd6-86a9-7adae8d1e278","system_id":"levelo_inurba_marseille","lat":43.25866,"lon":5.39895,"is_reserved":false,"is_disabled":false,"rental_uris":{"android":"levelo://app?vid=5b41c5ac-c0bd-4cd6-86a9-7adae8d1e278","ios":"levelo://app?vid=5b41c5ac-c0bd-4cd6-86a9-7adae8d1e278"},"vehicle_type_id":"4","last_reported":1753899410,"current_range_meters":12400,"station_id":"ce4bhl92rcd13ifvqghg","pricing_plan_id":"cebpf4jnsgd1na2vs0mg"},{"bike_id":"46277739-d2e4-4f03-abc5-c33cfa302241","system_id":"levelo_inurba_marseille","lat":43.27061,"lon":5.42283,"is_reserved":false,"is_disabled":false,"rental_uris":{"android":"levelo://app?vid=46277739-d2e4-4f03-abc5-c33cfa302241","ios":"levelo://app?vid=46277739-d2e4-4f03-abc5-c33cfa302241"},"vehicle_type_id":"4","last_reported":1753899410,"current_range_meters":16400,"station_id":"ce4bhk92rcd13ifvqgb0","pricing_plan_id":"cebpf4jnsgd1na2vs0mg"},{"bike_id":"5183d42e-85dc-4795-9683-e853461cc68e","system_id":"levelo_inurba_marseille","lat":43.31715,"lon":5.43703,"is_reserved":false,"is_disabled":false,"rental_uris":{"android":"levelo://app?vid=5183d42e-85dc-4795-9683-e853461cc68e","ios":"levelo://app?vid=5183d42e-85dc-4795-9683-e853461cc68e"},"vehicle_type_id":"4","last_reported":1753899410,"current_range_meters":16400,"station_id":"ce4bhp92rcd13ifvqhcg","pricing_plan_id":"cebpf4jnsgd1na2vs0mg"},{"bike_id":"29d5d3ce-793c-4777-9881-96ef3e21f7aa","system_id":"levelo_inurba_marseille","lat":43.29216,"lon":5.36059,"is_reserved":false,"is_disabled":false,"rental_uris":{"android":"levelo://app?vid=29d5d3ce-793c-4777-9881-96ef3e21f7aa","ios":"levelo://app?vid=29d5d3ce-793c-4777-9881-96ef3e21f7aa"},"vehicle_type_id":"4","last_reported":1753899410,"current_range_meters":16400,"station_id":"ce4bhbh2rcd13ifvqeqg","pricing_plan_id":"cebpf4jnsgd1na2vs0mg"},{"bike_id":"403ffdf7-512e-47ad-93cd-5181c8d8e15f","system_id":"levelo_inurba_marseille","lat":43.25719,"lon":5.41116,"is_reserved":false,"is_disabled":false,"rental_uris":{"android":"levelo://app?vid=403ffdf7-512e-47ad-93cd-5181c8d8e15f","ios":"levelo://app?vid=403ffdf7-512e-47ad-93cd-5181c8d8e15f"},"vehicle_type_id":"4","last_reported":1753899410,"current_range_meters":16400,"station_id":"ce4bhkp2rcd13ifvqgd0","pricing_plan_id":"cebpf4jnsgd1na2vs0mg"},{"bike_id":"3ecccbf5-c797-45df-95f3-47e3b24c14d9","system_id":"levelo_inurba_marseille","lat":43.29581,"lon":5.36736,"is_reserved":false,"is_disabled":false,"rental_uris":{"android":"levelo://app?vid=3ecccbf5-c797-45df-95f3-47e3b24c14d9","ios":"levelo://app?vid=3ecccbf5-c797-45df-95f3-47e3b24c14d9"},"vehicle_type_id":"4","last_reported":1753899410,"current_range_meters":16400,"station_id":"ce4bgph2rcd13ifvqc2g","pricing_plan_id":"cebpf4jnsgd1na2vs0mg"},{"bike_id":"668e5bdf-b0c3-4a4e-a1d9-0bfd8c37e7ea","system_id":"levelo_inurba_marseille","lat":43.262085,"lon":5.37444,"is_reserved":false,"is_disabled":false,"rental_uris":{"android":"levelo://app?vid=668e5bdf-b0c3-4a4e-a1d9-0bfd8c37e7ea","ios":"levelo://app?vid=668e5bdf-b0c3-4a4e-a1d9-0bfd8c37e7ea"},"vehicle_type_id":"4","last_reported":1753899410,"current_range_meters":16400,"station_id":"ce4bhgp2rcd13ifvqfc0","pricing_plan_id":"cebpf4jnsgd1na2vs0mg"},{"bike_id":"8b920c53-6ae9-4060-8893-d79bbb88453a","system_id":"levelo_inurba_marseille","lat":43.28105,"lon":5.37832,"is_reserved":false,"is_disabled":false,"rental_uris":{"android":"levelo://app?vid=8b920c53-6ae9-4060-8893-d79bbb88453a","ios":"levelo://app?vid=8b920c53-6ae9-4060-8893-d79bbb88453a"},"vehicle_type_id":"4","last_reported":1753899410,"current_range_meters":16000,"station_id":"ce4bha12rcd13ifvqee0","pricing_plan_id":"cebpf4jnsgd1na2vs0mg"},{"bike_id":"cd135ec5-1f0e-488f-a7bf-0e94c2e06e6f","system_id":"levelo_inurba_marseille","lat":43.21194,"lon":5.35069,"is_reserved":false,"is_disabled":false,"rental_uris":{"android":"levelo://app?vid=cd135ec5-1f0e-488f-a7bf-0e94c2e06e6f","ios":"levelo://app?vid=cd135ec5-1f0e-488f-a7bf-0e94c2e06e6f"},"vehicle_type_id":"4","last_reported":1753899410,"current_range_meters":16400,"station_id":"st_cvj6sg6p6f1abm77japg","pricing_plan_id":"cebpf4jnsgd1na2vs0mg"},{"bike_id":"8a83b29e-fa2d-4dd9-9787-d8d4fe384c2b","system_id":"levelo_inurba_marseille","lat":43.27365,"lon":5.36252,"is_reserved":false,"is_disabled":false,"rental_uris":{"android":"levelo://app?vid=8a83b29e-fa2d-4dd9-9787-d8d4fe384c2b","ios":"levelo://app?vid=8a83b29e-fa2d-4dd9-9787-d8d4fe384c2b"},"vehicle_type_id":"4","last_reported":1753899410,"current_range_meters":16400,"station_id":"ce4bhbh2rcd13ifvqeo0","pricing_plan_id":"cebpf4jnsgd1na2vs0mg"},{"bike_id":"5672b545-467c-4b90-9ce0-8b09b0fac6eb","system_id":"levelo_inurba_marseille","lat":43.24156,"lon":5.36411,"is_reserved":false,"is_disabled":false,"rental_uris":{"android":"levelo://app?vid=5672b545-467c-4b90-9ce0-8b09b0fac6eb","ios":"levelo://app?vid=5672b545-467c-4b90-9ce0-8b09b0fac6eb"},"vehicle_type_id":"4","last_reported":1753899410,"current_range_meters":16800,"station_id":"cpo36qri1sfpv3e86is0","pricing_plan_id":"cebpf4jnsgd1na2vs0mg"},{"bike_id":"ce5c89f6-b029-4ad1-81dd-b8ac1e9d8355","system_id":"levelo_inurba_marseille","lat":43.31273,"lon":5.4017,"is_reserved":false,"is_disabled":false,"rental_uris":{"android":"levelo://app?vid=ce5c89f6-b029-4ad1-81dd-b8ac1e9d8355","ios":"levelo://app?vid=ce5c89f6-b029-4ad1-81dd-b8ac1e9d8355"},"vehicle_type_id":"4","last_reported":1753899410,"current_range_meters":16800,"station_id":"ce4bh092rcd13ifvqd30","pricing_plan_id":"cebpf4jnsgd1na2vs0mg"},{"bike_id":"f8203b23-786f-48c0-802d-d2a128b37d53","system_id":"levelo_inurba_marseille","lat":43.29715,"lon":5.36618,"is_reserved":false,"is_disabled":false,"rental_uris":{"android":"levelo://app?vid=f8203b23-786f-48c0-802d-d2a128b37d53","ios":"levelo://app?vid=f8203b23-786f-48c0-802d-d2a128b37d53"},"vehicle_type_id":"4","last_reported":1753899410,"current_range_meters":16800,"station_id":"ce4bgn12rcd13ifvqbt0","pricing_plan_id":"cebpf4jnsgd1na2vs0mg"},{"bike_id":"3cecb3be-9781-41f4-9ab1-14f8e6202c32","system_id":"levelo_inurba_marseille","lat":43.22496,"lon":5.34798,"is_reserved":false,"is_disabled":false,"rental_uris":{"android":"levelo://app?vid=3cecb3be-9781-41f4-9ab1-14f8e6202c32","ios":"levelo://app?vid=3cecb3be-9781-41f4-9ab1-14f8e6202c32"},"vehicle_type_id":"4","last_reported":1753899410,"current_range_meters":16800,"station_id":"st_cvj5dfep6f1abm77gieg","pricing_plan_id":"cebpf4jnsgd1na2vs0mg"},{"bike_id":"2093a2b7-8bbc-4356-896c-88cd021ab676","system_id":"levelo_inurba_marseille","lat":43.28646,"lon":5.35074,"is_reserved":false,"is_disabled":false,"rental_uris":{"android":"levelo://app?vid=2093a2b7-8bbc-4356-896c-88cd021ab676","ios":"levelo://app?vid=2093a2b7-8bbc-4356-896c-88cd021ab676"},"vehicle_type_id":"4","last_reported":1753899410,"current_range_meters":16800,"station_id":"ce4bhch2rcd13ifvqeug","pricing_plan_id":"cebpf4jnsgd1na2vs0mg"},{"bike_id":"378687e2-aae2-493e-b408-76073784f072","system_id":"levelo_inurba_marseille","lat":43.265381,"lon":5.372836,"is_reserved":false,"is_disabled":false,"rental_uris":{"android":"levelo://app?vid=378687e2-aae2-493e-b408-76073784f072","ios":"levelo://app?vid=378687e2-aae2-493e-b408-76073784f072"},"vehicle_type_id":"4","last_reported":1753899410,"current_range_meters":16800,"station_id":"ce4bgi92rcd13ifvqb90","pricing_plan_id":"cebpf4jnsgd1na2vs0mg"},{"bike_id":"d830c721-f3f4-42af-9b1e-7a306a496a7b","system_id":"levelo_inurba_marseille","lat":43.26028,"lon":5.3755,"is_reserved":false,"is_disabled":false,"rental_uris":{"android":"levelo://app?vid=d830c721-f3f4-42af-9b1e-7a306a496a7b","ios":"levelo://app?vid=d830c721-f3f4-42af-9b1e-7a306a496a7b"},"vehicle_type_id":"4","last_reported":1753899410,"current_range_meters":16800,"station_id":"ce4bhgh2rcd13ifvqfa0","pricing_plan_id":"cebpf4jnsgd1na2vs0mg"},