{"last_updated":1730704203,"ttl":60,"version":"2.2","data":{"bikes":[{"bike_id":"043d7e5b-e80f-4e68-9c7d-39e17601aa9d","system_id":"levelo_inurba_marseille","lat":43.28262,"lon":5.35062,"is_reserved":false,"is_disabled":false,"rental_uris":{"android":"levelo://app?vid=043d7e5b-e80f-4e68-9c7d-39e17601aa9d","ios":"levelo://app?vid=043d7e5b-e80f-4e68-9c7d-39e17601aa9d"},"vehicle_type_id":"4","last_reported":1730704203,"current_range_meters":20000,"station_id":"ce4bhbp2rcd13ifvqerg","pricing_plan_id":"cebpf4jnsgd1na2vs0mg"},{"bike_id":"1ed52e23-0808-4e68-aef0-92ed507e39af","system_id":"levelo_inurba_marseille","lat":43.30888,"lon":5.39635,"is_reserved":false,"is_disabled":false,"rental_uris":{"android":"levelo://app?vid=1ed52e23-0808-4e68-aef0-92ed507e39af","ios":"levelo://app?vid=1ed52e23-0808-4e68-aef0-92ed507e39af"},"vehicle_type_id":"4","last_reported":1730704203,"current_range_meters":35600,"station_id":"ce4bh092rcd13ifvqd20","pricing_plan_id":"cebpf4jnsgd1na2vs0mg"},{"bike_id":"e1a738f4-d190-4319-951b-0640d9a57607","system_id":"levelo_inurba_marseille","lat":43.33021,"lon":5.39031,"is_reserved":false,"is_disabled":false,"rental_uris":{"android":"levelo://app?vid=e1a738f4-d190-4319-951b-0640d9a57607","ios":"levelo://app?vid=e1a738f4-d190-4319-951b-0640d9a57607"},"vehicle_type_id":"4","last_reported":1730704203,"current_range_meters":7200,"station_id":"ce4bhr92rcd13ifvqhrg","pricing_plan_id":"cebpf4jnsgd1na2vs0mg"},{"bike_id":"03f876c6-cad4-4021-b7ee-a965993d7b3c","system_id":"levelo_inurba_marseille","lat":43.28933,"lon":5.36643,"is_reserved":false,"is_disabled":false,"rental_uris":{"android":"levelo://app?vid=03f876c6-cad4-4021-b7ee-a965993d7b3c","ios":"levelo://app?vid=03f876c6-cad4-4021-b7ee-a965993d7b3c"},"vehicle_type_id":"4","last_reported":1730704203,"current_range_meters":24400,"station_id":"ce4bhap2rcd13ifvqek0","pricing_plan_id":"cebpf4jnsgd1na2vs0mg"},{"bike_id":"f2f2c9b8-7f0b-411b-830a-ca250fa7128b","system_id":"levelo_inurba_marseille","lat":43.29202,"lon":5.39305,"is_reserved":false,"is_disabled":false,"rental_uris":{"android":"levelo://app?vid=f2f2c9b8-7f0b-411b-830a-ca250fa7128b","ios":"levelo://app?vid=f2f2c9b8-7f0b-411b-830a-ca250fa7128b"},"vehicle_type_id":"4","last_reported":1730704203,"current_range_meters":36800,"station_id":"ce4bh192rcd13ifvqdd0","pricing_plan_id":"cebpf4jnsgd1na2vs0mg"},{"bike_id":"3f0593a9-6cc3-4687-9986-746588c57c00","system_id":"levelo_inurba_marseille","lat":43.29518,"lon":5.39391,"is_reserved":false,"is_disabled":false,"rental_uris":{"android":"levelo://app?vid=3f0593a9-6cc3-4687-9986-746588c57c00","ios":"levelo://app?vid=3f0593a9-6cc3-4687-9986-746588c57c00"},"vehicle_type_id":"4","last_reported":1730704203,"current_range_meters":38800,"station_id":"ce4bh292rcd13ifvqdf0","pricing_plan_id":"cebpf4jnsgd1na2vs0mg"},{"bike_id":"4d39ab49-549c-4578-b829-f2631906d9c9","system_id":"levelo_inurba_marseille","lat":43.28981,"lon":5.37827,"is_reserved":false,"is_disabled":false,"rental_uris":{"android":"levelo://app?vid=4d39ab49-549c-4578-b829-f2631906d9c9","ios":"levelo://app?vid=4d39ab49-549c-4578-b829-f2631906d9c9"},"vehicle_type_id":"4","last_reported":1730704203,"current_range_meters":33200,"station_id":"ce4bh9p2rcd13ifvqed0","pricing_plan_id":"cebpf4jnsgd1na2vs0mg"},{"bike_id":"c7aae55d-47f8-4191-943d-6572d3579e2f","system_id":"levelo_inurba_marseille","lat":43.265493,"lon":5.372849,"is_reserved":false,"is_disabled":false,"rental_uris":{"android":"levelo://app?vid=c7aae55d-47f8-4191-943d-6572d3579e2f","ios":"levelo://app?vid=c7aae55d-47f8-4191-943d-6572d3579e2f"},"vehicle_type_id":"4","last_reported":1730704203,"current_range_meters":22800,"station_id":"","pricing_plan_id":"cebpf4jnsgd1na2vs0mg"},{"bike_id":"d48d3854-7979-4947-9453-e181fcf30089","system_id":"levelo_inurba_marseille","lat":43.2749,"lon":5.42438,"is_reserved":false,"is_disabled":false,"rental_uris":{"android":"levelo://app?vid=d48d3854-7979-4947-9453-e181fcf30089","ios":"levelo://app?vid=d48d3854-7979-4947-9453-e181fcf30089"},"vehicle_type_id":"4","last_reported":1730704203,"current_range_meters":28000,"station_id":"ce4bhn92rcd13ifvqgrg","pricing_plan_id":"cebpf4jnsgd1na2vs0mg"},{"bike_id":"2318abea-abd6-4ba3-ab7a-b4c15eae488a","system_id":"levelo_inurba_marseille","lat":43.30467,"lon":5.379,"is_reserved":false,"is_disabled":false,"rental_uris":{"android":"levelo://app?vid=2318abea-abd6-4ba3-ab7a-b4c15eae488a","ios":"levelo://app?vid=2318abea-abd6-4ba3-ab7a-b4c15eae488a"},"vehicle_type_id":"4","last_reported":1730704203,"current_range_meters":34800,"station_id":"ce4bgup2rcd13ifvqcn0","pricing_plan_id":"cebpf4jnsgd1na2vs0mg"},{"bike_id":"38916ab1-1e69-4daa-b3cf-be894a35d779","system_id":"levelo_inurba_marseille","lat":43.26942,"lon":5.40244,"is_reserved":false,"is_disabled":false,"rental_uris":{"android":"levelo://app?vid=38916ab1-1e69-4daa-b3cf-be894a35d779","ios":"levelo://app?vid=38916ab1-1e69-4daa-b3cf-be894a35d779"},"vehicle_type_id":"4","last_reported":1730704203,"current_range_meters":27200,"station_id":"cjm6bp8fraef2m0cb0m0","pricing_plan_id":"cebpf4jnsgd1na2vs0mg"},{"bike_id":"38d13b2e-9730-4de1-885e-acd98ba71453","system_id":"levelo_inurba_marseille","lat":43.303738,"lon":5.38577,"is_reserved":false,"is_disabled":false,"rental_uris":{"android":"levelo://app?vid=38d13b2e-9730-4de1-885e-acd98ba71453","ios":"levelo://app?vid=38d13b2e-9730-4de1-885e-acd98ba71453"},"vehicle_type_id":"4","last_reported":1730704203,"current_range_meters":3600,"station_id":"ce4bgt12rcd13ifvqcd0","pricing_plan_id":"cebpf4jnsgd1na2vs0mg"},{"bike_id":"dfbda0c7-e476-4a62-a9ab-bcfa56fea2cc","system_id":"levelo_inurba_marseille","lat":43.26494,"lon":5.39544,"is_reserved":false,"is_disabled":false,"rental_uris":{"android":"levelo://app?vid=dfbda0c7-e476-4a62-a9ab-bcfa56fea2cc","ios":"levelo://app?vid=dfbda0c7-e476-4a62-a9ab-bcfa56fea2cc"},"vehicle_type_id":"4","last_reported":1730704203,"current_range_meters":22000,"station_id":"ce4bhi12rcd13ifvqfq0","pricing_plan_id":"cebpf4jnsgd1na2vs0mg"},{"bike_id":"c7a51b24-0fab-4242-b11c-e03d2ff6fb2e","system_id":"levelo_inurba_marseille","lat":43.29043,"lon":5.39949,"is_reserved":false,"is_disabled":false,"rental_uris":{"android":"levelo://app?vid=c7a51b24-0fab-4242-b11c-e03d2ff6fb2e","ios":"levelo://app?vid=c7a51b24-0fab-4242-b11c-e03d2ff6fb2e"},"vehicle_type_id":"4","last_reported":1730704203,"current_range_meters":16800,"station_id":"ce4bh392rcd13ifvqdm0","pricing_plan_id":"cebpf4jnsgd1na2vs0mg"},{"bike_id":"205a086c-8a81-42da-b9f6-fee8e745f8ed","system_id":"levelo_inurba_marseille","lat":43.25728,"lon":5.41111,"is_reserved":false,"is_disabled":false,"rental_uris":{"android":"levelo://app?vid=205a086c-8a81-42da-b9f6-fee8e745f8ed","ios":"levelo://app?vid=205a086c-8a81-42da-b9f6-fee8e745f8ed"},"vehicle_type_id":"4","last_reported":1730704203,"current_range_meters":35200,"station_id":"ce4bhkp2rcd13ifvqgd0","pricing_plan_id":"cebpf4jnsgd1na2vs0mg"},{"bike_id":"27493541-d07e-4a7d-b6d5-0bb3b0d5dd24","system_id":"levelo_inurba_marseille","lat":43.27995,"lon":5.40001,"is_reserved":false,"is_disabled":false,"rental_uris":{"android":"levelo://app?vid=27493541-d07e-4a7d-b6d5-0bb3b0d5dd24","ios":"levelo://app?vid=27493541-d07e-4a7d-b6d5-0bb3b0d5dd24"},"vehicle_type_id":"4","last_reported":1730704203,"current_range_meters":32000,"station_id":"ce4bho92rcd13ifvqh4g","pricing_plan_id":"cebpf4jnsgd1na2vs0mg"},{"bike_id":"637d2a51-76a7-4987-a9fb-f3a91d5b4889","system_id":"levelo_inurba_marseille","lat":43.280365,"lon":5.369468,"is_reserved":false,"is_disabled":false,"rental_uris":{"android":"levelo://app?vid=637d2a51-76a7-4987-a9fb-f3a91d5b4889","ios":"levelo://app?vid=637d2a51-76a7-4987-a9fb-f3a91d5b4889"},"vehicle_type_id":"4","last_reported":1730704203,"current_range_meters":35600,"station_id":"ce4bha12rcd13ifvqef0","pricing_plan_id":"cebpf4jnsgd1na2vs0mg"},{"bike_id":"13ce73ff-de39-4563-8ef2-5b5e2775bdeb","system_id":"levelo_inurba_marseille","lat":43.32541,"lon":5.41432,"is_reserved":false,"is_disabled":false,"rental_uris":{"android":"levelo://app?vid=13ce73ff-de39-4563-8ef2-5b5e2775bdeb","ios":"levelo://app?vid=13ce73ff-de39-4563-8ef2-5b5e2775bdeb"},"vehicle_type_id":"4","last_reported":1730704203,"current_range_meters":28800,"station_id":"ce4bhq12rcd13ifvqhhg","pricing_plan_id":"cebpf4jnsgd1na2vs0mg"},{"bike_id":"4147bbfb-4b14-4aca-b782-8ec6c0473609","system_id":"levelo_inurba_marseille","lat":43.23597,"lon":5.40344,"is_reserved":false,"is_disabled":false,"rental_uris":{"android":"levelo://app?vid=4147bbfb-4b14-4aca-b782-8ec6c0473609","ios":"levelo://app?vid=4147bbfb-4b14-4aca-b782-8ec6c0473609"},"vehicle_type_id":"4","last_reported":1730704203,"current_range_meters":16400,"station_id":"","pricing_plan_id":"cebpf4jnsgd1na2vs0mg"},{"bike_id":"bc06f5c6-2a15-4d39-ae2b-0e784569eb25","system_id":"levelo_inurba_marseille","lat":43.28336,"lon":5.381043,"is_reserved":false,"is_disabled":false,"rental_uris":{"android":"levelo://app?vid=bc06f5c6-2a15-4d39-ae2b-0e784569eb25","ios":"levelo://app?vid=bc06f5c6-2a15-4d39-ae2b-0e784569eb25"},"vehicle_type_id":"4","last_reported":1730704203,"current_range_meters":25200,"station_id":"ce4bh3h2rcd13ifvqdn0","pricing_plan_id":"cebpf4jnsgd1na2vs0mg"},{"bike_id":"e1fe4c18-8af6-410c-872d-c49df7f00292","system_id":"levelo_inurba_marseille","lat":43.26943,"lon":5.40255,"is_reserved":false,"is_disabled":false,"rental_uris":{"android":"levelo://app?vid=e1fe4c18-8af6-410c-872d-c49df7f00292","ios":"levelo://app?vid=e1fe4c18-8af6-410c-872d-c49df7f00292"},"vehicle_type_id":"4","last_reported":1730704203,"current_range_meters":31200,"station_id":"cjm6bp8fraef2m0cb0m0","pricing_plan_id":"cebpf4jnsgd1na2vs0mg"},{"bike_id":"0ba06df3-a4a9-4905-a257-05af33eb2c27","system_id":"levelo_inurba_marseille","lat":43.29784,"lon":5.38099,"is_reserved":false,"is_disabled":false,"rental_uris":{"android":"levelo://app?vid=0ba06df3-a4a9-4905-a257-05af33eb2c27","ios":"levelo://app?vid=0ba06df3-a4a9-4905-a257-05af33eb2c27"},"vehicle_type_id":"4","last_reported":1730704203,"current_range_meters":36800,"station_id":"ce4bgip2rcd13ifvqbb0","pricing_plan_id":"cebpf4jnsgd1na2vs0mg"},{"bike_id":"8ab3cef0-5266-4bca-856c-d0d5ed115b5e","system_id":"levelo_inurba_marseille","lat":43.29037,"lon":5.39962,"is_reserved":false,"is_disabled":false,"rental_uris":{"android":"levelo://app?vid=8ab3cef0-5266-4bca-856c-d0d5ed115b5e","ios":"levelo://app?vid=8ab3cef0-5266-4bca-856c-d0d5ed115b5e"},"vehicle_type_id":"4","last_reported":1730704203,"current_range_meters":33600,"station_id":"ce4bh392rcd13ifvqdm0","pricing_plan_id":"cebpf4jnsgd1na2vs0mg"},{"bike_id":"b97d9adc-ce60-4c39-8afd-921a04111eb6","system_id":"levelo_inurba_marseille","lat":43.34137,"lon":5.40897,"is_reserved":false,"is_disabled":false,"rental_uris":{"android":"levelo://app?vid=b97d9adc-ce60-4c39-8afd-921a04111eb6","ios":"levelo://app?vid=b97d9adc-ce60-4c39-8afd-921a04111eb6"},"vehicle_type_id":"4","last_reported":1730704203,"current_range_meters":38800,"station_id":"ce4bhqh2rcd13ifvqhlg","pricing_plan_id":"cebpf4jnsgd1na2vs0mg"},{"bike_id":"4e0cd11a-7c38-4dbe-86ed-dfca5d55cfec","system_id":"levelo_inurba_marseille","lat":43.29799,"lon":5.38073,"is_reserved":false,"is_disabled":false,"rental_uris":{"android":"levelo://app?vid=4e0cd11a-7c38-4dbe-86ed-dfca5d55cfec","ios":"levelo://app?vid=4e0cd11a-7c38-4dbe-86ed-dfca5d55cfec"},"vehicle_type_id":"4","last_reported":1730704203,"current_range_meters":14800,"station_id":"ce4bgip2rcd13ifvqbb0","pricing_plan_id":"cebpf4jnsgd1na2vs0mg"},{"bike_id":"7a58bdc6-5db2-4543-b33d-6202d289b688","system_id":"levelo_inurba_marseille","lat":43.33726,"lon":5.39183,"is_reserved":false,"is_disabled":false,"rental_uris":{"android":"levelo://app?vid=7a58bdc6-5db2-4543-b33d-6202d289b688","ios":"levelo://app?vid=7a58bdc6-5db2-4543-b33d-6202d289b688"},"vehicle_type_id":"4","last_reported":1730704203,"current_range_meters":23200,"station_id":"ce4bhr92rcd13ifvqhsg","pricing_plan_id":"cebpf4jnsgd1na2vs0mg"},{"bike_id":"f0128217-3ebe-48fa-a8a2-edc759bd63aa","system_id":"levelo_inurba_marseille","lat":43.30481,"lon":5.39886,"is_reserved":false,"is_disabled":false,"rental_uris":{"android":"levelo://app?vid=f0128217-3ebe-48fa-a8a2-edc759bd63aa","ios":"levelo://app?vid=f0128217-3ebe-48fa-a8a2-edc759bd63aa"},"vehicle_type_id":"4","last_reported":1730704203,"current_range_meters":32400,"station_id":"ce4bgvp2rcd13ifvqct0","pricing_plan_id":"cebpf4jnsgd1na2vs0mg"},{"bike_id":"f8676706-151e-428b-bc5c-68e7f8be586a","system_id":"levelo_inurba_marseille","lat":43.33612,"lon":5.41022,"is_reserved":false,"is_disabled":false,"rental_uris":{"android":"levelo://app?vid=f8676706-151e-428b-bc5c-68e7f8be586a","ios":"levelo://app?vid=f8676706-151e-428b-bc5c-68e7f8be586a"},"vehicle_type_id":"4","last_reported":1730704203,"current_range_meters":35600,"station_id":"ce4bhqh2rcd13ifvqhmg","pricing_plan_id":"cebpf4jnsgd1na2vs0mg"},{"bike_id":"26bf93f8-e4c4-44d5-832f-15ac991d0573","system_id":"levelo_inurba_marseille","lat":43.284737,"lon":5.384177,"is_reserved":false,"is_disabled":false,"rental_uris":{"android":"levelo://app?vid=26bf93f8-e4c4-44d5-832f-15ac991d0573","ios":"levelo://app?vid=26bf93f8-e4c4-44d5-832f-15ac991d0573"},"vehicle_type_id":"4","last_reported":1730704203,"current_range_meters":37600,"station_id":"ce4bh512rcd13ifvqe3g","pricing_plan_id":"cebpf4jnsgd1na2vs0mg"},{"bike_id":"cded4cd5-5d9c-4bda-bb59-d3de57a67324","system_id":"levelo_inurba_marseille","lat":43.30155,"lon":5.3808,"is_reserved":false,"is_disabled":false,"rental_uris":{"android":"levelo://app?vid=cded4cd5-5d9c-4bda-bb59-d3de57a67324","ios":"levelo://app?vid=cded4cd5-5d9c-4bda-bb59-d3de57a67324"},"vehicle_type_id":"4","last_reported":1730704203,"current_range_meters":35200,"station_id":"ce4bgjp2rcd13ifvqbh0","pricing_plan_id":"cebpf4jnsgd1na2vs0mg"},{"bike_id":"baea6945-ac3f-4195-a6a4-4b887db0844f","system_id":"levelo_inurba_marseille","lat":43.27071,"lon":5.42274,"is_reserved":false,"is_disabled":false,"rental_uris":{"android":"levelo://app?vid=baea6945-ac3f-4195-a6a4-4b887db0844f","ios":"levelo://app?vid=baea6945-ac3f-4195-a6a4-4b887db0844f"},"vehicle_type_id":"4","last_reported":1730704203,"current_range_meters":38400,"station_id":"ce4bhk92rcd13ifvqgb0","pricing_plan_id":"cebpf4jnsgd1na2vs0mg"},{"bike_id":"598535da-1e32-42e0-bd65-4ba25549dd70","system_id":"levelo_inurba_marseille","lat":43.31451,"lon":5.37374,"is_reserved":false,"is_disabled":false,"rental_uris":{"android":"levelo://app?vid=598535da-1e32-42e0-bd65-4ba25549dd70","ios":"levelo://app?vid=598535da-1e32-42e0-bd65-4ba25549dd70"},"vehicle_type_id":"4","last_reported":1730704203,"current_range_meters":27200,"station_id":"","pricing_plan_id":"cebpf4jnsgd1na2vs0mg"},{"bike_id":"2378f453-72a7-4eb2-ab3b-946285d406fd","system_id":"levelo_inurba_marseille","lat":43.29225,"lon":5.37725,"is_reserved":false,"is_disabled":false,"rental_uris":{"android":"levelo://app?vid=2378f453-72a7-4eb2-ab3b-946285d406fd","ios":"levelo://app?vid=2378f453-72a7-4eb2-ab3b-946285d406fd"},"vehicle_type_id":"4","last_reported":1730704203,"current_range_meters":9200,"station_id":"","pricing_plan_id":"cebpf4jnsgd1na2vs0mg"},{"bike_id":"69c5828b-16b5-4e21-9a89-eb78828b437f","system_id":"levelo_inurba_marseille","lat":43.27068,"lon":5.42275,"is_reserved":false,"is_disabled":false,"rental_uris":{"android":"levelo://app?vid=69c5828b-16b5-4e21-9a89-eb78828b437f","ios":"levelo://app?vid=69c5828b-16b5-4e21-9a89-eb78828b437f"},"vehicle_type_id":"4","last_reported":1730704203,"current_range_meters":34000,"station_id":"ce4bhk92rcd13ifvqgb0","pricing_plan_id":"cebpf4jnsgd1na2vs0mg"},{"bike_id":"bf60aa80-0486-4083-bd1a-16520d557172","system_id":"levelo_inurba_marseille","lat":43.28154,"lon":5.42635,"is_reserved":false,"is_disabled":false,"rental_uris":{"android":"levelo://app?vid=bf60aa80-0486-4083-bd1a-16520d557172","ios":"levelo://app?vid=bf60aa80-0486-4083-bd1a-16520d557172"},"vehicle_type_id":"4","last_reported":1730704203,"current_range_meters":27200,"station_id":"ce4bhnh2rcd13ifvqgug","pricing_plan_id":"cebpf4jnsgd1na2vs0mg"},{"bike_id":"45e37847-060c-4fbe-958a-f63e7f57fa30","system_id":"levelo_inurba_marseille","lat":43.2707,"lon":5.42275,"is_reserved":false,"is_disabled":false,"rental_uris":{"android":"levelo://app?vid=45e37847-060c-4fbe-958a-f63e7f57fa30","ios":"levelo://app?vid=45e37847-060c-4fbe-958a-f63e7f57fa30"},"vehicle_type_id":"4","last_reported":1730704203,"current_range_meters":20000,"station_id":"ce4bhk92rcd13ifvqgb0","pricing_plan_id":"cebpf4jnsgd1na2vs0mg"},{"bike_id":"9c6a4c09-d997-448d-8062-9335e03a26ba","system_id":"levelo_inurba_marseille","lat":43.29228,"lon":5.37728,"is_reserved":false,"is_disabled":false,"rental_uris":{"android":"levelo://app?vid=9c6a4c09-d997-448d-8062-9335e03a26ba","ios":"levelo://app?vid=9c6a4c09-d997-448d-8062-9335e03a26ba"},"vehicle_type_id":"4","last_reported":1730704203,"current_range_meters":36400,"station_id":"ce4bgi12rcd13ifvqb70","pricing_plan_id":"cebpf4jnsgd1na2vs0mg"},{"bike_id":"4837ac20-b9ff-4190-897a-6e0a95af7af3","system_id":"levelo_inurba_marseille","lat":43.27492,"lon":5.42453,"is_reserved":false,"is_disabled":false,"rental_uris":{"android":"levelo://app?vid=4837ac20-b9ff-4190-897a-6e0a95af7af3","ios":"levelo://app?vid=4837ac20-b9ff-4190-897a-6e0a95af7af3"},"vehicle_type_id":"4","last_reported":1730704203,"current_range_meters":38800,"station_id":"ce4bhn92rcd13ifvqgrg","pricing_plan_id":"cebpf4jnsgd1na2vs0mg"},{"bike_id":"156355ec-66dc-4d45-a321-d2b6598e6669","system_id":"levelo_inurba_marseille","lat":43.30473,"lon":5.37906,"is_reserved":false,"is_disabled":false,"rental_uris":{"android":"levelo://app?vid=156355ec-66dc-4d45-a321-d2b6598e6669","ios":"levelo://app?vid=156355ec-66dc-4d45-a321-d2b6598e6669"},"vehicle_type_id":"4","last_reported":1730704203,"current_range_meters":38000,"station_id":"ce4bgup2rcd13ifvqcn0","pricing_plan_id":"cebpf4jnsgd1na2vs0mg"},{"bike_id":"7fbbb263-97ef-46d1-a15d-d64cb575f7b7","system_id":"levelo_inurba_marseille","lat":43.28948,"lon":5.36617,"is_reserved":false,"is_disabled":false,"rental_uris":{"android":"levelo://app?vid=7fbbb263-97ef-46d1-a15d-d64cb575f7b7","ios":"levelo://app?vid=7fbbb263-97ef-46d1-a15d-d64cb575f7b7"},"vehicle_type_id":"4","last_reported":1730704203,"current_range_meters":34000,"station_id":"ce4bhap2rcd13ifvqek0","pricing_plan_id":"cebpf4jnsgd1na2vs0mg"},{"bike_id":"dbaee213-8369-49f1-935e-faaf8a60f54c","system_id":"levelo_inurba_marseille","lat":43.30528,"lon":5.367,"is_reserved":false,"is_disabled":false,"rental_uris":{"android":"levelo://app?vid=dbaee213-8369-49f1-935e-faaf8a60f54c","ios":"levelo://app?vid=dbaee213-8369-49f1-935e-faaf8a60f54c"},"vehicle_type_id":"4","last_reported":1730704203,"current_range_meters":33200,"station_id":"ce4bgrp2rcd13ifvqc9g","pricing_plan_id":"cebpf4jnsgd1na2vs0mg"},{"bike_id":"134cef35-2981-4ed6-a716-4648a28810b9","system_id":"levelo_inurba_marseille","lat":43.29628,"lon":5.40618,"is_reserved":false,"is_disabled":false,"rental_uris":{"android":"levelo://app?vid=134cef35-2981-4ed6-a716-4648a28810b9","ios":"levelo://app?vid=134cef35-2981-4ed6-a716-4648a28810b9"},"vehicle_type_id":"4","last_reported":1730704203,"current_range_meters":27200,"station_id":"ce4bh0h2rcd13ifvqd60","pricing_plan_id":"cebpf4jnsgd1na2vs0mg"},{"bike_id":"ebcfb78a-de02-4f73-b55b-f01aeb9a484d","system_id":"levelo_inurba_marseille","lat":43.29287,"lon":5.40108,"is_reserved":false,"is_disabled":false,"rental_uris":{"android":"levelo://app?vid=ebcfb78a-de02-4f73-b55b-f01aeb9a484d","ios":"levelo://app?vid=ebcfb78a-de02-4f73-b55b-f01aeb9a484d"},"vehicle_type_id":"4","last_reported":1730704203,"current_range_meters":38000,"station_id":"ce4bh312rcd13ifvqdk0","pricing_plan_id":"cebpf4jnsgd1na2vs0mg"},{"bike_id":"75576e24-6890-4288-9aa5-db2804891d6f","system_id":"levelo_inurba_marseille","lat":43.26943,"lon":5.40248,"is_reserved":false,"is_disabled":false,"rental_uris":{"android":"levelo://app?vid=75576e24-6890-4288-9aa5-db2804891d6f","ios":"levelo://app?vid=75576e24-6890-4288-9aa5-db2804891d6f"},"vehicle_type_id":"4","last_reported":1730704203,"current_range_meters":35600,"station_id":"cjm6bp8fraef2m0cb0m0","pricing_plan_id":"cebpf4jnsgd1na2vs0mg"},{"bike_id":"3ad7d7fc-7bd9-4d73-8cc9-4a04c9ace78c","system_id":"levelo_inurba_marseille","lat":43.306,"lon":5.39369,"is_reserved":false,"is_disabled":false,"rental_uris":{"android":"levelo://app?vid=3ad7d7fc-7bd9-4d73-8cc9-4a04c9ace78c","ios":"levelo://app?vid=3ad7d7fc-7bd9-4d73-8cc9-4a04c9ace78c"},"vehicle_type_id":"4","last_reported":1730704203,"current_range_meters":32400,"station_id":"ce4bh0p2rcd13ifvqd80","pricing_plan_id":"cebpf4jnsgd1na2vs0mg"},{"bike_id":"dbe20799-710e-4c93-a000-d5642bd64f9b","system_id":"levelo_inurba_marseille","lat":43.30461,"lon":5.37904,"is_reserved":false,"is_disabled":false,"rental_uris":{"android":"levelo://app?vid=dbe20799-710e-4c93-a000-d5642bd64f9b","ios":"levelo://app?vid=dbe20799-710e-4c93-a000-d5642bd64f9b"},"vehicle_type_id":"4","last_reported":1730704203,"current_range_meters":24800,"station_id":"ce4bgup2rcd13ifvqcn0","pricing_plan_id":"cebpf4jnsgd1na2vs0mg"},{"bike_id":"272c9abf-a133-4324-9208-08b126787068","system_id":"levelo_inurba_marseille","lat":43.27904,"lon":5.38003,"is_reserved":false,"is_disabled":false,"rental_uris":{"android":"levelo://app?vid=272c9abf-a133-4324-9208-08b126787068","ios":"levelo://app?vid=272c9abf-a133-4324-9208-08b126787068"},"vehicle_type_id":"4","last_reported":1730704203,"current_range_meters":38800,"station_id":"ce4bhf92rcd13ifvqf50","pricing_plan_id":"cebpf4jnsgd1na2vs0mg"},{"bike_id":"5ab0722e-b688-48b5-b3ab-4e83ba1355da","system_id":"levelo_inurba_marseille","lat":43.30593,"lon":5.39356,"is_reserved":false,"is_disabled":false,"rental_uris":{"android":"levelo://app?vid=5ab0722e-b688-48b5-b3ab-4e83ba1355da","ios":"levelo://app?vid=5ab0722e-b688-48b5-b3ab-4e83ba1355da"},"vehicle_type_id":"4","last_reported":1730704203,"current_range_meters":36000,"station_id":"ce4bh0p2rcd13ifvqd80","pricing_plan_id":"cebpf4jnsgd1na2vs0mg"},{"bike_id":"4a31bb7c-f209-4c13-a9e5-6b90271f35ed","system_id":"levelo_inurba_marseille","lat":43.28968,"lon":5.3784,"is_reserved":false,"is_disabled":false,"rental_uris":{"android":"levelo://app?vid=4a31bb7c-f209-4c13-a9e5-6b90271f35ed","ios":"levelo://app?vid=4a31bb7c-f209-4c13-a9e5-6b90271f35ed"},"vehicle_type_id":"4","last_reported":1730704203,"current_range_meters":10800,"station_id":"ce4bh9p2rcd13ifvqed0","pricing_plan_id":"cebpf4jnsgd1na2vs0mg"},{"bike_id":"7f2d204a-b3e9-4511-9528-233ff0f3243f","system_id":"levelo_inurba_marseille","lat":43.29171,"lon":5.37157,"is_reserved":false,"is_disabled":false,"rental_uris":{"android":"levelo://app?vid=7f2d204a-b3e9-4511-9528-233ff0f3243f","ios":"levelo://app?vid=7f2d204a-b3e9-4511-9528-233ff0f3243f"},"vehicle_type_id":"4","last_reported":1730704203,"current_range_meters":37600,"station_id":"ce4bha92rcd13ifvqeh0","pricing_plan_id":"cebpf4jnsgd1na2vs0mg"},{"bike_id":"7fa9e0db-d5db-4e00-9bab-71088473e9a3","system_id":"levelo_inurba_marseille","lat":43.28345,"lon":5.38089,"is_reserved":false,"is_disabled":false,"rental_uris":{"android":"levelo://app?vid=7fa9e0db-d5db-4e00-9bab-71088473e9a3","ios":"levelo://app?vid=7fa9e0db-d5db-4e00-9bab-71088473e9a3"},"vehicle_type_id":"4","last_reported":1730704203,"current_range_meters":30800,"station_id":"ce4bh412rcd13ifvqdr0","pricing_plan_id":"cebpf4jnsgd1na2vs0mg"},{"bike_id":"fcda431b-00f7-4fd8-bb18-897981fe927f","system_id":"levelo_inurba_marseille","lat":43.26675,"lon":5.38258,"is_reserved":false,"is_disabled":false,"rental_uris":{"android":"levelo://app?vid=fcda431b-00f7-4fd8-bb18-897981fe927f","ios":"levelo://app?vid=fcda431b-00f7-4fd8-bb18-897981fe927f"},"vehicle_type_id":"4","last_reported":1730704203,"current_range_meters":38000,"station_id":"ce4bhg92rcd13ifvqf90","pricing_plan_id":"cebpf4jnsgd1na2vs0mg"},{"bike_id":"ec9a802c-a8d2-48e4-9460-4c373d7a5752","system_id":"levelo_inurba_marseille","lat":43.29812,"lon":5.38089,"is_reserved":false,"is_disabled":false,"rental_uris":{"android":"levelo://app?vid=ec9a802c-a8d2-48e4-9460-4c373d7a5752","ios":"levelo://app?vid=ec9a802c-a8d2-48e4-9460-4c373d7a5752"},"vehicle_type_id":"4","last_reported":1730704203,"current_range_meters":36800,"station_id":"ce4bgip2rcd13ifvqbb0","pricing_plan_id":"cebpf4jnsgd1na2vs0mg"},{"bike_id":"8d0bafa5-3e07-4a4f-ab05-9bc750c7af39","system_id":"levelo_inurba_marseille","lat":43.30781,"lon":5.37648,"is_reserved":false,"is_disabled":false,"rental_uris":{"android":"levelo://app?vid=8d0bafa5-3e07-4a4f-ab05-9bc750c7af39","ios":"levelo://app?vid=8d0bafa5-3e07-4a4f-ab05-9bc750c7af39"},"vehicle_type_id":"4","last_reported":1730704203,"current_range_meters":28800,"station_id":"ce4bgv92rcd13ifvqcq0","pricing_plan_id":"cebpf4jnsgd1na2vs0mg"},{"bike_id":"0d3646af-7641-4f41-a526-b0f0065e39da","system_id":"levelo_inurba_marseille","lat":43.27493,"lon":5.4245,"is_reserved":false,"is_disabled":false,"rental_uris":{"android":"levelo://app?vid=0d3646af-7641-4f41-a526-b0f0065e39da","ios":"levelo://app?vid=0d3646af-7641-4f41-a526-b0f0065e39da"},"vehicle_type_id":"4","last_reported":1730704203,"current_range_meters":34800,"station_id":"ce4bhn92rcd13ifvqgrg","pricing_plan_id":"cebpf4jnsgd1na2vs0mg"},{"bike_id":"21c5cbd4-9754-42a9-a75c-57434f653b49","system_id":"levelo_inurba_marseille","lat":43.30593,"lon":5.39354,"is_reserved":false,"is_disabled":false,"rental_uris":{"android":"levelo://app?vid=21c5cbd4-9754-42a9-a75c-57434f653b49","ios":"levelo://app?vid=21c5cbd4-9754-42a9-a75c-57434f653b49"},"vehicle_type_id":"4","last_reported":1730704203,"current_range_meters":4800,"station_id":"ce4bh0p2rcd13ifvqd80","pricing_plan_id":"cebpf4jnsgd1na2vs0mg"},{"bike_id":"7f35d081-bafa-411d-b55d-c65c41f9eecc","system_id":"levelo_inurba_marseille","lat":43.29024,"lon":5.38643,"is_reserved":false,"is_disabled":false,"rental_uris":{"android":"levelo://app?vid=7f35d081-bafa-411d-b55d-c65c41f9eecc","ios":"levelo://app?vid=7f35d081-bafa-411d-b55d-c65c41f9eecc"},"vehicle_type_id":"4","last_reported":1730704203,"current_range_meters":27200,"station_id":"ce4bh4p2rcd13ifvqe0g","pricing_plan_id":"cebpf4jnsgd1na2vs0mg"},{"bike_id":"cc7bb7ce-4425-418d-8525-2932e922694a","system_id":"levelo_inurba_marseille","lat":43.29038,"lon":5.39964,"is_reserved":false,"is_disabled":false,"rental_uris":{"android":"levelo://app?vid=cc7bb7ce-4425-418d-8525-2932e922694a","ios":"levelo://app?vid=cc7bb7ce-4425-418d-8525-2932e922694a"},"vehicle_type_id":"4","last_reported":1730704203,"current_range_meters":9600,"station_id":"ce4bh392rcd13ifvqdm0","pricing_plan_id":"cebpf4jnsgd1na2vs0mg"},{"bike_id":"de0c0b91-02f8-42c3-a08e-bb377308d6b5","system_id":"levelo_inurba_marseille","lat":43.290377,"lon":5.375588,"is_reserved":false,"is_disabled":false,"rental_uris":{"android":"levelo://app?vid=de0c0b91-02f8-42c3-a08e-bb377308d6b5","ios":"levelo://app?vid=de0c0b91-02f8-42c3-a08e-bb377308d6b5"},"vehicle_type_id":"4","last_reported":1730704203,"current_range_meters":2000,"station_id":"ce4bhn12rcd13ifvqgpg","pricing_plan_id":"cebpf4jnsgd1na2vs0mg"},{"bike_id":"a1022dd0-4012-4c5a-8d7b-dff970082031","system_id":"levelo_inurba_marseille","lat":43.269545,"lon":5.386325,"is_reserved":false,"is_disabled":false,"rental_uris":{"android":"levelo://app?vid=a1022dd0-4012-4c5a-8d7b-dff970082031","ios":"levelo://app?vid=a1022dd0-4012-4c5a-8d7b-dff970082031"},"vehicle_type_id":"4","last_reported":1730704203,"current_range_meters":6800,"station_id":"ce4bhh92rcd13ifvqfh0","pricing_plan_id":"cebpf4jnsgd1na2vs0mg"},{"bike_id":"92ace22b-38da-43bc-8f12-ef023bcb75ca","system_id":"levelo_inurba_marseille","lat":43.29786,"lon":5.38094,"is_reserved":false,"is_disabled":false,"rental_uris":{"android":"levelo://app?vid=92ace22b-38da-43bc-8f12-ef023bcb75ca","ios":"levelo://app?vid=92ace22b-38da-43bc-8f12-ef023bcb75ca"},"vehicle_type_id":"4","last_reported":1730704203,"current_range_meters":17600,"station_id":"ce4bgip2rcd13ifvqbb0","pricing_plan_id":"cebpf4jnsgd1na2vs0mg"},{"bike_id":"4e317739-b20f-4f8d-987b-ba9b04b0c4a9","system_id":"levelo_inurba_marseille","lat":43.28616,"lon":5.37045,"is_reserved":false,"is_disabled":false,"rental_uris":{"android":"levelo://app?vid=4e317739-b20f-4f8d-987b-ba9b04b0c4a9","ios":"levelo://app?vid=4e317739-b20f-4f8d-987b-ba9b04b0c4a9"},"vehicle_type_id":"4","last_reported":1730704203,"current_range_meters":38000,"station_id":"ce4bht12rcd13ifvqi60","pricing_plan_id":"cebpf4jnsgd1na2vs0mg"},{"bike_id":"7ce77be2-28e6-467f-9494-16f057502bba","system_id":"levelo_inurba_marseille","lat":43.28153,"lon":5.42632,"is_reserved":false,"is_disabled":false,"rental_uris":{"android":"levelo://app?vid=7ce77be2-28e6-467f-9494-16f057502bba","ios":"levelo://app?vid=7ce77be2-28e6-467f-9494-16f057502bba"},"vehicle_type_id":"4","last_reported":1730704203,"current_range_meters":30000,"station_id":"ce4bhnh2rcd13ifvqgug","pricing_plan_id":"cebpf4jnsgd1na2vs0mg"},{"bike_id":"c8fe287c-8773-492c-bff9-8bcf9d982888","system_id":"levelo_inurba_marseille","lat":43.31339,"lon":5.36704,"is_reserved":false,"is_disabled":false,"rental_uris":{"android":"levelo://app?vid=c8fe287c-8773-492c-bff9-8bcf9d982888","ios":"levelo://app?vid=c8fe287c-8773-492c-bff9-8bcf9d982888"},"vehicle_type_id":"4","last_reported":1730704203,"current_range_meters":24400,"station_id":"ce4bgr92rcd13ifvqc6g","pricing_plan_id":"cebpf4jnsgd1na2vs0mg"},{"bike_id":"e50fd69d-8268-4029-bf65-400af74520b3","system_id":"levelo_inurba_marseille","lat":43.28002,"lon":5.41661,"is_reserved":false,"is_disabled":false,"rental_uris":{"android":"levelo://app?vid=e50fd69d-8268-4029-bf65-400af74520b3","ios":"levelo://app?vid=e50fd69d-8268-4029-bf65-400af74520b3"},"vehicle_type_id":"4","last_reported":1730704203,"current_range_meters":9600,"station_id":"ce4bho12rcd13ifvqh1g","pricing_plan_id":"cebpf4jnsgd1na2vs0mg"},{"bike_id":"fa40f091-6067-48f8-a967-aeb74b2ceea5","system_id":"levelo_inurba_marseille","lat":43.28718,"lon":5.37938,"is_reserved":false,"is_disabled":false,"rental_uris":{"android":"levelo://app?vid=fa40f091-6067-48f8-a967-aeb74b2ceea5","ios":"levelo://app?vid=fa40f091-6067-48f8-a967-aeb74b2ceea5"},"vehicle_type_id":"4","last_reported":1730704203,"current_range_meters":38400,"station_id":"ce4bh9p2rcd13ifvqec0","pricing_plan_id":"cebpf4jnsgd1na2vs0mg"},{"bike_id":"496d1592-f444-4219-9dc2-55373938e639","system_id":"levelo_inurba_marseille","lat":43.28155,"lon":5.42636,"is_reserved":false,"is_disabled":false,"rental_uris":{"android":"levelo://app?vid=496d1592-f444-4219-9dc2-55373938e639","ios":"levelo://app?vid=496d1592-f444-4219-9dc2-55373938e639"},"vehicle_type_id":"4","last_reported":1730704203,"current_range_meters":38000,"station_id":"ce4bhnh2rcd13ifvqgug","pricing_plan_id":"cebpf4jnsgd1na2vs0mg"},{"bike_id":"96ae9757-97ce-4dbd-a337-089b085ce037","system_id":"levelo_inurba_marseille","lat":43.2872,"lon":5.37949,"is_reserved":false,"is_disabled":false,"rental_uris":{"android":"levelo://app?vid=96ae9757-97ce-4dbd-a337-089b085ce037","ios":"levelo://app?vid=96ae9757-97ce-4dbd-a337-089b085ce037"},"vehicle_type_id":"4","last_reported":1730704203,"current_range_meters":36000,"station_id":"ce4bh9p2rcd13ifvqec0","pricing_plan_id":"cebpf4jnsgd1na2vs0mg"},{"bike_id":"6c2541b0-cf97-4325-8e11-4260a4ebc3d1","system_id":"levelo_inurba_marseille","lat":43.28943,"lon":5.39625,"is_reserved":false,"is_disabled":false,"rental_uris":{"android":"levelo://app?vid=6c2541b0-cf97-4325-8e11-4260a4ebc3d1","ios":"levelo://app?vid=6c2541b0-cf97-4325-8e11-4260a4ebc3d1"},"vehicle_type_id":"4","last_reported":1730704203,"current_range_meters":27600,"station_id":"ce4bh3h2rcd13ifvqdn0","pricing_plan_id":"cebpf4jnsgd1na2vs0mg"},{"bike_id":"9dc3374b-0b85-4a8b-88a8-db8ad8f687c8","system_id":"levelo_inurba_marseille","lat":43.24074,"lon":5.37736,"is_reserved":false,"is_disabled":false,"rental_uris":{"android":"levelo://app?vid=9dc3374b-0b85-4a8b-88a8-db8ad8f687c8","ios":"levelo://app?vid=9dc3374b-0b85-4a8b-88a8-db8ad8f687c8"},"vehicle_type_id":"4","last_reported":1730704203,"current_range_meters":12400,"station_id":"ce4bhnp2rcd13ifvqgvg","pricing_plan_id":"cebpf4jnsgd1na2vs0mg"},{"bike_id":"ef91460b-fafc-46be-9d84-f66d7fe91567","system_id":"levelo_inurba_marseille","lat":43.24062,"lon":5.37759,"is_reserved":false,"is_disabled":false,"rental_uris":{"android":"levelo://app?vid=ef91460b-fafc-46be-9d84-f66d7fe91567","ios":"levelo://app?vid=ef91460b-fafc-46be-9d84-f66d7fe91567"},"vehicle_type_id":"4","last_reported":1730704203,"current_range_meters":30000,"station_id":"ce4bhnp2rcd13ifvqgvg","pricing_plan_id":"cebpf4jnsgd1na2vs0mg"},{"bike_id":"2a0b7f68-61fa-48ae-900d-2f7133fbc594","system_id":"levelo_inurba_marseille","lat":43.309143,"lon":5.371839,"is_reserved":false,"is_disabled":false,"rental_uris":{"android":"levelo://app?vid=2a0b7f68-61fa-48ae-900d-2f7133fbc594","ios":"levelo://app?vid=2a0b7f68-61fa-48ae-900d-2f7133fbc594"},"vehicle_type_id":"4","last_reported":1730704203,"current_range_meters":38000,"station_id":"ce4bguh2rcd13ifvqckg","pricing_plan_id":"cebpf4jnsgd1na2vs0mg"},{"bike_id":"5145bf55-02c3-4ba4-99d0-1c276f90d766","system_id":"levelo_inurba_marseille","lat":43.29568,"lon":5.39975,"is_reserved":false,"is_disabled":false,"rental_uris":{"android":"levelo://app?vid=5145bf55-02c3-4ba4-99d0-1c276f90d766","ios":"levelo://app?vid=5145bf55-02c3-4ba4-99d0-1c276f90d766"},"vehicle_type_id":"4","last_reported":1730704203,"current_range_meters":38800,"station_id":"ce4bh312rcd13ifvqdj0","pricing_plan_id":"cebpf4jnsgd1na2vs0mg"},{"bike_id":"2c35fa29-d810-49ef-8c79-0fc489605a8b","system_id":"levelo_inurba_marseille","lat":43.30948,"lon":5.39028,"is_reserved":false,"is_disabled":false,"rental_uris":{"android":"levelo://app?vid=2c35fa29-d810-49ef-8c79-0fc489605a8b","ios":"levelo://app?vid=2c35fa29-d810-49ef-8c79-0fc489605a8b"},"vehicle_type_id":"4","last_reported":1730704203,"current_range_meters":22400,"station_id":"ce4bgup2rcd13ifvqco0","pricing_plan_id":"cebpf4jnsgd1na2vs0mg"},{"bike_id":"961473d4-5d31-43e7-9811-d94ad4cefe4a","system_id":"levelo_inurba_marseille","lat":43.31188,"lon":5.38567,"is_reserved":false,"is_disabled":false,"rental_uris":{"android":"levelo://app?vid=961473d4-5d31-43e7-9811-d94ad4cefe4a","ios":"levelo://app?vid=961473d4-5d31-43e7-9811-d94ad4cefe4a"},"vehicle_type_id":"4","last_reported":1730704203,"current_range_meters":36800,"station_id":"","pricing_plan_id":"cebpf4jnsgd1na2vs0mg"},{"bike_id":"09ee19b6-da66-4ab1-a5f0-9ef0b94fa760","system_id":"levelo_inurba_marseille","lat":43.288504,"lon":5.358604,"is_reserved":false,"is_disabled":false,"rental_uris":{"android":"levelo://app?vid=09ee19b6-da66-4ab1-a5f0-9ef0b94fa760","ios":"levelo://app?vid=09ee19b6-da66-4ab1-a5f0-9ef0b94fa760"},"vehicle_type_id":"4","last_reported":1730704203,"current_range_meters":34000,"station_id":"ce4bhb12rcd13ifvqem0","pricing_plan_id":"cebpf4jnsgd1na2vs0mg"},{"bike_id":"12e2a17d-b267-46ea-b046-7d399d7c3544","system_id":"levelo_inurba_marseille","lat":43.33725,"lon":5.39194,"is_reserved":false,"is_disabled":false,"rental_uris":{"android":"levelo://app?vid=12e2a17d-b267-46ea-b046-7d399d7c3544","ios":"levelo://app?vid=12e2a17d-b267-46ea-b046-7d399d7c3544"},"vehicle_type_id":"4","last_reported":1730704203,"current_range_meters":38800,"station_id":"ce4bhr92rcd13ifvqhsg","pricing_plan_id":"cebpf4jnsgd1na2vs0mg"},{"bike_id":"46692035-13eb-49ae-8c6f-c94549756765","system_id":"levelo_inurba_marseille","lat":43.28406,"lon":5.37517,"is_reserved":false,"is_disabled":false,"rental_uris":{"android":"levelo://app?vid=46692035-13eb-49ae-8c6f-c94549756765","ios":"levelo://app?vid=46692035-13eb-49ae-8c6f-c94549756765"},"vehicle_type_id":"4","last_reported":1730704203,"current_range_meters":27200,"station_id":"ce4bh412rcd13ifvqds0","pricing_plan_id":"cebpf4jnsgd1na2vs0mg"},{"bike_id":"2f4f289e-7cae-436b-9c51-ee806989b744","system_id":"levelo_inurba_marseille","lat":43.30537,"lon":5.3843,"is_reserved":false,"is_disabled":false,"rental_uris":{"android":"levelo://app?vid=2f4f289e-7cae-436b-9c51-ee806989b744","ios":"levelo://app?vid=2f4f289e-7cae-436b-9c51-ee806989b744"},"vehicle_type_id":"4","last_reported":1730704203,"current_range_meters":29600,"station_id":"ce4bgg92rcd13ifvqb30","pricing_plan_id":"cebpf4jnsgd1na2vs0mg"},{"bike_id":"c0ebe450-9030-4e51-8924-ad0c358a4408","system_id":"levelo_inurba_marseille","lat":43.336051,"lon":5.41026,"is_reserved":false,"is_disabled":false,"rental_uris":{"android":"levelo://app?vid=c0ebe450-9030-4e51-8924-ad0c358a4408","ios":"levelo://app?vid=c0ebe450-9030-4e51-8924-ad0c358a4408"},"vehicle_type_id":"4","last_reported":1730704203,"current_range_meters":38800,"station_id":"ce4bhqh2rcd13ifvqhmg","pricing_plan_id":"cebpf4jnsgd1na2vs0mg"},{"bike_id":"22e884f2-e844-438a-b9f1-7b9f31e54f8c","system_id":"levelo_inurba_marseille","lat":43.29037,"lon":5.39955,"is_reserved":false,"is_disabled":false,"rental_uris":{"android":"levelo://app?vid=22e884f2-e844-438a-b9f1-7b9f31e54f8c","ios":"levelo://app?vid=22e884f2-e844-438a-b9f1-7b9f31e54f8c"},"vehicle_type_id":"4","last_reported":1730704203,"current_range_meters":29600,"station_id":"ce4bh392rcd13ifvqdm0","pricing_plan_id":"cebpf4jnsgd1na2vs0mg"},{"bike_id":"ecc7e7ac-c06e-4dd5-96f3-aef1b0899e8f","system_id":"levelo_inurba_marseille","lat":43.25718,"lon":5.41102,"is_reserved":false,"is_disabled":false,"rental_uris":{"android":"levelo://app?vid=ecc7e7ac-c06e-4dd5-96f3-aef1b0899e8f","ios":"levelo://app?vid=ecc7e7ac-c06e-4dd5-96f3-aef1b0899e8f"},"vehicle_type_id":"4","last_reported":1730704203,"current_range_meters":34000,"station_id":"ce4bhkp2rcd13ifvqgd0","pricing_plan_id":"cebpf4jnsgd1na2vs0mg"},{"bike_id":"60be1b7a-2906-4906-bc80-325381e57b1a","system_id":"levelo_inurba_marseille","lat":43.298386,"lon":5.36272,"is_reserved":false,"is_disabled":false,"rental_uris":{"android":"levelo://app?vid=60be1b7a-2906-4906-bc80-325381e57b1a","ios":"levelo://app?vid=60be1b7a-2906-4906-bc80-325381e57b1a"},"vehicle_type_id":"4","last_reported":1730704203,"current_range_meters":11600,"station_id":"ce4bgpp2rcd13ifvqc3g","pricing_plan_id":"cebpf4jnsgd1na2vs0mg"},{"bike_id":"d4472d20-9c4b-4c70-ad00-3a005519a429","system_id":"levelo_inurba_marseille","lat":43.35385,"lon":5.3572,"is_reserved":false,"is_disabled":false,"rental_uris":{"android":"levelo://app?vid=d4472d20-9c4b-4c70-ad00-3a005519a429","ios":"levelo://app?vid=d4472d20-9c4b-4c70-ad00-3a005519a429"},"vehicle_type_id":"4","last_reported":1730704203,"current_range_meters":10000,"station_id":"","pricing_plan_id":"cebpf4jnsgd1na2vs0mg"},{"bike_id":"49f12783-6e81-412a-beb1-79fc2d480d9d","system_id":"levelo_inurba_marseille","lat":43.33605,"lon":5.41028,"is_reserved":false,"is_disabled":false,"rental_uris":{"android":"levelo://app?vid=49f12783-6e81-412a-beb1-79fc2d480d9d","ios":"levelo://app?vid=49f12783-6e81-412a-beb1-79fc2d480d9d"},"vehicle_type_id":"4","last_reported":1730704203,"current_range_meters":22400,"station_id":"ce4bhqh2rcd13ifvqhmg","pricing_plan_id":"cebpf4jnsgd1na2vs0mg"},{"bike_id":"dea1872a-4f1f-4de4-9408-f9c553fd6e93","system_id":"levelo_inurba_marseille","lat":43.29907,"lon":5.38131,"is_reserved":false,"is_disabled":false,"rental_uris":{"android":"levelo://app?vid=dea1872a-4f1f-4de4-9408-f9c553fd6e93","ios":"levelo://app?vid=dea1872a-4f1f-4de4-9408-f9c553fd6e93"},"vehicle_type_id":"4","last_reported":1730704203,"current_range_meters":38800,"station_id":"ce4bgj12rcd13ifvqbc0","pricing_plan_id":"cebpf4jnsgd1na2vs0mg"},{"bike_id":"35a5c27a-56fa-4d21-909b-ef5000574c71","system_id":"levelo_inurba_marseille","lat":43.29573,"lon":5.39969,"is_reserved":false,"is_disabled":false,"rental_uris":{"android":"levelo://app?vid=35a5c27a-56fa-4d21-909b-ef5000574c71","ios":"levelo://app?vid=35a5c27a-56fa-4d21-909b-ef5000574c71"},"vehicle_type_id":"4","last_reported":1730704203,"current_range_meters":38800,"station_id":"ce4bh312rcd13ifvqdj0","pricing_plan_id":"cebpf4jnsgd1na2vs0mg"},{"bike_id":"f8833f7b-49c8-440c-b671-beb72799bdec","system_id":"levelo_inurba_marseille","lat":43.24979,"lon":5.37507,"is_reserved":false,"is_disabled":false,"rental_uris":{"android":"levelo://app?vid=f8833f7b-49c8-440c-b671-beb72799bdec","ios":"levelo://app?vid=f8833f7b-49c8-440c-b671-beb72799bdec"},"vehicle_type_id":"4","last_reported":1730704203,"current_range_meters":27600,"station_id":"","pricing_plan_id":"cebpf4jnsgd1na2vs0mg"},{"bike_id":"b4c26404-be14-4de0-97fe-975ad815c2aa","system_id":"levelo_inurba_marseille","lat":43.25498,"lon":5.37648,"is_reserved":false,"is_disabled":false,"rental_uris":{"android":"levelo://app?vid=b4c26404-be14-4de0-97fe-975ad815c2aa","ios":"levelo://app?vid=b4c26404-be14-4de0-97fe-975ad815c2aa"},"vehicle_type_id":"4","last_reported":1730704203,"current_range_meters":38000,"station_id":"ce4bhh12rcd13ifvqff0","pricing_plan_id":"cebpf4jnsgd1na2vs0mg"},{"bike_id":"e7453847-165d-4e50-a796-bedc702cb92c","system_id":"levelo_inurba_marseille","lat":43.29437,"lon":5.39758,"is_reserved":false,"is_disabled":false,"rental_uris":{"android":"levelo://app?vid=e7453847-165d-4e50-a796-bedc702cb92c","ios":"levelo://app?vid=e7453847-165d-4e50-a796-bedc702cb92c"},"vehicle_type_id":"4","last_reported":1730704203,"current_range_meters":38000,"station_id":"ce4bh3h2rcd13ifvqdo0","pricing_plan_id":"cebpf4jnsgd1na2vs0mg"},{"bike_id":"7dbc5c61-122b-45ec-b9fb-9274fc54d230","system_id":"levelo_inurba_marseille","lat":43.31378,"lon":5.40253,"is_reserved":false,"is_disabled":false,"rental_uris":{"android":"levelo://app?vid=7dbc5c61-122b-45ec-b9fb-9274fc54d230","ios":"levelo://app?vid=7dbc5c61-122b-45ec-b9fb-9274fc54d230"},"vehicle_type_id":"4","last_reported":1730704203,"current_range_meters":28400,"station_id":"","pricing_plan_id":"cebpf4jnsgd1na2vs0mg"},{"bike_id":"2d4535b4-9cb9-4cef-9af9-94d38d002415","system_id":"levelo_inurba_marseille","lat":43.29041,"lon":5.39974,"is_reserved":false,"is_disabled":false,"rental_uris":{"android":"levelo://app?vid=2d4535b4-9cb9-4cef-9af9-94d38d002415","ios":"levelo://app?vid=2d4535b4-9cb9-4cef-9af9-94d38d002415"},"vehicle_type_id":"4","last_reported":1730704203,"current_range_meters":29600,"station_id":"ce4bh392rcd13ifvqdm0","pricing_plan_id":"cebpf4jnsgd1na2vs0mg"},{"bike_id":"98c11371-ec47-468c-8c3d-1f20f9e8bc05","system_id":"levelo_inurba_marseille","lat":43.24074,"lon":5.37759,"is_reserved":false,"is_disabled":false,"rental_uris":{"android":"levelo://app?vid=98c11371-ec47-468c-8c3d-1f20f9e8bc05","ios":"levelo://app?vid=98c11371-ec47-468c-8c3d-1f20f9e8bc05"},"vehicle_type_id":"4","last_reported":1730704203,"current_range_meters":24400,"station_id":"ce4bhnp2rcd13ifvqgvg","pricing_plan_id":"cebpf4jnsgd1na2vs0mg"},{"bike_id":"0c3476a1-d653-47e9-a6e4-b92f4c179e0c","system_id":"levelo_inurba_marseille","lat":43.27492,"lon":5.42455,"is_reserved":false,"is_disabled":false,"rental_uris":{"android":"levelo://app?vid=0c3476a1-d653-47e9-a6e4-b92f4c179e0c","ios":"levelo://app?vid=0c3476a1-d653-47e9-a6e4-b92f4c179e0c"},"vehicle_type_id":"4","last_reported":1730704203,"current_range_meters":30400,"station_id":"ce4bhn92rcd13ifvqgrg","pricing_plan_id":"cebpf4jnsgd1na2vs0mg"},{"bike_id":"6565d023-8e7c-44aa-bab8-0062e7d72389","system_id":"levelo_inurba_marseille","lat":43.29593,"lon":5.38092,"is_reserved":false,"is_disabled":false,"rental_uris":{"android":"levelo://app?vid=6565d023-8e7c-44aa-bab8-0062e7d72389","ios":"levelo://app?vid=6565d023-8e7c-44aa-bab8-0062e7d72389"},"vehicle_type_id":"4","last_reported":1730704203,"current_range_meters":38400,"station_id":"ce4bgl12rcd13ifvqbo0","pricing_plan_id":"cebpf4jnsgd1na2vs0mg"},{"bike_id":"84fdc33d-bab5-43b6-92e5-bcf53cd60468","system_id":"levelo_inurba_marseille","lat":43.30461,"lon":5.37907,"is_reserved":false,"is_disabled":false,"rental_uris":{"android":"levelo://app?vid=84fdc33d-bab5-43b6-92e5-bcf53cd60468","ios":"levelo://app?vid=84fdc33d-bab5-43b6-92e5-bcf53cd60468"},"vehicle_type_id":"4","last_reported":1730704203,"current_range_meters":6800,"station_id":"ce4bgup2rcd13ifvqcn0","pricing_plan_id":"cebpf4jnsgd1na2vs0mg"},{"bike_id":"8d1d784b-58b4-4f31-a139-ea1fccdcfcb2","system_id":"levelo_inurba_marseille","lat":43.26502,"lon":5.39528,"is_reserved":false,"is_disabled":false,"rental_uris":{"android":"levelo://app?vid=8d1d784b-58b4-4f31-a139-ea1fccdcfcb2","ios":"levelo://app?vid=8d1d784b-58b4-4f31-a139-ea1fccdcfcb2"},"vehicle_type_id":"4","last_reported":1730704203,"current_range_meters":36800,"station_id":"ce4bhi12rcd13ifvqfq0","pricing_plan_id":"cebpf4jnsgd1na2vs0mg"},{"bike_id":"da37f76e-f807-4752-ae9e-48d52262d1aa","system_id":"levelo_inurba_marseille","lat":43.30901,"lon":5.36847,"is_reserved":false,"is_disabled":false,"rental_uris":{"android":"levelo://app?vid=da37f76e-f807-4752-ae9e-48d52262d1aa","ios":"levelo://app?vid=da37f76e-f807-4752-ae9e-48d52262d1aa"},"vehicle_type_id":"4","last_reported":1730704203,"current_range_meters":38000,"station_id":"ce4bgn92rcd13ifvqbvg","pricing_plan_id":"cebpf4jnsgd1na2vs0mg"},{"bike_id":"047c2de7-07cc-42b9-a607-ec4d58ef9aa4","system_id":"levelo_inurba_marseille","lat":43.28324,"lon":5.40576,"is_reserved":false,"is_disabled":false,"rental_uris":{"android":"levelo://app?vid=047c2de7-07cc-42b9-a607-ec4d58ef9aa4","ios":"levelo://app?vid=047c2de7-07cc-42b9-a607-ec4d58ef9aa4"},"vehicle_type_id":"4","last_reported":1730704203,"current_range_meters":7200,"station_id":"","pricing_plan_id":"cebpf4jnsgd1na2vs0mg"},{"bike_id":"5e7a1632-ae37-4c1e-87da-0123077ad471","system_id":"levelo_inurba_marseille","lat":43.24073,"lon":5.37762,"is_reserved":false,"is_disabled":false,"rental_uris":{"android":"levelo://app?vid=5e7a1632-ae37-4c1e-87da-0123077ad471","ios":"levelo://app?vid=5e7a1632-ae37-4c1e-87da-0123077ad471"},"vehicle_type_id":"4","last_reported":1730704203,"current_range_meters":24000,"station_id":"ce4bhnp2rcd13ifvqgvg","pricing_plan_id":"cebpf4jnsgd1na2vs0mg"},{"bike_id":"81cbfe91-68c9-4a60-b933-5430cf549ffb","system_id":"levelo_inurba_marseille","lat":43.27992,"lon":5.41655,"is_reserved":false,"is_disabled":false,"rental_uris":{"android":"levelo://app?vid=81cbfe91-68c9-4a60-b933-5430cf549ffb","ios":"levelo://app?vid=81cbfe91-68c9-4a60-b933-5430cf549ffb"},"vehicle_type_id":"4","last_reported":1730704203,"current_range_meters":34800,"station_id":"ce4bho12rcd13ifvqh1g","pricing_plan_id":"cebpf4jnsgd1na2vs0mg"},{"bike_id":"eba36152-4d6c-4558-a418-e1c055cab4a7","system_id":"levelo_inurba_marseille","lat":43.30154,"lon":5.38075,"is_reserved":false,"is_disabled":false,"rental_uris":{"android":"levelo://app?vid=eba36152-4d6c-4558-a418-e1c055cab4a7","ios":"levelo://app?vid=eba36152-4d6c-4558-a418-e1c055cab4a7"},"vehicle_type_id":"4","last_reported":1730704203,"current_range_meters":31200,"station_id":"ce4bgjp2rcd13ifvqbh0","pricing_plan_id":"cebpf4jnsgd1na2vs0mg"},{"bike_id":"de6ea650-8e11-497b-91c3-477b57cb55c1","system_id":"levelo_inurba_marseille","lat":43.26545,"lon":5.39513,"is_reserved":false,"is_disabled":false,"rental_uris":{"android":"levelo://app?vid=de6ea650-8e11-497b-91c3-477b57cb55c1","ios":"levelo://app?vid=de6ea650-8e11-497b-91c3-477b57cb55c1"},"vehicle_type_id":"4","last_reported":1730704203,"current_range_meters":16800,"station_id":"ce4bhi12rcd13ifvqfq0","pricing_plan_id":"cebpf4jnsgd1na2vs0mg"},{"bike_id":"0ed434cf-6a6c-4037-8341-fce8ec5415f6","system_id":"levelo_inurba_marseille","lat":43.28474,"lon":5.38433,"is_reserved":false,"is_disabled":false,"rental_uris":{"android":"levelo://app?vid=0ed434cf-6a6c-4037-8341-fce8ec5415f6","ios":"levelo://app?vid=0ed434cf-6a6c-4037-8341-fce8ec5415f6"},"vehicle_type_id":"4","last_reported":1730704203,"current_range_meters":32000,"station_id":"ce4bh512rcd13ifvqe3g","pricing_plan_id":"cebpf4jnsgd1na2vs0mg"},{"bike_id":"8cfaeee4-83ba-4e88-9988-60508bc012ff","system_id":"levelo_inurba_marseille","lat":43.2903,"lon":5.37563,"is_reserved":false,"is_disabled":false,"rental_uris":{"android":"levelo://app?vid=8cfaeee4-83ba-4e88-9988-60508bc012ff","ios":"levelo://app?vid=8cfaeee4-83ba-4e88-9988-60508bc012ff"},"vehicle_type_id":"4","last_reported":1730704203,"current_range_meters":31200,"station_id":"ce4bh692rcd13ifvqe90","pricing_plan_id":"cebpf4jnsgd1na2vs0mg"},{"bike_id":"84b7f187-12ce-4284-954d-a6f3b2df66f2","system_id":"levelo_inurba_marseille","lat":43.27997,"lon":5.41647,"is_reserved":false,"is_disabled":false,"rental_uris":{"android":"levelo://app?vid=84b7f187-12ce-4284-954d-a6f3b2df66f2","ios":"levelo://app?vid=84b7f187-12ce-4284-954d-a6f3b2df66f2"},"vehicle_type_id":"4","last_reported":1730704203,"current_range_meters":32800,"station_id":"ce4bho12rcd13ifvqh1g","pricing_plan_id":"cebpf4jnsgd1na2vs0mg"},{"bike_id":"ede8478c-47e2-4cac-bc27-1ecfca0c81ca","system_id":"levelo_inurba_marseille","lat":43.24079,"lon":5.37754,"is_reserved":false,"is_disabled":false,"rental_uris":{"android":"levelo://app?vid=ede8478c-47e2-4cac-bc27-1ecfca0c81ca","ios":"levelo://app?vid=ede8478c-47e2-4cac-bc27-1ecfca0c81ca"},"vehicle_type_id":"4","last_reported":1730704203,"current_range_meters":38800,"station_id":"ce4bhnp2rcd13ifvqgvg","pricing_plan_id":"cebpf4jnsgd1na2vs0mg"},{"bike_id":"7aad5d6f-422f-478a-abc6-e20286c98efd","system_id":"levelo_inurba_marseille","lat":43.29588,"lon":5.37521,"is_reserved":false,"is_disabled":false,"rental_uris":{"android":"levelo://app?vid=7aad5d6f-422f-478a-abc6-e20286c98efd","ios":"levelo://app?vid=7aad5d6f-422f-478a-abc6-e20286c98efd"},"vehicle_type_id":"4","last_reported":1730704203,"current_range_meters":30400,"station_id":"ce4bgh92rcd13ifvqb50","pricing_plan_id":"cebpf4jnsgd1na2vs0mg"},{"bike_id":"52c87382-fa2b-4b96-89a5-f73605f11272","system_id":"levelo_inurba_marseille","lat":43.238474,"lon":5.389599,"is_reserved":false,"is_disabled":false,"rental_uris":{"android":"levelo://app?vid=52c87382-fa2b-4b96-89a5-f73605f11272","ios":"levelo://app?vid=52c87382-fa2b-4b96-89a5-f73605f11272"},"vehicle_type_id":"4","last_reported":1730704203,"current_range_meters":24000,"station_id":"","pricing_plan_id":"cebpf4jnsgd1na2vs0mg"},{"bike_id":"d9dc8537-c347-484e-85bf-922b9e13a4cd","system_id":"levelo_inurba_marseille","lat":43.29291,"lon":5.40112,"is_reserved":false,"is_disabled":false,"rental_uris":{"android":"levelo://app?vid=d9dc8537-c347-484e-85bf-922b9e13a4cd","ios":"levelo://app?vid=d9dc8537-c347-484e-85bf-922b9e13a4cd"},"vehicle_type_id":"4","last_reported":1730704203,"current_range_meters":26000,"station_id":"ce4bh312rcd13ifvqdk0","pricing_plan_id":"cebpf4jnsgd1na2vs0mg"},{"bike_id":"a43019a8-a760-4309-a043-c8c927a99dee","system_id":"levelo_inurba_marseille","lat":43.31082,"lon":5.38338,"is_reserved":false,"is_disabled":false,"rental_uris":{"android":"levelo://app?vid=a43019a8-a760-4309-a043-c8c927a99dee","ios":"levelo://app?vid=a43019a8-a760-4309-a043-c8c927a99dee"},"vehicle_type_id":"4","last_reported":1730704203,"current_range_meters":25200,"station_id":"ce4bgv92rcd13ifvqcr0","pricing_plan_id":"cebpf4jnsgd1na2vs0mg"},{"bike_id":"4adb7e65-e18e-4ef1-be00-3ea3c7f6dd44","system_id":"levelo_inurba_marseille","lat":43.24076,"lon":5.37732,"is_reserved":false,"is_disabled":false,"rental_uris":{"android":"levelo://app?vid=4adb7e65-e18e-4ef1-be00-3ea3c7f6dd44","ios":"levelo://app?vid=4adb7e65-e18e-4ef1-be00-3ea3c7f6dd44"},"vehicle_type_id":"4","last_reported":1730704203,"current_range_meters":28000,"station_id":"ce4bhnp2rcd13ifvqgvg","pricing_plan_id":"cebpf4jnsgd1na2vs0mg"},{"bike_id":"739c9dca-9415-4b03-859b-1606e5caa095","system_id":"levelo_inurba_marseille","lat":43.34138,"lon":5.40904,"is_reserved":false,"is_disabled":false,"rental_uris":{"android":"levelo://app?vid=739c9dca-9415-4b03-859b-1606e5caa095","ios":"levelo://app?vid=739c9dca-9415-4b03-859b-1606e5caa095"},"vehicle_type_id":"4","last_reported":1730704203,"current_range_meters":38800,"station_id":"ce4bhqh2rcd13ifvqhlg","pricing_plan_id":"cebpf4jnsgd1na2vs0mg"},{"bike_id":"729acc0b-6cd7-4487-ac77-d8aa02bdfe11","system_id":"levelo_inurba_marseille","lat":43.31072,"lon":5.38338,"is_reserved":false,"is_disabled":false,"rental_uris":{"android":"levelo://app?vid=729acc0b-6cd7-4487-ac77-d8aa02bdfe11","ios":"levelo://app?vid=729acc0b-6cd7-4487-ac77-d8aa02bdfe11"},"vehicle_type_id":"4","last_reported":1730704203,"current_range_meters":27200,"station_id":"ce4bgv92rcd13ifvqcr0","pricing_plan_id":"cebpf4jnsgd1na2vs0mg"},{"bike_id":"14315235-0d29-4461-ad28-0445eaa81a62","system_id":"levelo_inurba_marseille","lat":43.30464,"lon":5.37906,"is_reserved":false,"is_disabled":false,"rental_uris":{"android":"levelo://app?vid=14315235-0d29-4461-ad28-0445eaa81a62","ios":"levelo://app?vid=14315235-0d29-4461-ad28-0445eaa81a62"},"vehicle_type_id":"4","last_reported":1730704203,"current_range_meters":34000,"station_id":"ce4bgup2rcd13ifvqcn0","pricing_plan_id":"cebpf4jnsgd1na2vs0mg"},{"bike_id":"1b80601b-8be3-4b0b-bcc4-eebb89de1629","system_id":"levelo_inurba_marseille","lat":43.25828,"lon":5.3942,"is_reserved":false,"is_disabled":false,"rental_uris":{"android":"levelo://app?vid=1b80601b-8be3-4b0b-bcc4-eebb89de1629","ios":"levelo://app?vid=1b80601b-8be3-4b0b-bcc4-eebb89de1629"},"vehicle_type_id":"4","last_reported":1730704203,"current_range_meters":30800,"station_id":"ce4bhip2rcd13ifvqft0","pricing_plan_id":"cebpf4jnsgd1na2vs0mg"},{"bike_id":"34d79294-ce7d-4438-be71-ec19030923fc","system_id":"levelo_inurba_marseille","lat":43.27495,"lon":5.42452,"is_reserved":false,"is_disabled":false,"rental_uris":{"android":"levelo://app?vid=34d79294-ce7d-4438-be71-ec19030923fc","ios":"levelo://app?vid=34d79294-ce7d-4438-be71-ec19030923fc"},"vehicle_type_id":"4","last_reported":1730704203,"current_range_meters":28000,"station_id":"ce4bhn92rcd13ifvqgrg","pricing_plan_id":"cebpf4jnsgd1na2vs0mg"},{"bike_id":"85708532-5ff2-4074-ae1e-315a0cf856cf","system_id":"levelo_inurba_marseille","lat":43.30469,"lon":5.37914,"is_reserved":false,"is_disabled":false,"rental_uris":{"android":"levelo://app?vid=85708532-5ff2-4074-ae1e-315a0cf856cf","ios":"levelo://app?vid=85708532-5ff2-4074-ae1e-315a0cf856cf"},"vehicle_type_id":"4","last_reported":1730704203,"current_range_meters":38400,"station_id":"ce4bgup2rcd13ifvqcn0","pricing_plan_id":"cebpf4jnsgd1na2vs0mg"},{"bike_id":"07262139-64ae-4be7-af70-13dbf208405d","system_id":"levelo_inurba_marseille","lat":43.24079,"lon":5.37753,"is_reserved":false,"is_disabled":false,"rental_uris":{"android":"levelo://app?vid=07262139-64ae-4be7-af70-13dbf208405d","ios":"levelo://app?vid=07262139-64ae-4be7-af70-13dbf208405d"},"vehicle_type_id":"4","last_reported":1730704203,"current_range_meters":36800,"station_id":"ce4bhnp2rcd13ifvqgvg","pricing_plan_id":"cebpf4jnsgd1na2vs0mg"},{"bike_id":"c8ff769d-3de8-4ba5-b126-ee1befb95d70","system_id":"levelo_inurba_marseille","lat":43.2386,"lon":5.38979,"is_reserved":false,"is_disabled":false,"rental_uris":{"android":"levelo://app?vid=c8ff769d-3de8-4ba5-b126-ee1befb95d70","ios":"levelo://app?vid=c8ff769d-3de8-4ba5-b126-ee1befb95d70"},"vehicle_type_id":"4","last_reported":1730704203,"current_range_meters":9600,"station_id":"","pricing_plan_id":"cebpf4jnsgd1na2vs0mg"},{"bike_id":"1751e87c-3dd4-4ebc-91e4-1968bdeaacdc","system_id":"levelo_inurba_marseille","lat":43.280752,"lon":5.393196,"is_reserved":false,"is_disabled":false,"rental_uris":{"android":"levelo://app?vid=1751e87c-3dd4-4ebc-91e4-1968bdeaacdc","ios":"levelo://app?vid=1751e87c-3dd4-4ebc-91e4-1968bdeaacdc"},"vehicle_type_id":"4","last_reported":1730704203,"current_range_meters":36400,"station_id":"ce4bgrp2rcd13ifvqc9g","pricing_plan_id":"cebpf4jnsgd1na2vs0mg"},{"bike_id":"beeef4e4-0d45-4dfa-9ccc-aedb2ce31115","system_id":"levelo_inurba_marseille","lat":43.3211,"lon":5.36758,"is_reserved":false,"is_disabled":false,"rental_uris":{"android":"levelo://app?vid=beeef4e4-0d45-4dfa-9ccc-aedb2ce31115","ios":"levelo://app?vid=beeef4e4-0d45-4dfa-9ccc-aedb2ce31115"},"vehicle_type_id":"4","last_reported":1730704203,"current_range_meters":34800,"station_id":"ce4bhrh2rcd13ifvqhug","pricing_plan_id":"cebpf4jnsgd1na2vs0mg"},{"bike_id":"1ee897a7-3d66-4bc7-880a-a3a7a0b58f0e","system_id":"levelo_inurba_marseille","lat":43.29019,"lon":5.38642,"is_reserved":false,"is_disabled":false,"rental_uris":{"android":"levelo://app?vid=1ee897a7-3d66-4bc7-880a-a3a7a0b58f0e","ios":"levelo://app?vid=1ee897a7-3d66-4bc7-880a-a3a7a0b58f0e"},"vehicle_type_id":"4","last_reported":1730704203,"current_range_meters":38400,"station_id":"ce4bh4p2rcd13ifvqe0g","pricing_plan_id":"cebpf4jnsgd1na2vs0mg"},{"bike_id":"8a6622b3-8d8a-4745-9a4e-f0dd34eaf266","system_id":"levelo_inurba_marseille","lat":43.27998,"lon":5.39993,"is_reserved":false,"is_disabled":false,"rental_uris":{"android":"levelo://app?vid=8a6622b3-8d8a-4745-9a4e-f0dd34eaf266","ios":"levelo://app?vid=8a6622b3-8d8a-4745-9a4e-f0dd34eaf266"},"vehicle_type_id":"4","last_reported":1730704203,"current_range_meters":37600,"station_id":"ce4bho92rcd13ifvqh4g","pricing_plan_id":"cebpf4jnsgd1na2vs0mg"},{"bike_id":"e057b72f-da22-4f74-b632-7c26ad219f8c","system_id":"levelo_inurba_marseille","lat":43.32292,"lon":5.38271,"is_reserved":false,"is_disabled":false,"rental_uris":{"android":"levelo://app?vid=e057b72f-da22-4f74-b632-7c26ad219f8c","ios":"levelo://app?vid=e057b72f-da22-4f74-b632-7c26ad219f8c"},"vehicle_type_id":"4","last_reported":1730704203,"current_range_meters":38800,"station_id":"ce4bhr12rcd13ifvqhqg","pricing_plan_id":"cebpf4jnsgd1na2vs0mg"},{"bike_id":"bd0cbb81-212f-4b47-b8fd-275306d254d2","system_id":"levelo_inurba_marseille","lat":43.28937,"lon":5.39627,"is_reserved":false,"is_disabled":false,"rental_uris":{"android":"levelo://app?vid=bd0cbb81-212f-4b47-b8fd-275306d254d2","ios":"levelo://app?vid=bd0cbb81-212f-4b47-b8fd-275306d254d2"},"vehicle_type_id":"4","last_reported":1730704203,"current_range_meters":22000,"station_id":"ce4bh3h2rcd13ifvqdn0","pricing_plan_id":"cebpf4jnsgd1na2vs0mg"},{"bike_id":"55a5ca7c-6af1-429c-9c94-9fa3bccda2bb","system_id":"levelo_inurba_marseille","lat":43.28339,"lon":5.38093,"is_reserved":false,"is_disabled":false,"rental_uris":{"android":"levelo://app?vid=55a5ca7c-6af1-429c-9c94-9fa3bccda2bb","ios":"levelo://app?vid=55a5ca7c-6af1-429c-9c94-9fa3bccda2bb"},"vehicle_type_id":"4","last_reported":1730704203,"current_range_meters":28000,"station_id":"ce4bh412rcd13ifvqdr0","pricing_plan_id":"cebpf4jnsgd1na2vs0mg"},{"bike_id":"41f71727-9eee-442f-85dd-bdb40ddab717","system_id":"levelo_inurba_marseille","lat":43.28939,"lon":5.36641,"is_reserved":false,"is_disabled":false,"rental_uris":{"android":"levelo://app?vid=41f71727-9eee-442f-85dd-bdb40ddab717","ios":"levelo://app?vid=41f71727-9eee-442f-85dd-bdb40ddab717"},"vehicle_type_id":"4","last_reported":1730704203,"current_range_meters":16400,"station_id":"ce4bhap2rcd13ifvqek0","pricing_plan_id":"cebpf4jnsgd1na2vs0mg"},{"bike_id":"4c769313-631c-4e61-9bed-10d52a6723a3","system_id":"levelo_inurba_marseille","lat":43.31484,"lon":5.37312,"is_reserved":false,"is_disabled":false,"rental_uris":{"android":"levelo://app?vid=4c769313-631c-4e61-9bed-10d52a6723a3","ios":"levelo://app?vid=4c769313-631c-4e61-9bed-10d52a6723a3"},"vehicle_type_id":"4","last_reported":1730704203,"current_range_meters":27200,"station_id":"ce4bgt12rcd13ifvqcd0","pricing_plan_id":"cebpf4jnsgd1na2vs0mg"},{"bike_id":"67a1b269-1870-4c4b-b59e-d46bdfa39bbf","system_id":"levelo_inurba_marseille","lat":43.28719,"lon":5.37939,"is_reserved":false,"is_disabled":false,"rental_uris":{"android":"levelo://app?vid=67a1b269-1870-4c4b-b59e-d46bdfa39bbf","ios":"levelo://app?vid=67a1b269-1870-4c4b-b59e-d46bdfa39bbf"},"vehicle_type_id":"4","last_reported":1730704203,"current_range_meters":31200,"station_id":"ce4bh9p2rcd13ifvqec0","pricing_plan_id":"cebpf4jnsgd1na2vs0mg"},{"bike_id":"f33537cb-3dfb-4860-a85f-b79e74c33269","system_id":"levelo_inurba_marseille","lat":43.29037,"lon":5.39958,"is_reserved":false,"is_disabled":false,"rental_uris":{"android":"levelo://app?vid=f33537cb-3dfb-4860-a85f-b79e74c33269","ios":"levelo://app?vid=f33537cb-3dfb-4860-a85f-b79e74c33269"},"vehicle_type_id":"4","last_reported":1730704203,"current_range_meters":22000,"station_id":"ce4bh392rcd13ifvqdm0","pricing_plan_id":"cebpf4jnsgd1na2vs0mg"},{"bike_id":"d5324ca5-5a3a-4892-bb8c-7dbf331e6ea6","system_id":"levelo_inurba_marseille","lat":43.32484,"lon":5.36563,"is_reserved":false,"is_disabled":false,"rental_uris":{"android":"levelo://app?vid=d5324ca5-5a3a-4892-bb8c-7dbf331e6ea6","ios":"levelo://app?vid=d5324ca5-5a3a-4892-bb8c-7dbf331e6ea6"},"vehicle_type_id":"4","last_reported":1730704203,"current_range_meters":38800,"station_id":"ce4bhs12rcd13ifvqhvg","pricing_plan_id":"cebpf4jnsgd1na2vs0mg"},{"bike_id":"4783aed0-5b0b-4b8b-9cc3-515df70a4cea","system_id":"levelo_inurba_marseille","lat":43.27491,"lon":5.42453,"is_reserved":false,"is_disabled":false,"rental_uris":{"android":"levelo://app?vid=4783aed0-5b0b-4b8b-9cc3-515df70a4cea","ios":"levelo://app?vid=4783aed0-5b0b-4b8b-9cc3-515df70a4cea"},"vehicle_type_id":"4","last_reported":1730704203,"current_range_meters":30400,"station_id":"ce4bhn92rcd13ifvqgrg","pricing_plan_id":"cebpf4jnsgd1na2vs0mg"},{"bike_id":"5cc1b89a-20d6-49a0-91d5-f05de96f3f6e","system_id":"levelo_inurba_marseille","lat":43.23186,"lon":5.39979,"is_reserved":false,"is_disabled":false,"rental_uris":{"android":"levelo://app?vid=5cc1b89a-20d6-49a0-91d5-f05de96f3f6e","ios":"levelo://app?vid=5cc1b89a-20d6-49a0-91d5-f05de96f3f6e"},"vehicle_type_id":"4","last_reported":1730704203,"current_range_meters":38800,"station_id":"ce4bhn12rcd13ifvqgqg","pricing_plan_id":"cebpf4jnsgd1na2vs0mg"},{"bike_id":"c1a2820f-c945-4e62-bb84-9aa7292c2308","system_id":"levelo_inurba_marseille","lat":43.29283,"lon":5.40117,"is_reserved":false,"is_disabled":false,"rental_uris":{"android":"levelo://app?vid=c1a2820f-c945-4e62-bb84-9aa7292c2308","ios":"levelo://app?vid=c1a2820f-c945-4e62-bb84-9aa7292c2308"},"vehicle_type_id":"4","last_reported":1730704203,"current_range_meters":38400,"station_id":"ce4bh312rcd13ifvqdk0","pricing_plan_id":"cebpf4jnsgd1na2vs0mg"},{"bike_id":"7b8934ab-1a6b-4c2d-b5fa-40771c000556","system_id":"levelo_inurba_marseille","lat":43.27071,"lon":5.42277,"is_reserved":false,"is_disabled":false,"rental_uris":{"android":"levelo://app?vid=7b8934ab-1a6b-4c2d-b5fa-40771c000556","ios":"levelo://app?vid=7b8934ab-1a6b-4c2d-b5fa-40771c000556"},"vehicle_type_id":"4","last_reported":1730704203,"current_range_meters":18000,"station_id":"ce4bhk92rcd13ifvqgb0","pricing_plan_id":"cebpf4jnsgd1na2vs0mg"},{"bike_id":"b1e96651-bb03-4631-983d-277001c80b22","system_id":"levelo_inurba_marseille","lat":43.2837,"lon":5.38633,"is_reserved":false,"is_disabled":false,"rental_uris":{"android":"levelo://app?vid=b1e96651-bb03-4631-983d-277001c80b22","ios":"levelo://app?vid=b1e96651-bb03-4631-983d-277001c80b22"},"vehicle_type_id":"4","last_reported":1730704203,"current_range_meters":36800,"station_id":"ce4bh492rcd13ifvqdvg","pricing_plan_id":"cebpf4jnsgd1na2vs0mg"},{"bike_id":"832b60bc-0d06-41a3-b29c-3ff7d0f476e1","system_id":"levelo_inurba_marseille","lat":43.2319,"lon":5.35558,"is_reserved":false,"is_disabled":false,"rental_uris":{"android":"levelo://app?vid=832b60bc-0d06-41a3-b29c-3ff7d0f476e1","ios":"levelo://app?vid=832b60bc-0d06-41a3-b29c-3ff7d0f476e1"},"vehicle_type_id":"4","last_reported":1730704203,"current_range_meters":37600,"station_id":"ce4bhu92rcd13ifvqi70","pricing_plan_id":"cebpf4jnsgd1na2vs0mg"},{"bike_id":"6dde3bd2-c6df-46f0-a5a8-f4d18f5346c5","system_id":"levelo_inurba_marseille","lat":43.249582,"lon":5.389574,"is_reserved":false,"is_disabled":false,"rental_uris":{"android":"levelo://app?vid=6dde3bd2-c6df-46f0-a5a8-f4d18f5346c5","ios":"levelo://app?vid=6dde3bd2-c6df-46f0-a5a8-f4d18f5346c5"},"vehicle_type_id":"4","last_reported":1730704203,"current_range_meters":30400,"station_id":"ce4bhgp2rcd13ifvqfd0","pricing_plan_id":"cebpf4jnsgd1na2vs0mg"},{"bike_id":"7580d83e-3d7c-46be-82b1-25f013a114af","system_id":"levelo_inurba_marseille","lat":43.31021,"lon":5.40137,"is_reserved":false,"is_disabled":false,"rental_uris":{"android":"levelo://app?vid=7580d83e-3d7c-46be-82b1-25f013a114af","ios":"levelo://app?vid=7580d83e-3d7c-46be-82b1-25f013a114af"},"vehicle_type_id":"4","last_reported":1730704203,"current_range_meters":22800,"station_id":"","pricing_plan_id":"cebpf4jnsgd1na2vs0mg"},{"bike_id":"cbaca92e-89b7-41f5-baf6-b63056feb6bb","system_id":"levelo_inurba_marseille","lat":43.30474,"lon":5.37904,"is_reserved":false,"is_disabled":false,"rental_uris":{"android":"levelo://app?vid=cbaca92e-89b7-41f5-baf6-b63056feb6bb","ios":"levelo://app?vid=cbaca92e-89b7-41f5-baf6-b63056feb6bb"},"vehicle_type_id":"4","last_reported":1730704203,"current_range_meters":29600,"station_id":"ce4bgup2rcd13ifvqcn0","pricing_plan_id":"cebpf4jnsgd1na2vs0mg"},{"bike_id":"23318a29-34d2-4d10-917f-6b9fe01ef36a","system_id":"levelo_inurba_marseille","lat":43.27494,"lon":5.42453,"is_reserved":false,"is_disabled":false,"rental_uris":{"android":"levelo://app?vid=23318a29-34d2-4d10-917f-6b9fe01ef36a","ios":"levelo://app?vid=23318a29-34d2-4d10-917f-6b9fe01ef36a"},"vehicle_type_id":"4","last_reported":1730704203,"current_range_meters":36000,"station_id":"ce4bhn92rcd13ifvqgrg","pricing_plan_id":"cebpf4jnsgd1na2vs0mg"},{"bike_id":"c36500d8-3c1b-40b4-b412-de69c457b9cb","system_id":"levelo_inurba_marseille","lat":43.28096,"lon":5.41035,"is_reserved":false,"is_disabled":false,"rental_uris":{"android":"levelo://app?vid=c36500d8-3c1b-40b4-b412-de69c457b9cb","ios":"levelo://app?vid=c36500d8-3c1b-40b4-b412-de69c457b9cb"},"vehicle_type_id":"4","last_reported":1730704203,"current_range_meters":6800,"station_id":"","pricing_plan_id":"cebpf4jnsgd1na2vs0mg"},{"bike_id":"37e2ac36-77af-4e7b-b0fd-43420207efda","system_id":"levelo_inurba_marseille","lat":43.28055,"lon":5.40971,"is_reserved":false,"is_disabled":false,"rental_uris":{"android":"levelo://app?vid=37e2ac36-77af-4e7b-b0fd-43420207efda","ios":"levelo://app?vid=37e2ac36-77af-4e7b-b0fd-43420207efda"},"vehicle_type_id":"4","last_reported":1730704203,"current_range_meters":36800,"station_id":"","pricing_plan_id":"cebpf4jnsgd1na2vs0mg"},{"bike_id":"bdf0900a-d0fd-4670-b5cd-531c3b49d4d0","system_id":"levelo_inurba_marseille","lat":43.30464,"lon":5.37905,"is_reserved":false,"is_disabled":false,"rental_uris":{"android":"levelo://app?vid=bdf0900a-d0fd-4670-b5cd-531c3b49d4d0","ios":"levelo://app?vid=bdf0900a-d0fd-4670-b5cd-531c3b49d4d0"},"vehicle_type_id":"4","last_reported":1730704203,"current_range_meters":38400,"station_id":"ce4bgup2rcd13ifvqcn0","pricing_plan_id":"cebpf4jnsgd1na2vs0mg"},{"bike_id":"14ce259d-8a7b-4f0c-94e7-fa43ff429ba3","system_id":"levelo_inurba_marseille","lat":43.28952,"lon":5.36391,"is_reserved":false,"is_disabled":false,"rental_uris":{"android":"levelo://app?vid=14ce259d-8a7b-4f0c-94e7-fa43ff429ba3","ios":"levelo://app?vid=14ce259d-8a7b-4f0c-94e7-fa43ff429ba3"},"vehicle_type_id":"4","last_reported":1730704203,"current_range_meters":11600,"station_id":"ce4bhc92rcd13ifvqetg","pricing_plan_id":"cebpf4jnsgd1na2vs0mg"},{"bike_id":"870609ce-b21f-41ab-b015-135bcd83b814","system_id":"levelo_inurba_marseille","lat":43.27183,"lon":5.40988,"is_reserved":false,"is_disabled":false,"rental_uris":{"android":"levelo://app?vid=870609ce-b21f-41ab-b015-135bcd83b814","ios":"levelo://app?vid=870609ce-b21f-41ab-b015-135bcd83b814"},"vehicle_type_id":"4","last_reported":1730704203,"current_range_meters":6400,"station_id":"ce4bhl12rcd13ifvqgf0","pricing_plan_id":"cebpf4jnsgd1na2vs0mg"},{"bike_id":"ba0dc76e-39d3-45e2-b06a-88fc2809aa39","system_id":"levelo_inurba_marseille","lat":43.27495,"lon":5.42453,"is_reserved":false,"is_disabled":false,"rental_uris":{"android":"levelo://app?vid=ba0dc76e-39d3-45e2-b06a-88fc2809aa39","ios":"levelo://app?vid=ba0dc76e-39d3-45e2-b06a-88fc2809aa39"},"vehicle_type_id":"4","last_reported":1730704203,"current_range_meters":28800,"station_id":"ce4bhn92rcd13ifvqgrg","pricing_plan_id":"cebpf4jnsgd1na2vs0mg"},{"bike_id":"84826187-31ec-4949-bd9b-654531a44675","system_id":"levelo_inurba_marseille","lat":43.23159,"lon":5.43706,"is_reserved":false,"is_disabled":false,"rental_uris":{"android":"levelo://app?vid=84826187-31ec-4949-bd9b-654531a44675","ios":"levelo://app?vid=84826187-31ec-4949-bd9b-654531a44675"},"vehicle_type_id":"4","last_reported":1730704203,"current_range_meters":27200,"station_id":"ce4bhmp2rcd13ifvqgog","pricing_plan_id":"cebpf4jnsgd1na2vs0mg"},{"bike_id":"f44d34b2-11ce-4015-843e-ce8ca8049ec5","system_id":"levelo_inurba_marseille","lat":43.28465,"lon":5.35882,"is_reserved":false,"is_disabled":false,"rental_uris":{"android":"levelo://app?vid=f44d34b2-11ce-4015-843e-ce8ca8049ec5","ios":"levelo://app?vid=f44d34b2-11ce-4015-843e-ce8ca8049ec5"},"vehicle_type_id":"4","last_reported":1730704203,"current_range_meters":1600,"station_id":"ce4bhah2rcd13ifvqei0","pricing_plan_id":"cebpf4jnsgd1na2vs0mg"},{"bike_id":"ff07995a-b33e-483f-81d0-31cb5c7c2b9b","system_id":"levelo_inurba_marseille","lat":43.27995,"lon":5.41654,"is_reserved":false,"is_disabled":false,"rental_uris":{"android":"levelo://app?vid=ff07995a-b33e-483f-81d0-31cb5c7c2b9b","ios":"levelo://app?vid=ff07995a-b33e-483f-81d0-31cb5c7c2b9b"},"vehicle_type_id":"4","last_reported":1730704203,"current_range_meters":20000,"station_id":"ce4bho12rcd13ifvqh1g","pricing_plan_id":"cebpf4jnsgd1na2vs0mg"},{"bike_id":"ccd76c87-a4de-4a74-8e00-625cb097cde2","system_id":"levelo_inurba_marseille","lat":43.251265,"lon":5.403192,"is_reserved":false,"is_disabled":false,"rental_uris":{"android":"levelo://app?vid=ccd76c87-a4de-4a74-8e00-625cb097cde2","ios":"levelo://app?vid=ccd76c87-a4de-4a74-8e00-625cb097cde2"},"vehicle_type_id":"4","last_reported":1730704203,"current_range_meters":26000,"station_id":"ce4bhlh2rcd13ifvqgig","pricing_plan_id":"cebpf4jnsgd1na2vs0mg"},{"bike_id":"f096c496-f8db-4185-9b36-b85c627b721a","system_id":"levelo_inurba_marseille","lat":43.33607,"lon":5.41025,"is_reserved":false,"is_disabled":false,"rental_uris":{"android":"levelo://app?vid=f096c496-f8db-4185-9b36-b85c627b721a","ios":"levelo://app?vid=f096c496-f8db-4185-9b36-b85c627b721a"},"vehicle_type_id":"4","last_reported":1730704203,"current_range_meters":9200,"station_id":"ce4bhqh2rcd13ifvqhmg","pricing_plan_id":"cebpf4jnsgd1na2vs0mg"},{"bike_id":"909fd824-d8fe-4d38-b958-5046d8c9169b","system_id":"levelo_inurba_marseille","lat":43.32484,"lon":5.36569,"is_reserved":false,"is_disabled":false,"rental_uris":{"android":"levelo://app?vid=909fd824-d8fe-4d38-b958-5046d8c9169b","ios":"levelo://app?vid=909fd824-d8fe-4d38-b958-5046d8c9169b"},"vehicle_type_id":"4","last_reported":1730704203,"current_range_meters":38000,"station_id":"ce4bhs12rcd13ifvqhvg","pricing_plan_id":"cebpf4jnsgd1na2vs0mg"},{"bike_id":"d74200e6-8722-4834-ae0b-188969c02116","system_id":"levelo_inurba_marseille","lat":43.3044,"lon":5.3889,"is_reserved":false,"is_disabled":false,"rental_uris":{"android":"levelo://app?vid=d74200e6-8722-4834-ae0b-188969c02116","ios":"levelo://app?vid=d74200e6-8722-4834-ae0b-188969c02116"},"vehicle_type_id":"4","last_reported":1730704203,"current_range_meters":38400,"station_id":"ce4bgk12rcd13ifvqbi0","pricing_plan_id":"cebpf4jnsgd1na2vs0mg"},{"bike_id":"0e915750-87ae-4c3d-aaa6-598a43ff3ced","system_id":"levelo_inurba_marseille","lat":43.29038,"lon":5.37559,"is_reserved":false,"is_disabled":false,"rental_uris":{"android":"levelo://app?vid=0e915750-87ae-4c3d-aaa6-598a43ff3ced","ios":"levelo://app?vid=0e915750-87ae-4c3d-aaa6-598a43ff3ced"},"vehicle_type_id":"4","last_reported":1730704203,"current_range_meters":22800,"station_id":"ce4bh692rcd13ifvqe90","pricing_plan_id":"cebpf4jnsgd1na2vs0mg"},{"bike_id":"4d7ef6bc-23b3-49d1-9024-391226dca47d","system_id":"levelo_inurba_marseille","lat":43.29163,"lon":5.37153,"is_reserved":false,"is_disabled":false,"rental_uris":{"android":"levelo://app?vid=4d7ef6bc-23b3-49d1-9024-391226dca47d","ios":"levelo://app?vid=4d7ef6bc-23b3-49d1-9024-391226dca47d"},"vehicle_type_id":"4","last_reported":1730704203,"current_range_meters":28400,"station_id":"ce4bha92rcd13ifvqeh0","pricing_plan_id":"cebpf4jnsgd1na2vs0mg"},{"bike_id":"189fcf22-bb66-4f86-b251-7af65e539acb","system_id":"levelo_inurba_marseille","lat":43.292705,"lon":5.36851,"is_reserved":false,"is_disabled":false,"rental_uris":{"android":"levelo://app?vid=189fcf22-bb66-4f86-b251-7af65e539acb","ios":"levelo://app?vid=189fcf22-bb66-4f86-b251-7af65e539acb"},"vehicle_type_id":"4","last_reported":1730704203,"current_range_meters":37600,"station_id":"ce4bhbp2rcd13ifvqesg","pricing_plan_id":"cebpf4jnsgd1na2vs0mg"},{"bike_id":"9f0c2b64-86b2-4866-a9ce-e8350d926868","system_id":"levelo_inurba_marseille","lat":43.28346,"lon":5.38104,"is_reserved":false,"is_disabled":false,"rental_uris":{"android":"levelo://app?vid=9f0c2b64-86b2-4866-a9ce-e8350d926868","ios":"levelo://app?vid=9f0c2b64-86b2-4866-a9ce-e8350d926868"},"vehicle_type_id":"4","last_reported":1730704203,"current_range_meters":36800,"station_id":"ce4bh412rcd13ifvqdr0","pricing_plan_id":"cebpf4jnsgd1na2vs0mg"},{"bike_id":"ce04ceb4-6601-472b-956a-1c8ff8f85bca","system_id":"levelo_inurba_marseille","lat":43.30151,"lon":5.38083,"is_reserved":false,"is_disabled":false,"rental_uris":{"android":"levelo://app?vid=ce04ceb4-6601-472b-956a-1c8ff8f85bca","ios":"levelo://app?vid=ce04ceb4-6601-472b-956a-1c8ff8f85bca"},"vehicle_type_id":"4","last_reported":1730704203,"current_range_meters":24000,"station_id":"ce4bgjp2rcd13ifvqbh0","pricing_plan_id":"cebpf4jnsgd1na2vs0mg"},{"bike_id":"42b0c201-e324-4041-8fcf-34372b130dad","system_id":"levelo_inurba_marseille","lat":43.30589,"lon":5.3935,"is_reserved":false,"is_disabled":false,"rental_uris":{"android":"levelo://app?vid=42b0c201-e324-4041-8fcf-34372b130dad","ios":"levelo://app?vid=42b0c201-e324-4041-8fcf-34372b130dad"},"vehicle_type_id":"4","last_reported":1730704203,"current_range_meters":27600,"station_id":"ce4bh0p2rcd13ifvqd80","pricing_plan_id":"cebpf4jnsgd1na2vs0mg"},{"bike_id":"8f31e753-c0d2-41d7-8ee6-6bafa8c9e072","system_id":"levelo_inurba_marseille","lat":43.2408,"lon":5.37747,"is_reserved":false,"is_disabled":false,"rental_uris":{"android":"levelo://app?vid=8f31e753-c0d2-41d7-8ee6-6bafa8c9e072","ios":"levelo://app?vid=8f31e753-c0d2-41d7-8ee6-6bafa8c9e072"},"vehicle_type_id":"4","last_reported":1730704203,"current_range_meters":32000,"station_id":"ce4bhnp2rcd13ifvqgvg","pricing_plan_id":"cebpf4jnsgd1na2vs0mg"},{"bike_id":"1ed9fe6a-4efd-4699-8a24-be9bf5876f15","system_id":"levelo_inurba_marseille","lat":43.231795,"lon":5.400429,"is_reserved":false,"is_disabled":false,"rental_uris":{"android":"levelo://app?vid=1ed9fe6a-4efd-4699-8a24-be9bf5876f15","ios":"levelo://app?vid=1ed9fe6a-4efd-4699-8a24-be9bf5876f15"},"vehicle_type_id":"4","last_reported":1730704203,"current_range_meters":23200,"station_id":"ce4bhn12rcd13ifvqgqg","pricing_plan_id":"cebpf4jnsgd1na2vs0mg"},{"bike_id":"026e5951-ebcc-4123-8935-c5fbb06406d9","system_id":"levelo_inurba_marseille","lat":43.29055,"lon":5.38632,"is_reserved":false,"is_disabled":false,"rental_uris":{"android":"levelo://app?vid=026e5951-ebcc-4123-8935-c5fbb06406d9","ios":"levelo://app?vid=026e5951-ebcc-4123-8935-c5fbb06406d9"},"vehicle_type_id":"4","last_reported":1730704203,"current_range_meters":19600,"station_id":"ce4bh4p2rcd13ifvqe0g","pricing_plan_id":"cebpf4jnsgd1na2vs0mg"},{"bike_id":"d3abb388-2504-4245-b3d4-5e4976e7b930","system_id":"levelo_inurba_marseille","lat":43.30591,"lon":5.39362,"is_reserved":false,"is_disabled":false,"rental_uris":{"android":"levelo://app?vid=d3abb388-2504-4245-b3d4-5e4976e7b930","ios":"levelo://app?vid=d3abb388-2504-4245-b3d4-5e4976e7b930"},"vehicle_type_id":"4","last_reported":1730704203,"current_range_meters":32800,"station_id":"ce4bh0p2rcd13ifvqd80","pricing_plan_id":"cebpf4jnsgd1na2vs0mg"},{"bike_id":"b6c9e670-f3a4-44e1-9439-288521edc05e","system_id":"levelo_inurba_marseille","lat":43.26558,"lon":5.3729,"is_reserved":false,"is_disabled":false,"rental_uris":{"android":"levelo://app?vid=b6c9e670-f3a4-44e1-9439-288521edc05e","ios":"levelo://app?vid=b6c9e670-f3a4-44e1-9439-288521edc05e"},"vehicle_type_id":"4","last_reported":1730704203,"current_range_meters":12000,"station_id":"ce4bhg12rcd13ifvqf70","pricing_plan_id":"cebpf4jnsgd1na2vs0mg"},{"bike_id":"dd0361f1-c9ec-4a68-9d39-6446c050b180","system_id":"levelo_inurba_marseille","lat":43.29055,"lon":5.39926,"is_reserved":false,"is_disabled":false,"rental_uris":{"android":"levelo://app?vid=dd0361f1-c9ec-4a68-9d39-6446c050b180","ios":"levelo://app?vid=dd0361f1-c9ec-4a68-9d39-6446c050b180"},"vehicle_type_id":"4","last_reported":1730704203,"current_range_meters":22800,"station_id":"ce4bh392rcd13ifvqdm0","pricing_plan_id":"cebpf4jnsgd1na2vs0mg"},{"bike_id":"baee8935-462a-45e7-89ea-2647d185d886","system_id":"levelo_inurba_marseille","lat":43.26952,"lon":5.38623,"is_reserved":false,"is_disabled":false,"rental_uris":{"android":"levelo://app?vid=baee8935-462a-45e7-89ea-2647d185d886","ios":"levelo://app?vid=baee8935-462a-45e7-89ea-2647d185d886"},"vehicle_type_id":"4","last_reported":1730704203,"current_range_meters":33600,"station_id":"ce4bhh92rcd13ifvqfh0","pricing_plan_id":"cebpf4jnsgd1na2vs0mg"},{"bike_id":"e54a9e25-ac9f-47a2-b6ce-8e7088772790","system_id":"levelo_inurba_marseille","lat":43.33026,"lon":5.39039,"is_reserved":false,"is_disabled":false,"rental_uris":{"android":"levelo://app?vid=e54a9e25-ac9f-47a2-b6ce-8e7088772790","ios":"levelo://app?vid=e54a9e25-ac9f-47a2-b6ce-8e7088772790"},"vehicle_type_id":"4","last_reported":1730704203,"current_range_meters":10000,"station_id":"ce4bhr92rcd13ifvqhrg","pricing_plan_id":"cebpf4jnsgd1na2vs0mg"},{"bike_id":"20ba62ee-2151-4dc9-8a72-2d3c7b78e768","system_id":"levelo_inurba_marseille","lat":43.2594,"lon":5.40901,"is_reserved":false,"is_disabled":false,"rental_uris":{"android":"levelo://app?vid=20ba62ee-2151-4dc9-8a72-2d3c7b78e768","ios":"levelo://app?vid=20ba62ee-2151-4dc9-8a72-2d3c7b78e768"},"vehicle_type_id":"4","last_reported":1730704203,"current_range_meters":34800,"station_id":"ce4bhm92rcd13ifvqglg","pricing_plan_id":"cebpf4jnsgd1na2vs0mg"},{"bike_id":"fe144177-327f-48aa-98bf-b0d3318680db","system_id":"levelo_inurba_marseille","lat":43.2408,"lon":5.37739,"is_reserved":false,"is_disabled":false,"rental_uris":{"android":"levelo://app?vid=fe144177-327f-48aa-98bf-b0d3318680db","ios":"levelo://app?vid=fe144177-327f-48aa-98bf-b0d3318680db"},"vehicle_type_id":"4","last_reported":1730704203,"current_range_meters":11200,"station_id":"ce4bhnp2rcd13ifvqgvg","pricing_plan_id":"cebpf4jnsgd1na2vs0mg"},{"bike_id":"39436ee1-7903-47d8-99e1-456190fd9fe4","system_id":"levelo_inurba_marseille","lat":43.273102,"lon":5.390695,"is_reserved":false,"is_disabled":false,"rental_uris":{"android":"levelo://app?vid=39436ee1-7903-47d8-99e1-456190fd9fe4","ios":"levelo://app?vid=39436ee1-7903-47d8-99e1-456190fd9fe4"},"vehicle_type_id":"4","last_reported":1730704203,"current_range_meters":22800,"station_id":"ce4bhgp2rcd13ifvqfe0","pricing_plan_id":"cebpf4jnsgd1na2vs0mg"},{"bike_id":"61864400-2b8e-4568-889d-c79c7cc8f788","system_id":"levelo_inurba_marseille","lat":43.23154,"lon":5.43711,"is_reserved":false,"is_disabled":false,"rental_uris":{"android":"levelo://app?vid=61864400-2b8e-4568-889d-c79c7cc8f788","ios":"levelo://app?vid=61864400-2b8e-4568-889d-c79c7cc8f788"},"vehicle_type_id":"4","last_reported":1730704203,"current_range_meters":9200,"station_id":"ce4bhmp2rcd13ifvqgog","pricing_plan_id":"cebpf4jnsgd1na2vs0mg"},{"bike_id":"12687173-e7fd-4d15-83a6-ace266f984d7","system_id":"levelo_inurba_marseille","lat":43.28153,"lon":5.42643,"is_reserved":false,"is_disabled":false,"rental_uris":{"android":"levelo://app?vid=12687173-e7fd-4d15-83a6-ace266f984d7","ios":"levelo://app?vid=12687173-e7fd-4d15-83a6-ace266f984d7"},"vehicle_type_id":"4","last_reported":1730704203,"current_range_meters":3600,"station_id":"ce4bhnh2rcd13ifvqgug","pricing_plan_id":"cebpf4jnsgd1na2vs0mg"},{"bike_id":"7a58136c-3165-4313-8fac-2c364b399752","system_id":"levelo_inurba_marseille","lat":43.31355,"lon":5.4025,"is_reserved":false,"is_disabled":false,"rental_uris":{"android":"levelo://app?vid=7a58136c-3165-4313-8fac-2c364b399752","ios":"levelo://app?vid=7a58136c-3165-4313-8fac-2c364b399752"},"vehicle_type_id":"4","last_reported":1730704203,"current_range_meters":16000,"station_id":"ce4bhr92rcd13ifvqhsg","pricing_plan_id":"cebpf4jnsgd1na2vs0mg"},{"bike_id":"b7025435-eb3f-456a-8fb2-f639e2f34d1f","system_id":"levelo_inurba_marseille","lat":43.23185,"lon":5.39982,"is_reserved":false,"is_disabled":false,"rental_uris":{"android":"levelo://app?vid=b7025435-eb3f-456a-8fb2-f639e2f34d1f","ios":"levelo://app?vid=b7025435-eb3f-456a-8fb2-f639e2f34d1f"},"vehicle_type_id":"4","last_reported":1730704203,"current_range_meters":20000,"station_id":"ce4bhn12rcd13ifvqgqg","pricing_plan_id":"cebpf4jnsgd1na2vs0mg"},{"bike_id":"20f9361c-368f-4e72-96c2-1d07a8966480","system_id":"levelo_inurba_marseille","lat":43.27494,"lon":5.42447,"is_reserved":false,"is_disabled":false,"rental_uris":{"android":"levelo://app?vid=20f9361c-368f-4e72-96c2-1d07a8966480","ios":"levelo://app?vid=20f9361c-368f-4e72-96c2-1d07a8966480"},"vehicle_type_id":"4","last_reported":1730704203,"current_range_meters":28400,"station_id":"ce4bhn92rcd13ifvqgrg","pricing_plan_id":"cebpf4jnsgd1na2vs0mg"},{"bike_id":"a3ae4c1b-8ed3-43f0-95b2-9f60ca274476","system_id":"levelo_inurba_marseille","lat":43.32482,"lon":5.36566,"is_reserved":false,"is_disabled":false,"rental_uris":{"android":"levelo://app?vid=a3ae4c1b-8ed3-43f0-95b2-9f60ca274476","ios":"levelo://app?vid=a3ae4c1b-8ed3-43f0-95b2-9f60ca274476"},"vehicle_type_id":"4","last_reported":1730704203,"current_range_meters":38800,"station_id":"ce4bhs12rcd13ifvqhvg","pricing_plan_id":"cebpf4jnsgd1na2vs0mg"},{"bike_id":"ab9173ec-0645-441d-90af-326a5e948990","system_id":"levelo_inurba_marseille","lat":43.28341,"lon":5.38097,"is_reserved":false,"is_disabled":false,"rental_uris":{"android":"levelo://app?vid=ab9173ec-0645-441d-90af-326a5e948990","ios":"levelo://app?vid=ab9173ec-0645-441d-90af-326a5e948990"},"vehicle_type_id":"4","last_reported":1730704203,"current_range_meters":28800,"station_id":"ce4bh412rcd13ifvqdr0","pricing_plan_id":"cebpf4jnsgd1na2vs0mg"},{"bike_id":"aeb90565-fa47-4101-8129-8c5827f2e1ca","system_id":"levelo_inurba_marseille","lat":43.30464,"lon":5.37903,"is_reserved":false,"is_disabled":false,"rental_uris":{"android":"levelo://app?vid=aeb90565-fa47-4101-8129-8c5827f2e1ca","ios":"levelo://app?vid=aeb90565-fa47-4101-8129-8c5827f2e1ca"},"vehicle_type_id":"4","last_reported":1730704203,"current_range_meters":38000,"station_id":"ce4bgup2rcd13ifvqcn0","pricing_plan_id":"cebpf4jnsgd1na2vs0mg"},{"bike_id":"77da8c0e-0043-48d9-9bee-c58df7d82bb8","system_id":"levelo_inurba_marseille","lat":43.30526,"lon":5.36709,"is_reserved":false,"is_disabled":false,"rental_uris":{"android":"levelo://app?vid=77da8c0e-0043-48d9-9bee-c58df7d82bb8","ios":"levelo://app?vid=77da8c0e-0043-48d9-9bee-c58df7d82bb8"},"vehicle_type_id":"4","last_reported":1730704203,"current_range_meters":9600,"station_id":"ce4bgrp2rcd13ifvqc9g","pricing_plan_id":"cebpf4jnsgd1na2vs0mg"},{"bike_id":"32192aed-72bc-40ea-855d-a6b85235471b","system_id":"levelo_inurba_marseille","lat":43.30957,"lon":5.39039,"is_reserved":false,"is_disabled":false,"rental_uris":{"android":"levelo://app?vid=32192aed-72bc-40ea-855d-a6b85235471b","ios":"levelo://app?vid=32192aed-72bc-40ea-855d-a6b85235471b"},"vehicle_type_id":"4","last_reported":1730704203,"current_range_meters":38400,"station_id":"ce4bgup2rcd13ifvqco0","pricing_plan_id":"cebpf4jnsgd1na2vs0mg"},{"bike_id":"b883e61c-c372-4979-a508-ed305b476f94","system_id":"levelo_inurba_marseille","lat":43.28348,"lon":5.38103,"is_reserved":false,"is_disabled":false,"rental_uris":{"android":"levelo://app?vid=b883e61c-c372-4979-a508-ed305b476f94","ios":"levelo://app?vid=b883e61c-c372-4979-a508-ed305b476f94"},"vehicle_type_id":"4","last_reported":1730704203,"current_range_meters":36400,"station_id":"ce4bh412rcd13ifvqdr0","pricing_plan_id":"cebpf4jnsgd1na2vs0mg"},{"bike_id":"d5154aa7-9f6d-4f09-8dd7-076b92df9944","system_id":"levelo_inurba_marseille","lat":43.30953,"lon":5.39035,"is_reserved":false,"is_disabled":false,"rental_uris":{"android":"levelo://app?vid=d5154aa7-9f6d-4f09-8dd7-076b92df9944","ios":"levelo://app?vid=d5154aa7-9f6d-4f09-8dd7-076b92df9944"},"vehicle_type_id":"4","last_reported":1730704203,"current_range_meters":35200,"station_id":"ce4bgup2rcd13ifvqco0","pricing_plan_id":"cebpf4jnsgd1na2vs0mg"},{"bike_id":"7e77258a-a585-4296-8dde-08b58936d401","system_id":"levelo_inurba_marseille","lat":43.29012,"lon":5.38637,"is_reserved":false,"is_disabled":false,"rental_uris":{"android":"levelo://app?vid=7e77258a-a585-4296-8dde-08b58936d401","ios":"levelo://app?vid=7e77258a-a585-4296-8dde-08b58936d401"},"vehicle_type_id":"4","last_reported":1730704203,"current_range_meters":14400,"station_id":"ce4bh4p2rcd13ifvqe0g","pricing_plan_id":"cebpf4jnsgd1na2vs0mg"},{"bike_id":"ad6b9979-2833-497c-ae59-5afeb88a87ce","system_id":"levelo_inurba_marseille","lat":43.323643,"lon":5.367646,"is_reserved":false,"is_disabled":false,"rental_uris":{"android":"levelo://app?vid=ad6b9979-2833-497c-ae59-5afeb88a87ce","ios":"levelo://app?vid=ad6b9979-2833-497c-ae59-5afeb88a87ce"},"vehicle_type_id":"4","last_reported":1730704203,"current_range_meters":37600,"station_id":"ce4bhsh2rcd13ifvqi2g","pricing_plan_id":"cebpf4jnsgd1na2vs0mg"},{"bike_id":"84f2706c-083e-4933-b52e-0aa29b5abb09","system_id":"levelo_inurba_marseille","lat":43.28348,"lon":5.38093,"is_reserved":false,"is_disabled":false,"rental_uris":{"android":"levelo://app?vid=84f2706c-083e-4933-b52e-0aa29b5abb09","ios":"levelo://app?vid=84f2706c-083e-4933-b52e-0aa29b5abb09"},"vehicle_type_id":"4","last_reported":1730704203,"current_range_meters":20400,"station_id":"ce4bh412rcd13ifvqdr0","pricing_plan_id":"cebpf4jnsgd1na2vs0mg"},{"bike_id":"fa4b79b7-0b68-44fd-a86a-a3d67eed44d0","system_id":"levelo_inurba_marseille","lat":43.33609,"lon":5.41019,"is_reserved":false,"is_disabled":false,"rental_uris":{"android":"levelo://app?vid=fa4b79b7-0b68-44fd-a86a-a3d67eed44d0","ios":"levelo://app?vid=fa4b79b7-0b68-44fd-a86a-a3d67eed44d0"},"vehicle_type_id":"4","last_reported":1730704203,"current_range_meters":34800,"station_id":"ce4bhqh2rcd13ifvqhmg","pricing_plan_id":"cebpf4jnsgd1na2vs0mg"},{"bike_id":"562b2e5b-1a58-4f45-9a4d-7307f599a262","system_id":"levelo_inurba_marseille","lat":43.28079,"lon":5.37855,"is_reserved":false,"is_disabled":false,"rental_uris":{"android":"levelo://app?vid=562b2e5b-1a58-4f45-9a4d-7307f599a262","ios":"levelo://app?vid=562b2e5b-1a58-4f45-9a4d-7307f599a262"},"vehicle_type_id":"4","last_reported":1730704203,"current_range_meters":38400,"station_id":"ce4bha12rcd13ifvqee0","pricing_plan_id":"cebpf4jnsgd1na2vs0mg"},{"bike_id":"a7b1441d-2d19-4e46-a196-841ca58e64a6","system_id":"levelo_inurba_marseille","lat":43.29274,"lon":5.36849,"is_reserved":false,"is_disabled":false,"rental_uris":{"android":"levelo://app?vid=a7b1441d-2d19-4e46-a196-841ca58e64a6","ios":"levelo://app?vid=a7b1441d-2d19-4e46-a196-841ca58e64a6"},"vehicle_type_id":"4","last_reported":1730704203,"current_range_meters":36800,"station_id":"ce4bhbp2rcd13ifvqesg","pricing_plan_id":"cebpf4jnsgd1na2vs0mg"},{"bike_id":"d2738cce-314b-4cee-88e4-e667009c47fa","system_id":"levelo_inurba_marseille","lat":43.25936,"lon":5.40902,"is_reserved":false,"is_disabled":false,"rental_uris":{"android":"levelo://app?vid=d2738cce-314b-4cee-88e4-e667009c47fa","ios":"levelo://app?vid=d2738cce-314b-4cee-88e4-e667009c47fa"},"vehicle_type_id":"4","last_reported":1730704203,"current_range_meters":6800,"station_id":"ce4bhm92rcd13ifvqglg","pricing_plan_id":"cebpf4jnsgd1na2vs0mg"},{"bike_id":"428877d8-69fc-463f-973f-8d4d4aadb160","system_id":"levelo_inurba_marseille","lat":43.26556,"lon":5.37288,"is_reserved":false,"is_disabled":false,"rental_uris":{"android":"levelo://app?vid=428877d8-69fc-463f-973f-8d4d4aadb160","ios":"levelo://app?vid=428877d8-69fc-463f-973f-8d4d4aadb160"},"vehicle_type_id":"4","last_reported":1730704203,"current_range_meters":22800,"station_id":"ce4bhg12rcd13ifvqf70","pricing_plan_id":"cebpf4jnsgd1na2vs0mg"},{"bike_id":"526b342d-7738-4356-af8c-b38a08bfca77","system_id":"levelo_inurba_marseille","lat":43.30472,"lon":5.37898,"is_reserved":false,"is_disabled":false,"rental_uris":{"android":"levelo://app?vid=526b342d-7738-4356-af8c-b38a08bfca77","ios":"levelo://app?vid=526b342d-7738-4356-af8c-b38a08bfca77"},"vehicle_type_id":"4","last_reported":1730704203,"current_range_meters":36400,"station_id":"ce4bgup2rcd13ifvqcn0","pricing_plan_id":"cebpf4jnsgd1na2vs0mg"},{"bike_id":"54c1c887-5512-4679-876b-788e3cc728ca","system_id":"levelo_inurba_marseille","lat":43.27493,"lon":5.42449,"is_reserved":false,"is_disabled":false,"rental_uris":{"android":"levelo://app?vid=54c1c887-5512-4679-876b-788e3cc728ca","ios":"levelo://app?vid=54c1c887-5512-4679-876b-788e3cc728ca"},"vehicle_type_id":"4","last_reported":1730704203,"current_range_meters":32000,"station_id":"ce4bhn92rcd13ifvqgrg","pricing_plan_id":"cebpf4jnsgd1na2vs0mg"},{"bike_id":"2e4c8d1e-f6d9-48e6-8314-476fbfcf3fcc","system_id":"levelo_inurba_marseille","lat":43.30133,"lon":5.38068,"is_reserved":false,"is_disabled":false,"rental_uris":{"android":"levelo://app?vid=2e4c8d1e-f6d9-48e6-8314-476fbfcf3fcc","ios":"levelo://app?vid=2e4c8d1e-f6d9-48e6-8314-476fbfcf3fcc"},"vehicle_type_id":"4","last_reported":1730704203,"current_range_meters":36000,"station_id":"ce4bgjp2rcd13ifvqbh0","pricing_plan_id":"cebpf4jnsgd1na2vs0mg"},{"bike_id":"22277462-ea58-4946-ba2c-ef08f6cd7659","system_id":"levelo_inurba_marseille","lat":43.2797,"lon":5.4105,"is_reserved":false,"is_disabled":false,"rental_uris":{"android":"levelo://app?vid=22277462-ea58-4946-ba2c-ef08f6cd7659","ios":"levelo://app?vid=22277462-ea58-4946-ba2c-ef08f6cd7659"},"vehicle_type_id":"4","last_reported":1730704203,"current_range_meters":13600,"station_id":"","pricing_plan_id":"cebpf4jnsgd1na2vs0mg"},{"bike_id":"2bb2f703-9494-4ca4-afdd-7b8bd885ceeb","system_id":"levelo_inurba_marseille","lat":43.26959,"lon":5.38627,"is_reserved":false,"is_disabled":false,"rental_uris":{"android":"levelo://app?vid=2bb2f703-9494-4ca4-afdd-7b8bd885ceeb","ios":"levelo://app?vid=2bb2f703-9494-4ca4-afdd-7b8bd885ceeb"},"vehicle_type_id":"4","last_reported":1730704203,"current_range_meters":26000,"station_id":"ce4bhh92rcd13ifvqfh0","pricing_plan_id":"cebpf4jnsgd1na2vs0mg"},{"bike_id":"04fa565f-0f6d-4a6d-bb9b-75d314b37774","system_id":"levelo_inurba_marseille","lat":43.29044,"lon":5.39958,"is_reserved":false,"is_disabled":false,"rental_uris":{"android":"levelo://app?vid=04fa565f-0f6d-4a6d-bb9b-75d314b37774","ios":"levelo://app?vid=04fa565f-0f6d-4a6d-bb9b-75d314b37774"},"vehicle_type_id":"4","last_reported":1730704203,"current_range_meters":38400,"station_id":"ce4bh392rcd13ifvqdm0","pricing_plan_id":"cebpf4jnsgd1na2vs0mg"},{"bike_id":"e21d598a-9c17-40cc-a015-24b909216836","system_id":"levelo_inurba_marseille","lat":43.22931,"lon":5.35377,"is_reserved":false,"is_disabled":false,"rental_uris":{"android":"levelo://app?vid=e21d598a-9c17-40cc-a015-24b909216836","ios":"levelo://app?vid=e21d598a-9c17-40cc-a015-24b909216836"},"vehicle_type_id":"4","last_reported":1730704203,"current_range_meters":27200,"station_id":"cpo3532slgdg3j2ikp40","pricing_plan_id":"cebpf4jnsgd1na2vs0mg"},{"bike_id":"5eef24ae-d040-4bdd-9d10-1c0e5f63ea1d","system_id":"levelo_inurba_marseille","lat":43.30598,"lon":5.39352,"is_reserved":false,"is_disabled":false,"rental_uris":{"android":"levelo://app?vid=5eef24ae-d040-4bdd-9d10-1c0e5f63ea1d","ios":"levelo://app?vid=5eef24ae-d040-4bdd-9d10-1c0e5f63ea1d"},"vehicle_type_id":"4","last_reported":1730704203,"current_range_meters":17600,"station_id":"ce4bh0p2rcd13ifvqd80","pricing_plan_id":"cebpf4jnsgd1na2vs0mg"},{"bike_id":"4e4094e2-c17f-4b5c-9bf3-5774d6d18856","system_id":"levelo_inurba_marseille","lat":43.26952,"lon":5.38643,"is_reserved":false,"is_disabled":false,"rental_uris":{"android":"levelo://app?vid=4e4094e2-c17f-4b5c-9bf3-5774d6d18856","ios":"levelo://app?vid=4e4094e2-c17f-4b5c-9bf3-5774d6d18856"},"vehicle_type_id":"4","last_reported":1730704203,"current_range_meters":39200,"station_id":"ce4bhh92rcd13ifvqfh0","pricing_plan_id":"cebpf4jnsgd1na2vs0mg"},{"bike_id":"8468e62f-74cd-42a8-b08a-c181c8326b09","system_id":"levelo_inurba_marseille","lat":43.28492,"lon":5.38538,"is_reserved":false,"is_disabled":false,"rental_uris":{"android":"levelo://app?vid=8468e62f-74cd-42a8-b08a-c181c8326b09","ios":"levelo://app?vid=8468e62f-74cd-42a8-b08a-c181c8326b09"},"vehicle_type_id":"4","last_reported":1730704203,"current_range_meters":30400,"station_id":"ce4bh8p2rcd13ifvqeb0","pricing_plan_id":"cebpf4jnsgd1na2vs0mg"},{"bike_id":"87fb525d-aced-4c34-b8a6-af0ccc6263ce","system_id":"levelo_inurba_marseille","lat":43.30213,"lon":5.39465,"is_reserved":false,"is_disabled":false,"rental_uris":{"android":"levelo://app?vid=87fb525d-aced-4c34-b8a6-af0ccc6263ce","ios":"levelo://app?vid=87fb525d-aced-4c34-b8a6-af0ccc6263ce"},"vehicle_type_id":"4","last_reported":1730704203,"current_range_meters":36000,"station_id":"ce4bh0p2rcd13ifvqd70","pricing_plan_id":"cebpf4jnsgd1na2vs0mg"},{"bike_id":"a171064d-8438-4181-94ef-68492c8e63fa","system_id":"levelo_inurba_marseille","lat":43.27493,"lon":5.42453,"is_reserved":false,"is_disabled":false,"rental_uris":{"android":"levelo://app?vid=a171064d-8438-4181-94ef-68492c8e63fa","ios":"levelo://app?vid=a171064d-8438-4181-94ef-68492c8e63fa"},"vehicle_type_id":"4","last_reported":1730704203,"current_range_meters":16000,"station_id":"ce4bhn92rcd13ifvqgrg","pricing_plan_id":"cebpf4jnsgd1na2vs0mg"},{"bike_id":"3c0db380-7dd0-4f2b-91ff-5a6db0bf9ef3","system_id":"levelo_inurba_marseille","lat":43.28336,"lon":5.38101,"is_reserved":false,"is_disabled":false,"rental_uris":{"android":"levelo://app?vid=3c0db380-7dd0-4f2b-91ff-5a6db0bf9ef3","ios":"levelo://app?vid=3c0db380-7dd0-4f2b-91ff-5a6db0bf9ef3"},"vehicle_type_id":"4","last_reported":1730704203,"current_range_meters":27600,"station_id":"ce4bh412rcd13ifvqdr0","pricing_plan_id":"cebpf4jnsgd1na2vs0mg"},{"bike_id":"da6e2a6e-88c4-4044-8e33-f686f8aad5f4","system_id":"levelo_inurba_marseille","lat":43.28942,"lon":5.3664,"is_reserved":false,"is_disabled":false,"rental_uris":{"android":"levelo://app?vid=da6e2a6e-88c4-4044-8e33-f686f8aad5f4","ios":"levelo://app?vid=da6e2a6e-88c4-4044-8e33-f686f8aad5f4"},"vehicle_type_id":"4","last_reported":1730704203,"current_range_meters":36000,"station_id":"ce4bhap2rcd13ifvqek0","pricing_plan_id":"cebpf4jnsgd1na2vs0mg"},{"bike_id":"d747e3f6-afbc-48a6-b965-b80db82972ff","system_id":"levelo_inurba_marseille","lat":43.29514,"lon":5.39395,"is_reserved":false,"is_disabled":false,"rental_uris":{"android":"levelo://app?vid=d747e3f6-afbc-48a6-b965-b80db82972ff","ios":"levelo://app?vid=d747e3f6-afbc-48a6-b965-b80db82972ff"},"vehicle_type_id":"4","last_reported":1730704203,"current_range_meters":37600,"station_id":"ce4bh292rcd13ifvqdf0","pricing_plan_id":"cebpf4jnsgd1na2vs0mg"},{"bike_id":"4b7dde38-fa98-4db2-94d1-be1a8b5a8cef","system_id":"levelo_inurba_marseille","lat":43.299792,"lon":5.371784,"is_reserved":false,"is_disabled":false,"rental_uris":{"android":"levelo://app?vid=4b7dde38-fa98-4db2-94d1-be1a8b5a8cef","ios":"levelo://app?vid=4b7dde38-fa98-4db2-94d1-be1a8b5a8cef"},"vehicle_type_id":"4","last_reported":1730704203,"current_range_meters":38800,"station_id":"ce4bgr92rcd13ifvqc7g","pricing_plan_id":"cebpf4jnsgd1na2vs0mg"},{"bike_id":"cb81e8a1-f5c2-4c95-bfcd-076f7f535ffd","system_id":"levelo_inurba_marseille","lat":43.29721,"lon":5.37144,"is_reserved":false,"is_disabled":false,"rental_uris":{"android":"levelo://app?vid=cb81e8a1-f5c2-4c95-bfcd-076f7f535ffd","ios":"levelo://app?vid=cb81e8a1-f5c2-4c95-bfcd-076f7f535ffd"},"vehicle_type_id":"4","last_reported":1730704203,"current_range_meters":20400,"station_id":"","pricing_plan_id":"cebpf4jnsgd1na2vs0mg"},{"bike_id":"5a5ca637-4a18-4597-b859-7ab9a6b224f3","system_id":"levelo_inurba_marseille","lat":43.23148,"lon":5.43726,"is_reserved":false,"is_disabled":false,"rental_uris":{"android":"levelo://app?vid=5a5ca637-4a18-4597-b859-7ab9a6b224f3","ios":"levelo://app?vid=5a5ca637-4a18-4597-b859-7ab9a6b224f3"},"vehicle_type_id":"4","last_reported":1730704203,"current_range_meters":8800,"station_id":"ce4bhmp2rcd13ifvqgog","pricing_plan_id":"cebpf4jnsgd1na2vs0mg"},{"bike_id":"17d331f7-a859-4705-be8b-d205ea7090b5","system_id":"levelo_inurba_marseille","lat":43.28964,"lon":5.37828,"is_reserved":false,"is_disabled":false,"rental_uris":{"android":"levelo://app?vid=17d331f7-a859-4705-be8b-d205ea7090b5","ios":"levelo://app?vid=17d331f7-a859-4705-be8b-d205ea7090b5"},"vehicle_type_id":"4","last_reported":1730704203,"current_range_meters":38800,"station_id":"ce4bh9p2rcd13ifvqed0","pricing_plan_id":"cebpf4jnsgd1na2vs0mg"},{"bike_id":"3a772e35-14c4-4b99-b307-36514407ba6f","system_id":"levelo_inurba_marseille","lat":43.31992,"lon":5.38142,"is_reserved":false,"is_disabled":false,"rental_uris":{"android":"levelo://app?vid=3a772e35-14c4-4b99-b307-36514407ba6f","ios":"levelo://app?vid=3a772e35-14c4-4b99-b307-36514407ba6f"},"vehicle_type_id":"4","last_reported":1730704203,"current_range_meters":38800,"station_id":"ce4bhr12rcd13ifvqhpg","pricing_plan_id":"cebpf4jnsgd1na2vs0mg"},{"bike_id":"7aa9d3f7-694d-47c5-a2bc-d7c95f661188","system_id":"levelo_inurba_marseille","lat":43.25862,"lon":5.39898,"is_reserved":false,"is_disabled":false,"rental_uris":{"android":"levelo://app?vid=7aa9d3f7-694d-47c5-a2bc-d7c95f661188","ios":"levelo://app?vid=7aa9d3f7-694d-47c5-a2bc-d7c95f661188"},"vehicle_type_id":"4","last_reported":1730704203,"current_range_meters":30000,"station_id":"ce4bhl92rcd13ifvqghg","pricing_plan_id":"cebpf4jnsgd1na2vs0mg"},{"bike_id":"4960dc96-3562-49c7-b567-5d8c073b6e3b","system_id":"levelo_inurba_marseille","lat":43.29016,"lon":5.38151,"is_reserved":false,"is_disabled":false,"rental_uris":{"android":"levelo://app?vid=4960dc96-3562-49c7-b567-5d8c073b6e3b","ios":"levelo://app?vid=4960dc96-3562-49c7-b567-5d8c073b6e3b"},"vehicle_type_id":"4","last_reported":1730704203,"current_range_meters":38000,"station_id":"ce4bh4p2rcd13ifvqe1g","pricing_plan_id":"cebpf4jnsgd1na2vs0mg"},{"bike_id":"482ebd18-939c-4b64-a237-2c66c216caff","system_id":"levelo_inurba_marseille","lat":43.29677,"lon":5.4003,"is_reserved":false,"is_disabled":false,"rental_uris":{"android":"levelo://app?vid=482ebd18-939c-4b64-a237-2c66c216caff","ios":"levelo://app?vid=482ebd18-939c-4b64-a237-2c66c216caff"},"vehicle_type_id":"4","last_reported":1730704203,"current_range_meters":11600,"station_id":"ce4bhdp2rcd13ifvqf20","pricing_plan_id":"cebpf4jnsgd1na2vs0mg"},{"bike_id":"fb84da9c-f797-4f86-872f-97c2a749e79c","system_id":"levelo_inurba_marseille","lat":43.30464,"lon":5.37905,"is_reserved":false,"is_disabled":false,"rental_uris":{"android":"levelo://app?vid=fb84da9c-f797-4f86-872f-97c2a749e79c","ios":"levelo://app?vid=fb84da9c-f797-4f86-872f-97c2a749e79c"},"vehicle_type_id":"4","last_reported":1730704203,"current_range_meters":28800,"station_id":"ce4bgup2rcd13ifvqcn0","pricing_plan_id":"cebpf4jnsgd1na2vs0mg"},{"bike_id":"5b204276-ed89-4c3b-9eb7-d8634baef667","system_id":"levelo_inurba_marseille","lat":43.30474,"lon":5.37914,"is_reserved":false,"is_disabled":false,"rental_uris":{"android":"levelo://app?vid=5b204276-ed89-4c3b-9eb7-d8634baef667","ios":"levelo://app?vid=5b204276-ed89-4c3b-9eb7-d8634baef667"},"vehicle_type_id":"4","last_reported":1730704203,"current_range_meters":38800,"station_id":"ce4bgup2rcd13ifvqcn0","pricing_plan_id":"cebpf4jnsgd1na2vs0mg"},{"bike_id":"986cb774-9e7e-4605-9b2b-587325c00a47","system_id":"levelo_inurba_marseille","lat":43.32539,"lon":5.41428,"is_reserved":false,"is_disabled":false,"rental_uris":{"android":"levelo://app?vid=986cb774-9e7e-4605-9b2b-587325c00a47","ios":"levelo://app?vid=986cb774-9e7e-4605-9b2b-587325c00a47"},"vehicle_type_id":"4","last_reported":1730704203,"current_range_meters":36400,"station_id":"ce4bhq12rcd13ifvqhhg","pricing_plan_id":"cebpf4jnsgd1na2vs0mg"},{"bike_id":"7fd22c8e-d340-461d-afb5-d71f9c1be00f","system_id":"levelo_inurba_marseille","lat":43.27563,"lon":5.38408,"is_reserved":false,"is_disabled":false,"rental_uris":{"android":"levelo://app?vid=7fd22c8e-d340-461d-afb5-d71f9c1be00f","ios":"levelo://app?vid=7fd22c8e-d340-461d-afb5-d71f9c1be00f"},"vehicle_type_id":"4","last_reported":1730704203,"current_range_meters":38800,"station_id":"ce4bhh92rcd13ifvqfi0","pricing_plan_id":"cebpf4jnsgd1na2vs0mg"},