{"last_updated":1774274793,"ttl":60,"version":"2.2","data":{"bikes":[{"bike_id":"15a599be-f1f7-4f60-8464-589576cc04f1","system_id":"levelo_inurba_marseille","lat":43.23062,"lon":5.35488,"is_reserved":false,"is_disabled":false,"rental_uris":{"android":"levelo://app?vid=15a599be-f1f7-4f60-8464-589576cc04f1","ios":"levelo://app?vid=15a599be-f1f7-4f60-8464-589576cc04f1"},"vehicle_type_id":"4","last_reported":1774274794,"current_range_meters":2800,"station_id":"cpo3342slgdg3j2ifvpg","pricing_plan_id":"cebpf4jnsgd1na2vs0mg"},{"bike_id":"51f131c4-ef31-4b4b-8c65-e146531127bd","system_id":"levelo_inurba_marseille","lat":43.22932,"lon":5.35373,"is_reserved":false,"is_disabled":false,"rental_uris":{"android":"levelo://app?vid=51f131c4-ef31-4b4b-8c65-e146531127bd","ios":"levelo://app?vid=51f131c4-ef31-4b4b-8c65-e146531127bd"},"vehicle_type_id":"4","last_reported":1774274794,"current_range_meters":2800,"station_id":"cpo3532slgdg3j2ikp40","pricing_plan_id":"cebpf4jnsgd1na2vs0mg"},{"bike_id":"03890ba9-56f8-46cd-bdd7-b20a7feee54f","system_id":"levelo_inurba_marseille","lat":43.2733,"lon":5.39081,"is_reserved":false,"is_disabled":false,"rental_uris":{"android":"levelo://app?vid=03890ba9-56f8-46cd-bdd7-b20a7feee54f","ios":"levelo://app?vid=03890ba9-56f8-46cd-bdd7-b20a7feee54f"},"vehicle_type_id":"4","last_reported":1774274794,"current_range_meters":2800,"station_id":"ce4bhgp2rcd13ifvqfe0","pricing_plan_id":"cebpf4jnsgd1na2vs0mg"},{"bike_id":"7af63550-e87f-4c5c-bafc-fbba9c634e16","system_id":"levelo_inurba_marseille","lat":43.28997,"lon":5.35609,"is_reserved":false,"is_disabled":true,"rental_uris":{"android":"levelo://app?vid=7af63550-e87f-4c5c-bafc-fbba9c634e16","ios":"levelo://app?vid=7af63550-e87f-4c5c-bafc-fbba9c634e16"},"vehicle_type_id":"4","last_reported":1774274794,"current_range_meters":2800,"station_id":"ce4bhb92rcd13ifvqen0","pricing_plan_id":"cebpf4jnsgd1na2vs0mg"},{"bike_id":"111cdc27-a5fa-4bf1-8486-208d402b3d9f","system_id":"levelo_inurba_marseille","lat":43.27376,"lon":5.36253,"is_reserved":false,"is_disabled":false,"rental_uris":{"android":"levelo://app?vid=111cdc27-a5fa-4bf1-8486-208d402b3d9f","ios":"levelo://app?vid=111cdc27-a5fa-4bf1-8486-208d402b3d9f"},"vehicle_type_id":"4","last_reported":1774274794,"current_range_meters":2800,"station_id":"ce4bhbh2rcd13ifvqeo0","pricing_plan_id":"cebpf4jnsgd1na2vs0mg"},{"bike_id":"6c012d9f-7148-4e7c-9d03-ef4872115150","system_id":"levelo_inurba_marseille","lat":43.32593,"lon":5.37491,"is_reserved":false,"is_disabled":false,"rental_uris":{"android":"levelo://app?vid=6c012d9f-7148-4e7c-9d03-ef4872115150","ios":"levelo://app?vid=6c012d9f-7148-4e7c-9d03-ef4872115150"},"vehicle_type_id":"4","last_reported":1774274794,"current_range_meters":2800,"station_id":"","pricing_plan_id":"cebpf4jnsgd1na2vs0mg"},{"bike_id":"be3c7827-08af-4504-95ed-25f44c48fdc4","system_id":"levelo_inurba_marseille","lat":43.25584,"lon":5.38232,"is_reserved":false,"is_disabled":false,"rental_uris":{"android":"levelo://app?vid=be3c7827-08af-4504-95ed-25f44c48fdc4","ios":"levelo://app?vid=be3c7827-08af-4504-95ed-25f44c48fdc4"},"vehicle_type_id":"4","last_reported":1774274794,"current_range_meters":2800,"station_id":"ce4bhih2rcd13ifvqfs0","pricing_plan_id":"cebpf4jnsgd1na2vs0mg"},{"bike_id":"95bc51c9-6f2f-403a-80cf-7b9472f974c2","system_id":"levelo_inurba_marseille","lat":43.28005,"lon":5.40008,"is_reserved":false,"is_disabled":false,"rental_uris":{"android":"levelo://app?vid=95bc51c9-6f2f-403a-80cf-7b9472f974c2","ios":"levelo://app?vid=95bc51c9-6f2f-403a-80cf-7b9472f974c2"},"vehicle_type_id":"4","last_reported":1774274794,"current_range_meters":2800,"station_id":"ce4bho92rcd13ifvqh4g","pricing_plan_id":"cebpf4jnsgd1na2vs0mg"},{"bike_id":"b74ca8d1-73b5-4326-86f3-ca099f3d3c7c","system_id":"levelo_inurba_marseille","lat":43.25582,"lon":5.3824,"is_reserved":false,"is_disabled":false,"rental_uris":{"android":"levelo://app?vid=b74ca8d1-73b5-4326-86f3-ca099f3d3c7c","ios":"levelo://app?vid=b74ca8d1-73b5-4326-86f3-ca099f3d3c7c"},"vehicle_type_id":"4","last_reported":1774274794,"current_range_meters":2800,"station_id":"ce4bhih2rcd13ifvqfs0","pricing_plan_id":"cebpf4jnsgd1na2vs0mg"},{"bike_id":"28ec064a-1d38-4964-80ae-db9e1651297e","system_id":"levelo_inurba_marseille","lat":43.26388,"lon":5.41079,"is_reserved":false,"is_disabled":false,"rental_uris":{"android":"levelo://app?vid=28ec064a-1d38-4964-80ae-db9e1651297e","ios":"levelo://app?vid=28ec064a-1d38-4964-80ae-db9e1651297e"},"vehicle_type_id":"4","last_reported":1774274794,"current_range_meters":2800,"station_id":"st_d4e5ca6na9uc73bfl5fg","pricing_plan_id":"cebpf4jnsgd1na2vs0mg"},{"bike_id":"f35a9644-f102-427c-8b00-579a35988db3","system_id":"levelo_inurba_marseille","lat":43.21186,"lon":5.35083,"is_reserved":false,"is_disabled":false,"rental_uris":{"android":"levelo://app?vid=f35a9644-f102-427c-8b00-579a35988db3","ios":"levelo://app?vid=f35a9644-f102-427c-8b00-579a35988db3"},"vehicle_type_id":"4","last_reported":1774274794,"current_range_meters":3200,"station_id":"st_cvj6sg6p6f1abm77japg","pricing_plan_id":"cebpf4jnsgd1na2vs0mg"},{"bike_id":"4a08ea02-f339-41b8-9d8b-5268c800245e","system_id":"levelo_inurba_marseille","lat":43.24118,"lon":5.36825,"is_reserved":false,"is_disabled":false,"rental_uris":{"android":"levelo://app?vid=4a08ea02-f339-41b8-9d8b-5268c800245e","ios":"levelo://app?vid=4a08ea02-f339-41b8-9d8b-5268c800245e"},"vehicle_type_id":"4","last_reported":1774274794,"current_range_meters":3200,"station_id":"","pricing_plan_id":"cebpf4jnsgd1na2vs0mg"},{"bike_id":"deb4d43c-e639-4f91-a09a-8f7ec3cc3424","system_id":"levelo_inurba_marseille","lat":43.32118,"lon":5.36773,"is_reserved":false,"is_disabled":false,"rental_uris":{"android":"levelo://app?vid=deb4d43c-e639-4f91-a09a-8f7ec3cc3424","ios":"levelo://app?vid=deb4d43c-e639-4f91-a09a-8f7ec3cc3424"},"vehicle_type_id":"4","last_reported":1774274794,"current_range_meters":3200,"station_id":"ce4bhrh2rcd13ifvqhug","pricing_plan_id":"cebpf4jnsgd1na2vs0mg"},{"bike_id":"89884c11-0089-40c9-b4c8-cc026115fb44","system_id":"levelo_inurba_marseille","lat":43.26947,"lon":5.42018,"is_reserved":false,"is_disabled":false,"rental_uris":{"android":"levelo://app?vid=89884c11-0089-40c9-b4c8-cc026115fb44","ios":"levelo://app?vid=89884c11-0089-40c9-b4c8-cc026115fb44"},"vehicle_type_id":"4","last_reported":1774274794,"current_range_meters":3200,"station_id":"","pricing_plan_id":"cebpf4jnsgd1na2vs0mg"},{"bike_id":"895b6d9a-f6b2-4744-8c30-184547b1b37e","system_id":"levelo_inurba_marseille","lat":43.28155,"lon":5.42638,"is_reserved":false,"is_disabled":false,"rental_uris":{"android":"levelo://app?vid=895b6d9a-f6b2-4744-8c30-184547b1b37e","ios":"levelo://app?vid=895b6d9a-f6b2-4744-8c30-184547b1b37e"},"vehicle_type_id":"4","last_reported":1774274794,"current_range_meters":3600,"station_id":"ce4bhnh2rcd13ifvqgug","pricing_plan_id":"cebpf4jnsgd1na2vs0mg"},{"bike_id":"00560f09-8ead-439c-a384-e1807bc0a84c","system_id":"levelo_inurba_marseille","lat":43.28463,"lon":5.48387,"is_reserved":false,"is_disabled":false,"rental_uris":{"android":"levelo://app?vid=00560f09-8ead-439c-a384-e1807bc0a84c","ios":"levelo://app?vid=00560f09-8ead-439c-a384-e1807bc0a84c"},"vehicle_type_id":"4","last_reported":1774274794,"current_range_meters":3600,"station_id":"","pricing_plan_id":"cebpf4jnsgd1na2vs0mg"},{"bike_id":"926980e7-6e9b-4c45-a007-9ac0bf89dc56","system_id":"levelo_inurba_marseille","lat":43.31571,"lon":5.44544,"is_reserved":false,"is_disabled":false,"rental_uris":{"android":"levelo://app?vid=926980e7-6e9b-4c45-a007-9ac0bf89dc56","ios":"levelo://app?vid=926980e7-6e9b-4c45-a007-9ac0bf89dc56"},"vehicle_type_id":"4","last_reported":1774274794,"current_range_meters":3600,"station_id":"","pricing_plan_id":"cebpf4jnsgd1na2vs0mg"},{"bike_id":"b07b35f6-6c38-4e4b-a09a-89a6e8c411c4","system_id":"levelo_inurba_marseille","lat":43.26688,"lon":5.38263,"is_reserved":false,"is_disabled":false,"rental_uris":{"android":"levelo://app?vid=b07b35f6-6c38-4e4b-a09a-89a6e8c411c4","ios":"levelo://app?vid=b07b35f6-6c38-4e4b-a09a-89a6e8c411c4"},"vehicle_type_id":"4","last_reported":1774274794,"current_range_meters":3600,"station_id":"ce4bhg92rcd13ifvqf90","pricing_plan_id":"cebpf4jnsgd1na2vs0mg"},{"bike_id":"a46c1a3e-d474-4222-bd24-8cb832e27d76","system_id":"levelo_inurba_marseille","lat":43.29741,"lon":5.36419,"is_reserved":false,"is_disabled":false,"rental_uris":{"android":"levelo://app?vid=a46c1a3e-d474-4222-bd24-8cb832e27d76","ios":"levelo://app?vid=a46c1a3e-d474-4222-bd24-8cb832e27d76"},"vehicle_type_id":"4","last_reported":1774274794,"current_range_meters":3600,"station_id":"","pricing_plan_id":"cebpf4jnsgd1na2vs0mg"},{"bike_id":"ee3ff2c5-8eb9-460a-936f-029a2d3bd45f","system_id":"levelo_inurba_marseille","lat":43.28896,"lon":5.43344,"is_reserved":false,"is_disabled":false,"rental_uris":{"android":"levelo://app?vid=ee3ff2c5-8eb9-460a-936f-029a2d3bd45f","ios":"levelo://app?vid=ee3ff2c5-8eb9-460a-936f-029a2d3bd45f"},"vehicle_type_id":"4","last_reported":1774274794,"current_range_meters":4000,"station_id":"","pricing_plan_id":"cebpf4jnsgd1na2vs0mg"},{"bike_id":"090c229a-11c8-4820-954a-827f42bc8131","system_id":"levelo_inurba_marseille","lat":43.27371,"lon":5.36252,"is_reserved":false,"is_disabled":false,"rental_uris":{"android":"levelo://app?vid=090c229a-11c8-4820-954a-827f42bc8131","ios":"levelo://app?vid=090c229a-11c8-4820-954a-827f42bc8131"},"vehicle_type_id":"4","last_reported":1774274794,"current_range_meters":4000,"station_id":"ce4bhbh2rcd13ifvqeo0","pricing_plan_id":"cebpf4jnsgd1na2vs0mg"},{"bike_id":"7a437c14-db96-4c60-ab42-82b94fc06af8","system_id":"levelo_inurba_marseille","lat":43.25511,"lon":5.3765,"is_reserved":false,"is_disabled":false,"rental_uris":{"android":"levelo://app?vid=7a437c14-db96-4c60-ab42-82b94fc06af8","ios":"levelo://app?vid=7a437c14-db96-4c60-ab42-82b94fc06af8"},"vehicle_type_id":"4","last_reported":1774274794,"current_range_meters":4000,"station_id":"ce4bhh12rcd13ifvqff0","pricing_plan_id":"cebpf4jnsgd1na2vs0mg"},{"bike_id":"4cd43bdb-b497-488e-8289-74af162b56ba","system_id":"levelo_inurba_marseille","lat":43.23134,"lon":5.43728,"is_reserved":false,"is_disabled":false,"rental_uris":{"android":"levelo://app?vid=4cd43bdb-b497-488e-8289-74af162b56ba","ios":"levelo://app?vid=4cd43bdb-b497-488e-8289-74af162b56ba"},"vehicle_type_id":"4","last_reported":1774274794,"current_range_meters":4000,"station_id":"ce4bhmp2rcd13ifvqgog","pricing_plan_id":"cebpf4jnsgd1na2vs0mg"},{"bike_id":"6b9a049e-8215-4f2b-bde3-7b3338dba59e","system_id":"levelo_inurba_marseille","lat":43.2313,"lon":5.43718,"is_reserved":false,"is_disabled":false,"rental_uris":{"android":"levelo://app?vid=6b9a049e-8215-4f2b-bde3-7b3338dba59e","ios":"levelo://app?vid=6b9a049e-8215-4f2b-bde3-7b3338dba59e"},"vehicle_type_id":"4","last_reported":1774274794,"current_range_meters":4000,"station_id":"ce4bhmp2rcd13ifvqgog","pricing_plan_id":"cebpf4jnsgd1na2vs0mg"},{"bike_id":"e36040d3-21b5-42ae-a7be-277cdbb32035","system_id":"levelo_inurba_marseille","lat":43.255811,"lon":5.382392,"is_reserved":false,"is_disabled":false,"rental_uris":{"android":"levelo://app?vid=e36040d3-21b5-42ae-a7be-277cdbb32035","ios":"levelo://app?vid=e36040d3-21b5-42ae-a7be-277cdbb32035"},"vehicle_type_id":"4","last_reported":1774274794,"current_range_meters":4000,"station_id":"ce4bhih2rcd13ifvqfs0","pricing_plan_id":"cebpf4jnsgd1na2vs0mg"},{"bike_id":"1a1a7c55-ee9f-457e-9d2b-7662e3b1f44b","system_id":"levelo_inurba_marseille","lat":43.24633,"lon":5.43493,"is_reserved":false,"is_disabled":true,"rental_uris":{"android":"levelo://app?vid=1a1a7c55-ee9f-457e-9d2b-7662e3b1f44b","ios":"levelo://app?vid=1a1a7c55-ee9f-457e-9d2b-7662e3b1f44b"},"vehicle_type_id":"4","last_reported":1774274794,"current_range_meters":4400,"station_id":"","pricing_plan_id":"cebpf4jnsgd1na2vs0mg"},{"bike_id":"af8d2a67-5765-4d25-9890-717868ce4def","system_id":"levelo_inurba_marseille","lat":43.26944,"lon":5.40271,"is_reserved":false,"is_disabled":false,"rental_uris":{"android":"levelo://app?vid=af8d2a67-5765-4d25-9890-717868ce4def","ios":"levelo://app?vid=af8d2a67-5765-4d25-9890-717868ce4def"},"vehicle_type_id":"4","last_reported":1774274794,"current_range_meters":4400,"station_id":"cjm6bp8fraef2m0cb0m0","pricing_plan_id":"cebpf4jnsgd1na2vs0mg"},{"bike_id":"fa87ce26-5306-414f-98c9-1e3509ad90c0","system_id":"levelo_inurba_marseille","lat":43.24635,"lon":5.39295,"is_reserved":false,"is_disabled":false,"rental_uris":{"android":"levelo://app?vid=fa87ce26-5306-414f-98c9-1e3509ad90c0","ios":"levelo://app?vid=fa87ce26-5306-414f-98c9-1e3509ad90c0"},"vehicle_type_id":"4","last_reported":1774274794,"current_range_meters":4400,"station_id":"","pricing_plan_id":"cebpf4jnsgd1na2vs0mg"},{"bike_id":"b4391a28-ef69-456a-9daf-3a357aac299d","system_id":"levelo_inurba_marseille","lat":43.27939,"lon":5.41069,"is_reserved":false,"is_disabled":false,"rental_uris":{"android":"levelo://app?vid=b4391a28-ef69-456a-9daf-3a357aac299d","ios":"levelo://app?vid=b4391a28-ef69-456a-9daf-3a357aac299d"},"vehicle_type_id":"4","last_reported":1774274794,"current_range_meters":4400,"station_id":"ce4bhnp2rcd13ifvqh0g","pricing_plan_id":"cebpf4jnsgd1na2vs0mg"},{"bike_id":"a4ed6440-1299-492c-a2e0-14f3831500d1","system_id":"levelo_inurba_marseille","lat":43.28611,"lon":5.35103,"is_reserved":false,"is_disabled":false,"rental_uris":{"android":"levelo://app?vid=a4ed6440-1299-492c-a2e0-14f3831500d1","ios":"levelo://app?vid=a4ed6440-1299-492c-a2e0-14f3831500d1"},"vehicle_type_id":"4","last_reported":1774274794,"current_range_meters":4800,"station_id":"ce4bhch2rcd13ifvqeug","pricing_plan_id":"cebpf4jnsgd1na2vs0mg"},{"bike_id":"b23e52e9-a876-459e-8724-e0215296ea00","system_id":"levelo_inurba_marseille","lat":43.28482,"lon":5.48393,"is_reserved":false,"is_disabled":true,"rental_uris":{"android":"levelo://app?vid=b23e52e9-a876-459e-8724-e0215296ea00","ios":"levelo://app?vid=b23e52e9-a876-459e-8724-e0215296ea00"},"vehicle_type_id":"4","last_reported":1774274794,"current_range_meters":4800,"station_id":"","pricing_plan_id":"cebpf4jnsgd1na2vs0mg"},{"bike_id":"5deb8dc6-6919-4738-b0a7-dc6990800975","system_id":"levelo_inurba_marseille","lat":43.303,"lon":5.36893,"is_reserved":false,"is_disabled":false,"rental_uris":{"android":"levelo://app?vid=5deb8dc6-6919-4738-b0a7-dc6990800975","ios":"levelo://app?vid=5deb8dc6-6919-4738-b0a7-dc6990800975"},"vehicle_type_id":"4","last_reported":1774274794,"current_range_meters":4800,"station_id":"ce4bgqh2rcd13ifvqc5g","pricing_plan_id":"cebpf4jnsgd1na2vs0mg"},{"bike_id":"5a3d3df4-d923-46fc-bdfe-9820e3b28092","system_id":"levelo_inurba_marseille","lat":43.2733,"lon":5.39106,"is_reserved":false,"is_disabled":true,"rental_uris":{"android":"levelo://app?vid=5a3d3df4-d923-46fc-bdfe-9820e3b28092","ios":"levelo://app?vid=5a3d3df4-d923-46fc-bdfe-9820e3b28092"},"vehicle_type_id":"4","last_reported":1774274794,"current_range_meters":4800,"station_id":"ce4bhgp2rcd13ifvqfe0","pricing_plan_id":"cebpf4jnsgd1na2vs0mg"},{"bike_id":"f34dc19a-25c4-490b-b36b-67fa8c649bfe","system_id":"levelo_inurba_marseille","lat":43.30977,"lon":5.37563,"is_reserved":false,"is_disabled":false,"rental_uris":{"android":"levelo://app?vid=f34dc19a-25c4-490b-b36b-67fa8c649bfe","ios":"levelo://app?vid=f34dc19a-25c4-490b-b36b-67fa8c649bfe"},"vehicle_type_id":"4","last_reported":1774274794,"current_range_meters":4800,"station_id":"","pricing_plan_id":"cebpf4jnsgd1na2vs0mg"},{"bike_id":"47e512d5-1878-4adf-80cb-1a328722cfab","system_id":"levelo_inurba_marseille","lat":43.313269,"lon":5.396816,"is_reserved":false,"is_disabled":false,"rental_uris":{"android":"levelo://app?vid=47e512d5-1878-4adf-80cb-1a328722cfab","ios":"levelo://app?vid=47e512d5-1878-4adf-80cb-1a328722cfab"},"vehicle_type_id":"4","last_reported":1774274794,"current_range_meters":4800,"station_id":"ce4bgvp2rcd13ifvqcu0","pricing_plan_id":"cebpf4jnsgd1na2vs0mg"},{"bike_id":"9c705451-c9d7-4f45-afc4-33edfeea06d0","system_id":"levelo_inurba_marseille","lat":43.28706,"lon":5.46681,"is_reserved":false,"is_disabled":false,"rental_uris":{"android":"levelo://app?vid=9c705451-c9d7-4f45-afc4-33edfeea06d0","ios":"levelo://app?vid=9c705451-c9d7-4f45-afc4-33edfeea06d0"},"vehicle_type_id":"4","last_reported":1774274794,"current_range_meters":4800,"station_id":"st_d6tc3vkotcvc738tfjhg","pricing_plan_id":"cebpf4jnsgd1na2vs0mg"},{"bike_id":"48d411e4-772b-45b0-bfb9-68ff0b412584","system_id":"levelo_inurba_marseille","lat":43.30275,"lon":5.37713,"is_reserved":false,"is_disabled":false,"rental_uris":{"android":"levelo://app?vid=48d411e4-772b-45b0-bfb9-68ff0b412584","ios":"levelo://app?vid=48d411e4-772b-45b0-bfb9-68ff0b412584"},"vehicle_type_id":"4","last_reported":1774274794,"current_range_meters":4800,"station_id":"ce4bguh2rcd13ifvqcj0","pricing_plan_id":"cebpf4jnsgd1na2vs0mg"},{"bike_id":"58a4b0d7-f43b-449e-8d2e-e05a79e437e2","system_id":"levelo_inurba_marseille","lat":43.292609,"lon":5.376234,"is_reserved":false,"is_disabled":false,"rental_uris":{"android":"levelo://app?vid=58a4b0d7-f43b-449e-8d2e-e05a79e437e2","ios":"levelo://app?vid=58a4b0d7-f43b-449e-8d2e-e05a79e437e2"},"vehicle_type_id":"4","last_reported":1774274794,"current_range_meters":5600,"station_id":"","pricing_plan_id":"cebpf4jnsgd1na2vs0mg"},{"bike_id":"e6d16333-aca6-4874-b7aa-5680ac1a37f3","system_id":"levelo_inurba_marseille","lat":43.27176,"lon":5.40995,"is_reserved":false,"is_disabled":false,"rental_uris":{"android":"levelo://app?vid=e6d16333-aca6-4874-b7aa-5680ac1a37f3","ios":"levelo://app?vid=e6d16333-aca6-4874-b7aa-5680ac1a37f3"},"vehicle_type_id":"4","last_reported":1774274794,"current_range_meters":5600,"station_id":"ce4bhl12rcd13ifvqgf0","pricing_plan_id":"cebpf4jnsgd1na2vs0mg"},{"bike_id":"6f3fdbf9-917f-421d-aa86-02187d7ba65c","system_id":"levelo_inurba_marseille","lat":43.28476,"lon":5.48399,"is_reserved":false,"is_disabled":false,"rental_uris":{"android":"levelo://app?vid=6f3fdbf9-917f-421d-aa86-02187d7ba65c","ios":"levelo://app?vid=6f3fdbf9-917f-421d-aa86-02187d7ba65c"},"vehicle_type_id":"4","last_reported":1774274794,"current_range_meters":5600,"station_id":"st_d3svhcjqgbts73a3dn0g","pricing_plan_id":"cebpf4jnsgd1na2vs0mg"},{"bike_id":"b7ba0e58-bef0-47a7-bd3b-64bf72ecf131","system_id":"levelo_inurba_marseille","lat":43.32966,"lon":5.36686,"is_reserved":false,"is_disabled":false,"rental_uris":{"android":"levelo://app?vid=b7ba0e58-bef0-47a7-bd3b-64bf72ecf131","ios":"levelo://app?vid=b7ba0e58-bef0-47a7-bd3b-64bf72ecf131"},"vehicle_type_id":"4","last_reported":1774274794,"current_range_meters":5600,"station_id":"","pricing_plan_id":"cebpf4jnsgd1na2vs0mg"},{"bike_id":"5b81ba2e-751d-4e9b-a312-d871ca5278f6","system_id":"levelo_inurba_marseille","lat":43.29852,"lon":5.36254,"is_reserved":false,"is_disabled":false,"rental_uris":{"android":"levelo://app?vid=5b81ba2e-751d-4e9b-a312-d871ca5278f6","ios":"levelo://app?vid=5b81ba2e-751d-4e9b-a312-d871ca5278f6"},"vehicle_type_id":"4","last_reported":1774274794,"current_range_meters":5600,"station_id":"ce4bgpp2rcd13ifvqc3g","pricing_plan_id":"cebpf4jnsgd1na2vs0mg"},{"bike_id":"9453e579-87d8-475b-9a7d-0c3671abf86b","system_id":"levelo_inurba_marseille","lat":43.32115,"lon":5.36767,"is_reserved":false,"is_disabled":false,"rental_uris":{"android":"levelo://app?vid=9453e579-87d8-475b-9a7d-0c3671abf86b","ios":"levelo://app?vid=9453e579-87d8-475b-9a7d-0c3671abf86b"},"vehicle_type_id":"4","last_reported":1774274794,"current_range_meters":6000,"station_id":"ce4bhrh2rcd13ifvqhug","pricing_plan_id":"cebpf4jnsgd1na2vs0mg"},{"bike_id":"c177e44f-a994-462a-b1ea-fc1ba55ad8e0","system_id":"levelo_inurba_marseille","lat":43.23921,"lon":5.37444,"is_reserved":false,"is_disabled":false,"rental_uris":{"android":"levelo://app?vid=c177e44f-a994-462a-b1ea-fc1ba55ad8e0","ios":"levelo://app?vid=c177e44f-a994-462a-b1ea-fc1ba55ad8e0"},"vehicle_type_id":"4","last_reported":1774274794,"current_range_meters":6000,"station_id":"st_d6sm7csbq4hs73f8fpjg","pricing_plan_id":"cebpf4jnsgd1na2vs0mg"},{"bike_id":"10b95aed-0b12-4096-b08d-0269cc5505b7","system_id":"levelo_inurba_marseille","lat":43.29003,"lon":5.35605,"is_reserved":false,"is_disabled":false,"rental_uris":{"android":"levelo://app?vid=10b95aed-0b12-4096-b08d-0269cc5505b7","ios":"levelo://app?vid=10b95aed-0b12-4096-b08d-0269cc5505b7"},"vehicle_type_id":"4","last_reported":1774274794,"current_range_meters":6000,"station_id":"ce4bhb92rcd13ifvqen0","pricing_plan_id":"cebpf4jnsgd1na2vs0mg"},{"bike_id":"1cb34757-0bff-4f1a-9192-1aa8e3e422a1","system_id":"levelo_inurba_marseille","lat":43.29597,"lon":5.36741,"is_reserved":false,"is_disabled":true,"rental_uris":{"android":"levelo://app?vid=1cb34757-0bff-4f1a-9192-1aa8e3e422a1","ios":"levelo://app?vid=1cb34757-0bff-4f1a-9192-1aa8e3e422a1"},"vehicle_type_id":"4","last_reported":1774274794,"current_range_meters":6400,"station_id":"ce4bgph2rcd13ifvqc2g","pricing_plan_id":"cebpf4jnsgd1na2vs0mg"},{"bike_id":"f9c57d50-832a-477c-9c7f-1e7c12d972b0","system_id":"levelo_inurba_marseille","lat":43.25089,"lon":5.39505,"is_reserved":false,"is_disabled":true,"rental_uris":{"android":"levelo://app?vid=f9c57d50-832a-477c-9c7f-1e7c12d972b0","ios":"levelo://app?vid=f9c57d50-832a-477c-9c7f-1e7c12d972b0"},"vehicle_type_id":"4","last_reported":1774274794,"current_range_meters":6400,"station_id":"ce4bhm12rcd13ifvqgkg","pricing_plan_id":"cebpf4jnsgd1na2vs0mg"},{"bike_id":"a42b3816-557f-467f-a8eb-e5dad8062293","system_id":"levelo_inurba_marseille","lat":43.30033,"lon":5.40161,"is_reserved":false,"is_disabled":false,"rental_uris":{"android":"levelo://app?vid=a42b3816-557f-467f-a8eb-e5dad8062293","ios":"levelo://app?vid=a42b3816-557f-467f-a8eb-e5dad8062293"},"vehicle_type_id":"4","last_reported":1774274794,"current_range_meters":6400,"station_id":"","pricing_plan_id":"cebpf4jnsgd1na2vs0mg"},{"bike_id":"ae1d79e6-e9aa-4ec4-83a9-b2a81e5ecf9c","system_id":"levelo_inurba_marseille","lat":43.23381,"lon":5.41231,"is_reserved":false,"is_disabled":false,"rental_uris":{"android":"levelo://app?vid=ae1d79e6-e9aa-4ec4-83a9-b2a81e5ecf9c","ios":"levelo://app?vid=ae1d79e6-e9aa-4ec4-83a9-b2a81e5ecf9c"},"vehicle_type_id":"4","last_reported":1774274794,"current_range_meters":6400,"station_id":"","pricing_plan_id":"cebpf4jnsgd1na2vs0mg"},{"bike_id":"c02b37de-fbe5-405f-8d43-8dbb09d582de","system_id":"levelo_inurba_marseille","lat":43.29677,"lon":5.39828,"is_reserved":false,"is_disabled":false,"rental_uris":{"android":"levelo://app?vid=c02b37de-fbe5-405f-8d43-8dbb09d582de","ios":"levelo://app?vid=c02b37de-fbe5-405f-8d43-8dbb09d582de"},"vehicle_type_id":"4","last_reported":1774274794,"current_range_meters":6400,"station_id":"","pricing_plan_id":"cebpf4jnsgd1na2vs0mg"},{"bike_id":"7d0e7181-3a70-4370-9354-bef3948a92c8","system_id":"levelo_inurba_marseille","lat":43.29959,"lon":5.41327,"is_reserved":false,"is_disabled":false,"rental_uris":{"android":"levelo://app?vid=7d0e7181-3a70-4370-9354-bef3948a92c8","ios":"levelo://app?vid=7d0e7181-3a70-4370-9354-bef3948a92c8"},"vehicle_type_id":"4","last_reported":1774274794,"current_range_meters":6800,"station_id":"ce4bhp12rcd13ifvqh9g","pricing_plan_id":"cebpf4jnsgd1na2vs0mg"},{"bike_id":"8310aa65-ac67-4592-b812-f63970cb0af3","system_id":"levelo_inurba_marseille","lat":43.3211,"lon":5.36771,"is_reserved":false,"is_disabled":false,"rental_uris":{"android":"levelo://app?vid=8310aa65-ac67-4592-b812-f63970cb0af3","ios":"levelo://app?vid=8310aa65-ac67-4592-b812-f63970cb0af3"},"vehicle_type_id":"4","last_reported":1774274794,"current_range_meters":6800,"station_id":"ce4bhrh2rcd13ifvqhug","pricing_plan_id":"cebpf4jnsgd1na2vs0mg"},{"bike_id":"0f88d6b7-883f-4b13-98ff-b1b3b7d422a5","system_id":"levelo_inurba_marseille","lat":43.25918,"lon":5.40884,"is_reserved":false,"is_disabled":true,"rental_uris":{"android":"levelo://app?vid=0f88d6b7-883f-4b13-98ff-b1b3b7d422a5","ios":"levelo://app?vid=0f88d6b7-883f-4b13-98ff-b1b3b7d422a5"},"vehicle_type_id":"4","last_reported":1774274794,"current_range_meters":6800,"station_id":"ce4bhm92rcd13ifvqglg","pricing_plan_id":"cebpf4jnsgd1na2vs0mg"},{"bike_id":"462a1cdd-980f-4d75-accd-0f62886214c9","system_id":"levelo_inurba_marseille","lat":43.28227,"lon":5.40839,"is_reserved":false,"is_disabled":false,"rental_uris":{"android":"levelo://app?vid=462a1cdd-980f-4d75-accd-0f62886214c9","ios":"levelo://app?vid=462a1cdd-980f-4d75-accd-0f62886214c9"},"vehicle_type_id":"4","last_reported":1774274794,"current_range_meters":6800,"station_id":"","pricing_plan_id":"cebpf4jnsgd1na2vs0mg"},{"bike_id":"85d6ab11-5518-4ccd-91e4-dbdc93e9ebe9","system_id":"levelo_inurba_marseille","lat":43.28549,"lon":5.44133,"is_reserved":false,"is_disabled":false,"rental_uris":{"android":"levelo://app?vid=85d6ab11-5518-4ccd-91e4-dbdc93e9ebe9","ios":"levelo://app?vid=85d6ab11-5518-4ccd-91e4-dbdc93e9ebe9"},"vehicle_type_id":"4","last_reported":1774274794,"current_range_meters":6800,"station_id":"st_d3j3df2ikq2c7380ej80","pricing_plan_id":"cebpf4jnsgd1na2vs0mg"},{"bike_id":"19816687-f443-4a5d-b7aa-e3cfd2cb0259","system_id":"levelo_inurba_marseille","lat":43.31457,"lon":5.44547,"is_reserved":false,"is_disabled":false,"rental_uris":{"android":"levelo://app?vid=19816687-f443-4a5d-b7aa-e3cfd2cb0259","ios":"levelo://app?vid=19816687-f443-4a5d-b7aa-e3cfd2cb0259"},"vehicle_type_id":"4","last_reported":1774274794,"current_range_meters":7200,"station_id":"","pricing_plan_id":"cebpf4jnsgd1na2vs0mg"},{"bike_id":"0904501b-5976-4ab4-a092-9f42f6d02b0b","system_id":"levelo_inurba_marseille","lat":43.26566,"lon":5.39002,"is_reserved":false,"is_disabled":false,"rental_uris":{"android":"levelo://app?vid=0904501b-5976-4ab4-a092-9f42f6d02b0b","ios":"levelo://app?vid=0904501b-5976-4ab4-a092-9f42f6d02b0b"},"vehicle_type_id":"4","last_reported":1774274794,"current_range_meters":7200,"station_id":"ce4bhe12rcd13ifvqf30","pricing_plan_id":"cebpf4jnsgd1na2vs0mg"},{"bike_id":"8c1c8195-ea4b-4bdc-adcb-ba3b3fad322f","system_id":"levelo_inurba_marseille","lat":43.28704,"lon":5.46691,"is_reserved":false,"is_disabled":false,"rental_uris":{"android":"levelo://app?vid=8c1c8195-ea4b-4bdc-adcb-ba3b3fad322f","ios":"levelo://app?vid=8c1c8195-ea4b-4bdc-adcb-ba3b3fad322f"},"vehicle_type_id":"4","last_reported":1774274794,"current_range_meters":7200,"station_id":"st_d6tc3vkotcvc738tfjhg","pricing_plan_id":"cebpf4jnsgd1na2vs0mg"},{"bike_id":"9be35987-805d-4aab-a951-55292d8c9d92","system_id":"levelo_inurba_marseille","lat":43.3169,"lon":5.43747,"is_reserved":false,"is_disabled":false,"rental_uris":{"android":"levelo://app?vid=9be35987-805d-4aab-a951-55292d8c9d92","ios":"levelo://app?vid=9be35987-805d-4aab-a951-55292d8c9d92"},"vehicle_type_id":"4","last_reported":1774274794,"current_range_meters":7200,"station_id":"ce4bhp92rcd13ifvqhcg","pricing_plan_id":"cebpf4jnsgd1na2vs0mg"},{"bike_id":"91e936ba-8210-49df-b03b-fb4e055c136f","system_id":"levelo_inurba_marseille","lat":43.27621,"lon":5.36106,"is_reserved":false,"is_disabled":false,"rental_uris":{"android":"levelo://app?vid=91e936ba-8210-49df-b03b-fb4e055c136f","ios":"levelo://app?vid=91e936ba-8210-49df-b03b-fb4e055c136f"},"vehicle_type_id":"4","last_reported":1774274794,"current_range_meters":7200,"station_id":"ce4bgj92rcd13ifvqbe0","pricing_plan_id":"cebpf4jnsgd1na2vs0mg"},{"bike_id":"6d8d09fd-043e-40dd-92de-c6d036fa5ea9","system_id":"levelo_inurba_marseille","lat":43.28932,"lon":5.38384,"is_reserved":false,"is_disabled":true,"rental_uris":{"android":"levelo://app?vid=6d8d09fd-043e-40dd-92de-c6d036fa5ea9","ios":"levelo://app?vid=6d8d09fd-043e-40dd-92de-c6d036fa5ea9"},"vehicle_type_id":"4","last_reported":1774274794,"current_range_meters":7200,"station_id":"ce4bh612rcd13ifvqe6g","pricing_plan_id":"cebpf4jnsgd1na2vs0mg"},{"bike_id":"1055f33d-31b6-473f-8116-1c275bef0912","system_id":"levelo_inurba_marseille","lat":43.24388,"lon":5.3707,"is_reserved":false,"is_disabled":false,"rental_uris":{"android":"levelo://app?vid=1055f33d-31b6-473f-8116-1c275bef0912","ios":"levelo://app?vid=1055f33d-31b6-473f-8116-1c275bef0912"},"vehicle_type_id":"4","last_reported":1774274794,"current_range_meters":7200,"station_id":"ce4bhhh2rcd13ifvqfk0","pricing_plan_id":"cebpf4jnsgd1na2vs0mg"},{"bike_id":"29f49a32-ba08-40ef-839e-89650b416d04","system_id":"levelo_inurba_marseille","lat":43.31054,"lon":5.37887,"is_reserved":false,"is_disabled":false,"rental_uris":{"android":"levelo://app?vid=29f49a32-ba08-40ef-839e-89650b416d04","ios":"levelo://app?vid=29f49a32-ba08-40ef-839e-89650b416d04"},"vehicle_type_id":"4","last_reported":1774274794,"current_range_meters":7200,"station_id":"","pricing_plan_id":"cebpf4jnsgd1na2vs0mg"},{"bike_id":"28de2847-4262-4cb4-9f84-ba188085a534","system_id":"levelo_inurba_marseille","lat":43.29578,"lon":5.37504,"is_reserved":false,"is_disabled":false,"rental_uris":{"android":"levelo://app?vid=28de2847-4262-4cb4-9f84-ba188085a534","ios":"levelo://app?vid=28de2847-4262-4cb4-9f84-ba188085a534"},"vehicle_type_id":"4","last_reported":1774274794,"current_range_meters":7200,"station_id":"ce4bgh92rcd13ifvqb50","pricing_plan_id":"cebpf4jnsgd1na2vs0mg"},{"bike_id":"01408631-542f-4416-b793-8c09827eec32","system_id":"levelo_inurba_marseille","lat":43.29878,"lon":5.3625,"is_reserved":false,"is_disabled":false,"rental_uris":{"android":"levelo://app?vid=01408631-542f-4416-b793-8c09827eec32","ios":"levelo://app?vid=01408631-542f-4416-b793-8c09827eec32"},"vehicle_type_id":"4","last_reported":1774274794,"current_range_meters":7200,"station_id":"ce4bgpp2rcd13ifvqc3g","pricing_plan_id":"cebpf4jnsgd1na2vs0mg"},{"bike_id":"2405430b-043c-4902-843a-b0a78f17e50c","system_id":"levelo_inurba_marseille","lat":43.28281,"lon":5.35079,"is_reserved":false,"is_disabled":false,"rental_uris":{"android":"levelo://app?vid=2405430b-043c-4902-843a-b0a78f17e50c","ios":"levelo://app?vid=2405430b-043c-4902-843a-b0a78f17e50c"},"vehicle_type_id":"4","last_reported":1774274794,"current_range_meters":7200,"station_id":"ce4bhbp2rcd13ifvqerg","pricing_plan_id":"cebpf4jnsgd1na2vs0mg"},{"bike_id":"ffb98fb8-da98-43fb-9eac-ddb2ee1141c2","system_id":"levelo_inurba_marseille","lat":43.24632,"lon":5.41655,"is_reserved":false,"is_disabled":false,"rental_uris":{"android":"levelo://app?vid=ffb98fb8-da98-43fb-9eac-ddb2ee1141c2","ios":"levelo://app?vid=ffb98fb8-da98-43fb-9eac-ddb2ee1141c2"},"vehicle_type_id":"4","last_reported":1774274794,"current_range_meters":7200,"station_id":"","pricing_plan_id":"cebpf4jnsgd1na2vs0mg"},{"bike_id":"57d5ddfe-b0cd-49c8-aa47-fce2350232e5","system_id":"levelo_inurba_marseille","lat":43.23168,"lon":5.43704,"is_reserved":false,"is_disabled":false,"rental_uris":{"android":"levelo://app?vid=57d5ddfe-b0cd-49c8-aa47-fce2350232e5","ios":"levelo://app?vid=57d5ddfe-b0cd-49c8-aa47-fce2350232e5"},"vehicle_type_id":"4","last_reported":1774274794,"current_range_meters":7200,"station_id":"ce4bhmp2rcd13ifvqgog","pricing_plan_id":"cebpf4jnsgd1na2vs0mg"},{"bike_id":"bafc255f-f570-4b03-a1ea-14f1ea1a31cf","system_id":"levelo_inurba_marseille","lat":43.31248,"lon":5.36842,"is_reserved":false,"is_disabled":false,"rental_uris":{"android":"levelo://app?vid=bafc255f-f570-4b03-a1ea-14f1ea1a31cf","ios":"levelo://app?vid=bafc255f-f570-4b03-a1ea-14f1ea1a31cf"},"vehicle_type_id":"4","last_reported":1774274794,"current_range_meters":7200,"station_id":"ce4bgl92rcd13ifvqbq0","pricing_plan_id":"cebpf4jnsgd1na2vs0mg"},{"bike_id":"29b24181-91df-4e68-b435-fd490d64a29c","system_id":"levelo_inurba_marseille","lat":43.30149,"lon":5.37406,"is_reserved":false,"is_disabled":false,"rental_uris":{"android":"levelo://app?vid=29b24181-91df-4e68-b435-fd490d64a29c","ios":"levelo://app?vid=29b24181-91df-4e68-b435-fd490d64a29c"},"vehicle_type_id":"4","last_reported":1774274794,"current_range_meters":7200,"station_id":"ce4bgs92rcd13ifvqcc0","pricing_plan_id":"cebpf4jnsgd1na2vs0mg"},{"bike_id":"59320224-03ff-4fa2-8a28-3304debe9556","system_id":"levelo_inurba_marseille","lat":43.28429,"lon":5.3499,"is_reserved":false,"is_disabled":false,"rental_uris":{"android":"levelo://app?vid=59320224-03ff-4fa2-8a28-3304debe9556","ios":"levelo://app?vid=59320224-03ff-4fa2-8a28-3304debe9556"},"vehicle_type_id":"4","last_reported":1774274794,"current_range_meters":7200,"station_id":"ce4bhbh2rcd13ifvqepg","pricing_plan_id":"cebpf4jnsgd1na2vs0mg"},{"bike_id":"975f548d-0a44-425e-8b97-3d3cfd22ac27","system_id":"levelo_inurba_marseille","lat":43.30148,"lon":5.37398,"is_reserved":false,"is_disabled":false,"rental_uris":{"android":"levelo://app?vid=975f548d-0a44-425e-8b97-3d3cfd22ac27","ios":"levelo://app?vid=975f548d-0a44-425e-8b97-3d3cfd22ac27"},"vehicle_type_id":"4","last_reported":1774274794,"current_range_meters":8000,"station_id":"ce4bgs92rcd13ifvqcc0","pricing_plan_id":"cebpf4jnsgd1na2vs0mg"},{"bike_id":"442602dc-10f1-4816-b4ef-ceb6f51e2d89","system_id":"levelo_inurba_marseille","lat":43.30872,"lon":5.37196,"is_reserved":false,"is_disabled":false,"rental_uris":{"android":"levelo://app?vid=442602dc-10f1-4816-b4ef-ceb6f51e2d89","ios":"levelo://app?vid=442602dc-10f1-4816-b4ef-ceb6f51e2d89"},"vehicle_type_id":"4","last_reported":1774274794,"current_range_meters":8000,"station_id":"ce4bguh2rcd13ifvqckg","pricing_plan_id":"cebpf4jnsgd1na2vs0mg"},{"bike_id":"f554888c-9515-430c-b3e9-327a4cc15db0","system_id":"levelo_inurba_marseille","lat":43.2964,"lon":5.42423,"is_reserved":false,"is_disabled":false,"rental_uris":{"android":"levelo://app?vid=f554888c-9515-430c-b3e9-327a4cc15db0","ios":"levelo://app?vid=f554888c-9515-430c-b3e9-327a4cc15db0"},"vehicle_type_id":"4","last_reported":1774274794,"current_range_meters":8000,"station_id":"","pricing_plan_id":"cebpf4jnsgd1na2vs0mg"},{"bike_id":"4d88734a-162e-4307-92a3-61e5ee7aa63f","system_id":"levelo_inurba_marseille","lat":43.29205,"lon":5.42586,"is_reserved":false,"is_disabled":true,"rental_uris":{"android":"levelo://app?vid=4d88734a-162e-4307-92a3-61e5ee7aa63f","ios":"levelo://app?vid=4d88734a-162e-4307-92a3-61e5ee7aa63f"},"vehicle_type_id":"4","last_reported":1774274794,"current_range_meters":8000,"station_id":"","pricing_plan_id":"cebpf4jnsgd1na2vs0mg"},{"bike_id":"c1af2eca-cb1d-451f-a2e9-025bc5e4557d","system_id":"levelo_inurba_marseille","lat":43.302,"lon":5.366,"is_reserved":false,"is_disabled":false,"rental_uris":{"android":"levelo://app?vid=c1af2eca-cb1d-451f-a2e9-025bc5e4557d","ios":"levelo://app?vid=c1af2eca-cb1d-451f-a2e9-025bc5e4557d"},"vehicle_type_id":"4","last_reported":1774274794,"current_range_meters":8000,"station_id":"ce4bgrh2rcd13ifvqc8g","pricing_plan_id":"cebpf4jnsgd1na2vs0mg"},{"bike_id":"6a361988-483c-4fea-b668-fae45fefb959","system_id":"levelo_inurba_marseille","lat":43.32103,"lon":5.36768,"is_reserved":false,"is_disabled":false,"rental_uris":{"android":"levelo://app?vid=6a361988-483c-4fea-b668-fae45fefb959","ios":"levelo://app?vid=6a361988-483c-4fea-b668-fae45fefb959"},"vehicle_type_id":"4","last_reported":1774274794,"current_range_meters":8400,"station_id":"ce4bhrh2rcd13ifvqhug","pricing_plan_id":"cebpf4jnsgd1na2vs0mg"},{"bike_id":"43c4bfa6-6c82-4610-968a-c5cd906eb9a9","system_id":"levelo_inurba_marseille","lat":43.23151,"lon":5.43738,"is_reserved":false,"is_disabled":false,"rental_uris":{"android":"levelo://app?vid=43c4bfa6-6c82-4610-968a-c5cd906eb9a9","ios":"levelo://app?vid=43c4bfa6-6c82-4610-968a-c5cd906eb9a9"},"vehicle_type_id":"4","last_reported":1774274794,"current_range_meters":8400,"station_id":"ce4bhmp2rcd13ifvqgog","pricing_plan_id":"cebpf4jnsgd1na2vs0mg"},{"bike_id":"aa929685-e4dd-4a31-a1c6-979463fa81a3","system_id":"levelo_inurba_marseille","lat":43.28474,"lon":5.48388,"is_reserved":false,"is_disabled":false,"rental_uris":{"android":"levelo://app?vid=aa929685-e4dd-4a31-a1c6-979463fa81a3","ios":"levelo://app?vid=aa929685-e4dd-4a31-a1c6-979463fa81a3"},"vehicle_type_id":"4","last_reported":1774274794,"current_range_meters":8400,"station_id":"st_d3svhcjqgbts73a3dn0g","pricing_plan_id":"cebpf4jnsgd1na2vs0mg"},{"bike_id":"cc5f70a1-e4c4-4a5f-ab5f-4ddc5d05a881","system_id":"levelo_inurba_marseille","lat":43.28937,"lon":5.3664,"is_reserved":false,"is_disabled":false,"rental_uris":{"android":"levelo://app?vid=cc5f70a1-e4c4-4a5f-ab5f-4ddc5d05a881","ios":"levelo://app?vid=cc5f70a1-e4c4-4a5f-ab5f-4ddc5d05a881"},"vehicle_type_id":"4","last_reported":1774274794,"current_range_meters":8400,"station_id":"ce4bhap2rcd13ifvqek0","pricing_plan_id":"cebpf4jnsgd1na2vs0mg"},{"bike_id":"bbb20be4-a4e3-4756-bf9e-de6efa0abbb9","system_id":"levelo_inurba_marseille","lat":43.29211,"lon":5.42604,"is_reserved":false,"is_disabled":false,"rental_uris":{"android":"levelo://app?vid=bbb20be4-a4e3-4756-bf9e-de6efa0abbb9","ios":"levelo://app?vid=bbb20be4-a4e3-4756-bf9e-de6efa0abbb9"},"vehicle_type_id":"4","last_reported":1774274794,"current_range_meters":8400,"station_id":"","pricing_plan_id":"cebpf4jnsgd1na2vs0mg"},{"bike_id":"c0ede030-ab9a-4615-a9c7-01479ac5ac50","system_id":"levelo_inurba_marseille","lat":43.26695,"lon":5.38259,"is_reserved":false,"is_disabled":true,"rental_uris":{"android":"levelo://app?vid=c0ede030-ab9a-4615-a9c7-01479ac5ac50","ios":"levelo://app?vid=c0ede030-ab9a-4615-a9c7-01479ac5ac50"},"vehicle_type_id":"4","last_reported":1774274794,"current_range_meters":8400,"station_id":"ce4bhg92rcd13ifvqf90","pricing_plan_id":"cebpf4jnsgd1na2vs0mg"},{"bike_id":"a48b6e35-2dba-4c8c-aed8-93640b7bae2c","system_id":"levelo_inurba_marseille","lat":43.31431,"lon":5.36659,"is_reserved":false,"is_disabled":false,"rental_uris":{"android":"levelo://app?vid=a48b6e35-2dba-4c8c-aed8-93640b7bae2c","ios":"levelo://app?vid=a48b6e35-2dba-4c8c-aed8-93640b7bae2c"},"vehicle_type_id":"4","last_reported":1774274794,"current_range_meters":8400,"station_id":"ce4bgr92rcd13ifvqc6g","pricing_plan_id":"cebpf4jnsgd1na2vs0mg"},{"bike_id":"c45739fb-dccf-41d7-9ec4-a0680f0c1260","system_id":"levelo_inurba_marseille","lat":43.30273,"lon":5.3772,"is_reserved":false,"is_disabled":false,"rental_uris":{"android":"levelo://app?vid=c45739fb-dccf-41d7-9ec4-a0680f0c1260","ios":"levelo://app?vid=c45739fb-dccf-41d7-9ec4-a0680f0c1260"},"vehicle_type_id":"4","last_reported":1774274794,"current_range_meters":8400,"station_id":"ce4bguh2rcd13ifvqcj0","pricing_plan_id":"cebpf4jnsgd1na2vs0mg"},{"bike_id":"6979a6fb-10a0-43cf-8c47-6569f8ddef35","system_id":"levelo_inurba_marseille","lat":43.32116,"lon":5.36762,"is_reserved":false,"is_disabled":false,"rental_uris":{"android":"levelo://app?vid=6979a6fb-10a0-43cf-8c47-6569f8ddef35","ios":"levelo://app?vid=6979a6fb-10a0-43cf-8c47-6569f8ddef35"},"vehicle_type_id":"4","last_reported":1774274794,"current_range_meters":8400,"station_id":"ce4bhrh2rcd13ifvqhug","pricing_plan_id":"cebpf4jnsgd1na2vs0mg"},{"bike_id":"87cab354-e36c-4dc9-949d-1832434988fa","system_id":"levelo_inurba_marseille","lat":43.31303,"lon":5.38434,"is_reserved":false,"is_disabled":false,"rental_uris":{"android":"levelo://app?vid=87cab354-e36c-4dc9-949d-1832434988fa","ios":"levelo://app?vid=87cab354-e36c-4dc9-949d-1832434988fa"},"vehicle_type_id":"4","last_reported":1774274794,"current_range_meters":8400,"station_id":"","pricing_plan_id":"cebpf4jnsgd1na2vs0mg"},{"bike_id":"f7bff288-fb05-44d2-9ae0-a739bf98c49d","system_id":"levelo_inurba_marseille","lat":43.28723,"lon":5.3793,"is_reserved":false,"is_disabled":false,"rental_uris":{"android":"levelo://app?vid=f7bff288-fb05-44d2-9ae0-a739bf98c49d","ios":"levelo://app?vid=f7bff288-fb05-44d2-9ae0-a739bf98c49d"},"vehicle_type_id":"4","last_reported":1774274794,"current_range_meters":8400,"station_id":"ce4bh9p2rcd13ifvqec0","pricing_plan_id":"cebpf4jnsgd1na2vs0mg"},{"bike_id":"d7413193-d468-4a6c-a1af-a6ef467e5b96","system_id":"levelo_inurba_marseille","lat":43.27367,"lon":5.36224,"is_reserved":false,"is_disabled":false,"rental_uris":{"android":"levelo://app?vid=d7413193-d468-4a6c-a1af-a6ef467e5b96","ios":"levelo://app?vid=d7413193-d468-4a6c-a1af-a6ef467e5b96"},"vehicle_type_id":"4","last_reported":1774274794,"current_range_meters":8400,"station_id":"ce4bhbh2rcd13ifvqeo0","pricing_plan_id":"cebpf4jnsgd1na2vs0mg"},{"bike_id":"e41c893a-4032-48f3-bf3a-8efcbfe1465c","system_id":"levelo_inurba_marseille","lat":43.25834,"lon":5.39457,"is_reserved":false,"is_disabled":true,"rental_uris":{"android":"levelo://app?vid=e41c893a-4032-48f3-bf3a-8efcbfe1465c","ios":"levelo://app?vid=e41c893a-4032-48f3-bf3a-8efcbfe1465c"},"vehicle_type_id":"4","last_reported":1774274794,"current_range_meters":8800,"station_id":"ce4bhip2rcd13ifvqft0","pricing_plan_id":"cebpf4jnsgd1na2vs0mg"},{"bike_id":"a9fcd02c-7b6b-4ad8-a39d-d88606ee3ac0","system_id":"levelo_inurba_marseille","lat":43.24994,"lon":5.38914,"is_reserved":false,"is_disabled":true,"rental_uris":{"android":"levelo://app?vid=a9fcd02c-7b6b-4ad8-a39d-d88606ee3ac0","ios":"levelo://app?vid=a9fcd02c-7b6b-4ad8-a39d-d88606ee3ac0"},"vehicle_type_id":"4","last_reported":1774274794,"current_range_meters":8800,"station_id":"ce4bhgp2rcd13ifvqfd0","pricing_plan_id":"cebpf4jnsgd1na2vs0mg"},{"bike_id":"1d0f3067-7ca2-4fbd-8b40-b921c6748a4a","system_id":"levelo_inurba_marseille","lat":43.28477,"lon":5.48375,"is_reserved":false,"is_disabled":false,"rental_uris":{"android":"levelo://app?vid=1d0f3067-7ca2-4fbd-8b40-b921c6748a4a","ios":"levelo://app?vid=1d0f3067-7ca2-4fbd-8b40-b921c6748a4a"},"vehicle_type_id":"4","last_reported":1774274794,"current_range_meters":8800,"station_id":"","pricing_plan_id":"cebpf4jnsgd1na2vs0mg"},{"bike_id":"976e595c-88b1-4f7c-a5b9-8ef6bed8c12a","system_id":"levelo_inurba_marseille","lat":43.26366,"lon":5.41074,"is_reserved":false,"is_disabled":false,"rental_uris":{"android":"levelo://app?vid=976e595c-88b1-4f7c-a5b9-8ef6bed8c12a","ios":"levelo://app?vid=976e595c-88b1-4f7c-a5b9-8ef6bed8c12a"},"vehicle_type_id":"4","last_reported":1774274794,"current_range_meters":8800,"station_id":"st_d4e5ca6na9uc73bfl5fg","pricing_plan_id":"cebpf4jnsgd1na2vs0mg"},{"bike_id":"5cca4b32-612b-471f-a02d-66912cbe70ff","system_id":"levelo_inurba_marseille","lat":43.21218,"lon":5.35066,"is_reserved":false,"is_disabled":true,"rental_uris":{"android":"levelo://app?vid=5cca4b32-612b-471f-a02d-66912cbe70ff","ios":"levelo://app?vid=5cca4b32-612b-471f-a02d-66912cbe70ff"},"vehicle_type_id":"4","last_reported":1774274794,"current_range_meters":8800,"station_id":"st_cvj6sg6p6f1abm77japg","pricing_plan_id":"cebpf4jnsgd1na2vs0mg"},{"bike_id":"72999db3-62c4-4d6b-9c7f-3129997c7dc6","system_id":"levelo_inurba_marseille","lat":43.28127,"lon":5.40936,"is_reserved":false,"is_disabled":false,"rental_uris":{"android":"levelo://app?vid=72999db3-62c4-4d6b-9c7f-3129997c7dc6","ios":"levelo://app?vid=72999db3-62c4-4d6b-9c7f-3129997c7dc6"},"vehicle_type_id":"4","last_reported":1774274794,"current_range_meters":8800,"station_id":"","pricing_plan_id":"cebpf4jnsgd1na2vs0mg"},{"bike_id":"3447cb79-bcea-4e0e-a6e2-fb4871ba01b4","system_id":"levelo_inurba_marseille","lat":43.24721,"lon":5.39229,"is_reserved":false,"is_disabled":false,"rental_uris":{"android":"levelo://app?vid=3447cb79-bcea-4e0e-a6e2-fb4871ba01b4","ios":"levelo://app?vid=3447cb79-bcea-4e0e-a6e2-fb4871ba01b4"},"vehicle_type_id":"4","last_reported":1774274794,"current_range_meters":8800,"station_id":"","pricing_plan_id":"cebpf4jnsgd1na2vs0mg"},{"bike_id":"edaa494a-4360-47b4-975b-ccf6d6b743ca","system_id":"levelo_inurba_marseille","lat":43.29597,"lon":5.36532,"is_reserved":false,"is_disabled":false,"rental_uris":{"android":"levelo://app?vid=edaa494a-4360-47b4-975b-ccf6d6b743ca","ios":"levelo://app?vid=edaa494a-4360-47b4-975b-ccf6d6b743ca"},"vehicle_type_id":"4","last_reported":1774274794,"current_range_meters":8800,"station_id":"","pricing_plan_id":"cebpf4jnsgd1na2vs0mg"},{"bike_id":"7c65ede5-43dc-4f72-bd04-324294c0b8ba","system_id":"levelo_inurba_marseille","lat":43.30539,"lon":5.36525,"is_reserved":false,"is_disabled":false,"rental_uris":{"android":"levelo://app?vid=7c65ede5-43dc-4f72-bd04-324294c0b8ba","ios":"levelo://app?vid=7c65ede5-43dc-4f72-bd04-324294c0b8ba"},"vehicle_type_id":"4","last_reported":1774274794,"current_range_meters":8800,"station_id":"ce4bgs12rcd13ifvqcag","pricing_plan_id":"cebpf4jnsgd1na2vs0mg"},{"bike_id":"24ab7281-0bf4-463a-a143-dcdaa71856f9","system_id":"levelo_inurba_marseille","lat":43.27937,"lon":5.41051,"is_reserved":false,"is_disabled":false,"rental_uris":{"android":"levelo://app?vid=24ab7281-0bf4-463a-a143-dcdaa71856f9","ios":"levelo://app?vid=24ab7281-0bf4-463a-a143-dcdaa71856f9"},"vehicle_type_id":"4","last_reported":1774274794,"current_range_meters":8800,"station_id":"ce4bhnp2rcd13ifvqh0g","pricing_plan_id":"cebpf4jnsgd1na2vs0mg"},{"bike_id":"c91442af-0c91-4513-af1e-c80091643b73","system_id":"levelo_inurba_marseille","lat":43.28451,"lon":5.35005,"is_reserved":false,"is_disabled":false,"rental_uris":{"android":"levelo://app?vid=c91442af-0c91-4513-af1e-c80091643b73","ios":"levelo://app?vid=c91442af-0c91-4513-af1e-c80091643b73"},"vehicle_type_id":"4","last_reported":1774274794,"current_range_meters":8800,"station_id":"ce4bhbh2rcd13ifvqepg","pricing_plan_id":"cebpf4jnsgd1na2vs0mg"},{"bike_id":"9462441b-0e85-464b-99b3-472a11cb5162","system_id":"levelo_inurba_marseille","lat":43.29263,"lon":5.36845,"is_reserved":false,"is_disabled":false,"rental_uris":{"android":"levelo://app?vid=9462441b-0e85-464b-99b3-472a11cb5162","ios":"levelo://app?vid=9462441b-0e85-464b-99b3-472a11cb5162"},"vehicle_type_id":"4","last_reported":1774274794,"current_range_meters":8800,"station_id":"ce4bhbp2rcd13ifvqesg","pricing_plan_id":"cebpf4jnsgd1na2vs0mg"},{"bike_id":"d89b1915-483d-4d09-b44a-47b8df915eef","system_id":"levelo_inurba_marseille","lat":43.23064,"lon":5.35468,"is_reserved":false,"is_disabled":false,"rental_uris":{"android":"levelo://app?vid=d89b1915-483d-4d09-b44a-47b8df915eef","ios":"levelo://app?vid=d89b1915-483d-4d09-b44a-47b8df915eef"},"vehicle_type_id":"4","last_reported":1774274794,"current_range_meters":8800,"station_id":"cpo3342slgdg3j2ifvpg","pricing_plan_id":"cebpf4jnsgd1na2vs0mg"},{"bike_id":"be3b8b03-7389-4208-9489-fbe4861781c6","system_id":"levelo_inurba_marseille","lat":43.27624,"lon":5.36079,"is_reserved":false,"is_disabled":false,"rental_uris":{"android":"levelo://app?vid=be3b8b03-7389-4208-9489-fbe4861781c6","ios":"levelo://app?vid=be3b8b03-7389-4208-9489-fbe4861781c6"},"vehicle_type_id":"4","last_reported":1774274794,"current_range_meters":9200,"station_id":"ce4bgj92rcd13ifvqbe0","pricing_plan_id":"cebpf4jnsgd1na2vs0mg"},{"bike_id":"f910acab-e234-4475-91c9-ec3fea6d1bf3","system_id":"levelo_inurba_marseille","lat":43.29896,"lon":5.43663,"is_reserved":false,"is_disabled":false,"rental_uris":{"android":"levelo://app?vid=f910acab-e234-4475-91c9-ec3fea6d1bf3","ios":"levelo://app?vid=f910acab-e234-4475-91c9-ec3fea6d1bf3"},"vehicle_type_id":"4","last_reported":1774274794,"current_range_meters":9200,"station_id":"ce4bhpp2rcd13ifvqhfg","pricing_plan_id":"cebpf4jnsgd1na2vs0mg"},{"bike_id":"cf2307f3-beb6-4a99-80f9-65bcd4665f8b","system_id":"levelo_inurba_marseille","lat":43.30301,"lon":5.36883,"is_reserved":false,"is_disabled":false,"rental_uris":{"android":"levelo://app?vid=cf2307f3-beb6-4a99-80f9-65bcd4665f8b","ios":"levelo://app?vid=cf2307f3-beb6-4a99-80f9-65bcd4665f8b"},"vehicle_type_id":"4","last_reported":1774274794,"current_range_meters":9200,"station_id":"ce4bgqh2rcd13ifvqc5g","pricing_plan_id":"cebpf4jnsgd1na2vs0mg"},{"bike_id":"1b73020e-3386-4ca3-85f1-ebd7d7ea1d5d","system_id":"levelo_inurba_marseille","lat":43.29575,"lon":5.37524,"is_reserved":false,"is_disabled":false,"rental_uris":{"android":"levelo://app?vid=1b73020e-3386-4ca3-85f1-ebd7d7ea1d5d","ios":"levelo://app?vid=1b73020e-3386-4ca3-85f1-ebd7d7ea1d5d"},"vehicle_type_id":"4","last_reported":1774274794,"current_range_meters":9200,"station_id":"ce4bgh92rcd13ifvqb50","pricing_plan_id":"cebpf4jnsgd1na2vs0mg"},{"bike_id":"3f30f2ff-40f2-4f9d-996a-0de8bac95dfa","system_id":"levelo_inurba_marseille","lat":43.26562,"lon":5.37277,"is_reserved":false,"is_disabled":false,"rental_uris":{"android":"levelo://app?vid=3f30f2ff-40f2-4f9d-996a-0de8bac95dfa","ios":"levelo://app?vid=3f30f2ff-40f2-4f9d-996a-0de8bac95dfa"},"vehicle_type_id":"4","last_reported":1774274794,"current_range_meters":9200,"station_id":"ce4bhg12rcd13ifvqf70","pricing_plan_id":"cebpf4jnsgd1na2vs0mg"},{"bike_id":"0688a972-c07e-436f-a650-cd184ab189cc","system_id":"levelo_inurba_marseille","lat":43.32116,"lon":5.36771,"is_reserved":false,"is_disabled":false,"rental_uris":{"android":"levelo://app?vid=0688a972-c07e-436f-a650-cd184ab189cc","ios":"levelo://app?vid=0688a972-c07e-436f-a650-cd184ab189cc"},"vehicle_type_id":"4","last_reported":1774274794,"current_range_meters":9200,"station_id":"ce4bhrh2rcd13ifvqhug","pricing_plan_id":"cebpf4jnsgd1na2vs0mg"},{"bike_id":"6c31d7d4-4709-430d-a910-9a97c2562f8b","system_id":"levelo_inurba_marseille","lat":43.2993,"lon":5.3654,"is_reserved":false,"is_disabled":false,"rental_uris":{"android":"levelo://app?vid=6c31d7d4-4709-430d-a910-9a97c2562f8b","ios":"levelo://app?vid=6c31d7d4-4709-430d-a910-9a97c2562f8b"},"vehicle_type_id":"4","last_reported":1774274794,"current_range_meters":9200,"station_id":"ce4bgm92rcd13ifvqbr0","pricing_plan_id":"cebpf4jnsgd1na2vs0mg"},{"bike_id":"6806958b-1fd1-4ffd-8eae-67d26ec6b81d","system_id":"levelo_inurba_marseille","lat":43.28704,"lon":5.37917,"is_reserved":false,"is_disabled":false,"rental_uris":{"android":"levelo://app?vid=6806958b-1fd1-4ffd-8eae-67d26ec6b81d","ios":"levelo://app?vid=6806958b-1fd1-4ffd-8eae-67d26ec6b81d"},"vehicle_type_id":"4","last_reported":1774274794,"current_range_meters":9200,"station_id":"ce4bh9p2rcd13ifvqec0","pricing_plan_id":"cebpf4jnsgd1na2vs0mg"},{"bike_id":"975a2a7b-aa6f-4d16-9904-55b6dd9035bc","system_id":"levelo_inurba_marseille","lat":43.30146,"lon":5.38097,"is_reserved":false,"is_disabled":false,"rental_uris":{"android":"levelo://app?vid=975a2a7b-aa6f-4d16-9904-55b6dd9035bc","ios":"levelo://app?vid=975a2a7b-aa6f-4d16-9904-55b6dd9035bc"},"vehicle_type_id":"4","last_reported":1774274794,"current_range_meters":9200,"station_id":"ce4bgjp2rcd13ifvqbh0","pricing_plan_id":"cebpf4jnsgd1na2vs0mg"},{"bike_id":"6421968e-f213-4684-9a04-75e8f728c12c","system_id":"levelo_inurba_marseille","lat":43.27496,"lon":5.42454,"is_reserved":false,"is_disabled":false,"rental_uris":{"android":"levelo://app?vid=6421968e-f213-4684-9a04-75e8f728c12c","ios":"levelo://app?vid=6421968e-f213-4684-9a04-75e8f728c12c"},"vehicle_type_id":"4","last_reported":1774274794,"current_range_meters":9600,"station_id":"","pricing_plan_id":"cebpf4jnsgd1na2vs0mg"},{"bike_id":"4ac59074-4e17-4e51-bea9-b466148225de","system_id":"levelo_inurba_marseille","lat":43.23782,"lon":5.36637,"is_reserved":false,"is_disabled":false,"rental_uris":{"android":"levelo://app?vid=4ac59074-4e17-4e51-bea9-b466148225de","ios":"levelo://app?vid=4ac59074-4e17-4e51-bea9-b466148225de"},"vehicle_type_id":"4","last_reported":1774274794,"current_range_meters":9600,"station_id":"st_d3nk18o9ro0c73en2l3g","pricing_plan_id":"cebpf4jnsgd1na2vs0mg"},{"bike_id":"0b786319-6d9f-4d1c-890a-5150198e272a","system_id":"levelo_inurba_marseille","lat":43.28486,"lon":5.48387,"is_reserved":false,"is_disabled":false,"rental_uris":{"android":"levelo://app?vid=0b786319-6d9f-4d1c-890a-5150198e272a","ios":"levelo://app?vid=0b786319-6d9f-4d1c-890a-5150198e272a"},"vehicle_type_id":"4","last_reported":1774274794,"current_range_meters":9600,"station_id":"st_d3svhcjqgbts73a3dn0g","pricing_plan_id":"cebpf4jnsgd1na2vs0mg"},{"bike_id":"113bdd0b-34d4-40b5-8f93-c39528d91365","system_id":"levelo_inurba_marseille","lat":43.29565,"lon":5.37521,"is_reserved":false,"is_disabled":false,"rental_uris":{"android":"levelo://app?vid=113bdd0b-34d4-40b5-8f93-c39528d91365","ios":"levelo://app?vid=113bdd0b-34d4-40b5-8f93-c39528d91365"},"vehicle_type_id":"4","last_reported":1774274794,"current_range_meters":9600,"station_id":"ce4bgh92rcd13ifvqb50","pricing_plan_id":"cebpf4jnsgd1na2vs0mg"},{"bike_id":"efc0a0af-be66-4cb2-ac5a-8462289738e0","system_id":"levelo_inurba_marseille","lat":43.30122,"lon":5.3744,"is_reserved":false,"is_disabled":false,"rental_uris":{"android":"levelo://app?vid=efc0a0af-be66-4cb2-ac5a-8462289738e0","ios":"levelo://app?vid=efc0a0af-be66-4cb2-ac5a-8462289738e0"},"vehicle_type_id":"4","last_reported":1774274794,"current_range_meters":9600,"station_id":"ce4bgs92rcd13ifvqcc0","pricing_plan_id":"cebpf4jnsgd1na2vs0mg"},{"bike_id":"7e03e45c-d69c-4371-8267-aa26cde43729","system_id":"levelo_inurba_marseille","lat":43.25593,"lon":5.38213,"is_reserved":false,"is_disabled":true,"rental_uris":{"android":"levelo://app?vid=7e03e45c-d69c-4371-8267-aa26cde43729","ios":"levelo://app?vid=7e03e45c-d69c-4371-8267-aa26cde43729"},"vehicle_type_id":"4","last_reported":1774274794,"current_range_meters":9600,"station_id":"ce4bhih2rcd13ifvqfs0","pricing_plan_id":"cebpf4jnsgd1na2vs0mg"},{"bike_id":"6711ca2b-9a4e-46b1-892e-1007cc2a656e","system_id":"levelo_inurba_marseille","lat":43.28557,"lon":5.44137,"is_reserved":false,"is_disabled":false,"rental_uris":{"android":"levelo://app?vid=6711ca2b-9a4e-46b1-892e-1007cc2a656e","ios":"levelo://app?vid=6711ca2b-9a4e-46b1-892e-1007cc2a656e"},"vehicle_type_id":"4","last_reported":1774274794,"current_range_meters":9600,"station_id":"st_d3j3df2ikq2c7380ej80","pricing_plan_id":"cebpf4jnsgd1na2vs0mg"},{"bike_id":"e474409e-429f-4de3-baf9-efa036a6308a","system_id":"levelo_inurba_marseille","lat":43.23067,"lon":5.40514,"is_reserved":false,"is_disabled":false,"rental_uris":{"android":"levelo://app?vid=e474409e-429f-4de3-baf9-efa036a6308a","ios":"levelo://app?vid=e474409e-429f-4de3-baf9-efa036a6308a"},"vehicle_type_id":"4","last_reported":1774274794,"current_range_meters":9600,"station_id":"","pricing_plan_id":"cebpf4jnsgd1na2vs0mg"},{"bike_id":"6bfa4cdb-d2b0-4a7b-8999-2712f6764326","system_id":"levelo_inurba_marseille","lat":43.27562,"lon":5.38447,"is_reserved":false,"is_disabled":false,"rental_uris":{"android":"levelo://app?vid=6bfa4cdb-d2b0-4a7b-8999-2712f6764326","ios":"levelo://app?vid=6bfa4cdb-d2b0-4a7b-8999-2712f6764326"},"vehicle_type_id":"4","last_reported":1774274794,"current_range_meters":9600,"station_id":"ce4bhh92rcd13ifvqfi0","pricing_plan_id":"cebpf4jnsgd1na2vs0mg"},{"bike_id":"d5820d71-385f-498d-8744-6cec2b743aa4","system_id":"levelo_inurba_marseille","lat":43.28667,"lon":5.36347,"is_reserved":false,"is_disabled":false,"rental_uris":{"android":"levelo://app?vid=d5820d71-385f-498d-8744-6cec2b743aa4","ios":"levelo://app?vid=d5820d71-385f-498d-8744-6cec2b743aa4"},"vehicle_type_id":"4","last_reported":1774274794,"current_range_meters":9600,"station_id":"ce4bhah2rcd13ifvqej0","pricing_plan_id":"cebpf4jnsgd1na2vs0mg"},{"bike_id":"ec1f0639-98bb-4301-bf6a-13e89c5e2ccc","system_id":"levelo_inurba_marseille","lat":43.31353,"lon":5.3671,"is_reserved":false,"is_disabled":false,"rental_uris":{"android":"levelo://app?vid=ec1f0639-98bb-4301-bf6a-13e89c5e2ccc","ios":"levelo://app?vid=ec1f0639-98bb-4301-bf6a-13e89c5e2ccc"},"vehicle_type_id":"4","last_reported":1774274794,"current_range_meters":9600,"station_id":"ce4bgr92rcd13ifvqc6g","pricing_plan_id":"cebpf4jnsgd1na2vs0mg"},{"bike_id":"301d2ddd-8d0e-4858-b628-0981a10864f9","system_id":"levelo_inurba_marseille","lat":43.3052,"lon":5.36705,"is_reserved":false,"is_disabled":false,"rental_uris":{"android":"levelo://app?vid=301d2ddd-8d0e-4858-b628-0981a10864f9","ios":"levelo://app?vid=301d2ddd-8d0e-4858-b628-0981a10864f9"},"vehicle_type_id":"4","last_reported":1774274794,"current_range_meters":10000,"station_id":"ce4bgrp2rcd13ifvqc9g","pricing_plan_id":"cebpf4jnsgd1na2vs0mg"},{"bike_id":"7d57cb77-2191-40c3-b57a-baa532486115","system_id":"levelo_inurba_marseille","lat":43.26559,"lon":5.39015,"is_reserved":false,"is_disabled":false,"rental_uris":{"android":"levelo://app?vid=7d57cb77-2191-40c3-b57a-baa532486115","ios":"levelo://app?vid=7d57cb77-2191-40c3-b57a-baa532486115"},"vehicle_type_id":"4","last_reported":1774274794,"current_range_meters":10000,"station_id":"ce4bhe12rcd13ifvqf30","pricing_plan_id":"cebpf4jnsgd1na2vs0mg"},{"bike_id":"2e406f8f-79cd-4b08-8e08-c323b1501012","system_id":"levelo_inurba_marseille","lat":43.25001,"lon":5.38921,"is_reserved":false,"is_disabled":false,"rental_uris":{"android":"levelo://app?vid=2e406f8f-79cd-4b08-8e08-c323b1501012","ios":"levelo://app?vid=2e406f8f-79cd-4b08-8e08-c323b1501012"},"vehicle_type_id":"4","last_reported":1774274794,"current_range_meters":10000,"station_id":"ce4bhgp2rcd13ifvqfd0","pricing_plan_id":"cebpf4jnsgd1na2vs0mg"},{"bike_id":"da96e62c-aa8b-4584-b620-7915e0492349","system_id":"levelo_inurba_marseille","lat":43.28424,"lon":5.3499,"is_reserved":false,"is_disabled":false,"rental_uris":{"android":"levelo://app?vid=da96e62c-aa8b-4584-b620-7915e0492349","ios":"levelo://app?vid=da96e62c-aa8b-4584-b620-7915e0492349"},"vehicle_type_id":"4","last_reported":1774274794,"current_range_meters":10000,"station_id":"ce4bhbh2rcd13ifvqepg","pricing_plan_id":"cebpf4jnsgd1na2vs0mg"},{"bike_id":"b4bd60d6-d657-4d29-a6ad-eb404614cc16","system_id":"levelo_inurba_marseille","lat":43.28694,"lon":5.35176,"is_reserved":false,"is_disabled":false,"rental_uris":{"android":"levelo://app?vid=b4bd60d6-d657-4d29-a6ad-eb404614cc16","ios":"levelo://app?vid=b4bd60d6-d657-4d29-a6ad-eb404614cc16"},"vehicle_type_id":"4","last_reported":1774274794,"current_range_meters":10000,"station_id":"","pricing_plan_id":"cebpf4jnsgd1na2vs0mg"},{"bike_id":"fe8e1776-23e6-434b-9926-01da350d60eb","system_id":"levelo_inurba_marseille","lat":43.25072,"lon":5.39503,"is_reserved":false,"is_disabled":true,"rental_uris":{"android":"levelo://app?vid=fe8e1776-23e6-434b-9926-01da350d60eb","ios":"levelo://app?vid=fe8e1776-23e6-434b-9926-01da350d60eb"},"vehicle_type_id":"4","last_reported":1774274794,"current_range_meters":10000,"station_id":"ce4bhm12rcd13ifvqgkg","pricing_plan_id":"cebpf4jnsgd1na2vs0mg"},{"bike_id":"85b0c865-3b37-4612-ab79-849d51747436","system_id":"levelo_inurba_marseille","lat":43.30149,"lon":5.38093,"is_reserved":false,"is_disabled":false,"rental_uris":{"android":"levelo://app?vid=85b0c865-3b37-4612-ab79-849d51747436","ios":"levelo://app?vid=85b0c865-3b37-4612-ab79-849d51747436"},"vehicle_type_id":"4","last_reported":1774274794,"current_range_meters":10000,"station_id":"ce4bgjp2rcd13ifvqbh0","pricing_plan_id":"cebpf4jnsgd1na2vs0mg"},{"bike_id":"34626e01-cc86-4c92-b6b2-0a10b25993e7","system_id":"levelo_inurba_marseille","lat":43.2862,"lon":5.35111,"is_reserved":false,"is_disabled":true,"rental_uris":{"android":"levelo://app?vid=34626e01-cc86-4c92-b6b2-0a10b25993e7","ios":"levelo://app?vid=34626e01-cc86-4c92-b6b2-0a10b25993e7"},"vehicle_type_id":"4","last_reported":1774274794,"current_range_meters":10000,"station_id":"ce4bhch2rcd13ifvqeug","pricing_plan_id":"cebpf4jnsgd1na2vs0mg"},{"bike_id":"b23ed836-5431-4366-84b0-2e085523fd6e","system_id":"levelo_inurba_marseille","lat":43.290362,"lon":5.399634,"is_reserved":false,"is_disabled":false,"rental_uris":{"android":"levelo://app?vid=b23ed836-5431-4366-84b0-2e085523fd6e","ios":"levelo://app?vid=b23ed836-5431-4366-84b0-2e085523fd6e"},"vehicle_type_id":"4","last_reported":1774274794,"current_range_meters":10000,"station_id":"ce4bh392rcd13ifvqdm0","pricing_plan_id":"cebpf4jnsgd1na2vs0mg"},{"bike_id":"60982929-b9b3-4d8a-b265-1e012ad09b52","system_id":"levelo_inurba_marseille","lat":43.28467,"lon":5.384058,"is_reserved":false,"is_disabled":false,"rental_uris":{"android":"levelo://app?vid=60982929-b9b3-4d8a-b265-1e012ad09b52","ios":"levelo://app?vid=60982929-b9b3-4d8a-b265-1e012ad09b52"},"vehicle_type_id":"4","last_reported":1774274794,"current_range_meters":10000,"station_id":"ce4bh512rcd13ifvqe3g","pricing_plan_id":"cebpf4jnsgd1na2vs0mg"},{"bike_id":"aaa1d136-1c1c-44f1-bc66-e2e631aac66d","system_id":"levelo_inurba_marseille","lat":43.23209,"lon":5.43701,"is_reserved":false,"is_disabled":false,"rental_uris":{"android":"levelo://app?vid=aaa1d136-1c1c-44f1-bc66-e2e631aac66d","ios":"levelo://app?vid=aaa1d136-1c1c-44f1-bc66-e2e631aac66d"},"vehicle_type_id":"4","last_reported":1774274794,"current_range_meters":10000,"station_id":"ce4bhmp2rcd13ifvqgog","pricing_plan_id":"cebpf4jnsgd1na2vs0mg"},{"bike_id":"e1a2de70-f1d7-4751-9927-907e0161e07b","system_id":"levelo_inurba_marseille","lat":43.24558,"lon":5.39535,"is_reserved":false,"is_disabled":false,"rental_uris":{"android":"levelo://app?vid=e1a2de70-f1d7-4751-9927-907e0161e07b","ios":"levelo://app?vid=e1a2de70-f1d7-4751-9927-907e0161e07b"},"vehicle_type_id":"4","last_reported":1774274794,"current_range_meters":10000,"station_id":"ce4bhlp2rcd13ifvqgjg","pricing_plan_id":"cebpf4jnsgd1na2vs0mg"},{"bike_id":"19f1add8-fb4d-4df2-9f34-3abb6a2112fe","system_id":"levelo_inurba_marseille","lat":43.2119,"lon":5.3508,"is_reserved":false,"is_disabled":false,"rental_uris":{"android":"levelo://app?vid=19f1add8-fb4d-4df2-9f34-3abb6a2112fe","ios":"levelo://app?vid=19f1add8-fb4d-4df2-9f34-3abb6a2112fe"},"vehicle_type_id":"4","last_reported":1774274794,"current_range_meters":10000,"station_id":"st_cvj6sg6p6f1abm77japg","pricing_plan_id":"cebpf4jnsgd1na2vs0mg"},{"bike_id":"4dff7f75-9dd0-46fc-b3b7-8ff5fb0ae744","system_id":"levelo_inurba_marseille","lat":43.31346,"lon":5.36713,"is_reserved":false,"is_disabled":false,"rental_uris":{"android":"levelo://app?vid=4dff7f75-9dd0-46fc-b3b7-8ff5fb0ae744","ios":"levelo://app?vid=4dff7f75-9dd0-46fc-b3b7-8ff5fb0ae744"},"vehicle_type_id":"4","last_reported":1774274794,"current_range_meters":10000,"station_id":"ce4bgr92rcd13ifvqc6g","pricing_plan_id":"cebpf4jnsgd1na2vs0mg"},{"bike_id":"40906df4-17dd-4d9f-ac1f-0880c5eb117e","system_id":"levelo_inurba_marseille","lat":43.32374,"lon":5.36779,"is_reserved":false,"is_disabled":false,"rental_uris":{"android":"levelo://app?vid=40906df4-17dd-4d9f-ac1f-0880c5eb117e","ios":"levelo://app?vid=40906df4-17dd-4d9f-ac1f-0880c5eb117e"},"vehicle_type_id":"4","last_reported":1774274794,"current_range_meters":10800,"station_id":"ce4bhsh2rcd13ifvqi2g","pricing_plan_id":"cebpf4jnsgd1na2vs0mg"},{"bike_id":"c2e508d0-913d-45f9-b60c-93ac3091d4d6","system_id":"levelo_inurba_marseille","lat":43.27837,"lon":5.39209,"is_reserved":false,"is_disabled":false,"rental_uris":{"android":"levelo://app?vid=c2e508d0-913d-45f9-b60c-93ac3091d4d6","ios":"levelo://app?vid=c2e508d0-913d-45f9-b60c-93ac3091d4d6"},"vehicle_type_id":"4","last_reported":1774274794,"current_range_meters":10800,"station_id":"ce4bhjp2rcd13ifvqga0","pricing_plan_id":"cebpf4jnsgd1na2vs0mg"},{"bike_id":"445a363e-6635-4c6f-9d9b-6ed1d223c4e8","system_id":"levelo_inurba_marseille","lat":43.29562,"lon":5.43898,"is_reserved":false,"is_disabled":false,"rental_uris":{"android":"levelo://app?vid=445a363e-6635-4c6f-9d9b-6ed1d223c4e8","ios":"levelo://app?vid=445a363e-6635-4c6f-9d9b-6ed1d223c4e8"},"vehicle_type_id":"4","last_reported":1774274794,"current_range_meters":10800,"station_id":"","pricing_plan_id":"cebpf4jnsgd1na2vs0mg"},{"bike_id":"0532bc68-6e09-4402-b669-047c6d5ea80b","system_id":"levelo_inurba_marseille","lat":43.30529,"lon":5.36703,"is_reserved":false,"is_disabled":false,"rental_uris":{"android":"levelo://app?vid=0532bc68-6e09-4402-b669-047c6d5ea80b","ios":"levelo://app?vid=0532bc68-6e09-4402-b669-047c6d5ea80b"},"vehicle_type_id":"4","last_reported":1774274794,"current_range_meters":10800,"station_id":"ce4bgrp2rcd13ifvqc9g","pricing_plan_id":"cebpf4jnsgd1na2vs0mg"},{"bike_id":"0de4abda-ae87-42f1-bce5-00a4443362c2","system_id":"levelo_inurba_marseille","lat":43.32331,"lon":5.38521,"is_reserved":false,"is_disabled":false,"rental_uris":{"android":"levelo://app?vid=0de4abda-ae87-42f1-bce5-00a4443362c2","ios":"levelo://app?vid=0de4abda-ae87-42f1-bce5-00a4443362c2"},"vehicle_type_id":"4","last_reported":1774274794,"current_range_meters":10800,"station_id":"st_d45171o9ee8s73djdqug","pricing_plan_id":"cebpf4jnsgd1na2vs0mg"},{"bike_id":"4ce98637-072f-4197-bd69-11f207a88eab","system_id":"levelo_inurba_marseille","lat":43.28496,"lon":5.47279,"is_reserved":false,"is_disabled":false,"rental_uris":{"android":"levelo://app?vid=4ce98637-072f-4197-bd69-11f207a88eab","ios":"levelo://app?vid=4ce98637-072f-4197-bd69-11f207a88eab"},"vehicle_type_id":"4","last_reported":1774274794,"current_range_meters":10800,"station_id":"","pricing_plan_id":"cebpf4jnsgd1na2vs0mg"},{"bike_id":"6c32829a-41ef-439a-b504-bf101b38fd1b","system_id":"levelo_inurba_marseille","lat":43.24635,"lon":5.38894,"is_reserved":false,"is_disabled":false,"rental_uris":{"android":"levelo://app?vid=6c32829a-41ef-439a-b504-bf101b38fd1b","ios":"levelo://app?vid=6c32829a-41ef-439a-b504-bf101b38fd1b"},"vehicle_type_id":"4","last_reported":1774274794,"current_range_meters":10800,"station_id":"ce4bhg12rcd13ifvqf60","pricing_plan_id":"cebpf4jnsgd1na2vs0mg"},{"bike_id":"54fc2238-65ed-40dd-920a-fb1da6715acf","system_id":"levelo_inurba_marseille","lat":43.28842,"lon":5.35861,"is_reserved":false,"is_disabled":false,"rental_uris":{"android":"levelo://app?vid=54fc2238-65ed-40dd-920a-fb1da6715acf","ios":"levelo://app?vid=54fc2238-65ed-40dd-920a-fb1da6715acf"},"vehicle_type_id":"4","last_reported":1774274794,"current_range_meters":10800,"station_id":"ce4bhb12rcd13ifvqem0","pricing_plan_id":"cebpf4jnsgd1na2vs0mg"},{"bike_id":"bc8433fb-2ae3-4f65-a681-78d9ea89d90e","system_id":"levelo_inurba_marseille","lat":43.23902,"lon":5.37456,"is_reserved":false,"is_disabled":false,"rental_uris":{"android":"levelo://app?vid=bc8433fb-2ae3-4f65-a681-78d9ea89d90e","ios":"levelo://app?vid=bc8433fb-2ae3-4f65-a681-78d9ea89d90e"},"vehicle_type_id":"4","last_reported":1774274794,"current_range_meters":10800,"station_id":"st_d6sm7csbq4hs73f8fpjg","pricing_plan_id":"cebpf4jnsgd1na2vs0mg"},{"bike_id":"3509dda1-5cc9-4d0c-9d50-c39ab99018f7","system_id":"levelo_inurba_marseille","lat":43.24807,"lon":5.37457,"is_reserved":false,"is_disabled":false,"rental_uris":{"android":"levelo://app?vid=3509dda1-5cc9-4d0c-9d50-c39ab99018f7","ios":"levelo://app?vid=3509dda1-5cc9-4d0c-9d50-c39ab99018f7"},"vehicle_type_id":"4","last_reported":1774274794,"current_range_meters":10800,"station_id":"ce4bhgh2rcd13ifvqfb0","pricing_plan_id":"cebpf4jnsgd1na2vs0mg"},{"bike_id":"9f8ae27b-f8d2-4ed8-858a-6d9ca53a6000","system_id":"levelo_inurba_marseille","lat":43.30421,"lon":5.37198,"is_reserved":false,"is_disabled":false,"rental_uris":{"android":"levelo://app?vid=9f8ae27b-f8d2-4ed8-858a-6d9ca53a6000","ios":"levelo://app?vid=9f8ae27b-f8d2-4ed8-858a-6d9ca53a6000"},"vehicle_type_id":"4","last_reported":1774274794,"current_range_meters":10800,"station_id":"","pricing_plan_id":"cebpf4jnsgd1na2vs0mg"},{"bike_id":"22198e4c-05a9-4135-822e-fed3eb0a0767","system_id":"levelo_inurba_marseille","lat":43.24018,"lon":5.36252,"is_reserved":false,"is_disabled":false,"rental_uris":{"android":"levelo://app?vid=22198e4c-05a9-4135-822e-fed3eb0a0767","ios":"levelo://app?vid=22198e4c-05a9-4135-822e-fed3eb0a0767"},"vehicle_type_id":"4","last_reported":1774274794,"current_range_meters":10800,"station_id":"","pricing_plan_id":"cebpf4jnsgd1na2vs0mg"},{"bike_id":"f3dccb27-25f8-415f-8a8c-207408b72398","system_id":"levelo_inurba_marseille","lat":43.32067,"lon":5.36755,"is_reserved":false,"is_disabled":false,"rental_uris":{"android":"levelo://app?vid=f3dccb27-25f8-415f-8a8c-207408b72398","ios":"levelo://app?vid=f3dccb27-25f8-415f-8a8c-207408b72398"},"vehicle_type_id":"4","last_reported":1774274794,"current_range_meters":10800,"station_id":"ce4bhrh2rcd13ifvqhug","pricing_plan_id":"cebpf4jnsgd1na2vs0mg"},{"bike_id":"a4d13c21-cc82-48ee-8869-dc6716cabfef","system_id":"levelo_inurba_marseille","lat":43.2655,"lon":5.40336,"is_reserved":false,"is_disabled":false,"rental_uris":{"android":"levelo://app?vid=a4d13c21-cc82-48ee-8869-dc6716cabfef","ios":"levelo://app?vid=a4d13c21-cc82-48ee-8869-dc6716cabfef"},"vehicle_type_id":"4","last_reported":1774274794,"current_range_meters":10800,"station_id":"ce4bhmp2rcd13ifvqgng","pricing_plan_id":"cebpf4jnsgd1na2vs0mg"},{"bike_id":"8d8566de-f03a-4e5e-aa8c-ad2e3c17ab03","system_id":"levelo_inurba_marseille","lat":43.31558,"lon":5.37299,"is_reserved":false,"is_disabled":false,"rental_uris":{"android":"levelo://app?vid=8d8566de-f03a-4e5e-aa8c-ad2e3c17ab03","ios":"levelo://app?vid=8d8566de-f03a-4e5e-aa8c-ad2e3c17ab03"},"vehicle_type_id":"4","last_reported":1774274794,"current_range_meters":10800,"station_id":"","pricing_plan_id":"cebpf4jnsgd1na2vs0mg"},{"bike_id":"1206b80d-08df-4dbc-999c-48aabe775d89","system_id":"levelo_inurba_marseille","lat":43.30301,"lon":5.44957,"is_reserved":false,"is_disabled":false,"rental_uris":{"android":"levelo://app?vid=1206b80d-08df-4dbc-999c-48aabe775d89","ios":"levelo://app?vid=1206b80d-08df-4dbc-999c-48aabe775d89"},"vehicle_type_id":"4","last_reported":1774274794,"current_range_meters":10800,"station_id":"","pricing_plan_id":"cebpf4jnsgd1na2vs0mg"},{"bike_id":"2ad78ba9-fa9c-45b1-9aaa-5aa50345ef16","system_id":"levelo_inurba_marseille","lat":43.25959,"lon":5.40919,"is_reserved":false,"is_disabled":false,"rental_uris":{"android":"levelo://app?vid=2ad78ba9-fa9c-45b1-9aaa-5aa50345ef16","ios":"levelo://app?vid=2ad78ba9-fa9c-45b1-9aaa-5aa50345ef16"},"vehicle_type_id":"4","last_reported":1774274794,"current_range_meters":10800,"station_id":"ce4bhm92rcd13ifvqglg","pricing_plan_id":"cebpf4jnsgd1na2vs0mg"},{"bike_id":"a14d2edd-85c5-4116-8db5-355e3fb2ddbe","system_id":"levelo_inurba_marseille","lat":43.33544,"lon":5.37457,"is_reserved":false,"is_disabled":false,"rental_uris":{"android":"levelo://app?vid=a14d2edd-85c5-4116-8db5-355e3fb2ddbe","ios":"levelo://app?vid=a14d2edd-85c5-4116-8db5-355e3fb2ddbe"},"vehicle_type_id":"4","last_reported":1774274794,"current_range_meters":11200,"station_id":"st_d46tts09ee8s73dlu43g","pricing_plan_id":"cebpf4jnsgd1na2vs0mg"},{"bike_id":"efe811b6-5e10-4e8c-9e59-a484522fb832","system_id":"levelo_inurba_marseille","lat":43.25575,"lon":5.38221,"is_reserved":false,"is_disabled":false,"rental_uris":{"android":"levelo://app?vid=efe811b6-5e10-4e8c-9e59-a484522fb832","ios":"levelo://app?vid=efe811b6-5e10-4e8c-9e59-a484522fb832"},"vehicle_type_id":"4","last_reported":1774274794,"current_range_meters":11200,"station_id":"ce4bhih2rcd13ifvqfs0","pricing_plan_id":"cebpf4jnsgd1na2vs0mg"},{"bike_id":"2f5b6265-483e-47d4-831c-32860cec290b","system_id":"levelo_inurba_marseille","lat":43.29572,"lon":5.42278,"is_reserved":false,"is_disabled":false,"rental_uris":{"android":"levelo://app?vid=2f5b6265-483e-47d4-831c-32860cec290b","ios":"levelo://app?vid=2f5b6265-483e-47d4-831c-32860cec290b"},"vehicle_type_id":"4","last_reported":1774274794,"current_range_meters":11200,"station_id":"ce4bhph2rcd13ifvqhdg","pricing_plan_id":"cebpf4jnsgd1na2vs0mg"},{"bike_id":"ba3022d7-e9b1-41e9-87b5-e8d444428181","system_id":"levelo_inurba_marseille","lat":43.2999,"lon":5.37156,"is_reserved":false,"is_disabled":false,"rental_uris":{"android":"levelo://app?vid=ba3022d7-e9b1-41e9-87b5-e8d444428181","ios":"levelo://app?vid=ba3022d7-e9b1-41e9-87b5-e8d444428181"},"vehicle_type_id":"4","last_reported":1774274794,"current_range_meters":11200,"station_id":"ce4bgr92rcd13ifvqc7g","pricing_plan_id":"cebpf4jnsgd1na2vs0mg"},{"bike_id":"9cb34e84-1b74-4241-8870-add80f2596d4","system_id":"levelo_inurba_marseille","lat":43.29272,"lon":5.36838,"is_reserved":false,"is_disabled":false,"rental_uris":{"android":"levelo://app?vid=9cb34e84-1b74-4241-8870-add80f2596d4","ios":"levelo://app?vid=9cb34e84-1b74-4241-8870-add80f2596d4"},"vehicle_type_id":"4","last_reported":1774274794,"current_range_meters":11200,"station_id":"ce4bhbp2rcd13ifvqesg","pricing_plan_id":"cebpf4jnsgd1na2vs0mg"},{"bike_id":"b157ab3f-64f1-4f00-bc92-7e7c942b3142","system_id":"levelo_inurba_marseille","lat":43.29601,"lon":5.38096,"is_reserved":false,"is_disabled":false,"rental_uris":{"android":"levelo://app?vid=b157ab3f-64f1-4f00-bc92-7e7c942b3142","ios":"levelo://app?vid=b157ab3f-64f1-4f00-bc92-7e7c942b3142"},"vehicle_type_id":"4","last_reported":1774274794,"current_range_meters":11200,"station_id":"ce4bgl12rcd13ifvqbo0","pricing_plan_id":"cebpf4jnsgd1na2vs0mg"},{"bike_id":"03de066e-76f7-4061-86fd-4299f0e7442e","system_id":"levelo_inurba_marseille","lat":43.2316,"lon":5.43703,"is_reserved":false,"is_disabled":false,"rental_uris":{"android":"levelo://app?vid=03de066e-76f7-4061-86fd-4299f0e7442e","ios":"levelo://app?vid=03de066e-76f7-4061-86fd-4299f0e7442e"},"vehicle_type_id":"4","last_reported":1774274794,"current_range_meters":11200,"station_id":"ce4bhmp2rcd13ifvqgog","pricing_plan_id":"cebpf4jnsgd1na2vs0mg"},{"bike_id":"af7c1f9c-314f-45cf-a27e-b868a4e0f9c3","system_id":"levelo_inurba_marseille","lat":43.26584,"lon":5.39023,"is_reserved":false,"is_disabled":false,"rental_uris":{"android":"levelo://app?vid=af7c1f9c-314f-45cf-a27e-b868a4e0f9c3","ios":"levelo://app?vid=af7c1f9c-314f-45cf-a27e-b868a4e0f9c3"},"vehicle_type_id":"4","last_reported":1774274794,"current_range_meters":11200,"station_id":"ce4bhe12rcd13ifvqf30","pricing_plan_id":"cebpf4jnsgd1na2vs0mg"},{"bike_id":"295d2fa8-4106-478d-8168-0961e395cea1","system_id":"levelo_inurba_marseille","lat":43.26797,"lon":5.39417,"is_reserved":false,"is_disabled":true,"rental_uris":{"android":"levelo://app?vid=295d2fa8-4106-478d-8168-0961e395cea1","ios":"levelo://app?vid=295d2fa8-4106-478d-8168-0961e395cea1"},"vehicle_type_id":"4","last_reported":1774274794,"current_range_meters":11200,"station_id":"ce4bhh12rcd13ifvqfg0","pricing_plan_id":"cebpf4jnsgd1na2vs0mg"},{"bike_id":"71c8c3d8-08f5-4b44-8aae-3a00fb864ea5","system_id":"levelo_inurba_marseille","lat":43.27368,"lon":5.36258,"is_reserved":false,"is_disabled":false,"rental_uris":{"android":"levelo://app?vid=71c8c3d8-08f5-4b44-8aae-3a00fb864ea5","ios":"levelo://app?vid=71c8c3d8-08f5-4b44-8aae-3a00fb864ea5"},"vehicle_type_id":"4","last_reported":1774274794,"current_range_meters":11600,"station_id":"ce4bhbh2rcd13ifvqeo0","pricing_plan_id":"cebpf4jnsgd1na2vs0mg"},{"bike_id":"0e2f4137-e82a-401c-945f-6a1c7c098239","system_id":"levelo_inurba_marseille","lat":43.29618,"lon":5.37142,"is_reserved":false,"is_disabled":false,"rental_uris":{"android":"levelo://app?vid=0e2f4137-e82a-401c-945f-6a1c7c098239","ios":"levelo://app?vid=0e2f4137-e82a-401c-945f-6a1c7c098239"},"vehicle_type_id":"4","last_reported":1774274794,"current_range_meters":11600,"station_id":"ce4bgnh2rcd13ifvqc0g","pricing_plan_id":"cebpf4jnsgd1na2vs0mg"},{"bike_id":"b75036ac-d81d-4bfd-a9c8-a051a6ff39fe","system_id":"levelo_inurba_marseille","lat":43.28529,"lon":5.44126,"is_reserved":false,"is_disabled":false,"rental_uris":{"android":"levelo://app?vid=b75036ac-d81d-4bfd-a9c8-a051a6ff39fe","ios":"levelo://app?vid=b75036ac-d81d-4bfd-a9c8-a051a6ff39fe"},"vehicle_type_id":"4","last_reported":1774274794,"current_range_meters":11600,"station_id":"st_d3j3df2ikq2c7380ej80","pricing_plan_id":"cebpf4jnsgd1na2vs0mg"},{"bike_id":"66a43d55-32c7-48fb-b013-3d7574d12857","system_id":"levelo_inurba_marseille","lat":43.25025,"lon":5.38918,"is_reserved":false,"is_disabled":true,"rental_uris":{"android":"levelo://app?vid=66a43d55-32c7-48fb-b013-3d7574d12857","ios":"levelo://app?vid=66a43d55-32c7-48fb-b013-3d7574d12857"},"vehicle_type_id":"4","last_reported":1774274794,"current_range_meters":11600,"station_id":"ce4bhgp2rcd13ifvqfd0","pricing_plan_id":"cebpf4jnsgd1na2vs0mg"},{"bike_id":"17b6291a-b600-49d3-9437-0d985b9a42cc","system_id":"levelo_inurba_marseille","lat":43.30293,"lon":5.36905,"is_reserved":false,"is_disabled":false,"rental_uris":{"android":"levelo://app?vid=17b6291a-b600-49d3-9437-0d985b9a42cc","ios":"levelo://app?vid=17b6291a-b600-49d3-9437-0d985b9a42cc"},"vehicle_type_id":"4","last_reported":1774274794,"current_range_meters":11600,"station_id":"ce4bgqh2rcd13ifvqc5g","pricing_plan_id":"cebpf4jnsgd1na2vs0mg"},{"bike_id":"22a24422-8367-44e3-afc2-fd1672c2c7f5","system_id":"levelo_inurba_marseille","lat":43.28477,"lon":5.48402,"is_reserved":false,"is_disabled":false,"rental_uris":{"android":"levelo://app?vid=22a24422-8367-44e3-afc2-fd1672c2c7f5","ios":"levelo://app?vid=22a24422-8367-44e3-afc2-fd1672c2c7f5"},"vehicle_type_id":"4","last_reported":1774274794,"current_range_meters":11600,"station_id":"","pricing_plan_id":"cebpf4jnsgd1na2vs0mg"},{"bike_id":"72a4ed40-f962-4ef9-a01a-18c26a261328","system_id":"levelo_inurba_marseille","lat":43.29269,"lon":5.38435,"is_reserved":false,"is_disabled":false,"rental_uris":{"android":"levelo://app?vid=72a4ed40-f962-4ef9-a01a-18c26a261328","ios":"levelo://app?vid=72a4ed40-f962-4ef9-a01a-18c26a261328"},"vehicle_type_id":"4","last_reported":1774274794,"current_range_meters":11600,"station_id":"ce4bh692rcd13ifvqea0","pricing_plan_id":"cebpf4jnsgd1na2vs0mg"},{"bike_id":"5b04a8eb-740f-490b-a007-53c597dc6ddc","system_id":"levelo_inurba_marseille","lat":43.30556,"lon":5.36532,"is_reserved":false,"is_disabled":false,"rental_uris":{"android":"levelo://app?vid=5b04a8eb-740f-490b-a007-53c597dc6ddc","ios":"levelo://app?vid=5b04a8eb-740f-490b-a007-53c597dc6ddc"},"vehicle_type_id":"4","last_reported":1774274794,"current_range_meters":11600,"station_id":"ce4bgs12rcd13ifvqcag","pricing_plan_id":"cebpf4jnsgd1na2vs0mg"},{"bike_id":"1f8c8a7f-0f89-4cf5-8193-2c9a963a4141","system_id":"levelo_inurba_marseille","lat":43.3037,"lon":5.42484,"is_reserved":false,"is_disabled":false,"rental_uris":{"android":"levelo://app?vid=1f8c8a7f-0f89-4cf5-8193-2c9a963a4141","ios":"levelo://app?vid=1f8c8a7f-0f89-4cf5-8193-2c9a963a4141"},"vehicle_type_id":"4","last_reported":1774274794,"current_range_meters":11600,"station_id":"ce4bhoh2rcd13ifvqh6g","pricing_plan_id":"cebpf4jnsgd1na2vs0mg"},{"bike_id":"e728902b-0750-4aff-a658-79c61d2e143f","system_id":"levelo_inurba_marseille","lat":43.27901,"lon":5.38002,"is_reserved":false,"is_disabled":false,"rental_uris":{"android":"levelo://app?vid=e728902b-0750-4aff-a658-79c61d2e143f","ios":"levelo://app?vid=e728902b-0750-4aff-a658-79c61d2e143f"},"vehicle_type_id":"4","last_reported":1774274794,"current_range_meters":11600,"station_id":"ce4bhf92rcd13ifvqf50","pricing_plan_id":"cebpf4jnsgd1na2vs0mg"},{"bike_id":"55002b28-cac1-496f-87cb-e76a1c95a797","system_id":"levelo_inurba_marseille","lat":43.25581,"lon":5.3823,"is_reserved":false,"is_disabled":false,"rental_uris":{"android":"levelo://app?vid=55002b28-cac1-496f-87cb-e76a1c95a797","ios":"levelo://app?vid=55002b28-cac1-496f-87cb-e76a1c95a797"},"vehicle_type_id":"4","last_reported":1774274794,"current_range_meters":11600,"station_id":"ce4bhih2rcd13ifvqfs0","pricing_plan_id":"cebpf4jnsgd1na2vs0mg"},{"bike_id":"0881c3cc-006e-4597-9a12-6b0919cc6705","system_id":"levelo_inurba_marseille","lat":43.30322,"lon":5.4043,"is_reserved":false,"is_disabled":false,"rental_uris":{"android":"levelo://app?vid=0881c3cc-006e-4597-9a12-6b0919cc6705","ios":"levelo://app?vid=0881c3cc-006e-4597-9a12-6b0919cc6705"},"vehicle_type_id":"4","last_reported":1774274794,"current_range_meters":11600,"station_id":"ce4bh012rcd13ifvqd10","pricing_plan_id":"cebpf4jnsgd1na2vs0mg"},{"bike_id":"ae25c178-686a-43ce-ae07-1b59231f18bf","system_id":"levelo_inurba_marseille","lat":43.28106,"lon":5.37838,"is_reserved":false,"is_disabled":false,"rental_uris":{"android":"levelo://app?vid=ae25c178-686a-43ce-ae07-1b59231f18bf","ios":"levelo://app?vid=ae25c178-686a-43ce-ae07-1b59231f18bf"},"vehicle_type_id":"4","last_reported":1774274794,"current_range_meters":11600,"station_id":"ce4bha12rcd13ifvqee0","pricing_plan_id":"cebpf4jnsgd1na2vs0mg"},{"bike_id":"cbe143e8-3e8d-46c8-8239-3389a4661d28","system_id":"levelo_inurba_marseille","lat":43.30307,"lon":5.36928,"is_reserved":false,"is_disabled":false,"rental_uris":{"android":"levelo://app?vid=cbe143e8-3e8d-46c8-8239-3389a4661d28","ios":"levelo://app?vid=cbe143e8-3e8d-46c8-8239-3389a4661d28"},"vehicle_type_id":"4","last_reported":1774274794,"current_range_meters":11600,"station_id":"ce4bgqh2rcd13ifvqc5g","pricing_plan_id":"cebpf4jnsgd1na2vs0mg"},{"bike_id":"66d1c56e-1efe-4b3f-8746-4917f9c5b623","system_id":"levelo_inurba_marseille","lat":43.27514,"lon":5.41587,"is_reserved":false,"is_disabled":false,"rental_uris":{"android":"levelo://app?vid=66d1c56e-1efe-4b3f-8746-4917f9c5b623","ios":"levelo://app?vid=66d1c56e-1efe-4b3f-8746-4917f9c5b623"},"vehicle_type_id":"4","last_reported":1774274794,"current_range_meters":11600,"station_id":"st_d6im8g6chgec73a5pndg","pricing_plan_id":"cebpf4jnsgd1na2vs0mg"},{"bike_id":"c72b7fd2-e680-4892-b230-2090babbdf59","system_id":"levelo_inurba_marseille","lat":43.31376,"lon":5.40401,"is_reserved":false,"is_disabled":false,"rental_uris":{"android":"levelo://app?vid=c72b7fd2-e680-4892-b230-2090babbdf59","ios":"levelo://app?vid=c72b7fd2-e680-4892-b230-2090babbdf59"},"vehicle_type_id":"4","last_reported":1774274794,"current_range_meters":11600,"station_id":"","pricing_plan_id":"cebpf4jnsgd1na2vs0mg"},{"bike_id":"ee24469e-968d-470b-ae80-cc00532bc587","system_id":"levelo_inurba_marseille","lat":43.28244,"lon":5.38158,"is_reserved":false,"is_disabled":false,"rental_uris":{"android":"levelo://app?vid=ee24469e-968d-470b-ae80-cc00532bc587","ios":"levelo://app?vid=ee24469e-968d-470b-ae80-cc00532bc587"},"vehicle_type_id":"4","last_reported":1774274794,"current_range_meters":11600,"station_id":"","pricing_plan_id":"cebpf4jnsgd1na2vs0mg"},{"bike_id":"43bd9f61-7579-47d3-86b0-f7694257f2c4","system_id":"levelo_inurba_marseille","lat":43.23352,"lon":5.41267,"is_reserved":false,"is_disabled":false,"rental_uris":{"android":"levelo://app?vid=43bd9f61-7579-47d3-86b0-f7694257f2c4","ios":"levelo://app?vid=43bd9f61-7579-47d3-86b0-f7694257f2c4"},"vehicle_type_id":"4","last_reported":1774274794,"current_range_meters":11600,"station_id":"","pricing_plan_id":"cebpf4jnsgd1na2vs0mg"},{"bike_id":"5016f481-c4f2-49ee-b195-5a686f3fce52","system_id":"levelo_inurba_marseille","lat":43.288522,"lon":5.358479,"is_reserved":false,"is_disabled":true,"rental_uris":{"android":"levelo://app?vid=5016f481-c4f2-49ee-b195-5a686f3fce52","ios":"levelo://app?vid=5016f481-c4f2-49ee-b195-5a686f3fce52"},"vehicle_type_id":"4","last_reported":1774274794,"current_range_meters":12000,"station_id":"","pricing_plan_id":"cebpf4jnsgd1na2vs0mg"},{"bike_id":"1f79b281-4c7e-42fd-85e8-6ac2f2c6e346","system_id":"levelo_inurba_marseille","lat":43.21196,"lon":5.35057,"is_reserved":false,"is_disabled":false,"rental_uris":{"android":"levelo://app?vid=1f79b281-4c7e-42fd-85e8-6ac2f2c6e346","ios":"levelo://app?vid=1f79b281-4c7e-42fd-85e8-6ac2f2c6e346"},"vehicle_type_id":"4","last_reported":1774274794,"current_range_meters":12000,"station_id":"st_cvj6sg6p6f1abm77japg","pricing_plan_id":"cebpf4jnsgd1na2vs0mg"},{"bike_id":"6b8acac9-ccf3-4647-89ff-89fbb46b6df8","system_id":"levelo_inurba_marseille","lat":43.30338,"lon":5.45121,"is_reserved":false,"is_disabled":false,"rental_uris":{"android":"levelo://app?vid=6b8acac9-ccf3-4647-89ff-89fbb46b6df8","ios":"levelo://app?vid=6b8acac9-ccf3-4647-89ff-89fbb46b6df8"},"vehicle_type_id":"4","last_reported":1774274794,"current_range_meters":12000,"station_id":"","pricing_plan_id":"cebpf4jnsgd1na2vs0mg"},{"bike_id":"183348e9-6325-4132-a1d2-c6c8953f0406","system_id":"levelo_inurba_marseille","lat":43.29628,"lon":5.37168,"is_reserved":false,"is_disabled":false,"rental_uris":{"android":"levelo://app?vid=183348e9-6325-4132-a1d2-c6c8953f0406","ios":"levelo://app?vid=183348e9-6325-4132-a1d2-c6c8953f0406"},"vehicle_type_id":"4","last_reported":1774274794,"current_range_meters":12000,"station_id":"ce4bgnh2rcd13ifvqc0g","pricing_plan_id":"cebpf4jnsgd1na2vs0mg"},{"bike_id":"66071a2b-b2ee-4a77-b65d-976f06c79310","system_id":"levelo_inurba_marseille","lat":43.26381,"lon":5.41047,"is_reserved":false,"is_disabled":false,"rental_uris":{"android":"levelo://app?vid=66071a2b-b2ee-4a77-b65d-976f06c79310","ios":"levelo://app?vid=66071a2b-b2ee-4a77-b65d-976f06c79310"},"vehicle_type_id":"4","last_reported":1774274794,"current_range_meters":12000,"station_id":"st_d4e5ca6na9uc73bfl5fg","pricing_plan_id":"cebpf4jnsgd1na2vs0mg"},{"bike_id":"96e579ec-159d-4d4a-81b0-fe699969cb15","system_id":"levelo_inurba_marseille","lat":43.27623,"lon":5.36118,"is_reserved":false,"is_disabled":true,"rental_uris":{"android":"levelo://app?vid=96e579ec-159d-4d4a-81b0-fe699969cb15","ios":"levelo://app?vid=96e579ec-159d-4d4a-81b0-fe699969cb15"},"vehicle_type_id":"4","last_reported":1774274794,"current_range_meters":12000,"station_id":"ce4bgj92rcd13ifvqbe0","pricing_plan_id":"cebpf4jnsgd1na2vs0mg"},{"bike_id":"dde1dbfb-e70d-4813-b697-741013778048","system_id":"levelo_inurba_marseille","lat":43.28379,"lon":5.38649,"is_reserved":false,"is_disabled":false,"rental_uris":{"android":"levelo://app?vid=dde1dbfb-e70d-4813-b697-741013778048","ios":"levelo://app?vid=dde1dbfb-e70d-4813-b697-741013778048"},"vehicle_type_id":"4","last_reported":1774274794,"current_range_meters":12000,"station_id":"ce4bh492rcd13ifvqdvg","pricing_plan_id":"cebpf4jnsgd1na2vs0mg"},{"bike_id":"2d04b8fe-81f5-4f60-9ece-d11e6301f2d4","system_id":"levelo_inurba_marseille","lat":43.31338,"lon":5.36716,"is_reserved":false,"is_disabled":false,"rental_uris":{"android":"levelo://app?vid=2d04b8fe-81f5-4f60-9ece-d11e6301f2d4","ios":"levelo://app?vid=2d04b8fe-81f5-4f60-9ece-d11e6301f2d4"},"vehicle_type_id":"4","last_reported":1774274794,"current_range_meters":12000,"station_id":"ce4bgr92rcd13ifvqc6g","pricing_plan_id":"cebpf4jnsgd1na2vs0mg"},{"bike_id":"d8697872-e884-425a-8c11-57f8ae2606bc","system_id":"levelo_inurba_marseille","lat":43.23177,"lon":5.39938,"is_reserved":false,"is_disabled":false,"rental_uris":{"android":"levelo://app?vid=d8697872-e884-425a-8c11-57f8ae2606bc","ios":"levelo://app?vid=d8697872-e884-425a-8c11-57f8ae2606bc"},"vehicle_type_id":"4","last_reported":1774274794,"current_range_meters":12000,"station_id":"","pricing_plan_id":"cebpf4jnsgd1na2vs0mg"},{"bike_id":"cbc13bed-2faf-4d9d-acf7-d0a72ea331e3","system_id":"levelo_inurba_marseille","lat":43.23146,"lon":5.43721,"is_reserved":false,"is_disabled":false,"rental_uris":{"android":"levelo://app?vid=cbc13bed-2faf-4d9d-acf7-d0a72ea331e3","ios":"levelo://app?vid=cbc13bed-2faf-4d9d-acf7-d0a72ea331e3"},"vehicle_type_id":"4","last_reported":1774274794,"current_range_meters":12000,"station_id":"ce4bhmp2rcd13ifvqgog","pricing_plan_id":"cebpf4jnsgd1na2vs0mg"},{"bike_id":"12fa34e7-96ae-4548-9aaa-c6d3e3fe6ed1","system_id":"levelo_inurba_marseille","lat":43.29921,"lon":5.37481,"is_reserved":false,"is_disabled":false,"rental_uris":{"android":"levelo://app?vid=12fa34e7-96ae-4548-9aaa-c6d3e3fe6ed1","ios":"levelo://app?vid=12fa34e7-96ae-4548-9aaa-c6d3e3fe6ed1"},"vehicle_type_id":"4","last_reported":1774274794,"current_range_meters":12000,"station_id":"ce4bgjh2rcd13ifvqbg0","pricing_plan_id":"cebpf4jnsgd1na2vs0mg"},{"bike_id":"992d461f-8839-4086-b27a-9edc1d38b03d","system_id":"levelo_inurba_marseille","lat":43.33595,"lon":5.3748,"is_reserved":false,"is_disabled":false,"rental_uris":{"android":"levelo://app?vid=992d461f-8839-4086-b27a-9edc1d38b03d","ios":"levelo://app?vid=992d461f-8839-4086-b27a-9edc1d38b03d"},"vehicle_type_id":"4","last_reported":1774274794,"current_range_meters":12400,"station_id":"st_d46tts09ee8s73dlu43g","pricing_plan_id":"cebpf4jnsgd1na2vs0mg"},{"bike_id":"bf5af6f8-69a5-4b76-be3f-994c76781739","system_id":"levelo_inurba_marseille","lat":43.26564,"lon":5.39105,"is_reserved":false,"is_disabled":true,"rental_uris":{"android":"levelo://app?vid=bf5af6f8-69a5-4b76-be3f-994c76781739","ios":"levelo://app?vid=bf5af6f8-69a5-4b76-be3f-994c76781739"},"vehicle_type_id":"4","last_reported":1774274794,"current_range_meters":12400,"station_id":"","pricing_plan_id":"cebpf4jnsgd1na2vs0mg"},{"bike_id":"fdd8bf84-b2fe-4508-9572-06ea662fa5ac","system_id":"levelo_inurba_marseille","lat":43.28473,"lon":5.48401,"is_reserved":false,"is_disabled":false,"rental_uris":{"android":"levelo://app?vid=fdd8bf84-b2fe-4508-9572-06ea662fa5ac","ios":"levelo://app?vid=fdd8bf84-b2fe-4508-9572-06ea662fa5ac"},"vehicle_type_id":"4","last_reported":1774274794,"current_range_meters":12400,"station_id":"","pricing_plan_id":"cebpf4jnsgd1na2vs0mg"},{"bike_id":"31bd256c-38bb-4ecf-8181-1f2f2df47c08","system_id":"levelo_inurba_marseille","lat":43.30148,"lon":5.40212,"is_reserved":false,"is_disabled":false,"rental_uris":{"android":"levelo://app?vid=31bd256c-38bb-4ecf-8181-1f2f2df47c08","ios":"levelo://app?vid=31bd256c-38bb-4ecf-8181-1f2f2df47c08"},"vehicle_type_id":"4","last_reported":1774274794,"current_range_meters":12400,"station_id":"","pricing_plan_id":"cebpf4jnsgd1na2vs0mg"},{"bike_id":"066cfe81-714d-4a28-ba8d-e13baf5bbb1b","system_id":"levelo_inurba_marseille","lat":43.27266,"lon":5.41147,"is_reserved":false,"is_disabled":false,"rental_uris":{"android":"levelo://app?vid=066cfe81-714d-4a28-ba8d-e13baf5bbb1b","ios":"levelo://app?vid=066cfe81-714d-4a28-ba8d-e13baf5bbb1b"},"vehicle_type_id":"4","last_reported":1774274794,"current_range_meters":12400,"station_id":"","pricing_plan_id":"cebpf4jnsgd1na2vs0mg"},{"bike_id":"c541e326-3321-4970-9883-196de5d90d81","system_id":"levelo_inurba_marseille","lat":43.31251,"lon":5.3686,"is_reserved":false,"is_disabled":false,"rental_uris":{"android":"levelo://app?vid=c541e326-3321-4970-9883-196de5d90d81","ios":"levelo://app?vid=c541e326-3321-4970-9883-196de5d90d81"},"vehicle_type_id":"4","last_reported":1774274794,"current_range_meters":12400,"station_id":"ce4bgl92rcd13ifvqbq0","pricing_plan_id":"cebpf4jnsgd1na2vs0mg"},{"bike_id":"62c0eda8-c666-40c1-b62d-71242266f316","system_id":"levelo_inurba_marseille","lat":43.28445,"lon":5.39182,"is_reserved":false,"is_disabled":true,"rental_uris":{"android":"levelo://app?vid=62c0eda8-c666-40c1-b62d-71242266f316","ios":"levelo://app?vid=62c0eda8-c666-40c1-b62d-71242266f316"},"vehicle_type_id":"4","last_reported":1774274794,"current_range_meters":12400,"station_id":"ce4bhoh2rcd13ifvqh5g","pricing_plan_id":"cebpf4jnsgd1na2vs0mg"},{"bike_id":"eceefa3d-623a-481f-9ab2-bcdfe4c4a278","system_id":"levelo_inurba_marseille","lat":43.29565,"lon":5.37512,"is_reserved":false,"is_disabled":false,"rental_uris":{"android":"levelo://app?vid=eceefa3d-623a-481f-9ab2-bcdfe4c4a278","ios":"levelo://app?vid=eceefa3d-623a-481f-9ab2-bcdfe4c4a278"},"vehicle_type_id":"4","last_reported":1774274794,"current_range_meters":12400,"station_id":"ce4bgh92rcd13ifvqb50","pricing_plan_id":"cebpf4jnsgd1na2vs0mg"},{"bike_id":"3726ac00-dd73-4b60-bb77-4e9a58b37fd0","system_id":"levelo_inurba_marseille","lat":43.32347,"lon":5.38507,"is_reserved":false,"is_disabled":false,"rental_uris":{"android":"levelo://app?vid=3726ac00-dd73-4b60-bb77-4e9a58b37fd0","ios":"levelo://app?vid=3726ac00-dd73-4b60-bb77-4e9a58b37fd0"},"vehicle_type_id":"4","last_reported":1774274794,"current_range_meters":12400,"station_id":"st_d45171o9ee8s73djdqug","pricing_plan_id":"cebpf4jnsgd1na2vs0mg"},{"bike_id":"dda4eca0-e41a-40cb-b038-debfe38320d1","system_id":"levelo_inurba_marseille","lat":43.26212,"lon":5.37931,"is_reserved":false,"is_disabled":false,"rental_uris":{"android":"levelo://app?vid=dda4eca0-e41a-40cb-b038-debfe38320d1","ios":"levelo://app?vid=dda4eca0-e41a-40cb-b038-debfe38320d1"},"vehicle_type_id":"4","last_reported":1774274794,"current_range_meters":12400,"station_id":"ce4bhjp2rcd13ifvqg90","pricing_plan_id":"cebpf4jnsgd1na2vs0mg"},{"bike_id":"1cdfd698-fca5-4c14-b74a-38da770d2284","system_id":"levelo_inurba_marseille","lat":43.30148,"lon":5.37399,"is_reserved":false,"is_disabled":false,"rental_uris":{"android":"levelo://app?vid=1cdfd698-fca5-4c14-b74a-38da770d2284","ios":"levelo://app?vid=1cdfd698-fca5-4c14-b74a-38da770d2284"},"vehicle_type_id":"4","last_reported":1774274794,"current_range_meters":12400,"station_id":"ce4bgs92rcd13ifvqcc0","pricing_plan_id":"cebpf4jnsgd1na2vs0mg"},{"bike_id":"2af3c2a2-d91c-471d-bf42-b8f25f9dbda1","system_id":"levelo_inurba_marseille","lat":43.27074,"lon":5.42262,"is_reserved":false,"is_disabled":false,"rental_uris":{"android":"levelo://app?vid=2af3c2a2-d91c-471d-bf42-b8f25f9dbda1","ios":"levelo://app?vid=2af3c2a2-d91c-471d-bf42-b8f25f9dbda1"},"vehicle_type_id":"4","last_reported":1774274794,"current_range_meters":12400,"station_id":"ce4bhk92rcd13ifvqgb0","pricing_plan_id":"cebpf4jnsgd1na2vs0mg"},{"bike_id":"3982cb64-3eea-4a7f-9ebb-b438f25566af","system_id":"levelo_inurba_marseille","lat":43.2951,"lon":5.37513,"is_reserved":false,"is_disabled":false,"rental_uris":{"android":"levelo://app?vid=3982cb64-3eea-4a7f-9ebb-b438f25566af","ios":"levelo://app?vid=3982cb64-3eea-4a7f-9ebb-b438f25566af"},"vehicle_type_id":"4","last_reported":1774274794,"current_range_meters":12400,"station_id":"ce4bgkp2rcd13ifvqbmg","pricing_plan_id":"cebpf4jnsgd1na2vs0mg"},{"bike_id":"263c6668-bba1-43cc-8727-742e3b633d6c","system_id":"levelo_inurba_marseille","lat":43.28507,"lon":5.38423,"is_reserved":false,"is_disabled":false,"rental_uris":{"android":"levelo://app?vid=263c6668-bba1-43cc-8727-742e3b633d6c","ios":"levelo://app?vid=263c6668-bba1-43cc-8727-742e3b633d6c"},"vehicle_type_id":"4","last_reported":1774274794,"current_range_meters":12400,"station_id":"ce4bh512rcd13ifvqe3g","pricing_plan_id":"cebpf4jnsgd1na2vs0mg"},{"bike_id":"b9d157e4-adb0-4d64-b93d-349f42c39fcf","system_id":"levelo_inurba_marseille","lat":43.31899,"lon":5.36807,"is_reserved":false,"is_disabled":false,"rental_uris":{"android":"levelo://app?vid=b9d157e4-adb0-4d64-b93d-349f42c39fcf","ios":"levelo://app?vid=b9d157e4-adb0-4d64-b93d-349f42c39fcf"},"vehicle_type_id":"4","last_reported":1774274794,"current_range_meters":12400,"station_id":"st_d6o2h0d0559c73evc1b0","pricing_plan_id":"cebpf4jnsgd1na2vs0mg"},{"bike_id":"c4ff773a-4e9e-40b6-b03b-981141115039","system_id":"levelo_inurba_marseille","lat":43.26934,"lon":5.40262,"is_reserved":false,"is_disabled":false,"rental_uris":{"android":"levelo://app?vid=c4ff773a-4e9e-40b6-b03b-981141115039","ios":"levelo://app?vid=c4ff773a-4e9e-40b6-b03b-981141115039"},"vehicle_type_id":"4","last_reported":1774274794,"current_range_meters":12800,"station_id":"cjm6bp8fraef2m0cb0m0","pricing_plan_id":"cebpf4jnsgd1na2vs0mg"},{"bike_id":"b8d7a02a-f8e6-461d-88a3-e73fba899271","system_id":"levelo_inurba_marseille","lat":43.21747,"lon":5.3461,"is_reserved":false,"is_disabled":true,"rental_uris":{"android":"levelo://app?vid=b8d7a02a-f8e6-461d-88a3-e73fba899271","ios":"levelo://app?vid=b8d7a02a-f8e6-461d-88a3-e73fba899271"},"vehicle_type_id":"4","last_reported":1774274794,"current_range_meters":12800,"station_id":"st_cvj6r9ubvosntc0bgbag","pricing_plan_id":"cebpf4jnsgd1na2vs0mg"},{"bike_id":"96c604cf-95fa-4003-bdbd-ae5192c5241f","system_id":"levelo_inurba_marseille","lat":43.26685,"lon":5.38277,"is_reserved":false,"is_disabled":false,"rental_uris":{"android":"levelo://app?vid=96c604cf-95fa-4003-bdbd-ae5192c5241f","ios":"levelo://app?vid=96c604cf-95fa-4003-bdbd-ae5192c5241f"},"vehicle_type_id":"4","last_reported":1774274794,"current_range_meters":12800,"station_id":"ce4bhg92rcd13ifvqf90","pricing_plan_id":"cebpf4jnsgd1na2vs0mg"},{"bike_id":"489b1f47-9bf9-4f10-90f5-3b4dff230700","system_id":"levelo_inurba_marseille","lat":43.23789,"lon":5.3663,"is_reserved":false,"is_disabled":false,"rental_uris":{"android":"levelo://app?vid=489b1f47-9bf9-4f10-90f5-3b4dff230700","ios":"levelo://app?vid=489b1f47-9bf9-4f10-90f5-3b4dff230700"},"vehicle_type_id":"4","last_reported":1774274794,"current_range_meters":12800,"station_id":"st_d3nk18o9ro0c73en2l3g","pricing_plan_id":"cebpf4jnsgd1na2vs0mg"},{"bike_id":"d7eb40f6-bedd-4c01-8e33-e6c12bd4ec6c","system_id":"levelo_inurba_marseille","lat":43.2439,"lon":5.37054,"is_reserved":false,"is_disabled":false,"rental_uris":{"android":"levelo://app?vid=d7eb40f6-bedd-4c01-8e33-e6c12bd4ec6c","ios":"levelo://app?vid=d7eb40f6-bedd-4c01-8e33-e6c12bd4ec6c"},"vehicle_type_id":"4","last_reported":1774274794,"current_range_meters":12800,"station_id":"ce4bhhh2rcd13ifvqfk0","pricing_plan_id":"cebpf4jnsgd1na2vs0mg"},{"bike_id":"7f33fd24-d0ae-4cd4-b1c2-5c694f67de34","system_id":"levelo_inurba_marseille","lat":43.29132,"lon":5.37313,"is_reserved":false,"is_disabled":false,"rental_uris":{"android":"levelo://app?vid=7f33fd24-d0ae-4cd4-b1c2-5c694f67de34","ios":"levelo://app?vid=7f33fd24-d0ae-4cd4-b1c2-5c694f67de34"},"vehicle_type_id":"4","last_reported":1774274794,"current_range_meters":12800,"station_id":"","pricing_plan_id":"cebpf4jnsgd1na2vs0mg"},{"bike_id":"82c6f61d-18bb-4520-ad67-568c6aae714e","system_id":"levelo_inurba_marseille","lat":43.33539,"lon":5.37473,"is_reserved":false,"is_disabled":false,"rental_uris":{"android":"levelo://app?vid=82c6f61d-18bb-4520-ad67-568c6aae714e","ios":"levelo://app?vid=82c6f61d-18bb-4520-ad67-568c6aae714e"},"vehicle_type_id":"4","last_reported":1774274794,"current_range_meters":13600,"station_id":"st_d46tts09ee8s73dlu43g","pricing_plan_id":"cebpf4jnsgd1na2vs0mg"},{"bike_id":"ac24a9d9-845e-4e69-a74d-abe73857aca3","system_id":"levelo_inurba_marseille","lat":43.24481,"lon":5.42776,"is_reserved":false,"is_disabled":false,"rental_uris":{"android":"levelo://app?vid=ac24a9d9-845e-4e69-a74d-abe73857aca3","ios":"levelo://app?vid=ac24a9d9-845e-4e69-a74d-abe73857aca3"},"vehicle_type_id":"4","last_reported":1774274794,"current_range_meters":13600,"station_id":"","pricing_plan_id":"cebpf4jnsgd1na2vs0mg"},{"bike_id":"ce88997e-1fb3-46ed-8e74-71ab221438f9","system_id":"levelo_inurba_marseille","lat":43.24649,"lon":5.38872,"is_reserved":false,"is_disabled":true,"rental_uris":{"android":"levelo://app?vid=ce88997e-1fb3-46ed-8e74-71ab221438f9","ios":"levelo://app?vid=ce88997e-1fb3-46ed-8e74-71ab221438f9"},"vehicle_type_id":"4","last_reported":1774274794,"current_range_meters":13600,"station_id":"ce4bhg12rcd13ifvqf60","pricing_plan_id":"cebpf4jnsgd1na2vs0mg"},{"bike_id":"b8d6e643-2031-4104-a8e6-014e98872b29","system_id":"levelo_inurba_marseille","lat":43.23786,"lon":5.36636,"is_reserved":false,"is_disabled":false,"rental_uris":{"android":"levelo://app?vid=b8d6e643-2031-4104-a8e6-014e98872b29","ios":"levelo://app?vid=b8d6e643-2031-4104-a8e6-014e98872b29"},"vehicle_type_id":"4","last_reported":1774274794,"current_range_meters":13600,"station_id":"st_d3nk18o9ro0c73en2l3g","pricing_plan_id":"cebpf4jnsgd1na2vs0mg"},{"bike_id":"81afbade-9b61-4865-965d-d9c81a599521","system_id":"levelo_inurba_marseille","lat":43.23777,"lon":5.36645,"is_reserved":false,"is_disabled":false,"rental_uris":{"android":"levelo://app?vid=81afbade-9b61-4865-965d-d9c81a599521","ios":"levelo://app?vid=81afbade-9b61-4865-965d-d9c81a599521"},"vehicle_type_id":"4","last_reported":1774274794,"current_range_meters":13600,"station_id":"st_d3nk18o9ro0c73en2l3g","pricing_plan_id":"cebpf4jnsgd1na2vs0mg"},{"bike_id":"a649a58b-1775-43ad-b6b9-f0d09c914995","system_id":"levelo_inurba_marseille","lat":43.28421,"lon":5.34984,"is_reserved":false,"is_disabled":false,"rental_uris":{"android":"levelo://app?vid=a649a58b-1775-43ad-b6b9-f0d09c914995","ios":"levelo://app?vid=a649a58b-1775-43ad-b6b9-f0d09c914995"},"vehicle_type_id":"4","last_reported":1774274794,"current_range_meters":13600,"station_id":"ce4bhbh2rcd13ifvqepg","pricing_plan_id":"cebpf4jnsgd1na2vs0mg"},{"bike_id":"a155dd0f-644f-4a3f-a10a-af374bd10d60","system_id":"levelo_inurba_marseille","lat":43.30487,"lon":5.3803,"is_reserved":false,"is_disabled":false,"rental_uris":{"android":"levelo://app?vid=a155dd0f-644f-4a3f-a10a-af374bd10d60","ios":"levelo://app?vid=a155dd0f-644f-4a3f-a10a-af374bd10d60"},"vehicle_type_id":"4","last_reported":1774274794,"current_range_meters":13600,"station_id":"","pricing_plan_id":"cebpf4jnsgd1na2vs0mg"},{"bike_id":"26108a37-c467-4811-a0c3-d12e7c8355fb","system_id":"levelo_inurba_marseille","lat":43.2583,"lon":5.39429,"is_reserved":false,"is_disabled":true,"rental_uris":{"android":"levelo://app?vid=26108a37-c467-4811-a0c3-d12e7c8355fb","ios":"levelo://app?vid=26108a37-c467-4811-a0c3-d12e7c8355fb"},"vehicle_type_id":"4","last_reported":1774274794,"current_range_meters":13600,"station_id":"ce4bhip2rcd13ifvqft0","pricing_plan_id":"cebpf4jnsgd1na2vs0mg"},{"bike_id":"9b92ce9d-3c94-4f7d-9ebc-36d97cda2452","system_id":"levelo_inurba_marseille","lat":43.29258,"lon":5.36841,"is_reserved":false,"is_disabled":false,"rental_uris":{"android":"levelo://app?vid=9b92ce9d-3c94-4f7d-9ebc-36d97cda2452","ios":"levelo://app?vid=9b92ce9d-3c94-4f7d-9ebc-36d97cda2452"},"vehicle_type_id":"4","last_reported":1774274794,"current_range_meters":13600,"station_id":"ce4bhbp2rcd13ifvqesg","pricing_plan_id":"cebpf4jnsgd1na2vs0mg"},{"bike_id":"63e7416c-20b1-4f3c-816f-a49f74fe6d7b","system_id":"levelo_inurba_marseille","lat":43.24657,"lon":5.38172,"is_reserved":false,"is_disabled":true,"rental_uris":{"android":"levelo://app?vid=63e7416c-20b1-4f3c-816f-a49f74fe6d7b","ios":"levelo://app?vid=63e7416c-20b1-4f3c-816f-a49f74fe6d7b"},"vehicle_type_id":"4","last_reported":1774274794,"current_range_meters":14000,"station_id":"ce4bhih2rcd13ifvqfr0","pricing_plan_id":"cebpf4jnsgd1na2vs0mg"},