{"last_updated":1728065530,"ttl":60,"version":"2.2","data":{"bikes":[{"bike_id":"a6584d5f-e475-4344-88b3-4b74b81e2792","system_id":"levelo_inurba_marseille","lat":43.28274,"lon":5.35062,"is_reserved":false,"is_disabled":false,"rental_uris":{"android":"levelo://app?vid=a6584d5f-e475-4344-88b3-4b74b81e2792","ios":"levelo://app?vid=a6584d5f-e475-4344-88b3-4b74b81e2792"},"vehicle_type_id":"4","last_reported":1728065530,"current_range_meters":5600,"station_id":"ce4bhbp2rcd13ifvqerg","pricing_plan_id":"cebpf4jnsgd1na2vs0mg"},{"bike_id":"7129f13e-4c13-45bc-83d2-7b599ae0e7aa","system_id":"levelo_inurba_marseille","lat":43.32283,"lon":5.38285,"is_reserved":false,"is_disabled":false,"rental_uris":{"android":"levelo://app?vid=7129f13e-4c13-45bc-83d2-7b599ae0e7aa","ios":"levelo://app?vid=7129f13e-4c13-45bc-83d2-7b599ae0e7aa"},"vehicle_type_id":"4","last_reported":1728065530,"current_range_meters":17200,"station_id":"ce4bhr12rcd13ifvqhqg","pricing_plan_id":"cebpf4jnsgd1na2vs0mg"},{"bike_id":"8a3a6925-54af-415d-a586-6b46aa2932dd","system_id":"levelo_inurba_marseille","lat":43.31221,"lon":5.36854,"is_reserved":false,"is_disabled":false,"rental_uris":{"android":"levelo://app?vid=8a3a6925-54af-415d-a586-6b46aa2932dd","ios":"levelo://app?vid=8a3a6925-54af-415d-a586-6b46aa2932dd"},"vehicle_type_id":"4","last_reported":1728065530,"current_range_meters":36800,"station_id":"ce4bgl92rcd13ifvqbq0","pricing_plan_id":"cebpf4jnsgd1na2vs0mg"},{"bike_id":"ef3cae9a-d562-4944-b253-a835cb3a3920","system_id":"levelo_inurba_marseille","lat":43.29531,"lon":5.38552,"is_reserved":false,"is_disabled":false,"rental_uris":{"android":"levelo://app?vid=ef3cae9a-d562-4944-b253-a835cb3a3920","ios":"levelo://app?vid=ef3cae9a-d562-4944-b253-a835cb3a3920"},"vehicle_type_id":"4","last_reported":1728065530,"current_range_meters":11200,"station_id":"ce4bgih2rcd13ifvqba0","pricing_plan_id":"cebpf4jnsgd1na2vs0mg"},{"bike_id":"0ab31a2b-100e-46ba-8518-e3de7fc7122e","system_id":"levelo_inurba_marseille","lat":43.33751,"lon":5.37444,"is_reserved":false,"is_disabled":false,"rental_uris":{"android":"levelo://app?vid=0ab31a2b-100e-46ba-8518-e3de7fc7122e","ios":"levelo://app?vid=0ab31a2b-100e-46ba-8518-e3de7fc7122e"},"vehicle_type_id":"4","last_reported":1728065530,"current_range_meters":36400,"station_id":"","pricing_plan_id":"cebpf4jnsgd1na2vs0mg"},{"bike_id":"5bb922a7-e85d-4889-b4de-9c294f8765b3","system_id":"levelo_inurba_marseille","lat":43.25721,"lon":5.41109,"is_reserved":false,"is_disabled":false,"rental_uris":{"android":"levelo://app?vid=5bb922a7-e85d-4889-b4de-9c294f8765b3","ios":"levelo://app?vid=5bb922a7-e85d-4889-b4de-9c294f8765b3"},"vehicle_type_id":"4","last_reported":1728065530,"current_range_meters":14400,"station_id":"ce4bhkp2rcd13ifvqgd0","pricing_plan_id":"cebpf4jnsgd1na2vs0mg"},{"bike_id":"756088e4-bd38-4606-aa6f-cbbf1461af00","system_id":"levelo_inurba_marseille","lat":43.22936,"lon":5.35378,"is_reserved":false,"is_disabled":false,"rental_uris":{"android":"levelo://app?vid=756088e4-bd38-4606-aa6f-cbbf1461af00","ios":"levelo://app?vid=756088e4-bd38-4606-aa6f-cbbf1461af00"},"vehicle_type_id":"4","last_reported":1728065530,"current_range_meters":10800,"station_id":"cpo3532slgdg3j2ikp40","pricing_plan_id":"cebpf4jnsgd1na2vs0mg"},{"bike_id":"ee47251e-31f9-4a3c-9e17-1a39f83c7e48","system_id":"levelo_inurba_marseille","lat":43.27615,"lon":5.36112,"is_reserved":false,"is_disabled":false,"rental_uris":{"android":"levelo://app?vid=ee47251e-31f9-4a3c-9e17-1a39f83c7e48","ios":"levelo://app?vid=ee47251e-31f9-4a3c-9e17-1a39f83c7e48"},"vehicle_type_id":"4","last_reported":1728065530,"current_range_meters":27600,"station_id":"ce4bgj92rcd13ifvqbe0","pricing_plan_id":"cebpf4jnsgd1na2vs0mg"},{"bike_id":"d9ee20e8-d7f0-4305-9de5-0c479b1dd5b9","system_id":"levelo_inurba_marseille","lat":43.27171,"lon":5.40996,"is_reserved":false,"is_disabled":false,"rental_uris":{"android":"levelo://app?vid=d9ee20e8-d7f0-4305-9de5-0c479b1dd5b9","ios":"levelo://app?vid=d9ee20e8-d7f0-4305-9de5-0c479b1dd5b9"},"vehicle_type_id":"4","last_reported":1728065530,"current_range_meters":24000,"station_id":"ce4bhl12rcd13ifvqgf0","pricing_plan_id":"cebpf4jnsgd1na2vs0mg"},{"bike_id":"0ef5a15f-c2d8-4cce-89f1-3bf5ef13fcd0","system_id":"levelo_inurba_marseille","lat":43.28413,"lon":5.37513,"is_reserved":false,"is_disabled":false,"rental_uris":{"android":"levelo://app?vid=0ef5a15f-c2d8-4cce-89f1-3bf5ef13fcd0","ios":"levelo://app?vid=0ef5a15f-c2d8-4cce-89f1-3bf5ef13fcd0"},"vehicle_type_id":"4","last_reported":1728065530,"current_range_meters":38000,"station_id":"ce4bh412rcd13ifvqds0","pricing_plan_id":"cebpf4jnsgd1na2vs0mg"},{"bike_id":"a4848743-2b0a-45ca-ab55-4fc9ba993418","system_id":"levelo_inurba_marseille","lat":43.27326,"lon":5.39067,"is_reserved":false,"is_disabled":false,"rental_uris":{"android":"levelo://app?vid=a4848743-2b0a-45ca-ab55-4fc9ba993418","ios":"levelo://app?vid=a4848743-2b0a-45ca-ab55-4fc9ba993418"},"vehicle_type_id":"4","last_reported":1728065530,"current_range_meters":10800,"station_id":"ce4bhgp2rcd13ifvqfe0","pricing_plan_id":"cebpf4jnsgd1na2vs0mg"},{"bike_id":"68496de1-daa4-45b9-a918-267c1aad9aa7","system_id":"levelo_inurba_marseille","lat":43.29977,"lon":5.38491,"is_reserved":false,"is_disabled":false,"rental_uris":{"android":"levelo://app?vid=68496de1-daa4-45b9-a918-267c1aad9aa7","ios":"levelo://app?vid=68496de1-daa4-45b9-a918-267c1aad9aa7"},"vehicle_type_id":"4","last_reported":1728065530,"current_range_meters":39200,"station_id":"ce4bgj92rcd13ifvqbd0","pricing_plan_id":"cebpf4jnsgd1na2vs0mg"},{"bike_id":"121e33ff-d34a-4aa3-948b-11156a0a396f","system_id":"levelo_inurba_marseille","lat":43.28717,"lon":5.36087,"is_reserved":false,"is_disabled":false,"rental_uris":{"android":"levelo://app?vid=121e33ff-d34a-4aa3-948b-11156a0a396f","ios":"levelo://app?vid=121e33ff-d34a-4aa3-948b-11156a0a396f"},"vehicle_type_id":"4","last_reported":1728065530,"current_range_meters":37600,"station_id":"cki0cbj6b192h4jlfktg","pricing_plan_id":"cebpf4jnsgd1na2vs0mg"},{"bike_id":"f50ef443-26cc-4264-977a-371b79a29fc0","system_id":"levelo_inurba_marseille","lat":43.31479,"lon":5.37312,"is_reserved":false,"is_disabled":false,"rental_uris":{"android":"levelo://app?vid=f50ef443-26cc-4264-977a-371b79a29fc0","ios":"levelo://app?vid=f50ef443-26cc-4264-977a-371b79a29fc0"},"vehicle_type_id":"4","last_reported":1728065530,"current_range_meters":16000,"station_id":"ce4bgt12rcd13ifvqcd0","pricing_plan_id":"cebpf4jnsgd1na2vs0mg"},{"bike_id":"87f9d908-e006-4f95-a74d-b4464c2f67f0","system_id":"levelo_inurba_marseille","lat":43.29018,"lon":5.38122,"is_reserved":false,"is_disabled":false,"rental_uris":{"android":"levelo://app?vid=87f9d908-e006-4f95-a74d-b4464c2f67f0","ios":"levelo://app?vid=87f9d908-e006-4f95-a74d-b4464c2f67f0"},"vehicle_type_id":"4","last_reported":1728065530,"current_range_meters":38800,"station_id":"ce4bh4p2rcd13ifvqe1g","pricing_plan_id":"cebpf4jnsgd1na2vs0mg"},{"bike_id":"953bdfb7-f708-4023-9d7e-ef7182228dcf","system_id":"levelo_inurba_marseille","lat":43.2926,"lon":5.36849,"is_reserved":false,"is_disabled":false,"rental_uris":{"android":"levelo://app?vid=953bdfb7-f708-4023-9d7e-ef7182228dcf","ios":"levelo://app?vid=953bdfb7-f708-4023-9d7e-ef7182228dcf"},"vehicle_type_id":"4","last_reported":1728065530,"current_range_meters":38800,"station_id":"ce4bhbp2rcd13ifvqesg","pricing_plan_id":"cebpf4jnsgd1na2vs0mg"},{"bike_id":"92fd399a-025a-474f-8b49-c782f70692c3","system_id":"levelo_inurba_marseille","lat":43.30259,"lon":5.3773,"is_reserved":false,"is_disabled":false,"rental_uris":{"android":"levelo://app?vid=92fd399a-025a-474f-8b49-c782f70692c3","ios":"levelo://app?vid=92fd399a-025a-474f-8b49-c782f70692c3"},"vehicle_type_id":"4","last_reported":1728065530,"current_range_meters":31200,"station_id":"ce4bguh2rcd13ifvqcj0","pricing_plan_id":"cebpf4jnsgd1na2vs0mg"},{"bike_id":"e6b2df58-b4a0-4aec-933d-a62e42f34d34","system_id":"levelo_inurba_marseille","lat":43.33723,"lon":5.39199,"is_reserved":false,"is_disabled":false,"rental_uris":{"android":"levelo://app?vid=e6b2df58-b4a0-4aec-933d-a62e42f34d34","ios":"levelo://app?vid=e6b2df58-b4a0-4aec-933d-a62e42f34d34"},"vehicle_type_id":"4","last_reported":1728065530,"current_range_meters":18000,"station_id":"ce4bhr92rcd13ifvqhsg","pricing_plan_id":"cebpf4jnsgd1na2vs0mg"},{"bike_id":"1d8abf24-184e-4cbc-bfdb-58d37dc1e95e","system_id":"levelo_inurba_marseille","lat":43.30426,"lon":5.38901,"is_reserved":false,"is_disabled":false,"rental_uris":{"android":"levelo://app?vid=1d8abf24-184e-4cbc-bfdb-58d37dc1e95e","ios":"levelo://app?vid=1d8abf24-184e-4cbc-bfdb-58d37dc1e95e"},"vehicle_type_id":"4","last_reported":1728065530,"current_range_meters":9600,"station_id":"ce4bgk12rcd13ifvqbi0","pricing_plan_id":"cebpf4jnsgd1na2vs0mg"},{"bike_id":"d77938b7-ff1e-465c-a8b9-4b07085a5cc9","system_id":"levelo_inurba_marseille","lat":43.2307,"lon":5.35496,"is_reserved":false,"is_disabled":false,"rental_uris":{"android":"levelo://app?vid=d77938b7-ff1e-465c-a8b9-4b07085a5cc9","ios":"levelo://app?vid=d77938b7-ff1e-465c-a8b9-4b07085a5cc9"},"vehicle_type_id":"4","last_reported":1728065530,"current_range_meters":18000,"station_id":"cpo3342slgdg3j2ifvpg","pricing_plan_id":"cebpf4jnsgd1na2vs0mg"},{"bike_id":"d5939f39-2bcc-4591-9110-c77aeaefd1a9","system_id":"levelo_inurba_marseille","lat":43.31165,"lon":5.38722,"is_reserved":false,"is_disabled":false,"rental_uris":{"android":"levelo://app?vid=d5939f39-2bcc-4591-9110-c77aeaefd1a9","ios":"levelo://app?vid=d5939f39-2bcc-4591-9110-c77aeaefd1a9"},"vehicle_type_id":"4","last_reported":1728065530,"current_range_meters":5600,"station_id":"ce4bgv12rcd13ifvqcp0","pricing_plan_id":"cebpf4jnsgd1na2vs0mg"},{"bike_id":"89fbdeb4-774f-4a18-99ac-b2bb448f7f57","system_id":"levelo_inurba_marseille","lat":43.29297,"lon":5.37454,"is_reserved":false,"is_disabled":false,"rental_uris":{"android":"levelo://app?vid=89fbdeb4-774f-4a18-99ac-b2bb448f7f57","ios":"levelo://app?vid=89fbdeb4-774f-4a18-99ac-b2bb448f7f57"},"vehicle_type_id":"4","last_reported":1728065530,"current_range_meters":26800,"station_id":"ce4bgi12rcd13ifvqb70","pricing_plan_id":"cebpf4jnsgd1na2vs0mg"},{"bike_id":"097d9c77-6256-4975-8475-0baaa795b643","system_id":"levelo_inurba_marseille","lat":43.27418,"lon":5.39415,"is_reserved":false,"is_disabled":false,"rental_uris":{"android":"levelo://app?vid=097d9c77-6256-4975-8475-0baaa795b643","ios":"levelo://app?vid=097d9c77-6256-4975-8475-0baaa795b643"},"vehicle_type_id":"4","last_reported":1728065530,"current_range_meters":9600,"station_id":"ce4bhdp2rcd13ifvqf20","pricing_plan_id":"cebpf4jnsgd1na2vs0mg"},{"bike_id":"566a9cf0-f209-4c9f-9e1e-a43a024de395","system_id":"levelo_inurba_marseille","lat":43.27382,"lon":5.36264,"is_reserved":false,"is_disabled":false,"rental_uris":{"android":"levelo://app?vid=566a9cf0-f209-4c9f-9e1e-a43a024de395","ios":"levelo://app?vid=566a9cf0-f209-4c9f-9e1e-a43a024de395"},"vehicle_type_id":"4","last_reported":1728065530,"current_range_meters":24800,"station_id":"ce4bhbh2rcd13ifvqeo0","pricing_plan_id":"cebpf4jnsgd1na2vs0mg"},{"bike_id":"54d09a39-e79d-434c-8a05-a8f2660c6a94","system_id":"levelo_inurba_marseille","lat":43.299,"lon":5.43668,"is_reserved":false,"is_disabled":false,"rental_uris":{"android":"levelo://app?vid=54d09a39-e79d-434c-8a05-a8f2660c6a94","ios":"levelo://app?vid=54d09a39-e79d-434c-8a05-a8f2660c6a94"},"vehicle_type_id":"4","last_reported":1728065530,"current_range_meters":14400,"station_id":"ce4bhpp2rcd13ifvqhfg","pricing_plan_id":"cebpf4jnsgd1na2vs0mg"},{"bike_id":"6acf263d-6277-47a9-a98b-35b7f7dea564","system_id":"levelo_inurba_marseille","lat":43.283047,"lon":5.401892,"is_reserved":false,"is_disabled":false,"rental_uris":{"android":"levelo://app?vid=6acf263d-6277-47a9-a98b-35b7f7dea564","ios":"levelo://app?vid=6acf263d-6277-47a9-a98b-35b7f7dea564"},"vehicle_type_id":"4","last_reported":1728065530,"current_range_meters":13600,"station_id":"ce4bhpp2rcd13ifvqhgg","pricing_plan_id":"cebpf4jnsgd1na2vs0mg"},{"bike_id":"a4721277-157e-42b9-87f0-290a3d401919","system_id":"levelo_inurba_marseille","lat":43.2594,"lon":5.40904,"is_reserved":false,"is_disabled":false,"rental_uris":{"android":"levelo://app?vid=a4721277-157e-42b9-87f0-290a3d401919","ios":"levelo://app?vid=a4721277-157e-42b9-87f0-290a3d401919"},"vehicle_type_id":"4","last_reported":1728065530,"current_range_meters":38800,"station_id":"ce4bhm92rcd13ifvqglg","pricing_plan_id":"cebpf4jnsgd1na2vs0mg"},{"bike_id":"8a1ddf31-8a1e-415c-8642-28efafa99396","system_id":"levelo_inurba_marseille","lat":43.28609,"lon":5.35101,"is_reserved":false,"is_disabled":false,"rental_uris":{"android":"levelo://app?vid=8a1ddf31-8a1e-415c-8642-28efafa99396","ios":"levelo://app?vid=8a1ddf31-8a1e-415c-8642-28efafa99396"},"vehicle_type_id":"4","last_reported":1728065530,"current_range_meters":9200,"station_id":"ce4bhch2rcd13ifvqeug","pricing_plan_id":"cebpf4jnsgd1na2vs0mg"},{"bike_id":"06c8346a-637c-4849-a1da-4b25e29c3d75","system_id":"levelo_inurba_marseille","lat":43.24539,"lon":5.39528,"is_reserved":false,"is_disabled":false,"rental_uris":{"android":"levelo://app?vid=06c8346a-637c-4849-a1da-4b25e29c3d75","ios":"levelo://app?vid=06c8346a-637c-4849-a1da-4b25e29c3d75"},"vehicle_type_id":"4","last_reported":1728065530,"current_range_meters":19600,"station_id":"ce4bhlp2rcd13ifvqgjg","pricing_plan_id":"cebpf4jnsgd1na2vs0mg"},{"bike_id":"f8ec74c4-9cd7-4c7f-a049-ecb75f299012","system_id":"levelo_inurba_marseille","lat":43.29303,"lon":5.3717,"is_reserved":false,"is_disabled":false,"rental_uris":{"android":"levelo://app?vid=f8ec74c4-9cd7-4c7f-a049-ecb75f299012","ios":"levelo://app?vid=f8ec74c4-9cd7-4c7f-a049-ecb75f299012"},"vehicle_type_id":"4","last_reported":1728065530,"current_range_meters":24800,"station_id":"ce4bgh92rcd13ifvqb40","pricing_plan_id":"cebpf4jnsgd1na2vs0mg"},{"bike_id":"6102bacc-0bb3-4c79-854a-2d4ec81b21c1","system_id":"levelo_inurba_marseille","lat":43.31718,"lon":5.42405,"is_reserved":false,"is_disabled":false,"rental_uris":{"android":"levelo://app?vid=6102bacc-0bb3-4c79-854a-2d4ec81b21c1","ios":"levelo://app?vid=6102bacc-0bb3-4c79-854a-2d4ec81b21c1"},"vehicle_type_id":"4","last_reported":1728065530,"current_range_meters":39200,"station_id":"ce4bhp92rcd13ifvqhbg","pricing_plan_id":"cebpf4jnsgd1na2vs0mg"},{"bike_id":"6f9ea692-b854-4466-8783-f86828c11080","system_id":"levelo_inurba_marseille","lat":43.32542,"lon":5.41436,"is_reserved":false,"is_disabled":false,"rental_uris":{"android":"levelo://app?vid=6f9ea692-b854-4466-8783-f86828c11080","ios":"levelo://app?vid=6f9ea692-b854-4466-8783-f86828c11080"},"vehicle_type_id":"4","last_reported":1728065530,"current_range_meters":39200,"station_id":"ce4bhq12rcd13ifvqhhg","pricing_plan_id":"cebpf4jnsgd1na2vs0mg"},{"bike_id":"1a1d5d28-b4c5-4e7d-b4e8-952ef4473356","system_id":"levelo_inurba_marseille","lat":43.27945,"lon":5.41054,"is_reserved":false,"is_disabled":false,"rental_uris":{"android":"levelo://app?vid=1a1d5d28-b4c5-4e7d-b4e8-952ef4473356","ios":"levelo://app?vid=1a1d5d28-b4c5-4e7d-b4e8-952ef4473356"},"vehicle_type_id":"4","last_reported":1728065530,"current_range_meters":14400,"station_id":"ce4bhnp2rcd13ifvqh0g","pricing_plan_id":"cebpf4jnsgd1na2vs0mg"},{"bike_id":"03fd7b13-a8fe-4a7d-83e8-7ebc8105ddaa","system_id":"levelo_inurba_marseille","lat":43.29588,"lon":5.38098,"is_reserved":false,"is_disabled":false,"rental_uris":{"android":"levelo://app?vid=03fd7b13-a8fe-4a7d-83e8-7ebc8105ddaa","ios":"levelo://app?vid=03fd7b13-a8fe-4a7d-83e8-7ebc8105ddaa"},"vehicle_type_id":"4","last_reported":1728065530,"current_range_meters":36400,"station_id":"ce4bgl12rcd13ifvqbo0","pricing_plan_id":"cebpf4jnsgd1na2vs0mg"},{"bike_id":"e08c062f-61a2-493a-875d-6e296e2965d6","system_id":"levelo_inurba_marseille","lat":43.33757,"lon":5.37446,"is_reserved":false,"is_disabled":false,"rental_uris":{"android":"levelo://app?vid=e08c062f-61a2-493a-875d-6e296e2965d6","ios":"levelo://app?vid=e08c062f-61a2-493a-875d-6e296e2965d6"},"vehicle_type_id":"4","last_reported":1728065530,"current_range_meters":33600,"station_id":"","pricing_plan_id":"cebpf4jnsgd1na2vs0mg"},{"bike_id":"1812e1cf-7af2-4c10-9a6c-32b1798aface","system_id":"levelo_inurba_marseille","lat":43.28942,"lon":5.36645,"is_reserved":false,"is_disabled":false,"rental_uris":{"android":"levelo://app?vid=1812e1cf-7af2-4c10-9a6c-32b1798aface","ios":"levelo://app?vid=1812e1cf-7af2-4c10-9a6c-32b1798aface"},"vehicle_type_id":"4","last_reported":1728065530,"current_range_meters":24800,"station_id":"ce4bhap2rcd13ifvqek0","pricing_plan_id":"cebpf4jnsgd1na2vs0mg"},{"bike_id":"fea49b89-1414-4f4f-9ca7-842214a26870","system_id":"levelo_inurba_marseille","lat":43.32286,"lon":5.38277,"is_reserved":false,"is_disabled":false,"rental_uris":{"android":"levelo://app?vid=fea49b89-1414-4f4f-9ca7-842214a26870","ios":"levelo://app?vid=fea49b89-1414-4f4f-9ca7-842214a26870"},"vehicle_type_id":"4","last_reported":1728065530,"current_range_meters":7200,"station_id":"ce4bhr12rcd13ifvqhqg","pricing_plan_id":"cebpf4jnsgd1na2vs0mg"},{"bike_id":"fcfb42de-cde1-4ec3-8e89-f197fdfcc1a8","system_id":"levelo_inurba_marseille","lat":43.23965,"lon":5.36637,"is_reserved":false,"is_disabled":false,"rental_uris":{"android":"levelo://app?vid=fcfb42de-cde1-4ec3-8e89-f197fdfcc1a8","ios":"levelo://app?vid=fcfb42de-cde1-4ec3-8e89-f197fdfcc1a8"},"vehicle_type_id":"4","last_reported":1728065530,"current_range_meters":9600,"station_id":"ce4bhi12rcd13ifvqfp0","pricing_plan_id":"cebpf4jnsgd1na2vs0mg"},{"bike_id":"14501ac4-195a-4e91-b9ae-49bc088d7d62","system_id":"levelo_inurba_marseille","lat":43.29889,"lon":5.38882,"is_reserved":false,"is_disabled":false,"rental_uris":{"android":"levelo://app?vid=14501ac4-195a-4e91-b9ae-49bc088d7d62","ios":"levelo://app?vid=14501ac4-195a-4e91-b9ae-49bc088d7d62"},"vehicle_type_id":"4","last_reported":1728065530,"current_range_meters":38400,"station_id":"ce4bh392rcd13ifvqdl0","pricing_plan_id":"cebpf4jnsgd1na2vs0mg"},{"bike_id":"55f3b681-fd7a-4ee3-91f0-cf3f1a505d06","system_id":"levelo_inurba_marseille","lat":43.28714,"lon":5.37944,"is_reserved":false,"is_disabled":false,"rental_uris":{"android":"levelo://app?vid=55f3b681-fd7a-4ee3-91f0-cf3f1a505d06","ios":"levelo://app?vid=55f3b681-fd7a-4ee3-91f0-cf3f1a505d06"},"vehicle_type_id":"4","last_reported":1728065530,"current_range_meters":4000,"station_id":"ce4bh9p2rcd13ifvqec0","pricing_plan_id":"cebpf4jnsgd1na2vs0mg"},{"bike_id":"fd872ba7-9877-4e67-9269-d8995abba644","system_id":"levelo_inurba_marseille","lat":43.22936,"lon":5.35378,"is_reserved":false,"is_disabled":false,"rental_uris":{"android":"levelo://app?vid=fd872ba7-9877-4e67-9269-d8995abba644","ios":"levelo://app?vid=fd872ba7-9877-4e67-9269-d8995abba644"},"vehicle_type_id":"4","last_reported":1728065530,"current_range_meters":18800,"station_id":"cpo3532slgdg3j2ikp40","pricing_plan_id":"cebpf4jnsgd1na2vs0mg"},{"bike_id":"fe069c0c-ab7e-4066-b369-24f70f595c37","system_id":"levelo_inurba_marseille","lat":43.32478,"lon":5.36554,"is_reserved":false,"is_disabled":false,"rental_uris":{"android":"levelo://app?vid=fe069c0c-ab7e-4066-b369-24f70f595c37","ios":"levelo://app?vid=fe069c0c-ab7e-4066-b369-24f70f595c37"},"vehicle_type_id":"4","last_reported":1728065530,"current_range_meters":4400,"station_id":"ce4bhs12rcd13ifvqhvg","pricing_plan_id":"cebpf4jnsgd1na2vs0mg"},{"bike_id":"7510de04-ba9e-4eb8-bdcf-c37b14d096b0","system_id":"levelo_inurba_marseille","lat":43.29583,"lon":5.36744,"is_reserved":false,"is_disabled":false,"rental_uris":{"android":"levelo://app?vid=7510de04-ba9e-4eb8-bdcf-c37b14d096b0","ios":"levelo://app?vid=7510de04-ba9e-4eb8-bdcf-c37b14d096b0"},"vehicle_type_id":"4","last_reported":1728065530,"current_range_meters":10800,"station_id":"ce4bgph2rcd13ifvqc2g","pricing_plan_id":"cebpf4jnsgd1na2vs0mg"},{"bike_id":"a114f142-eb21-4ea1-86a0-46e0b7e1e781","system_id":"levelo_inurba_marseille","lat":43.30897,"lon":5.37191,"is_reserved":false,"is_disabled":false,"rental_uris":{"android":"levelo://app?vid=a114f142-eb21-4ea1-86a0-46e0b7e1e781","ios":"levelo://app?vid=a114f142-eb21-4ea1-86a0-46e0b7e1e781"},"vehicle_type_id":"4","last_reported":1728065530,"current_range_meters":30800,"station_id":"ce4bguh2rcd13ifvqckg","pricing_plan_id":"cebpf4jnsgd1na2vs0mg"},{"bike_id":"6be01b74-4ea2-47de-bf40-1904df303244","system_id":"levelo_inurba_marseille","lat":43.29896,"lon":5.43671,"is_reserved":false,"is_disabled":false,"rental_uris":{"android":"levelo://app?vid=6be01b74-4ea2-47de-bf40-1904df303244","ios":"levelo://app?vid=6be01b74-4ea2-47de-bf40-1904df303244"},"vehicle_type_id":"4","last_reported":1728065530,"current_range_meters":8400,"station_id":"ce4bhpp2rcd13ifvqhfg","pricing_plan_id":"cebpf4jnsgd1na2vs0mg"},{"bike_id":"7d19365b-d52b-4462-88b2-358e1a21e4bc","system_id":"levelo_inurba_marseille","lat":43.2781,"lon":5.40715,"is_reserved":false,"is_disabled":false,"rental_uris":{"android":"levelo://app?vid=7d19365b-d52b-4462-88b2-358e1a21e4bc","ios":"levelo://app?vid=7d19365b-d52b-4462-88b2-358e1a21e4bc"},"vehicle_type_id":"4","last_reported":1728065530,"current_range_meters":28400,"station_id":"ce4bhnh2rcd13ifvqgtg","pricing_plan_id":"cebpf4jnsgd1na2vs0mg"},{"bike_id":"3c1cc413-ab3e-4fa6-9276-843d2fcd0572","system_id":"levelo_inurba_marseille","lat":43.30597,"lon":5.37239,"is_reserved":false,"is_disabled":false,"rental_uris":{"android":"levelo://app?vid=3c1cc413-ab3e-4fa6-9276-843d2fcd0572","ios":"levelo://app?vid=3c1cc413-ab3e-4fa6-9276-843d2fcd0572"},"vehicle_type_id":"4","last_reported":1728065530,"current_range_meters":25600,"station_id":"ce4bgqh2rcd13ifvqc4g","pricing_plan_id":"cebpf4jnsgd1na2vs0mg"},{"bike_id":"fd994fab-2919-4916-9c06-fa678f79ed49","system_id":"levelo_inurba_marseille","lat":43.29767,"lon":5.37095,"is_reserved":false,"is_disabled":false,"rental_uris":{"android":"levelo://app?vid=fd994fab-2919-4916-9c06-fa678f79ed49","ios":"levelo://app?vid=fd994fab-2919-4916-9c06-fa678f79ed49"},"vehicle_type_id":"4","last_reported":1728065530,"current_range_meters":8800,"station_id":"ce4bgop2rcd13ifvqc1g","pricing_plan_id":"cebpf4jnsgd1na2vs0mg"},{"bike_id":"2d2d6870-90e9-429c-8837-259947ef2d5f","system_id":"levelo_inurba_marseille","lat":43.29525,"lon":5.37503,"is_reserved":false,"is_disabled":false,"rental_uris":{"android":"levelo://app?vid=2d2d6870-90e9-429c-8837-259947ef2d5f","ios":"levelo://app?vid=2d2d6870-90e9-429c-8837-259947ef2d5f"},"vehicle_type_id":"4","last_reported":1728065530,"current_range_meters":38800,"station_id":"ce4bgkp2rcd13ifvqbmg","pricing_plan_id":"cebpf4jnsgd1na2vs0mg"},{"bike_id":"3de234cd-d458-45bf-a47b-d070c6cbb914","system_id":"levelo_inurba_marseille","lat":43.24999,"lon":5.3893,"is_reserved":false,"is_disabled":false,"rental_uris":{"android":"levelo://app?vid=3de234cd-d458-45bf-a47b-d070c6cbb914","ios":"levelo://app?vid=3de234cd-d458-45bf-a47b-d070c6cbb914"},"vehicle_type_id":"4","last_reported":1728065530,"current_range_meters":20000,"station_id":"ce4bhgp2rcd13ifvqfd0","pricing_plan_id":"cebpf4jnsgd1na2vs0mg"},{"bike_id":"66c1eb46-9cd4-413f-b538-4d6572cce1e9","system_id":"levelo_inurba_marseille","lat":43.26942,"lon":5.40245,"is_reserved":false,"is_disabled":false,"rental_uris":{"android":"levelo://app?vid=66c1eb46-9cd4-413f-b538-4d6572cce1e9","ios":"levelo://app?vid=66c1eb46-9cd4-413f-b538-4d6572cce1e9"},"vehicle_type_id":"4","last_reported":1728065530,"current_range_meters":17600,"station_id":"cjm6bp8fraef2m0cb0m0","pricing_plan_id":"cebpf4jnsgd1na2vs0mg"},{"bike_id":"f3d5a8ec-a4c8-4796-a7f4-45b03320c18f","system_id":"levelo_inurba_marseille","lat":43.33024,"lon":5.39042,"is_reserved":false,"is_disabled":false,"rental_uris":{"android":"levelo://app?vid=f3d5a8ec-a4c8-4796-a7f4-45b03320c18f","ios":"levelo://app?vid=f3d5a8ec-a4c8-4796-a7f4-45b03320c18f"},"vehicle_type_id":"4","last_reported":1728065530,"current_range_meters":24800,"station_id":"ce4bhr92rcd13ifvqhrg","pricing_plan_id":"cebpf4jnsgd1na2vs0mg"},{"bike_id":"50e6aeb8-7e25-4c09-9781-24c9f5d23dff","system_id":"levelo_inurba_marseille","lat":43.33761,"lon":5.37447,"is_reserved":false,"is_disabled":false,"rental_uris":{"android":"levelo://app?vid=50e6aeb8-7e25-4c09-9781-24c9f5d23dff","ios":"levelo://app?vid=50e6aeb8-7e25-4c09-9781-24c9f5d23dff"},"vehicle_type_id":"4","last_reported":1728065530,"current_range_meters":31200,"station_id":"","pricing_plan_id":"cebpf4jnsgd1na2vs0mg"},{"bike_id":"52c2d00c-762d-4f96-a474-d31c326ff130","system_id":"levelo_inurba_marseille","lat":43.29782,"lon":5.39342,"is_reserved":false,"is_disabled":false,"rental_uris":{"android":"levelo://app?vid=52c2d00c-762d-4f96-a474-d31c326ff130","ios":"levelo://app?vid=52c2d00c-762d-4f96-a474-d31c326ff130"},"vehicle_type_id":"4","last_reported":1728065530,"current_range_meters":2000,"station_id":"chh1huq6cuj3fo74tm60","pricing_plan_id":"cebpf4jnsgd1na2vs0mg"},{"bike_id":"f7fc2917-5d7e-4cde-a84d-32f4cdcec9ae","system_id":"levelo_inurba_marseille","lat":43.282648,"lon":5.350661,"is_reserved":false,"is_disabled":false,"rental_uris":{"android":"levelo://app?vid=f7fc2917-5d7e-4cde-a84d-32f4cdcec9ae","ios":"levelo://app?vid=f7fc2917-5d7e-4cde-a84d-32f4cdcec9ae"},"vehicle_type_id":"4","last_reported":1728065530,"current_range_meters":4800,"station_id":"ce4bhbp2rcd13ifvqerg","pricing_plan_id":"cebpf4jnsgd1na2vs0mg"},{"bike_id":"11f57a0c-fdaf-4449-964b-42463a6c66a3","system_id":"levelo_inurba_marseille","lat":43.26943,"lon":5.40256,"is_reserved":false,"is_disabled":false,"rental_uris":{"android":"levelo://app?vid=11f57a0c-fdaf-4449-964b-42463a6c66a3","ios":"levelo://app?vid=11f57a0c-fdaf-4449-964b-42463a6c66a3"},"vehicle_type_id":"4","last_reported":1728065530,"current_range_meters":11200,"station_id":"cjm6bp8fraef2m0cb0m0","pricing_plan_id":"cebpf4jnsgd1na2vs0mg"},{"bike_id":"db6d3114-5e27-4869-bbbf-86348f43961f","system_id":"levelo_inurba_marseille","lat":43.29553,"lon":5.42298,"is_reserved":false,"is_disabled":false,"rental_uris":{"android":"levelo://app?vid=db6d3114-5e27-4869-bbbf-86348f43961f","ios":"levelo://app?vid=db6d3114-5e27-4869-bbbf-86348f43961f"},"vehicle_type_id":"4","last_reported":1728065530,"current_range_meters":8400,"station_id":"ce4bhph2rcd13ifvqhdg","pricing_plan_id":"cebpf4jnsgd1na2vs0mg"},{"bike_id":"5fb5bb24-e866-4097-9080-cb83f270597c","system_id":"levelo_inurba_marseille","lat":43.31991,"lon":5.38164,"is_reserved":false,"is_disabled":false,"rental_uris":{"android":"levelo://app?vid=5fb5bb24-e866-4097-9080-cb83f270597c","ios":"levelo://app?vid=5fb5bb24-e866-4097-9080-cb83f270597c"},"vehicle_type_id":"4","last_reported":1728065530,"current_range_meters":36800,"station_id":"ce4bhr12rcd13ifvqhpg","pricing_plan_id":"cebpf4jnsgd1na2vs0mg"},{"bike_id":"dbf9aaf6-e01d-4a8e-8403-329073364564","system_id":"levelo_inurba_marseille","lat":43.29268,"lon":5.36837,"is_reserved":false,"is_disabled":false,"rental_uris":{"android":"levelo://app?vid=dbf9aaf6-e01d-4a8e-8403-329073364564","ios":"levelo://app?vid=dbf9aaf6-e01d-4a8e-8403-329073364564"},"vehicle_type_id":"4","last_reported":1728065530,"current_range_meters":2000,"station_id":"ce4bhbp2rcd13ifvqesg","pricing_plan_id":"cebpf4jnsgd1na2vs0mg"},{"bike_id":"53f8447d-2525-4d32-adc9-1cf597c8d796","system_id":"levelo_inurba_marseille","lat":43.31711,"lon":5.43702,"is_reserved":false,"is_disabled":false,"rental_uris":{"android":"levelo://app?vid=53f8447d-2525-4d32-adc9-1cf597c8d796","ios":"levelo://app?vid=53f8447d-2525-4d32-adc9-1cf597c8d796"},"vehicle_type_id":"4","last_reported":1728065530,"current_range_meters":7200,"station_id":"ce4bhp92rcd13ifvqhcg","pricing_plan_id":"cebpf4jnsgd1na2vs0mg"},{"bike_id":"ee9676ea-dc07-49f7-8c0b-8644faa32c8f","system_id":"levelo_inurba_marseille","lat":43.29202,"lon":5.393,"is_reserved":false,"is_disabled":false,"rental_uris":{"android":"levelo://app?vid=ee9676ea-dc07-49f7-8c0b-8644faa32c8f","ios":"levelo://app?vid=ee9676ea-dc07-49f7-8c0b-8644faa32c8f"},"vehicle_type_id":"4","last_reported":1728065530,"current_range_meters":38400,"station_id":"ce4bh192rcd13ifvqdd0","pricing_plan_id":"cebpf4jnsgd1na2vs0mg"},{"bike_id":"f35da282-7b32-428b-8ad0-58d448e661a6","system_id":"levelo_inurba_marseille","lat":43.296227,"lon":5.377141,"is_reserved":false,"is_disabled":false,"rental_uris":{"android":"levelo://app?vid=f35da282-7b32-428b-8ad0-58d448e661a6","ios":"levelo://app?vid=f35da282-7b32-428b-8ad0-58d448e661a6"},"vehicle_type_id":"4","last_reported":1728065530,"current_range_meters":8800,"station_id":"ce4bh492rcd13ifvqdug","pricing_plan_id":"cebpf4jnsgd1na2vs0mg"},{"bike_id":"89ad34f9-0959-439e-a4a6-80e966f03857","system_id":"levelo_inurba_marseille","lat":43.3088,"lon":5.39655,"is_reserved":false,"is_disabled":false,"rental_uris":{"android":"levelo://app?vid=89ad34f9-0959-439e-a4a6-80e966f03857","ios":"levelo://app?vid=89ad34f9-0959-439e-a4a6-80e966f03857"},"vehicle_type_id":"4","last_reported":1728065530,"current_range_meters":5600,"station_id":"ce4bh012rcd13ifvqcv0","pricing_plan_id":"cebpf4jnsgd1na2vs0mg"},{"bike_id":"a8274e66-f619-465e-9f11-083eca5b8b64","system_id":"levelo_inurba_marseille","lat":43.30796,"lon":5.43528,"is_reserved":false,"is_disabled":false,"rental_uris":{"android":"levelo://app?vid=a8274e66-f619-465e-9f11-083eca5b8b64","ios":"levelo://app?vid=a8274e66-f619-465e-9f11-083eca5b8b64"},"vehicle_type_id":"4","last_reported":1728065530,"current_range_meters":15200,"station_id":"ce4bhph2rcd13ifvqheg","pricing_plan_id":"cebpf4jnsgd1na2vs0mg"},{"bike_id":"c192c8d0-4167-48fe-8efd-0164c68ee8c6","system_id":"levelo_inurba_marseille","lat":43.32051,"lon":5.41553,"is_reserved":false,"is_disabled":false,"rental_uris":{"android":"levelo://app?vid=c192c8d0-4167-48fe-8efd-0164c68ee8c6","ios":"levelo://app?vid=c192c8d0-4167-48fe-8efd-0164c68ee8c6"},"vehicle_type_id":"4","last_reported":1728065530,"current_range_meters":36400,"station_id":"ce4bhq92rcd13ifvqhkg","pricing_plan_id":"cebpf4jnsgd1na2vs0mg"},{"bike_id":"bb5f5452-4b9b-417d-b148-b396a874f3d9","system_id":"levelo_inurba_marseille","lat":43.33767,"lon":5.37437,"is_reserved":false,"is_disabled":false,"rental_uris":{"android":"levelo://app?vid=bb5f5452-4b9b-417d-b148-b396a874f3d9","ios":"levelo://app?vid=bb5f5452-4b9b-417d-b148-b396a874f3d9"},"vehicle_type_id":"4","last_reported":1728065530,"current_range_meters":36000,"station_id":"","pricing_plan_id":"cebpf4jnsgd1na2vs0mg"},{"bike_id":"3d309994-7ecf-4963-afbe-f0a8204690a4","system_id":"levelo_inurba_marseille","lat":43.30316,"lon":5.36863,"is_reserved":false,"is_disabled":false,"rental_uris":{"android":"levelo://app?vid=3d309994-7ecf-4963-afbe-f0a8204690a4","ios":"levelo://app?vid=3d309994-7ecf-4963-afbe-f0a8204690a4"},"vehicle_type_id":"4","last_reported":1728065530,"current_range_meters":39200,"station_id":"ce4bgqh2rcd13ifvqc5g","pricing_plan_id":"cebpf4jnsgd1na2vs0mg"},{"bike_id":"d7a0298f-5c2b-438d-ab05-5d6a7ac83160","system_id":"levelo_inurba_marseille","lat":43.30795,"lon":5.4353,"is_reserved":false,"is_disabled":false,"rental_uris":{"android":"levelo://app?vid=d7a0298f-5c2b-438d-ab05-5d6a7ac83160","ios":"levelo://app?vid=d7a0298f-5c2b-438d-ab05-5d6a7ac83160"},"vehicle_type_id":"4","last_reported":1728065530,"current_range_meters":38800,"station_id":"ce4bhph2rcd13ifvqheg","pricing_plan_id":"cebpf4jnsgd1na2vs0mg"},{"bike_id":"05332fc9-7f24-4969-b563-ee752a0c6152","system_id":"levelo_inurba_marseille","lat":43.29352,"lon":5.37863,"is_reserved":false,"is_disabled":false,"rental_uris":{"android":"levelo://app?vid=05332fc9-7f24-4969-b563-ee752a0c6152","ios":"levelo://app?vid=05332fc9-7f24-4969-b563-ee752a0c6152"},"vehicle_type_id":"4","last_reported":1728065530,"current_range_meters":36800,"station_id":"ce4bgjh2rcd13ifvqbf0","pricing_plan_id":"cebpf4jnsgd1na2vs0mg"},{"bike_id":"0a474af0-a0df-4581-9cab-4a3c19c4151e","system_id":"levelo_inurba_marseille","lat":43.255859,"lon":5.382446,"is_reserved":false,"is_disabled":false,"rental_uris":{"android":"levelo://app?vid=0a474af0-a0df-4581-9cab-4a3c19c4151e","ios":"levelo://app?vid=0a474af0-a0df-4581-9cab-4a3c19c4151e"},"vehicle_type_id":"4","last_reported":1728065530,"current_range_meters":8400,"station_id":"ce4bhih2rcd13ifvqfs0","pricing_plan_id":"cebpf4jnsgd1na2vs0mg"},{"bike_id":"6d6e227a-78ff-4810-90de-5cafcac3017f","system_id":"levelo_inurba_marseille","lat":43.293152,"lon":5.374484,"is_reserved":false,"is_disabled":false,"rental_uris":{"android":"levelo://app?vid=6d6e227a-78ff-4810-90de-5cafcac3017f","ios":"levelo://app?vid=6d6e227a-78ff-4810-90de-5cafcac3017f"},"vehicle_type_id":"4","last_reported":1728065530,"current_range_meters":28800,"station_id":"","pricing_plan_id":"cebpf4jnsgd1na2vs0mg"},{"bike_id":"4243ae41-7428-4d0b-afbe-a30ac0047a4d","system_id":"levelo_inurba_marseille","lat":43.27494,"lon":5.42451,"is_reserved":false,"is_disabled":false,"rental_uris":{"android":"levelo://app?vid=4243ae41-7428-4d0b-afbe-a30ac0047a4d","ios":"levelo://app?vid=4243ae41-7428-4d0b-afbe-a30ac0047a4d"},"vehicle_type_id":"4","last_reported":1728065530,"current_range_meters":39200,"station_id":"ce4bhn92rcd13ifvqgrg","pricing_plan_id":"cebpf4jnsgd1na2vs0mg"},{"bike_id":"6d327387-4bf8-4d2c-884e-e981b2ce0f88","system_id":"levelo_inurba_marseille","lat":43.255493,"lon":5.37674,"is_reserved":false,"is_disabled":false,"rental_uris":{"android":"levelo://app?vid=6d327387-4bf8-4d2c-884e-e981b2ce0f88","ios":"levelo://app?vid=6d327387-4bf8-4d2c-884e-e981b2ce0f88"},"vehicle_type_id":"4","last_reported":1728065530,"current_range_meters":20000,"station_id":"","pricing_plan_id":"cebpf4jnsgd1na2vs0mg"},{"bike_id":"23044d62-038e-4916-90bc-fa3fc5f24530","system_id":"levelo_inurba_marseille","lat":43.27813,"lon":5.40726,"is_reserved":false,"is_disabled":false,"rental_uris":{"android":"levelo://app?vid=23044d62-038e-4916-90bc-fa3fc5f24530","ios":"levelo://app?vid=23044d62-038e-4916-90bc-fa3fc5f24530"},"vehicle_type_id":"4","last_reported":1728065530,"current_range_meters":38800,"station_id":"ce4bhnh2rcd13ifvqgtg","pricing_plan_id":"cebpf4jnsgd1na2vs0mg"},{"bike_id":"be42e0c1-dce7-4e78-9f10-bd862a0cd0c4","system_id":"levelo_inurba_marseille","lat":43.31353,"lon":5.38496,"is_reserved":false,"is_disabled":false,"rental_uris":{"android":"levelo://app?vid=be42e0c1-dce7-4e78-9f10-bd862a0cd0c4","ios":"levelo://app?vid=be42e0c1-dce7-4e78-9f10-bd862a0cd0c4"},"vehicle_type_id":"4","last_reported":1728065530,"current_range_meters":38000,"station_id":"ce4bgt92rcd13ifvqcf0","pricing_plan_id":"cebpf4jnsgd1na2vs0mg"},{"bike_id":"494db5db-0a3d-416e-8897-37493d18865a","system_id":"levelo_inurba_marseille","lat":43.27213,"lon":5.39182,"is_reserved":false,"is_disabled":false,"rental_uris":{"android":"levelo://app?vid=494db5db-0a3d-416e-8897-37493d18865a","ios":"levelo://app?vid=494db5db-0a3d-416e-8897-37493d18865a"},"vehicle_type_id":"4","last_reported":1728065530,"current_range_meters":39200,"station_id":"ce4bhhp2rcd13ifvqfm0","pricing_plan_id":"cebpf4jnsgd1na2vs0mg"},{"bike_id":"149df3d4-2bac-4b47-b0b0-caa020d5e1f5","system_id":"levelo_inurba_marseille","lat":43.2293,"lon":5.35379,"is_reserved":false,"is_disabled":false,"rental_uris":{"android":"levelo://app?vid=149df3d4-2bac-4b47-b0b0-caa020d5e1f5","ios":"levelo://app?vid=149df3d4-2bac-4b47-b0b0-caa020d5e1f5"},"vehicle_type_id":"4","last_reported":1728065530,"current_range_meters":19600,"station_id":"cpo3532slgdg3j2ikp40","pricing_plan_id":"cebpf4jnsgd1na2vs0mg"},{"bike_id":"39a59e3a-4a6b-478e-9f3a-a5c38b99cac2","system_id":"levelo_inurba_marseille","lat":43.28466,"lon":5.35884,"is_reserved":false,"is_disabled":false,"rental_uris":{"android":"levelo://app?vid=39a59e3a-4a6b-478e-9f3a-a5c38b99cac2","ios":"levelo://app?vid=39a59e3a-4a6b-478e-9f3a-a5c38b99cac2"},"vehicle_type_id":"4","last_reported":1728065530,"current_range_meters":21600,"station_id":"ce4bhah2rcd13ifvqei0","pricing_plan_id":"cebpf4jnsgd1na2vs0mg"},{"bike_id":"77c59eab-5250-44c4-be86-099c0defe9c4","system_id":"levelo_inurba_marseille","lat":43.33751,"lon":5.3743,"is_reserved":false,"is_disabled":false,"rental_uris":{"android":"levelo://app?vid=77c59eab-5250-44c4-be86-099c0defe9c4","ios":"levelo://app?vid=77c59eab-5250-44c4-be86-099c0defe9c4"},"vehicle_type_id":"4","last_reported":1728065530,"current_range_meters":30000,"station_id":"","pricing_plan_id":"cebpf4jnsgd1na2vs0mg"},{"bike_id":"85611b5e-c4d3-40c3-94f5-4e1e80031fa0","system_id":"levelo_inurba_marseille","lat":43.25005,"lon":5.38931,"is_reserved":false,"is_disabled":false,"rental_uris":{"android":"levelo://app?vid=85611b5e-c4d3-40c3-94f5-4e1e80031fa0","ios":"levelo://app?vid=85611b5e-c4d3-40c3-94f5-4e1e80031fa0"},"vehicle_type_id":"4","last_reported":1728065530,"current_range_meters":3600,"station_id":"ce4bhgp2rcd13ifvqfd0","pricing_plan_id":"cebpf4jnsgd1na2vs0mg"},{"bike_id":"655c7a70-a9e9-4bdb-90df-3dd326718d46","system_id":"levelo_inurba_marseille","lat":43.25248,"lon":5.39213,"is_reserved":false,"is_disabled":false,"rental_uris":{"android":"levelo://app?vid=655c7a70-a9e9-4bdb-90df-3dd326718d46","ios":"levelo://app?vid=655c7a70-a9e9-4bdb-90df-3dd326718d46"},"vehicle_type_id":"4","last_reported":1728065530,"current_range_meters":24400,"station_id":"","pricing_plan_id":"cebpf4jnsgd1na2vs0mg"},{"bike_id":"84b07b81-8a90-4e9c-96ec-461a75726f5b","system_id":"levelo_inurba_marseille","lat":43.32,"lon":5.38169,"is_reserved":false,"is_disabled":false,"rental_uris":{"android":"levelo://app?vid=84b07b81-8a90-4e9c-96ec-461a75726f5b","ios":"levelo://app?vid=84b07b81-8a90-4e9c-96ec-461a75726f5b"},"vehicle_type_id":"4","last_reported":1728065530,"current_range_meters":9600,"station_id":"ce4bhr12rcd13ifvqhpg","pricing_plan_id":"cebpf4jnsgd1na2vs0mg"},{"bike_id":"8915fa8a-4549-45ce-81cf-58fdbf54b7a4","system_id":"levelo_inurba_marseille","lat":43.27938,"lon":5.41045,"is_reserved":false,"is_disabled":false,"rental_uris":{"android":"levelo://app?vid=8915fa8a-4549-45ce-81cf-58fdbf54b7a4","ios":"levelo://app?vid=8915fa8a-4549-45ce-81cf-58fdbf54b7a4"},"vehicle_type_id":"4","last_reported":1728065530,"current_range_meters":29600,"station_id":"ce4bhnp2rcd13ifvqh0g","pricing_plan_id":"cebpf4jnsgd1na2vs0mg"},{"bike_id":"32ceac28-dacd-4d4c-9c55-d75f7e6d1aa1","system_id":"levelo_inurba_marseille","lat":43.30801,"lon":5.43526,"is_reserved":false,"is_disabled":false,"rental_uris":{"android":"levelo://app?vid=32ceac28-dacd-4d4c-9c55-d75f7e6d1aa1","ios":"levelo://app?vid=32ceac28-dacd-4d4c-9c55-d75f7e6d1aa1"},"vehicle_type_id":"4","last_reported":1728065530,"current_range_meters":14000,"station_id":"","pricing_plan_id":"cebpf4jnsgd1na2vs0mg"},{"bike_id":"b417a8d0-1fac-4a2b-9294-35cea48e57c1","system_id":"levelo_inurba_marseille","lat":43.33021,"lon":5.39046,"is_reserved":false,"is_disabled":false,"rental_uris":{"android":"levelo://app?vid=b417a8d0-1fac-4a2b-9294-35cea48e57c1","ios":"levelo://app?vid=b417a8d0-1fac-4a2b-9294-35cea48e57c1"},"vehicle_type_id":"4","last_reported":1728065530,"current_range_meters":30400,"station_id":"ce4bhr92rcd13ifvqhrg","pricing_plan_id":"cebpf4jnsgd1na2vs0mg"},{"bike_id":"b60bce60-3d7e-46cf-b63b-4f25bc329fd7","system_id":"levelo_inurba_marseille","lat":43.27938,"lon":5.41046,"is_reserved":false,"is_disabled":false,"rental_uris":{"android":"levelo://app?vid=b60bce60-3d7e-46cf-b63b-4f25bc329fd7","ios":"levelo://app?vid=b60bce60-3d7e-46cf-b63b-4f25bc329fd7"},"vehicle_type_id":"4","last_reported":1728065530,"current_range_meters":16800,"station_id":"ce4bhnp2rcd13ifvqh0g","pricing_plan_id":"cebpf4jnsgd1na2vs0mg"},{"bike_id":"1a818e02-195d-4700-9b46-ede093733f31","system_id":"levelo_inurba_marseille","lat":43.30147,"lon":5.38079,"is_reserved":false,"is_disabled":false,"rental_uris":{"android":"levelo://app?vid=1a818e02-195d-4700-9b46-ede093733f31","ios":"levelo://app?vid=1a818e02-195d-4700-9b46-ede093733f31"},"vehicle_type_id":"4","last_reported":1728065530,"current_range_meters":20800,"station_id":"ce4bgvp2rcd13ifvqcu0","pricing_plan_id":"cebpf4jnsgd1na2vs0mg"},{"bike_id":"cba4ffea-2a1d-43a4-8a13-e150795fe0d3","system_id":"levelo_inurba_marseille","lat":43.2996,"lon":5.38503,"is_reserved":false,"is_disabled":false,"rental_uris":{"android":"levelo://app?vid=cba4ffea-2a1d-43a4-8a13-e150795fe0d3","ios":"levelo://app?vid=cba4ffea-2a1d-43a4-8a13-e150795fe0d3"},"vehicle_type_id":"4","last_reported":1728065530,"current_range_meters":7200,"station_id":"ce4bgj92rcd13ifvqbd0","pricing_plan_id":"cebpf4jnsgd1na2vs0mg"},{"bike_id":"bbfcab3d-20be-4eda-9bfd-9f9c246be632","system_id":"levelo_inurba_marseille","lat":43.27326,"lon":5.39085,"is_reserved":false,"is_disabled":false,"rental_uris":{"android":"levelo://app?vid=bbfcab3d-20be-4eda-9bfd-9f9c246be632","ios":"levelo://app?vid=bbfcab3d-20be-4eda-9bfd-9f9c246be632"},"vehicle_type_id":"4","last_reported":1728065530,"current_range_meters":10000,"station_id":"ce4bhgp2rcd13ifvqfe0","pricing_plan_id":"cebpf4jnsgd1na2vs0mg"},{"bike_id":"5e136df9-de7d-4c18-a9bc-d1db341f66e1","system_id":"levelo_inurba_marseille","lat":43.30147,"lon":5.37425,"is_reserved":false,"is_disabled":false,"rental_uris":{"android":"levelo://app?vid=5e136df9-de7d-4c18-a9bc-d1db341f66e1","ios":"levelo://app?vid=5e136df9-de7d-4c18-a9bc-d1db341f66e1"},"vehicle_type_id":"4","last_reported":1728065530,"current_range_meters":14800,"station_id":"ce4bgs92rcd13ifvqcc0","pricing_plan_id":"cebpf4jnsgd1na2vs0mg"},{"bike_id":"96458c2f-847d-45d7-b557-2356cbb228dc","system_id":"levelo_inurba_marseille","lat":43.289727,"lon":5.397488,"is_reserved":false,"is_disabled":false,"rental_uris":{"android":"levelo://app?vid=96458c2f-847d-45d7-b557-2356cbb228dc","ios":"levelo://app?vid=96458c2f-847d-45d7-b557-2356cbb228dc"},"vehicle_type_id":"4","last_reported":1728065530,"current_range_meters":9600,"station_id":"ce4bh3h2rcd13ifvqdn0","pricing_plan_id":"cebpf4jnsgd1na2vs0mg"},{"bike_id":"1dfd8e34-8527-4709-aac5-4df0669d081e","system_id":"levelo_inurba_marseille","lat":43.31331,"lon":5.39694,"is_reserved":false,"is_disabled":false,"rental_uris":{"android":"levelo://app?vid=1dfd8e34-8527-4709-aac5-4df0669d081e","ios":"levelo://app?vid=1dfd8e34-8527-4709-aac5-4df0669d081e"},"vehicle_type_id":"4","last_reported":1728065530,"current_range_meters":7200,"station_id":"ce4bgvp2rcd13ifvqcu0","pricing_plan_id":"cebpf4jnsgd1na2vs0mg"},{"bike_id":"f1abb1c7-6e38-43ed-9eb1-4b047ea196c8","system_id":"levelo_inurba_marseille","lat":43.26942,"lon":5.40249,"is_reserved":false,"is_disabled":false,"rental_uris":{"android":"levelo://app?vid=f1abb1c7-6e38-43ed-9eb1-4b047ea196c8","ios":"levelo://app?vid=f1abb1c7-6e38-43ed-9eb1-4b047ea196c8"},"vehicle_type_id":"4","last_reported":1728065530,"current_range_meters":14400,"station_id":"cjm6bp8fraef2m0cb0m0","pricing_plan_id":"cebpf4jnsgd1na2vs0mg"},{"bike_id":"b712c0ca-7d29-4f62-a09f-9360d03c56f0","system_id":"levelo_inurba_marseille","lat":43.27933,"lon":5.41054,"is_reserved":false,"is_disabled":false,"rental_uris":{"android":"levelo://app?vid=b712c0ca-7d29-4f62-a09f-9360d03c56f0","ios":"levelo://app?vid=b712c0ca-7d29-4f62-a09f-9360d03c56f0"},"vehicle_type_id":"4","last_reported":1728065530,"current_range_meters":37600,"station_id":"ce4bhnp2rcd13ifvqh0g","pricing_plan_id":"cebpf4jnsgd1na2vs0mg"},{"bike_id":"d9513a24-3235-43a7-b9a5-1c5cfe37603f","system_id":"levelo_inurba_marseille","lat":43.23056,"lon":5.35493,"is_reserved":false,"is_disabled":false,"rental_uris":{"android":"levelo://app?vid=d9513a24-3235-43a7-b9a5-1c5cfe37603f","ios":"levelo://app?vid=d9513a24-3235-43a7-b9a5-1c5cfe37603f"},"vehicle_type_id":"4","last_reported":1728065530,"current_range_meters":24400,"station_id":"cpo3342slgdg3j2ifvpg","pricing_plan_id":"cebpf4jnsgd1na2vs0mg"},{"bike_id":"009d6d0e-c1a8-4ddc-b330-ebf04e9c45b9","system_id":"levelo_inurba_marseille","lat":43.29897,"lon":5.43674,"is_reserved":false,"is_disabled":false,"rental_uris":{"android":"levelo://app?vid=009d6d0e-c1a8-4ddc-b330-ebf04e9c45b9","ios":"levelo://app?vid=009d6d0e-c1a8-4ddc-b330-ebf04e9c45b9"},"vehicle_type_id":"4","last_reported":1728065530,"current_range_meters":25600,"station_id":"ce4bhpp2rcd13ifvqhfg","pricing_plan_id":"cebpf4jnsgd1na2vs0mg"},{"bike_id":"4e0c83a2-b0c3-4894-8559-e509681998d3","system_id":"levelo_inurba_marseille","lat":43.31126,"lon":5.38331,"is_reserved":false,"is_disabled":false,"rental_uris":{"android":"levelo://app?vid=4e0c83a2-b0c3-4894-8559-e509681998d3","ios":"levelo://app?vid=4e0c83a2-b0c3-4894-8559-e509681998d3"},"vehicle_type_id":"4","last_reported":1728065530,"current_range_meters":21600,"station_id":"","pricing_plan_id":"cebpf4jnsgd1na2vs0mg"},{"bike_id":"947da4f6-4682-4ebc-ae50-4412c266ae35","system_id":"levelo_inurba_marseille","lat":43.27314,"lon":5.39075,"is_reserved":false,"is_disabled":false,"rental_uris":{"android":"levelo://app?vid=947da4f6-4682-4ebc-ae50-4412c266ae35","ios":"levelo://app?vid=947da4f6-4682-4ebc-ae50-4412c266ae35"},"vehicle_type_id":"4","last_reported":1728065530,"current_range_meters":16800,"station_id":"ce4bhgp2rcd13ifvqfe0","pricing_plan_id":"cebpf4jnsgd1na2vs0mg"},{"bike_id":"eb220bce-17b7-4d85-b324-4d5a1f101df2","system_id":"levelo_inurba_marseille","lat":43.30806,"lon":5.38157,"is_reserved":false,"is_disabled":false,"rental_uris":{"android":"levelo://app?vid=eb220bce-17b7-4d85-b324-4d5a1f101df2","ios":"levelo://app?vid=eb220bce-17b7-4d85-b324-4d5a1f101df2"},"vehicle_type_id":"4","last_reported":1728065530,"current_range_meters":38800,"station_id":"ce4bgt12rcd13ifvqce0","pricing_plan_id":"cebpf4jnsgd1na2vs0mg"},{"bike_id":"c606b102-fea7-4f28-9c0a-70d284453f0e","system_id":"levelo_inurba_marseille","lat":43.28014,"lon":5.39406,"is_reserved":false,"is_disabled":false,"rental_uris":{"android":"levelo://app?vid=c606b102-fea7-4f28-9c0a-70d284453f0e","ios":"levelo://app?vid=c606b102-fea7-4f28-9c0a-70d284453f0e"},"vehicle_type_id":"4","last_reported":1728065530,"current_range_meters":18800,"station_id":"","pricing_plan_id":"cebpf4jnsgd1na2vs0mg"},{"bike_id":"745956e2-85a4-4e28-8a9f-f9dc9abb062e","system_id":"levelo_inurba_marseille","lat":43.28789,"lon":5.37363,"is_reserved":false,"is_disabled":false,"rental_uris":{"android":"levelo://app?vid=745956e2-85a4-4e28-8a9f-f9dc9abb062e","ios":"levelo://app?vid=745956e2-85a4-4e28-8a9f-f9dc9abb062e"},"vehicle_type_id":"4","last_reported":1728065530,"current_range_meters":36400,"station_id":"","pricing_plan_id":"cebpf4jnsgd1na2vs0mg"},{"bike_id":"059229b0-8c08-45d6-bdd0-785ac74d5f34","system_id":"levelo_inurba_marseille","lat":43.24804,"lon":5.37458,"is_reserved":false,"is_disabled":false,"rental_uris":{"android":"levelo://app?vid=059229b0-8c08-45d6-bdd0-785ac74d5f34","ios":"levelo://app?vid=059229b0-8c08-45d6-bdd0-785ac74d5f34"},"vehicle_type_id":"4","last_reported":1728065530,"current_range_meters":16800,"station_id":"ce4bhgh2rcd13ifvqfb0","pricing_plan_id":"cebpf4jnsgd1na2vs0mg"},{"bike_id":"4e5012d3-097e-4752-930f-fc706eefd5c7","system_id":"levelo_inurba_marseille","lat":43.26944,"lon":5.40245,"is_reserved":false,"is_disabled":false,"rental_uris":{"android":"levelo://app?vid=4e5012d3-097e-4752-930f-fc706eefd5c7","ios":"levelo://app?vid=4e5012d3-097e-4752-930f-fc706eefd5c7"},"vehicle_type_id":"4","last_reported":1728065530,"current_range_meters":8400,"station_id":"cjm6bp8fraef2m0cb0m0","pricing_plan_id":"cebpf4jnsgd1na2vs0mg"},{"bike_id":"aa6ea80f-d3cc-43e6-a69f-38faa11735ba","system_id":"levelo_inurba_marseille","lat":43.23963,"lon":5.36633,"is_reserved":false,"is_disabled":false,"rental_uris":{"android":"levelo://app?vid=aa6ea80f-d3cc-43e6-a69f-38faa11735ba","ios":"levelo://app?vid=aa6ea80f-d3cc-43e6-a69f-38faa11735ba"},"vehicle_type_id":"4","last_reported":1728065530,"current_range_meters":16800,"station_id":"ce4bhi12rcd13ifvqfp0","pricing_plan_id":"cebpf4jnsgd1na2vs0mg"},{"bike_id":"fd67db3d-cfc6-4457-99c9-b1cfb05a9bdf","system_id":"levelo_inurba_marseille","lat":43.23065,"lon":5.35496,"is_reserved":false,"is_disabled":false,"rental_uris":{"android":"levelo://app?vid=fd67db3d-cfc6-4457-99c9-b1cfb05a9bdf","ios":"levelo://app?vid=fd67db3d-cfc6-4457-99c9-b1cfb05a9bdf"},"vehicle_type_id":"4","last_reported":1728065530,"current_range_meters":20400,"station_id":"cpo3342slgdg3j2ifvpg","pricing_plan_id":"cebpf4jnsgd1na2vs0mg"},{"bike_id":"aa5001f8-40e0-4c83-bfed-eb0a81941210","system_id":"levelo_inurba_marseille","lat":43.31082,"lon":5.42431,"is_reserved":false,"is_disabled":false,"rental_uris":{"android":"levelo://app?vid=aa5001f8-40e0-4c83-bfed-eb0a81941210","ios":"levelo://app?vid=aa5001f8-40e0-4c83-bfed-eb0a81941210"},"vehicle_type_id":"4","last_reported":1728065530,"current_range_meters":16000,"station_id":"ce4bhp92rcd13ifvqhag","pricing_plan_id":"cebpf4jnsgd1na2vs0mg"},{"bike_id":"0c2ad0cb-38fe-4492-802b-a18c92fe6a92","system_id":"levelo_inurba_marseille","lat":43.24548,"lon":5.39525,"is_reserved":false,"is_disabled":false,"rental_uris":{"android":"levelo://app?vid=0c2ad0cb-38fe-4492-802b-a18c92fe6a92","ios":"levelo://app?vid=0c2ad0cb-38fe-4492-802b-a18c92fe6a92"},"vehicle_type_id":"4","last_reported":1728065530,"current_range_meters":25600,"station_id":"ce4bhlp2rcd13ifvqgjg","pricing_plan_id":"cebpf4jnsgd1na2vs0mg"},{"bike_id":"c7851377-76fe-43de-bf39-1ae27fc199ac","system_id":"levelo_inurba_marseille","lat":43.297065,"lon":5.376962,"is_reserved":false,"is_disabled":false,"rental_uris":{"android":"levelo://app?vid=c7851377-76fe-43de-bf39-1ae27fc199ac","ios":"levelo://app?vid=c7851377-76fe-43de-bf39-1ae27fc199ac"},"vehicle_type_id":"4","last_reported":1728065530,"current_range_meters":12000,"station_id":"ce4bgqh2rcd13ifvqc4g","pricing_plan_id":"cebpf4jnsgd1na2vs0mg"},{"bike_id":"bdefae95-7cc5-4880-bfcb-b1af39586be0","system_id":"levelo_inurba_marseille","lat":43.3266,"lon":5.40997,"is_reserved":false,"is_disabled":false,"rental_uris":{"android":"levelo://app?vid=bdefae95-7cc5-4880-bfcb-b1af39586be0","ios":"levelo://app?vid=bdefae95-7cc5-4880-bfcb-b1af39586be0"},"vehicle_type_id":"4","last_reported":1728065530,"current_range_meters":38000,"station_id":"ce4bhpp2rcd13ifvqhgg","pricing_plan_id":"cebpf4jnsgd1na2vs0mg"},{"bike_id":"6a0988f6-94d9-45c2-b0c3-af1651eabea2","system_id":"levelo_inurba_marseille","lat":43.23965,"lon":5.36634,"is_reserved":false,"is_disabled":false,"rental_uris":{"android":"levelo://app?vid=6a0988f6-94d9-45c2-b0c3-af1651eabea2","ios":"levelo://app?vid=6a0988f6-94d9-45c2-b0c3-af1651eabea2"},"vehicle_type_id":"4","last_reported":1728065530,"current_range_meters":14800,"station_id":"ce4bhi12rcd13ifvqfp0","pricing_plan_id":"cebpf4jnsgd1na2vs0mg"},{"bike_id":"fd56293b-10d2-4302-a1f8-b72600db480b","system_id":"levelo_inurba_marseille","lat":43.26931,"lon":5.38912,"is_reserved":false,"is_disabled":false,"rental_uris":{"android":"levelo://app?vid=fd56293b-10d2-4302-a1f8-b72600db480b","ios":"levelo://app?vid=fd56293b-10d2-4302-a1f8-b72600db480b"},"vehicle_type_id":"4","last_reported":1728065530,"current_range_meters":39200,"station_id":"ce4bhhh2rcd13ifvqfl0","pricing_plan_id":"cebpf4jnsgd1na2vs0mg"},{"bike_id":"2cb667a2-6112-4066-93fc-260c73b3e2bd","system_id":"levelo_inurba_marseille","lat":43.27312,"lon":5.39076,"is_reserved":false,"is_disabled":false,"rental_uris":{"android":"levelo://app?vid=2cb667a2-6112-4066-93fc-260c73b3e2bd","ios":"levelo://app?vid=2cb667a2-6112-4066-93fc-260c73b3e2bd"},"vehicle_type_id":"4","last_reported":1728065530,"current_range_meters":25200,"station_id":"ce4bhgp2rcd13ifvqfe0","pricing_plan_id":"cebpf4jnsgd1na2vs0mg"},{"bike_id":"9433f3ae-d1eb-427d-9ef7-94109240cd3e","system_id":"levelo_inurba_marseille","lat":43.27321,"lon":5.39078,"is_reserved":false,"is_disabled":false,"rental_uris":{"android":"levelo://app?vid=9433f3ae-d1eb-427d-9ef7-94109240cd3e","ios":"levelo://app?vid=9433f3ae-d1eb-427d-9ef7-94109240cd3e"},"vehicle_type_id":"4","last_reported":1728065530,"current_range_meters":24800,"station_id":"ce4bhgp2rcd13ifvqfe0","pricing_plan_id":"cebpf4jnsgd1na2vs0mg"},{"bike_id":"1e9e701f-fb8e-430e-be7f-54907f1b9076","system_id":"levelo_inurba_marseille","lat":43.33023,"lon":5.39043,"is_reserved":false,"is_disabled":false,"rental_uris":{"android":"levelo://app?vid=1e9e701f-fb8e-430e-be7f-54907f1b9076","ios":"levelo://app?vid=1e9e701f-fb8e-430e-be7f-54907f1b9076"},"vehicle_type_id":"4","last_reported":1728065530,"current_range_meters":22800,"station_id":"ce4bhr92rcd13ifvqhrg","pricing_plan_id":"cebpf4jnsgd1na2vs0mg"},{"bike_id":"26f290bb-1447-4f43-ab6d-1590e2a06a4b","system_id":"levelo_inurba_marseille","lat":43.3145,"lon":5.37371,"is_reserved":false,"is_disabled":false,"rental_uris":{"android":"levelo://app?vid=26f290bb-1447-4f43-ab6d-1590e2a06a4b","ios":"levelo://app?vid=26f290bb-1447-4f43-ab6d-1590e2a06a4b"},"vehicle_type_id":"4","last_reported":1728065530,"current_range_meters":38000,"station_id":"ce4bgt12rcd13ifvqcd0","pricing_plan_id":"cebpf4jnsgd1na2vs0mg"},{"bike_id":"b8948dba-15a7-406e-84a9-a7e6d89fcd56","system_id":"levelo_inurba_marseille","lat":43.29931,"lon":5.3655,"is_reserved":false,"is_disabled":false,"rental_uris":{"android":"levelo://app?vid=b8948dba-15a7-406e-84a9-a7e6d89fcd56","ios":"levelo://app?vid=b8948dba-15a7-406e-84a9-a7e6d89fcd56"},"vehicle_type_id":"4","last_reported":1728065530,"current_range_meters":16000,"station_id":"ce4bgm92rcd13ifvqbr0","pricing_plan_id":"cebpf4jnsgd1na2vs0mg"},{"bike_id":"8be8cb6f-ecda-4bd7-b942-ad3e4b89fd92","system_id":"levelo_inurba_marseille","lat":43.273745,"lon":5.362556,"is_reserved":false,"is_disabled":false,"rental_uris":{"android":"levelo://app?vid=8be8cb6f-ecda-4bd7-b942-ad3e4b89fd92","ios":"levelo://app?vid=8be8cb6f-ecda-4bd7-b942-ad3e4b89fd92"},"vehicle_type_id":"4","last_reported":1728065530,"current_range_meters":12800,"station_id":"ce4bhah2rcd13ifvqej0","pricing_plan_id":"cebpf4jnsgd1na2vs0mg"},{"bike_id":"56f53b8b-890b-49c8-9833-a36290a5ebe1","system_id":"levelo_inurba_marseille","lat":43.31083,"lon":5.42437,"is_reserved":false,"is_disabled":false,"rental_uris":{"android":"levelo://app?vid=56f53b8b-890b-49c8-9833-a36290a5ebe1","ios":"levelo://app?vid=56f53b8b-890b-49c8-9833-a36290a5ebe1"},"vehicle_type_id":"4","last_reported":1728065530,"current_range_meters":30800,"station_id":"ce4bhp92rcd13ifvqhag","pricing_plan_id":"cebpf4jnsgd1na2vs0mg"},{"bike_id":"5b0a6d7f-c426-454a-82ad-28e2608bee63","system_id":"levelo_inurba_marseille","lat":43.32301,"lon":5.38658,"is_reserved":false,"is_disabled":false,"rental_uris":{"android":"levelo://app?vid=5b0a6d7f-c426-454a-82ad-28e2608bee63","ios":"levelo://app?vid=5b0a6d7f-c426-454a-82ad-28e2608bee63"},"vehicle_type_id":"4","last_reported":1728065530,"current_range_meters":24800,"station_id":"","pricing_plan_id":"cebpf4jnsgd1na2vs0mg"},{"bike_id":"e634ab0d-0de2-4542-b775-80767d6e1e9a","system_id":"levelo_inurba_marseille","lat":43.306031,"lon":5.372339,"is_reserved":false,"is_disabled":false,"rental_uris":{"android":"levelo://app?vid=e634ab0d-0de2-4542-b775-80767d6e1e9a","ios":"levelo://app?vid=e634ab0d-0de2-4542-b775-80767d6e1e9a"},"vehicle_type_id":"4","last_reported":1728065530,"current_range_meters":4800,"station_id":"ce4bgvp2rcd13ifvqct0","pricing_plan_id":"cebpf4jnsgd1na2vs0mg"},{"bike_id":"b6b50a76-c7f5-4648-8d86-1d1931ee39d9","system_id":"levelo_inurba_marseille","lat":43.31885,"lon":5.4074,"is_reserved":false,"is_disabled":false,"rental_uris":{"android":"levelo://app?vid=b6b50a76-c7f5-4648-8d86-1d1931ee39d9","ios":"levelo://app?vid=b6b50a76-c7f5-4648-8d86-1d1931ee39d9"},"vehicle_type_id":"4","last_reported":1728065530,"current_range_meters":25200,"station_id":"ce4bhq12rcd13ifvqhig","pricing_plan_id":"cebpf4jnsgd1na2vs0mg"},{"bike_id":"ff33ee43-6b06-4967-8b24-59da1cb83405","system_id":"levelo_inurba_marseille","lat":43.247983,"lon":5.375197,"is_reserved":false,"is_disabled":false,"rental_uris":{"android":"levelo://app?vid=ff33ee43-6b06-4967-8b24-59da1cb83405","ios":"levelo://app?vid=ff33ee43-6b06-4967-8b24-59da1cb83405"},"vehicle_type_id":"4","last_reported":1728065530,"current_range_meters":2800,"station_id":"ce4bhgh2rcd13ifvqfb0","pricing_plan_id":"cebpf4jnsgd1na2vs0mg"},{"bike_id":"02934a38-f3a5-4954-901b-b150db44bed2","system_id":"levelo_inurba_marseille","lat":43.317,"lon":5.37729,"is_reserved":false,"is_disabled":false,"rental_uris":{"android":"levelo://app?vid=02934a38-f3a5-4954-901b-b150db44bed2","ios":"levelo://app?vid=02934a38-f3a5-4954-901b-b150db44bed2"},"vehicle_type_id":"4","last_reported":1728065530,"current_range_meters":32000,"station_id":"ce4bgth2rcd13ifvqch0","pricing_plan_id":"cebpf4jnsgd1na2vs0mg"},{"bike_id":"cd20cd36-131a-4922-931d-48e1b632a77d","system_id":"levelo_inurba_marseille","lat":43.28438,"lon":5.39208,"is_reserved":false,"is_disabled":false,"rental_uris":{"android":"levelo://app?vid=cd20cd36-131a-4922-931d-48e1b632a77d","ios":"levelo://app?vid=cd20cd36-131a-4922-931d-48e1b632a77d"},"vehicle_type_id":"4","last_reported":1728065530,"current_range_meters":10800,"station_id":"ce4bhoh2rcd13ifvqh5g","pricing_plan_id":"cebpf4jnsgd1na2vs0mg"},{"bike_id":"45c784d1-5ee3-4e5f-9187-db48422c38fa","system_id":"levelo_inurba_marseille","lat":43.24808,"lon":5.37459,"is_reserved":false,"is_disabled":false,"rental_uris":{"android":"levelo://app?vid=45c784d1-5ee3-4e5f-9187-db48422c38fa","ios":"levelo://app?vid=45c784d1-5ee3-4e5f-9187-db48422c38fa"},"vehicle_type_id":"4","last_reported":1728065530,"current_range_meters":8400,"station_id":"ce4bhgh2rcd13ifvqfb0","pricing_plan_id":"cebpf4jnsgd1na2vs0mg"},{"bike_id":"b6a817d8-5787-46a3-898e-0b46c75fc481","system_id":"levelo_inurba_marseille","lat":43.32965,"lon":5.40344,"is_reserved":false,"is_disabled":false,"rental_uris":{"android":"levelo://app?vid=b6a817d8-5787-46a3-898e-0b46c75fc481","ios":"levelo://app?vid=b6a817d8-5787-46a3-898e-0b46c75fc481"},"vehicle_type_id":"4","last_reported":1728065530,"current_range_meters":9600,"station_id":"","pricing_plan_id":"cebpf4jnsgd1na2vs0mg"},{"bike_id":"76f7e8b6-c021-4c3c-be96-8deaa11c2513","system_id":"levelo_inurba_marseille","lat":43.2694,"lon":5.40252,"is_reserved":false,"is_disabled":false,"rental_uris":{"android":"levelo://app?vid=76f7e8b6-c021-4c3c-be96-8deaa11c2513","ios":"levelo://app?vid=76f7e8b6-c021-4c3c-be96-8deaa11c2513"},"vehicle_type_id":"4","last_reported":1728065530,"current_range_meters":4400,"station_id":"cjm6bp8fraef2m0cb0m0","pricing_plan_id":"cebpf4jnsgd1na2vs0mg"},{"bike_id":"f58eb716-6ddd-47e2-82b6-5104c11c2254","system_id":"levelo_inurba_marseille","lat":43.27061,"lon":5.40261,"is_reserved":false,"is_disabled":false,"rental_uris":{"android":"levelo://app?vid=f58eb716-6ddd-47e2-82b6-5104c11c2254","ios":"levelo://app?vid=f58eb716-6ddd-47e2-82b6-5104c11c2254"},"vehicle_type_id":"4","last_reported":1728065530,"current_range_meters":6800,"station_id":"ce4bhk92rcd13ifvqgc0","pricing_plan_id":"cebpf4jnsgd1na2vs0mg"},{"bike_id":"64bd957e-b978-44cb-a85c-928d627d24ec","system_id":"levelo_inurba_marseille","lat":43.35424,"lon":5.35869,"is_reserved":false,"is_disabled":false,"rental_uris":{"android":"levelo://app?vid=64bd957e-b978-44cb-a85c-928d627d24ec","ios":"levelo://app?vid=64bd957e-b978-44cb-a85c-928d627d24ec"},"vehicle_type_id":"4","last_reported":1728065530,"current_range_meters":11200,"station_id":"","pricing_plan_id":"cebpf4jnsgd1na2vs0mg"},{"bike_id":"0818cb9d-3c4a-4ce8-8696-a1a96c49d275","system_id":"levelo_inurba_marseille","lat":43.309448,"lon":5.390341,"is_reserved":false,"is_disabled":false,"rental_uris":{"android":"levelo://app?vid=0818cb9d-3c4a-4ce8-8696-a1a96c49d275","ios":"levelo://app?vid=0818cb9d-3c4a-4ce8-8696-a1a96c49d275"},"vehicle_type_id":"4","last_reported":1728065530,"current_range_meters":8000,"station_id":"ce4bhs12rcd13ifvqhvg","pricing_plan_id":"cebpf4jnsgd1na2vs0mg"},{"bike_id":"d36f838d-d50c-44bc-b7b6-cba439c0a320","system_id":"levelo_inurba_marseille","lat":43.30649,"lon":5.40105,"is_reserved":false,"is_disabled":false,"rental_uris":{"android":"levelo://app?vid=d36f838d-d50c-44bc-b7b6-cba439c0a320","ios":"levelo://app?vid=d36f838d-d50c-44bc-b7b6-cba439c0a320"},"vehicle_type_id":"4","last_reported":1728065530,"current_range_meters":24000,"station_id":"ce4bh112rcd13ifvqda0","pricing_plan_id":"cebpf4jnsgd1na2vs0mg"},{"bike_id":"4a79b7f5-df06-47d9-894a-c23c245e5186","system_id":"levelo_inurba_marseille","lat":43.29556,"lon":5.42291,"is_reserved":false,"is_disabled":false,"rental_uris":{"android":"levelo://app?vid=4a79b7f5-df06-47d9-894a-c23c245e5186","ios":"levelo://app?vid=4a79b7f5-df06-47d9-894a-c23c245e5186"},"vehicle_type_id":"4","last_reported":1728065530,"current_range_meters":3200,"station_id":"ce4bhph2rcd13ifvqhdg","pricing_plan_id":"cebpf4jnsgd1na2vs0mg"},{"bike_id":"4a920917-8b0f-43f3-9629-c27a07368fa3","system_id":"levelo_inurba_marseille","lat":43.26553,"lon":5.37289,"is_reserved":false,"is_disabled":false,"rental_uris":{"android":"levelo://app?vid=4a920917-8b0f-43f3-9629-c27a07368fa3","ios":"levelo://app?vid=4a920917-8b0f-43f3-9629-c27a07368fa3"},"vehicle_type_id":"4","last_reported":1728065530,"current_range_meters":30800,"station_id":"ce4bhg12rcd13ifvqf70","pricing_plan_id":"cebpf4jnsgd1na2vs0mg"},{"bike_id":"817e8174-7539-47c4-83f7-fbf5a8b44e59","system_id":"levelo_inurba_marseille","lat":43.3093,"lon":5.40151,"is_reserved":false,"is_disabled":false,"rental_uris":{"android":"levelo://app?vid=817e8174-7539-47c4-83f7-fbf5a8b44e59","ios":"levelo://app?vid=817e8174-7539-47c4-83f7-fbf5a8b44e59"},"vehicle_type_id":"4","last_reported":1728065530,"current_range_meters":6000,"station_id":"ce4bgvp2rcd13ifvqct0","pricing_plan_id":"cebpf4jnsgd1na2vs0mg"},{"bike_id":"43fc084b-57ec-4ca0-a127-3d002a8bc747","system_id":"levelo_inurba_marseille","lat":43.29905,"lon":5.38144,"is_reserved":false,"is_disabled":false,"rental_uris":{"android":"levelo://app?vid=43fc084b-57ec-4ca0-a127-3d002a8bc747","ios":"levelo://app?vid=43fc084b-57ec-4ca0-a127-3d002a8bc747"},"vehicle_type_id":"4","last_reported":1728065530,"current_range_meters":38800,"station_id":"ce4bgj12rcd13ifvqbc0","pricing_plan_id":"cebpf4jnsgd1na2vs0mg"},{"bike_id":"a3d3e661-81e3-4529-bc48-1f2e3bc5ef17","system_id":"levelo_inurba_marseille","lat":43.25867,"lon":5.39902,"is_reserved":false,"is_disabled":false,"rental_uris":{"android":"levelo://app?vid=a3d3e661-81e3-4529-bc48-1f2e3bc5ef17","ios":"levelo://app?vid=a3d3e661-81e3-4529-bc48-1f2e3bc5ef17"},"vehicle_type_id":"4","last_reported":1728065530,"current_range_meters":8000,"station_id":"ce4bhl92rcd13ifvqghg","pricing_plan_id":"cebpf4jnsgd1na2vs0mg"},{"bike_id":"c6f873cc-4970-4997-828b-ed86f1e2adb1","system_id":"levelo_inurba_marseille","lat":43.24174,"lon":5.39727,"is_reserved":false,"is_disabled":false,"rental_uris":{"android":"levelo://app?vid=c6f873cc-4970-4997-828b-ed86f1e2adb1","ios":"levelo://app?vid=c6f873cc-4970-4997-828b-ed86f1e2adb1"},"vehicle_type_id":"4","last_reported":1728065530,"current_range_meters":8000,"station_id":"ce4bhn12rcd13ifvqgpg","pricing_plan_id":"cebpf4jnsgd1na2vs0mg"},{"bike_id":"6d679b6b-38e0-4f37-8caf-d0dfb3677fc5","system_id":"levelo_inurba_marseille","lat":43.2293,"lon":5.35381,"is_reserved":false,"is_disabled":false,"rental_uris":{"android":"levelo://app?vid=6d679b6b-38e0-4f37-8caf-d0dfb3677fc5","ios":"levelo://app?vid=6d679b6b-38e0-4f37-8caf-d0dfb3677fc5"},"vehicle_type_id":"4","last_reported":1728065530,"current_range_meters":17200,"station_id":"cpo3532slgdg3j2ikp40","pricing_plan_id":"cebpf4jnsgd1na2vs0mg"},{"bike_id":"055fa2c9-8a91-46c5-a73c-5bc9809f8856","system_id":"levelo_inurba_marseille","lat":43.26567,"lon":5.39007,"is_reserved":false,"is_disabled":false,"rental_uris":{"android":"levelo://app?vid=055fa2c9-8a91-46c5-a73c-5bc9809f8856","ios":"levelo://app?vid=055fa2c9-8a91-46c5-a73c-5bc9809f8856"},"vehicle_type_id":"4","last_reported":1728065530,"current_range_meters":33600,"station_id":"ce4bhe12rcd13ifvqf30","pricing_plan_id":"cebpf4jnsgd1na2vs0mg"},{"bike_id":"42715632-e225-47f3-813c-9451f24e5700","system_id":"levelo_inurba_marseille","lat":43.2319,"lon":5.35558,"is_reserved":false,"is_disabled":false,"rental_uris":{"android":"levelo://app?vid=42715632-e225-47f3-813c-9451f24e5700","ios":"levelo://app?vid=42715632-e225-47f3-813c-9451f24e5700"},"vehicle_type_id":"4","last_reported":1728065530,"current_range_meters":12000,"station_id":"ce4bhu92rcd13ifvqi70","pricing_plan_id":"cebpf4jnsgd1na2vs0mg"},{"bike_id":"ed0afaed-f916-4854-994b-95ae46c87002","system_id":"levelo_inurba_marseille","lat":43.24665,"lon":5.38166,"is_reserved":false,"is_disabled":false,"rental_uris":{"android":"levelo://app?vid=ed0afaed-f916-4854-994b-95ae46c87002","ios":"levelo://app?vid=ed0afaed-f916-4854-994b-95ae46c87002"},"vehicle_type_id":"4","last_reported":1728065530,"current_range_meters":3600,"station_id":"ce4bhih2rcd13ifvqfr0","pricing_plan_id":"cebpf4jnsgd1na2vs0mg"},{"bike_id":"9c6ceacf-46aa-4972-8a1c-69fbeaf93293","system_id":"levelo_inurba_marseille","lat":43.317597,"lon":5.39024,"is_reserved":false,"is_disabled":false,"rental_uris":{"android":"levelo://app?vid=9c6ceacf-46aa-4972-8a1c-69fbeaf93293","ios":"levelo://app?vid=9c6ceacf-46aa-4972-8a1c-69fbeaf93293"},"vehicle_type_id":"4","last_reported":1728065530,"current_range_meters":10800,"station_id":"ce4bhqp2rcd13ifvqhng","pricing_plan_id":"cebpf4jnsgd1na2vs0mg"},{"bike_id":"09bfbd8c-c4d2-4e83-a3e6-e0e242524ecb","system_id":"levelo_inurba_marseille","lat":43.27766,"lon":5.42035,"is_reserved":false,"is_disabled":false,"rental_uris":{"android":"levelo://app?vid=09bfbd8c-c4d2-4e83-a3e6-e0e242524ecb","ios":"levelo://app?vid=09bfbd8c-c4d2-4e83-a3e6-e0e242524ecb"},"vehicle_type_id":"4","last_reported":1728065530,"current_range_meters":38800,"station_id":"","pricing_plan_id":"cebpf4jnsgd1na2vs0mg"},{"bike_id":"18b9e795-8b52-4e2b-ac5d-7e5e9c197845","system_id":"levelo_inurba_marseille","lat":43.2707,"lon":5.42285,"is_reserved":false,"is_disabled":false,"rental_uris":{"android":"levelo://app?vid=18b9e795-8b52-4e2b-ac5d-7e5e9c197845","ios":"levelo://app?vid=18b9e795-8b52-4e2b-ac5d-7e5e9c197845"},"vehicle_type_id":"4","last_reported":1728065530,"current_range_meters":11600,"station_id":"ce4bhk92rcd13ifvqgb0","pricing_plan_id":"cebpf4jnsgd1na2vs0mg"},{"bike_id":"f51943c8-48f1-44ed-8878-da3b866ecaf2","system_id":"levelo_inurba_marseille","lat":43.2857,"lon":5.39501,"is_reserved":false,"is_disabled":false,"rental_uris":{"android":"levelo://app?vid=f51943c8-48f1-44ed-8878-da3b866ecaf2","ios":"levelo://app?vid=f51943c8-48f1-44ed-8878-da3b866ecaf2"},"vehicle_type_id":"4","last_reported":1728065530,"current_range_meters":14000,"station_id":"ce4bh292rcd13ifvqdg0","pricing_plan_id":"cebpf4jnsgd1na2vs0mg"},{"bike_id":"2e50537c-6184-4786-a5a5-e5a2238b1192","system_id":"levelo_inurba_marseille","lat":43.31691,"lon":5.37767,"is_reserved":false,"is_disabled":false,"rental_uris":{"android":"levelo://app?vid=2e50537c-6184-4786-a5a5-e5a2238b1192","ios":"levelo://app?vid=2e50537c-6184-4786-a5a5-e5a2238b1192"},"vehicle_type_id":"4","last_reported":1728065530,"current_range_meters":8800,"station_id":"ce4bgth2rcd13ifvqch0","pricing_plan_id":"cebpf4jnsgd1na2vs0mg"},{"bike_id":"ccfed428-4535-4bb5-a4dd-7c66a9aba103","system_id":"levelo_inurba_marseille","lat":43.29578,"lon":5.36746,"is_reserved":false,"is_disabled":false,"rental_uris":{"android":"levelo://app?vid=ccfed428-4535-4bb5-a4dd-7c66a9aba103","ios":"levelo://app?vid=ccfed428-4535-4bb5-a4dd-7c66a9aba103"},"vehicle_type_id":"4","last_reported":1728065530,"current_range_meters":28800,"station_id":"ce4bgph2rcd13ifvqc2g","pricing_plan_id":"cebpf4jnsgd1na2vs0mg"},{"bike_id":"ac4541d1-16ae-4315-b738-9e3f9a0cf147","system_id":"levelo_inurba_marseille","lat":43.29303,"lon":5.37454,"is_reserved":false,"is_disabled":false,"rental_uris":{"android":"levelo://app?vid=ac4541d1-16ae-4315-b738-9e3f9a0cf147","ios":"levelo://app?vid=ac4541d1-16ae-4315-b738-9e3f9a0cf147"},"vehicle_type_id":"4","last_reported":1728065530,"current_range_meters":32400,"station_id":"ce4bgi12rcd13ifvqb70","pricing_plan_id":"cebpf4jnsgd1na2vs0mg"},{"bike_id":"e315600c-3ff8-4893-abe5-0c310d48465d","system_id":"levelo_inurba_marseille","lat":43.33761,"lon":5.37442,"is_reserved":false,"is_disabled":false,"rental_uris":{"android":"levelo://app?vid=e315600c-3ff8-4893-abe5-0c310d48465d","ios":"levelo://app?vid=e315600c-3ff8-4893-abe5-0c310d48465d"},"vehicle_type_id":"4","last_reported":1728065530,"current_range_meters":36800,"station_id":"","pricing_plan_id":"cebpf4jnsgd1na2vs0mg"},{"bike_id":"394e8a45-940d-41d5-b610-db14b18f2bb6","system_id":"levelo_inurba_marseille","lat":43.27942,"lon":5.41049,"is_reserved":false,"is_disabled":false,"rental_uris":{"android":"levelo://app?vid=394e8a45-940d-41d5-b610-db14b18f2bb6","ios":"levelo://app?vid=394e8a45-940d-41d5-b610-db14b18f2bb6"},"vehicle_type_id":"4","last_reported":1728065530,"current_range_meters":34800,"station_id":"ce4bhnp2rcd13ifvqh0g","pricing_plan_id":"cebpf4jnsgd1na2vs0mg"},{"bike_id":"41971d72-4217-4805-b13f-df3a7e636d3d","system_id":"levelo_inurba_marseille","lat":43.29267,"lon":5.38443,"is_reserved":false,"is_disabled":false,"rental_uris":{"android":"levelo://app?vid=41971d72-4217-4805-b13f-df3a7e636d3d","ios":"levelo://app?vid=41971d72-4217-4805-b13f-df3a7e636d3d"},"vehicle_type_id":"4","last_reported":1728065530,"current_range_meters":29600,"station_id":"ce4bh692rcd13ifvqea0","pricing_plan_id":"cebpf4jnsgd1na2vs0mg"},{"bike_id":"40932d85-b11d-417b-ac24-52a9673a3ef7","system_id":"levelo_inurba_marseille","lat":43.29249,"lon":5.40914,"is_reserved":false,"is_disabled":false,"rental_uris":{"android":"levelo://app?vid=40932d85-b11d-417b-ac24-52a9673a3ef7","ios":"levelo://app?vid=40932d85-b11d-417b-ac24-52a9673a3ef7"},"vehicle_type_id":"4","last_reported":1728065530,"current_range_meters":6400,"station_id":"ce4bh192rcd13ifvqdc0","pricing_plan_id":"cebpf4jnsgd1na2vs0mg"},{"bike_id":"836b2722-e5f2-4673-a928-dd30ad09bf77","system_id":"levelo_inurba_marseille","lat":43.27946,"lon":5.41046,"is_reserved":false,"is_disabled":false,"rental_uris":{"android":"levelo://app?vid=836b2722-e5f2-4673-a928-dd30ad09bf77","ios":"levelo://app?vid=836b2722-e5f2-4673-a928-dd30ad09bf77"},"vehicle_type_id":"4","last_reported":1728065530,"current_range_meters":2800,"station_id":"ce4bhnp2rcd13ifvqh0g","pricing_plan_id":"cebpf4jnsgd1na2vs0mg"},{"bike_id":"024272f6-30c7-46f8-9550-e37ed1080746","system_id":"levelo_inurba_marseille","lat":43.29357,"lon":5.37852,"is_reserved":false,"is_disabled":false,"rental_uris":{"android":"levelo://app?vid=024272f6-30c7-46f8-9550-e37ed1080746","ios":"levelo://app?vid=024272f6-30c7-46f8-9550-e37ed1080746"},"vehicle_type_id":"4","last_reported":1728065530,"current_range_meters":3600,"station_id":"ce4bgjh2rcd13ifvqbf0","pricing_plan_id":"cebpf4jnsgd1na2vs0mg"},{"bike_id":"2f2ceb89-679e-46ab-a21e-7cdd9461ac03","system_id":"levelo_inurba_marseille","lat":43.29787,"lon":5.39362,"is_reserved":false,"is_disabled":false,"rental_uris":{"android":"levelo://app?vid=2f2ceb89-679e-46ab-a21e-7cdd9461ac03","ios":"levelo://app?vid=2f2ceb89-679e-46ab-a21e-7cdd9461ac03"},"vehicle_type_id":"4","last_reported":1728065530,"current_range_meters":13600,"station_id":"chh1huq6cuj3fo74tm60","pricing_plan_id":"cebpf4jnsgd1na2vs0mg"},{"bike_id":"740aa9b1-bf7f-495f-b4b6-8c44676bc674","system_id":"levelo_inurba_marseille","lat":43.33747,"lon":5.37448,"is_reserved":false,"is_disabled":false,"rental_uris":{"android":"levelo://app?vid=740aa9b1-bf7f-495f-b4b6-8c44676bc674","ios":"levelo://app?vid=740aa9b1-bf7f-495f-b4b6-8c44676bc674"},"vehicle_type_id":"4","last_reported":1728065530,"current_range_meters":7200,"station_id":"","pricing_plan_id":"cebpf4jnsgd1na2vs0mg"},{"bike_id":"77b9203a-0842-4b45-acd8-ada92dfc3441","system_id":"levelo_inurba_marseille","lat":43.29911,"lon":5.38181,"is_reserved":false,"is_disabled":false,"rental_uris":{"android":"levelo://app?vid=77b9203a-0842-4b45-acd8-ada92dfc3441","ios":"levelo://app?vid=77b9203a-0842-4b45-acd8-ada92dfc3441"},"vehicle_type_id":"4","last_reported":1728065530,"current_range_meters":17200,"station_id":"ce4bgj12rcd13ifvqbc0","pricing_plan_id":"cebpf4jnsgd1na2vs0mg"},{"bike_id":"8c61526c-2d67-4b1a-8f32-0018924d753f","system_id":"levelo_inurba_marseille","lat":43.337444,"lon":5.374475,"is_reserved":false,"is_disabled":false,"rental_uris":{"android":"levelo://app?vid=8c61526c-2d67-4b1a-8f32-0018924d753f","ios":"levelo://app?vid=8c61526c-2d67-4b1a-8f32-0018924d753f"},"vehicle_type_id":"4","last_reported":1728065530,"current_range_meters":38000,"station_id":"","pricing_plan_id":"cebpf4jnsgd1na2vs0mg"},{"bike_id":"231b9d58-1b45-4949-8727-bdd2639df8c4","system_id":"levelo_inurba_marseille","lat":43.3107,"lon":5.38358,"is_reserved":false,"is_disabled":false,"rental_uris":{"android":"levelo://app?vid=231b9d58-1b45-4949-8727-bdd2639df8c4","ios":"levelo://app?vid=231b9d58-1b45-4949-8727-bdd2639df8c4"},"vehicle_type_id":"4","last_reported":1728065530,"current_range_meters":12400,"station_id":"ce4bgv92rcd13ifvqcr0","pricing_plan_id":"cebpf4jnsgd1na2vs0mg"},{"bike_id":"07275201-8e7a-45f4-a4bd-8587084835d5","system_id":"levelo_inurba_marseille","lat":43.23968,"lon":5.36614,"is_reserved":false,"is_disabled":false,"rental_uris":{"android":"levelo://app?vid=07275201-8e7a-45f4-a4bd-8587084835d5","ios":"levelo://app?vid=07275201-8e7a-45f4-a4bd-8587084835d5"},"vehicle_type_id":"4","last_reported":1728065530,"current_range_meters":27600,"station_id":"ce4bhi12rcd13ifvqfp0","pricing_plan_id":"cebpf4jnsgd1na2vs0mg"},{"bike_id":"6b315d99-3ae8-4acd-8c24-9531c7a83eb8","system_id":"levelo_inurba_marseille","lat":43.23063,"lon":5.35493,"is_reserved":false,"is_disabled":false,"rental_uris":{"android":"levelo://app?vid=6b315d99-3ae8-4acd-8c24-9531c7a83eb8","ios":"levelo://app?vid=6b315d99-3ae8-4acd-8c24-9531c7a83eb8"},"vehicle_type_id":"4","last_reported":1728065530,"current_range_meters":17600,"station_id":"cpo3342slgdg3j2ifvpg","pricing_plan_id":"cebpf4jnsgd1na2vs0mg"},{"bike_id":"d26e4c8e-6154-43fe-9bb3-8cfbcdb85e0a","system_id":"levelo_inurba_marseille","lat":43.30333,"lon":5.37048,"is_reserved":false,"is_disabled":false,"rental_uris":{"android":"levelo://app?vid=d26e4c8e-6154-43fe-9bb3-8cfbcdb85e0a","ios":"levelo://app?vid=d26e4c8e-6154-43fe-9bb3-8cfbcdb85e0a"},"vehicle_type_id":"4","last_reported":1728065530,"current_range_meters":6400,"station_id":"","pricing_plan_id":"cebpf4jnsgd1na2vs0mg"},{"bike_id":"652d07bb-2d5d-42ce-93d4-292feb678a89","system_id":"levelo_inurba_marseille","lat":43.31711,"lon":5.43707,"is_reserved":false,"is_disabled":false,"rental_uris":{"android":"levelo://app?vid=652d07bb-2d5d-42ce-93d4-292feb678a89","ios":"levelo://app?vid=652d07bb-2d5d-42ce-93d4-292feb678a89"},"vehicle_type_id":"4","last_reported":1728065530,"current_range_meters":28000,"station_id":"ce4bhp92rcd13ifvqhcg","pricing_plan_id":"cebpf4jnsgd1na2vs0mg"},{"bike_id":"55188226-ff9f-45e8-99b6-3c0c54d286d9","system_id":"levelo_inurba_marseille","lat":43.2843,"lon":5.36647,"is_reserved":false,"is_disabled":false,"rental_uris":{"android":"levelo://app?vid=55188226-ff9f-45e8-99b6-3c0c54d286d9","ios":"levelo://app?vid=55188226-ff9f-45e8-99b6-3c0c54d286d9"},"vehicle_type_id":"4","last_reported":1728065530,"current_range_meters":6800,"station_id":"ce4bhbp2rcd13ifvqerg","pricing_plan_id":"cebpf4jnsgd1na2vs0mg"},{"bike_id":"57edc522-155e-4b2c-ba36-0544b5ef8dca","system_id":"levelo_inurba_marseille","lat":43.2996,"lon":5.38523,"is_reserved":false,"is_disabled":false,"rental_uris":{"android":"levelo://app?vid=57edc522-155e-4b2c-ba36-0544b5ef8dca","ios":"levelo://app?vid=57edc522-155e-4b2c-ba36-0544b5ef8dca"},"vehicle_type_id":"4","last_reported":1728065530,"current_range_meters":38800,"station_id":"ce4bgj92rcd13ifvqbd0","pricing_plan_id":"cebpf4jnsgd1na2vs0mg"},{"bike_id":"b2d745b8-c391-4897-b1e7-d6cd70fa5211","system_id":"levelo_inurba_marseille","lat":43.29624,"lon":5.37722,"is_reserved":false,"is_disabled":false,"rental_uris":{"android":"levelo://app?vid=b2d745b8-c391-4897-b1e7-d6cd70fa5211","ios":"levelo://app?vid=b2d745b8-c391-4897-b1e7-d6cd70fa5211"},"vehicle_type_id":"4","last_reported":1728065530,"current_range_meters":28400,"station_id":"ce4bgi92rcd13ifvqb90","pricing_plan_id":"cebpf4jnsgd1na2vs0mg"},{"bike_id":"979c8de3-3e9b-4177-b08e-b8cdacec71ea","system_id":"levelo_inurba_marseille","lat":43.28974,"lon":5.37836,"is_reserved":false,"is_disabled":false,"rental_uris":{"android":"levelo://app?vid=979c8de3-3e9b-4177-b08e-b8cdacec71ea","ios":"levelo://app?vid=979c8de3-3e9b-4177-b08e-b8cdacec71ea"},"vehicle_type_id":"4","last_reported":1728065530,"current_range_meters":4400,"station_id":"ce4bh9p2rcd13ifvqed0","pricing_plan_id":"cebpf4jnsgd1na2vs0mg"},{"bike_id":"87102e6c-4bd0-4ac0-8581-be6531a8f7cc","system_id":"levelo_inurba_marseille","lat":43.296562,"lon":5.379492,"is_reserved":false,"is_disabled":false,"rental_uris":{"android":"levelo://app?vid=87102e6c-4bd0-4ac0-8581-be6531a8f7cc","ios":"levelo://app?vid=87102e6c-4bd0-4ac0-8581-be6531a8f7cc"},"vehicle_type_id":"4","last_reported":1728065530,"current_range_meters":2000,"station_id":"ce4bgl12rcd13ifvqbo0","pricing_plan_id":"cebpf4jnsgd1na2vs0mg"},{"bike_id":"9a4212d4-dfbb-45d0-9670-69900c1c2395","system_id":"levelo_inurba_marseille","lat":43.31738,"lon":5.37167,"is_reserved":false,"is_disabled":false,"rental_uris":{"android":"levelo://app?vid=9a4212d4-dfbb-45d0-9670-69900c1c2395","ios":"levelo://app?vid=9a4212d4-dfbb-45d0-9670-69900c1c2395"},"vehicle_type_id":"4","last_reported":1728065530,"current_range_meters":16400,"station_id":"","pricing_plan_id":"cebpf4jnsgd1na2vs0mg"},{"bike_id":"84680a20-1b3a-4452-9097-efecf19b44af","system_id":"levelo_inurba_marseille","lat":43.25826,"lon":5.39437,"is_reserved":false,"is_disabled":false,"rental_uris":{"android":"levelo://app?vid=84680a20-1b3a-4452-9097-efecf19b44af","ios":"levelo://app?vid=84680a20-1b3a-4452-9097-efecf19b44af"},"vehicle_type_id":"4","last_reported":1728065530,"current_range_meters":9600,"station_id":"ce4bhip2rcd13ifvqft0","pricing_plan_id":"cebpf4jnsgd1na2vs0mg"},{"bike_id":"f5439150-d38e-463c-bf73-5eb002c0d190","system_id":"levelo_inurba_marseille","lat":43.29936,"lon":5.36555,"is_reserved":false,"is_disabled":false,"rental_uris":{"android":"levelo://app?vid=f5439150-d38e-463c-bf73-5eb002c0d190","ios":"levelo://app?vid=f5439150-d38e-463c-bf73-5eb002c0d190"},"vehicle_type_id":"4","last_reported":1728065530,"current_range_meters":38800,"station_id":"ce4bgm92rcd13ifvqbr0","pricing_plan_id":"cebpf4jnsgd1na2vs0mg"},{"bike_id":"87dbcfac-a352-4e9a-b02f-707f526fd230","system_id":"levelo_inurba_marseille","lat":43.33766,"lon":5.37444,"is_reserved":false,"is_disabled":false,"rental_uris":{"android":"levelo://app?vid=87dbcfac-a352-4e9a-b02f-707f526fd230","ios":"levelo://app?vid=87dbcfac-a352-4e9a-b02f-707f526fd230"},"vehicle_type_id":"4","last_reported":1728065530,"current_range_meters":35600,"station_id":"","pricing_plan_id":"cebpf4jnsgd1na2vs0mg"},{"bike_id":"b1e82195-8737-4b91-8d76-5ccf5899abaf","system_id":"levelo_inurba_marseille","lat":43.287939,"lon":5.360963,"is_reserved":false,"is_disabled":false,"rental_uris":{"android":"levelo://app?vid=b1e82195-8737-4b91-8d76-5ccf5899abaf","ios":"levelo://app?vid=b1e82195-8737-4b91-8d76-5ccf5899abaf"},"vehicle_type_id":"4","last_reported":1728065530,"current_range_meters":17200,"station_id":"","pricing_plan_id":"cebpf4jnsgd1na2vs0mg"},{"bike_id":"d8621887-d02f-4774-b007-9c7f7ccea8f5","system_id":"levelo_inurba_marseille","lat":43.27368,"lon":5.36264,"is_reserved":false,"is_disabled":false,"rental_uris":{"android":"levelo://app?vid=d8621887-d02f-4774-b007-9c7f7ccea8f5","ios":"levelo://app?vid=d8621887-d02f-4774-b007-9c7f7ccea8f5"},"vehicle_type_id":"4","last_reported":1728065530,"current_range_meters":10000,"station_id":"ce4bhbh2rcd13ifvqeo0","pricing_plan_id":"cebpf4jnsgd1na2vs0mg"},{"bike_id":"dbdb5420-bf84-4b4c-b0f8-34520792e21c","system_id":"levelo_inurba_marseille","lat":43.26959,"lon":5.3902,"is_reserved":false,"is_disabled":false,"rental_uris":{"android":"levelo://app?vid=dbdb5420-bf84-4b4c-b0f8-34520792e21c","ios":"levelo://app?vid=dbdb5420-bf84-4b4c-b0f8-34520792e21c"},"vehicle_type_id":"4","last_reported":1728065530,"current_range_meters":36000,"station_id":"ce4bhhh2rcd13ifvqfl0","pricing_plan_id":"cebpf4jnsgd1na2vs0mg"},{"bike_id":"03ee2630-fb67-4bf5-bd1c-4a3563a8858f","system_id":"levelo_inurba_marseille","lat":43.26937,"lon":5.40258,"is_reserved":false,"is_disabled":false,"rental_uris":{"android":"levelo://app?vid=03ee2630-fb67-4bf5-bd1c-4a3563a8858f","ios":"levelo://app?vid=03ee2630-fb67-4bf5-bd1c-4a3563a8858f"},"vehicle_type_id":"4","last_reported":1728065530,"current_range_meters":34000,"station_id":"cjm6bp8fraef2m0cb0m0","pricing_plan_id":"cebpf4jnsgd1na2vs0mg"},{"bike_id":"0f940a18-e59b-4861-8e75-4deefbb0f888","system_id":"levelo_inurba_marseille","lat":43.2694,"lon":5.40243,"is_reserved":false,"is_disabled":false,"rental_uris":{"android":"levelo://app?vid=0f940a18-e59b-4861-8e75-4deefbb0f888","ios":"levelo://app?vid=0f940a18-e59b-4861-8e75-4deefbb0f888"},"vehicle_type_id":"4","last_reported":1728065530,"current_range_meters":12800,"station_id":"cjm6bp8fraef2m0cb0m0","pricing_plan_id":"cebpf4jnsgd1na2vs0mg"},{"bike_id":"07ec8880-3cf0-4307-9b38-1b318ffd5270","system_id":"levelo_inurba_marseille","lat":43.29536,"lon":5.39389,"is_reserved":false,"is_disabled":false,"rental_uris":{"android":"levelo://app?vid=07ec8880-3cf0-4307-9b38-1b318ffd5270","ios":"levelo://app?vid=07ec8880-3cf0-4307-9b38-1b318ffd5270"},"vehicle_type_id":"4","last_reported":1728065530,"current_range_meters":6000,"station_id":"ce4bh292rcd13ifvqdf0","pricing_plan_id":"cebpf4jnsgd1na2vs0mg"},{"bike_id":"f3540ef4-38de-4ce5-ae02-4daf27889149","system_id":"levelo_inurba_marseille","lat":43.30796,"lon":5.43525,"is_reserved":false,"is_disabled":false,"rental_uris":{"android":"levelo://app?vid=f3540ef4-38de-4ce5-ae02-4daf27889149","ios":"levelo://app?vid=f3540ef4-38de-4ce5-ae02-4daf27889149"},"vehicle_type_id":"4","last_reported":1728065530,"current_range_meters":16800,"station_id":"ce4bhph2rcd13ifvqheg","pricing_plan_id":"cebpf4jnsgd1na2vs0mg"},{"bike_id":"d23a4f03-6ec0-4ece-81ea-75a978d5b687","system_id":"levelo_inurba_marseille","lat":43.33763,"lon":5.37435,"is_reserved":false,"is_disabled":false,"rental_uris":{"android":"levelo://app?vid=d23a4f03-6ec0-4ece-81ea-75a978d5b687","ios":"levelo://app?vid=d23a4f03-6ec0-4ece-81ea-75a978d5b687"},"vehicle_type_id":"4","last_reported":1728065530,"current_range_meters":38800,"station_id":"","pricing_plan_id":"cebpf4jnsgd1na2vs0mg"},{"bike_id":"68ea4d18-84cd-4b45-954a-67d8045bfa27","system_id":"levelo_inurba_marseille","lat":43.25713,"lon":5.41108,"is_reserved":false,"is_disabled":false,"rental_uris":{"android":"levelo://app?vid=68ea4d18-84cd-4b45-954a-67d8045bfa27","ios":"levelo://app?vid=68ea4d18-84cd-4b45-954a-67d8045bfa27"},"vehicle_type_id":"4","last_reported":1728065530,"current_range_meters":38800,"station_id":"ce4bhkp2rcd13ifvqgd0","pricing_plan_id":"cebpf4jnsgd1na2vs0mg"},{"bike_id":"3e009f35-33d5-480d-94d6-680270120596","system_id":"levelo_inurba_marseille","lat":43.32286,"lon":5.38279,"is_reserved":false,"is_disabled":false,"rental_uris":{"android":"levelo://app?vid=3e009f35-33d5-480d-94d6-680270120596","ios":"levelo://app?vid=3e009f35-33d5-480d-94d6-680270120596"},"vehicle_type_id":"4","last_reported":1728065530,"current_range_meters":38400,"station_id":"ce4bhr12rcd13ifvqhqg","pricing_plan_id":"cebpf4jnsgd1na2vs0mg"},{"bike_id":"dfd123fd-e566-40aa-8057-868809e84d2e","system_id":"levelo_inurba_marseille","lat":43.30636,"lon":5.40092,"is_reserved":false,"is_disabled":false,"rental_uris":{"android":"levelo://app?vid=dfd123fd-e566-40aa-8057-868809e84d2e","ios":"levelo://app?vid=dfd123fd-e566-40aa-8057-868809e84d2e"},"vehicle_type_id":"4","last_reported":1728065530,"current_range_meters":37600,"station_id":"ce4bh112rcd13ifvqda0","pricing_plan_id":"cebpf4jnsgd1na2vs0mg"},{"bike_id":"2fc5050f-b036-4255-a193-23eec2fec7cc","system_id":"levelo_inurba_marseille","lat":43.23061,"lon":5.35493,"is_reserved":false,"is_disabled":false,"rental_uris":{"android":"levelo://app?vid=2fc5050f-b036-4255-a193-23eec2fec7cc","ios":"levelo://app?vid=2fc5050f-b036-4255-a193-23eec2fec7cc"},"vehicle_type_id":"4","last_reported":1728065530,"current_range_meters":8800,"station_id":"cpo3342slgdg3j2ifvpg","pricing_plan_id":"cebpf4jnsgd1na2vs0mg"},{"bike_id":"acd99ed8-e6ca-496e-8e54-0d24c2623370","system_id":"levelo_inurba_marseille","lat":43.24175,"lon":5.39734,"is_reserved":false,"is_disabled":false,"rental_uris":{"android":"levelo://app?vid=acd99ed8-e6ca-496e-8e54-0d24c2623370","ios":"levelo://app?vid=acd99ed8-e6ca-496e-8e54-0d24c2623370"},"vehicle_type_id":"4","last_reported":1728065530,"current_range_meters":24800,"station_id":"ce4bhn12rcd13ifvqgpg","pricing_plan_id":"cebpf4jnsgd1na2vs0mg"},{"bike_id":"3b9b91fb-44d6-4a0e-9479-2b71dbe02536","system_id":"levelo_inurba_marseille","lat":43.27614,"lon":5.36116,"is_reserved":false,"is_disabled":false,"rental_uris":{"android":"levelo://app?vid=3b9b91fb-44d6-4a0e-9479-2b71dbe02536","ios":"levelo://app?vid=3b9b91fb-44d6-4a0e-9479-2b71dbe02536"},"vehicle_type_id":"4","last_reported":1728065530,"current_range_meters":39200,"station_id":"ce4bgj92rcd13ifvqbe0","pricing_plan_id":"cebpf4jnsgd1na2vs0mg"},{"bike_id":"26e7bb4c-58b9-491a-af39-160674b1c722","system_id":"levelo_inurba_marseille","lat":43.31711,"lon":5.43702,"is_reserved":false,"is_disabled":false,"rental_uris":{"android":"levelo://app?vid=26e7bb4c-58b9-491a-af39-160674b1c722","ios":"levelo://app?vid=26e7bb4c-58b9-491a-af39-160674b1c722"},"vehicle_type_id":"4","last_reported":1728065530,"current_range_meters":37600,"station_id":"ce4bhp92rcd13ifvqhcg","pricing_plan_id":"cebpf4jnsgd1na2vs0mg"},{"bike_id":"ab7f67b1-4bcb-4ea4-aa8e-d3b3c4b653e5","system_id":"levelo_inurba_marseille","lat":43.2293,"lon":5.35379,"is_reserved":false,"is_disabled":false,"rental_uris":{"android":"levelo://app?vid=ab7f67b1-4bcb-4ea4-aa8e-d3b3c4b653e5","ios":"levelo://app?vid=ab7f67b1-4bcb-4ea4-aa8e-d3b3c4b653e5"},"vehicle_type_id":"4","last_reported":1728065530,"current_range_meters":24400,"station_id":"cpo3532slgdg3j2ikp40","pricing_plan_id":"cebpf4jnsgd1na2vs0mg"},{"bike_id":"7b1af6c5-9c9c-44d6-ad02-04b7c37c4aa7","system_id":"levelo_inurba_marseille","lat":43.30801,"lon":5.43527,"is_reserved":false,"is_disabled":false,"rental_uris":{"android":"levelo://app?vid=7b1af6c5-9c9c-44d6-ad02-04b7c37c4aa7","ios":"levelo://app?vid=7b1af6c5-9c9c-44d6-ad02-04b7c37c4aa7"},"vehicle_type_id":"4","last_reported":1728065530,"current_range_meters":38800,"station_id":"ce4bhph2rcd13ifvqheg","pricing_plan_id":"cebpf4jnsgd1na2vs0mg"},{"bike_id":"ed286e68-aaa4-4e3b-8a3e-abf2c6e51a52","system_id":"levelo_inurba_marseille","lat":43.29903,"lon":5.43675,"is_reserved":false,"is_disabled":false,"rental_uris":{"android":"levelo://app?vid=ed286e68-aaa4-4e3b-8a3e-abf2c6e51a52","ios":"levelo://app?vid=ed286e68-aaa4-4e3b-8a3e-abf2c6e51a52"},"vehicle_type_id":"4","last_reported":1728065530,"current_range_meters":10800,"station_id":"ce4bhpp2rcd13ifvqhfg","pricing_plan_id":"cebpf4jnsgd1na2vs0mg"},{"bike_id":"8e45e5b5-c3d2-4750-bd14-0fc5daa657ab","system_id":"levelo_inurba_marseille","lat":43.31081,"lon":5.42429,"is_reserved":false,"is_disabled":false,"rental_uris":{"android":"levelo://app?vid=8e45e5b5-c3d2-4750-bd14-0fc5daa657ab","ios":"levelo://app?vid=8e45e5b5-c3d2-4750-bd14-0fc5daa657ab"},"vehicle_type_id":"4","last_reported":1728065530,"current_range_meters":39200,"station_id":"ce4bhp92rcd13ifvqhag","pricing_plan_id":"cebpf4jnsgd1na2vs0mg"},{"bike_id":"8b012285-4daa-4456-b71f-f3f2778ea41e","system_id":"levelo_inurba_marseille","lat":43.28575,"lon":5.39495,"is_reserved":false,"is_disabled":false,"rental_uris":{"android":"levelo://app?vid=8b012285-4daa-4456-b71f-f3f2778ea41e","ios":"levelo://app?vid=8b012285-4daa-4456-b71f-f3f2778ea41e"},"vehicle_type_id":"4","last_reported":1728065530,"current_range_meters":12000,"station_id":"ce4bh292rcd13ifvqdg0","pricing_plan_id":"cebpf4jnsgd1na2vs0mg"},{"bike_id":"20ab6df1-ce7b-4460-8943-be16b226e315","system_id":"levelo_inurba_marseille","lat":43.27322,"lon":5.39074,"is_reserved":false,"is_disabled":false,"rental_uris":{"android":"levelo://app?vid=20ab6df1-ce7b-4460-8943-be16b226e315","ios":"levelo://app?vid=20ab6df1-ce7b-4460-8943-be16b226e315"},"vehicle_type_id":"4","last_reported":1728065530,"current_range_meters":22000,"station_id":"ce4bhgp2rcd13ifvqfe0","pricing_plan_id":"cebpf4jnsgd1na2vs0mg"},{"bike_id":"bdff5d54-aae5-45cb-9006-6db61a699e3f","system_id":"levelo_inurba_marseille","lat":43.29528,"lon":5.38554,"is_reserved":false,"is_disabled":false,"rental_uris":{"android":"levelo://app?vid=bdff5d54-aae5-45cb-9006-6db61a699e3f","ios":"levelo://app?vid=bdff5d54-aae5-45cb-9006-6db61a699e3f"},"vehicle_type_id":"4","last_reported":1728065530,"current_range_meters":7200,"station_id":"ce4bgih2rcd13ifvqba0","pricing_plan_id":"cebpf4jnsgd1na2vs0mg"},{"bike_id":"411da901-7717-487e-acea-cbbf4a618728","system_id":"levelo_inurba_marseille","lat":43.248,"lon":5.37458,"is_reserved":false,"is_disabled":false,"rental_uris":{"android":"levelo://app?vid=411da901-7717-487e-acea-cbbf4a618728","ios":"levelo://app?vid=411da901-7717-487e-acea-cbbf4a618728"},"vehicle_type_id":"4","last_reported":1728065530,"current_range_meters":22800,"station_id":"ce4bhgh2rcd13ifvqfb0","pricing_plan_id":"cebpf4jnsgd1na2vs0mg"},{"bike_id":"cebcebb2-a51d-4454-845d-03e816d5a583","system_id":"levelo_inurba_marseille","lat":43.2795,"lon":5.41041,"is_reserved":false,"is_disabled":false,"rental_uris":{"android":"levelo://app?vid=cebcebb2-a51d-4454-845d-03e816d5a583","ios":"levelo://app?vid=cebcebb2-a51d-4454-845d-03e816d5a583"},"vehicle_type_id":"4","last_reported":1728065530,"current_range_meters":38800,"station_id":"ce4bhnp2rcd13ifvqh0g","pricing_plan_id":"cebpf4jnsgd1na2vs0mg"},{"bike_id":"b6d5dc25-89bf-4181-97eb-7acf6e84b655","system_id":"levelo_inurba_marseille","lat":43.3172,"lon":5.42407,"is_reserved":false,"is_disabled":false,"rental_uris":{"android":"levelo://app?vid=b6d5dc25-89bf-4181-97eb-7acf6e84b655","ios":"levelo://app?vid=b6d5dc25-89bf-4181-97eb-7acf6e84b655"},"vehicle_type_id":"4","last_reported":1728065530,"current_range_meters":6800,"station_id":"ce4bhp92rcd13ifvqhbg","pricing_plan_id":"cebpf4jnsgd1na2vs0mg"},{"bike_id":"dd8f5b91-4cea-49be-b495-ac020470abe7","system_id":"levelo_inurba_marseille","lat":43.27376,"lon":5.36259,"is_reserved":false,"is_disabled":false,"rental_uris":{"android":"levelo://app?vid=dd8f5b91-4cea-49be-b495-ac020470abe7","ios":"levelo://app?vid=dd8f5b91-4cea-49be-b495-ac020470abe7"},"vehicle_type_id":"4","last_reported":1728065530,"current_range_meters":38800,"station_id":"ce4bhbh2rcd13ifvqeo0","pricing_plan_id":"cebpf4jnsgd1na2vs0mg"},{"bike_id":"f8015bd0-6ec0-4057-b3a7-638250bac60c","system_id":"levelo_inurba_marseille","lat":43.32288,"lon":5.38263,"is_reserved":false,"is_disabled":false,"rental_uris":{"android":"levelo://app?vid=f8015bd0-6ec0-4057-b3a7-638250bac60c","ios":"levelo://app?vid=f8015bd0-6ec0-4057-b3a7-638250bac60c"},"vehicle_type_id":"4","last_reported":1728065530,"current_range_meters":5600,"station_id":"ce4bhr12rcd13ifvqhqg","pricing_plan_id":"cebpf4jnsgd1na2vs0mg"},{"bike_id":"26c92db2-2456-4b49-8449-7c4fb304274d","system_id":"levelo_inurba_marseille","lat":43.28726,"lon":5.36075,"is_reserved":false,"is_disabled":false,"rental_uris":{"android":"levelo://app?vid=26c92db2-2456-4b49-8449-7c4fb304274d","ios":"levelo://app?vid=26c92db2-2456-4b49-8449-7c4fb304274d"},"vehicle_type_id":"4","last_reported":1728065530,"current_range_meters":8400,"station_id":"cki0cbj6b192h4jlfktg","pricing_plan_id":"cebpf4jnsgd1na2vs0mg"},{"bike_id":"ba624d74-19a9-4d94-8033-34017a996129","system_id":"levelo_inurba_marseille","lat":43.33029,"lon":5.3904,"is_reserved":false,"is_disabled":false,"rental_uris":{"android":"levelo://app?vid=ba624d74-19a9-4d94-8033-34017a996129","ios":"levelo://app?vid=ba624d74-19a9-4d94-8033-34017a996129"},"vehicle_type_id":"4","last_reported":1728065530,"current_range_meters":23200,"station_id":"ce4bhr92rcd13ifvqhrg","pricing_plan_id":"cebpf4jnsgd1na2vs0mg"},{"bike_id":"6183cef9-7c1e-4fa5-a158-07ab61c3db9f","system_id":"levelo_inurba_marseille","lat":43.33024,"lon":5.39034,"is_reserved":false,"is_disabled":false,"rental_uris":{"android":"levelo://app?vid=6183cef9-7c1e-4fa5-a158-07ab61c3db9f","ios":"levelo://app?vid=6183cef9-7c1e-4fa5-a158-07ab61c3db9f"},"vehicle_type_id":"4","last_reported":1728065530,"current_range_meters":38800,"station_id":"ce4bhr92rcd13ifvqhrg","pricing_plan_id":"cebpf4jnsgd1na2vs0mg"},{"bike_id":"eeba3a48-d787-4969-8c08-a086cf9da2cc","system_id":"levelo_inurba_marseille","lat":43.2804,"lon":5.36952,"is_reserved":false,"is_disabled":false,"rental_uris":{"android":"levelo://app?vid=eeba3a48-d787-4969-8c08-a086cf9da2cc","ios":"levelo://app?vid=eeba3a48-d787-4969-8c08-a086cf9da2cc"},"vehicle_type_id":"4","last_reported":1728065530,"current_range_meters":32800,"station_id":"ce4bha12rcd13ifvqef0","pricing_plan_id":"cebpf4jnsgd1na2vs0mg"},{"bike_id":"f3e83a51-4603-4809-b635-b73ae6e20c3f","system_id":"levelo_inurba_marseille","lat":43.2942,"lon":5.3862,"is_reserved":false,"is_disabled":false,"rental_uris":{"android":"levelo://app?vid=f3e83a51-4603-4809-b635-b73ae6e20c3f","ios":"levelo://app?vid=f3e83a51-4603-4809-b635-b73ae6e20c3f"},"vehicle_type_id":"4","last_reported":1728065530,"current_range_meters":26000,"station_id":"ce4bh2h2rcd13ifvqdh0","pricing_plan_id":"cebpf4jnsgd1na2vs0mg"},{"bike_id":"db1df735-71b4-4b27-9e15-17f24cc67814","system_id":"levelo_inurba_marseille","lat":43.28003,"lon":5.40011,"is_reserved":false,"is_disabled":false,"rental_uris":{"android":"levelo://app?vid=db1df735-71b4-4b27-9e15-17f24cc67814","ios":"levelo://app?vid=db1df735-71b4-4b27-9e15-17f24cc67814"},"vehicle_type_id":"4","last_reported":1728065530,"current_range_meters":6800,"station_id":"ce4bho92rcd13ifvqh4g","pricing_plan_id":"cebpf4jnsgd1na2vs0mg"},{"bike_id":"c56c4868-c987-4a85-a21a-0407b98520d5","system_id":"levelo_inurba_marseille","lat":43.31715,"lon":5.42394,"is_reserved":false,"is_disabled":false,"rental_uris":{"android":"levelo://app?vid=c56c4868-c987-4a85-a21a-0407b98520d5","ios":"levelo://app?vid=c56c4868-c987-4a85-a21a-0407b98520d5"},"vehicle_type_id":"4","last_reported":1728065530,"current_range_meters":3200,"station_id":"ce4bhp92rcd13ifvqhbg","pricing_plan_id":"cebpf4jnsgd1na2vs0mg"},{"bike_id":"259373c5-38d6-41cb-9039-d33be8b98cfa","system_id":"levelo_inurba_marseille","lat":43.25722,"lon":5.41113,"is_reserved":false,"is_disabled":false,"rental_uris":{"android":"levelo://app?vid=259373c5-38d6-41cb-9039-d33be8b98cfa","ios":"levelo://app?vid=259373c5-38d6-41cb-9039-d33be8b98cfa"},"vehicle_type_id":"4","last_reported":1728065530,"current_range_meters":38800,"station_id":"ce4bhkp2rcd13ifvqgd0","pricing_plan_id":"cebpf4jnsgd1na2vs0mg"},{"bike_id":"0ce5f767-f0e2-47b5-bf0c-9140855f3647","system_id":"levelo_inurba_marseille","lat":43.31365,"lon":5.38486,"is_reserved":false,"is_disabled":false,"rental_uris":{"android":"levelo://app?vid=0ce5f767-f0e2-47b5-bf0c-9140855f3647","ios":"levelo://app?vid=0ce5f767-f0e2-47b5-bf0c-9140855f3647"},"vehicle_type_id":"4","last_reported":1728065530,"current_range_meters":38000,"station_id":"ce4bgt92rcd13ifvqcf0","pricing_plan_id":"cebpf4jnsgd1na2vs0mg"},{"bike_id":"d713615d-dacd-4fcb-9fda-e73e32bbdf61","system_id":"levelo_inurba_marseille","lat":43.33776,"lon":5.37432,"is_reserved":false,"is_disabled":false,"rental_uris":{"android":"levelo://app?vid=d713615d-dacd-4fcb-9fda-e73e32bbdf61","ios":"levelo://app?vid=d713615d-dacd-4fcb-9fda-e73e32bbdf61"},"vehicle_type_id":"4","last_reported":1728065530,"current_range_meters":38400,"station_id":"","pricing_plan_id":"cebpf4jnsgd1na2vs0mg"},{"bike_id":"0213b69a-f264-4e49-8de1-f89bccf42676","system_id":"levelo_inurba_marseille","lat":43.29553,"lon":5.42292,"is_reserved":false,"is_disabled":false,"rental_uris":{"android":"levelo://app?vid=0213b69a-f264-4e49-8de1-f89bccf42676","ios":"levelo://app?vid=0213b69a-f264-4e49-8de1-f89bccf42676"},"vehicle_type_id":"4","last_reported":1728065530,"current_range_meters":19200,"station_id":"ce4bhph2rcd13ifvqhdg","pricing_plan_id":"cebpf4jnsgd1na2vs0mg"},{"bike_id":"020a414c-2de9-4fbf-879a-00ff1aba5348","system_id":"levelo_inurba_marseille","lat":43.29865,"lon":5.38914,"is_reserved":false,"is_disabled":false,"rental_uris":{"android":"levelo://app?vid=020a414c-2de9-4fbf-879a-00ff1aba5348","ios":"levelo://app?vid=020a414c-2de9-4fbf-879a-00ff1aba5348"},"vehicle_type_id":"4","last_reported":1728065530,"current_range_meters":8400,"station_id":"ce4bh392rcd13ifvqdl0","pricing_plan_id":"cebpf4jnsgd1na2vs0mg"},{"bike_id":"0ee27358-eb11-40f9-9409-03321fbcaa8a","system_id":"levelo_inurba_marseille","lat":43.27941,"lon":5.4105,"is_reserved":false,"is_disabled":false,"rental_uris":{"android":"levelo://app?vid=0ee27358-eb11-40f9-9409-03321fbcaa8a","ios":"levelo://app?vid=0ee27358-eb11-40f9-9409-03321fbcaa8a"},"vehicle_type_id":"4","last_reported":1728065530,"current_range_meters":16000,"station_id":"ce4bhnp2rcd13ifvqh0g","pricing_plan_id":"cebpf4jnsgd1na2vs0mg"},{"bike_id":"875b8503-739c-4945-8f3b-a9295344fcec","system_id":"levelo_inurba_marseille","lat":43.25113,"lon":5.40315,"is_reserved":false,"is_disabled":false,"rental_uris":{"android":"levelo://app?vid=875b8503-739c-4945-8f3b-a9295344fcec","ios":"levelo://app?vid=875b8503-739c-4945-8f3b-a9295344fcec"},"vehicle_type_id":"4","last_reported":1728065530,"current_range_meters":4800,"station_id":"ce4bhlh2rcd13ifvqgig","pricing_plan_id":"cebpf4jnsgd1na2vs0mg"},{"bike_id":"b2ef87bb-cb8f-4a5b-aa4d-b75d98c763ee","system_id":"levelo_inurba_marseille","lat":43.25719,"lon":5.41115,"is_reserved":false,"is_disabled":false,"rental_uris":{"android":"levelo://app?vid=b2ef87bb-cb8f-4a5b-aa4d-b75d98c763ee","ios":"levelo://app?vid=b2ef87bb-cb8f-4a5b-aa4d-b75d98c763ee"},"vehicle_type_id":"4","last_reported":1728065530,"current_range_meters":32400,"station_id":"ce4bhkp2rcd13ifvqgd0","pricing_plan_id":"cebpf4jnsgd1na2vs0mg"},{"bike_id":"55873a6f-2144-4494-a7a2-e82720777d22","system_id":"levelo_inurba_marseille","lat":43.29877,"lon":5.38921,"is_reserved":false,"is_disabled":false,"rental_uris":{"android":"levelo://app?vid=55873a6f-2144-4494-a7a2-e82720777d22","ios":"levelo://app?vid=55873a6f-2144-4494-a7a2-e82720777d22"},"vehicle_type_id":"4","last_reported":1728065530,"current_range_meters":15200,"station_id":"ce4bh392rcd13ifvqdl0","pricing_plan_id":"cebpf4jnsgd1na2vs0mg"},{"bike_id":"6e7041f8-f6bb-4a55-943f-ce455145cffb","system_id":"levelo_inurba_marseille","lat":43.30794,"lon":5.43517,"is_reserved":false,"is_disabled":false,"rental_uris":{"android":"levelo://app?vid=6e7041f8-f6bb-4a55-943f-ce455145cffb","ios":"levelo://app?vid=6e7041f8-f6bb-4a55-943f-ce455145cffb"},"vehicle_type_id":"4","last_reported":1728065530,"current_range_meters":7200,"station_id":"ce4bhph2rcd13ifvqheg","pricing_plan_id":"cebpf4jnsgd1na2vs0mg"},{"bike_id":"96793f3f-912b-436c-9914-37a46614d359","system_id":"levelo_inurba_marseille","lat":43.23064,"lon":5.3549,"is_reserved":false,"is_disabled":false,"rental_uris":{"android":"levelo://app?vid=96793f3f-912b-436c-9914-37a46614d359","ios":"levelo://app?vid=96793f3f-912b-436c-9914-37a46614d359"},"vehicle_type_id":"4","last_reported":1728065530,"current_range_meters":4400,"station_id":"cpo3342slgdg3j2ifvpg","pricing_plan_id":"cebpf4jnsgd1na2vs0mg"},{"bike_id":"ac8a5814-b272-441c-8328-d8fde124d7ef","system_id":"levelo_inurba_marseille","lat":43.33021,"lon":5.39045,"is_reserved":false,"is_disabled":false,"rental_uris":{"android":"levelo://app?vid=ac8a5814-b272-441c-8328-d8fde124d7ef","ios":"levelo://app?vid=ac8a5814-b272-441c-8328-d8fde124d7ef"},"vehicle_type_id":"4","last_reported":1728065530,"current_range_meters":34000,"station_id":"ce4bhr92rcd13ifvqhrg","pricing_plan_id":"cebpf4jnsgd1na2vs0mg"},{"bike_id":"8897fce4-a388-4b3c-b6c8-3a4c380881c6","system_id":"levelo_inurba_marseille","lat":43.29035,"lon":5.38638,"is_reserved":false,"is_disabled":false,"rental_uris":{"android":"levelo://app?vid=8897fce4-a388-4b3c-b6c8-3a4c380881c6","ios":"levelo://app?vid=8897fce4-a388-4b3c-b6c8-3a4c380881c6"},"vehicle_type_id":"4","last_reported":1728065530,"current_range_meters":38000,"station_id":"ce4bh4p2rcd13ifvqe0g","pricing_plan_id":"cebpf4jnsgd1na2vs0mg"},{"bike_id":"936bbd39-32dc-4573-b535-f552f549da87","system_id":"levelo_inurba_marseille","lat":43.29199,"lon":5.39311,"is_reserved":false,"is_disabled":false,"rental_uris":{"android":"levelo://app?vid=936bbd39-32dc-4573-b535-f552f549da87","ios":"levelo://app?vid=936bbd39-32dc-4573-b535-f552f549da87"},