{"last_updated":1723136825,"ttl":30,"version":"2.2","data":{"bikes":[{"bike_id":"79966910-a614-458f-85a2-c018fe685863","system_id":"levelo_inurba_marseille","lat":43.312239,"lon":5.368562,"is_reserved":false,"is_disabled":false,"rental_uris":{"android":"levelo://app?vid=79966910-a614-458f-85a2-c018fe685863","ios":"levelo://app?vid=79966910-a614-458f-85a2-c018fe685863"},"vehicle_type_id":"4","last_reported":1723136825,"current_range_meters":1600,"station_id":"ce4bgl92rcd13ifvqbq0","pricing_plan_id":"cebpf4jnsgd1na2vs0mg"},{"bike_id":"202b1a1d-9af7-4ed7-aa48-cdde60d71ed0","system_id":"levelo_inurba_marseille","lat":43.312239,"lon":5.368562,"is_reserved":false,"is_disabled":false,"rental_uris":{"android":"levelo://app?vid=202b1a1d-9af7-4ed7-aa48-cdde60d71ed0","ios":"levelo://app?vid=202b1a1d-9af7-4ed7-aa48-cdde60d71ed0"},"vehicle_type_id":"4","last_reported":1723136825,"current_range_meters":4000,"station_id":"ce4bgl92rcd13ifvqbq0","pricing_plan_id":"cebpf4jnsgd1na2vs0mg"},{"bike_id":"7a7e60e7-b75b-462e-b8c8-96e241ca1deb","system_id":"levelo_inurba_marseille","lat":43.312239,"lon":5.368562,"is_reserved":false,"is_disabled":false,"rental_uris":{"android":"levelo://app?vid=7a7e60e7-b75b-462e-b8c8-96e241ca1deb","ios":"levelo://app?vid=7a7e60e7-b75b-462e-b8c8-96e241ca1deb"},"vehicle_type_id":"4","last_reported":1723136825,"current_range_meters":9600,"station_id":"ce4bgl92rcd13ifvqbq0","pricing_plan_id":"cebpf4jnsgd1na2vs0mg"},{"bike_id":"e358dea6-2644-44ae-92a9-60c9241ce46d","system_id":"levelo_inurba_marseille","lat":43.3151,"lon":5.37282,"is_reserved":false,"is_disabled":false,"rental_uris":{"android":"levelo://app?vid=e358dea6-2644-44ae-92a9-60c9241ce46d","ios":"levelo://app?vid=e358dea6-2644-44ae-92a9-60c9241ce46d"},"vehicle_type_id":"4","last_reported":1723136825,"current_range_meters":26000,"station_id":"","pricing_plan_id":"cebpf4jnsgd1na2vs0mg"},{"bike_id":"c735292d-733d-4827-9143-7cdfffbc3c87","system_id":"levelo_inurba_marseille","lat":43.309039,"lon":5.371797,"is_reserved":false,"is_disabled":false,"rental_uris":{"android":"levelo://app?vid=c735292d-733d-4827-9143-7cdfffbc3c87","ios":"levelo://app?vid=c735292d-733d-4827-9143-7cdfffbc3c87"},"vehicle_type_id":"4","last_reported":1723136825,"current_range_meters":15200,"station_id":"ce4bguh2rcd13ifvqckg","pricing_plan_id":"cebpf4jnsgd1na2vs0mg"},{"bike_id":"1a2d4c1b-4c93-4104-9ae0-cf4d5def3492","system_id":"levelo_inurba_marseille","lat":43.309039,"lon":5.371797,"is_reserved":false,"is_disabled":false,"rental_uris":{"android":"levelo://app?vid=1a2d4c1b-4c93-4104-9ae0-cf4d5def3492","ios":"levelo://app?vid=1a2d4c1b-4c93-4104-9ae0-cf4d5def3492"},"vehicle_type_id":"4","last_reported":1723136825,"current_range_meters":0,"station_id":"ce4bguh2rcd13ifvqckg","pricing_plan_id":"cebpf4jnsgd1na2vs0mg"},{"bike_id":"0f7fb80a-ab18-4e7b-b16c-c01f397d99e3","system_id":"levelo_inurba_marseille","lat":43.309039,"lon":5.371797,"is_reserved":false,"is_disabled":false,"rental_uris":{"android":"levelo://app?vid=0f7fb80a-ab18-4e7b-b16c-c01f397d99e3","ios":"levelo://app?vid=0f7fb80a-ab18-4e7b-b16c-c01f397d99e3"},"vehicle_type_id":"4","last_reported":1723136825,"current_range_meters":2000,"station_id":"ce4bguh2rcd13ifvqckg","pricing_plan_id":"cebpf4jnsgd1na2vs0mg"},{"bike_id":"ca97cba6-6fd7-418f-8037-a2afd5746155","system_id":"levelo_inurba_marseille","lat":43.31368,"lon":5.37439,"is_reserved":false,"is_disabled":false,"rental_uris":{"android":"levelo://app?vid=ca97cba6-6fd7-418f-8037-a2afd5746155","ios":"levelo://app?vid=ca97cba6-6fd7-418f-8037-a2afd5746155"},"vehicle_type_id":"4","last_reported":1723136825,"current_range_meters":7200,"station_id":"","pricing_plan_id":"cebpf4jnsgd1na2vs0mg"},{"bike_id":"2f4e2880-b171-436f-bccd-564808ce166f","system_id":"levelo_inurba_marseille","lat":43.305712,"lon":5.365641,"is_reserved":false,"is_disabled":false,"rental_uris":{"android":"levelo://app?vid=2f4e2880-b171-436f-bccd-564808ce166f","ios":"levelo://app?vid=2f4e2880-b171-436f-bccd-564808ce166f"},"vehicle_type_id":"4","last_reported":1723136825,"current_range_meters":1200,"station_id":"ce4bgs12rcd13ifvqcag","pricing_plan_id":"cebpf4jnsgd1na2vs0mg"},{"bike_id":"70a154c4-dca0-48ef-a909-2b8440217a4e","system_id":"levelo_inurba_marseille","lat":43.305368,"lon":5.367343,"is_reserved":false,"is_disabled":false,"rental_uris":{"android":"levelo://app?vid=70a154c4-dca0-48ef-a909-2b8440217a4e","ios":"levelo://app?vid=70a154c4-dca0-48ef-a909-2b8440217a4e"},"vehicle_type_id":"4","last_reported":1723136825,"current_range_meters":0,"station_id":"ce4bgrp2rcd13ifvqc9g","pricing_plan_id":"cebpf4jnsgd1na2vs0mg"},{"bike_id":"6814d533-a410-428c-b0d7-de6e2316c141","system_id":"levelo_inurba_marseille","lat":43.305368,"lon":5.367343,"is_reserved":false,"is_disabled":false,"rental_uris":{"android":"levelo://app?vid=6814d533-a410-428c-b0d7-de6e2316c141","ios":"levelo://app?vid=6814d533-a410-428c-b0d7-de6e2316c141"},"vehicle_type_id":"4","last_reported":1723136825,"current_range_meters":800,"station_id":"ce4bgrp2rcd13ifvqc9g","pricing_plan_id":"cebpf4jnsgd1na2vs0mg"},{"bike_id":"1f9054b9-f892-434a-8c72-1f30e1ea73dc","system_id":"levelo_inurba_marseille","lat":43.305989,"lon":5.37225,"is_reserved":false,"is_disabled":false,"rental_uris":{"android":"levelo://app?vid=1f9054b9-f892-434a-8c72-1f30e1ea73dc","ios":"levelo://app?vid=1f9054b9-f892-434a-8c72-1f30e1ea73dc"},"vehicle_type_id":"4","last_reported":1723136825,"current_range_meters":400,"station_id":"ce4bgqh2rcd13ifvqc4g","pricing_plan_id":"cebpf4jnsgd1na2vs0mg"},{"bike_id":"46b97d03-89e1-4054-8824-e2111313ed5e","system_id":"levelo_inurba_marseille","lat":43.311125,"lon":5.377624,"is_reserved":false,"is_disabled":false,"rental_uris":{"android":"levelo://app?vid=46b97d03-89e1-4054-8824-e2111313ed5e","ios":"levelo://app?vid=46b97d03-89e1-4054-8824-e2111313ed5e"},"vehicle_type_id":"4","last_reported":1723136825,"current_range_meters":29600,"station_id":"ce4bgt92rcd13ifvqcg0","pricing_plan_id":"cebpf4jnsgd1na2vs0mg"},{"bike_id":"dd60a75c-7bcf-4e95-81fd-2cdea7f30f1b","system_id":"levelo_inurba_marseille","lat":43.30791,"lon":5.37604,"is_reserved":false,"is_disabled":false,"rental_uris":{"android":"levelo://app?vid=dd60a75c-7bcf-4e95-81fd-2cdea7f30f1b","ios":"levelo://app?vid=dd60a75c-7bcf-4e95-81fd-2cdea7f30f1b"},"vehicle_type_id":"4","last_reported":1723136825,"current_range_meters":30400,"station_id":"ce4bgv92rcd13ifvqcq0","pricing_plan_id":"cebpf4jnsgd1na2vs0mg"},{"bike_id":"8377e7b4-2b24-49d3-aafc-f306b199cb39","system_id":"levelo_inurba_marseille","lat":43.307945,"lon":5.376487,"is_reserved":false,"is_disabled":false,"rental_uris":{"android":"levelo://app?vid=8377e7b4-2b24-49d3-aafc-f306b199cb39","ios":"levelo://app?vid=8377e7b4-2b24-49d3-aafc-f306b199cb39"},"vehicle_type_id":"4","last_reported":1723136825,"current_range_meters":5200,"station_id":"ce4bgv92rcd13ifvqcq0","pricing_plan_id":"cebpf4jnsgd1na2vs0mg"},{"bike_id":"7bb9e41d-30d2-4612-9a3d-39aedff59404","system_id":"levelo_inurba_marseille","lat":43.317075,"lon":5.377367,"is_reserved":false,"is_disabled":false,"rental_uris":{"android":"levelo://app?vid=7bb9e41d-30d2-4612-9a3d-39aedff59404","ios":"levelo://app?vid=7bb9e41d-30d2-4612-9a3d-39aedff59404"},"vehicle_type_id":"4","last_reported":1723136825,"current_range_meters":4000,"station_id":"ce4bgth2rcd13ifvqch0","pricing_plan_id":"cebpf4jnsgd1na2vs0mg"},{"bike_id":"33a882e3-9fc7-4c55-9dcb-4d6ec08f69a1","system_id":"levelo_inurba_marseille","lat":43.310232,"lon":5.379692,"is_reserved":false,"is_disabled":false,"rental_uris":{"android":"levelo://app?vid=33a882e3-9fc7-4c55-9dcb-4d6ec08f69a1","ios":"levelo://app?vid=33a882e3-9fc7-4c55-9dcb-4d6ec08f69a1"},"vehicle_type_id":"4","last_reported":1723136825,"current_range_meters":12000,"station_id":"","pricing_plan_id":"cebpf4jnsgd1na2vs0mg"},{"bike_id":"eba57324-3b64-41d8-8c5b-803cc10d0614","system_id":"levelo_inurba_marseille","lat":43.303046,"lon":5.368981,"is_reserved":false,"is_disabled":false,"rental_uris":{"android":"levelo://app?vid=eba57324-3b64-41d8-8c5b-803cc10d0614","ios":"levelo://app?vid=eba57324-3b64-41d8-8c5b-803cc10d0614"},"vehicle_type_id":"4","last_reported":1723136825,"current_range_meters":4400,"station_id":"ce4bgqh2rcd13ifvqc5g","pricing_plan_id":"cebpf4jnsgd1na2vs0mg"},{"bike_id":"37199d07-ca66-4eb3-a7c4-b55bcfbba15c","system_id":"levelo_inurba_marseille","lat":43.31536,"lon":5.38019,"is_reserved":false,"is_disabled":false,"rental_uris":{"android":"levelo://app?vid=37199d07-ca66-4eb3-a7c4-b55bcfbba15c","ios":"levelo://app?vid=37199d07-ca66-4eb3-a7c4-b55bcfbba15c"},"vehicle_type_id":"4","last_reported":1723136825,"current_range_meters":10800,"station_id":"ce4bhsp2rcd13ifvqi50","pricing_plan_id":"cebpf4jnsgd1na2vs0mg"},{"bike_id":"57dfc128-4bac-4678-b21f-00165b62aa68","system_id":"levelo_inurba_marseille","lat":43.315289,"lon":5.380349,"is_reserved":false,"is_disabled":false,"rental_uris":{"android":"levelo://app?vid=57dfc128-4bac-4678-b21f-00165b62aa68","ios":"levelo://app?vid=57dfc128-4bac-4678-b21f-00165b62aa68"},"vehicle_type_id":"4","last_reported":1723136825,"current_range_meters":13600,"station_id":"ce4bhsp2rcd13ifvqi50","pricing_plan_id":"cebpf4jnsgd1na2vs0mg"},{"bike_id":"cff8a23f-b89e-4bc1-a87e-204b217680ed","system_id":"levelo_inurba_marseille","lat":43.32345,"lon":5.370107,"is_reserved":false,"is_disabled":false,"rental_uris":{"android":"levelo://app?vid=cff8a23f-b89e-4bc1-a87e-204b217680ed","ios":"levelo://app?vid=cff8a23f-b89e-4bc1-a87e-204b217680ed"},"vehicle_type_id":"4","last_reported":1723136825,"current_range_meters":16400,"station_id":"","pricing_plan_id":"cebpf4jnsgd1na2vs0mg"},{"bike_id":"e25e6b5c-a2be-4a36-9006-de27c7b4f03b","system_id":"levelo_inurba_marseille","lat":43.308012,"lon":5.381511,"is_reserved":false,"is_disabled":false,"rental_uris":{"android":"levelo://app?vid=e25e6b5c-a2be-4a36-9006-de27c7b4f03b","ios":"levelo://app?vid=e25e6b5c-a2be-4a36-9006-de27c7b4f03b"},"vehicle_type_id":"4","last_reported":1723136825,"current_range_meters":23200,"station_id":"ce4bgt12rcd13ifvqce0","pricing_plan_id":"cebpf4jnsgd1na2vs0mg"},{"bike_id":"a00c790e-6141-44ba-acea-379dbe252cd7","system_id":"levelo_inurba_marseille","lat":43.302784,"lon":5.377158,"is_reserved":false,"is_disabled":false,"rental_uris":{"android":"levelo://app?vid=a00c790e-6141-44ba-acea-379dbe252cd7","ios":"levelo://app?vid=a00c790e-6141-44ba-acea-379dbe252cd7"},"vehicle_type_id":"4","last_reported":1723136825,"current_range_meters":7200,"station_id":"ce4bguh2rcd13ifvqcj0","pricing_plan_id":"cebpf4jnsgd1na2vs0mg"},{"bike_id":"f3879e06-cf7e-4de7-adbb-92b075f961a9","system_id":"levelo_inurba_marseille","lat":43.30467,"lon":5.37897,"is_reserved":false,"is_disabled":false,"rental_uris":{"android":"levelo://app?vid=f3879e06-cf7e-4de7-adbb-92b075f961a9","ios":"levelo://app?vid=f3879e06-cf7e-4de7-adbb-92b075f961a9"},"vehicle_type_id":"4","last_reported":1723136825,"current_range_meters":0,"station_id":"ce4bgup2rcd13ifvqcn0","pricing_plan_id":"cebpf4jnsgd1na2vs0mg"},{"bike_id":"9b7f716f-a301-4102-8d8b-b009166f6bed","system_id":"levelo_inurba_marseille","lat":43.324771,"lon":5.36557,"is_reserved":false,"is_disabled":false,"rental_uris":{"android":"levelo://app?vid=9b7f716f-a301-4102-8d8b-b009166f6bed","ios":"levelo://app?vid=9b7f716f-a301-4102-8d8b-b009166f6bed"},"vehicle_type_id":"4","last_reported":1723136825,"current_range_meters":4800,"station_id":"ce4bhs12rcd13ifvqhvg","pricing_plan_id":"cebpf4jnsgd1na2vs0mg"},{"bike_id":"9fc52026-59fa-4495-9870-4e2026002386","system_id":"levelo_inurba_marseille","lat":43.324771,"lon":5.36557,"is_reserved":false,"is_disabled":false,"rental_uris":{"android":"levelo://app?vid=9fc52026-59fa-4495-9870-4e2026002386","ios":"levelo://app?vid=9fc52026-59fa-4495-9870-4e2026002386"},"vehicle_type_id":"4","last_reported":1723136825,"current_range_meters":27600,"station_id":"ce4bhs12rcd13ifvqhvg","pricing_plan_id":"cebpf4jnsgd1na2vs0mg"},{"bike_id":"171da7d4-d702-4b55-9f3a-03e936311e21","system_id":"levelo_inurba_marseille","lat":43.32483,"lon":5.36586,"is_reserved":false,"is_disabled":false,"rental_uris":{"android":"levelo://app?vid=171da7d4-d702-4b55-9f3a-03e936311e21","ios":"levelo://app?vid=171da7d4-d702-4b55-9f3a-03e936311e21"},"vehicle_type_id":"4","last_reported":1723136825,"current_range_meters":0,"station_id":"ce4bhs12rcd13ifvqhvg","pricing_plan_id":"cebpf4jnsgd1na2vs0mg"},{"bike_id":"a4a05fcb-1dda-405f-9207-39b972323817","system_id":"levelo_inurba_marseille","lat":43.310804,"lon":5.38359,"is_reserved":false,"is_disabled":false,"rental_uris":{"android":"levelo://app?vid=a4a05fcb-1dda-405f-9207-39b972323817","ios":"levelo://app?vid=a4a05fcb-1dda-405f-9207-39b972323817"},"vehicle_type_id":"4","last_reported":1723136825,"current_range_meters":2000,"station_id":"ce4bgv92rcd13ifvqcr0","pricing_plan_id":"cebpf4jnsgd1na2vs0mg"},{"bike_id":"b4c482ae-449a-40f2-b12a-460881639f38","system_id":"levelo_inurba_marseille","lat":43.310804,"lon":5.38359,"is_reserved":false,"is_disabled":false,"rental_uris":{"android":"levelo://app?vid=b4c482ae-449a-40f2-b12a-460881639f38","ios":"levelo://app?vid=b4c482ae-449a-40f2-b12a-460881639f38"},"vehicle_type_id":"4","last_reported":1723136825,"current_range_meters":0,"station_id":"ce4bgv92rcd13ifvqcr0","pricing_plan_id":"cebpf4jnsgd1na2vs0mg"},{"bike_id":"0d6e4e3a-b680-4ede-bb55-9d30bdb6fccc","system_id":"levelo_inurba_marseille","lat":43.310804,"lon":5.38359,"is_reserved":false,"is_disabled":false,"rental_uris":{"android":"levelo://app?vid=0d6e4e3a-b680-4ede-bb55-9d30bdb6fccc","ios":"levelo://app?vid=0d6e4e3a-b680-4ede-bb55-9d30bdb6fccc"},"vehicle_type_id":"4","last_reported":1723136825,"current_range_meters":24000,"station_id":"ce4bgv92rcd13ifvqcr0","pricing_plan_id":"cebpf4jnsgd1na2vs0mg"},{"bike_id":"5a7d7669-a693-41c6-aef3-ad1a6b32aeed","system_id":"levelo_inurba_marseille","lat":43.31082,"lon":5.38367,"is_reserved":false,"is_disabled":false,"rental_uris":{"android":"levelo://app?vid=5a7d7669-a693-41c6-aef3-ad1a6b32aeed","ios":"levelo://app?vid=5a7d7669-a693-41c6-aef3-ad1a6b32aeed"},"vehicle_type_id":"4","last_reported":1723136825,"current_range_meters":0,"station_id":"ce4bgv92rcd13ifvqcr0","pricing_plan_id":"cebpf4jnsgd1na2vs0mg"},{"bike_id":"5d8129ce-3d0f-4490-9cad-dea87e75df9b","system_id":"levelo_inurba_marseille","lat":43.301429,"lon":5.37413,"is_reserved":false,"is_disabled":false,"rental_uris":{"android":"levelo://app?vid=5d8129ce-3d0f-4490-9cad-dea87e75df9b","ios":"levelo://app?vid=5d8129ce-3d0f-4490-9cad-dea87e75df9b"},"vehicle_type_id":"4","last_reported":1723136825,"current_range_meters":2800,"station_id":"ce4bgs92rcd13ifvqcc0","pricing_plan_id":"cebpf4jnsgd1na2vs0mg"},{"bike_id":"d539e492-cb53-41d6-9afd-5d1cd91dd932","system_id":"levelo_inurba_marseille","lat":43.30038,"lon":5.369239,"is_reserved":false,"is_disabled":false,"rental_uris":{"android":"levelo://app?vid=d539e492-cb53-41d6-9afd-5d1cd91dd932","ios":"levelo://app?vid=d539e492-cb53-41d6-9afd-5d1cd91dd932"},"vehicle_type_id":"4","last_reported":1723136825,"current_range_meters":2800,"station_id":"","pricing_plan_id":"cebpf4jnsgd1na2vs0mg"},{"bike_id":"27b9a62e-a559-4836-8323-31b62f1a2fdc","system_id":"levelo_inurba_marseille","lat":43.319935,"lon":5.381699,"is_reserved":false,"is_disabled":false,"rental_uris":{"android":"levelo://app?vid=27b9a62e-a559-4836-8323-31b62f1a2fdc","ios":"levelo://app?vid=27b9a62e-a559-4836-8323-31b62f1a2fdc"},"vehicle_type_id":"4","last_reported":1723136825,"current_range_meters":1600,"station_id":"ce4bhr12rcd13ifvqhpg","pricing_plan_id":"cebpf4jnsgd1na2vs0mg"},{"bike_id":"6b43f6ed-50d9-4081-93dd-e1ea2c0c37fe","system_id":"levelo_inurba_marseille","lat":43.313571,"lon":5.384829,"is_reserved":false,"is_disabled":false,"rental_uris":{"android":"levelo://app?vid=6b43f6ed-50d9-4081-93dd-e1ea2c0c37fe","ios":"levelo://app?vid=6b43f6ed-50d9-4081-93dd-e1ea2c0c37fe"},"vehicle_type_id":"4","last_reported":1723136825,"current_range_meters":14000,"station_id":"ce4bgt92rcd13ifvqcf0","pricing_plan_id":"cebpf4jnsgd1na2vs0mg"},{"bike_id":"5ed68059-8426-4474-830f-dd5125e96488","system_id":"levelo_inurba_marseille","lat":43.313571,"lon":5.384829,"is_reserved":false,"is_disabled":false,"rental_uris":{"android":"levelo://app?vid=5ed68059-8426-4474-830f-dd5125e96488","ios":"levelo://app?vid=5ed68059-8426-4474-830f-dd5125e96488"},"vehicle_type_id":"4","last_reported":1723136825,"current_range_meters":3600,"station_id":"ce4bgt92rcd13ifvqcf0","pricing_plan_id":"cebpf4jnsgd1na2vs0mg"},{"bike_id":"30f89892-30c3-49fa-871c-5f1bdb2b8b15","system_id":"levelo_inurba_marseille","lat":43.313571,"lon":5.384829,"is_reserved":false,"is_disabled":false,"rental_uris":{"android":"levelo://app?vid=30f89892-30c3-49fa-871c-5f1bdb2b8b15","ios":"levelo://app?vid=30f89892-30c3-49fa-871c-5f1bdb2b8b15"},"vehicle_type_id":"4","last_reported":1723136825,"current_range_meters":30800,"station_id":"ce4bgt92rcd13ifvqcf0","pricing_plan_id":"cebpf4jnsgd1na2vs0mg"},{"bike_id":"0cb6fb81-ca71-474a-9c19-9ab512edaa28","system_id":"levelo_inurba_marseille","lat":43.31381,"lon":5.38496,"is_reserved":false,"is_disabled":false,"rental_uris":{"android":"levelo://app?vid=0cb6fb81-ca71-474a-9c19-9ab512edaa28","ios":"levelo://app?vid=0cb6fb81-ca71-474a-9c19-9ab512edaa28"},"vehicle_type_id":"4","last_reported":1723136825,"current_range_meters":12800,"station_id":"ce4bgt92rcd13ifvqcf0","pricing_plan_id":"cebpf4jnsgd1na2vs0mg"},{"bike_id":"33dbab63-88c6-47a6-bba1-399d64ae1e88","system_id":"levelo_inurba_marseille","lat":43.313571,"lon":5.384829,"is_reserved":false,"is_disabled":false,"rental_uris":{"android":"levelo://app?vid=33dbab63-88c6-47a6-bba1-399d64ae1e88","ios":"levelo://app?vid=33dbab63-88c6-47a6-bba1-399d64ae1e88"},"vehicle_type_id":"4","last_reported":1723136825,"current_range_meters":13200,"station_id":"ce4bgt92rcd13ifvqcf0","pricing_plan_id":"cebpf4jnsgd1na2vs0mg"},{"bike_id":"8d123bea-15a4-4c6e-9b29-d0f3738d2a7c","system_id":"levelo_inurba_marseille","lat":43.2994,"lon":5.36553,"is_reserved":false,"is_disabled":false,"rental_uris":{"android":"levelo://app?vid=8d123bea-15a4-4c6e-9b29-d0f3738d2a7c","ios":"levelo://app?vid=8d123bea-15a4-4c6e-9b29-d0f3738d2a7c"},"vehicle_type_id":"4","last_reported":1723136825,"current_range_meters":0,"station_id":"ce4bgm92rcd13ifvqbr0","pricing_plan_id":"cebpf4jnsgd1na2vs0mg"},{"bike_id":"2be2b4a5-6d8a-4459-a190-b7c384c4aab4","system_id":"levelo_inurba_marseille","lat":43.29936,"lon":5.3655,"is_reserved":false,"is_disabled":false,"rental_uris":{"android":"levelo://app?vid=2be2b4a5-6d8a-4459-a190-b7c384c4aab4","ios":"levelo://app?vid=2be2b4a5-6d8a-4459-a190-b7c384c4aab4"},"vehicle_type_id":"4","last_reported":1723136825,"current_range_meters":0,"station_id":"ce4bgm92rcd13ifvqbr0","pricing_plan_id":"cebpf4jnsgd1na2vs0mg"},{"bike_id":"edd44f21-e095-4d4b-a413-f69795a37677","system_id":"levelo_inurba_marseille","lat":43.299724,"lon":5.371829,"is_reserved":false,"is_disabled":false,"rental_uris":{"android":"levelo://app?vid=edd44f21-e095-4d4b-a413-f69795a37677","ios":"levelo://app?vid=edd44f21-e095-4d4b-a413-f69795a37677"},"vehicle_type_id":"4","last_reported":1723136825,"current_range_meters":6400,"station_id":"ce4bgr92rcd13ifvqc7g","pricing_plan_id":"cebpf4jnsgd1na2vs0mg"},{"bike_id":"4d27ddaf-9344-4494-8f86-0f80adce8098","system_id":"levelo_inurba_marseille","lat":43.299724,"lon":5.371829,"is_reserved":false,"is_disabled":false,"rental_uris":{"android":"levelo://app?vid=4d27ddaf-9344-4494-8f86-0f80adce8098","ios":"levelo://app?vid=4d27ddaf-9344-4494-8f86-0f80adce8098"},"vehicle_type_id":"4","last_reported":1723136825,"current_range_meters":400,"station_id":"ce4bgr92rcd13ifvqc7g","pricing_plan_id":"cebpf4jnsgd1na2vs0mg"},{"bike_id":"1f168c90-5ead-4590-a8d8-90b06c09034f","system_id":"levelo_inurba_marseille","lat":43.319935,"lon":5.381699,"is_reserved":false,"is_disabled":false,"rental_uris":{"android":"levelo://app?vid=1f168c90-5ead-4590-a8d8-90b06c09034f","ios":"levelo://app?vid=1f168c90-5ead-4590-a8d8-90b06c09034f"},"vehicle_type_id":"4","last_reported":1723136825,"current_range_meters":3200,"station_id":"ce4bhr12rcd13ifvqhpg","pricing_plan_id":"cebpf4jnsgd1na2vs0mg"},{"bike_id":"f3ce999c-520a-4974-ac05-42cec4760186","system_id":"levelo_inurba_marseille","lat":43.299724,"lon":5.371829,"is_reserved":false,"is_disabled":false,"rental_uris":{"android":"levelo://app?vid=f3ce999c-520a-4974-ac05-42cec4760186","ios":"levelo://app?vid=f3ce999c-520a-4974-ac05-42cec4760186"},"vehicle_type_id":"4","last_reported":1723136825,"current_range_meters":2000,"station_id":"ce4bgr92rcd13ifvqc7g","pricing_plan_id":"cebpf4jnsgd1na2vs0mg"},{"bike_id":"cc1569b9-7c06-4293-99e4-4b045a962b45","system_id":"levelo_inurba_marseille","lat":43.299227,"lon":5.37456,"is_reserved":false,"is_disabled":false,"rental_uris":{"android":"levelo://app?vid=cc1569b9-7c06-4293-99e4-4b045a962b45","ios":"levelo://app?vid=cc1569b9-7c06-4293-99e4-4b045a962b45"},"vehicle_type_id":"4","last_reported":1723136825,"current_range_meters":0,"station_id":"ce4bgjh2rcd13ifvqbg0","pricing_plan_id":"cebpf4jnsgd1na2vs0mg"},{"bike_id":"0eb6a0a6-9fed-4b36-9b80-bd4c5a987489","system_id":"levelo_inurba_marseille","lat":43.299243,"lon":5.374807,"is_reserved":false,"is_disabled":false,"rental_uris":{"android":"levelo://app?vid=0eb6a0a6-9fed-4b36-9b80-bd4c5a987489","ios":"levelo://app?vid=0eb6a0a6-9fed-4b36-9b80-bd4c5a987489"},"vehicle_type_id":"4","last_reported":1723136825,"current_range_meters":400,"station_id":"ce4bgjh2rcd13ifvqbg0","pricing_plan_id":"cebpf4jnsgd1na2vs0mg"},{"bike_id":"585044a4-a234-4abb-93df-28db5dc3595d","system_id":"levelo_inurba_marseille","lat":43.311722,"lon":5.387247,"is_reserved":false,"is_disabled":false,"rental_uris":{"android":"levelo://app?vid=585044a4-a234-4abb-93df-28db5dc3595d","ios":"levelo://app?vid=585044a4-a234-4abb-93df-28db5dc3595d"},"vehicle_type_id":"4","last_reported":1723136825,"current_range_meters":12000,"station_id":"ce4bgv12rcd13ifvqcp0","pricing_plan_id":"cebpf4jnsgd1na2vs0mg"},{"bike_id":"07ac906c-0977-4459-9d23-b197fc1b6e92","system_id":"levelo_inurba_marseille","lat":43.311722,"lon":5.387247,"is_reserved":false,"is_disabled":false,"rental_uris":{"android":"levelo://app?vid=07ac906c-0977-4459-9d23-b197fc1b6e92","ios":"levelo://app?vid=07ac906c-0977-4459-9d23-b197fc1b6e92"},"vehicle_type_id":"4","last_reported":1723136825,"current_range_meters":14400,"station_id":"ce4bgv12rcd13ifvqcp0","pricing_plan_id":"cebpf4jnsgd1na2vs0mg"},{"bike_id":"3d31608d-6f8d-4db0-90aa-4b11cdf56c90","system_id":"levelo_inurba_marseille","lat":43.311722,"lon":5.387247,"is_reserved":false,"is_disabled":false,"rental_uris":{"android":"levelo://app?vid=3d31608d-6f8d-4db0-90aa-4b11cdf56c90","ios":"levelo://app?vid=3d31608d-6f8d-4db0-90aa-4b11cdf56c90"},"vehicle_type_id":"4","last_reported":1723136825,"current_range_meters":3600,"station_id":"ce4bgv12rcd13ifvqcp0","pricing_plan_id":"cebpf4jnsgd1na2vs0mg"},{"bike_id":"e753792c-d3ad-4371-ac90-d6d4ca1a4e28","system_id":"levelo_inurba_marseille","lat":43.311722,"lon":5.387247,"is_reserved":false,"is_disabled":false,"rental_uris":{"android":"levelo://app?vid=e753792c-d3ad-4371-ac90-d6d4ca1a4e28","ios":"levelo://app?vid=e753792c-d3ad-4371-ac90-d6d4ca1a4e28"},"vehicle_type_id":"4","last_reported":1723136825,"current_range_meters":4000,"station_id":"ce4bgv12rcd13ifvqcp0","pricing_plan_id":"cebpf4jnsgd1na2vs0mg"},{"bike_id":"b26f34b6-0cd2-4448-a586-383100eee2e1","system_id":"levelo_inurba_marseille","lat":43.311722,"lon":5.387247,"is_reserved":false,"is_disabled":false,"rental_uris":{"android":"levelo://app?vid=b26f34b6-0cd2-4448-a586-383100eee2e1","ios":"levelo://app?vid=b26f34b6-0cd2-4448-a586-383100eee2e1"},"vehicle_type_id":"4","last_reported":1723136825,"current_range_meters":8000,"station_id":"ce4bgv12rcd13ifvqcp0","pricing_plan_id":"cebpf4jnsgd1na2vs0mg"},{"bike_id":"aeae5e9c-a3d0-4437-b044-d96168ced8cf","system_id":"levelo_inurba_marseille","lat":43.311722,"lon":5.387247,"is_reserved":false,"is_disabled":false,"rental_uris":{"android":"levelo://app?vid=aeae5e9c-a3d0-4437-b044-d96168ced8cf","ios":"levelo://app?vid=aeae5e9c-a3d0-4437-b044-d96168ced8cf"},"vehicle_type_id":"4","last_reported":1723136825,"current_range_meters":12400,"station_id":"ce4bgv12rcd13ifvqcp0","pricing_plan_id":"cebpf4jnsgd1na2vs0mg"},{"bike_id":"14feda34-79ea-483f-8c8f-5cf3438e963b","system_id":"levelo_inurba_marseille","lat":43.30165,"lon":5.38099,"is_reserved":false,"is_disabled":false,"rental_uris":{"android":"levelo://app?vid=14feda34-79ea-483f-8c8f-5cf3438e963b","ios":"levelo://app?vid=14feda34-79ea-483f-8c8f-5cf3438e963b"},"vehicle_type_id":"4","last_reported":1723136825,"current_range_meters":0,"station_id":"","pricing_plan_id":"cebpf4jnsgd1na2vs0mg"},{"bike_id":"8df6362f-809c-4822-a770-475f43c081e3","system_id":"levelo_inurba_marseille","lat":43.297774,"lon":5.370875,"is_reserved":false,"is_disabled":false,"rental_uris":{"android":"levelo://app?vid=8df6362f-809c-4822-a770-475f43c081e3","ios":"levelo://app?vid=8df6362f-809c-4822-a770-475f43c081e3"},"vehicle_type_id":"4","last_reported":1723136825,"current_range_meters":6800,"station_id":"ce4bgop2rcd13ifvqc1g","pricing_plan_id":"cebpf4jnsgd1na2vs0mg"},{"bike_id":"c4dc41bf-2448-4a93-8deb-f7df5ee15868","system_id":"levelo_inurba_marseille","lat":43.32677,"lon":5.37483,"is_reserved":false,"is_disabled":false,"rental_uris":{"android":"levelo://app?vid=c4dc41bf-2448-4a93-8deb-f7df5ee15868","ios":"levelo://app?vid=c4dc41bf-2448-4a93-8deb-f7df5ee15868"},"vehicle_type_id":"4","last_reported":1723136825,"current_range_meters":15600,"station_id":"","pricing_plan_id":"cebpf4jnsgd1na2vs0mg"},{"bike_id":"94f6600d-1bd2-4330-979a-a52f29d7c5e1","system_id":"levelo_inurba_marseille","lat":43.3015,"lon":5.38092,"is_reserved":false,"is_disabled":false,"rental_uris":{"android":"levelo://app?vid=94f6600d-1bd2-4330-979a-a52f29d7c5e1","ios":"levelo://app?vid=94f6600d-1bd2-4330-979a-a52f29d7c5e1"},"vehicle_type_id":"4","last_reported":1723136825,"current_range_meters":0,"station_id":"","pricing_plan_id":"cebpf4jnsgd1na2vs0mg"},{"bike_id":"534c1d17-2e60-48a7-9947-3d0711ce8af8","system_id":"levelo_inurba_marseille","lat":43.297855,"lon":5.371,"is_reserved":false,"is_disabled":false,"rental_uris":{"android":"levelo://app?vid=534c1d17-2e60-48a7-9947-3d0711ce8af8","ios":"levelo://app?vid=534c1d17-2e60-48a7-9947-3d0711ce8af8"},"vehicle_type_id":"4","last_reported":1723136825,"current_range_meters":1200,"station_id":"ce4bgop2rcd13ifvqc1g","pricing_plan_id":"cebpf4jnsgd1na2vs0mg"},{"bike_id":"f467ca2e-be27-4b64-a617-4756251342d1","system_id":"levelo_inurba_marseille","lat":43.3226,"lon":5.3828,"is_reserved":false,"is_disabled":false,"rental_uris":{"android":"levelo://app?vid=f467ca2e-be27-4b64-a617-4756251342d1","ios":"levelo://app?vid=f467ca2e-be27-4b64-a617-4756251342d1"},"vehicle_type_id":"4","last_reported":1723136825,"current_range_meters":31200,"station_id":"ce4bhr12rcd13ifvqhqg","pricing_plan_id":"cebpf4jnsgd1na2vs0mg"},{"bike_id":"9b5631f2-d00b-4f17-be54-a542832a79f0","system_id":"levelo_inurba_marseille","lat":43.29783,"lon":5.37104,"is_reserved":false,"is_disabled":false,"rental_uris":{"android":"levelo://app?vid=9b5631f2-d00b-4f17-be54-a542832a79f0","ios":"levelo://app?vid=9b5631f2-d00b-4f17-be54-a542832a79f0"},"vehicle_type_id":"4","last_reported":1723136825,"current_range_meters":6000,"station_id":"ce4bgop2rcd13ifvqc1g","pricing_plan_id":"cebpf4jnsgd1na2vs0mg"},{"bike_id":"60d28b51-3a0a-4ee8-ba1d-82f517ca0ea6","system_id":"levelo_inurba_marseille","lat":43.2978,"lon":5.37107,"is_reserved":false,"is_disabled":false,"rental_uris":{"android":"levelo://app?vid=60d28b51-3a0a-4ee8-ba1d-82f517ca0ea6","ios":"levelo://app?vid=60d28b51-3a0a-4ee8-ba1d-82f517ca0ea6"},"vehicle_type_id":"4","last_reported":1723136825,"current_range_meters":6800,"station_id":"ce4bgop2rcd13ifvqc1g","pricing_plan_id":"cebpf4jnsgd1na2vs0mg"},{"bike_id":"1ee10397-4b89-4f41-8b45-3546d99fd161","system_id":"levelo_inurba_marseille","lat":43.297774,"lon":5.370875,"is_reserved":false,"is_disabled":false,"rental_uris":{"android":"levelo://app?vid=1ee10397-4b89-4f41-8b45-3546d99fd161","ios":"levelo://app?vid=1ee10397-4b89-4f41-8b45-3546d99fd161"},"vehicle_type_id":"4","last_reported":1723136825,"current_range_meters":20000,"station_id":"ce4bgop2rcd13ifvqc1g","pricing_plan_id":"cebpf4jnsgd1na2vs0mg"},{"bike_id":"216240ef-238f-48ba-bd26-5d1c9cf540df","system_id":"levelo_inurba_marseille","lat":43.31456,"lon":5.38784,"is_reserved":false,"is_disabled":false,"rental_uris":{"android":"levelo://app?vid=216240ef-238f-48ba-bd26-5d1c9cf540df","ios":"levelo://app?vid=216240ef-238f-48ba-bd26-5d1c9cf540df"},"vehicle_type_id":"4","last_reported":1723136825,"current_range_meters":4400,"station_id":"","pricing_plan_id":"cebpf4jnsgd1na2vs0mg"},{"bike_id":"5fffa730-f16a-47fd-bab1-496f19d996a2","system_id":"levelo_inurba_marseille","lat":43.32295,"lon":5.38267,"is_reserved":false,"is_disabled":false,"rental_uris":{"android":"levelo://app?vid=5fffa730-f16a-47fd-bab1-496f19d996a2","ios":"levelo://app?vid=5fffa730-f16a-47fd-bab1-496f19d996a2"},"vehicle_type_id":"4","last_reported":1723136825,"current_range_meters":8800,"station_id":"ce4bhr12rcd13ifvqhqg","pricing_plan_id":"cebpf4jnsgd1na2vs0mg"},{"bike_id":"514e9fba-ab2e-4e2c-9c62-6069d3673fea","system_id":"levelo_inurba_marseille","lat":43.32544,"lon":5.37888,"is_reserved":false,"is_disabled":false,"rental_uris":{"android":"levelo://app?vid=514e9fba-ab2e-4e2c-9c62-6069d3673fea","ios":"levelo://app?vid=514e9fba-ab2e-4e2c-9c62-6069d3673fea"},"vehicle_type_id":"4","last_reported":1723136825,"current_range_meters":19200,"station_id":"","pricing_plan_id":"cebpf4jnsgd1na2vs0mg"},{"bike_id":"d85e3b16-bf08-4c70-b971-631d23f8afe0","system_id":"levelo_inurba_marseille","lat":43.322872,"lon":5.382756,"is_reserved":false,"is_disabled":false,"rental_uris":{"android":"levelo://app?vid=d85e3b16-bf08-4c70-b971-631d23f8afe0","ios":"levelo://app?vid=d85e3b16-bf08-4c70-b971-631d23f8afe0"},"vehicle_type_id":"4","last_reported":1723136825,"current_range_meters":30400,"station_id":"ce4bhr12rcd13ifvqhqg","pricing_plan_id":"cebpf4jnsgd1na2vs0mg"},{"bike_id":"13a01681-e39d-40ae-82c0-dc0c0290af68","system_id":"levelo_inurba_marseille","lat":43.297163,"lon":5.365866,"is_reserved":false,"is_disabled":false,"rental_uris":{"android":"levelo://app?vid=13a01681-e39d-40ae-82c0-dc0c0290af68","ios":"levelo://app?vid=13a01681-e39d-40ae-82c0-dc0c0290af68"},"vehicle_type_id":"4","last_reported":1723136825,"current_range_meters":5600,"station_id":"ce4bgn12rcd13ifvqbt0","pricing_plan_id":"cebpf4jnsgd1na2vs0mg"},{"bike_id":"36ac4a0d-9407-4a98-bcc2-2269e184cf26","system_id":"levelo_inurba_marseille","lat":43.297163,"lon":5.365866,"is_reserved":false,"is_disabled":false,"rental_uris":{"android":"levelo://app?vid=36ac4a0d-9407-4a98-bcc2-2269e184cf26","ios":"levelo://app?vid=36ac4a0d-9407-4a98-bcc2-2269e184cf26"},"vehicle_type_id":"4","last_reported":1723136825,"current_range_meters":0,"station_id":"ce4bgn12rcd13ifvqbt0","pricing_plan_id":"cebpf4jnsgd1na2vs0mg"},{"bike_id":"d8023d3c-010c-476b-86f2-587ddfbe1107","system_id":"levelo_inurba_marseille","lat":43.31566,"lon":5.3884,"is_reserved":false,"is_disabled":false,"rental_uris":{"android":"levelo://app?vid=d8023d3c-010c-476b-86f2-587ddfbe1107","ios":"levelo://app?vid=d8023d3c-010c-476b-86f2-587ddfbe1107"},"vehicle_type_id":"4","last_reported":1723136825,"current_range_meters":14400,"station_id":"","pricing_plan_id":"cebpf4jnsgd1na2vs0mg"},{"bike_id":"1e4a9941-f657-4f4f-a837-26e549b009da","system_id":"levelo_inurba_marseille","lat":43.32368,"lon":5.38371,"is_reserved":false,"is_disabled":false,"rental_uris":{"android":"levelo://app?vid=1e4a9941-f657-4f4f-a837-26e549b009da","ios":"levelo://app?vid=1e4a9941-f657-4f4f-a837-26e549b009da"},"vehicle_type_id":"4","last_reported":1723136825,"current_range_meters":30400,"station_id":"","pricing_plan_id":"cebpf4jnsgd1na2vs0mg"},{"bike_id":"243a46ca-c82f-4865-a85d-d4b059825451","system_id":"levelo_inurba_marseille","lat":43.32385,"lon":5.38368,"is_reserved":false,"is_disabled":false,"rental_uris":{"android":"levelo://app?vid=243a46ca-c82f-4865-a85d-d4b059825451","ios":"levelo://app?vid=243a46ca-c82f-4865-a85d-d4b059825451"},"vehicle_type_id":"4","last_reported":1723136825,"current_range_meters":23600,"station_id":"","pricing_plan_id":"cebpf4jnsgd1na2vs0mg"},{"bike_id":"a0943253-04f7-4e2b-aed4-c507050f230a","system_id":"levelo_inurba_marseille","lat":43.32828,"lon":5.375,"is_reserved":false,"is_disabled":false,"rental_uris":{"android":"levelo://app?vid=a0943253-04f7-4e2b-aed4-c507050f230a","ios":"levelo://app?vid=a0943253-04f7-4e2b-aed4-c507050f230a"},"vehicle_type_id":"4","last_reported":1723136825,"current_range_meters":28000,"station_id":"","pricing_plan_id":"cebpf4jnsgd1na2vs0mg"},{"bike_id":"7dd570cd-8411-43c3-a434-e4d82bcdf84e","system_id":"levelo_inurba_marseille","lat":43.296131,"lon":5.370791,"is_reserved":false,"is_disabled":false,"rental_uris":{"android":"levelo://app?vid=7dd570cd-8411-43c3-a434-e4d82bcdf84e","ios":"levelo://app?vid=7dd570cd-8411-43c3-a434-e4d82bcdf84e"},"vehicle_type_id":"4","last_reported":1723136825,"current_range_meters":0,"station_id":"ce4bgnh2rcd13ifvqc0g","pricing_plan_id":"cebpf4jnsgd1na2vs0mg"},{"bike_id":"02d75ed5-2138-4e76-a009-6f2697a8a7cd","system_id":"levelo_inurba_marseille","lat":43.296921,"lon":5.376579,"is_reserved":false,"is_disabled":false,"rental_uris":{"android":"levelo://app?vid=02d75ed5-2138-4e76-a009-6f2697a8a7cd","ios":"levelo://app?vid=02d75ed5-2138-4e76-a009-6f2697a8a7cd"},"vehicle_type_id":"4","last_reported":1723136825,"current_range_meters":12000,"station_id":"ce4bgkh2rcd13ifvqbl0","pricing_plan_id":"cebpf4jnsgd1na2vs0mg"},{"bike_id":"21fbf62b-339c-4d03-a75e-bed32bb16dc8","system_id":"levelo_inurba_marseille","lat":43.32231,"lon":5.38649,"is_reserved":false,"is_disabled":false,"rental_uris":{"android":"levelo://app?vid=21fbf62b-339c-4d03-a75e-bed32bb16dc8","ios":"levelo://app?vid=21fbf62b-339c-4d03-a75e-bed32bb16dc8"},"vehicle_type_id":"4","last_reported":1723136825,"current_range_meters":11200,"station_id":"","pricing_plan_id":"cebpf4jnsgd1na2vs0mg"},{"bike_id":"8cffa8f9-4648-4a01-baa1-575f407cb34f","system_id":"levelo_inurba_marseille","lat":43.299028,"lon":5.381509,"is_reserved":false,"is_disabled":false,"rental_uris":{"android":"levelo://app?vid=8cffa8f9-4648-4a01-baa1-575f407cb34f","ios":"levelo://app?vid=8cffa8f9-4648-4a01-baa1-575f407cb34f"},"vehicle_type_id":"4","last_reported":1723136825,"current_range_meters":0,"station_id":"ce4bgj12rcd13ifvqbc0","pricing_plan_id":"cebpf4jnsgd1na2vs0mg"},{"bike_id":"57fd25f3-abf7-432a-b4bb-536327098269","system_id":"levelo_inurba_marseille","lat":43.299028,"lon":5.381509,"is_reserved":false,"is_disabled":false,"rental_uris":{"android":"levelo://app?vid=57fd25f3-abf7-432a-b4bb-536327098269","ios":"levelo://app?vid=57fd25f3-abf7-432a-b4bb-536327098269"},"vehicle_type_id":"4","last_reported":1723136825,"current_range_meters":2000,"station_id":"ce4bgj12rcd13ifvqbc0","pricing_plan_id":"cebpf4jnsgd1na2vs0mg"},{"bike_id":"beeb8551-ba85-4d32-944a-fb19d6b77496","system_id":"levelo_inurba_marseille","lat":43.309589,"lon":5.390258,"is_reserved":false,"is_disabled":false,"rental_uris":{"android":"levelo://app?vid=beeb8551-ba85-4d32-944a-fb19d6b77496","ios":"levelo://app?vid=beeb8551-ba85-4d32-944a-fb19d6b77496"},"vehicle_type_id":"4","last_reported":1723136825,"current_range_meters":24800,"station_id":"ce4bgup2rcd13ifvqco0","pricing_plan_id":"cebpf4jnsgd1na2vs0mg"},{"bike_id":"09674c38-bdfc-46f7-ab90-3d7527b4f028","system_id":"levelo_inurba_marseille","lat":43.309589,"lon":5.390258,"is_reserved":false,"is_disabled":false,"rental_uris":{"android":"levelo://app?vid=09674c38-bdfc-46f7-ab90-3d7527b4f028","ios":"levelo://app?vid=09674c38-bdfc-46f7-ab90-3d7527b4f028"},"vehicle_type_id":"4","last_reported":1723136825,"current_range_meters":30400,"station_id":"ce4bgup2rcd13ifvqco0","pricing_plan_id":"cebpf4jnsgd1na2vs0mg"},{"bike_id":"f2509280-e496-409c-8d56-a3414df05f9b","system_id":"levelo_inurba_marseille","lat":43.317557,"lon":5.390173,"is_reserved":false,"is_disabled":false,"rental_uris":{"android":"levelo://app?vid=f2509280-e496-409c-8d56-a3414df05f9b","ios":"levelo://app?vid=f2509280-e496-409c-8d56-a3414df05f9b"},"vehicle_type_id":"4","last_reported":1723136825,"current_range_meters":31600,"station_id":"ce4bhqp2rcd13ifvqhng","pricing_plan_id":"cebpf4jnsgd1na2vs0mg"},{"bike_id":"d62c98f1-f69c-458b-9bc9-610d019699e1","system_id":"levelo_inurba_marseille","lat":43.298037,"lon":5.381066,"is_reserved":false,"is_disabled":false,"rental_uris":{"android":"levelo://app?vid=d62c98f1-f69c-458b-9bc9-610d019699e1","ios":"levelo://app?vid=d62c98f1-f69c-458b-9bc9-610d019699e1"},"vehicle_type_id":"4","last_reported":1723136825,"current_range_meters":7200,"station_id":"ce4bgip2rcd13ifvqbb0","pricing_plan_id":"cebpf4jnsgd1na2vs0mg"},{"bike_id":"617dda39-787b-4e75-ad92-f75dc02d77f7","system_id":"levelo_inurba_marseille","lat":43.298037,"lon":5.381066,"is_reserved":false,"is_disabled":false,"rental_uris":{"android":"levelo://app?vid=617dda39-787b-4e75-ad92-f75dc02d77f7","ios":"levelo://app?vid=617dda39-787b-4e75-ad92-f75dc02d77f7"},"vehicle_type_id":"4","last_reported":1723136825,"current_range_meters":6800,"station_id":"ce4bgip2rcd13ifvqbb0","pricing_plan_id":"cebpf4jnsgd1na2vs0mg"},{"bike_id":"0942e7d0-610b-448b-8f68-7aa5cc36f6df","system_id":"levelo_inurba_marseille","lat":43.295803,"lon":5.375037,"is_reserved":false,"is_disabled":false,"rental_uris":{"android":"levelo://app?vid=0942e7d0-610b-448b-8f68-7aa5cc36f6df","ios":"levelo://app?vid=0942e7d0-610b-448b-8f68-7aa5cc36f6df"},"vehicle_type_id":"4","last_reported":1723136825,"current_range_meters":0,"station_id":"ce4bgh92rcd13ifvqb50","pricing_plan_id":"cebpf4jnsgd1na2vs0mg"},{"bike_id":"eb99b504-8fb4-40b0-8ee0-2f9467e30e60","system_id":"levelo_inurba_marseille","lat":43.295748,"lon":5.37522,"is_reserved":false,"is_disabled":false,"rental_uris":{"android":"levelo://app?vid=eb99b504-8fb4-40b0-8ee0-2f9467e30e60","ios":"levelo://app?vid=eb99b504-8fb4-40b0-8ee0-2f9467e30e60"},"vehicle_type_id":"4","last_reported":1723136825,"current_range_meters":26000,"station_id":"ce4bgh92rcd13ifvqb50","pricing_plan_id":"cebpf4jnsgd1na2vs0mg"},{"bike_id":"b91a0084-55b9-44f1-8692-374e05fe019f","system_id":"levelo_inurba_marseille","lat":43.295823,"lon":5.375163,"is_reserved":false,"is_disabled":false,"rental_uris":{"android":"levelo://app?vid=b91a0084-55b9-44f1-8692-374e05fe019f","ios":"levelo://app?vid=b91a0084-55b9-44f1-8692-374e05fe019f"},"vehicle_type_id":"4","last_reported":1723136825,"current_range_meters":31200,"station_id":"ce4bgh92rcd13ifvqb50","pricing_plan_id":"cebpf4jnsgd1na2vs0mg"},{"bike_id":"a4e54cd3-b58b-47db-b6df-260e83dab452","system_id":"levelo_inurba_marseille","lat":43.32978,"lon":5.37487,"is_reserved":false,"is_disabled":false,"rental_uris":{"android":"levelo://app?vid=a4e54cd3-b58b-47db-b6df-260e83dab452","ios":"levelo://app?vid=a4e54cd3-b58b-47db-b6df-260e83dab452"},"vehicle_type_id":"4","last_reported":1723136825,"current_range_meters":27200,"station_id":"","pricing_plan_id":"cebpf4jnsgd1na2vs0mg"},{"bike_id":"349b15e9-5aed-4d30-ba1d-59a7d925b9ff","system_id":"levelo_inurba_marseille","lat":43.304274,"lon":5.388873,"is_reserved":false,"is_disabled":false,"rental_uris":{"android":"levelo://app?vid=349b15e9-5aed-4d30-ba1d-59a7d925b9ff","ios":"levelo://app?vid=349b15e9-5aed-4d30-ba1d-59a7d925b9ff"},"vehicle_type_id":"4","last_reported":1723136825,"current_range_meters":800,"station_id":"ce4bgk12rcd13ifvqbi0","pricing_plan_id":"cebpf4jnsgd1na2vs0mg"},{"bike_id":"5000895f-0da5-4298-bd80-27a1fc3cae9d","system_id":"levelo_inurba_marseille","lat":43.295748,"lon":5.37522,"is_reserved":false,"is_disabled":false,"rental_uris":{"android":"levelo://app?vid=5000895f-0da5-4298-bd80-27a1fc3cae9d","ios":"levelo://app?vid=5000895f-0da5-4298-bd80-27a1fc3cae9d"},"vehicle_type_id":"4","last_reported":1723136825,"current_range_meters":27600,"station_id":"ce4bgh92rcd13ifvqb50","pricing_plan_id":"cebpf4jnsgd1na2vs0mg"},{"bike_id":"f2f7b500-d77e-49c0-90b0-7fbfa406c49a","system_id":"levelo_inurba_marseille","lat":43.298037,"lon":5.381066,"is_reserved":false,"is_disabled":false,"rental_uris":{"android":"levelo://app?vid=f2f7b500-d77e-49c0-90b0-7fbfa406c49a","ios":"levelo://app?vid=f2f7b500-d77e-49c0-90b0-7fbfa406c49a"},"vehicle_type_id":"4","last_reported":1723136825,"current_range_meters":23600,"station_id":"ce4bgip2rcd13ifvqbb0","pricing_plan_id":"cebpf4jnsgd1na2vs0mg"},{"bike_id":"e87bcf8d-1831-48cd-aa7d-e692d2dccf9f","system_id":"levelo_inurba_marseille","lat":43.304278,"lon":5.388868,"is_reserved":false,"is_disabled":false,"rental_uris":{"android":"levelo://app?vid=e87bcf8d-1831-48cd-aa7d-e692d2dccf9f","ios":"levelo://app?vid=e87bcf8d-1831-48cd-aa7d-e692d2dccf9f"},"vehicle_type_id":"4","last_reported":1723136825,"current_range_meters":1600,"station_id":"ce4bgk12rcd13ifvqbi0","pricing_plan_id":"cebpf4jnsgd1na2vs0mg"},{"bike_id":"ca3c8d29-5770-49f6-9542-37caea4653cc","system_id":"levelo_inurba_marseille","lat":43.29557,"lon":5.37519,"is_reserved":false,"is_disabled":false,"rental_uris":{"android":"levelo://app?vid=ca3c8d29-5770-49f6-9542-37caea4653cc","ios":"levelo://app?vid=ca3c8d29-5770-49f6-9542-37caea4653cc"},"vehicle_type_id":"4","last_reported":1723136825,"current_range_meters":0,"station_id":"ce4bgh92rcd13ifvqb50","pricing_plan_id":"cebpf4jnsgd1na2vs0mg"},{"bike_id":"a4149fdc-4092-4762-9b86-cf725d34b99e","system_id":"levelo_inurba_marseille","lat":43.29611,"lon":5.37712,"is_reserved":false,"is_disabled":false,"rental_uris":{"android":"levelo://app?vid=a4149fdc-4092-4762-9b86-cf725d34b99e","ios":"levelo://app?vid=a4149fdc-4092-4762-9b86-cf725d34b99e"},"vehicle_type_id":"4","last_reported":1723136825,"current_range_meters":32000,"station_id":"ce4bgi92rcd13ifvqb90","pricing_plan_id":"cebpf4jnsgd1na2vs0mg"},{"bike_id":"a088f56a-b6a8-41bf-b431-16dc2c1dcb19","system_id":"levelo_inurba_marseille","lat":43.295279,"lon":5.375048,"is_reserved":false,"is_disabled":false,"rental_uris":{"android":"levelo://app?vid=a088f56a-b6a8-41bf-b431-16dc2c1dcb19","ios":"levelo://app?vid=a088f56a-b6a8-41bf-b431-16dc2c1dcb19"},"vehicle_type_id":"4","last_reported":1723136825,"current_range_meters":0,"station_id":"ce4bgkp2rcd13ifvqbmg","pricing_plan_id":"cebpf4jnsgd1na2vs0mg"},{"bike_id":"993be31d-d82f-4094-89a3-b2eb12b6f2a7","system_id":"levelo_inurba_marseille","lat":43.29971,"lon":5.384957,"is_reserved":false,"is_disabled":false,"rental_uris":{"android":"levelo://app?vid=993be31d-d82f-4094-89a3-b2eb12b6f2a7","ios":"levelo://app?vid=993be31d-d82f-4094-89a3-b2eb12b6f2a7"},"vehicle_type_id":"4","last_reported":1723136825,"current_range_meters":0,"station_id":"ce4bgj92rcd13ifvqbd0","pricing_plan_id":"cebpf4jnsgd1na2vs0mg"},{"bike_id":"1d316803-c8ee-4900-99ba-a66adbce2f2e","system_id":"levelo_inurba_marseille","lat":43.295279,"lon":5.375048,"is_reserved":false,"is_disabled":false,"rental_uris":{"android":"levelo://app?vid=1d316803-c8ee-4900-99ba-a66adbce2f2e","ios":"levelo://app?vid=1d316803-c8ee-4900-99ba-a66adbce2f2e"},"vehicle_type_id":"4","last_reported":1723136825,"current_range_meters":0,"station_id":"ce4bgkp2rcd13ifvqbmg","pricing_plan_id":"cebpf4jnsgd1na2vs0mg"},{"bike_id":"fef4f0ff-ee97-49ae-870c-69024f9b0a05","system_id":"levelo_inurba_marseille","lat":43.299717,"lon":5.384845,"is_reserved":false,"is_disabled":false,"rental_uris":{"android":"levelo://app?vid=fef4f0ff-ee97-49ae-870c-69024f9b0a05","ios":"levelo://app?vid=fef4f0ff-ee97-49ae-870c-69024f9b0a05"},"vehicle_type_id":"4","last_reported":1723136825,"current_range_meters":0,"station_id":"ce4bgj92rcd13ifvqbd0","pricing_plan_id":"cebpf4jnsgd1na2vs0mg"},{"bike_id":"c42c5c0b-eaa8-4b94-a6a1-0c1b56372cba","system_id":"levelo_inurba_marseille","lat":43.30085,"lon":5.390856,"is_reserved":false,"is_disabled":false,"rental_uris":{"android":"levelo://app?vid=c42c5c0b-eaa8-4b94-a6a1-0c1b56372cba","ios":"levelo://app?vid=c42c5c0b-eaa8-4b94-a6a1-0c1b56372cba"},"vehicle_type_id":"4","last_reported":1723136825,"current_range_meters":7600,"station_id":"ce4bh192rcd13ifvqdb0","pricing_plan_id":"cebpf4jnsgd1na2vs0mg"},{"bike_id":"21172e3e-c8a6-46e1-a187-de8559ab347d","system_id":"levelo_inurba_marseille","lat":43.296106,"lon":5.381014,"is_reserved":false,"is_disabled":false,"rental_uris":{"android":"levelo://app?vid=21172e3e-c8a6-46e1-a187-de8559ab347d","ios":"levelo://app?vid=21172e3e-c8a6-46e1-a187-de8559ab347d"},"vehicle_type_id":"4","last_reported":1723136825,"current_range_meters":0,"station_id":"ce4bgl12rcd13ifvqbo0","pricing_plan_id":"cebpf4jnsgd1na2vs0mg"},{"bike_id":"0c2cb8ce-a2b5-4720-8688-b7fd7826734e","system_id":"levelo_inurba_marseille","lat":43.29602,"lon":5.381084,"is_reserved":false,"is_disabled":false,"rental_uris":{"android":"levelo://app?vid=0c2cb8ce-a2b5-4720-8688-b7fd7826734e","ios":"levelo://app?vid=0c2cb8ce-a2b5-4720-8688-b7fd7826734e"},"vehicle_type_id":"4","last_reported":1723136825,"current_range_meters":0,"station_id":"ce4bgl12rcd13ifvqbo0","pricing_plan_id":"cebpf4jnsgd1na2vs0mg"},{"bike_id":"cda4fb88-203a-4ed7-a585-9d328debdb66","system_id":"levelo_inurba_marseille","lat":43.293259,"lon":5.371586,"is_reserved":false,"is_disabled":false,"rental_uris":{"android":"levelo://app?vid=cda4fb88-203a-4ed7-a585-9d328debdb66","ios":"levelo://app?vid=cda4fb88-203a-4ed7-a585-9d328debdb66"},"vehicle_type_id":"4","last_reported":1723136825,"current_range_meters":18800,"station_id":"ce4bgh92rcd13ifvqb40","pricing_plan_id":"cebpf4jnsgd1na2vs0mg"},{"bike_id":"e136c59f-e226-4049-a74e-7e9e0e50afed","system_id":"levelo_inurba_marseille","lat":43.292749,"lon":5.368402,"is_reserved":false,"is_disabled":false,"rental_uris":{"android":"levelo://app?vid=e136c59f-e226-4049-a74e-7e9e0e50afed","ios":"levelo://app?vid=e136c59f-e226-4049-a74e-7e9e0e50afed"},"vehicle_type_id":"4","last_reported":1723136825,"current_range_meters":0,"station_id":"ce4bhbp2rcd13ifvqesg","pricing_plan_id":"cebpf4jnsgd1na2vs0mg"},{"bike_id":"c26b386b-3204-4dff-99a5-f97c3e9fe815","system_id":"levelo_inurba_marseille","lat":43.309034,"lon":5.371783,"is_reserved":false,"is_disabled":false,"rental_uris":{"android":"levelo://app?vid=c26b386b-3204-4dff-99a5-f97c3e9fe815","ios":"levelo://app?vid=c26b386b-3204-4dff-99a5-f97c3e9fe815"},"vehicle_type_id":"4","last_reported":1723136825,"current_range_meters":0,"station_id":"ce4bguh2rcd13ifvqckg","pricing_plan_id":"cebpf4jnsgd1na2vs0mg"},{"bike_id":"1eab937f-ab59-4ed8-a311-5f3d9412739b","system_id":"levelo_inurba_marseille","lat":43.293009,"lon":5.374584,"is_reserved":false,"is_disabled":false,"rental_uris":{"android":"levelo://app?vid=1eab937f-ab59-4ed8-a311-5f3d9412739b","ios":"levelo://app?vid=1eab937f-ab59-4ed8-a311-5f3d9412739b"},"vehicle_type_id":"4","last_reported":1723136825,"current_range_meters":400,"station_id":"ce4bgi12rcd13ifvqb70","pricing_plan_id":"cebpf4jnsgd1na2vs0mg"},{"bike_id":"aa033b14-b3f6-4abd-9b01-ab276c72385a","system_id":"levelo_inurba_marseille","lat":43.293,"lon":5.3746,"is_reserved":false,"is_disabled":false,"rental_uris":{"android":"levelo://app?vid=aa033b14-b3f6-4abd-9b01-ab276c72385a","ios":"levelo://app?vid=aa033b14-b3f6-4abd-9b01-ab276c72385a"},"vehicle_type_id":"4","last_reported":1723136825,"current_range_meters":3200,"station_id":"ce4bgi12rcd13ifvqb70","pricing_plan_id":"cebpf4jnsgd1na2vs0mg"},{"bike_id":"1da8e5df-4237-40a9-aa29-f37133ce78e3","system_id":"levelo_inurba_marseille","lat":43.305994,"lon":5.393687,"is_reserved":false,"is_disabled":false,"rental_uris":{"android":"levelo://app?vid=1da8e5df-4237-40a9-aa29-f37133ce78e3","ios":"levelo://app?vid=1da8e5df-4237-40a9-aa29-f37133ce78e3"},"vehicle_type_id":"4","last_reported":1723136825,"current_range_meters":0,"station_id":"ce4bh0p2rcd13ifvqd80","pricing_plan_id":"cebpf4jnsgd1na2vs0mg"},{"bike_id":"9a49c4b2-5edc-42e2-afca-6b7be08f1b45","system_id":"levelo_inurba_marseille","lat":43.305994,"lon":5.393687,"is_reserved":false,"is_disabled":false,"rental_uris":{"android":"levelo://app?vid=9a49c4b2-5edc-42e2-afca-6b7be08f1b45","ios":"levelo://app?vid=9a49c4b2-5edc-42e2-afca-6b7be08f1b45"},"vehicle_type_id":"4","last_reported":1723136825,"current_range_meters":1200,"station_id":"ce4bh0p2rcd13ifvqd80","pricing_plan_id":"cebpf4jnsgd1na2vs0mg"},{"bike_id":"abebab87-05d6-4253-8694-4333d4ecc163","system_id":"levelo_inurba_marseille","lat":43.305994,"lon":5.393687,"is_reserved":false,"is_disabled":false,"rental_uris":{"android":"levelo://app?vid=abebab87-05d6-4253-8694-4333d4ecc163","ios":"levelo://app?vid=abebab87-05d6-4253-8694-4333d4ecc163"},"vehicle_type_id":"4","last_reported":1723136825,"current_range_meters":400,"station_id":"ce4bh0p2rcd13ifvqd80","pricing_plan_id":"cebpf4jnsgd1na2vs0mg"},{"bike_id":"c38d01b5-7abe-49d1-a075-106f13c9eb3a","system_id":"levelo_inurba_marseille","lat":43.305994,"lon":5.393687,"is_reserved":false,"is_disabled":false,"rental_uris":{"android":"levelo://app?vid=c38d01b5-7abe-49d1-a075-106f13c9eb3a","ios":"levelo://app?vid=c38d01b5-7abe-49d1-a075-106f13c9eb3a"},"vehicle_type_id":"4","last_reported":1723136825,"current_range_meters":4000,"station_id":"ce4bh0p2rcd13ifvqd80","pricing_plan_id":"cebpf4jnsgd1na2vs0mg"},{"bike_id":"8d37495d-9961-45f8-ba67-ee81725ae3ae","system_id":"levelo_inurba_marseille","lat":43.29228,"lon":5.36363,"is_reserved":false,"is_disabled":false,"rental_uris":{"android":"levelo://app?vid=8d37495d-9961-45f8-ba67-ee81725ae3ae","ios":"levelo://app?vid=8d37495d-9961-45f8-ba67-ee81725ae3ae"},"vehicle_type_id":"4","last_reported":1723136825,"current_range_meters":16000,"station_id":"","pricing_plan_id":"cebpf4jnsgd1na2vs0mg"},{"bike_id":"3571b87b-6e8c-4c09-9e1d-f8c2bbcb5516","system_id":"levelo_inurba_marseille","lat":43.303002,"lon":5.392142,"is_reserved":false,"is_disabled":false,"rental_uris":{"android":"levelo://app?vid=3571b87b-6e8c-4c09-9e1d-f8c2bbcb5516","ios":"levelo://app?vid=3571b87b-6e8c-4c09-9e1d-f8c2bbcb5516"},"vehicle_type_id":"4","last_reported":1723136825,"current_range_meters":0,"station_id":"ce4bgkh2rcd13ifvqbk0","pricing_plan_id":"cebpf4jnsgd1na2vs0mg"},{"bike_id":"5c39fa32-858a-4058-a3e8-78b5b6ae345c","system_id":"levelo_inurba_marseille","lat":43.303002,"lon":5.392142,"is_reserved":false,"is_disabled":false,"rental_uris":{"android":"levelo://app?vid=5c39fa32-858a-4058-a3e8-78b5b6ae345c","ios":"levelo://app?vid=5c39fa32-858a-4058-a3e8-78b5b6ae345c"},"vehicle_type_id":"4","last_reported":1723136825,"current_range_meters":0,"station_id":"ce4bgkh2rcd13ifvqbk0","pricing_plan_id":"cebpf4jnsgd1na2vs0mg"},{"bike_id":"cd119cb8-9243-49ab-b287-461037387b0e","system_id":"levelo_inurba_marseille","lat":43.303,"lon":5.39212,"is_reserved":false,"is_disabled":false,"rental_uris":{"android":"levelo://app?vid=cd119cb8-9243-49ab-b287-461037387b0e","ios":"levelo://app?vid=cd119cb8-9243-49ab-b287-461037387b0e"},"vehicle_type_id":"4","last_reported":1723136825,"current_range_meters":0,"station_id":"ce4bgkh2rcd13ifvqbk0","pricing_plan_id":"cebpf4jnsgd1na2vs0mg"},{"bike_id":"129a55f4-7c74-4b47-a78d-8748c330ca67","system_id":"levelo_inurba_marseille","lat":43.29228,"lon":5.3608,"is_reserved":false,"is_disabled":false,"rental_uris":{"android":"levelo://app?vid=129a55f4-7c74-4b47-a78d-8748c330ca67","ios":"levelo://app?vid=129a55f4-7c74-4b47-a78d-8748c330ca67"},"vehicle_type_id":"4","last_reported":1723136825,"current_range_meters":31200,"station_id":"ce4bhbh2rcd13ifvqeqg","pricing_plan_id":"cebpf4jnsgd1na2vs0mg"},{"bike_id":"fd8cb91e-cb3b-4a3f-9d66-534bcbdf38db","system_id":"levelo_inurba_marseille","lat":43.29228,"lon":5.36078,"is_reserved":false,"is_disabled":false,"rental_uris":{"android":"levelo://app?vid=fd8cb91e-cb3b-4a3f-9d66-534bcbdf38db","ios":"levelo://app?vid=fd8cb91e-cb3b-4a3f-9d66-534bcbdf38db"},"vehicle_type_id":"4","last_reported":1723136825,"current_range_meters":31200,"station_id":"ce4bhbh2rcd13ifvqeqg","pricing_plan_id":"cebpf4jnsgd1na2vs0mg"},{"bike_id":"cfe72a4d-a32b-4d05-98b9-fe64fdcebf38","system_id":"levelo_inurba_marseille","lat":43.30105,"lon":5.39084,"is_reserved":false,"is_disabled":false,"rental_uris":{"android":"levelo://app?vid=cfe72a4d-a32b-4d05-98b9-fe64fdcebf38","ios":"levelo://app?vid=cfe72a4d-a32b-4d05-98b9-fe64fdcebf38"},"vehicle_type_id":"4","last_reported":1723136825,"current_range_meters":0,"station_id":"ce4bh192rcd13ifvqdb0","pricing_plan_id":"cebpf4jnsgd1na2vs0mg"},{"bike_id":"979a1097-418a-4863-8d88-56ec701921e2","system_id":"levelo_inurba_marseille","lat":43.304268,"lon":5.393295,"is_reserved":false,"is_disabled":false,"rental_uris":{"android":"levelo://app?vid=979a1097-418a-4863-8d88-56ec701921e2","ios":"levelo://app?vid=979a1097-418a-4863-8d88-56ec701921e2"},"vehicle_type_id":"4","last_reported":1723136825,"current_range_meters":0,"station_id":"","pricing_plan_id":"cebpf4jnsgd1na2vs0mg"},{"bike_id":"5d12ca64-b4d5-44f0-918c-945e57a4c3e3","system_id":"levelo_inurba_marseille","lat":43.29223,"lon":5.36071,"is_reserved":false,"is_disabled":false,"rental_uris":{"android":"levelo://app?vid=5d12ca64-b4d5-44f0-918c-945e57a4c3e3","ios":"levelo://app?vid=5d12ca64-b4d5-44f0-918c-945e57a4c3e3"},"vehicle_type_id":"4","last_reported":1723136825,"current_range_meters":30000,"station_id":"ce4bhbh2rcd13ifvqeqg","pricing_plan_id":"cebpf4jnsgd1na2vs0mg"},{"bike_id":"c1eebddd-c91c-436e-8a9d-75da997a1fd3","system_id":"levelo_inurba_marseille","lat":43.292277,"lon":5.360133,"is_reserved":false,"is_disabled":false,"rental_uris":{"android":"levelo://app?vid=c1eebddd-c91c-436e-8a9d-75da997a1fd3","ios":"levelo://app?vid=c1eebddd-c91c-436e-8a9d-75da997a1fd3"},"vehicle_type_id":"4","last_reported":1723136825,"current_range_meters":800,"station_id":"ce4bhbh2rcd13ifvqeqg","pricing_plan_id":"cebpf4jnsgd1na2vs0mg"},{"bike_id":"2c5a2953-3cd0-448a-8fd3-1769fc6c273c","system_id":"levelo_inurba_marseille","lat":43.2922,"lon":5.36053,"is_reserved":false,"is_disabled":false,"rental_uris":{"android":"levelo://app?vid=2c5a2953-3cd0-448a-8fd3-1769fc6c273c","ios":"levelo://app?vid=2c5a2953-3cd0-448a-8fd3-1769fc6c273c"},"vehicle_type_id":"4","last_reported":1723136825,"current_range_meters":5200,"station_id":"ce4bhbh2rcd13ifvqeqg","pricing_plan_id":"cebpf4jnsgd1na2vs0mg"},{"bike_id":"2e886427-60bc-40cc-a656-43ad7b4ed9fb","system_id":"levelo_inurba_marseille","lat":43.298764,"lon":5.388973,"is_reserved":false,"is_disabled":false,"rental_uris":{"android":"levelo://app?vid=2e886427-60bc-40cc-a656-43ad7b4ed9fb","ios":"levelo://app?vid=2e886427-60bc-40cc-a656-43ad7b4ed9fb"},"vehicle_type_id":"4","last_reported":1723136825,"current_range_meters":2800,"station_id":"ce4bh392rcd13ifvqdl0","pricing_plan_id":"cebpf4jnsgd1na2vs0mg"},{"bike_id":"997a123f-d5fa-48b5-b176-48b20397b3d0","system_id":"levelo_inurba_marseille","lat":43.29172,"lon":5.37146,"is_reserved":false,"is_disabled":false,"rental_uris":{"android":"levelo://app?vid=997a123f-d5fa-48b5-b176-48b20397b3d0","ios":"levelo://app?vid=997a123f-d5fa-48b5-b176-48b20397b3d0"},"vehicle_type_id":"4","last_reported":1723136825,"current_range_meters":0,"station_id":"ce4bha92rcd13ifvqeh0","pricing_plan_id":"cebpf4jnsgd1na2vs0mg"},{"bike_id":"e41b0edd-9b17-4b5d-ba30-e08455d2e290","system_id":"levelo_inurba_marseille","lat":43.298764,"lon":5.388973,"is_reserved":false,"is_disabled":false,"rental_uris":{"android":"levelo://app?vid=e41b0edd-9b17-4b5d-ba30-e08455d2e290","ios":"levelo://app?vid=e41b0edd-9b17-4b5d-ba30-e08455d2e290"},"vehicle_type_id":"4","last_reported":1723136825,"current_range_meters":3600,"station_id":"ce4bh392rcd13ifvqdl0","pricing_plan_id":"cebpf4jnsgd1na2vs0mg"},{"bike_id":"ae023b7d-afc9-4515-8c5d-98525ec24337","system_id":"levelo_inurba_marseille","lat":43.291715,"lon":5.37145,"is_reserved":false,"is_disabled":false,"rental_uris":{"android":"levelo://app?vid=ae023b7d-afc9-4515-8c5d-98525ec24337","ios":"levelo://app?vid=ae023b7d-afc9-4515-8c5d-98525ec24337"},"vehicle_type_id":"4","last_reported":1723136825,"current_range_meters":0,"station_id":"ce4bha92rcd13ifvqeh0","pricing_plan_id":"cebpf4jnsgd1na2vs0mg"},{"bike_id":"c5e6ee32-4291-470d-9b52-8df5caf3d914","system_id":"levelo_inurba_marseille","lat":43.291994,"lon":5.357886,"is_reserved":false,"is_disabled":false,"rental_uris":{"android":"levelo://app?vid=c5e6ee32-4291-470d-9b52-8df5caf3d914","ios":"levelo://app?vid=c5e6ee32-4291-470d-9b52-8df5caf3d914"},"vehicle_type_id":"4","last_reported":1723136825,"current_range_meters":20000,"station_id":"ce4bhb12rcd13ifvqel0","pricing_plan_id":"cebpf4jnsgd1na2vs0mg"},{"bike_id":"5f0f2f4e-d06e-45d1-8698-96323a8bbace","system_id":"levelo_inurba_marseille","lat":43.309038,"lon":5.396546,"is_reserved":false,"is_disabled":false,"rental_uris":{"android":"levelo://app?vid=5f0f2f4e-d06e-45d1-8698-96323a8bbace","ios":"levelo://app?vid=5f0f2f4e-d06e-45d1-8698-96323a8bbace"},"vehicle_type_id":"4","last_reported":1723136825,"current_range_meters":800,"station_id":"ce4bh012rcd13ifvqcv0","pricing_plan_id":"cebpf4jnsgd1na2vs0mg"},{"bike_id":"d72444bc-f1fc-4d37-9974-41324805e0c5","system_id":"levelo_inurba_marseille","lat":43.292385,"lon":5.37767,"is_reserved":false,"is_disabled":false,"rental_uris":{"android":"levelo://app?vid=d72444bc-f1fc-4d37-9974-41324805e0c5","ios":"levelo://app?vid=d72444bc-f1fc-4d37-9974-41324805e0c5"},"vehicle_type_id":"4","last_reported":1723136825,"current_range_meters":18800,"station_id":"","pricing_plan_id":"cebpf4jnsgd1na2vs0mg"},{"bike_id":"82db0ecf-299e-4829-9baf-026dc4aa82b5","system_id":"levelo_inurba_marseille","lat":43.29189,"lon":5.35804,"is_reserved":false,"is_disabled":false,"rental_uris":{"android":"levelo://app?vid=82db0ecf-299e-4829-9baf-026dc4aa82b5","ios":"levelo://app?vid=82db0ecf-299e-4829-9baf-026dc4aa82b5"},"vehicle_type_id":"4","last_reported":1723136825,"current_range_meters":31200,"station_id":"ce4bhb12rcd13ifvqel0","pricing_plan_id":"cebpf4jnsgd1na2vs0mg"},{"bike_id":"afdd24ec-2b44-4f70-9afc-2969da0dc297","system_id":"levelo_inurba_marseille","lat":43.29187,"lon":5.358054,"is_reserved":false,"is_disabled":false,"rental_uris":{"android":"levelo://app?vid=afdd24ec-2b44-4f70-9afc-2969da0dc297","ios":"levelo://app?vid=afdd24ec-2b44-4f70-9afc-2969da0dc297"},"vehicle_type_id":"4","last_reported":1723136825,"current_range_meters":31200,"station_id":"ce4bhb12rcd13ifvqel0","pricing_plan_id":"cebpf4jnsgd1na2vs0mg"},{"bike_id":"ffae7631-5f77-42de-a9c5-76b5c64bb944","system_id":"levelo_inurba_marseille","lat":43.29529,"lon":5.385581,"is_reserved":false,"is_disabled":false,"rental_uris":{"android":"levelo://app?vid=ffae7631-5f77-42de-a9c5-76b5c64bb944","ios":"levelo://app?vid=ffae7631-5f77-42de-a9c5-76b5c64bb944"},"vehicle_type_id":"4","last_reported":1723136825,"current_range_meters":13600,"station_id":"ce4bgih2rcd13ifvqba0","pricing_plan_id":"cebpf4jnsgd1na2vs0mg"},{"bike_id":"9ac665cb-59e5-4eda-92d4-f2ddafc8e9c5","system_id":"levelo_inurba_marseille","lat":43.332477,"lon":5.380333,"is_reserved":false,"is_disabled":false,"rental_uris":{"android":"levelo://app?vid=9ac665cb-59e5-4eda-92d4-f2ddafc8e9c5","ios":"levelo://app?vid=9ac665cb-59e5-4eda-92d4-f2ddafc8e9c5"},"vehicle_type_id":"4","last_reported":1723136825,"current_range_meters":11600,"station_id":"","pricing_plan_id":"cebpf4jnsgd1na2vs0mg"},{"bike_id":"cda3c638-2746-4a7e-b949-f74f9f05be94","system_id":"levelo_inurba_marseille","lat":43.29529,"lon":5.385581,"is_reserved":false,"is_disabled":false,"rental_uris":{"android":"levelo://app?vid=cda3c638-2746-4a7e-b949-f74f9f05be94","ios":"levelo://app?vid=cda3c638-2746-4a7e-b949-f74f9f05be94"},"vehicle_type_id":"4","last_reported":1723136825,"current_range_meters":12000,"station_id":"ce4bgih2rcd13ifvqba0","pricing_plan_id":"cebpf4jnsgd1na2vs0mg"},{"bike_id":"9e24f1da-0034-4c4f-ac27-c8439b743f11","system_id":"levelo_inurba_marseille","lat":43.29529,"lon":5.385581,"is_reserved":false,"is_disabled":false,"rental_uris":{"android":"levelo://app?vid=9e24f1da-0034-4c4f-ac27-c8439b743f11","ios":"levelo://app?vid=9e24f1da-0034-4c4f-ac27-c8439b743f11"},"vehicle_type_id":"4","last_reported":1723136825,"current_range_meters":400,"station_id":"ce4bgih2rcd13ifvqba0","pricing_plan_id":"cebpf4jnsgd1na2vs0mg"},{"bike_id":"9a72b1e3-259d-4c14-9683-72d8d1b7cda3","system_id":"levelo_inurba_marseille","lat":43.29529,"lon":5.385581,"is_reserved":false,"is_disabled":false,"rental_uris":{"android":"levelo://app?vid=9a72b1e3-259d-4c14-9683-72d8d1b7cda3","ios":"levelo://app?vid=9a72b1e3-259d-4c14-9683-72d8d1b7cda3"},"vehicle_type_id":"4","last_reported":1723136825,"current_range_meters":28000,"station_id":"ce4bgih2rcd13ifvqba0","pricing_plan_id":"cebpf4jnsgd1na2vs0mg"},{"bike_id":"8a209012-7d9e-45ef-b3f0-bb620b412eaa","system_id":"levelo_inurba_marseille","lat":43.290779,"lon":5.371482,"is_reserved":false,"is_disabled":false,"rental_uris":{"android":"levelo://app?vid=8a209012-7d9e-45ef-b3f0-bb620b412eaa","ios":"levelo://app?vid=8a209012-7d9e-45ef-b3f0-bb620b412eaa"},"vehicle_type_id":"4","last_reported":1723136825,"current_range_meters":6800,"station_id":"ce4bh5p2rcd13ifvqe4g","pricing_plan_id":"cebpf4jnsgd1na2vs0mg"},{"bike_id":"1f9079ec-c7e7-4edd-9d42-eeea58a3e477","system_id":"levelo_inurba_marseille","lat":43.290779,"lon":5.371482,"is_reserved":false,"is_disabled":false,"rental_uris":{"android":"levelo://app?vid=1f9079ec-c7e7-4edd-9d42-eeea58a3e477","ios":"levelo://app?vid=1f9079ec-c7e7-4edd-9d42-eeea58a3e477"},"vehicle_type_id":"4","last_reported":1723136825,"current_range_meters":0,"station_id":"ce4bh5p2rcd13ifvqe4g","pricing_plan_id":"cebpf4jnsgd1na2vs0mg"},{"bike_id":"caeee1de-19df-4b6d-bfa5-0b5ac6e6236d","system_id":"levelo_inurba_marseille","lat":43.290779,"lon":5.371482,"is_reserved":false,"is_disabled":false,"rental_uris":{"android":"levelo://app?vid=caeee1de-19df-4b6d-bfa5-0b5ac6e6236d","ios":"levelo://app?vid=caeee1de-19df-4b6d-bfa5-0b5ac6e6236d"},"vehicle_type_id":"4","last_reported":1723136825,"current_range_meters":11200,"station_id":"ce4bh5p2rcd13ifvqe4g","pricing_plan_id":"cebpf4jnsgd1na2vs0mg"},{"bike_id":"c4c02c58-6d55-4755-9327-bf33b3b0bc1a","system_id":"levelo_inurba_marseille","lat":43.33334,"lon":5.37979,"is_reserved":false,"is_disabled":false,"rental_uris":{"android":"levelo://app?vid=c4c02c58-6d55-4755-9327-bf33b3b0bc1a","ios":"levelo://app?vid=c4c02c58-6d55-4755-9327-bf33b3b0bc1a"},"vehicle_type_id":"4","last_reported":1723136825,"current_range_meters":27600,"station_id":"","pricing_plan_id":"cebpf4jnsgd1na2vs0mg"},{"bike_id":"0364a4c4-7eb0-49d3-ba05-cf1633437673","system_id":"levelo_inurba_marseille","lat":43.302008,"lon":5.394694,"is_reserved":false,"is_disabled":false,"rental_uris":{"android":"levelo://app?vid=0364a4c4-7eb0-49d3-ba05-cf1633437673","ios":"levelo://app?vid=0364a4c4-7eb0-49d3-ba05-cf1633437673"},"vehicle_type_id":"4","last_reported":1723136825,"current_range_meters":0,"station_id":"ce4bh0p2rcd13ifvqd70","pricing_plan_id":"cebpf4jnsgd1na2vs0mg"},{"bike_id":"6346a6ab-f56d-445a-9a40-33a418e3bbda","system_id":"levelo_inurba_marseille","lat":43.302008,"lon":5.394694,"is_reserved":false,"is_disabled":false,"rental_uris":{"android":"levelo://app?vid=6346a6ab-f56d-445a-9a40-33a418e3bbda","ios":"levelo://app?vid=6346a6ab-f56d-445a-9a40-33a418e3bbda"},"vehicle_type_id":"4","last_reported":1723136825,"current_range_meters":6800,"station_id":"ce4bh0p2rcd13ifvqd70","pricing_plan_id":"cebpf4jnsgd1na2vs0mg"},{"bike_id":"8a6ce8e1-a6a8-4e2c-990f-71c65d349b9b","system_id":"levelo_inurba_marseille","lat":43.294153,"lon":5.386305,"is_reserved":false,"is_disabled":false,"rental_uris":{"android":"levelo://app?vid=8a6ce8e1-a6a8-4e2c-990f-71c65d349b9b","ios":"levelo://app?vid=8a6ce8e1-a6a8-4e2c-990f-71c65d349b9b"},"vehicle_type_id":"4","last_reported":1723136825,"current_range_meters":0,"station_id":"ce4bh2h2rcd13ifvqdh0","pricing_plan_id":"cebpf4jnsgd1na2vs0mg"},{"bike_id":"87cd4a3b-ee9e-4300-905a-48db8d4d6e25","system_id":"levelo_inurba_marseille","lat":43.290456,"lon":5.375978,"is_reserved":false,"is_disabled":false,"rental_uris":{"android":"levelo://app?vid=87cd4a3b-ee9e-4300-905a-48db8d4d6e25","ios":"levelo://app?vid=87cd4a3b-ee9e-4300-905a-48db8d4d6e25"},"vehicle_type_id":"4","last_reported":1723136825,"current_range_meters":800,"station_id":"ce4bh692rcd13ifvqe90","pricing_plan_id":"cebpf4jnsgd1na2vs0mg"},{"bike_id":"6d0100d3-b151-4cdb-b760-a694413446c8","system_id":"levelo_inurba_marseille","lat":43.29422,"lon":5.38629,"is_reserved":false,"is_disabled":false,"rental_uris":{"android":"levelo://app?vid=6d0100d3-b151-4cdb-b760-a694413446c8","ios":"levelo://app?vid=6d0100d3-b151-4cdb-b760-a694413446c8"},"vehicle_type_id":"4","last_reported":1723136825,"current_range_meters":0,"station_id":"ce4bh2h2rcd13ifvqdh0","pricing_plan_id":"cebpf4jnsgd1na2vs0mg"},{"bike_id":"14a3c138-9141-401b-a680-84df6813e980","system_id":"levelo_inurba_marseille","lat":43.289184,"lon":5.366408,"is_reserved":false,"is_disabled":false,"rental_uris":{"android":"levelo://app?vid=14a3c138-9141-401b-a680-84df6813e980","ios":"levelo://app?vid=14a3c138-9141-401b-a680-84df6813e980"},"vehicle_type_id":"4","last_reported":1723136825,"current_range_meters":20000,"station_id":"ce4bhap2rcd13ifvqek0","pricing_plan_id":"cebpf4jnsgd1na2vs0mg"},{"bike_id":"75c8cdfe-174a-4678-baa9-e57f43f9eeb0","system_id":"levelo_inurba_marseille","lat":43.290319,"lon":5.375732,"is_reserved":false,"is_disabled":false,"rental_uris":{"android":"levelo://app?vid=75c8cdfe-174a-4678-baa9-e57f43f9eeb0","ios":"levelo://app?vid=75c8cdfe-174a-4678-baa9-e57f43f9eeb0"},"vehicle_type_id":"4","last_reported":1723136825,"current_range_meters":17600,"station_id":"ce4bh692rcd13ifvqe90","pricing_plan_id":"cebpf4jnsgd1na2vs0mg"},{"bike_id":"23ba7118-3f9c-47b2-836b-b336c57ebbf7","system_id":"levelo_inurba_marseille","lat":43.2903,"lon":5.37572,"is_reserved":false,"is_disabled":false,"rental_uris":{"android":"levelo://app?vid=23ba7118-3f9c-47b2-836b-b336c57ebbf7","ios":"levelo://app?vid=23ba7118-3f9c-47b2-836b-b336c57ebbf7"},"vehicle_type_id":"4","last_reported":1723136825,"current_range_meters":0,"station_id":"ce4bh692rcd13ifvqe90","pricing_plan_id":"cebpf4jnsgd1na2vs0mg"},{"bike_id":"8058d52b-dac7-49a1-900a-a426e7f13593","system_id":"levelo_inurba_marseille","lat":43.289184,"lon":5.366408,"is_reserved":false,"is_disabled":false,"rental_uris":{"android":"levelo://app?vid=8058d52b-dac7-49a1-900a-a426e7f13593","ios":"levelo://app?vid=8058d52b-dac7-49a1-900a-a426e7f13593"},"vehicle_type_id":"4","last_reported":1723136825,"current_range_meters":9600,"station_id":"ce4bhap2rcd13ifvqek0","pricing_plan_id":"cebpf4jnsgd1na2vs0mg"},{"bike_id":"691ba46e-00be-4b0d-8552-dc6a3bfbb3fc","system_id":"levelo_inurba_marseille","lat":43.289184,"lon":5.366408,"is_reserved":false,"is_disabled":false,"rental_uris":{"android":"levelo://app?vid=691ba46e-00be-4b0d-8552-dc6a3bfbb3fc","ios":"levelo://app?vid=691ba46e-00be-4b0d-8552-dc6a3bfbb3fc"},"vehicle_type_id":"4","last_reported":1723136825,"current_range_meters":800,"station_id":"ce4bhap2rcd13ifvqek0","pricing_plan_id":"cebpf4jnsgd1na2vs0mg"},{"bike_id":"c3288513-5b0c-4a9f-b53f-94b890762c26","system_id":"levelo_inurba_marseille","lat":43.28939,"lon":5.36638,"is_reserved":false,"is_disabled":false,"rental_uris":{"android":"levelo://app?vid=c3288513-5b0c-4a9f-b53f-94b890762c26","ios":"levelo://app?vid=c3288513-5b0c-4a9f-b53f-94b890762c26"},"vehicle_type_id":"4","last_reported":1723136825,"current_range_meters":0,"station_id":"ce4bhap2rcd13ifvqek0","pricing_plan_id":"cebpf4jnsgd1na2vs0mg"},{"bike_id":"02ac5aeb-6ffd-403f-9e59-0d1d99ee776b","system_id":"levelo_inurba_marseille","lat":43.289184,"lon":5.366408,"is_reserved":false,"is_disabled":false,"rental_uris":{"android":"levelo://app?vid=02ac5aeb-6ffd-403f-9e59-0d1d99ee776b","ios":"levelo://app?vid=02ac5aeb-6ffd-403f-9e59-0d1d99ee776b"},"vehicle_type_id":"4","last_reported":1723136825,"current_range_meters":7200,"station_id":"ce4bhap2rcd13ifvqek0","pricing_plan_id":"cebpf4jnsgd1na2vs0mg"},{"bike_id":"b381236e-28a2-40df-a9ea-55935312aa30","system_id":"levelo_inurba_marseille","lat":43.28936,"lon":5.36643,"is_reserved":false,"is_disabled":false,"rental_uris":{"android":"levelo://app?vid=b381236e-28a2-40df-a9ea-55935312aa30","ios":"levelo://app?vid=b381236e-28a2-40df-a9ea-55935312aa30"},"vehicle_type_id":"4","last_reported":1723136825,"current_range_meters":0,"station_id":"ce4bhap2rcd13ifvqek0","pricing_plan_id":"cebpf4jnsgd1na2vs0mg"},{"bike_id":"029ff6a5-0d6a-436d-93ce-b01b122411db","system_id":"levelo_inurba_marseille","lat":43.28936,"lon":5.36636,"is_reserved":false,"is_disabled":false,"rental_uris":{"android":"levelo://app?vid=029ff6a5-0d6a-436d-93ce-b01b122411db","ios":"levelo://app?vid=029ff6a5-0d6a-436d-93ce-b01b122411db"},"vehicle_type_id":"4","last_reported":1723136825,"current_range_meters":0,"station_id":"ce4bhap2rcd13ifvqek0","pricing_plan_id":"cebpf4jnsgd1na2vs0mg"},{"bike_id":"3f20941c-9654-4a76-bf79-3d2ff6ac73d8","system_id":"levelo_inurba_marseille","lat":43.289468,"lon":5.363719,"is_reserved":false,"is_disabled":false,"rental_uris":{"android":"levelo://app?vid=3f20941c-9654-4a76-bf79-3d2ff6ac73d8","ios":"levelo://app?vid=3f20941c-9654-4a76-bf79-3d2ff6ac73d8"},"vehicle_type_id":"4","last_reported":1723136825,"current_range_meters":10400,"station_id":"ce4bhc92rcd13ifvqetg","pricing_plan_id":"cebpf4jnsgd1na2vs0mg"},{"bike_id":"e6f13205-b40d-435f-acdd-61bcba4dc2cd","system_id":"levelo_inurba_marseille","lat":43.290327,"lon":5.356645,"is_reserved":false,"is_disabled":false,"rental_uris":{"android":"levelo://app?vid=e6f13205-b40d-435f-acdd-61bcba4dc2cd","ios":"levelo://app?vid=e6f13205-b40d-435f-acdd-61bcba4dc2cd"},"vehicle_type_id":"4","last_reported":1723136825,"current_range_meters":12800,"station_id":"ce4bhb92rcd13ifvqen0","pricing_plan_id":"cebpf4jnsgd1na2vs0mg"},{"bike_id":"f95f4be7-ad85-4820-80f3-b811ee71316c","system_id":"levelo_inurba_marseille","lat":43.29271,"lon":5.38432,"is_reserved":false,"is_disabled":false,"rental_uris":{"android":"levelo://app?vid=f95f4be7-ad85-4820-80f3-b811ee71316c","ios":"levelo://app?vid=f95f4be7-ad85-4820-80f3-b811ee71316c"},"vehicle_type_id":"4","last_reported":1723136825,"current_range_meters":0,"station_id":"ce4bh692rcd13ifvqea0","pricing_plan_id":"cebpf4jnsgd1na2vs0mg"},{"bike_id":"8cbcb01c-b162-4392-8bba-c93aa229e479","system_id":"levelo_inurba_marseille","lat":43.29271,"lon":5.38436,"is_reserved":false,"is_disabled":false,"rental_uris":{"android":"levelo://app?vid=8cbcb01c-b162-4392-8bba-c93aa229e479","ios":"levelo://app?vid=8cbcb01c-b162-4392-8bba-c93aa229e479"},"vehicle_type_id":"4","last_reported":1723136825,"current_range_meters":0,"station_id":"ce4bh692rcd13ifvqea0","pricing_plan_id":"cebpf4jnsgd1na2vs0mg"},{"bike_id":"9f3c13a8-3eac-44b4-b909-b0842f71d273","system_id":"levelo_inurba_marseille","lat":43.292642,"lon":5.384254,"is_reserved":false,"is_disabled":false,"rental_uris":{"android":"levelo://app?vid=9f3c13a8-3eac-44b4-b909-b0842f71d273","ios":"levelo://app?vid=9f3c13a8-3eac-44b4-b909-b0842f71d273"},"vehicle_type_id":"4","last_reported":1723136825,"current_range_meters":0,"station_id":"ce4bh692rcd13ifvqea0","pricing_plan_id":"cebpf4jnsgd1na2vs0mg"},{"bike_id":"b410c33a-cbc5-4b96-a54f-5fce16170ca7","system_id":"levelo_inurba_marseille","lat":43.292644,"lon":5.384257,"is_reserved":false,"is_disabled":false,"rental_uris":{"android":"levelo://app?vid=b410c33a-cbc5-4b96-a54f-5fce16170ca7","ios":"levelo://app?vid=b410c33a-cbc5-4b96-a54f-5fce16170ca7"},"vehicle_type_id":"4","last_reported":1723136825,"current_range_meters":0,"station_id":"ce4bh692rcd13ifvqea0","pricing_plan_id":"cebpf4jnsgd1na2vs0mg"},{"bike_id":"e5161ff2-c537-48e7-b69b-eb0c8c9e89dd","system_id":"levelo_inurba_marseille","lat":43.292663,"lon":5.384443,"is_reserved":false,"is_disabled":false,"rental_uris":{"android":"levelo://app?vid=e5161ff2-c537-48e7-b69b-eb0c8c9e89dd","ios":"levelo://app?vid=e5161ff2-c537-48e7-b69b-eb0c8c9e89dd"},"vehicle_type_id":"4","last_reported":1723136825,"current_range_meters":0,"station_id":"ce4bh692rcd13ifvqea0","pricing_plan_id":"cebpf4jnsgd1na2vs0mg"},{"bike_id":"61900e8a-2e6b-4630-8f88-9095afa0c048","system_id":"levelo_inurba_marseille","lat":43.303081,"lon":5.396925,"is_reserved":false,"is_disabled":false,"rental_uris":{"android":"levelo://app?vid=61900e8a-2e6b-4630-8f88-9095afa0c048","ios":"levelo://app?vid=61900e8a-2e6b-4630-8f88-9095afa0c048"},"vehicle_type_id":"4","last_reported":1723136825,"current_range_meters":16000,"station_id":"","pricing_plan_id":"cebpf4jnsgd1na2vs0mg"},{"bike_id":"ed9dad9b-9134-432a-b68e-d3fbb94f1e6a","system_id":"levelo_inurba_marseille","lat":43.29006,"lon":5.35614,"is_reserved":false,"is_disabled":false,"rental_uris":{"android":"levelo://app?vid=ed9dad9b-9134-432a-b68e-d3fbb94f1e6a","ios":"levelo://app?vid=ed9dad9b-9134-432a-b68e-d3fbb94f1e6a"},"vehicle_type_id":"4","last_reported":1723136825,"current_range_meters":0,"station_id":"ce4bhb92rcd13ifvqen0","pricing_plan_id":"cebpf4jnsgd1na2vs0mg"},{"bike_id":"850d3f42-a880-44a3-8da5-f2ab40f6a549","system_id":"levelo_inurba_marseille","lat":43.29005,"lon":5.3561,"is_reserved":false,"is_disabled":false,"rental_uris":{"android":"levelo://app?vid=850d3f42-a880-44a3-8da5-f2ab40f6a549","ios":"levelo://app?vid=850d3f42-a880-44a3-8da5-f2ab40f6a549"},"vehicle_type_id":"4","last_reported":1723136825,"current_range_meters":0,"station_id":"ce4bhb92rcd13ifvqen0","pricing_plan_id":"cebpf4jnsgd1na2vs0mg"},{"bike_id":"3e876cbb-f945-4fc8-9f95-da6e930da6ee","system_id":"levelo_inurba_marseille","lat":43.29003,"lon":5.35607,"is_reserved":false,"is_disabled":false,"rental_uris":{"android":"levelo://app?vid=3e876cbb-f945-4fc8-9f95-da6e930da6ee","ios":"levelo://app?vid=3e876cbb-f945-4fc8-9f95-da6e930da6ee"},"vehicle_type_id":"4","last_reported":1723136825,"current_range_meters":0,"station_id":"ce4bhb92rcd13ifvqen0","pricing_plan_id":"cebpf4jnsgd1na2vs0mg"},{"bike_id":"fc08ac5a-22ff-4179-a18e-5026e5f06992","system_id":"levelo_inurba_marseille","lat":43.29,"lon":5.35602,"is_reserved":false,"is_disabled":false,"rental_uris":{"android":"levelo://app?vid=fc08ac5a-22ff-4179-a18e-5026e5f06992","ios":"levelo://app?vid=fc08ac5a-22ff-4179-a18e-5026e5f06992"},"vehicle_type_id":"4","last_reported":1723136825,"current_range_meters":0,"station_id":"ce4bhb92rcd13ifvqen0","pricing_plan_id":"cebpf4jnsgd1na2vs0mg"},{"bike_id":"cccd84de-f8ee-47e0-9c7e-5233a61a80f7","system_id":"levelo_inurba_marseille","lat":43.2901,"lon":5.381269,"is_reserved":false,"is_disabled":false,"rental_uris":{"android":"levelo://app?vid=cccd84de-f8ee-47e0-9c7e-5233a61a80f7","ios":"levelo://app?vid=cccd84de-f8ee-47e0-9c7e-5233a61a80f7"},"vehicle_type_id":"4","last_reported":1723136825,"current_range_meters":0,"station_id":"ce4bh4p2rcd13ifvqe1g","pricing_plan_id":"cebpf4jnsgd1na2vs0mg"},{"bike_id":"deb48ad3-04c0-41c3-85cf-4edb661f2a2c","system_id":"levelo_inurba_marseille","lat":43.295169,"lon":5.390426,"is_reserved":false,"is_disabled":false,"rental_uris":{"android":"levelo://app?vid=deb48ad3-04c0-41c3-85cf-4edb661f2a2c","ios":"levelo://app?vid=deb48ad3-04c0-41c3-85cf-4edb661f2a2c"},"vehicle_type_id":"4","last_reported":1723136825,"current_range_meters":15600,"station_id":"ce4bh3p2rcd13ifvqdp0","pricing_plan_id":"cebpf4jnsgd1na2vs0mg"},{"bike_id":"b413090d-7afa-47ed-972f-73f9364f876a","system_id":"levelo_inurba_marseille","lat":43.289741,"lon":5.378306,"is_reserved":false,"is_disabled":false,"rental_uris":{"android":"levelo://app?vid=b413090d-7afa-47ed-972f-73f9364f876a","ios":"levelo://app?vid=b413090d-7afa-47ed-972f-73f9364f876a"},"vehicle_type_id":"4","last_reported":1723136825,"current_range_meters":0,"station_id":"ce4bh9p2rcd13ifvqed0","pricing_plan_id":"cebpf4jnsgd1na2vs0mg"},{"bike_id":"a43d05f3-ed22-460e-8b9d-d54762db82e2","system_id":"levelo_inurba_marseille","lat":43.295169,"lon":5.390426,"is_reserved":false,"is_disabled":false,"rental_uris":{"android":"levelo://app?vid=a43d05f3-ed22-460e-8b9d-d54762db82e2","ios":"levelo://app?vid=a43d05f3-ed22-460e-8b9d-d54762db82e2"},"vehicle_type_id":"4","last_reported":1723136825,"current_range_meters":5200,"station_id":"ce4bh3p2rcd13ifvqdp0","pricing_plan_id":"cebpf4jnsgd1na2vs0mg"},{"bike_id":"c3bb329c-9ea5-42ea-b87e-0b96e20272a2","system_id":"levelo_inurba_marseille","lat":43.295169,"lon":5.390426,"is_reserved":false,"is_disabled":false,"rental_uris":{"android":"levelo://app?vid=c3bb329c-9ea5-42ea-b87e-0b96e20272a2","ios":"levelo://app?vid=c3bb329c-9ea5-42ea-b87e-0b96e20272a2"},"vehicle_type_id":"4","last_reported":1723136825,"current_range_meters":0,"station_id":"ce4bh3p2rcd13ifvqdp0","pricing_plan_id":"cebpf4jnsgd1na2vs0mg"},{"bike_id":"93a02adf-77ab-4304-8310-532a7e2c747b","system_id":"levelo_inurba_marseille","lat":43.28818,"lon":5.368695,"is_reserved":false,"is_disabled":false,"rental_uris":{"android":"levelo://app?vid=93a02adf-77ab-4304-8310-532a7e2c747b","ios":"levelo://app?vid=93a02adf-77ab-4304-8310-532a7e2c747b"},"vehicle_type_id":"4","last_reported":1723136825,"current_range_meters":5200,"station_id":"","pricing_plan_id":"cebpf4jnsgd1na2vs0mg"},{"bike_id":"6e381fb7-d3de-42ca-b072-f9768fa7823c","system_id":"levelo_inurba_marseille","lat":43.2901,"lon":5.381269,"is_reserved":false,"is_disabled":false,"rental_uris":{"android":"levelo://app?vid=6e381fb7-d3de-42ca-b072-f9768fa7823c","ios":"levelo://app?vid=6e381fb7-d3de-42ca-b072-f9768fa7823c"},"vehicle_type_id":"4","last_reported":1723136825,"current_range_meters":12800,"station_id":"ce4bh4p2rcd13ifvqe1g","pricing_plan_id":"cebpf4jnsgd1na2vs0mg"},{"bike_id":"8d84d58e-822e-4968-92c4-e902700bafb0","system_id":"levelo_inurba_marseille","lat":43.290094,"lon":5.381264,"is_reserved":false,"is_disabled":false,"rental_uris":{"android":"levelo://app?vid=8d84d58e-822e-4968-92c4-e902700bafb0","ios":"levelo://app?vid=8d84d58e-822e-4968-92c4-e902700bafb0"},"vehicle_type_id":"4","last_reported":1723136825,"current_range_meters":18400,"station_id":"ce4bh4p2rcd13ifvqe1g","pricing_plan_id":"cebpf4jnsgd1na2vs0mg"},{"bike_id":"8ae16e03-1904-43ae-8ecd-4844d7c9d630","system_id":"levelo_inurba_marseille","lat":43.2901,"lon":5.381269,"is_reserved":false,"is_disabled":false,"rental_uris":{"android":"levelo://app?vid=8ae16e03-1904-43ae-8ecd-4844d7c9d630","ios":"levelo://app?vid=8ae16e03-1904-43ae-8ecd-4844d7c9d630"},"vehicle_type_id":"4","last_reported":1723136825,"current_range_meters":1200,"station_id":"ce4bh4p2rcd13ifvqe1g","pricing_plan_id":"cebpf4jnsgd1na2vs0mg"},{"bike_id":"93a91132-9dac-43f5-9466-d43934fce1d8","system_id":"levelo_inurba_marseille","lat":43.28856,"lon":5.358371,"is_reserved":false,"is_disabled":false,"rental_uris":{"android":"levelo://app?vid=93a91132-9dac-43f5-9466-d43934fce1d8","ios":"levelo://app?vid=93a91132-9dac-43f5-9466-d43934fce1d8"},"vehicle_type_id":"4","last_reported":1723136825,"current_range_meters":4000,"station_id":"ce4bhb12rcd13ifvqem0","pricing_plan_id":"cebpf4jnsgd1na2vs0mg"},{"bike_id":"7fc41de2-f130-4f89-8a51-4884ee501e11","system_id":"levelo_inurba_marseille","lat":43.309371,"lon":5.401449,"is_reserved":false,"is_disabled":false,"rental_uris":{"android":"levelo://app?vid=7fc41de2-f130-4f89-8a51-4884ee501e11","ios":"levelo://app?vid=7fc41de2-f130-4f89-8a51-4884ee501e11"},"vehicle_type_id":"4","last_reported":1723136825,"current_range_meters":21600,"station_id":"ce4bgvp2rcd13ifvqct0","pricing_plan_id":"cebpf4jnsgd1na2vs0mg"},{"bike_id":"ac75d8e5-5139-4e43-a64e-51e7994c2517","system_id":"levelo_inurba_marseille","lat":43.337444,"lon":5.374475,"is_reserved":false,"is_disabled":false,"rental_uris":{"android":"levelo://app?vid=ac75d8e5-5139-4e43-a64e-51e7994c2517","ios":"levelo://app?vid=ac75d8e5-5139-4e43-a64e-51e7994c2517"},"vehicle_type_id":"3","last_reported":1723136825,"current_range_meters":24800,"station_id":"","pricing_plan_id":"cebpf4jnsgd1na2vs0mg"},{"bike_id":"b82d858a-91a0-49bf-a6fc-8ae898ab18fa","system_id":"levelo_inurba_marseille","lat":43.312609,"lon":5.401662,"is_reserved":false,"is_disabled":false,"rental_uris":{"android":"levelo://app?vid=b82d858a-91a0-49bf-a6fc-8ae898ab18fa","ios":"levelo://app?vid=b82d858a-91a0-49bf-a6fc-8ae898ab18fa"},"vehicle_type_id":"4","last_reported":1723136825,"current_range_meters":30400,"station_id":"ce4bh092rcd13ifvqd30","pricing_plan_id":"cebpf4jnsgd1na2vs0mg"},{"bike_id":"531c5269-ee8e-453e-9646-02bd1b30712e","system_id":"levelo_inurba_marseille","lat":43.312609,"lon":5.401662,"is_reserved":false,"is_disabled":false,"rental_uris":{"android":"levelo://app?vid=531c5269-ee8e-453e-9646-02bd1b30712e","ios":"levelo://app?vid=531c5269-ee8e-453e-9646-02bd1b30712e"},"vehicle_type_id":"4","last_reported":1723136825,"current_range_meters":28800,"station_id":"ce4bh092rcd13ifvqd30","pricing_plan_id":"cebpf4jnsgd1na2vs0mg"},{"bike_id":"93ff9523-7b36-46ad-8995-c353884a328e","system_id":"levelo_inurba_marseille","lat":43.287872,"lon":5.373743,"is_reserved":false,"is_disabled":false,"rental_uris":{"android":"levelo://app?vid=93ff9523-7b36-46ad-8995-c353884a328e","ios":"levelo://app?vid=93ff9523-7b36-46ad-8995-c353884a328e"},"vehicle_type_id":"4","last_reported":1723136825,"current_range_meters":19600,"station_id":"","pricing_plan_id":"cebpf4jnsgd1na2vs0mg"},{"bike_id":"d3e65d35-adf5-4e30-8b5e-d889132ece20","system_id":"levelo_inurba_marseille","lat":43.33754,"lon":5.3748,"is_reserved":false,"is_disabled":false,"rental_uris":{"android":"levelo://app?vid=d3e65d35-adf5-4e30-8b5e-d889132ece20","ios":"levelo://app?vid=d3e65d35-adf5-4e30-8b5e-d889132ece20"},"vehicle_type_id":"4","last_reported":1723136825,"current_range_meters":30400,"station_id":"","pricing_plan_id":"cebpf4jnsgd1na2vs0mg"},{"bike_id":"cd6162af-7565-4540-90e1-58d1eecfa36b","system_id":"levelo_inurba_marseille","lat":43.33757,"lon":5.37492,"is_reserved":false,"is_disabled":false,"rental_uris":{"android":"levelo://app?vid=cd6162af-7565-4540-90e1-58d1eecfa36b","ios":"levelo://app?vid=cd6162af-7565-4540-90e1-58d1eecfa36b"},"vehicle_type_id":"4","last_reported":1723136825,"current_range_meters":30400,"station_id":"","pricing_plan_id":"cebpf4jnsgd1na2vs0mg"},{"bike_id":"b003bb82-a03d-4216-b2c4-683f95ee176d","system_id":"levelo_inurba_marseille","lat":43.33763,"lon":5.374788,"is_reserved":false,"is_disabled":false,"rental_uris":{"android":"levelo://app?vid=b003bb82-a03d-4216-b2c4-683f95ee176d","ios":"levelo://app?vid=b003bb82-a03d-4216-b2c4-683f95ee176d"},"vehicle_type_id":"4","last_reported":1723136825,"current_range_meters":30000,"station_id":"","pricing_plan_id":"cebpf4jnsgd1na2vs0mg"},{"bike_id":"85201039-ecbc-4863-a117-1317c2a4c32e","system_id":"levelo_inurba_marseille","lat":43.301117,"lon":5.398795,"is_reserved":false,"is_disabled":false,"rental_uris":{"android":"levelo://app?vid=85201039-ecbc-4863-a117-1317c2a4c32e","ios":"levelo://app?vid=85201039-ecbc-4863-a117-1317c2a4c32e"},"vehicle_type_id":"4","last_reported":1723136825,"current_range_meters":21200,"station_id":"ce4bh0h2rcd13ifvqd40","pricing_plan_id":"cebpf4jnsgd1na2vs0mg"},{"bike_id":"8f75088e-778c-4ab5-9e67-488e993aaacf","system_id":"levelo_inurba_marseille","lat":43.33773,"lon":5.37478,"is_reserved":false,"is_disabled":false,"rental_uris":{"android":"levelo://app?vid=8f75088e-778c-4ab5-9e67-488e993aaacf","ios":"levelo://app?vid=8f75088e-778c-4ab5-9e67-488e993aaacf"},"vehicle_type_id":"4","last_reported":1723136825,"current_range_meters":30000,"station_id":"","pricing_plan_id":"cebpf4jnsgd1na2vs0mg"},{"bike_id":"9c87dae8-e15e-4da6-b3b9-003ac0127222","system_id":"levelo_inurba_marseille","lat":43.30153,"lon":5.39868,"is_reserved":false,"is_disabled":false,"rental_uris":{"android":"levelo://app?vid=9c87dae8-e15e-4da6-b3b9-003ac0127222","ios":"levelo://app?vid=9c87dae8-e15e-4da6-b3b9-003ac0127222"},"vehicle_type_id":"4","last_reported":1723136825,"current_range_meters":0,"station_id":"ce4bh0h2rcd13ifvqd40","pricing_plan_id":"cebpf4jnsgd1na2vs0mg"},{"bike_id":"9e2406b3-3e1f-4149-9da8-756aa9cd1add","system_id":"levelo_inurba_marseille","lat":43.301117,"lon":5.398795,"is_reserved":false,"is_disabled":false,"rental_uris":{"android":"levelo://app?vid=9e2406b3-3e1f-4149-9da8-756aa9cd1add","ios":"levelo://app?vid=9e2406b3-3e1f-4149-9da8-756aa9cd1add"},"vehicle_type_id":"4","last_reported":1723136825,"current_range_meters":29600,"station_id":"ce4bh0h2rcd13ifvqd40","pricing_plan_id":"cebpf4jnsgd1na2vs0mg"},{"bike_id":"859b6ce5-8c88-4e70-8c19-3cd09a25de23","system_id":"levelo_inurba_marseille","lat":43.28729,"lon":5.37391,"is_reserved":false,"is_disabled":false,"rental_uris":{"android":"levelo://app?vid=859b6ce5-8c88-4e70-8c19-3cd09a25de23","ios":"levelo://app?vid=859b6ce5-8c88-4e70-8c19-3cd09a25de23"},"vehicle_type_id":"4","last_reported":1723136825,"current_range_meters":2400,"station_id":"ce4bhc92rcd13ifvqetg","pricing_plan_id":"cebpf4jnsgd1na2vs0mg"},{"bike_id":"49df7c0d-03b8-4727-9120-31b18ffd53cd","system_id":"levelo_inurba_marseille","lat":43.28727,"lon":5.36078,"is_reserved":false,"is_disabled":false,"rental_uris":{"android":"levelo://app?vid=49df7c0d-03b8-4727-9120-31b18ffd53cd","ios":"levelo://app?vid=49df7c0d-03b8-4727-9120-31b18ffd53cd"},"vehicle_type_id":"4","last_reported":1723136825,"current_range_meters":28000,"station_id":"cki0cbj6b192h4jlfktg","pricing_plan_id":"cebpf4jnsgd1na2vs0mg"},{"bike_id":"d7354a97-e0f8-4da9-8332-a6c200797c9b","system_id":"levelo_inurba_marseille","lat":43.286961,"lon":5.373785,"is_reserved":false,"is_disabled":false,"rental_uris":{"android":"levelo://app?vid=d7354a97-e0f8-4da9-8332-a6c200797c9b","ios":"levelo://app?vid=d7354a97-e0f8-4da9-8332-a6c200797c9b"},"vehicle_type_id":"4","last_reported":1723136825,"current_range_meters":0,"station_id":"ce4bh3p2rcd13ifvqdq0","pricing_plan_id":"cebpf4jnsgd1na2vs0mg"},{"bike_id":"476a50fa-2148-4ea0-bea7-31a35581d214","system_id":"levelo_inurba_marseille","lat":43.28704,"lon":5.37396,"is_reserved":false,"is_disabled":false,"rental_uris":{"android":"levelo://app?vid=476a50fa-2148-4ea0-bea7-31a35581d214","ios":"levelo://app?vid=476a50fa-2148-4ea0-bea7-31a35581d214"},"vehicle_type_id":"4","last_reported":1723136825,"current_range_meters":15600,"station_id":"ce4bh3p2rcd13ifvqdq0","pricing_plan_id":"cebpf4jnsgd1na2vs0mg"},{"bike_id":"a008f479-5a3f-488b-82d2-e897da28ab4c","system_id":"levelo_inurba_marseille","lat":43.286593,"lon":5.363346,"is_reserved":false,"is_disabled":false,"rental_uris":{"android":"levelo://app?vid=a008f479-5a3f-488b-82d2-e897da28ab4c","ios":"levelo://app?vid=a008f479-5a3f-488b-82d2-e897da28ab4c"},"vehicle_type_id":"4","last_reported":1723136825,"current_range_meters":15200,"station_id":"ce4bhah2rcd13ifvqej0","pricing_plan_id":"cebpf4jnsgd1na2vs0mg"},{"bike_id":"23381c09-dab9-4f10-a10d-b1e57c1dd89b","system_id":"levelo_inurba_marseille","lat":43.286593,"lon":5.363346,"is_reserved":false,"is_disabled":false,"rental_uris":{"android":"levelo://app?vid=23381c09-dab9-4f10-a10d-b1e57c1dd89b","ios":"levelo://app?vid=23381c09-dab9-4f10-a10d-b1e57c1dd89b"},"vehicle_type_id":"4","last_reported":1723136825,"current_range_meters":24400,"station_id":"ce4bhah2rcd13ifvqej0","pricing_plan_id":"cebpf4jnsgd1na2vs0mg"},{"bike_id":"0dc5b529-818c-4db4-b456-48fb30664d3c","system_id":"levelo_inurba_marseille","lat":43.298681,"lon":5.397225,"is_reserved":false,"is_disabled":false,"rental_uris":{"android":"levelo://app?vid=0dc5b529-818c-4db4-b456-48fb30664d3c","ios":"levelo://app?vid=0dc5b529-818c-4db4-b456-48fb30664d3c"},"vehicle_type_id":"4","last_reported":1723136825,"current_range_meters":1200,"station_id":"ce4bh0h2rcd13ifvqd50","pricing_plan_id":"cebpf4jnsgd1na2vs0mg"},{"bike_id":"d730c62a-18d3-4277-8d74-7e01271e845b","system_id":"levelo_inurba_marseille","lat":43.286961,"lon":5.373785,"is_reserved":false,"is_disabled":false,"rental_uris":{"android":"levelo://app?vid=d730c62a-18d3-4277-8d74-7e01271e845b","ios":"levelo://app?vid=d730c62a-18d3-4277-8d74-7e01271e845b"},"vehicle_type_id":"4","last_reported":1723136825,"current_range_meters":23200,"station_id":"ce4bh3p2rcd13ifvqdq0","pricing_plan_id":"cebpf4jnsgd1na2vs0mg"},{"bike_id":"a6b421b8-a67e-4dc6-bd57-8b0af1f1b7f9","system_id":"levelo_inurba_marseille","lat":43.286593,"lon":5.363346,"is_reserved":false,"is_disabled":false,"rental_uris":{"android":"levelo://app?vid=a6b421b8-a67e-4dc6-bd57-8b0af1f1b7f9","ios":"levelo://app?vid=a6b421b8-a67e-4dc6-bd57-8b0af1f1b7f9"},"vehicle_type_id":"4","last_reported":1723136825,"current_range_meters":10800,"station_id":"ce4bhah2rcd13ifvqej0","pricing_plan_id":"cebpf4jnsgd1na2vs0mg"},{"bike_id":"d4c7c2ef-3d89-4132-9614-41df03a551f9","system_id":"levelo_inurba_marseille","lat":43.286961,"lon":5.373785,"is_reserved":false,"is_disabled":false,"rental_uris":{"android":"levelo://app?vid=d4c7c2ef-3d89-4132-9614-41df03a551f9","ios":"levelo://app?vid=d4c7c2ef-3d89-4132-9614-41df03a551f9"},"vehicle_type_id":"4","last_reported":1723136825,"current_range_meters":2000,"station_id":"ce4bh3p2rcd13ifvqdq0","pricing_plan_id":"cebpf4jnsgd1na2vs0mg"},{"bike_id":"396a601d-573f-4580-8adc-9f2c63040577","system_id":"levelo_inurba_marseille","lat":43.286961,"lon":5.373785,"is_reserved":false,"is_disabled":false,"rental_uris":{"android":"levelo://app?vid=396a601d-573f-4580-8adc-9f2c63040577","ios":"levelo://app?vid=396a601d-573f-4580-8adc-9f2c63040577"},"vehicle_type_id":"4","last_reported":1723136825,"current_range_meters":6800,"station_id":"ce4bh3p2rcd13ifvqdq0","pricing_plan_id":"cebpf4jnsgd1na2vs0mg"},{"bike_id":"2d39d044-538a-43e2-8e67-70628f464e93","system_id":"levelo_inurba_marseille","lat":43.286591,"lon":5.363346,"is_reserved":false,"is_disabled":false,"rental_uris":{"android":"levelo://app?vid=2d39d044-538a-43e2-8e67-70628f464e93","ios":"levelo://app?vid=2d39d044-538a-43e2-8e67-70628f464e93"},"vehicle_type_id":"4","last_reported":1723136825,"current_range_meters":12000,"station_id":"ce4bhah2rcd13ifvqej0","pricing_plan_id":"cebpf4jnsgd1na2vs0mg"},{"bike_id":"a5a73240-11a3-4a45-8b61-90f2dc8bc94c","system_id":"levelo_inurba_marseille","lat":43.286961,"lon":5.373785,"is_reserved":false,"is_disabled":false,"rental_uris":{"android":"levelo://app?vid=a5a73240-11a3-4a45-8b61-90f2dc8bc94c","ios":"levelo://app?vid=a5a73240-11a3-4a45-8b61-90f2dc8bc94c"},"vehicle_type_id":"4","last_reported":1723136825,"current_range_meters":10000,"station_id":"ce4bh3p2rcd13ifvqdq0","pricing_plan_id":"cebpf4jnsgd1na2vs0mg"},{"bike_id":"cc130fd9-a5ff-4a93-a7dc-49ca46f66d9b","system_id":"levelo_inurba_marseille","lat":43.286961,"lon":5.373785,"is_reserved":false,"is_disabled":false,"rental_uris":{"android":"levelo://app?vid=cc130fd9-a5ff-4a93-a7dc-49ca46f66d9b","ios":"levelo://app?vid=cc130fd9-a5ff-4a93-a7dc-49ca46f66d9b"},"vehicle_type_id":"4","last_reported":1723136825,"current_range_meters":6800,"station_id":"ce4bh3p2rcd13ifvqdq0","pricing_plan_id":"cebpf4jnsgd1na2vs0mg"},{"bike_id":"56373f56-d268-4f86-9ee9-8085ecf78bf3","system_id":"levelo_inurba_marseille","lat":43.286961,"lon":5.373785,"is_reserved":false,"is_disabled":false,"rental_uris":{"android":"levelo://app?vid=56373f56-d268-4f86-9ee9-8085ecf78bf3","ios":"levelo://app?vid=56373f56-d268-4f86-9ee9-8085ecf78bf3"},"vehicle_type_id":"4","last_reported":1723136825,"current_range_meters":11200,"station_id":"ce4bh3p2rcd13ifvqdq0","pricing_plan_id":"cebpf4jnsgd1na2vs0mg"},{"bike_id":"d2d9eb5b-611b-4ea9-bdaa-8c902c18ee51","system_id":"levelo_inurba_marseille","lat":43.28654,"lon":5.36347,"is_reserved":false,"is_disabled":false,"rental_uris":{"android":"levelo://app?vid=d2d9eb5b-611b-4ea9-bdaa-8c902c18ee51","ios":"levelo://app?vid=d2d9eb5b-611b-4ea9-bdaa-8c902c18ee51"},"vehicle_type_id":"4","last_reported":1723136825,"current_range_meters":7600,"station_id":"ce4bhah2rcd13ifvqej0","pricing_plan_id":"cebpf4jnsgd1na2vs0mg"},{"bike_id":"085c9777-08af-42ab-b854-abcdfdb9089c","system_id":"levelo_inurba_marseille","lat":43.302759,"lon":5.400793,"is_reserved":false,"is_disabled":false,"rental_uris":{"android":"levelo://app?vid=085c9777-08af-42ab-b854-abcdfdb9089c","ios":"levelo://app?vid=085c9777-08af-42ab-b854-abcdfdb9089c"},"vehicle_type_id":"4","last_reported":1723136825,"current_range_meters":0,"station_id":"ce4bgvh2rcd13ifvqcs0","pricing_plan_id":"cebpf4jnsgd1na2vs0mg"},{"bike_id":"039acd89-9091-4838-9bfe-17e6307358f6","system_id":"levelo_inurba_marseille","lat":43.290336,"lon":5.386425,"is_reserved":false,"is_disabled":false,"rental_uris":{"android":"levelo://app?vid=039acd89-9091-4838-9bfe-17e6307358f6","ios":"levelo://app?vid=039acd89-9091-4838-9bfe-17e6307358f6"},"vehicle_type_id":"4","last_reported":1723136825,"current_range_meters":15600,"station_id":"ce4bh4p2rcd13ifvqe0g","pricing_plan_id":"cebpf4jnsgd1na2vs0mg"},{"bike_id":"a2216b56-4ab1-4971-9c5f-329a5f73b109","system_id":"levelo_inurba_marseille","lat":43.290336,"lon":5.386425,"is_reserved":false,"is_disabled":false,"rental_uris":{"android":"levelo://app?vid=a2216b56-4ab1-4971-9c5f-329a5f73b109","ios":"levelo://app?vid=a2216b56-4ab1-4971-9c5f-329a5f73b109"},"vehicle_type_id":"4","last_reported":1723136825,"current_range_meters":0,"station_id":"ce4bh4p2rcd13ifvqe0g","pricing_plan_id":"cebpf4jnsgd1na2vs0mg"},{"bike_id":"477be351-c1c6-4606-b9bb-0587285c6e5a","system_id":"levelo_inurba_marseille","lat":43.290336,"lon":5.386425,"is_reserved":false,"is_disabled":false,"rental_uris":{"android":"levelo://app?vid=477be351-c1c6-4606-b9bb-0587285c6e5a","ios":"levelo://app?vid=477be351-c1c6-4606-b9bb-0587285c6e5a"},"vehicle_type_id":"4","last_reported":1723136825,"current_range_meters":22400,"station_id":"ce4bh4p2rcd13ifvqe0g","pricing_plan_id":"cebpf4jnsgd1na2vs0mg"},{"bike_id":"c8139da5-45c6-4023-8bbb-1eef4c587d72","system_id":"levelo_inurba_marseille","lat":43.290336,"lon":5.386425,"is_reserved":false,"is_disabled":false,"rental_uris":{"android":"levelo://app?vid=c8139da5-45c6-4023-8bbb-1eef4c587d72","ios":"levelo://app?vid=c8139da5-45c6-4023-8bbb-1eef4c587d72"},"vehicle_type_id":"4","last_reported":1723136825,"current_range_meters":16800,"station_id":"ce4bh4p2rcd13ifvqe0g","pricing_plan_id":"cebpf4jnsgd1na2vs0mg"},{"bike_id":"9ac7a04a-3ee4-4953-9547-f1fab69328a2","system_id":"levelo_inurba_marseille","lat":43.302759,"lon":5.400793,"is_reserved":false,"is_disabled":false,"rental_uris":{"android":"levelo://app?vid=9ac7a04a-3ee4-4953-9547-f1fab69328a2","ios":"levelo://app?vid=9ac7a04a-3ee4-4953-9547-f1fab69328a2"},"vehicle_type_id":"4","last_reported":1723136825,"current_range_meters":10000,"station_id":"ce4bgvh2rcd13ifvqcs0","pricing_plan_id":"cebpf4jnsgd1na2vs0mg"},{"bike_id":"1d92f1ae-aea5-4627-801f-917476475dfb","system_id":"levelo_inurba_marseille","lat":43.302759,"lon":5.400793,"is_reserved":false,"is_disabled":false,"rental_uris":{"android":"levelo://app?vid=1d92f1ae-aea5-4627-801f-917476475dfb","ios":"levelo://app?vid=1d92f1ae-aea5-4627-801f-917476475dfb"},"vehicle_type_id":"4","last_reported":1723136825,"current_range_meters":1200,"station_id":"ce4bgvh2rcd13ifvqcs0","pricing_plan_id":"cebpf4jnsgd1na2vs0mg"},{"bike_id":"c7bcaf74-cb1d-44e8-b736-bb7b2d2feb68","system_id":"levelo_inurba_marseille","lat":43.30257,"lon":5.40085,"is_reserved":false,"is_disabled":false,"rental_uris":{"android":"levelo://app?vid=c7bcaf74-cb1d-44e8-b736-bb7b2d2feb68","ios":"levelo://app?vid=c7bcaf74-cb1d-44e8-b736-bb7b2d2feb68"},"vehicle_type_id":"4","last_reported":1723136825,"current_range_meters":1600,"station_id":"ce4bgvh2rcd13ifvqcs0","pricing_plan_id":"cebpf4jnsgd1na2vs0mg"},{"bike_id":"dee994c9-008b-4b42-be0b-8456086055ba","system_id":"levelo_inurba_marseille","lat":43.286039,"lon":5.370679,"is_reserved":false,"is_disabled":false,"rental_uris":{"android":"levelo://app?vid=dee994c9-008b-4b42-be0b-8456086055ba","ios":"levelo://app?vid=dee994c9-008b-4b42-be0b-8456086055ba"},"vehicle_type_id":"4","last_reported":1723136825,"current_range_meters":15600,"station_id":"ce4bht12rcd13ifvqi60","pricing_plan_id":"cebpf4jnsgd1na2vs0mg"},{"bike_id":"db62d5aa-67db-4839-9246-d0366ba91f5d","system_id":"levelo_inurba_marseille","lat":43.2861,"lon":5.37067,"is_reserved":false,"is_disabled":false,"rental_uris":{"android":"levelo://app?vid=db62d5aa-67db-4839-9246-d0366ba91f5d","ios":"levelo://app?vid=db62d5aa-67db-4839-9246-d0366ba91f5d"},"vehicle_type_id":"4","last_reported":1723136825,"current_range_meters":0,"station_id":"ce4bht12rcd13ifvqi60","pricing_plan_id":"cebpf4jnsgd1na2vs0mg"},{"bike_id":"4aa19168-d7d0-47e3-b4f7-25a1a6272dee","system_id":"levelo_inurba_marseille","lat":43.287184,"lon":5.37937,"is_reserved":false,"is_disabled":false,"rental_uris":{"android":"levelo://app?vid=4aa19168-d7d0-47e3-b4f7-25a1a6272dee","ios":"levelo://app?vid=4aa19168-d7d0-47e3-b4f7-25a1a6272dee"},"vehicle_type_id":"4","last_reported":1723136825,"current_range_meters":0,"station_id":"ce4bh9p2rcd13ifvqec0","pricing_plan_id":"cebpf4jnsgd1na2vs0mg"},{"bike_id":"cb5b62b4-af73-4fbd-8c7f-73488197e72b","system_id":"levelo_inurba_marseille","lat":43.316821,"lon":5.404737,"is_reserved":false,"is_disabled":false,"rental_uris":{"android":"levelo://app?vid=cb5b62b4-af73-4fbd-8c7f-73488197e72b","ios":"levelo://app?vid=cb5b62b4-af73-4fbd-8c7f-73488197e72b"},"vehicle_type_id":"4","last_reported":1723136825,"current_range_meters":31200,"station_id":"ce4bh012rcd13ifvqd00","pricing_plan_id":"cebpf4jnsgd1na2vs0mg"},{"bike_id":"962fff65-6250-4756-a016-f9e5b9293428","system_id":"levelo_inurba_marseille","lat":43.29205,"lon":5.39328,"is_reserved":false,"is_disabled":false,"rental_uris":{"android":"levelo://app?vid=962fff65-6250-4756-a016-f9e5b9293428","ios":"levelo://app?vid=962fff65-6250-4756-a016-f9e5b9293428"},"vehicle_type_id":"4","last_reported":1723136825,"current_range_meters":22400,"station_id":"ce4bh192rcd13ifvqdd0","pricing_plan_id":"cebpf4jnsgd1na2vs0mg"},{"bike_id":"1b62db38-ba73-47c0-8fc1-45ffe0ac1e71","system_id":"levelo_inurba_marseille","lat":43.291994,"lon":5.392907,"is_reserved":false,"is_disabled":false,"rental_uris":{"android":"levelo://app?vid=1b62db38-ba73-47c0-8fc1-45ffe0ac1e71","ios":"levelo://app?vid=1b62db38-ba73-47c0-8fc1-45ffe0ac1e71"},"vehicle_type_id":"4","last_reported":1723136825,"current_range_meters":10400,"station_id":"ce4bh192rcd13ifvqdd0","pricing_plan_id":"cebpf4jnsgd1na2vs0mg"},{"bike_id":"5038b746-4fce-4821-abb9-3ddba0bd28a0","system_id":"levelo_inurba_marseille","lat":43.287184,"lon":5.37937,"is_reserved":false,"is_disabled":false,"rental_uris":{"android":"levelo://app?vid=5038b746-4fce-4821-abb9-3ddba0bd28a0","ios":"levelo://app?vid=5038b746-4fce-4821-abb9-3ddba0bd28a0"},"vehicle_type_id":"4","last_reported":1723136825,"current_range_meters":28000,"station_id":"ce4bh9p2rcd13ifvqec0","pricing_plan_id":"cebpf4jnsgd1na2vs0mg"},{"bike_id":"4d223713-9015-4f47-babf-6444e204f2eb","system_id":"levelo_inurba_marseille","lat":43.28621,"lon":5.35109,"is_reserved":false,"is_disabled":false,"rental_uris":{"android":"levelo://app?vid=4d223713-9015-4f47-babf-6444e204f2eb","ios":"levelo://app?vid=4d223713-9015-4f47-babf-6444e204f2eb"},"vehicle_type_id":"4","last_reported":1723136825,"current_range_meters":0,"station_id":"ce4bhch2rcd13ifvqeug","pricing_plan_id":"cebpf4jnsgd1na2vs0mg"},{"bike_id":"37f050c4-b7bb-432f-9eff-a46147556fa3","system_id":"levelo_inurba_marseille","lat":43.2862,"lon":5.35104,"is_reserved":false,"is_disabled":false,"rental_uris":{"android":"levelo://app?vid=37f050c4-b7bb-432f-9eff-a46147556fa3","ios":"levelo://app?vid=37f050c4-b7bb-432f-9eff-a46147556fa3"},"vehicle_type_id":"4","last_reported":1723136825,"current_range_meters":0,"station_id":"ce4bhch2rcd13ifvqeug","pricing_plan_id":"cebpf4jnsgd1na2vs0mg"},{"bike_id":"c9eff102-b691-499c-be4b-76fa649e7c3a","system_id":"levelo_inurba_marseille","lat":43.28618,"lon":5.35106,"is_reserved":false,"is_disabled":false,"rental_uris":{"android":"levelo://app?vid=c9eff102-b691-499c-be4b-76fa649e7c3a","ios":"levelo://app?vid=c9eff102-b691-499c-be4b-76fa649e7c3a"},"vehicle_type_id":"4","last_reported":1723136825,"current_range_meters":0,"station_id":"ce4bhch2rcd13ifvqeug","pricing_plan_id":"cebpf4jnsgd1na2vs0mg"},{"bike_id":"d1f4ffcb-5b2f-4e35-a97d-e79262125432","system_id":"levelo_inurba_marseille","lat":43.28617,"lon":5.35107,"is_reserved":false,"is_disabled":false,"rental_uris":{"android":"levelo://app?vid=d1f4ffcb-5b2f-4e35-a97d-e79262125432","ios":"levelo://app?vid=d1f4ffcb-5b2f-4e35-a97d-e79262125432"},"vehicle_type_id":"4","last_reported":1723136825,"current_range_meters":6800,"station_id":"ce4bhch2rcd13ifvqeug","pricing_plan_id":"cebpf4jnsgd1na2vs0mg"},