{"last_updated":1744791272,"ttl":60,"version":"2.2","data":{"bikes":[{"bike_id":"88dc6a23-9b04-48b0-bf85-c177443d0763","system_id":"levelo_inurba_marseille","lat":43.33606,"lon":5.41006,"is_reserved":false,"is_disabled":false,"rental_uris":{"android":"levelo://app?vid=88dc6a23-9b04-48b0-bf85-c177443d0763","ios":"levelo://app?vid=88dc6a23-9b04-48b0-bf85-c177443d0763"},"vehicle_type_id":"4","last_reported":1744791272,"current_range_meters":3200,"station_id":"ce4bhqh2rcd13ifvqhmg","pricing_plan_id":"cebpf4jnsgd1na2vs0mg"},{"bike_id":"6ce553e6-60e2-4f33-922e-40962f99a63b","system_id":"levelo_inurba_marseille","lat":43.31693,"lon":5.40468,"is_reserved":false,"is_disabled":false,"rental_uris":{"android":"levelo://app?vid=6ce553e6-60e2-4f33-922e-40962f99a63b","ios":"levelo://app?vid=6ce553e6-60e2-4f33-922e-40962f99a63b"},"vehicle_type_id":"4","last_reported":1744791272,"current_range_meters":3600,"station_id":"ce4bh012rcd13ifvqd00","pricing_plan_id":"cebpf4jnsgd1na2vs0mg"},{"bike_id":"217daf66-49c9-4b7f-9ef3-e00ea0f230b9","system_id":"levelo_inurba_marseille","lat":43.31365,"lon":5.36734,"is_reserved":false,"is_disabled":false,"rental_uris":{"android":"levelo://app?vid=217daf66-49c9-4b7f-9ef3-e00ea0f230b9","ios":"levelo://app?vid=217daf66-49c9-4b7f-9ef3-e00ea0f230b9"},"vehicle_type_id":"4","last_reported":1744791272,"current_range_meters":3600,"station_id":"ce4bgr92rcd13ifvqc6g","pricing_plan_id":"cebpf4jnsgd1na2vs0mg"},{"bike_id":"11a9c21a-4ece-4648-90c2-f4f6091e3850","system_id":"levelo_inurba_marseille","lat":43.26205,"lon":5.37929,"is_reserved":false,"is_disabled":false,"rental_uris":{"android":"levelo://app?vid=11a9c21a-4ece-4648-90c2-f4f6091e3850","ios":"levelo://app?vid=11a9c21a-4ece-4648-90c2-f4f6091e3850"},"vehicle_type_id":"4","last_reported":1744791272,"current_range_meters":3600,"station_id":"ce4bhjp2rcd13ifvqg90","pricing_plan_id":"cebpf4jnsgd1na2vs0mg"},{"bike_id":"d64aa8f0-0884-41cf-84e6-ae25f8a6ae2a","system_id":"levelo_inurba_marseille","lat":43.285681,"lon":5.377664,"is_reserved":false,"is_disabled":false,"rental_uris":{"android":"levelo://app?vid=d64aa8f0-0884-41cf-84e6-ae25f8a6ae2a","ios":"levelo://app?vid=d64aa8f0-0884-41cf-84e6-ae25f8a6ae2a"},"vehicle_type_id":"4","last_reported":1744791272,"current_range_meters":3600,"station_id":"","pricing_plan_id":"cebpf4jnsgd1na2vs0mg"},{"bike_id":"03f75dbb-fecb-41d4-9cf0-f9440866b976","system_id":"levelo_inurba_marseille","lat":43.29276,"lon":5.368278,"is_reserved":false,"is_disabled":false,"rental_uris":{"android":"levelo://app?vid=03f75dbb-fecb-41d4-9cf0-f9440866b976","ios":"levelo://app?vid=03f75dbb-fecb-41d4-9cf0-f9440866b976"},"vehicle_type_id":"4","last_reported":1744791272,"current_range_meters":1200,"station_id":"ce4bhh92rcd13ifvqfj0","pricing_plan_id":"cebpf4jnsgd1na2vs0mg"},{"bike_id":"18732393-3419-419f-948d-5449399ba16a","system_id":"levelo_inurba_marseille","lat":43.30951,"lon":5.39018,"is_reserved":false,"is_disabled":true,"rental_uris":{"android":"levelo://app?vid=18732393-3419-419f-948d-5449399ba16a","ios":"levelo://app?vid=18732393-3419-419f-948d-5449399ba16a"},"vehicle_type_id":"4","last_reported":1744791272,"current_range_meters":4400,"station_id":"ce4bgup2rcd13ifvqco0","pricing_plan_id":"cebpf4jnsgd1na2vs0mg"},{"bike_id":"1c41dae5-02d2-4367-8a5c-5ff8a0ae456b","system_id":"levelo_inurba_marseille","lat":43.21756,"lon":5.34602,"is_reserved":false,"is_disabled":false,"rental_uris":{"android":"levelo://app?vid=1c41dae5-02d2-4367-8a5c-5ff8a0ae456b","ios":"levelo://app?vid=1c41dae5-02d2-4367-8a5c-5ff8a0ae456b"},"vehicle_type_id":"4","last_reported":1744791272,"current_range_meters":4800,"station_id":"st_cvj6r9ubvosntc0bgbag","pricing_plan_id":"cebpf4jnsgd1na2vs0mg"},{"bike_id":"cb9a2743-8eba-42e4-a4f4-d119fcf822dc","system_id":"levelo_inurba_marseille","lat":43.292603,"lon":5.409094,"is_reserved":false,"is_disabled":false,"rental_uris":{"android":"levelo://app?vid=cb9a2743-8eba-42e4-a4f4-d119fcf822dc","ios":"levelo://app?vid=cb9a2743-8eba-42e4-a4f4-d119fcf822dc"},"vehicle_type_id":"4","last_reported":1744791272,"current_range_meters":5600,"station_id":"ce4bh192rcd13ifvqdc0","pricing_plan_id":"cebpf4jnsgd1na2vs0mg"},{"bike_id":"7e2000f5-3a75-43d3-9450-d5f67eb37912","system_id":"levelo_inurba_marseille","lat":43.28708,"lon":5.37374,"is_reserved":false,"is_disabled":false,"rental_uris":{"android":"levelo://app?vid=7e2000f5-3a75-43d3-9450-d5f67eb37912","ios":"levelo://app?vid=7e2000f5-3a75-43d3-9450-d5f67eb37912"},"vehicle_type_id":"4","last_reported":1744791272,"current_range_meters":5600,"station_id":"ce4bh3p2rcd13ifvqdq0","pricing_plan_id":"cebpf4jnsgd1na2vs0mg"},{"bike_id":"9b5e4332-e21e-4d9f-ac33-62cff0be5751","system_id":"levelo_inurba_marseille","lat":43.31165,"lon":5.3872,"is_reserved":false,"is_disabled":false,"rental_uris":{"android":"levelo://app?vid=9b5e4332-e21e-4d9f-ac33-62cff0be5751","ios":"levelo://app?vid=9b5e4332-e21e-4d9f-ac33-62cff0be5751"},"vehicle_type_id":"4","last_reported":1744791272,"current_range_meters":5600,"station_id":"ce4bgv12rcd13ifvqcp0","pricing_plan_id":"cebpf4jnsgd1na2vs0mg"},{"bike_id":"7bb0084d-3c8a-46ef-80a8-1e376b3726a4","system_id":"levelo_inurba_marseille","lat":43.26498,"lon":5.395347,"is_reserved":false,"is_disabled":false,"rental_uris":{"android":"levelo://app?vid=7bb0084d-3c8a-46ef-80a8-1e376b3726a4","ios":"levelo://app?vid=7bb0084d-3c8a-46ef-80a8-1e376b3726a4"},"vehicle_type_id":"4","last_reported":1744791272,"current_range_meters":6000,"station_id":"ce4bhi12rcd13ifvqfq0","pricing_plan_id":"cebpf4jnsgd1na2vs0mg"},{"bike_id":"cabd05a9-db85-4a2d-b325-b3ffb6027715","system_id":"levelo_inurba_marseille","lat":43.324833,"lon":5.365687,"is_reserved":false,"is_disabled":false,"rental_uris":{"android":"levelo://app?vid=cabd05a9-db85-4a2d-b325-b3ffb6027715","ios":"levelo://app?vid=cabd05a9-db85-4a2d-b325-b3ffb6027715"},"vehicle_type_id":"4","last_reported":1744791272,"current_range_meters":6400,"station_id":"ce4bhs12rcd13ifvqhvg","pricing_plan_id":"cebpf4jnsgd1na2vs0mg"},{"bike_id":"cae589eb-10af-4a8f-8ef6-1f6b43e97ea4","system_id":"levelo_inurba_marseille","lat":43.31051,"lon":5.38344,"is_reserved":false,"is_disabled":false,"rental_uris":{"android":"levelo://app?vid=cae589eb-10af-4a8f-8ef6-1f6b43e97ea4","ios":"levelo://app?vid=cae589eb-10af-4a8f-8ef6-1f6b43e97ea4"},"vehicle_type_id":"4","last_reported":1744791272,"current_range_meters":6400,"station_id":"ce4bgv92rcd13ifvqcr0","pricing_plan_id":"cebpf4jnsgd1na2vs0mg"},{"bike_id":"ca4a9be7-5ff0-4346-a8ac-629b757b93f9","system_id":"levelo_inurba_marseille","lat":43.27569,"lon":5.38411,"is_reserved":false,"is_disabled":false,"rental_uris":{"android":"levelo://app?vid=ca4a9be7-5ff0-4346-a8ac-629b757b93f9","ios":"levelo://app?vid=ca4a9be7-5ff0-4346-a8ac-629b757b93f9"},"vehicle_type_id":"4","last_reported":1744791272,"current_range_meters":6400,"station_id":"ce4bhh92rcd13ifvqfi0","pricing_plan_id":"cebpf4jnsgd1na2vs0mg"},{"bike_id":"a668abbc-a092-49f5-9124-b0b71b0d2e46","system_id":"levelo_inurba_marseille","lat":43.22909,"lon":5.35329,"is_reserved":false,"is_disabled":false,"rental_uris":{"android":"levelo://app?vid=a668abbc-a092-49f5-9124-b0b71b0d2e46","ios":"levelo://app?vid=a668abbc-a092-49f5-9124-b0b71b0d2e46"},"vehicle_type_id":"4","last_reported":1744791272,"current_range_meters":6400,"station_id":"cpo3532slgdg3j2ikp40","pricing_plan_id":"cebpf4jnsgd1na2vs0mg"},{"bike_id":"8ed04f84-4f60-4210-8826-66c2d615b742","system_id":"levelo_inurba_marseille","lat":43.23043,"lon":5.35426,"is_reserved":false,"is_disabled":false,"rental_uris":{"android":"levelo://app?vid=8ed04f84-4f60-4210-8826-66c2d615b742","ios":"levelo://app?vid=8ed04f84-4f60-4210-8826-66c2d615b742"},"vehicle_type_id":"4","last_reported":1744791272,"current_range_meters":6400,"station_id":"cpo3342slgdg3j2ifvpg","pricing_plan_id":"cebpf4jnsgd1na2vs0mg"},{"bike_id":"207b15a7-69f1-4c4a-a29d-f91df1564475","system_id":"levelo_inurba_marseille","lat":43.24081,"lon":5.37736,"is_reserved":false,"is_disabled":false,"rental_uris":{"android":"levelo://app?vid=207b15a7-69f1-4c4a-a29d-f91df1564475","ios":"levelo://app?vid=207b15a7-69f1-4c4a-a29d-f91df1564475"},"vehicle_type_id":"4","last_reported":1744791272,"current_range_meters":6400,"station_id":"ce4bhnp2rcd13ifvqgvg","pricing_plan_id":"cebpf4jnsgd1na2vs0mg"},{"bike_id":"4d5c9219-dab2-4a84-8f6e-9bff1ce514f0","system_id":"levelo_inurba_marseille","lat":43.278347,"lon":5.392119,"is_reserved":false,"is_disabled":false,"rental_uris":{"android":"levelo://app?vid=4d5c9219-dab2-4a84-8f6e-9bff1ce514f0","ios":"levelo://app?vid=4d5c9219-dab2-4a84-8f6e-9bff1ce514f0"},"vehicle_type_id":"4","last_reported":1744791272,"current_range_meters":6400,"station_id":"ce4bhjp2rcd13ifvqga0","pricing_plan_id":"cebpf4jnsgd1na2vs0mg"},{"bike_id":"44e9a3ab-8fdf-42de-ab68-05fc71d990a6","system_id":"levelo_inurba_marseille","lat":43.26675,"lon":5.38281,"is_reserved":false,"is_disabled":false,"rental_uris":{"android":"levelo://app?vid=44e9a3ab-8fdf-42de-ab68-05fc71d990a6","ios":"levelo://app?vid=44e9a3ab-8fdf-42de-ab68-05fc71d990a6"},"vehicle_type_id":"4","last_reported":1744791272,"current_range_meters":6800,"station_id":"ce4bhg92rcd13ifvqf90","pricing_plan_id":"cebpf4jnsgd1na2vs0mg"},{"bike_id":"c273cedc-5337-4dec-91b4-1636fd7d09ad","system_id":"levelo_inurba_marseille","lat":43.31456,"lon":5.37598,"is_reserved":false,"is_disabled":false,"rental_uris":{"android":"levelo://app?vid=c273cedc-5337-4dec-91b4-1636fd7d09ad","ios":"levelo://app?vid=c273cedc-5337-4dec-91b4-1636fd7d09ad"},"vehicle_type_id":"4","last_reported":1744791272,"current_range_meters":6800,"station_id":"","pricing_plan_id":"cebpf4jnsgd1na2vs0mg"},{"bike_id":"a8bce765-48d7-4f94-907d-9b3fef87e2cf","system_id":"levelo_inurba_marseille","lat":43.27837,"lon":5.39212,"is_reserved":false,"is_disabled":true,"rental_uris":{"android":"levelo://app?vid=a8bce765-48d7-4f94-907d-9b3fef87e2cf","ios":"levelo://app?vid=a8bce765-48d7-4f94-907d-9b3fef87e2cf"},"vehicle_type_id":"4","last_reported":1744791272,"current_range_meters":6800,"station_id":"ce4bhjp2rcd13ifvqga0","pricing_plan_id":"cebpf4jnsgd1na2vs0mg"},{"bike_id":"427689a9-0cd4-4119-82a4-9e9bd7ecd185","system_id":"levelo_inurba_marseille","lat":43.28605,"lon":5.37081,"is_reserved":false,"is_disabled":false,"rental_uris":{"android":"levelo://app?vid=427689a9-0cd4-4119-82a4-9e9bd7ecd185","ios":"levelo://app?vid=427689a9-0cd4-4119-82a4-9e9bd7ecd185"},"vehicle_type_id":"4","last_reported":1744791272,"current_range_meters":6800,"station_id":"ce4bht12rcd13ifvqi60","pricing_plan_id":"cebpf4jnsgd1na2vs0mg"},{"bike_id":"f443cfdb-db2e-4f4b-a88d-615075e28818","system_id":"levelo_inurba_marseille","lat":43.30554,"lon":5.36535,"is_reserved":false,"is_disabled":false,"rental_uris":{"android":"levelo://app?vid=f443cfdb-db2e-4f4b-a88d-615075e28818","ios":"levelo://app?vid=f443cfdb-db2e-4f4b-a88d-615075e28818"},"vehicle_type_id":"4","last_reported":1744791272,"current_range_meters":7200,"station_id":"ce4bgs12rcd13ifvqcag","pricing_plan_id":"cebpf4jnsgd1na2vs0mg"},{"bike_id":"e946c3c8-6df1-4252-99a1-1dd8141b6e5d","system_id":"levelo_inurba_marseille","lat":43.30279,"lon":5.37696,"is_reserved":false,"is_disabled":false,"rental_uris":{"android":"levelo://app?vid=e946c3c8-6df1-4252-99a1-1dd8141b6e5d","ios":"levelo://app?vid=e946c3c8-6df1-4252-99a1-1dd8141b6e5d"},"vehicle_type_id":"4","last_reported":1744791272,"current_range_meters":7200,"station_id":"ce4bguh2rcd13ifvqcj0","pricing_plan_id":"cebpf4jnsgd1na2vs0mg"},{"bike_id":"ab40beae-ef77-4516-8a73-e9fccc0d9e5f","system_id":"levelo_inurba_marseille","lat":43.304659,"lon":5.379155,"is_reserved":false,"is_disabled":false,"rental_uris":{"android":"levelo://app?vid=ab40beae-ef77-4516-8a73-e9fccc0d9e5f","ios":"levelo://app?vid=ab40beae-ef77-4516-8a73-e9fccc0d9e5f"},"vehicle_type_id":"4","last_reported":1744791272,"current_range_meters":7200,"station_id":"ce4bgup2rcd13ifvqcn0","pricing_plan_id":"cebpf4jnsgd1na2vs0mg"},{"bike_id":"4220a71d-b00b-46df-8353-e10f2175efff","system_id":"levelo_inurba_marseille","lat":43.32358,"lon":5.36746,"is_reserved":false,"is_disabled":false,"rental_uris":{"android":"levelo://app?vid=4220a71d-b00b-46df-8353-e10f2175efff","ios":"levelo://app?vid=4220a71d-b00b-46df-8353-e10f2175efff"},"vehicle_type_id":"4","last_reported":1744791272,"current_range_meters":7200,"station_id":"ce4bhsh2rcd13ifvqi2g","pricing_plan_id":"cebpf4jnsgd1na2vs0mg"},{"bike_id":"4ca1fc76-01c8-4686-94a5-a46dd951837f","system_id":"levelo_inurba_marseille","lat":43.2781,"lon":5.407252,"is_reserved":false,"is_disabled":false,"rental_uris":{"android":"levelo://app?vid=4ca1fc76-01c8-4686-94a5-a46dd951837f","ios":"levelo://app?vid=4ca1fc76-01c8-4686-94a5-a46dd951837f"},"vehicle_type_id":"4","last_reported":1744791272,"current_range_meters":7200,"station_id":"ce4bhnh2rcd13ifvqgtg","pricing_plan_id":"cebpf4jnsgd1na2vs0mg"},{"bike_id":"276d555e-4261-4f2c-988d-80a9ebb80611","system_id":"levelo_inurba_marseille","lat":43.30288,"lon":5.36876,"is_reserved":false,"is_disabled":false,"rental_uris":{"android":"levelo://app?vid=276d555e-4261-4f2c-988d-80a9ebb80611","ios":"levelo://app?vid=276d555e-4261-4f2c-988d-80a9ebb80611"},"vehicle_type_id":"4","last_reported":1744791272,"current_range_meters":7200,"station_id":"ce4bgqh2rcd13ifvqc5g","pricing_plan_id":"cebpf4jnsgd1na2vs0mg"},{"bike_id":"45152fd8-c07c-4d52-b7a7-6670add35e00","system_id":"levelo_inurba_marseille","lat":43.2612,"lon":5.42069,"is_reserved":false,"is_disabled":false,"rental_uris":{"android":"levelo://app?vid=45152fd8-c07c-4d52-b7a7-6670add35e00","ios":"levelo://app?vid=45152fd8-c07c-4d52-b7a7-6670add35e00"},"vehicle_type_id":"4","last_reported":1744791272,"current_range_meters":7200,"station_id":"","pricing_plan_id":"cebpf4jnsgd1na2vs0mg"},{"bike_id":"27a55245-8dd2-4f1a-af63-95a9d7b71690","system_id":"levelo_inurba_marseille","lat":43.31076,"lon":5.3785,"is_reserved":false,"is_disabled":false,"rental_uris":{"android":"levelo://app?vid=27a55245-8dd2-4f1a-af63-95a9d7b71690","ios":"levelo://app?vid=27a55245-8dd2-4f1a-af63-95a9d7b71690"},"vehicle_type_id":"4","last_reported":1744791272,"current_range_meters":7200,"station_id":"","pricing_plan_id":"cebpf4jnsgd1na2vs0mg"},{"bike_id":"21876e81-8b17-48d7-b4d8-77f47dd86e08","system_id":"levelo_inurba_marseille","lat":43.30946,"lon":5.39021,"is_reserved":false,"is_disabled":false,"rental_uris":{"android":"levelo://app?vid=21876e81-8b17-48d7-b4d8-77f47dd86e08","ios":"levelo://app?vid=21876e81-8b17-48d7-b4d8-77f47dd86e08"},"vehicle_type_id":"4","last_reported":1744791272,"current_range_meters":8000,"station_id":"ce4bgup2rcd13ifvqco0","pricing_plan_id":"cebpf4jnsgd1na2vs0mg"},{"bike_id":"019aebdb-ca21-4835-a2d5-7cb30e9a1a5c","system_id":"levelo_inurba_marseille","lat":43.21764,"lon":5.34597,"is_reserved":false,"is_disabled":false,"rental_uris":{"android":"levelo://app?vid=019aebdb-ca21-4835-a2d5-7cb30e9a1a5c","ios":"levelo://app?vid=019aebdb-ca21-4835-a2d5-7cb30e9a1a5c"},"vehicle_type_id":"4","last_reported":1744791272,"current_range_meters":8000,"station_id":"st_cvj6r9ubvosntc0bgbag","pricing_plan_id":"cebpf4jnsgd1na2vs0mg"},{"bike_id":"e1103876-639d-4bb4-8300-d22110ae76d3","system_id":"levelo_inurba_marseille","lat":43.27305,"lon":5.41089,"is_reserved":false,"is_disabled":false,"rental_uris":{"android":"levelo://app?vid=e1103876-639d-4bb4-8300-d22110ae76d3","ios":"levelo://app?vid=e1103876-639d-4bb4-8300-d22110ae76d3"},"vehicle_type_id":"4","last_reported":1744791272,"current_range_meters":8000,"station_id":"","pricing_plan_id":"cebpf4jnsgd1na2vs0mg"},{"bike_id":"a0636e31-c89e-4ae1-aea4-880988d0da0e","system_id":"levelo_inurba_marseille","lat":43.29562,"lon":5.42263,"is_reserved":false,"is_disabled":false,"rental_uris":{"android":"levelo://app?vid=a0636e31-c89e-4ae1-aea4-880988d0da0e","ios":"levelo://app?vid=a0636e31-c89e-4ae1-aea4-880988d0da0e"},"vehicle_type_id":"4","last_reported":1744791272,"current_range_meters":8000,"station_id":"ce4bhph2rcd13ifvqhdg","pricing_plan_id":"cebpf4jnsgd1na2vs0mg"},{"bike_id":"9561fdc9-76d8-4435-b681-653932508fed","system_id":"levelo_inurba_marseille","lat":43.29879,"lon":5.39745,"is_reserved":false,"is_disabled":false,"rental_uris":{"android":"levelo://app?vid=9561fdc9-76d8-4435-b681-653932508fed","ios":"levelo://app?vid=9561fdc9-76d8-4435-b681-653932508fed"},"vehicle_type_id":"4","last_reported":1744791272,"current_range_meters":7200,"station_id":"ce4bh0h2rcd13ifvqd50","pricing_plan_id":"cebpf4jnsgd1na2vs0mg"},{"bike_id":"9f64dba0-3982-4db9-beae-6b00969aa4cd","system_id":"levelo_inurba_marseille","lat":43.30959,"lon":5.39041,"is_reserved":false,"is_disabled":false,"rental_uris":{"android":"levelo://app?vid=9f64dba0-3982-4db9-beae-6b00969aa4cd","ios":"levelo://app?vid=9f64dba0-3982-4db9-beae-6b00969aa4cd"},"vehicle_type_id":"4","last_reported":1744791272,"current_range_meters":8000,"station_id":"ce4bgup2rcd13ifvqco0","pricing_plan_id":"cebpf4jnsgd1na2vs0mg"},{"bike_id":"7b9b4628-1a20-4984-8485-64a109f0d4ae","system_id":"levelo_inurba_marseille","lat":43.29267,"lon":5.37631,"is_reserved":false,"is_disabled":false,"rental_uris":{"android":"levelo://app?vid=7b9b4628-1a20-4984-8485-64a109f0d4ae","ios":"levelo://app?vid=7b9b4628-1a20-4984-8485-64a109f0d4ae"},"vehicle_type_id":"4","last_reported":1744791272,"current_range_meters":8000,"station_id":"ce4bgi12rcd13ifvqb80","pricing_plan_id":"cebpf4jnsgd1na2vs0mg"},{"bike_id":"e7c0e1be-7958-4267-aa15-c0fb9dd26871","system_id":"levelo_inurba_marseille","lat":43.2927,"lon":5.36852,"is_reserved":false,"is_disabled":false,"rental_uris":{"android":"levelo://app?vid=e7c0e1be-7958-4267-aa15-c0fb9dd26871","ios":"levelo://app?vid=e7c0e1be-7958-4267-aa15-c0fb9dd26871"},"vehicle_type_id":"4","last_reported":1744791272,"current_range_meters":8400,"station_id":"ce4bhbp2rcd13ifvqesg","pricing_plan_id":"cebpf4jnsgd1na2vs0mg"},{"bike_id":"b7ab99ba-94bb-4274-aca7-e6131d0e5ab1","system_id":"levelo_inurba_marseille","lat":43.241665,"lon":5.364065,"is_reserved":false,"is_disabled":false,"rental_uris":{"android":"levelo://app?vid=b7ab99ba-94bb-4274-aca7-e6131d0e5ab1","ios":"levelo://app?vid=b7ab99ba-94bb-4274-aca7-e6131d0e5ab1"},"vehicle_type_id":"4","last_reported":1744791272,"current_range_meters":8400,"station_id":"cpo36qri1sfpv3e86is0","pricing_plan_id":"cebpf4jnsgd1na2vs0mg"},{"bike_id":"25e230f4-e34c-445f-87cd-877f61101b31","system_id":"levelo_inurba_marseille","lat":43.31238,"lon":5.36854,"is_reserved":false,"is_disabled":false,"rental_uris":{"android":"levelo://app?vid=25e230f4-e34c-445f-87cd-877f61101b31","ios":"levelo://app?vid=25e230f4-e34c-445f-87cd-877f61101b31"},"vehicle_type_id":"4","last_reported":1744791272,"current_range_meters":8400,"station_id":"ce4bgl92rcd13ifvqbq0","pricing_plan_id":"cebpf4jnsgd1na2vs0mg"},{"bike_id":"45c77ecd-980e-4383-ab9a-31be7a98a675","system_id":"levelo_inurba_marseille","lat":43.24076,"lon":5.37742,"is_reserved":false,"is_disabled":false,"rental_uris":{"android":"levelo://app?vid=45c77ecd-980e-4383-ab9a-31be7a98a675","ios":"levelo://app?vid=45c77ecd-980e-4383-ab9a-31be7a98a675"},"vehicle_type_id":"4","last_reported":1744791272,"current_range_meters":8400,"station_id":"ce4bhnp2rcd13ifvqgvg","pricing_plan_id":"cebpf4jnsgd1na2vs0mg"},{"bike_id":"cc019aaa-33a8-42d2-a2d4-ef26fcdd651f","system_id":"levelo_inurba_marseille","lat":43.30818,"lon":5.3732,"is_reserved":false,"is_disabled":false,"rental_uris":{"android":"levelo://app?vid=cc019aaa-33a8-42d2-a2d4-ef26fcdd651f","ios":"levelo://app?vid=cc019aaa-33a8-42d2-a2d4-ef26fcdd651f"},"vehicle_type_id":"4","last_reported":1744791272,"current_range_meters":8800,"station_id":"","pricing_plan_id":"cebpf4jnsgd1na2vs0mg"},{"bike_id":"4cb67eec-0e45-47a9-9453-fa307935ee48","system_id":"levelo_inurba_marseille","lat":43.28159,"lon":5.42642,"is_reserved":false,"is_disabled":false,"rental_uris":{"android":"levelo://app?vid=4cb67eec-0e45-47a9-9453-fa307935ee48","ios":"levelo://app?vid=4cb67eec-0e45-47a9-9453-fa307935ee48"},"vehicle_type_id":"4","last_reported":1744791272,"current_range_meters":8400,"station_id":"ce4bhnh2rcd13ifvqgug","pricing_plan_id":"cebpf4jnsgd1na2vs0mg"},{"bike_id":"78ad6e0e-bd2e-4907-b35a-c0dfee033acf","system_id":"levelo_inurba_marseille","lat":43.26566,"lon":5.39003,"is_reserved":false,"is_disabled":false,"rental_uris":{"android":"levelo://app?vid=78ad6e0e-bd2e-4907-b35a-c0dfee033acf","ios":"levelo://app?vid=78ad6e0e-bd2e-4907-b35a-c0dfee033acf"},"vehicle_type_id":"4","last_reported":1744791272,"current_range_meters":9200,"station_id":"ce4bhe12rcd13ifvqf30","pricing_plan_id":"cebpf4jnsgd1na2vs0mg"},{"bike_id":"cfe682df-d0ce-4143-9cdc-c9c6578e1b0d","system_id":"levelo_inurba_marseille","lat":43.302355,"lon":5.40054,"is_reserved":false,"is_disabled":true,"rental_uris":{"android":"levelo://app?vid=cfe682df-d0ce-4143-9cdc-c9c6578e1b0d","ios":"levelo://app?vid=cfe682df-d0ce-4143-9cdc-c9c6578e1b0d"},"vehicle_type_id":"4","last_reported":1744791272,"current_range_meters":9200,"station_id":"ce4bgvh2rcd13ifvqcs0","pricing_plan_id":"cebpf4jnsgd1na2vs0mg"},{"bike_id":"e5a8463a-5b3f-4a43-961e-7322a50c6233","system_id":"levelo_inurba_marseille","lat":43.30409,"lon":5.4128,"is_reserved":false,"is_disabled":false,"rental_uris":{"android":"levelo://app?vid=e5a8463a-5b3f-4a43-961e-7322a50c6233","ios":"levelo://app?vid=e5a8463a-5b3f-4a43-961e-7322a50c6233"},"vehicle_type_id":"4","last_reported":1744791272,"current_range_meters":9200,"station_id":"ce4bhop2rcd13ifvqh8g","pricing_plan_id":"cebpf4jnsgd1na2vs0mg"},{"bike_id":"73c204fd-7603-4122-959d-874db00a6258","system_id":"levelo_inurba_marseille","lat":43.284206,"lon":5.385524,"is_reserved":false,"is_disabled":false,"rental_uris":{"android":"levelo://app?vid=73c204fd-7603-4122-959d-874db00a6258","ios":"levelo://app?vid=73c204fd-7603-4122-959d-874db00a6258"},"vehicle_type_id":"4","last_reported":1744791272,"current_range_meters":9200,"station_id":"ce4bhlh2rcd13ifvqgig","pricing_plan_id":"cebpf4jnsgd1na2vs0mg"},{"bike_id":"943d835e-e441-49d4-b7f7-4724ffc66162","system_id":"levelo_inurba_marseille","lat":43.24998,"lon":5.38938,"is_reserved":false,"is_disabled":false,"rental_uris":{"android":"levelo://app?vid=943d835e-e441-49d4-b7f7-4724ffc66162","ios":"levelo://app?vid=943d835e-e441-49d4-b7f7-4724ffc66162"},"vehicle_type_id":"4","last_reported":1744791272,"current_range_meters":9200,"station_id":"ce4bhgp2rcd13ifvqfd0","pricing_plan_id":"cebpf4jnsgd1na2vs0mg"},{"bike_id":"3a65632c-120d-4ce3-9161-2ac549b0aad3","system_id":"levelo_inurba_marseille","lat":43.248016,"lon":5.374624,"is_reserved":false,"is_disabled":false,"rental_uris":{"android":"levelo://app?vid=3a65632c-120d-4ce3-9161-2ac549b0aad3","ios":"levelo://app?vid=3a65632c-120d-4ce3-9161-2ac549b0aad3"},"vehicle_type_id":"4","last_reported":1744791272,"current_range_meters":9200,"station_id":"ce4bhgh2rcd13ifvqfb0","pricing_plan_id":"cebpf4jnsgd1na2vs0mg"},{"bike_id":"88459915-6303-4a52-b637-0ef7efe8ee7e","system_id":"levelo_inurba_marseille","lat":43.31359,"lon":5.36722,"is_reserved":false,"is_disabled":false,"rental_uris":{"android":"levelo://app?vid=88459915-6303-4a52-b637-0ef7efe8ee7e","ios":"levelo://app?vid=88459915-6303-4a52-b637-0ef7efe8ee7e"},"vehicle_type_id":"4","last_reported":1744791272,"current_range_meters":9200,"station_id":"ce4bgr92rcd13ifvqc6g","pricing_plan_id":"cebpf4jnsgd1na2vs0mg"},{"bike_id":"376f754b-7bba-4962-babe-b49b1468281c","system_id":"levelo_inurba_marseille","lat":43.30878,"lon":5.40149,"is_reserved":false,"is_disabled":true,"rental_uris":{"android":"levelo://app?vid=376f754b-7bba-4962-babe-b49b1468281c","ios":"levelo://app?vid=376f754b-7bba-4962-babe-b49b1468281c"},"vehicle_type_id":"4","last_reported":1744791272,"current_range_meters":9200,"station_id":"ce4bgvp2rcd13ifvqct0","pricing_plan_id":"cebpf4jnsgd1na2vs0mg"},{"bike_id":"68bb5c2f-fd19-492d-b0bb-5841e6724b4a","system_id":"levelo_inurba_marseille","lat":43.229338,"lon":5.353806,"is_reserved":false,"is_disabled":false,"rental_uris":{"android":"levelo://app?vid=68bb5c2f-fd19-492d-b0bb-5841e6724b4a","ios":"levelo://app?vid=68bb5c2f-fd19-492d-b0bb-5841e6724b4a"},"vehicle_type_id":"4","last_reported":1744791272,"current_range_meters":9600,"station_id":"cpo3532slgdg3j2ikp40","pricing_plan_id":"cebpf4jnsgd1na2vs0mg"},{"bike_id":"b8fc41cd-41c8-4b48-bacc-bbafb8e021c1","system_id":"levelo_inurba_marseille","lat":43.31331,"lon":5.39723,"is_reserved":false,"is_disabled":false,"rental_uris":{"android":"levelo://app?vid=b8fc41cd-41c8-4b48-bacc-bbafb8e021c1","ios":"levelo://app?vid=b8fc41cd-41c8-4b48-bacc-bbafb8e021c1"},"vehicle_type_id":"4","last_reported":1744791272,"current_range_meters":9600,"station_id":"ce4bgvp2rcd13ifvqcu0","pricing_plan_id":"cebpf4jnsgd1na2vs0mg"},{"bike_id":"2797dcdb-c4e1-48b2-82d6-5677d371fa39","system_id":"levelo_inurba_marseille","lat":43.24183,"lon":5.36402,"is_reserved":false,"is_disabled":false,"rental_uris":{"android":"levelo://app?vid=2797dcdb-c4e1-48b2-82d6-5677d371fa39","ios":"levelo://app?vid=2797dcdb-c4e1-48b2-82d6-5677d371fa39"},"vehicle_type_id":"4","last_reported":1744791272,"current_range_meters":9600,"station_id":"cpo36qri1sfpv3e86is0","pricing_plan_id":"cebpf4jnsgd1na2vs0mg"},{"bike_id":"ca9cc8f3-d38f-4670-9faf-2b26cf5d7a50","system_id":"levelo_inurba_marseille","lat":43.25733,"lon":5.41104,"is_reserved":false,"is_disabled":false,"rental_uris":{"android":"levelo://app?vid=ca9cc8f3-d38f-4670-9faf-2b26cf5d7a50","ios":"levelo://app?vid=ca9cc8f3-d38f-4670-9faf-2b26cf5d7a50"},"vehicle_type_id":"4","last_reported":1744791272,"current_range_meters":9600,"station_id":"ce4bhkp2rcd13ifvqgd0","pricing_plan_id":"cebpf4jnsgd1na2vs0mg"},{"bike_id":"a258853b-4042-487e-ab9f-ab82b0c24a5f","system_id":"levelo_inurba_marseille","lat":43.30402,"lon":5.3811,"is_reserved":false,"is_disabled":false,"rental_uris":{"android":"levelo://app?vid=a258853b-4042-487e-ab9f-ab82b0c24a5f","ios":"levelo://app?vid=a258853b-4042-487e-ab9f-ab82b0c24a5f"},"vehicle_type_id":"4","last_reported":1744791272,"current_range_meters":9600,"station_id":"","pricing_plan_id":"cebpf4jnsgd1na2vs0mg"},{"bike_id":"dd8f0ff9-117f-4fd9-bc7c-ef5d85c7f322","system_id":"levelo_inurba_marseille","lat":43.32006,"lon":5.3812,"is_reserved":false,"is_disabled":false,"rental_uris":{"android":"levelo://app?vid=dd8f0ff9-117f-4fd9-bc7c-ef5d85c7f322","ios":"levelo://app?vid=dd8f0ff9-117f-4fd9-bc7c-ef5d85c7f322"},"vehicle_type_id":"4","last_reported":1744791272,"current_range_meters":9600,"station_id":"ce4bhr12rcd13ifvqhpg","pricing_plan_id":"cebpf4jnsgd1na2vs0mg"},{"bike_id":"03c8cee0-a6a5-48f4-b783-f14451736b24","system_id":"levelo_inurba_marseille","lat":43.27127,"lon":5.41057,"is_reserved":false,"is_disabled":false,"rental_uris":{"android":"levelo://app?vid=03c8cee0-a6a5-48f4-b783-f14451736b24","ios":"levelo://app?vid=03c8cee0-a6a5-48f4-b783-f14451736b24"},"vehicle_type_id":"4","last_reported":1744791272,"current_range_meters":9600,"station_id":"","pricing_plan_id":"cebpf4jnsgd1na2vs0mg"},{"bike_id":"a80e86d7-b659-4905-99ee-6dd9cdeba17e","system_id":"levelo_inurba_marseille","lat":43.31989,"lon":5.38161,"is_reserved":false,"is_disabled":false,"rental_uris":{"android":"levelo://app?vid=a80e86d7-b659-4905-99ee-6dd9cdeba17e","ios":"levelo://app?vid=a80e86d7-b659-4905-99ee-6dd9cdeba17e"},"vehicle_type_id":"4","last_reported":1744791272,"current_range_meters":9600,"station_id":"ce4bhr12rcd13ifvqhpg","pricing_plan_id":"cebpf4jnsgd1na2vs0mg"},{"bike_id":"a4b5d8e9-a03a-42b0-80df-d51521de0235","system_id":"levelo_inurba_marseille","lat":43.31342,"lon":5.36714,"is_reserved":false,"is_disabled":false,"rental_uris":{"android":"levelo://app?vid=a4b5d8e9-a03a-42b0-80df-d51521de0235","ios":"levelo://app?vid=a4b5d8e9-a03a-42b0-80df-d51521de0235"},"vehicle_type_id":"4","last_reported":1744791272,"current_range_meters":10000,"station_id":"ce4bgr92rcd13ifvqc6g","pricing_plan_id":"cebpf4jnsgd1na2vs0mg"},{"bike_id":"982b1a86-cd40-472c-8020-39a4110d0e44","system_id":"levelo_inurba_marseille","lat":43.310837,"lon":5.383497,"is_reserved":false,"is_disabled":true,"rental_uris":{"android":"levelo://app?vid=982b1a86-cd40-472c-8020-39a4110d0e44","ios":"levelo://app?vid=982b1a86-cd40-472c-8020-39a4110d0e44"},"vehicle_type_id":"4","last_reported":1744791272,"current_range_meters":10000,"station_id":"ce4bgv92rcd13ifvqcr0","pricing_plan_id":"cebpf4jnsgd1na2vs0mg"},{"bike_id":"bde0ea9c-fb2c-465e-9cc3-dd0839ed10b7","system_id":"levelo_inurba_marseille","lat":43.297,"lon":5.36612,"is_reserved":false,"is_disabled":false,"rental_uris":{"android":"levelo://app?vid=bde0ea9c-fb2c-465e-9cc3-dd0839ed10b7","ios":"levelo://app?vid=bde0ea9c-fb2c-465e-9cc3-dd0839ed10b7"},"vehicle_type_id":"4","last_reported":1744791272,"current_range_meters":9600,"station_id":"ce4bgn12rcd13ifvqbt0","pricing_plan_id":"cebpf4jnsgd1na2vs0mg"},{"bike_id":"a8132d22-4ce6-4e24-9e2c-e02042e4181b","system_id":"levelo_inurba_marseille","lat":43.21735,"lon":5.34603,"is_reserved":false,"is_disabled":false,"rental_uris":{"android":"levelo://app?vid=a8132d22-4ce6-4e24-9e2c-e02042e4181b","ios":"levelo://app?vid=a8132d22-4ce6-4e24-9e2c-e02042e4181b"},"vehicle_type_id":"4","last_reported":1744791272,"current_range_meters":10800,"station_id":"st_cvj6r9ubvosntc0bgbag","pricing_plan_id":"cebpf4jnsgd1na2vs0mg"},{"bike_id":"45c6b552-68fd-454d-84d3-cf79221aaee4","system_id":"levelo_inurba_marseille","lat":43.29865,"lon":5.40887,"is_reserved":false,"is_disabled":false,"rental_uris":{"android":"levelo://app?vid=45c6b552-68fd-454d-84d3-cf79221aaee4","ios":"levelo://app?vid=45c6b552-68fd-454d-84d3-cf79221aaee4"},"vehicle_type_id":"4","last_reported":1744791272,"current_range_meters":10800,"station_id":"","pricing_plan_id":"cebpf4jnsgd1na2vs0mg"},{"bike_id":"1c0c17d4-38c5-4a1c-8a19-a752fa5d90ed","system_id":"levelo_inurba_marseille","lat":43.23181,"lon":5.39996,"is_reserved":false,"is_disabled":false,"rental_uris":{"android":"levelo://app?vid=1c0c17d4-38c5-4a1c-8a19-a752fa5d90ed","ios":"levelo://app?vid=1c0c17d4-38c5-4a1c-8a19-a752fa5d90ed"},"vehicle_type_id":"4","last_reported":1744791272,"current_range_meters":10800,"station_id":"ce4bhn12rcd13ifvqgqg","pricing_plan_id":"cebpf4jnsgd1na2vs0mg"},{"bike_id":"ecc26774-7f80-4834-883f-3a8990a5fcbe","system_id":"levelo_inurba_marseille","lat":43.23977,"lon":5.36617,"is_reserved":false,"is_disabled":false,"rental_uris":{"android":"levelo://app?vid=ecc26774-7f80-4834-883f-3a8990a5fcbe","ios":"levelo://app?vid=ecc26774-7f80-4834-883f-3a8990a5fcbe"},"vehicle_type_id":"4","last_reported":1744791272,"current_range_meters":11200,"station_id":"ce4bhi12rcd13ifvqfp0","pricing_plan_id":"cebpf4jnsgd1na2vs0mg"},{"bike_id":"7eacb872-0584-4b06-8fad-feb612d3799a","system_id":"levelo_inurba_marseille","lat":43.29692,"lon":5.38121,"is_reserved":false,"is_disabled":false,"rental_uris":{"android":"levelo://app?vid=7eacb872-0584-4b06-8fad-feb612d3799a","ios":"levelo://app?vid=7eacb872-0584-4b06-8fad-feb612d3799a"},"vehicle_type_id":"4","last_reported":1744791272,"current_range_meters":11200,"station_id":"","pricing_plan_id":"cebpf4jnsgd1na2vs0mg"},{"bike_id":"46b9d12b-d4e5-481e-8406-452fd0e34662","system_id":"levelo_inurba_marseille","lat":43.31339,"lon":5.39686,"is_reserved":false,"is_disabled":false,"rental_uris":{"android":"levelo://app?vid=46b9d12b-d4e5-481e-8406-452fd0e34662","ios":"levelo://app?vid=46b9d12b-d4e5-481e-8406-452fd0e34662"},"vehicle_type_id":"4","last_reported":1744791272,"current_range_meters":11200,"station_id":"ce4bgvp2rcd13ifvqcu0","pricing_plan_id":"cebpf4jnsgd1na2vs0mg"},{"bike_id":"c0329216-12e6-4d65-a447-d5cff99ee33d","system_id":"levelo_inurba_marseille","lat":43.29033,"lon":5.37566,"is_reserved":false,"is_disabled":false,"rental_uris":{"android":"levelo://app?vid=c0329216-12e6-4d65-a447-d5cff99ee33d","ios":"levelo://app?vid=c0329216-12e6-4d65-a447-d5cff99ee33d"},"vehicle_type_id":"4","last_reported":1744791272,"current_range_meters":11600,"station_id":"ce4bh692rcd13ifvqe90","pricing_plan_id":"cebpf4jnsgd1na2vs0mg"},{"bike_id":"ff162f2a-f6f4-4605-8b55-1799935229e9","system_id":"levelo_inurba_marseille","lat":43.29365,"lon":5.37832,"is_reserved":false,"is_disabled":false,"rental_uris":{"android":"levelo://app?vid=ff162f2a-f6f4-4605-8b55-1799935229e9","ios":"levelo://app?vid=ff162f2a-f6f4-4605-8b55-1799935229e9"},"vehicle_type_id":"4","last_reported":1744791272,"current_range_meters":11200,"station_id":"ce4bgjh2rcd13ifvqbf0","pricing_plan_id":"cebpf4jnsgd1na2vs0mg"},{"bike_id":"2d8e7909-426d-40fe-90db-bd8eae028fde","system_id":"levelo_inurba_marseille","lat":43.30457,"lon":5.37911,"is_reserved":false,"is_disabled":false,"rental_uris":{"android":"levelo://app?vid=2d8e7909-426d-40fe-90db-bd8eae028fde","ios":"levelo://app?vid=2d8e7909-426d-40fe-90db-bd8eae028fde"},"vehicle_type_id":"4","last_reported":1744791272,"current_range_meters":11600,"station_id":"ce4bgup2rcd13ifvqcn0","pricing_plan_id":"cebpf4jnsgd1na2vs0mg"},{"bike_id":"eeec4aa3-87e9-4496-be2e-938ceb91cf85","system_id":"levelo_inurba_marseille","lat":43.29308,"lon":5.37222,"is_reserved":false,"is_disabled":true,"rental_uris":{"android":"levelo://app?vid=eeec4aa3-87e9-4496-be2e-938ceb91cf85","ios":"levelo://app?vid=eeec4aa3-87e9-4496-be2e-938ceb91cf85"},"vehicle_type_id":"4","last_reported":1744791272,"current_range_meters":12000,"station_id":"ce4bgh92rcd13ifvqb40","pricing_plan_id":"cebpf4jnsgd1na2vs0mg"},{"bike_id":"9eb4d54a-8af3-4541-86c3-0155f2ba33fd","system_id":"levelo_inurba_marseille","lat":43.29598,"lon":5.39964,"is_reserved":false,"is_disabled":false,"rental_uris":{"android":"levelo://app?vid=9eb4d54a-8af3-4541-86c3-0155f2ba33fd","ios":"levelo://app?vid=9eb4d54a-8af3-4541-86c3-0155f2ba33fd"},"vehicle_type_id":"4","last_reported":1744791272,"current_range_meters":11600,"station_id":"ce4bh312rcd13ifvqdj0","pricing_plan_id":"cebpf4jnsgd1na2vs0mg"},{"bike_id":"4aef0fa6-a0da-4fa2-9099-9fa1ba81c16a","system_id":"levelo_inurba_marseille","lat":43.28163,"lon":5.4041,"is_reserved":false,"is_disabled":false,"rental_uris":{"android":"levelo://app?vid=4aef0fa6-a0da-4fa2-9099-9fa1ba81c16a","ios":"levelo://app?vid=4aef0fa6-a0da-4fa2-9099-9fa1ba81c16a"},"vehicle_type_id":"4","last_reported":1744791272,"current_range_meters":12000,"station_id":"","pricing_plan_id":"cebpf4jnsgd1na2vs0mg"},{"bike_id":"7f79af31-9be8-448c-8299-5721e00b8a6e","system_id":"levelo_inurba_marseille","lat":43.279059,"lon":5.38015,"is_reserved":false,"is_disabled":false,"rental_uris":{"android":"levelo://app?vid=7f79af31-9be8-448c-8299-5721e00b8a6e","ios":"levelo://app?vid=7f79af31-9be8-448c-8299-5721e00b8a6e"},"vehicle_type_id":"4","last_reported":1744791272,"current_range_meters":12000,"station_id":"","pricing_plan_id":"cebpf4jnsgd1na2vs0mg"},{"bike_id":"9df4d04c-49c0-4cc9-90fb-8c204c2453c2","system_id":"levelo_inurba_marseille","lat":43.25932,"lon":5.40911,"is_reserved":false,"is_disabled":false,"rental_uris":{"android":"levelo://app?vid=9df4d04c-49c0-4cc9-90fb-8c204c2453c2","ios":"levelo://app?vid=9df4d04c-49c0-4cc9-90fb-8c204c2453c2"},"vehicle_type_id":"4","last_reported":1744791272,"current_range_meters":12000,"station_id":"ce4bhm92rcd13ifvqglg","pricing_plan_id":"cebpf4jnsgd1na2vs0mg"},{"bike_id":"ee465a00-80df-4308-a2c3-b5ea33f92667","system_id":"levelo_inurba_marseille","lat":43.32102,"lon":5.36779,"is_reserved":false,"is_disabled":false,"rental_uris":{"android":"levelo://app?vid=ee465a00-80df-4308-a2c3-b5ea33f92667","ios":"levelo://app?vid=ee465a00-80df-4308-a2c3-b5ea33f92667"},"vehicle_type_id":"4","last_reported":1744791272,"current_range_meters":12000,"station_id":"ce4bhrh2rcd13ifvqhug","pricing_plan_id":"cebpf4jnsgd1na2vs0mg"},{"bike_id":"05b4d3d6-92ca-4ec1-aced-d5b108c4b335","system_id":"levelo_inurba_marseille","lat":43.31118,"lon":5.37779,"is_reserved":false,"is_disabled":false,"rental_uris":{"android":"levelo://app?vid=05b4d3d6-92ca-4ec1-aced-d5b108c4b335","ios":"levelo://app?vid=05b4d3d6-92ca-4ec1-aced-d5b108c4b335"},"vehicle_type_id":"4","last_reported":1744791272,"current_range_meters":12000,"station_id":"ce4bgt92rcd13ifvqcg0","pricing_plan_id":"cebpf4jnsgd1na2vs0mg"},{"bike_id":"fa746fd7-99c6-4f7e-b471-5ec5fd0313cc","system_id":"levelo_inurba_marseille","lat":43.291,"lon":5.38135,"is_reserved":false,"is_disabled":false,"rental_uris":{"android":"levelo://app?vid=fa746fd7-99c6-4f7e-b471-5ec5fd0313cc","ios":"levelo://app?vid=fa746fd7-99c6-4f7e-b471-5ec5fd0313cc"},"vehicle_type_id":"4","last_reported":1744791272,"current_range_meters":12000,"station_id":"ce4bh512rcd13ifvqe2g","pricing_plan_id":"cebpf4jnsgd1na2vs0mg"},{"bike_id":"ebcce00b-fee3-4269-a970-c52888f98b20","system_id":"levelo_inurba_marseille","lat":43.3122,"lon":5.36851,"is_reserved":false,"is_disabled":false,"rental_uris":{"android":"levelo://app?vid=ebcce00b-fee3-4269-a970-c52888f98b20","ios":"levelo://app?vid=ebcce00b-fee3-4269-a970-c52888f98b20"},"vehicle_type_id":"4","last_reported":1744791272,"current_range_meters":12000,"station_id":"ce4bgl92rcd13ifvqbq0","pricing_plan_id":"cebpf4jnsgd1na2vs0mg"},{"bike_id":"561936ef-54e4-4d15-b2a7-dfd018b9e12e","system_id":"levelo_inurba_marseille","lat":43.298273,"lon":5.402598,"is_reserved":false,"is_disabled":false,"rental_uris":{"android":"levelo://app?vid=561936ef-54e4-4d15-b2a7-dfd018b9e12e","ios":"levelo://app?vid=561936ef-54e4-4d15-b2a7-dfd018b9e12e"},"vehicle_type_id":"4","last_reported":1744791272,"current_range_meters":12400,"station_id":"","pricing_plan_id":"cebpf4jnsgd1na2vs0mg"},{"bike_id":"b5d978c8-0bb0-45d7-be49-b92cba244dc5","system_id":"levelo_inurba_marseille","lat":43.293,"lon":5.37433,"is_reserved":false,"is_disabled":false,"rental_uris":{"android":"levelo://app?vid=b5d978c8-0bb0-45d7-be49-b92cba244dc5","ios":"levelo://app?vid=b5d978c8-0bb0-45d7-be49-b92cba244dc5"},"vehicle_type_id":"4","last_reported":1744791272,"current_range_meters":12400,"station_id":"ce4bgi12rcd13ifvqb70","pricing_plan_id":"cebpf4jnsgd1na2vs0mg"},{"bike_id":"e8412f40-a8dc-44ee-bbc2-e01b1cf2ab9a","system_id":"levelo_inurba_marseille","lat":43.278283,"lon":5.392045,"is_reserved":false,"is_disabled":false,"rental_uris":{"android":"levelo://app?vid=e8412f40-a8dc-44ee-bbc2-e01b1cf2ab9a","ios":"levelo://app?vid=e8412f40-a8dc-44ee-bbc2-e01b1cf2ab9a"},"vehicle_type_id":"4","last_reported":1744791272,"current_range_meters":12800,"station_id":"ce4bhjp2rcd13ifvqga0","pricing_plan_id":"cebpf4jnsgd1na2vs0mg"},{"bike_id":"c04cf1c1-4587-4d45-920a-1bc00fc1ce2d","system_id":"levelo_inurba_marseille","lat":43.295567,"lon":5.375027,"is_reserved":false,"is_disabled":false,"rental_uris":{"android":"levelo://app?vid=c04cf1c1-4587-4d45-920a-1bc00fc1ce2d","ios":"levelo://app?vid=c04cf1c1-4587-4d45-920a-1bc00fc1ce2d"},"vehicle_type_id":"4","last_reported":1744791272,"current_range_meters":12400,"station_id":"ce4bgv12rcd13ifvqcp0","pricing_plan_id":"cebpf4jnsgd1na2vs0mg"},{"bike_id":"ce86423c-7fda-4347-b51e-6014b639a5a1","system_id":"levelo_inurba_marseille","lat":43.31078,"lon":5.38364,"is_reserved":false,"is_disabled":false,"rental_uris":{"android":"levelo://app?vid=ce86423c-7fda-4347-b51e-6014b639a5a1","ios":"levelo://app?vid=ce86423c-7fda-4347-b51e-6014b639a5a1"},"vehicle_type_id":"4","last_reported":1744791272,"current_range_meters":13600,"station_id":"ce4bgv92rcd13ifvqcr0","pricing_plan_id":"cebpf4jnsgd1na2vs0mg"},{"bike_id":"08665e19-be9b-4b06-a7d4-30f714f1faad","system_id":"levelo_inurba_marseille","lat":43.25736,"lon":5.41111,"is_reserved":false,"is_disabled":false,"rental_uris":{"android":"levelo://app?vid=08665e19-be9b-4b06-a7d4-30f714f1faad","ios":"levelo://app?vid=08665e19-be9b-4b06-a7d4-30f714f1faad"},"vehicle_type_id":"4","last_reported":1744791272,"current_range_meters":14000,"station_id":"ce4bhkp2rcd13ifvqgd0","pricing_plan_id":"cebpf4jnsgd1na2vs0mg"},{"bike_id":"6f23923f-fc67-460a-b0b8-5119c016d5b0","system_id":"levelo_inurba_marseille","lat":43.26952,"lon":5.38961,"is_reserved":false,"is_disabled":true,"rental_uris":{"android":"levelo://app?vid=6f23923f-fc67-460a-b0b8-5119c016d5b0","ios":"levelo://app?vid=6f23923f-fc67-460a-b0b8-5119c016d5b0"},"vehicle_type_id":"4","last_reported":1744791272,"current_range_meters":14000,"station_id":"ce4bhhh2rcd13ifvqfl0","pricing_plan_id":"cebpf4jnsgd1na2vs0mg"},{"bike_id":"1a12f76f-c4c8-4232-81ce-882565aac43f","system_id":"levelo_inurba_marseille","lat":43.26686,"lon":5.38266,"is_reserved":false,"is_disabled":false,"rental_uris":{"android":"levelo://app?vid=1a12f76f-c4c8-4232-81ce-882565aac43f","ios":"levelo://app?vid=1a12f76f-c4c8-4232-81ce-882565aac43f"},"vehicle_type_id":"4","last_reported":1744791272,"current_range_meters":14400,"station_id":"ce4bhg92rcd13ifvqf90","pricing_plan_id":"cebpf4jnsgd1na2vs0mg"},{"bike_id":"834ec9e1-9d50-4bee-85ae-d1db335c55e5","system_id":"levelo_inurba_marseille","lat":43.31831,"lon":5.36823,"is_reserved":false,"is_disabled":false,"rental_uris":{"android":"levelo://app?vid=834ec9e1-9d50-4bee-85ae-d1db335c55e5","ios":"levelo://app?vid=834ec9e1-9d50-4bee-85ae-d1db335c55e5"},"vehicle_type_id":"4","last_reported":1744791272,"current_range_meters":14400,"station_id":"","pricing_plan_id":"cebpf4jnsgd1na2vs0mg"},{"bike_id":"3c6c4dbf-315a-4c66-ad0c-6887441540f4","system_id":"levelo_inurba_marseille","lat":43.2728,"lon":5.39107,"is_reserved":false,"is_disabled":false,"rental_uris":{"android":"levelo://app?vid=3c6c4dbf-315a-4c66-ad0c-6887441540f4","ios":"levelo://app?vid=3c6c4dbf-315a-4c66-ad0c-6887441540f4"},"vehicle_type_id":"4","last_reported":1744791272,"current_range_meters":14400,"station_id":"ce4bhgp2rcd13ifvqfe0","pricing_plan_id":"cebpf4jnsgd1na2vs0mg"},{"bike_id":"15839d76-0879-42d7-9bf8-b60f30413855","system_id":"levelo_inurba_marseille","lat":43.29267,"lon":5.36838,"is_reserved":false,"is_disabled":true,"rental_uris":{"android":"levelo://app?vid=15839d76-0879-42d7-9bf8-b60f30413855","ios":"levelo://app?vid=15839d76-0879-42d7-9bf8-b60f30413855"},"vehicle_type_id":"4","last_reported":1744791272,"current_range_meters":14400,"station_id":"ce4bhbp2rcd13ifvqesg","pricing_plan_id":"cebpf4jnsgd1na2vs0mg"},{"bike_id":"c684782e-1e86-4dc1-83a7-b6fb56f2da6c","system_id":"levelo_inurba_marseille","lat":43.303068,"lon":5.369004,"is_reserved":false,"is_disabled":false,"rental_uris":{"android":"levelo://app?vid=c684782e-1e86-4dc1-83a7-b6fb56f2da6c","ios":"levelo://app?vid=c684782e-1e86-4dc1-83a7-b6fb56f2da6c"},"vehicle_type_id":"4","last_reported":1744791272,"current_range_meters":14800,"station_id":"ce4bgqh2rcd13ifvqc5g","pricing_plan_id":"cebpf4jnsgd1na2vs0mg"},{"bike_id":"986a349a-ce2e-4c4e-9cec-cb2229ac855f","system_id":"levelo_inurba_marseille","lat":43.31312,"lon":5.37531,"is_reserved":false,"is_disabled":false,"rental_uris":{"android":"levelo://app?vid=986a349a-ce2e-4c4e-9cec-cb2229ac855f","ios":"levelo://app?vid=986a349a-ce2e-4c4e-9cec-cb2229ac855f"},"vehicle_type_id":"4","last_reported":1744791272,"current_range_meters":15200,"station_id":"","pricing_plan_id":"cebpf4jnsgd1na2vs0mg"},{"bike_id":"4e0b610a-6f3a-4dda-a6be-02dd48ce4bef","system_id":"levelo_inurba_marseille","lat":43.3134,"lon":5.36726,"is_reserved":false,"is_disabled":false,"rental_uris":{"android":"levelo://app?vid=4e0b610a-6f3a-4dda-a6be-02dd48ce4bef","ios":"levelo://app?vid=4e0b610a-6f3a-4dda-a6be-02dd48ce4bef"},"vehicle_type_id":"4","last_reported":1744791272,"current_range_meters":15200,"station_id":"ce4bgr92rcd13ifvqc6g","pricing_plan_id":"cebpf4jnsgd1na2vs0mg"},{"bike_id":"4c27a0ed-b645-44a5-b4f2-e85eeb89e041","system_id":"levelo_inurba_marseille","lat":43.27565,"lon":5.38406,"is_reserved":false,"is_disabled":false,"rental_uris":{"android":"levelo://app?vid=4c27a0ed-b645-44a5-b4f2-e85eeb89e041","ios":"levelo://app?vid=4c27a0ed-b645-44a5-b4f2-e85eeb89e041"},"vehicle_type_id":"4","last_reported":1744791272,"current_range_meters":15200,"station_id":"ce4bhh92rcd13ifvqfi0","pricing_plan_id":"cebpf4jnsgd1na2vs0mg"},{"bike_id":"c929c5b3-6eea-44d1-bbe4-5aae46bb3975","system_id":"levelo_inurba_marseille","lat":43.27207,"lon":5.39183,"is_reserved":false,"is_disabled":false,"rental_uris":{"android":"levelo://app?vid=c929c5b3-6eea-44d1-bbe4-5aae46bb3975","ios":"levelo://app?vid=c929c5b3-6eea-44d1-bbe4-5aae46bb3975"},"vehicle_type_id":"4","last_reported":1744791272,"current_range_meters":15200,"station_id":"ce4bhhp2rcd13ifvqfm0","pricing_plan_id":"cebpf4jnsgd1na2vs0mg"},{"bike_id":"dec115e2-f7d1-40e4-9478-af5096d84b5c","system_id":"levelo_inurba_marseille","lat":43.29291,"lon":5.37421,"is_reserved":false,"is_disabled":false,"rental_uris":{"android":"levelo://app?vid=dec115e2-f7d1-40e4-9478-af5096d84b5c","ios":"levelo://app?vid=dec115e2-f7d1-40e4-9478-af5096d84b5c"},"vehicle_type_id":"4","last_reported":1744791272,"current_range_meters":15200,"station_id":"ce4bgi12rcd13ifvqb70","pricing_plan_id":"cebpf4jnsgd1na2vs0mg"},{"bike_id":"4c0ede51-6b22-44f8-8575-b86906a20779","system_id":"levelo_inurba_marseille","lat":43.21757,"lon":5.34588,"is_reserved":false,"is_disabled":false,"rental_uris":{"android":"levelo://app?vid=4c0ede51-6b22-44f8-8575-b86906a20779","ios":"levelo://app?vid=4c0ede51-6b22-44f8-8575-b86906a20779"},"vehicle_type_id":"4","last_reported":1744791272,"current_range_meters":16000,"station_id":"st_cvj6r9ubvosntc0bgbag","pricing_plan_id":"cebpf4jnsgd1na2vs0mg"},{"bike_id":"4328369a-71e3-42f0-af9b-b3d103933d00","system_id":"levelo_inurba_marseille","lat":43.33597,"lon":5.40997,"is_reserved":false,"is_disabled":false,"rental_uris":{"android":"levelo://app?vid=4328369a-71e3-42f0-af9b-b3d103933d00","ios":"levelo://app?vid=4328369a-71e3-42f0-af9b-b3d103933d00"},"vehicle_type_id":"4","last_reported":1744791272,"current_range_meters":16000,"station_id":"ce4bhqh2rcd13ifvqhmg","pricing_plan_id":"cebpf4jnsgd1na2vs0mg"},{"bike_id":"af55dfd5-432e-48e9-a027-fa240d8a523d","system_id":"levelo_inurba_marseille","lat":43.27215,"lon":5.39177,"is_reserved":false,"is_disabled":false,"rental_uris":{"android":"levelo://app?vid=af55dfd5-432e-48e9-a027-fa240d8a523d","ios":"levelo://app?vid=af55dfd5-432e-48e9-a027-fa240d8a523d"},"vehicle_type_id":"4","last_reported":1744791272,"current_range_meters":16000,"station_id":"ce4bhhp2rcd13ifvqfm0","pricing_plan_id":"cebpf4jnsgd1na2vs0mg"},{"bike_id":"90aab251-1ff9-4010-ba90-86de6b1ffc35","system_id":"levelo_inurba_marseille","lat":43.23161,"lon":5.43709,"is_reserved":false,"is_disabled":false,"rental_uris":{"android":"levelo://app?vid=90aab251-1ff9-4010-ba90-86de6b1ffc35","ios":"levelo://app?vid=90aab251-1ff9-4010-ba90-86de6b1ffc35"},"vehicle_type_id":"4","last_reported":1744791272,"current_range_meters":16000,"station_id":"ce4bhmp2rcd13ifvqgog","pricing_plan_id":"cebpf4jnsgd1na2vs0mg"},{"bike_id":"0b3927f3-0c75-444e-8f1c-7411096ba871","system_id":"levelo_inurba_marseille","lat":43.33606,"lon":5.41033,"is_reserved":false,"is_disabled":false,"rental_uris":{"android":"levelo://app?vid=0b3927f3-0c75-444e-8f1c-7411096ba871","ios":"levelo://app?vid=0b3927f3-0c75-444e-8f1c-7411096ba871"},"vehicle_type_id":"4","last_reported":1744791272,"current_range_meters":16400,"station_id":"ce4bhqh2rcd13ifvqhmg","pricing_plan_id":"cebpf4jnsgd1na2vs0mg"},{"bike_id":"dda27a58-e2ca-4fce-a851-41cf6185682c","system_id":"levelo_inurba_marseille","lat":43.30283,"lon":5.377,"is_reserved":false,"is_disabled":false,"rental_uris":{"android":"levelo://app?vid=dda27a58-e2ca-4fce-a851-41cf6185682c","ios":"levelo://app?vid=dda27a58-e2ca-4fce-a851-41cf6185682c"},"vehicle_type_id":"4","last_reported":1744791272,"current_range_meters":16400,"station_id":"ce4bguh2rcd13ifvqcj0","pricing_plan_id":"cebpf4jnsgd1na2vs0mg"},{"bike_id":"6bf5a380-400e-4cd6-bc1e-356afac9ee45","system_id":"levelo_inurba_marseille","lat":43.241636,"lon":5.363998,"is_reserved":false,"is_disabled":false,"rental_uris":{"android":"levelo://app?vid=6bf5a380-400e-4cd6-bc1e-356afac9ee45","ios":"levelo://app?vid=6bf5a380-400e-4cd6-bc1e-356afac9ee45"},"vehicle_type_id":"4","last_reported":1744791272,"current_range_meters":16400,"station_id":"cpo36qri1sfpv3e86is0","pricing_plan_id":"cebpf4jnsgd1na2vs0mg"},{"bike_id":"6c103f9f-c959-46ad-a2e8-e44f9660c68e","system_id":"levelo_inurba_marseille","lat":43.21213,"lon":5.35062,"is_reserved":false,"is_disabled":false,"rental_uris":{"android":"levelo://app?vid=6c103f9f-c959-46ad-a2e8-e44f9660c68e","ios":"levelo://app?vid=6c103f9f-c959-46ad-a2e8-e44f9660c68e"},"vehicle_type_id":"4","last_reported":1744791272,"current_range_meters":16400,"station_id":"st_cvj6sg6p6f1abm77japg","pricing_plan_id":"cebpf4jnsgd1na2vs0mg"},{"bike_id":"e671135f-6e8d-4f7d-b793-34acac25fdfc","system_id":"levelo_inurba_marseille","lat":43.32365,"lon":5.36763,"is_reserved":false,"is_disabled":false,"rental_uris":{"android":"levelo://app?vid=e671135f-6e8d-4f7d-b793-34acac25fdfc","ios":"levelo://app?vid=e671135f-6e8d-4f7d-b793-34acac25fdfc"},"vehicle_type_id":"4","last_reported":1744791272,"current_range_meters":16400,"station_id":"ce4bhsh2rcd13ifvqi2g","pricing_plan_id":"cebpf4jnsgd1na2vs0mg"},{"bike_id":"2be2e8c5-ff49-4a5a-963a-4bbeabb11512","system_id":"levelo_inurba_marseille","lat":43.30757,"lon":5.42428,"is_reserved":false,"is_disabled":false,"rental_uris":{"android":"levelo://app?vid=2be2e8c5-ff49-4a5a-963a-4bbeabb11512","ios":"levelo://app?vid=2be2e8c5-ff49-4a5a-963a-4bbeabb11512"},"vehicle_type_id":"4","last_reported":1744791272,"current_range_meters":16400,"station_id":"st_cvj6ca6bvosntc0bfgr0","pricing_plan_id":"cebpf4jnsgd1na2vs0mg"},{"bike_id":"fa8b5d88-c56b-4501-99c1-1b5a6dfd1f66","system_id":"levelo_inurba_marseille","lat":43.21238,"lon":5.35064,"is_reserved":false,"is_disabled":false,"rental_uris":{"android":"levelo://app?vid=fa8b5d88-c56b-4501-99c1-1b5a6dfd1f66","ios":"levelo://app?vid=fa8b5d88-c56b-4501-99c1-1b5a6dfd1f66"},"vehicle_type_id":"4","last_reported":1744791272,"current_range_meters":16400,"station_id":"st_cvj6sg6p6f1abm77japg","pricing_plan_id":"cebpf4jnsgd1na2vs0mg"},{"bike_id":"e3670510-219d-4ce8-90e9-deef08906868","system_id":"levelo_inurba_marseille","lat":43.32011,"lon":5.38127,"is_reserved":false,"is_disabled":false,"rental_uris":{"android":"levelo://app?vid=e3670510-219d-4ce8-90e9-deef08906868","ios":"levelo://app?vid=e3670510-219d-4ce8-90e9-deef08906868"},"vehicle_type_id":"4","last_reported":1744791272,"current_range_meters":16800,"station_id":"ce4bhr12rcd13ifvqhpg","pricing_plan_id":"cebpf4jnsgd1na2vs0mg"},{"bike_id":"716e0994-3af9-4373-bc31-d08b578d6ca5","system_id":"levelo_inurba_marseille","lat":43.31346,"lon":5.3672,"is_reserved":false,"is_disabled":false,"rental_uris":{"android":"levelo://app?vid=716e0994-3af9-4373-bc31-d08b578d6ca5","ios":"levelo://app?vid=716e0994-3af9-4373-bc31-d08b578d6ca5"},"vehicle_type_id":"4","last_reported":1744791272,"current_range_meters":16800,"station_id":"ce4bgr92rcd13ifvqc6g","pricing_plan_id":"cebpf4jnsgd1na2vs0mg"},{"bike_id":"37af77cd-da0b-4d48-87c4-b37ee2687136","system_id":"levelo_inurba_marseille","lat":43.28882,"lon":5.3594,"is_reserved":false,"is_disabled":false,"rental_uris":{"android":"levelo://app?vid=37af77cd-da0b-4d48-87c4-b37ee2687136","ios":"levelo://app?vid=37af77cd-da0b-4d48-87c4-b37ee2687136"},"vehicle_type_id":"4","last_reported":1744791272,"current_range_meters":16800,"station_id":"","pricing_plan_id":"cebpf4jnsgd1na2vs0mg"},{"bike_id":"f8205049-59cf-4c67-95d9-2ae60dd41d42","system_id":"levelo_inurba_marseille","lat":43.2606,"lon":5.39391,"is_reserved":false,"is_disabled":false,"rental_uris":{"android":"levelo://app?vid=f8205049-59cf-4c67-95d9-2ae60dd41d42","ios":"levelo://app?vid=f8205049-59cf-4c67-95d9-2ae60dd41d42"},"vehicle_type_id":"4","last_reported":1744791272,"current_range_meters":16800,"station_id":"ce4bhh92rcd13ifvqfj0","pricing_plan_id":"cebpf4jnsgd1na2vs0mg"},{"bike_id":"4c8cbdc5-71b3-41aa-a284-85637aeb8c3e","system_id":"levelo_inurba_marseille","lat":43.25734,"lon":5.41096,"is_reserved":false,"is_disabled":false,"rental_uris":{"android":"levelo://app?vid=4c8cbdc5-71b3-41aa-a284-85637aeb8c3e","ios":"levelo://app?vid=4c8cbdc5-71b3-41aa-a284-85637aeb8c3e"},"vehicle_type_id":"4","last_reported":1744791272,"current_range_meters":16800,"station_id":"ce4bhkp2rcd13ifvqgd0","pricing_plan_id":"cebpf4jnsgd1na2vs0mg"},{"bike_id":"b082caf9-1aa9-41e8-8081-4da72e64e8e4","system_id":"levelo_inurba_marseille","lat":43.309252,"lon":5.401491,"is_reserved":false,"is_disabled":true,"rental_uris":{"android":"levelo://app?vid=b082caf9-1aa9-41e8-8081-4da72e64e8e4","ios":"levelo://app?vid=b082caf9-1aa9-41e8-8081-4da72e64e8e4"},"vehicle_type_id":"4","last_reported":1744791272,"current_range_meters":16800,"station_id":"ce4bgvp2rcd13ifvqct0","pricing_plan_id":"cebpf4jnsgd1na2vs0mg"},{"bike_id":"6c487cab-9039-4e4d-95bb-543c7e84bc90","system_id":"levelo_inurba_marseille","lat":43.25581,"lon":5.3823,"is_reserved":false,"is_disabled":false,"rental_uris":{"android":"levelo://app?vid=6c487cab-9039-4e4d-95bb-543c7e84bc90","ios":"levelo://app?vid=6c487cab-9039-4e4d-95bb-543c7e84bc90"},"vehicle_type_id":"4","last_reported":1744791272,"current_range_meters":16800,"station_id":"ce4bhih2rcd13ifvqfs0","pricing_plan_id":"cebpf4jnsgd1na2vs0mg"},{"bike_id":"bad58f50-6d35-41ec-aadd-5333226665c2","system_id":"levelo_inurba_marseille","lat":43.26951,"lon":5.38642,"is_reserved":false,"is_disabled":false,"rental_uris":{"android":"levelo://app?vid=bad58f50-6d35-41ec-aadd-5333226665c2","ios":"levelo://app?vid=bad58f50-6d35-41ec-aadd-5333226665c2"},"vehicle_type_id":"4","last_reported":1744791272,"current_range_meters":16800,"station_id":"ce4bhh92rcd13ifvqfh0","pricing_plan_id":"cebpf4jnsgd1na2vs0mg"},{"bike_id":"8089b084-7a5c-4c6f-a122-0e63d7970d3a","system_id":"levelo_inurba_marseille","lat":43.26952,"lon":5.38632,"is_reserved":false,"is_disabled":false,"rental_uris":{"android":"levelo://app?vid=8089b084-7a5c-4c6f-a122-0e63d7970d3a","ios":"levelo://app?vid=8089b084-7a5c-4c6f-a122-0e63d7970d3a"},"vehicle_type_id":"4","last_reported":1744791272,"current_range_meters":17200,"station_id":"ce4bhh92rcd13ifvqfh0","pricing_plan_id":"cebpf4jnsgd1na2vs0mg"},{"bike_id":"10a05b79-c3d5-4be7-a18b-8140be240501","system_id":"levelo_inurba_marseille","lat":43.29608,"lon":5.38091,"is_reserved":false,"is_disabled":false,"rental_uris":{"android":"levelo://app?vid=10a05b79-c3d5-4be7-a18b-8140be240501","ios":"levelo://app?vid=10a05b79-c3d5-4be7-a18b-8140be240501"},"vehicle_type_id":"4","last_reported":1744791272,"current_range_meters":17200,"station_id":"ce4bgl12rcd13ifvqbo0","pricing_plan_id":"cebpf4jnsgd1na2vs0mg"},{"bike_id":"c34ee68a-8476-4a81-9e94-427d7366c546","system_id":"levelo_inurba_marseille","lat":43.29277,"lon":5.36844,"is_reserved":false,"is_disabled":false,"rental_uris":{"android":"levelo://app?vid=c34ee68a-8476-4a81-9e94-427d7366c546","ios":"levelo://app?vid=c34ee68a-8476-4a81-9e94-427d7366c546"},"vehicle_type_id":"4","last_reported":1744791272,"current_range_meters":17200,"station_id":"ce4bhbp2rcd13ifvqesg","pricing_plan_id":"cebpf4jnsgd1na2vs0mg"},{"bike_id":"dec4a8ac-a8b2-4405-9358-21b635ddf450","system_id":"levelo_inurba_marseille","lat":43.24648,"lon":5.3889,"is_reserved":false,"is_disabled":false,"rental_uris":{"android":"levelo://app?vid=dec4a8ac-a8b2-4405-9358-21b635ddf450","ios":"levelo://app?vid=dec4a8ac-a8b2-4405-9358-21b635ddf450"},"vehicle_type_id":"4","last_reported":1744791272,"current_range_meters":16800,"station_id":"ce4bhg12rcd13ifvqf60","pricing_plan_id":"cebpf4jnsgd1na2vs0mg"},{"bike_id":"a6d451ba-0fef-4616-9459-0a9167b4802c","system_id":"levelo_inurba_marseille","lat":43.29371,"lon":5.37845,"is_reserved":false,"is_disabled":false,"rental_uris":{"android":"levelo://app?vid=a6d451ba-0fef-4616-9459-0a9167b4802c","ios":"levelo://app?vid=a6d451ba-0fef-4616-9459-0a9167b4802c"},"vehicle_type_id":"4","last_reported":1744791272,"current_range_meters":17200,"station_id":"ce4bgjh2rcd13ifvqbf0","pricing_plan_id":"cebpf4jnsgd1na2vs0mg"},{"bike_id":"6c753cfd-e2a2-46b2-a74f-cf2c42d3ccc5","system_id":"levelo_inurba_marseille","lat":43.30474,"lon":5.37909,"is_reserved":false,"is_disabled":false,"rental_uris":{"android":"levelo://app?vid=6c753cfd-e2a2-46b2-a74f-cf2c42d3ccc5","ios":"levelo://app?vid=6c753cfd-e2a2-46b2-a74f-cf2c42d3ccc5"},"vehicle_type_id":"4","last_reported":1744791272,"current_range_meters":17200,"station_id":"ce4bgup2rcd13ifvqcn0","pricing_plan_id":"cebpf4jnsgd1na2vs0mg"},{"bike_id":"94441217-5d39-4012-8eb1-53c52f8530f0","system_id":"levelo_inurba_marseille","lat":43.22933,"lon":5.35377,"is_reserved":false,"is_disabled":false,"rental_uris":{"android":"levelo://app?vid=94441217-5d39-4012-8eb1-53c52f8530f0","ios":"levelo://app?vid=94441217-5d39-4012-8eb1-53c52f8530f0"},"vehicle_type_id":"4","last_reported":1744791272,"current_range_meters":17200,"station_id":"cpo3532slgdg3j2ikp40","pricing_plan_id":"cebpf4jnsgd1na2vs0mg"},{"bike_id":"f8b9d4bf-ce39-4c8f-8ede-ac8473a114a4","system_id":"levelo_inurba_marseille","lat":43.31341,"lon":5.36734,"is_reserved":false,"is_disabled":false,"rental_uris":{"android":"levelo://app?vid=f8b9d4bf-ce39-4c8f-8ede-ac8473a114a4","ios":"levelo://app?vid=f8b9d4bf-ce39-4c8f-8ede-ac8473a114a4"},"vehicle_type_id":"4","last_reported":1744791272,"current_range_meters":17200,"station_id":"ce4bgr92rcd13ifvqc6g","pricing_plan_id":"cebpf4jnsgd1na2vs0mg"},{"bike_id":"d6fee597-3293-47ae-914e-c48760e9f772","system_id":"levelo_inurba_marseille","lat":43.24085,"lon":5.37765,"is_reserved":false,"is_disabled":false,"rental_uris":{"android":"levelo://app?vid=d6fee597-3293-47ae-914e-c48760e9f772","ios":"levelo://app?vid=d6fee597-3293-47ae-914e-c48760e9f772"},"vehicle_type_id":"4","last_reported":1744791272,"current_range_meters":17200,"station_id":"ce4bhnp2rcd13ifvqgvg","pricing_plan_id":"cebpf4jnsgd1na2vs0mg"},{"bike_id":"b6b4fba7-65bd-4354-9ef8-9be346fbbc8a","system_id":"levelo_inurba_marseille","lat":43.30283,"lon":5.37697,"is_reserved":false,"is_disabled":false,"rental_uris":{"android":"levelo://app?vid=b6b4fba7-65bd-4354-9ef8-9be346fbbc8a","ios":"levelo://app?vid=b6b4fba7-65bd-4354-9ef8-9be346fbbc8a"},"vehicle_type_id":"4","last_reported":1744791272,"current_range_meters":17600,"station_id":"ce4bguh2rcd13ifvqcj0","pricing_plan_id":"cebpf4jnsgd1na2vs0mg"},{"bike_id":"f3a17301-f4cd-4211-8c74-a7b1a492d742","system_id":"levelo_inurba_marseille","lat":43.28098,"lon":5.40798,"is_reserved":false,"is_disabled":false,"rental_uris":{"android":"levelo://app?vid=f3a17301-f4cd-4211-8c74-a7b1a492d742","ios":"levelo://app?vid=f3a17301-f4cd-4211-8c74-a7b1a492d742"},"vehicle_type_id":"4","last_reported":1744791272,"current_range_meters":17600,"station_id":"","pricing_plan_id":"cebpf4jnsgd1na2vs0mg"},{"bike_id":"c31c0ecc-e896-4522-8f59-f94ab8194ac3","system_id":"levelo_inurba_marseille","lat":43.31717,"lon":5.40379,"is_reserved":false,"is_disabled":false,"rental_uris":{"android":"levelo://app?vid=c31c0ecc-e896-4522-8f59-f94ab8194ac3","ios":"levelo://app?vid=c31c0ecc-e896-4522-8f59-f94ab8194ac3"},"vehicle_type_id":"4","last_reported":1744791272,"current_range_meters":17600,"station_id":"ce4bh012rcd13ifvqd00","pricing_plan_id":"cebpf4jnsgd1na2vs0mg"},{"bike_id":"418e5f8f-d815-4792-af01-379fdf7af9c7","system_id":"levelo_inurba_marseille","lat":43.24081,"lon":5.37754,"is_reserved":false,"is_disabled":false,"rental_uris":{"android":"levelo://app?vid=418e5f8f-d815-4792-af01-379fdf7af9c7","ios":"levelo://app?vid=418e5f8f-d815-4792-af01-379fdf7af9c7"},"vehicle_type_id":"4","last_reported":1744791272,"current_range_meters":17600,"station_id":"ce4bhnp2rcd13ifvqgvg","pricing_plan_id":"cebpf4jnsgd1na2vs0mg"},{"bike_id":"d90cdfa9-7843-4874-b919-690587b20fb4","system_id":"levelo_inurba_marseille","lat":43.29165,"lon":5.37155,"is_reserved":false,"is_disabled":false,"rental_uris":{"android":"levelo://app?vid=d90cdfa9-7843-4874-b919-690587b20fb4","ios":"levelo://app?vid=d90cdfa9-7843-4874-b919-690587b20fb4"},"vehicle_type_id":"4","last_reported":1744791272,"current_range_meters":17200,"station_id":"ce4bha92rcd13ifvqeh0","pricing_plan_id":"cebpf4jnsgd1na2vs0mg"},{"bike_id":"7fcc1271-7200-4fda-a838-060f83266864","system_id":"levelo_inurba_marseille","lat":43.24661,"lon":5.38153,"is_reserved":false,"is_disabled":false,"rental_uris":{"android":"levelo://app?vid=7fcc1271-7200-4fda-a838-060f83266864","ios":"levelo://app?vid=7fcc1271-7200-4fda-a838-060f83266864"},"vehicle_type_id":"4","last_reported":1744791272,"current_range_meters":17600,"station_id":"ce4bhih2rcd13ifvqfr0","pricing_plan_id":"cebpf4jnsgd1na2vs0mg"},{"bike_id":"6a8e9068-2a8d-4c93-8c2d-e30f03079545","system_id":"levelo_inurba_marseille","lat":43.25676,"lon":5.41009,"is_reserved":false,"is_disabled":true,"rental_uris":{"android":"levelo://app?vid=6a8e9068-2a8d-4c93-8c2d-e30f03079545","ios":"levelo://app?vid=6a8e9068-2a8d-4c93-8c2d-e30f03079545"},"vehicle_type_id":"4","last_reported":1744791272,"current_range_meters":17600,"station_id":"ce4bhkp2rcd13ifvqgd0","pricing_plan_id":"cebpf4jnsgd1na2vs0mg"},{"bike_id":"3d3e85b3-b957-4512-ade2-580297bfc019","system_id":"levelo_inurba_marseille","lat":43.272003,"lon":5.391827,"is_reserved":false,"is_disabled":true,"rental_uris":{"android":"levelo://app?vid=3d3e85b3-b957-4512-ade2-580297bfc019","ios":"levelo://app?vid=3d3e85b3-b957-4512-ade2-580297bfc019"},"vehicle_type_id":"4","last_reported":1744791272,"current_range_meters":18000,"station_id":"ce4bhhp2rcd13ifvqfm0","pricing_plan_id":"cebpf4jnsgd1na2vs0mg"},{"bike_id":"01a73ca1-e723-4dea-b5a5-a65ff5d3ba09","system_id":"levelo_inurba_marseille","lat":43.29279,"lon":5.36857,"is_reserved":false,"is_disabled":false,"rental_uris":{"android":"levelo://app?vid=01a73ca1-e723-4dea-b5a5-a65ff5d3ba09","ios":"levelo://app?vid=01a73ca1-e723-4dea-b5a5-a65ff5d3ba09"},"vehicle_type_id":"4","last_reported":1744791272,"current_range_meters":18000,"station_id":"ce4bhbp2rcd13ifvqesg","pricing_plan_id":"cebpf4jnsgd1na2vs0mg"},{"bike_id":"f16576ed-0443-4483-9d81-5fe93af8dc75","system_id":"levelo_inurba_marseille","lat":43.27216,"lon":5.39182,"is_reserved":false,"is_disabled":false,"rental_uris":{"android":"levelo://app?vid=f16576ed-0443-4483-9d81-5fe93af8dc75","ios":"levelo://app?vid=f16576ed-0443-4483-9d81-5fe93af8dc75"},"vehicle_type_id":"4","last_reported":1744791272,"current_range_meters":17600,"station_id":"ce4bhhp2rcd13ifvqfm0","pricing_plan_id":"cebpf4jnsgd1na2vs0mg"},{"bike_id":"ef372a5e-4fde-4cce-a6b9-36c336b8ff05","system_id":"levelo_inurba_marseille","lat":43.27088,"lon":5.40389,"is_reserved":false,"is_disabled":false,"rental_uris":{"android":"levelo://app?vid=ef372a5e-4fde-4cce-a6b9-36c336b8ff05","ios":"levelo://app?vid=ef372a5e-4fde-4cce-a6b9-36c336b8ff05"},"vehicle_type_id":"4","last_reported":1744791272,"current_range_meters":18000,"station_id":"","pricing_plan_id":"cebpf4jnsgd1na2vs0mg"},{"bike_id":"a5d079ef-c3f1-42cb-9fd2-959a41d55a70","system_id":"levelo_inurba_marseille","lat":43.32494,"lon":5.36573,"is_reserved":false,"is_disabled":false,"rental_uris":{"android":"levelo://app?vid=a5d079ef-c3f1-42cb-9fd2-959a41d55a70","ios":"levelo://app?vid=a5d079ef-c3f1-42cb-9fd2-959a41d55a70"},"vehicle_type_id":"4","last_reported":1744791272,"current_range_meters":18000,"station_id":"ce4bhs12rcd13ifvqhvg","pricing_plan_id":"cebpf4jnsgd1na2vs0mg"},{"bike_id":"57406be6-c0b4-4691-8abf-3f6842e4ec81","system_id":"levelo_inurba_marseille","lat":43.28479,"lon":5.39179,"is_reserved":false,"is_disabled":true,"rental_uris":{"android":"levelo://app?vid=57406be6-c0b4-4691-8abf-3f6842e4ec81","ios":"levelo://app?vid=57406be6-c0b4-4691-8abf-3f6842e4ec81"},"vehicle_type_id":"4","last_reported":1744791272,"current_range_meters":18000,"station_id":"ce4bhoh2rcd13ifvqh5g","pricing_plan_id":"cebpf4jnsgd1na2vs0mg"},{"bike_id":"7f8b8267-0372-4672-b5d0-4229a0bbc85a","system_id":"levelo_inurba_marseille","lat":43.29272,"lon":5.36846,"is_reserved":false,"is_disabled":false,"rental_uris":{"android":"levelo://app?vid=7f8b8267-0372-4672-b5d0-4229a0bbc85a","ios":"levelo://app?vid=7f8b8267-0372-4672-b5d0-4229a0bbc85a"},"vehicle_type_id":"4","last_reported":1744791272,"current_range_meters":18000,"station_id":"ce4bhbp2rcd13ifvqesg","pricing_plan_id":"cebpf4jnsgd1na2vs0mg"},{"bike_id":"73c748f5-d34c-4696-bbd1-e96fdf17278a","system_id":"levelo_inurba_marseille","lat":43.291478,"lon":5.379534,"is_reserved":false,"is_disabled":false,"rental_uris":{"android":"levelo://app?vid=73c748f5-d34c-4696-bbd1-e96fdf17278a","ios":"levelo://app?vid=73c748f5-d34c-4696-bbd1-e96fdf17278a"},"vehicle_type_id":"4","last_reported":1744791272,"current_range_meters":18000,"station_id":"","pricing_plan_id":"cebpf4jnsgd1na2vs0mg"},{"bike_id":"17ba3a27-184e-4e06-a54a-401b9a187b6f","system_id":"levelo_inurba_marseille","lat":43.26769,"lon":5.39427,"is_reserved":false,"is_disabled":false,"rental_uris":{"android":"levelo://app?vid=17ba3a27-184e-4e06-a54a-401b9a187b6f","ios":"levelo://app?vid=17ba3a27-184e-4e06-a54a-401b9a187b6f"},"vehicle_type_id":"4","last_reported":1744791272,"current_range_meters":18800,"station_id":"ce4bhh12rcd13ifvqfg0","pricing_plan_id":"cebpf4jnsgd1na2vs0mg"},{"bike_id":"bac8cada-45d8-42a0-871d-8bfddf55dd77","system_id":"levelo_inurba_marseille","lat":43.28455,"lon":5.35892,"is_reserved":false,"is_disabled":true,"rental_uris":{"android":"levelo://app?vid=bac8cada-45d8-42a0-871d-8bfddf55dd77","ios":"levelo://app?vid=bac8cada-45d8-42a0-871d-8bfddf55dd77"},"vehicle_type_id":"4","last_reported":1744791272,"current_range_meters":18800,"station_id":"ce4bhah2rcd13ifvqei0","pricing_plan_id":"cebpf4jnsgd1na2vs0mg"},{"bike_id":"71e94148-75c9-4d56-b41d-f80df28d87b0","system_id":"levelo_inurba_marseille","lat":43.32008,"lon":5.38141,"is_reserved":false,"is_disabled":false,"rental_uris":{"android":"levelo://app?vid=71e94148-75c9-4d56-b41d-f80df28d87b0","ios":"levelo://app?vid=71e94148-75c9-4d56-b41d-f80df28d87b0"},"vehicle_type_id":"4","last_reported":1744791272,"current_range_meters":18800,"station_id":"ce4bhr12rcd13ifvqhpg","pricing_plan_id":"cebpf4jnsgd1na2vs0mg"},{"bike_id":"bc13145e-268c-4497-9045-eeda58329375","system_id":"levelo_inurba_marseille","lat":43.31214,"lon":5.36824,"is_reserved":false,"is_disabled":false,"rental_uris":{"android":"levelo://app?vid=bc13145e-268c-4497-9045-eeda58329375","ios":"levelo://app?vid=bc13145e-268c-4497-9045-eeda58329375"},"vehicle_type_id":"4","last_reported":1744791272,"current_range_meters":18800,"station_id":"ce4bgl92rcd13ifvqbq0","pricing_plan_id":"cebpf4jnsgd1na2vs0mg"},{"bike_id":"a48200e6-981c-4d33-bbb5-8915bbcf22e3","system_id":"levelo_inurba_marseille","lat":43.25586,"lon":5.38235,"is_reserved":false,"is_disabled":false,"rental_uris":{"android":"levelo://app?vid=a48200e6-981c-4d33-bbb5-8915bbcf22e3","ios":"levelo://app?vid=a48200e6-981c-4d33-bbb5-8915bbcf22e3"},"vehicle_type_id":"4","last_reported":1744791272,"current_range_meters":18800,"station_id":"ce4bhih2rcd13ifvqfs0","pricing_plan_id":"cebpf4jnsgd1na2vs0mg"},{"bike_id":"253cb408-1292-4456-8381-70bdc9615886","system_id":"levelo_inurba_marseille","lat":43.24994,"lon":5.38935,"is_reserved":false,"is_disabled":false,"rental_uris":{"android":"levelo://app?vid=253cb408-1292-4456-8381-70bdc9615886","ios":"levelo://app?vid=253cb408-1292-4456-8381-70bdc9615886"},"vehicle_type_id":"4","last_reported":1744791272,"current_range_meters":18800,"station_id":"ce4bhgp2rcd13ifvqfd0","pricing_plan_id":"cebpf4jnsgd1na2vs0mg"},{"bike_id":"d07f3575-c570-4366-9138-201949d4b627","system_id":"levelo_inurba_marseille","lat":43.22938,"lon":5.35378,"is_reserved":false,"is_disabled":false,"rental_uris":{"android":"levelo://app?vid=d07f3575-c570-4366-9138-201949d4b627","ios":"levelo://app?vid=d07f3575-c570-4366-9138-201949d4b627"},"vehicle_type_id":"4","last_reported":1744791272,"current_range_meters":19200,"station_id":"cpo3532slgdg3j2ikp40","pricing_plan_id":"cebpf4jnsgd1na2vs0mg"},{"bike_id":"4c59c1fa-b4dc-40fa-a988-e5d8127c1b79","system_id":"levelo_inurba_marseille","lat":43.292826,"lon":5.368496,"is_reserved":false,"is_disabled":false,"rental_uris":{"android":"levelo://app?vid=4c59c1fa-b4dc-40fa-a988-e5d8127c1b79","ios":"levelo://app?vid=4c59c1fa-b4dc-40fa-a988-e5d8127c1b79"},"vehicle_type_id":"4","last_reported":1744791272,"current_range_meters":19200,"station_id":"ce4bhbp2rcd13ifvqesg","pricing_plan_id":"cebpf4jnsgd1na2vs0mg"},{"bike_id":"8e75f9f8-6414-437c-bc22-4a5eccc887a0","system_id":"levelo_inurba_marseille","lat":43.26,"lon":5.40945,"is_reserved":false,"is_disabled":false,"rental_uris":{"android":"levelo://app?vid=8e75f9f8-6414-437c-bc22-4a5eccc887a0","ios":"levelo://app?vid=8e75f9f8-6414-437c-bc22-4a5eccc887a0"},"vehicle_type_id":"4","last_reported":1744791272,"current_range_meters":19200,"station_id":"","pricing_plan_id":"cebpf4jnsgd1na2vs0mg"},{"bike_id":"fc797768-c982-43a3-a462-914576687470","system_id":"levelo_inurba_marseille","lat":43.309523,"lon":5.390362,"is_reserved":false,"is_disabled":false,"rental_uris":{"android":"levelo://app?vid=fc797768-c982-43a3-a462-914576687470","ios":"levelo://app?vid=fc797768-c982-43a3-a462-914576687470"},"vehicle_type_id":"4","last_reported":1744791272,"current_range_meters":17600,"station_id":"ce4bgip2rcd13ifvqbb0","pricing_plan_id":"cebpf4jnsgd1na2vs0mg"},{"bike_id":"479d5a5f-271f-4ac2-a568-4c71926ce846","system_id":"levelo_inurba_marseille","lat":43.26208,"lon":5.37436,"is_reserved":false,"is_disabled":false,"rental_uris":{"android":"levelo://app?vid=479d5a5f-271f-4ac2-a568-4c71926ce846","ios":"levelo://app?vid=479d5a5f-271f-4ac2-a568-4c71926ce846"},"vehicle_type_id":"4","last_reported":1744791272,"current_range_meters":19200,"station_id":"ce4bhgp2rcd13ifvqfc0","pricing_plan_id":"cebpf4jnsgd1na2vs0mg"},{"bike_id":"97f3e45c-1ebe-4b9d-97b9-7baa223f6f2e","system_id":"levelo_inurba_marseille","lat":43.26954,"lon":5.38636,"is_reserved":false,"is_disabled":false,"rental_uris":{"android":"levelo://app?vid=97f3e45c-1ebe-4b9d-97b9-7baa223f6f2e","ios":"levelo://app?vid=97f3e45c-1ebe-4b9d-97b9-7baa223f6f2e"},"vehicle_type_id":"4","last_reported":1744791272,"current_range_meters":19200,"station_id":"ce4bhh92rcd13ifvqfh0","pricing_plan_id":"cebpf4jnsgd1na2vs0mg"},{"bike_id":"a0ddb0a5-f7f0-4281-aa27-9e82747cc573","system_id":"levelo_inurba_marseille","lat":43.33767,"lon":5.37483,"is_reserved":false,"is_disabled":false,"rental_uris":{"android":"levelo://app?vid=a0ddb0a5-f7f0-4281-aa27-9e82747cc573","ios":"levelo://app?vid=a0ddb0a5-f7f0-4281-aa27-9e82747cc573"},"vehicle_type_id":"4","last_reported":1744791272,"current_range_meters":19200,"station_id":"","pricing_plan_id":"cebpf4jnsgd1na2vs0mg"},{"bike_id":"bddb64bd-8ec7-4f20-8ed9-6215ba13d780","system_id":"levelo_inurba_marseille","lat":43.27813,"lon":5.40721,"is_reserved":false,"is_disabled":false,"rental_uris":{"android":"levelo://app?vid=bddb64bd-8ec7-4f20-8ed9-6215ba13d780","ios":"levelo://app?vid=bddb64bd-8ec7-4f20-8ed9-6215ba13d780"},"vehicle_type_id":"4","last_reported":1744791272,"current_range_meters":19600,"station_id":"ce4bhnh2rcd13ifvqgtg","pricing_plan_id":"cebpf4jnsgd1na2vs0mg"},{"bike_id":"2d03e3c2-09e4-4978-8dbc-31228f7e9fd5","system_id":"levelo_inurba_marseille","lat":43.25586,"lon":5.38245,"is_reserved":false,"is_disabled":false,"rental_uris":{"android":"levelo://app?vid=2d03e3c2-09e4-4978-8dbc-31228f7e9fd5","ios":"levelo://app?vid=2d03e3c2-09e4-4978-8dbc-31228f7e9fd5"},"vehicle_type_id":"4","last_reported":1744791272,"current_range_meters":19600,"station_id":"ce4bhih2rcd13ifvqfs0","pricing_plan_id":"cebpf4jnsgd1na2vs0mg"},{"bike_id":"dce9d50f-7dbb-426f-afec-a04c618baf85","system_id":"levelo_inurba_marseille","lat":43.29783,"lon":5.39333,"is_reserved":false,"is_disabled":false,"rental_uris":{"android":"levelo://app?vid=dce9d50f-7dbb-426f-afec-a04c618baf85","ios":"levelo://app?vid=dce9d50f-7dbb-426f-afec-a04c618baf85"},"vehicle_type_id":"4","last_reported":1744791272,"current_range_meters":16400,"station_id":"chh1huq6cuj3fo74tm60","pricing_plan_id":"cebpf4jnsgd1na2vs0mg"},{"bike_id":"bf4659ae-1e1e-46e0-aae0-87527cd1ccd6","system_id":"levelo_inurba_marseille","lat":43.28167,"lon":5.42666,"is_reserved":false,"is_disabled":false,"rental_uris":{"android":"levelo://app?vid=bf4659ae-1e1e-46e0-aae0-87527cd1ccd6","ios":"levelo://app?vid=bf4659ae-1e1e-46e0-aae0-87527cd1ccd6"},"vehicle_type_id":"4","last_reported":1744791272,"current_range_meters":19600,"station_id":"ce4bhnh2rcd13ifvqgug","pricing_plan_id":"cebpf4jnsgd1na2vs0mg"},{"bike_id":"e3bbf163-eadf-423b-85c5-996bf8a4e270","system_id":"levelo_inurba_marseille","lat":43.24088,"lon":5.37756,"is_reserved":false,"is_disabled":false,"rental_uris":{"android":"levelo://app?vid=e3bbf163-eadf-423b-85c5-996bf8a4e270","ios":"levelo://app?vid=e3bbf163-eadf-423b-85c5-996bf8a4e270"},"vehicle_type_id":"4","last_reported":1744791272,"current_range_meters":19600,"station_id":"ce4bhnp2rcd13ifvqgvg","pricing_plan_id":"cebpf4jnsgd1na2vs0mg"},{"bike_id":"a041bb46-822b-4579-8326-ce98c510e938","system_id":"levelo_inurba_marseille","lat":43.31247,"lon":5.36899,"is_reserved":false,"is_disabled":false,"rental_uris":{"android":"levelo://app?vid=a041bb46-822b-4579-8326-ce98c510e938","ios":"levelo://app?vid=a041bb46-822b-4579-8326-ce98c510e938"},"vehicle_type_id":"4","last_reported":1744791272,"current_range_meters":19600,"station_id":"ce4bgl92rcd13ifvqbq0","pricing_plan_id":"cebpf4jnsgd1na2vs0mg"},{"bike_id":"ec9aa1c4-2d92-423c-8d78-b9f8ad11e6ee","system_id":"levelo_inurba_marseille","lat":43.27676,"lon":5.38928,"is_reserved":false,"is_disabled":false,"rental_uris":{"android":"levelo://app?vid=ec9aa1c4-2d92-423c-8d78-b9f8ad11e6ee","ios":"levelo://app?vid=ec9aa1c4-2d92-423c-8d78-b9f8ad11e6ee"},"vehicle_type_id":"4","last_reported":1744791272,"current_range_meters":19200,"station_id":"ce4bhi12rcd13ifvqfo0","pricing_plan_id":"cebpf4jnsgd1na2vs0mg"},{"bike_id":"67bec80b-3af2-4acd-9daa-4500c6ed3654","system_id":"levelo_inurba_marseille","lat":43.24169,"lon":5.36382,"is_reserved":false,"is_disabled":false,"rental_uris":{"android":"levelo://app?vid=67bec80b-3af2-4acd-9daa-4500c6ed3654","ios":"levelo://app?vid=67bec80b-3af2-4acd-9daa-4500c6ed3654"},"vehicle_type_id":"4","last_reported":1744791272,"current_range_meters":19600,"station_id":"cpo36qri1sfpv3e86is0","pricing_plan_id":"cebpf4jnsgd1na2vs0mg"},{"bike_id":"495a8619-f186-4986-9e48-387e35476996","system_id":"levelo_inurba_marseille","lat":43.29277,"lon":5.36852,"is_reserved":false,"is_disabled":false,"rental_uris":{"android":"levelo://app?vid=495a8619-f186-4986-9e48-387e35476996","ios":"levelo://app?vid=495a8619-f186-4986-9e48-387e35476996"},"vehicle_type_id":"4","last_reported":1744791272,"current_range_meters":19600,"station_id":"ce4bhbp2rcd13ifvqesg","pricing_plan_id":"cebpf4jnsgd1na2vs0mg"},{"bike_id":"58a6c056-c4c9-496e-9a01-a9dc486c603a","system_id":"levelo_inurba_marseille","lat":43.31477,"lon":5.373,"is_reserved":false,"is_disabled":false,"rental_uris":{"android":"levelo://app?vid=58a6c056-c4c9-496e-9a01-a9dc486c603a","ios":"levelo://app?vid=58a6c056-c4c9-496e-9a01-a9dc486c603a"},"vehicle_type_id":"4","last_reported":1744791272,"current_range_meters":20000,"station_id":"ce4bgt12rcd13ifvqcd0","pricing_plan_id":"cebpf4jnsgd1na2vs0mg"},{"bike_id":"f4f2a3c2-2e88-42f2-a842-4b821963dedc","system_id":"levelo_inurba_marseille","lat":43.22928,"lon":5.35371,"is_reserved":false,"is_disabled":false,"rental_uris":{"android":"levelo://app?vid=f4f2a3c2-2e88-42f2-a842-4b821963dedc","ios":"levelo://app?vid=f4f2a3c2-2e88-42f2-a842-4b821963dedc"},"vehicle_type_id":"4","last_reported":1744791272,"current_range_meters":20000,"station_id":"cpo3532slgdg3j2ikp40","pricing_plan_id":"cebpf4jnsgd1na2vs0mg"},{"bike_id":"7e1acf4f-4a65-4afb-a29b-a870f1e5b40d","system_id":"levelo_inurba_marseille","lat":43.32078,"lon":5.4154,"is_reserved":false,"is_disabled":false,"rental_uris":{"android":"levelo://app?vid=7e1acf4f-4a65-4afb-a29b-a870f1e5b40d","ios":"levelo://app?vid=7e1acf4f-4a65-4afb-a29b-a870f1e5b40d"},"vehicle_type_id":"4","last_reported":1744791272,"current_range_meters":20000,"station_id":"ce4bhq92rcd13ifvqhkg","pricing_plan_id":"cebpf4jnsgd1na2vs0mg"},{"bike_id":"cecbbe1c-7a48-41b9-9872-625dad6f9e8a","system_id":"levelo_inurba_marseille","lat":43.31983,"lon":5.38139,"is_reserved":false,"is_disabled":false,"rental_uris":{"android":"levelo://app?vid=cecbbe1c-7a48-41b9-9872-625dad6f9e8a","ios":"levelo://app?vid=cecbbe1c-7a48-41b9-9872-625dad6f9e8a"},"vehicle_type_id":"4","last_reported":1744791272,"current_range_meters":20000,"station_id":"ce4bhr12rcd13ifvqhpg","pricing_plan_id":"cebpf4jnsgd1na2vs0mg"},{"bike_id":"88f3759b-2c1f-4762-b11a-067d1d7bb035","system_id":"levelo_inurba_marseille","lat":43.24177,"lon":5.39735,"is_reserved":false,"is_disabled":false,"rental_uris":{"android":"levelo://app?vid=88f3759b-2c1f-4762-b11a-067d1d7bb035","ios":"levelo://app?vid=88f3759b-2c1f-4762-b11a-067d1d7bb035"},"vehicle_type_id":"4","last_reported":1744791272,"current_range_meters":20000,"station_id":"ce4bhn12rcd13ifvqgpg","pricing_plan_id":"cebpf4jnsgd1na2vs0mg"},{"bike_id":"439c6cb6-7b03-4e89-b858-34cc7d6863ae","system_id":"levelo_inurba_marseille","lat":43.31223,"lon":5.36839,"is_reserved":false,"is_disabled":false,"rental_uris":{"android":"levelo://app?vid=439c6cb6-7b03-4e89-b858-34cc7d6863ae","ios":"levelo://app?vid=439c6cb6-7b03-4e89-b858-34cc7d6863ae"},"vehicle_type_id":"4","last_reported":1744791272,"current_range_meters":20000,"station_id":"ce4bgl92rcd13ifvqbq0","pricing_plan_id":"cebpf4jnsgd1na2vs0mg"},{"bike_id":"73c3ed65-6922-4c72-b506-ebdbbff76771","system_id":"levelo_inurba_marseille","lat":43.29027,"lon":5.39974,"is_reserved":false,"is_disabled":false,"rental_uris":{"android":"levelo://app?vid=73c3ed65-6922-4c72-b506-ebdbbff76771","ios":"levelo://app?vid=73c3ed65-6922-4c72-b506-ebdbbff76771"},"vehicle_type_id":"4","last_reported":1744791272,"current_range_meters":20000,"station_id":"ce4bh392rcd13ifvqdm0","pricing_plan_id":"cebpf4jnsgd1na2vs0mg"},{"bike_id":"1dc86cf3-7bd1-4566-ba30-ac0f292a93cb","system_id":"levelo_inurba_marseille","lat":43.30315,"lon":5.36911,"is_reserved":false,"is_disabled":false,"rental_uris":{"android":"levelo://app?vid=1dc86cf3-7bd1-4566-ba30-ac0f292a93cb","ios":"levelo://app?vid=1dc86cf3-7bd1-4566-ba30-ac0f292a93cb"},"vehicle_type_id":"4","last_reported":1744791272,"current_range_meters":20400,"station_id":"ce4bgqh2rcd13ifvqc5g","pricing_plan_id":"cebpf4jnsgd1na2vs0mg"},{"bike_id":"fab5cd6a-61b6-4d16-aad7-01dc9fa23b11","system_id":"levelo_inurba_marseille","lat":43.30528,"lon":5.36551,"is_reserved":false,"is_disabled":false,"rental_uris":{"android":"levelo://app?vid=fab5cd6a-61b6-4d16-aad7-01dc9fa23b11","ios":"levelo://app?vid=fab5cd6a-61b6-4d16-aad7-01dc9fa23b11"},"vehicle_type_id":"4","last_reported":1744791272,"current_range_meters":20400,"station_id":"ce4bgs12rcd13ifvqcag","pricing_plan_id":"cebpf4jnsgd1na2vs0mg"},{"bike_id":"cb2339f4-0371-4078-a89b-835123189f9a","system_id":"levelo_inurba_marseille","lat":43.25708,"lon":5.41131,"is_reserved":false,"is_disabled":false,"rental_uris":{"android":"levelo://app?vid=cb2339f4-0371-4078-a89b-835123189f9a","ios":"levelo://app?vid=cb2339f4-0371-4078-a89b-835123189f9a"},"vehicle_type_id":"4","last_reported":1744791272,"current_range_meters":20400,"station_id":"ce4bhkp2rcd13ifvqgd0","pricing_plan_id":"cebpf4jnsgd1na2vs0mg"},{"bike_id":"67a56d67-eb57-422c-b852-2e0c9e0dfd7d","system_id":"levelo_inurba_marseille","lat":43.28379,"lon":5.37314,"is_reserved":false,"is_disabled":false,"rental_uris":{"android":"levelo://app?vid=67a56d67-eb57-422c-b852-2e0c9e0dfd7d","ios":"levelo://app?vid=67a56d67-eb57-422c-b852-2e0c9e0dfd7d"},"vehicle_type_id":"4","last_reported":1744791272,"current_range_meters":20400,"station_id":"","pricing_plan_id":"cebpf4jnsgd1na2vs0mg"},{"bike_id":"eb2c19a1-62aa-4899-868a-04e9d024bfdd","system_id":"levelo_inurba_marseille","lat":43.27991,"lon":5.41662,"is_reserved":false,"is_disabled":false,"rental_uris":{"android":"levelo://app?vid=eb2c19a1-62aa-4899-868a-04e9d024bfdd","ios":"levelo://app?vid=eb2c19a1-62aa-4899-868a-04e9d024bfdd"},"vehicle_type_id":"4","last_reported":1744791272,"current_range_meters":20400,"station_id":"ce4bho12rcd13ifvqh1g","pricing_plan_id":"cebpf4jnsgd1na2vs0mg"},{"bike_id":"c97de97d-b4c8-420a-98bd-5fdc4157f12b","system_id":"levelo_inurba_marseille","lat":43.29365,"lon":5.37847,"is_reserved":false,"is_disabled":false,"rental_uris":{"android":"levelo://app?vid=c97de97d-b4c8-420a-98bd-5fdc4157f12b","ios":"levelo://app?vid=c97de97d-b4c8-420a-98bd-5fdc4157f12b"},"vehicle_type_id":"4","last_reported":1744791272,"current_range_meters":20400,"station_id":"ce4bgjh2rcd13ifvqbf0","pricing_plan_id":"cebpf4jnsgd1na2vs0mg"},{"bike_id":"48331199-219e-4b57-8d54-71da220a812f","system_id":"levelo_inurba_marseille","lat":43.29586,"lon":5.36734,"is_reserved":false,"is_disabled":false,"rental_uris":{"android":"levelo://app?vid=48331199-219e-4b57-8d54-71da220a812f","ios":"levelo://app?vid=48331199-219e-4b57-8d54-71da220a812f"},"vehicle_type_id":"4","last_reported":1744791272,"current_range_meters":20400,"station_id":"ce4bgph2rcd13ifvqc2g","pricing_plan_id":"cebpf4jnsgd1na2vs0mg"},{"bike_id":"d55c55b0-51de-4280-a623-5ebf8562de0a","system_id":"levelo_inurba_marseille","lat":43.24996,"lon":5.38948,"is_reserved":false,"is_disabled":false,"rental_uris":{"android":"levelo://app?vid=d55c55b0-51de-4280-a623-5ebf8562de0a","ios":"levelo://app?vid=d55c55b0-51de-4280-a623-5ebf8562de0a"},"vehicle_type_id":"4","last_reported":1744791272,"current_range_meters":20800,"station_id":"ce4bhgp2rcd13ifvqfd0","pricing_plan_id":"cebpf4jnsgd1na2vs0mg"},{"bike_id":"178fecb1-2155-450a-80ce-c137d82f8695","system_id":"levelo_inurba_marseille","lat":43.231947,"lon":5.35556,"is_reserved":false,"is_disabled":false,"rental_uris":{"android":"levelo://app?vid=178fecb1-2155-450a-80ce-c137d82f8695","ios":"levelo://app?vid=178fecb1-2155-450a-80ce-c137d82f8695"},"vehicle_type_id":"4","last_reported":1744791272,"current_range_meters":20400,"station_id":"ce4bhu92rcd13ifvqi70","pricing_plan_id":"cebpf4jnsgd1na2vs0mg"},{"bike_id":"3c9b2525-0ba5-462f-bbcb-3e391ef7072a","system_id":"levelo_inurba_marseille","lat":43.29912,"lon":5.37464,"is_reserved":false,"is_disabled":false,"rental_uris":{"android":"levelo://app?vid=3c9b2525-0ba5-462f-bbcb-3e391ef7072a","ios":"levelo://app?vid=3c9b2525-0ba5-462f-bbcb-3e391ef7072a"},"vehicle_type_id":"4","last_reported":1744791272,"current_range_meters":21600,"station_id":"ce4bgjh2rcd13ifvqbg0","pricing_plan_id":"cebpf4jnsgd1na2vs0mg"},{"bike_id":"63ba3c89-35ca-4ccb-9458-08bd10c1ba01","system_id":"levelo_inurba_marseille","lat":43.289398,"lon":5.366331,"is_reserved":false,"is_disabled":false,"rental_uris":{"android":"levelo://app?vid=63ba3c89-35ca-4ccb-9458-08bd10c1ba01","ios":"levelo://app?vid=63ba3c89-35ca-4ccb-9458-08bd10c1ba01"},"vehicle_type_id":"4","last_reported":1744791272,"current_range_meters":21600,"station_id":"ce4bhap2rcd13ifvqek0","pricing_plan_id":"cebpf4jnsgd1na2vs0mg"},{"bike_id":"f9294aff-5b6f-4d62-9db7-b7bdca4ffaf5","system_id":"levelo_inurba_marseille","lat":43.32528,"lon":5.41483,"is_reserved":false,"is_disabled":false,"rental_uris":{"android":"levelo://app?vid=f9294aff-5b6f-4d62-9db7-b7bdca4ffaf5","ios":"levelo://app?vid=f9294aff-5b6f-4d62-9db7-b7bdca4ffaf5"},"vehicle_type_id":"4","last_reported":1744791272,"current_range_meters":21600,"station_id":"ce4bhq12rcd13ifvqhhg","pricing_plan_id":"cebpf4jnsgd1na2vs0mg"},{"bike_id":"afebeb02-22ff-43cc-9c0b-24db03f74efa","system_id":"levelo_inurba_marseille","lat":43.25933,"lon":5.409,"is_reserved":false,"is_disabled":false,"rental_uris":{"android":"levelo://app?vid=afebeb02-22ff-43cc-9c0b-24db03f74efa","ios":"levelo://app?vid=afebeb02-22ff-43cc-9c0b-24db03f74efa"},"vehicle_type_id":"4","last_reported":1744791272,"current_range_meters":21600,"station_id":"ce4bhm92rcd13ifvqglg","pricing_plan_id":"cebpf4jnsgd1na2vs0mg"},{"bike_id":"f7140e3e-af12-499a-8760-c60f19a46755","system_id":"levelo_inurba_marseille","lat":43.297135,"lon":5.376915,"is_reserved":false,"is_disabled":false,"rental_uris":{"android":"levelo://app?vid=f7140e3e-af12-499a-8760-c60f19a46755","ios":"levelo://app?vid=f7140e3e-af12-499a-8760-c60f19a46755"},"vehicle_type_id":"4","last_reported":1744791272,"current_range_meters":21600,"station_id":"ce4bgkh2rcd13ifvqbl0","pricing_plan_id":"cebpf4jnsgd1na2vs0mg"},{"bike_id":"bc0837a1-279f-4396-af1b-42270f8cd9b7","system_id":"levelo_inurba_marseille","lat":43.262247,"lon":5.404637,"is_reserved":false,"is_disabled":false,"rental_uris":{"android":"levelo://app?vid=bc0837a1-279f-4396-af1b-42270f8cd9b7","ios":"levelo://app?vid=bc0837a1-279f-4396-af1b-42270f8cd9b7"},"vehicle_type_id":"4","last_reported":1744791272,"current_range_meters":21600,"station_id":"ce4bhmh2rcd13ifvqgmg","pricing_plan_id":"cebpf4jnsgd1na2vs0mg"},{"bike_id":"d750596a-6ac6-4755-84cc-45acd4464f3d","system_id":"levelo_inurba_marseille","lat":43.24422,"lon":5.37024,"is_reserved":false,"is_disabled":false,"rental_uris":{"android":"levelo://app?vid=d750596a-6ac6-4755-84cc-45acd4464f3d","ios":"levelo://app?vid=d750596a-6ac6-4755-84cc-45acd4464f3d"},"vehicle_type_id":"4","last_reported":1744791272,"current_range_meters":22000,"station_id":"ce4bhhh2rcd13ifvqfk0","pricing_plan_id":"cebpf4jnsgd1na2vs0mg"},{"bike_id":"08f4dcee-7656-4957-9022-f13783bb2667","system_id":"levelo_inurba_marseille","lat":43.29673,"lon":5.37253,"is_reserved":false,"is_disabled":false,"rental_uris":{"android":"levelo://app?vid=08f4dcee-7656-4957-9022-f13783bb2667","ios":"levelo://app?vid=08f4dcee-7656-4957-9022-f13783bb2667"},"vehicle_type_id":"4","last_reported":1744791272,"current_range_meters":22000,"station_id":"ce4bgk12rcd13ifvqbj0","pricing_plan_id":"cebpf4jnsgd1na2vs0mg"},{"bike_id":"d39e5537-c00a-4bf8-9f22-53966b448679","system_id":"levelo_inurba_marseille","lat":43.29548,"lon":5.42276,"is_reserved":false,"is_disabled":false,"rental_uris":{"android":"levelo://app?vid=d39e5537-c00a-4bf8-9f22-53966b448679","ios":"levelo://app?vid=d39e5537-c00a-4bf8-9f22-53966b448679"},"vehicle_type_id":"4","last_reported":1744791272,"current_range_meters":22000,"station_id":"ce4bhph2rcd13ifvqhdg","pricing_plan_id":"cebpf4jnsgd1na2vs0mg"},{"bike_id":"a3e5d7aa-c595-425d-ac36-8770e48450a3","system_id":"levelo_inurba_marseille","lat":43.310693,"lon":5.383637,"is_reserved":false,"is_disabled":true,"rental_uris":{"android":"levelo://app?vid=a3e5d7aa-c595-425d-ac36-8770e48450a3","ios":"levelo://app?vid=a3e5d7aa-c595-425d-ac36-8770e48450a3"},"vehicle_type_id":"4","last_reported":1744791272,"current_range_meters":22000,"station_id":"ce4bgv92rcd13ifvqcr0","pricing_plan_id":"cebpf4jnsgd1na2vs0mg"},{"bike_id":"f1b2d686-7442-406b-b57b-71d948fdb88f","system_id":"levelo_inurba_marseille","lat":43.30095,"lon":5.39082,"is_reserved":false,"is_disabled":false,"rental_uris":{"android":"levelo://app?vid=f1b2d686-7442-406b-b57b-71d948fdb88f","ios":"levelo://app?vid=f1b2d686-7442-406b-b57b-71d948fdb88f"},"vehicle_type_id":"4","last_reported":1744791272,"current_range_meters":21600,"station_id":"ce4bh192rcd13ifvqdb0","pricing_plan_id":"cebpf4jnsgd1na2vs0mg"},{"bike_id":"dbcff369-6eef-48c8-9493-1b2c5051bb40","system_id":"levelo_inurba_marseille","lat":43.29175,"lon":5.37166,"is_reserved":false,"is_disabled":false,"rental_uris":{"android":"levelo://app?vid=dbcff369-6eef-48c8-9493-1b2c5051bb40","ios":"levelo://app?vid=dbcff369-6eef-48c8-9493-1b2c5051bb40"},"vehicle_type_id":"4","last_reported":1744791272,"current_range_meters":22000,"station_id":"ce4bha92rcd13ifvqeh0","pricing_plan_id":"cebpf4jnsgd1na2vs0mg"},{"bike_id":"490bbc46-4b34-4389-abc8-b84cf9fbc189","system_id":"levelo_inurba_marseille","lat":43.29373,"lon":5.37836,"is_reserved":false,"is_disabled":false,"rental_uris":{"android":"levelo://app?vid=490bbc46-4b34-4389-abc8-b84cf9fbc189","ios":"levelo://app?vid=490bbc46-4b34-4389-abc8-b84cf9fbc189"},"vehicle_type_id":"4","last_reported":1744791272,"current_range_meters":22800,"station_id":"ce4bgjh2rcd13ifvqbf0","pricing_plan_id":"cebpf4jnsgd1na2vs0mg"},{"bike_id":"a52d0fff-1b64-40d6-92a4-0a6890862603","system_id":"levelo_inurba_marseille","lat":43.2407,"lon":5.37766,"is_reserved":false,"is_disabled":false,"rental_uris":{"android":"levelo://app?vid=a52d0fff-1b64-40d6-92a4-0a6890862603","ios":"levelo://app?vid=a52d0fff-1b64-40d6-92a4-0a6890862603"},"vehicle_type_id":"4","last_reported":1744791272,"current_range_meters":22000,"station_id":"ce4bhnp2rcd13ifvqgvg","pricing_plan_id":"cebpf4jnsgd1na2vs0mg"},{"bike_id":"ae5433ba-42ca-4b31-bb65-b1cb5613431f","system_id":"levelo_inurba_marseille","lat":43.30558,"lon":5.36518,"is_reserved":false,"is_disabled":false,"rental_uris":{"android":"levelo://app?vid=ae5433ba-42ca-4b31-bb65-b1cb5613431f","ios":"levelo://app?vid=ae5433ba-42ca-4b31-bb65-b1cb5613431f"},"vehicle_type_id":"4","last_reported":1744791272,"current_range_meters":22000,"station_id":"ce4bgs12rcd13ifvqcag","pricing_plan_id":"cebpf4jnsgd1na2vs0mg"},{"bike_id":"c73ab921-dd9a-4810-95bf-f34353c47ee8","system_id":"levelo_inurba_marseille","lat":43.30278,"lon":5.3771,"is_reserved":false,"is_disabled":false,"rental_uris":{"android":"levelo://app?vid=c73ab921-dd9a-4810-95bf-f34353c47ee8","ios":"levelo://app?vid=c73ab921-dd9a-4810-95bf-f34353c47ee8"},"vehicle_type_id":"4","last_reported":1744791272,"current_range_meters":22000,"station_id":"ce4bguh2rcd13ifvqcj0","pricing_plan_id":"cebpf4jnsgd1na2vs0mg"},{"bike_id":"0909c557-60cf-4d6b-9b97-6752a5725ed4","system_id":"levelo_inurba_marseille","lat":43.25939,"lon":5.40905,"is_reserved":false,"is_disabled":false,"rental_uris":{"android":"levelo://app?vid=0909c557-60cf-4d6b-9b97-6752a5725ed4","ios":"levelo://app?vid=0909c557-60cf-4d6b-9b97-6752a5725ed4"},"vehicle_type_id":"4","last_reported":1744791272,"current_range_meters":22000,"station_id":"ce4bhm92rcd13ifvqglg","pricing_plan_id":"cebpf4jnsgd1na2vs0mg"},{"bike_id":"6bf6871e-2941-427a-b652-aef272651f3f","system_id":"levelo_inurba_marseille","lat":43.24178,"lon":5.39722,"is_reserved":false,"is_disabled":false,"rental_uris":{"android":"levelo://app?vid=6bf6871e-2941-427a-b652-aef272651f3f","ios":"levelo://app?vid=6bf6871e-2941-427a-b652-aef272651f3f"},"vehicle_type_id":"4","last_reported":1744791272,"current_range_meters":22000,"station_id":"ce4bhn12rcd13ifvqgpg","pricing_plan_id":"cebpf4jnsgd1na2vs0mg"},{"bike_id":"221415bd-9c9e-49b9-9d9d-685af1ddf6c5","system_id":"levelo_inurba_marseille","lat":43.30532,"lon":5.36534,"is_reserved":false,"is_disabled":false,"rental_uris":{"android":"levelo://app?vid=221415bd-9c9e-49b9-9d9d-685af1ddf6c5","ios":"levelo://app?vid=221415bd-9c9e-49b9-9d9d-685af1ddf6c5"},"vehicle_type_id":"4","last_reported":1744791272,"current_range_meters":22400,"station_id":"ce4bgs12rcd13ifvqcag","pricing_plan_id":"cebpf4jnsgd1na2vs0mg"},{"bike_id":"be8754ec-ce51-4437-8e30-e041aa53c4a3","system_id":"levelo_inurba_marseille","lat":43.24809,"lon":5.37457,"is_reserved":false,"is_disabled":false,"rental_uris":{"android":"levelo://app?vid=be8754ec-ce51-4437-8e30-e041aa53c4a3","ios":"levelo://app?vid=be8754ec-ce51-4437-8e30-e041aa53c4a3"},"vehicle_type_id":"4","last_reported":1744791272,"current_range_meters":22400,"station_id":"ce4bhgh2rcd13ifvqfb0","pricing_plan_id":"cebpf4jnsgd1na2vs0mg"},{"bike_id":"6c0116c7-b8e5-4184-8db5-bfa0bebbbbe6","system_id":"levelo_inurba_marseille","lat":43.29621,"lon":5.37721,"is_reserved":false,"is_disabled":false,"rental_uris":{"android":"levelo://app?vid=6c0116c7-b8e5-4184-8db5-bfa0bebbbbe6","ios":"levelo://app?vid=6c0116c7-b8e5-4184-8db5-bfa0bebbbbe6"},"vehicle_type_id":"4","last_reported":1744791272,"current_range_meters":22400,"station_id":"ce4bgi92rcd13ifvqb90","pricing_plan_id":"cebpf4jnsgd1na2vs0mg"},{"bike_id":"ce858170-e195-4990-b6fe-78bec9e179a1","system_id":"levelo_inurba_marseille","lat":43.341301,"lon":5.409106,"is_reserved":false,"is_disabled":false,"rental_uris":{"android":"levelo://app?vid=ce858170-e195-4990-b6fe-78bec9e179a1","ios":"levelo://app?vid=ce858170-e195-4990-b6fe-78bec9e179a1"},"vehicle_type_id":"4","last_reported":1744791272,"current_range_meters":22400,"station_id":"ce4bhqh2rcd13ifvqhlg","pricing_plan_id":"cebpf4jnsgd1na2vs0mg"},{"bike_id":"d0d01deb-85a7-47d3-bfb8-887fe34b7008","system_id":"levelo_inurba_marseille","lat":43.31346,"lon":5.36725,"is_reserved":false,"is_disabled":true,"rental_uris":{"android":"levelo://app?vid=d0d01deb-85a7-47d3-bfb8-887fe34b7008","ios":"levelo://app?vid=d0d01deb-85a7-47d3-bfb8-887fe34b7008"},"vehicle_type_id":"4","last_reported":1744791272,"current_range_meters":22400,"station_id":"ce4bgr92rcd13ifvqc6g","pricing_plan_id":"cebpf4jnsgd1na2vs0mg"},{"bike_id":"78f43c0c-1a11-48d3-be7f-1d83814f2381","system_id":"levelo_inurba_marseille","lat":43.25575,"lon":5.38245,"is_reserved":false,"is_disabled":false,"rental_uris":{"android":"levelo://app?vid=78f43c0c-1a11-48d3-be7f-1d83814f2381","ios":"levelo://app?vid=78f43c0c-1a11-48d3-be7f-1d83814f2381"},"vehicle_type_id":"4","last_reported":1744791272,"current_range_meters":22000,"station_id":"ce4bhih2rcd13ifvqfs0","pricing_plan_id":"cebpf4jnsgd1na2vs0mg"},{"bike_id":"0cbe9e86-e23d-4573-8ede-985e9e4ec63a","system_id":"levelo_inurba_marseille","lat":43.2731,"lon":5.39072,"is_reserved":false,"is_disabled":false,"rental_uris":{"android":"levelo://app?vid=0cbe9e86-e23d-4573-8ede-985e9e4ec63a","ios":"levelo://app?vid=0cbe9e86-e23d-4573-8ede-985e9e4ec63a"},"vehicle_type_id":"4","last_reported":1744791272,"current_range_meters":22400,"station_id":"ce4bhgp2rcd13ifvqfe0","pricing_plan_id":"cebpf4jnsgd1na2vs0mg"},{"bike_id":"6f2360da-5688-4f6a-8ebd-9e32ee7c678f","system_id":"levelo_inurba_marseille","lat":43.31692,"lon":5.40469,"is_reserved":false,"is_disabled":false,"rental_uris":{"android":"levelo://app?vid=6f2360da-5688-4f6a-8ebd-9e32ee7c678f","ios":"levelo://app?vid=6f2360da-5688-4f6a-8ebd-9e32ee7c678f"},"vehicle_type_id":"4","last_reported":1744791272,"current_range_meters":22400,"station_id":"ce4bh012rcd13ifvqd00","pricing_plan_id":"cebpf4jnsgd1na2vs0mg"},{"bike_id":"3f761246-0d21-4df1-9aa1-2fe452c29abd","system_id":"levelo_inurba_marseille","lat":43.21762,"lon":5.34602,"is_reserved":false,"is_disabled":false,"rental_uris":{"android":"levelo://app?vid=3f761246-0d21-4df1-9aa1-2fe452c29abd","ios":"levelo://app?vid=3f761246-0d21-4df1-9aa1-2fe452c29abd"},"vehicle_type_id":"4","last_reported":1744791272,"current_range_meters":22400,"station_id":"st_cvj6r9ubvosntc0bgbag","pricing_plan_id":"cebpf4jnsgd1na2vs0mg"},{"bike_id":"113813ce-15c7-4eb4-bc8c-a83f979fccc0","system_id":"levelo_inurba_marseille","lat":43.22337,"lon":5.34617,"is_reserved":false,"is_disabled":false,"rental_uris":{"android":"levelo://app?vid=113813ce-15c7-4eb4-bc8c-a83f979fccc0","ios":"levelo://app?vid=113813ce-15c7-4eb4-bc8c-a83f979fccc0"},"vehicle_type_id":"4","last_reported":1744791272,"current_range_meters":22800,"station_id":"","pricing_plan_id":"cebpf4jnsgd1na2vs0mg"},{"bike_id":"772ee25f-4d28-46d6-ad75-672bc395e79f","system_id":"levelo_inurba_marseille","lat":43.292759,"lon":5.368375,"is_reserved":false,"is_disabled":false,"rental_uris":{"android":"levelo://app?vid=772ee25f-4d28-46d6-ad75-672bc395e79f","ios":"levelo://app?vid=772ee25f-4d28-46d6-ad75-672bc395e79f"},"vehicle_type_id":"4","last_reported":1744791272,"current_range_meters":22800,"station_id":"ce4bhbp2rcd13ifvqesg","pricing_plan_id":"cebpf4jnsgd1na2vs0mg"},{"bike_id":"7ed9a81a-169b-437d-a718-7d28a51c26a5","system_id":"levelo_inurba_marseille","lat":43.26679,"lon":5.38273,"is_reserved":false,"is_disabled":false,"rental_uris":{"android":"levelo://app?vid=7ed9a81a-169b-437d-a718-7d28a51c26a5","ios":"levelo://app?vid=7ed9a81a-169b-437d-a718-7d28a51c26a5"},"vehicle_type_id":"4","last_reported":1744791272,"current_range_meters":22800,"station_id":"ce4bhg92rcd13ifvqf90","pricing_plan_id":"cebpf4jnsgd1na2vs0mg"},{"bike_id":"fd2e9bd5-6aa2-47a2-a5d1-9e4a436a0b5f","system_id":"levelo_inurba_marseille","lat":43.31995,"lon":5.38153,"is_reserved":false,"is_disabled":false,"rental_uris":{"android":"levelo://app?vid=fd2e9bd5-6aa2-47a2-a5d1-9e4a436a0b5f","ios":"levelo://app?vid=fd2e9bd5-6aa2-47a2-a5d1-9e4a436a0b5f"},"vehicle_type_id":"4","last_reported":1744791272,"current_range_meters":22800,"station_id":"ce4bhr12rcd13ifvqhpg","pricing_plan_id":"cebpf4jnsgd1na2vs0mg"},{"bike_id":"f49c4e21-3368-4dd3-b8d1-f136aaf28dbc","system_id":"levelo_inurba_marseille","lat":43.312218,"lon":5.36852,"is_reserved":false,"is_disabled":false,"rental_uris":{"android":"levelo://app?vid=f49c4e21-3368-4dd3-b8d1-f136aaf28dbc","ios":"levelo://app?vid=f49c4e21-3368-4dd3-b8d1-f136aaf28dbc"},"vehicle_type_id":"4","last_reported":1744791272,"current_range_meters":22800,"station_id":"ce4bgl92rcd13ifvqbq0","pricing_plan_id":"cebpf4jnsgd1na2vs0mg"},{"bike_id":"94c8b160-29dd-45c4-9d5f-86d40f79a61c","system_id":"levelo_inurba_marseille","lat":43.26185,"lon":5.40377,"is_reserved":false,"is_disabled":false,"rental_uris":{"android":"levelo://app?vid=94c8b160-29dd-45c4-9d5f-86d40f79a61c","ios":"levelo://app?vid=94c8b160-29dd-45c4-9d5f-86d40f79a61c"},"vehicle_type_id":"4","last_reported":1744791272,"current_range_meters":22800,"station_id":"ce4bhmh2rcd13ifvqgmg","pricing_plan_id":"cebpf4jnsgd1na2vs0mg"},{"bike_id":"bbd56014-1027-4a24-b1a9-fb0ca4b43b0a","system_id":"levelo_inurba_marseille","lat":43.27817,"lon":5.40706,"is_reserved":false,"is_disabled":false,"rental_uris":{"android":"levelo://app?vid=bbd56014-1027-4a24-b1a9-fb0ca4b43b0a","ios":"levelo://app?vid=bbd56014-1027-4a24-b1a9-fb0ca4b43b0a"},"vehicle_type_id":"4","last_reported":1744791272,"current_range_meters":22800,"station_id":"ce4bhnh2rcd13ifvqgtg","pricing_plan_id":"cebpf4jnsgd1na2vs0mg"},{"bike_id":"95cb4257-47a7-43ca-9e16-7d5e93c960cc","system_id":"levelo_inurba_marseille","lat":43.31228,"lon":5.36834,"is_reserved":false,"is_disabled":false,"rental_uris":{"android":"levelo://app?vid=95cb4257-47a7-43ca-9e16-7d5e93c960cc","ios":"levelo://app?vid=95cb4257-47a7-43ca-9e16-7d5e93c960cc"},"vehicle_type_id":"4","last_reported":1744791272,"current_range_meters":22800,"station_id":"ce4bgl92rcd13ifvqbq0","pricing_plan_id":"cebpf4jnsgd1na2vs0mg"},{"bike_id":"dddf7314-1c94-4eef-9f77-fcee7efca655","system_id":"levelo_inurba_marseille","lat":43.2999,"lon":5.37175,"is_reserved":false,"is_disabled":false,"rental_uris":{"android":"levelo://app?vid=dddf7314-1c94-4eef-9f77-fcee7efca655","ios":"levelo://app?vid=dddf7314-1c94-4eef-9f77-fcee7efca655"},"vehicle_type_id":"4","last_reported":1744791272,"current_range_meters":22800,"station_id":"ce4bgr92rcd13ifvqc7g","pricing_plan_id":"cebpf4jnsgd1na2vs0mg"},{"bike_id":"b8def413-2ab1-4a39-9882-ccfccbaa4117","system_id":"levelo_inurba_marseille","lat":43.2936,"lon":5.37829,"is_reserved":false,"is_disabled":false,"rental_uris":{"android":"levelo://app?vid=b8def413-2ab1-4a39-9882-ccfccbaa4117","ios":"levelo://app?vid=b8def413-2ab1-4a39-9882-ccfccbaa4117"},"vehicle_type_id":"4","last_reported":1744791272,"current_range_meters":23200,"station_id":"ce4bgjh2rcd13ifvqbf0","pricing_plan_id":"cebpf4jnsgd1na2vs0mg"},{"bike_id":"fcc29015-7b3a-44a8-8c09-db9e23baca45","system_id":"levelo_inurba_marseille","lat":43.30464,"lon":5.37911,"is_reserved":false,"is_disabled":false,"rental_uris":{"android":"levelo://app?vid=fcc29015-7b3a-44a8-8c09-db9e23baca45","ios":"levelo://app?vid=fcc29015-7b3a-44a8-8c09-db9e23baca45"},"vehicle_type_id":"4","last_reported":1744791272,"current_range_meters":23200,"station_id":"ce4bgup2rcd13ifvqcn0","pricing_plan_id":"cebpf4jnsgd1na2vs0mg"},{"bike_id":"d173482c-33fe-4e3f-b3dc-50194ba6dd74","system_id":"levelo_inurba_marseille","lat":43.2418,"lon":5.39688,"is_reserved":false,"is_disabled":false,"rental_uris":{"android":"levelo://app?vid=d173482c-33fe-4e3f-b3dc-50194ba6dd74","ios":"levelo://app?vid=d173482c-33fe-4e3f-b3dc-50194ba6dd74"},"vehicle_type_id":"4","last_reported":1744791272,"current_range_meters":23200,"station_id":"ce4bhn12rcd13ifvqgpg","pricing_plan_id":"cebpf4jnsgd1na2vs0mg"},{"bike_id":"12dd0287-38f8-406f-b7e0-fad92c423565","system_id":"levelo_inurba_marseille","lat":43.29222,"lon":5.36092,"is_reserved":false,"is_disabled":true,"rental_uris":{"android":"levelo://app?vid=12dd0287-38f8-406f-b7e0-fad92c423565","ios":"levelo://app?vid=12dd0287-38f8-406f-b7e0-fad92c423565"},"vehicle_type_id":"4","last_reported":1744791272,"current_range_meters":23200,"station_id":"ce4bhbh2rcd13ifvqeqg","pricing_plan_id":"cebpf4jnsgd1na2vs0mg"},{"bike_id":"78921bf8-170b-4b37-9d8e-fc93a238a0f8","system_id":"levelo_inurba_marseille","lat":43.30854,"lon":5.37319,"is_reserved":false,"is_disabled":false,"rental_uris":{"android":"levelo://app?vid=78921bf8-170b-4b37-9d8e-fc93a238a0f8","ios":"levelo://app?vid=78921bf8-170b-4b37-9d8e-fc93a238a0f8"},