{"last_updated":1747570713,"ttl":60,"version":"2.2","data":{"bikes":[{"bike_id":"3200028d-adb7-46d7-854a-0d16d1a6f998","system_id":"levelo_inurba_marseille","lat":43.29803,"lon":5.38132,"is_reserved":false,"is_disabled":true,"rental_uris":{"android":"levelo://app?vid=3200028d-adb7-46d7-854a-0d16d1a6f998","ios":"levelo://app?vid=3200028d-adb7-46d7-854a-0d16d1a6f998"},"vehicle_type_id":"4","last_reported":1747570713,"current_range_meters":2800,"station_id":"ce4bgip2rcd13ifvqbb0","pricing_plan_id":"cebpf4jnsgd1na2vs0mg"},{"bike_id":"f64381cd-9ddf-43f4-b959-94a2160a7ca5","system_id":"levelo_inurba_marseille","lat":43.28422,"lon":5.34975,"is_reserved":false,"is_disabled":false,"rental_uris":{"android":"levelo://app?vid=f64381cd-9ddf-43f4-b959-94a2160a7ca5","ios":"levelo://app?vid=f64381cd-9ddf-43f4-b959-94a2160a7ca5"},"vehicle_type_id":"4","last_reported":1747570713,"current_range_meters":2800,"station_id":"ce4bhbh2rcd13ifvqepg","pricing_plan_id":"cebpf4jnsgd1na2vs0mg"},{"bike_id":"9bd806ab-49e0-4d25-91ed-fb16c4987967","system_id":"levelo_inurba_marseille","lat":43.27371,"lon":5.36251,"is_reserved":false,"is_disabled":false,"rental_uris":{"android":"levelo://app?vid=9bd806ab-49e0-4d25-91ed-fb16c4987967","ios":"levelo://app?vid=9bd806ab-49e0-4d25-91ed-fb16c4987967"},"vehicle_type_id":"4","last_reported":1747570713,"current_range_meters":2800,"station_id":"ce4bhbh2rcd13ifvqeo0","pricing_plan_id":"cebpf4jnsgd1na2vs0mg"},{"bike_id":"9e659f97-a24d-41ae-a606-9a3125d835b6","system_id":"levelo_inurba_marseille","lat":43.28098,"lon":5.37851,"is_reserved":false,"is_disabled":false,"rental_uris":{"android":"levelo://app?vid=9e659f97-a24d-41ae-a606-9a3125d835b6","ios":"levelo://app?vid=9e659f97-a24d-41ae-a606-9a3125d835b6"},"vehicle_type_id":"4","last_reported":1747570713,"current_range_meters":2800,"station_id":"ce4bha12rcd13ifvqee0","pricing_plan_id":"cebpf4jnsgd1na2vs0mg"},{"bike_id":"a4063de7-3465-4b39-9bf8-ef1a75de7c2d","system_id":"levelo_inurba_marseille","lat":43.28585,"lon":5.46093,"is_reserved":false,"is_disabled":false,"rental_uris":{"android":"levelo://app?vid=a4063de7-3465-4b39-9bf8-ef1a75de7c2d","ios":"levelo://app?vid=a4063de7-3465-4b39-9bf8-ef1a75de7c2d"},"vehicle_type_id":"4","last_reported":1747570713,"current_range_meters":2800,"station_id":"","pricing_plan_id":"cebpf4jnsgd1na2vs0mg"},{"bike_id":"e5faa87c-800f-4c13-bb95-4090fd787427","system_id":"levelo_inurba_marseille","lat":43.23327,"lon":5.39957,"is_reserved":false,"is_disabled":false,"rental_uris":{"android":"levelo://app?vid=e5faa87c-800f-4c13-bb95-4090fd787427","ios":"levelo://app?vid=e5faa87c-800f-4c13-bb95-4090fd787427"},"vehicle_type_id":"4","last_reported":1747570713,"current_range_meters":2800,"station_id":"","pricing_plan_id":"cebpf4jnsgd1na2vs0mg"},{"bike_id":"0b3df2d3-126e-402b-aedb-e41a6ce118d4","system_id":"levelo_inurba_marseille","lat":43.3133,"lon":5.3969,"is_reserved":false,"is_disabled":false,"rental_uris":{"android":"levelo://app?vid=0b3df2d3-126e-402b-aedb-e41a6ce118d4","ios":"levelo://app?vid=0b3df2d3-126e-402b-aedb-e41a6ce118d4"},"vehicle_type_id":"4","last_reported":1747570713,"current_range_meters":2800,"station_id":"ce4bgvp2rcd13ifvqcu0","pricing_plan_id":"cebpf4jnsgd1na2vs0mg"},{"bike_id":"1567fd81-f601-44e2-992f-536cad1ad7bb","system_id":"levelo_inurba_marseille","lat":43.26029,"lon":5.37544,"is_reserved":false,"is_disabled":false,"rental_uris":{"android":"levelo://app?vid=1567fd81-f601-44e2-992f-536cad1ad7bb","ios":"levelo://app?vid=1567fd81-f601-44e2-992f-536cad1ad7bb"},"vehicle_type_id":"4","last_reported":1747570713,"current_range_meters":2800,"station_id":"ce4bhgh2rcd13ifvqfa0","pricing_plan_id":"cebpf4jnsgd1na2vs0mg"},{"bike_id":"27026f6d-b92b-4f95-9173-42d6eacef3df","system_id":"levelo_inurba_marseille","lat":43.290087,"lon":5.356154,"is_reserved":false,"is_disabled":false,"rental_uris":{"android":"levelo://app?vid=27026f6d-b92b-4f95-9173-42d6eacef3df","ios":"levelo://app?vid=27026f6d-b92b-4f95-9173-42d6eacef3df"},"vehicle_type_id":"4","last_reported":1747570713,"current_range_meters":3200,"station_id":"ce4bhb92rcd13ifvqen0","pricing_plan_id":"cebpf4jnsgd1na2vs0mg"},{"bike_id":"91dc871d-3e8e-4184-a8e6-097ebf7e6abd","system_id":"levelo_inurba_marseille","lat":43.29553,"lon":5.38529,"is_reserved":false,"is_disabled":false,"rental_uris":{"android":"levelo://app?vid=91dc871d-3e8e-4184-a8e6-097ebf7e6abd","ios":"levelo://app?vid=91dc871d-3e8e-4184-a8e6-097ebf7e6abd"},"vehicle_type_id":"4","last_reported":1747570713,"current_range_meters":3200,"station_id":"ce4bgih2rcd13ifvqba0","pricing_plan_id":"cebpf4jnsgd1na2vs0mg"},{"bike_id":"f85dd9ff-517c-4153-9f6e-fee071bff7e7","system_id":"levelo_inurba_marseille","lat":43.23159,"lon":5.43706,"is_reserved":false,"is_disabled":false,"rental_uris":{"android":"levelo://app?vid=f85dd9ff-517c-4153-9f6e-fee071bff7e7","ios":"levelo://app?vid=f85dd9ff-517c-4153-9f6e-fee071bff7e7"},"vehicle_type_id":"4","last_reported":1747570713,"current_range_meters":3200,"station_id":"ce4bhmp2rcd13ifvqgog","pricing_plan_id":"cebpf4jnsgd1na2vs0mg"},{"bike_id":"3fa58c22-00c6-48db-914d-ec2861a3d890","system_id":"levelo_inurba_marseille","lat":43.310795,"lon":5.40233,"is_reserved":false,"is_disabled":false,"rental_uris":{"android":"levelo://app?vid=3fa58c22-00c6-48db-914d-ec2861a3d890","ios":"levelo://app?vid=3fa58c22-00c6-48db-914d-ec2861a3d890"},"vehicle_type_id":"4","last_reported":1747570713,"current_range_meters":3200,"station_id":"","pricing_plan_id":"cebpf4jnsgd1na2vs0mg"},{"bike_id":"b61ebbd4-f39d-476d-946d-c19575787b36","system_id":"levelo_inurba_marseille","lat":43.30145,"lon":5.38097,"is_reserved":false,"is_disabled":false,"rental_uris":{"android":"levelo://app?vid=b61ebbd4-f39d-476d-946d-c19575787b36","ios":"levelo://app?vid=b61ebbd4-f39d-476d-946d-c19575787b36"},"vehicle_type_id":"4","last_reported":1747570713,"current_range_meters":3600,"station_id":"ce4bgjp2rcd13ifvqbh0","pricing_plan_id":"cebpf4jnsgd1na2vs0mg"},{"bike_id":"3e03744b-3e6e-4b7b-9f31-bdc8a01d76f6","system_id":"levelo_inurba_marseille","lat":43.27317,"lon":5.39082,"is_reserved":false,"is_disabled":false,"rental_uris":{"android":"levelo://app?vid=3e03744b-3e6e-4b7b-9f31-bdc8a01d76f6","ios":"levelo://app?vid=3e03744b-3e6e-4b7b-9f31-bdc8a01d76f6"},"vehicle_type_id":"4","last_reported":1747570713,"current_range_meters":3600,"station_id":"ce4bhgp2rcd13ifvqfe0","pricing_plan_id":"cebpf4jnsgd1na2vs0mg"},{"bike_id":"6cd5c425-f8ac-4068-b8ea-a8bfbef29ee5","system_id":"levelo_inurba_marseille","lat":43.24991,"lon":5.37935,"is_reserved":false,"is_disabled":false,"rental_uris":{"android":"levelo://app?vid=6cd5c425-f8ac-4068-b8ea-a8bfbef29ee5","ios":"levelo://app?vid=6cd5c425-f8ac-4068-b8ea-a8bfbef29ee5"},"vehicle_type_id":"4","last_reported":1747570713,"current_range_meters":3600,"station_id":"","pricing_plan_id":"cebpf4jnsgd1na2vs0mg"},{"bike_id":"4b6b0b62-66ab-406b-a1ad-632a61b5e0e2","system_id":"levelo_inurba_marseille","lat":43.21194,"lon":5.35072,"is_reserved":false,"is_disabled":false,"rental_uris":{"android":"levelo://app?vid=4b6b0b62-66ab-406b-a1ad-632a61b5e0e2","ios":"levelo://app?vid=4b6b0b62-66ab-406b-a1ad-632a61b5e0e2"},"vehicle_type_id":"4","last_reported":1747570713,"current_range_meters":3600,"station_id":"st_cvj6sg6p6f1abm77japg","pricing_plan_id":"cebpf4jnsgd1na2vs0mg"},{"bike_id":"498d78e6-0b98-4521-9c54-9764618825ac","system_id":"levelo_inurba_marseille","lat":43.29067,"lon":5.3715,"is_reserved":false,"is_disabled":false,"rental_uris":{"android":"levelo://app?vid=498d78e6-0b98-4521-9c54-9764618825ac","ios":"levelo://app?vid=498d78e6-0b98-4521-9c54-9764618825ac"},"vehicle_type_id":"4","last_reported":1747570713,"current_range_meters":3600,"station_id":"ce4bh5p2rcd13ifvqe4g","pricing_plan_id":"cebpf4jnsgd1na2vs0mg"},{"bike_id":"1ac7d688-aa93-42d0-b331-96e5f0ef4cc6","system_id":"levelo_inurba_marseille","lat":43.24384,"lon":5.37051,"is_reserved":false,"is_disabled":false,"rental_uris":{"android":"levelo://app?vid=1ac7d688-aa93-42d0-b331-96e5f0ef4cc6","ios":"levelo://app?vid=1ac7d688-aa93-42d0-b331-96e5f0ef4cc6"},"vehicle_type_id":"4","last_reported":1747570713,"current_range_meters":4000,"station_id":"ce4bhhh2rcd13ifvqfk0","pricing_plan_id":"cebpf4jnsgd1na2vs0mg"},{"bike_id":"4de15100-1d03-4790-8e60-b39a5dc8ce13","system_id":"levelo_inurba_marseille","lat":43.27831,"lon":5.40701,"is_reserved":false,"is_disabled":false,"rental_uris":{"android":"levelo://app?vid=4de15100-1d03-4790-8e60-b39a5dc8ce13","ios":"levelo://app?vid=4de15100-1d03-4790-8e60-b39a5dc8ce13"},"vehicle_type_id":"4","last_reported":1747570713,"current_range_meters":4000,"station_id":"ce4bhnh2rcd13ifvqgtg","pricing_plan_id":"cebpf4jnsgd1na2vs0mg"},{"bike_id":"394cadcc-3a78-4403-9bfc-1006acf0fb23","system_id":"levelo_inurba_marseille","lat":43.26217,"lon":5.37921,"is_reserved":false,"is_disabled":true,"rental_uris":{"android":"levelo://app?vid=394cadcc-3a78-4403-9bfc-1006acf0fb23","ios":"levelo://app?vid=394cadcc-3a78-4403-9bfc-1006acf0fb23"},"vehicle_type_id":"4","last_reported":1747570713,"current_range_meters":4000,"station_id":"ce4bhjp2rcd13ifvqg90","pricing_plan_id":"cebpf4jnsgd1na2vs0mg"},{"bike_id":"6df4e0db-0b23-45ed-b0f1-2199519586a3","system_id":"levelo_inurba_marseille","lat":43.30153,"lon":5.38077,"is_reserved":false,"is_disabled":false,"rental_uris":{"android":"levelo://app?vid=6df4e0db-0b23-45ed-b0f1-2199519586a3","ios":"levelo://app?vid=6df4e0db-0b23-45ed-b0f1-2199519586a3"},"vehicle_type_id":"4","last_reported":1747570713,"current_range_meters":4000,"station_id":"ce4bgjp2rcd13ifvqbh0","pricing_plan_id":"cebpf4jnsgd1na2vs0mg"},{"bike_id":"a4134b46-8d3d-4d0b-8767-ea87cec8e183","system_id":"levelo_inurba_marseille","lat":43.29863,"lon":5.39731,"is_reserved":false,"is_disabled":false,"rental_uris":{"android":"levelo://app?vid=a4134b46-8d3d-4d0b-8767-ea87cec8e183","ios":"levelo://app?vid=a4134b46-8d3d-4d0b-8767-ea87cec8e183"},"vehicle_type_id":"4","last_reported":1747570713,"current_range_meters":4000,"station_id":"ce4bh0h2rcd13ifvqd50","pricing_plan_id":"cebpf4jnsgd1na2vs0mg"},{"bike_id":"919fb6a1-94b8-4d5e-9e76-c6d8ee405e54","system_id":"levelo_inurba_marseille","lat":43.24162,"lon":5.39721,"is_reserved":false,"is_disabled":false,"rental_uris":{"android":"levelo://app?vid=919fb6a1-94b8-4d5e-9e76-c6d8ee405e54","ios":"levelo://app?vid=919fb6a1-94b8-4d5e-9e76-c6d8ee405e54"},"vehicle_type_id":"4","last_reported":1747570713,"current_range_meters":4400,"station_id":"ce4bhn12rcd13ifvqgpg","pricing_plan_id":"cebpf4jnsgd1na2vs0mg"},{"bike_id":"83df6560-d839-4cc1-b9c4-6c477190f614","system_id":"levelo_inurba_marseille","lat":43.244,"lon":5.37069,"is_reserved":false,"is_disabled":true,"rental_uris":{"android":"levelo://app?vid=83df6560-d839-4cc1-b9c4-6c477190f614","ios":"levelo://app?vid=83df6560-d839-4cc1-b9c4-6c477190f614"},"vehicle_type_id":"4","last_reported":1747570713,"current_range_meters":4400,"station_id":"ce4bhhh2rcd13ifvqfk0","pricing_plan_id":"cebpf4jnsgd1na2vs0mg"},{"bike_id":"f1033d46-befc-4cac-80d9-e4fa25f6de03","system_id":"levelo_inurba_marseille","lat":43.27826,"lon":5.407277,"is_reserved":false,"is_disabled":false,"rental_uris":{"android":"levelo://app?vid=f1033d46-befc-4cac-80d9-e4fa25f6de03","ios":"levelo://app?vid=f1033d46-befc-4cac-80d9-e4fa25f6de03"},"vehicle_type_id":"4","last_reported":1747570713,"current_range_meters":4400,"station_id":"ce4bhnh2rcd13ifvqgtg","pricing_plan_id":"cebpf4jnsgd1na2vs0mg"},{"bike_id":"3b843dca-d67a-4b0e-916b-710ebb36ec6d","system_id":"levelo_inurba_marseille","lat":43.32512,"lon":5.40141,"is_reserved":false,"is_disabled":false,"rental_uris":{"android":"levelo://app?vid=3b843dca-d67a-4b0e-916b-710ebb36ec6d","ios":"levelo://app?vid=3b843dca-d67a-4b0e-916b-710ebb36ec6d"},"vehicle_type_id":"4","last_reported":1747570713,"current_range_meters":4400,"station_id":"","pricing_plan_id":"cebpf4jnsgd1na2vs0mg"},{"bike_id":"7d12325d-c16a-4cd3-b80a-ed2a730800cb","system_id":"levelo_inurba_marseille","lat":43.29896,"lon":5.38887,"is_reserved":false,"is_disabled":false,"rental_uris":{"android":"levelo://app?vid=7d12325d-c16a-4cd3-b80a-ed2a730800cb","ios":"levelo://app?vid=7d12325d-c16a-4cd3-b80a-ed2a730800cb"},"vehicle_type_id":"4","last_reported":1747570713,"current_range_meters":4000,"station_id":"ce4bh392rcd13ifvqdl0","pricing_plan_id":"cebpf4jnsgd1na2vs0mg"},{"bike_id":"0212fc22-ff7e-4229-8355-7133735a960c","system_id":"levelo_inurba_marseille","lat":43.25113,"lon":5.40319,"is_reserved":false,"is_disabled":false,"rental_uris":{"android":"levelo://app?vid=0212fc22-ff7e-4229-8355-7133735a960c","ios":"levelo://app?vid=0212fc22-ff7e-4229-8355-7133735a960c"},"vehicle_type_id":"4","last_reported":1747570713,"current_range_meters":4400,"station_id":"ce4bhlh2rcd13ifvqgig","pricing_plan_id":"cebpf4jnsgd1na2vs0mg"},{"bike_id":"1e5a7839-d218-47a9-988d-f5fdcdfa5acb","system_id":"levelo_inurba_marseille","lat":43.25813,"lon":5.39458,"is_reserved":false,"is_disabled":false,"rental_uris":{"android":"levelo://app?vid=1e5a7839-d218-47a9-988d-f5fdcdfa5acb","ios":"levelo://app?vid=1e5a7839-d218-47a9-988d-f5fdcdfa5acb"},"vehicle_type_id":"4","last_reported":1747570713,"current_range_meters":4400,"station_id":"ce4bhip2rcd13ifvqft0","pricing_plan_id":"cebpf4jnsgd1na2vs0mg"},{"bike_id":"6324812e-8688-49c5-8e61-ad983c518511","system_id":"levelo_inurba_marseille","lat":43.2439,"lon":5.37063,"is_reserved":false,"is_disabled":false,"rental_uris":{"android":"levelo://app?vid=6324812e-8688-49c5-8e61-ad983c518511","ios":"levelo://app?vid=6324812e-8688-49c5-8e61-ad983c518511"},"vehicle_type_id":"4","last_reported":1747570713,"current_range_meters":4400,"station_id":"ce4bhhh2rcd13ifvqfk0","pricing_plan_id":"cebpf4jnsgd1na2vs0mg"},{"bike_id":"cfee810e-8503-4cf6-a017-ace9f3c89097","system_id":"levelo_inurba_marseille","lat":43.27372,"lon":5.36258,"is_reserved":false,"is_disabled":false,"rental_uris":{"android":"levelo://app?vid=cfee810e-8503-4cf6-a017-ace9f3c89097","ios":"levelo://app?vid=cfee810e-8503-4cf6-a017-ace9f3c89097"},"vehicle_type_id":"4","last_reported":1747570713,"current_range_meters":4400,"station_id":"ce4bhbh2rcd13ifvqeo0","pricing_plan_id":"cebpf4jnsgd1na2vs0mg"},{"bike_id":"f00696ac-5af8-4ebe-a21f-e5c248bb3193","system_id":"levelo_inurba_marseille","lat":43.28441,"lon":5.39193,"is_reserved":false,"is_disabled":false,"rental_uris":{"android":"levelo://app?vid=f00696ac-5af8-4ebe-a21f-e5c248bb3193","ios":"levelo://app?vid=f00696ac-5af8-4ebe-a21f-e5c248bb3193"},"vehicle_type_id":"4","last_reported":1747570713,"current_range_meters":4400,"station_id":"ce4bhoh2rcd13ifvqh5g","pricing_plan_id":"cebpf4jnsgd1na2vs0mg"},{"bike_id":"bbda5443-72b0-478a-aaad-922de1a84bda","system_id":"levelo_inurba_marseille","lat":43.23205,"lon":5.43701,"is_reserved":false,"is_disabled":false,"rental_uris":{"android":"levelo://app?vid=bbda5443-72b0-478a-aaad-922de1a84bda","ios":"levelo://app?vid=bbda5443-72b0-478a-aaad-922de1a84bda"},"vehicle_type_id":"4","last_reported":1747570713,"current_range_meters":4400,"station_id":"ce4bhmp2rcd13ifvqgog","pricing_plan_id":"cebpf4jnsgd1na2vs0mg"},{"bike_id":"dfaaa527-89cb-48a1-84d3-45557927d33e","system_id":"levelo_inurba_marseille","lat":43.3053,"lon":5.36515,"is_reserved":false,"is_disabled":false,"rental_uris":{"android":"levelo://app?vid=dfaaa527-89cb-48a1-84d3-45557927d33e","ios":"levelo://app?vid=dfaaa527-89cb-48a1-84d3-45557927d33e"},"vehicle_type_id":"4","last_reported":1747570713,"current_range_meters":4800,"station_id":"","pricing_plan_id":"cebpf4jnsgd1na2vs0mg"},{"bike_id":"aa1d8c1e-7594-4615-aa13-56fdebb973d7","system_id":"levelo_inurba_marseille","lat":43.26887,"lon":5.39161,"is_reserved":false,"is_disabled":false,"rental_uris":{"android":"levelo://app?vid=aa1d8c1e-7594-4615-aa13-56fdebb973d7","ios":"levelo://app?vid=aa1d8c1e-7594-4615-aa13-56fdebb973d7"},"vehicle_type_id":"4","last_reported":1747570713,"current_range_meters":5600,"station_id":"","pricing_plan_id":"cebpf4jnsgd1na2vs0mg"},{"bike_id":"5b9b4529-2192-4ff8-ac49-b5766cb96f73","system_id":"levelo_inurba_marseille","lat":43.28422,"lon":5.34977,"is_reserved":false,"is_disabled":false,"rental_uris":{"android":"levelo://app?vid=5b9b4529-2192-4ff8-ac49-b5766cb96f73","ios":"levelo://app?vid=5b9b4529-2192-4ff8-ac49-b5766cb96f73"},"vehicle_type_id":"4","last_reported":1747570713,"current_range_meters":4800,"station_id":"ce4bhbh2rcd13ifvqepg","pricing_plan_id":"cebpf4jnsgd1na2vs0mg"},{"bike_id":"3ad8d331-154c-4b56-81be-0f7a34147948","system_id":"levelo_inurba_marseille","lat":43.267288,"lon":5.389252,"is_reserved":false,"is_disabled":false,"rental_uris":{"android":"levelo://app?vid=3ad8d331-154c-4b56-81be-0f7a34147948","ios":"levelo://app?vid=3ad8d331-154c-4b56-81be-0f7a34147948"},"vehicle_type_id":"4","last_reported":1747570713,"current_range_meters":5600,"station_id":"","pricing_plan_id":"cebpf4jnsgd1na2vs0mg"},{"bike_id":"f41dc5d1-c57a-4544-aa8e-2ff5ad08f6e5","system_id":"levelo_inurba_marseille","lat":43.23195,"lon":5.35556,"is_reserved":false,"is_disabled":false,"rental_uris":{"android":"levelo://app?vid=f41dc5d1-c57a-4544-aa8e-2ff5ad08f6e5","ios":"levelo://app?vid=f41dc5d1-c57a-4544-aa8e-2ff5ad08f6e5"},"vehicle_type_id":"4","last_reported":1747570713,"current_range_meters":4800,"station_id":"ce4bhu92rcd13ifvqi70","pricing_plan_id":"cebpf4jnsgd1na2vs0mg"},{"bike_id":"be98142e-ab99-4f68-b04a-ff2165061bb2","system_id":"levelo_inurba_marseille","lat":43.2695,"lon":5.38624,"is_reserved":false,"is_disabled":true,"rental_uris":{"android":"levelo://app?vid=be98142e-ab99-4f68-b04a-ff2165061bb2","ios":"levelo://app?vid=be98142e-ab99-4f68-b04a-ff2165061bb2"},"vehicle_type_id":"4","last_reported":1747570713,"current_range_meters":4800,"station_id":"ce4bhh92rcd13ifvqfh0","pricing_plan_id":"cebpf4jnsgd1na2vs0mg"},{"bike_id":"7d4f213d-4d7d-4a41-8a36-b50ded95cf04","system_id":"levelo_inurba_marseille","lat":43.28932,"lon":5.36633,"is_reserved":false,"is_disabled":false,"rental_uris":{"android":"levelo://app?vid=7d4f213d-4d7d-4a41-8a36-b50ded95cf04","ios":"levelo://app?vid=7d4f213d-4d7d-4a41-8a36-b50ded95cf04"},"vehicle_type_id":"4","last_reported":1747570713,"current_range_meters":4800,"station_id":"ce4bhap2rcd13ifvqek0","pricing_plan_id":"cebpf4jnsgd1na2vs0mg"},{"bike_id":"bdc237d7-4cfd-44aa-ad9a-13f7c6384188","system_id":"levelo_inurba_marseille","lat":43.23193,"lon":5.35556,"is_reserved":false,"is_disabled":false,"rental_uris":{"android":"levelo://app?vid=bdc237d7-4cfd-44aa-ad9a-13f7c6384188","ios":"levelo://app?vid=bdc237d7-4cfd-44aa-ad9a-13f7c6384188"},"vehicle_type_id":"4","last_reported":1747570713,"current_range_meters":4800,"station_id":"ce4bhu92rcd13ifvqi70","pricing_plan_id":"cebpf4jnsgd1na2vs0mg"},{"bike_id":"08ee526b-71d3-40ce-b381-8bdb89e24fa4","system_id":"levelo_inurba_marseille","lat":43.30948,"lon":5.39029,"is_reserved":false,"is_disabled":false,"rental_uris":{"android":"levelo://app?vid=08ee526b-71d3-40ce-b381-8bdb89e24fa4","ios":"levelo://app?vid=08ee526b-71d3-40ce-b381-8bdb89e24fa4"},"vehicle_type_id":"4","last_reported":1747570713,"current_range_meters":5600,"station_id":"ce4bgup2rcd13ifvqco0","pricing_plan_id":"cebpf4jnsgd1na2vs0mg"},{"bike_id":"e14f7575-b29c-4546-8e86-70adba1d14c6","system_id":"levelo_inurba_marseille","lat":43.337444,"lon":5.374475,"is_reserved":false,"is_disabled":true,"rental_uris":{"android":"levelo://app?vid=e14f7575-b29c-4546-8e86-70adba1d14c6","ios":"levelo://app?vid=e14f7575-b29c-4546-8e86-70adba1d14c6"},"vehicle_type_id":"4","last_reported":1747570713,"current_range_meters":5600,"station_id":"","pricing_plan_id":"cebpf4jnsgd1na2vs0mg"},{"bike_id":"6dcabd22-3cc9-40fb-a0a9-640bde7feea1","system_id":"levelo_inurba_marseille","lat":43.282663,"lon":5.350609,"is_reserved":false,"is_disabled":false,"rental_uris":{"android":"levelo://app?vid=6dcabd22-3cc9-40fb-a0a9-640bde7feea1","ios":"levelo://app?vid=6dcabd22-3cc9-40fb-a0a9-640bde7feea1"},"vehicle_type_id":"4","last_reported":1747570713,"current_range_meters":5600,"station_id":"ce4bhbp2rcd13ifvqerg","pricing_plan_id":"cebpf4jnsgd1na2vs0mg"},{"bike_id":"3e562258-9698-495a-8db5-0c0e2aafd080","system_id":"levelo_inurba_marseille","lat":43.276197,"lon":5.361046,"is_reserved":false,"is_disabled":false,"rental_uris":{"android":"levelo://app?vid=3e562258-9698-495a-8db5-0c0e2aafd080","ios":"levelo://app?vid=3e562258-9698-495a-8db5-0c0e2aafd080"},"vehicle_type_id":"4","last_reported":1747570713,"current_range_meters":6000,"station_id":"ce4bgj92rcd13ifvqbe0","pricing_plan_id":"cebpf4jnsgd1na2vs0mg"},{"bike_id":"6936d568-20e5-4442-b307-62587860a607","system_id":"levelo_inurba_marseille","lat":43.32329,"lon":5.40618,"is_reserved":false,"is_disabled":false,"rental_uris":{"android":"levelo://app?vid=6936d568-20e5-4442-b307-62587860a607","ios":"levelo://app?vid=6936d568-20e5-4442-b307-62587860a607"},"vehicle_type_id":"4","last_reported":1747570713,"current_range_meters":6000,"station_id":"ce4bhq92rcd13ifvqhjg","pricing_plan_id":"cebpf4jnsgd1na2vs0mg"},{"bike_id":"e5013baf-c7d0-4bd2-b1c5-b16df7134711","system_id":"levelo_inurba_marseille","lat":43.27063,"lon":5.42273,"is_reserved":false,"is_disabled":false,"rental_uris":{"android":"levelo://app?vid=e5013baf-c7d0-4bd2-b1c5-b16df7134711","ios":"levelo://app?vid=e5013baf-c7d0-4bd2-b1c5-b16df7134711"},"vehicle_type_id":"4","last_reported":1747570713,"current_range_meters":6000,"station_id":"ce4bhk92rcd13ifvqgb0","pricing_plan_id":"cebpf4jnsgd1na2vs0mg"},{"bike_id":"c34facb4-f13c-4aa4-9043-4ea3e26eb6f5","system_id":"levelo_inurba_marseille","lat":43.32041,"lon":5.41542,"is_reserved":false,"is_disabled":false,"rental_uris":{"android":"levelo://app?vid=c34facb4-f13c-4aa4-9043-4ea3e26eb6f5","ios":"levelo://app?vid=c34facb4-f13c-4aa4-9043-4ea3e26eb6f5"},"vehicle_type_id":"4","last_reported":1747570713,"current_range_meters":5600,"station_id":"ce4bhq92rcd13ifvqhkg","pricing_plan_id":"cebpf4jnsgd1na2vs0mg"},{"bike_id":"55865b02-a118-463c-a4a9-956b3b5c4478","system_id":"levelo_inurba_marseille","lat":43.25503,"lon":5.3765,"is_reserved":false,"is_disabled":false,"rental_uris":{"android":"levelo://app?vid=55865b02-a118-463c-a4a9-956b3b5c4478","ios":"levelo://app?vid=55865b02-a118-463c-a4a9-956b3b5c4478"},"vehicle_type_id":"4","last_reported":1747570713,"current_range_meters":6000,"station_id":"ce4bhh12rcd13ifvqff0","pricing_plan_id":"cebpf4jnsgd1na2vs0mg"},{"bike_id":"55fb771a-6e76-45c4-a9b7-cda97a0011d0","system_id":"levelo_inurba_marseille","lat":43.28762,"lon":5.382755,"is_reserved":false,"is_disabled":false,"rental_uris":{"android":"levelo://app?vid=55fb771a-6e76-45c4-a9b7-cda97a0011d0","ios":"levelo://app?vid=55fb771a-6e76-45c4-a9b7-cda97a0011d0"},"vehicle_type_id":"4","last_reported":1747570713,"current_range_meters":6400,"station_id":"","pricing_plan_id":"cebpf4jnsgd1na2vs0mg"},{"bike_id":"667281a7-edc7-408f-b6f5-1f8240af6e67","system_id":"levelo_inurba_marseille","lat":43.31759,"lon":5.39011,"is_reserved":false,"is_disabled":false,"rental_uris":{"android":"levelo://app?vid=667281a7-edc7-408f-b6f5-1f8240af6e67","ios":"levelo://app?vid=667281a7-edc7-408f-b6f5-1f8240af6e67"},"vehicle_type_id":"4","last_reported":1747570713,"current_range_meters":6400,"station_id":"ce4bhqp2rcd13ifvqhng","pricing_plan_id":"cebpf4jnsgd1na2vs0mg"},{"bike_id":"bac0bf7a-92c7-4a78-af0c-b2e338fe65a7","system_id":"levelo_inurba_marseille","lat":43.257266,"lon":5.411036,"is_reserved":false,"is_disabled":false,"rental_uris":{"android":"levelo://app?vid=bac0bf7a-92c7-4a78-af0c-b2e338fe65a7","ios":"levelo://app?vid=bac0bf7a-92c7-4a78-af0c-b2e338fe65a7"},"vehicle_type_id":"4","last_reported":1747570713,"current_range_meters":6800,"station_id":"ce4bhkp2rcd13ifvqgd0","pricing_plan_id":"cebpf4jnsgd1na2vs0mg"},{"bike_id":"fdb61a9e-b53b-48c4-b0cb-6db5c626390b","system_id":"levelo_inurba_marseille","lat":43.29108,"lon":5.39967,"is_reserved":false,"is_disabled":true,"rental_uris":{"android":"levelo://app?vid=fdb61a9e-b53b-48c4-b0cb-6db5c626390b","ios":"levelo://app?vid=fdb61a9e-b53b-48c4-b0cb-6db5c626390b"},"vehicle_type_id":"4","last_reported":1747570713,"current_range_meters":6800,"station_id":"","pricing_plan_id":"cebpf4jnsgd1na2vs0mg"},{"bike_id":"b8e6468b-87db-4ff6-8122-ef13bf5b7c8c","system_id":"levelo_inurba_marseille","lat":43.31379,"lon":5.37916,"is_reserved":false,"is_disabled":false,"rental_uris":{"android":"levelo://app?vid=b8e6468b-87db-4ff6-8122-ef13bf5b7c8c","ios":"levelo://app?vid=b8e6468b-87db-4ff6-8122-ef13bf5b7c8c"},"vehicle_type_id":"4","last_reported":1747570713,"current_range_meters":6800,"station_id":"","pricing_plan_id":"cebpf4jnsgd1na2vs0mg"},{"bike_id":"511b933e-098c-4033-a9c9-5a882b5bf8c4","system_id":"levelo_inurba_marseille","lat":43.30537,"lon":5.36546,"is_reserved":false,"is_disabled":false,"rental_uris":{"android":"levelo://app?vid=511b933e-098c-4033-a9c9-5a882b5bf8c4","ios":"levelo://app?vid=511b933e-098c-4033-a9c9-5a882b5bf8c4"},"vehicle_type_id":"4","last_reported":1747570713,"current_range_meters":6800,"station_id":"ce4bgs12rcd13ifvqcag","pricing_plan_id":"cebpf4jnsgd1na2vs0mg"},{"bike_id":"713440a0-75d9-41a2-8ea7-5e1b4d522293","system_id":"levelo_inurba_marseille","lat":43.3088,"lon":5.37192,"is_reserved":false,"is_disabled":false,"rental_uris":{"android":"levelo://app?vid=713440a0-75d9-41a2-8ea7-5e1b4d522293","ios":"levelo://app?vid=713440a0-75d9-41a2-8ea7-5e1b4d522293"},"vehicle_type_id":"4","last_reported":1747570713,"current_range_meters":6800,"station_id":"ce4bguh2rcd13ifvqckg","pricing_plan_id":"cebpf4jnsgd1na2vs0mg"},{"bike_id":"698c00d0-9d04-474a-9aca-cd5b8e8cadcb","system_id":"levelo_inurba_marseille","lat":43.26566,"lon":5.37284,"is_reserved":false,"is_disabled":false,"rental_uris":{"android":"levelo://app?vid=698c00d0-9d04-474a-9aca-cd5b8e8cadcb","ios":"levelo://app?vid=698c00d0-9d04-474a-9aca-cd5b8e8cadcb"},"vehicle_type_id":"4","last_reported":1747570713,"current_range_meters":6800,"station_id":"ce4bhg12rcd13ifvqf70","pricing_plan_id":"cebpf4jnsgd1na2vs0mg"},{"bike_id":"b5db082e-fcf5-4795-a4e3-408948932287","system_id":"levelo_inurba_marseille","lat":43.31494,"lon":5.37309,"is_reserved":false,"is_disabled":false,"rental_uris":{"android":"levelo://app?vid=b5db082e-fcf5-4795-a4e3-408948932287","ios":"levelo://app?vid=b5db082e-fcf5-4795-a4e3-408948932287"},"vehicle_type_id":"4","last_reported":1747570713,"current_range_meters":6800,"station_id":"ce4bgt12rcd13ifvqcd0","pricing_plan_id":"cebpf4jnsgd1na2vs0mg"},{"bike_id":"5ce2edf4-bbfd-4171-a5a5-fc9fb354146c","system_id":"levelo_inurba_marseille","lat":43.28278,"lon":5.35055,"is_reserved":false,"is_disabled":false,"rental_uris":{"android":"levelo://app?vid=5ce2edf4-bbfd-4171-a5a5-fc9fb354146c","ios":"levelo://app?vid=5ce2edf4-bbfd-4171-a5a5-fc9fb354146c"},"vehicle_type_id":"4","last_reported":1747570713,"current_range_meters":6800,"station_id":"ce4bhbp2rcd13ifvqerg","pricing_plan_id":"cebpf4jnsgd1na2vs0mg"},{"bike_id":"7894838d-c095-45c9-9b62-7fc118fe6453","system_id":"levelo_inurba_marseille","lat":43.27375,"lon":5.36257,"is_reserved":false,"is_disabled":false,"rental_uris":{"android":"levelo://app?vid=7894838d-c095-45c9-9b62-7fc118fe6453","ios":"levelo://app?vid=7894838d-c095-45c9-9b62-7fc118fe6453"},"vehicle_type_id":"4","last_reported":1747570713,"current_range_meters":6800,"station_id":"ce4bhbh2rcd13ifvqeo0","pricing_plan_id":"cebpf4jnsgd1na2vs0mg"},{"bike_id":"fda9113e-1a08-4168-b090-db6da3dc6d7d","system_id":"levelo_inurba_marseille","lat":43.25113,"lon":5.40325,"is_reserved":false,"is_disabled":false,"rental_uris":{"android":"levelo://app?vid=fda9113e-1a08-4168-b090-db6da3dc6d7d","ios":"levelo://app?vid=fda9113e-1a08-4168-b090-db6da3dc6d7d"},"vehicle_type_id":"4","last_reported":1747570713,"current_range_meters":7200,"station_id":"ce4bhlh2rcd13ifvqgig","pricing_plan_id":"cebpf4jnsgd1na2vs0mg"},{"bike_id":"35cfc900-5d4f-4761-a460-1b6fcd078966","system_id":"levelo_inurba_marseille","lat":43.26204,"lon":5.3793,"is_reserved":false,"is_disabled":false,"rental_uris":{"android":"levelo://app?vid=35cfc900-5d4f-4761-a460-1b6fcd078966","ios":"levelo://app?vid=35cfc900-5d4f-4761-a460-1b6fcd078966"},"vehicle_type_id":"4","last_reported":1747570713,"current_range_meters":7200,"station_id":"ce4bhjp2rcd13ifvqg90","pricing_plan_id":"cebpf4jnsgd1na2vs0mg"},{"bike_id":"fe14f83b-1ab3-4720-9296-db22cdf0f47f","system_id":"levelo_inurba_marseille","lat":43.26504,"lon":5.39545,"is_reserved":false,"is_disabled":false,"rental_uris":{"android":"levelo://app?vid=fe14f83b-1ab3-4720-9296-db22cdf0f47f","ios":"levelo://app?vid=fe14f83b-1ab3-4720-9296-db22cdf0f47f"},"vehicle_type_id":"4","last_reported":1747570713,"current_range_meters":7200,"station_id":"ce4bhi12rcd13ifvqfq0","pricing_plan_id":"cebpf4jnsgd1na2vs0mg"},{"bike_id":"29fd70f4-8e4d-42a0-b231-1836e01c5c77","system_id":"levelo_inurba_marseille","lat":43.28675,"lon":5.37374,"is_reserved":false,"is_disabled":false,"rental_uris":{"android":"levelo://app?vid=29fd70f4-8e4d-42a0-b231-1836e01c5c77","ios":"levelo://app?vid=29fd70f4-8e4d-42a0-b231-1836e01c5c77"},"vehicle_type_id":"4","last_reported":1747570713,"current_range_meters":7200,"station_id":"ce4bh3p2rcd13ifvqdq0","pricing_plan_id":"cebpf4jnsgd1na2vs0mg"},{"bike_id":"81c659b6-3a02-46e7-a46f-d340746ad32e","system_id":"levelo_inurba_marseille","lat":43.27382,"lon":5.36249,"is_reserved":false,"is_disabled":true,"rental_uris":{"android":"levelo://app?vid=81c659b6-3a02-46e7-a46f-d340746ad32e","ios":"levelo://app?vid=81c659b6-3a02-46e7-a46f-d340746ad32e"},"vehicle_type_id":"4","last_reported":1747570713,"current_range_meters":7200,"station_id":"ce4bhbh2rcd13ifvqeo0","pricing_plan_id":"cebpf4jnsgd1na2vs0mg"},{"bike_id":"39122e3a-1692-426c-9513-6e19498bfff7","system_id":"levelo_inurba_marseille","lat":43.25003,"lon":5.38934,"is_reserved":false,"is_disabled":false,"rental_uris":{"android":"levelo://app?vid=39122e3a-1692-426c-9513-6e19498bfff7","ios":"levelo://app?vid=39122e3a-1692-426c-9513-6e19498bfff7"},"vehicle_type_id":"4","last_reported":1747570713,"current_range_meters":7200,"station_id":"ce4bhgp2rcd13ifvqfd0","pricing_plan_id":"cebpf4jnsgd1na2vs0mg"},{"bike_id":"af2f3908-848e-4879-9c80-b3ddea1b7f0a","system_id":"levelo_inurba_marseille","lat":43.311834,"lon":5.387846,"is_reserved":false,"is_disabled":true,"rental_uris":{"android":"levelo://app?vid=af2f3908-848e-4879-9c80-b3ddea1b7f0a","ios":"levelo://app?vid=af2f3908-848e-4879-9c80-b3ddea1b7f0a"},"vehicle_type_id":"4","last_reported":1747570713,"current_range_meters":7200,"station_id":"","pricing_plan_id":"cebpf4jnsgd1na2vs0mg"},{"bike_id":"3e073325-7c74-4b6c-b0bd-9716d89c3c37","system_id":"levelo_inurba_marseille","lat":43.265555,"lon":5.37286,"is_reserved":false,"is_disabled":false,"rental_uris":{"android":"levelo://app?vid=3e073325-7c74-4b6c-b0bd-9716d89c3c37","ios":"levelo://app?vid=3e073325-7c74-4b6c-b0bd-9716d89c3c37"},"vehicle_type_id":"4","last_reported":1747570713,"current_range_meters":7200,"station_id":"ce4bhg12rcd13ifvqf70","pricing_plan_id":"cebpf4jnsgd1na2vs0mg"},{"bike_id":"59ff7b50-f418-4917-ada0-c3061d69c404","system_id":"levelo_inurba_marseille","lat":43.25111,"lon":5.40321,"is_reserved":false,"is_disabled":false,"rental_uris":{"android":"levelo://app?vid=59ff7b50-f418-4917-ada0-c3061d69c404","ios":"levelo://app?vid=59ff7b50-f418-4917-ada0-c3061d69c404"},"vehicle_type_id":"4","last_reported":1747570713,"current_range_meters":8000,"station_id":"ce4bhlh2rcd13ifvqgig","pricing_plan_id":"cebpf4jnsgd1na2vs0mg"},{"bike_id":"fcea65e7-60f1-400f-93cb-f13c59604fc1","system_id":"levelo_inurba_marseille","lat":43.28007,"lon":5.40005,"is_reserved":false,"is_disabled":false,"rental_uris":{"android":"levelo://app?vid=fcea65e7-60f1-400f-93cb-f13c59604fc1","ios":"levelo://app?vid=fcea65e7-60f1-400f-93cb-f13c59604fc1"},"vehicle_type_id":"4","last_reported":1747570713,"current_range_meters":7200,"station_id":"ce4bho92rcd13ifvqh4g","pricing_plan_id":"cebpf4jnsgd1na2vs0mg"},{"bike_id":"90b91ec4-9295-4740-af77-f3512896ed17","system_id":"levelo_inurba_marseille","lat":43.27378,"lon":5.362477,"is_reserved":false,"is_disabled":false,"rental_uris":{"android":"levelo://app?vid=90b91ec4-9295-4740-af77-f3512896ed17","ios":"levelo://app?vid=90b91ec4-9295-4740-af77-f3512896ed17"},"vehicle_type_id":"4","last_reported":1747570713,"current_range_meters":8000,"station_id":"ce4bhbh2rcd13ifvqeo0","pricing_plan_id":"cebpf4jnsgd1na2vs0mg"},{"bike_id":"0939f7e8-20b9-4e7d-805d-a3e024f3bb96","system_id":"levelo_inurba_marseille","lat":43.25499,"lon":5.37646,"is_reserved":false,"is_disabled":false,"rental_uris":{"android":"levelo://app?vid=0939f7e8-20b9-4e7d-805d-a3e024f3bb96","ios":"levelo://app?vid=0939f7e8-20b9-4e7d-805d-a3e024f3bb96"},"vehicle_type_id":"4","last_reported":1747570713,"current_range_meters":8000,"station_id":"ce4bhh12rcd13ifvqff0","pricing_plan_id":"cebpf4jnsgd1na2vs0mg"},{"bike_id":"5998b97b-98b1-4295-90a4-0221ecc015ae","system_id":"levelo_inurba_marseille","lat":43.26554,"lon":5.37283,"is_reserved":false,"is_disabled":false,"rental_uris":{"android":"levelo://app?vid=5998b97b-98b1-4295-90a4-0221ecc015ae","ios":"levelo://app?vid=5998b97b-98b1-4295-90a4-0221ecc015ae"},"vehicle_type_id":"4","last_reported":1747570713,"current_range_meters":8000,"station_id":"ce4bhg12rcd13ifvqf70","pricing_plan_id":"cebpf4jnsgd1na2vs0mg"},{"bike_id":"58f7ce6a-af8b-4b42-a23d-1a7ddcc98e9c","system_id":"levelo_inurba_marseille","lat":43.21193,"lon":5.350667,"is_reserved":false,"is_disabled":false,"rental_uris":{"android":"levelo://app?vid=58f7ce6a-af8b-4b42-a23d-1a7ddcc98e9c","ios":"levelo://app?vid=58f7ce6a-af8b-4b42-a23d-1a7ddcc98e9c"},"vehicle_type_id":"4","last_reported":1747570713,"current_range_meters":8000,"station_id":"st_cvj6sg6p6f1abm77japg","pricing_plan_id":"cebpf4jnsgd1na2vs0mg"},{"bike_id":"e5edfac4-f5cf-453a-be6b-8a13e4985f84","system_id":"levelo_inurba_marseille","lat":43.24393,"lon":5.37044,"is_reserved":false,"is_disabled":false,"rental_uris":{"android":"levelo://app?vid=e5edfac4-f5cf-453a-be6b-8a13e4985f84","ios":"levelo://app?vid=e5edfac4-f5cf-453a-be6b-8a13e4985f84"},"vehicle_type_id":"4","last_reported":1747570713,"current_range_meters":8000,"station_id":"ce4bhhh2rcd13ifvqfk0","pricing_plan_id":"cebpf4jnsgd1na2vs0mg"},{"bike_id":"eb6ad0b5-8b6e-459c-a670-56152878be7b","system_id":"levelo_inurba_marseille","lat":43.24087,"lon":5.37771,"is_reserved":false,"is_disabled":false,"rental_uris":{"android":"levelo://app?vid=eb6ad0b5-8b6e-459c-a670-56152878be7b","ios":"levelo://app?vid=eb6ad0b5-8b6e-459c-a670-56152878be7b"},"vehicle_type_id":"4","last_reported":1747570713,"current_range_meters":8000,"station_id":"ce4bhnp2rcd13ifvqgvg","pricing_plan_id":"cebpf4jnsgd1na2vs0mg"},{"bike_id":"5cf16f92-b693-47c2-9e9c-211b074a5ed2","system_id":"levelo_inurba_marseille","lat":43.26558,"lon":5.37285,"is_reserved":false,"is_disabled":false,"rental_uris":{"android":"levelo://app?vid=5cf16f92-b693-47c2-9e9c-211b074a5ed2","ios":"levelo://app?vid=5cf16f92-b693-47c2-9e9c-211b074a5ed2"},"vehicle_type_id":"4","last_reported":1747570713,"current_range_meters":8000,"station_id":"ce4bhg12rcd13ifvqf70","pricing_plan_id":"cebpf4jnsgd1na2vs0mg"},{"bike_id":"aa9446b4-e4c2-4e75-9648-971ccb772673","system_id":"levelo_inurba_marseille","lat":43.27486,"lon":5.42456,"is_reserved":false,"is_disabled":false,"rental_uris":{"android":"levelo://app?vid=aa9446b4-e4c2-4e75-9648-971ccb772673","ios":"levelo://app?vid=aa9446b4-e4c2-4e75-9648-971ccb772673"},"vehicle_type_id":"4","last_reported":1747570713,"current_range_meters":8800,"station_id":"ce4bhn92rcd13ifvqgrg","pricing_plan_id":"cebpf4jnsgd1na2vs0mg"},{"bike_id":"c296a662-6f37-479b-bc09-1afab1934e53","system_id":"levelo_inurba_marseille","lat":43.24164,"lon":5.39721,"is_reserved":false,"is_disabled":false,"rental_uris":{"android":"levelo://app?vid=c296a662-6f37-479b-bc09-1afab1934e53","ios":"levelo://app?vid=c296a662-6f37-479b-bc09-1afab1934e53"},"vehicle_type_id":"4","last_reported":1747570713,"current_range_meters":8400,"station_id":"ce4bhn12rcd13ifvqgpg","pricing_plan_id":"cebpf4jnsgd1na2vs0mg"},{"bike_id":"68c65b98-361f-4f08-b1d9-bf7f4e7ab13c","system_id":"levelo_inurba_marseille","lat":43.29185,"lon":5.35787,"is_reserved":false,"is_disabled":false,"rental_uris":{"android":"levelo://app?vid=68c65b98-361f-4f08-b1d9-bf7f4e7ab13c","ios":"levelo://app?vid=68c65b98-361f-4f08-b1d9-bf7f4e7ab13c"},"vehicle_type_id":"4","last_reported":1747570713,"current_range_meters":8000,"station_id":"ce4bhb12rcd13ifvqel0","pricing_plan_id":"cebpf4jnsgd1na2vs0mg"},{"bike_id":"f11291eb-cff8-4934-a96b-ed93a92d1d4c","system_id":"levelo_inurba_marseille","lat":43.23151,"lon":5.43721,"is_reserved":false,"is_disabled":false,"rental_uris":{"android":"levelo://app?vid=f11291eb-cff8-4934-a96b-ed93a92d1d4c","ios":"levelo://app?vid=f11291eb-cff8-4934-a96b-ed93a92d1d4c"},"vehicle_type_id":"4","last_reported":1747570713,"current_range_meters":8400,"station_id":"ce4bhmp2rcd13ifvqgog","pricing_plan_id":"cebpf4jnsgd1na2vs0mg"},{"bike_id":"b07cc4a2-3d35-4cfa-8a46-23f246cc0f0c","system_id":"levelo_inurba_marseille","lat":43.2397,"lon":5.36625,"is_reserved":false,"is_disabled":false,"rental_uris":{"android":"levelo://app?vid=b07cc4a2-3d35-4cfa-8a46-23f246cc0f0c","ios":"levelo://app?vid=b07cc4a2-3d35-4cfa-8a46-23f246cc0f0c"},"vehicle_type_id":"4","last_reported":1747570713,"current_range_meters":8400,"station_id":"ce4bhi12rcd13ifvqfp0","pricing_plan_id":"cebpf4jnsgd1na2vs0mg"},{"bike_id":"cc987898-b7f6-485f-b5c3-80ab5ff99a0f","system_id":"levelo_inurba_marseille","lat":43.31085,"lon":5.42429,"is_reserved":false,"is_disabled":false,"rental_uris":{"android":"levelo://app?vid=cc987898-b7f6-485f-b5c3-80ab5ff99a0f","ios":"levelo://app?vid=cc987898-b7f6-485f-b5c3-80ab5ff99a0f"},"vehicle_type_id":"4","last_reported":1747570713,"current_range_meters":8400,"station_id":"ce4bhp92rcd13ifvqhag","pricing_plan_id":"cebpf4jnsgd1na2vs0mg"},{"bike_id":"c43760ab-47ec-4297-b5ba-58b487bc99e0","system_id":"levelo_inurba_marseille","lat":43.24166,"lon":5.39706,"is_reserved":false,"is_disabled":false,"rental_uris":{"android":"levelo://app?vid=c43760ab-47ec-4297-b5ba-58b487bc99e0","ios":"levelo://app?vid=c43760ab-47ec-4297-b5ba-58b487bc99e0"},"vehicle_type_id":"4","last_reported":1747570713,"current_range_meters":8800,"station_id":"ce4bhn12rcd13ifvqgpg","pricing_plan_id":"cebpf4jnsgd1na2vs0mg"},{"bike_id":"8488f2c1-ca55-416d-aec4-ec5c68dd867b","system_id":"levelo_inurba_marseille","lat":43.29935,"lon":5.36553,"is_reserved":false,"is_disabled":false,"rental_uris":{"android":"levelo://app?vid=8488f2c1-ca55-416d-aec4-ec5c68dd867b","ios":"levelo://app?vid=8488f2c1-ca55-416d-aec4-ec5c68dd867b"},"vehicle_type_id":"4","last_reported":1747570713,"current_range_meters":8800,"station_id":"ce4bgm92rcd13ifvqbr0","pricing_plan_id":"cebpf4jnsgd1na2vs0mg"},{"bike_id":"792c9dbd-158e-4661-91d4-2c1ed379e655","system_id":"levelo_inurba_marseille","lat":43.24661,"lon":5.38141,"is_reserved":false,"is_disabled":false,"rental_uris":{"android":"levelo://app?vid=792c9dbd-158e-4661-91d4-2c1ed379e655","ios":"levelo://app?vid=792c9dbd-158e-4661-91d4-2c1ed379e655"},"vehicle_type_id":"4","last_reported":1747570713,"current_range_meters":8800,"station_id":"ce4bhih2rcd13ifvqfr0","pricing_plan_id":"cebpf4jnsgd1na2vs0mg"},{"bike_id":"b934e6da-efb5-4ac5-a51a-eb50220f6e1b","system_id":"levelo_inurba_marseille","lat":43.269811,"lon":5.40587,"is_reserved":false,"is_disabled":true,"rental_uris":{"android":"levelo://app?vid=b934e6da-efb5-4ac5-a51a-eb50220f6e1b","ios":"levelo://app?vid=b934e6da-efb5-4ac5-a51a-eb50220f6e1b"},"vehicle_type_id":"4","last_reported":1747570713,"current_range_meters":8800,"station_id":"","pricing_plan_id":"cebpf4jnsgd1na2vs0mg"},{"bike_id":"c0db4030-ef30-480b-a735-af5435a471ed","system_id":"levelo_inurba_marseille","lat":43.27724,"lon":5.42677,"is_reserved":false,"is_disabled":false,"rental_uris":{"android":"levelo://app?vid=c0db4030-ef30-480b-a735-af5435a471ed","ios":"levelo://app?vid=c0db4030-ef30-480b-a735-af5435a471ed"},"vehicle_type_id":"4","last_reported":1747570713,"current_range_meters":8800,"station_id":"","pricing_plan_id":"cebpf4jnsgd1na2vs0mg"},{"bike_id":"b871376c-9e84-4244-8b8c-ddf5fc4c43a0","system_id":"levelo_inurba_marseille","lat":43.2738,"lon":5.36253,"is_reserved":false,"is_disabled":false,"rental_uris":{"android":"levelo://app?vid=b871376c-9e84-4244-8b8c-ddf5fc4c43a0","ios":"levelo://app?vid=b871376c-9e84-4244-8b8c-ddf5fc4c43a0"},"vehicle_type_id":"4","last_reported":1747570713,"current_range_meters":8800,"station_id":"ce4bhbh2rcd13ifvqeo0","pricing_plan_id":"cebpf4jnsgd1na2vs0mg"},{"bike_id":"9be12a09-efe5-495b-8ec3-e7e0d7473370","system_id":"levelo_inurba_marseille","lat":43.29585,"lon":5.38093,"is_reserved":false,"is_disabled":true,"rental_uris":{"android":"levelo://app?vid=9be12a09-efe5-495b-8ec3-e7e0d7473370","ios":"levelo://app?vid=9be12a09-efe5-495b-8ec3-e7e0d7473370"},"vehicle_type_id":"4","last_reported":1747570713,"current_range_meters":8800,"station_id":"ce4bgl12rcd13ifvqbo0","pricing_plan_id":"cebpf4jnsgd1na2vs0mg"},{"bike_id":"2cf95623-da6d-4ca2-89af-fed2e2d0d1d5","system_id":"levelo_inurba_marseille","lat":43.22933,"lon":5.35379,"is_reserved":false,"is_disabled":false,"rental_uris":{"android":"levelo://app?vid=2cf95623-da6d-4ca2-89af-fed2e2d0d1d5","ios":"levelo://app?vid=2cf95623-da6d-4ca2-89af-fed2e2d0d1d5"},"vehicle_type_id":"4","last_reported":1747570713,"current_range_meters":8800,"station_id":"cpo3532slgdg3j2ikp40","pricing_plan_id":"cebpf4jnsgd1na2vs0mg"},{"bike_id":"4c33e9a2-0e5c-427f-a7cc-632c63a61d9d","system_id":"levelo_inurba_marseille","lat":43.28341,"lon":5.381047,"is_reserved":false,"is_disabled":true,"rental_uris":{"android":"levelo://app?vid=4c33e9a2-0e5c-427f-a7cc-632c63a61d9d","ios":"levelo://app?vid=4c33e9a2-0e5c-427f-a7cc-632c63a61d9d"},"vehicle_type_id":"4","last_reported":1747570713,"current_range_meters":8800,"station_id":"ce4bh412rcd13ifvqdr0","pricing_plan_id":"cebpf4jnsgd1na2vs0mg"},{"bike_id":"b8632fb6-86db-4533-a17c-fd85f527ce0f","system_id":"levelo_inurba_marseille","lat":43.2419,"lon":5.3639,"is_reserved":false,"is_disabled":false,"rental_uris":{"android":"levelo://app?vid=b8632fb6-86db-4533-a17c-fd85f527ce0f","ios":"levelo://app?vid=b8632fb6-86db-4533-a17c-fd85f527ce0f"},"vehicle_type_id":"4","last_reported":1747570713,"current_range_meters":8800,"station_id":"cpo36qri1sfpv3e86is0","pricing_plan_id":"cebpf4jnsgd1na2vs0mg"},{"bike_id":"117a1540-6bb8-4ffd-9580-36bc1550a375","system_id":"levelo_inurba_marseille","lat":43.29007,"lon":5.356,"is_reserved":false,"is_disabled":false,"rental_uris":{"android":"levelo://app?vid=117a1540-6bb8-4ffd-9580-36bc1550a375","ios":"levelo://app?vid=117a1540-6bb8-4ffd-9580-36bc1550a375"},"vehicle_type_id":"4","last_reported":1747570713,"current_range_meters":9200,"station_id":"ce4bhb92rcd13ifvqen0","pricing_plan_id":"cebpf4jnsgd1na2vs0mg"},{"bike_id":"0fb02880-5c6e-4026-9e4a-07529c572b44","system_id":"levelo_inurba_marseille","lat":43.25488,"lon":5.3738,"is_reserved":false,"is_disabled":false,"rental_uris":{"android":"levelo://app?vid=0fb02880-5c6e-4026-9e4a-07529c572b44","ios":"levelo://app?vid=0fb02880-5c6e-4026-9e4a-07529c572b44"},"vehicle_type_id":"4","last_reported":1747570713,"current_range_meters":9200,"station_id":"","pricing_plan_id":"cebpf4jnsgd1na2vs0mg"},{"bike_id":"cd775ea3-33fd-4993-b612-7dbb98b728dd","system_id":"levelo_inurba_marseille","lat":43.24077,"lon":5.37754,"is_reserved":false,"is_disabled":false,"rental_uris":{"android":"levelo://app?vid=cd775ea3-33fd-4993-b612-7dbb98b728dd","ios":"levelo://app?vid=cd775ea3-33fd-4993-b612-7dbb98b728dd"},"vehicle_type_id":"4","last_reported":1747570713,"current_range_meters":9200,"station_id":"ce4bhnp2rcd13ifvqgvg","pricing_plan_id":"cebpf4jnsgd1na2vs0mg"},{"bike_id":"97e5c93a-64c8-4b86-a166-ae42631774a3","system_id":"levelo_inurba_marseille","lat":43.298463,"lon":5.36267,"is_reserved":false,"is_disabled":false,"rental_uris":{"android":"levelo://app?vid=97e5c93a-64c8-4b86-a166-ae42631774a3","ios":"levelo://app?vid=97e5c93a-64c8-4b86-a166-ae42631774a3"},"vehicle_type_id":"4","last_reported":1747570713,"current_range_meters":9200,"station_id":"ce4bgpp2rcd13ifvqc3g","pricing_plan_id":"cebpf4jnsgd1na2vs0mg"},{"bike_id":"aab89f82-414b-49ac-873a-18af79b6ce0e","system_id":"levelo_inurba_marseille","lat":43.28276,"lon":5.35055,"is_reserved":false,"is_disabled":false,"rental_uris":{"android":"levelo://app?vid=aab89f82-414b-49ac-873a-18af79b6ce0e","ios":"levelo://app?vid=aab89f82-414b-49ac-873a-18af79b6ce0e"},"vehicle_type_id":"4","last_reported":1747570713,"current_range_meters":9200,"station_id":"ce4bhbp2rcd13ifvqerg","pricing_plan_id":"cebpf4jnsgd1na2vs0mg"},{"bike_id":"48551b80-7ff1-4bc8-b81f-43f935bc32c1","system_id":"levelo_inurba_marseille","lat":43.26807,"lon":5.40257,"is_reserved":false,"is_disabled":false,"rental_uris":{"android":"levelo://app?vid=48551b80-7ff1-4bc8-b81f-43f935bc32c1","ios":"levelo://app?vid=48551b80-7ff1-4bc8-b81f-43f935bc32c1"},"vehicle_type_id":"4","last_reported":1747570713,"current_range_meters":9200,"station_id":"ce501612rcd8frsf0b60","pricing_plan_id":"cebpf4jnsgd1na2vs0mg"},{"bike_id":"7502aaf2-e0b6-4e59-86da-36975a13a9d8","system_id":"levelo_inurba_marseille","lat":43.29544,"lon":5.37498,"is_reserved":false,"is_disabled":true,"rental_uris":{"android":"levelo://app?vid=7502aaf2-e0b6-4e59-86da-36975a13a9d8","ios":"levelo://app?vid=7502aaf2-e0b6-4e59-86da-36975a13a9d8"},"vehicle_type_id":"4","last_reported":1747570713,"current_range_meters":9200,"station_id":"ce4bgkp2rcd13ifvqbmg","pricing_plan_id":"cebpf4jnsgd1na2vs0mg"},{"bike_id":"934c9171-9ed1-4edd-948a-034222c3aca3","system_id":"levelo_inurba_marseille","lat":43.29026,"lon":5.38125,"is_reserved":false,"is_disabled":false,"rental_uris":{"android":"levelo://app?vid=934c9171-9ed1-4edd-948a-034222c3aca3","ios":"levelo://app?vid=934c9171-9ed1-4edd-948a-034222c3aca3"},"vehicle_type_id":"4","last_reported":1747570713,"current_range_meters":9200,"station_id":"ce4bh4p2rcd13ifvqe1g","pricing_plan_id":"cebpf4jnsgd1na2vs0mg"},{"bike_id":"8e6e4749-5dae-4c8f-98db-5bf2ebcbacd3","system_id":"levelo_inurba_marseille","lat":43.24163,"lon":5.36398,"is_reserved":false,"is_disabled":false,"rental_uris":{"android":"levelo://app?vid=8e6e4749-5dae-4c8f-98db-5bf2ebcbacd3","ios":"levelo://app?vid=8e6e4749-5dae-4c8f-98db-5bf2ebcbacd3"},"vehicle_type_id":"4","last_reported":1747570713,"current_range_meters":9200,"station_id":"cpo36qri1sfpv3e86is0","pricing_plan_id":"cebpf4jnsgd1na2vs0mg"},{"bike_id":"6c85a7cb-7e3d-409c-a4a6-7e087c5ddc34","system_id":"levelo_inurba_marseille","lat":43.27612,"lon":5.36107,"is_reserved":false,"is_disabled":false,"rental_uris":{"android":"levelo://app?vid=6c85a7cb-7e3d-409c-a4a6-7e087c5ddc34","ios":"levelo://app?vid=6c85a7cb-7e3d-409c-a4a6-7e087c5ddc34"},"vehicle_type_id":"4","last_reported":1747570713,"current_range_meters":8800,"station_id":"ce4bgj92rcd13ifvqbe0","pricing_plan_id":"cebpf4jnsgd1na2vs0mg"},{"bike_id":"14603e41-b2dd-4757-a53c-2e366aa4f983","system_id":"levelo_inurba_marseille","lat":43.269921,"lon":5.428275,"is_reserved":false,"is_disabled":false,"rental_uris":{"android":"levelo://app?vid=14603e41-b2dd-4757-a53c-2e366aa4f983","ios":"levelo://app?vid=14603e41-b2dd-4757-a53c-2e366aa4f983"},"vehicle_type_id":"4","last_reported":1747570713,"current_range_meters":9200,"station_id":"","pricing_plan_id":"cebpf4jnsgd1na2vs0mg"},{"bike_id":"2eab994d-a378-4391-894b-b62d11a34041","system_id":"levelo_inurba_marseille","lat":43.23155,"lon":5.437,"is_reserved":false,"is_disabled":true,"rental_uris":{"android":"levelo://app?vid=2eab994d-a378-4391-894b-b62d11a34041","ios":"levelo://app?vid=2eab994d-a378-4391-894b-b62d11a34041"},"vehicle_type_id":"4","last_reported":1747570713,"current_range_meters":9600,"station_id":"ce4bhmp2rcd13ifvqgog","pricing_plan_id":"cebpf4jnsgd1na2vs0mg"},{"bike_id":"5d0c204a-30d7-45a4-a38f-6cc374d60c0a","system_id":"levelo_inurba_marseille","lat":43.24161,"lon":5.36378,"is_reserved":false,"is_disabled":false,"rental_uris":{"android":"levelo://app?vid=5d0c204a-30d7-45a4-a38f-6cc374d60c0a","ios":"levelo://app?vid=5d0c204a-30d7-45a4-a38f-6cc374d60c0a"},"vehicle_type_id":"4","last_reported":1747570713,"current_range_meters":9600,"station_id":"cpo36qri1sfpv3e86is0","pricing_plan_id":"cebpf4jnsgd1na2vs0mg"},{"bike_id":"0c34b593-39af-4c0b-aef0-e25cd680f42b","system_id":"levelo_inurba_marseille","lat":43.23189,"lon":5.3997,"is_reserved":false,"is_disabled":false,"rental_uris":{"android":"levelo://app?vid=0c34b593-39af-4c0b-aef0-e25cd680f42b","ios":"levelo://app?vid=0c34b593-39af-4c0b-aef0-e25cd680f42b"},"vehicle_type_id":"4","last_reported":1747570713,"current_range_meters":9600,"station_id":"ce4bhn12rcd13ifvqgqg","pricing_plan_id":"cebpf4jnsgd1na2vs0mg"},{"bike_id":"a307851c-ec96-4ea3-bc9c-e5b8fc9f75a2","system_id":"levelo_inurba_marseille","lat":43.23193,"lon":5.35556,"is_reserved":false,"is_disabled":false,"rental_uris":{"android":"levelo://app?vid=a307851c-ec96-4ea3-bc9c-e5b8fc9f75a2","ios":"levelo://app?vid=a307851c-ec96-4ea3-bc9c-e5b8fc9f75a2"},"vehicle_type_id":"4","last_reported":1747570713,"current_range_meters":9600,"station_id":"ce4bhu92rcd13ifvqi70","pricing_plan_id":"cebpf4jnsgd1na2vs0mg"},{"bike_id":"caf4c81d-8b81-4d8d-a4f9-9d00bac7ad70","system_id":"levelo_inurba_marseille","lat":43.307776,"lon":5.428188,"is_reserved":false,"is_disabled":false,"rental_uris":{"android":"levelo://app?vid=caf4c81d-8b81-4d8d-a4f9-9d00bac7ad70","ios":"levelo://app?vid=caf4c81d-8b81-4d8d-a4f9-9d00bac7ad70"},"vehicle_type_id":"4","last_reported":1747570713,"current_range_meters":9600,"station_id":"","pricing_plan_id":"cebpf4jnsgd1na2vs0mg"},{"bike_id":"1aef35fd-89a2-4728-864b-9459c2662596","system_id":"levelo_inurba_marseille","lat":43.278991,"lon":5.38012,"is_reserved":false,"is_disabled":false,"rental_uris":{"android":"levelo://app?vid=1aef35fd-89a2-4728-864b-9459c2662596","ios":"levelo://app?vid=1aef35fd-89a2-4728-864b-9459c2662596"},"vehicle_type_id":"4","last_reported":1747570713,"current_range_meters":9600,"station_id":"ce4bhf92rcd13ifvqf50","pricing_plan_id":"cebpf4jnsgd1na2vs0mg"},{"bike_id":"22c7f6c0-8c2c-4c53-badf-edc636f8da6f","system_id":"levelo_inurba_marseille","lat":43.28265,"lon":5.35064,"is_reserved":false,"is_disabled":false,"rental_uris":{"android":"levelo://app?vid=22c7f6c0-8c2c-4c53-badf-edc636f8da6f","ios":"levelo://app?vid=22c7f6c0-8c2c-4c53-badf-edc636f8da6f"},"vehicle_type_id":"4","last_reported":1747570713,"current_range_meters":9600,"station_id":"ce4bhbp2rcd13ifvqerg","pricing_plan_id":"cebpf4jnsgd1na2vs0mg"},{"bike_id":"4b3297d3-2f19-4578-a387-6277c6a46759","system_id":"levelo_inurba_marseille","lat":43.257234,"lon":5.411109,"is_reserved":false,"is_disabled":false,"rental_uris":{"android":"levelo://app?vid=4b3297d3-2f19-4578-a387-6277c6a46759","ios":"levelo://app?vid=4b3297d3-2f19-4578-a387-6277c6a46759"},"vehicle_type_id":"4","last_reported":1747570713,"current_range_meters":9600,"station_id":"ce4bhkp2rcd13ifvqgd0","pricing_plan_id":"cebpf4jnsgd1na2vs0mg"},{"bike_id":"cb07c23d-621a-45c3-86e6-6faf391b2f97","system_id":"levelo_inurba_marseille","lat":43.29438,"lon":5.39752,"is_reserved":false,"is_disabled":false,"rental_uris":{"android":"levelo://app?vid=cb07c23d-621a-45c3-86e6-6faf391b2f97","ios":"levelo://app?vid=cb07c23d-621a-45c3-86e6-6faf391b2f97"},"vehicle_type_id":"4","last_reported":1747570713,"current_range_meters":9200,"station_id":"ce4bh3h2rcd13ifvqdo0","pricing_plan_id":"cebpf4jnsgd1na2vs0mg"},{"bike_id":"84eb87a4-3c1a-4d12-989d-fbeb6bea8f95","system_id":"levelo_inurba_marseille","lat":43.27373,"lon":5.36256,"is_reserved":false,"is_disabled":false,"rental_uris":{"android":"levelo://app?vid=84eb87a4-3c1a-4d12-989d-fbeb6bea8f95","ios":"levelo://app?vid=84eb87a4-3c1a-4d12-989d-fbeb6bea8f95"},"vehicle_type_id":"4","last_reported":1747570713,"current_range_meters":9600,"station_id":"ce4bhbh2rcd13ifvqeo0","pricing_plan_id":"cebpf4jnsgd1na2vs0mg"},{"bike_id":"d06b8510-75a1-4ec9-ad6d-5a326870b568","system_id":"levelo_inurba_marseille","lat":43.24167,"lon":5.364,"is_reserved":false,"is_disabled":false,"rental_uris":{"android":"levelo://app?vid=d06b8510-75a1-4ec9-ad6d-5a326870b568","ios":"levelo://app?vid=d06b8510-75a1-4ec9-ad6d-5a326870b568"},"vehicle_type_id":"4","last_reported":1747570713,"current_range_meters":9600,"station_id":"cpo36qri1sfpv3e86is0","pricing_plan_id":"cebpf4jnsgd1na2vs0mg"},{"bike_id":"fe8eed2f-7ad8-4fb6-9997-754382d21ac9","system_id":"levelo_inurba_marseille","lat":43.27377,"lon":5.36245,"is_reserved":false,"is_disabled":false,"rental_uris":{"android":"levelo://app?vid=fe8eed2f-7ad8-4fb6-9997-754382d21ac9","ios":"levelo://app?vid=fe8eed2f-7ad8-4fb6-9997-754382d21ac9"},"vehicle_type_id":"4","last_reported":1747570713,"current_range_meters":10000,"station_id":"ce4bhbh2rcd13ifvqeo0","pricing_plan_id":"cebpf4jnsgd1na2vs0mg"},{"bike_id":"90ab63b8-7fcb-499b-b838-3088708fcae2","system_id":"levelo_inurba_marseille","lat":43.30149,"lon":5.38073,"is_reserved":false,"is_disabled":false,"rental_uris":{"android":"levelo://app?vid=90ab63b8-7fcb-499b-b838-3088708fcae2","ios":"levelo://app?vid=90ab63b8-7fcb-499b-b838-3088708fcae2"},"vehicle_type_id":"4","last_reported":1747570713,"current_range_meters":10000,"station_id":"ce4bgjp2rcd13ifvqbh0","pricing_plan_id":"cebpf4jnsgd1na2vs0mg"},{"bike_id":"68a035d7-4f0c-467c-b4a3-aa6ef17901b5","system_id":"levelo_inurba_marseille","lat":43.28416,"lon":5.34976,"is_reserved":false,"is_disabled":false,"rental_uris":{"android":"levelo://app?vid=68a035d7-4f0c-467c-b4a3-aa6ef17901b5","ios":"levelo://app?vid=68a035d7-4f0c-467c-b4a3-aa6ef17901b5"},"vehicle_type_id":"4","last_reported":1747570713,"current_range_meters":10000,"station_id":"ce4bhbh2rcd13ifvqepg","pricing_plan_id":"cebpf4jnsgd1na2vs0mg"},{"bike_id":"7d080336-5a2d-419d-8d50-e49d93450255","system_id":"levelo_inurba_marseille","lat":43.29177,"lon":5.37141,"is_reserved":false,"is_disabled":true,"rental_uris":{"android":"levelo://app?vid=7d080336-5a2d-419d-8d50-e49d93450255","ios":"levelo://app?vid=7d080336-5a2d-419d-8d50-e49d93450255"},"vehicle_type_id":"4","last_reported":1747570713,"current_range_meters":10000,"station_id":"ce4bha92rcd13ifvqeh0","pricing_plan_id":"cebpf4jnsgd1na2vs0mg"},{"bike_id":"17fc93a5-7c81-4c3f-8271-ffa410f89948","system_id":"levelo_inurba_marseille","lat":43.25819,"lon":5.39436,"is_reserved":false,"is_disabled":false,"rental_uris":{"android":"levelo://app?vid=17fc93a5-7c81-4c3f-8271-ffa410f89948","ios":"levelo://app?vid=17fc93a5-7c81-4c3f-8271-ffa410f89948"},"vehicle_type_id":"4","last_reported":1747570713,"current_range_meters":10000,"station_id":"ce4bhip2rcd13ifvqft0","pricing_plan_id":"cebpf4jnsgd1na2vs0mg"},{"bike_id":"88c266e6-7038-494f-b358-90ca603fb435","system_id":"levelo_inurba_marseille","lat":43.29549,"lon":5.3749,"is_reserved":false,"is_disabled":true,"rental_uris":{"android":"levelo://app?vid=88c266e6-7038-494f-b358-90ca603fb435","ios":"levelo://app?vid=88c266e6-7038-494f-b358-90ca603fb435"},"vehicle_type_id":"4","last_reported":1747570713,"current_range_meters":10000,"station_id":"ce4bgkp2rcd13ifvqbmg","pricing_plan_id":"cebpf4jnsgd1na2vs0mg"},{"bike_id":"ffc3ddf2-0082-4578-9e25-c91f5b4279bc","system_id":"levelo_inurba_marseille","lat":43.28304,"lon":5.41146,"is_reserved":false,"is_disabled":false,"rental_uris":{"android":"levelo://app?vid=ffc3ddf2-0082-4578-9e25-c91f5b4279bc","ios":"levelo://app?vid=ffc3ddf2-0082-4578-9e25-c91f5b4279bc"},"vehicle_type_id":"4","last_reported":1747570713,"current_range_meters":10000,"station_id":"","pricing_plan_id":"cebpf4jnsgd1na2vs0mg"},{"bike_id":"8c33a95f-90c5-4528-8850-73684fb06dad","system_id":"levelo_inurba_marseille","lat":43.23966,"lon":5.36639,"is_reserved":false,"is_disabled":false,"rental_uris":{"android":"levelo://app?vid=8c33a95f-90c5-4528-8850-73684fb06dad","ios":"levelo://app?vid=8c33a95f-90c5-4528-8850-73684fb06dad"},"vehicle_type_id":"4","last_reported":1747570713,"current_range_meters":9600,"station_id":"ce4bhi12rcd13ifvqfp0","pricing_plan_id":"cebpf4jnsgd1na2vs0mg"},{"bike_id":"a8416388-f7dc-469d-af9e-e34960387018","system_id":"levelo_inurba_marseille","lat":43.28421,"lon":5.34988,"is_reserved":false,"is_disabled":false,"rental_uris":{"android":"levelo://app?vid=a8416388-f7dc-469d-af9e-e34960387018","ios":"levelo://app?vid=a8416388-f7dc-469d-af9e-e34960387018"},"vehicle_type_id":"4","last_reported":1747570713,"current_range_meters":10000,"station_id":"ce4bhbh2rcd13ifvqepg","pricing_plan_id":"cebpf4jnsgd1na2vs0mg"},{"bike_id":"8d301145-1b3f-414a-a62f-929588279e23","system_id":"levelo_inurba_marseille","lat":43.28405,"lon":5.34985,"is_reserved":false,"is_disabled":false,"rental_uris":{"android":"levelo://app?vid=8d301145-1b3f-414a-a62f-929588279e23","ios":"levelo://app?vid=8d301145-1b3f-414a-a62f-929588279e23"},"vehicle_type_id":"4","last_reported":1747570713,"current_range_meters":10800,"station_id":"ce4bhbh2rcd13ifvqepg","pricing_plan_id":"cebpf4jnsgd1na2vs0mg"},{"bike_id":"7522b736-6435-404e-bb74-c3fa19d93d0a","system_id":"levelo_inurba_marseille","lat":43.30613,"lon":5.37221,"is_reserved":false,"is_disabled":false,"rental_uris":{"android":"levelo://app?vid=7522b736-6435-404e-bb74-c3fa19d93d0a","ios":"levelo://app?vid=7522b736-6435-404e-bb74-c3fa19d93d0a"},"vehicle_type_id":"4","last_reported":1747570713,"current_range_meters":10000,"station_id":"ce4bgqh2rcd13ifvqc4g","pricing_plan_id":"cebpf4jnsgd1na2vs0mg"},{"bike_id":"c10b2085-8572-4f19-b4e0-a4bdb80c482a","system_id":"levelo_inurba_marseille","lat":43.28618,"lon":5.35105,"is_reserved":false,"is_disabled":false,"rental_uris":{"android":"levelo://app?vid=c10b2085-8572-4f19-b4e0-a4bdb80c482a","ios":"levelo://app?vid=c10b2085-8572-4f19-b4e0-a4bdb80c482a"},"vehicle_type_id":"4","last_reported":1747570713,"current_range_meters":10800,"station_id":"ce4bhch2rcd13ifvqeug","pricing_plan_id":"cebpf4jnsgd1na2vs0mg"},{"bike_id":"0fff26c1-ee5a-45bd-8576-8f20831a7bcd","system_id":"levelo_inurba_marseille","lat":43.2998,"lon":5.38491,"is_reserved":false,"is_disabled":true,"rental_uris":{"android":"levelo://app?vid=0fff26c1-ee5a-45bd-8576-8f20831a7bcd","ios":"levelo://app?vid=0fff26c1-ee5a-45bd-8576-8f20831a7bcd"},"vehicle_type_id":"4","last_reported":1747570713,"current_range_meters":10800,"station_id":"ce4bgj92rcd13ifvqbd0","pricing_plan_id":"cebpf4jnsgd1na2vs0mg"},{"bike_id":"ec260807-29d3-437c-b21b-e3525a6e2eeb","system_id":"levelo_inurba_marseille","lat":43.28417,"lon":5.34988,"is_reserved":false,"is_disabled":false,"rental_uris":{"android":"levelo://app?vid=ec260807-29d3-437c-b21b-e3525a6e2eeb","ios":"levelo://app?vid=ec260807-29d3-437c-b21b-e3525a6e2eeb"},"vehicle_type_id":"4","last_reported":1747570713,"current_range_meters":10800,"station_id":"ce4bhbh2rcd13ifvqepg","pricing_plan_id":"cebpf4jnsgd1na2vs0mg"},{"bike_id":"1b2f0e19-c9dc-4000-8367-67c619535c14","system_id":"levelo_inurba_marseille","lat":43.299443,"lon":5.365326,"is_reserved":false,"is_disabled":true,"rental_uris":{"android":"levelo://app?vid=1b2f0e19-c9dc-4000-8367-67c619535c14","ios":"levelo://app?vid=1b2f0e19-c9dc-4000-8367-67c619535c14"},"vehicle_type_id":"4","last_reported":1747570713,"current_range_meters":10800,"station_id":"ce4bgm92rcd13ifvqbr0","pricing_plan_id":"cebpf4jnsgd1na2vs0mg"},{"bike_id":"cb2942f5-3179-48e8-ba57-9143125fef63","system_id":"levelo_inurba_marseille","lat":43.25111,"lon":5.40321,"is_reserved":false,"is_disabled":false,"rental_uris":{"android":"levelo://app?vid=cb2942f5-3179-48e8-ba57-9143125fef63","ios":"levelo://app?vid=cb2942f5-3179-48e8-ba57-9143125fef63"},"vehicle_type_id":"4","last_reported":1747570713,"current_range_meters":10800,"station_id":"ce4bhlh2rcd13ifvqgig","pricing_plan_id":"cebpf4jnsgd1na2vs0mg"},{"bike_id":"6e1bd625-3ec1-43df-9657-36d71ae09f8d","system_id":"levelo_inurba_marseille","lat":43.33745,"lon":5.37434,"is_reserved":false,"is_disabled":false,"rental_uris":{"android":"levelo://app?vid=6e1bd625-3ec1-43df-9657-36d71ae09f8d","ios":"levelo://app?vid=6e1bd625-3ec1-43df-9657-36d71ae09f8d"},"vehicle_type_id":"4","last_reported":1747570713,"current_range_meters":10800,"station_id":"","pricing_plan_id":"cebpf4jnsgd1na2vs0mg"},{"bike_id":"2fec9bab-bd43-4f16-835f-76d39d28e914","system_id":"levelo_inurba_marseille","lat":43.241689,"lon":5.363973,"is_reserved":false,"is_disabled":false,"rental_uris":{"android":"levelo://app?vid=2fec9bab-bd43-4f16-835f-76d39d28e914","ios":"levelo://app?vid=2fec9bab-bd43-4f16-835f-76d39d28e914"},"vehicle_type_id":"4","last_reported":1747570713,"current_range_meters":10800,"station_id":"cpo36qri1sfpv3e86is0","pricing_plan_id":"cebpf4jnsgd1na2vs0mg"},{"bike_id":"c608898e-58b6-42f7-903a-6008119c7a64","system_id":"levelo_inurba_marseille","lat":43.24064,"lon":5.37746,"is_reserved":false,"is_disabled":false,"rental_uris":{"android":"levelo://app?vid=c608898e-58b6-42f7-903a-6008119c7a64","ios":"levelo://app?vid=c608898e-58b6-42f7-903a-6008119c7a64"},"vehicle_type_id":"4","last_reported":1747570713,"current_range_meters":10800,"station_id":"ce4bhnp2rcd13ifvqgvg","pricing_plan_id":"cebpf4jnsgd1na2vs0mg"},{"bike_id":"1580b165-ecf9-4c1a-8809-c7db1bc15693","system_id":"levelo_inurba_marseille","lat":43.28434,"lon":5.34989,"is_reserved":false,"is_disabled":false,"rental_uris":{"android":"levelo://app?vid=1580b165-ecf9-4c1a-8809-c7db1bc15693","ios":"levelo://app?vid=1580b165-ecf9-4c1a-8809-c7db1bc15693"},"vehicle_type_id":"4","last_reported":1747570713,"current_range_meters":10800,"station_id":"ce4bhbh2rcd13ifvqepg","pricing_plan_id":"cebpf4jnsgd1na2vs0mg"},{"bike_id":"24f8d3bc-81c7-41e3-af8b-aae64bfae8e6","system_id":"levelo_inurba_marseille","lat":43.2464,"lon":5.38903,"is_reserved":false,"is_disabled":false,"rental_uris":{"android":"levelo://app?vid=24f8d3bc-81c7-41e3-af8b-aae64bfae8e6","ios":"levelo://app?vid=24f8d3bc-81c7-41e3-af8b-aae64bfae8e6"},"vehicle_type_id":"4","last_reported":1747570713,"current_range_meters":10800,"station_id":"ce4bhg12rcd13ifvqf60","pricing_plan_id":"cebpf4jnsgd1na2vs0mg"},{"bike_id":"fa1838ce-0b76-4a7d-b4cf-2536246f0cf2","system_id":"levelo_inurba_marseille","lat":43.28263,"lon":5.35074,"is_reserved":false,"is_disabled":false,"rental_uris":{"android":"levelo://app?vid=fa1838ce-0b76-4a7d-b4cf-2536246f0cf2","ios":"levelo://app?vid=fa1838ce-0b76-4a7d-b4cf-2536246f0cf2"},"vehicle_type_id":"4","last_reported":1747570713,"current_range_meters":11200,"station_id":"ce4bhbp2rcd13ifvqerg","pricing_plan_id":"cebpf4jnsgd1na2vs0mg"},{"bike_id":"3b8b9b0c-0685-428c-bbdc-2f72ca4c7679","system_id":"levelo_inurba_marseille","lat":43.27905,"lon":5.38017,"is_reserved":false,"is_disabled":false,"rental_uris":{"android":"levelo://app?vid=3b8b9b0c-0685-428c-bbdc-2f72ca4c7679","ios":"levelo://app?vid=3b8b9b0c-0685-428c-bbdc-2f72ca4c7679"},"vehicle_type_id":"4","last_reported":1747570713,"current_range_meters":11200,"station_id":"ce4bhf92rcd13ifvqf50","pricing_plan_id":"cebpf4jnsgd1na2vs0mg"},{"bike_id":"1b4a335f-32fe-4746-bbf7-08943503aa4d","system_id":"levelo_inurba_marseille","lat":43.25119,"lon":5.40327,"is_reserved":false,"is_disabled":false,"rental_uris":{"android":"levelo://app?vid=1b4a335f-32fe-4746-bbf7-08943503aa4d","ios":"levelo://app?vid=1b4a335f-32fe-4746-bbf7-08943503aa4d"},"vehicle_type_id":"4","last_reported":1747570713,"current_range_meters":11200,"station_id":"ce4bhlh2rcd13ifvqgig","pricing_plan_id":"cebpf4jnsgd1na2vs0mg"},{"bike_id":"4745dd8b-a0b2-49db-b417-8a28eecc51d4","system_id":"levelo_inurba_marseille","lat":43.2433,"lon":5.38,"is_reserved":false,"is_disabled":false,"rental_uris":{"android":"levelo://app?vid=4745dd8b-a0b2-49db-b417-8a28eecc51d4","ios":"levelo://app?vid=4745dd8b-a0b2-49db-b417-8a28eecc51d4"},"vehicle_type_id":"4","last_reported":1747570713,"current_range_meters":11200,"station_id":"","pricing_plan_id":"cebpf4jnsgd1na2vs0mg"},{"bike_id":"c91d6112-eb02-4a4e-8397-783ab2529d9f","system_id":"levelo_inurba_marseille","lat":43.24811,"lon":5.37453,"is_reserved":false,"is_disabled":false,"rental_uris":{"android":"levelo://app?vid=c91d6112-eb02-4a4e-8397-783ab2529d9f","ios":"levelo://app?vid=c91d6112-eb02-4a4e-8397-783ab2529d9f"},"vehicle_type_id":"4","last_reported":1747570713,"current_range_meters":11600,"station_id":"ce4bhgh2rcd13ifvqfb0","pricing_plan_id":"cebpf4jnsgd1na2vs0mg"},{"bike_id":"ddd0b4c1-875c-400f-b9e4-80b94f022dbb","system_id":"levelo_inurba_marseille","lat":43.231915,"lon":5.35555,"is_reserved":false,"is_disabled":false,"rental_uris":{"android":"levelo://app?vid=ddd0b4c1-875c-400f-b9e4-80b94f022dbb","ios":"levelo://app?vid=ddd0b4c1-875c-400f-b9e4-80b94f022dbb"},"vehicle_type_id":"4","last_reported":1747570713,"current_range_meters":11600,"station_id":"ce4bhu92rcd13ifvqi70","pricing_plan_id":"cebpf4jnsgd1na2vs0mg"},{"bike_id":"84681128-9b85-4b9f-8e87-dacf51b69edb","system_id":"levelo_inurba_marseille","lat":43.21197,"lon":5.35059,"is_reserved":false,"is_disabled":false,"rental_uris":{"android":"levelo://app?vid=84681128-9b85-4b9f-8e87-dacf51b69edb","ios":"levelo://app?vid=84681128-9b85-4b9f-8e87-dacf51b69edb"},"vehicle_type_id":"4","last_reported":1747570713,"current_range_meters":11600,"station_id":"st_cvj6sg6p6f1abm77japg","pricing_plan_id":"cebpf4jnsgd1na2vs0mg"},{"bike_id":"02ddba3a-ba03-4ec6-a11f-790f846341a9","system_id":"levelo_inurba_marseille","lat":43.21752,"lon":5.34596,"is_reserved":false,"is_disabled":false,"rental_uris":{"android":"levelo://app?vid=02ddba3a-ba03-4ec6-a11f-790f846341a9","ios":"levelo://app?vid=02ddba3a-ba03-4ec6-a11f-790f846341a9"},"vehicle_type_id":"4","last_reported":1747570713,"current_range_meters":11600,"station_id":"st_cvj6r9ubvosntc0bgbag","pricing_plan_id":"cebpf4jnsgd1na2vs0mg"},{"bike_id":"b438695d-9c9f-4ed6-ad79-75697224f732","system_id":"levelo_inurba_marseille","lat":43.23195,"lon":5.35556,"is_reserved":false,"is_disabled":false,"rental_uris":{"android":"levelo://app?vid=b438695d-9c9f-4ed6-ad79-75697224f732","ios":"levelo://app?vid=b438695d-9c9f-4ed6-ad79-75697224f732"},"vehicle_type_id":"4","last_reported":1747570713,"current_range_meters":11600,"station_id":"ce4bhu92rcd13ifvqi70","pricing_plan_id":"cebpf4jnsgd1na2vs0mg"},{"bike_id":"08510fae-faaa-4c7e-8b63-8318909db753","system_id":"levelo_inurba_marseille","lat":43.21756,"lon":5.34597,"is_reserved":false,"is_disabled":false,"rental_uris":{"android":"levelo://app?vid=08510fae-faaa-4c7e-8b63-8318909db753","ios":"levelo://app?vid=08510fae-faaa-4c7e-8b63-8318909db753"},"vehicle_type_id":"4","last_reported":1747570713,"current_range_meters":12000,"station_id":"st_cvj6r9ubvosntc0bgbag","pricing_plan_id":"cebpf4jnsgd1na2vs0mg"},{"bike_id":"3a4bb201-7fa2-4f90-9ba8-20bf58eba273","system_id":"levelo_inurba_marseille","lat":43.24168,"lon":5.36389,"is_reserved":false,"is_disabled":false,"rental_uris":{"android":"levelo://app?vid=3a4bb201-7fa2-4f90-9ba8-20bf58eba273","ios":"levelo://app?vid=3a4bb201-7fa2-4f90-9ba8-20bf58eba273"},"vehicle_type_id":"4","last_reported":1747570713,"current_range_meters":12000,"station_id":"cpo36qri1sfpv3e86is0","pricing_plan_id":"cebpf4jnsgd1na2vs0mg"},{"bike_id":"be2c3896-fa0c-4a27-a492-db322855c4b2","system_id":"levelo_inurba_marseille","lat":43.25118,"lon":5.40334,"is_reserved":false,"is_disabled":false,"rental_uris":{"android":"levelo://app?vid=be2c3896-fa0c-4a27-a492-db322855c4b2","ios":"levelo://app?vid=be2c3896-fa0c-4a27-a492-db322855c4b2"},"vehicle_type_id":"4","last_reported":1747570713,"current_range_meters":12000,"station_id":"ce4bhlh2rcd13ifvqgig","pricing_plan_id":"cebpf4jnsgd1na2vs0mg"},{"bike_id":"53f19b5e-5bc8-42a2-9d83-057eaeb50837","system_id":"levelo_inurba_marseille","lat":43.305481,"lon":5.36705,"is_reserved":false,"is_disabled":false,"rental_uris":{"android":"levelo://app?vid=53f19b5e-5bc8-42a2-9d83-057eaeb50837","ios":"levelo://app?vid=53f19b5e-5bc8-42a2-9d83-057eaeb50837"},"vehicle_type_id":"4","last_reported":1747570713,"current_range_meters":12000,"station_id":"ce4bgrp2rcd13ifvqc9g","pricing_plan_id":"cebpf4jnsgd1na2vs0mg"},{"bike_id":"a2e8ac07-c27d-4596-ac54-d8fb456abf0d","system_id":"levelo_inurba_marseille","lat":43.28223,"lon":5.42392,"is_reserved":false,"is_disabled":false,"rental_uris":{"android":"levelo://app?vid=a2e8ac07-c27d-4596-ac54-d8fb456abf0d","ios":"levelo://app?vid=a2e8ac07-c27d-4596-ac54-d8fb456abf0d"},"vehicle_type_id":"4","last_reported":1747570713,"current_range_meters":12000,"station_id":"","pricing_plan_id":"cebpf4jnsgd1na2vs0mg"},{"bike_id":"3fe1ae30-8061-43a3-89f5-72882fc3ed06","system_id":"levelo_inurba_marseille","lat":43.26203,"lon":5.37929,"is_reserved":false,"is_disabled":false,"rental_uris":{"android":"levelo://app?vid=3fe1ae30-8061-43a3-89f5-72882fc3ed06","ios":"levelo://app?vid=3fe1ae30-8061-43a3-89f5-72882fc3ed06"},"vehicle_type_id":"4","last_reported":1747570713,"current_range_meters":12000,"station_id":"ce4bhjp2rcd13ifvqg90","pricing_plan_id":"cebpf4jnsgd1na2vs0mg"},{"bike_id":"495df180-80d7-40e3-affa-3c042f0600fc","system_id":"levelo_inurba_marseille","lat":43.220705,"lon":5.345873,"is_reserved":false,"is_disabled":false,"rental_uris":{"android":"levelo://app?vid=495df180-80d7-40e3-affa-3c042f0600fc","ios":"levelo://app?vid=495df180-80d7-40e3-affa-3c042f0600fc"},"vehicle_type_id":"4","last_reported":1747570713,"current_range_meters":12000,"station_id":"st_cvj6r9ubvosntc0bgbag","pricing_plan_id":"cebpf4jnsgd1na2vs0mg"},{"bike_id":"06fb6274-c887-4ce8-9273-400ecb3aef67","system_id":"levelo_inurba_marseille","lat":43.28418,"lon":5.46025,"is_reserved":false,"is_disabled":false,"rental_uris":{"android":"levelo://app?vid=06fb6274-c887-4ce8-9273-400ecb3aef67","ios":"levelo://app?vid=06fb6274-c887-4ce8-9273-400ecb3aef67"},"vehicle_type_id":"4","last_reported":1747570713,"current_range_meters":12000,"station_id":"","pricing_plan_id":"cebpf4jnsgd1na2vs0mg"},{"bike_id":"29ab9d58-86eb-4b1f-87cb-c047d4000b97","system_id":"levelo_inurba_marseille","lat":43.28934,"lon":5.36394,"is_reserved":false,"is_disabled":false,"rental_uris":{"android":"levelo://app?vid=29ab9d58-86eb-4b1f-87cb-c047d4000b97","ios":"levelo://app?vid=29ab9d58-86eb-4b1f-87cb-c047d4000b97"},"vehicle_type_id":"4","last_reported":1747570713,"current_range_meters":12000,"station_id":"ce4bhc92rcd13ifvqetg","pricing_plan_id":"cebpf4jnsgd1na2vs0mg"},{"bike_id":"6ee7001e-07ad-49d2-9902-4e2095457f59","system_id":"levelo_inurba_marseille","lat":43.27072,"lon":5.42281,"is_reserved":false,"is_disabled":true,"rental_uris":{"android":"levelo://app?vid=6ee7001e-07ad-49d2-9902-4e2095457f59","ios":"levelo://app?vid=6ee7001e-07ad-49d2-9902-4e2095457f59"},"vehicle_type_id":"4","last_reported":1747570713,"current_range_meters":12400,"station_id":"ce4bhk92rcd13ifvqgb0","pricing_plan_id":"cebpf4jnsgd1na2vs0mg"},{"bike_id":"55982159-14b0-423d-a8c0-c157cf2770cd","system_id":"levelo_inurba_marseille","lat":43.27764,"lon":5.36229,"is_reserved":false,"is_disabled":false,"rental_uris":{"android":"levelo://app?vid=55982159-14b0-423d-a8c0-c157cf2770cd","ios":"levelo://app?vid=55982159-14b0-423d-a8c0-c157cf2770cd"},"vehicle_type_id":"4","last_reported":1747570713,"current_range_meters":12400,"station_id":"","pricing_plan_id":"cebpf4jnsgd1na2vs0mg"},{"bike_id":"422d68ed-e211-4205-bea3-8265ea4c491b","system_id":"levelo_inurba_marseille","lat":43.295966,"lon":5.376691,"is_reserved":false,"is_disabled":false,"rental_uris":{"android":"levelo://app?vid=422d68ed-e211-4205-bea3-8265ea4c491b","ios":"levelo://app?vid=422d68ed-e211-4205-bea3-8265ea4c491b"},"vehicle_type_id":"4","last_reported":1747570713,"current_range_meters":12400,"station_id":"ce4bgkh2rcd13ifvqbl0","pricing_plan_id":"cebpf4jnsgd1na2vs0mg"},{"bike_id":"773b4213-05cc-4f05-a875-0baa4a72f496","system_id":"levelo_inurba_marseille","lat":43.31884,"lon":5.40741,"is_reserved":false,"is_disabled":false,"rental_uris":{"android":"levelo://app?vid=773b4213-05cc-4f05-a875-0baa4a72f496","ios":"levelo://app?vid=773b4213-05cc-4f05-a875-0baa4a72f496"},"vehicle_type_id":"4","last_reported":1747570713,"current_range_meters":12400,"station_id":"ce4bhq12rcd13ifvqhig","pricing_plan_id":"cebpf4jnsgd1na2vs0mg"},{"bike_id":"879b85d7-67e8-43b7-bfce-db1988e11567","system_id":"levelo_inurba_marseille","lat":43.29191,"lon":5.35794,"is_reserved":false,"is_disabled":false,"rental_uris":{"android":"levelo://app?vid=879b85d7-67e8-43b7-bfce-db1988e11567","ios":"levelo://app?vid=879b85d7-67e8-43b7-bfce-db1988e11567"},"vehicle_type_id":"4","last_reported":1747570713,"current_range_meters":12400,"station_id":"ce4bhb12rcd13ifvqel0","pricing_plan_id":"cebpf4jnsgd1na2vs0mg"},{"bike_id":"ae09ee8a-6013-4413-8f85-08be7428afe3","system_id":"levelo_inurba_marseille","lat":43.28427,"lon":5.34984,"is_reserved":false,"is_disabled":false,"rental_uris":{"android":"levelo://app?vid=ae09ee8a-6013-4413-8f85-08be7428afe3","ios":"levelo://app?vid=ae09ee8a-6013-4413-8f85-08be7428afe3"},"vehicle_type_id":"4","last_reported":1747570713,"current_range_meters":12400,"station_id":"ce4bhbh2rcd13ifvqepg","pricing_plan_id":"cebpf4jnsgd1na2vs0mg"},{"bike_id":"1c33b4fe-2443-46fa-9df1-e4b417c295eb","system_id":"levelo_inurba_marseille","lat":43.23057,"lon":5.35488,"is_reserved":false,"is_disabled":false,"rental_uris":{"android":"levelo://app?vid=1c33b4fe-2443-46fa-9df1-e4b417c295eb","ios":"levelo://app?vid=1c33b4fe-2443-46fa-9df1-e4b417c295eb"},"vehicle_type_id":"4","last_reported":1747570713,"current_range_meters":12800,"station_id":"cpo3342slgdg3j2ifvpg","pricing_plan_id":"cebpf4jnsgd1na2vs0mg"},{"bike_id":"3ecd75d9-7186-4826-a7a9-2674c322acd8","system_id":"levelo_inurba_marseille","lat":43.23181,"lon":5.39989,"is_reserved":false,"is_disabled":false,"rental_uris":{"android":"levelo://app?vid=3ecd75d9-7186-4826-a7a9-2674c322acd8","ios":"levelo://app?vid=3ecd75d9-7186-4826-a7a9-2674c322acd8"},"vehicle_type_id":"4","last_reported":1747570713,"current_range_meters":12800,"station_id":"ce4bhn12rcd13ifvqgqg","pricing_plan_id":"cebpf4jnsgd1na2vs0mg"},{"bike_id":"b26a0dd7-cbdc-4ab7-8def-31c4b88b224a","system_id":"levelo_inurba_marseille","lat":43.31207,"lon":5.39248,"is_reserved":false,"is_disabled":false,"rental_uris":{"android":"levelo://app?vid=b26a0dd7-cbdc-4ab7-8def-31c4b88b224a","ios":"levelo://app?vid=b26a0dd7-cbdc-4ab7-8def-31c4b88b224a"},"vehicle_type_id":"4","last_reported":1747570713,"current_range_meters":12800,"station_id":"","pricing_plan_id":"cebpf4jnsgd1na2vs0mg"},{"bike_id":"5ce309f8-7af0-4700-ab1d-1cf81cfd7421","system_id":"levelo_inurba_marseille","lat":43.28267,"lon":5.35067,"is_reserved":false,"is_disabled":false,"rental_uris":{"android":"levelo://app?vid=5ce309f8-7af0-4700-ab1d-1cf81cfd7421","ios":"levelo://app?vid=5ce309f8-7af0-4700-ab1d-1cf81cfd7421"},"vehicle_type_id":"4","last_reported":1747570713,"current_range_meters":12800,"station_id":"ce4bhbp2rcd13ifvqerg","pricing_plan_id":"cebpf4jnsgd1na2vs0mg"},{"bike_id":"51a33848-f0f0-40ec-b6c6-8948c992d932","system_id":"levelo_inurba_marseille","lat":43.250933,"lon":5.395171,"is_reserved":false,"is_disabled":false,"rental_uris":{"android":"levelo://app?vid=51a33848-f0f0-40ec-b6c6-8948c992d932","ios":"levelo://app?vid=51a33848-f0f0-40ec-b6c6-8948c992d932"},"vehicle_type_id":"4","last_reported":1747570713,"current_range_meters":12800,"station_id":"ce4bhm12rcd13ifvqgkg","pricing_plan_id":"cebpf4jnsgd1na2vs0mg"},{"bike_id":"9f495259-929a-415b-acfb-24d1a8ab8c9e","system_id":"levelo_inurba_marseille","lat":43.23192,"lon":5.35558,"is_reserved":false,"is_disabled":false,"rental_uris":{"android":"levelo://app?vid=9f495259-929a-415b-acfb-24d1a8ab8c9e","ios":"levelo://app?vid=9f495259-929a-415b-acfb-24d1a8ab8c9e"},"vehicle_type_id":"4","last_reported":1747570713,"current_range_meters":12800,"station_id":"ce4bhu92rcd13ifvqi70","pricing_plan_id":"cebpf4jnsgd1na2vs0mg"},{"bike_id":"e8c092b6-ea1e-49b4-86f2-ae6140f06f6f","system_id":"levelo_inurba_marseille","lat":43.289192,"lon":5.383954,"is_reserved":false,"is_disabled":true,"rental_uris":{"android":"levelo://app?vid=e8c092b6-ea1e-49b4-86f2-ae6140f06f6f","ios":"levelo://app?vid=e8c092b6-ea1e-49b4-86f2-ae6140f06f6f"},"vehicle_type_id":"4","last_reported":1747570713,"current_range_meters":12800,"station_id":"","pricing_plan_id":"cebpf4jnsgd1na2vs0mg"},{"bike_id":"93cd956f-ae8c-42c2-9b1b-46492ed8b431","system_id":"levelo_inurba_marseille","lat":43.2439,"lon":5.37057,"is_reserved":false,"is_disabled":false,"rental_uris":{"android":"levelo://app?vid=93cd956f-ae8c-42c2-9b1b-46492ed8b431","ios":"levelo://app?vid=93cd956f-ae8c-42c2-9b1b-46492ed8b431"},"vehicle_type_id":"4","last_reported":1747570713,"current_range_meters":12800,"station_id":"ce4bhhh2rcd13ifvqfk0","pricing_plan_id":"cebpf4jnsgd1na2vs0mg"},{"bike_id":"7698f913-46d0-4283-89ce-e3d803d4cdb3","system_id":"levelo_inurba_marseille","lat":43.28278,"lon":5.3507,"is_reserved":false,"is_disabled":false,"rental_uris":{"android":"levelo://app?vid=7698f913-46d0-4283-89ce-e3d803d4cdb3","ios":"levelo://app?vid=7698f913-46d0-4283-89ce-e3d803d4cdb3"},"vehicle_type_id":"4","last_reported":1747570713,"current_range_meters":13600,"station_id":"ce4bhbp2rcd13ifvqerg","pricing_plan_id":"cebpf4jnsgd1na2vs0mg"},{"bike_id":"c175803f-ba57-47d2-bbc8-9d53a3ce509f","system_id":"levelo_inurba_marseille","lat":43.29188,"lon":5.35802,"is_reserved":false,"is_disabled":false,"rental_uris":{"android":"levelo://app?vid=c175803f-ba57-47d2-bbc8-9d53a3ce509f","ios":"levelo://app?vid=c175803f-ba57-47d2-bbc8-9d53a3ce509f"},"vehicle_type_id":"4","last_reported":1747570713,"current_range_meters":12800,"station_id":"ce4bhb12rcd13ifvqel0","pricing_plan_id":"cebpf4jnsgd1na2vs0mg"},{"bike_id":"068c2813-7fd2-4239-afcd-4c47c8962183","system_id":"levelo_inurba_marseille","lat":43.28621,"lon":5.35099,"is_reserved":false,"is_disabled":false,"rental_uris":{"android":"levelo://app?vid=068c2813-7fd2-4239-afcd-4c47c8962183","ios":"levelo://app?vid=068c2813-7fd2-4239-afcd-4c47c8962183"},"vehicle_type_id":"4","last_reported":1747570713,"current_range_meters":13600,"station_id":"ce4bhch2rcd13ifvqeug","pricing_plan_id":"cebpf4jnsgd1na2vs0mg"},{"bike_id":"1226a745-d765-46c5-8a83-a8a29b839961","system_id":"levelo_inurba_marseille","lat":43.28619,"lon":5.351,"is_reserved":false,"is_disabled":false,"rental_uris":{"android":"levelo://app?vid=1226a745-d765-46c5-8a83-a8a29b839961","ios":"levelo://app?vid=1226a745-d765-46c5-8a83-a8a29b839961"},"vehicle_type_id":"4","last_reported":1747570713,"current_range_meters":13600,"station_id":"ce4bhch2rcd13ifvqeug","pricing_plan_id":"cebpf4jnsgd1na2vs0mg"},{"bike_id":"01c6b9c4-99fa-41f1-87d1-dd9be28d4334","system_id":"levelo_inurba_marseille","lat":43.21745,"lon":5.34604,"is_reserved":false,"is_disabled":false,"rental_uris":{"android":"levelo://app?vid=01c6b9c4-99fa-41f1-87d1-dd9be28d4334","ios":"levelo://app?vid=01c6b9c4-99fa-41f1-87d1-dd9be28d4334"},"vehicle_type_id":"4","last_reported":1747570713,"current_range_meters":13600,"station_id":"st_cvj6r9ubvosntc0bgbag","pricing_plan_id":"cebpf4jnsgd1na2vs0mg"},{"bike_id":"2d77be1e-e667-4ad9-88d0-501cfa87ce02","system_id":"levelo_inurba_marseille","lat":43.21193,"lon":5.350733,"is_reserved":false,"is_disabled":false,"rental_uris":{"android":"levelo://app?vid=2d77be1e-e667-4ad9-88d0-501cfa87ce02","ios":"levelo://app?vid=2d77be1e-e667-4ad9-88d0-501cfa87ce02"},"vehicle_type_id":"4","last_reported":1747570713,"current_range_meters":14000,"station_id":"","pricing_plan_id":"cebpf4jnsgd1na2vs0mg"},{"bike_id":"4e4ef505-e060-4bfa-bbdc-b211b464bed1","system_id":"levelo_inurba_marseille","lat":43.3055,"lon":5.36531,"is_reserved":false,"is_disabled":false,"rental_uris":{"android":"levelo://app?vid=4e4ef505-e060-4bfa-bbdc-b211b464bed1","ios":"levelo://app?vid=4e4ef505-e060-4bfa-bbdc-b211b464bed1"},"vehicle_type_id":"4","last_reported":1747570713,"current_range_meters":14000,"station_id":"ce4bgs12rcd13ifvqcag","pricing_plan_id":"cebpf4jnsgd1na2vs0mg"},{"bike_id":"f89e3e2c-7a79-4321-a92d-d9c513bf54bc","system_id":"levelo_inurba_marseille","lat":43.28461,"lon":5.35887,"is_reserved":false,"is_disabled":false,"rental_uris":{"android":"levelo://app?vid=f89e3e2c-7a79-4321-a92d-d9c513bf54bc","ios":"levelo://app?vid=f89e3e2c-7a79-4321-a92d-d9c513bf54bc"},"vehicle_type_id":"4","last_reported":1747570713,"current_range_meters":14000,"station_id":"ce4bhah2rcd13ifvqei0","pricing_plan_id":"cebpf4jnsgd1na2vs0mg"},{"bike_id":"0a672e4f-4d62-47b0-88d5-45b4c1c6a08c","system_id":"levelo_inurba_marseille","lat":43.29554,"lon":5.42283,"is_reserved":false,"is_disabled":false,"rental_uris":{"android":"levelo://app?vid=0a672e4f-4d62-47b0-88d5-45b4c1c6a08c","ios":"levelo://app?vid=0a672e4f-4d62-47b0-88d5-45b4c1c6a08c"},"vehicle_type_id":"4","last_reported":1747570713,"current_range_meters":14000,"station_id":"ce4bhph2rcd13ifvqhdg","pricing_plan_id":"cebpf4jnsgd1na2vs0mg"},{"bike_id":"814e2930-a412-47af-849d-26da2abc07f6","system_id":"levelo_inurba_marseille","lat":43.27814,"lon":5.407187,"is_reserved":false,"is_disabled":true,"rental_uris":{"android":"levelo://app?vid=814e2930-a412-47af-849d-26da2abc07f6","ios":"levelo://app?vid=814e2930-a412-47af-849d-26da2abc07f6"},"vehicle_type_id":"4","last_reported":1747570713,"current_range_meters":14000,"station_id":"ce4bhnh2rcd13ifvqgtg","pricing_plan_id":"cebpf4jnsgd1na2vs0mg"},{"bike_id":"d064df0f-4483-4dd0-9850-9a2f51658c62","system_id":"levelo_inurba_marseille","lat":43.21189,"lon":5.35073,"is_reserved":false,"is_disabled":true,"rental_uris":{"android":"levelo://app?vid=d064df0f-4483-4dd0-9850-9a2f51658c62","ios":"levelo://app?vid=d064df0f-4483-4dd0-9850-9a2f51658c62"},"vehicle_type_id":"4","last_reported":1747570713,"current_range_meters":14400,"station_id":"st_cvj6sg6p6f1abm77japg","pricing_plan_id":"cebpf4jnsgd1na2vs0mg"},{"bike_id":"d8da70fb-a079-460a-9e23-65ed45fe0088","system_id":"levelo_inurba_marseille","lat":43.25494,"lon":5.37636,"is_reserved":false,"is_disabled":true,"rental_uris":{"android":"levelo://app?vid=d8da70fb-a079-460a-9e23-65ed45fe0088","ios":"levelo://app?vid=d8da70fb-a079-460a-9e23-65ed45fe0088"},"vehicle_type_id":"4","last_reported":1747570713,"current_range_meters":14400,"station_id":"ce4bhh12rcd13ifvqff0","pricing_plan_id":"cebpf4jnsgd1na2vs0mg"},{"bike_id":"51736835-8128-4840-b526-bf33d386a6e7","system_id":"levelo_inurba_marseille","lat":43.29902,"lon":5.43667,"is_reserved":false,"is_disabled":true,"rental_uris":{"android":"levelo://app?vid=51736835-8128-4840-b526-bf33d386a6e7","ios":"levelo://app?vid=51736835-8128-4840-b526-bf33d386a6e7"},"vehicle_type_id":"4","last_reported":1747570713,"current_range_meters":14400,"station_id":"ce4bhpp2rcd13ifvqhfg","pricing_plan_id":"cebpf4jnsgd1na2vs0mg"},{"bike_id":"f3889bca-eeb9-4d2e-ad0f-92585fa1c38e","system_id":"levelo_inurba_marseille","lat":43.296563,"lon":5.390607,"is_reserved":false,"is_disabled":false,"rental_uris":{"android":"levelo://app?vid=f3889bca-eeb9-4d2e-ad0f-92585fa1c38e","ios":"levelo://app?vid=f3889bca-eeb9-4d2e-ad0f-92585fa1c38e"},"vehicle_type_id":"4","last_reported":1747570713,"current_range_meters":14400,"station_id":"ce4bgj92rcd13ifvqbe0","pricing_plan_id":"cebpf4jnsgd1na2vs0mg"},{"bike_id":"168ff632-117e-4c12-8961-89fb008f2faf","system_id":"levelo_inurba_marseille","lat":43.27216,"lon":5.39183,"is_reserved":false,"is_disabled":true,"rental_uris":{"android":"levelo://app?vid=168ff632-117e-4c12-8961-89fb008f2faf","ios":"levelo://app?vid=168ff632-117e-4c12-8961-89fb008f2faf"},"vehicle_type_id":"4","last_reported":1747570713,"current_range_meters":14800,"station_id":"ce4bhhp2rcd13ifvqfm0","pricing_plan_id":"cebpf4jnsgd1na2vs0mg"},{"bike_id":"67f72f62-eb9d-4994-bbcf-c10b28dd838c","system_id":"levelo_inurba_marseille","lat":43.26598,"lon":5.39332,"is_reserved":false,"is_disabled":false,"rental_uris":{"android":"levelo://app?vid=67f72f62-eb9d-4994-bbcf-c10b28dd838c","ios":"levelo://app?vid=67f72f62-eb9d-4994-bbcf-c10b28dd838c"},"vehicle_type_id":"4","last_reported":1747570713,"current_range_meters":14800,"station_id":"","pricing_plan_id":"cebpf4jnsgd1na2vs0mg"},{"bike_id":"12c4d802-2c6a-4c71-888e-000ffe312a3f","system_id":"levelo_inurba_marseille","lat":43.32366,"lon":5.36759,"is_reserved":false,"is_disabled":false,"rental_uris":{"android":"levelo://app?vid=12c4d802-2c6a-4c71-888e-000ffe312a3f","ios":"levelo://app?vid=12c4d802-2c6a-4c71-888e-000ffe312a3f"},"vehicle_type_id":"4","last_reported":1747570713,"current_range_meters":14800,"station_id":"ce4bhsh2rcd13ifvqi2g","pricing_plan_id":"cebpf4jnsgd1na2vs0mg"},{"bike_id":"f45b3dfa-3bcb-4739-9614-b637d034ba9a","system_id":"levelo_inurba_marseille","lat":43.27376,"lon":5.36252,"is_reserved":false,"is_disabled":false,"rental_uris":{"android":"levelo://app?vid=f45b3dfa-3bcb-4739-9614-b637d034ba9a","ios":"levelo://app?vid=f45b3dfa-3bcb-4739-9614-b637d034ba9a"},"vehicle_type_id":"4","last_reported":1747570713,"current_range_meters":14800,"station_id":"ce4bhbh2rcd13ifvqeo0","pricing_plan_id":"cebpf4jnsgd1na2vs0mg"},{"bike_id":"33fcd34d-24bc-4dcf-91c5-6b01f589ab2e","system_id":"levelo_inurba_marseille","lat":43.24073,"lon":5.3774,"is_reserved":false,"is_disabled":false,"rental_uris":{"android":"levelo://app?vid=33fcd34d-24bc-4dcf-91c5-6b01f589ab2e","ios":"levelo://app?vid=33fcd34d-24bc-4dcf-91c5-6b01f589ab2e"},"vehicle_type_id":"4","last_reported":1747570713,"current_range_meters":14800,"station_id":"ce4bhnp2rcd13ifvqgvg","pricing_plan_id":"cebpf4jnsgd1na2vs0mg"},{"bike_id":"ed34fad4-c48e-4c1a-b9b1-8eb1cd77d573","system_id":"levelo_inurba_marseille","lat":43.30943,"lon":5.38621,"is_reserved":false,"is_disabled":false,"rental_uris":{"android":"levelo://app?vid=ed34fad4-c48e-4c1a-b9b1-8eb1cd77d573","ios":"levelo://app?vid=ed34fad4-c48e-4c1a-b9b1-8eb1cd77d573"},"vehicle_type_id":"4","last_reported":1747570713,"current_range_meters":14800,"station_id":"ce4bgv12rcd13ifvqcp0","pricing_plan_id":"cebpf4jnsgd1na2vs0mg"},{"bike_id":"2d43dba1-6ff7-4289-91c8-c617d5aac932","system_id":"levelo_inurba_marseille","lat":43.29565,"lon":5.37488,"is_reserved":false,"is_disabled":true,"rental_uris":{"android":"levelo://app?vid=2d43dba1-6ff7-4289-91c8-c617d5aac932","ios":"levelo://app?vid=2d43dba1-6ff7-4289-91c8-c617d5aac932"},"vehicle_type_id":"4","last_reported":1747570713,"current_range_meters":15200,"station_id":"ce4bgh92rcd13ifvqb50","pricing_plan_id":"cebpf4jnsgd1na2vs0mg"},{"bike_id":"98138392-cfa0-484d-b06e-c8ef04ffa389","system_id":"levelo_inurba_marseille","lat":43.24166,"lon":5.36394,"is_reserved":false,"is_disabled":false,"rental_uris":{"android":"levelo://app?vid=98138392-cfa0-484d-b06e-c8ef04ffa389","ios":"levelo://app?vid=98138392-cfa0-484d-b06e-c8ef04ffa389"},"vehicle_type_id":"4","last_reported":1747570713,"current_range_meters":15200,"station_id":"cpo36qri1sfpv3e86is0","pricing_plan_id":"cebpf4jnsgd1na2vs0mg"},{"bike_id":"4e226aff-cee9-43f3-800d-074a07184a90","system_id":"levelo_inurba_marseille","lat":43.32282,"lon":5.38268,"is_reserved":false,"is_disabled":false,"rental_uris":{"android":"levelo://app?vid=4e226aff-cee9-43f3-800d-074a07184a90","ios":"levelo://app?vid=4e226aff-cee9-43f3-800d-074a07184a90"},"vehicle_type_id":"4","last_reported":1747570713,"current_range_meters":15200,"station_id":"ce4bhr12rcd13ifvqhqg","pricing_plan_id":"cebpf4jnsgd1na2vs0mg"},{"bike_id":"315410c9-6a65-4ebd-a50c-489e9fc18e24","system_id":"levelo_inurba_marseille","lat":43.31081,"lon":5.4243,"is_reserved":false,"is_disabled":false,"rental_uris":{"android":"levelo://app?vid=315410c9-6a65-4ebd-a50c-489e9fc18e24","ios":"levelo://app?vid=315410c9-6a65-4ebd-a50c-489e9fc18e24"},"vehicle_type_id":"4","last_reported":1747570713,"current_range_meters":15200,"station_id":"ce4bhp92rcd13ifvqhag","pricing_plan_id":"cebpf4jnsgd1na2vs0mg"},{"bike_id":"60c0c413-fffe-4412-9265-d393147189a7","system_id":"levelo_inurba_marseille","lat":43.30523,"lon":5.36511,"is_reserved":false,"is_disabled":false,"rental_uris":{"android":"levelo://app?vid=60c0c413-fffe-4412-9265-d393147189a7","ios":"levelo://app?vid=60c0c413-fffe-4412-9265-d393147189a7"},"vehicle_type_id":"4","last_reported":1747570713,"current_range_meters":15200,"station_id":"","pricing_plan_id":"cebpf4jnsgd1na2vs0mg"},{"bike_id":"f0e132cf-91c0-4bbd-95f6-c58ec1763709","system_id":"levelo_inurba_marseille","lat":43.2119,"lon":5.35066,"is_reserved":false,"is_disabled":false,"rental_uris":{"android":"levelo://app?vid=f0e132cf-91c0-4bbd-95f6-c58ec1763709","ios":"levelo://app?vid=f0e132cf-91c0-4bbd-95f6-c58ec1763709"},"vehicle_type_id":"4","last_reported":1747570713,"current_range_meters":15200,"station_id":"st_cvj6sg6p6f1abm77japg","pricing_plan_id":"cebpf4jnsgd1na2vs0mg"},{"bike_id":"d3acc3d8-5f5a-46d9-8de1-ce11324a39c4","system_id":"levelo_inurba_marseille","lat":43.2315,"lon":5.4372,"is_reserved":false,"is_disabled":false,"rental_uris":{"android":"levelo://app?vid=d3acc3d8-5f5a-46d9-8de1-ce11324a39c4","ios":"levelo://app?vid=d3acc3d8-5f5a-46d9-8de1-ce11324a39c4"},"vehicle_type_id":"4","last_reported":1747570713,"current_range_meters":15200,"station_id":"ce4bhmp2rcd13ifvqgog","pricing_plan_id":"cebpf4jnsgd1na2vs0mg"},{"bike_id":"19456222-7d38-48cf-a950-06daadd07927","system_id":"levelo_inurba_marseille","lat":43.25028,"lon":5.37528,"is_reserved":false,"is_disabled":false,"rental_uris":{"android":"levelo://app?vid=19456222-7d38-48cf-a950-06daadd07927","ios":"levelo://app?vid=19456222-7d38-48cf-a950-06daadd07927"},"vehicle_type_id":"4","last_reported":1747570713,"current_range_meters":16000,"station_id":"","pricing_plan_id":"cebpf4jnsgd1na2vs0mg"},{"bike_id":"b2348438-d258-477a-b01f-240217486a53","system_id":"levelo_inurba_marseille","lat":43.25815,"lon":5.39431,"is_reserved":false,"is_disabled":false,"rental_uris":{"android":"levelo://app?vid=b2348438-d258-477a-b01f-240217486a53","ios":"levelo://app?vid=b2348438-d258-477a-b01f-240217486a53"},"vehicle_type_id":"4","last_reported":1747570713,"current_range_meters":16000,"station_id":"ce4bhip2rcd13ifvqft0","pricing_plan_id":"cebpf4jnsgd1na2vs0mg"},{"bike_id":"7e51c783-7282-47be-b939-67f3cf3f0703","system_id":"levelo_inurba_marseille","lat":43.25113,"lon":5.40357,"is_reserved":false,"is_disabled":false,"rental_uris":{"android":"levelo://app?vid=7e51c783-7282-47be-b939-67f3cf3f0703","ios":"levelo://app?vid=7e51c783-7282-47be-b939-67f3cf3f0703"},"vehicle_type_id":"4","last_reported":1747570713,"current_range_meters":16000,"station_id":"ce4bhlh2rcd13ifvqgig","pricing_plan_id":"cebpf4jnsgd1na2vs0mg"},{"bike_id":"a675f4e5-fc13-43cf-92f6-6acfa57913c0","system_id":"levelo_inurba_marseille","lat":43.29031,"lon":5.38139,"is_reserved":false,"is_disabled":true,"rental_uris":{"android":"levelo://app?vid=a675f4e5-fc13-43cf-92f6-6acfa57913c0","ios":"levelo://app?vid=a675f4e5-fc13-43cf-92f6-6acfa57913c0"},"vehicle_type_id":"4","last_reported":1747570713,"current_range_meters":16000,"station_id":"ce4bh4p2rcd13ifvqe1g","pricing_plan_id":"cebpf4jnsgd1na2vs0mg"},{"bike_id":"cb2ce900-9aef-4b6b-b404-5139005040f7","system_id":"levelo_inurba_marseille","lat":43.30567,"lon":5.36687,"is_reserved":false,"is_disabled":false,"rental_uris":{"android":"levelo://app?vid=cb2ce900-9aef-4b6b-b404-5139005040f7","ios":"levelo://app?vid=cb2ce900-9aef-4b6b-b404-5139005040f7"},"vehicle_type_id":"4","last_reported":1747570713,"current_range_meters":16000,"station_id":"","pricing_plan_id":"cebpf4jnsgd1na2vs0mg"},{"bike_id":"147c10a6-5267-474a-8475-3709e3b1a93b","system_id":"levelo_inurba_marseille","lat":43.25493,"lon":5.37648,"is_reserved":false,"is_disabled":false,"rental_uris":{"android":"levelo://app?vid=147c10a6-5267-474a-8475-3709e3b1a93b","ios":"levelo://app?vid=147c10a6-5267-474a-8475-3709e3b1a93b"},"vehicle_type_id":"4","last_reported":1747570713,"current_range_meters":16000,"station_id":"ce4bhh12rcd13ifvqff0","pricing_plan_id":"cebpf4jnsgd1na2vs0mg"},{"bike_id":"1bbca78a-c83f-4de6-934f-aa529128ce36","system_id":"levelo_inurba_marseille","lat":43.24182,"lon":5.36364,"is_reserved":false,"is_disabled":false,"rental_uris":{"android":"levelo://app?vid=1bbca78a-c83f-4de6-934f-aa529128ce36","ios":"levelo://app?vid=1bbca78a-c83f-4de6-934f-aa529128ce36"},"vehicle_type_id":"4","last_reported":1747570713,"current_range_meters":16000,"station_id":"cpo36qri1sfpv3e86is0","pricing_plan_id":"cebpf4jnsgd1na2vs0mg"},{"bike_id":"acfd92da-a821-4868-8583-09fdbb26ac62","system_id":"levelo_inurba_marseille","lat":43.29311,"lon":5.37175,"is_reserved":false,"is_disabled":false,"rental_uris":{"android":"levelo://app?vid=acfd92da-a821-4868-8583-09fdbb26ac62","ios":"levelo://app?vid=acfd92da-a821-4868-8583-09fdbb26ac62"},"vehicle_type_id":"4","last_reported":1747570713,"current_range_meters":16000,"station_id":"ce4bgh92rcd13ifvqb40","pricing_plan_id":"cebpf4jnsgd1na2vs0mg"},{"bike_id":"5a37a05e-7d92-4c85-b663-e64b3e6429ee","system_id":"levelo_inurba_marseille","lat":43.29317,"lon":5.37167,"is_reserved":false,"is_disabled":false,"rental_uris":{"android":"levelo://app?vid=5a37a05e-7d92-4c85-b663-e64b3e6429ee","ios":"levelo://app?vid=5a37a05e-7d92-4c85-b663-e64b3e6429ee"},"vehicle_type_id":"4","last_reported":1747570713,"current_range_meters":16000,"station_id":"ce4bgh92rcd13ifvqb40","pricing_plan_id":"cebpf4jnsgd1na2vs0mg"},{"bike_id":"bf2b2bfb-9733-4bda-908d-03391ae976cc","system_id":"levelo_inurba_marseille","lat":43.311918,"lon":5.416149,"is_reserved":false,"is_disabled":false,"rental_uris":{"android":"levelo://app?vid=bf2b2bfb-9733-4bda-908d-03391ae976cc","ios":"levelo://app?vid=bf2b2bfb-9733-4bda-908d-03391ae976cc"},"vehicle_type_id":"4","last_reported":1747570713,"current_range_meters":16000,"station_id":"","pricing_plan_id":"cebpf4jnsgd1na2vs0mg"},{"bike_id":"86b82652-8479-47c9-988a-ddf78fb5c537","system_id":"levelo_inurba_marseille","lat":43.29414,"lon":5.38621,"is_reserved":false,"is_disabled":false,"rental_uris":{"android":"levelo://app?vid=86b82652-8479-47c9-988a-ddf78fb5c537","ios":"levelo://app?vid=86b82652-8479-47c9-988a-ddf78fb5c537"},"vehicle_type_id":"4","last_reported":1747570713,"current_range_meters":16000,"station_id":"ce4bh2h2rcd13ifvqdh0","pricing_plan_id":"cebpf4jnsgd1na2vs0mg"},{"bike_id":"f9e0303a-839c-4c44-a256-3cfd8f78e085","system_id":"levelo_inurba_marseille","lat":43.24675,"lon":5.38122,"is_reserved":false,"is_disabled":false,"rental_uris":{"android":"levelo://app?vid=f9e0303a-839c-4c44-a256-3cfd8f78e085","ios":"levelo://app?vid=f9e0303a-839c-4c44-a256-3cfd8f78e085"},"vehicle_type_id":"4","last_reported":1747570713,"current_range_meters":16000,"station_id":"ce4bhih2rcd13ifvqfr0","pricing_plan_id":"cebpf4jnsgd1na2vs0mg"},{"bike_id":"86603db7-b462-4e72-8622-a2dee8bb2920","system_id":"levelo_inurba_marseille","lat":43.337444,"lon":5.374475,"is_reserved":false,"is_disabled":false,"rental_uris":{"android":"levelo://app?vid=86603db7-b462-4e72-8622-a2dee8bb2920","ios":"levelo://app?vid=86603db7-b462-4e72-8622-a2dee8bb2920"},"vehicle_type_id":"4","last_reported":1747570713,"current_range_meters":16000,"station_id":"","pricing_plan_id":"cebpf4jnsgd1na2vs0mg"},{"bike_id":"ce5efe86-4c10-4164-82e4-28f0a8867e9b","system_id":"levelo_inurba_marseille","lat":43.296,"lon":5.38104,"is_reserved":false,"is_disabled":false,"rental_uris":{"android":"levelo://app?vid=ce5efe86-4c10-4164-82e4-28f0a8867e9b","ios":"levelo://app?vid=ce5efe86-4c10-4164-82e4-28f0a8867e9b"},"vehicle_type_id":"4","last_reported":1747570713,"current_range_meters":16400,"station_id":"ce4bgl12rcd13ifvqbo0","pricing_plan_id":"cebpf4jnsgd1na2vs0mg"},{"bike_id":"efa43a2d-c84b-42ed-b50d-8c7358b4d666","system_id":"levelo_inurba_marseille","lat":43.21745,"lon":5.34596,"is_reserved":false,"is_disabled":false,"rental_uris":{"android":"levelo://app?vid=efa43a2d-c84b-42ed-b50d-8c7358b4d666","ios":"levelo://app?vid=efa43a2d-c84b-42ed-b50d-8c7358b4d666"},"vehicle_type_id":"4","last_reported":1747570713,"current_range_meters":16400,"station_id":"st_cvj6r9ubvosntc0bgbag","pricing_plan_id":"cebpf4jnsgd1na2vs0mg"},{"bike_id":"e30bd62c-93cf-4589-abad-553544439191","system_id":"levelo_inurba_marseille","lat":43.28414,"lon":5.34988,"is_reserved":false,"is_disabled":false,"rental_uris":{"android":"levelo://app?vid=e30bd62c-93cf-4589-abad-553544439191","ios":"levelo://app?vid=e30bd62c-93cf-4589-abad-553544439191"},"vehicle_type_id":"4","last_reported":1747570713,"current_range_meters":16400,"station_id":"ce4bhbh2rcd13ifvqepg","pricing_plan_id":"cebpf4jnsgd1na2vs0mg"},{"bike_id":"bcbdbd69-7be8-42f8-a855-a4358565de8f","system_id":"levelo_inurba_marseille","lat":43.27754,"lon":5.41419,"is_reserved":false,"is_disabled":false,"rental_uris":{"android":"levelo://app?vid=bcbdbd69-7be8-42f8-a855-a4358565de8f","ios":"levelo://app?vid=bcbdbd69-7be8-42f8-a855-a4358565de8f"},"vehicle_type_id":"4","last_reported":1747570713,"current_range_meters":16400,"station_id":"","pricing_plan_id":"cebpf4jnsgd1na2vs0mg"},{"bike_id":"b96a4e7c-0de7-41da-b086-8b5a8e70a687","system_id":"levelo_inurba_marseille","lat":43.271997,"lon":5.391921,"is_reserved":false,"is_disabled":true,"rental_uris":{"android":"levelo://app?vid=b96a4e7c-0de7-41da-b086-8b5a8e70a687","ios":"levelo://app?vid=b96a4e7c-0de7-41da-b086-8b5a8e70a687"},"vehicle_type_id":"4","last_reported":1747570713,"current_range_meters":16400,"station_id":"ce4bhhp2rcd13ifvqfm0","pricing_plan_id":"cebpf4jnsgd1na2vs0mg"},{"bike_id":"fd10b550-3794-4aec-ba8d-dd8d9b53987a","system_id":"levelo_inurba_marseille","lat":43.27907,"lon":5.3801,"is_reserved":false,"is_disabled":false,"rental_uris":{"android":"levelo://app?vid=fd10b550-3794-4aec-ba8d-dd8d9b53987a","ios":"levelo://app?vid=fd10b550-3794-4aec-ba8d-dd8d9b53987a"},"vehicle_type_id":"4","last_reported":1747570713,"current_range_meters":16400,"station_id":"ce4bhf92rcd13ifvqf50","pricing_plan_id":"cebpf4jnsgd1na2vs0mg"},{"bike_id":"60a4ef8d-92aa-4d82-ace2-2ec46087f3e3","system_id":"levelo_inurba_marseille","lat":43.24167,"lon":5.363962,"is_reserved":false,"is_disabled":false,"rental_uris":{"android":"levelo://app?vid=60a4ef8d-92aa-4d82-ace2-2ec46087f3e3","ios":"levelo://app?vid=60a4ef8d-92aa-4d82-ace2-2ec46087f3e3"},"vehicle_type_id":"4","last_reported":1747570713,"current_range_meters":16400,"station_id":"cpo36qri1sfpv3e86is0","pricing_plan_id":"cebpf4jnsgd1na2vs0mg"},{"bike_id":"ddd4b635-a9b7-4bb8-a716-ca3e148a2b25","system_id":"levelo_inurba_marseille","lat":43.28414,"lon":5.34988,"is_reserved":false,"is_disabled":false,"rental_uris":{"android":"levelo://app?vid=ddd4b635-a9b7-4bb8-a716-ca3e148a2b25","ios":"levelo://app?vid=ddd4b635-a9b7-4bb8-a716-ca3e148a2b25"},"vehicle_type_id":"4","last_reported":1747570713,"current_range_meters":16400,"station_id":"ce4bhbh2rcd13ifvqepg","pricing_plan_id":"cebpf4jnsgd1na2vs0mg"},{"bike_id":"4e51d2ca-949c-4d08-aa06-2486f14ae1d5","system_id":"levelo_inurba_marseille","lat":43.21745,"lon":5.34599,"is_reserved":false,"is_disabled":false,"rental_uris":{"android":"levelo://app?vid=4e51d2ca-949c-4d08-aa06-2486f14ae1d5","ios":"levelo://app?vid=4e51d2ca-949c-4d08-aa06-2486f14ae1d5"},"vehicle_type_id":"4","last_reported":1747570713,"current_range_meters":16400,"station_id":"st_cvj6r9ubvosntc0bgbag","pricing_plan_id":"cebpf4jnsgd1na2vs0mg"},{"bike_id":"842b63b4-ed0b-46f3-b42a-d9f22c2aa509","system_id":"levelo_inurba_marseille","lat":43.21742,"lon":5.34602,"is_reserved":false,"is_disabled":false,"rental_uris":{"android":"levelo://app?vid=842b63b4-ed0b-46f3-b42a-d9f22c2aa509","ios":"levelo://app?vid=842b63b4-ed0b-46f3-b42a-d9f22c2aa509"},"vehicle_type_id":"4","last_reported":1747570713,"current_range_meters":16400,"station_id":"st_cvj6r9ubvosntc0bgbag","pricing_plan_id":"cebpf4jnsgd1na2vs0mg"},{"bike_id":"b14c55c3-0928-4fc8-8c58-d355bd1c787b","system_id":"levelo_inurba_marseille","lat":43.27069,"lon":5.42275,"is_reserved":false,"is_disabled":false,"rental_uris":{"android":"levelo://app?vid=b14c55c3-0928-4fc8-8c58-d355bd1c787b","ios":"levelo://app?vid=b14c55c3-0928-4fc8-8c58-d355bd1c787b"},"vehicle_type_id":"4","last_reported":1747570713,"current_range_meters":16400,"station_id":"ce4bhk92rcd13ifvqgb0","pricing_plan_id":"cebpf4jnsgd1na2vs0mg"},{"bike_id":"02225371-ff7b-411e-9acf-5bf0945ada22","system_id":"levelo_inurba_marseille","lat":43.29528,"lon":5.3854,"is_reserved":false,"is_disabled":false,"rental_uris":{"android":"levelo://app?vid=02225371-ff7b-411e-9acf-5bf0945ada22","ios":"levelo://app?vid=02225371-ff7b-411e-9acf-5bf0945ada22"},"vehicle_type_id":"4","last_reported":1747570713,"current_range_meters":16800,"station_id":"ce4bgih2rcd13ifvqba0","pricing_plan_id":"cebpf4jnsgd1na2vs0mg"},