{"last_updated":1678299017,"ttl":30,"version":"2.2","data":{"bikes":[{"bike_id":"8e119521-6acf-47f5-b582-74be75cf42f7","system_id":"levelo_inurba_marseille","lat":43.31206,"lon":5.36736,"is_reserved":false,"is_disabled":false,"rental_uris":{"android":"levelo://app?vid=8e119521-6acf-47f5-b582-74be75cf42f7","ios":"levelo://app?vid=8e119521-6acf-47f5-b582-74be75cf42f7"},"vehicle_type_id":"4","last_reported":1678299017,"current_range_meters":4000,"station_id":"","pricing_plan_id":"free"},{"bike_id":"4e3f58bb-451c-409c-9844-19ea40169d1e","system_id":"levelo_inurba_marseille","lat":43.308614,"lon":5.372098,"is_reserved":false,"is_disabled":false,"rental_uris":{"android":"levelo://app?vid=4e3f58bb-451c-409c-9844-19ea40169d1e","ios":"levelo://app?vid=4e3f58bb-451c-409c-9844-19ea40169d1e"},"vehicle_type_id":"4","last_reported":1678299017,"current_range_meters":0,"station_id":"ce4bguh2rcd13ifvqckg","pricing_plan_id":"free"},{"bike_id":"c8243bac-6f6f-4b8d-ae98-c824455f729b","system_id":"levelo_inurba_marseille","lat":43.31488,"lon":5.37308,"is_reserved":false,"is_disabled":false,"rental_uris":{"android":"levelo://app?vid=c8243bac-6f6f-4b8d-ae98-c824455f729b","ios":"levelo://app?vid=c8243bac-6f6f-4b8d-ae98-c824455f729b"},"vehicle_type_id":"4","last_reported":1678299017,"current_range_meters":19200,"station_id":"","pricing_plan_id":"free"},{"bike_id":"a963da16-5888-4104-9619-61bbfbf17d8d","system_id":"levelo_inurba_marseille","lat":43.314811,"lon":5.373103,"is_reserved":false,"is_disabled":false,"rental_uris":{"android":"levelo://app?vid=a963da16-5888-4104-9619-61bbfbf17d8d","ios":"levelo://app?vid=a963da16-5888-4104-9619-61bbfbf17d8d"},"vehicle_type_id":"4","last_reported":1678299017,"current_range_meters":400,"station_id":"ce4bgt12rcd13ifvqcd0","pricing_plan_id":"free"},{"bike_id":"80b7d6c4-f898-44f2-8c20-75e54c17f556","system_id":"levelo_inurba_marseille","lat":43.305989,"lon":5.37225,"is_reserved":false,"is_disabled":false,"rental_uris":{"android":"levelo://app?vid=80b7d6c4-f898-44f2-8c20-75e54c17f556","ios":"levelo://app?vid=80b7d6c4-f898-44f2-8c20-75e54c17f556"},"vehicle_type_id":"4","last_reported":1678299017,"current_range_meters":0,"station_id":"ce4bgqh2rcd13ifvqc4g","pricing_plan_id":"free"},{"bike_id":"7a58ec74-a9b6-4276-ab54-121633aa7bb8","system_id":"levelo_inurba_marseille","lat":43.317075,"lon":5.377367,"is_reserved":false,"is_disabled":false,"rental_uris":{"android":"levelo://app?vid=7a58ec74-a9b6-4276-ab54-121633aa7bb8","ios":"levelo://app?vid=7a58ec74-a9b6-4276-ab54-121633aa7bb8"},"vehicle_type_id":"4","last_reported":1678299017,"current_range_meters":0,"station_id":"ce4bgth2rcd13ifvqch0","pricing_plan_id":"free"},{"bike_id":"32b65145-1ea0-4314-9c90-43704bfa2076","system_id":"levelo_inurba_marseille","lat":43.301939,"lon":5.366286,"is_reserved":false,"is_disabled":false,"rental_uris":{"android":"levelo://app?vid=32b65145-1ea0-4314-9c90-43704bfa2076","ios":"levelo://app?vid=32b65145-1ea0-4314-9c90-43704bfa2076"},"vehicle_type_id":"4","last_reported":1678299017,"current_range_meters":14400,"station_id":"ce4bgrh2rcd13ifvqc8g","pricing_plan_id":"free"},{"bike_id":"6d41d0cf-13ed-4151-946b-1bb1f4304037","system_id":"levelo_inurba_marseille","lat":43.301939,"lon":5.366286,"is_reserved":false,"is_disabled":false,"rental_uris":{"android":"levelo://app?vid=6d41d0cf-13ed-4151-946b-1bb1f4304037","ios":"levelo://app?vid=6d41d0cf-13ed-4151-946b-1bb1f4304037"},"vehicle_type_id":"4","last_reported":1678299017,"current_range_meters":3600,"station_id":"ce4bgrh2rcd13ifvqc8g","pricing_plan_id":"free"},{"bike_id":"142de011-b5bf-4e76-b490-9820226e1d65","system_id":"levelo_inurba_marseille","lat":43.313571,"lon":5.384829,"is_reserved":false,"is_disabled":false,"rental_uris":{"android":"levelo://app?vid=142de011-b5bf-4e76-b490-9820226e1d65","ios":"levelo://app?vid=142de011-b5bf-4e76-b490-9820226e1d65"},"vehicle_type_id":"4","last_reported":1678299017,"current_range_meters":7600,"station_id":"ce4bgt92rcd13ifvqcf0","pricing_plan_id":"free"},{"bike_id":"ce3185c2-d23a-459f-bae8-5dfaea42e56b","system_id":"levelo_inurba_marseille","lat":43.31363,"lon":5.38495,"is_reserved":false,"is_disabled":false,"rental_uris":{"android":"levelo://app?vid=ce3185c2-d23a-459f-bae8-5dfaea42e56b","ios":"levelo://app?vid=ce3185c2-d23a-459f-bae8-5dfaea42e56b"},"vehicle_type_id":"4","last_reported":1678299017,"current_range_meters":3200,"station_id":"","pricing_plan_id":"free"},{"bike_id":"143f9559-2979-465a-b4fd-53be78d11994","system_id":"levelo_inurba_marseille","lat":43.311722,"lon":5.387247,"is_reserved":false,"is_disabled":false,"rental_uris":{"android":"levelo://app?vid=143f9559-2979-465a-b4fd-53be78d11994","ios":"levelo://app?vid=143f9559-2979-465a-b4fd-53be78d11994"},"vehicle_type_id":"4","last_reported":1678299017,"current_range_meters":8400,"station_id":"ce4bgv12rcd13ifvqcp0","pricing_plan_id":"free"},{"bike_id":"869de7f8-da98-43e5-b20a-6980b95ccafb","system_id":"levelo_inurba_marseille","lat":43.328295,"lon":5.36695,"is_reserved":false,"is_disabled":false,"rental_uris":{"android":"levelo://app?vid=869de7f8-da98-43e5-b20a-6980b95ccafb","ios":"levelo://app?vid=869de7f8-da98-43e5-b20a-6980b95ccafb"},"vehicle_type_id":"4","last_reported":1678299017,"current_range_meters":0,"station_id":"","pricing_plan_id":"free"},{"bike_id":"61ba381b-5f4f-4c8b-b326-263185fe0658","system_id":"levelo_inurba_marseille","lat":43.328371,"lon":5.366909,"is_reserved":false,"is_disabled":false,"rental_uris":{"android":"levelo://app?vid=61ba381b-5f4f-4c8b-b326-263185fe0658","ios":"levelo://app?vid=61ba381b-5f4f-4c8b-b326-263185fe0658"},"vehicle_type_id":"4","last_reported":1678299017,"current_range_meters":11200,"station_id":"ce4bhs92rcd13ifvqi0g","pricing_plan_id":"free"},{"bike_id":"e15587ab-b3c6-4403-959d-fcc14bf2ecbc","system_id":"levelo_inurba_marseille","lat":43.328327,"lon":5.366877,"is_reserved":false,"is_disabled":false,"rental_uris":{"android":"levelo://app?vid=e15587ab-b3c6-4403-959d-fcc14bf2ecbc","ios":"levelo://app?vid=e15587ab-b3c6-4403-959d-fcc14bf2ecbc"},"vehicle_type_id":"4","last_reported":1678299017,"current_range_meters":400,"station_id":"ce4bhs92rcd13ifvqi0g","pricing_plan_id":"free"},{"bike_id":"d7491a5c-5030-41e3-a3d2-00b6bc6b52f2","system_id":"levelo_inurba_marseille","lat":43.328371,"lon":5.366909,"is_reserved":false,"is_disabled":false,"rental_uris":{"android":"levelo://app?vid=d7491a5c-5030-41e3-a3d2-00b6bc6b52f2","ios":"levelo://app?vid=d7491a5c-5030-41e3-a3d2-00b6bc6b52f2"},"vehicle_type_id":"4","last_reported":1678299017,"current_range_meters":10800,"station_id":"ce4bhs92rcd13ifvqi0g","pricing_plan_id":"free"},{"bike_id":"ddf26907-2a89-40d6-95d5-cef89e9f3f21","system_id":"levelo_inurba_marseille","lat":43.317104,"lon":5.436818,"is_reserved":false,"is_disabled":false,"rental_uris":{"android":"levelo://app?vid=ddf26907-2a89-40d6-95d5-cef89e9f3f21","ios":"levelo://app?vid=ddf26907-2a89-40d6-95d5-cef89e9f3f21"},"vehicle_type_id":"4","last_reported":1678299017,"current_range_meters":26800,"station_id":"ce4bhp92rcd13ifvqhcg","pricing_plan_id":"free"},{"bike_id":"18d9854c-9d33-4fa9-a68d-985c8ed9bb3f","system_id":"levelo_inurba_marseille","lat":43.299028,"lon":5.381509,"is_reserved":false,"is_disabled":false,"rental_uris":{"android":"levelo://app?vid=18d9854c-9d33-4fa9-a68d-985c8ed9bb3f","ios":"levelo://app?vid=18d9854c-9d33-4fa9-a68d-985c8ed9bb3f"},"vehicle_type_id":"4","last_reported":1678299017,"current_range_meters":0,"station_id":"ce4bgj12rcd13ifvqbc0","pricing_plan_id":"free"},{"bike_id":"a21bff52-cdd2-4666-9e92-45dcb3539dee","system_id":"levelo_inurba_marseille","lat":43.29901,"lon":5.38144,"is_reserved":false,"is_disabled":false,"rental_uris":{"android":"levelo://app?vid=a21bff52-cdd2-4666-9e92-45dcb3539dee","ios":"levelo://app?vid=a21bff52-cdd2-4666-9e92-45dcb3539dee"},"vehicle_type_id":"4","last_reported":1678299017,"current_range_meters":0,"station_id":"ce4bgj12rcd13ifvqbc0","pricing_plan_id":"free"},{"bike_id":"28c98f94-edf8-437c-9b8a-ccd25b996353","system_id":"levelo_inurba_marseille","lat":43.31756,"lon":5.39016,"is_reserved":false,"is_disabled":false,"rental_uris":{"android":"levelo://app?vid=28c98f94-edf8-437c-9b8a-ccd25b996353","ios":"levelo://app?vid=28c98f94-edf8-437c-9b8a-ccd25b996353"},"vehicle_type_id":"4","last_reported":1678299017,"current_range_meters":10400,"station_id":"ce4bhqp2rcd13ifvqhng","pricing_plan_id":"free"},{"bike_id":"2b31bd5f-5fa0-4f85-8254-e68d28fe9180","system_id":"levelo_inurba_marseille","lat":43.317557,"lon":5.390173,"is_reserved":false,"is_disabled":false,"rental_uris":{"android":"levelo://app?vid=2b31bd5f-5fa0-4f85-8254-e68d28fe9180","ios":"levelo://app?vid=2b31bd5f-5fa0-4f85-8254-e68d28fe9180"},"vehicle_type_id":"4","last_reported":1678299017,"current_range_meters":8000,"station_id":"ce4bhqp2rcd13ifvqhng","pricing_plan_id":"free"},{"bike_id":"397e375e-03f8-4be9-9d4d-110d2f56a855","system_id":"levelo_inurba_marseille","lat":43.317557,"lon":5.390173,"is_reserved":false,"is_disabled":false,"rental_uris":{"android":"levelo://app?vid=397e375e-03f8-4be9-9d4d-110d2f56a855","ios":"levelo://app?vid=397e375e-03f8-4be9-9d4d-110d2f56a855"},"vehicle_type_id":"4","last_reported":1678299017,"current_range_meters":6400,"station_id":"ce4bhqp2rcd13ifvqhng","pricing_plan_id":"free"},{"bike_id":"9ce22c0e-7512-401c-82cc-65bf176a07ff","system_id":"levelo_inurba_marseille","lat":43.29583,"lon":5.37508,"is_reserved":false,"is_disabled":false,"rental_uris":{"android":"levelo://app?vid=9ce22c0e-7512-401c-82cc-65bf176a07ff","ios":"levelo://app?vid=9ce22c0e-7512-401c-82cc-65bf176a07ff"},"vehicle_type_id":"4","last_reported":1678299017,"current_range_meters":0,"station_id":"ce4bgh92rcd13ifvqb50","pricing_plan_id":"free"},{"bike_id":"16991ace-be51-4484-ba79-e19475947ff7","system_id":"levelo_inurba_marseille","lat":43.304135,"lon":5.38883,"is_reserved":false,"is_disabled":false,"rental_uris":{"android":"levelo://app?vid=16991ace-be51-4484-ba79-e19475947ff7","ios":"levelo://app?vid=16991ace-be51-4484-ba79-e19475947ff7"},"vehicle_type_id":"4","last_reported":1678299017,"current_range_meters":6400,"station_id":"","pricing_plan_id":"free"},{"bike_id":"a85cfdfd-3062-4508-98d1-0bddec4bcf51","system_id":"levelo_inurba_marseille","lat":43.296263,"lon":5.377094,"is_reserved":false,"is_disabled":false,"rental_uris":{"android":"levelo://app?vid=a85cfdfd-3062-4508-98d1-0bddec4bcf51","ios":"levelo://app?vid=a85cfdfd-3062-4508-98d1-0bddec4bcf51"},"vehicle_type_id":"4","last_reported":1678299017,"current_range_meters":16400,"station_id":"ce4bgi92rcd13ifvqb90","pricing_plan_id":"free"},{"bike_id":"0ed908f6-ea0c-4037-82af-2eaa6c4d3285","system_id":"levelo_inurba_marseille","lat":43.30427,"lon":5.38897,"is_reserved":false,"is_disabled":false,"rental_uris":{"android":"levelo://app?vid=0ed908f6-ea0c-4037-82af-2eaa6c4d3285","ios":"levelo://app?vid=0ed908f6-ea0c-4037-82af-2eaa6c4d3285"},"vehicle_type_id":"4","last_reported":1678299017,"current_range_meters":25200,"station_id":"ce4bgk12rcd13ifvqbi0","pricing_plan_id":"free"},{"bike_id":"20fcadfe-3d74-4e2d-bb22-dd593c7b152f","system_id":"levelo_inurba_marseille","lat":43.298037,"lon":5.381066,"is_reserved":false,"is_disabled":false,"rental_uris":{"android":"levelo://app?vid=20fcadfe-3d74-4e2d-bb22-dd593c7b152f","ios":"levelo://app?vid=20fcadfe-3d74-4e2d-bb22-dd593c7b152f"},"vehicle_type_id":"4","last_reported":1678299017,"current_range_meters":21200,"station_id":"ce4bgip2rcd13ifvqbb0","pricing_plan_id":"free"},{"bike_id":"6af785a8-b96e-4008-bbc0-a894e844a51b","system_id":"levelo_inurba_marseille","lat":43.296139,"lon":5.377249,"is_reserved":false,"is_disabled":false,"rental_uris":{"android":"levelo://app?vid=6af785a8-b96e-4008-bbc0-a894e844a51b","ios":"levelo://app?vid=6af785a8-b96e-4008-bbc0-a894e844a51b"},"vehicle_type_id":"4","last_reported":1678299017,"current_range_meters":0,"station_id":"ce4bgi92rcd13ifvqb90","pricing_plan_id":"free"},{"bike_id":"a27f7156-b48f-4591-b22c-f94192ba163d","system_id":"levelo_inurba_marseille","lat":43.29982,"lon":5.38485,"is_reserved":false,"is_disabled":false,"rental_uris":{"android":"levelo://app?vid=a27f7156-b48f-4591-b22c-f94192ba163d","ios":"levelo://app?vid=a27f7156-b48f-4591-b22c-f94192ba163d"},"vehicle_type_id":"4","last_reported":1678299017,"current_range_meters":17200,"station_id":"","pricing_plan_id":"free"},{"bike_id":"bb3d7140-a97b-4b37-ae54-66a0595b488c","system_id":"levelo_inurba_marseille","lat":43.295023,"lon":5.375163,"is_reserved":false,"is_disabled":false,"rental_uris":{"android":"levelo://app?vid=bb3d7140-a97b-4b37-ae54-66a0595b488c","ios":"levelo://app?vid=bb3d7140-a97b-4b37-ae54-66a0595b488c"},"vehicle_type_id":"4","last_reported":1678299017,"current_range_meters":12000,"station_id":"","pricing_plan_id":"free"},{"bike_id":"fe541ac7-d5d7-4f05-ac22-b31e0413e85a","system_id":"levelo_inurba_marseille","lat":43.2943,"lon":5.37408,"is_reserved":false,"is_disabled":false,"rental_uris":{"android":"levelo://app?vid=fe541ac7-d5d7-4f05-ac22-b31e0413e85a","ios":"levelo://app?vid=fe541ac7-d5d7-4f05-ac22-b31e0413e85a"},"vehicle_type_id":"4","last_reported":1678299017,"current_range_meters":17200,"station_id":"","pricing_plan_id":"free"},{"bike_id":"4619582d-cf4e-410d-bd36-12188258b33d","system_id":"levelo_inurba_marseille","lat":43.32366,"lon":5.38889,"is_reserved":false,"is_disabled":false,"rental_uris":{"android":"levelo://app?vid=4619582d-cf4e-410d-bd36-12188258b33d","ios":"levelo://app?vid=4619582d-cf4e-410d-bd36-12188258b33d"},"vehicle_type_id":"4","last_reported":1678299017,"current_range_meters":0,"station_id":"","pricing_plan_id":"free"},{"bike_id":"a6ac9b17-5098-4e65-b7f3-80e9cd547e90","system_id":"levelo_inurba_marseille","lat":43.32367,"lon":5.388836,"is_reserved":false,"is_disabled":false,"rental_uris":{"android":"levelo://app?vid=a6ac9b17-5098-4e65-b7f3-80e9cd547e90","ios":"levelo://app?vid=a6ac9b17-5098-4e65-b7f3-80e9cd547e90"},"vehicle_type_id":"4","last_reported":1678299017,"current_range_meters":12800,"station_id":"ce4bhqp2rcd13ifvqhog","pricing_plan_id":"free"},{"bike_id":"7f2747ab-b938-4f55-addc-1c2e0cd54440","system_id":"levelo_inurba_marseille","lat":43.312909,"lon":5.394416,"is_reserved":false,"is_disabled":false,"rental_uris":{"android":"levelo://app?vid=7f2747ab-b938-4f55-addc-1c2e0cd54440","ios":"levelo://app?vid=7f2747ab-b938-4f55-addc-1c2e0cd54440"},"vehicle_type_id":"4","last_reported":1678299017,"current_range_meters":13200,"station_id":"","pricing_plan_id":"free"},{"bike_id":"71e63d19-7fc2-480d-8c35-9357a02b38f6","system_id":"levelo_inurba_marseille","lat":43.305994,"lon":5.393687,"is_reserved":false,"is_disabled":false,"rental_uris":{"android":"levelo://app?vid=71e63d19-7fc2-480d-8c35-9357a02b38f6","ios":"levelo://app?vid=71e63d19-7fc2-480d-8c35-9357a02b38f6"},"vehicle_type_id":"4","last_reported":1678299017,"current_range_meters":9200,"station_id":"ce4bh0p2rcd13ifvqd80","pricing_plan_id":"free"},{"bike_id":"d79a8b58-2a45-44e9-a7fc-28a11649e19b","system_id":"levelo_inurba_marseille","lat":43.305994,"lon":5.393687,"is_reserved":false,"is_disabled":false,"rental_uris":{"android":"levelo://app?vid=d79a8b58-2a45-44e9-a7fc-28a11649e19b","ios":"levelo://app?vid=d79a8b58-2a45-44e9-a7fc-28a11649e19b"},"vehicle_type_id":"4","last_reported":1678299017,"current_range_meters":28000,"station_id":"ce4bh0p2rcd13ifvqd80","pricing_plan_id":"free"},{"bike_id":"99ae01be-6492-4c14-aad0-fb383d1349e4","system_id":"levelo_inurba_marseille","lat":43.294755,"lon":5.380994,"is_reserved":false,"is_disabled":false,"rental_uris":{"android":"levelo://app?vid=99ae01be-6492-4c14-aad0-fb383d1349e4","ios":"levelo://app?vid=99ae01be-6492-4c14-aad0-fb383d1349e4"},"vehicle_type_id":"4","last_reported":1678299017,"current_range_meters":0,"station_id":"","pricing_plan_id":"free"},{"bike_id":"42e7de8a-e6c6-47fc-ac66-d9d9d5576282","system_id":"levelo_inurba_marseille","lat":43.29368,"lon":5.37854,"is_reserved":false,"is_disabled":false,"rental_uris":{"android":"levelo://app?vid=42e7de8a-e6c6-47fc-ac66-d9d9d5576282","ios":"levelo://app?vid=42e7de8a-e6c6-47fc-ac66-d9d9d5576282"},"vehicle_type_id":"4","last_reported":1678299017,"current_range_meters":16000,"station_id":"ce4bgjh2rcd13ifvqbf0","pricing_plan_id":"free"},{"bike_id":"4b8811e9-965b-424c-991e-d2a46fddb97f","system_id":"levelo_inurba_marseille","lat":43.292311,"lon":5.360731,"is_reserved":false,"is_disabled":false,"rental_uris":{"android":"levelo://app?vid=4b8811e9-965b-424c-991e-d2a46fddb97f","ios":"levelo://app?vid=4b8811e9-965b-424c-991e-d2a46fddb97f"},"vehicle_type_id":"4","last_reported":1678299017,"current_range_meters":22800,"station_id":"ce4bhbh2rcd13ifvqeqg","pricing_plan_id":"free"},{"bike_id":"c0ed4a8c-992e-41a7-8be3-4dc3ee7d8ef1","system_id":"levelo_inurba_marseille","lat":43.292311,"lon":5.360731,"is_reserved":false,"is_disabled":false,"rental_uris":{"android":"levelo://app?vid=c0ed4a8c-992e-41a7-8be3-4dc3ee7d8ef1","ios":"levelo://app?vid=c0ed4a8c-992e-41a7-8be3-4dc3ee7d8ef1"},"vehicle_type_id":"4","last_reported":1678299017,"current_range_meters":800,"station_id":"ce4bhbh2rcd13ifvqeqg","pricing_plan_id":"free"},{"bike_id":"2ff433f3-5ed3-4ec9-abf3-c416b8e29f79","system_id":"levelo_inurba_marseille","lat":43.298764,"lon":5.388973,"is_reserved":false,"is_disabled":false,"rental_uris":{"android":"levelo://app?vid=2ff433f3-5ed3-4ec9-abf3-c416b8e29f79","ios":"levelo://app?vid=2ff433f3-5ed3-4ec9-abf3-c416b8e29f79"},"vehicle_type_id":"4","last_reported":1678299017,"current_range_meters":3600,"station_id":"ce4bh392rcd13ifvqdl0","pricing_plan_id":"free"},{"bike_id":"fb874eee-5573-480a-b18b-aed3459335de","system_id":"levelo_inurba_marseille","lat":43.291675,"lon":5.371583,"is_reserved":false,"is_disabled":false,"rental_uris":{"android":"levelo://app?vid=fb874eee-5573-480a-b18b-aed3459335de","ios":"levelo://app?vid=fb874eee-5573-480a-b18b-aed3459335de"},"vehicle_type_id":"4","last_reported":1678299017,"current_range_meters":0,"station_id":"ce4bha92rcd13ifvqeh0","pricing_plan_id":"free"},{"bike_id":"1d76272a-8c49-4109-865c-43570942719b","system_id":"levelo_inurba_marseille","lat":43.298764,"lon":5.388973,"is_reserved":false,"is_disabled":false,"rental_uris":{"android":"levelo://app?vid=1d76272a-8c49-4109-865c-43570942719b","ios":"levelo://app?vid=1d76272a-8c49-4109-865c-43570942719b"},"vehicle_type_id":"4","last_reported":1678299017,"current_range_meters":19200,"station_id":"ce4bh392rcd13ifvqdl0","pricing_plan_id":"free"},{"bike_id":"63899ebf-c4df-4bb8-9c69-6bc393cfe85d","system_id":"levelo_inurba_marseille","lat":43.31336,"lon":5.39694,"is_reserved":false,"is_disabled":false,"rental_uris":{"android":"levelo://app?vid=63899ebf-c4df-4bb8-9c69-6bc393cfe85d","ios":"levelo://app?vid=63899ebf-c4df-4bb8-9c69-6bc393cfe85d"},"vehicle_type_id":"4","last_reported":1678299017,"current_range_meters":12000,"station_id":"ce4bgvp2rcd13ifvqcu0","pricing_plan_id":"free"},{"bike_id":"080f0852-1357-471e-8a2e-d7f6ea535ab8","system_id":"levelo_inurba_marseille","lat":43.313291,"lon":5.396838,"is_reserved":false,"is_disabled":false,"rental_uris":{"android":"levelo://app?vid=080f0852-1357-471e-8a2e-d7f6ea535ab8","ios":"levelo://app?vid=080f0852-1357-471e-8a2e-d7f6ea535ab8"},"vehicle_type_id":"4","last_reported":1678299017,"current_range_meters":3200,"station_id":"ce4bgvp2rcd13ifvqcu0","pricing_plan_id":"free"},{"bike_id":"aad5026d-6e8e-4693-986f-942b7aff6b17","system_id":"levelo_inurba_marseille","lat":43.31331,"lon":5.39697,"is_reserved":false,"is_disabled":false,"rental_uris":{"android":"levelo://app?vid=aad5026d-6e8e-4693-986f-942b7aff6b17","ios":"levelo://app?vid=aad5026d-6e8e-4693-986f-942b7aff6b17"},"vehicle_type_id":"4","last_reported":1678299017,"current_range_meters":0,"station_id":"ce4bgvp2rcd13ifvqcu0","pricing_plan_id":"free"},{"bike_id":"ebcd4cd1-b41e-46bc-bee7-90d76d0f359f","system_id":"levelo_inurba_marseille","lat":43.290779,"lon":5.371482,"is_reserved":false,"is_disabled":false,"rental_uris":{"android":"levelo://app?vid=ebcd4cd1-b41e-46bc-bee7-90d76d0f359f","ios":"levelo://app?vid=ebcd4cd1-b41e-46bc-bee7-90d76d0f359f"},"vehicle_type_id":"4","last_reported":1678299017,"current_range_meters":31600,"station_id":"ce4bh5p2rcd13ifvqe4g","pricing_plan_id":"free"},{"bike_id":"81a94338-6c7e-4f22-8ab4-4fa39e9efff8","system_id":"levelo_inurba_marseille","lat":43.302008,"lon":5.394694,"is_reserved":false,"is_disabled":false,"rental_uris":{"android":"levelo://app?vid=81a94338-6c7e-4f22-8ab4-4fa39e9efff8","ios":"levelo://app?vid=81a94338-6c7e-4f22-8ab4-4fa39e9efff8"},"vehicle_type_id":"4","last_reported":1678299017,"current_range_meters":5600,"station_id":"ce4bh0p2rcd13ifvqd70","pricing_plan_id":"free"},{"bike_id":"7f2d0330-a25b-4077-881e-752557087ac3","system_id":"levelo_inurba_marseille","lat":43.290319,"lon":5.375732,"is_reserved":false,"is_disabled":false,"rental_uris":{"android":"levelo://app?vid=7f2d0330-a25b-4077-881e-752557087ac3","ios":"levelo://app?vid=7f2d0330-a25b-4077-881e-752557087ac3"},"vehicle_type_id":"4","last_reported":1678299017,"current_range_meters":0,"station_id":"ce4bh692rcd13ifvqe90","pricing_plan_id":"free"},{"bike_id":"69b992e6-f9fc-4dd8-bcd0-843349fdedf7","system_id":"levelo_inurba_marseille","lat":43.289184,"lon":5.366408,"is_reserved":false,"is_disabled":false,"rental_uris":{"android":"levelo://app?vid=69b992e6-f9fc-4dd8-bcd0-843349fdedf7","ios":"levelo://app?vid=69b992e6-f9fc-4dd8-bcd0-843349fdedf7"},"vehicle_type_id":"4","last_reported":1678299017,"current_range_meters":14400,"station_id":"ce4bhap2rcd13ifvqek0","pricing_plan_id":"free"},{"bike_id":"a49b50ec-5a76-43c4-8658-651daba898e8","system_id":"levelo_inurba_marseille","lat":43.289184,"lon":5.366408,"is_reserved":false,"is_disabled":false,"rental_uris":{"android":"levelo://app?vid=a49b50ec-5a76-43c4-8658-651daba898e8","ios":"levelo://app?vid=a49b50ec-5a76-43c4-8658-651daba898e8"},"vehicle_type_id":"4","last_reported":1678299017,"current_range_meters":0,"station_id":"ce4bhap2rcd13ifvqek0","pricing_plan_id":"free"},{"bike_id":"47103022-e8ff-4098-acd7-d1503f042466","system_id":"levelo_inurba_marseille","lat":43.33038,"lon":5.38921,"is_reserved":false,"is_disabled":false,"rental_uris":{"android":"levelo://app?vid=47103022-e8ff-4098-acd7-d1503f042466","ios":"levelo://app?vid=47103022-e8ff-4098-acd7-d1503f042466"},"vehicle_type_id":"4","last_reported":1678299017,"current_range_meters":400,"station_id":"","pricing_plan_id":"free"},{"bike_id":"e5cae97b-5631-4a6f-86d8-cf9fe3602c00","system_id":"levelo_inurba_marseille","lat":43.330442,"lon":5.389148,"is_reserved":false,"is_disabled":false,"rental_uris":{"android":"levelo://app?vid=e5cae97b-5631-4a6f-86d8-cf9fe3602c00","ios":"levelo://app?vid=e5cae97b-5631-4a6f-86d8-cf9fe3602c00"},"vehicle_type_id":"4","last_reported":1678299017,"current_range_meters":22400,"station_id":"ce4bhr92rcd13ifvqhrg","pricing_plan_id":"free"},{"bike_id":"ec6165a9-82a1-4845-b7d0-dfd443abdcae","system_id":"levelo_inurba_marseille","lat":43.330442,"lon":5.389148,"is_reserved":false,"is_disabled":false,"rental_uris":{"android":"levelo://app?vid=ec6165a9-82a1-4845-b7d0-dfd443abdcae","ios":"levelo://app?vid=ec6165a9-82a1-4845-b7d0-dfd443abdcae"},"vehicle_type_id":"4","last_reported":1678299017,"current_range_meters":3600,"station_id":"ce4bhr92rcd13ifvqhrg","pricing_plan_id":"free"},{"bike_id":"52527da0-f6be-400d-aee3-077198253ae7","system_id":"levelo_inurba_marseille","lat":43.33041,"lon":5.38923,"is_reserved":false,"is_disabled":false,"rental_uris":{"android":"levelo://app?vid=52527da0-f6be-400d-aee3-077198253ae7","ios":"levelo://app?vid=52527da0-f6be-400d-aee3-077198253ae7"},"vehicle_type_id":"4","last_reported":1678299017,"current_range_meters":4400,"station_id":"ce4bhr92rcd13ifvqhrg","pricing_plan_id":"free"},{"bike_id":"61e9cf9b-6d4b-40e3-bc89-0342d3f62ace","system_id":"levelo_inurba_marseille","lat":43.33044,"lon":5.38919,"is_reserved":false,"is_disabled":false,"rental_uris":{"android":"levelo://app?vid=61e9cf9b-6d4b-40e3-bc89-0342d3f62ace","ios":"levelo://app?vid=61e9cf9b-6d4b-40e3-bc89-0342d3f62ace"},"vehicle_type_id":"4","last_reported":1678299017,"current_range_meters":26800,"station_id":"","pricing_plan_id":"free"},{"bike_id":"4db545b8-0436-4cd3-bd5c-31c9479c51d4","system_id":"levelo_inurba_marseille","lat":43.290104,"lon":5.356111,"is_reserved":false,"is_disabled":false,"rental_uris":{"android":"levelo://app?vid=4db545b8-0436-4cd3-bd5c-31c9479c51d4","ios":"levelo://app?vid=4db545b8-0436-4cd3-bd5c-31c9479c51d4"},"vehicle_type_id":"4","last_reported":1678299017,"current_range_meters":19600,"station_id":"ce4bhb92rcd13ifvqen0","pricing_plan_id":"free"},{"bike_id":"3f2bb84f-3295-43c4-9ebf-5d02f10ef2d8","system_id":"levelo_inurba_marseille","lat":43.330442,"lon":5.389148,"is_reserved":false,"is_disabled":false,"rental_uris":{"android":"levelo://app?vid=3f2bb84f-3295-43c4-9ebf-5d02f10ef2d8","ios":"levelo://app?vid=3f2bb84f-3295-43c4-9ebf-5d02f10ef2d8"},"vehicle_type_id":"4","last_reported":1678299017,"current_range_meters":18000,"station_id":"ce4bhr92rcd13ifvqhrg","pricing_plan_id":"free"},{"bike_id":"125bfa03-58d8-4eb5-b0df-892b4047b1c2","system_id":"levelo_inurba_marseille","lat":43.33041,"lon":5.38925,"is_reserved":false,"is_disabled":false,"rental_uris":{"android":"levelo://app?vid=125bfa03-58d8-4eb5-b0df-892b4047b1c2","ios":"levelo://app?vid=125bfa03-58d8-4eb5-b0df-892b4047b1c2"},"vehicle_type_id":"4","last_reported":1678299017,"current_range_meters":2000,"station_id":"","pricing_plan_id":"free"},{"bike_id":"6f74dbc2-cfbe-4308-ad64-31e5bc9b9447","system_id":"levelo_inurba_marseille","lat":43.290104,"lon":5.356111,"is_reserved":false,"is_disabled":false,"rental_uris":{"android":"levelo://app?vid=6f74dbc2-cfbe-4308-ad64-31e5bc9b9447","ios":"levelo://app?vid=6f74dbc2-cfbe-4308-ad64-31e5bc9b9447"},"vehicle_type_id":"4","last_reported":1678299017,"current_range_meters":21200,"station_id":"ce4bhb92rcd13ifvqen0","pricing_plan_id":"free"},{"bike_id":"208aaf47-22df-4397-b5df-dfe0a0c98f4c","system_id":"levelo_inurba_marseille","lat":43.33045,"lon":5.38922,"is_reserved":false,"is_disabled":false,"rental_uris":{"android":"levelo://app?vid=208aaf47-22df-4397-b5df-dfe0a0c98f4c","ios":"levelo://app?vid=208aaf47-22df-4397-b5df-dfe0a0c98f4c"},"vehicle_type_id":"4","last_reported":1678299017,"current_range_meters":13200,"station_id":"","pricing_plan_id":"free"},{"bike_id":"4860556f-65ae-4376-bff6-30454f52adae","system_id":"levelo_inurba_marseille","lat":43.28995,"lon":5.378245,"is_reserved":false,"is_disabled":false,"rental_uris":{"android":"levelo://app?vid=4860556f-65ae-4376-bff6-30454f52adae","ios":"levelo://app?vid=4860556f-65ae-4376-bff6-30454f52adae"},"vehicle_type_id":"4","last_reported":1678299017,"current_range_meters":9200,"station_id":"","pricing_plan_id":"free"},{"bike_id":"bf2b5148-d4d4-4309-b2ba-20900232d852","system_id":"levelo_inurba_marseille","lat":43.295169,"lon":5.390426,"is_reserved":false,"is_disabled":false,"rental_uris":{"android":"levelo://app?vid=bf2b5148-d4d4-4309-b2ba-20900232d852","ios":"levelo://app?vid=bf2b5148-d4d4-4309-b2ba-20900232d852"},"vehicle_type_id":"4","last_reported":1678299017,"current_range_meters":6800,"station_id":"ce4bh3p2rcd13ifvqdp0","pricing_plan_id":"free"},{"bike_id":"3c01ff9a-1c3c-4d25-bef8-9e73ec54cbed","system_id":"levelo_inurba_marseille","lat":43.295169,"lon":5.390426,"is_reserved":false,"is_disabled":false,"rental_uris":{"android":"levelo://app?vid=3c01ff9a-1c3c-4d25-bef8-9e73ec54cbed","ios":"levelo://app?vid=3c01ff9a-1c3c-4d25-bef8-9e73ec54cbed"},"vehicle_type_id":"4","last_reported":1678299017,"current_range_meters":2800,"station_id":"ce4bh3p2rcd13ifvqdp0","pricing_plan_id":"free"},{"bike_id":"be2c0309-56a9-4fe0-b871-bb5550842e6a","system_id":"levelo_inurba_marseille","lat":43.28859,"lon":5.35857,"is_reserved":false,"is_disabled":false,"rental_uris":{"android":"levelo://app?vid=be2c0309-56a9-4fe0-b871-bb5550842e6a","ios":"levelo://app?vid=be2c0309-56a9-4fe0-b871-bb5550842e6a"},"vehicle_type_id":"4","last_reported":1678299017,"current_range_meters":0,"station_id":"ce4bhb12rcd13ifvqem0","pricing_plan_id":"free"},{"bike_id":"4d7405c3-1082-44aa-ae68-857f8c3c68a5","system_id":"levelo_inurba_marseille","lat":43.297283,"lon":5.393952,"is_reserved":false,"is_disabled":false,"rental_uris":{"android":"levelo://app?vid=4d7405c3-1082-44aa-ae68-857f8c3c68a5","ios":"levelo://app?vid=4d7405c3-1082-44aa-ae68-857f8c3c68a5"},"vehicle_type_id":"4","last_reported":1678299017,"current_range_meters":0,"station_id":"","pricing_plan_id":"free"},{"bike_id":"7c311423-d2bd-41cd-b0e6-e2afcb58b493","system_id":"levelo_inurba_marseille","lat":43.337655,"lon":5.374337,"is_reserved":false,"is_disabled":false,"rental_uris":{"android":"levelo://app?vid=7c311423-d2bd-41cd-b0e6-e2afcb58b493","ios":"levelo://app?vid=7c311423-d2bd-41cd-b0e6-e2afcb58b493"},"vehicle_type_id":"4","last_reported":1678299017,"current_range_meters":24000,"station_id":"","pricing_plan_id":"free"},{"bike_id":"e69bb647-9297-4713-b905-68cf3874d8e4","system_id":"levelo_inurba_marseille","lat":43.306412,"lon":5.401035,"is_reserved":false,"is_disabled":false,"rental_uris":{"android":"levelo://app?vid=e69bb647-9297-4713-b905-68cf3874d8e4","ios":"levelo://app?vid=e69bb647-9297-4713-b905-68cf3874d8e4"},"vehicle_type_id":"4","last_reported":1678299017,"current_range_meters":12400,"station_id":"ce4bh112rcd13ifvqda0","pricing_plan_id":"free"},{"bike_id":"1dc779e0-3f4e-44e4-bd42-570572c9c09d","system_id":"levelo_inurba_marseille","lat":43.301117,"lon":5.398795,"is_reserved":false,"is_disabled":false,"rental_uris":{"android":"levelo://app?vid=1dc779e0-3f4e-44e4-bd42-570572c9c09d","ios":"levelo://app?vid=1dc779e0-3f4e-44e4-bd42-570572c9c09d"},"vehicle_type_id":"4","last_reported":1678299017,"current_range_meters":2400,"station_id":"ce4bh0h2rcd13ifvqd40","pricing_plan_id":"free"},{"bike_id":"0661cdc0-5574-40b4-9026-d99e8eae95f4","system_id":"levelo_inurba_marseille","lat":43.301117,"lon":5.398795,"is_reserved":false,"is_disabled":false,"rental_uris":{"android":"levelo://app?vid=0661cdc0-5574-40b4-9026-d99e8eae95f4","ios":"levelo://app?vid=0661cdc0-5574-40b4-9026-d99e8eae95f4"},"vehicle_type_id":"4","last_reported":1678299017,"current_range_meters":0,"station_id":"ce4bh0h2rcd13ifvqd40","pricing_plan_id":"free"},{"bike_id":"ac67a500-237a-4c7c-939e-578bc5196df2","system_id":"levelo_inurba_marseille","lat":43.28669,"lon":5.36356,"is_reserved":false,"is_disabled":false,"rental_uris":{"android":"levelo://app?vid=ac67a500-237a-4c7c-939e-578bc5196df2","ios":"levelo://app?vid=ac67a500-237a-4c7c-939e-578bc5196df2"},"vehicle_type_id":"4","last_reported":1678299017,"current_range_meters":8000,"station_id":"ce4bhah2rcd13ifvqej0","pricing_plan_id":"free"},{"bike_id":"aa277f30-29df-4f77-9d60-a063eae662e2","system_id":"levelo_inurba_marseille","lat":43.298681,"lon":5.397225,"is_reserved":false,"is_disabled":false,"rental_uris":{"android":"levelo://app?vid=aa277f30-29df-4f77-9d60-a063eae662e2","ios":"levelo://app?vid=aa277f30-29df-4f77-9d60-a063eae662e2"},"vehicle_type_id":"4","last_reported":1678299017,"current_range_meters":20800,"station_id":"ce4bh0h2rcd13ifvqd50","pricing_plan_id":"free"},{"bike_id":"c35894fd-719b-4701-b0d2-73c9e2a12016","system_id":"levelo_inurba_marseille","lat":43.28666,"lon":5.36359,"is_reserved":false,"is_disabled":false,"rental_uris":{"android":"levelo://app?vid=c35894fd-719b-4701-b0d2-73c9e2a12016","ios":"levelo://app?vid=c35894fd-719b-4701-b0d2-73c9e2a12016"},"vehicle_type_id":"4","last_reported":1678299017,"current_range_meters":22800,"station_id":"ce4bhah2rcd13ifvqej0","pricing_plan_id":"free"},{"bike_id":"9815384f-cef7-4f2c-ac7c-c695f032af9e","system_id":"levelo_inurba_marseille","lat":43.28658,"lon":5.363633,"is_reserved":false,"is_disabled":false,"rental_uris":{"android":"levelo://app?vid=9815384f-cef7-4f2c-ac7c-c695f032af9e","ios":"levelo://app?vid=9815384f-cef7-4f2c-ac7c-c695f032af9e"},"vehicle_type_id":"4","last_reported":1678299017,"current_range_meters":22000,"station_id":"ce4bhah2rcd13ifvqej0","pricing_plan_id":"free"},{"bike_id":"9003b2a2-5f6b-458c-bf3e-3de9ff6e5fe1","system_id":"levelo_inurba_marseille","lat":43.29529,"lon":5.393974,"is_reserved":false,"is_disabled":false,"rental_uris":{"android":"levelo://app?vid=9003b2a2-5f6b-458c-bf3e-3de9ff6e5fe1","ios":"levelo://app?vid=9003b2a2-5f6b-458c-bf3e-3de9ff6e5fe1"},"vehicle_type_id":"4","last_reported":1678299017,"current_range_meters":10400,"station_id":"ce4bh212rcd13ifvqde0","pricing_plan_id":"free"},{"bike_id":"aed8c9a9-bdd2-4fe0-bad1-7ae790af1e09","system_id":"levelo_inurba_marseille","lat":43.29522,"lon":5.39402,"is_reserved":false,"is_disabled":false,"rental_uris":{"android":"levelo://app?vid=aed8c9a9-bdd2-4fe0-bad1-7ae790af1e09","ios":"levelo://app?vid=aed8c9a9-bdd2-4fe0-bad1-7ae790af1e09"},"vehicle_type_id":"4","last_reported":1678299017,"current_range_meters":9600,"station_id":"ce4bh212rcd13ifvqde0","pricing_plan_id":"free"},{"bike_id":"b87476c9-1f80-474b-98d9-54d758c01a27","system_id":"levelo_inurba_marseille","lat":43.29514,"lon":5.39407,"is_reserved":false,"is_disabled":false,"rental_uris":{"android":"levelo://app?vid=b87476c9-1f80-474b-98d9-54d758c01a27","ios":"levelo://app?vid=b87476c9-1f80-474b-98d9-54d758c01a27"},"vehicle_type_id":"4","last_reported":1678299017,"current_range_meters":14000,"station_id":"ce4bh212rcd13ifvqde0","pricing_plan_id":"free"},{"bike_id":"fd293906-4e23-40c0-a30d-04a7d2c96ef7","system_id":"levelo_inurba_marseille","lat":43.29503,"lon":5.39405,"is_reserved":false,"is_disabled":false,"rental_uris":{"android":"levelo://app?vid=fd293906-4e23-40c0-a30d-04a7d2c96ef7","ios":"levelo://app?vid=fd293906-4e23-40c0-a30d-04a7d2c96ef7"},"vehicle_type_id":"4","last_reported":1678299017,"current_range_meters":24000,"station_id":"ce4bh212rcd13ifvqde0","pricing_plan_id":"free"},{"bike_id":"3ad0fb0a-eeab-48bc-aace-b55bedb36779","system_id":"levelo_inurba_marseille","lat":43.295418,"lon":5.394522,"is_reserved":false,"is_disabled":false,"rental_uris":{"android":"levelo://app?vid=3ad0fb0a-eeab-48bc-aace-b55bedb36779","ios":"levelo://app?vid=3ad0fb0a-eeab-48bc-aace-b55bedb36779"},"vehicle_type_id":"4","last_reported":1678299017,"current_range_meters":20800,"station_id":"ce4bh212rcd13ifvqde0","pricing_plan_id":"free"},{"bike_id":"589fe5fd-c8f4-442b-99c2-b3c8dd3ec45e","system_id":"levelo_inurba_marseille","lat":43.302759,"lon":5.400793,"is_reserved":false,"is_disabled":false,"rental_uris":{"android":"levelo://app?vid=589fe5fd-c8f4-442b-99c2-b3c8dd3ec45e","ios":"levelo://app?vid=589fe5fd-c8f4-442b-99c2-b3c8dd3ec45e"},"vehicle_type_id":"4","last_reported":1678299017,"current_range_meters":30800,"station_id":"ce4bgvh2rcd13ifvqcs0","pricing_plan_id":"free"},{"bike_id":"fd0c85ef-640c-4faa-aad6-92c51ff18bbc","system_id":"levelo_inurba_marseille","lat":43.302759,"lon":5.400793,"is_reserved":false,"is_disabled":false,"rental_uris":{"android":"levelo://app?vid=fd0c85ef-640c-4faa-aad6-92c51ff18bbc","ios":"levelo://app?vid=fd0c85ef-640c-4faa-aad6-92c51ff18bbc"},"vehicle_type_id":"4","last_reported":1678299017,"current_range_meters":0,"station_id":"ce4bgvh2rcd13ifvqcs0","pricing_plan_id":"free"},{"bike_id":"cf7439ba-ce85-44c0-9d6d-71ae4d07c7c7","system_id":"levelo_inurba_marseille","lat":43.287185,"lon":5.379373,"is_reserved":false,"is_disabled":false,"rental_uris":{"android":"levelo://app?vid=cf7439ba-ce85-44c0-9d6d-71ae4d07c7c7","ios":"levelo://app?vid=cf7439ba-ce85-44c0-9d6d-71ae4d07c7c7"},"vehicle_type_id":"4","last_reported":1678299017,"current_range_meters":9200,"station_id":"ce4bh9p2rcd13ifvqec0","pricing_plan_id":"free"},{"bike_id":"55242f8d-0cf6-4075-947b-858b5d662892","system_id":"levelo_inurba_marseille","lat":43.316517,"lon":5.404375,"is_reserved":false,"is_disabled":false,"rental_uris":{"android":"levelo://app?vid=55242f8d-0cf6-4075-947b-858b5d662892","ios":"levelo://app?vid=55242f8d-0cf6-4075-947b-858b5d662892"},"vehicle_type_id":"4","last_reported":1678299017,"current_range_meters":1200,"station_id":"ce4bh012rcd13ifvqd00","pricing_plan_id":"free"},{"bike_id":"f472be73-717b-442c-b626-46a1bd1eeed4","system_id":"levelo_inurba_marseille","lat":43.316517,"lon":5.404375,"is_reserved":false,"is_disabled":false,"rental_uris":{"android":"levelo://app?vid=f472be73-717b-442c-b626-46a1bd1eeed4","ios":"levelo://app?vid=f472be73-717b-442c-b626-46a1bd1eeed4"},"vehicle_type_id":"4","last_reported":1678299017,"current_range_meters":0,"station_id":"ce4bh012rcd13ifvqd00","pricing_plan_id":"free"},{"bike_id":"35f0a106-19f8-4992-8a20-9fdaf0ebcbef","system_id":"levelo_inurba_marseille","lat":43.3164,"lon":5.40439,"is_reserved":false,"is_disabled":false,"rental_uris":{"android":"levelo://app?vid=35f0a106-19f8-4992-8a20-9fdaf0ebcbef","ios":"levelo://app?vid=35f0a106-19f8-4992-8a20-9fdaf0ebcbef"},"vehicle_type_id":"4","last_reported":1678299017,"current_range_meters":13600,"station_id":"","pricing_plan_id":"free"},{"bike_id":"5008e5d4-8d79-48bc-bd19-b470190f0a0c","system_id":"levelo_inurba_marseille","lat":43.31646,"lon":5.40439,"is_reserved":false,"is_disabled":false,"rental_uris":{"android":"levelo://app?vid=5008e5d4-8d79-48bc-bd19-b470190f0a0c","ios":"levelo://app?vid=5008e5d4-8d79-48bc-bd19-b470190f0a0c"},"vehicle_type_id":"4","last_reported":1678299017,"current_range_meters":4800,"station_id":"ce4bh012rcd13ifvqd00","pricing_plan_id":"free"},{"bike_id":"81d224a5-313b-4a0b-a0dd-a12cef810f00","system_id":"levelo_inurba_marseille","lat":43.31646,"lon":5.40439,"is_reserved":false,"is_disabled":false,"rental_uris":{"android":"levelo://app?vid=81d224a5-313b-4a0b-a0dd-a12cef810f00","ios":"levelo://app?vid=81d224a5-313b-4a0b-a0dd-a12cef810f00"},"vehicle_type_id":"4","last_reported":1678299017,"current_range_meters":28800,"station_id":"","pricing_plan_id":"free"},{"bike_id":"f835e606-b6d8-441d-9979-6500d3e14ad3","system_id":"levelo_inurba_marseille","lat":43.31643,"lon":5.4044,"is_reserved":false,"is_disabled":false,"rental_uris":{"android":"levelo://app?vid=f835e606-b6d8-441d-9979-6500d3e14ad3","ios":"levelo://app?vid=f835e606-b6d8-441d-9979-6500d3e14ad3"},"vehicle_type_id":"4","last_reported":1678299017,"current_range_meters":16400,"station_id":"","pricing_plan_id":"free"},{"bike_id":"6ced47ed-aa02-495c-b0aa-afa7d101c884","system_id":"levelo_inurba_marseille","lat":43.316517,"lon":5.404375,"is_reserved":false,"is_disabled":false,"rental_uris":{"android":"levelo://app?vid=6ced47ed-aa02-495c-b0aa-afa7d101c884","ios":"levelo://app?vid=6ced47ed-aa02-495c-b0aa-afa7d101c884"},"vehicle_type_id":"4","last_reported":1678299017,"current_range_meters":0,"station_id":"ce4bh012rcd13ifvqd00","pricing_plan_id":"free"},{"bike_id":"69c02bd4-14b7-4ea9-aeb7-c999650add69","system_id":"levelo_inurba_marseille","lat":43.316517,"lon":5.404375,"is_reserved":false,"is_disabled":false,"rental_uris":{"android":"levelo://app?vid=69c02bd4-14b7-4ea9-aeb7-c999650add69","ios":"levelo://app?vid=69c02bd4-14b7-4ea9-aeb7-c999650add69"},"vehicle_type_id":"4","last_reported":1678299017,"current_range_meters":0,"station_id":"ce4bh012rcd13ifvqd00","pricing_plan_id":"free"},{"bike_id":"c534c581-a9be-4fb8-876e-ea96cb53337c","system_id":"levelo_inurba_marseille","lat":43.316517,"lon":5.404375,"is_reserved":false,"is_disabled":false,"rental_uris":{"android":"levelo://app?vid=c534c581-a9be-4fb8-876e-ea96cb53337c","ios":"levelo://app?vid=c534c581-a9be-4fb8-876e-ea96cb53337c"},"vehicle_type_id":"4","last_reported":1678299017,"current_range_meters":14000,"station_id":"ce4bh012rcd13ifvqd00","pricing_plan_id":"free"},{"bike_id":"69f6bd94-c607-4082-9f8e-c48e6ce0bdb7","system_id":"levelo_inurba_marseille","lat":43.3165,"lon":5.40441,"is_reserved":false,"is_disabled":false,"rental_uris":{"android":"levelo://app?vid=69f6bd94-c607-4082-9f8e-c48e6ce0bdb7","ios":"levelo://app?vid=69f6bd94-c607-4082-9f8e-c48e6ce0bdb7"},"vehicle_type_id":"4","last_reported":1678299017,"current_range_meters":8400,"station_id":"","pricing_plan_id":"free"},{"bike_id":"f0c74c4a-f51c-47c6-8598-97b136cd0967","system_id":"levelo_inurba_marseille","lat":43.31648,"lon":5.40444,"is_reserved":false,"is_disabled":false,"rental_uris":{"android":"levelo://app?vid=f0c74c4a-f51c-47c6-8598-97b136cd0967","ios":"levelo://app?vid=f0c74c4a-f51c-47c6-8598-97b136cd0967"},"vehicle_type_id":"4","last_reported":1678299017,"current_range_meters":4400,"station_id":"","pricing_plan_id":"free"},{"bike_id":"4c257a2a-9923-49c1-a23b-12d90b2d3941","system_id":"levelo_inurba_marseille","lat":43.28605,"lon":5.353414,"is_reserved":false,"is_disabled":false,"rental_uris":{"android":"levelo://app?vid=4c257a2a-9923-49c1-a23b-12d90b2d3941","ios":"levelo://app?vid=4c257a2a-9923-49c1-a23b-12d90b2d3941"},"vehicle_type_id":"4","last_reported":1678299017,"current_range_meters":3200,"station_id":"","pricing_plan_id":"free"},{"bike_id":"5cd90c6a-8237-40e0-babc-adc376f991a6","system_id":"levelo_inurba_marseille","lat":43.28463,"lon":5.3589,"is_reserved":false,"is_disabled":false,"rental_uris":{"android":"levelo://app?vid=5cd90c6a-8237-40e0-babc-adc376f991a6","ios":"levelo://app?vid=5cd90c6a-8237-40e0-babc-adc376f991a6"},"vehicle_type_id":"4","last_reported":1678299017,"current_range_meters":18400,"station_id":"ce4bhah2rcd13ifvqei0","pricing_plan_id":"free"},{"bike_id":"04280444-69a7-479c-9c88-dfe5cbe43865","system_id":"levelo_inurba_marseille","lat":43.28462,"lon":5.358964,"is_reserved":false,"is_disabled":false,"rental_uris":{"android":"levelo://app?vid=04280444-69a7-479c-9c88-dfe5cbe43865","ios":"levelo://app?vid=04280444-69a7-479c-9c88-dfe5cbe43865"},"vehicle_type_id":"4","last_reported":1678299017,"current_range_meters":28800,"station_id":"ce4bhah2rcd13ifvqei0","pricing_plan_id":"free"},{"bike_id":"e8563071-d6ba-447b-a1aa-a8ce552a69d2","system_id":"levelo_inurba_marseille","lat":43.284619,"lon":5.358836,"is_reserved":false,"is_disabled":false,"rental_uris":{"android":"levelo://app?vid=e8563071-d6ba-447b-a1aa-a8ce552a69d2","ios":"levelo://app?vid=e8563071-d6ba-447b-a1aa-a8ce552a69d2"},"vehicle_type_id":"4","last_reported":1678299017,"current_range_meters":12000,"station_id":"ce4bhah2rcd13ifvqei0","pricing_plan_id":"free"},{"bike_id":"0996ad13-0dae-422d-8bc3-964fd936e679","system_id":"levelo_inurba_marseille","lat":43.284598,"lon":5.358881,"is_reserved":false,"is_disabled":false,"rental_uris":{"android":"levelo://app?vid=0996ad13-0dae-422d-8bc3-964fd936e679","ios":"levelo://app?vid=0996ad13-0dae-422d-8bc3-964fd936e679"},"vehicle_type_id":"4","last_reported":1678299017,"current_range_meters":2800,"station_id":"ce4bhah2rcd13ifvqei0","pricing_plan_id":"free"},{"bike_id":"eb31696e-bba1-4986-b16b-84a825a499f5","system_id":"levelo_inurba_marseille","lat":43.28457,"lon":5.35894,"is_reserved":false,"is_disabled":false,"rental_uris":{"android":"levelo://app?vid=eb31696e-bba1-4986-b16b-84a825a499f5","ios":"levelo://app?vid=eb31696e-bba1-4986-b16b-84a825a499f5"},"vehicle_type_id":"4","last_reported":1678299017,"current_range_meters":14000,"station_id":"ce4bhah2rcd13ifvqei0","pricing_plan_id":"free"},{"bike_id":"731c6d15-26bc-4415-a210-22ffbec530f9","system_id":"levelo_inurba_marseille","lat":43.28457,"lon":5.35893,"is_reserved":false,"is_disabled":false,"rental_uris":{"android":"levelo://app?vid=731c6d15-26bc-4415-a210-22ffbec530f9","ios":"levelo://app?vid=731c6d15-26bc-4415-a210-22ffbec530f9"},"vehicle_type_id":"4","last_reported":1678299017,"current_range_meters":4800,"station_id":"ce4bhah2rcd13ifvqei0","pricing_plan_id":"free"},{"bike_id":"654af73d-d30e-4ca2-809c-cc9151821bbe","system_id":"levelo_inurba_marseille","lat":43.284557,"lon":5.358967,"is_reserved":false,"is_disabled":false,"rental_uris":{"android":"levelo://app?vid=654af73d-d30e-4ca2-809c-cc9151821bbe","ios":"levelo://app?vid=654af73d-d30e-4ca2-809c-cc9151821bbe"},"vehicle_type_id":"4","last_reported":1678299017,"current_range_meters":25600,"station_id":"","pricing_plan_id":"free"},{"bike_id":"579699b5-a313-4e2d-a94f-79d576d13b9b","system_id":"levelo_inurba_marseille","lat":43.28456,"lon":5.35893,"is_reserved":false,"is_disabled":false,"rental_uris":{"android":"levelo://app?vid=579699b5-a313-4e2d-a94f-79d576d13b9b","ios":"levelo://app?vid=579699b5-a313-4e2d-a94f-79d576d13b9b"},"vehicle_type_id":"4","last_reported":1678299017,"current_range_meters":4000,"station_id":"ce4bhah2rcd13ifvqei0","pricing_plan_id":"free"},{"bike_id":"7e9c4638-77f0-42ef-a990-4e6005652192","system_id":"levelo_inurba_marseille","lat":43.2846,"lon":5.358582,"is_reserved":false,"is_disabled":false,"rental_uris":{"android":"levelo://app?vid=7e9c4638-77f0-42ef-a990-4e6005652192","ios":"levelo://app?vid=7e9c4638-77f0-42ef-a990-4e6005652192"},"vehicle_type_id":"4","last_reported":1678299017,"current_range_meters":6400,"station_id":"","pricing_plan_id":"free"},{"bike_id":"5cb6ea99-2baf-4483-87c3-931e50b46af8","system_id":"levelo_inurba_marseille","lat":43.28456,"lon":5.35883,"is_reserved":false,"is_disabled":false,"rental_uris":{"android":"levelo://app?vid=5cb6ea99-2baf-4483-87c3-931e50b46af8","ios":"levelo://app?vid=5cb6ea99-2baf-4483-87c3-931e50b46af8"},"vehicle_type_id":"4","last_reported":1678299017,"current_range_meters":11200,"station_id":"ce4bhah2rcd13ifvqei0","pricing_plan_id":"free"},{"bike_id":"f5a91fff-9cfe-44ac-9787-cf2cdf64bbb1","system_id":"levelo_inurba_marseille","lat":43.28455,"lon":5.35887,"is_reserved":false,"is_disabled":false,"rental_uris":{"android":"levelo://app?vid=f5a91fff-9cfe-44ac-9787-cf2cdf64bbb1","ios":"levelo://app?vid=f5a91fff-9cfe-44ac-9787-cf2cdf64bbb1"},"vehicle_type_id":"4","last_reported":1678299017,"current_range_meters":3200,"station_id":"ce4bhah2rcd13ifvqei0","pricing_plan_id":"free"},{"bike_id":"04b587ca-908d-40ad-8b3c-26212008f288","system_id":"levelo_inurba_marseille","lat":43.28452,"lon":5.35893,"is_reserved":false,"is_disabled":false,"rental_uris":{"android":"levelo://app?vid=04b587ca-908d-40ad-8b3c-26212008f288","ios":"levelo://app?vid=04b587ca-908d-40ad-8b3c-26212008f288"},"vehicle_type_id":"4","last_reported":1678299017,"current_range_meters":4000,"station_id":"ce4bhah2rcd13ifvqei0","pricing_plan_id":"free"},{"bike_id":"c185c316-b5f3-4c34-8f07-780f4bb016fa","system_id":"levelo_inurba_marseille","lat":43.28454,"lon":5.35879,"is_reserved":false,"is_disabled":false,"rental_uris":{"android":"levelo://app?vid=c185c316-b5f3-4c34-8f07-780f4bb016fa","ios":"levelo://app?vid=c185c316-b5f3-4c34-8f07-780f4bb016fa"},"vehicle_type_id":"4","last_reported":1678299017,"current_range_meters":9200,"station_id":"ce4bhah2rcd13ifvqei0","pricing_plan_id":"free"},{"bike_id":"6e09bfed-52d8-4294-831d-0ce99b998af0","system_id":"levelo_inurba_marseille","lat":43.2845,"lon":5.35891,"is_reserved":false,"is_disabled":false,"rental_uris":{"android":"levelo://app?vid=6e09bfed-52d8-4294-831d-0ce99b998af0","ios":"levelo://app?vid=6e09bfed-52d8-4294-831d-0ce99b998af0"},"vehicle_type_id":"4","last_reported":1678299017,"current_range_meters":8800,"station_id":"ce4bhah2rcd13ifvqei0","pricing_plan_id":"free"},{"bike_id":"6931f1bf-48d3-463e-9111-fedaa8dd6cf7","system_id":"levelo_inurba_marseille","lat":43.295713,"lon":5.399639,"is_reserved":false,"is_disabled":false,"rental_uris":{"android":"levelo://app?vid=6931f1bf-48d3-463e-9111-fedaa8dd6cf7","ios":"levelo://app?vid=6931f1bf-48d3-463e-9111-fedaa8dd6cf7"},"vehicle_type_id":"4","last_reported":1678299017,"current_range_meters":5600,"station_id":"ce4bh312rcd13ifvqdj0","pricing_plan_id":"free"},{"bike_id":"9c56c5a9-eb02-4ae8-aff9-d0856fd1201d","system_id":"levelo_inurba_marseille","lat":43.286595,"lon":5.386795,"is_reserved":false,"is_disabled":false,"rental_uris":{"android":"levelo://app?vid=9c56c5a9-eb02-4ae8-aff9-d0856fd1201d","ios":"levelo://app?vid=9c56c5a9-eb02-4ae8-aff9-d0856fd1201d"},"vehicle_type_id":"4","last_reported":1678299017,"current_range_meters":4000,"station_id":"ce4bh492rcd13ifvqdug","pricing_plan_id":"free"},{"bike_id":"193ed946-a588-4980-8fad-1a78381a9414","system_id":"levelo_inurba_marseille","lat":43.337168,"lon":5.391825,"is_reserved":false,"is_disabled":false,"rental_uris":{"android":"levelo://app?vid=193ed946-a588-4980-8fad-1a78381a9414","ios":"levelo://app?vid=193ed946-a588-4980-8fad-1a78381a9414"},"vehicle_type_id":"4","last_reported":1678299017,"current_range_meters":16000,"station_id":"ce4bhr92rcd13ifvqhsg","pricing_plan_id":"free"},{"bike_id":"ab014c16-a9fb-4502-9f5f-90bef9b9521b","system_id":"levelo_inurba_marseille","lat":43.337168,"lon":5.391825,"is_reserved":false,"is_disabled":false,"rental_uris":{"android":"levelo://app?vid=ab014c16-a9fb-4502-9f5f-90bef9b9521b","ios":"levelo://app?vid=ab014c16-a9fb-4502-9f5f-90bef9b9521b"},"vehicle_type_id":"4","last_reported":1678299017,"current_range_meters":18800,"station_id":"ce4bhr92rcd13ifvqhsg","pricing_plan_id":"free"},{"bike_id":"c6cc7444-9b55-4e24-aa8f-c99453113b11","system_id":"levelo_inurba_marseille","lat":43.337168,"lon":5.391825,"is_reserved":false,"is_disabled":false,"rental_uris":{"android":"levelo://app?vid=c6cc7444-9b55-4e24-aa8f-c99453113b11","ios":"levelo://app?vid=c6cc7444-9b55-4e24-aa8f-c99453113b11"},"vehicle_type_id":"4","last_reported":1678299017,"current_range_meters":9600,"station_id":"ce4bhr92rcd13ifvqhsg","pricing_plan_id":"free"},{"bike_id":"b14477e0-be2d-4449-a042-a29e9f0b105c","system_id":"levelo_inurba_marseille","lat":43.337168,"lon":5.391825,"is_reserved":false,"is_disabled":false,"rental_uris":{"android":"levelo://app?vid=b14477e0-be2d-4449-a042-a29e9f0b105c","ios":"levelo://app?vid=b14477e0-be2d-4449-a042-a29e9f0b105c"},"vehicle_type_id":"4","last_reported":1678299017,"current_range_meters":22400,"station_id":"ce4bhr92rcd13ifvqhsg","pricing_plan_id":"free"},{"bike_id":"61698476-fabf-45bd-b501-722c7f9e07bb","system_id":"levelo_inurba_marseille","lat":43.337168,"lon":5.391825,"is_reserved":false,"is_disabled":false,"rental_uris":{"android":"levelo://app?vid=61698476-fabf-45bd-b501-722c7f9e07bb","ios":"levelo://app?vid=61698476-fabf-45bd-b501-722c7f9e07bb"},"vehicle_type_id":"4","last_reported":1678299017,"current_range_meters":24400,"station_id":"ce4bhr92rcd13ifvqhsg","pricing_plan_id":"free"},{"bike_id":"049dad72-6330-444a-8c59-496aca383226","system_id":"levelo_inurba_marseille","lat":43.337168,"lon":5.391825,"is_reserved":false,"is_disabled":false,"rental_uris":{"android":"levelo://app?vid=049dad72-6330-444a-8c59-496aca383226","ios":"levelo://app?vid=049dad72-6330-444a-8c59-496aca383226"},"vehicle_type_id":"4","last_reported":1678299017,"current_range_meters":26000,"station_id":"ce4bhr92rcd13ifvqhsg","pricing_plan_id":"free"},{"bike_id":"3a42862b-5a42-4502-919b-414b215e6a96","system_id":"levelo_inurba_marseille","lat":43.337168,"lon":5.391825,"is_reserved":false,"is_disabled":false,"rental_uris":{"android":"levelo://app?vid=3a42862b-5a42-4502-919b-414b215e6a96","ios":"levelo://app?vid=3a42862b-5a42-4502-919b-414b215e6a96"},"vehicle_type_id":"4","last_reported":1678299017,"current_range_meters":400,"station_id":"ce4bhr92rcd13ifvqhsg","pricing_plan_id":"free"},{"bike_id":"8af5e1b5-c6d7-42c7-b2e5-93d1697d7f23","system_id":"levelo_inurba_marseille","lat":43.337168,"lon":5.391825,"is_reserved":false,"is_disabled":false,"rental_uris":{"android":"levelo://app?vid=8af5e1b5-c6d7-42c7-b2e5-93d1697d7f23","ios":"levelo://app?vid=8af5e1b5-c6d7-42c7-b2e5-93d1697d7f23"},"vehicle_type_id":"4","last_reported":1678299017,"current_range_meters":21200,"station_id":"ce4bhr92rcd13ifvqhsg","pricing_plan_id":"free"},{"bike_id":"53a4fcf1-bf71-443a-a23a-eb184f4d9aa0","system_id":"levelo_inurba_marseille","lat":43.337168,"lon":5.391825,"is_reserved":false,"is_disabled":false,"rental_uris":{"android":"levelo://app?vid=53a4fcf1-bf71-443a-a23a-eb184f4d9aa0","ios":"levelo://app?vid=53a4fcf1-bf71-443a-a23a-eb184f4d9aa0"},"vehicle_type_id":"4","last_reported":1678299017,"current_range_meters":0,"station_id":"ce4bhr92rcd13ifvqhsg","pricing_plan_id":"free"},{"bike_id":"ab0feb94-5fb8-4a18-8a28-af999dec1d0f","system_id":"levelo_inurba_marseille","lat":43.337168,"lon":5.391825,"is_reserved":false,"is_disabled":false,"rental_uris":{"android":"levelo://app?vid=ab0feb94-5fb8-4a18-8a28-af999dec1d0f","ios":"levelo://app?vid=ab0feb94-5fb8-4a18-8a28-af999dec1d0f"},"vehicle_type_id":"4","last_reported":1678299017,"current_range_meters":24000,"station_id":"ce4bhr92rcd13ifvqhsg","pricing_plan_id":"free"},{"bike_id":"086d1d7f-ce30-47d9-b4cd-9890c5dee809","system_id":"levelo_inurba_marseille","lat":43.32343,"lon":5.40626,"is_reserved":false,"is_disabled":false,"rental_uris":{"android":"levelo://app?vid=086d1d7f-ce30-47d9-b4cd-9890c5dee809","ios":"levelo://app?vid=086d1d7f-ce30-47d9-b4cd-9890c5dee809"},"vehicle_type_id":"4","last_reported":1678299017,"current_range_meters":6000,"station_id":"ce4bhq92rcd13ifvqhjg","pricing_plan_id":"free"},{"bike_id":"1a0985e7-8012-4188-a1ab-5d2a657e6e8f","system_id":"levelo_inurba_marseille","lat":43.337168,"lon":5.391825,"is_reserved":false,"is_disabled":false,"rental_uris":{"android":"levelo://app?vid=1a0985e7-8012-4188-a1ab-5d2a657e6e8f","ios":"levelo://app?vid=1a0985e7-8012-4188-a1ab-5d2a657e6e8f"},"vehicle_type_id":"4","last_reported":1678299017,"current_range_meters":17600,"station_id":"ce4bhr92rcd13ifvqhsg","pricing_plan_id":"free"},{"bike_id":"c4dbf44f-b2f6-4712-bc48-ad2c8fae7753","system_id":"levelo_inurba_marseille","lat":43.337298,"lon":5.39192,"is_reserved":false,"is_disabled":false,"rental_uris":{"android":"levelo://app?vid=c4dbf44f-b2f6-4712-bc48-ad2c8fae7753","ios":"levelo://app?vid=c4dbf44f-b2f6-4712-bc48-ad2c8fae7753"},"vehicle_type_id":"4","last_reported":1678299017,"current_range_meters":16400,"station_id":"ce4bhr92rcd13ifvqhsg","pricing_plan_id":"free"},{"bike_id":"3a23e8e6-3262-4e7b-8a0d-4fe3dfa7eb14","system_id":"levelo_inurba_marseille","lat":43.3234,"lon":5.40629,"is_reserved":false,"is_disabled":false,"rental_uris":{"android":"levelo://app?vid=3a23e8e6-3262-4e7b-8a0d-4fe3dfa7eb14","ios":"levelo://app?vid=3a23e8e6-3262-4e7b-8a0d-4fe3dfa7eb14"},"vehicle_type_id":"4","last_reported":1678299017,"current_range_meters":25600,"station_id":"","pricing_plan_id":"free"},{"bike_id":"5ec26efe-4962-49cd-975d-a9dd03190f66","system_id":"levelo_inurba_marseille","lat":43.284787,"lon":5.384116,"is_reserved":false,"is_disabled":false,"rental_uris":{"android":"levelo://app?vid=5ec26efe-4962-49cd-975d-a9dd03190f66","ios":"levelo://app?vid=5ec26efe-4962-49cd-975d-a9dd03190f66"},"vehicle_type_id":"4","last_reported":1678299017,"current_range_meters":3200,"station_id":"ce4bh512rcd13ifvqe3g","pricing_plan_id":"free"},{"bike_id":"62715bb9-2cca-4bc4-8318-09fa2b7bd62d","system_id":"levelo_inurba_marseille","lat":43.337168,"lon":5.391825,"is_reserved":false,"is_disabled":false,"rental_uris":{"android":"levelo://app?vid=62715bb9-2cca-4bc4-8318-09fa2b7bd62d","ios":"levelo://app?vid=62715bb9-2cca-4bc4-8318-09fa2b7bd62d"},"vehicle_type_id":"4","last_reported":1678299017,"current_range_meters":400,"station_id":"ce4bhr92rcd13ifvqhsg","pricing_plan_id":"free"},{"bike_id":"09ea0393-ba87-4d3b-b7c9-d0b45210712e","system_id":"levelo_inurba_marseille","lat":43.284787,"lon":5.384116,"is_reserved":false,"is_disabled":false,"rental_uris":{"android":"levelo://app?vid=09ea0393-ba87-4d3b-b7c9-d0b45210712e","ios":"levelo://app?vid=09ea0393-ba87-4d3b-b7c9-d0b45210712e"},"vehicle_type_id":"4","last_reported":1678299017,"current_range_meters":0,"station_id":"ce4bh512rcd13ifvqe3g","pricing_plan_id":"free"},{"bike_id":"54c35cf8-599b-4342-9d13-e3b250b3e65d","system_id":"levelo_inurba_marseille","lat":43.288497,"lon":5.393089,"is_reserved":false,"is_disabled":false,"rental_uris":{"android":"levelo://app?vid=54c35cf8-599b-4342-9d13-e3b250b3e65d","ios":"levelo://app?vid=54c35cf8-599b-4342-9d13-e3b250b3e65d"},"vehicle_type_id":"4","last_reported":1678299017,"current_range_meters":400,"station_id":"ce4bh2p2rcd13ifvqdi0","pricing_plan_id":"free"},{"bike_id":"8d8e760f-5326-41c9-9722-5be05aec1e0d","system_id":"levelo_inurba_marseille","lat":43.288497,"lon":5.393089,"is_reserved":false,"is_disabled":false,"rental_uris":{"android":"levelo://app?vid=8d8e760f-5326-41c9-9722-5be05aec1e0d","ios":"levelo://app?vid=8d8e760f-5326-41c9-9722-5be05aec1e0d"},"vehicle_type_id":"4","last_reported":1678299017,"current_range_meters":13200,"station_id":"ce4bh2p2rcd13ifvqdi0","pricing_plan_id":"free"},{"bike_id":"16a5aa43-b4cc-44ad-9386-cb5dee2efc03","system_id":"levelo_inurba_marseille","lat":43.284219,"lon":5.3497,"is_reserved":false,"is_disabled":false,"rental_uris":{"android":"levelo://app?vid=16a5aa43-b4cc-44ad-9386-cb5dee2efc03","ios":"levelo://app?vid=16a5aa43-b4cc-44ad-9386-cb5dee2efc03"},"vehicle_type_id":"4","last_reported":1678299017,"current_range_meters":0,"station_id":"ce4bhbh2rcd13ifvqepg","pricing_plan_id":"free"},{"bike_id":"b5d80506-dd5b-4f9a-b1eb-1364d6cdd09f","system_id":"levelo_inurba_marseille","lat":43.284219,"lon":5.3497,"is_reserved":false,"is_disabled":false,"rental_uris":{"android":"levelo://app?vid=b5d80506-dd5b-4f9a-b1eb-1364d6cdd09f","ios":"levelo://app?vid=b5d80506-dd5b-4f9a-b1eb-1364d6cdd09f"},"vehicle_type_id":"4","last_reported":1678299017,"current_range_meters":22400,"station_id":"ce4bhbh2rcd13ifvqepg","pricing_plan_id":"free"},{"bike_id":"2d5caa97-49bd-44d6-8044-943c1a5557d3","system_id":"levelo_inurba_marseille","lat":43.289363,"lon":5.396322,"is_reserved":false,"is_disabled":false,"rental_uris":{"android":"levelo://app?vid=2d5caa97-49bd-44d6-8044-943c1a5557d3","ios":"levelo://app?vid=2d5caa97-49bd-44d6-8044-943c1a5557d3"},"vehicle_type_id":"4","last_reported":1678299017,"current_range_meters":3200,"station_id":"ce4bh3h2rcd13ifvqdn0","pricing_plan_id":"free"},{"bike_id":"bfc16e41-47e8-4726-a07c-2532db3ec4df","system_id":"levelo_inurba_marseille","lat":43.292724,"lon":5.401131,"is_reserved":false,"is_disabled":false,"rental_uris":{"android":"levelo://app?vid=bfc16e41-47e8-4726-a07c-2532db3ec4df","ios":"levelo://app?vid=bfc16e41-47e8-4726-a07c-2532db3ec4df"},"vehicle_type_id":"4","last_reported":1678299017,"current_range_meters":6800,"station_id":"ce4bh312rcd13ifvqdk0","pricing_plan_id":"free"},{"bike_id":"e01e948a-8a4e-4ec7-a2bb-6672dfab61f2","system_id":"levelo_inurba_marseille","lat":43.292724,"lon":5.401131,"is_reserved":false,"is_disabled":false,"rental_uris":{"android":"levelo://app?vid=e01e948a-8a4e-4ec7-a2bb-6672dfab61f2","ios":"levelo://app?vid=e01e948a-8a4e-4ec7-a2bb-6672dfab61f2"},"vehicle_type_id":"4","last_reported":1678299017,"current_range_meters":0,"station_id":"ce4bh312rcd13ifvqdk0","pricing_plan_id":"free"},{"bike_id":"69c4a81f-e1e8-4826-b9bb-06647d0c400b","system_id":"levelo_inurba_marseille","lat":43.283502,"lon":5.386471,"is_reserved":false,"is_disabled":false,"rental_uris":{"android":"levelo://app?vid=69c4a81f-e1e8-4826-b9bb-06647d0c400b","ios":"levelo://app?vid=69c4a81f-e1e8-4826-b9bb-06647d0c400b"},"vehicle_type_id":"4","last_reported":1678299017,"current_range_meters":28400,"station_id":"ce4bh492rcd13ifvqdvg","pricing_plan_id":"free"},{"bike_id":"566e6690-491b-4f20-8a58-5297db5173d0","system_id":"levelo_inurba_marseille","lat":43.282744,"lon":5.350533,"is_reserved":false,"is_disabled":false,"rental_uris":{"android":"levelo://app?vid=566e6690-491b-4f20-8a58-5297db5173d0","ios":"levelo://app?vid=566e6690-491b-4f20-8a58-5297db5173d0"},"vehicle_type_id":"4","last_reported":1678299017,"current_range_meters":7600,"station_id":"ce4bhbp2rcd13ifvqerg","pricing_plan_id":"free"},{"bike_id":"9fca2f3c-0e3a-4ec3-bc62-d07a836fe541","system_id":"levelo_inurba_marseille","lat":43.28363,"lon":5.38644,"is_reserved":false,"is_disabled":false,"rental_uris":{"android":"levelo://app?vid=9fca2f3c-0e3a-4ec3-bc62-d07a836fe541","ios":"levelo://app?vid=9fca2f3c-0e3a-4ec3-bc62-d07a836fe541"},"vehicle_type_id":"4","last_reported":1678299017,"current_range_meters":400,"station_id":"ce4bh492rcd13ifvqdvg","pricing_plan_id":"free"},{"bike_id":"e6ed2e4b-972d-4e4c-9b6f-8d6e52adfc6e","system_id":"levelo_inurba_marseille","lat":43.28038,"lon":5.36944,"is_reserved":false,"is_disabled":false,"rental_uris":{"android":"levelo://app?vid=e6ed2e4b-972d-4e4c-9b6f-8d6e52adfc6e","ios":"levelo://app?vid=e6ed2e4b-972d-4e4c-9b6f-8d6e52adfc6e"},"vehicle_type_id":"4","last_reported":1678299017,"current_range_meters":13600,"station_id":"ce4bha12rcd13ifvqef0","pricing_plan_id":"free"},{"bike_id":"2f796f69-93fb-4b36-9ad9-ffec0d251548","system_id":"levelo_inurba_marseille","lat":43.282744,"lon":5.350533,"is_reserved":false,"is_disabled":false,"rental_uris":{"android":"levelo://app?vid=2f796f69-93fb-4b36-9ad9-ffec0d251548","ios":"levelo://app?vid=2f796f69-93fb-4b36-9ad9-ffec0d251548"},"vehicle_type_id":"4","last_reported":1678299017,"current_range_meters":25600,"station_id":"ce4bhbp2rcd13ifvqerg","pricing_plan_id":"free"},{"bike_id":"c00396af-4db8-4616-9698-65055f51998a","system_id":"levelo_inurba_marseille","lat":43.280382,"lon":5.369291,"is_reserved":false,"is_disabled":false,"rental_uris":{"android":"levelo://app?vid=c00396af-4db8-4616-9698-65055f51998a","ios":"levelo://app?vid=c00396af-4db8-4616-9698-65055f51998a"},"vehicle_type_id":"4","last_reported":1678299017,"current_range_meters":26800,"station_id":"ce4bha12rcd13ifvqef0","pricing_plan_id":"free"},{"bike_id":"ab493cd2-f341-4304-932c-dadd436736de","system_id":"levelo_inurba_marseille","lat":43.280315,"lon":5.369468,"is_reserved":false,"is_disabled":false,"rental_uris":{"android":"levelo://app?vid=ab493cd2-f341-4304-932c-dadd436736de","ios":"levelo://app?vid=ab493cd2-f341-4304-932c-dadd436736de"},"vehicle_type_id":"4","last_reported":1678299017,"current_range_meters":0,"station_id":"","pricing_plan_id":"free"},{"bike_id":"d12e80fe-404f-49e1-a5d9-c4912513bded","system_id":"levelo_inurba_marseille","lat":43.296263,"lon":5.40601,"is_reserved":false,"is_disabled":false,"rental_uris":{"android":"levelo://app?vid=d12e80fe-404f-49e1-a5d9-c4912513bded","ios":"levelo://app?vid=d12e80fe-404f-49e1-a5d9-c4912513bded"},"vehicle_type_id":"4","last_reported":1678299017,"current_range_meters":11600,"station_id":"ce4bh0h2rcd13ifvqd60","pricing_plan_id":"free"},{"bike_id":"d0e19a7f-84d7-4cb9-9f96-ee4a5604acc1","system_id":"levelo_inurba_marseille","lat":43.296263,"lon":5.40601,"is_reserved":false,"is_disabled":false,"rental_uris":{"android":"levelo://app?vid=d0e19a7f-84d7-4cb9-9f96-ee4a5604acc1","ios":"levelo://app?vid=d0e19a7f-84d7-4cb9-9f96-ee4a5604acc1"},"vehicle_type_id":"4","last_reported":1678299017,"current_range_meters":10800,"station_id":"ce4bh0h2rcd13ifvqd60","pricing_plan_id":"free"},{"bike_id":"7e3aa2f9-ad40-40f7-90b6-07a7232836f0","system_id":"levelo_inurba_marseille","lat":43.296263,"lon":5.40601,"is_reserved":false,"is_disabled":false,"rental_uris":{"android":"levelo://app?vid=7e3aa2f9-ad40-40f7-90b6-07a7232836f0","ios":"levelo://app?vid=7e3aa2f9-ad40-40f7-90b6-07a7232836f0"},"vehicle_type_id":"4","last_reported":1678299017,"current_range_meters":26800,"station_id":"ce4bh0h2rcd13ifvqd60","pricing_plan_id":"free"},{"bike_id":"80e8c173-de8d-44ae-8142-fc7a51a265dd","system_id":"levelo_inurba_marseille","lat":43.33081,"lon":5.40579,"is_reserved":false,"is_disabled":false,"rental_uris":{"android":"levelo://app?vid=80e8c173-de8d-44ae-8142-fc7a51a265dd","ios":"levelo://app?vid=80e8c173-de8d-44ae-8142-fc7a51a265dd"},"vehicle_type_id":"4","last_reported":1678299017,"current_range_meters":6000,"station_id":"","pricing_plan_id":"free"},{"bike_id":"cd35d030-28bd-4e4f-8d5c-037428f36207","system_id":"levelo_inurba_marseille","lat":43.284462,"lon":5.392121,"is_reserved":false,"is_disabled":false,"rental_uris":{"android":"levelo://app?vid=cd35d030-28bd-4e4f-8d5c-037428f36207","ios":"levelo://app?vid=cd35d030-28bd-4e4f-8d5c-037428f36207"},"vehicle_type_id":"4","last_reported":1678299017,"current_range_meters":7200,"station_id":"ce4bhoh2rcd13ifvqh5g","pricing_plan_id":"free"},{"bike_id":"69d7caeb-abc2-42c8-a1bd-7db5d9a3672a","system_id":"levelo_inurba_marseille","lat":43.304188,"lon":5.412904,"is_reserved":false,"is_disabled":false,"rental_uris":{"android":"levelo://app?vid=69d7caeb-abc2-42c8-a1bd-7db5d9a3672a","ios":"levelo://app?vid=69d7caeb-abc2-42c8-a1bd-7db5d9a3672a"},"vehicle_type_id":"4","last_reported":1678299017,"current_range_meters":27200,"station_id":"ce4bhop2rcd13ifvqh8g","pricing_plan_id":"free"},{"bike_id":"0206c36e-7e49-4d42-9023-04e70a713368","system_id":"levelo_inurba_marseille","lat":43.304188,"lon":5.412904,"is_reserved":false,"is_disabled":false,"rental_uris":{"android":"levelo://app?vid=0206c36e-7e49-4d42-9023-04e70a713368","ios":"levelo://app?vid=0206c36e-7e49-4d42-9023-04e70a713368"},"vehicle_type_id":"4","last_reported":1678299017,"current_range_meters":28400,"station_id":"ce4bhop2rcd13ifvqh8g","pricing_plan_id":"free"},{"bike_id":"1482f7fe-d511-4807-925f-e6ecf3c96f92","system_id":"levelo_inurba_marseille","lat":43.304188,"lon":5.412904,"is_reserved":false,"is_disabled":false,"rental_uris":{"android":"levelo://app?vid=1482f7fe-d511-4807-925f-e6ecf3c96f92","ios":"levelo://app?vid=1482f7fe-d511-4807-925f-e6ecf3c96f92"},"vehicle_type_id":"4","last_reported":1678299017,"current_range_meters":28800,"station_id":"ce4bhop2rcd13ifvqh8g","pricing_plan_id":"free"},{"bike_id":"b00fbbdc-0f77-4741-9eb4-aceb94f17a72","system_id":"levelo_inurba_marseille","lat":43.304188,"lon":5.412904,"is_reserved":false,"is_disabled":false,"rental_uris":{"android":"levelo://app?vid=b00fbbdc-0f77-4741-9eb4-aceb94f17a72","ios":"levelo://app?vid=b00fbbdc-0f77-4741-9eb4-aceb94f17a72"},"vehicle_type_id":"4","last_reported":1678299017,"current_range_meters":27200,"station_id":"ce4bhop2rcd13ifvqh8g","pricing_plan_id":"free"},{"bike_id":"7abdb7d0-af75-42d8-874b-9dcca7a4862e","system_id":"levelo_inurba_marseille","lat":43.287154,"lon":5.399979,"is_reserved":false,"is_disabled":false,"rental_uris":{"android":"levelo://app?vid=7abdb7d0-af75-42d8-874b-9dcca7a4862e","ios":"levelo://app?vid=7abdb7d0-af75-42d8-874b-9dcca7a4862e"},"vehicle_type_id":"4","last_reported":1678299017,"current_range_meters":13200,"station_id":"ce4bho92rcd13ifvqh3g","pricing_plan_id":"free"},{"bike_id":"195e29d4-833b-4a26-8c7c-765a4d1a6188","system_id":"levelo_inurba_marseille","lat":43.287154,"lon":5.399979,"is_reserved":false,"is_disabled":false,"rental_uris":{"android":"levelo://app?vid=195e29d4-833b-4a26-8c7c-765a4d1a6188","ios":"levelo://app?vid=195e29d4-833b-4a26-8c7c-765a4d1a6188"},"vehicle_type_id":"4","last_reported":1678299017,"current_range_meters":24400,"station_id":"ce4bho92rcd13ifvqh3g","pricing_plan_id":"free"},{"bike_id":"c56e7eb7-c37b-4cac-9661-a707adb22f8e","system_id":"levelo_inurba_marseille","lat":43.287154,"lon":5.399979,"is_reserved":false,"is_disabled":false,"rental_uris":{"android":"levelo://app?vid=c56e7eb7-c37b-4cac-9661-a707adb22f8e","ios":"levelo://app?vid=c56e7eb7-c37b-4cac-9661-a707adb22f8e"},"vehicle_type_id":"4","last_reported":1678299017,"current_range_meters":31600,"station_id":"ce4bho92rcd13ifvqh3g","pricing_plan_id":"free"},{"bike_id":"62405e53-3736-4fa0-aa55-a202db39f84b","system_id":"levelo_inurba_marseille","lat":43.287154,"lon":5.399979,"is_reserved":false,"is_disabled":false,"rental_uris":{"android":"levelo://app?vid=62405e53-3736-4fa0-aa55-a202db39f84b","ios":"levelo://app?vid=62405e53-3736-4fa0-aa55-a202db39f84b"},"vehicle_type_id":"4","last_reported":1678299017,"current_range_meters":0,"station_id":"ce4bho92rcd13ifvqh3g","pricing_plan_id":"free"},{"bike_id":"2f8b6e8c-c458-4a83-b2b0-9a5bf945bc99","system_id":"levelo_inurba_marseille","lat":43.287154,"lon":5.399979,"is_reserved":false,"is_disabled":false,"rental_uris":{"android":"levelo://app?vid=2f8b6e8c-c458-4a83-b2b0-9a5bf945bc99","ios":"levelo://app?vid=2f8b6e8c-c458-4a83-b2b0-9a5bf945bc99"},"vehicle_type_id":"4","last_reported":1678299017,"current_range_meters":5200,"station_id":"ce4bho92rcd13ifvqh3g","pricing_plan_id":"free"},{"bike_id":"a41fcb47-b19e-4f90-9d9a-092e6e5740a0","system_id":"levelo_inurba_marseille","lat":43.287154,"lon":5.399979,"is_reserved":false,"is_disabled":false,"rental_uris":{"android":"levelo://app?vid=a41fcb47-b19e-4f90-9d9a-092e6e5740a0","ios":"levelo://app?vid=a41fcb47-b19e-4f90-9d9a-092e6e5740a0"},"vehicle_type_id":"4","last_reported":1678299017,"current_range_meters":22800,"station_id":"ce4bho92rcd13ifvqh3g","pricing_plan_id":"free"},{"bike_id":"8dee3af1-425b-466b-b081-e16dbe2cf72f","system_id":"levelo_inurba_marseille","lat":43.287154,"lon":5.399979,"is_reserved":false,"is_disabled":false,"rental_uris":{"android":"levelo://app?vid=8dee3af1-425b-466b-b081-e16dbe2cf72f","ios":"levelo://app?vid=8dee3af1-425b-466b-b081-e16dbe2cf72f"},"vehicle_type_id":"4","last_reported":1678299017,"current_range_meters":2400,"station_id":"ce4bho92rcd13ifvqh3g","pricing_plan_id":"free"},{"bike_id":"e89e6494-e8bd-4fd3-9d79-4cba48c7806b","system_id":"levelo_inurba_marseille","lat":43.320045,"lon":5.415048,"is_reserved":false,"is_disabled":false,"rental_uris":{"android":"levelo://app?vid=e89e6494-e8bd-4fd3-9d79-4cba48c7806b","ios":"levelo://app?vid=e89e6494-e8bd-4fd3-9d79-4cba48c7806b"},"vehicle_type_id":"4","last_reported":1678299017,"current_range_meters":16800,"station_id":"ce4bhq92rcd13ifvqhkg","pricing_plan_id":"free"},{"bike_id":"90c0d707-3a68-4e77-9dda-ed409464acb1","system_id":"levelo_inurba_marseille","lat":43.320045,"lon":5.415048,"is_reserved":false,"is_disabled":false,"rental_uris":{"android":"levelo://app?vid=90c0d707-3a68-4e77-9dda-ed409464acb1","ios":"levelo://app?vid=90c0d707-3a68-4e77-9dda-ed409464acb1"},"vehicle_type_id":"4","last_reported":1678299017,"current_range_meters":21600,"station_id":"ce4bhq92rcd13ifvqhkg","pricing_plan_id":"free"},{"bike_id":"acbd7f22-4f0f-47cc-806f-128e89b80dc0","system_id":"levelo_inurba_marseille","lat":43.320045,"lon":5.415048,"is_reserved":false,"is_disabled":false,"rental_uris":{"android":"levelo://app?vid=acbd7f22-4f0f-47cc-806f-128e89b80dc0","ios":"levelo://app?vid=acbd7f22-4f0f-47cc-806f-128e89b80dc0"},"vehicle_type_id":"4","last_reported":1678299017,"current_range_meters":6000,"station_id":"ce4bhq92rcd13ifvqhkg","pricing_plan_id":"free"},{"bike_id":"213c8c3a-8ef9-4584-80e0-c6045a5d8913","system_id":"levelo_inurba_marseille","lat":43.320045,"lon":5.415048,"is_reserved":false,"is_disabled":false,"rental_uris":{"android":"levelo://app?vid=213c8c3a-8ef9-4584-80e0-c6045a5d8913","ios":"levelo://app?vid=213c8c3a-8ef9-4584-80e0-c6045a5d8913"},"vehicle_type_id":"4","last_reported":1678299017,"current_range_meters":0,"station_id":"ce4bhq92rcd13ifvqhkg","pricing_plan_id":"free"},{"bike_id":"77c11af0-c740-43bd-9139-ed92e91e102c","system_id":"levelo_inurba_marseille","lat":43.299579,"lon":5.413255,"is_reserved":false,"is_disabled":false,"rental_uris":{"android":"levelo://app?vid=77c11af0-c740-43bd-9139-ed92e91e102c","ios":"levelo://app?vid=77c11af0-c740-43bd-9139-ed92e91e102c"},"vehicle_type_id":"4","last_reported":1678299017,"current_range_meters":26800,"station_id":"ce4bhp12rcd13ifvqh9g","pricing_plan_id":"free"},{"bike_id":"f174d869-f5b2-4c40-9292-0ae341246b1e","system_id":"levelo_inurba_marseille","lat":43.299577,"lon":5.413277,"is_reserved":false,"is_disabled":false,"rental_uris":{"android":"levelo://app?vid=f174d869-f5b2-4c40-9292-0ae341246b1e","ios":"levelo://app?vid=f174d869-f5b2-4c40-9292-0ae341246b1e"},"vehicle_type_id":"4","last_reported":1678299017,"current_range_meters":7600,"station_id":"ce4bhp12rcd13ifvqh9g","pricing_plan_id":"free"},{"bike_id":"0fc97fa7-9620-4055-90f6-36b2d17627d5","system_id":"levelo_inurba_marseille","lat":43.29266,"lon":5.40854,"is_reserved":false,"is_disabled":false,"rental_uris":{"android":"levelo://app?vid=0fc97fa7-9620-4055-90f6-36b2d17627d5","ios":"levelo://app?vid=0fc97fa7-9620-4055-90f6-36b2d17627d5"},"vehicle_type_id":"4","last_reported":1678299017,"current_range_meters":30000,"station_id":"","pricing_plan_id":"free"},{"bike_id":"0d6caec4-63e8-40fc-afa5-72ccfc1af744","system_id":"levelo_inurba_marseille","lat":43.320045,"lon":5.415048,"is_reserved":false,"is_disabled":false,"rental_uris":{"android":"levelo://app?vid=0d6caec4-63e8-40fc-afa5-72ccfc1af744","ios":"levelo://app?vid=0d6caec4-63e8-40fc-afa5-72ccfc1af744"},"vehicle_type_id":"4","last_reported":1678299017,"current_range_meters":24800,"station_id":"ce4bhq92rcd13ifvqhkg","pricing_plan_id":"free"},{"bike_id":"dc8056cb-1071-4039-b71c-4bf9395312f9","system_id":"levelo_inurba_marseille","lat":43.3254,"lon":5.4143,"is_reserved":false,"is_disabled":false,"rental_uris":{"android":"levelo://app?vid=dc8056cb-1071-4039-b71c-4bf9395312f9","ios":"levelo://app?vid=dc8056cb-1071-4039-b71c-4bf9395312f9"},"vehicle_type_id":"4","last_reported":1678299017,"current_range_meters":24000,"station_id":"","pricing_plan_id":"free"},{"bike_id":"4ba20a21-4824-4ff7-8ca5-f4b6ca62eaf6","system_id":"levelo_inurba_marseille","lat":43.3254,"lon":5.414313,"is_reserved":false,"is_disabled":false,"rental_uris":{"android":"levelo://app?vid=4ba20a21-4824-4ff7-8ca5-f4b6ca62eaf6","ios":"levelo://app?vid=4ba20a21-4824-4ff7-8ca5-f4b6ca62eaf6"},"vehicle_type_id":"4","last_reported":1678299017,"current_range_meters":19600,"station_id":"","pricing_plan_id":"free"},{"bike_id":"132c5adc-b491-4c14-96f8-31c2d46c1a00","system_id":"levelo_inurba_marseille","lat":43.3254,"lon":5.41434,"is_reserved":false,"is_disabled":false,"rental_uris":{"android":"levelo://app?vid=132c5adc-b491-4c14-96f8-31c2d46c1a00","ios":"levelo://app?vid=132c5adc-b491-4c14-96f8-31c2d46c1a00"},"vehicle_type_id":"4","last_reported":1678299017,"current_range_meters":20800,"station_id":"","pricing_plan_id":"free"},{"bike_id":"84d715f2-b24f-477e-b12b-f5374a2d8858","system_id":"levelo_inurba_marseille","lat":43.325243,"lon":5.414326,"is_reserved":false,"is_disabled":false,"rental_uris":{"android":"levelo://app?vid=84d715f2-b24f-477e-b12b-f5374a2d8858","ios":"levelo://app?vid=84d715f2-b24f-477e-b12b-f5374a2d8858"},"vehicle_type_id":"4","last_reported":1678299017,"current_range_meters":11200,"station_id":"ce4bhq12rcd13ifvqhhg","pricing_plan_id":"free"},{"bike_id":"1a6f86cc-98e2-472e-87f3-e1d00c606145","system_id":"levelo_inurba_marseille","lat":43.29257,"lon":5.40921,"is_reserved":false,"is_disabled":false,"rental_uris":{"android":"levelo://app?vid=1a6f86cc-98e2-472e-87f3-e1d00c606145","ios":"levelo://app?vid=1a6f86cc-98e2-472e-87f3-e1d00c606145"},"vehicle_type_id":"4","last_reported":1678299017,"current_range_meters":6800,"station_id":"ce4bh192rcd13ifvqdc0","pricing_plan_id":"free"},{"bike_id":"94605f5d-a913-46ad-b541-fbee4c66cc7a","system_id":"levelo_inurba_marseille","lat":43.27618,"lon":5.361009,"is_reserved":false,"is_disabled":false,"rental_uris":{"android":"levelo://app?vid=94605f5d-a913-46ad-b541-fbee4c66cc7a","ios":"levelo://app?vid=94605f5d-a913-46ad-b541-fbee4c66cc7a"},"vehicle_type_id":"4","last_reported":1678299017,"current_range_meters":18800,"station_id":"ce4bgj92rcd13ifvqbe0","pricing_plan_id":"free"},{"bike_id":"dc4e674d-62f9-47bb-9b7e-651cf8c6dc1e","system_id":"levelo_inurba_marseille","lat":43.27618,"lon":5.361009,"is_reserved":false,"is_disabled":false,"rental_uris":{"android":"levelo://app?vid=dc4e674d-62f9-47bb-9b7e-651cf8c6dc1e","ios":"levelo://app?vid=dc4e674d-62f9-47bb-9b7e-651cf8c6dc1e"},"vehicle_type_id":"4","last_reported":1678299017,"current_range_meters":24000,"station_id":"ce4bgj92rcd13ifvqbe0","pricing_plan_id":"free"},{"bike_id":"b9289d6c-4ea1-4629-acd3-8f3e70c88052","system_id":"levelo_inurba_marseille","lat":43.280784,"lon":5.396622,"is_reserved":false,"is_disabled":false,"rental_uris":{"android":"levelo://app?vid=b9289d6c-4ea1-4629-acd3-8f3e70c88052","ios":"levelo://app?vid=b9289d6c-4ea1-4629-acd3-8f3e70c88052"},"vehicle_type_id":"4","last_reported":1678299017,"current_range_meters":16000,"station_id":"ce4bho12rcd13ifvqh2g","pricing_plan_id":"free"},{"bike_id":"90253cad-d08e-4e47-b30f-0e67bde524e7","system_id":"levelo_inurba_marseille","lat":43.280902,"lon":5.396768,"is_reserved":false,"is_disabled":false,"rental_uris":{"android":"levelo://app?vid=90253cad-d08e-4e47-b30f-0e67bde524e7","ios":"levelo://app?vid=90253cad-d08e-4e47-b30f-0e67bde524e7"},"vehicle_type_id":"4","last_reported":1678299017,"current_range_meters":20400,"station_id":"ce4bho12rcd13ifvqh2g","pricing_plan_id":"free"},{"bike_id":"94d6cf75-954e-4d1d-8680-2896140f63b1","system_id":"levelo_inurba_marseille","lat":43.280784,"lon":5.396622,"is_reserved":false,"is_disabled":false,"rental_uris":{"android":"levelo://app?vid=94d6cf75-954e-4d1d-8680-2896140f63b1","ios":"levelo://app?vid=94d6cf75-954e-4d1d-8680-2896140f63b1"},"vehicle_type_id":"4","last_reported":1678299017,"current_range_meters":11200,"station_id":"ce4bho12rcd13ifvqh2g","pricing_plan_id":"free"},{"bike_id":"41af1e1a-f841-4ec4-add1-81551225a30e","system_id":"levelo_inurba_marseille","lat":43.280784,"lon":5.396622,"is_reserved":false,"is_disabled":false,"rental_uris":{"android":"levelo://app?vid=41af1e1a-f841-4ec4-add1-81551225a30e","ios":"levelo://app?vid=41af1e1a-f841-4ec4-add1-81551225a30e"},"vehicle_type_id":"4","last_reported":1678299017,"current_range_meters":18000,"station_id":"ce4bho12rcd13ifvqh2g","pricing_plan_id":"free"},{"bike_id":"32c5cce8-29ba-4a26-80f5-ced3f8bb257d","system_id":"levelo_inurba_marseille","lat":43.280784,"lon":5.396622,"is_reserved":false,"is_disabled":false,"rental_uris":{"android":"levelo://app?vid=32c5cce8-29ba-4a26-80f5-ced3f8bb257d","ios":"levelo://app?vid=32c5cce8-29ba-4a26-80f5-ced3f8bb257d"},"vehicle_type_id":"4","last_reported":1678299017,"current_range_meters":24000,"station_id":"ce4bho12rcd13ifvqh2g","pricing_plan_id":"free"},{"bike_id":"4f638856-c3d2-4010-9df9-f155876256f6","system_id":"levelo_inurba_marseille","lat":43.280784,"lon":5.396622,"is_reserved":false,"is_disabled":false,"rental_uris":{"android":"levelo://app?vid=4f638856-c3d2-4010-9df9-f155876256f6","ios":"levelo://app?vid=4f638856-c3d2-4010-9df9-f155876256f6"},"vehicle_type_id":"4","last_reported":1678299017,"current_range_meters":20000,"station_id":"ce4bho12rcd13ifvqh2g","pricing_plan_id":"free"},{"bike_id":"ee760f12-723e-41c8-a896-c7e7ba2012f8","system_id":"levelo_inurba_marseille","lat":43.276769,"lon":5.388787,"is_reserved":false,"is_disabled":false,"rental_uris":{"android":"levelo://app?vid=ee760f12-723e-41c8-a896-c7e7ba2012f8","ios":"levelo://app?vid=ee760f12-723e-41c8-a896-c7e7ba2012f8"},"vehicle_type_id":"4","last_reported":1678299017,"current_range_meters":16800,"station_id":"ce4bhi12rcd13ifvqfo0","pricing_plan_id":"free"},{"bike_id":"740984c9-4fb2-4dfb-b0d9-db12956cb154","system_id":"levelo_inurba_marseille","lat":43.33606,"lon":5.41036,"is_reserved":false,"is_disabled":false,"rental_uris":{"android":"levelo://app?vid=740984c9-4fb2-4dfb-b0d9-db12956cb154","ios":"levelo://app?vid=740984c9-4fb2-4dfb-b0d9-db12956cb154"},"vehicle_type_id":"4","last_reported":1678299017,"current_range_meters":6800,"station_id":"ce4bhqh2rcd13ifvqhmg","pricing_plan_id":"free"},{"bike_id":"ca3373f3-1fd0-4640-bf3a-ad3de4122156","system_id":"levelo_inurba_marseille","lat":43.33609,"lon":5.41036,"is_reserved":false,"is_disabled":false,"rental_uris":{"android":"levelo://app?vid=ca3373f3-1fd0-4640-bf3a-ad3de4122156","ios":"levelo://app?vid=ca3373f3-1fd0-4640-bf3a-ad3de4122156"},"vehicle_type_id":"4","last_reported":1678299017,"current_range_meters":23600,"station_id":"ce4bhqh2rcd13ifvqhmg","pricing_plan_id":"free"},{"bike_id":"a7850581-e2e6-4c45-a1b8-f8f7b873b88b","system_id":"levelo_inurba_marseille","lat":43.276771,"lon":5.388799,"is_reserved":false,"is_disabled":false,"rental_uris":{"android":"levelo://app?vid=a7850581-e2e6-4c45-a1b8-f8f7b873b88b","ios":"levelo://app?vid=a7850581-e2e6-4c45-a1b8-f8f7b873b88b"},"vehicle_type_id":"4","last_reported":1678299017,"current_range_meters":23200,"station_id":"ce4bhi12rcd13ifvqfo0","pricing_plan_id":"free"},{"bike_id":"8a425cbe-988d-499e-bee1-dca62b13dc0e","system_id":"levelo_inurba_marseille","lat":43.304212,"lon":5.425682,"is_reserved":false,"is_disabled":false,"rental_uris":{"android":"levelo://app?vid=8a425cbe-988d-499e-bee1-dca62b13dc0e","ios":"levelo://app?vid=8a425cbe-988d-499e-bee1-dca62b13dc0e"},"vehicle_type_id":"4","last_reported":1678299017,"current_range_meters":14000,"station_id":"","pricing_plan_id":"free"},{"bike_id":"862b853d-c149-441f-8637-ec914f10a890","system_id":"levelo_inurba_marseille","lat":43.2955,"lon":5.42288,"is_reserved":false,"is_disabled":false,"rental_uris":{"android":"levelo://app?vid=862b853d-c149-441f-8637-ec914f10a890","ios":"levelo://app?vid=862b853d-c149-441f-8637-ec914f10a890"},"vehicle_type_id":"4","last_reported":1678299017,"current_range_meters":12000,"station_id":"ce4bhph2rcd13ifvqhdg","pricing_plan_id":"free"},{"bike_id":"6db3a49a-279b-47a6-859d-e0d85fb97048","system_id":"levelo_inurba_marseille","lat":43.295523,"lon":5.422926,"is_reserved":false,"is_disabled":false,"rental_uris":{"android":"levelo://app?vid=6db3a49a-279b-47a6-859d-e0d85fb97048","ios":"levelo://app?vid=6db3a49a-279b-47a6-859d-e0d85fb97048"},"vehicle_type_id":"4","last_reported":1678299017,"current_range_meters":31200,"station_id":"ce4bhph2rcd13ifvqhdg","pricing_plan_id":"free"},{"bike_id":"0d8e4ed2-0cd2-4428-a744-d5c93623ce5e","system_id":"levelo_inurba_marseille","lat":43.295559,"lon":5.422992,"is_reserved":false,"is_disabled":false,"rental_uris":{"android":"levelo://app?vid=0d8e4ed2-0cd2-4428-a744-d5c93623ce5e","ios":"levelo://app?vid=0d8e4ed2-0cd2-4428-a744-d5c93623ce5e"},"vehicle_type_id":"4","last_reported":1678299017,"current_range_meters":30400,"station_id":"ce4bhph2rcd13ifvqhdg","pricing_plan_id":"free"},{"bike_id":"7991c0ec-30df-4f21-9e32-3613794942e8","system_id":"levelo_inurba_marseille","lat":43.27814,"lon":5.40716,"is_reserved":false,"is_disabled":false,"rental_uris":{"android":"levelo://app?vid=7991c0ec-30df-4f21-9e32-3613794942e8","ios":"levelo://app?vid=7991c0ec-30df-4f21-9e32-3613794942e8"},"vehicle_type_id":"4","last_reported":1678299017,"current_range_meters":22800,"station_id":"","pricing_plan_id":"free"},{"bike_id":"427f80ac-2530-46d7-8339-1a641a54b02b","system_id":"levelo_inurba_marseille","lat":43.2781,"lon":5.4071,"is_reserved":false,"is_disabled":false,"rental_uris":{"android":"levelo://app?vid=427f80ac-2530-46d7-8339-1a641a54b02b","ios":"levelo://app?vid=427f80ac-2530-46d7-8339-1a641a54b02b"},"vehicle_type_id":"4","last_reported":1678299017,"current_range_meters":10800,"station_id":"","pricing_plan_id":"free"},{"bike_id":"51d50d76-e771-4c0e-9fee-cdbf327ef1b2","system_id":"levelo_inurba_marseille","lat":43.27812,"lon":5.40714,"is_reserved":false,"is_disabled":false,"rental_uris":{"android":"levelo://app?vid=51d50d76-e771-4c0e-9fee-cdbf327ef1b2","ios":"levelo://app?vid=51d50d76-e771-4c0e-9fee-cdbf327ef1b2"},"vehicle_type_id":"4","last_reported":1678299017,"current_range_meters":16800,"station_id":"","pricing_plan_id":"free"},{"bike_id":"e426c432-06d8-4127-9e8e-605087cc51cd","system_id":"levelo_inurba_marseille","lat":43.27814,"lon":5.40718,"is_reserved":false,"is_disabled":false,"rental_uris":{"android":"levelo://app?vid=e426c432-06d8-4127-9e8e-605087cc51cd","ios":"levelo://app?vid=e426c432-06d8-4127-9e8e-605087cc51cd"},"vehicle_type_id":"4","last_reported":1678299017,"current_range_meters":9200,"station_id":"ce4bhnh2rcd13ifvqgtg","pricing_plan_id":"free"},{"bike_id":"155b9fd7-e52c-4811-ad4c-891560621344","system_id":"levelo_inurba_marseille","lat":43.27811,"lon":5.40714,"is_reserved":false,"is_disabled":false,"rental_uris":{"android":"levelo://app?vid=155b9fd7-e52c-4811-ad4c-891560621344","ios":"levelo://app?vid=155b9fd7-e52c-4811-ad4c-891560621344"},"vehicle_type_id":"4","last_reported":1678299017,"current_range_meters":9600,"station_id":"","pricing_plan_id":"free"},{"bike_id":"db0993e9-34b0-4940-986d-86a9144ee5ae","system_id":"levelo_inurba_marseille","lat":43.2781,"lon":5.40714,"is_reserved":false,"is_disabled":false,"rental_uris":{"android":"levelo://app?vid=db0993e9-34b0-4940-986d-86a9144ee5ae","ios":"levelo://app?vid=db0993e9-34b0-4940-986d-86a9144ee5ae"},"vehicle_type_id":"4","last_reported":1678299017,"current_range_meters":20800,"station_id":"ce4bhnh2rcd13ifvqgtg","pricing_plan_id":"free"},{"bike_id":"4a72ca55-3633-4499-864c-605b95369dd2","system_id":"levelo_inurba_marseille","lat":43.27995,"lon":5.416677,"is_reserved":false,"is_disabled":false,"rental_uris":{"android":"levelo://app?vid=4a72ca55-3633-4499-864c-605b95369dd2","ios":"levelo://app?vid=4a72ca55-3633-4499-864c-605b95369dd2"},"vehicle_type_id":"4","last_reported":1678299017,"current_range_meters":400,"station_id":"","pricing_plan_id":"free"},{"bike_id":"b6ca4edf-3873-4ff3-ad00-2cfb91b1764f","system_id":"levelo_inurba_marseille","lat":43.27991,"lon":5.41663,"is_reserved":false,"is_disabled":false,"rental_uris":{"android":"levelo://app?vid=b6ca4edf-3873-4ff3-ad00-2cfb91b1764f","ios":"levelo://app?vid=b6ca4edf-3873-4ff3-ad00-2cfb91b1764f"},"vehicle_type_id":"4","last_reported":1678299017,"current_range_meters":23600,"station_id":"","pricing_plan_id":"free"},{"bike_id":"275956ca-ff31-494b-9f05-e3b3360f5653","system_id":"levelo_inurba_marseille","lat":43.265745,"lon":5.390101,"is_reserved":false,"is_disabled":false,"rental_uris":{"android":"levelo://app?vid=275956ca-ff31-494b-9f05-e3b3360f5653","ios":"levelo://app?vid=275956ca-ff31-494b-9f05-e3b3360f5653"},"vehicle_type_id":"4","last_reported":1678299017,"current_range_meters":14800,"station_id":"","pricing_plan_id":"free"},{"bike_id":"a62eec58-46e0-49f1-b147-141ee0706ad3","system_id":"levelo_inurba_marseille","lat":43.308051,"lon":5.43527,"is_reserved":false,"is_disabled":false,"rental_uris":{"android":"levelo://app?vid=a62eec58-46e0-49f1-b147-141ee0706ad3","ios":"levelo://app?vid=a62eec58-46e0-49f1-b147-141ee0706ad3"},"vehicle_type_id":"4","last_reported":1678299017,"current_range_meters":18800,"station_id":"ce4bhph2rcd13ifvqheg","pricing_plan_id":"free"},{"bike_id":"0c3802fd-aa02-425d-97c2-cb2a0cdb59ae","system_id":"levelo_inurba_marseille","lat":43.308051,"lon":5.43527,"is_reserved":false,"is_disabled":false,"rental_uris":{"android":"levelo://app?vid=0c3802fd-aa02-425d-97c2-cb2a0cdb59ae","ios":"levelo://app?vid=0c3802fd-aa02-425d-97c2-cb2a0cdb59ae"},"vehicle_type_id":"4","last_reported":1678299017,"current_range_meters":22000,"station_id":"ce4bhph2rcd13ifvqheg","pricing_plan_id":"free"},{"bike_id":"534aac48-865d-4bc8-a4d0-d64e46725bb9","system_id":"levelo_inurba_marseille","lat":43.308051,"lon":5.43527,"is_reserved":false,"is_disabled":false,"rental_uris":{"android":"levelo://app?vid=534aac48-865d-4bc8-a4d0-d64e46725bb9","ios":"levelo://app?vid=534aac48-865d-4bc8-a4d0-d64e46725bb9"},"vehicle_type_id":"4","last_reported":1678299017,"current_range_meters":16800,"station_id":"ce4bhph2rcd13ifvqheg","pricing_plan_id":"free"},{"bike_id":"3ae67a75-6ae5-4ae0-ace7-31624e22e5ed","system_id":"levelo_inurba_marseille","lat":43.261782,"lon":5.374515,"is_reserved":false,"is_disabled":false,"rental_uris":{"android":"levelo://app?vid=3ae67a75-6ae5-4ae0-ace7-31624e22e5ed","ios":"levelo://app?vid=3ae67a75-6ae5-4ae0-ace7-31624e22e5ed"},"vehicle_type_id":"4","last_reported":1678299017,"current_range_meters":14400,"station_id":"ce4bhgp2rcd13ifvqfc0","pricing_plan_id":"free"},{"bike_id":"d7a8dd85-e7df-46a4-a5b4-31dcfbdb9b21","system_id":"levelo_inurba_marseille","lat":43.31711,"lon":5.43703,"is_reserved":false,"is_disabled":false,"rental_uris":{"android":"levelo://app?vid=d7a8dd85-e7df-46a4-a5b4-31dcfbdb9b21","ios":"levelo://app?vid=d7a8dd85-e7df-46a4-a5b4-31dcfbdb9b21"},"vehicle_type_id":"4","last_reported":1678299017,"current_range_meters":19600,"station_id":"ce4bhp92rcd13ifvqhcg","pricing_plan_id":"free"},{"bike_id":"3654c310-85ce-4320-a12c-e50b2afd8b34","system_id":"levelo_inurba_marseille","lat":43.317104,"lon":5.436818,"is_reserved":false,"is_disabled":false,"rental_uris":{"android":"levelo://app?vid=3654c310-85ce-4320-a12c-e50b2afd8b34","ios":"levelo://app?vid=3654c310-85ce-4320-a12c-e50b2afd8b34"},"vehicle_type_id":"4","last_reported":1678299017,"current_range_meters":22000,"station_id":"ce4bhp92rcd13ifvqhcg","pricing_plan_id":"free"},{"bike_id":"a65802aa-bb26-490c-a2d8-8217d337afc7","system_id":"levelo_inurba_marseille","lat":43.317104,"lon":5.436818,"is_reserved":false,"is_disabled":false,"rental_uris":{"android":"levelo://app?vid=a65802aa-bb26-490c-a2d8-8217d337afc7","ios":"levelo://app?vid=a65802aa-bb26-490c-a2d8-8217d337afc7"},"vehicle_type_id":"4","last_reported":1678299017,"current_range_meters":23200,"station_id":"ce4bhp92rcd13ifvqhcg","pricing_plan_id":"free"},{"bike_id":"8caef8d6-af78-462d-b769-f1fdd03e6982","system_id":"levelo_inurba_marseille","lat":43.317104,"lon":5.436818,"is_reserved":false,"is_disabled":false,"rental_uris":{"android":"levelo://app?vid=8caef8d6-af78-462d-b769-f1fdd03e6982","ios":"levelo://app?vid=8caef8d6-af78-462d-b769-f1fdd03e6982"},"vehicle_type_id":"4","last_reported":1678299017,"current_range_meters":26800,"station_id":"ce4bhp92rcd13ifvqhcg","pricing_plan_id":"free"},{"bike_id":"a8c511ef-8dab-47b3-8ac6-f92a2ffabf7f","system_id":"levelo_inurba_marseille","lat":43.31712,"lon":5.43709,"is_reserved":false,"is_disabled":false,"rental_uris":{"android":"levelo://app?vid=a8c511ef-8dab-47b3-8ac6-f92a2ffabf7f","ios":"levelo://app?vid=a8c511ef-8dab-47b3-8ac6-f92a2ffabf7f"},"vehicle_type_id":"4","last_reported":1678299017,"current_range_meters":9600,"station_id":"","pricing_plan_id":"free"},{"bike_id":"83726807-8950-419a-87a9-802ee606a2a2","system_id":"levelo_inurba_marseille","lat":43.267959,"lon":5.402687,"is_reserved":false,"is_disabled":false,"rental_uris":{"android":"levelo://app?vid=83726807-8950-419a-87a9-802ee606a2a2","ios":"levelo://app?vid=83726807-8950-419a-87a9-802ee606a2a2"},"vehicle_type_id":"4","last_reported":1678299017,"current_range_meters":22800,"station_id":"ce501612rcd8frsf0b60","pricing_plan_id":"free"},{"bike_id":"9a776b99-5440-46ba-a097-1062f7e2a10e","system_id":"levelo_inurba_marseille","lat":43.267959,"lon":5.402687,"is_reserved":false,"is_disabled":false,"rental_uris":{"android":"levelo://app?vid=9a776b99-5440-46ba-a097-1062f7e2a10e","ios":"levelo://app?vid=9a776b99-5440-46ba-a097-1062f7e2a10e"},"vehicle_type_id":"4","last_reported":1678299017,"current_range_meters":25600,"station_id":"ce501612rcd8frsf0b60","pricing_plan_id":"free"},{"bike_id":"711a7682-4198-43d7-ad50-36e8b9ce06c0","system_id":"levelo_inurba_marseille","lat":43.260797,"lon":5.393958,"is_reserved":false,"is_disabled":false,"rental_uris":{"android":"levelo://app?vid=711a7682-4198-43d7-ad50-36e8b9ce06c0","ios":"levelo://app?vid=711a7682-4198-43d7-ad50-36e8b9ce06c0"},"vehicle_type_id":"4","last_reported":1678299017,"current_range_meters":14800,"station_id":"ce4bhh92rcd13ifvqfj0","pricing_plan_id":"free"},{"bike_id":"215e6722-7765-4163-bbb8-9b2263b6a8da","system_id":"levelo_inurba_marseille","lat":43.2607,"lon":5.39395,"is_reserved":false,"is_disabled":false,"rental_uris":{"android":"levelo://app?vid=215e6722-7765-4163-bbb8-9b2263b6a8da","ios":"levelo://app?vid=215e6722-7765-4163-bbb8-9b2263b6a8da"},"vehicle_type_id":"4","last_reported":1678299017,"current_range_meters":16800,"station_id":"ce4bhh92rcd13ifvqfj0","pricing_plan_id":"free"},{"bike_id":"cab662f1-1009-4da4-85bc-9ac87260c3d1","system_id":"levelo_inurba_marseille","lat":43.2607,"lon":5.393983,"is_reserved":false,"is_disabled":false,"rental_uris":{"android":"levelo://app?vid=cab662f1-1009-4da4-85bc-9ac87260c3d1","ios":"levelo://app?vid=cab662f1-1009-4da4-85bc-9ac87260c3d1"},"vehicle_type_id":"4","last_reported":1678299017,"current_range_meters":16400,"station_id":"ce4bhh92rcd13ifvqfj0","pricing_plan_id":"free"},{"bike_id":"54dccc2f-1187-4799-bdbc-71108337d5f0","system_id":"levelo_inurba_marseille","lat":43.26062,"lon":5.39394,"is_reserved":false,"is_disabled":false,"rental_uris":{"android":"levelo://app?vid=54dccc2f-1187-4799-bdbc-71108337d5f0","ios":"levelo://app?vid=54dccc2f-1187-4799-bdbc-71108337d5f0"},"vehicle_type_id":"4","last_reported":1678299017,"current_range_meters":26800,"station_id":"ce4bhh92rcd13ifvqfj0","pricing_plan_id":"free"},{"bike_id":"dceaeecc-ce04-4b0f-8996-13181bcbd2e2","system_id":"levelo_inurba_marseille","lat":43.2607,"lon":5.393983,"is_reserved":false,"is_disabled":false,"rental_uris":{"android":"levelo://app?vid=dceaeecc-ce04-4b0f-8996-13181bcbd2e2","ios":"levelo://app?vid=dceaeecc-ce04-4b0f-8996-13181bcbd2e2"},"vehicle_type_id":"4","last_reported":1678299017,"current_range_meters":24000,"station_id":"ce4bhh92rcd13ifvqfj0","pricing_plan_id":"free"},{"bike_id":"9cccc950-33ec-4db0-89f8-d9677f380489","system_id":"levelo_inurba_marseille","lat":43.2607,"lon":5.393983,"is_reserved":false,"is_disabled":false,"rental_uris":{"android":"levelo://app?vid=9cccc950-33ec-4db0-89f8-d9677f380489","ios":"levelo://app?vid=9cccc950-33ec-4db0-89f8-d9677f380489"},"vehicle_type_id":"4","last_reported":1678299017,"current_range_meters":19200,"station_id":"ce4bhh92rcd13ifvqfj0","pricing_plan_id":"free"},{"bike_id":"4fdd6726-c14f-4ce3-9bed-86a6b90ecd81","system_id":"levelo_inurba_marseille","lat":43.26061,"lon":5.394,"is_reserved":false,"is_disabled":false,"rental_uris":{"android":"levelo://app?vid=4fdd6726-c14f-4ce3-9bed-86a6b90ecd81","ios":"levelo://app?vid=4fdd6726-c14f-4ce3-9bed-86a6b90ecd81"},"vehicle_type_id":"4","last_reported":1678299017,"current_range_meters":0,"station_id":"","pricing_plan_id":"free"},{"bike_id":"3c4545f8-33b8-41a6-a2cf-878df1e4e46c","system_id":"levelo_inurba_marseille","lat":43.2607,"lon":5.393983,"is_reserved":false,"is_disabled":false,"rental_uris":{"android":"levelo://app?vid=3c4545f8-33b8-41a6-a2cf-878df1e4e46c","ios":"levelo://app?vid=3c4545f8-33b8-41a6-a2cf-878df1e4e46c"},"vehicle_type_id":"4","last_reported":1678299017,"current_range_meters":22400,"station_id":"ce4bhh92rcd13ifvqfj0","pricing_plan_id":"free"},{"bike_id":"3d6fbfb9-1142-4cc9-8cac-6b4e4739137c","system_id":"levelo_inurba_marseille","lat":43.2607,"lon":5.393983,"is_reserved":false,"is_disabled":false,"rental_uris":{"android":"levelo://app?vid=3d6fbfb9-1142-4cc9-8cac-6b4e4739137c","ios":"levelo://app?vid=3d6fbfb9-1142-4cc9-8cac-6b4e4739137c"},"vehicle_type_id":"4","last_reported":1678299017,"current_range_meters":26000,"station_id":"ce4bhh92rcd13ifvqfj0","pricing_plan_id":"free"},{"bike_id":"df1f01b8-0b47-4f69-8c35-edea30293e87","system_id":"levelo_inurba_marseille","lat":43.2607,"lon":5.393983,"is_reserved":false,"is_disabled":false,"rental_uris":{"android":"levelo://app?vid=df1f01b8-0b47-4f69-8c35-edea30293e87","ios":"levelo://app?vid=df1f01b8-0b47-4f69-8c35-edea30293e87"},"vehicle_type_id":"4","last_reported":1678299017,"current_range_meters":16800,"station_id":"ce4bhh92rcd13ifvqfj0","pricing_plan_id":"free"},{"bike_id":"f10867ef-505d-4c26-ab34-16060760ab57","system_id":"levelo_inurba_marseille","lat":43.2607,"lon":5.393983,"is_reserved":false,"is_disabled":false,"rental_uris":{"android":"levelo://app?vid=f10867ef-505d-4c26-ab34-16060760ab57","ios":"levelo://app?vid=f10867ef-505d-4c26-ab34-16060760ab57"},"vehicle_type_id":"4","last_reported":1678299017,"current_range_meters":12000,"station_id":"ce4bhh92rcd13ifvqfj0","pricing_plan_id":"free"},{"bike_id":"80e645da-452e-4f27-915b-1e49cdb02f25","system_id":"levelo_inurba_marseille","lat":43.260909,"lon":5.397591,"is_reserved":false,"is_disabled":false,"rental_uris":{"android":"levelo://app?vid=80e645da-452e-4f27-915b-1e49cdb02f25","ios":"levelo://app?vid=80e645da-452e-4f27-915b-1e49cdb02f25"},"vehicle_type_id":"4","last_reported":1678299017,"current_range_meters":14800,"station_id":"ce4bhi12rcd13ifvqfq0","pricing_plan_id":"free"},{"bike_id":"90aeb8cb-31cb-4a30-8041-e80e1f070d9e","system_id":"levelo_inurba_marseille","lat":43.255894,"lon":5.382296,"is_reserved":false,"is_disabled":false,"rental_uris":{"android":"levelo://app?vid=90aeb8cb-31cb-4a30-8041-e80e1f070d9e","ios":"levelo://app?vid=90aeb8cb-31cb-4a30-8041-e80e1f070d9e"},"vehicle_type_id":"4","last_reported":1678299017,"current_range_meters":19600,"station_id":"","pricing_plan_id":"free"},{"bike_id":"0ae9f5d7-f1d9-44f1-8d33-aeb8939a6f3c","system_id":"levelo_inurba_marseille","lat":43.255847,"lon":5.382357,"is_reserved":false,"is_disabled":false,"rental_uris":{"android":"levelo://app?vid=0ae9f5d7-f1d9-44f1-8d33-aeb8939a6f3c","ios":"levelo://app?vid=0ae9f5d7-f1d9-44f1-8d33-aeb8939a6f3c"},"vehicle_type_id":"4","last_reported":1678299017,"current_range_meters":19600,"station_id":"","pricing_plan_id":"free"},{"bike_id":"55693d48-c3b5-4519-b7cc-15eedeba2b0e","system_id":"levelo_inurba_marseille","lat":43.255853,"lon":5.38241,"is_reserved":false,"is_disabled":false,"rental_uris":{"android":"levelo://app?vid=55693d48-c3b5-4519-b7cc-15eedeba2b0e","ios":"levelo://app?vid=55693d48-c3b5-4519-b7cc-15eedeba2b0e"},"vehicle_type_id":"4","last_reported":1678299017,"current_range_meters":7200,"station_id":"","pricing_plan_id":"free"},{"bike_id":"3db0885c-1df9-48a5-a97f-6745a2eae86b","system_id":"levelo_inurba_marseille","lat":43.255848,"lon":5.38239,"is_reserved":false,"is_disabled":false,"rental_uris":{"android":"levelo://app?vid=3db0885c-1df9-48a5-a97f-6745a2eae86b","ios":"levelo://app?vid=3db0885c-1df9-48a5-a97f-6745a2eae86b"},"vehicle_type_id":"4","last_reported":1678299017,"current_range_meters":1200,"station_id":"ce4bhih2rcd13ifvqfs0","pricing_plan_id":"free"},{"bike_id":"3f62f493-6220-4313-9142-7439e2cae5bc","system_id":"levelo_inurba_marseille","lat":43.25584,"lon":5.38241,"is_reserved":false,"is_disabled":false,"rental_uris":{"android":"levelo://app?vid=3f62f493-6220-4313-9142-7439e2cae5bc","ios":"levelo://app?vid=3f62f493-6220-4313-9142-7439e2cae5bc"},"vehicle_type_id":"4","last_reported":1678299017,"current_range_meters":8800,"station_id":"ce4bhih2rcd13ifvqfs0","pricing_plan_id":"free"},{"bike_id":"27ed73cb-d42c-4522-9195-086c76229041","system_id":"levelo_inurba_marseille","lat":43.25582,"lon":5.38231,"is_reserved":false,"is_disabled":false,"rental_uris":{"android":"levelo://app?vid=27ed73cb-d42c-4522-9195-086c76229041","ios":"levelo://app?vid=27ed73cb-d42c-4522-9195-086c76229041"},"vehicle_type_id":"4","last_reported":1678299017,"current_range_meters":19600,"station_id":"ce4bhih2rcd13ifvqfs0","pricing_plan_id":"free"},{"bike_id":"3a036f11-b48f-4213-816b-6561d9210431","system_id":"levelo_inurba_marseille","lat":43.25584,"lon":5.38245,"is_reserved":false,"is_disabled":false,"rental_uris":{"android":"levelo://app?vid=3a036f11-b48f-4213-816b-6561d9210431","ios":"levelo://app?vid=3a036f11-b48f-4213-816b-6561d9210431"},"vehicle_type_id":"4","last_reported":1678299017,"current_range_meters":2400,"station_id":"","pricing_plan_id":"free"},{"bike_id":"3ff7ef4d-e40e-42ff-b62f-b05025f1ccad","system_id":"levelo_inurba_marseille","lat":43.255821,"lon":5.382393,"is_reserved":false,"is_disabled":false,"rental_uris":{"android":"levelo://app?vid=3ff7ef4d-e40e-42ff-b62f-b05025f1ccad","ios":"levelo://app?vid=3ff7ef4d-e40e-42ff-b62f-b05025f1ccad"},"vehicle_type_id":"4","last_reported":1678299017,"current_range_meters":20400,"station_id":"","pricing_plan_id":"free"},{"bike_id":"bab9eb0c-4223-4b1c-947f-fbd1e3dbafd1","system_id":"levelo_inurba_marseille","lat":43.255756,"lon":5.382303,"is_reserved":false,"is_disabled":false,"rental_uris":{"android":"levelo://app?vid=bab9eb0c-4223-4b1c-947f-fbd1e3dbafd1","ios":"levelo://app?vid=bab9eb0c-4223-4b1c-947f-fbd1e3dbafd1"},"vehicle_type_id":"4","last_reported":1678299017,"current_range_meters":27600,"station_id":"ce4bhih2rcd13ifvqfs0","pricing_plan_id":"free"},{"bike_id":"a82dc591-6afe-4147-93fc-afa955bc24d6","system_id":"levelo_inurba_marseille","lat":43.25581,"lon":5.38237,"is_reserved":false,"is_disabled":false,"rental_uris":{"android":"levelo://app?vid=a82dc591-6afe-4147-93fc-afa955bc24d6","ios":"levelo://app?vid=a82dc591-6afe-4147-93fc-afa955bc24d6"},"vehicle_type_id":"4","last_reported":1678299017,"current_range_meters":800,"station_id":"ce4bhih2rcd13ifvqfs0","pricing_plan_id":"free"},{"bike_id":"18e33ee2-5724-4ed6-bdc8-a7314c505a94","system_id":"levelo_inurba_marseille","lat":43.255756,"lon":5.382303,"is_reserved":false,"is_disabled":false,"rental_uris":{"android":"levelo://app?vid=18e33ee2-5724-4ed6-bdc8-a7314c505a94","ios":"levelo://app?vid=18e33ee2-5724-4ed6-bdc8-a7314c505a94"},"vehicle_type_id":"4","last_reported":1678299017,"current_range_meters":26000,"station_id":"ce4bhih2rcd13ifvqfs0","pricing_plan_id":"free"},