{"last_updated":1744701044,"ttl":60,"version":"2.2","data":{"bikes":[{"bike_id":"76450c2c-888f-4d08-a5c0-d825237615aa","system_id":"levelo_inurba_marseille","lat":43.272262,"lon":5.423016,"is_reserved":false,"is_disabled":false,"rental_uris":{"android":"levelo://app?vid=76450c2c-888f-4d08-a5c0-d825237615aa","ios":"levelo://app?vid=76450c2c-888f-4d08-a5c0-d825237615aa"},"vehicle_type_id":"4","last_reported":1744701044,"current_range_meters":2800,"station_id":"","pricing_plan_id":"cebpf4jnsgd1na2vs0mg"},{"bike_id":"65bcea37-3434-41b4-a9ba-9b9e23ff0f93","system_id":"levelo_inurba_marseille","lat":43.27205,"lon":5.39165,"is_reserved":false,"is_disabled":false,"rental_uris":{"android":"levelo://app?vid=65bcea37-3434-41b4-a9ba-9b9e23ff0f93","ios":"levelo://app?vid=65bcea37-3434-41b4-a9ba-9b9e23ff0f93"},"vehicle_type_id":"4","last_reported":1744701044,"current_range_meters":2800,"station_id":"ce4bhhp2rcd13ifvqfm0","pricing_plan_id":"cebpf4jnsgd1na2vs0mg"},{"bike_id":"d40b85d3-dd46-46b7-ab66-296b73f7687a","system_id":"levelo_inurba_marseille","lat":43.30441,"lon":5.37908,"is_reserved":false,"is_disabled":false,"rental_uris":{"android":"levelo://app?vid=d40b85d3-dd46-46b7-ab66-296b73f7687a","ios":"levelo://app?vid=d40b85d3-dd46-46b7-ab66-296b73f7687a"},"vehicle_type_id":"4","last_reported":1744701044,"current_range_meters":3200,"station_id":"ce4bgup2rcd13ifvqcn0","pricing_plan_id":"cebpf4jnsgd1na2vs0mg"},{"bike_id":"8790ea9d-ddb1-4ad9-8ef3-439366a1b5f3","system_id":"levelo_inurba_marseille","lat":43.24974,"lon":5.38938,"is_reserved":false,"is_disabled":false,"rental_uris":{"android":"levelo://app?vid=8790ea9d-ddb1-4ad9-8ef3-439366a1b5f3","ios":"levelo://app?vid=8790ea9d-ddb1-4ad9-8ef3-439366a1b5f3"},"vehicle_type_id":"4","last_reported":1744701044,"current_range_meters":3200,"station_id":"ce4bhgp2rcd13ifvqfd0","pricing_plan_id":"cebpf4jnsgd1na2vs0mg"},{"bike_id":"1ff9e147-4716-4e17-a95d-d09117e7ca27","system_id":"levelo_inurba_marseille","lat":43.303656,"lon":5.424968,"is_reserved":false,"is_disabled":false,"rental_uris":{"android":"levelo://app?vid=1ff9e147-4716-4e17-a95d-d09117e7ca27","ios":"levelo://app?vid=1ff9e147-4716-4e17-a95d-d09117e7ca27"},"vehicle_type_id":"4","last_reported":1744701044,"current_range_meters":3200,"station_id":"ce4bhoh2rcd13ifvqh6g","pricing_plan_id":"cebpf4jnsgd1na2vs0mg"},{"bike_id":"29611d27-b4ba-4295-afe0-d272cb22382e","system_id":"levelo_inurba_marseille","lat":43.30089,"lon":5.39082,"is_reserved":false,"is_disabled":false,"rental_uris":{"android":"levelo://app?vid=29611d27-b4ba-4295-afe0-d272cb22382e","ios":"levelo://app?vid=29611d27-b4ba-4295-afe0-d272cb22382e"},"vehicle_type_id":"4","last_reported":1744701044,"current_range_meters":3600,"station_id":"ce4bh192rcd13ifvqdb0","pricing_plan_id":"cebpf4jnsgd1na2vs0mg"},{"bike_id":"5c75444e-1511-4f27-88e9-b00df5215a0f","system_id":"levelo_inurba_marseille","lat":43.24181,"lon":5.39731,"is_reserved":false,"is_disabled":false,"rental_uris":{"android":"levelo://app?vid=5c75444e-1511-4f27-88e9-b00df5215a0f","ios":"levelo://app?vid=5c75444e-1511-4f27-88e9-b00df5215a0f"},"vehicle_type_id":"4","last_reported":1744701044,"current_range_meters":3600,"station_id":"ce4bhn12rcd13ifvqgpg","pricing_plan_id":"cebpf4jnsgd1na2vs0mg"},{"bike_id":"5bedd030-8f4c-4253-b7fe-b68844f8fc1a","system_id":"levelo_inurba_marseille","lat":43.31222,"lon":5.36851,"is_reserved":false,"is_disabled":false,"rental_uris":{"android":"levelo://app?vid=5bedd030-8f4c-4253-b7fe-b68844f8fc1a","ios":"levelo://app?vid=5bedd030-8f4c-4253-b7fe-b68844f8fc1a"},"vehicle_type_id":"4","last_reported":1744701044,"current_range_meters":4000,"station_id":"ce4bgl92rcd13ifvqbq0","pricing_plan_id":"cebpf4jnsgd1na2vs0mg"},{"bike_id":"515271b0-9b96-43f1-9b62-f663213b7c02","system_id":"levelo_inurba_marseille","lat":43.29024,"lon":5.35681,"is_reserved":false,"is_disabled":false,"rental_uris":{"android":"levelo://app?vid=515271b0-9b96-43f1-9b62-f663213b7c02","ios":"levelo://app?vid=515271b0-9b96-43f1-9b62-f663213b7c02"},"vehicle_type_id":"4","last_reported":1744701044,"current_range_meters":4000,"station_id":"","pricing_plan_id":"cebpf4jnsgd1na2vs0mg"},{"bike_id":"1db06f83-e2df-4c88-abff-fe3fd63cf02f","system_id":"levelo_inurba_marseille","lat":43.24547,"lon":5.39522,"is_reserved":false,"is_disabled":false,"rental_uris":{"android":"levelo://app?vid=1db06f83-e2df-4c88-abff-fe3fd63cf02f","ios":"levelo://app?vid=1db06f83-e2df-4c88-abff-fe3fd63cf02f"},"vehicle_type_id":"4","last_reported":1744701044,"current_range_meters":4000,"station_id":"ce4bhlp2rcd13ifvqgjg","pricing_plan_id":"cebpf4jnsgd1na2vs0mg"},{"bike_id":"6593561d-c293-42d4-92fe-6a9163b6ddf1","system_id":"levelo_inurba_marseille","lat":43.32348,"lon":5.36751,"is_reserved":false,"is_disabled":false,"rental_uris":{"android":"levelo://app?vid=6593561d-c293-42d4-92fe-6a9163b6ddf1","ios":"levelo://app?vid=6593561d-c293-42d4-92fe-6a9163b6ddf1"},"vehicle_type_id":"4","last_reported":1744701044,"current_range_meters":4400,"station_id":"ce4bhsh2rcd13ifvqi2g","pricing_plan_id":"cebpf4jnsgd1na2vs0mg"},{"bike_id":"748edd33-efa8-4a80-a50b-689391d348e6","system_id":"levelo_inurba_marseille","lat":43.24179,"lon":5.39728,"is_reserved":false,"is_disabled":false,"rental_uris":{"android":"levelo://app?vid=748edd33-efa8-4a80-a50b-689391d348e6","ios":"levelo://app?vid=748edd33-efa8-4a80-a50b-689391d348e6"},"vehicle_type_id":"4","last_reported":1744701044,"current_range_meters":4800,"station_id":"ce4bhn12rcd13ifvqgpg","pricing_plan_id":"cebpf4jnsgd1na2vs0mg"},{"bike_id":"901adfd3-d0f1-4359-a0a8-5ca2e06dc432","system_id":"levelo_inurba_marseille","lat":43.29284,"lon":5.37181,"is_reserved":false,"is_disabled":false,"rental_uris":{"android":"levelo://app?vid=901adfd3-d0f1-4359-a0a8-5ca2e06dc432","ios":"levelo://app?vid=901adfd3-d0f1-4359-a0a8-5ca2e06dc432"},"vehicle_type_id":"4","last_reported":1744701044,"current_range_meters":5600,"station_id":"ce4bgh92rcd13ifvqb40","pricing_plan_id":"cebpf4jnsgd1na2vs0mg"},{"bike_id":"4ad6cf84-1f1b-402d-9c85-ea036c499d2c","system_id":"levelo_inurba_marseille","lat":43.33595,"lon":5.41024,"is_reserved":false,"is_disabled":false,"rental_uris":{"android":"levelo://app?vid=4ad6cf84-1f1b-402d-9c85-ea036c499d2c","ios":"levelo://app?vid=4ad6cf84-1f1b-402d-9c85-ea036c499d2c"},"vehicle_type_id":"4","last_reported":1744701044,"current_range_meters":6000,"station_id":"ce4bhqh2rcd13ifvqhmg","pricing_plan_id":"cebpf4jnsgd1na2vs0mg"},{"bike_id":"bc1e941d-5514-4193-a637-cfb6de114bfa","system_id":"levelo_inurba_marseille","lat":43.25582,"lon":5.38253,"is_reserved":false,"is_disabled":false,"rental_uris":{"android":"levelo://app?vid=bc1e941d-5514-4193-a637-cfb6de114bfa","ios":"levelo://app?vid=bc1e941d-5514-4193-a637-cfb6de114bfa"},"vehicle_type_id":"4","last_reported":1744701044,"current_range_meters":6000,"station_id":"ce4bhih2rcd13ifvqfs0","pricing_plan_id":"cebpf4jnsgd1na2vs0mg"},{"bike_id":"e3b5ae67-ad6e-42e0-9b67-68a44af6bbb5","system_id":"levelo_inurba_marseille","lat":43.26788,"lon":5.39414,"is_reserved":false,"is_disabled":false,"rental_uris":{"android":"levelo://app?vid=e3b5ae67-ad6e-42e0-9b67-68a44af6bbb5","ios":"levelo://app?vid=e3b5ae67-ad6e-42e0-9b67-68a44af6bbb5"},"vehicle_type_id":"4","last_reported":1744701044,"current_range_meters":6000,"station_id":"ce4bhh12rcd13ifvqfg0","pricing_plan_id":"cebpf4jnsgd1na2vs0mg"},{"bike_id":"2a138dd2-ed7c-4b47-84a2-22093b0e9154","system_id":"levelo_inurba_marseille","lat":43.2679,"lon":5.39415,"is_reserved":false,"is_disabled":false,"rental_uris":{"android":"levelo://app?vid=2a138dd2-ed7c-4b47-84a2-22093b0e9154","ios":"levelo://app?vid=2a138dd2-ed7c-4b47-84a2-22093b0e9154"},"vehicle_type_id":"4","last_reported":1744701044,"current_range_meters":6000,"station_id":"ce4bhh12rcd13ifvqfg0","pricing_plan_id":"cebpf4jnsgd1na2vs0mg"},{"bike_id":"0a7cab43-9343-46f0-9a4d-34c8fb861430","system_id":"levelo_inurba_marseille","lat":43.29148,"lon":5.40138,"is_reserved":false,"is_disabled":false,"rental_uris":{"android":"levelo://app?vid=0a7cab43-9343-46f0-9a4d-34c8fb861430","ios":"levelo://app?vid=0a7cab43-9343-46f0-9a4d-34c8fb861430"},"vehicle_type_id":"4","last_reported":1744701044,"current_range_meters":6000,"station_id":"","pricing_plan_id":"cebpf4jnsgd1na2vs0mg"},{"bike_id":"b9b2dd69-98d6-4ebb-afa5-27acf901f067","system_id":"levelo_inurba_marseille","lat":43.21753,"lon":5.34603,"is_reserved":false,"is_disabled":false,"rental_uris":{"android":"levelo://app?vid=b9b2dd69-98d6-4ebb-afa5-27acf901f067","ios":"levelo://app?vid=b9b2dd69-98d6-4ebb-afa5-27acf901f067"},"vehicle_type_id":"4","last_reported":1744701044,"current_range_meters":6000,"station_id":"st_cvj6r9ubvosntc0bgbag","pricing_plan_id":"cebpf4jnsgd1na2vs0mg"},{"bike_id":"8e257129-2fc1-4b7e-9af0-0037d9dd9fc9","system_id":"levelo_inurba_marseille","lat":43.28983,"lon":5.37581,"is_reserved":false,"is_disabled":false,"rental_uris":{"android":"levelo://app?vid=8e257129-2fc1-4b7e-9af0-0037d9dd9fc9","ios":"levelo://app?vid=8e257129-2fc1-4b7e-9af0-0037d9dd9fc9"},"vehicle_type_id":"4","last_reported":1744701044,"current_range_meters":6400,"station_id":"","pricing_plan_id":"cebpf4jnsgd1na2vs0mg"},{"bike_id":"101df704-d3a4-4744-b23d-f516d37358f2","system_id":"levelo_inurba_marseille","lat":43.241648,"lon":5.397364,"is_reserved":false,"is_disabled":false,"rental_uris":{"android":"levelo://app?vid=101df704-d3a4-4744-b23d-f516d37358f2","ios":"levelo://app?vid=101df704-d3a4-4744-b23d-f516d37358f2"},"vehicle_type_id":"4","last_reported":1744701044,"current_range_meters":6400,"station_id":"ce4bhn12rcd13ifvqgpg","pricing_plan_id":"cebpf4jnsgd1na2vs0mg"},{"bike_id":"ec5a0ee3-8bc6-4905-97ae-7a3d4b928940","system_id":"levelo_inurba_marseille","lat":43.30149,"lon":5.38084,"is_reserved":false,"is_disabled":false,"rental_uris":{"android":"levelo://app?vid=ec5a0ee3-8bc6-4905-97ae-7a3d4b928940","ios":"levelo://app?vid=ec5a0ee3-8bc6-4905-97ae-7a3d4b928940"},"vehicle_type_id":"4","last_reported":1744701044,"current_range_meters":6400,"station_id":"ce4bgjp2rcd13ifvqbh0","pricing_plan_id":"cebpf4jnsgd1na2vs0mg"},{"bike_id":"5a6a6a86-cfb8-4d24-b27b-efbe268c3ba2","system_id":"levelo_inurba_marseille","lat":43.29257,"lon":5.37635,"is_reserved":false,"is_disabled":false,"rental_uris":{"android":"levelo://app?vid=5a6a6a86-cfb8-4d24-b27b-efbe268c3ba2","ios":"levelo://app?vid=5a6a6a86-cfb8-4d24-b27b-efbe268c3ba2"},"vehicle_type_id":"4","last_reported":1744701044,"current_range_meters":6400,"station_id":"ce4bgi12rcd13ifvqb80","pricing_plan_id":"cebpf4jnsgd1na2vs0mg"},{"bike_id":"79aee664-8d47-46db-b9db-b6aff78cb1ac","system_id":"levelo_inurba_marseille","lat":43.29371,"lon":5.37865,"is_reserved":false,"is_disabled":false,"rental_uris":{"android":"levelo://app?vid=79aee664-8d47-46db-b9db-b6aff78cb1ac","ios":"levelo://app?vid=79aee664-8d47-46db-b9db-b6aff78cb1ac"},"vehicle_type_id":"4","last_reported":1744701044,"current_range_meters":5600,"station_id":"ce4bgjh2rcd13ifvqbf0","pricing_plan_id":"cebpf4jnsgd1na2vs0mg"},{"bike_id":"7af32e08-c87f-4c71-bb72-f544c0cce00e","system_id":"levelo_inurba_marseille","lat":43.25919,"lon":5.40899,"is_reserved":false,"is_disabled":false,"rental_uris":{"android":"levelo://app?vid=7af32e08-c87f-4c71-bb72-f544c0cce00e","ios":"levelo://app?vid=7af32e08-c87f-4c71-bb72-f544c0cce00e"},"vehicle_type_id":"4","last_reported":1744701044,"current_range_meters":6800,"station_id":"ce4bhm92rcd13ifvqglg","pricing_plan_id":"cebpf4jnsgd1na2vs0mg"},{"bike_id":"2fb4eac2-5a8a-45cf-995c-78231316505f","system_id":"levelo_inurba_marseille","lat":43.292356,"lon":5.360682,"is_reserved":false,"is_disabled":false,"rental_uris":{"android":"levelo://app?vid=2fb4eac2-5a8a-45cf-995c-78231316505f","ios":"levelo://app?vid=2fb4eac2-5a8a-45cf-995c-78231316505f"},"vehicle_type_id":"4","last_reported":1744701044,"current_range_meters":6800,"station_id":"ce4bhbh2rcd13ifvqeqg","pricing_plan_id":"cebpf4jnsgd1na2vs0mg"},{"bike_id":"f6151468-df2d-459f-ab57-449c0333cf42","system_id":"levelo_inurba_marseille","lat":43.24691,"lon":5.3817,"is_reserved":false,"is_disabled":false,"rental_uris":{"android":"levelo://app?vid=f6151468-df2d-459f-ab57-449c0333cf42","ios":"levelo://app?vid=f6151468-df2d-459f-ab57-449c0333cf42"},"vehicle_type_id":"4","last_reported":1744701044,"current_range_meters":6800,"station_id":"ce4bhih2rcd13ifvqfr0","pricing_plan_id":"cebpf4jnsgd1na2vs0mg"},{"bike_id":"8d24a072-21ed-41cd-b0aa-05b3f1373b74","system_id":"levelo_inurba_marseille","lat":43.31068,"lon":5.38346,"is_reserved":false,"is_disabled":false,"rental_uris":{"android":"levelo://app?vid=8d24a072-21ed-41cd-b0aa-05b3f1373b74","ios":"levelo://app?vid=8d24a072-21ed-41cd-b0aa-05b3f1373b74"},"vehicle_type_id":"4","last_reported":1744701044,"current_range_meters":7200,"station_id":"ce4bgv92rcd13ifvqcr0","pricing_plan_id":"cebpf4jnsgd1na2vs0mg"},{"bike_id":"83d48a79-cefe-4194-bb51-31e20f3f212f","system_id":"levelo_inurba_marseille","lat":43.29909,"lon":5.37486,"is_reserved":false,"is_disabled":false,"rental_uris":{"android":"levelo://app?vid=83d48a79-cefe-4194-bb51-31e20f3f212f","ios":"levelo://app?vid=83d48a79-cefe-4194-bb51-31e20f3f212f"},"vehicle_type_id":"4","last_reported":1744701044,"current_range_meters":7200,"station_id":"ce4bgjh2rcd13ifvqbg0","pricing_plan_id":"cebpf4jnsgd1na2vs0mg"},{"bike_id":"880dc5d5-893b-4939-badb-b8f8bd393dc2","system_id":"levelo_inurba_marseille","lat":43.31335,"lon":5.36725,"is_reserved":false,"is_disabled":false,"rental_uris":{"android":"levelo://app?vid=880dc5d5-893b-4939-badb-b8f8bd393dc2","ios":"levelo://app?vid=880dc5d5-893b-4939-badb-b8f8bd393dc2"},"vehicle_type_id":"4","last_reported":1744701044,"current_range_meters":7200,"station_id":"ce4bgr92rcd13ifvqc6g","pricing_plan_id":"cebpf4jnsgd1na2vs0mg"},{"bike_id":"e1cfb2db-9308-45d0-913f-899415789267","system_id":"levelo_inurba_marseille","lat":43.25831,"lon":5.39429,"is_reserved":false,"is_disabled":false,"rental_uris":{"android":"levelo://app?vid=e1cfb2db-9308-45d0-913f-899415789267","ios":"levelo://app?vid=e1cfb2db-9308-45d0-913f-899415789267"},"vehicle_type_id":"4","last_reported":1744701044,"current_range_meters":7200,"station_id":"ce4bhip2rcd13ifvqft0","pricing_plan_id":"cebpf4jnsgd1na2vs0mg"},{"bike_id":"d373ed4c-aba0-4974-b8ad-53c5cbe85936","system_id":"levelo_inurba_marseille","lat":43.294403,"lon":5.397598,"is_reserved":false,"is_disabled":true,"rental_uris":{"android":"levelo://app?vid=d373ed4c-aba0-4974-b8ad-53c5cbe85936","ios":"levelo://app?vid=d373ed4c-aba0-4974-b8ad-53c5cbe85936"},"vehicle_type_id":"4","last_reported":1744701044,"current_range_meters":7200,"station_id":"ce4bh3h2rcd13ifvqdo0","pricing_plan_id":"cebpf4jnsgd1na2vs0mg"},{"bike_id":"52467ef2-bb23-4d5a-aebd-2782338dc161","system_id":"levelo_inurba_marseille","lat":43.21201,"lon":5.35091,"is_reserved":false,"is_disabled":false,"rental_uris":{"android":"levelo://app?vid=52467ef2-bb23-4d5a-aebd-2782338dc161","ios":"levelo://app?vid=52467ef2-bb23-4d5a-aebd-2782338dc161"},"vehicle_type_id":"4","last_reported":1744701044,"current_range_meters":7200,"station_id":"st_cvj6sg6p6f1abm77japg","pricing_plan_id":"cebpf4jnsgd1na2vs0mg"},{"bike_id":"7ba3577b-f14a-47b3-8ecb-35158daf49ef","system_id":"levelo_inurba_marseille","lat":43.30034,"lon":5.399,"is_reserved":false,"is_disabled":false,"rental_uris":{"android":"levelo://app?vid=7ba3577b-f14a-47b3-8ecb-35158daf49ef","ios":"levelo://app?vid=7ba3577b-f14a-47b3-8ecb-35158daf49ef"},"vehicle_type_id":"4","last_reported":1744701044,"current_range_meters":7200,"station_id":"","pricing_plan_id":"cebpf4jnsgd1na2vs0mg"},{"bike_id":"d5c48726-c588-48dc-9d2b-d4e2b290be37","system_id":"levelo_inurba_marseille","lat":43.26196,"lon":5.37448,"is_reserved":false,"is_disabled":false,"rental_uris":{"android":"levelo://app?vid=d5c48726-c588-48dc-9d2b-d4e2b290be37","ios":"levelo://app?vid=d5c48726-c588-48dc-9d2b-d4e2b290be37"},"vehicle_type_id":"4","last_reported":1744701044,"current_range_meters":8000,"station_id":"ce4bhgp2rcd13ifvqfc0","pricing_plan_id":"cebpf4jnsgd1na2vs0mg"},{"bike_id":"da4f99a3-f365-456b-92c1-13efef41cb18","system_id":"levelo_inurba_marseille","lat":43.32474,"lon":5.36566,"is_reserved":false,"is_disabled":false,"rental_uris":{"android":"levelo://app?vid=da4f99a3-f365-456b-92c1-13efef41cb18","ios":"levelo://app?vid=da4f99a3-f365-456b-92c1-13efef41cb18"},"vehicle_type_id":"4","last_reported":1744701044,"current_range_meters":8000,"station_id":"ce4bhs12rcd13ifvqhvg","pricing_plan_id":"cebpf4jnsgd1na2vs0mg"},{"bike_id":"3499b34a-9c74-447e-aa25-db1795585b70","system_id":"levelo_inurba_marseille","lat":43.26573,"lon":5.3729,"is_reserved":false,"is_disabled":false,"rental_uris":{"android":"levelo://app?vid=3499b34a-9c74-447e-aa25-db1795585b70","ios":"levelo://app?vid=3499b34a-9c74-447e-aa25-db1795585b70"},"vehicle_type_id":"4","last_reported":1744701044,"current_range_meters":8000,"station_id":"ce4bhg12rcd13ifvqf70","pricing_plan_id":"cebpf4jnsgd1na2vs0mg"},{"bike_id":"2840dd03-7e3c-473f-8550-a29070d3bba2","system_id":"levelo_inurba_marseille","lat":43.29498,"lon":5.38279,"is_reserved":false,"is_disabled":false,"rental_uris":{"android":"levelo://app?vid=2840dd03-7e3c-473f-8550-a29070d3bba2","ios":"levelo://app?vid=2840dd03-7e3c-473f-8550-a29070d3bba2"},"vehicle_type_id":"4","last_reported":1744701044,"current_range_meters":8000,"station_id":"","pricing_plan_id":"cebpf4jnsgd1na2vs0mg"},{"bike_id":"b4a19ddd-ec2c-4178-96c7-9e5bf749190e","system_id":"levelo_inurba_marseille","lat":43.29896,"lon":5.43661,"is_reserved":false,"is_disabled":false,"rental_uris":{"android":"levelo://app?vid=b4a19ddd-ec2c-4178-96c7-9e5bf749190e","ios":"levelo://app?vid=b4a19ddd-ec2c-4178-96c7-9e5bf749190e"},"vehicle_type_id":"4","last_reported":1744701044,"current_range_meters":8400,"station_id":"ce4bhpp2rcd13ifvqhfg","pricing_plan_id":"cebpf4jnsgd1na2vs0mg"},{"bike_id":"8a58a04e-f069-487b-905a-c2f308a407cd","system_id":"levelo_inurba_marseille","lat":43.33015,"lon":5.39042,"is_reserved":false,"is_disabled":false,"rental_uris":{"android":"levelo://app?vid=8a58a04e-f069-487b-905a-c2f308a407cd","ios":"levelo://app?vid=8a58a04e-f069-487b-905a-c2f308a407cd"},"vehicle_type_id":"4","last_reported":1744701044,"current_range_meters":8400,"station_id":"ce4bhr92rcd13ifvqhrg","pricing_plan_id":"cebpf4jnsgd1na2vs0mg"},{"bike_id":"73f9de1b-fbcd-431e-8827-f934795f2656","system_id":"levelo_inurba_marseille","lat":43.23151,"lon":5.43717,"is_reserved":false,"is_disabled":false,"rental_uris":{"android":"levelo://app?vid=73f9de1b-fbcd-431e-8827-f934795f2656","ios":"levelo://app?vid=73f9de1b-fbcd-431e-8827-f934795f2656"},"vehicle_type_id":"4","last_reported":1744701044,"current_range_meters":8400,"station_id":"ce4bhmp2rcd13ifvqgog","pricing_plan_id":"cebpf4jnsgd1na2vs0mg"},{"bike_id":"3754faca-a476-4a19-b07d-486eabe1a724","system_id":"levelo_inurba_marseille","lat":43.29981,"lon":5.37177,"is_reserved":false,"is_disabled":false,"rental_uris":{"android":"levelo://app?vid=3754faca-a476-4a19-b07d-486eabe1a724","ios":"levelo://app?vid=3754faca-a476-4a19-b07d-486eabe1a724"},"vehicle_type_id":"4","last_reported":1744701044,"current_range_meters":8400,"station_id":"ce4bgr92rcd13ifvqc7g","pricing_plan_id":"cebpf4jnsgd1na2vs0mg"},{"bike_id":"7bdf6f1b-bdd5-47bd-a843-2ddc151ddb06","system_id":"levelo_inurba_marseille","lat":43.3248,"lon":5.36576,"is_reserved":false,"is_disabled":false,"rental_uris":{"android":"levelo://app?vid=7bdf6f1b-bdd5-47bd-a843-2ddc151ddb06","ios":"levelo://app?vid=7bdf6f1b-bdd5-47bd-a843-2ddc151ddb06"},"vehicle_type_id":"4","last_reported":1744701044,"current_range_meters":8400,"station_id":"ce4bhs12rcd13ifvqhvg","pricing_plan_id":"cebpf4jnsgd1na2vs0mg"},{"bike_id":"a5be83a3-4e62-4e93-b379-6d7c74ff8607","system_id":"levelo_inurba_marseille","lat":43.27191,"lon":5.39136,"is_reserved":false,"is_disabled":false,"rental_uris":{"android":"levelo://app?vid=a5be83a3-4e62-4e93-b379-6d7c74ff8607","ios":"levelo://app?vid=a5be83a3-4e62-4e93-b379-6d7c74ff8607"},"vehicle_type_id":"4","last_reported":1744701044,"current_range_meters":8400,"station_id":"ce4bhhp2rcd13ifvqfm0","pricing_plan_id":"cebpf4jnsgd1na2vs0mg"},{"bike_id":"f07728ba-90b2-4310-83fb-7ddced706373","system_id":"levelo_inurba_marseille","lat":43.3148,"lon":5.37302,"is_reserved":false,"is_disabled":false,"rental_uris":{"android":"levelo://app?vid=f07728ba-90b2-4310-83fb-7ddced706373","ios":"levelo://app?vid=f07728ba-90b2-4310-83fb-7ddced706373"},"vehicle_type_id":"4","last_reported":1744701044,"current_range_meters":8400,"station_id":"ce4bgt12rcd13ifvqcd0","pricing_plan_id":"cebpf4jnsgd1na2vs0mg"},{"bike_id":"3ac53d32-d847-4539-b55f-618232ab119e","system_id":"levelo_inurba_marseille","lat":43.2593,"lon":5.40919,"is_reserved":false,"is_disabled":false,"rental_uris":{"android":"levelo://app?vid=3ac53d32-d847-4539-b55f-618232ab119e","ios":"levelo://app?vid=3ac53d32-d847-4539-b55f-618232ab119e"},"vehicle_type_id":"4","last_reported":1744701044,"current_range_meters":8400,"station_id":"ce4bhm92rcd13ifvqglg","pricing_plan_id":"cebpf4jnsgd1na2vs0mg"},{"bike_id":"7ff17182-b76a-42c3-a3cd-21c083e85bc1","system_id":"levelo_inurba_marseille","lat":43.24182,"lon":5.3973,"is_reserved":false,"is_disabled":false,"rental_uris":{"android":"levelo://app?vid=7ff17182-b76a-42c3-a3cd-21c083e85bc1","ios":"levelo://app?vid=7ff17182-b76a-42c3-a3cd-21c083e85bc1"},"vehicle_type_id":"4","last_reported":1744701044,"current_range_meters":8800,"station_id":"ce4bhn12rcd13ifvqgpg","pricing_plan_id":"cebpf4jnsgd1na2vs0mg"},{"bike_id":"797ae367-6dd8-46c1-b483-7423e60bd87d","system_id":"levelo_inurba_marseille","lat":43.29167,"lon":5.37151,"is_reserved":false,"is_disabled":false,"rental_uris":{"android":"levelo://app?vid=797ae367-6dd8-46c1-b483-7423e60bd87d","ios":"levelo://app?vid=797ae367-6dd8-46c1-b483-7423e60bd87d"},"vehicle_type_id":"4","last_reported":1744701044,"current_range_meters":8000,"station_id":"ce4bha92rcd13ifvqeh0","pricing_plan_id":"cebpf4jnsgd1na2vs0mg"},{"bike_id":"da7aafbb-8798-4ed7-bc71-e46554929edc","system_id":"levelo_inurba_marseille","lat":43.3031,"lon":5.36894,"is_reserved":false,"is_disabled":false,"rental_uris":{"android":"levelo://app?vid=da7aafbb-8798-4ed7-bc71-e46554929edc","ios":"levelo://app?vid=da7aafbb-8798-4ed7-bc71-e46554929edc"},"vehicle_type_id":"4","last_reported":1744701044,"current_range_meters":8800,"station_id":"ce4bgqh2rcd13ifvqc5g","pricing_plan_id":"cebpf4jnsgd1na2vs0mg"},{"bike_id":"2f93173f-d02c-4e29-ab59-1fff882697d7","system_id":"levelo_inurba_marseille","lat":43.24047,"lon":5.3778,"is_reserved":false,"is_disabled":false,"rental_uris":{"android":"levelo://app?vid=2f93173f-d02c-4e29-ab59-1fff882697d7","ios":"levelo://app?vid=2f93173f-d02c-4e29-ab59-1fff882697d7"},"vehicle_type_id":"4","last_reported":1744701044,"current_range_meters":8800,"station_id":"ce4bhnp2rcd13ifvqgvg","pricing_plan_id":"cebpf4jnsgd1na2vs0mg"},{"bike_id":"aee6f960-e505-4c90-b86d-b1f92423bd52","system_id":"levelo_inurba_marseille","lat":43.297882,"lon":5.381026,"is_reserved":false,"is_disabled":false,"rental_uris":{"android":"levelo://app?vid=aee6f960-e505-4c90-b86d-b1f92423bd52","ios":"levelo://app?vid=aee6f960-e505-4c90-b86d-b1f92423bd52"},"vehicle_type_id":"4","last_reported":1744701044,"current_range_meters":9200,"station_id":"ce4bgip2rcd13ifvqbb0","pricing_plan_id":"cebpf4jnsgd1na2vs0mg"},{"bike_id":"d0735fad-f544-4cd2-b602-3ae6b053b951","system_id":"levelo_inurba_marseille","lat":43.25932,"lon":5.409033,"is_reserved":false,"is_disabled":false,"rental_uris":{"android":"levelo://app?vid=d0735fad-f544-4cd2-b602-3ae6b053b951","ios":"levelo://app?vid=d0735fad-f544-4cd2-b602-3ae6b053b951"},"vehicle_type_id":"4","last_reported":1744701044,"current_range_meters":9200,"station_id":"ce4bhm92rcd13ifvqglg","pricing_plan_id":"cebpf4jnsgd1na2vs0mg"},{"bike_id":"ea4998e2-d633-4bbe-948a-afb46ce3b218","system_id":"levelo_inurba_marseille","lat":43.25933,"lon":5.40901,"is_reserved":false,"is_disabled":false,"rental_uris":{"android":"levelo://app?vid=ea4998e2-d633-4bbe-948a-afb46ce3b218","ios":"levelo://app?vid=ea4998e2-d633-4bbe-948a-afb46ce3b218"},"vehicle_type_id":"4","last_reported":1744701044,"current_range_meters":9200,"station_id":"ce4bhm92rcd13ifvqglg","pricing_plan_id":"cebpf4jnsgd1na2vs0mg"},{"bike_id":"78acb6cc-2de1-4bdd-8fb1-8d76d26e5f6d","system_id":"levelo_inurba_marseille","lat":43.295323,"lon":5.390492,"is_reserved":false,"is_disabled":false,"rental_uris":{"android":"levelo://app?vid=78acb6cc-2de1-4bdd-8fb1-8d76d26e5f6d","ios":"levelo://app?vid=78acb6cc-2de1-4bdd-8fb1-8d76d26e5f6d"},"vehicle_type_id":"4","last_reported":1744701044,"current_range_meters":9200,"station_id":"ce4bh3p2rcd13ifvqdp0","pricing_plan_id":"cebpf4jnsgd1na2vs0mg"},{"bike_id":"eb6e09c7-29d3-4ec4-9028-ce8b6b1606a8","system_id":"levelo_inurba_marseille","lat":43.25941,"lon":5.40912,"is_reserved":false,"is_disabled":false,"rental_uris":{"android":"levelo://app?vid=eb6e09c7-29d3-4ec4-9028-ce8b6b1606a8","ios":"levelo://app?vid=eb6e09c7-29d3-4ec4-9028-ce8b6b1606a8"},"vehicle_type_id":"4","last_reported":1744701044,"current_range_meters":9200,"station_id":"ce4bhm92rcd13ifvqglg","pricing_plan_id":"cebpf4jnsgd1na2vs0mg"},{"bike_id":"25a7fbde-cebf-42b0-812f-d90b2af9d903","system_id":"levelo_inurba_marseille","lat":43.29352,"lon":5.3786,"is_reserved":false,"is_disabled":true,"rental_uris":{"android":"levelo://app?vid=25a7fbde-cebf-42b0-812f-d90b2af9d903","ios":"levelo://app?vid=25a7fbde-cebf-42b0-812f-d90b2af9d903"},"vehicle_type_id":"4","last_reported":1744701044,"current_range_meters":9600,"station_id":"ce4bgjh2rcd13ifvqbf0","pricing_plan_id":"cebpf4jnsgd1na2vs0mg"},{"bike_id":"a6b4f83f-3821-43df-a2af-8379d5ea08cc","system_id":"levelo_inurba_marseille","lat":43.30291,"lon":5.36897,"is_reserved":false,"is_disabled":false,"rental_uris":{"android":"levelo://app?vid=a6b4f83f-3821-43df-a2af-8379d5ea08cc","ios":"levelo://app?vid=a6b4f83f-3821-43df-a2af-8379d5ea08cc"},"vehicle_type_id":"4","last_reported":1744701044,"current_range_meters":9600,"station_id":"ce4bgqh2rcd13ifvqc5g","pricing_plan_id":"cebpf4jnsgd1na2vs0mg"},{"bike_id":"ef734429-5e24-498b-98db-95ee16873a56","system_id":"levelo_inurba_marseille","lat":43.27055,"lon":5.4228,"is_reserved":false,"is_disabled":false,"rental_uris":{"android":"levelo://app?vid=ef734429-5e24-498b-98db-95ee16873a56","ios":"levelo://app?vid=ef734429-5e24-498b-98db-95ee16873a56"},"vehicle_type_id":"4","last_reported":1744701044,"current_range_meters":9600,"station_id":"ce4bhk92rcd13ifvqgb0","pricing_plan_id":"cebpf4jnsgd1na2vs0mg"},{"bike_id":"b7f2ab3e-7333-4a50-9375-1a8103e49920","system_id":"levelo_inurba_marseille","lat":43.2584,"lon":5.39464,"is_reserved":false,"is_disabled":false,"rental_uris":{"android":"levelo://app?vid=b7f2ab3e-7333-4a50-9375-1a8103e49920","ios":"levelo://app?vid=b7f2ab3e-7333-4a50-9375-1a8103e49920"},"vehicle_type_id":"4","last_reported":1744701044,"current_range_meters":9600,"station_id":"ce4bhip2rcd13ifvqft0","pricing_plan_id":"cebpf4jnsgd1na2vs0mg"},{"bike_id":"660d2eb3-0dca-4724-8d5d-ef301fa8b51b","system_id":"levelo_inurba_marseille","lat":43.33021,"lon":5.3904,"is_reserved":false,"is_disabled":false,"rental_uris":{"android":"levelo://app?vid=660d2eb3-0dca-4724-8d5d-ef301fa8b51b","ios":"levelo://app?vid=660d2eb3-0dca-4724-8d5d-ef301fa8b51b"},"vehicle_type_id":"4","last_reported":1744701044,"current_range_meters":9600,"station_id":"ce4bhr92rcd13ifvqhrg","pricing_plan_id":"cebpf4jnsgd1na2vs0mg"},{"bike_id":"ff6c5bbc-009f-4fe9-b11b-60ef4508468b","system_id":"levelo_inurba_marseille","lat":43.28449,"lon":5.39199,"is_reserved":false,"is_disabled":true,"rental_uris":{"android":"levelo://app?vid=ff6c5bbc-009f-4fe9-b11b-60ef4508468b","ios":"levelo://app?vid=ff6c5bbc-009f-4fe9-b11b-60ef4508468b"},"vehicle_type_id":"4","last_reported":1744701044,"current_range_meters":9600,"station_id":"ce4bhoh2rcd13ifvqh5g","pricing_plan_id":"cebpf4jnsgd1na2vs0mg"},{"bike_id":"a12a4ca1-f810-4d74-a484-47aa7a760bde","system_id":"levelo_inurba_marseille","lat":43.27067,"lon":5.42277,"is_reserved":false,"is_disabled":false,"rental_uris":{"android":"levelo://app?vid=a12a4ca1-f810-4d74-a484-47aa7a760bde","ios":"levelo://app?vid=a12a4ca1-f810-4d74-a484-47aa7a760bde"},"vehicle_type_id":"4","last_reported":1744701044,"current_range_meters":9600,"station_id":"ce4bhk92rcd13ifvqgb0","pricing_plan_id":"cebpf4jnsgd1na2vs0mg"},{"bike_id":"3be1045c-b29b-4832-8f1c-c0f32c3a3ca4","system_id":"levelo_inurba_marseille","lat":43.26502,"lon":5.3954,"is_reserved":false,"is_disabled":false,"rental_uris":{"android":"levelo://app?vid=3be1045c-b29b-4832-8f1c-c0f32c3a3ca4","ios":"levelo://app?vid=3be1045c-b29b-4832-8f1c-c0f32c3a3ca4"},"vehicle_type_id":"4","last_reported":1744701044,"current_range_meters":10000,"station_id":"ce4bhi12rcd13ifvqfq0","pricing_plan_id":"cebpf4jnsgd1na2vs0mg"},{"bike_id":"0e8e0d85-2932-4765-902a-4c3b14a3eac4","system_id":"levelo_inurba_marseille","lat":43.256299,"lon":5.376633,"is_reserved":false,"is_disabled":false,"rental_uris":{"android":"levelo://app?vid=0e8e0d85-2932-4765-902a-4c3b14a3eac4","ios":"levelo://app?vid=0e8e0d85-2932-4765-902a-4c3b14a3eac4"},"vehicle_type_id":"4","last_reported":1744701044,"current_range_meters":10000,"station_id":"","pricing_plan_id":"cebpf4jnsgd1na2vs0mg"},{"bike_id":"807ec091-c019-4bbf-8616-2c217a977986","system_id":"levelo_inurba_marseille","lat":43.29845,"lon":5.36274,"is_reserved":false,"is_disabled":false,"rental_uris":{"android":"levelo://app?vid=807ec091-c019-4bbf-8616-2c217a977986","ios":"levelo://app?vid=807ec091-c019-4bbf-8616-2c217a977986"},"vehicle_type_id":"4","last_reported":1744701044,"current_range_meters":10000,"station_id":"ce4bgpp2rcd13ifvqc3g","pricing_plan_id":"cebpf4jnsgd1na2vs0mg"},{"bike_id":"7af02adf-8edb-46d3-8261-8e1fb45510b1","system_id":"levelo_inurba_marseille","lat":43.29675,"lon":5.37289,"is_reserved":false,"is_disabled":false,"rental_uris":{"android":"levelo://app?vid=7af02adf-8edb-46d3-8261-8e1fb45510b1","ios":"levelo://app?vid=7af02adf-8edb-46d3-8261-8e1fb45510b1"},"vehicle_type_id":"4","last_reported":1744701044,"current_range_meters":10000,"station_id":"ce4bgk12rcd13ifvqbj0","pricing_plan_id":"cebpf4jnsgd1na2vs0mg"},{"bike_id":"9f9b9eda-4afc-4aa3-914f-5645374de658","system_id":"levelo_inurba_marseille","lat":43.2951,"lon":5.3751,"is_reserved":false,"is_disabled":false,"rental_uris":{"android":"levelo://app?vid=9f9b9eda-4afc-4aa3-914f-5645374de658","ios":"levelo://app?vid=9f9b9eda-4afc-4aa3-914f-5645374de658"},"vehicle_type_id":"4","last_reported":1744701044,"current_range_meters":10800,"station_id":"ce4bgkp2rcd13ifvqbmg","pricing_plan_id":"cebpf4jnsgd1na2vs0mg"},{"bike_id":"3ee3ff6c-25d2-430e-9d44-710c6a64d111","system_id":"levelo_inurba_marseille","lat":43.23152,"lon":5.43718,"is_reserved":false,"is_disabled":false,"rental_uris":{"android":"levelo://app?vid=3ee3ff6c-25d2-430e-9d44-710c6a64d111","ios":"levelo://app?vid=3ee3ff6c-25d2-430e-9d44-710c6a64d111"},"vehicle_type_id":"4","last_reported":1744701044,"current_range_meters":10800,"station_id":"ce4bhmp2rcd13ifvqgog","pricing_plan_id":"cebpf4jnsgd1na2vs0mg"},{"bike_id":"27a55245-8dd2-4f1a-af63-95a9d7b71690","system_id":"levelo_inurba_marseille","lat":43.31067,"lon":5.37857,"is_reserved":false,"is_disabled":false,"rental_uris":{"android":"levelo://app?vid=27a55245-8dd2-4f1a-af63-95a9d7b71690","ios":"levelo://app?vid=27a55245-8dd2-4f1a-af63-95a9d7b71690"},"vehicle_type_id":"4","last_reported":1744701044,"current_range_meters":10800,"station_id":"","pricing_plan_id":"cebpf4jnsgd1na2vs0mg"},{"bike_id":"a98badc9-f4d0-48a4-9c58-bd70c1efc98d","system_id":"levelo_inurba_marseille","lat":43.23179,"lon":5.39991,"is_reserved":false,"is_disabled":false,"rental_uris":{"android":"levelo://app?vid=a98badc9-f4d0-48a4-9c58-bd70c1efc98d","ios":"levelo://app?vid=a98badc9-f4d0-48a4-9c58-bd70c1efc98d"},"vehicle_type_id":"4","last_reported":1744701044,"current_range_meters":11200,"station_id":"ce4bhn12rcd13ifvqgqg","pricing_plan_id":"cebpf4jnsgd1na2vs0mg"},{"bike_id":"bd017bc3-cf33-4e94-9c72-edbc5620745b","system_id":"levelo_inurba_marseille","lat":43.28444,"lon":5.39206,"is_reserved":false,"is_disabled":false,"rental_uris":{"android":"levelo://app?vid=bd017bc3-cf33-4e94-9c72-edbc5620745b","ios":"levelo://app?vid=bd017bc3-cf33-4e94-9c72-edbc5620745b"},"vehicle_type_id":"4","last_reported":1744701044,"current_range_meters":11200,"station_id":"ce4bhoh2rcd13ifvqh5g","pricing_plan_id":"cebpf4jnsgd1na2vs0mg"},{"bike_id":"812b935b-9d80-43d8-81cf-74ca3ab3a3c8","system_id":"levelo_inurba_marseille","lat":43.29035,"lon":5.3996,"is_reserved":false,"is_disabled":false,"rental_uris":{"android":"levelo://app?vid=812b935b-9d80-43d8-81cf-74ca3ab3a3c8","ios":"levelo://app?vid=812b935b-9d80-43d8-81cf-74ca3ab3a3c8"},"vehicle_type_id":"4","last_reported":1744701044,"current_range_meters":11600,"station_id":"ce4bh392rcd13ifvqdm0","pricing_plan_id":"cebpf4jnsgd1na2vs0mg"},{"bike_id":"eb0b4530-a2d5-45b4-88a5-fb839ec1c948","system_id":"levelo_inurba_marseille","lat":43.30951,"lon":5.39036,"is_reserved":false,"is_disabled":false,"rental_uris":{"android":"levelo://app?vid=eb0b4530-a2d5-45b4-88a5-fb839ec1c948","ios":"levelo://app?vid=eb0b4530-a2d5-45b4-88a5-fb839ec1c948"},"vehicle_type_id":"4","last_reported":1744701044,"current_range_meters":11600,"station_id":"ce4bgup2rcd13ifvqco0","pricing_plan_id":"cebpf4jnsgd1na2vs0mg"},{"bike_id":"9481a4d4-998c-4242-822b-0b8fa3017440","system_id":"levelo_inurba_marseille","lat":43.288576,"lon":5.393412,"is_reserved":false,"is_disabled":true,"rental_uris":{"android":"levelo://app?vid=9481a4d4-998c-4242-822b-0b8fa3017440","ios":"levelo://app?vid=9481a4d4-998c-4242-822b-0b8fa3017440"},"vehicle_type_id":"4","last_reported":1744701044,"current_range_meters":11600,"station_id":"ce4bh2p2rcd13ifvqdi0","pricing_plan_id":"cebpf4jnsgd1na2vs0mg"},{"bike_id":"56135a82-d19f-45ea-a72c-58b1131d0fcb","system_id":"levelo_inurba_marseille","lat":43.28106,"lon":5.39655,"is_reserved":false,"is_disabled":true,"rental_uris":{"android":"levelo://app?vid=56135a82-d19f-45ea-a72c-58b1131d0fcb","ios":"levelo://app?vid=56135a82-d19f-45ea-a72c-58b1131d0fcb"},"vehicle_type_id":"4","last_reported":1744701044,"current_range_meters":11600,"station_id":"ce4bho12rcd13ifvqh2g","pricing_plan_id":"cebpf4jnsgd1na2vs0mg"},{"bike_id":"45152fd8-c07c-4d52-b7a7-6670add35e00","system_id":"levelo_inurba_marseille","lat":43.261043,"lon":5.420784,"is_reserved":false,"is_disabled":false,"rental_uris":{"android":"levelo://app?vid=45152fd8-c07c-4d52-b7a7-6670add35e00","ios":"levelo://app?vid=45152fd8-c07c-4d52-b7a7-6670add35e00"},"vehicle_type_id":"4","last_reported":1744701044,"current_range_meters":11600,"station_id":"","pricing_plan_id":"cebpf4jnsgd1na2vs0mg"},{"bike_id":"d7ce7277-7730-40b0-8315-85130ddf8520","system_id":"levelo_inurba_marseille","lat":43.30133,"lon":5.37426,"is_reserved":false,"is_disabled":false,"rental_uris":{"android":"levelo://app?vid=d7ce7277-7730-40b0-8315-85130ddf8520","ios":"levelo://app?vid=d7ce7277-7730-40b0-8315-85130ddf8520"},"vehicle_type_id":"4","last_reported":1744701044,"current_range_meters":11600,"station_id":"ce4bgs92rcd13ifvqcc0","pricing_plan_id":"cebpf4jnsgd1na2vs0mg"},{"bike_id":"e56aeca3-87cd-489b-9fd1-982a6bbed796","system_id":"levelo_inurba_marseille","lat":43.30949,"lon":5.39039,"is_reserved":false,"is_disabled":false,"rental_uris":{"android":"levelo://app?vid=e56aeca3-87cd-489b-9fd1-982a6bbed796","ios":"levelo://app?vid=e56aeca3-87cd-489b-9fd1-982a6bbed796"},"vehicle_type_id":"4","last_reported":1744701044,"current_range_meters":11600,"station_id":"ce4bgup2rcd13ifvqco0","pricing_plan_id":"cebpf4jnsgd1na2vs0mg"},{"bike_id":"bc0ecb4f-5afc-4772-89e0-788a1ff3893f","system_id":"levelo_inurba_marseille","lat":43.309287,"lon":5.390615,"is_reserved":false,"is_disabled":false,"rental_uris":{"android":"levelo://app?vid=bc0ecb4f-5afc-4772-89e0-788a1ff3893f","ios":"levelo://app?vid=bc0ecb4f-5afc-4772-89e0-788a1ff3893f"},"vehicle_type_id":"4","last_reported":1744701044,"current_range_meters":15200,"station_id":"ce4bgjh2rcd13ifvqbf0","pricing_plan_id":"cebpf4jnsgd1na2vs0mg"},{"bike_id":"51efb587-ffdc-423d-b74d-12a217ae002e","system_id":"levelo_inurba_marseille","lat":43.31082,"lon":5.42433,"is_reserved":false,"is_disabled":false,"rental_uris":{"android":"levelo://app?vid=51efb587-ffdc-423d-b74d-12a217ae002e","ios":"levelo://app?vid=51efb587-ffdc-423d-b74d-12a217ae002e"},"vehicle_type_id":"4","last_reported":1744701044,"current_range_meters":11600,"station_id":"ce4bhp92rcd13ifvqhag","pricing_plan_id":"cebpf4jnsgd1na2vs0mg"},{"bike_id":"9050bcb2-4fea-4bae-b3fe-93394c76bda1","system_id":"levelo_inurba_marseille","lat":43.3169,"lon":5.40474,"is_reserved":false,"is_disabled":false,"rental_uris":{"android":"levelo://app?vid=9050bcb2-4fea-4bae-b3fe-93394c76bda1","ios":"levelo://app?vid=9050bcb2-4fea-4bae-b3fe-93394c76bda1"},"vehicle_type_id":"4","last_reported":1744701044,"current_range_meters":12000,"station_id":"ce4bh012rcd13ifvqd00","pricing_plan_id":"cebpf4jnsgd1na2vs0mg"},{"bike_id":"0885a5e3-43bb-4a39-b743-0a43e27c6f4a","system_id":"levelo_inurba_marseille","lat":43.32495,"lon":5.36563,"is_reserved":false,"is_disabled":false,"rental_uris":{"android":"levelo://app?vid=0885a5e3-43bb-4a39-b743-0a43e27c6f4a","ios":"levelo://app?vid=0885a5e3-43bb-4a39-b743-0a43e27c6f4a"},"vehicle_type_id":"4","last_reported":1744701044,"current_range_meters":12400,"station_id":"ce4bhs12rcd13ifvqhvg","pricing_plan_id":"cebpf4jnsgd1na2vs0mg"},{"bike_id":"ecbf8d12-454c-4f98-94b4-0ddf4439d668","system_id":"levelo_inurba_marseille","lat":43.30143,"lon":5.38081,"is_reserved":false,"is_disabled":false,"rental_uris":{"android":"levelo://app?vid=ecbf8d12-454c-4f98-94b4-0ddf4439d668","ios":"levelo://app?vid=ecbf8d12-454c-4f98-94b4-0ddf4439d668"},"vehicle_type_id":"4","last_reported":1744701044,"current_range_meters":12400,"station_id":"ce4bhip2rcd13ifvqft0","pricing_plan_id":"cebpf4jnsgd1na2vs0mg"},{"bike_id":"e40e73b5-67df-4686-bac7-b5790df9b91e","system_id":"levelo_inurba_marseille","lat":43.267891,"lon":5.394128,"is_reserved":false,"is_disabled":false,"rental_uris":{"android":"levelo://app?vid=e40e73b5-67df-4686-bac7-b5790df9b91e","ios":"levelo://app?vid=e40e73b5-67df-4686-bac7-b5790df9b91e"},"vehicle_type_id":"4","last_reported":1744701044,"current_range_meters":12400,"station_id":"ce4bhh12rcd13ifvqfg0","pricing_plan_id":"cebpf4jnsgd1na2vs0mg"},{"bike_id":"4810a73d-5efd-4bc0-84ba-716d51691df5","system_id":"levelo_inurba_marseille","lat":43.24185,"lon":5.39719,"is_reserved":false,"is_disabled":false,"rental_uris":{"android":"levelo://app?vid=4810a73d-5efd-4bc0-84ba-716d51691df5","ios":"levelo://app?vid=4810a73d-5efd-4bc0-84ba-716d51691df5"},"vehicle_type_id":"4","last_reported":1744701044,"current_range_meters":12800,"station_id":"ce4bhn12rcd13ifvqgpg","pricing_plan_id":"cebpf4jnsgd1na2vs0mg"},{"bike_id":"37342bdf-d586-43ba-a25b-da22b3393da6","system_id":"levelo_inurba_marseille","lat":43.29149,"lon":5.37505,"is_reserved":false,"is_disabled":false,"rental_uris":{"android":"levelo://app?vid=37342bdf-d586-43ba-a25b-da22b3393da6","ios":"levelo://app?vid=37342bdf-d586-43ba-a25b-da22b3393da6"},"vehicle_type_id":"4","last_reported":1744701044,"current_range_meters":12800,"station_id":"","pricing_plan_id":"cebpf4jnsgd1na2vs0mg"},{"bike_id":"eaab218d-e2d1-41bf-9760-fefe68483a25","system_id":"levelo_inurba_marseille","lat":43.24168,"lon":5.39735,"is_reserved":false,"is_disabled":false,"rental_uris":{"android":"levelo://app?vid=eaab218d-e2d1-41bf-9760-fefe68483a25","ios":"levelo://app?vid=eaab218d-e2d1-41bf-9760-fefe68483a25"},"vehicle_type_id":"4","last_reported":1744701044,"current_range_meters":12800,"station_id":"ce4bhn12rcd13ifvqgpg","pricing_plan_id":"cebpf4jnsgd1na2vs0mg"},{"bike_id":"8de53ff8-0d82-476f-a323-bf7e148e7908","system_id":"levelo_inurba_marseille","lat":43.30147,"lon":5.38082,"is_reserved":false,"is_disabled":false,"rental_uris":{"android":"levelo://app?vid=8de53ff8-0d82-476f-a323-bf7e148e7908","ios":"levelo://app?vid=8de53ff8-0d82-476f-a323-bf7e148e7908"},"vehicle_type_id":"4","last_reported":1744701044,"current_range_meters":13600,"station_id":"ce4bgjp2rcd13ifvqbh0","pricing_plan_id":"cebpf4jnsgd1na2vs0mg"},{"bike_id":"b38ed816-6aa8-4c64-a8aa-7d13328fe3e6","system_id":"levelo_inurba_marseille","lat":43.2622,"lon":5.40459,"is_reserved":false,"is_disabled":false,"rental_uris":{"android":"levelo://app?vid=b38ed816-6aa8-4c64-a8aa-7d13328fe3e6","ios":"levelo://app?vid=b38ed816-6aa8-4c64-a8aa-7d13328fe3e6"},"vehicle_type_id":"4","last_reported":1744701044,"current_range_meters":13600,"station_id":"ce4bhmh2rcd13ifvqgmg","pricing_plan_id":"cebpf4jnsgd1na2vs0mg"},{"bike_id":"86507adb-43c1-4a89-acc7-c74cd80a099f","system_id":"levelo_inurba_marseille","lat":43.23123,"lon":5.36657,"is_reserved":false,"is_disabled":false,"rental_uris":{"android":"levelo://app?vid=86507adb-43c1-4a89-acc7-c74cd80a099f","ios":"levelo://app?vid=86507adb-43c1-4a89-acc7-c74cd80a099f"},"vehicle_type_id":"4","last_reported":1744701044,"current_range_meters":13600,"station_id":"","pricing_plan_id":"cebpf4jnsgd1na2vs0mg"},{"bike_id":"925d9f60-adb9-4406-b446-d9ac73846ce0","system_id":"levelo_inurba_marseille","lat":43.31381,"lon":5.38497,"is_reserved":false,"is_disabled":false,"rental_uris":{"android":"levelo://app?vid=925d9f60-adb9-4406-b446-d9ac73846ce0","ios":"levelo://app?vid=925d9f60-adb9-4406-b446-d9ac73846ce0"},"vehicle_type_id":"4","last_reported":1744701044,"current_range_meters":14000,"station_id":"ce4bgt92rcd13ifvqcf0","pricing_plan_id":"cebpf4jnsgd1na2vs0mg"},{"bike_id":"27299257-2756-47d0-846e-acf9eb87a96d","system_id":"levelo_inurba_marseille","lat":43.25864,"lon":5.39898,"is_reserved":false,"is_disabled":false,"rental_uris":{"android":"levelo://app?vid=27299257-2756-47d0-846e-acf9eb87a96d","ios":"levelo://app?vid=27299257-2756-47d0-846e-acf9eb87a96d"},"vehicle_type_id":"4","last_reported":1744701044,"current_range_meters":14000,"station_id":"ce4bhl92rcd13ifvqghg","pricing_plan_id":"cebpf4jnsgd1na2vs0mg"},{"bike_id":"3c5e465d-bd69-46d0-bb0d-d2bf5e7f3e5d","system_id":"levelo_inurba_marseille","lat":43.303086,"lon":5.368915,"is_reserved":false,"is_disabled":false,"rental_uris":{"android":"levelo://app?vid=3c5e465d-bd69-46d0-bb0d-d2bf5e7f3e5d","ios":"levelo://app?vid=3c5e465d-bd69-46d0-bb0d-d2bf5e7f3e5d"},"vehicle_type_id":"4","last_reported":1744701044,"current_range_meters":14000,"station_id":"ce4bgup2rcd13ifvqcn0","pricing_plan_id":"cebpf4jnsgd1na2vs0mg"},{"bike_id":"192632e2-2665-465c-9c1c-47eaef1fd2bb","system_id":"levelo_inurba_marseille","lat":43.33608,"lon":5.41037,"is_reserved":false,"is_disabled":false,"rental_uris":{"android":"levelo://app?vid=192632e2-2665-465c-9c1c-47eaef1fd2bb","ios":"levelo://app?vid=192632e2-2665-465c-9c1c-47eaef1fd2bb"},"vehicle_type_id":"4","last_reported":1744701044,"current_range_meters":14000,"station_id":"ce4bhqh2rcd13ifvqhmg","pricing_plan_id":"cebpf4jnsgd1na2vs0mg"},{"bike_id":"382a1a40-cce5-4bcf-8677-ad51fb5a2457","system_id":"levelo_inurba_marseille","lat":43.28823,"lon":5.39342,"is_reserved":false,"is_disabled":true,"rental_uris":{"android":"levelo://app?vid=382a1a40-cce5-4bcf-8677-ad51fb5a2457","ios":"levelo://app?vid=382a1a40-cce5-4bcf-8677-ad51fb5a2457"},"vehicle_type_id":"4","last_reported":1744701044,"current_range_meters":14000,"station_id":"ce4bh2p2rcd13ifvqdi0","pricing_plan_id":"cebpf4jnsgd1na2vs0mg"},{"bike_id":"2b424ff6-bd62-47cc-a7aa-de5119991619","system_id":"levelo_inurba_marseille","lat":43.30304,"lon":5.36888,"is_reserved":false,"is_disabled":false,"rental_uris":{"android":"levelo://app?vid=2b424ff6-bd62-47cc-a7aa-de5119991619","ios":"levelo://app?vid=2b424ff6-bd62-47cc-a7aa-de5119991619"},"vehicle_type_id":"4","last_reported":1744701044,"current_range_meters":14400,"station_id":"ce4bgqh2rcd13ifvqc5g","pricing_plan_id":"cebpf4jnsgd1na2vs0mg"},{"bike_id":"5c0cc5dd-7c03-4f8b-838c-65a8bfb31b5b","system_id":"levelo_inurba_marseille","lat":43.24664,"lon":5.38158,"is_reserved":false,"is_disabled":false,"rental_uris":{"android":"levelo://app?vid=5c0cc5dd-7c03-4f8b-838c-65a8bfb31b5b","ios":"levelo://app?vid=5c0cc5dd-7c03-4f8b-838c-65a8bfb31b5b"},"vehicle_type_id":"4","last_reported":1744701044,"current_range_meters":14400,"station_id":"ce4bhih2rcd13ifvqfr0","pricing_plan_id":"cebpf4jnsgd1na2vs0mg"},{"bike_id":"a6df17eb-3570-436e-862c-fc5ce65d2e7e","system_id":"levelo_inurba_marseille","lat":43.28636,"lon":5.35089,"is_reserved":false,"is_disabled":false,"rental_uris":{"android":"levelo://app?vid=a6df17eb-3570-436e-862c-fc5ce65d2e7e","ios":"levelo://app?vid=a6df17eb-3570-436e-862c-fc5ce65d2e7e"},"vehicle_type_id":"4","last_reported":1744701044,"current_range_meters":14400,"station_id":"ce4bhch2rcd13ifvqeug","pricing_plan_id":"cebpf4jnsgd1na2vs0mg"},{"bike_id":"5b189cb6-d953-4fef-b0c2-01e2d10afc8f","system_id":"levelo_inurba_marseille","lat":43.304636,"lon":5.379234,"is_reserved":false,"is_disabled":false,"rental_uris":{"android":"levelo://app?vid=5b189cb6-d953-4fef-b0c2-01e2d10afc8f","ios":"levelo://app?vid=5b189cb6-d953-4fef-b0c2-01e2d10afc8f"},"vehicle_type_id":"4","last_reported":1744701044,"current_range_meters":14400,"station_id":"ce4bgup2rcd13ifvqcn0","pricing_plan_id":"cebpf4jnsgd1na2vs0mg"},{"bike_id":"aa696e9e-eb7b-41ed-80f4-890186470652","system_id":"levelo_inurba_marseille","lat":43.3088,"lon":5.39658,"is_reserved":false,"is_disabled":false,"rental_uris":{"android":"levelo://app?vid=aa696e9e-eb7b-41ed-80f4-890186470652","ios":"levelo://app?vid=aa696e9e-eb7b-41ed-80f4-890186470652"},"vehicle_type_id":"4","last_reported":1744701044,"current_range_meters":14800,"station_id":"ce4bh012rcd13ifvqcv0","pricing_plan_id":"cebpf4jnsgd1na2vs0mg"},{"bike_id":"e33b7047-9512-4b04-862d-afc599620999","system_id":"levelo_inurba_marseille","lat":43.27057,"lon":5.40261,"is_reserved":false,"is_disabled":false,"rental_uris":{"android":"levelo://app?vid=e33b7047-9512-4b04-862d-afc599620999","ios":"levelo://app?vid=e33b7047-9512-4b04-862d-afc599620999"},"vehicle_type_id":"4","last_reported":1744701044,"current_range_meters":14800,"station_id":"ce4bhk92rcd13ifvqgc0","pricing_plan_id":"cebpf4jnsgd1na2vs0mg"},{"bike_id":"d2d37f01-fa46-4fbc-a721-7789f4003663","system_id":"levelo_inurba_marseille","lat":43.25,"lon":5.38962,"is_reserved":false,"is_disabled":false,"rental_uris":{"android":"levelo://app?vid=d2d37f01-fa46-4fbc-a721-7789f4003663","ios":"levelo://app?vid=d2d37f01-fa46-4fbc-a721-7789f4003663"},"vehicle_type_id":"4","last_reported":1744701044,"current_range_meters":14800,"station_id":"ce4bhgp2rcd13ifvqfd0","pricing_plan_id":"cebpf4jnsgd1na2vs0mg"},{"bike_id":"b9fc8cc3-945a-4db5-b7aa-66d235d9bf40","system_id":"levelo_inurba_marseille","lat":43.30897,"lon":5.37211,"is_reserved":false,"is_disabled":false,"rental_uris":{"android":"levelo://app?vid=b9fc8cc3-945a-4db5-b7aa-66d235d9bf40","ios":"levelo://app?vid=b9fc8cc3-945a-4db5-b7aa-66d235d9bf40"},"vehicle_type_id":"4","last_reported":1744701044,"current_range_meters":14800,"station_id":"ce4bguh2rcd13ifvqckg","pricing_plan_id":"cebpf4jnsgd1na2vs0mg"},{"bike_id":"04d39824-7984-470f-83d9-2d269dd3eedf","system_id":"levelo_inurba_marseille","lat":43.29931,"lon":5.3747,"is_reserved":false,"is_disabled":false,"rental_uris":{"android":"levelo://app?vid=04d39824-7984-470f-83d9-2d269dd3eedf","ios":"levelo://app?vid=04d39824-7984-470f-83d9-2d269dd3eedf"},"vehicle_type_id":"4","last_reported":1744701044,"current_range_meters":14800,"station_id":"ce4bgjh2rcd13ifvqbg0","pricing_plan_id":"cebpf4jnsgd1na2vs0mg"},{"bike_id":"47a85634-40b2-4bd1-8409-1d1cf2f06bdc","system_id":"levelo_inurba_marseille","lat":43.24064,"lon":5.37792,"is_reserved":false,"is_disabled":false,"rental_uris":{"android":"levelo://app?vid=47a85634-40b2-4bd1-8409-1d1cf2f06bdc","ios":"levelo://app?vid=47a85634-40b2-4bd1-8409-1d1cf2f06bdc"},"vehicle_type_id":"4","last_reported":1744701044,"current_range_meters":15200,"station_id":"ce4bhnp2rcd13ifvqgvg","pricing_plan_id":"cebpf4jnsgd1na2vs0mg"},{"bike_id":"96f67fc3-1d8d-4e0e-b60a-683312315db0","system_id":"levelo_inurba_marseille","lat":43.31351,"lon":5.36697,"is_reserved":false,"is_disabled":false,"rental_uris":{"android":"levelo://app?vid=96f67fc3-1d8d-4e0e-b60a-683312315db0","ios":"levelo://app?vid=96f67fc3-1d8d-4e0e-b60a-683312315db0"},"vehicle_type_id":"4","last_reported":1744701044,"current_range_meters":15200,"station_id":"ce4bgr92rcd13ifvqc6g","pricing_plan_id":"cebpf4jnsgd1na2vs0mg"},{"bike_id":"8a1fc1b6-9ba8-4eaa-8806-e8628dd9fd73","system_id":"levelo_inurba_marseille","lat":43.27341,"lon":5.41255,"is_reserved":false,"is_disabled":false,"rental_uris":{"android":"levelo://app?vid=8a1fc1b6-9ba8-4eaa-8806-e8628dd9fd73","ios":"levelo://app?vid=8a1fc1b6-9ba8-4eaa-8806-e8628dd9fd73"},"vehicle_type_id":"4","last_reported":1744701044,"current_range_meters":15200,"station_id":"","pricing_plan_id":"cebpf4jnsgd1na2vs0mg"},{"bike_id":"e298fb17-60fe-4ee1-bc94-645f9b8b1bb4","system_id":"levelo_inurba_marseille","lat":43.28994,"lon":5.37615,"is_reserved":false,"is_disabled":false,"rental_uris":{"android":"levelo://app?vid=e298fb17-60fe-4ee1-bc94-645f9b8b1bb4","ios":"levelo://app?vid=e298fb17-60fe-4ee1-bc94-645f9b8b1bb4"},"vehicle_type_id":"4","last_reported":1744701044,"current_range_meters":15200,"station_id":"","pricing_plan_id":"cebpf4jnsgd1na2vs0mg"},{"bike_id":"c9fbfbd0-ac82-410e-8a58-1795989b1898","system_id":"levelo_inurba_marseille","lat":43.30458,"lon":5.37904,"is_reserved":false,"is_disabled":false,"rental_uris":{"android":"levelo://app?vid=c9fbfbd0-ac82-410e-8a58-1795989b1898","ios":"levelo://app?vid=c9fbfbd0-ac82-410e-8a58-1795989b1898"},"vehicle_type_id":"4","last_reported":1744701044,"current_range_meters":16000,"station_id":"ce4bgup2rcd13ifvqcn0","pricing_plan_id":"cebpf4jnsgd1na2vs0mg"},{"bike_id":"e65d2fcf-5b1f-41b3-a763-72d500e02a9e","system_id":"levelo_inurba_marseille","lat":43.23143,"lon":5.43719,"is_reserved":false,"is_disabled":false,"rental_uris":{"android":"levelo://app?vid=e65d2fcf-5b1f-41b3-a763-72d500e02a9e","ios":"levelo://app?vid=e65d2fcf-5b1f-41b3-a763-72d500e02a9e"},"vehicle_type_id":"4","last_reported":1744701044,"current_range_meters":15200,"station_id":"ce4bhmp2rcd13ifvqgog","pricing_plan_id":"cebpf4jnsgd1na2vs0mg"},{"bike_id":"6b5b8e18-66bf-409c-b1dd-ee755eb7ed4b","system_id":"levelo_inurba_marseille","lat":43.30882,"lon":5.37195,"is_reserved":false,"is_disabled":false,"rental_uris":{"android":"levelo://app?vid=6b5b8e18-66bf-409c-b1dd-ee755eb7ed4b","ios":"levelo://app?vid=6b5b8e18-66bf-409c-b1dd-ee755eb7ed4b"},"vehicle_type_id":"4","last_reported":1744701044,"current_range_meters":16000,"station_id":"ce4bguh2rcd13ifvqckg","pricing_plan_id":"cebpf4jnsgd1na2vs0mg"},{"bike_id":"690344b0-9f80-484a-9c0a-0cb50bc24e58","system_id":"levelo_inurba_marseille","lat":43.31485,"lon":5.37303,"is_reserved":false,"is_disabled":false,"rental_uris":{"android":"levelo://app?vid=690344b0-9f80-484a-9c0a-0cb50bc24e58","ios":"levelo://app?vid=690344b0-9f80-484a-9c0a-0cb50bc24e58"},"vehicle_type_id":"4","last_reported":1744701044,"current_range_meters":16000,"station_id":"ce4bgt12rcd13ifvqcd0","pricing_plan_id":"cebpf4jnsgd1na2vs0mg"},{"bike_id":"491e8480-a084-401d-bc5f-1c8499b4566d","system_id":"levelo_inurba_marseille","lat":43.259128,"lon":5.40858,"is_reserved":false,"is_disabled":false,"rental_uris":{"android":"levelo://app?vid=491e8480-a084-401d-bc5f-1c8499b4566d","ios":"levelo://app?vid=491e8480-a084-401d-bc5f-1c8499b4566d"},"vehicle_type_id":"4","last_reported":1744701044,"current_range_meters":16000,"station_id":"ce4bhm92rcd13ifvqglg","pricing_plan_id":"cebpf4jnsgd1na2vs0mg"},{"bike_id":"06caa9da-485c-4e05-919d-03f935a292af","system_id":"levelo_inurba_marseille","lat":43.25938,"lon":5.40907,"is_reserved":false,"is_disabled":false,"rental_uris":{"android":"levelo://app?vid=06caa9da-485c-4e05-919d-03f935a292af","ios":"levelo://app?vid=06caa9da-485c-4e05-919d-03f935a292af"},"vehicle_type_id":"4","last_reported":1744701044,"current_range_meters":16000,"station_id":"ce4bhm92rcd13ifvqglg","pricing_plan_id":"cebpf4jnsgd1na2vs0mg"},{"bike_id":"4e50b3a9-0fb8-4b49-a8ed-c5a6a805de77","system_id":"levelo_inurba_marseille","lat":43.273195,"lon":5.39104,"is_reserved":false,"is_disabled":false,"rental_uris":{"android":"levelo://app?vid=4e50b3a9-0fb8-4b49-a8ed-c5a6a805de77","ios":"levelo://app?vid=4e50b3a9-0fb8-4b49-a8ed-c5a6a805de77"},"vehicle_type_id":"4","last_reported":1744701044,"current_range_meters":16400,"station_id":"ce4bhgp2rcd13ifvqfe0","pricing_plan_id":"cebpf4jnsgd1na2vs0mg"},{"bike_id":"415db733-f514-4806-a29d-91dddd76fe1c","system_id":"levelo_inurba_marseille","lat":43.30311,"lon":5.36889,"is_reserved":false,"is_disabled":false,"rental_uris":{"android":"levelo://app?vid=415db733-f514-4806-a29d-91dddd76fe1c","ios":"levelo://app?vid=415db733-f514-4806-a29d-91dddd76fe1c"},"vehicle_type_id":"4","last_reported":1744701044,"current_range_meters":16400,"station_id":"ce4bgqh2rcd13ifvqc5g","pricing_plan_id":"cebpf4jnsgd1na2vs0mg"},{"bike_id":"77037b3f-050a-4708-b85e-3feee4d6225d","system_id":"levelo_inurba_marseille","lat":43.30465,"lon":5.37899,"is_reserved":false,"is_disabled":false,"rental_uris":{"android":"levelo://app?vid=77037b3f-050a-4708-b85e-3feee4d6225d","ios":"levelo://app?vid=77037b3f-050a-4708-b85e-3feee4d6225d"},"vehicle_type_id":"4","last_reported":1744701044,"current_range_meters":16400,"station_id":"ce4bgup2rcd13ifvqcn0","pricing_plan_id":"cebpf4jnsgd1na2vs0mg"},{"bike_id":"4b3747ad-70b8-45b3-a21f-9645dba15850","system_id":"levelo_inurba_marseille","lat":43.25929,"lon":5.40904,"is_reserved":false,"is_disabled":false,"rental_uris":{"android":"levelo://app?vid=4b3747ad-70b8-45b3-a21f-9645dba15850","ios":"levelo://app?vid=4b3747ad-70b8-45b3-a21f-9645dba15850"},"vehicle_type_id":"4","last_reported":1744701044,"current_range_meters":16400,"station_id":"ce4bhm92rcd13ifvqglg","pricing_plan_id":"cebpf4jnsgd1na2vs0mg"},{"bike_id":"02784450-3b0f-4969-8e21-86170857e3de","system_id":"levelo_inurba_marseille","lat":43.31344,"lon":5.36723,"is_reserved":false,"is_disabled":false,"rental_uris":{"android":"levelo://app?vid=02784450-3b0f-4969-8e21-86170857e3de","ios":"levelo://app?vid=02784450-3b0f-4969-8e21-86170857e3de"},"vehicle_type_id":"4","last_reported":1744701044,"current_range_meters":16400,"station_id":"ce4bgr92rcd13ifvqc6g","pricing_plan_id":"cebpf4jnsgd1na2vs0mg"},{"bike_id":"7b504d01-099b-4634-b191-543e380f75b8","system_id":"levelo_inurba_marseille","lat":43.24999,"lon":5.38928,"is_reserved":false,"is_disabled":false,"rental_uris":{"android":"levelo://app?vid=7b504d01-099b-4634-b191-543e380f75b8","ios":"levelo://app?vid=7b504d01-099b-4634-b191-543e380f75b8"},"vehicle_type_id":"4","last_reported":1744701044,"current_range_meters":16800,"station_id":"ce4bhgp2rcd13ifvqfd0","pricing_plan_id":"cebpf4jnsgd1na2vs0mg"},{"bike_id":"7eacb872-0584-4b06-8fad-feb612d3799a","system_id":"levelo_inurba_marseille","lat":43.29708,"lon":5.3813,"is_reserved":false,"is_disabled":false,"rental_uris":{"android":"levelo://app?vid=7eacb872-0584-4b06-8fad-feb612d3799a","ios":"levelo://app?vid=7eacb872-0584-4b06-8fad-feb612d3799a"},"vehicle_type_id":"4","last_reported":1744701044,"current_range_meters":16800,"station_id":"","pricing_plan_id":"cebpf4jnsgd1na2vs0mg"},{"bike_id":"2caebf1c-7dd1-4d93-97aa-8cb87eccf6d4","system_id":"levelo_inurba_marseille","lat":43.31078,"lon":5.42428,"is_reserved":false,"is_disabled":false,"rental_uris":{"android":"levelo://app?vid=2caebf1c-7dd1-4d93-97aa-8cb87eccf6d4","ios":"levelo://app?vid=2caebf1c-7dd1-4d93-97aa-8cb87eccf6d4"},"vehicle_type_id":"4","last_reported":1744701044,"current_range_meters":16800,"station_id":"ce4bhp92rcd13ifvqhag","pricing_plan_id":"cebpf4jnsgd1na2vs0mg"},{"bike_id":"90ade505-5308-452c-ace7-cee618f45386","system_id":"levelo_inurba_marseille","lat":43.25281,"lon":5.39936,"is_reserved":false,"is_disabled":false,"rental_uris":{"android":"levelo://app?vid=90ade505-5308-452c-ace7-cee618f45386","ios":"levelo://app?vid=90ade505-5308-452c-ace7-cee618f45386"},"vehicle_type_id":"4","last_reported":1744701044,"current_range_meters":16800,"station_id":"","pricing_plan_id":"cebpf4jnsgd1na2vs0mg"},{"bike_id":"f7d29851-2cce-417a-a8a4-171fe240d501","system_id":"levelo_inurba_marseille","lat":43.28711,"lon":5.399977,"is_reserved":false,"is_disabled":false,"rental_uris":{"android":"levelo://app?vid=f7d29851-2cce-417a-a8a4-171fe240d501","ios":"levelo://app?vid=f7d29851-2cce-417a-a8a4-171fe240d501"},"vehicle_type_id":"4","last_reported":1744701044,"current_range_meters":16800,"station_id":"ce4bho92rcd13ifvqh3g","pricing_plan_id":"cebpf4jnsgd1na2vs0mg"},{"bike_id":"e38b20a9-7ad9-4cca-b849-80c77060a64b","system_id":"levelo_inurba_marseille","lat":43.25946,"lon":5.40913,"is_reserved":false,"is_disabled":false,"rental_uris":{"android":"levelo://app?vid=e38b20a9-7ad9-4cca-b849-80c77060a64b","ios":"levelo://app?vid=e38b20a9-7ad9-4cca-b849-80c77060a64b"},"vehicle_type_id":"4","last_reported":1744701044,"current_range_meters":17200,"station_id":"ce4bhm92rcd13ifvqglg","pricing_plan_id":"cebpf4jnsgd1na2vs0mg"},{"bike_id":"729b5112-94b9-42e8-bf40-7650e842ec8a","system_id":"levelo_inurba_marseille","lat":43.27425,"lon":5.39415,"is_reserved":false,"is_disabled":false,"rental_uris":{"android":"levelo://app?vid=729b5112-94b9-42e8-bf40-7650e842ec8a","ios":"levelo://app?vid=729b5112-94b9-42e8-bf40-7650e842ec8a"},"vehicle_type_id":"4","last_reported":1744701044,"current_range_meters":17200,"station_id":"ce4bhdp2rcd13ifvqf20","pricing_plan_id":"cebpf4jnsgd1na2vs0mg"},{"bike_id":"4aef0fa6-a0da-4fa2-9099-9fa1ba81c16a","system_id":"levelo_inurba_marseille","lat":43.281628,"lon":5.404409,"is_reserved":false,"is_disabled":false,"rental_uris":{"android":"levelo://app?vid=4aef0fa6-a0da-4fa2-9099-9fa1ba81c16a","ios":"levelo://app?vid=4aef0fa6-a0da-4fa2-9099-9fa1ba81c16a"},"vehicle_type_id":"4","last_reported":1744701044,"current_range_meters":17200,"station_id":"","pricing_plan_id":"cebpf4jnsgd1na2vs0mg"},{"bike_id":"013a924c-1ee5-4674-a305-ba7bd5a1d58b","system_id":"levelo_inurba_marseille","lat":43.23071,"lon":5.35486,"is_reserved":false,"is_disabled":false,"rental_uris":{"android":"levelo://app?vid=013a924c-1ee5-4674-a305-ba7bd5a1d58b","ios":"levelo://app?vid=013a924c-1ee5-4674-a305-ba7bd5a1d58b"},"vehicle_type_id":"4","last_reported":1744701044,"current_range_meters":17200,"station_id":"cpo3342slgdg3j2ifvpg","pricing_plan_id":"cebpf4jnsgd1na2vs0mg"},{"bike_id":"846062da-9234-4287-9da7-b9e2f0d486c7","system_id":"levelo_inurba_marseille","lat":43.30547,"lon":5.36555,"is_reserved":false,"is_disabled":false,"rental_uris":{"android":"levelo://app?vid=846062da-9234-4287-9da7-b9e2f0d486c7","ios":"levelo://app?vid=846062da-9234-4287-9da7-b9e2f0d486c7"},"vehicle_type_id":"4","last_reported":1744701044,"current_range_meters":17200,"station_id":"ce4bgs12rcd13ifvqcag","pricing_plan_id":"cebpf4jnsgd1na2vs0mg"},{"bike_id":"c8d24df4-b09f-432c-8af3-427efe4ed90b","system_id":"levelo_inurba_marseille","lat":43.30463,"lon":5.36725,"is_reserved":false,"is_disabled":false,"rental_uris":{"android":"levelo://app?vid=c8d24df4-b09f-432c-8af3-427efe4ed90b","ios":"levelo://app?vid=c8d24df4-b09f-432c-8af3-427efe4ed90b"},"vehicle_type_id":"4","last_reported":1744701044,"current_range_meters":17200,"station_id":"","pricing_plan_id":"cebpf4jnsgd1na2vs0mg"},{"bike_id":"35639424-47db-4f67-911e-79cf9b9a8925","system_id":"levelo_inurba_marseille","lat":43.3091,"lon":5.36844,"is_reserved":false,"is_disabled":false,"rental_uris":{"android":"levelo://app?vid=35639424-47db-4f67-911e-79cf9b9a8925","ios":"levelo://app?vid=35639424-47db-4f67-911e-79cf9b9a8925"},"vehicle_type_id":"4","last_reported":1744701044,"current_range_meters":17200,"station_id":"ce4bgn92rcd13ifvqbvg","pricing_plan_id":"cebpf4jnsgd1na2vs0mg"},{"bike_id":"504cf016-be85-40ae-bd6e-21fe1e837c30","system_id":"levelo_inurba_marseille","lat":43.32495,"lon":5.36573,"is_reserved":false,"is_disabled":false,"rental_uris":{"android":"levelo://app?vid=504cf016-be85-40ae-bd6e-21fe1e837c30","ios":"levelo://app?vid=504cf016-be85-40ae-bd6e-21fe1e837c30"},"vehicle_type_id":"4","last_reported":1744701044,"current_range_meters":17600,"station_id":"ce4bhs12rcd13ifvqhvg","pricing_plan_id":"cebpf4jnsgd1na2vs0mg"},{"bike_id":"751595e2-0aeb-4979-ba6e-f902dc9f8a1c","system_id":"levelo_inurba_marseille","lat":43.23162,"lon":5.43723,"is_reserved":false,"is_disabled":false,"rental_uris":{"android":"levelo://app?vid=751595e2-0aeb-4979-ba6e-f902dc9f8a1c","ios":"levelo://app?vid=751595e2-0aeb-4979-ba6e-f902dc9f8a1c"},"vehicle_type_id":"4","last_reported":1744701044,"current_range_meters":17600,"station_id":"ce4bhmp2rcd13ifvqgog","pricing_plan_id":"cebpf4jnsgd1na2vs0mg"},{"bike_id":"f7878edf-3ed4-4a3d-b98f-7ed55c542240","system_id":"levelo_inurba_marseille","lat":43.29287,"lon":5.40151,"is_reserved":false,"is_disabled":false,"rental_uris":{"android":"levelo://app?vid=f7878edf-3ed4-4a3d-b98f-7ed55c542240","ios":"levelo://app?vid=f7878edf-3ed4-4a3d-b98f-7ed55c542240"},"vehicle_type_id":"4","last_reported":1744701044,"current_range_meters":17600,"station_id":"ce4bh312rcd13ifvqdk0","pricing_plan_id":"cebpf4jnsgd1na2vs0mg"},{"bike_id":"e09b21d2-233b-4dbb-9f38-952d010171c4","system_id":"levelo_inurba_marseille","lat":43.24647,"lon":5.38167,"is_reserved":false,"is_disabled":false,"rental_uris":{"android":"levelo://app?vid=e09b21d2-233b-4dbb-9f38-952d010171c4","ios":"levelo://app?vid=e09b21d2-233b-4dbb-9f38-952d010171c4"},"vehicle_type_id":"4","last_reported":1744701044,"current_range_meters":17600,"station_id":"ce4bhih2rcd13ifvqfr0","pricing_plan_id":"cebpf4jnsgd1na2vs0mg"},{"bike_id":"ab6989cb-9f0e-47c2-afae-95401707d6d4","system_id":"levelo_inurba_marseille","lat":43.2904,"lon":5.39967,"is_reserved":false,"is_disabled":false,"rental_uris":{"android":"levelo://app?vid=ab6989cb-9f0e-47c2-afae-95401707d6d4","ios":"levelo://app?vid=ab6989cb-9f0e-47c2-afae-95401707d6d4"},"vehicle_type_id":"4","last_reported":1744701044,"current_range_meters":18000,"station_id":"ce4bh392rcd13ifvqdm0","pricing_plan_id":"cebpf4jnsgd1na2vs0mg"},{"bike_id":"951d466e-985a-4c7d-8e67-74b62fede0f0","system_id":"levelo_inurba_marseille","lat":43.23152,"lon":5.43719,"is_reserved":false,"is_disabled":false,"rental_uris":{"android":"levelo://app?vid=951d466e-985a-4c7d-8e67-74b62fede0f0","ios":"levelo://app?vid=951d466e-985a-4c7d-8e67-74b62fede0f0"},"vehicle_type_id":"4","last_reported":1744701044,"current_range_meters":18000,"station_id":"ce4bhmp2rcd13ifvqgog","pricing_plan_id":"cebpf4jnsgd1na2vs0mg"},{"bike_id":"f8a2aca9-a595-41b4-9746-786cf0fc2e07","system_id":"levelo_inurba_marseille","lat":43.295816,"lon":5.375153,"is_reserved":false,"is_disabled":true,"rental_uris":{"android":"levelo://app?vid=f8a2aca9-a595-41b4-9746-786cf0fc2e07","ios":"levelo://app?vid=f8a2aca9-a595-41b4-9746-786cf0fc2e07"},"vehicle_type_id":"4","last_reported":1744701044,"current_range_meters":18000,"station_id":"ce4bgh92rcd13ifvqb50","pricing_plan_id":"cebpf4jnsgd1na2vs0mg"},{"bike_id":"5e2ae11d-9564-46eb-9b39-c44a0592de90","system_id":"levelo_inurba_marseille","lat":43.31362,"lon":5.36713,"is_reserved":false,"is_disabled":false,"rental_uris":{"android":"levelo://app?vid=5e2ae11d-9564-46eb-9b39-c44a0592de90","ios":"levelo://app?vid=5e2ae11d-9564-46eb-9b39-c44a0592de90"},"vehicle_type_id":"4","last_reported":1744701044,"current_range_meters":18000,"station_id":"ce4bgr92rcd13ifvqc6g","pricing_plan_id":"cebpf4jnsgd1na2vs0mg"},{"bike_id":"3cf53dd6-8b21-4e6c-ba52-3a63109baf27","system_id":"levelo_inurba_marseille","lat":43.294487,"lon":5.385074,"is_reserved":false,"is_disabled":false,"rental_uris":{"android":"levelo://app?vid=3cf53dd6-8b21-4e6c-ba52-3a63109baf27","ios":"levelo://app?vid=3cf53dd6-8b21-4e6c-ba52-3a63109baf27"},"vehicle_type_id":"4","last_reported":1744701044,"current_range_meters":18000,"station_id":"","pricing_plan_id":"cebpf4jnsgd1na2vs0mg"},{"bike_id":"c97a8c32-1f93-407c-8e87-642551de8e17","system_id":"levelo_inurba_marseille","lat":43.29268,"lon":5.40138,"is_reserved":false,"is_disabled":false,"rental_uris":{"android":"levelo://app?vid=c97a8c32-1f93-407c-8e87-642551de8e17","ios":"levelo://app?vid=c97a8c32-1f93-407c-8e87-642551de8e17"},"vehicle_type_id":"4","last_reported":1744701044,"current_range_meters":18000,"station_id":"ce4bh312rcd13ifvqdk0","pricing_plan_id":"cebpf4jnsgd1na2vs0mg"},{"bike_id":"8cbd2531-c5b2-48f4-8519-f32a3a880ece","system_id":"levelo_inurba_marseille","lat":43.30536,"lon":5.36559,"is_reserved":false,"is_disabled":false,"rental_uris":{"android":"levelo://app?vid=8cbd2531-c5b2-48f4-8519-f32a3a880ece","ios":"levelo://app?vid=8cbd2531-c5b2-48f4-8519-f32a3a880ece"},"vehicle_type_id":"4","last_reported":1744701044,"current_range_meters":18000,"station_id":"ce4bgs12rcd13ifvqcag","pricing_plan_id":"cebpf4jnsgd1na2vs0mg"},{"bike_id":"32bd29f3-49ed-459f-be88-e56057e034fa","system_id":"levelo_inurba_marseille","lat":43.295291,"lon":5.390474,"is_reserved":false,"is_disabled":false,"rental_uris":{"android":"levelo://app?vid=32bd29f3-49ed-459f-be88-e56057e034fa","ios":"levelo://app?vid=32bd29f3-49ed-459f-be88-e56057e034fa"},"vehicle_type_id":"4","last_reported":1744701044,"current_range_meters":18000,"station_id":"ce4bh3p2rcd13ifvqdp0","pricing_plan_id":"cebpf4jnsgd1na2vs0mg"},{"bike_id":"011054fb-b71d-4a5c-92d3-d56ae333c3bc","system_id":"levelo_inurba_marseille","lat":43.27371,"lon":5.36256,"is_reserved":false,"is_disabled":false,"rental_uris":{"android":"levelo://app?vid=011054fb-b71d-4a5c-92d3-d56ae333c3bc","ios":"levelo://app?vid=011054fb-b71d-4a5c-92d3-d56ae333c3bc"},"vehicle_type_id":"4","last_reported":1744701044,"current_range_meters":17600,"station_id":"ce4bhbh2rcd13ifvqeo0","pricing_plan_id":"cebpf4jnsgd1na2vs0mg"},{"bike_id":"05664e36-336b-404a-b8de-2ca42d4238f0","system_id":"levelo_inurba_marseille","lat":43.25002,"lon":5.38217,"is_reserved":false,"is_disabled":false,"rental_uris":{"android":"levelo://app?vid=05664e36-336b-404a-b8de-2ca42d4238f0","ios":"levelo://app?vid=05664e36-336b-404a-b8de-2ca42d4238f0"},"vehicle_type_id":"4","last_reported":1744701044,"current_range_meters":18000,"station_id":"","pricing_plan_id":"cebpf4jnsgd1na2vs0mg"},{"bike_id":"9bb7f028-332a-41b2-8f60-156b56b14e35","system_id":"levelo_inurba_marseille","lat":43.2904,"lon":5.39962,"is_reserved":false,"is_disabled":false,"rental_uris":{"android":"levelo://app?vid=9bb7f028-332a-41b2-8f60-156b56b14e35","ios":"levelo://app?vid=9bb7f028-332a-41b2-8f60-156b56b14e35"},"vehicle_type_id":"4","last_reported":1744701044,"current_range_meters":18800,"station_id":"ce4bh392rcd13ifvqdm0","pricing_plan_id":"cebpf4jnsgd1na2vs0mg"},{"bike_id":"f84aa84f-4e79-4b18-a3b5-be1ea5d0cd26","system_id":"levelo_inurba_marseille","lat":43.32334,"lon":5.40617,"is_reserved":false,"is_disabled":false,"rental_uris":{"android":"levelo://app?vid=f84aa84f-4e79-4b18-a3b5-be1ea5d0cd26","ios":"levelo://app?vid=f84aa84f-4e79-4b18-a3b5-be1ea5d0cd26"},"vehicle_type_id":"4","last_reported":1744701044,"current_range_meters":18800,"station_id":"ce4bhq92rcd13ifvqhjg","pricing_plan_id":"cebpf4jnsgd1na2vs0mg"},{"bike_id":"3f52eb2a-913c-4823-9347-a3f551cc55a7","system_id":"levelo_inurba_marseille","lat":43.27498,"lon":5.42458,"is_reserved":false,"is_disabled":false,"rental_uris":{"android":"levelo://app?vid=3f52eb2a-913c-4823-9347-a3f551cc55a7","ios":"levelo://app?vid=3f52eb2a-913c-4823-9347-a3f551cc55a7"},"vehicle_type_id":"4","last_reported":1744701044,"current_range_meters":18800,"station_id":"ce4bhn92rcd13ifvqgrg","pricing_plan_id":"cebpf4jnsgd1na2vs0mg"},{"bike_id":"866f5828-41e6-42cb-bae9-2843ae8fb771","system_id":"levelo_inurba_marseille","lat":43.26563,"lon":5.39013,"is_reserved":false,"is_disabled":false,"rental_uris":{"android":"levelo://app?vid=866f5828-41e6-42cb-bae9-2843ae8fb771","ios":"levelo://app?vid=866f5828-41e6-42cb-bae9-2843ae8fb771"},"vehicle_type_id":"4","last_reported":1744701044,"current_range_meters":19200,"station_id":"ce4bhe12rcd13ifvqf30","pricing_plan_id":"cebpf4jnsgd1na2vs0mg"},{"bike_id":"763f021a-1dd9-4543-ab03-f8c6b16d550b","system_id":"levelo_inurba_marseille","lat":43.29711,"lon":5.37697,"is_reserved":false,"is_disabled":false,"rental_uris":{"android":"levelo://app?vid=763f021a-1dd9-4543-ab03-f8c6b16d550b","ios":"levelo://app?vid=763f021a-1dd9-4543-ab03-f8c6b16d550b"},"vehicle_type_id":"4","last_reported":1744701044,"current_range_meters":20400,"station_id":"ce4bgkh2rcd13ifvqbl0","pricing_plan_id":"cebpf4jnsgd1na2vs0mg"},{"bike_id":"186db948-65f9-45ed-a0ea-2721bd5cf07b","system_id":"levelo_inurba_marseille","lat":43.26787,"lon":5.39415,"is_reserved":false,"is_disabled":false,"rental_uris":{"android":"levelo://app?vid=186db948-65f9-45ed-a0ea-2721bd5cf07b","ios":"levelo://app?vid=186db948-65f9-45ed-a0ea-2721bd5cf07b"},"vehicle_type_id":"4","last_reported":1744701044,"current_range_meters":19200,"station_id":"ce4bhh12rcd13ifvqfg0","pricing_plan_id":"cebpf4jnsgd1na2vs0mg"},{"bike_id":"a0ddb0a5-f7f0-4281-aa27-9e82747cc573","system_id":"levelo_inurba_marseille","lat":43.33764,"lon":5.37479,"is_reserved":false,"is_disabled":false,"rental_uris":{"android":"levelo://app?vid=a0ddb0a5-f7f0-4281-aa27-9e82747cc573","ios":"levelo://app?vid=a0ddb0a5-f7f0-4281-aa27-9e82747cc573"},"vehicle_type_id":"4","last_reported":1744701044,"current_range_meters":19200,"station_id":"","pricing_plan_id":"cebpf4jnsgd1na2vs0mg"},{"bike_id":"5359819a-1cec-4605-a969-075d12c6bc4f","system_id":"levelo_inurba_marseille","lat":43.3208,"lon":5.41529,"is_reserved":false,"is_disabled":false,"rental_uris":{"android":"levelo://app?vid=5359819a-1cec-4605-a969-075d12c6bc4f","ios":"levelo://app?vid=5359819a-1cec-4605-a969-075d12c6bc4f"},"vehicle_type_id":"4","last_reported":1744701044,"current_range_meters":19200,"station_id":"ce4bhq92rcd13ifvqhkg","pricing_plan_id":"cebpf4jnsgd1na2vs0mg"},{"bike_id":"729f3ced-436b-45fb-817c-5716c04c6116","system_id":"levelo_inurba_marseille","lat":43.30953,"lon":5.36831,"is_reserved":false,"is_disabled":false,"rental_uris":{"android":"levelo://app?vid=729f3ced-436b-45fb-817c-5716c04c6116","ios":"levelo://app?vid=729f3ced-436b-45fb-817c-5716c04c6116"},"vehicle_type_id":"4","last_reported":1744701044,"current_range_meters":19600,"station_id":"","pricing_plan_id":"cebpf4jnsgd1na2vs0mg"},{"bike_id":"8422d098-67fd-4320-85a5-2bb0acedff57","system_id":"levelo_inurba_marseille","lat":43.33791,"lon":5.37422,"is_reserved":false,"is_disabled":false,"rental_uris":{"android":"levelo://app?vid=8422d098-67fd-4320-85a5-2bb0acedff57","ios":"levelo://app?vid=8422d098-67fd-4320-85a5-2bb0acedff57"},"vehicle_type_id":"4","last_reported":1744701044,"current_range_meters":19600,"station_id":"","pricing_plan_id":"cebpf4jnsgd1na2vs0mg"},{"bike_id":"4d4d0d48-2b72-44fe-b3a8-f9dca5bf8536","system_id":"levelo_inurba_marseille","lat":43.26565,"lon":5.37277,"is_reserved":false,"is_disabled":false,"rental_uris":{"android":"levelo://app?vid=4d4d0d48-2b72-44fe-b3a8-f9dca5bf8536","ios":"levelo://app?vid=4d4d0d48-2b72-44fe-b3a8-f9dca5bf8536"},"vehicle_type_id":"4","last_reported":1744701044,"current_range_meters":19600,"station_id":"ce4bhg12rcd13ifvqf70","pricing_plan_id":"cebpf4jnsgd1na2vs0mg"},{"bike_id":"12331370-0f64-43ec-9e6e-2c884c50c926","system_id":"levelo_inurba_marseille","lat":43.255802,"lon":5.382311,"is_reserved":false,"is_disabled":false,"rental_uris":{"android":"levelo://app?vid=12331370-0f64-43ec-9e6e-2c884c50c926","ios":"levelo://app?vid=12331370-0f64-43ec-9e6e-2c884c50c926"},"vehicle_type_id":"4","last_reported":1744701044,"current_range_meters":19600,"station_id":"ce4bhh92rcd13ifvqfh0","pricing_plan_id":"cebpf4jnsgd1na2vs0mg"},{"bike_id":"e574b3d2-7d50-422d-a320-1dbd226a92e3","system_id":"levelo_inurba_marseille","lat":43.24672,"lon":5.38202,"is_reserved":false,"is_disabled":false,"rental_uris":{"android":"levelo://app?vid=e574b3d2-7d50-422d-a320-1dbd226a92e3","ios":"levelo://app?vid=e574b3d2-7d50-422d-a320-1dbd226a92e3"},"vehicle_type_id":"4","last_reported":1744701044,"current_range_meters":19600,"station_id":"ce4bhih2rcd13ifvqfr0","pricing_plan_id":"cebpf4jnsgd1na2vs0mg"},{"bike_id":"b300a2b6-03b3-4b4f-9ddd-d90215fe44fe","system_id":"levelo_inurba_marseille","lat":43.31994,"lon":5.38168,"is_reserved":false,"is_disabled":false,"rental_uris":{"android":"levelo://app?vid=b300a2b6-03b3-4b4f-9ddd-d90215fe44fe","ios":"levelo://app?vid=b300a2b6-03b3-4b4f-9ddd-d90215fe44fe"},"vehicle_type_id":"4","last_reported":1744701044,"current_range_meters":19600,"station_id":"ce4bhr12rcd13ifvqhpg","pricing_plan_id":"cebpf4jnsgd1na2vs0mg"},{"bike_id":"db06721d-1ee1-431c-a317-214c373163e8","system_id":"levelo_inurba_marseille","lat":43.31078,"lon":5.42462,"is_reserved":false,"is_disabled":false,"rental_uris":{"android":"levelo://app?vid=db06721d-1ee1-431c-a317-214c373163e8","ios":"levelo://app?vid=db06721d-1ee1-431c-a317-214c373163e8"},"vehicle_type_id":"4","last_reported":1744701044,"current_range_meters":19600,"station_id":"ce4bhp92rcd13ifvqhag","pricing_plan_id":"cebpf4jnsgd1na2vs0mg"},{"bike_id":"df48cf7d-f898-49eb-87ea-51f5181e82f8","system_id":"levelo_inurba_marseille","lat":43.29262,"lon":5.37646,"is_reserved":false,"is_disabled":false,"rental_uris":{"android":"levelo://app?vid=df48cf7d-f898-49eb-87ea-51f5181e82f8","ios":"levelo://app?vid=df48cf7d-f898-49eb-87ea-51f5181e82f8"},"vehicle_type_id":"4","last_reported":1744701044,"current_range_meters":19600,"station_id":"ce4bgi12rcd13ifvqb80","pricing_plan_id":"cebpf4jnsgd1na2vs0mg"},{"bike_id":"61e2dec8-2126-4a72-8370-3556050ebc47","system_id":"levelo_inurba_marseille","lat":43.30406,"lon":5.41284,"is_reserved":false,"is_disabled":false,"rental_uris":{"android":"levelo://app?vid=61e2dec8-2126-4a72-8370-3556050ebc47","ios":"levelo://app?vid=61e2dec8-2126-4a72-8370-3556050ebc47"},"vehicle_type_id":"4","last_reported":1744701044,"current_range_meters":19600,"station_id":"ce4bhop2rcd13ifvqh8g","pricing_plan_id":"cebpf4jnsgd1na2vs0mg"},{"bike_id":"59db5a54-8cb0-4081-8434-21fd90af8a09","system_id":"levelo_inurba_marseille","lat":43.2499,"lon":5.38946,"is_reserved":false,"is_disabled":false,"rental_uris":{"android":"levelo://app?vid=59db5a54-8cb0-4081-8434-21fd90af8a09","ios":"levelo://app?vid=59db5a54-8cb0-4081-8434-21fd90af8a09"},"vehicle_type_id":"4","last_reported":1744701044,"current_range_meters":19600,"station_id":"ce4bhgp2rcd13ifvqfd0","pricing_plan_id":"cebpf4jnsgd1na2vs0mg"},{"bike_id":"0feaa9fb-76df-44b2-b2d9-e3328b156510","system_id":"levelo_inurba_marseille","lat":43.33606,"lon":5.41033,"is_reserved":false,"is_disabled":false,"rental_uris":{"android":"levelo://app?vid=0feaa9fb-76df-44b2-b2d9-e3328b156510","ios":"levelo://app?vid=0feaa9fb-76df-44b2-b2d9-e3328b156510"},"vehicle_type_id":"4","last_reported":1744701044,"current_range_meters":20000,"station_id":"ce4bhqh2rcd13ifvqhmg","pricing_plan_id":"cebpf4jnsgd1na2vs0mg"},{"bike_id":"a8ed8bfe-e018-4ae7-b755-72caf268e29f","system_id":"levelo_inurba_marseille","lat":43.30169,"lon":5.38107,"is_reserved":false,"is_disabled":true,"rental_uris":{"android":"levelo://app?vid=a8ed8bfe-e018-4ae7-b755-72caf268e29f","ios":"levelo://app?vid=a8ed8bfe-e018-4ae7-b755-72caf268e29f"},"vehicle_type_id":"4","last_reported":1744701044,"current_range_meters":20000,"station_id":"ce4bgjp2rcd13ifvqbh0","pricing_plan_id":"cebpf4jnsgd1na2vs0mg"},{"bike_id":"3494112e-0cb5-4858-a958-67cda42ffcf4","system_id":"levelo_inurba_marseille","lat":43.32475,"lon":5.36568,"is_reserved":false,"is_disabled":false,"rental_uris":{"android":"levelo://app?vid=3494112e-0cb5-4858-a958-67cda42ffcf4","ios":"levelo://app?vid=3494112e-0cb5-4858-a958-67cda42ffcf4"},"vehicle_type_id":"4","last_reported":1744701044,"current_range_meters":20000,"station_id":"ce4bhs12rcd13ifvqhvg","pricing_plan_id":"cebpf4jnsgd1na2vs0mg"},{"bike_id":"f28ab945-c9df-4b0b-be4c-c2ea61470e17","system_id":"levelo_inurba_marseille","lat":43.32481,"lon":5.36567,"is_reserved":false,"is_disabled":false,"rental_uris":{"android":"levelo://app?vid=f28ab945-c9df-4b0b-be4c-c2ea61470e17","ios":"levelo://app?vid=f28ab945-c9df-4b0b-be4c-c2ea61470e17"},"vehicle_type_id":"4","last_reported":1744701044,"current_range_meters":20000,"station_id":"ce4bhs12rcd13ifvqhvg","pricing_plan_id":"cebpf4jnsgd1na2vs0mg"},{"bike_id":"1c875cd9-3889-44c6-b383-cf19314708df","system_id":"levelo_inurba_marseille","lat":43.25931,"lon":5.40911,"is_reserved":false,"is_disabled":false,"rental_uris":{"android":"levelo://app?vid=1c875cd9-3889-44c6-b383-cf19314708df","ios":"levelo://app?vid=1c875cd9-3889-44c6-b383-cf19314708df"},"vehicle_type_id":"4","last_reported":1744701044,"current_range_meters":20400,"station_id":"ce4bhm92rcd13ifvqglg","pricing_plan_id":"cebpf4jnsgd1na2vs0mg"},{"bike_id":"33920b77-56f3-4fcf-9201-a68d24412337","system_id":"levelo_inurba_marseille","lat":43.297779,"lon":5.370906,"is_reserved":false,"is_disabled":false,"rental_uris":{"android":"levelo://app?vid=33920b77-56f3-4fcf-9201-a68d24412337","ios":"levelo://app?vid=33920b77-56f3-4fcf-9201-a68d24412337"},"vehicle_type_id":"4","last_reported":1744701044,"current_range_meters":20400,"station_id":"ce4bhph2rcd13ifvqhdg","pricing_plan_id":"cebpf4jnsgd1na2vs0mg"},{"bike_id":"0e18e1d9-7214-4f28-9e1c-6164264591b6","system_id":"levelo_inurba_marseille","lat":43.29681,"lon":5.37286,"is_reserved":false,"is_disabled":false,"rental_uris":{"android":"levelo://app?vid=0e18e1d9-7214-4f28-9e1c-6164264591b6","ios":"levelo://app?vid=0e18e1d9-7214-4f28-9e1c-6164264591b6"},"vehicle_type_id":"4","last_reported":1744701044,"current_range_meters":20400,"station_id":"ce4bgk12rcd13ifvqbj0","pricing_plan_id":"cebpf4jnsgd1na2vs0mg"},{"bike_id":"6a042460-563b-41fb-96c7-3e725f2178b5","system_id":"levelo_inurba_marseille","lat":43.286997,"lon":5.373765,"is_reserved":false,"is_disabled":false,"rental_uris":{"android":"levelo://app?vid=6a042460-563b-41fb-96c7-3e725f2178b5","ios":"levelo://app?vid=6a042460-563b-41fb-96c7-3e725f2178b5"},"vehicle_type_id":"4","last_reported":1744701044,"current_range_meters":17600,"station_id":"ce4bhhh2rcd13ifvqfk0","pricing_plan_id":"cebpf4jnsgd1na2vs0mg"},{"bike_id":"c96f8076-74c1-4118-9f4e-192049c4ecb4","system_id":"levelo_inurba_marseille","lat":43.25826,"lon":5.39444,"is_reserved":false,"is_disabled":false,"rental_uris":{"android":"levelo://app?vid=c96f8076-74c1-4118-9f4e-192049c4ecb4","ios":"levelo://app?vid=c96f8076-74c1-4118-9f4e-192049c4ecb4"},"vehicle_type_id":"4","last_reported":1744701044,"current_range_meters":20400,"station_id":"ce4bhip2rcd13ifvqft0","pricing_plan_id":"cebpf4jnsgd1na2vs0mg"},{"bike_id":"c3bb870c-a7e6-4b46-ad78-da8dec4be5b6","system_id":"levelo_inurba_marseille","lat":43.30535,"lon":5.36712,"is_reserved":false,"is_disabled":true,"rental_uris":{"android":"levelo://app?vid=c3bb870c-a7e6-4b46-ad78-da8dec4be5b6","ios":"levelo://app?vid=c3bb870c-a7e6-4b46-ad78-da8dec4be5b6"},"vehicle_type_id":"4","last_reported":1744701044,"current_range_meters":20400,"station_id":"ce4bgrp2rcd13ifvqc9g","pricing_plan_id":"cebpf4jnsgd1na2vs0mg"},{"bike_id":"810942cf-4e8e-49c5-a9b0-1039f0bcecc3","system_id":"levelo_inurba_marseille","lat":43.30554,"lon":5.36562,"is_reserved":false,"is_disabled":false,"rental_uris":{"android":"levelo://app?vid=810942cf-4e8e-49c5-a9b0-1039f0bcecc3","ios":"levelo://app?vid=810942cf-4e8e-49c5-a9b0-1039f0bcecc3"},"vehicle_type_id":"4","last_reported":1744701044,"current_range_meters":20800,"station_id":"ce4bgs12rcd13ifvqcag","pricing_plan_id":"cebpf4jnsgd1na2vs0mg"},{"bike_id":"60ec4175-4537-435a-95f9-8e40681109c0","system_id":"levelo_inurba_marseille","lat":43.31387,"lon":5.36759,"is_reserved":false,"is_disabled":false,"rental_uris":{"android":"levelo://app?vid=60ec4175-4537-435a-95f9-8e40681109c0","ios":"levelo://app?vid=60ec4175-4537-435a-95f9-8e40681109c0"},"vehicle_type_id":"4","last_reported":1744701044,"current_range_meters":20800,"station_id":"","pricing_plan_id":"cebpf4jnsgd1na2vs0mg"},{"bike_id":"2aa9d864-f589-4a68-87ce-7a822dd9d791","system_id":"levelo_inurba_marseille","lat":43.25944,"lon":5.40896,"is_reserved":false,"is_disabled":false,"rental_uris":{"android":"levelo://app?vid=2aa9d864-f589-4a68-87ce-7a822dd9d791","ios":"levelo://app?vid=2aa9d864-f589-4a68-87ce-7a822dd9d791"},"vehicle_type_id":"4","last_reported":1744701044,"current_range_meters":20800,"station_id":"ce4bhm92rcd13ifvqglg","pricing_plan_id":"cebpf4jnsgd1na2vs0mg"},{"bike_id":"fa8b5d88-c56b-4501-99c1-1b5a6dfd1f66","system_id":"levelo_inurba_marseille","lat":43.21194,"lon":5.35072,"is_reserved":false,"is_disabled":false,"rental_uris":{"android":"levelo://app?vid=fa8b5d88-c56b-4501-99c1-1b5a6dfd1f66","ios":"levelo://app?vid=fa8b5d88-c56b-4501-99c1-1b5a6dfd1f66"},"vehicle_type_id":"4","last_reported":1744701044,"current_range_meters":20800,"station_id":"st_cvj6sg6p6f1abm77japg","pricing_plan_id":"cebpf4jnsgd1na2vs0mg"},{"bike_id":"c936bec5-eb22-4a9e-a1eb-f5368582a668","system_id":"levelo_inurba_marseille","lat":43.29511,"lon":5.37496,"is_reserved":false,"is_disabled":false,"rental_uris":{"android":"levelo://app?vid=c936bec5-eb22-4a9e-a1eb-f5368582a668","ios":"levelo://app?vid=c936bec5-eb22-4a9e-a1eb-f5368582a668"},"vehicle_type_id":"4","last_reported":1744701044,"current_range_meters":20800,"station_id":"ce4bgkp2rcd13ifvqbmg","pricing_plan_id":"cebpf4jnsgd1na2vs0mg"},{"bike_id":"a446f522-7cb7-4d1c-a2e9-698388648e63","system_id":"levelo_inurba_marseille","lat":43.29684,"lon":5.3731,"is_reserved":false,"is_disabled":false,"rental_uris":{"android":"levelo://app?vid=a446f522-7cb7-4d1c-a2e9-698388648e63","ios":"levelo://app?vid=a446f522-7cb7-4d1c-a2e9-698388648e63"},"vehicle_type_id":"4","last_reported":1744701044,"current_range_meters":21600,"station_id":"ce4bgk12rcd13ifvqbj0","pricing_plan_id":"cebpf4jnsgd1na2vs0mg"},{"bike_id":"6bf5a380-400e-4cd6-bc1e-356afac9ee45","system_id":"levelo_inurba_marseille","lat":43.24165,"lon":5.3639,"is_reserved":false,"is_disabled":false,"rental_uris":{"android":"levelo://app?vid=6bf5a380-400e-4cd6-bc1e-356afac9ee45","ios":"levelo://app?vid=6bf5a380-400e-4cd6-bc1e-356afac9ee45"},"vehicle_type_id":"4","last_reported":1744701044,"current_range_meters":21600,"station_id":"cpo36qri1sfpv3e86is0","pricing_plan_id":"cebpf4jnsgd1na2vs0mg"},{"bike_id":"b6698060-0f55-4ea2-a965-703f68491dd0","system_id":"levelo_inurba_marseille","lat":43.25002,"lon":5.38935,"is_reserved":false,"is_disabled":false,"rental_uris":{"android":"levelo://app?vid=b6698060-0f55-4ea2-a965-703f68491dd0","ios":"levelo://app?vid=b6698060-0f55-4ea2-a965-703f68491dd0"},"vehicle_type_id":"4","last_reported":1744701044,"current_range_meters":21600,"station_id":"ce4bhgp2rcd13ifvqfd0","pricing_plan_id":"cebpf4jnsgd1na2vs0mg"},{"bike_id":"8721677b-7d26-4616-9006-6a91080dce3b","system_id":"levelo_inurba_marseille","lat":43.272195,"lon":5.39172,"is_reserved":false,"is_disabled":false,"rental_uris":{"android":"levelo://app?vid=8721677b-7d26-4616-9006-6a91080dce3b","ios":"levelo://app?vid=8721677b-7d26-4616-9006-6a91080dce3b"},"vehicle_type_id":"4","last_reported":1744701044,"current_range_meters":21600,"station_id":"ce4bhhp2rcd13ifvqfm0","pricing_plan_id":"cebpf4jnsgd1na2vs0mg"},{"bike_id":"7ad0bf0f-5294-442b-8825-791f1416a999","system_id":"levelo_inurba_marseille","lat":43.2415,"lon":5.39773,"is_reserved":false,"is_disabled":false,"rental_uris":{"android":"levelo://app?vid=7ad0bf0f-5294-442b-8825-791f1416a999","ios":"levelo://app?vid=7ad0bf0f-5294-442b-8825-791f1416a999"},"vehicle_type_id":"4","last_reported":1744701044,"current_range_meters":21600,"station_id":"ce4bhn12rcd13ifvqgpg","pricing_plan_id":"cebpf4jnsgd1na2vs0mg"},{"bike_id":"5ef74e85-9558-4bd9-968a-159b7a73f4b4","system_id":"levelo_inurba_marseille","lat":43.29032,"lon":5.3997,"is_reserved":false,"is_disabled":false,"rental_uris":{"android":"levelo://app?vid=5ef74e85-9558-4bd9-968a-159b7a73f4b4","ios":"levelo://app?vid=5ef74e85-9558-4bd9-968a-159b7a73f4b4"},"vehicle_type_id":"4","last_reported":1744701044,"current_range_meters":22000,"station_id":"ce4bh392rcd13ifvqdm0","pricing_plan_id":"cebpf4jnsgd1na2vs0mg"},{"bike_id":"21c82a25-300b-481a-b85b-996d3ce7d833","system_id":"levelo_inurba_marseille","lat":43.257242,"lon":5.411132,"is_reserved":false,"is_disabled":false,"rental_uris":{"android":"levelo://app?vid=21c82a25-300b-481a-b85b-996d3ce7d833","ios":"levelo://app?vid=21c82a25-300b-481a-b85b-996d3ce7d833"},"vehicle_type_id":"4","last_reported":1744701044,"current_range_meters":22000,"station_id":"ce4bhkp2rcd13ifvqgd0","pricing_plan_id":"cebpf4jnsgd1na2vs0mg"},{"bike_id":"b240f9d8-ae13-4348-a109-0b3c39d47a69","system_id":"levelo_inurba_marseille","lat":43.264743,"lon":5.391489,"is_reserved":false,"is_disabled":false,"rental_uris":{"android":"levelo://app?vid=b240f9d8-ae13-4348-a109-0b3c39d47a69","ios":"levelo://app?vid=b240f9d8-ae13-4348-a109-0b3c39d47a69"},"vehicle_type_id":"4","last_reported":1744701044,"current_range_meters":22000,"station_id":"ce4bhg92rcd13ifvqf90","pricing_plan_id":"cebpf4jnsgd1na2vs0mg"},{"bike_id":"75aeda06-bbc2-4b16-85f7-54753a374ed6","system_id":"levelo_inurba_marseille","lat":43.2359,"lon":5.40364,"is_reserved":false,"is_disabled":false,"rental_uris":{"android":"levelo://app?vid=75aeda06-bbc2-4b16-85f7-54753a374ed6","ios":"levelo://app?vid=75aeda06-bbc2-4b16-85f7-54753a374ed6"},"vehicle_type_id":"4","last_reported":1744701044,"current_range_meters":22000,"station_id":"","pricing_plan_id":"cebpf4jnsgd1na2vs0mg"},{"bike_id":"e01db4f2-0e1a-4481-82ae-679ce05a9aba","system_id":"levelo_inurba_marseille","lat":43.30592,"lon":5.37236,"is_reserved":false,"is_disabled":false,"rental_uris":{"android":"levelo://app?vid=e01db4f2-0e1a-4481-82ae-679ce05a9aba","ios":"levelo://app?vid=e01db4f2-0e1a-4481-82ae-679ce05a9aba"},"vehicle_type_id":"4","last_reported":1744701044,"current_range_meters":21600,"station_id":"ce4bgqh2rcd13ifvqc4g","pricing_plan_id":"cebpf4jnsgd1na2vs0mg"},{"bike_id":"f06c4394-df29-478f-b606-e38b32292526","system_id":"levelo_inurba_marseille","lat":43.266945,"lon":5.382305,"is_reserved":false,"is_disabled":false,"rental_uris":{"android":"levelo://app?vid=f06c4394-df29-478f-b606-e38b32292526","ios":"levelo://app?vid=f06c4394-df29-478f-b606-e38b32292526"},"vehicle_type_id":"4","last_reported":1744701044,"current_range_meters":22400,"station_id":"ce4bhg92rcd13ifvqf90","pricing_plan_id":"cebpf4jnsgd1na2vs0mg"},{"bike_id":"310292d5-bdeb-40f7-a94f-9d2b542d5222","system_id":"levelo_inurba_marseille","lat":43.24166,"lon":5.36397,"is_reserved":false,"is_disabled":false,"rental_uris":{"android":"levelo://app?vid=310292d5-bdeb-40f7-a94f-9d2b542d5222","ios":"levelo://app?vid=310292d5-bdeb-40f7-a94f-9d2b542d5222"},"vehicle_type_id":"4","last_reported":1744701044,"current_range_meters":22400,"station_id":"cpo36qri1sfpv3e86is0","pricing_plan_id":"cebpf4jnsgd1na2vs0mg"},{"bike_id":"4c0ede51-6b22-44f8-8575-b86906a20779","system_id":"levelo_inurba_marseille","lat":43.21768,"lon":5.34613,"is_reserved":false,"is_disabled":false,"rental_uris":{"android":"levelo://app?vid=4c0ede51-6b22-44f8-8575-b86906a20779","ios":"levelo://app?vid=4c0ede51-6b22-44f8-8575-b86906a20779"},"vehicle_type_id":"4","last_reported":1744701044,"current_range_meters":22400,"station_id":"st_cvj6r9ubvosntc0bgbag","pricing_plan_id":"cebpf4jnsgd1na2vs0mg"},{"bike_id":"9b5649b5-f952-4dec-a135-c7e1e6bb977f","system_id":"levelo_inurba_marseille","lat":43.3053,"lon":5.36713,"is_reserved":false,"is_disabled":false,"rental_uris":{"android":"levelo://app?vid=9b5649b5-f952-4dec-a135-c7e1e6bb977f","ios":"levelo://app?vid=9b5649b5-f952-4dec-a135-c7e1e6bb977f"},"vehicle_type_id":"4","last_reported":1744701044,"current_range_meters":20800,"station_id":"ce4bgrp2rcd13ifvqc9g","pricing_plan_id":"cebpf4jnsgd1na2vs0mg"},{"bike_id":"78595723-98dc-44b7-9b87-97529b0548f5","system_id":"levelo_inurba_marseille","lat":43.25004,"lon":5.38929,"is_reserved":false,"is_disabled":false,"rental_uris":{"android":"levelo://app?vid=78595723-98dc-44b7-9b87-97529b0548f5","ios":"levelo://app?vid=78595723-98dc-44b7-9b87-97529b0548f5"},"vehicle_type_id":"4","last_reported":1744701044,"current_range_meters":22400,"station_id":"ce4bhgp2rcd13ifvqfd0","pricing_plan_id":"cebpf4jnsgd1na2vs0mg"},{"bike_id":"7911b44f-6c04-4afd-9da3-625f204a52f8","system_id":"levelo_inurba_marseille","lat":43.31374,"lon":5.3674,"is_reserved":false,"is_disabled":false,"rental_uris":{"android":"levelo://app?vid=7911b44f-6c04-4afd-9da3-625f204a52f8","ios":"levelo://app?vid=7911b44f-6c04-4afd-9da3-625f204a52f8"},"vehicle_type_id":"4","last_reported":1744701044,"current_range_meters":22400,"station_id":"ce4bgr92rcd13ifvqc6g","pricing_plan_id":"cebpf4jnsgd1na2vs0mg"},{"bike_id":"4b35b685-5fed-4de4-838c-4970d7589d89","system_id":"levelo_inurba_marseille","lat":43.28735,"lon":5.40016,"is_reserved":false,"is_disabled":true,"rental_uris":{"android":"levelo://app?vid=4b35b685-5fed-4de4-838c-4970d7589d89","ios":"levelo://app?vid=4b35b685-5fed-4de4-838c-4970d7589d89"},"vehicle_type_id":"4","last_reported":1744701044,"current_range_meters":22400,"station_id":"ce4bho92rcd13ifvqh3g","pricing_plan_id":"cebpf4jnsgd1na2vs0mg"},{"bike_id":"68fa0d46-7071-4f65-8360-b33f91ad677c","system_id":"levelo_inurba_marseille","lat":43.29545,"lon":5.42296,"is_reserved":false,"is_disabled":false,"rental_uris":{"android":"levelo://app?vid=68fa0d46-7071-4f65-8360-b33f91ad677c","ios":"levelo://app?vid=68fa0d46-7071-4f65-8360-b33f91ad677c"},"vehicle_type_id":"4","last_reported":1744701044,"current_range_meters":22800,"station_id":"ce4bhph2rcd13ifvqhdg","pricing_plan_id":"cebpf4jnsgd1na2vs0mg"},{"bike_id":"960caa4c-48e7-4e00-bca7-aeefd828a0a0","system_id":"levelo_inurba_marseille","lat":43.28001,"lon":5.40936,"is_reserved":false,"is_disabled":false,"rental_uris":{"android":"levelo://app?vid=960caa4c-48e7-4e00-bca7-aeefd828a0a0","ios":"levelo://app?vid=960caa4c-48e7-4e00-bca7-aeefd828a0a0"},"vehicle_type_id":"4","last_reported":1744701044,"current_range_meters":22800,"station_id":"","pricing_plan_id":"cebpf4jnsgd1na2vs0mg"},{"bike_id":"4d331a86-a3cb-4d7d-a2e2-e0d35e11dfb8","system_id":"levelo_inurba_marseille","lat":43.3122,"lon":5.36867,"is_reserved":false,"is_disabled":false,"rental_uris":{"android":"levelo://app?vid=4d331a86-a3cb-4d7d-a2e2-e0d35e11dfb8","ios":"levelo://app?vid=4d331a86-a3cb-4d7d-a2e2-e0d35e11dfb8"},"vehicle_type_id":"4","last_reported":1744701044,"current_range_meters":22800,"station_id":"ce4bgl92rcd13ifvqbq0","pricing_plan_id":"cebpf4jnsgd1na2vs0mg"},{"bike_id":"b7bf3f04-046b-4e36-a002-af53047681ce","system_id":"levelo_inurba_marseille","lat":43.24667,"lon":5.38161,"is_reserved":false,"is_disabled":false,"rental_uris":{"android":"levelo://app?vid=b7bf3f04-046b-4e36-a002-af53047681ce","ios":"levelo://app?vid=b7bf3f04-046b-4e36-a002-af53047681ce"},"vehicle_type_id":"4","last_reported":1744701044,"current_range_meters":22800,"station_id":"ce4bhih2rcd13ifvqfr0","pricing_plan_id":"cebpf4jnsgd1na2vs0mg"},{"bike_id":"6c103f9f-c959-46ad-a2e8-e44f9660c68e","system_id":"levelo_inurba_marseille","lat":43.21201,"lon":5.35058,"is_reserved":false,"is_disabled":false,"rental_uris":{"android":"levelo://app?vid=6c103f9f-c959-46ad-a2e8-e44f9660c68e","ios":"levelo://app?vid=6c103f9f-c959-46ad-a2e8-e44f9660c68e"},"vehicle_type_id":"4","last_reported":1744701044,"current_range_meters":22800,"station_id":"st_cvj6sg6p6f1abm77japg","pricing_plan_id":"cebpf4jnsgd1na2vs0mg"},{"bike_id":"174c2c9b-2f0a-47fb-998b-9f7260f2f135","system_id":"levelo_inurba_marseille","lat":43.30739,"lon":5.42439,"is_reserved":false,"is_disabled":false,"rental_uris":{"android":"levelo://app?vid=174c2c9b-2f0a-47fb-998b-9f7260f2f135","ios":"levelo://app?vid=174c2c9b-2f0a-47fb-998b-9f7260f2f135"},"vehicle_type_id":"4","last_reported":1744701044,"current_range_meters":22800,"station_id":"st_cvj6ca6bvosntc0bfgr0","pricing_plan_id":"cebpf4jnsgd1na2vs0mg"},{"bike_id":"92090e38-e4c9-43af-80db-df82a03c7327","system_id":"levelo_inurba_marseille","lat":43.31179,"lon":5.38716,"is_reserved":false,"is_disabled":false,"rental_uris":{"android":"levelo://app?vid=92090e38-e4c9-43af-80db-df82a03c7327","ios":"levelo://app?vid=92090e38-e4c9-43af-80db-df82a03c7327"},"vehicle_type_id":"4","last_reported":1744701044,"current_range_meters":22800,"station_id":"ce4bgv12rcd13ifvqcp0","pricing_plan_id":"cebpf4jnsgd1na2vs0mg"},{"bike_id":"ebf98fde-7d3f-405e-ad44-acb8f71cef2a","system_id":"levelo_inurba_marseille","lat":43.32115,"lon":5.36773,"is_reserved":false,"is_disabled":false,"rental_uris":{"android":"levelo://app?vid=ebf98fde-7d3f-405e-ad44-acb8f71cef2a","ios":"levelo://app?vid=ebf98fde-7d3f-405e-ad44-acb8f71cef2a"},"vehicle_type_id":"4","last_reported":1744701044,"current_range_meters":22800,"station_id":"ce4bhrh2rcd13ifvqhug","pricing_plan_id":"cebpf4jnsgd1na2vs0mg"},{"bike_id":"69152c5e-fa6e-4009-9d3b-7dc743a6cd0d","system_id":"levelo_inurba_marseille","lat":43.286774,"lon":5.38677,"is_reserved":false,"is_disabled":false,"rental_uris":{"android":"levelo://app?vid=69152c5e-fa6e-4009-9d3b-7dc743a6cd0d","ios":"levelo://app?vid=69152c5e-fa6e-4009-9d3b-7dc743a6cd0d"},"vehicle_type_id":"4","last_reported":1744701044,"current_range_meters":22800,"station_id":"ce4bgvh2rcd13ifvqcs0","pricing_plan_id":"cebpf4jnsgd1na2vs0mg"},{"bike_id":"d6fee597-3293-47ae-914e-c48760e9f772","system_id":"levelo_inurba_marseille","lat":43.24056,"lon":5.37785,"is_reserved":false,"is_disabled":false,"rental_uris":{"android":"levelo://app?vid=d6fee597-3293-47ae-914e-c48760e9f772","ios":"levelo://app?vid=d6fee597-3293-47ae-914e-c48760e9f772"},"vehicle_type_id":"4","last_reported":1744701044,"current_range_meters":22800,"station_id":"ce4bhnp2rcd13ifvqgvg","pricing_plan_id":"cebpf4jnsgd1na2vs0mg"},{"bike_id":"fdf2c060-aefe-41bc-9ad1-16834037cae2","system_id":"levelo_inurba_marseille","lat":43.23144,"lon":5.43701,"is_reserved":false,"is_disabled":false,"rental_uris":{"android":"levelo://app?vid=fdf2c060-aefe-41bc-9ad1-16834037cae2","ios":"levelo://app?vid=fdf2c060-aefe-41bc-9ad1-16834037cae2"},"vehicle_type_id":"4","last_reported":1744701044,"current_range_meters":23200,"station_id":"ce4bhmp2rcd13ifvqgog","pricing_plan_id":"cebpf4jnsgd1na2vs0mg"},{"bike_id":"a0af95fc-17ee-48c4-a528-672ae8d61f1c","system_id":"levelo_inurba_marseille","lat":43.29921,"lon":5.43739,"is_reserved":false,"is_disabled":false,"rental_uris":{"android":"levelo://app?vid=a0af95fc-17ee-48c4-a528-672ae8d61f1c","ios":"levelo://app?vid=a0af95fc-17ee-48c4-a528-672ae8d61f1c"},"vehicle_type_id":"4","last_reported":1744701044,"current_range_meters":23200,"station_id":"","pricing_plan_id":"cebpf4jnsgd1na2vs0mg"},{"bike_id":"c7f73e13-ce32-4228-9caa-cab90da998f5","system_id":"levelo_inurba_marseille","lat":43.29525,"lon":5.39044,"is_reserved":false,"is_disabled":true,"rental_uris":{"android":"levelo://app?vid=c7f73e13-ce32-4228-9caa-cab90da998f5","ios":"levelo://app?vid=c7f73e13-ce32-4228-9caa-cab90da998f5"},"vehicle_type_id":"4","last_reported":1744701044,"current_range_meters":23200,"station_id":"ce4bh3p2rcd13ifvqdp0","pricing_plan_id":"cebpf4jnsgd1na2vs0mg"},{"bike_id":"946d3403-4aec-41db-9cc6-4a2dd08bffcf","system_id":"levelo_inurba_marseille","lat":43.27318,"lon":5.39109,"is_reserved":false,"is_disabled":false,"rental_uris":{"android":"levelo://app?vid=946d3403-4aec-41db-9cc6-4a2dd08bffcf","ios":"levelo://app?vid=946d3403-4aec-41db-9cc6-4a2dd08bffcf"},"vehicle_type_id":"4","last_reported":1744701044,"current_range_meters":23200,"station_id":"ce4bhgp2rcd13ifvqfe0","pricing_plan_id":"cebpf4jnsgd1na2vs0mg"},{"bike_id":"a33af0b8-433d-4b19-b743-acae8ee798e5","system_id":"levelo_inurba_marseille","lat":43.29912,"lon":5.37483,"is_reserved":false,"is_disabled":false,"rental_uris":{"android":"levelo://app?vid=a33af0b8-433d-4b19-b743-acae8ee798e5","ios":"levelo://app?vid=a33af0b8-433d-4b19-b743-acae8ee798e5"},"vehicle_type_id":"4","last_reported":1744701044,"current_range_meters":23200,"station_id":"ce4bgjh2rcd13ifvqbg0","pricing_plan_id":"cebpf4jnsgd1na2vs0mg"},{"bike_id":"540a6683-8271-4ace-8f98-974f51b946b1","system_id":"levelo_inurba_marseille","lat":43.33606,"lon":5.409984,"is_reserved":false,"is_disabled":false,"rental_uris":{"android":"levelo://app?vid=540a6683-8271-4ace-8f98-974f51b946b1","ios":"levelo://app?vid=540a6683-8271-4ace-8f98-974f51b946b1"},"vehicle_type_id":"4","last_reported":1744701044,"current_range_meters":23200,"station_id":"ce4bhqh2rcd13ifvqhmg","pricing_plan_id":"cebpf4jnsgd1na2vs0mg"},{"bike_id":"f768fa8d-e14a-4a4c-a743-dc92cc50513d","system_id":"levelo_inurba_marseille","lat":43.32467,"lon":5.36566,"is_reserved":false,"is_disabled":false,"rental_uris":{"android":"levelo://app?vid=f768fa8d-e14a-4a4c-a743-dc92cc50513d","ios":"levelo://app?vid=f768fa8d-e14a-4a4c-a743-dc92cc50513d"},"vehicle_type_id":"4","last_reported":1744701044,"current_range_meters":23200,"station_id":"ce4bhs12rcd13ifvqhvg","pricing_plan_id":"cebpf4jnsgd1na2vs0mg"},{"bike_id":"598ce97c-5255-49d5-8c47-ae99741ed26c","system_id":"levelo_inurba_marseille","lat":43.30902,"lon":5.36844,"is_reserved":false,"is_disabled":false,"rental_uris":{"android":"levelo://app?vid=598ce97c-5255-49d5-8c47-ae99741ed26c","ios":"levelo://app?vid=598ce97c-5255-49d5-8c47-ae99741ed26c"},"vehicle_type_id":"4","last_reported":1744701044,"current_range_meters":20800,"station_id":"ce4bgn92rcd13ifvqbvg","pricing_plan_id":"cebpf4jnsgd1na2vs0mg"},{"bike_id":"795398da-c661-4f4d-a90f-6a903d1a90f0","system_id":"levelo_inurba_marseille","lat":43.26797,"lon":5.39422,"is_reserved":false,"is_disabled":false,"rental_uris":{"android":"levelo://app?vid=795398da-c661-4f4d-a90f-6a903d1a90f0","ios":"levelo://app?vid=795398da-c661-4f4d-a90f-6a903d1a90f0"},"vehicle_type_id":"4","last_reported":1744701044,"current_range_meters":23200,"station_id":"ce4bhh12rcd13ifvqfg0","pricing_plan_id":"cebpf4jnsgd1na2vs0mg"},{"bike_id":"7853d8dc-e451-4c49-a2c5-94b566c62b7f","system_id":"levelo_inurba_marseille","lat":43.306568,"lon":5.394868,"is_reserved":false,"is_disabled":false,"rental_uris":{"android":"levelo://app?vid=7853d8dc-e451-4c49-a2c5-94b566c62b7f","ios":"levelo://app?vid=7853d8dc-e451-4c49-a2c5-94b566c62b7f"},"vehicle_type_id":"4","last_reported":1744701044,"current_range_meters":25200,"station_id":"ce4bh012rcd13ifvqcv0","pricing_plan_id":"cebpf4jnsgd1na2vs0mg"},{"bike_id":"545f9ae3-5ac8-472e-b953-b1a07a10fe59","system_id":"levelo_inurba_marseille","lat":43.25931,"lon":5.40914,"is_reserved":false,"is_disabled":false,"rental_uris":{"android":"levelo://app?vid=545f9ae3-5ac8-472e-b953-b1a07a10fe59","ios":"levelo://app?vid=545f9ae3-5ac8-472e-b953-b1a07a10fe59"},"vehicle_type_id":"4","last_reported":1744701044,"current_range_meters":24000,"station_id":"ce4bhm92rcd13ifvqglg","pricing_plan_id":"cebpf4jnsgd1na2vs0mg"},{"bike_id":"0a9327e1-e148-41ef-9372-55ab8ad4a5ce","system_id":"levelo_inurba_marseille","lat":43.29975,"lon":5.37189,"is_reserved":false,"is_disabled":false,"rental_uris":{"android":"levelo://app?vid=0a9327e1-e148-41ef-9372-55ab8ad4a5ce","ios":"levelo://app?vid=0a9327e1-e148-41ef-9372-55ab8ad4a5ce"},"vehicle_type_id":"4","last_reported":1744701044,"current_range_meters":24000,"station_id":"ce4bgr92rcd13ifvqc7g","pricing_plan_id":"cebpf4jnsgd1na2vs0mg"},{"bike_id":"54d5bd69-9fd1-48ef-84d2-88d7292632b3","system_id":"levelo_inurba_marseille","lat":43.26226,"lon":5.40448,"is_reserved":false,"is_disabled":false,"rental_uris":{"android":"levelo://app?vid=54d5bd69-9fd1-48ef-84d2-88d7292632b3","ios":"levelo://app?vid=54d5bd69-9fd1-48ef-84d2-88d7292632b3"},"vehicle_type_id":"4","last_reported":1744701044,"current_range_meters":24000,"station_id":"ce4bhmh2rcd13ifvqgmg","pricing_plan_id":"cebpf4jnsgd1na2vs0mg"},{"bike_id":"6f3b9e93-aee1-49be-be13-e4b73b8143d5","system_id":"levelo_inurba_marseille","lat":43.30949,"lon":5.39045,"is_reserved":false,"is_disabled":false,"rental_uris":{"android":"levelo://app?vid=6f3b9e93-aee1-49be-be13-e4b73b8143d5","ios":"levelo://app?vid=6f3b9e93-aee1-49be-be13-e4b73b8143d5"},"vehicle_type_id":"4","last_reported":1744701044,"current_range_meters":24000,"station_id":"ce4bgup2rcd13ifvqco0","pricing_plan_id":"cebpf4jnsgd1na2vs0mg"},{"bike_id":"02384b6c-b454-48d2-82bd-cb047d3f60be","system_id":"levelo_inurba_marseille","lat":43.3088,"lon":5.39667,"is_reserved":false,"is_disabled":false,"rental_uris":{"android":"levelo://app?vid=02384b6c-b454-48d2-82bd-cb047d3f60be","ios":"levelo://app?vid=02384b6c-b454-48d2-82bd-cb047d3f60be"},