{"last_updated":1734351615,"ttl":60,"version":"2.2","data":{"bikes":[{"bike_id":"6cb06d5b-b9ac-4325-ba0a-17357eb9ec74","system_id":"levelo_inurba_marseille","lat":43.28277,"lon":5.35063,"is_reserved":false,"is_disabled":true,"rental_uris":{"android":"levelo://app?vid=6cb06d5b-b9ac-4325-ba0a-17357eb9ec74","ios":"levelo://app?vid=6cb06d5b-b9ac-4325-ba0a-17357eb9ec74"},"vehicle_type_id":"4","last_reported":1734351615,"current_range_meters":0,"station_id":"ce4bhbp2rcd13ifvqerg","pricing_plan_id":"cebpf4jnsgd1na2vs0mg"},{"bike_id":"61d772b3-e172-4f5d-8778-5fb43be913c2","system_id":"levelo_inurba_marseille","lat":43.27069,"lon":5.42279,"is_reserved":false,"is_disabled":false,"rental_uris":{"android":"levelo://app?vid=61d772b3-e172-4f5d-8778-5fb43be913c2","ios":"levelo://app?vid=61d772b3-e172-4f5d-8778-5fb43be913c2"},"vehicle_type_id":"4","last_reported":1734351615,"current_range_meters":37600,"station_id":"ce4bhk92rcd13ifvqgb0","pricing_plan_id":"cebpf4jnsgd1na2vs0mg"},{"bike_id":"95103549-a524-4af1-b7f4-c8cb670ffb4b","system_id":"levelo_inurba_marseille","lat":43.24078,"lon":5.37756,"is_reserved":false,"is_disabled":false,"rental_uris":{"android":"levelo://app?vid=95103549-a524-4af1-b7f4-c8cb670ffb4b","ios":"levelo://app?vid=95103549-a524-4af1-b7f4-c8cb670ffb4b"},"vehicle_type_id":"4","last_reported":1734351615,"current_range_meters":25200,"station_id":"ce4bhnp2rcd13ifvqgvg","pricing_plan_id":"cebpf4jnsgd1na2vs0mg"},{"bike_id":"6b6f81c7-d9fa-4a2b-ace0-a3d3bae6341c","system_id":"levelo_inurba_marseille","lat":43.30182,"lon":5.36617,"is_reserved":false,"is_disabled":false,"rental_uris":{"android":"levelo://app?vid=6b6f81c7-d9fa-4a2b-ace0-a3d3bae6341c","ios":"levelo://app?vid=6b6f81c7-d9fa-4a2b-ace0-a3d3bae6341c"},"vehicle_type_id":"4","last_reported":1734351615,"current_range_meters":10800,"station_id":"ce4bgrh2rcd13ifvqc8g","pricing_plan_id":"cebpf4jnsgd1na2vs0mg"},{"bike_id":"49735576-98af-4537-b127-26ad7906beaf","system_id":"levelo_inurba_marseille","lat":43.26058,"lon":5.39397,"is_reserved":false,"is_disabled":false,"rental_uris":{"android":"levelo://app?vid=49735576-98af-4537-b127-26ad7906beaf","ios":"levelo://app?vid=49735576-98af-4537-b127-26ad7906beaf"},"vehicle_type_id":"4","last_reported":1734351615,"current_range_meters":26000,"station_id":"ce4bhh92rcd13ifvqfj0","pricing_plan_id":"cebpf4jnsgd1na2vs0mg"},{"bike_id":"c502f606-0c13-49c8-b42f-08ae57c6da28","system_id":"levelo_inurba_marseille","lat":43.24053,"lon":5.37765,"is_reserved":false,"is_disabled":false,"rental_uris":{"android":"levelo://app?vid=c502f606-0c13-49c8-b42f-08ae57c6da28","ios":"levelo://app?vid=c502f606-0c13-49c8-b42f-08ae57c6da28"},"vehicle_type_id":"4","last_reported":1734351615,"current_range_meters":39200,"station_id":"ce4bhnp2rcd13ifvqgvg","pricing_plan_id":"cebpf4jnsgd1na2vs0mg"},{"bike_id":"96339ef6-5540-4cdc-85f9-de5da24da0b1","system_id":"levelo_inurba_marseille","lat":43.25932,"lon":5.40912,"is_reserved":false,"is_disabled":false,"rental_uris":{"android":"levelo://app?vid=96339ef6-5540-4cdc-85f9-de5da24da0b1","ios":"levelo://app?vid=96339ef6-5540-4cdc-85f9-de5da24da0b1"},"vehicle_type_id":"4","last_reported":1734351615,"current_range_meters":6800,"station_id":"ce4bhm92rcd13ifvqglg","pricing_plan_id":"cebpf4jnsgd1na2vs0mg"},{"bike_id":"2a2dfee7-e8bd-4670-b2f4-34d6ff663d8b","system_id":"levelo_inurba_marseille","lat":43.28513,"lon":5.38041,"is_reserved":false,"is_disabled":true,"rental_uris":{"android":"levelo://app?vid=2a2dfee7-e8bd-4670-b2f4-34d6ff663d8b","ios":"levelo://app?vid=2a2dfee7-e8bd-4670-b2f4-34d6ff663d8b"},"vehicle_type_id":"4","last_reported":1734351615,"current_range_meters":24800,"station_id":"","pricing_plan_id":"cebpf4jnsgd1na2vs0mg"},{"bike_id":"68318da2-404d-4277-bcad-71c1cc0f38c8","system_id":"levelo_inurba_marseille","lat":43.27211,"lon":5.39196,"is_reserved":false,"is_disabled":false,"rental_uris":{"android":"levelo://app?vid=68318da2-404d-4277-bcad-71c1cc0f38c8","ios":"levelo://app?vid=68318da2-404d-4277-bcad-71c1cc0f38c8"},"vehicle_type_id":"4","last_reported":1734351615,"current_range_meters":16800,"station_id":"ce4bhhp2rcd13ifvqfm0","pricing_plan_id":"cebpf4jnsgd1na2vs0mg"},{"bike_id":"c8df81c4-c005-46f0-96a4-0d7a47738bee","system_id":"levelo_inurba_marseille","lat":43.25935,"lon":5.40901,"is_reserved":false,"is_disabled":false,"rental_uris":{"android":"levelo://app?vid=c8df81c4-c005-46f0-96a4-0d7a47738bee","ios":"levelo://app?vid=c8df81c4-c005-46f0-96a4-0d7a47738bee"},"vehicle_type_id":"4","last_reported":1734351615,"current_range_meters":38800,"station_id":"ce4bhm92rcd13ifvqglg","pricing_plan_id":"cebpf4jnsgd1na2vs0mg"},{"bike_id":"2aabb9e3-ae45-4b17-b10d-af50e235d80a","system_id":"levelo_inurba_marseille","lat":43.26784,"lon":5.39927,"is_reserved":false,"is_disabled":true,"rental_uris":{"android":"levelo://app?vid=2aabb9e3-ae45-4b17-b10d-af50e235d80a","ios":"levelo://app?vid=2aabb9e3-ae45-4b17-b10d-af50e235d80a"},"vehicle_type_id":"4","last_reported":1734351615,"current_range_meters":0,"station_id":"","pricing_plan_id":"cebpf4jnsgd1na2vs0mg"},{"bike_id":"fa2e65c9-0662-4573-af76-4403fbb12936","system_id":"levelo_inurba_marseille","lat":43.28497,"lon":5.35079,"is_reserved":false,"is_disabled":false,"rental_uris":{"android":"levelo://app?vid=fa2e65c9-0662-4573-af76-4403fbb12936","ios":"levelo://app?vid=fa2e65c9-0662-4573-af76-4403fbb12936"},"vehicle_type_id":"4","last_reported":1734351615,"current_range_meters":33600,"station_id":"","pricing_plan_id":"cebpf4jnsgd1na2vs0mg"},{"bike_id":"c1d8c97e-0aee-4485-b1e2-5c3c6bb42d47","system_id":"levelo_inurba_marseille","lat":43.27909,"lon":5.39586,"is_reserved":false,"is_disabled":false,"rental_uris":{"android":"levelo://app?vid=c1d8c97e-0aee-4485-b1e2-5c3c6bb42d47","ios":"levelo://app?vid=c1d8c97e-0aee-4485-b1e2-5c3c6bb42d47"},"vehicle_type_id":"4","last_reported":1734351615,"current_range_meters":36800,"station_id":"ce4bhf92rcd13ifvqf40","pricing_plan_id":"cebpf4jnsgd1na2vs0mg"},{"bike_id":"7bec5294-99b2-4c08-a2d1-86eb07092a91","system_id":"levelo_inurba_marseille","lat":43.28099,"lon":5.37835,"is_reserved":false,"is_disabled":false,"rental_uris":{"android":"levelo://app?vid=7bec5294-99b2-4c08-a2d1-86eb07092a91","ios":"levelo://app?vid=7bec5294-99b2-4c08-a2d1-86eb07092a91"},"vehicle_type_id":"4","last_reported":1734351615,"current_range_meters":35600,"station_id":"ce4bha12rcd13ifvqee0","pricing_plan_id":"cebpf4jnsgd1na2vs0mg"},{"bike_id":"8c9d13e9-b91d-4912-95ec-5ca7f1af6132","system_id":"levelo_inurba_marseille","lat":43.317134,"lon":5.377233,"is_reserved":false,"is_disabled":false,"rental_uris":{"android":"levelo://app?vid=8c9d13e9-b91d-4912-95ec-5ca7f1af6132","ios":"levelo://app?vid=8c9d13e9-b91d-4912-95ec-5ca7f1af6132"},"vehicle_type_id":"4","last_reported":1734351615,"current_range_meters":16800,"station_id":"ce4bgth2rcd13ifvqch0","pricing_plan_id":"cebpf4jnsgd1na2vs0mg"},{"bike_id":"cad7719d-6bdb-48ae-8920-e62428891cbb","system_id":"levelo_inurba_marseille","lat":43.28024,"lon":5.44121,"is_reserved":false,"is_disabled":true,"rental_uris":{"android":"levelo://app?vid=cad7719d-6bdb-48ae-8920-e62428891cbb","ios":"levelo://app?vid=cad7719d-6bdb-48ae-8920-e62428891cbb"},"vehicle_type_id":"4","last_reported":1734351615,"current_range_meters":0,"station_id":"","pricing_plan_id":"cebpf4jnsgd1na2vs0mg"},{"bike_id":"8b266861-ab5e-46e4-8cc3-061a8bc3872d","system_id":"levelo_inurba_marseille","lat":43.24664,"lon":5.3816,"is_reserved":false,"is_disabled":false,"rental_uris":{"android":"levelo://app?vid=8b266861-ab5e-46e4-8cc3-061a8bc3872d","ios":"levelo://app?vid=8b266861-ab5e-46e4-8cc3-061a8bc3872d"},"vehicle_type_id":"4","last_reported":1734351615,"current_range_meters":26800,"station_id":"ce4bhih2rcd13ifvqfr0","pricing_plan_id":"cebpf4jnsgd1na2vs0mg"},{"bike_id":"8c661a81-aa0f-4e45-ab1f-653e920751fb","system_id":"levelo_inurba_marseille","lat":43.309,"lon":5.36843,"is_reserved":false,"is_disabled":false,"rental_uris":{"android":"levelo://app?vid=8c661a81-aa0f-4e45-ab1f-653e920751fb","ios":"levelo://app?vid=8c661a81-aa0f-4e45-ab1f-653e920751fb"},"vehicle_type_id":"4","last_reported":1734351615,"current_range_meters":23200,"station_id":"ce4bgn92rcd13ifvqbvg","pricing_plan_id":"cebpf4jnsgd1na2vs0mg"},{"bike_id":"a4d60c42-6073-4a60-b1b2-df5e82d47efa","system_id":"levelo_inurba_marseille","lat":43.27189,"lon":5.40994,"is_reserved":false,"is_disabled":false,"rental_uris":{"android":"levelo://app?vid=a4d60c42-6073-4a60-b1b2-df5e82d47efa","ios":"levelo://app?vid=a4d60c42-6073-4a60-b1b2-df5e82d47efa"},"vehicle_type_id":"4","last_reported":1734351615,"current_range_meters":36800,"station_id":"ce4bhl12rcd13ifvqgf0","pricing_plan_id":"cebpf4jnsgd1na2vs0mg"},{"bike_id":"215c011f-dabf-4b06-a7fd-2279d6590f33","system_id":"levelo_inurba_marseille","lat":43.26555,"lon":5.3729,"is_reserved":false,"is_disabled":false,"rental_uris":{"android":"levelo://app?vid=215c011f-dabf-4b06-a7fd-2279d6590f33","ios":"levelo://app?vid=215c011f-dabf-4b06-a7fd-2279d6590f33"},"vehicle_type_id":"4","last_reported":1734351615,"current_range_meters":36800,"station_id":"ce4bhg12rcd13ifvqf70","pricing_plan_id":"cebpf4jnsgd1na2vs0mg"},{"bike_id":"4deb15ef-079e-44d5-9289-1d9084b509a7","system_id":"levelo_inurba_marseille","lat":43.31312,"lon":5.36949,"is_reserved":false,"is_disabled":false,"rental_uris":{"android":"levelo://app?vid=4deb15ef-079e-44d5-9289-1d9084b509a7","ios":"levelo://app?vid=4deb15ef-079e-44d5-9289-1d9084b509a7"},"vehicle_type_id":"4","last_reported":1734351615,"current_range_meters":37600,"station_id":"","pricing_plan_id":"cebpf4jnsgd1na2vs0mg"},{"bike_id":"d5c89c1f-3bad-4af2-9449-e04c277a4696","system_id":"levelo_inurba_marseille","lat":43.2996,"lon":5.41331,"is_reserved":false,"is_disabled":true,"rental_uris":{"android":"levelo://app?vid=d5c89c1f-3bad-4af2-9449-e04c277a4696","ios":"levelo://app?vid=d5c89c1f-3bad-4af2-9449-e04c277a4696"},"vehicle_type_id":"4","last_reported":1734351615,"current_range_meters":35200,"station_id":"ce4bhp12rcd13ifvqh9g","pricing_plan_id":"cebpf4jnsgd1na2vs0mg"},{"bike_id":"fd31a5dc-7bc2-4416-b1c0-1fbc9c5dd24c","system_id":"levelo_inurba_marseille","lat":43.27319,"lon":5.39082,"is_reserved":false,"is_disabled":false,"rental_uris":{"android":"levelo://app?vid=fd31a5dc-7bc2-4416-b1c0-1fbc9c5dd24c","ios":"levelo://app?vid=fd31a5dc-7bc2-4416-b1c0-1fbc9c5dd24c"},"vehicle_type_id":"4","last_reported":1734351615,"current_range_meters":36400,"station_id":"ce4bhgp2rcd13ifvqfe0","pricing_plan_id":"cebpf4jnsgd1na2vs0mg"},{"bike_id":"7375be9c-7b03-4ee6-b6c9-51205081fc00","system_id":"levelo_inurba_marseille","lat":43.32535,"lon":5.41451,"is_reserved":false,"is_disabled":true,"rental_uris":{"android":"levelo://app?vid=7375be9c-7b03-4ee6-b6c9-51205081fc00","ios":"levelo://app?vid=7375be9c-7b03-4ee6-b6c9-51205081fc00"},"vehicle_type_id":"4","last_reported":1734351615,"current_range_meters":37600,"station_id":"ce4bhq12rcd13ifvqhhg","pricing_plan_id":"cebpf4jnsgd1na2vs0mg"},{"bike_id":"00470025-0594-4fc8-bb13-03b023b393ad","system_id":"levelo_inurba_marseille","lat":43.23058,"lon":5.35491,"is_reserved":false,"is_disabled":false,"rental_uris":{"android":"levelo://app?vid=00470025-0594-4fc8-bb13-03b023b393ad","ios":"levelo://app?vid=00470025-0594-4fc8-bb13-03b023b393ad"},"vehicle_type_id":"4","last_reported":1734351615,"current_range_meters":28000,"station_id":"cpo3342slgdg3j2ifvpg","pricing_plan_id":"cebpf4jnsgd1na2vs0mg"},{"bike_id":"645234d5-1ba6-47d0-a264-332279a70988","system_id":"levelo_inurba_marseille","lat":43.30808,"lon":5.3802,"is_reserved":false,"is_disabled":false,"rental_uris":{"android":"levelo://app?vid=645234d5-1ba6-47d0-a264-332279a70988","ios":"levelo://app?vid=645234d5-1ba6-47d0-a264-332279a70988"},"vehicle_type_id":"4","last_reported":1734351615,"current_range_meters":6800,"station_id":"","pricing_plan_id":"cebpf4jnsgd1na2vs0mg"},{"bike_id":"a872a3cc-07d1-4705-8b8e-e491411201de","system_id":"levelo_inurba_marseille","lat":43.3014,"lon":5.38782,"is_reserved":false,"is_disabled":false,"rental_uris":{"android":"levelo://app?vid=a872a3cc-07d1-4705-8b8e-e491411201de","ios":"levelo://app?vid=a872a3cc-07d1-4705-8b8e-e491411201de"},"vehicle_type_id":"4","last_reported":1734351615,"current_range_meters":23200,"station_id":"ce4bhoh2rcd13ifvqh6g","pricing_plan_id":"cebpf4jnsgd1na2vs0mg"},{"bike_id":"e209b4cc-b597-4646-9ecd-9f5a1bd9a464","system_id":"levelo_inurba_marseille","lat":43.33785,"lon":5.42104,"is_reserved":false,"is_disabled":true,"rental_uris":{"android":"levelo://app?vid=e209b4cc-b597-4646-9ecd-9f5a1bd9a464","ios":"levelo://app?vid=e209b4cc-b597-4646-9ecd-9f5a1bd9a464"},"vehicle_type_id":"4","last_reported":1734351615,"current_range_meters":800,"station_id":"","pricing_plan_id":"cebpf4jnsgd1na2vs0mg"},{"bike_id":"3a106e1a-4c12-4994-9f08-bae494ea16b5","system_id":"levelo_inurba_marseille","lat":43.25111,"lon":5.40325,"is_reserved":false,"is_disabled":false,"rental_uris":{"android":"levelo://app?vid=3a106e1a-4c12-4994-9f08-bae494ea16b5","ios":"levelo://app?vid=3a106e1a-4c12-4994-9f08-bae494ea16b5"},"vehicle_type_id":"4","last_reported":1734351615,"current_range_meters":34800,"station_id":"ce4bhlh2rcd13ifvqgig","pricing_plan_id":"cebpf4jnsgd1na2vs0mg"},{"bike_id":"6de63958-11e4-41b6-8093-bcfcd6d157fb","system_id":"levelo_inurba_marseille","lat":43.29917,"lon":5.37478,"is_reserved":false,"is_disabled":false,"rental_uris":{"android":"levelo://app?vid=6de63958-11e4-41b6-8093-bcfcd6d157fb","ios":"levelo://app?vid=6de63958-11e4-41b6-8093-bcfcd6d157fb"},"vehicle_type_id":"4","last_reported":1734351615,"current_range_meters":38000,"station_id":"ce4bgjh2rcd13ifvqbg0","pricing_plan_id":"cebpf4jnsgd1na2vs0mg"},{"bike_id":"319a3701-b684-4758-bf5d-fed38e475d1c","system_id":"levelo_inurba_marseille","lat":43.25094,"lon":5.39506,"is_reserved":false,"is_disabled":true,"rental_uris":{"android":"levelo://app?vid=319a3701-b684-4758-bf5d-fed38e475d1c","ios":"levelo://app?vid=319a3701-b684-4758-bf5d-fed38e475d1c"},"vehicle_type_id":"4","last_reported":1734351615,"current_range_meters":33600,"station_id":"ce4bhm12rcd13ifvqgkg","pricing_plan_id":"cebpf4jnsgd1na2vs0mg"},{"bike_id":"29cc7253-7f35-4a45-87d9-55fd62645ea1","system_id":"levelo_inurba_marseille","lat":43.30276,"lon":5.37711,"is_reserved":false,"is_disabled":false,"rental_uris":{"android":"levelo://app?vid=29cc7253-7f35-4a45-87d9-55fd62645ea1","ios":"levelo://app?vid=29cc7253-7f35-4a45-87d9-55fd62645ea1"},"vehicle_type_id":"4","last_reported":1734351615,"current_range_meters":18800,"station_id":"ce4bguh2rcd13ifvqcj0","pricing_plan_id":"cebpf4jnsgd1na2vs0mg"},{"bike_id":"0dc9c57d-cee6-427b-8f00-d9d81f8f836e","system_id":"levelo_inurba_marseille","lat":43.23189,"lon":5.39989,"is_reserved":false,"is_disabled":false,"rental_uris":{"android":"levelo://app?vid=0dc9c57d-cee6-427b-8f00-d9d81f8f836e","ios":"levelo://app?vid=0dc9c57d-cee6-427b-8f00-d9d81f8f836e"},"vehicle_type_id":"4","last_reported":1734351615,"current_range_meters":33600,"station_id":"ce4bhn12rcd13ifvqgqg","pricing_plan_id":"cebpf4jnsgd1na2vs0mg"},{"bike_id":"e3ce1f04-3f88-431a-ab9f-947d6e2f270c","system_id":"levelo_inurba_marseille","lat":43.3372,"lon":5.39187,"is_reserved":false,"is_disabled":false,"rental_uris":{"android":"levelo://app?vid=e3ce1f04-3f88-431a-ab9f-947d6e2f270c","ios":"levelo://app?vid=e3ce1f04-3f88-431a-ab9f-947d6e2f270c"},"vehicle_type_id":"4","last_reported":1734351615,"current_range_meters":38800,"station_id":"ce4bhr92rcd13ifvqhsg","pricing_plan_id":"cebpf4jnsgd1na2vs0mg"},{"bike_id":"e4445775-7d48-4b97-a7d4-cc20c4ccd0d8","system_id":"levelo_inurba_marseille","lat":43.31185,"lon":5.37223,"is_reserved":false,"is_disabled":false,"rental_uris":{"android":"levelo://app?vid=e4445775-7d48-4b97-a7d4-cc20c4ccd0d8","ios":"levelo://app?vid=e4445775-7d48-4b97-a7d4-cc20c4ccd0d8"},"vehicle_type_id":"4","last_reported":1734351615,"current_range_meters":36400,"station_id":"","pricing_plan_id":"cebpf4jnsgd1na2vs0mg"},{"bike_id":"2dffbbaa-0c94-43eb-9670-ed3959c2eb0d","system_id":"levelo_inurba_marseille","lat":43.30536,"lon":5.36558,"is_reserved":false,"is_disabled":false,"rental_uris":{"android":"levelo://app?vid=2dffbbaa-0c94-43eb-9670-ed3959c2eb0d","ios":"levelo://app?vid=2dffbbaa-0c94-43eb-9670-ed3959c2eb0d"},"vehicle_type_id":"4","last_reported":1734351615,"current_range_meters":10800,"station_id":"ce4bgs12rcd13ifvqcag","pricing_plan_id":"cebpf4jnsgd1na2vs0mg"},{"bike_id":"8e24cb6d-8393-4664-8e69-5202e693624e","system_id":"levelo_inurba_marseille","lat":43.24072,"lon":5.37764,"is_reserved":false,"is_disabled":false,"rental_uris":{"android":"levelo://app?vid=8e24cb6d-8393-4664-8e69-5202e693624e","ios":"levelo://app?vid=8e24cb6d-8393-4664-8e69-5202e693624e"},"vehicle_type_id":"4","last_reported":1734351615,"current_range_meters":14800,"station_id":"ce4bhnp2rcd13ifvqgvg","pricing_plan_id":"cebpf4jnsgd1na2vs0mg"},{"bike_id":"41125259-4ed4-4118-b118-0d57ab89f127","system_id":"levelo_inurba_marseille","lat":43.29291,"lon":5.37193,"is_reserved":false,"is_disabled":true,"rental_uris":{"android":"levelo://app?vid=41125259-4ed4-4118-b118-0d57ab89f127","ios":"levelo://app?vid=41125259-4ed4-4118-b118-0d57ab89f127"},"vehicle_type_id":"4","last_reported":1734351615,"current_range_meters":22000,"station_id":"ce4bgh92rcd13ifvqb40","pricing_plan_id":"cebpf4jnsgd1na2vs0mg"},{"bike_id":"e638f806-6dc7-40f3-ba4e-4f249b00ca01","system_id":"levelo_inurba_marseille","lat":43.27061,"lon":5.40254,"is_reserved":false,"is_disabled":true,"rental_uris":{"android":"levelo://app?vid=e638f806-6dc7-40f3-ba4e-4f249b00ca01","ios":"levelo://app?vid=e638f806-6dc7-40f3-ba4e-4f249b00ca01"},"vehicle_type_id":"4","last_reported":1734351615,"current_range_meters":0,"station_id":"ce4bhk92rcd13ifvqgc0","pricing_plan_id":"cebpf4jnsgd1na2vs0mg"},{"bike_id":"56738774-e89c-48c5-9670-a7ae1a80d7d3","system_id":"levelo_inurba_marseille","lat":43.27017,"lon":5.39142,"is_reserved":false,"is_disabled":true,"rental_uris":{"android":"levelo://app?vid=56738774-e89c-48c5-9670-a7ae1a80d7d3","ios":"levelo://app?vid=56738774-e89c-48c5-9670-a7ae1a80d7d3"},"vehicle_type_id":"4","last_reported":1734351615,"current_range_meters":0,"station_id":"","pricing_plan_id":"cebpf4jnsgd1na2vs0mg"},{"bike_id":"7b107786-ef2d-4349-9c5c-3d62601d11e6","system_id":"levelo_inurba_marseille","lat":43.28942,"lon":5.37894,"is_reserved":false,"is_disabled":true,"rental_uris":{"android":"levelo://app?vid=7b107786-ef2d-4349-9c5c-3d62601d11e6","ios":"levelo://app?vid=7b107786-ef2d-4349-9c5c-3d62601d11e6"},"vehicle_type_id":"4","last_reported":1734351615,"current_range_meters":32000,"station_id":"","pricing_plan_id":"cebpf4jnsgd1na2vs0mg"},{"bike_id":"c864a9f0-28fd-4918-9cdf-7db93b288094","system_id":"levelo_inurba_marseille","lat":43.32474,"lon":5.365653,"is_reserved":false,"is_disabled":false,"rental_uris":{"android":"levelo://app?vid=c864a9f0-28fd-4918-9cdf-7db93b288094","ios":"levelo://app?vid=c864a9f0-28fd-4918-9cdf-7db93b288094"},"vehicle_type_id":"4","last_reported":1734351615,"current_range_meters":16800,"station_id":"ce4bhs12rcd13ifvqhvg","pricing_plan_id":"cebpf4jnsgd1na2vs0mg"},{"bike_id":"142f7e33-dd37-42e4-a17a-6ed3e5d58da8","system_id":"levelo_inurba_marseille","lat":43.29893,"lon":5.43665,"is_reserved":false,"is_disabled":false,"rental_uris":{"android":"levelo://app?vid=142f7e33-dd37-42e4-a17a-6ed3e5d58da8","ios":"levelo://app?vid=142f7e33-dd37-42e4-a17a-6ed3e5d58da8"},"vehicle_type_id":"4","last_reported":1734351615,"current_range_meters":3200,"station_id":"ce4bhpp2rcd13ifvqhfg","pricing_plan_id":"cebpf4jnsgd1na2vs0mg"},{"bike_id":"562e8c66-1ff8-4ba4-954f-7d521cab446f","system_id":"levelo_inurba_marseille","lat":43.31303,"lon":5.38714,"is_reserved":false,"is_disabled":false,"rental_uris":{"android":"levelo://app?vid=562e8c66-1ff8-4ba4-954f-7d521cab446f","ios":"levelo://app?vid=562e8c66-1ff8-4ba4-954f-7d521cab446f"},"vehicle_type_id":"4","last_reported":1734351615,"current_range_meters":38800,"station_id":"ce4bgup2rcd13ifvqcn0","pricing_plan_id":"cebpf4jnsgd1na2vs0mg"},{"bike_id":"0b491167-5596-40d4-917d-a5cebc43ed1b","system_id":"levelo_inurba_marseille","lat":43.30594,"lon":5.37232,"is_reserved":false,"is_disabled":false,"rental_uris":{"android":"levelo://app?vid=0b491167-5596-40d4-917d-a5cebc43ed1b","ios":"levelo://app?vid=0b491167-5596-40d4-917d-a5cebc43ed1b"},"vehicle_type_id":"4","last_reported":1734351615,"current_range_meters":36000,"station_id":"ce4bgqh2rcd13ifvqc4g","pricing_plan_id":"cebpf4jnsgd1na2vs0mg"},{"bike_id":"d22e8691-6ee4-4638-8bf5-82b67a2e4044","system_id":"levelo_inurba_marseille","lat":43.281,"lon":5.3784,"is_reserved":false,"is_disabled":false,"rental_uris":{"android":"levelo://app?vid=d22e8691-6ee4-4638-8bf5-82b67a2e4044","ios":"levelo://app?vid=d22e8691-6ee4-4638-8bf5-82b67a2e4044"},"vehicle_type_id":"4","last_reported":1734351615,"current_range_meters":31200,"station_id":"ce4bha12rcd13ifvqee0","pricing_plan_id":"cebpf4jnsgd1na2vs0mg"},{"bike_id":"0763dd72-cd57-4c32-8cb5-edf7685713b4","system_id":"levelo_inurba_marseille","lat":43.301,"lon":5.39093,"is_reserved":false,"is_disabled":false,"rental_uris":{"android":"levelo://app?vid=0763dd72-cd57-4c32-8cb5-edf7685713b4","ios":"levelo://app?vid=0763dd72-cd57-4c32-8cb5-edf7685713b4"},"vehicle_type_id":"4","last_reported":1734351615,"current_range_meters":34000,"station_id":"ce4bh192rcd13ifvqdb0","pricing_plan_id":"cebpf4jnsgd1na2vs0mg"},{"bike_id":"5be78cc2-d386-42ea-a601-8ec47460ad21","system_id":"levelo_inurba_marseille","lat":43.2408,"lon":5.37737,"is_reserved":false,"is_disabled":false,"rental_uris":{"android":"levelo://app?vid=5be78cc2-d386-42ea-a601-8ec47460ad21","ios":"levelo://app?vid=5be78cc2-d386-42ea-a601-8ec47460ad21"},"vehicle_type_id":"4","last_reported":1734351615,"current_range_meters":32400,"station_id":"ce4bhnp2rcd13ifvqgvg","pricing_plan_id":"cebpf4jnsgd1na2vs0mg"},{"bike_id":"dfe34a4d-478c-485f-9eca-4692d8dc3918","system_id":"levelo_inurba_marseille","lat":43.24547,"lon":5.39528,"is_reserved":false,"is_disabled":false,"rental_uris":{"android":"levelo://app?vid=dfe34a4d-478c-485f-9eca-4692d8dc3918","ios":"levelo://app?vid=dfe34a4d-478c-485f-9eca-4692d8dc3918"},"vehicle_type_id":"4","last_reported":1734351615,"current_range_meters":38800,"station_id":"ce4bhlp2rcd13ifvqgjg","pricing_plan_id":"cebpf4jnsgd1na2vs0mg"},{"bike_id":"e9b36da7-c433-4e83-94a1-2ca2c02e8e59","system_id":"levelo_inurba_marseille","lat":43.25833,"lon":5.39432,"is_reserved":false,"is_disabled":true,"rental_uris":{"android":"levelo://app?vid=e9b36da7-c433-4e83-94a1-2ca2c02e8e59","ios":"levelo://app?vid=e9b36da7-c433-4e83-94a1-2ca2c02e8e59"},"vehicle_type_id":"4","last_reported":1734351615,"current_range_meters":38800,"station_id":"ce4bhip2rcd13ifvqft0","pricing_plan_id":"cebpf4jnsgd1na2vs0mg"},{"bike_id":"75236ece-8ad3-4b8f-a5ce-45decf00a4cd","system_id":"levelo_inurba_marseille","lat":43.29309,"lon":5.37431,"is_reserved":false,"is_disabled":false,"rental_uris":{"android":"levelo://app?vid=75236ece-8ad3-4b8f-a5ce-45decf00a4cd","ios":"levelo://app?vid=75236ece-8ad3-4b8f-a5ce-45decf00a4cd"},"vehicle_type_id":"4","last_reported":1734351615,"current_range_meters":38800,"station_id":"ce4bgi12rcd13ifvqb70","pricing_plan_id":"cebpf4jnsgd1na2vs0mg"},{"bike_id":"2ba8ded4-7e9f-4406-9ea8-e61387e76c85","system_id":"levelo_inurba_marseille","lat":43.3068,"lon":5.40119,"is_reserved":false,"is_disabled":true,"rental_uris":{"android":"levelo://app?vid=2ba8ded4-7e9f-4406-9ea8-e61387e76c85","ios":"levelo://app?vid=2ba8ded4-7e9f-4406-9ea8-e61387e76c85"},"vehicle_type_id":"4","last_reported":1734351615,"current_range_meters":0,"station_id":"","pricing_plan_id":"cebpf4jnsgd1na2vs0mg"},{"bike_id":"e0831d6f-8f95-43df-a158-4a0ca5694064","system_id":"levelo_inurba_marseille","lat":43.28155,"lon":5.42643,"is_reserved":false,"is_disabled":false,"rental_uris":{"android":"levelo://app?vid=e0831d6f-8f95-43df-a158-4a0ca5694064","ios":"levelo://app?vid=e0831d6f-8f95-43df-a158-4a0ca5694064"},"vehicle_type_id":"4","last_reported":1734351615,"current_range_meters":22000,"station_id":"ce4bhnh2rcd13ifvqgug","pricing_plan_id":"cebpf4jnsgd1na2vs0mg"},{"bike_id":"e819ae6a-d2ca-4fed-a607-5b91827a0819","system_id":"levelo_inurba_marseille","lat":43.23197,"lon":5.35559,"is_reserved":false,"is_disabled":false,"rental_uris":{"android":"levelo://app?vid=e819ae6a-d2ca-4fed-a607-5b91827a0819","ios":"levelo://app?vid=e819ae6a-d2ca-4fed-a607-5b91827a0819"},"vehicle_type_id":"4","last_reported":1734351615,"current_range_meters":26800,"station_id":"ce4bhu92rcd13ifvqi70","pricing_plan_id":"cebpf4jnsgd1na2vs0mg"},{"bike_id":"e3a3d1f3-38e8-42e4-b2ca-ad023db34801","system_id":"levelo_inurba_marseille","lat":43.30209,"lon":5.394616,"is_reserved":false,"is_disabled":true,"rental_uris":{"android":"levelo://app?vid=e3a3d1f3-38e8-42e4-b2ca-ad023db34801","ios":"levelo://app?vid=e3a3d1f3-38e8-42e4-b2ca-ad023db34801"},"vehicle_type_id":"4","last_reported":1734351615,"current_range_meters":38000,"station_id":"ce4bh0p2rcd13ifvqd70","pricing_plan_id":"cebpf4jnsgd1na2vs0mg"},{"bike_id":"c7dacd82-6b2e-44c7-9701-ca3db82e7d70","system_id":"levelo_inurba_marseille","lat":43.25,"lon":5.38927,"is_reserved":false,"is_disabled":false,"rental_uris":{"android":"levelo://app?vid=c7dacd82-6b2e-44c7-9701-ca3db82e7d70","ios":"levelo://app?vid=c7dacd82-6b2e-44c7-9701-ca3db82e7d70"},"vehicle_type_id":"4","last_reported":1734351615,"current_range_meters":24800,"station_id":"ce4bhgp2rcd13ifvqfd0","pricing_plan_id":"cebpf4jnsgd1na2vs0mg"},{"bike_id":"2df205d7-365b-45de-aaa2-5cd7b9901a4c","system_id":"levelo_inurba_marseille","lat":43.30098,"lon":5.39075,"is_reserved":false,"is_disabled":false,"rental_uris":{"android":"levelo://app?vid=2df205d7-365b-45de-aaa2-5cd7b9901a4c","ios":"levelo://app?vid=2df205d7-365b-45de-aaa2-5cd7b9901a4c"},"vehicle_type_id":"4","last_reported":1734351615,"current_range_meters":38400,"station_id":"ce4bh192rcd13ifvqdb0","pricing_plan_id":"cebpf4jnsgd1na2vs0mg"},{"bike_id":"e44d5c0d-9b3c-41c9-aba3-e0f6cbf1cb50","system_id":"levelo_inurba_marseille","lat":43.27055,"lon":5.40267,"is_reserved":false,"is_disabled":false,"rental_uris":{"android":"levelo://app?vid=e44d5c0d-9b3c-41c9-aba3-e0f6cbf1cb50","ios":"levelo://app?vid=e44d5c0d-9b3c-41c9-aba3-e0f6cbf1cb50"},"vehicle_type_id":"4","last_reported":1734351615,"current_range_meters":30400,"station_id":"ce4bhk92rcd13ifvqgc0","pricing_plan_id":"cebpf4jnsgd1na2vs0mg"},{"bike_id":"15fa192e-cf59-429f-9043-a5aef3fe0a0e","system_id":"levelo_inurba_marseille","lat":43.28439,"lon":5.380572,"is_reserved":false,"is_disabled":false,"rental_uris":{"android":"levelo://app?vid=15fa192e-cf59-429f-9043-a5aef3fe0a0e","ios":"levelo://app?vid=15fa192e-cf59-429f-9043-a5aef3fe0a0e"},"vehicle_type_id":"4","last_reported":1734351615,"current_range_meters":32800,"station_id":"ce4bh412rcd13ifvqdr0","pricing_plan_id":"cebpf4jnsgd1na2vs0mg"},{"bike_id":"ae0bdd7b-187c-409c-b2b3-37aac32d4db3","system_id":"levelo_inurba_marseille","lat":43.32359,"lon":5.3676,"is_reserved":false,"is_disabled":false,"rental_uris":{"android":"levelo://app?vid=ae0bdd7b-187c-409c-b2b3-37aac32d4db3","ios":"levelo://app?vid=ae0bdd7b-187c-409c-b2b3-37aac32d4db3"},"vehicle_type_id":"4","last_reported":1734351615,"current_range_meters":30800,"station_id":"ce4bhsh2rcd13ifvqi2g","pricing_plan_id":"cebpf4jnsgd1na2vs0mg"},{"bike_id":"bed5f0c5-f312-444f-96b2-ad51276fcb5d","system_id":"levelo_inurba_marseille","lat":43.2973,"lon":5.377,"is_reserved":false,"is_disabled":false,"rental_uris":{"android":"levelo://app?vid=bed5f0c5-f312-444f-96b2-ad51276fcb5d","ios":"levelo://app?vid=bed5f0c5-f312-444f-96b2-ad51276fcb5d"},"vehicle_type_id":"4","last_reported":1734351615,"current_range_meters":38800,"station_id":"ce4bgkh2rcd13ifvqbl0","pricing_plan_id":"cebpf4jnsgd1na2vs0mg"},{"bike_id":"e53787e4-0089-4043-be7d-f90e45a59497","system_id":"levelo_inurba_marseille","lat":43.293,"lon":5.37438,"is_reserved":false,"is_disabled":false,"rental_uris":{"android":"levelo://app?vid=e53787e4-0089-4043-be7d-f90e45a59497","ios":"levelo://app?vid=e53787e4-0089-4043-be7d-f90e45a59497"},"vehicle_type_id":"4","last_reported":1734351615,"current_range_meters":36800,"station_id":"ce4bgi12rcd13ifvqb70","pricing_plan_id":"cebpf4jnsgd1na2vs0mg"},{"bike_id":"9ad311dd-c450-4f09-933a-ef53d4559dc3","system_id":"levelo_inurba_marseille","lat":43.26978,"lon":5.39876,"is_reserved":false,"is_disabled":false,"rental_uris":{"android":"levelo://app?vid=9ad311dd-c450-4f09-933a-ef53d4559dc3","ios":"levelo://app?vid=9ad311dd-c450-4f09-933a-ef53d4559dc3"},"vehicle_type_id":"4","last_reported":1734351615,"current_range_meters":17200,"station_id":"","pricing_plan_id":"cebpf4jnsgd1na2vs0mg"},{"bike_id":"6e6ba8bf-8922-4181-85d4-fe19efd3efa4","system_id":"levelo_inurba_marseille","lat":43.304633,"lon":5.379156,"is_reserved":false,"is_disabled":true,"rental_uris":{"android":"levelo://app?vid=6e6ba8bf-8922-4181-85d4-fe19efd3efa4","ios":"levelo://app?vid=6e6ba8bf-8922-4181-85d4-fe19efd3efa4"},"vehicle_type_id":"4","last_reported":1734351615,"current_range_meters":22400,"station_id":"ce4bgup2rcd13ifvqcn0","pricing_plan_id":"cebpf4jnsgd1na2vs0mg"},{"bike_id":"3217b3c7-c781-4a41-88b7-4182d93dd02e","system_id":"levelo_inurba_marseille","lat":43.24075,"lon":5.37761,"is_reserved":false,"is_disabled":false,"rental_uris":{"android":"levelo://app?vid=3217b3c7-c781-4a41-88b7-4182d93dd02e","ios":"levelo://app?vid=3217b3c7-c781-4a41-88b7-4182d93dd02e"},"vehicle_type_id":"4","last_reported":1734351615,"current_range_meters":26000,"station_id":"ce4bhnp2rcd13ifvqgvg","pricing_plan_id":"cebpf4jnsgd1na2vs0mg"},{"bike_id":"85978ffe-321a-4a3d-91b0-31fc0dc9708a","system_id":"levelo_inurba_marseille","lat":43.304783,"lon":5.39755,"is_reserved":false,"is_disabled":false,"rental_uris":{"android":"levelo://app?vid=85978ffe-321a-4a3d-91b0-31fc0dc9708a","ios":"levelo://app?vid=85978ffe-321a-4a3d-91b0-31fc0dc9708a"},"vehicle_type_id":"4","last_reported":1734351615,"current_range_meters":38800,"station_id":"ce4bh092rcd13ifvqd20","pricing_plan_id":"cebpf4jnsgd1na2vs0mg"},{"bike_id":"131dac97-7bcf-4e01-a2a2-130488990973","system_id":"levelo_inurba_marseille","lat":43.24984,"lon":5.38945,"is_reserved":false,"is_disabled":false,"rental_uris":{"android":"levelo://app?vid=131dac97-7bcf-4e01-a2a2-130488990973","ios":"levelo://app?vid=131dac97-7bcf-4e01-a2a2-130488990973"},"vehicle_type_id":"4","last_reported":1734351615,"current_range_meters":36800,"station_id":"ce4bhgp2rcd13ifvqfd0","pricing_plan_id":"cebpf4jnsgd1na2vs0mg"},{"bike_id":"af67ac53-ba21-4ff0-8334-95679e9ff2cc","system_id":"levelo_inurba_marseille","lat":43.278805,"lon":5.388003,"is_reserved":false,"is_disabled":true,"rental_uris":{"android":"levelo://app?vid=af67ac53-ba21-4ff0-8334-95679e9ff2cc","ios":"levelo://app?vid=af67ac53-ba21-4ff0-8334-95679e9ff2cc"},"vehicle_type_id":"4","last_reported":1734351615,"current_range_meters":0,"station_id":"","pricing_plan_id":"cebpf4jnsgd1na2vs0mg"},{"bike_id":"ac12fb4e-3874-4ff3-bf0b-39ed8484910e","system_id":"levelo_inurba_marseille","lat":43.26488,"lon":5.39559,"is_reserved":false,"is_disabled":true,"rental_uris":{"android":"levelo://app?vid=ac12fb4e-3874-4ff3-bf0b-39ed8484910e","ios":"levelo://app?vid=ac12fb4e-3874-4ff3-bf0b-39ed8484910e"},"vehicle_type_id":"4","last_reported":1734351615,"current_range_meters":38800,"station_id":"ce4bhi12rcd13ifvqfq0","pricing_plan_id":"cebpf4jnsgd1na2vs0mg"},{"bike_id":"78adf787-e371-4204-b571-f4e0ee80dedd","system_id":"levelo_inurba_marseille","lat":43.24671,"lon":5.38163,"is_reserved":false,"is_disabled":false,"rental_uris":{"android":"levelo://app?vid=78adf787-e371-4204-b571-f4e0ee80dedd","ios":"levelo://app?vid=78adf787-e371-4204-b571-f4e0ee80dedd"},"vehicle_type_id":"4","last_reported":1734351615,"current_range_meters":36400,"station_id":"ce4bhih2rcd13ifvqfr0","pricing_plan_id":"cebpf4jnsgd1na2vs0mg"},{"bike_id":"c69ff6d7-f81b-4bd0-994f-52b9dca18c0a","system_id":"levelo_inurba_marseille","lat":43.30717,"lon":5.36824,"is_reserved":false,"is_disabled":false,"rental_uris":{"android":"levelo://app?vid=c69ff6d7-f81b-4bd0-994f-52b9dca18c0a","ios":"levelo://app?vid=c69ff6d7-f81b-4bd0-994f-52b9dca18c0a"},"vehicle_type_id":"4","last_reported":1734351615,"current_range_meters":22800,"station_id":"","pricing_plan_id":"cebpf4jnsgd1na2vs0mg"},{"bike_id":"2ee47aba-edd0-4d53-a17e-e6f65b10c35f","system_id":"levelo_inurba_marseille","lat":43.30127,"lon":5.39094,"is_reserved":false,"is_disabled":true,"rental_uris":{"android":"levelo://app?vid=2ee47aba-edd0-4d53-a17e-e6f65b10c35f","ios":"levelo://app?vid=2ee47aba-edd0-4d53-a17e-e6f65b10c35f"},"vehicle_type_id":"4","last_reported":1734351615,"current_range_meters":14800,"station_id":"ce4bh192rcd13ifvqdb0","pricing_plan_id":"cebpf4jnsgd1na2vs0mg"},{"bike_id":"48cbbcb1-636e-4370-82ea-d574bbf3e0f7","system_id":"levelo_inurba_marseille","lat":43.27329,"lon":5.3908,"is_reserved":false,"is_disabled":false,"rental_uris":{"android":"levelo://app?vid=48cbbcb1-636e-4370-82ea-d574bbf3e0f7","ios":"levelo://app?vid=48cbbcb1-636e-4370-82ea-d574bbf3e0f7"},"vehicle_type_id":"4","last_reported":1734351615,"current_range_meters":29600,"station_id":"ce4bhgp2rcd13ifvqfe0","pricing_plan_id":"cebpf4jnsgd1na2vs0mg"},{"bike_id":"6d834788-f086-4e38-a3be-2ba52529ebf3","system_id":"levelo_inurba_marseille","lat":43.26933,"lon":5.38922,"is_reserved":false,"is_disabled":false,"rental_uris":{"android":"levelo://app?vid=6d834788-f086-4e38-a3be-2ba52529ebf3","ios":"levelo://app?vid=6d834788-f086-4e38-a3be-2ba52529ebf3"},"vehicle_type_id":"4","last_reported":1734351615,"current_range_meters":16800,"station_id":"ce4bhhh2rcd13ifvqfl0","pricing_plan_id":"cebpf4jnsgd1na2vs0mg"},{"bike_id":"ae67b92e-e07b-46b6-a10a-fe976fc2be6b","system_id":"levelo_inurba_marseille","lat":43.3027,"lon":5.37719,"is_reserved":false,"is_disabled":false,"rental_uris":{"android":"levelo://app?vid=ae67b92e-e07b-46b6-a10a-fe976fc2be6b","ios":"levelo://app?vid=ae67b92e-e07b-46b6-a10a-fe976fc2be6b"},"vehicle_type_id":"4","last_reported":1734351615,"current_range_meters":34000,"station_id":"ce4bguh2rcd13ifvqcj0","pricing_plan_id":"cebpf4jnsgd1na2vs0mg"},{"bike_id":"8bdf8be6-f2ec-425a-9d12-d686ce2d288a","system_id":"levelo_inurba_marseille","lat":43.27053,"lon":5.40264,"is_reserved":false,"is_disabled":false,"rental_uris":{"android":"levelo://app?vid=8bdf8be6-f2ec-425a-9d12-d686ce2d288a","ios":"levelo://app?vid=8bdf8be6-f2ec-425a-9d12-d686ce2d288a"},"vehicle_type_id":"4","last_reported":1734351615,"current_range_meters":30400,"station_id":"ce4bhk92rcd13ifvqgc0","pricing_plan_id":"cebpf4jnsgd1na2vs0mg"},{"bike_id":"ad9e0e56-b232-4761-8766-3140462fc53b","system_id":"levelo_inurba_marseille","lat":43.26549,"lon":5.37293,"is_reserved":false,"is_disabled":true,"rental_uris":{"android":"levelo://app?vid=ad9e0e56-b232-4761-8766-3140462fc53b","ios":"levelo://app?vid=ad9e0e56-b232-4761-8766-3140462fc53b"},"vehicle_type_id":"4","last_reported":1734351615,"current_range_meters":23200,"station_id":"ce4bhg12rcd13ifvqf70","pricing_plan_id":"cebpf4jnsgd1na2vs0mg"},{"bike_id":"1d7034d3-38aa-4743-8f5d-2da4802e206b","system_id":"levelo_inurba_marseille","lat":43.28726,"lon":5.38285,"is_reserved":false,"is_disabled":true,"rental_uris":{"android":"levelo://app?vid=1d7034d3-38aa-4743-8f5d-2da4802e206b","ios":"levelo://app?vid=1d7034d3-38aa-4743-8f5d-2da4802e206b"},"vehicle_type_id":"4","last_reported":1734351615,"current_range_meters":0,"station_id":"","pricing_plan_id":"cebpf4jnsgd1na2vs0mg"},{"bike_id":"656d8740-9b85-4a93-86ce-9d32a0e761f7","system_id":"levelo_inurba_marseille","lat":43.3107,"lon":5.3835,"is_reserved":false,"is_disabled":true,"rental_uris":{"android":"levelo://app?vid=656d8740-9b85-4a93-86ce-9d32a0e761f7","ios":"levelo://app?vid=656d8740-9b85-4a93-86ce-9d32a0e761f7"},"vehicle_type_id":"4","last_reported":1734351615,"current_range_meters":0,"station_id":"ce4bgv92rcd13ifvqcr0","pricing_plan_id":"cebpf4jnsgd1na2vs0mg"},{"bike_id":"30b09c14-5db6-4bdd-8ec0-8d8fd355bef3","system_id":"levelo_inurba_marseille","lat":43.29889,"lon":5.39784,"is_reserved":false,"is_disabled":true,"rental_uris":{"android":"levelo://app?vid=30b09c14-5db6-4bdd-8ec0-8d8fd355bef3","ios":"levelo://app?vid=30b09c14-5db6-4bdd-8ec0-8d8fd355bef3"},"vehicle_type_id":"4","last_reported":1734351615,"current_range_meters":36400,"station_id":"ce4bh0h2rcd13ifvqd50","pricing_plan_id":"cebpf4jnsgd1na2vs0mg"},{"bike_id":"f08c808c-af08-40b8-81c3-97739c995b77","system_id":"levelo_inurba_marseille","lat":43.3011,"lon":5.39889,"is_reserved":false,"is_disabled":true,"rental_uris":{"android":"levelo://app?vid=f08c808c-af08-40b8-81c3-97739c995b77","ios":"levelo://app?vid=f08c808c-af08-40b8-81c3-97739c995b77"},"vehicle_type_id":"4","last_reported":1734351615,"current_range_meters":6800,"station_id":"ce4bh0h2rcd13ifvqd40","pricing_plan_id":"cebpf4jnsgd1na2vs0mg"},{"bike_id":"86970bbe-b814-43c9-89a2-85f507f309fa","system_id":"levelo_inurba_marseille","lat":43.305457,"lon":5.384249,"is_reserved":false,"is_disabled":true,"rental_uris":{"android":"levelo://app?vid=86970bbe-b814-43c9-89a2-85f507f309fa","ios":"levelo://app?vid=86970bbe-b814-43c9-89a2-85f507f309fa"},"vehicle_type_id":"4","last_reported":1734351615,"current_range_meters":0,"station_id":"ce4bgg92rcd13ifvqb30","pricing_plan_id":"cebpf4jnsgd1na2vs0mg"},{"bike_id":"44220259-b815-4d5b-a1f9-59e2a508032c","system_id":"levelo_inurba_marseille","lat":43.30409,"lon":5.413,"is_reserved":false,"is_disabled":false,"rental_uris":{"android":"levelo://app?vid=44220259-b815-4d5b-a1f9-59e2a508032c","ios":"levelo://app?vid=44220259-b815-4d5b-a1f9-59e2a508032c"},"vehicle_type_id":"4","last_reported":1734351615,"current_range_meters":38800,"station_id":"ce4bhop2rcd13ifvqh8g","pricing_plan_id":"cebpf4jnsgd1na2vs0mg"},{"bike_id":"43a2fa1d-314c-4a4d-b7c9-aa2f198eb73b","system_id":"levelo_inurba_marseille","lat":43.3014,"lon":5.38795,"is_reserved":false,"is_disabled":true,"rental_uris":{"android":"levelo://app?vid=43a2fa1d-314c-4a4d-b7c9-aa2f198eb73b","ios":"levelo://app?vid=43a2fa1d-314c-4a4d-b7c9-aa2f198eb73b"},"vehicle_type_id":"4","last_reported":1734351615,"current_range_meters":27200,"station_id":"ce4bghh2rcd13ifvqb60","pricing_plan_id":"cebpf4jnsgd1na2vs0mg"},{"bike_id":"5ab4db13-10b4-4c99-8206-c3fad80ceedb","system_id":"levelo_inurba_marseille","lat":43.337444,"lon":5.374475,"is_reserved":false,"is_disabled":false,"rental_uris":{"android":"levelo://app?vid=5ab4db13-10b4-4c99-8206-c3fad80ceedb","ios":"levelo://app?vid=5ab4db13-10b4-4c99-8206-c3fad80ceedb"},"vehicle_type_id":"4","last_reported":1734351615,"current_range_meters":32400,"station_id":"","pricing_plan_id":"cebpf4jnsgd1na2vs0mg"},{"bike_id":"669039fa-27fb-45a0-9901-6c6bf37eed00","system_id":"levelo_inurba_marseille","lat":43.28151,"lon":5.42627,"is_reserved":false,"is_disabled":false,"rental_uris":{"android":"levelo://app?vid=669039fa-27fb-45a0-9901-6c6bf37eed00","ios":"levelo://app?vid=669039fa-27fb-45a0-9901-6c6bf37eed00"},"vehicle_type_id":"4","last_reported":1734351615,"current_range_meters":17600,"station_id":"ce4bhnh2rcd13ifvqgug","pricing_plan_id":"cebpf4jnsgd1na2vs0mg"},{"bike_id":"08cee0db-94b4-4298-bfcb-8531f0ed5faf","system_id":"levelo_inurba_marseille","lat":43.27971,"lon":5.38705,"is_reserved":false,"is_disabled":false,"rental_uris":{"android":"levelo://app?vid=08cee0db-94b4-4298-bfcb-8531f0ed5faf","ios":"levelo://app?vid=08cee0db-94b4-4298-bfcb-8531f0ed5faf"},"vehicle_type_id":"4","last_reported":1734351615,"current_range_meters":22800,"station_id":"ce4bhg12rcd13ifvqf80","pricing_plan_id":"cebpf4jnsgd1na2vs0mg"},{"bike_id":"9bdff9fe-459e-4251-8535-35c27adeb82a","system_id":"levelo_inurba_marseille","lat":43.25,"lon":5.38923,"is_reserved":false,"is_disabled":false,"rental_uris":{"android":"levelo://app?vid=9bdff9fe-459e-4251-8535-35c27adeb82a","ios":"levelo://app?vid=9bdff9fe-459e-4251-8535-35c27adeb82a"},"vehicle_type_id":"4","last_reported":1734351615,"current_range_meters":38800,"station_id":"ce4bhgp2rcd13ifvqfd0","pricing_plan_id":"cebpf4jnsgd1na2vs0mg"},{"bike_id":"d0091fe7-0202-427e-8111-3a9c2e559323","system_id":"levelo_inurba_marseille","lat":43.2319,"lon":5.35559,"is_reserved":false,"is_disabled":false,"rental_uris":{"android":"levelo://app?vid=d0091fe7-0202-427e-8111-3a9c2e559323","ios":"levelo://app?vid=d0091fe7-0202-427e-8111-3a9c2e559323"},"vehicle_type_id":"4","last_reported":1734351615,"current_range_meters":30400,"station_id":"ce4bhu92rcd13ifvqi70","pricing_plan_id":"cebpf4jnsgd1na2vs0mg"},{"bike_id":"0810675e-0ec1-421a-b95a-82de5ccce9b2","system_id":"levelo_inurba_marseille","lat":43.241686,"lon":5.39691,"is_reserved":false,"is_disabled":true,"rental_uris":{"android":"levelo://app?vid=0810675e-0ec1-421a-b95a-82de5ccce9b2","ios":"levelo://app?vid=0810675e-0ec1-421a-b95a-82de5ccce9b2"},"vehicle_type_id":"4","last_reported":1734351615,"current_range_meters":18000,"station_id":"ce4bhn12rcd13ifvqgpg","pricing_plan_id":"cebpf4jnsgd1na2vs0mg"},{"bike_id":"658b701e-1546-4ee7-a5a3-c849cfed5179","system_id":"levelo_inurba_marseille","lat":43.29614,"lon":5.37722,"is_reserved":false,"is_disabled":true,"rental_uris":{"android":"levelo://app?vid=658b701e-1546-4ee7-a5a3-c849cfed5179","ios":"levelo://app?vid=658b701e-1546-4ee7-a5a3-c849cfed5179"},"vehicle_type_id":"4","last_reported":1734351615,"current_range_meters":0,"station_id":"ce4bgi92rcd13ifvqb90","pricing_plan_id":"cebpf4jnsgd1na2vs0mg"},{"bike_id":"c940930d-997d-451d-96f0-27877b12ae8d","system_id":"levelo_inurba_marseille","lat":43.30881,"lon":5.39657,"is_reserved":false,"is_disabled":false,"rental_uris":{"android":"levelo://app?vid=c940930d-997d-451d-96f0-27877b12ae8d","ios":"levelo://app?vid=c940930d-997d-451d-96f0-27877b12ae8d"},"vehicle_type_id":"4","last_reported":1734351615,"current_range_meters":18000,"station_id":"ce4bh012rcd13ifvqcv0","pricing_plan_id":"cebpf4jnsgd1na2vs0mg"},{"bike_id":"278ba4f8-bf9b-4e9d-9dad-7b375b681a04","system_id":"levelo_inurba_marseille","lat":43.30608,"lon":5.37226,"is_reserved":false,"is_disabled":false,"rental_uris":{"android":"levelo://app?vid=278ba4f8-bf9b-4e9d-9dad-7b375b681a04","ios":"levelo://app?vid=278ba4f8-bf9b-4e9d-9dad-7b375b681a04"},"vehicle_type_id":"4","last_reported":1734351615,"current_range_meters":35200,"station_id":"ce4bgqh2rcd13ifvqc4g","pricing_plan_id":"cebpf4jnsgd1na2vs0mg"},{"bike_id":"ed479c7a-06f1-4684-ad77-615717175753","system_id":"levelo_inurba_marseille","lat":43.28709,"lon":5.39997,"is_reserved":false,"is_disabled":true,"rental_uris":{"android":"levelo://app?vid=ed479c7a-06f1-4684-ad77-615717175753","ios":"levelo://app?vid=ed479c7a-06f1-4684-ad77-615717175753"},"vehicle_type_id":"4","last_reported":1734351615,"current_range_meters":0,"station_id":"ce4bho92rcd13ifvqh3g","pricing_plan_id":"cebpf4jnsgd1na2vs0mg"},{"bike_id":"4b57bbf5-6835-4c8c-9ed8-e1715ba1f024","system_id":"levelo_inurba_marseille","lat":43.27897,"lon":5.38013,"is_reserved":false,"is_disabled":false,"rental_uris":{"android":"levelo://app?vid=4b57bbf5-6835-4c8c-9ed8-e1715ba1f024","ios":"levelo://app?vid=4b57bbf5-6835-4c8c-9ed8-e1715ba1f024"},"vehicle_type_id":"4","last_reported":1734351615,"current_range_meters":38800,"station_id":"ce4bhf92rcd13ifvqf50","pricing_plan_id":"cebpf4jnsgd1na2vs0mg"},{"bike_id":"458c56c8-42dd-4540-9e14-c3527b1b6c85","system_id":"levelo_inurba_marseille","lat":43.25937,"lon":5.40909,"is_reserved":false,"is_disabled":false,"rental_uris":{"android":"levelo://app?vid=458c56c8-42dd-4540-9e14-c3527b1b6c85","ios":"levelo://app?vid=458c56c8-42dd-4540-9e14-c3527b1b6c85"},"vehicle_type_id":"4","last_reported":1734351615,"current_range_meters":10000,"station_id":"ce4bhm92rcd13ifvqglg","pricing_plan_id":"cebpf4jnsgd1na2vs0mg"},{"bike_id":"8b135e9e-ffef-4366-9100-fd182f024a7e","system_id":"levelo_inurba_marseille","lat":43.28154,"lon":5.42647,"is_reserved":false,"is_disabled":true,"rental_uris":{"android":"levelo://app?vid=8b135e9e-ffef-4366-9100-fd182f024a7e","ios":"levelo://app?vid=8b135e9e-ffef-4366-9100-fd182f024a7e"},"vehicle_type_id":"4","last_reported":1734351615,"current_range_meters":0,"station_id":"ce4bhnh2rcd13ifvqgug","pricing_plan_id":"cebpf4jnsgd1na2vs0mg"},{"bike_id":"2c8e111b-19d5-4cd1-a393-0f85af64525a","system_id":"levelo_inurba_marseille","lat":43.31347,"lon":5.36716,"is_reserved":false,"is_disabled":false,"rental_uris":{"android":"levelo://app?vid=2c8e111b-19d5-4cd1-a393-0f85af64525a","ios":"levelo://app?vid=2c8e111b-19d5-4cd1-a393-0f85af64525a"},"vehicle_type_id":"4","last_reported":1734351615,"current_range_meters":27200,"station_id":"ce4bgr92rcd13ifvqc6g","pricing_plan_id":"cebpf4jnsgd1na2vs0mg"},{"bike_id":"d8bde9b9-3df2-41f7-b544-b6555adc082f","system_id":"levelo_inurba_marseille","lat":43.26976,"lon":5.3863,"is_reserved":false,"is_disabled":false,"rental_uris":{"android":"levelo://app?vid=d8bde9b9-3df2-41f7-b544-b6555adc082f","ios":"levelo://app?vid=d8bde9b9-3df2-41f7-b544-b6555adc082f"},"vehicle_type_id":"4","last_reported":1734351615,"current_range_meters":19600,"station_id":"ce4bhh92rcd13ifvqfh0","pricing_plan_id":"cebpf4jnsgd1na2vs0mg"},{"bike_id":"7810261b-a3e3-4e97-a411-fb887a845481","system_id":"levelo_inurba_marseille","lat":43.27989,"lon":5.41659,"is_reserved":false,"is_disabled":false,"rental_uris":{"android":"levelo://app?vid=7810261b-a3e3-4e97-a411-fb887a845481","ios":"levelo://app?vid=7810261b-a3e3-4e97-a411-fb887a845481"},"vehicle_type_id":"4","last_reported":1734351615,"current_range_meters":30000,"station_id":"ce4bho12rcd13ifvqh1g","pricing_plan_id":"cebpf4jnsgd1na2vs0mg"},{"bike_id":"22b68899-8b56-4d5b-a525-250826f94187","system_id":"levelo_inurba_marseille","lat":43.30534,"lon":5.36716,"is_reserved":false,"is_disabled":true,"rental_uris":{"android":"levelo://app?vid=22b68899-8b56-4d5b-a525-250826f94187","ios":"levelo://app?vid=22b68899-8b56-4d5b-a525-250826f94187"},"vehicle_type_id":"4","last_reported":1734351615,"current_range_meters":38800,"station_id":"ce4bgrp2rcd13ifvqc9g","pricing_plan_id":"cebpf4jnsgd1na2vs0mg"},{"bike_id":"d2e412ce-b890-4afc-b073-94a1ab7a6a06","system_id":"levelo_inurba_marseille","lat":43.29298,"lon":5.37461,"is_reserved":false,"is_disabled":false,"rental_uris":{"android":"levelo://app?vid=d2e412ce-b890-4afc-b073-94a1ab7a6a06","ios":"levelo://app?vid=d2e412ce-b890-4afc-b073-94a1ab7a6a06"},"vehicle_type_id":"4","last_reported":1734351615,"current_range_meters":30400,"station_id":"ce4bgi12rcd13ifvqb70","pricing_plan_id":"cebpf4jnsgd1na2vs0mg"},{"bike_id":"83e5b1f9-e512-4755-8dfd-f85222a054ac","system_id":"levelo_inurba_marseille","lat":43.26845,"lon":5.39658,"is_reserved":false,"is_disabled":false,"rental_uris":{"android":"levelo://app?vid=83e5b1f9-e512-4755-8dfd-f85222a054ac","ios":"levelo://app?vid=83e5b1f9-e512-4755-8dfd-f85222a054ac"},"vehicle_type_id":"4","last_reported":1734351615,"current_range_meters":11200,"station_id":"","pricing_plan_id":"cebpf4jnsgd1na2vs0mg"},{"bike_id":"483537f0-0a97-4bc9-b6b9-3700316f5817","system_id":"levelo_inurba_marseille","lat":43.29529,"lon":5.38544,"is_reserved":false,"is_disabled":true,"rental_uris":{"android":"levelo://app?vid=483537f0-0a97-4bc9-b6b9-3700316f5817","ios":"levelo://app?vid=483537f0-0a97-4bc9-b6b9-3700316f5817"},"vehicle_type_id":"4","last_reported":1734351615,"current_range_meters":3200,"station_id":"ce4bgih2rcd13ifvqba0","pricing_plan_id":"cebpf4jnsgd1na2vs0mg"},{"bike_id":"1f9f2344-774c-4681-a39f-5ccd15c769b1","system_id":"levelo_inurba_marseille","lat":43.28615,"lon":5.35099,"is_reserved":false,"is_disabled":true,"rental_uris":{"android":"levelo://app?vid=1f9f2344-774c-4681-a39f-5ccd15c769b1","ios":"levelo://app?vid=1f9f2344-774c-4681-a39f-5ccd15c769b1"},"vehicle_type_id":"4","last_reported":1734351615,"current_range_meters":27200,"station_id":"ce4bhch2rcd13ifvqeug","pricing_plan_id":"cebpf4jnsgd1na2vs0mg"},{"bike_id":"a1e87f39-a169-437c-996c-14d84743b37e","system_id":"levelo_inurba_marseille","lat":43.23063,"lon":5.35494,"is_reserved":false,"is_disabled":false,"rental_uris":{"android":"levelo://app?vid=a1e87f39-a169-437c-996c-14d84743b37e","ios":"levelo://app?vid=a1e87f39-a169-437c-996c-14d84743b37e"},"vehicle_type_id":"4","last_reported":1734351615,"current_range_meters":37600,"station_id":"cpo3342slgdg3j2ifvpg","pricing_plan_id":"cebpf4jnsgd1na2vs0mg"},{"bike_id":"025fd450-3d1f-4997-8249-522804445b6d","system_id":"levelo_inurba_marseille","lat":43.28472,"lon":5.38425,"is_reserved":false,"is_disabled":false,"rental_uris":{"android":"levelo://app?vid=025fd450-3d1f-4997-8249-522804445b6d","ios":"levelo://app?vid=025fd450-3d1f-4997-8249-522804445b6d"},"vehicle_type_id":"4","last_reported":1734351615,"current_range_meters":25600,"station_id":"ce4bh512rcd13ifvqe3g","pricing_plan_id":"cebpf4jnsgd1na2vs0mg"},{"bike_id":"a4201bad-2952-479e-bfa8-345091f5dd8e","system_id":"levelo_inurba_marseille","lat":43.24644,"lon":5.38924,"is_reserved":false,"is_disabled":false,"rental_uris":{"android":"levelo://app?vid=a4201bad-2952-479e-bfa8-345091f5dd8e","ios":"levelo://app?vid=a4201bad-2952-479e-bfa8-345091f5dd8e"},"vehicle_type_id":"4","last_reported":1734351615,"current_range_meters":18800,"station_id":"ce4bhg12rcd13ifvqf60","pricing_plan_id":"cebpf4jnsgd1na2vs0mg"},{"bike_id":"9b7bd68c-b402-4fe0-bba9-12b73c77eeac","system_id":"levelo_inurba_marseille","lat":43.29786,"lon":5.39356,"is_reserved":false,"is_disabled":true,"rental_uris":{"android":"levelo://app?vid=9b7bd68c-b402-4fe0-bba9-12b73c77eeac","ios":"levelo://app?vid=9b7bd68c-b402-4fe0-bba9-12b73c77eeac"},"vehicle_type_id":"4","last_reported":1734351615,"current_range_meters":800,"station_id":"chh1huq6cuj3fo74tm60","pricing_plan_id":"cebpf4jnsgd1na2vs0mg"},{"bike_id":"ec02aae7-1b6f-4b03-a1b9-b6e5822ef689","system_id":"levelo_inurba_marseille","lat":43.2847,"lon":5.38419,"is_reserved":false,"is_disabled":false,"rental_uris":{"android":"levelo://app?vid=ec02aae7-1b6f-4b03-a1b9-b6e5822ef689","ios":"levelo://app?vid=ec02aae7-1b6f-4b03-a1b9-b6e5822ef689"},"vehicle_type_id":"4","last_reported":1734351615,"current_range_meters":38000,"station_id":"ce4bh512rcd13ifvqe3g","pricing_plan_id":"cebpf4jnsgd1na2vs0mg"},{"bike_id":"c76de74b-f745-43b4-b5cf-f1c3c6c2de11","system_id":"levelo_inurba_marseille","lat":43.24666,"lon":5.38162,"is_reserved":false,"is_disabled":true,"rental_uris":{"android":"levelo://app?vid=c76de74b-f745-43b4-b5cf-f1c3c6c2de11","ios":"levelo://app?vid=c76de74b-f745-43b4-b5cf-f1c3c6c2de11"},"vehicle_type_id":"4","last_reported":1734351615,"current_range_meters":39200,"station_id":"ce4bhih2rcd13ifvqfr0","pricing_plan_id":"cebpf4jnsgd1na2vs0mg"},{"bike_id":"90fdbe4f-cb5a-407c-9503-1ec303e90772","system_id":"levelo_inurba_marseille","lat":43.30144,"lon":5.38805,"is_reserved":false,"is_disabled":true,"rental_uris":{"android":"levelo://app?vid=90fdbe4f-cb5a-407c-9503-1ec303e90772","ios":"levelo://app?vid=90fdbe4f-cb5a-407c-9503-1ec303e90772"},"vehicle_type_id":"4","last_reported":1734351615,"current_range_meters":20800,"station_id":"ce4bghh2rcd13ifvqb60","pricing_plan_id":"cebpf4jnsgd1na2vs0mg"},{"bike_id":"e76f2873-e6fb-47c1-a122-e676819dd4bf","system_id":"levelo_inurba_marseille","lat":43.24176,"lon":5.39727,"is_reserved":false,"is_disabled":false,"rental_uris":{"android":"levelo://app?vid=e76f2873-e6fb-47c1-a122-e676819dd4bf","ios":"levelo://app?vid=e76f2873-e6fb-47c1-a122-e676819dd4bf"},"vehicle_type_id":"4","last_reported":1734351615,"current_range_meters":20000,"station_id":"ce4bhn12rcd13ifvqgpg","pricing_plan_id":"cebpf4jnsgd1na2vs0mg"},{"bike_id":"ddbb3a7c-2665-4ce3-9848-3cccae19d989","system_id":"levelo_inurba_marseille","lat":43.27653,"lon":5.38924,"is_reserved":false,"is_disabled":true,"rental_uris":{"android":"levelo://app?vid=ddbb3a7c-2665-4ce3-9848-3cccae19d989","ios":"levelo://app?vid=ddbb3a7c-2665-4ce3-9848-3cccae19d989"},"vehicle_type_id":"4","last_reported":1734351615,"current_range_meters":36000,"station_id":"ce4bhi12rcd13ifvqfo0","pricing_plan_id":"cebpf4jnsgd1na2vs0mg"},{"bike_id":"bde54dc7-9395-46d6-bc6e-42ecf2cbe5bd","system_id":"levelo_inurba_marseille","lat":43.30459,"lon":5.37909,"is_reserved":false,"is_disabled":true,"rental_uris":{"android":"levelo://app?vid=bde54dc7-9395-46d6-bc6e-42ecf2cbe5bd","ios":"levelo://app?vid=bde54dc7-9395-46d6-bc6e-42ecf2cbe5bd"},"vehicle_type_id":"4","last_reported":1734351615,"current_range_meters":0,"station_id":"ce4bgup2rcd13ifvqcn0","pricing_plan_id":"cebpf4jnsgd1na2vs0mg"},{"bike_id":"4e3eebec-f009-4887-809b-5f30495d5092","system_id":"levelo_inurba_marseille","lat":43.28709,"lon":5.37411,"is_reserved":false,"is_disabled":true,"rental_uris":{"android":"levelo://app?vid=4e3eebec-f009-4887-809b-5f30495d5092","ios":"levelo://app?vid=4e3eebec-f009-4887-809b-5f30495d5092"},"vehicle_type_id":"4","last_reported":1734351615,"current_range_meters":12000,"station_id":"ce4bh3p2rcd13ifvqdq0","pricing_plan_id":"cebpf4jnsgd1na2vs0mg"},{"bike_id":"b5091e45-09e1-4ff4-8c41-6505f52caa85","system_id":"levelo_inurba_marseille","lat":43.25109,"lon":5.40329,"is_reserved":false,"is_disabled":false,"rental_uris":{"android":"levelo://app?vid=b5091e45-09e1-4ff4-8c41-6505f52caa85","ios":"levelo://app?vid=b5091e45-09e1-4ff4-8c41-6505f52caa85"},"vehicle_type_id":"4","last_reported":1734351615,"current_range_meters":38800,"station_id":"ce4bhlh2rcd13ifvqgig","pricing_plan_id":"cebpf4jnsgd1na2vs0mg"},{"bike_id":"5cb2253b-15ad-4ce2-af15-ca4a67df4526","system_id":"levelo_inurba_marseille","lat":43.31426,"lon":5.37044,"is_reserved":false,"is_disabled":false,"rental_uris":{"android":"levelo://app?vid=5cb2253b-15ad-4ce2-af15-ca4a67df4526","ios":"levelo://app?vid=5cb2253b-15ad-4ce2-af15-ca4a67df4526"},"vehicle_type_id":"4","last_reported":1734351615,"current_range_meters":16400,"station_id":"","pricing_plan_id":"cebpf4jnsgd1na2vs0mg"},{"bike_id":"12da31a3-7a5a-4f50-bce7-5a39b05fb897","system_id":"levelo_inurba_marseille","lat":43.2619,"lon":5.37447,"is_reserved":false,"is_disabled":false,"rental_uris":{"android":"levelo://app?vid=12da31a3-7a5a-4f50-bce7-5a39b05fb897","ios":"levelo://app?vid=12da31a3-7a5a-4f50-bce7-5a39b05fb897"},"vehicle_type_id":"4","last_reported":1734351615,"current_range_meters":38800,"station_id":"ce4bhgp2rcd13ifvqfc0","pricing_plan_id":"cebpf4jnsgd1na2vs0mg"},{"bike_id":"d66fca06-cd20-4a25-b955-99b348058820","system_id":"levelo_inurba_marseille","lat":43.30588,"lon":5.3936,"is_reserved":false,"is_disabled":false,"rental_uris":{"android":"levelo://app?vid=d66fca06-cd20-4a25-b955-99b348058820","ios":"levelo://app?vid=d66fca06-cd20-4a25-b955-99b348058820"},"vehicle_type_id":"4","last_reported":1734351615,"current_range_meters":12800,"station_id":"ce4bh0p2rcd13ifvqd80","pricing_plan_id":"cebpf4jnsgd1na2vs0mg"},{"bike_id":"a29baab6-4ed2-4678-b43d-ca5672f5cd12","system_id":"levelo_inurba_marseille","lat":43.25577,"lon":5.38236,"is_reserved":false,"is_disabled":false,"rental_uris":{"android":"levelo://app?vid=a29baab6-4ed2-4678-b43d-ca5672f5cd12","ios":"levelo://app?vid=a29baab6-4ed2-4678-b43d-ca5672f5cd12"},"vehicle_type_id":"4","last_reported":1734351615,"current_range_meters":14400,"station_id":"ce4bhih2rcd13ifvqfs0","pricing_plan_id":"cebpf4jnsgd1na2vs0mg"},{"bike_id":"247258e1-f9a0-4677-8aa0-2d2088a0fef9","system_id":"levelo_inurba_marseille","lat":43.2954,"lon":5.38542,"is_reserved":false,"is_disabled":true,"rental_uris":{"android":"levelo://app?vid=247258e1-f9a0-4677-8aa0-2d2088a0fef9","ios":"levelo://app?vid=247258e1-f9a0-4677-8aa0-2d2088a0fef9"},"vehicle_type_id":"4","last_reported":1734351615,"current_range_meters":33200,"station_id":"ce4bgih2rcd13ifvqba0","pricing_plan_id":"cebpf4jnsgd1na2vs0mg"},{"bike_id":"7a2dfe13-d7a2-4f0c-9f8d-d8f4e65988e8","system_id":"levelo_inurba_marseille","lat":43.27829,"lon":5.39202,"is_reserved":false,"is_disabled":false,"rental_uris":{"android":"levelo://app?vid=7a2dfe13-d7a2-4f0c-9f8d-d8f4e65988e8","ios":"levelo://app?vid=7a2dfe13-d7a2-4f0c-9f8d-d8f4e65988e8"},"vehicle_type_id":"4","last_reported":1734351615,"current_range_meters":27600,"station_id":"ce4bhjp2rcd13ifvqga0","pricing_plan_id":"cebpf4jnsgd1na2vs0mg"},{"bike_id":"0df249be-7d40-48ad-8915-752593b717dd","system_id":"levelo_inurba_marseille","lat":43.23188,"lon":5.3558,"is_reserved":false,"is_disabled":false,"rental_uris":{"android":"levelo://app?vid=0df249be-7d40-48ad-8915-752593b717dd","ios":"levelo://app?vid=0df249be-7d40-48ad-8915-752593b717dd"},"vehicle_type_id":"4","last_reported":1734351615,"current_range_meters":24800,"station_id":"ce4bhu92rcd13ifvqi70","pricing_plan_id":"cebpf4jnsgd1na2vs0mg"},{"bike_id":"989664e1-2615-4d65-9c6b-db676949f101","system_id":"levelo_inurba_marseille","lat":43.28146,"lon":5.42659,"is_reserved":false,"is_disabled":false,"rental_uris":{"android":"levelo://app?vid=989664e1-2615-4d65-9c6b-db676949f101","ios":"levelo://app?vid=989664e1-2615-4d65-9c6b-db676949f101"},"vehicle_type_id":"4","last_reported":1734351615,"current_range_meters":9200,"station_id":"ce4bhnh2rcd13ifvqgug","pricing_plan_id":"cebpf4jnsgd1na2vs0mg"},{"bike_id":"4a1bc0db-6a2c-4623-8864-d2d18510681f","system_id":"levelo_inurba_marseille","lat":43.2319,"lon":5.35567,"is_reserved":false,"is_disabled":false,"rental_uris":{"android":"levelo://app?vid=4a1bc0db-6a2c-4623-8864-d2d18510681f","ios":"levelo://app?vid=4a1bc0db-6a2c-4623-8864-d2d18510681f"},"vehicle_type_id":"4","last_reported":1734351615,"current_range_meters":11600,"station_id":"ce4bhu92rcd13ifvqi70","pricing_plan_id":"cebpf4jnsgd1na2vs0mg"},{"bike_id":"37a33cc5-7a0c-4f45-9365-698820bb13b8","system_id":"levelo_inurba_marseille","lat":43.27427,"lon":5.3942,"is_reserved":false,"is_disabled":false,"rental_uris":{"android":"levelo://app?vid=37a33cc5-7a0c-4f45-9365-698820bb13b8","ios":"levelo://app?vid=37a33cc5-7a0c-4f45-9365-698820bb13b8"},"vehicle_type_id":"4","last_reported":1734351615,"current_range_meters":31200,"station_id":"ce4bhdp2rcd13ifvqf20","pricing_plan_id":"cebpf4jnsgd1na2vs0mg"},{"bike_id":"230e9a8a-c8f7-40a1-b317-d4afa1935b21","system_id":"levelo_inurba_marseille","lat":43.31693,"lon":5.405,"is_reserved":false,"is_disabled":true,"rental_uris":{"android":"levelo://app?vid=230e9a8a-c8f7-40a1-b317-d4afa1935b21","ios":"levelo://app?vid=230e9a8a-c8f7-40a1-b317-d4afa1935b21"},"vehicle_type_id":"4","last_reported":1734351615,"current_range_meters":37600,"station_id":"ce4bh012rcd13ifvqd00","pricing_plan_id":"cebpf4jnsgd1na2vs0mg"},{"bike_id":"680bc8ce-2061-4d43-9cf7-a70eeccaf369","system_id":"levelo_inurba_marseille","lat":43.3137,"lon":5.36708,"is_reserved":false,"is_disabled":true,"rental_uris":{"android":"levelo://app?vid=680bc8ce-2061-4d43-9cf7-a70eeccaf369","ios":"levelo://app?vid=680bc8ce-2061-4d43-9cf7-a70eeccaf369"},"vehicle_type_id":"4","last_reported":1734351615,"current_range_meters":37600,"station_id":"ce4bgr92rcd13ifvqc6g","pricing_plan_id":"cebpf4jnsgd1na2vs0mg"},{"bike_id":"683a9ad3-de61-4837-8bfa-fd2fa377113b","system_id":"levelo_inurba_marseille","lat":43.30533,"lon":5.36707,"is_reserved":false,"is_disabled":true,"rental_uris":{"android":"levelo://app?vid=683a9ad3-de61-4837-8bfa-fd2fa377113b","ios":"levelo://app?vid=683a9ad3-de61-4837-8bfa-fd2fa377113b"},"vehicle_type_id":"4","last_reported":1734351615,"current_range_meters":38800,"station_id":"ce4bgrp2rcd13ifvqc9g","pricing_plan_id":"cebpf4jnsgd1na2vs0mg"},{"bike_id":"f8f760c0-d185-4a46-9aba-8c2df7512b2d","system_id":"levelo_inurba_marseille","lat":43.2749,"lon":5.4247,"is_reserved":false,"is_disabled":false,"rental_uris":{"android":"levelo://app?vid=f8f760c0-d185-4a46-9aba-8c2df7512b2d","ios":"levelo://app?vid=f8f760c0-d185-4a46-9aba-8c2df7512b2d"},"vehicle_type_id":"4","last_reported":1734351615,"current_range_meters":37600,"station_id":"ce4bhn92rcd13ifvqgrg","pricing_plan_id":"cebpf4jnsgd1na2vs0mg"},{"bike_id":"a170ba40-17b7-4bf6-90f8-c07a5cf55709","system_id":"levelo_inurba_marseille","lat":43.24653,"lon":5.38904,"is_reserved":false,"is_disabled":false,"rental_uris":{"android":"levelo://app?vid=a170ba40-17b7-4bf6-90f8-c07a5cf55709","ios":"levelo://app?vid=a170ba40-17b7-4bf6-90f8-c07a5cf55709"},"vehicle_type_id":"4","last_reported":1734351615,"current_range_meters":35200,"station_id":"ce4bhg12rcd13ifvqf60","pricing_plan_id":"cebpf4jnsgd1na2vs0mg"},{"bike_id":"06eb94fd-69b5-42bb-9a93-3989c149a585","system_id":"levelo_inurba_marseille","lat":43.29458,"lon":5.3624,"is_reserved":false,"is_disabled":false,"rental_uris":{"android":"levelo://app?vid=06eb94fd-69b5-42bb-9a93-3989c149a585","ios":"levelo://app?vid=06eb94fd-69b5-42bb-9a93-3989c149a585"},"vehicle_type_id":"4","last_reported":1734351615,"current_range_meters":6400,"station_id":"","pricing_plan_id":"cebpf4jnsgd1na2vs0mg"},{"bike_id":"d9977418-8393-49f5-a40b-c871898e58ed","system_id":"levelo_inurba_marseille","lat":43.32486,"lon":5.36583,"is_reserved":false,"is_disabled":false,"rental_uris":{"android":"levelo://app?vid=d9977418-8393-49f5-a40b-c871898e58ed","ios":"levelo://app?vid=d9977418-8393-49f5-a40b-c871898e58ed"},"vehicle_type_id":"4","last_reported":1734351615,"current_range_meters":19600,"station_id":"ce4bhs12rcd13ifvqhvg","pricing_plan_id":"cebpf4jnsgd1na2vs0mg"},{"bike_id":"577854f9-b729-42bc-bf8c-9e36a7050cd9","system_id":"levelo_inurba_marseille","lat":43.28342,"lon":5.38118,"is_reserved":false,"is_disabled":false,"rental_uris":{"android":"levelo://app?vid=577854f9-b729-42bc-bf8c-9e36a7050cd9","ios":"levelo://app?vid=577854f9-b729-42bc-bf8c-9e36a7050cd9"},"vehicle_type_id":"4","last_reported":1734351615,"current_range_meters":36800,"station_id":"ce4bh412rcd13ifvqdr0","pricing_plan_id":"cebpf4jnsgd1na2vs0mg"},{"bike_id":"c0d6a234-928d-47ee-b103-1d91f354d353","system_id":"levelo_inurba_marseille","lat":43.30599,"lon":5.37219,"is_reserved":false,"is_disabled":false,"rental_uris":{"android":"levelo://app?vid=c0d6a234-928d-47ee-b103-1d91f354d353","ios":"levelo://app?vid=c0d6a234-928d-47ee-b103-1d91f354d353"},"vehicle_type_id":"4","last_reported":1734351615,"current_range_meters":29600,"station_id":"ce4bgqh2rcd13ifvqc4g","pricing_plan_id":"cebpf4jnsgd1na2vs0mg"},{"bike_id":"79f94394-dd94-4558-9a5a-505339b4fb18","system_id":"levelo_inurba_marseille","lat":43.24069,"lon":5.3777,"is_reserved":false,"is_disabled":false,"rental_uris":{"android":"levelo://app?vid=79f94394-dd94-4558-9a5a-505339b4fb18","ios":"levelo://app?vid=79f94394-dd94-4558-9a5a-505339b4fb18"},"vehicle_type_id":"4","last_reported":1734351615,"current_range_meters":30000,"station_id":"ce4bhnp2rcd13ifvqgvg","pricing_plan_id":"cebpf4jnsgd1na2vs0mg"},{"bike_id":"3fce13d4-92e7-4fd4-ae12-ed33cd6f8d84","system_id":"levelo_inurba_marseille","lat":43.2962,"lon":5.37729,"is_reserved":false,"is_disabled":false,"rental_uris":{"android":"levelo://app?vid=3fce13d4-92e7-4fd4-ae12-ed33cd6f8d84","ios":"levelo://app?vid=3fce13d4-92e7-4fd4-ae12-ed33cd6f8d84"},"vehicle_type_id":"4","last_reported":1734351615,"current_range_meters":32800,"station_id":"ce4bgi92rcd13ifvqb90","pricing_plan_id":"cebpf4jnsgd1na2vs0mg"},{"bike_id":"52d0fa06-64d1-499e-bba9-979a7af8f51a","system_id":"levelo_inurba_marseille","lat":43.24686,"lon":5.38162,"is_reserved":false,"is_disabled":false,"rental_uris":{"android":"levelo://app?vid=52d0fa06-64d1-499e-bba9-979a7af8f51a","ios":"levelo://app?vid=52d0fa06-64d1-499e-bba9-979a7af8f51a"},"vehicle_type_id":"4","last_reported":1734351615,"current_range_meters":22000,"station_id":"ce4bhih2rcd13ifvqfr0","pricing_plan_id":"cebpf4jnsgd1na2vs0mg"},{"bike_id":"c58821f9-7843-4f2b-8e11-dffb0b46d8fe","system_id":"levelo_inurba_marseille","lat":43.297829,"lon":5.371,"is_reserved":false,"is_disabled":false,"rental_uris":{"android":"levelo://app?vid=c58821f9-7843-4f2b-8e11-dffb0b46d8fe","ios":"levelo://app?vid=c58821f9-7843-4f2b-8e11-dffb0b46d8fe"},"vehicle_type_id":"4","last_reported":1734351615,"current_range_meters":28000,"station_id":"ce4bgop2rcd13ifvqc1g","pricing_plan_id":"cebpf4jnsgd1na2vs0mg"},{"bike_id":"119666ee-7528-4e52-89f1-c99509e02f6e","system_id":"levelo_inurba_marseille","lat":43.30524,"lon":5.36542,"is_reserved":false,"is_disabled":false,"rental_uris":{"android":"levelo://app?vid=119666ee-7528-4e52-89f1-c99509e02f6e","ios":"levelo://app?vid=119666ee-7528-4e52-89f1-c99509e02f6e"},"vehicle_type_id":"4","last_reported":1734351615,"current_range_meters":36400,"station_id":"ce4bgs12rcd13ifvqcag","pricing_plan_id":"cebpf4jnsgd1na2vs0mg"},{"bike_id":"0d253baf-5864-4b49-8429-1468e72a0132","system_id":"levelo_inurba_marseille","lat":43.28098,"lon":5.37846,"is_reserved":false,"is_disabled":false,"rental_uris":{"android":"levelo://app?vid=0d253baf-5864-4b49-8429-1468e72a0132","ios":"levelo://app?vid=0d253baf-5864-4b49-8429-1468e72a0132"},"vehicle_type_id":"4","last_reported":1734351615,"current_range_meters":25600,"station_id":"ce4bha12rcd13ifvqee0","pricing_plan_id":"cebpf4jnsgd1na2vs0mg"},{"bike_id":"50200c2d-a7cd-4ece-9414-df5bb2a9eda0","system_id":"levelo_inurba_marseille","lat":43.3047,"lon":5.37902,"is_reserved":false,"is_disabled":false,"rental_uris":{"android":"levelo://app?vid=50200c2d-a7cd-4ece-9414-df5bb2a9eda0","ios":"levelo://app?vid=50200c2d-a7cd-4ece-9414-df5bb2a9eda0"},"vehicle_type_id":"4","last_reported":1734351615,"current_range_meters":6000,"station_id":"ce4bgup2rcd13ifvqcn0","pricing_plan_id":"cebpf4jnsgd1na2vs0mg"},{"bike_id":"aedad376-51bc-4cc3-a29c-e8be527f43b3","system_id":"levelo_inurba_marseille","lat":43.28567,"lon":5.39496,"is_reserved":false,"is_disabled":false,"rental_uris":{"android":"levelo://app?vid=aedad376-51bc-4cc3-a29c-e8be527f43b3","ios":"levelo://app?vid=aedad376-51bc-4cc3-a29c-e8be527f43b3"},"vehicle_type_id":"4","last_reported":1734351615,"current_range_meters":17200,"station_id":"ce4bh292rcd13ifvqdg0","pricing_plan_id":"cebpf4jnsgd1na2vs0mg"},{"bike_id":"56ee2a06-8728-457c-a612-830bc1136a45","system_id":"levelo_inurba_marseille","lat":43.28725,"lon":5.37928,"is_reserved":false,"is_disabled":false,"rental_uris":{"android":"levelo://app?vid=56ee2a06-8728-457c-a612-830bc1136a45","ios":"levelo://app?vid=56ee2a06-8728-457c-a612-830bc1136a45"},"vehicle_type_id":"4","last_reported":1734351615,"current_range_meters":11200,"station_id":"ce4bh9p2rcd13ifvqec0","pricing_plan_id":"cebpf4jnsgd1na2vs0mg"},{"bike_id":"63eaffe0-9361-4ff6-ab19-8007100ee7ae","system_id":"levelo_inurba_marseille","lat":43.24153,"lon":5.3971,"is_reserved":false,"is_disabled":false,"rental_uris":{"android":"levelo://app?vid=63eaffe0-9361-4ff6-ab19-8007100ee7ae","ios":"levelo://app?vid=63eaffe0-9361-4ff6-ab19-8007100ee7ae"},"vehicle_type_id":"4","last_reported":1734351615,"current_range_meters":33600,"station_id":"ce4bhn12rcd13ifvqgpg","pricing_plan_id":"cebpf4jnsgd1na2vs0mg"},{"bike_id":"029a988f-b396-4765-a71e-c0a384c95956","system_id":"levelo_inurba_marseille","lat":43.24077,"lon":5.37748,"is_reserved":false,"is_disabled":false,"rental_uris":{"android":"levelo://app?vid=029a988f-b396-4765-a71e-c0a384c95956","ios":"levelo://app?vid=029a988f-b396-4765-a71e-c0a384c95956"},"vehicle_type_id":"4","last_reported":1734351615,"current_range_meters":34000,"station_id":"ce4bhnp2rcd13ifvqgvg","pricing_plan_id":"cebpf4jnsgd1na2vs0mg"},{"bike_id":"b9dd575c-8c45-40f6-991f-d0d5880a2504","system_id":"levelo_inurba_marseille","lat":43.25869,"lon":5.39901,"is_reserved":false,"is_disabled":false,"rental_uris":{"android":"levelo://app?vid=b9dd575c-8c45-40f6-991f-d0d5880a2504","ios":"levelo://app?vid=b9dd575c-8c45-40f6-991f-d0d5880a2504"},"vehicle_type_id":"4","last_reported":1734351615,"current_range_meters":38800,"station_id":"ce4bhl92rcd13ifvqghg","pricing_plan_id":"cebpf4jnsgd1na2vs0mg"},{"bike_id":"f212dc32-408b-4f31-937a-b00904fac5be","system_id":"levelo_inurba_marseille","lat":43.30429,"lon":5.39755,"is_reserved":false,"is_disabled":false,"rental_uris":{"android":"levelo://app?vid=f212dc32-408b-4f31-937a-b00904fac5be","ios":"levelo://app?vid=f212dc32-408b-4f31-937a-b00904fac5be"},"vehicle_type_id":"4","last_reported":1734351615,"current_range_meters":38800,"station_id":"ce4bh092rcd13ifvqd20","pricing_plan_id":"cebpf4jnsgd1na2vs0mg"},{"bike_id":"3650d84c-d2fd-4728-abeb-b9accdfa7210","system_id":"levelo_inurba_marseille","lat":43.30235,"lon":5.40054,"is_reserved":false,"is_disabled":true,"rental_uris":{"android":"levelo://app?vid=3650d84c-d2fd-4728-abeb-b9accdfa7210","ios":"levelo://app?vid=3650d84c-d2fd-4728-abeb-b9accdfa7210"},"vehicle_type_id":"4","last_reported":1734351615,"current_range_meters":16400,"station_id":"ce4bgvh2rcd13ifvqcs0","pricing_plan_id":"cebpf4jnsgd1na2vs0mg"},{"bike_id":"4f9d4424-480d-4104-9e59-9da124647ecc","system_id":"levelo_inurba_marseille","lat":43.26497,"lon":5.39539,"is_reserved":false,"is_disabled":false,"rental_uris":{"android":"levelo://app?vid=4f9d4424-480d-4104-9e59-9da124647ecc","ios":"levelo://app?vid=4f9d4424-480d-4104-9e59-9da124647ecc"},"vehicle_type_id":"4","last_reported":1734351615,"current_range_meters":11600,"station_id":"ce4bhi12rcd13ifvqfq0","pricing_plan_id":"cebpf4jnsgd1na2vs0mg"},{"bike_id":"51f18c3c-e16e-4504-9a2f-1a4de0f77317","system_id":"levelo_inurba_marseille","lat":43.29252,"lon":5.40898,"is_reserved":false,"is_disabled":false,"rental_uris":{"android":"levelo://app?vid=51f18c3c-e16e-4504-9a2f-1a4de0f77317","ios":"levelo://app?vid=51f18c3c-e16e-4504-9a2f-1a4de0f77317"},"vehicle_type_id":"4","last_reported":1734351615,"current_range_meters":17600,"station_id":"ce4bh192rcd13ifvqdc0","pricing_plan_id":"cebpf4jnsgd1na2vs0mg"},{"bike_id":"6dc4c5ae-fd9e-43a0-b25f-5e07e380f762","system_id":"levelo_inurba_marseille","lat":43.32166,"lon":5.37474,"is_reserved":false,"is_disabled":false,"rental_uris":{"android":"levelo://app?vid=6dc4c5ae-fd9e-43a0-b25f-5e07e380f762","ios":"levelo://app?vid=6dc4c5ae-fd9e-43a0-b25f-5e07e380f762"},"vehicle_type_id":"4","last_reported":1734351615,"current_range_meters":28000,"station_id":"","pricing_plan_id":"cebpf4jnsgd1na2vs0mg"},{"bike_id":"cbea9c19-6dec-4267-92f2-d35631ac12f3","system_id":"levelo_inurba_marseille","lat":43.27999,"lon":5.40027,"is_reserved":false,"is_disabled":false,"rental_uris":{"android":"levelo://app?vid=cbea9c19-6dec-4267-92f2-d35631ac12f3","ios":"levelo://app?vid=cbea9c19-6dec-4267-92f2-d35631ac12f3"},"vehicle_type_id":"4","last_reported":1734351615,"current_range_meters":38800,"station_id":"ce4bho92rcd13ifvqh4g","pricing_plan_id":"cebpf4jnsgd1na2vs0mg"},{"bike_id":"76805181-b86b-42c5-9eb1-0613fe81a89e","system_id":"levelo_inurba_marseille","lat":43.23194,"lon":5.35569,"is_reserved":false,"is_disabled":false,"rental_uris":{"android":"levelo://app?vid=76805181-b86b-42c5-9eb1-0613fe81a89e","ios":"levelo://app?vid=76805181-b86b-42c5-9eb1-0613fe81a89e"},"vehicle_type_id":"4","last_reported":1734351615,"current_range_meters":36400,"station_id":"ce4bhu92rcd13ifvqi70","pricing_plan_id":"cebpf4jnsgd1na2vs0mg"},{"bike_id":"0173de07-b9ca-4d90-8466-c9e9062f1a7d","system_id":"levelo_inurba_marseille","lat":43.29738,"lon":5.37664,"is_reserved":false,"is_disabled":false,"rental_uris":{"android":"levelo://app?vid=0173de07-b9ca-4d90-8466-c9e9062f1a7d","ios":"levelo://app?vid=0173de07-b9ca-4d90-8466-c9e9062f1a7d"},"vehicle_type_id":"4","last_reported":1734351615,"current_range_meters":29600,"station_id":"ce4bgkh2rcd13ifvqbl0","pricing_plan_id":"cebpf4jnsgd1na2vs0mg"},{"bike_id":"bcc96531-7874-4095-b23e-ff2cdf3ede6c","system_id":"levelo_inurba_marseille","lat":43.29628,"lon":5.40591,"is_reserved":false,"is_disabled":false,"rental_uris":{"android":"levelo://app?vid=bcc96531-7874-4095-b23e-ff2cdf3ede6c","ios":"levelo://app?vid=bcc96531-7874-4095-b23e-ff2cdf3ede6c"},"vehicle_type_id":"4","last_reported":1734351615,"current_range_meters":35600,"station_id":"ce4bh0h2rcd13ifvqd60","pricing_plan_id":"cebpf4jnsgd1na2vs0mg"},{"bike_id":"edfefc06-6112-47c9-ba38-9b25d3e5b44d","system_id":"levelo_inurba_marseille","lat":43.29889,"lon":5.38894,"is_reserved":false,"is_disabled":false,"rental_uris":{"android":"levelo://app?vid=edfefc06-6112-47c9-ba38-9b25d3e5b44d","ios":"levelo://app?vid=edfefc06-6112-47c9-ba38-9b25d3e5b44d"},"vehicle_type_id":"4","last_reported":1734351615,"current_range_meters":21600,"station_id":"ce4bh392rcd13ifvqdl0","pricing_plan_id":"cebpf4jnsgd1na2vs0mg"},{"bike_id":"39fa29ca-3e8c-4c31-96d8-5ccdb85f71b2","system_id":"levelo_inurba_marseille","lat":43.26793,"lon":5.39429,"is_reserved":false,"is_disabled":false,"rental_uris":{"android":"levelo://app?vid=39fa29ca-3e8c-4c31-96d8-5ccdb85f71b2","ios":"levelo://app?vid=39fa29ca-3e8c-4c31-96d8-5ccdb85f71b2"},"vehicle_type_id":"4","last_reported":1734351615,"current_range_meters":35600,"station_id":"ce4bhh12rcd13ifvqfg0","pricing_plan_id":"cebpf4jnsgd1na2vs0mg"},{"bike_id":"1cd4e6bc-7f43-4b73-95e9-e9afce181fc6","system_id":"levelo_inurba_marseille","lat":43.30434,"lon":5.41418,"is_reserved":false,"is_disabled":false,"rental_uris":{"android":"levelo://app?vid=1cd4e6bc-7f43-4b73-95e9-e9afce181fc6","ios":"levelo://app?vid=1cd4e6bc-7f43-4b73-95e9-e9afce181fc6"},"vehicle_type_id":"4","last_reported":1734351615,"current_range_meters":36000,"station_id":"ce4bhop2rcd13ifvqh7g","pricing_plan_id":"cebpf4jnsgd1na2vs0mg"},{"bike_id":"25dcbd86-9328-4fc2-9ec4-ed691c623b1b","system_id":"levelo_inurba_marseille","lat":43.30539,"lon":5.36546,"is_reserved":false,"is_disabled":false,"rental_uris":{"android":"levelo://app?vid=25dcbd86-9328-4fc2-9ec4-ed691c623b1b","ios":"levelo://app?vid=25dcbd86-9328-4fc2-9ec4-ed691c623b1b"},"vehicle_type_id":"4","last_reported":1734351615,"current_range_meters":22800,"station_id":"ce4bgs12rcd13ifvqcag","pricing_plan_id":"cebpf4jnsgd1na2vs0mg"},{"bike_id":"02b92c31-0e08-4914-a6d9-ac380cc9c6e4","system_id":"levelo_inurba_marseille","lat":43.28422,"lon":5.3923,"is_reserved":false,"is_disabled":false,"rental_uris":{"android":"levelo://app?vid=02b92c31-0e08-4914-a6d9-ac380cc9c6e4","ios":"levelo://app?vid=02b92c31-0e08-4914-a6d9-ac380cc9c6e4"},"vehicle_type_id":"4","last_reported":1734351615,"current_range_meters":35600,"station_id":"ce4bhoh2rcd13ifvqh5g","pricing_plan_id":"cebpf4jnsgd1na2vs0mg"},{"bike_id":"9322b5b3-d00a-47e0-ad02-605fd232e778","system_id":"levelo_inurba_marseille","lat":43.25105,"lon":5.40323,"is_reserved":false,"is_disabled":false,"rental_uris":{"android":"levelo://app?vid=9322b5b3-d00a-47e0-ad02-605fd232e778","ios":"levelo://app?vid=9322b5b3-d00a-47e0-ad02-605fd232e778"},"vehicle_type_id":"4","last_reported":1734351615,"current_range_meters":22800,"station_id":"ce4bhlh2rcd13ifvqgig","pricing_plan_id":"cebpf4jnsgd1na2vs0mg"},{"bike_id":"abfe5477-54e0-4c68-9f86-fdbaa8d0bb88","system_id":"levelo_inurba_marseille","lat":43.26208,"lon":5.37437,"is_reserved":false,"is_disabled":false,"rental_uris":{"android":"levelo://app?vid=abfe5477-54e0-4c68-9f86-fdbaa8d0bb88","ios":"levelo://app?vid=abfe5477-54e0-4c68-9f86-fdbaa8d0bb88"},"vehicle_type_id":"4","last_reported":1734351615,"current_range_meters":37600,"station_id":"ce4bhgp2rcd13ifvqfc0","pricing_plan_id":"cebpf4jnsgd1na2vs0mg"},{"bike_id":"3541095f-5006-48c0-851c-9ab7d8f6b0e2","system_id":"levelo_inurba_marseille","lat":43.31754,"lon":5.39019,"is_reserved":false,"is_disabled":false,"rental_uris":{"android":"levelo://app?vid=3541095f-5006-48c0-851c-9ab7d8f6b0e2","ios":"levelo://app?vid=3541095f-5006-48c0-851c-9ab7d8f6b0e2"},"vehicle_type_id":"4","last_reported":1734351615,"current_range_meters":36000,"station_id":"ce4bhqp2rcd13ifvqhng","pricing_plan_id":"cebpf4jnsgd1na2vs0mg"},{"bike_id":"75245538-587b-460b-b26e-b829c3a321a5","system_id":"levelo_inurba_marseille","lat":43.24066,"lon":5.37771,"is_reserved":false,"is_disabled":false,"rental_uris":{"android":"levelo://app?vid=75245538-587b-460b-b26e-b829c3a321a5","ios":"levelo://app?vid=75245538-587b-460b-b26e-b829c3a321a5"},"vehicle_type_id":"4","last_reported":1734351615,"current_range_meters":8400,"station_id":"ce4bhnp2rcd13ifvqgvg","pricing_plan_id":"cebpf4jnsgd1na2vs0mg"},{"bike_id":"2152ef1b-ce84-4f89-8d15-171770ad2f28","system_id":"levelo_inurba_marseille","lat":43.2902,"lon":5.38112,"is_reserved":false,"is_disabled":false,"rental_uris":{"android":"levelo://app?vid=2152ef1b-ce84-4f89-8d15-171770ad2f28","ios":"levelo://app?vid=2152ef1b-ce84-4f89-8d15-171770ad2f28"},"vehicle_type_id":"4","last_reported":1734351615,"current_range_meters":35600,"station_id":"ce4bh4p2rcd13ifvqe1g","pricing_plan_id":"cebpf4jnsgd1na2vs0mg"},{"bike_id":"aff558f1-7c58-4bff-9611-6fdff5356410","system_id":"levelo_inurba_marseille","lat":43.33754,"lon":5.37471,"is_reserved":false,"is_disabled":true,"rental_uris":{"android":"levelo://app?vid=aff558f1-7c58-4bff-9611-6fdff5356410","ios":"levelo://app?vid=aff558f1-7c58-4bff-9611-6fdff5356410"},"vehicle_type_id":"4","last_reported":1734351615,"current_range_meters":36400,"station_id":"","pricing_plan_id":"cebpf4jnsgd1na2vs0mg"},{"bike_id":"283ec910-2b59-4ffd-bbff-9867d116f826","system_id":"levelo_inurba_marseille","lat":43.337444,"lon":5.374475,"is_reserved":false,"is_disabled":true,"rental_uris":{"android":"levelo://app?vid=283ec910-2b59-4ffd-bbff-9867d116f826","ios":"levelo://app?vid=283ec910-2b59-4ffd-bbff-9867d116f826"},"vehicle_type_id":"4","last_reported":1734351615,"current_range_meters":0,"station_id":"","pricing_plan_id":"cebpf4jnsgd1na2vs0mg"},{"bike_id":"8f9bdbed-8ce2-4611-86d7-e3dfd467494d","system_id":"levelo_inurba_marseille","lat":43.29752,"lon":5.37702,"is_reserved":false,"is_disabled":false,"rental_uris":{"android":"levelo://app?vid=8f9bdbed-8ce2-4611-86d7-e3dfd467494d","ios":"levelo://app?vid=8f9bdbed-8ce2-4611-86d7-e3dfd467494d"},"vehicle_type_id":"4","last_reported":1734351615,"current_range_meters":22800,"station_id":"","pricing_plan_id":"cebpf4jnsgd1na2vs0mg"},{"bike_id":"e8bdade4-5818-4929-87ea-b87fdc36c031","system_id":"levelo_inurba_marseille","lat":43.27447,"lon":5.39415,"is_reserved":false,"is_disabled":false,"rental_uris":{"android":"levelo://app?vid=e8bdade4-5818-4929-87ea-b87fdc36c031","ios":"levelo://app?vid=e8bdade4-5818-4929-87ea-b87fdc36c031"},"vehicle_type_id":"4","last_reported":1734351615,"current_range_meters":23200,"station_id":"ce4bhdp2rcd13ifvqf20","pricing_plan_id":"cebpf4jnsgd1na2vs0mg"},{"bike_id":"ad857147-75ea-4fa8-8a24-2a5b1b443a29","system_id":"levelo_inurba_marseille","lat":43.291967,"lon":5.393259,"is_reserved":false,"is_disabled":true,"rental_uris":{"android":"levelo://app?vid=ad857147-75ea-4fa8-8a24-2a5b1b443a29","ios":"levelo://app?vid=ad857147-75ea-4fa8-8a24-2a5b1b443a29"},"vehicle_type_id":"4","last_reported":1734351615,"current_range_meters":12400,"station_id":"ce4bh192rcd13ifvqdd0","pricing_plan_id":"cebpf4jnsgd1na2vs0mg"},{"bike_id":"bbffd889-750b-4762-ae94-78458d50ea91","system_id":"levelo_inurba_marseille","lat":43.33717,"lon":5.39187,"is_reserved":false,"is_disabled":false,"rental_uris":{"android":"levelo://app?vid=bbffd889-750b-4762-ae94-78458d50ea91","ios":"levelo://app?vid=bbffd889-750b-4762-ae94-78458d50ea91"},"vehicle_type_id":"4","last_reported":1734351615,"current_range_meters":38800,"station_id":"ce4bhr92rcd13ifvqhsg","pricing_plan_id":"cebpf4jnsgd1na2vs0mg"},{"bike_id":"c51beac4-adb3-42ef-9106-c0040e40a7d2","system_id":"levelo_inurba_marseille","lat":43.30551,"lon":5.3671,"is_reserved":false,"is_disabled":false,"rental_uris":{"android":"levelo://app?vid=c51beac4-adb3-42ef-9106-c0040e40a7d2","ios":"levelo://app?vid=c51beac4-adb3-42ef-9106-c0040e40a7d2"},"vehicle_type_id":"4","last_reported":1734351615,"current_range_meters":18000,"station_id":"ce4bgrp2rcd13ifvqc9g","pricing_plan_id":"cebpf4jnsgd1na2vs0mg"},{"bike_id":"d27448c5-97c5-43db-b4ca-6e9efcde6100","system_id":"levelo_inurba_marseille","lat":43.24648,"lon":5.38907,"is_reserved":false,"is_disabled":false,"rental_uris":{"android":"levelo://app?vid=d27448c5-97c5-43db-b4ca-6e9efcde6100","ios":"levelo://app?vid=d27448c5-97c5-43db-b4ca-6e9efcde6100"},"vehicle_type_id":"4","last_reported":1734351615,"current_range_meters":22000,"station_id":"ce4bhg12rcd13ifvqf60","pricing_plan_id":"cebpf4jnsgd1na2vs0mg"},{"bike_id":"44d4e17a-b666-46b4-a605-b9806c360661","system_id":"levelo_inurba_marseille","lat":43.26951,"lon":5.38631,"is_reserved":false,"is_disabled":false,"rental_uris":{"android":"levelo://app?vid=44d4e17a-b666-46b4-a605-b9806c360661","ios":"levelo://app?vid=44d4e17a-b666-46b4-a605-b9806c360661"},"vehicle_type_id":"4","last_reported":1734351615,"current_range_meters":17600,"station_id":"ce4bhh92rcd13ifvqfh0","pricing_plan_id":"cebpf4jnsgd1na2vs0mg"},{"bike_id":"aa21e77a-662e-45cc-88fe-b9ed9859ba6e","system_id":"levelo_inurba_marseille","lat":43.28358,"lon":5.38655,"is_reserved":false,"is_disabled":true,"rental_uris":{"android":"levelo://app?vid=aa21e77a-662e-45cc-88fe-b9ed9859ba6e","ios":"levelo://app?vid=aa21e77a-662e-45cc-88fe-b9ed9859ba6e"},"vehicle_type_id":"4","last_reported":1734351615,"current_range_meters":36800,"station_id":"ce4bh492rcd13ifvqdvg","pricing_plan_id":"cebpf4jnsgd1na2vs0mg"},{"bike_id":"285c6471-6f32-4595-88da-356f689cb7ed","system_id":"levelo_inurba_marseille","lat":43.29027,"lon":5.3864,"is_reserved":false,"is_disabled":true,"rental_uris":{"android":"levelo://app?vid=285c6471-6f32-4595-88da-356f689cb7ed","ios":"levelo://app?vid=285c6471-6f32-4595-88da-356f689cb7ed"},"vehicle_type_id":"4","last_reported":1734351615,"current_range_meters":38800,"station_id":"ce4bh4p2rcd13ifvqe0g","pricing_plan_id":"cebpf4jnsgd1na2vs0mg"},{"bike_id":"ec166c4d-2d91-4049-8ddf-93d8bdd9e169","system_id":"levelo_inurba_marseille","lat":43.26943,"lon":5.3864,"is_reserved":false,"is_disabled":true,"rental_uris":{"android":"levelo://app?vid=ec166c4d-2d91-4049-8ddf-93d8bdd9e169","ios":"levelo://app?vid=ec166c4d-2d91-4049-8ddf-93d8bdd9e169"},"vehicle_type_id":"4","last_reported":1734351615,"current_range_meters":0,"station_id":"ce4bhh92rcd13ifvqfh0","pricing_plan_id":"cebpf4jnsgd1na2vs0mg"},{"bike_id":"a3bb11a1-d7e0-4d14-8ad3-98e5c9d44230","system_id":"levelo_inurba_marseille","lat":43.27205,"lon":5.39184,"is_reserved":false,"is_disabled":false,"rental_uris":{"android":"levelo://app?vid=a3bb11a1-d7e0-4d14-8ad3-98e5c9d44230","ios":"levelo://app?vid=a3bb11a1-d7e0-4d14-8ad3-98e5c9d44230"},"vehicle_type_id":"4","last_reported":1734351615,"current_range_meters":14800,"station_id":"ce4bhhp2rcd13ifvqfm0","pricing_plan_id":"cebpf4jnsgd1na2vs0mg"},{"bike_id":"b57047a8-96fe-45d3-99df-742aef751fb8","system_id":"levelo_inurba_marseille","lat":43.27446,"lon":5.39414,"is_reserved":false,"is_disabled":false,"rental_uris":{"android":"levelo://app?vid=b57047a8-96fe-45d3-99df-742aef751fb8","ios":"levelo://app?vid=b57047a8-96fe-45d3-99df-742aef751fb8"},"vehicle_type_id":"4","last_reported":1734351615,"current_range_meters":37600,"station_id":"ce4bhdp2rcd13ifvqf20","pricing_plan_id":"cebpf4jnsgd1na2vs0mg"},{"bike_id":"64d599a0-e542-4563-ae87-4a9ff44fcddd","system_id":"levelo_inurba_marseille","lat":43.24655,"lon":5.3895,"is_reserved":false,"is_disabled":false,"rental_uris":{"android":"levelo://app?vid=64d599a0-e542-4563-ae87-4a9ff44fcddd","ios":"levelo://app?vid=64d599a0-e542-4563-ae87-4a9ff44fcddd"},"vehicle_type_id":"4","last_reported":1734351615,"current_range_meters":19600,"station_id":"ce4bhg12rcd13ifvqf60","pricing_plan_id":"cebpf4jnsgd1na2vs0mg"},{"bike_id":"9d7d7a71-2b6e-4820-a767-f36d03238556","system_id":"levelo_inurba_marseille","lat":43.33608,"lon":5.41024,"is_reserved":false,"is_disabled":false,"rental_uris":{"android":"levelo://app?vid=9d7d7a71-2b6e-4820-a767-f36d03238556","ios":"levelo://app?vid=9d7d7a71-2b6e-4820-a767-f36d03238556"},"vehicle_type_id":"4","last_reported":1734351615,"current_range_meters":38800,"station_id":"ce4bhqh2rcd13ifvqhmg","pricing_plan_id":"cebpf4jnsgd1na2vs0mg"},{"bike_id":"c930ddbe-5d83-40f5-9cce-5ddffec9e772","system_id":"levelo_inurba_marseille","lat":43.23152,"lon":5.43702,"is_reserved":false,"is_disabled":true,"rental_uris":{"android":"levelo://app?vid=c930ddbe-5d83-40f5-9cce-5ddffec9e772","ios":"levelo://app?vid=c930ddbe-5d83-40f5-9cce-5ddffec9e772"},"vehicle_type_id":"4","last_reported":1734351615,"current_range_meters":0,"station_id":"ce4bhmp2rcd13ifvqgog","pricing_plan_id":"cebpf4jnsgd1na2vs0mg"},{"bike_id":"5087b8f4-94e9-4b5d-a4dc-4b3c2e7214cf","system_id":"levelo_inurba_marseille","lat":43.257202,"lon":5.411166,"is_reserved":false,"is_disabled":false,"rental_uris":{"android":"levelo://app?vid=5087b8f4-94e9-4b5d-a4dc-4b3c2e7214cf","ios":"levelo://app?vid=5087b8f4-94e9-4b5d-a4dc-4b3c2e7214cf"},"vehicle_type_id":"4","last_reported":1734351615,"current_range_meters":28000,"station_id":"ce4bhkp2rcd13ifvqgd0","pricing_plan_id":"cebpf4jnsgd1na2vs0mg"},{"bike_id":"74e80a21-c471-4a17-bf5c-e35576de7d34","system_id":"levelo_inurba_marseille","lat":43.23973,"lon":5.36658,"is_reserved":false,"is_disabled":false,"rental_uris":{"android":"levelo://app?vid=74e80a21-c471-4a17-bf5c-e35576de7d34","ios":"levelo://app?vid=74e80a21-c471-4a17-bf5c-e35576de7d34"},"vehicle_type_id":"4","last_reported":1734351615,"current_range_meters":39200,"station_id":"ce4bhi12rcd13ifvqfp0","pricing_plan_id":"cebpf4jnsgd1na2vs0mg"},{"bike_id":"b103cdff-3824-4aad-bc10-26ceb128587a","system_id":"levelo_inurba_marseille","lat":43.32467,"lon":5.3657,"is_reserved":false,"is_disabled":false,"rental_uris":{"android":"levelo://app?vid=b103cdff-3824-4aad-bc10-26ceb128587a","ios":"levelo://app?vid=b103cdff-3824-4aad-bc10-26ceb128587a"},"vehicle_type_id":"4","last_reported":1734351615,"current_range_meters":30400,"station_id":"ce4bhs12rcd13ifvqhvg","pricing_plan_id":"cebpf4jnsgd1na2vs0mg"},{"bike_id":"bbd2f076-3e90-4784-a562-ccb78c4e5442","system_id":"levelo_inurba_marseille","lat":43.31139,"lon":5.38765,"is_reserved":false,"is_disabled":false,"rental_uris":{"android":"levelo://app?vid=bbd2f076-3e90-4784-a562-ccb78c4e5442","ios":"levelo://app?vid=bbd2f076-3e90-4784-a562-ccb78c4e5442"},"vehicle_type_id":"4","last_reported":1734351615,"current_range_meters":27200,"station_id":"ce4bgv12rcd13ifvqcp0","pricing_plan_id":"cebpf4jnsgd1na2vs0mg"},{"bike_id":"aa07b8da-1e61-4a97-957f-50a051beda47","system_id":"levelo_inurba_marseille","lat":43.29294,"lon":5.37449,"is_reserved":false,"is_disabled":false,"rental_uris":{"android":"levelo://app?vid=aa07b8da-1e61-4a97-957f-50a051beda47","ios":"levelo://app?vid=aa07b8da-1e61-4a97-957f-50a051beda47"},"vehicle_type_id":"4","last_reported":1734351615,"current_range_meters":35200,"station_id":"ce4bgi12rcd13ifvqb70","pricing_plan_id":"cebpf4jnsgd1na2vs0mg"},{"bike_id":"38dbcc3c-bbfc-4d42-9d85-e6a8227728c5","system_id":"levelo_inurba_marseille","lat":43.30422,"lon":5.3976,"is_reserved":false,"is_disabled":false,"rental_uris":{"android":"levelo://app?vid=38dbcc3c-bbfc-4d42-9d85-e6a8227728c5","ios":"levelo://app?vid=38dbcc3c-bbfc-4d42-9d85-e6a8227728c5"},"vehicle_type_id":"4","last_reported":1734351615,"current_range_meters":24800,"station_id":"ce4bh092rcd13ifvqd20","pricing_plan_id":"cebpf4jnsgd1na2vs0mg"},{"bike_id":"85badd7d-0c70-4033-a7d7-e06bf65183ae","system_id":"levelo_inurba_marseille","lat":43.27972,"lon":5.38734,"is_reserved":false,"is_disabled":false,"rental_uris":{"android":"levelo://app?vid=85badd7d-0c70-4033-a7d7-e06bf65183ae","ios":"levelo://app?vid=85badd7d-0c70-4033-a7d7-e06bf65183ae"},"vehicle_type_id":"4","last_reported":1734351615,"current_range_meters":38800,"station_id":"ce4bhg12rcd13ifvqf80","pricing_plan_id":"cebpf4jnsgd1na2vs0mg"},{"bike_id":"6ed3ec67-5344-4d30-9291-d6deb17d1f62","system_id":"levelo_inurba_marseille","lat":43.29846,"lon":5.36287,"is_reserved":false,"is_disabled":false,"rental_uris":{"android":"levelo://app?vid=6ed3ec67-5344-4d30-9291-d6deb17d1f62","ios":"levelo://app?vid=6ed3ec67-5344-4d30-9291-d6deb17d1f62"},"vehicle_type_id":"4","last_reported":1734351615,"current_range_meters":16400,"station_id":"ce4bgpp2rcd13ifvqc3g","pricing_plan_id":"cebpf4jnsgd1na2vs0mg"},{"bike_id":"bb3b068a-3841-45aa-a3ff-96022166fe96","system_id":"levelo_inurba_marseille","lat":43.28098,"lon":5.37712,"is_reserved":false,"is_disabled":false,"rental_uris":{"android":"levelo://app?vid=bb3b068a-3841-45aa-a3ff-96022166fe96","ios":"levelo://app?vid=bb3b068a-3841-45aa-a3ff-96022166fe96"},"vehicle_type_id":"4","last_reported":1734351615,"current_range_meters":27600,"station_id":"","pricing_plan_id":"cebpf4jnsgd1na2vs0mg"},{"bike_id":"2c48c648-78ce-431b-a2f6-8012cbcccfeb","system_id":"levelo_inurba_marseille","lat":43.2319,"lon":5.35559,"is_reserved":false,"is_disabled":false,"rental_uris":{"android":"levelo://app?vid=2c48c648-78ce-431b-a2f6-8012cbcccfeb","ios":"levelo://app?vid=2c48c648-78ce-431b-a2f6-8012cbcccfeb"},"vehicle_type_id":"4","last_reported":1734351615,"current_range_meters":12800,"station_id":"ce4bhu92rcd13ifvqi70","pricing_plan_id":"cebpf4jnsgd1na2vs0mg"},{"bike_id":"592da828-ae37-41b0-a526-373233c0f1a3","system_id":"levelo_inurba_marseille","lat":43.29093,"lon":5.3812,"is_reserved":false,"is_disabled":false,"rental_uris":{"android":"levelo://app?vid=592da828-ae37-41b0-a526-373233c0f1a3","ios":"levelo://app?vid=592da828-ae37-41b0-a526-373233c0f1a3"},"vehicle_type_id":"4","last_reported":1734351615,"current_range_meters":38000,"station_id":"ce4bh512rcd13ifvqe2g","pricing_plan_id":"cebpf4jnsgd1na2vs0mg"},{"bike_id":"c1a77fb8-ea7b-4101-95bc-9a44da991560","system_id":"levelo_inurba_marseille","lat":43.29374,"lon":5.37832,"is_reserved":false,"is_disabled":false,"rental_uris":{"android":"levelo://app?vid=c1a77fb8-ea7b-4101-95bc-9a44da991560","ios":"levelo://app?vid=c1a77fb8-ea7b-4101-95bc-9a44da991560"},"vehicle_type_id":"4","last_reported":1734351615,"current_range_meters":36400,"station_id":"ce4bgjh2rcd13ifvqbf0","pricing_plan_id":"cebpf4jnsgd1na2vs0mg"},{"bike_id":"d2a40087-36f0-4920-b4f5-999bab8e305f","system_id":"levelo_inurba_marseille","lat":43.30586,"lon":5.3723,"is_reserved":false,"is_disabled":false,"rental_uris":{"android":"levelo://app?vid=d2a40087-36f0-4920-b4f5-999bab8e305f","ios":"levelo://app?vid=d2a40087-36f0-4920-b4f5-999bab8e305f"},"vehicle_type_id":"4","last_reported":1734351615,"current_range_meters":9600,"station_id":"ce4bgqh2rcd13ifvqc4g","pricing_plan_id":"cebpf4jnsgd1na2vs0mg"},{"bike_id":"9bb24620-4070-463e-ada2-af80bf519bf1","system_id":"levelo_inurba_marseille","lat":43.28463,"lon":5.38406,"is_reserved":false,"is_disabled":true,"rental_uris":{"android":"levelo://app?vid=9bb24620-4070-463e-ada2-af80bf519bf1","ios":"levelo://app?vid=9bb24620-4070-463e-ada2-af80bf519bf1"},"vehicle_type_id":"4","last_reported":1734351615,"current_range_meters":1200,"station_id":"ce4bh512rcd13ifvqe3g","pricing_plan_id":"cebpf4jnsgd1na2vs0mg"},{"bike_id":"253743f7-9aa5-4b03-8f64-a36cd1608afe","system_id":"levelo_inurba_marseille","lat":43.25931,"lon":5.409,"is_reserved":false,"is_disabled":false,"rental_uris":{"android":"levelo://app?vid=253743f7-9aa5-4b03-8f64-a36cd1608afe","ios":"levelo://app?vid=253743f7-9aa5-4b03-8f64-a36cd1608afe"},"vehicle_type_id":"4","last_reported":1734351615,"current_range_meters":28000,"station_id":"ce4bhm92rcd13ifvqglg","pricing_plan_id":"cebpf4jnsgd1na2vs0mg"},{"bike_id":"d02e6728-48d3-404a-bcea-57c729fac63a","system_id":"levelo_inurba_marseille","lat":43.29583,"lon":5.37509,"is_reserved":false,"is_disabled":false,"rental_uris":{"android":"levelo://app?vid=d02e6728-48d3-404a-bcea-57c729fac63a","ios":"levelo://app?vid=d02e6728-48d3-404a-bcea-57c729fac63a"},"vehicle_type_id":"4","last_reported":1734351615,"current_range_meters":22000,"station_id":"ce4bgh92rcd13ifvqb50","pricing_plan_id":"cebpf4jnsgd1na2vs0mg"},{"bike_id":"d406edf5-da5a-4642-a999-50348a2f6381","system_id":"levelo_inurba_marseille","lat":43.30125,"lon":5.39872,"is_reserved":false,"is_disabled":true,"rental_uris":{"android":"levelo://app?vid=d406edf5-da5a-4642-a999-50348a2f6381","ios":"levelo://app?vid=d406edf5-da5a-4642-a999-50348a2f6381"},"vehicle_type_id":"4","last_reported":1734351615,"current_range_meters":0,"station_id":"ce4bh0h2rcd13ifvqd40","pricing_plan_id":"cebpf4jnsgd1na2vs0mg"},{"bike_id":"0b2e241d-9ea2-48e9-bbd9-f84b5c193ddb","system_id":"levelo_inurba_marseille","lat":43.25711,"lon":5.41113,"is_reserved":false,"is_disabled":false,"rental_uris":{"android":"levelo://app?vid=0b2e241d-9ea2-48e9-bbd9-f84b5c193ddb","ios":"levelo://app?vid=0b2e241d-9ea2-48e9-bbd9-f84b5c193ddb"},"vehicle_type_id":"4","last_reported":1734351615,"current_range_meters":38800,"station_id":"ce4bhkp2rcd13ifvqgd0","pricing_plan_id":"cebpf4jnsgd1na2vs0mg"},{"bike_id":"5f46da04-9649-4316-b360-bf41e22218f3","system_id":"levelo_inurba_marseille","lat":43.27209,"lon":5.39187,"is_reserved":false,"is_disabled":false,"rental_uris":{"android":"levelo://app?vid=5f46da04-9649-4316-b360-bf41e22218f3","ios":"levelo://app?vid=5f46da04-9649-4316-b360-bf41e22218f3"},"vehicle_type_id":"4","last_reported":1734351615,"current_range_meters":7200,"station_id":"ce4bhhp2rcd13ifvqfm0","pricing_plan_id":"cebpf4jnsgd1na2vs0mg"},{"bike_id":"856dc84e-1319-42ad-8d1b-7ceb2a02f909","system_id":"levelo_inurba_marseille","lat":43.30946,"lon":5.40138,"is_reserved":false,"is_disabled":false,"rental_uris":{"android":"levelo://app?vid=856dc84e-1319-42ad-8d1b-7ceb2a02f909","ios":"levelo://app?vid=856dc84e-1319-42ad-8d1b-7ceb2a02f909"},"vehicle_type_id":"4","last_reported":1734351615,"current_range_meters":16800,"station_id":"ce4bgvp2rcd13ifvqct0","pricing_plan_id":"cebpf4jnsgd1na2vs0mg"},{"bike_id":"bafc8318-6a93-4faa-9345-7e81e9837695","system_id":"levelo_inurba_marseille","lat":43.26951,"lon":5.38648,"is_reserved":false,"is_disabled":false,"rental_uris":{"android":"levelo://app?vid=bafc8318-6a93-4faa-9345-7e81e9837695","ios":"levelo://app?vid=bafc8318-6a93-4faa-9345-7e81e9837695"},"vehicle_type_id":"4","last_reported":1734351615,"current_range_meters":30400,"station_id":"ce4bhh92rcd13ifvqfh0","pricing_plan_id":"cebpf4jnsgd1na2vs0mg"},{"bike_id":"ca3bf6a0-806c-4046-b219-bbea4c2ba646","system_id":"levelo_inurba_marseille","lat":43.23192,"lon":5.35543,"is_reserved":false,"is_disabled":false,"rental_uris":{"android":"levelo://app?vid=ca3bf6a0-806c-4046-b219-bbea4c2ba646","ios":"levelo://app?vid=ca3bf6a0-806c-4046-b219-bbea4c2ba646"},"vehicle_type_id":"4","last_reported":1734351615,"current_range_meters":38800,"station_id":"ce4bhu92rcd13ifvqi70","pricing_plan_id":"cebpf4jnsgd1na2vs0mg"},{"bike_id":"278f4c49-c905-4930-9b24-ab13e8b2e8a5","system_id":"levelo_inurba_marseille","lat":43.29996,"lon":5.38487,"is_reserved":false,"is_disabled":false,"rental_uris":{"android":"levelo://app?vid=278f4c49-c905-4930-9b24-ab13e8b2e8a5","ios":"levelo://app?vid=278f4c49-c905-4930-9b24-ab13e8b2e8a5"},"vehicle_type_id":"4","last_reported":1734351615,"current_range_meters":26800,"station_id":"ce4bgj92rcd13ifvqbd0","pricing_plan_id":"cebpf4jnsgd1na2vs0mg"},{"bike_id":"46b2fdec-0870-4ae2-84dc-b1f57512351e","system_id":"levelo_inurba_marseille","lat":43.337444,"lon":5.374475,"is_reserved":false,"is_disabled":true,"rental_uris":{"android":"levelo://app?vid=46b2fdec-0870-4ae2-84dc-b1f57512351e","ios":"levelo://app?vid=46b2fdec-0870-4ae2-84dc-b1f57512351e"},"vehicle_type_id":"4","last_reported":1734351615,"current_range_meters":0,"station_id":"","pricing_plan_id":"cebpf4jnsgd1na2vs0mg"},{"bike_id":"aa2e760a-eef2-4f58-8e26-2ebf842b9bd1","system_id":"levelo_inurba_marseille","lat":43.32479,"lon":5.36582,"is_reserved":false,"is_disabled":false,"rental_uris":{"android":"levelo://app?vid=aa2e760a-eef2-4f58-8e26-2ebf842b9bd1","ios":"levelo://app?vid=aa2e760a-eef2-4f58-8e26-2ebf842b9bd1"},"vehicle_type_id":"4","last_reported":1734351615,"current_range_meters":39200,"station_id":"ce4bhs12rcd13ifvqhvg","pricing_plan_id":"cebpf4jnsgd1na2vs0mg"},{"bike_id":"362f7895-0f1e-4ccb-be4b-88bb4247b2e4","system_id":"levelo_inurba_marseille","lat":43.25927,"lon":5.40898,"is_reserved":false,"is_disabled":false,"rental_uris":{"android":"levelo://app?vid=362f7895-0f1e-4ccb-be4b-88bb4247b2e4","ios":"levelo://app?vid=362f7895-0f1e-4ccb-be4b-88bb4247b2e4"},"vehicle_type_id":"4","last_reported":1734351615,"current_range_meters":6400,"station_id":"ce4bhm92rcd13ifvqglg","pricing_plan_id":"cebpf4jnsgd1na2vs0mg"},{"bike_id":"a46adc99-7b56-43ee-bfd3-f6af017c85a1","system_id":"levelo_inurba_marseille","lat":43.30589,"lon":5.39363,"is_reserved":false,"is_disabled":false,"rental_uris":{"android":"levelo://app?vid=a46adc99-7b56-43ee-bfd3-f6af017c85a1","ios":"levelo://app?vid=a46adc99-7b56-43ee-bfd3-f6af017c85a1"},"vehicle_type_id":"4","last_reported":1734351615,"current_range_meters":33200,"station_id":"ce4bh0p2rcd13ifvqd80","pricing_plan_id":"cebpf4jnsgd1na2vs0mg"},{"bike_id":"c153551c-6619-4282-a661-546d16b5fb83","system_id":"levelo_inurba_marseille","lat":43.30432,"lon":5.38898,"is_reserved":false,"is_disabled":false,"rental_uris":{"android":"levelo://app?vid=c153551c-6619-4282-a661-546d16b5fb83","ios":"levelo://app?vid=c153551c-6619-4282-a661-546d16b5fb83"},"vehicle_type_id":"4","last_reported":1734351615,"current_range_meters":23200,"station_id":"ce4bgk12rcd13ifvqbi0","pricing_plan_id":"cebpf4jnsgd1na2vs0mg"},{"bike_id":"43b0facc-36ad-445c-ac10-ad92ef8b2207","system_id":"levelo_inurba_marseille","lat":43.29309,"lon":5.37173,"is_reserved":false,"is_disabled":false,"rental_uris":{"android":"levelo://app?vid=43b0facc-36ad-445c-ac10-ad92ef8b2207","ios":"levelo://app?vid=43b0facc-36ad-445c-ac10-ad92ef8b2207"},"vehicle_type_id":"4","last_reported":1734351615,"current_range_meters":19600,"station_id":"ce4bgh92rcd13ifvqb40","pricing_plan_id":"cebpf4jnsgd1na2vs0mg"},{"bike_id":"d306a699-faab-4b30-a754-afde6c52d991","system_id":"levelo_inurba_marseille","lat":43.29709,"lon":5.36605,"is_reserved":false,"is_disabled":false,"rental_uris":{"android":"levelo://app?vid=d306a699-faab-4b30-a754-afde6c52d991","ios":"levelo://app?vid=d306a699-faab-4b30-a754-afde6c52d991"},"vehicle_type_id":"4","last_reported":1734351615,"current_range_meters":23200,"station_id":"ce4bgn12rcd13ifvqbt0","pricing_plan_id":"cebpf4jnsgd1na2vs0mg"},{"bike_id":"235ece60-c27d-4efd-abe3-6528d5a143f4","system_id":"levelo_inurba_marseille","lat":43.25821,"lon":5.39439,"is_reserved":false,"is_disabled":false,"rental_uris":{"android":"levelo://app?vid=235ece60-c27d-4efd-abe3-6528d5a143f4","ios":"levelo://app?vid=235ece60-c27d-4efd-abe3-6528d5a143f4"},"vehicle_type_id":"4","last_reported":1734351615,"current_range_meters":16800,"station_id":"ce4bhip2rcd13ifvqft0","pricing_plan_id":"cebpf4jnsgd1na2vs0mg"},{"bike_id":"4028235e-0d06-499c-943f-23d378ac756c","system_id":"levelo_inurba_marseille","lat":43.28479,"lon":5.38553,"is_reserved":false,"is_disabled":true,"rental_uris":{"android":"levelo://app?vid=4028235e-0d06-499c-943f-23d378ac756c","ios":"levelo://app?vid=4028235e-0d06-499c-943f-23d378ac756c"},"vehicle_type_id":"4","last_reported":1734351615,"current_range_meters":38800,"station_id":"ce4bh8p2rcd13ifvqeb0","pricing_plan_id":"cebpf4jnsgd1na2vs0mg"},{"bike_id":"6fc6aa6a-ae8b-4908-aba8-71758c156c9a","system_id":"levelo_inurba_marseille","lat":43.241624,"lon":5.363976,"is_reserved":false,"is_disabled":false,"rental_uris":{"android":"levelo://app?vid=6fc6aa6a-ae8b-4908-aba8-71758c156c9a","ios":"levelo://app?vid=6fc6aa6a-ae8b-4908-aba8-71758c156c9a"},"vehicle_type_id":"4","last_reported":1734351615,"current_range_meters":26000,"station_id":"cpo36qri1sfpv3e86is0","pricing_plan_id":"cebpf4jnsgd1na2vs0mg"},{"bike_id":"f4f076d9-e279-40d9-8258-a93aca800c40","system_id":"levelo_inurba_marseille","lat":43.28281,"lon":5.35071,"is_reserved":false,"is_disabled":true,"rental_uris":{"android":"levelo://app?vid=f4f076d9-e279-40d9-8258-a93aca800c40","ios":"levelo://app?vid=f4f076d9-e279-40d9-8258-a93aca800c40"},"vehicle_type_id":"4","last_reported":1734351615,"current_range_meters":35200,"station_id":"ce4bhbp2rcd13ifvqerg","pricing_plan_id":"cebpf4jnsgd1na2vs0mg"},{"bike_id":"f0edf557-f2fe-4bc3-aab7-057b64a92509","system_id":"levelo_inurba_marseille","lat":43.279776,"lon":5.398336,"is_reserved":false,"is_disabled":false,"rental_uris":{"android":"levelo://app?vid=f0edf557-f2fe-4bc3-aab7-057b64a92509","ios":"levelo://app?vid=f0edf557-f2fe-4bc3-aab7-057b64a92509"},"vehicle_type_id":"4","last_reported":1734351615,"current_range_meters":28000,"station_id":"ce4bho12rcd13ifvqh2g","pricing_plan_id":"cebpf4jnsgd1na2vs0mg"},{"bike_id":"e426a299-0bc1-4e46-9738-ddb65c37a261","system_id":"levelo_inurba_marseille","lat":43.25495,"lon":5.37653,"is_reserved":false,"is_disabled":false,"rental_uris":{"android":"levelo://app?vid=e426a299-0bc1-4e46-9738-ddb65c37a261","ios":"levelo://app?vid=e426a299-0bc1-4e46-9738-ddb65c37a261"},"vehicle_type_id":"4","last_reported":1734351615,"current_range_meters":24400,"station_id":"ce4bhh12rcd13ifvqff0","pricing_plan_id":"cebpf4jnsgd1na2vs0mg"},