{"last_updated":1745856711,"ttl":60,"version":"2.2","data":{"bikes":[{"bike_id":"73c3d143-5843-47ee-aef8-bcd58f697493","system_id":"levelo_inurba_marseille","lat":43.29567,"lon":5.37513,"is_reserved":false,"is_disabled":false,"rental_uris":{"android":"levelo://app?vid=73c3d143-5843-47ee-aef8-bcd58f697493","ios":"levelo://app?vid=73c3d143-5843-47ee-aef8-bcd58f697493"},"vehicle_type_id":"4","last_reported":1745856711,"current_range_meters":2800,"station_id":"ce4bgh92rcd13ifvqb50","pricing_plan_id":"cebpf4jnsgd1na2vs0mg"},{"bike_id":"df14ad16-814d-431e-8f92-9f01b96d8b8c","system_id":"levelo_inurba_marseille","lat":43.27553,"lon":5.38431,"is_reserved":false,"is_disabled":false,"rental_uris":{"android":"levelo://app?vid=df14ad16-814d-431e-8f92-9f01b96d8b8c","ios":"levelo://app?vid=df14ad16-814d-431e-8f92-9f01b96d8b8c"},"vehicle_type_id":"4","last_reported":1745856711,"current_range_meters":2000,"station_id":"ce4bhh92rcd13ifvqfi0","pricing_plan_id":"cebpf4jnsgd1na2vs0mg"},{"bike_id":"88e7d2a9-1083-4391-a64b-fd799dab9f87","system_id":"levelo_inurba_marseille","lat":43.30192,"lon":5.3661,"is_reserved":false,"is_disabled":false,"rental_uris":{"android":"levelo://app?vid=88e7d2a9-1083-4391-a64b-fd799dab9f87","ios":"levelo://app?vid=88e7d2a9-1083-4391-a64b-fd799dab9f87"},"vehicle_type_id":"4","last_reported":1745856711,"current_range_meters":2000,"station_id":"ce4bgrh2rcd13ifvqc8g","pricing_plan_id":"cebpf4jnsgd1na2vs0mg"},{"bike_id":"07f8cc29-b86f-4696-ac39-20f0f7e0a392","system_id":"levelo_inurba_marseille","lat":43.23371,"lon":5.36047,"is_reserved":false,"is_disabled":false,"rental_uris":{"android":"levelo://app?vid=07f8cc29-b86f-4696-ac39-20f0f7e0a392","ios":"levelo://app?vid=07f8cc29-b86f-4696-ac39-20f0f7e0a392"},"vehicle_type_id":"4","last_reported":1745856711,"current_range_meters":2800,"station_id":"","pricing_plan_id":"cebpf4jnsgd1na2vs0mg"},{"bike_id":"653cae26-bf35-411f-bc21-a829a45cb409","system_id":"levelo_inurba_marseille","lat":43.29979,"lon":5.38495,"is_reserved":false,"is_disabled":false,"rental_uris":{"android":"levelo://app?vid=653cae26-bf35-411f-bc21-a829a45cb409","ios":"levelo://app?vid=653cae26-bf35-411f-bc21-a829a45cb409"},"vehicle_type_id":"4","last_reported":1745856711,"current_range_meters":3200,"station_id":"ce4bgj92rcd13ifvqbd0","pricing_plan_id":"cebpf4jnsgd1na2vs0mg"},{"bike_id":"79f8a759-0ac9-4092-82fe-c0e4162eca1e","system_id":"levelo_inurba_marseille","lat":43.286104,"lon":5.351114,"is_reserved":false,"is_disabled":false,"rental_uris":{"android":"levelo://app?vid=79f8a759-0ac9-4092-82fe-c0e4162eca1e","ios":"levelo://app?vid=79f8a759-0ac9-4092-82fe-c0e4162eca1e"},"vehicle_type_id":"4","last_reported":1745856711,"current_range_meters":3200,"station_id":"ce4bhch2rcd13ifvqeug","pricing_plan_id":"cebpf4jnsgd1na2vs0mg"},{"bike_id":"5dd93be0-2e2d-4b68-b5b9-ae1660bca40d","system_id":"levelo_inurba_marseille","lat":43.25085,"lon":5.39471,"is_reserved":false,"is_disabled":false,"rental_uris":{"android":"levelo://app?vid=5dd93be0-2e2d-4b68-b5b9-ae1660bca40d","ios":"levelo://app?vid=5dd93be0-2e2d-4b68-b5b9-ae1660bca40d"},"vehicle_type_id":"4","last_reported":1745856711,"current_range_meters":3200,"station_id":"ce4bhm12rcd13ifvqgkg","pricing_plan_id":"cebpf4jnsgd1na2vs0mg"},{"bike_id":"dcbc7c19-4fb0-4613-8041-1d98e3e12801","system_id":"levelo_inurba_marseille","lat":43.26939,"lon":5.40271,"is_reserved":false,"is_disabled":false,"rental_uris":{"android":"levelo://app?vid=dcbc7c19-4fb0-4613-8041-1d98e3e12801","ios":"levelo://app?vid=dcbc7c19-4fb0-4613-8041-1d98e3e12801"},"vehicle_type_id":"4","last_reported":1745856711,"current_range_meters":3600,"station_id":"cjm6bp8fraef2m0cb0m0","pricing_plan_id":"cebpf4jnsgd1na2vs0mg"},{"bike_id":"2170e8a2-0b50-454a-a8c3-90edc68a4e7f","system_id":"levelo_inurba_marseille","lat":43.22932,"lon":5.35381,"is_reserved":false,"is_disabled":false,"rental_uris":{"android":"levelo://app?vid=2170e8a2-0b50-454a-a8c3-90edc68a4e7f","ios":"levelo://app?vid=2170e8a2-0b50-454a-a8c3-90edc68a4e7f"},"vehicle_type_id":"4","last_reported":1745856711,"current_range_meters":3600,"station_id":"cpo3532slgdg3j2ikp40","pricing_plan_id":"cebpf4jnsgd1na2vs0mg"},{"bike_id":"60d84810-0b4d-44eb-9e3c-e294201a3d44","system_id":"levelo_inurba_marseille","lat":43.29529,"lon":5.39025,"is_reserved":false,"is_disabled":false,"rental_uris":{"android":"levelo://app?vid=60d84810-0b4d-44eb-9e3c-e294201a3d44","ios":"levelo://app?vid=60d84810-0b4d-44eb-9e3c-e294201a3d44"},"vehicle_type_id":"4","last_reported":1745856711,"current_range_meters":3600,"station_id":"ce4bh3p2rcd13ifvqdp0","pricing_plan_id":"cebpf4jnsgd1na2vs0mg"},{"bike_id":"9b002acc-0601-42fa-8a84-09584afdd8d8","system_id":"levelo_inurba_marseille","lat":43.301239,"lon":5.398654,"is_reserved":false,"is_disabled":false,"rental_uris":{"android":"levelo://app?vid=9b002acc-0601-42fa-8a84-09584afdd8d8","ios":"levelo://app?vid=9b002acc-0601-42fa-8a84-09584afdd8d8"},"vehicle_type_id":"4","last_reported":1745856711,"current_range_meters":4000,"station_id":"ce4bh0h2rcd13ifvqd40","pricing_plan_id":"cebpf4jnsgd1na2vs0mg"},{"bike_id":"74677f28-3596-4c5b-98de-ba4120a70f9d","system_id":"levelo_inurba_marseille","lat":43.25622,"lon":5.41209,"is_reserved":false,"is_disabled":false,"rental_uris":{"android":"levelo://app?vid=74677f28-3596-4c5b-98de-ba4120a70f9d","ios":"levelo://app?vid=74677f28-3596-4c5b-98de-ba4120a70f9d"},"vehicle_type_id":"4","last_reported":1745856711,"current_range_meters":4000,"station_id":"","pricing_plan_id":"cebpf4jnsgd1na2vs0mg"},{"bike_id":"2bb48cf4-af83-4834-9713-60647acfed20","system_id":"levelo_inurba_marseille","lat":43.28406,"lon":5.37517,"is_reserved":false,"is_disabled":false,"rental_uris":{"android":"levelo://app?vid=2bb48cf4-af83-4834-9713-60647acfed20","ios":"levelo://app?vid=2bb48cf4-af83-4834-9713-60647acfed20"},"vehicle_type_id":"4","last_reported":1745856711,"current_range_meters":4000,"station_id":"ce4bh412rcd13ifvqds0","pricing_plan_id":"cebpf4jnsgd1na2vs0mg"},{"bike_id":"0add4205-2fce-416c-b3c2-786f7445e03f","system_id":"levelo_inurba_marseille","lat":43.30301,"lon":5.39222,"is_reserved":false,"is_disabled":false,"rental_uris":{"android":"levelo://app?vid=0add4205-2fce-416c-b3c2-786f7445e03f","ios":"levelo://app?vid=0add4205-2fce-416c-b3c2-786f7445e03f"},"vehicle_type_id":"4","last_reported":1745856711,"current_range_meters":4000,"station_id":"ce4bgkh2rcd13ifvqbk0","pricing_plan_id":"cebpf4jnsgd1na2vs0mg"},{"bike_id":"4df68ee1-ccee-4d58-b8c8-be816439fc3a","system_id":"levelo_inurba_marseille","lat":43.30437,"lon":5.38889,"is_reserved":false,"is_disabled":false,"rental_uris":{"android":"levelo://app?vid=4df68ee1-ccee-4d58-b8c8-be816439fc3a","ios":"levelo://app?vid=4df68ee1-ccee-4d58-b8c8-be816439fc3a"},"vehicle_type_id":"4","last_reported":1745856711,"current_range_meters":4400,"station_id":"ce4bgk12rcd13ifvqbi0","pricing_plan_id":"cebpf4jnsgd1na2vs0mg"},{"bike_id":"85c2dc4a-89fa-4895-8246-c94830d93345","system_id":"levelo_inurba_marseille","lat":43.24548,"lon":5.39518,"is_reserved":false,"is_disabled":false,"rental_uris":{"android":"levelo://app?vid=85c2dc4a-89fa-4895-8246-c94830d93345","ios":"levelo://app?vid=85c2dc4a-89fa-4895-8246-c94830d93345"},"vehicle_type_id":"4","last_reported":1745856711,"current_range_meters":4800,"station_id":"ce4bhlp2rcd13ifvqgjg","pricing_plan_id":"cebpf4jnsgd1na2vs0mg"},{"bike_id":"a1bd9213-7c36-4d14-ae86-bc8d315df9da","system_id":"levelo_inurba_marseille","lat":43.284055,"lon":5.3498,"is_reserved":false,"is_disabled":false,"rental_uris":{"android":"levelo://app?vid=a1bd9213-7c36-4d14-ae86-bc8d315df9da","ios":"levelo://app?vid=a1bd9213-7c36-4d14-ae86-bc8d315df9da"},"vehicle_type_id":"4","last_reported":1745856711,"current_range_meters":4800,"station_id":"ce4bhbh2rcd13ifvqepg","pricing_plan_id":"cebpf4jnsgd1na2vs0mg"},{"bike_id":"87f123c4-0adc-4ba8-8649-74e2c508ef05","system_id":"levelo_inurba_marseille","lat":43.265569,"lon":5.372863,"is_reserved":false,"is_disabled":false,"rental_uris":{"android":"levelo://app?vid=87f123c4-0adc-4ba8-8649-74e2c508ef05","ios":"levelo://app?vid=87f123c4-0adc-4ba8-8649-74e2c508ef05"},"vehicle_type_id":"4","last_reported":1745856711,"current_range_meters":5600,"station_id":"ce4bhg12rcd13ifvqf70","pricing_plan_id":"cebpf4jnsgd1na2vs0mg"},{"bike_id":"2f10f8f6-b01b-44ae-8400-181f364efeeb","system_id":"levelo_inurba_marseille","lat":43.30437,"lon":5.38881,"is_reserved":false,"is_disabled":false,"rental_uris":{"android":"levelo://app?vid=2f10f8f6-b01b-44ae-8400-181f364efeeb","ios":"levelo://app?vid=2f10f8f6-b01b-44ae-8400-181f364efeeb"},"vehicle_type_id":"4","last_reported":1745856711,"current_range_meters":5600,"station_id":"ce4bgk12rcd13ifvqbi0","pricing_plan_id":"cebpf4jnsgd1na2vs0mg"},{"bike_id":"5c61257a-b2a6-4328-8e9a-d6ac9a14ae76","system_id":"levelo_inurba_marseille","lat":43.27063,"lon":5.40315,"is_reserved":false,"is_disabled":false,"rental_uris":{"android":"levelo://app?vid=5c61257a-b2a6-4328-8e9a-d6ac9a14ae76","ios":"levelo://app?vid=5c61257a-b2a6-4328-8e9a-d6ac9a14ae76"},"vehicle_type_id":"4","last_reported":1745856711,"current_range_meters":5600,"station_id":"ce4bhk92rcd13ifvqgc0","pricing_plan_id":"cebpf4jnsgd1na2vs0mg"},{"bike_id":"c1ef8637-261d-43fc-9edb-f4efca755f41","system_id":"levelo_inurba_marseille","lat":43.27172,"lon":5.40992,"is_reserved":false,"is_disabled":false,"rental_uris":{"android":"levelo://app?vid=c1ef8637-261d-43fc-9edb-f4efca755f41","ios":"levelo://app?vid=c1ef8637-261d-43fc-9edb-f4efca755f41"},"vehicle_type_id":"4","last_reported":1745856711,"current_range_meters":5600,"station_id":"ce4bhl12rcd13ifvqgf0","pricing_plan_id":"cebpf4jnsgd1na2vs0mg"},{"bike_id":"91559d40-e5ec-4b09-aee0-3dda98bb0b91","system_id":"levelo_inurba_marseille","lat":43.29689,"lon":5.37019,"is_reserved":false,"is_disabled":false,"rental_uris":{"android":"levelo://app?vid=91559d40-e5ec-4b09-aee0-3dda98bb0b91","ios":"levelo://app?vid=91559d40-e5ec-4b09-aee0-3dda98bb0b91"},"vehicle_type_id":"4","last_reported":1745856711,"current_range_meters":6000,"station_id":"","pricing_plan_id":"cebpf4jnsgd1na2vs0mg"},{"bike_id":"90a02fb8-9f0f-44fd-b745-b0552f6caa79","system_id":"levelo_inurba_marseille","lat":43.28346,"lon":5.38621,"is_reserved":false,"is_disabled":false,"rental_uris":{"android":"levelo://app?vid=90a02fb8-9f0f-44fd-b745-b0552f6caa79","ios":"levelo://app?vid=90a02fb8-9f0f-44fd-b745-b0552f6caa79"},"vehicle_type_id":"4","last_reported":1745856711,"current_range_meters":6000,"station_id":"ce4bh492rcd13ifvqdvg","pricing_plan_id":"cebpf4jnsgd1na2vs0mg"},{"bike_id":"78b9bb88-3a00-4760-8a43-e68743ab22f2","system_id":"levelo_inurba_marseille","lat":43.30306,"lon":5.36771,"is_reserved":false,"is_disabled":false,"rental_uris":{"android":"levelo://app?vid=78b9bb88-3a00-4760-8a43-e68743ab22f2","ios":"levelo://app?vid=78b9bb88-3a00-4760-8a43-e68743ab22f2"},"vehicle_type_id":"4","last_reported":1745856711,"current_range_meters":6000,"station_id":"","pricing_plan_id":"cebpf4jnsgd1na2vs0mg"},{"bike_id":"a0eb58f5-cde1-451c-92cd-57b711127a59","system_id":"levelo_inurba_marseille","lat":43.32336,"lon":5.40623,"is_reserved":false,"is_disabled":false,"rental_uris":{"android":"levelo://app?vid=a0eb58f5-cde1-451c-92cd-57b711127a59","ios":"levelo://app?vid=a0eb58f5-cde1-451c-92cd-57b711127a59"},"vehicle_type_id":"4","last_reported":1745856711,"current_range_meters":6000,"station_id":"ce4bhq92rcd13ifvqhjg","pricing_plan_id":"cebpf4jnsgd1na2vs0mg"},{"bike_id":"7880d3a4-21e3-4aa9-b204-70d2ca8f3ef4","system_id":"levelo_inurba_marseille","lat":43.25734,"lon":5.41104,"is_reserved":false,"is_disabled":false,"rental_uris":{"android":"levelo://app?vid=7880d3a4-21e3-4aa9-b204-70d2ca8f3ef4","ios":"levelo://app?vid=7880d3a4-21e3-4aa9-b204-70d2ca8f3ef4"},"vehicle_type_id":"4","last_reported":1745856711,"current_range_meters":5600,"station_id":"ce4bhkp2rcd13ifvqgd0","pricing_plan_id":"cebpf4jnsgd1na2vs0mg"},{"bike_id":"aaf8a2ee-f995-42df-b029-b31373c4300c","system_id":"levelo_inurba_marseille","lat":43.28857,"lon":5.35855,"is_reserved":false,"is_disabled":false,"rental_uris":{"android":"levelo://app?vid=aaf8a2ee-f995-42df-b029-b31373c4300c","ios":"levelo://app?vid=aaf8a2ee-f995-42df-b029-b31373c4300c"},"vehicle_type_id":"4","last_reported":1745856711,"current_range_meters":6000,"station_id":"ce4bhb12rcd13ifvqem0","pricing_plan_id":"cebpf4jnsgd1na2vs0mg"},{"bike_id":"ef5a622e-aa0a-4359-b3fd-ef466748c455","system_id":"levelo_inurba_marseille","lat":43.2319,"lon":5.35566,"is_reserved":false,"is_disabled":false,"rental_uris":{"android":"levelo://app?vid=ef5a622e-aa0a-4359-b3fd-ef466748c455","ios":"levelo://app?vid=ef5a622e-aa0a-4359-b3fd-ef466748c455"},"vehicle_type_id":"4","last_reported":1745856711,"current_range_meters":6000,"station_id":"ce4bhu92rcd13ifvqi70","pricing_plan_id":"cebpf4jnsgd1na2vs0mg"},{"bike_id":"f604607f-a1e2-4bbd-b747-450760093aca","system_id":"levelo_inurba_marseille","lat":43.29906,"lon":5.43653,"is_reserved":false,"is_disabled":false,"rental_uris":{"android":"levelo://app?vid=f604607f-a1e2-4bbd-b747-450760093aca","ios":"levelo://app?vid=f604607f-a1e2-4bbd-b747-450760093aca"},"vehicle_type_id":"4","last_reported":1745856711,"current_range_meters":6400,"station_id":"ce4bhpp2rcd13ifvqhfg","pricing_plan_id":"cebpf4jnsgd1na2vs0mg"},{"bike_id":"8933bea6-80f9-4ecb-a544-061c36e9805e","system_id":"levelo_inurba_marseille","lat":43.24176,"lon":5.36454,"is_reserved":false,"is_disabled":false,"rental_uris":{"android":"levelo://app?vid=8933bea6-80f9-4ecb-a544-061c36e9805e","ios":"levelo://app?vid=8933bea6-80f9-4ecb-a544-061c36e9805e"},"vehicle_type_id":"4","last_reported":1745856711,"current_range_meters":6400,"station_id":"cpo36qri1sfpv3e86is0","pricing_plan_id":"cebpf4jnsgd1na2vs0mg"},{"bike_id":"d9cd1294-5d0b-43d3-9258-deda946961d1","system_id":"levelo_inurba_marseille","lat":43.22504,"lon":5.34774,"is_reserved":false,"is_disabled":true,"rental_uris":{"android":"levelo://app?vid=d9cd1294-5d0b-43d3-9258-deda946961d1","ios":"levelo://app?vid=d9cd1294-5d0b-43d3-9258-deda946961d1"},"vehicle_type_id":"4","last_reported":1745856711,"current_range_meters":6400,"station_id":"st_cvj5dfep6f1abm77gieg","pricing_plan_id":"cebpf4jnsgd1na2vs0mg"},{"bike_id":"7f07cf79-bf31-4466-bbb0-bf29937a6577","system_id":"levelo_inurba_marseille","lat":43.30799,"lon":5.43524,"is_reserved":false,"is_disabled":false,"rental_uris":{"android":"levelo://app?vid=7f07cf79-bf31-4466-bbb0-bf29937a6577","ios":"levelo://app?vid=7f07cf79-bf31-4466-bbb0-bf29937a6577"},"vehicle_type_id":"4","last_reported":1745856711,"current_range_meters":6400,"station_id":"ce4bhph2rcd13ifvqheg","pricing_plan_id":"cebpf4jnsgd1na2vs0mg"},{"bike_id":"8ae79fb7-0582-444e-8dab-1d22e31e0f2e","system_id":"levelo_inurba_marseille","lat":43.23954,"lon":5.36627,"is_reserved":false,"is_disabled":false,"rental_uris":{"android":"levelo://app?vid=8ae79fb7-0582-444e-8dab-1d22e31e0f2e","ios":"levelo://app?vid=8ae79fb7-0582-444e-8dab-1d22e31e0f2e"},"vehicle_type_id":"4","last_reported":1745856711,"current_range_meters":6800,"station_id":"ce4bhi12rcd13ifvqfp0","pricing_plan_id":"cebpf4jnsgd1na2vs0mg"},{"bike_id":"d6178e0d-4e27-463b-a752-8700e5f92f42","system_id":"levelo_inurba_marseille","lat":43.28573,"lon":5.39502,"is_reserved":false,"is_disabled":false,"rental_uris":{"android":"levelo://app?vid=d6178e0d-4e27-463b-a752-8700e5f92f42","ios":"levelo://app?vid=d6178e0d-4e27-463b-a752-8700e5f92f42"},"vehicle_type_id":"4","last_reported":1745856711,"current_range_meters":6800,"station_id":"ce4bh292rcd13ifvqdg0","pricing_plan_id":"cebpf4jnsgd1na2vs0mg"},{"bike_id":"0bc7f1e4-19e1-48b4-95c4-c92e757ab9a4","system_id":"levelo_inurba_marseille","lat":43.31527,"lon":5.38033,"is_reserved":false,"is_disabled":false,"rental_uris":{"android":"levelo://app?vid=0bc7f1e4-19e1-48b4-95c4-c92e757ab9a4","ios":"levelo://app?vid=0bc7f1e4-19e1-48b4-95c4-c92e757ab9a4"},"vehicle_type_id":"4","last_reported":1745856711,"current_range_meters":6800,"station_id":"ce4bhsp2rcd13ifvqi50","pricing_plan_id":"cebpf4jnsgd1na2vs0mg"},{"bike_id":"180e7277-356e-42ac-995e-42bfe41f82b4","system_id":"levelo_inurba_marseille","lat":43.312778,"lon":5.401679,"is_reserved":false,"is_disabled":false,"rental_uris":{"android":"levelo://app?vid=180e7277-356e-42ac-995e-42bfe41f82b4","ios":"levelo://app?vid=180e7277-356e-42ac-995e-42bfe41f82b4"},"vehicle_type_id":"4","last_reported":1745856711,"current_range_meters":6800,"station_id":"ce4bh092rcd13ifvqd30","pricing_plan_id":"cebpf4jnsgd1na2vs0mg"},{"bike_id":"caf927a9-3efb-4db0-b857-21b1bbae2b5e","system_id":"levelo_inurba_marseille","lat":43.26212,"lon":5.37442,"is_reserved":false,"is_disabled":false,"rental_uris":{"android":"levelo://app?vid=caf927a9-3efb-4db0-b857-21b1bbae2b5e","ios":"levelo://app?vid=caf927a9-3efb-4db0-b857-21b1bbae2b5e"},"vehicle_type_id":"4","last_reported":1745856711,"current_range_meters":6800,"station_id":"ce4bhgp2rcd13ifvqfc0","pricing_plan_id":"cebpf4jnsgd1na2vs0mg"},{"bike_id":"70790493-b2df-4945-894d-181628d30ea6","system_id":"levelo_inurba_marseille","lat":43.32335,"lon":5.40621,"is_reserved":false,"is_disabled":false,"rental_uris":{"android":"levelo://app?vid=70790493-b2df-4945-894d-181628d30ea6","ios":"levelo://app?vid=70790493-b2df-4945-894d-181628d30ea6"},"vehicle_type_id":"4","last_reported":1745856711,"current_range_meters":6800,"station_id":"ce4bhq92rcd13ifvqhjg","pricing_plan_id":"cebpf4jnsgd1na2vs0mg"},{"bike_id":"57139f96-7db0-4c99-8a14-c406252a62a4","system_id":"levelo_inurba_marseille","lat":43.30436,"lon":5.39744,"is_reserved":false,"is_disabled":false,"rental_uris":{"android":"levelo://app?vid=57139f96-7db0-4c99-8a14-c406252a62a4","ios":"levelo://app?vid=57139f96-7db0-4c99-8a14-c406252a62a4"},"vehicle_type_id":"4","last_reported":1745856711,"current_range_meters":6800,"station_id":"ce4bh092rcd13ifvqd20","pricing_plan_id":"cebpf4jnsgd1na2vs0mg"},{"bike_id":"db3e070c-2930-4aae-8593-86393619603f","system_id":"levelo_inurba_marseille","lat":43.28847,"lon":5.39306,"is_reserved":false,"is_disabled":false,"rental_uris":{"android":"levelo://app?vid=db3e070c-2930-4aae-8593-86393619603f","ios":"levelo://app?vid=db3e070c-2930-4aae-8593-86393619603f"},"vehicle_type_id":"4","last_reported":1745856711,"current_range_meters":7200,"station_id":"ce4bh2p2rcd13ifvqdi0","pricing_plan_id":"cebpf4jnsgd1na2vs0mg"},{"bike_id":"8d38b2b6-0732-40bb-ac18-2e6bde0b1452","system_id":"levelo_inurba_marseille","lat":43.31781,"lon":5.37344,"is_reserved":false,"is_disabled":false,"rental_uris":{"android":"levelo://app?vid=8d38b2b6-0732-40bb-ac18-2e6bde0b1452","ios":"levelo://app?vid=8d38b2b6-0732-40bb-ac18-2e6bde0b1452"},"vehicle_type_id":"4","last_reported":1745856711,"current_range_meters":7200,"station_id":"","pricing_plan_id":"cebpf4jnsgd1na2vs0mg"},{"bike_id":"2d71eac5-b236-4c63-a213-fe3822979733","system_id":"levelo_inurba_marseille","lat":43.27822,"lon":5.40746,"is_reserved":false,"is_disabled":false,"rental_uris":{"android":"levelo://app?vid=2d71eac5-b236-4c63-a213-fe3822979733","ios":"levelo://app?vid=2d71eac5-b236-4c63-a213-fe3822979733"},"vehicle_type_id":"4","last_reported":1745856711,"current_range_meters":7200,"station_id":"ce4bhnh2rcd13ifvqgtg","pricing_plan_id":"cebpf4jnsgd1na2vs0mg"},{"bike_id":"adc07854-b34f-4f45-a9ce-1c30f383adb8","system_id":"levelo_inurba_marseille","lat":43.26558,"lon":5.37282,"is_reserved":false,"is_disabled":false,"rental_uris":{"android":"levelo://app?vid=adc07854-b34f-4f45-a9ce-1c30f383adb8","ios":"levelo://app?vid=adc07854-b34f-4f45-a9ce-1c30f383adb8"},"vehicle_type_id":"4","last_reported":1745856711,"current_range_meters":7200,"station_id":"ce4bhg12rcd13ifvqf70","pricing_plan_id":"cebpf4jnsgd1na2vs0mg"},{"bike_id":"ab1a3356-5be9-405a-9924-da7c313b5d85","system_id":"levelo_inurba_marseille","lat":43.26559,"lon":5.37297,"is_reserved":false,"is_disabled":false,"rental_uris":{"android":"levelo://app?vid=ab1a3356-5be9-405a-9924-da7c313b5d85","ios":"levelo://app?vid=ab1a3356-5be9-405a-9924-da7c313b5d85"},"vehicle_type_id":"4","last_reported":1745856711,"current_range_meters":7200,"station_id":"ce4bhg12rcd13ifvqf70","pricing_plan_id":"cebpf4jnsgd1na2vs0mg"},{"bike_id":"88975fb5-3b6d-49c1-9ee7-0431fc12994c","system_id":"levelo_inurba_marseille","lat":43.29569,"lon":5.3752,"is_reserved":false,"is_disabled":false,"rental_uris":{"android":"levelo://app?vid=88975fb5-3b6d-49c1-9ee7-0431fc12994c","ios":"levelo://app?vid=88975fb5-3b6d-49c1-9ee7-0431fc12994c"},"vehicle_type_id":"4","last_reported":1745856711,"current_range_meters":7200,"station_id":"ce4bgh92rcd13ifvqb50","pricing_plan_id":"cebpf4jnsgd1na2vs0mg"},{"bike_id":"95afc8ec-eca4-4132-a4f8-a448a0f5385d","system_id":"levelo_inurba_marseille","lat":43.28098,"lon":5.37838,"is_reserved":false,"is_disabled":false,"rental_uris":{"android":"levelo://app?vid=95afc8ec-eca4-4132-a4f8-a448a0f5385d","ios":"levelo://app?vid=95afc8ec-eca4-4132-a4f8-a448a0f5385d"},"vehicle_type_id":"4","last_reported":1745856711,"current_range_meters":7200,"station_id":"ce4bha12rcd13ifvqee0","pricing_plan_id":"cebpf4jnsgd1na2vs0mg"},{"bike_id":"6719a6e2-0872-4cc4-81f3-095de88422b5","system_id":"levelo_inurba_marseille","lat":43.3189,"lon":5.4074,"is_reserved":false,"is_disabled":false,"rental_uris":{"android":"levelo://app?vid=6719a6e2-0872-4cc4-81f3-095de88422b5","ios":"levelo://app?vid=6719a6e2-0872-4cc4-81f3-095de88422b5"},"vehicle_type_id":"4","last_reported":1745856711,"current_range_meters":7200,"station_id":"ce4bhq12rcd13ifvqhig","pricing_plan_id":"cebpf4jnsgd1na2vs0mg"},{"bike_id":"747f3de8-f655-4c13-97d8-2ab06e457289","system_id":"levelo_inurba_marseille","lat":43.29201,"lon":5.39319,"is_reserved":false,"is_disabled":false,"rental_uris":{"android":"levelo://app?vid=747f3de8-f655-4c13-97d8-2ab06e457289","ios":"levelo://app?vid=747f3de8-f655-4c13-97d8-2ab06e457289"},"vehicle_type_id":"4","last_reported":1745856711,"current_range_meters":8000,"station_id":"ce4bh192rcd13ifvqdd0","pricing_plan_id":"cebpf4jnsgd1na2vs0mg"},{"bike_id":"10b63a44-4e91-4255-bd6b-a14dbb256017","system_id":"levelo_inurba_marseille","lat":43.29525,"lon":5.39049,"is_reserved":false,"is_disabled":false,"rental_uris":{"android":"levelo://app?vid=10b63a44-4e91-4255-bd6b-a14dbb256017","ios":"levelo://app?vid=10b63a44-4e91-4255-bd6b-a14dbb256017"},"vehicle_type_id":"4","last_reported":1745856711,"current_range_meters":8000,"station_id":"ce4bh3p2rcd13ifvqdp0","pricing_plan_id":"cebpf4jnsgd1na2vs0mg"},{"bike_id":"394c29df-1f97-437d-8dcb-a08acb2ab482","system_id":"levelo_inurba_marseille","lat":43.28416,"lon":5.37517,"is_reserved":false,"is_disabled":false,"rental_uris":{"android":"levelo://app?vid=394c29df-1f97-437d-8dcb-a08acb2ab482","ios":"levelo://app?vid=394c29df-1f97-437d-8dcb-a08acb2ab482"},"vehicle_type_id":"4","last_reported":1745856711,"current_range_meters":8000,"station_id":"ce4bh412rcd13ifvqds0","pricing_plan_id":"cebpf4jnsgd1na2vs0mg"},{"bike_id":"ceb448c1-47d7-44ad-a3a8-5f5e7171d9d1","system_id":"levelo_inurba_marseille","lat":43.27905,"lon":5.38006,"is_reserved":false,"is_disabled":false,"rental_uris":{"android":"levelo://app?vid=ceb448c1-47d7-44ad-a3a8-5f5e7171d9d1","ios":"levelo://app?vid=ceb448c1-47d7-44ad-a3a8-5f5e7171d9d1"},"vehicle_type_id":"4","last_reported":1745856711,"current_range_meters":8000,"station_id":"ce4bhf92rcd13ifvqf50","pricing_plan_id":"cebpf4jnsgd1na2vs0mg"},{"bike_id":"8574b080-938a-40b6-8294-59ff58bb1b2e","system_id":"levelo_inurba_marseille","lat":43.296295,"lon":5.405923,"is_reserved":false,"is_disabled":false,"rental_uris":{"android":"levelo://app?vid=8574b080-938a-40b6-8294-59ff58bb1b2e","ios":"levelo://app?vid=8574b080-938a-40b6-8294-59ff58bb1b2e"},"vehicle_type_id":"4","last_reported":1745856711,"current_range_meters":7200,"station_id":"ce4bh0h2rcd13ifvqd60","pricing_plan_id":"cebpf4jnsgd1na2vs0mg"},{"bike_id":"1db14274-463d-4180-bece-00dba6656848","system_id":"levelo_inurba_marseille","lat":43.23965,"lon":5.36633,"is_reserved":false,"is_disabled":false,"rental_uris":{"android":"levelo://app?vid=1db14274-463d-4180-bece-00dba6656848","ios":"levelo://app?vid=1db14274-463d-4180-bece-00dba6656848"},"vehicle_type_id":"4","last_reported":1745856711,"current_range_meters":8000,"station_id":"ce4bhi12rcd13ifvqfp0","pricing_plan_id":"cebpf4jnsgd1na2vs0mg"},{"bike_id":"51c1adc9-7cd7-4ffb-971e-7b36309eb47d","system_id":"levelo_inurba_marseille","lat":43.31068,"lon":5.36724,"is_reserved":false,"is_disabled":false,"rental_uris":{"android":"levelo://app?vid=51c1adc9-7cd7-4ffb-971e-7b36309eb47d","ios":"levelo://app?vid=51c1adc9-7cd7-4ffb-971e-7b36309eb47d"},"vehicle_type_id":"4","last_reported":1745856711,"current_range_meters":8000,"station_id":"","pricing_plan_id":"cebpf4jnsgd1na2vs0mg"},{"bike_id":"55999cd2-a13a-4767-a635-a65d718e8e7d","system_id":"levelo_inurba_marseille","lat":43.28844,"lon":5.39316,"is_reserved":false,"is_disabled":false,"rental_uris":{"android":"levelo://app?vid=55999cd2-a13a-4767-a635-a65d718e8e7d","ios":"levelo://app?vid=55999cd2-a13a-4767-a635-a65d718e8e7d"},"vehicle_type_id":"4","last_reported":1745856711,"current_range_meters":8400,"station_id":"ce4bh2p2rcd13ifvqdi0","pricing_plan_id":"cebpf4jnsgd1na2vs0mg"},{"bike_id":"7813ed97-8266-40f9-b76b-bc1e7a5398b5","system_id":"levelo_inurba_marseille","lat":43.2867,"lon":5.36362,"is_reserved":false,"is_disabled":false,"rental_uris":{"android":"levelo://app?vid=7813ed97-8266-40f9-b76b-bc1e7a5398b5","ios":"levelo://app?vid=7813ed97-8266-40f9-b76b-bc1e7a5398b5"},"vehicle_type_id":"4","last_reported":1745856711,"current_range_meters":8000,"station_id":"ce4bhah2rcd13ifvqej0","pricing_plan_id":"cebpf4jnsgd1na2vs0mg"},{"bike_id":"251754e6-674f-4528-a848-cf2dc981c752","system_id":"levelo_inurba_marseille","lat":43.31085,"lon":5.42424,"is_reserved":false,"is_disabled":false,"rental_uris":{"android":"levelo://app?vid=251754e6-674f-4528-a848-cf2dc981c752","ios":"levelo://app?vid=251754e6-674f-4528-a848-cf2dc981c752"},"vehicle_type_id":"4","last_reported":1745856711,"current_range_meters":8400,"station_id":"ce4bhp92rcd13ifvqhag","pricing_plan_id":"cebpf4jnsgd1na2vs0mg"},{"bike_id":"63bec7c7-440a-4bcf-91ad-aa86b5115a96","system_id":"levelo_inurba_marseille","lat":43.29968,"lon":5.38494,"is_reserved":false,"is_disabled":false,"rental_uris":{"android":"levelo://app?vid=63bec7c7-440a-4bcf-91ad-aa86b5115a96","ios":"levelo://app?vid=63bec7c7-440a-4bcf-91ad-aa86b5115a96"},"vehicle_type_id":"4","last_reported":1745856711,"current_range_meters":8400,"station_id":"ce4bgj92rcd13ifvqbd0","pricing_plan_id":"cebpf4jnsgd1na2vs0mg"},{"bike_id":"1f56ed68-52e0-4aaa-b7ce-8f27c0c68b78","system_id":"levelo_inurba_marseille","lat":43.30125,"lon":5.39872,"is_reserved":false,"is_disabled":false,"rental_uris":{"android":"levelo://app?vid=1f56ed68-52e0-4aaa-b7ce-8f27c0c68b78","ios":"levelo://app?vid=1f56ed68-52e0-4aaa-b7ce-8f27c0c68b78"},"vehicle_type_id":"4","last_reported":1745856711,"current_range_meters":8400,"station_id":"ce4bh0h2rcd13ifvqd40","pricing_plan_id":"cebpf4jnsgd1na2vs0mg"},{"bike_id":"a4c8a335-745b-4d95-97e0-7bac3cb18549","system_id":"levelo_inurba_marseille","lat":43.28131,"lon":5.39889,"is_reserved":false,"is_disabled":false,"rental_uris":{"android":"levelo://app?vid=a4c8a335-745b-4d95-97e0-7bac3cb18549","ios":"levelo://app?vid=a4c8a335-745b-4d95-97e0-7bac3cb18549"},"vehicle_type_id":"4","last_reported":1745856711,"current_range_meters":8400,"station_id":"","pricing_plan_id":"cebpf4jnsgd1na2vs0mg"},{"bike_id":"8c126201-3488-4062-b0a5-4c3858b7f3f6","system_id":"levelo_inurba_marseille","lat":43.298747,"lon":5.3974,"is_reserved":false,"is_disabled":false,"rental_uris":{"android":"levelo://app?vid=8c126201-3488-4062-b0a5-4c3858b7f3f6","ios":"levelo://app?vid=8c126201-3488-4062-b0a5-4c3858b7f3f6"},"vehicle_type_id":"4","last_reported":1745856711,"current_range_meters":8800,"station_id":"ce4bh0h2rcd13ifvqd50","pricing_plan_id":"cebpf4jnsgd1na2vs0mg"},{"bike_id":"4fc7d30d-4169-4f0a-9604-e14e8322f085","system_id":"levelo_inurba_marseille","lat":43.27199,"lon":5.39167,"is_reserved":false,"is_disabled":false,"rental_uris":{"android":"levelo://app?vid=4fc7d30d-4169-4f0a-9604-e14e8322f085","ios":"levelo://app?vid=4fc7d30d-4169-4f0a-9604-e14e8322f085"},"vehicle_type_id":"4","last_reported":1745856711,"current_range_meters":9600,"station_id":"ce4bhhp2rcd13ifvqfm0","pricing_plan_id":"cebpf4jnsgd1na2vs0mg"},{"bike_id":"af4f0c69-e62d-4155-b1d1-a67b45271ae1","system_id":"levelo_inurba_marseille","lat":43.24702,"lon":5.41087,"is_reserved":false,"is_disabled":false,"rental_uris":{"android":"levelo://app?vid=af4f0c69-e62d-4155-b1d1-a67b45271ae1","ios":"levelo://app?vid=af4f0c69-e62d-4155-b1d1-a67b45271ae1"},"vehicle_type_id":"4","last_reported":1745856711,"current_range_meters":9600,"station_id":"","pricing_plan_id":"cebpf4jnsgd1na2vs0mg"},{"bike_id":"0cc94bcd-47ad-4dbf-8beb-80b6ac9a019f","system_id":"levelo_inurba_marseille","lat":43.27948,"lon":5.41043,"is_reserved":false,"is_disabled":false,"rental_uris":{"android":"levelo://app?vid=0cc94bcd-47ad-4dbf-8beb-80b6ac9a019f","ios":"levelo://app?vid=0cc94bcd-47ad-4dbf-8beb-80b6ac9a019f"},"vehicle_type_id":"4","last_reported":1745856711,"current_range_meters":9200,"station_id":"ce4bhnp2rcd13ifvqh0g","pricing_plan_id":"cebpf4jnsgd1na2vs0mg"},{"bike_id":"4b5f2de8-b7ae-47cb-85ce-4c4ac996f93b","system_id":"levelo_inurba_marseille","lat":43.28858,"lon":5.35911,"is_reserved":false,"is_disabled":false,"rental_uris":{"android":"levelo://app?vid=4b5f2de8-b7ae-47cb-85ce-4c4ac996f93b","ios":"levelo://app?vid=4b5f2de8-b7ae-47cb-85ce-4c4ac996f93b"},"vehicle_type_id":"4","last_reported":1745856711,"current_range_meters":9200,"station_id":"","pricing_plan_id":"cebpf4jnsgd1na2vs0mg"},{"bike_id":"ce2acb9b-3791-4000-822d-c542d629429b","system_id":"levelo_inurba_marseille","lat":43.26118,"lon":5.41467,"is_reserved":false,"is_disabled":false,"rental_uris":{"android":"levelo://app?vid=ce2acb9b-3791-4000-822d-c542d629429b","ios":"levelo://app?vid=ce2acb9b-3791-4000-822d-c542d629429b"},"vehicle_type_id":"4","last_reported":1745856711,"current_range_meters":9200,"station_id":"","pricing_plan_id":"cebpf4jnsgd1na2vs0mg"},{"bike_id":"2127fcb8-13ec-4293-a20b-88c07ba5691a","system_id":"levelo_inurba_marseille","lat":43.28004,"lon":5.40012,"is_reserved":false,"is_disabled":false,"rental_uris":{"android":"levelo://app?vid=2127fcb8-13ec-4293-a20b-88c07ba5691a","ios":"levelo://app?vid=2127fcb8-13ec-4293-a20b-88c07ba5691a"},"vehicle_type_id":"4","last_reported":1745856711,"current_range_meters":9200,"station_id":"ce4bho92rcd13ifvqh4g","pricing_plan_id":"cebpf4jnsgd1na2vs0mg"},{"bike_id":"679a1104-bb2f-4313-81ae-490e909d7dd6","system_id":"levelo_inurba_marseille","lat":43.29601,"lon":5.37702,"is_reserved":false,"is_disabled":true,"rental_uris":{"android":"levelo://app?vid=679a1104-bb2f-4313-81ae-490e909d7dd6","ios":"levelo://app?vid=679a1104-bb2f-4313-81ae-490e909d7dd6"},"vehicle_type_id":"4","last_reported":1745856711,"current_range_meters":9200,"station_id":"ce4bgi92rcd13ifvqb90","pricing_plan_id":"cebpf4jnsgd1na2vs0mg"},{"bike_id":"308ecb74-800a-427d-9202-16bb586a9834","system_id":"levelo_inurba_marseille","lat":43.28164,"lon":5.42627,"is_reserved":false,"is_disabled":false,"rental_uris":{"android":"levelo://app?vid=308ecb74-800a-427d-9202-16bb586a9834","ios":"levelo://app?vid=308ecb74-800a-427d-9202-16bb586a9834"},"vehicle_type_id":"4","last_reported":1745856711,"current_range_meters":9200,"station_id":"ce4bhnh2rcd13ifvqgug","pricing_plan_id":"cebpf4jnsgd1na2vs0mg"},{"bike_id":"e590a34a-4509-45d1-bd53-0b5c778022a1","system_id":"levelo_inurba_marseille","lat":43.29679,"lon":5.3728,"is_reserved":false,"is_disabled":false,"rental_uris":{"android":"levelo://app?vid=e590a34a-4509-45d1-bd53-0b5c778022a1","ios":"levelo://app?vid=e590a34a-4509-45d1-bd53-0b5c778022a1"},"vehicle_type_id":"4","last_reported":1745856711,"current_range_meters":9200,"station_id":"ce4bgk12rcd13ifvqbj0","pricing_plan_id":"cebpf4jnsgd1na2vs0mg"},{"bike_id":"57a41005-dba4-4995-a65d-3cc07a95ba9a","system_id":"levelo_inurba_marseille","lat":43.30205,"lon":5.3947,"is_reserved":false,"is_disabled":true,"rental_uris":{"android":"levelo://app?vid=57a41005-dba4-4995-a65d-3cc07a95ba9a","ios":"levelo://app?vid=57a41005-dba4-4995-a65d-3cc07a95ba9a"},"vehicle_type_id":"4","last_reported":1745856711,"current_range_meters":9200,"station_id":"ce4bh0p2rcd13ifvqd70","pricing_plan_id":"cebpf4jnsgd1na2vs0mg"},{"bike_id":"5f731579-a1fa-4454-8695-1b7a0d4fb2ee","system_id":"levelo_inurba_marseille","lat":43.292241,"lon":5.361943,"is_reserved":false,"is_disabled":false,"rental_uris":{"android":"levelo://app?vid=5f731579-a1fa-4454-8695-1b7a0d4fb2ee","ios":"levelo://app?vid=5f731579-a1fa-4454-8695-1b7a0d4fb2ee"},"vehicle_type_id":"4","last_reported":1745856711,"current_range_meters":9600,"station_id":"ce4bhb92rcd13ifvqen0","pricing_plan_id":"cebpf4jnsgd1na2vs0mg"},{"bike_id":"90a36a36-d55d-4194-b3dc-f111cb6f3783","system_id":"levelo_inurba_marseille","lat":43.30322,"lon":5.40434,"is_reserved":false,"is_disabled":false,"rental_uris":{"android":"levelo://app?vid=90a36a36-d55d-4194-b3dc-f111cb6f3783","ios":"levelo://app?vid=90a36a36-d55d-4194-b3dc-f111cb6f3783"},"vehicle_type_id":"4","last_reported":1745856711,"current_range_meters":9600,"station_id":"ce4bh012rcd13ifvqd10","pricing_plan_id":"cebpf4jnsgd1na2vs0mg"},{"bike_id":"1c4015b9-989f-45fd-af0e-2890535ad881","system_id":"levelo_inurba_marseille","lat":43.28157,"lon":5.42642,"is_reserved":false,"is_disabled":false,"rental_uris":{"android":"levelo://app?vid=1c4015b9-989f-45fd-af0e-2890535ad881","ios":"levelo://app?vid=1c4015b9-989f-45fd-af0e-2890535ad881"},"vehicle_type_id":"4","last_reported":1745856711,"current_range_meters":9600,"station_id":"ce4bhnh2rcd13ifvqgug","pricing_plan_id":"cebpf4jnsgd1na2vs0mg"},{"bike_id":"85bbc5fe-2e93-4136-8a10-669763916d4e","system_id":"levelo_inurba_marseille","lat":43.2921,"lon":5.39331,"is_reserved":false,"is_disabled":false,"rental_uris":{"android":"levelo://app?vid=85bbc5fe-2e93-4136-8a10-669763916d4e","ios":"levelo://app?vid=85bbc5fe-2e93-4136-8a10-669763916d4e"},"vehicle_type_id":"4","last_reported":1745856711,"current_range_meters":9600,"station_id":"ce4bh192rcd13ifvqdd0","pricing_plan_id":"cebpf4jnsgd1na2vs0mg"},{"bike_id":"f58d9c17-02c5-4bdd-a8e3-ba6d3e25644a","system_id":"levelo_inurba_marseille","lat":43.2862,"lon":5.35103,"is_reserved":false,"is_disabled":false,"rental_uris":{"android":"levelo://app?vid=f58d9c17-02c5-4bdd-a8e3-ba6d3e25644a","ios":"levelo://app?vid=f58d9c17-02c5-4bdd-a8e3-ba6d3e25644a"},"vehicle_type_id":"4","last_reported":1745856711,"current_range_meters":9600,"station_id":"ce4bhch2rcd13ifvqeug","pricing_plan_id":"cebpf4jnsgd1na2vs0mg"},{"bike_id":"a9a6c357-3e06-4c6c-a4b2-d490eb1efa4a","system_id":"levelo_inurba_marseille","lat":43.30949,"lon":5.39036,"is_reserved":false,"is_disabled":false,"rental_uris":{"android":"levelo://app?vid=a9a6c357-3e06-4c6c-a4b2-d490eb1efa4a","ios":"levelo://app?vid=a9a6c357-3e06-4c6c-a4b2-d490eb1efa4a"},"vehicle_type_id":"4","last_reported":1745856711,"current_range_meters":9600,"station_id":"ce4bgup2rcd13ifvqco0","pricing_plan_id":"cebpf4jnsgd1na2vs0mg"},{"bike_id":"85cbb15b-27ae-4649-ac33-8718a5dc80df","system_id":"levelo_inurba_marseille","lat":43.29723,"lon":5.37634,"is_reserved":false,"is_disabled":false,"rental_uris":{"android":"levelo://app?vid=85cbb15b-27ae-4649-ac33-8718a5dc80df","ios":"levelo://app?vid=85cbb15b-27ae-4649-ac33-8718a5dc80df"},"vehicle_type_id":"4","last_reported":1745856711,"current_range_meters":10000,"station_id":"ce4bgkh2rcd13ifvqbl0","pricing_plan_id":"cebpf4jnsgd1na2vs0mg"},{"bike_id":"d99beb95-24da-48b9-8811-7efc1c0bc981","system_id":"levelo_inurba_marseille","lat":43.225029,"lon":5.347839,"is_reserved":false,"is_disabled":false,"rental_uris":{"android":"levelo://app?vid=d99beb95-24da-48b9-8811-7efc1c0bc981","ios":"levelo://app?vid=d99beb95-24da-48b9-8811-7efc1c0bc981"},"vehicle_type_id":"4","last_reported":1745856711,"current_range_meters":10000,"station_id":"","pricing_plan_id":"cebpf4jnsgd1na2vs0mg"},{"bike_id":"62b817db-1feb-4c28-b610-9e665a38da6c","system_id":"levelo_inurba_marseille","lat":43.28083,"lon":5.39662,"is_reserved":false,"is_disabled":false,"rental_uris":{"android":"levelo://app?vid=62b817db-1feb-4c28-b610-9e665a38da6c","ios":"levelo://app?vid=62b817db-1feb-4c28-b610-9e665a38da6c"},"vehicle_type_id":"4","last_reported":1745856711,"current_range_meters":10800,"station_id":"ce4bho12rcd13ifvqh2g","pricing_plan_id":"cebpf4jnsgd1na2vs0mg"},{"bike_id":"58976de5-ab94-4299-a226-41ddc422f062","system_id":"levelo_inurba_marseille","lat":43.23195,"lon":5.35551,"is_reserved":false,"is_disabled":false,"rental_uris":{"android":"levelo://app?vid=58976de5-ab94-4299-a226-41ddc422f062","ios":"levelo://app?vid=58976de5-ab94-4299-a226-41ddc422f062"},"vehicle_type_id":"4","last_reported":1745856711,"current_range_meters":10800,"station_id":"ce4bhu92rcd13ifvqi70","pricing_plan_id":"cebpf4jnsgd1na2vs0mg"},{"bike_id":"93fbd282-4ed7-43f8-9e9e-2359f26c4e8e","system_id":"levelo_inurba_marseille","lat":43.28423,"lon":5.34975,"is_reserved":false,"is_disabled":false,"rental_uris":{"android":"levelo://app?vid=93fbd282-4ed7-43f8-9e9e-2359f26c4e8e","ios":"levelo://app?vid=93fbd282-4ed7-43f8-9e9e-2359f26c4e8e"},"vehicle_type_id":"4","last_reported":1745856711,"current_range_meters":10800,"station_id":"ce4bhbh2rcd13ifvqepg","pricing_plan_id":"cebpf4jnsgd1na2vs0mg"},{"bike_id":"05145c84-b9e3-47c2-91f6-efba0dd3a65c","system_id":"levelo_inurba_marseille","lat":43.2502,"lon":5.3892,"is_reserved":false,"is_disabled":true,"rental_uris":{"android":"levelo://app?vid=05145c84-b9e3-47c2-91f6-efba0dd3a65c","ios":"levelo://app?vid=05145c84-b9e3-47c2-91f6-efba0dd3a65c"},"vehicle_type_id":"4","last_reported":1745856711,"current_range_meters":10800,"station_id":"ce4bhgp2rcd13ifvqfd0","pricing_plan_id":"cebpf4jnsgd1na2vs0mg"},{"bike_id":"89e0c0e9-5c5b-4b8e-aeae-4ca8420b8ff3","system_id":"levelo_inurba_marseille","lat":43.28365,"lon":5.38638,"is_reserved":false,"is_disabled":false,"rental_uris":{"android":"levelo://app?vid=89e0c0e9-5c5b-4b8e-aeae-4ca8420b8ff3","ios":"levelo://app?vid=89e0c0e9-5c5b-4b8e-aeae-4ca8420b8ff3"},"vehicle_type_id":"4","last_reported":1745856711,"current_range_meters":10000,"station_id":"ce4bh492rcd13ifvqdvg","pricing_plan_id":"cebpf4jnsgd1na2vs0mg"},{"bike_id":"f7655301-4676-46e8-8623-b50f2c0809c1","system_id":"levelo_inurba_marseille","lat":43.29606,"lon":5.3811,"is_reserved":false,"is_disabled":false,"rental_uris":{"android":"levelo://app?vid=f7655301-4676-46e8-8623-b50f2c0809c1","ios":"levelo://app?vid=f7655301-4676-46e8-8623-b50f2c0809c1"},"vehicle_type_id":"4","last_reported":1745856711,"current_range_meters":11600,"station_id":"ce4bgl12rcd13ifvqbo0","pricing_plan_id":"cebpf4jnsgd1na2vs0mg"},{"bike_id":"dbbf4ff0-b24e-4fd7-807e-dc8172feaddb","system_id":"levelo_inurba_marseille","lat":43.273756,"lon":5.362551,"is_reserved":false,"is_disabled":false,"rental_uris":{"android":"levelo://app?vid=dbbf4ff0-b24e-4fd7-807e-dc8172feaddb","ios":"levelo://app?vid=dbbf4ff0-b24e-4fd7-807e-dc8172feaddb"},"vehicle_type_id":"4","last_reported":1745856711,"current_range_meters":11600,"station_id":"ce4bhbh2rcd13ifvqeo0","pricing_plan_id":"cebpf4jnsgd1na2vs0mg"},{"bike_id":"e5b4b90d-e268-4de2-98f4-f6d0513f8801","system_id":"levelo_inurba_marseille","lat":43.26546,"lon":5.42199,"is_reserved":false,"is_disabled":false,"rental_uris":{"android":"levelo://app?vid=e5b4b90d-e268-4de2-98f4-f6d0513f8801","ios":"levelo://app?vid=e5b4b90d-e268-4de2-98f4-f6d0513f8801"},"vehicle_type_id":"4","last_reported":1745856711,"current_range_meters":11600,"station_id":"","pricing_plan_id":"cebpf4jnsgd1na2vs0mg"},{"bike_id":"a9cff6b4-85e7-4617-95b1-eed47183b644","system_id":"levelo_inurba_marseille","lat":43.27999,"lon":5.40038,"is_reserved":false,"is_disabled":false,"rental_uris":{"android":"levelo://app?vid=a9cff6b4-85e7-4617-95b1-eed47183b644","ios":"levelo://app?vid=a9cff6b4-85e7-4617-95b1-eed47183b644"},"vehicle_type_id":"4","last_reported":1745856711,"current_range_meters":11600,"station_id":"ce4bho92rcd13ifvqh4g","pricing_plan_id":"cebpf4jnsgd1na2vs0mg"},{"bike_id":"984a94b1-54ac-4f2e-ac29-1eaf73c0e86e","system_id":"levelo_inurba_marseille","lat":43.28668,"lon":5.36346,"is_reserved":false,"is_disabled":false,"rental_uris":{"android":"levelo://app?vid=984a94b1-54ac-4f2e-ac29-1eaf73c0e86e","ios":"levelo://app?vid=984a94b1-54ac-4f2e-ac29-1eaf73c0e86e"},"vehicle_type_id":"4","last_reported":1745856711,"current_range_meters":11200,"station_id":"ce4bhah2rcd13ifvqej0","pricing_plan_id":"cebpf4jnsgd1na2vs0mg"},{"bike_id":"b0fc5b9a-3551-4654-a773-249bb9baa880","system_id":"levelo_inurba_marseille","lat":43.28573,"lon":5.39509,"is_reserved":false,"is_disabled":false,"rental_uris":{"android":"levelo://app?vid=b0fc5b9a-3551-4654-a773-249bb9baa880","ios":"levelo://app?vid=b0fc5b9a-3551-4654-a773-249bb9baa880"},"vehicle_type_id":"4","last_reported":1745856711,"current_range_meters":11600,"station_id":"ce4bh292rcd13ifvqdg0","pricing_plan_id":"cebpf4jnsgd1na2vs0mg"},{"bike_id":"bf6b8bbd-522d-449d-80c7-7c307c9bfdd5","system_id":"levelo_inurba_marseille","lat":43.2693,"lon":5.40261,"is_reserved":false,"is_disabled":false,"rental_uris":{"android":"levelo://app?vid=bf6b8bbd-522d-449d-80c7-7c307c9bfdd5","ios":"levelo://app?vid=bf6b8bbd-522d-449d-80c7-7c307c9bfdd5"},"vehicle_type_id":"4","last_reported":1745856711,"current_range_meters":12000,"station_id":"cjm6bp8fraef2m0cb0m0","pricing_plan_id":"cebpf4jnsgd1na2vs0mg"},{"bike_id":"3566469e-5adf-4ae7-9fad-25ede3e08c1b","system_id":"levelo_inurba_marseille","lat":43.29266,"lon":5.38421,"is_reserved":false,"is_disabled":true,"rental_uris":{"android":"levelo://app?vid=3566469e-5adf-4ae7-9fad-25ede3e08c1b","ios":"levelo://app?vid=3566469e-5adf-4ae7-9fad-25ede3e08c1b"},"vehicle_type_id":"4","last_reported":1745856711,"current_range_meters":12000,"station_id":"ce4bh692rcd13ifvqea0","pricing_plan_id":"cebpf4jnsgd1na2vs0mg"},{"bike_id":"86c0598b-4818-471f-9a8b-081ecdc96572","system_id":"levelo_inurba_marseille","lat":43.25578,"lon":5.38244,"is_reserved":false,"is_disabled":false,"rental_uris":{"android":"levelo://app?vid=86c0598b-4818-471f-9a8b-081ecdc96572","ios":"levelo://app?vid=86c0598b-4818-471f-9a8b-081ecdc96572"},"vehicle_type_id":"4","last_reported":1745856711,"current_range_meters":12400,"station_id":"ce4bhih2rcd13ifvqfs0","pricing_plan_id":"cebpf4jnsgd1na2vs0mg"},{"bike_id":"cc4f9823-633c-4e04-89a3-b0a697035091","system_id":"levelo_inurba_marseille","lat":43.28274,"lon":5.35061,"is_reserved":false,"is_disabled":false,"rental_uris":{"android":"levelo://app?vid=cc4f9823-633c-4e04-89a3-b0a697035091","ios":"levelo://app?vid=cc4f9823-633c-4e04-89a3-b0a697035091"},"vehicle_type_id":"4","last_reported":1745856711,"current_range_meters":12400,"station_id":"ce4bhbp2rcd13ifvqerg","pricing_plan_id":"cebpf4jnsgd1na2vs0mg"},{"bike_id":"4a059a2d-b3a6-4e0b-9fd3-b714abc8d3bb","system_id":"levelo_inurba_marseille","lat":43.32014,"lon":5.38283,"is_reserved":false,"is_disabled":true,"rental_uris":{"android":"levelo://app?vid=4a059a2d-b3a6-4e0b-9fd3-b714abc8d3bb","ios":"levelo://app?vid=4a059a2d-b3a6-4e0b-9fd3-b714abc8d3bb"},"vehicle_type_id":"4","last_reported":1745856711,"current_range_meters":12400,"station_id":"ce4bhr12rcd13ifvqhpg","pricing_plan_id":"cebpf4jnsgd1na2vs0mg"},{"bike_id":"f8527f98-9dba-4767-9c49-2ee5632fd2af","system_id":"levelo_inurba_marseille","lat":43.27825,"lon":5.40692,"is_reserved":false,"is_disabled":true,"rental_uris":{"android":"levelo://app?vid=f8527f98-9dba-4767-9c49-2ee5632fd2af","ios":"levelo://app?vid=f8527f98-9dba-4767-9c49-2ee5632fd2af"},"vehicle_type_id":"4","last_reported":1745856711,"current_range_meters":12400,"station_id":"ce4bhnh2rcd13ifvqgtg","pricing_plan_id":"cebpf4jnsgd1na2vs0mg"},{"bike_id":"801442fb-9797-4555-8d27-165b0ab61b35","system_id":"levelo_inurba_marseille","lat":43.23198,"lon":5.35549,"is_reserved":false,"is_disabled":false,"rental_uris":{"android":"levelo://app?vid=801442fb-9797-4555-8d27-165b0ab61b35","ios":"levelo://app?vid=801442fb-9797-4555-8d27-165b0ab61b35"},"vehicle_type_id":"4","last_reported":1745856711,"current_range_meters":12000,"station_id":"ce4bhu92rcd13ifvqi70","pricing_plan_id":"cebpf4jnsgd1na2vs0mg"},{"bike_id":"a265a47f-5855-4b1c-b255-4b5d38df3cf9","system_id":"levelo_inurba_marseille","lat":43.298059,"lon":5.404006,"is_reserved":false,"is_disabled":false,"rental_uris":{"android":"levelo://app?vid=a265a47f-5855-4b1c-b255-4b5d38df3cf9","ios":"levelo://app?vid=a265a47f-5855-4b1c-b255-4b5d38df3cf9"},"vehicle_type_id":"4","last_reported":1745856711,"current_range_meters":12400,"station_id":"ce4bh112rcd13ifvqd90","pricing_plan_id":"cebpf4jnsgd1na2vs0mg"},{"bike_id":"794d69fa-6359-4d62-aac8-59128d05a26a","system_id":"levelo_inurba_marseille","lat":43.299565,"lon":5.385177,"is_reserved":false,"is_disabled":false,"rental_uris":{"android":"levelo://app?vid=794d69fa-6359-4d62-aac8-59128d05a26a","ios":"levelo://app?vid=794d69fa-6359-4d62-aac8-59128d05a26a"},"vehicle_type_id":"4","last_reported":1745856711,"current_range_meters":12400,"station_id":"ce4bgj92rcd13ifvqbd0","pricing_plan_id":"cebpf4jnsgd1na2vs0mg"},{"bike_id":"b15486bf-df9b-4212-a0a2-dee98ce5af53","system_id":"levelo_inurba_marseille","lat":43.28107,"lon":5.37843,"is_reserved":false,"is_disabled":false,"rental_uris":{"android":"levelo://app?vid=b15486bf-df9b-4212-a0a2-dee98ce5af53","ios":"levelo://app?vid=b15486bf-df9b-4212-a0a2-dee98ce5af53"},"vehicle_type_id":"4","last_reported":1745856711,"current_range_meters":12400,"station_id":"ce4bha12rcd13ifvqee0","pricing_plan_id":"cebpf4jnsgd1na2vs0mg"},{"bike_id":"ab4612c3-85f5-4cb4-9ce2-46373d9c1c69","system_id":"levelo_inurba_marseille","lat":43.25799,"lon":5.38609,"is_reserved":false,"is_disabled":false,"rental_uris":{"android":"levelo://app?vid=ab4612c3-85f5-4cb4-9ce2-46373d9c1c69","ios":"levelo://app?vid=ab4612c3-85f5-4cb4-9ce2-46373d9c1c69"},"vehicle_type_id":"4","last_reported":1745856711,"current_range_meters":12800,"station_id":"","pricing_plan_id":"cebpf4jnsgd1na2vs0mg"},{"bike_id":"fd02feff-ccbc-4d02-9b08-5d892fcc8c3a","system_id":"levelo_inurba_marseille","lat":43.24547,"lon":5.39527,"is_reserved":false,"is_disabled":false,"rental_uris":{"android":"levelo://app?vid=fd02feff-ccbc-4d02-9b08-5d892fcc8c3a","ios":"levelo://app?vid=fd02feff-ccbc-4d02-9b08-5d892fcc8c3a"},"vehicle_type_id":"4","last_reported":1745856711,"current_range_meters":12400,"station_id":"ce4bhlp2rcd13ifvqgjg","pricing_plan_id":"cebpf4jnsgd1na2vs0mg"},{"bike_id":"35f60c85-6da3-4ab6-804f-2e67ac44cad0","system_id":"levelo_inurba_marseille","lat":43.27365,"lon":5.36253,"is_reserved":false,"is_disabled":false,"rental_uris":{"android":"levelo://app?vid=35f60c85-6da3-4ab6-804f-2e67ac44cad0","ios":"levelo://app?vid=35f60c85-6da3-4ab6-804f-2e67ac44cad0"},"vehicle_type_id":"4","last_reported":1745856711,"current_range_meters":11200,"station_id":"ce4bhbh2rcd13ifvqeo0","pricing_plan_id":"cebpf4jnsgd1na2vs0mg"},{"bike_id":"717f420a-13fb-4f50-9848-de00346e9698","system_id":"levelo_inurba_marseille","lat":43.29297,"lon":5.37458,"is_reserved":false,"is_disabled":false,"rental_uris":{"android":"levelo://app?vid=717f420a-13fb-4f50-9848-de00346e9698","ios":"levelo://app?vid=717f420a-13fb-4f50-9848-de00346e9698"},"vehicle_type_id":"4","last_reported":1745856711,"current_range_meters":12800,"station_id":"ce4bgi12rcd13ifvqb70","pricing_plan_id":"cebpf4jnsgd1na2vs0mg"},{"bike_id":"bb5a3d44-721f-440e-8bed-5932e61c1012","system_id":"levelo_inurba_marseille","lat":43.31118,"lon":5.37779,"is_reserved":false,"is_disabled":false,"rental_uris":{"android":"levelo://app?vid=bb5a3d44-721f-440e-8bed-5932e61c1012","ios":"levelo://app?vid=bb5a3d44-721f-440e-8bed-5932e61c1012"},"vehicle_type_id":"4","last_reported":1745856711,"current_range_meters":13600,"station_id":"ce4bgt92rcd13ifvqcg0","pricing_plan_id":"cebpf4jnsgd1na2vs0mg"},{"bike_id":"88e4c498-4226-4e17-9244-b072ba94cf5f","system_id":"levelo_inurba_marseille","lat":43.31529,"lon":5.3803,"is_reserved":false,"is_disabled":false,"rental_uris":{"android":"levelo://app?vid=88e4c498-4226-4e17-9244-b072ba94cf5f","ios":"levelo://app?vid=88e4c498-4226-4e17-9244-b072ba94cf5f"},"vehicle_type_id":"4","last_reported":1745856711,"current_range_meters":13600,"station_id":"ce4bhsp2rcd13ifvqi50","pricing_plan_id":"cebpf4jnsgd1na2vs0mg"},{"bike_id":"011653b7-9ac5-4020-bac8-f2643b6f4f30","system_id":"levelo_inurba_marseille","lat":43.30328,"lon":5.40435,"is_reserved":false,"is_disabled":false,"rental_uris":{"android":"levelo://app?vid=011653b7-9ac5-4020-bac8-f2643b6f4f30","ios":"levelo://app?vid=011653b7-9ac5-4020-bac8-f2643b6f4f30"},"vehicle_type_id":"4","last_reported":1745856711,"current_range_meters":13600,"station_id":"ce4bh012rcd13ifvqd10","pricing_plan_id":"cebpf4jnsgd1na2vs0mg"},{"bike_id":"1ed73b91-6f8f-4065-80ce-3f5334b0d3dd","system_id":"levelo_inurba_marseille","lat":43.31278,"lon":5.40169,"is_reserved":false,"is_disabled":false,"rental_uris":{"android":"levelo://app?vid=1ed73b91-6f8f-4065-80ce-3f5334b0d3dd","ios":"levelo://app?vid=1ed73b91-6f8f-4065-80ce-3f5334b0d3dd"},"vehicle_type_id":"4","last_reported":1745856711,"current_range_meters":12800,"station_id":"ce4bh092rcd13ifvqd30","pricing_plan_id":"cebpf4jnsgd1na2vs0mg"},{"bike_id":"4a7b60b2-1c0a-43c1-9e6f-c0e7a4f6d6f7","system_id":"levelo_inurba_marseille","lat":43.27819,"lon":5.40714,"is_reserved":false,"is_disabled":false,"rental_uris":{"android":"levelo://app?vid=4a7b60b2-1c0a-43c1-9e6f-c0e7a4f6d6f7","ios":"levelo://app?vid=4a7b60b2-1c0a-43c1-9e6f-c0e7a4f6d6f7"},"vehicle_type_id":"4","last_reported":1745856711,"current_range_meters":13600,"station_id":"ce4bhnh2rcd13ifvqgtg","pricing_plan_id":"cebpf4jnsgd1na2vs0mg"},{"bike_id":"a6c80b0c-536c-4a45-884f-2e1d125500ab","system_id":"levelo_inurba_marseille","lat":43.22484,"lon":5.34862,"is_reserved":false,"is_disabled":false,"rental_uris":{"android":"levelo://app?vid=a6c80b0c-536c-4a45-884f-2e1d125500ab","ios":"levelo://app?vid=a6c80b0c-536c-4a45-884f-2e1d125500ab"},"vehicle_type_id":"4","last_reported":1745856711,"current_range_meters":14000,"station_id":"st_cvj5dfep6f1abm77gieg","pricing_plan_id":"cebpf4jnsgd1na2vs0mg"},{"bike_id":"b3db187b-3940-4cb6-922e-6211f70ae8d5","system_id":"levelo_inurba_marseille","lat":43.31534,"lon":5.38031,"is_reserved":false,"is_disabled":false,"rental_uris":{"android":"levelo://app?vid=b3db187b-3940-4cb6-922e-6211f70ae8d5","ios":"levelo://app?vid=b3db187b-3940-4cb6-922e-6211f70ae8d5"},"vehicle_type_id":"4","last_reported":1745856711,"current_range_meters":13600,"station_id":"ce4bhsp2rcd13ifvqi50","pricing_plan_id":"cebpf4jnsgd1na2vs0mg"},{"bike_id":"3728a37f-8972-449b-a2ed-9bc63c650332","system_id":"levelo_inurba_marseille","lat":43.28407,"lon":5.375033,"is_reserved":false,"is_disabled":false,"rental_uris":{"android":"levelo://app?vid=3728a37f-8972-449b-a2ed-9bc63c650332","ios":"levelo://app?vid=3728a37f-8972-449b-a2ed-9bc63c650332"},"vehicle_type_id":"4","last_reported":1745856711,"current_range_meters":14000,"station_id":"ce4bh412rcd13ifvqds0","pricing_plan_id":"cebpf4jnsgd1na2vs0mg"},{"bike_id":"6269a9ca-f4f3-4106-8cff-2b7df03796c2","system_id":"levelo_inurba_marseille","lat":43.2319,"lon":5.35543,"is_reserved":false,"is_disabled":false,"rental_uris":{"android":"levelo://app?vid=6269a9ca-f4f3-4106-8cff-2b7df03796c2","ios":"levelo://app?vid=6269a9ca-f4f3-4106-8cff-2b7df03796c2"},"vehicle_type_id":"4","last_reported":1745856711,"current_range_meters":14400,"station_id":"ce4bhu92rcd13ifvqi70","pricing_plan_id":"cebpf4jnsgd1na2vs0mg"},{"bike_id":"134fea8a-5612-48c2-ab1f-b7768c4748d5","system_id":"levelo_inurba_marseille","lat":43.29956,"lon":5.41323,"is_reserved":false,"is_disabled":false,"rental_uris":{"android":"levelo://app?vid=134fea8a-5612-48c2-ab1f-b7768c4748d5","ios":"levelo://app?vid=134fea8a-5612-48c2-ab1f-b7768c4748d5"},"vehicle_type_id":"4","last_reported":1745856711,"current_range_meters":14400,"station_id":"ce4bhp12rcd13ifvqh9g","pricing_plan_id":"cebpf4jnsgd1na2vs0mg"},{"bike_id":"ff49fdaa-0d1c-48a2-aa50-e7e802a7824a","system_id":"levelo_inurba_marseille","lat":43.28273,"lon":5.35067,"is_reserved":false,"is_disabled":false,"rental_uris":{"android":"levelo://app?vid=ff49fdaa-0d1c-48a2-aa50-e7e802a7824a","ios":"levelo://app?vid=ff49fdaa-0d1c-48a2-aa50-e7e802a7824a"},"vehicle_type_id":"4","last_reported":1745856711,"current_range_meters":14400,"station_id":"ce4bhbp2rcd13ifvqerg","pricing_plan_id":"cebpf4jnsgd1na2vs0mg"},{"bike_id":"37447acf-f6ca-4e1f-847e-a6da45ffe312","system_id":"levelo_inurba_marseille","lat":43.2656,"lon":5.37282,"is_reserved":false,"is_disabled":false,"rental_uris":{"android":"levelo://app?vid=37447acf-f6ca-4e1f-847e-a6da45ffe312","ios":"levelo://app?vid=37447acf-f6ca-4e1f-847e-a6da45ffe312"},"vehicle_type_id":"4","last_reported":1745856711,"current_range_meters":14400,"station_id":"ce4bhg12rcd13ifvqf70","pricing_plan_id":"cebpf4jnsgd1na2vs0mg"},{"bike_id":"a273dd95-99e2-4bb8-bee8-19cb9b13f516","system_id":"levelo_inurba_marseille","lat":43.299012,"lon":5.436528,"is_reserved":false,"is_disabled":false,"rental_uris":{"android":"levelo://app?vid=a273dd95-99e2-4bb8-bee8-19cb9b13f516","ios":"levelo://app?vid=a273dd95-99e2-4bb8-bee8-19cb9b13f516"},"vehicle_type_id":"4","last_reported":1745856711,"current_range_meters":14400,"station_id":"ce4bhpp2rcd13ifvqhfg","pricing_plan_id":"cebpf4jnsgd1na2vs0mg"},{"bike_id":"8352d61b-4e99-412d-abfd-2a330a13537d","system_id":"levelo_inurba_marseille","lat":43.282684,"lon":5.350592,"is_reserved":false,"is_disabled":false,"rental_uris":{"android":"levelo://app?vid=8352d61b-4e99-412d-abfd-2a330a13537d","ios":"levelo://app?vid=8352d61b-4e99-412d-abfd-2a330a13537d"},"vehicle_type_id":"4","last_reported":1745856711,"current_range_meters":14400,"station_id":"ce4bhbp2rcd13ifvqerg","pricing_plan_id":"cebpf4jnsgd1na2vs0mg"},{"bike_id":"a958bd06-9a50-497e-aef9-55e910bf12d1","system_id":"levelo_inurba_marseille","lat":43.29939,"lon":5.38106,"is_reserved":false,"is_disabled":true,"rental_uris":{"android":"levelo://app?vid=a958bd06-9a50-497e-aef9-55e910bf12d1","ios":"levelo://app?vid=a958bd06-9a50-497e-aef9-55e910bf12d1"},"vehicle_type_id":"4","last_reported":1745856711,"current_range_meters":14800,"station_id":"ce4bgj12rcd13ifvqbc0","pricing_plan_id":"cebpf4jnsgd1na2vs0mg"},{"bike_id":"3593f28d-04db-497a-b3df-aa756021711b","system_id":"levelo_inurba_marseille","lat":43.27949,"lon":5.41042,"is_reserved":false,"is_disabled":false,"rental_uris":{"android":"levelo://app?vid=3593f28d-04db-497a-b3df-aa756021711b","ios":"levelo://app?vid=3593f28d-04db-497a-b3df-aa756021711b"},"vehicle_type_id":"4","last_reported":1745856711,"current_range_meters":10000,"station_id":"ce4bhnp2rcd13ifvqh0g","pricing_plan_id":"cebpf4jnsgd1na2vs0mg"},{"bike_id":"6b88ae52-4470-4609-9540-2ec7e9358c2c","system_id":"levelo_inurba_marseille","lat":43.23964,"lon":5.36635,"is_reserved":false,"is_disabled":false,"rental_uris":{"android":"levelo://app?vid=6b88ae52-4470-4609-9540-2ec7e9358c2c","ios":"levelo://app?vid=6b88ae52-4470-4609-9540-2ec7e9358c2c"},"vehicle_type_id":"4","last_reported":1745856711,"current_range_meters":14800,"station_id":"ce4bhi12rcd13ifvqfp0","pricing_plan_id":"cebpf4jnsgd1na2vs0mg"},{"bike_id":"b2bd022c-be83-483e-b62c-ac2066e3cf8a","system_id":"levelo_inurba_marseille","lat":43.30643,"lon":5.40083,"is_reserved":false,"is_disabled":false,"rental_uris":{"android":"levelo://app?vid=b2bd022c-be83-483e-b62c-ac2066e3cf8a","ios":"levelo://app?vid=b2bd022c-be83-483e-b62c-ac2066e3cf8a"},"vehicle_type_id":"4","last_reported":1745856711,"current_range_meters":14800,"station_id":"ce4bh112rcd13ifvqda0","pricing_plan_id":"cebpf4jnsgd1na2vs0mg"},{"bike_id":"086ce7d6-9841-443c-8979-1be38c421584","system_id":"levelo_inurba_marseille","lat":43.3136,"lon":5.38493,"is_reserved":false,"is_disabled":false,"rental_uris":{"android":"levelo://app?vid=086ce7d6-9841-443c-8979-1be38c421584","ios":"levelo://app?vid=086ce7d6-9841-443c-8979-1be38c421584"},"vehicle_type_id":"4","last_reported":1745856711,"current_range_meters":14400,"station_id":"ce4bgt92rcd13ifvqcf0","pricing_plan_id":"cebpf4jnsgd1na2vs0mg"},{"bike_id":"233482f6-41f1-4e53-aed7-222a00aa4303","system_id":"levelo_inurba_marseille","lat":43.28565,"lon":5.39502,"is_reserved":false,"is_disabled":false,"rental_uris":{"android":"levelo://app?vid=233482f6-41f1-4e53-aed7-222a00aa4303","ios":"levelo://app?vid=233482f6-41f1-4e53-aed7-222a00aa4303"},"vehicle_type_id":"4","last_reported":1745856711,"current_range_meters":14800,"station_id":"ce4bh292rcd13ifvqdg0","pricing_plan_id":"cebpf4jnsgd1na2vs0mg"},{"bike_id":"7351e819-927b-4a21-b7f1-3b433e3e2b3f","system_id":"levelo_inurba_marseille","lat":43.292664,"lon":5.376363,"is_reserved":false,"is_disabled":false,"rental_uris":{"android":"levelo://app?vid=7351e819-927b-4a21-b7f1-3b433e3e2b3f","ios":"levelo://app?vid=7351e819-927b-4a21-b7f1-3b433e3e2b3f"},"vehicle_type_id":"4","last_reported":1745856711,"current_range_meters":15200,"station_id":"ce4bh512rcd13ifvqe3g","pricing_plan_id":"cebpf4jnsgd1na2vs0mg"},{"bike_id":"b8f1b70b-8b6f-435e-850b-1a2c13d94f43","system_id":"levelo_inurba_marseille","lat":43.29261,"lon":5.40903,"is_reserved":false,"is_disabled":false,"rental_uris":{"android":"levelo://app?vid=b8f1b70b-8b6f-435e-850b-1a2c13d94f43","ios":"levelo://app?vid=b8f1b70b-8b6f-435e-850b-1a2c13d94f43"},"vehicle_type_id":"4","last_reported":1745856711,"current_range_meters":14800,"station_id":"ce4bh192rcd13ifvqdc0","pricing_plan_id":"cebpf4jnsgd1na2vs0mg"},{"bike_id":"045db907-8281-46fc-8ded-f9793ddf3b93","system_id":"levelo_inurba_marseille","lat":43.292654,"lon":5.376211,"is_reserved":false,"is_disabled":false,"rental_uris":{"android":"levelo://app?vid=045db907-8281-46fc-8ded-f9793ddf3b93","ios":"levelo://app?vid=045db907-8281-46fc-8ded-f9793ddf3b93"},"vehicle_type_id":"4","last_reported":1745856711,"current_range_meters":15200,"station_id":"ce4bgi12rcd13ifvqb80","pricing_plan_id":"cebpf4jnsgd1na2vs0mg"},{"bike_id":"98c32cea-19b0-4fe2-85fb-2f66ea85b264","system_id":"levelo_inurba_marseille","lat":43.27201,"lon":5.39181,"is_reserved":false,"is_disabled":false,"rental_uris":{"android":"levelo://app?vid=98c32cea-19b0-4fe2-85fb-2f66ea85b264","ios":"levelo://app?vid=98c32cea-19b0-4fe2-85fb-2f66ea85b264"},"vehicle_type_id":"4","last_reported":1745856711,"current_range_meters":14800,"station_id":"ce4bhhp2rcd13ifvqfm0","pricing_plan_id":"cebpf4jnsgd1na2vs0mg"},{"bike_id":"28894e81-ede6-4351-84e3-e6b48081a345","system_id":"levelo_inurba_marseille","lat":43.33459,"lon":5.40031,"is_reserved":false,"is_disabled":false,"rental_uris":{"android":"levelo://app?vid=28894e81-ede6-4351-84e3-e6b48081a345","ios":"levelo://app?vid=28894e81-ede6-4351-84e3-e6b48081a345"},"vehicle_type_id":"4","last_reported":1745856711,"current_range_meters":16000,"station_id":"","pricing_plan_id":"cebpf4jnsgd1na2vs0mg"},{"bike_id":"64b4a0f6-eb4e-4a58-a49c-c2fdffc72cda","system_id":"levelo_inurba_marseille","lat":43.275656,"lon":5.384336,"is_reserved":false,"is_disabled":true,"rental_uris":{"android":"levelo://app?vid=64b4a0f6-eb4e-4a58-a49c-c2fdffc72cda","ios":"levelo://app?vid=64b4a0f6-eb4e-4a58-a49c-c2fdffc72cda"},"vehicle_type_id":"4","last_reported":1745856711,"current_range_meters":16000,"station_id":"ce4bhh92rcd13ifvqfi0","pricing_plan_id":"cebpf4jnsgd1na2vs0mg"},{"bike_id":"b3d7cca2-7d35-4030-8d40-4a8257616573","system_id":"levelo_inurba_marseille","lat":43.22513,"lon":5.34792,"is_reserved":false,"is_disabled":false,"rental_uris":{"android":"levelo://app?vid=b3d7cca2-7d35-4030-8d40-4a8257616573","ios":"levelo://app?vid=b3d7cca2-7d35-4030-8d40-4a8257616573"},"vehicle_type_id":"4","last_reported":1745856711,"current_range_meters":16000,"station_id":"st_cvj5dfep6f1abm77gieg","pricing_plan_id":"cebpf4jnsgd1na2vs0mg"},{"bike_id":"7b7eacb1-8c5f-4cb8-8e3d-81bacb4d83f4","system_id":"levelo_inurba_marseille","lat":43.255768,"lon":5.382363,"is_reserved":false,"is_disabled":false,"rental_uris":{"android":"levelo://app?vid=7b7eacb1-8c5f-4cb8-8e3d-81bacb4d83f4","ios":"levelo://app?vid=7b7eacb1-8c5f-4cb8-8e3d-81bacb4d83f4"},"vehicle_type_id":"4","last_reported":1745856711,"current_range_meters":16000,"station_id":"ce4bhih2rcd13ifvqfs0","pricing_plan_id":"cebpf4jnsgd1na2vs0mg"},{"bike_id":"563eb423-6237-489a-aaea-ab127ba70850","system_id":"levelo_inurba_marseille","lat":43.28924,"lon":5.38398,"is_reserved":false,"is_disabled":false,"rental_uris":{"android":"levelo://app?vid=563eb423-6237-489a-aaea-ab127ba70850","ios":"levelo://app?vid=563eb423-6237-489a-aaea-ab127ba70850"},"vehicle_type_id":"4","last_reported":1745856711,"current_range_meters":15200,"station_id":"ce4bh612rcd13ifvqe6g","pricing_plan_id":"cebpf4jnsgd1na2vs0mg"},{"bike_id":"46adeb4e-04bd-45eb-99a6-646862efca8e","system_id":"levelo_inurba_marseille","lat":43.32361,"lon":5.38928,"is_reserved":false,"is_disabled":false,"rental_uris":{"android":"levelo://app?vid=46adeb4e-04bd-45eb-99a6-646862efca8e","ios":"levelo://app?vid=46adeb4e-04bd-45eb-99a6-646862efca8e"},"vehicle_type_id":"4","last_reported":1745856711,"current_range_meters":16000,"station_id":"ce4bhqp2rcd13ifvqhog","pricing_plan_id":"cebpf4jnsgd1na2vs0mg"},{"bike_id":"14380528-b010-49aa-b4b1-e02c39ba6baf","system_id":"levelo_inurba_marseille","lat":43.24547,"lon":5.39518,"is_reserved":false,"is_disabled":false,"rental_uris":{"android":"levelo://app?vid=14380528-b010-49aa-b4b1-e02c39ba6baf","ios":"levelo://app?vid=14380528-b010-49aa-b4b1-e02c39ba6baf"},"vehicle_type_id":"4","last_reported":1745856711,"current_range_meters":16000,"station_id":"ce4bhlp2rcd13ifvqgjg","pricing_plan_id":"cebpf4jnsgd1na2vs0mg"},{"bike_id":"a834a79b-269b-4bde-ab24-91531761647f","system_id":"levelo_inurba_marseille","lat":43.29967,"lon":5.41351,"is_reserved":false,"is_disabled":false,"rental_uris":{"android":"levelo://app?vid=a834a79b-269b-4bde-ab24-91531761647f","ios":"levelo://app?vid=a834a79b-269b-4bde-ab24-91531761647f"},"vehicle_type_id":"4","last_reported":1745856711,"current_range_meters":16000,"station_id":"ce4bhp12rcd13ifvqh9g","pricing_plan_id":"cebpf4jnsgd1na2vs0mg"},{"bike_id":"1264c7be-6485-4025-afa3-c1ade9d2a1f0","system_id":"levelo_inurba_marseille","lat":43.27174,"lon":5.40992,"is_reserved":false,"is_disabled":false,"rental_uris":{"android":"levelo://app?vid=1264c7be-6485-4025-afa3-c1ade9d2a1f0","ios":"levelo://app?vid=1264c7be-6485-4025-afa3-c1ade9d2a1f0"},"vehicle_type_id":"4","last_reported":1745856711,"current_range_meters":16400,"station_id":"ce4bhl12rcd13ifvqgf0","pricing_plan_id":"cebpf4jnsgd1na2vs0mg"},{"bike_id":"22bd1dc6-b8bd-49bf-bbc0-d121b38aa753","system_id":"levelo_inurba_marseille","lat":43.28163,"lon":5.42647,"is_reserved":false,"is_disabled":false,"rental_uris":{"android":"levelo://app?vid=22bd1dc6-b8bd-49bf-bbc0-d121b38aa753","ios":"levelo://app?vid=22bd1dc6-b8bd-49bf-bbc0-d121b38aa753"},"vehicle_type_id":"4","last_reported":1745856711,"current_range_meters":16400,"station_id":"ce4bhnh2rcd13ifvqgug","pricing_plan_id":"cebpf4jnsgd1na2vs0mg"},{"bike_id":"e34b3fb6-2264-46b6-bf87-9f925533b604","system_id":"levelo_inurba_marseille","lat":43.289769,"lon":5.366001,"is_reserved":false,"is_disabled":false,"rental_uris":{"android":"levelo://app?vid=e34b3fb6-2264-46b6-bf87-9f925533b604","ios":"levelo://app?vid=e34b3fb6-2264-46b6-bf87-9f925533b604"},"vehicle_type_id":"4","last_reported":1745856711,"current_range_meters":16400,"station_id":"ce4bha92rcd13ifvqeg0","pricing_plan_id":"cebpf4jnsgd1na2vs0mg"},{"bike_id":"0e1a0725-9428-4f3f-a48d-b295f85382b7","system_id":"levelo_inurba_marseille","lat":43.28671,"lon":5.38676,"is_reserved":false,"is_disabled":false,"rental_uris":{"android":"levelo://app?vid=0e1a0725-9428-4f3f-a48d-b295f85382b7","ios":"levelo://app?vid=0e1a0725-9428-4f3f-a48d-b295f85382b7"},"vehicle_type_id":"4","last_reported":1745856711,"current_range_meters":16400,"station_id":"ce4bh492rcd13ifvqdug","pricing_plan_id":"cebpf4jnsgd1na2vs0mg"},{"bike_id":"1c71dd62-5c1a-42e0-8da7-81eceebfb73e","system_id":"levelo_inurba_marseille","lat":43.211886,"lon":5.350769,"is_reserved":false,"is_disabled":false,"rental_uris":{"android":"levelo://app?vid=1c71dd62-5c1a-42e0-8da7-81eceebfb73e","ios":"levelo://app?vid=1c71dd62-5c1a-42e0-8da7-81eceebfb73e"},"vehicle_type_id":"4","last_reported":1745856711,"current_range_meters":16400,"station_id":"st_cvj6sg6p6f1abm77japg","pricing_plan_id":"cebpf4jnsgd1na2vs0mg"},{"bike_id":"d58e03bb-19b9-469a-bcd7-0c3ce91d40b5","system_id":"levelo_inurba_marseille","lat":43.213418,"lon":5.349619,"is_reserved":false,"is_disabled":false,"rental_uris":{"android":"levelo://app?vid=d58e03bb-19b9-469a-bcd7-0c3ce91d40b5","ios":"levelo://app?vid=d58e03bb-19b9-469a-bcd7-0c3ce91d40b5"},"vehicle_type_id":"4","last_reported":1745856711,"current_range_meters":16400,"station_id":"","pricing_plan_id":"cebpf4jnsgd1na2vs0mg"},{"bike_id":"923f8501-7d40-44db-85bf-a51b2ea797ac","system_id":"levelo_inurba_marseille","lat":43.269525,"lon":5.402904,"is_reserved":false,"is_disabled":true,"rental_uris":{"android":"levelo://app?vid=923f8501-7d40-44db-85bf-a51b2ea797ac","ios":"levelo://app?vid=923f8501-7d40-44db-85bf-a51b2ea797ac"},"vehicle_type_id":"4","last_reported":1745856711,"current_range_meters":16400,"station_id":"cjm6bp8fraef2m0cb0m0","pricing_plan_id":"cebpf4jnsgd1na2vs0mg"},{"bike_id":"a640b5aa-9396-4827-8f57-dd7ffd2f1a84","system_id":"levelo_inurba_marseille","lat":43.29798,"lon":5.38174,"is_reserved":false,"is_disabled":true,"rental_uris":{"android":"levelo://app?vid=a640b5aa-9396-4827-8f57-dd7ffd2f1a84","ios":"levelo://app?vid=a640b5aa-9396-4827-8f57-dd7ffd2f1a84"},"vehicle_type_id":"4","last_reported":1745856711,"current_range_meters":16800,"station_id":"ce4bgip2rcd13ifvqbb0","pricing_plan_id":"cebpf4jnsgd1na2vs0mg"},{"bike_id":"5d12ee4a-52f1-4f1a-af38-ad7a19a5a489","system_id":"levelo_inurba_marseille","lat":43.305447,"lon":5.36521,"is_reserved":false,"is_disabled":true,"rental_uris":{"android":"levelo://app?vid=5d12ee4a-52f1-4f1a-af38-ad7a19a5a489","ios":"levelo://app?vid=5d12ee4a-52f1-4f1a-af38-ad7a19a5a489"},"vehicle_type_id":"4","last_reported":1745856711,"current_range_meters":16800,"station_id":"ce4bgs12rcd13ifvqcag","pricing_plan_id":"cebpf4jnsgd1na2vs0mg"},{"bike_id":"dfebd44c-c46a-4b25-b482-ce75bbeabdbd","system_id":"levelo_inurba_marseille","lat":43.23192,"lon":5.39974,"is_reserved":false,"is_disabled":false,"rental_uris":{"android":"levelo://app?vid=dfebd44c-c46a-4b25-b482-ce75bbeabdbd","ios":"levelo://app?vid=dfebd44c-c46a-4b25-b482-ce75bbeabdbd"},"vehicle_type_id":"4","last_reported":1745856711,"current_range_meters":16800,"station_id":"ce4bhn12rcd13ifvqgqg","pricing_plan_id":"cebpf4jnsgd1na2vs0mg"},{"bike_id":"98cfe6c1-6229-4c71-8048-dc92caf96c57","system_id":"levelo_inurba_marseille","lat":43.28862,"lon":5.35841,"is_reserved":false,"is_disabled":false,"rental_uris":{"android":"levelo://app?vid=98cfe6c1-6229-4c71-8048-dc92caf96c57","ios":"levelo://app?vid=98cfe6c1-6229-4c71-8048-dc92caf96c57"},"vehicle_type_id":"4","last_reported":1745856711,"current_range_meters":16800,"station_id":"ce4bhb12rcd13ifvqem0","pricing_plan_id":"cebpf4jnsgd1na2vs0mg"},{"bike_id":"14df7e60-dc78-459e-9c20-e882617bd539","system_id":"levelo_inurba_marseille","lat":43.28449,"lon":5.35897,"is_reserved":false,"is_disabled":false,"rental_uris":{"android":"levelo://app?vid=14df7e60-dc78-459e-9c20-e882617bd539","ios":"levelo://app?vid=14df7e60-dc78-459e-9c20-e882617bd539"},"vehicle_type_id":"4","last_reported":1745856711,"current_range_meters":16400,"station_id":"ce4bhah2rcd13ifvqei0","pricing_plan_id":"cebpf4jnsgd1na2vs0mg"},{"bike_id":"0e3ae45b-89dd-4aad-973a-0083e04fb265","system_id":"levelo_inurba_marseille","lat":43.30331,"lon":5.40442,"is_reserved":false,"is_disabled":false,"rental_uris":{"android":"levelo://app?vid=0e3ae45b-89dd-4aad-973a-0083e04fb265","ios":"levelo://app?vid=0e3ae45b-89dd-4aad-973a-0083e04fb265"},"vehicle_type_id":"4","last_reported":1745856711,"current_range_meters":17200,"station_id":"ce4bh012rcd13ifvqd10","pricing_plan_id":"cebpf4jnsgd1na2vs0mg"},{"bike_id":"08a42a27-5b85-4a2e-bc7c-1d788cb6a05e","system_id":"levelo_inurba_marseille","lat":43.30129,"lon":5.39858,"is_reserved":false,"is_disabled":false,"rental_uris":{"android":"levelo://app?vid=08a42a27-5b85-4a2e-bc7c-1d788cb6a05e","ios":"levelo://app?vid=08a42a27-5b85-4a2e-bc7c-1d788cb6a05e"},"vehicle_type_id":"4","last_reported":1745856711,"current_range_meters":17200,"station_id":"ce4bh0h2rcd13ifvqd40","pricing_plan_id":"cebpf4jnsgd1na2vs0mg"},{"bike_id":"888538ce-4dc3-4f2e-8404-8ea4d633e1aa","system_id":"levelo_inurba_marseille","lat":43.26185,"lon":5.37437,"is_reserved":false,"is_disabled":true,"rental_uris":{"android":"levelo://app?vid=888538ce-4dc3-4f2e-8404-8ea4d633e1aa","ios":"levelo://app?vid=888538ce-4dc3-4f2e-8404-8ea4d633e1aa"},"vehicle_type_id":"4","last_reported":1745856711,"current_range_meters":17200,"station_id":"ce4bhgp2rcd13ifvqfc0","pricing_plan_id":"cebpf4jnsgd1na2vs0mg"},{"bike_id":"489415b8-9254-45c1-b00c-e7554d56755c","system_id":"levelo_inurba_marseille","lat":43.245224,"lon":5.412153,"is_reserved":false,"is_disabled":false,"rental_uris":{"android":"levelo://app?vid=489415b8-9254-45c1-b00c-e7554d56755c","ios":"levelo://app?vid=489415b8-9254-45c1-b00c-e7554d56755c"},"vehicle_type_id":"4","last_reported":1745856711,"current_range_meters":17600,"station_id":"","pricing_plan_id":"cebpf4jnsgd1na2vs0mg"},{"bike_id":"7ddcde9b-9e2b-43e4-b59e-e469d6ba6c73","system_id":"levelo_inurba_marseille","lat":43.30127,"lon":5.39189,"is_reserved":false,"is_disabled":false,"rental_uris":{"android":"levelo://app?vid=7ddcde9b-9e2b-43e4-b59e-e469d6ba6c73","ios":"levelo://app?vid=7ddcde9b-9e2b-43e4-b59e-e469d6ba6c73"},"vehicle_type_id":"4","last_reported":1745856711,"current_range_meters":17600,"station_id":"","pricing_plan_id":"cebpf4jnsgd1na2vs0mg"},{"bike_id":"90ec756e-7d75-44ae-9837-bcc6f8c453df","system_id":"levelo_inurba_marseille","lat":43.231903,"lon":5.355505,"is_reserved":false,"is_disabled":false,"rental_uris":{"android":"levelo://app?vid=90ec756e-7d75-44ae-9837-bcc6f8c453df","ios":"levelo://app?vid=90ec756e-7d75-44ae-9837-bcc6f8c453df"},"vehicle_type_id":"4","last_reported":1745856711,"current_range_meters":17600,"station_id":"ce4bhu92rcd13ifvqi70","pricing_plan_id":"cebpf4jnsgd1na2vs0mg"},{"bike_id":"231b23d3-eea6-4473-a3f9-9419ed06945d","system_id":"levelo_inurba_marseille","lat":43.29877,"lon":5.39731,"is_reserved":false,"is_disabled":false,"rental_uris":{"android":"levelo://app?vid=231b23d3-eea6-4473-a3f9-9419ed06945d","ios":"levelo://app?vid=231b23d3-eea6-4473-a3f9-9419ed06945d"},"vehicle_type_id":"4","last_reported":1745856711,"current_range_meters":17600,"station_id":"ce4bh0h2rcd13ifvqd50","pricing_plan_id":"cebpf4jnsgd1na2vs0mg"},{"bike_id":"e2ac210c-743b-43fa-a7d7-258cb180aaab","system_id":"levelo_inurba_marseille","lat":43.28414,"lon":5.3498,"is_reserved":false,"is_disabled":false,"rental_uris":{"android":"levelo://app?vid=e2ac210c-743b-43fa-a7d7-258cb180aaab","ios":"levelo://app?vid=e2ac210c-743b-43fa-a7d7-258cb180aaab"},"vehicle_type_id":"4","last_reported":1745856711,"current_range_meters":17600,"station_id":"ce4bhbh2rcd13ifvqepg","pricing_plan_id":"cebpf4jnsgd1na2vs0mg"},{"bike_id":"70fbc956-14ce-4f94-8c06-1dcde704840a","system_id":"levelo_inurba_marseille","lat":43.2767,"lon":5.38895,"is_reserved":false,"is_disabled":true,"rental_uris":{"android":"levelo://app?vid=70fbc956-14ce-4f94-8c06-1dcde704840a","ios":"levelo://app?vid=70fbc956-14ce-4f94-8c06-1dcde704840a"},"vehicle_type_id":"4","last_reported":1745856711,"current_range_meters":18000,"station_id":"ce4bhi12rcd13ifvqfo0","pricing_plan_id":"cebpf4jnsgd1na2vs0mg"},{"bike_id":"a11c6a7e-6094-4c2b-b6ee-c729502574db","system_id":"levelo_inurba_marseille","lat":43.29788,"lon":5.39358,"is_reserved":false,"is_disabled":false,"rental_uris":{"android":"levelo://app?vid=a11c6a7e-6094-4c2b-b6ee-c729502574db","ios":"levelo://app?vid=a11c6a7e-6094-4c2b-b6ee-c729502574db"},"vehicle_type_id":"4","last_reported":1745856711,"current_range_meters":18000,"station_id":"chh1huq6cuj3fo74tm60","pricing_plan_id":"cebpf4jnsgd1na2vs0mg"},{"bike_id":"650dcb8f-75bc-4a7f-ae1d-86f1c306b075","system_id":"levelo_inurba_marseille","lat":43.25497,"lon":5.37651,"is_reserved":false,"is_disabled":false,"rental_uris":{"android":"levelo://app?vid=650dcb8f-75bc-4a7f-ae1d-86f1c306b075","ios":"levelo://app?vid=650dcb8f-75bc-4a7f-ae1d-86f1c306b075"},"vehicle_type_id":"4","last_reported":1745856711,"current_range_meters":17600,"station_id":"ce4bhh12rcd13ifvqff0","pricing_plan_id":"cebpf4jnsgd1na2vs0mg"},{"bike_id":"7a606858-c276-4eeb-b2b1-6db27b5668c7","system_id":"levelo_inurba_marseille","lat":43.29277,"lon":5.3762,"is_reserved":false,"is_disabled":false,"rental_uris":{"android":"levelo://app?vid=7a606858-c276-4eeb-b2b1-6db27b5668c7","ios":"levelo://app?vid=7a606858-c276-4eeb-b2b1-6db27b5668c7"},"vehicle_type_id":"4","last_reported":1745856711,"current_range_meters":18800,"station_id":"ce4bgi12rcd13ifvqb80","pricing_plan_id":"cebpf4jnsgd1na2vs0mg"},{"bike_id":"62ea5d5b-ee6f-42b7-9cd0-c945fcac7364","system_id":"levelo_inurba_marseille","lat":43.30806,"lon":5.43519,"is_reserved":false,"is_disabled":false,"rental_uris":{"android":"levelo://app?vid=62ea5d5b-ee6f-42b7-9cd0-c945fcac7364","ios":"levelo://app?vid=62ea5d5b-ee6f-42b7-9cd0-c945fcac7364"},"vehicle_type_id":"4","last_reported":1745856711,"current_range_meters":18800,"station_id":"ce4bhph2rcd13ifvqheg","pricing_plan_id":"cebpf4jnsgd1na2vs0mg"},{"bike_id":"2cb8f1ba-6073-4a9c-99f2-ef6caacf8519","system_id":"levelo_inurba_marseille","lat":43.29726,"lon":5.37678,"is_reserved":false,"is_disabled":false,"rental_uris":{"android":"levelo://app?vid=2cb8f1ba-6073-4a9c-99f2-ef6caacf8519","ios":"levelo://app?vid=2cb8f1ba-6073-4a9c-99f2-ef6caacf8519"},"vehicle_type_id":"4","last_reported":1745856711,"current_range_meters":18800,"station_id":"ce4bgkh2rcd13ifvqbl0","pricing_plan_id":"cebpf4jnsgd1na2vs0mg"},{"bike_id":"8fb95e01-e462-4b19-acba-b4f6343c5f5c","system_id":"levelo_inurba_marseille","lat":43.2621,"lon":5.37441,"is_reserved":false,"is_disabled":false,"rental_uris":{"android":"levelo://app?vid=8fb95e01-e462-4b19-acba-b4f6343c5f5c","ios":"levelo://app?vid=8fb95e01-e462-4b19-acba-b4f6343c5f5c"},"vehicle_type_id":"4","last_reported":1745856711,"current_range_meters":18800,"station_id":"","pricing_plan_id":"cebpf4jnsgd1na2vs0mg"},{"bike_id":"bbef3ee8-b4a5-4861-8cdd-05dc1405a12e","system_id":"levelo_inurba_marseille","lat":43.29012,"lon":5.3561,"is_reserved":false,"is_disabled":false,"rental_uris":{"android":"levelo://app?vid=bbef3ee8-b4a5-4861-8cdd-05dc1405a12e","ios":"levelo://app?vid=bbef3ee8-b4a5-4861-8cdd-05dc1405a12e"},"vehicle_type_id":"4","last_reported":1745856711,"current_range_meters":18800,"station_id":"ce4bhb92rcd13ifvqen0","pricing_plan_id":"cebpf4jnsgd1na2vs0mg"},{"bike_id":"29430062-1c6e-446d-bd61-da91e10fcb49","system_id":"levelo_inurba_marseille","lat":43.28363,"lon":5.38654,"is_reserved":false,"is_disabled":false,"rental_uris":{"android":"levelo://app?vid=29430062-1c6e-446d-bd61-da91e10fcb49","ios":"levelo://app?vid=29430062-1c6e-446d-bd61-da91e10fcb49"},"vehicle_type_id":"4","last_reported":1745856711,"current_range_meters":18800,"station_id":"ce4bh492rcd13ifvqdvg","pricing_plan_id":"cebpf4jnsgd1na2vs0mg"},{"bike_id":"a990f424-b727-4c59-a50a-2df309014924","system_id":"levelo_inurba_marseille","lat":43.32114,"lon":5.36808,"is_reserved":false,"is_disabled":false,"rental_uris":{"android":"levelo://app?vid=a990f424-b727-4c59-a50a-2df309014924","ios":"levelo://app?vid=a990f424-b727-4c59-a50a-2df309014924"},"vehicle_type_id":"4","last_reported":1745856711,"current_range_meters":18800,"station_id":"ce4bhrh2rcd13ifvqhug","pricing_plan_id":"cebpf4jnsgd1na2vs0mg"},{"bike_id":"85b79439-61a5-4d47-8351-89505e30304c","system_id":"levelo_inurba_marseille","lat":43.31165,"lon":5.38733,"is_reserved":false,"is_disabled":false,"rental_uris":{"android":"levelo://app?vid=85b79439-61a5-4d47-8351-89505e30304c","ios":"levelo://app?vid=85b79439-61a5-4d47-8351-89505e30304c"},"vehicle_type_id":"4","last_reported":1745856711,"current_range_meters":18000,"station_id":"ce4bgv12rcd13ifvqcp0","pricing_plan_id":"cebpf4jnsgd1na2vs0mg"},{"bike_id":"ab566342-f92c-435a-a238-04939b89345b","system_id":"levelo_inurba_marseille","lat":43.296,"lon":5.38122,"is_reserved":false,"is_disabled":true,"rental_uris":{"android":"levelo://app?vid=ab566342-f92c-435a-a238-04939b89345b","ios":"levelo://app?vid=ab566342-f92c-435a-a238-04939b89345b"},"vehicle_type_id":"4","last_reported":1745856711,"current_range_meters":18800,"station_id":"ce4bgl12rcd13ifvqbo0","pricing_plan_id":"cebpf4jnsgd1na2vs0mg"},{"bike_id":"4f793177-3c41-4f88-96d3-b9a7ceb41fe6","system_id":"levelo_inurba_marseille","lat":43.32365,"lon":5.3888,"is_reserved":false,"is_disabled":false,"rental_uris":{"android":"levelo://app?vid=4f793177-3c41-4f88-96d3-b9a7ceb41fe6","ios":"levelo://app?vid=4f793177-3c41-4f88-96d3-b9a7ceb41fe6"},"vehicle_type_id":"4","last_reported":1745856711,"current_range_meters":18800,"station_id":"ce4bhqp2rcd13ifvqhog","pricing_plan_id":"cebpf4jnsgd1na2vs0mg"},{"bike_id":"685b0f18-3cb9-4510-95d0-929d383ab9df","system_id":"levelo_inurba_marseille","lat":43.27565,"lon":5.38419,"is_reserved":false,"is_disabled":false,"rental_uris":{"android":"levelo://app?vid=685b0f18-3cb9-4510-95d0-929d383ab9df","ios":"levelo://app?vid=685b0f18-3cb9-4510-95d0-929d383ab9df"},"vehicle_type_id":"4","last_reported":1745856711,"current_range_meters":19200,"station_id":"ce4bhh92rcd13ifvqfi0","pricing_plan_id":"cebpf4jnsgd1na2vs0mg"},{"bike_id":"615f3168-6d12-42f6-a6eb-548e9303bcaf","system_id":"levelo_inurba_marseille","lat":43.26572,"lon":5.37249,"is_reserved":false,"is_disabled":false,"rental_uris":{"android":"levelo://app?vid=615f3168-6d12-42f6-a6eb-548e9303bcaf","ios":"levelo://app?vid=615f3168-6d12-42f6-a6eb-548e9303bcaf"},"vehicle_type_id":"4","last_reported":1745856711,"current_range_meters":19200,"station_id":"ce4bhg12rcd13ifvqf70","pricing_plan_id":"cebpf4jnsgd1na2vs0mg"},{"bike_id":"fd99d427-8743-4d6b-9c85-4b242fe91742","system_id":"levelo_inurba_marseille","lat":43.27922,"lon":5.39575,"is_reserved":false,"is_disabled":false,"rental_uris":{"android":"levelo://app?vid=fd99d427-8743-4d6b-9c85-4b242fe91742","ios":"levelo://app?vid=fd99d427-8743-4d6b-9c85-4b242fe91742"},"vehicle_type_id":"4","last_reported":1745856711,"current_range_meters":19600,"station_id":"ce4bhf92rcd13ifvqf40","pricing_plan_id":"cebpf4jnsgd1na2vs0mg"},{"bike_id":"fe91386c-5c8b-4e97-8441-1312e6455598","system_id":"levelo_inurba_marseille","lat":43.27378,"lon":5.36214,"is_reserved":false,"is_disabled":false,"rental_uris":{"android":"levelo://app?vid=fe91386c-5c8b-4e97-8441-1312e6455598","ios":"levelo://app?vid=fe91386c-5c8b-4e97-8441-1312e6455598"},"vehicle_type_id":"4","last_reported":1745856711,"current_range_meters":19600,"station_id":"ce4bhbh2rcd13ifvqeo0","pricing_plan_id":"cebpf4jnsgd1na2vs0mg"},{"bike_id":"d5bcaa38-e142-4c16-be8f-f84303a7c28a","system_id":"levelo_inurba_marseille","lat":43.27995,"lon":5.41662,"is_reserved":false,"is_disabled":true,"rental_uris":{"android":"levelo://app?vid=d5bcaa38-e142-4c16-be8f-f84303a7c28a","ios":"levelo://app?vid=d5bcaa38-e142-4c16-be8f-f84303a7c28a"},"vehicle_type_id":"4","last_reported":1745856711,"current_range_meters":19600,"station_id":"ce4bho12rcd13ifvqh1g","pricing_plan_id":"cebpf4jnsgd1na2vs0mg"},{"bike_id":"a92aeaf2-6689-48f7-b18e-2cacb03b546b","system_id":"levelo_inurba_marseille","lat":43.28157,"lon":5.42645,"is_reserved":false,"is_disabled":false,"rental_uris":{"android":"levelo://app?vid=a92aeaf2-6689-48f7-b18e-2cacb03b546b","ios":"levelo://app?vid=a92aeaf2-6689-48f7-b18e-2cacb03b546b"},"vehicle_type_id":"4","last_reported":1745856711,"current_range_meters":19600,"station_id":"ce4bhnh2rcd13ifvqgug","pricing_plan_id":"cebpf4jnsgd1na2vs0mg"},{"bike_id":"2136d2db-bdfc-4d21-a179-88e0949255e6","system_id":"levelo_inurba_marseille","lat":43.31164,"lon":5.38725,"is_reserved":false,"is_disabled":false,"rental_uris":{"android":"levelo://app?vid=2136d2db-bdfc-4d21-a179-88e0949255e6","ios":"levelo://app?vid=2136d2db-bdfc-4d21-a179-88e0949255e6"},"vehicle_type_id":"4","last_reported":1745856711,"current_range_meters":19200,"station_id":"ce4bgv12rcd13ifvqcp0","pricing_plan_id":"cebpf4jnsgd1na2vs0mg"},{"bike_id":"2af89938-e190-418d-9d67-74306b534948","system_id":"levelo_inurba_marseille","lat":43.28723,"lon":5.399893,"is_reserved":false,"is_disabled":false,"rental_uris":{"android":"levelo://app?vid=2af89938-e190-418d-9d67-74306b534948","ios":"levelo://app?vid=2af89938-e190-418d-9d67-74306b534948"},"vehicle_type_id":"4","last_reported":1745856711,"current_range_meters":19600,"station_id":"ce4bho92rcd13ifvqh3g","pricing_plan_id":"cebpf4jnsgd1na2vs0mg"},{"bike_id":"55fad8e2-9951-430f-bf4f-ab2adefa54e5","system_id":"levelo_inurba_marseille","lat":43.31715,"lon":5.43708,"is_reserved":false,"is_disabled":false,"rental_uris":{"android":"levelo://app?vid=55fad8e2-9951-430f-bf4f-ab2adefa54e5","ios":"levelo://app?vid=55fad8e2-9951-430f-bf4f-ab2adefa54e5"},"vehicle_type_id":"4","last_reported":1745856711,"current_range_meters":20000,"station_id":"ce4bhp92rcd13ifvqhcg","pricing_plan_id":"cebpf4jnsgd1na2vs0mg"},{"bike_id":"fe3a8976-898b-4c21-84e1-668ae2a9d434","system_id":"levelo_inurba_marseille","lat":43.254822,"lon":5.376387,"is_reserved":false,"is_disabled":false,"rental_uris":{"android":"levelo://app?vid=fe3a8976-898b-4c21-84e1-668ae2a9d434","ios":"levelo://app?vid=fe3a8976-898b-4c21-84e1-668ae2a9d434"},"vehicle_type_id":"4","last_reported":1745856711,"current_range_meters":20000,"station_id":"ce4bhh12rcd13ifvqff0","pricing_plan_id":"cebpf4jnsgd1na2vs0mg"},{"bike_id":"18e3d1e7-4f8b-4325-90b2-938ab5df05da","system_id":"levelo_inurba_marseille","lat":43.2862,"lon":5.35113,"is_reserved":false,"is_disabled":false,"rental_uris":{"android":"levelo://app?vid=18e3d1e7-4f8b-4325-90b2-938ab5df05da","ios":"levelo://app?vid=18e3d1e7-4f8b-4325-90b2-938ab5df05da"},"vehicle_type_id":"4","last_reported":1745856711,"current_range_meters":20000,"station_id":"ce4bhch2rcd13ifvqeug","pricing_plan_id":"cebpf4jnsgd1na2vs0mg"},{"bike_id":"75d54230-82cf-4d79-9532-a06b8694e005","system_id":"levelo_inurba_marseille","lat":43.30325,"lon":5.40442,"is_reserved":false,"is_disabled":false,"rental_uris":{"android":"levelo://app?vid=75d54230-82cf-4d79-9532-a06b8694e005","ios":"levelo://app?vid=75d54230-82cf-4d79-9532-a06b8694e005"},"vehicle_type_id":"4","last_reported":1745856711,"current_range_meters":20000,"station_id":"ce4bh012rcd13ifvqd10","pricing_plan_id":"cebpf4jnsgd1na2vs0mg"},{"bike_id":"29bc322a-47a6-4671-b2f7-84c5acf10ae5","system_id":"levelo_inurba_marseille","lat":43.29527,"lon":5.39051,"is_reserved":false,"is_disabled":false,"rental_uris":{"android":"levelo://app?vid=29bc322a-47a6-4671-b2f7-84c5acf10ae5","ios":"levelo://app?vid=29bc322a-47a6-4671-b2f7-84c5acf10ae5"},"vehicle_type_id":"4","last_reported":1745856711,"current_range_meters":20400,"station_id":"ce4bh3p2rcd13ifvqdp0","pricing_plan_id":"cebpf4jnsgd1na2vs0mg"},{"bike_id":"75c83007-508c-4c96-85b1-d1a220921148","system_id":"levelo_inurba_marseille","lat":43.243579,"lon":5.367712,"is_reserved":false,"is_disabled":false,"rental_uris":{"android":"levelo://app?vid=75c83007-508c-4c96-85b1-d1a220921148","ios":"levelo://app?vid=75c83007-508c-4c96-85b1-d1a220921148"},"vehicle_type_id":"4","last_reported":1745856711,"current_range_meters":20000,"station_id":"ce4bhi12rcd13ifvqfp0","pricing_plan_id":"cebpf4jnsgd1na2vs0mg"},{"bike_id":"08b757a6-b143-48f7-a512-142fa6831176","system_id":"levelo_inurba_marseille","lat":43.30953,"lon":5.39028,"is_reserved":false,"is_disabled":false,"rental_uris":{"android":"levelo://app?vid=08b757a6-b143-48f7-a512-142fa6831176","ios":"levelo://app?vid=08b757a6-b143-48f7-a512-142fa6831176"},"vehicle_type_id":"4","last_reported":1745856711,"current_range_meters":20400,"station_id":"ce4bgup2rcd13ifvqco0","pricing_plan_id":"cebpf4jnsgd1na2vs0mg"},{"bike_id":"f660acd7-11cb-4e17-9cf9-6202aeddf4f2","system_id":"levelo_inurba_marseille","lat":43.29877,"lon":5.39736,"is_reserved":false,"is_disabled":false,"rental_uris":{"android":"levelo://app?vid=f660acd7-11cb-4e17-9cf9-6202aeddf4f2","ios":"levelo://app?vid=f660acd7-11cb-4e17-9cf9-6202aeddf4f2"},"vehicle_type_id":"4","last_reported":1745856711,"current_range_meters":20400,"station_id":"ce4bh0h2rcd13ifvqd50","pricing_plan_id":"cebpf4jnsgd1na2vs0mg"},{"bike_id":"9048a988-1cb8-4aa3-ab23-aeb571c1efe3","system_id":"levelo_inurba_marseille","lat":43.24163,"lon":5.36431,"is_reserved":false,"is_disabled":false,"rental_uris":{"android":"levelo://app?vid=9048a988-1cb8-4aa3-ab23-aeb571c1efe3","ios":"levelo://app?vid=9048a988-1cb8-4aa3-ab23-aeb571c1efe3"},"vehicle_type_id":"4","last_reported":1745856711,"current_range_meters":20400,"station_id":"cpo36qri1sfpv3e86is0","pricing_plan_id":"cebpf4jnsgd1na2vs0mg"},{"bike_id":"b2f398a7-ded2-4cb2-afbe-abb8fa079de9","system_id":"levelo_inurba_marseille","lat":43.2738,"lon":5.36259,"is_reserved":false,"is_disabled":false,"rental_uris":{"android":"levelo://app?vid=b2f398a7-ded2-4cb2-afbe-abb8fa079de9","ios":"levelo://app?vid=b2f398a7-ded2-4cb2-afbe-abb8fa079de9"},"vehicle_type_id":"4","last_reported":1745856711,"current_range_meters":20800,"station_id":"ce4bhbh2rcd13ifvqeo0","pricing_plan_id":"cebpf4jnsgd1na2vs0mg"},{"bike_id":"a999f3a7-da45-4863-afc4-6974c39f41c4","system_id":"levelo_inurba_marseille","lat":43.28924,"lon":5.38402,"is_reserved":false,"is_disabled":false,"rental_uris":{"android":"levelo://app?vid=a999f3a7-da45-4863-afc4-6974c39f41c4","ios":"levelo://app?vid=a999f3a7-da45-4863-afc4-6974c39f41c4"},"vehicle_type_id":"4","last_reported":1745856711,"current_range_meters":20400,"station_id":"ce4bh612rcd13ifvqe6g","pricing_plan_id":"cebpf4jnsgd1na2vs0mg"},{"bike_id":"49319f09-4be3-409b-89ac-955d622a7137","system_id":"levelo_inurba_marseille","lat":43.26951,"lon":5.38627,"is_reserved":false,"is_disabled":false,"rental_uris":{"android":"levelo://app?vid=49319f09-4be3-409b-89ac-955d622a7137","ios":"levelo://app?vid=49319f09-4be3-409b-89ac-955d622a7137"},"vehicle_type_id":"4","last_reported":1745856711,"current_range_meters":20800,"station_id":"ce4bhh92rcd13ifvqfh0","pricing_plan_id":"cebpf4jnsgd1na2vs0mg"},{"bike_id":"6cbe165e-536d-4fa7-a46c-c175b78a555b","system_id":"levelo_inurba_marseille","lat":43.30245,"lon":5.40064,"is_reserved":false,"is_disabled":false,"rental_uris":{"android":"levelo://app?vid=6cbe165e-536d-4fa7-a46c-c175b78a555b","ios":"levelo://app?vid=6cbe165e-536d-4fa7-a46c-c175b78a555b"},"vehicle_type_id":"4","last_reported":1745856711,"current_range_meters":20800,"station_id":"ce4bgvh2rcd13ifvqcs0","pricing_plan_id":"cebpf4jnsgd1na2vs0mg"},{"bike_id":"d89d36bb-4be8-4b2e-9257-7ee484552c35","system_id":"levelo_inurba_marseille","lat":43.31191,"lon":5.39608,"is_reserved":false,"is_disabled":false,"rental_uris":{"android":"levelo://app?vid=d89d36bb-4be8-4b2e-9257-7ee484552c35","ios":"levelo://app?vid=d89d36bb-4be8-4b2e-9257-7ee484552c35"},"vehicle_type_id":"4","last_reported":1745856711,"current_range_meters":20800,"station_id":"ce4bgvp2rcd13ifvqcu0","pricing_plan_id":"cebpf4jnsgd1na2vs0mg"},{"bike_id":"50b5da2f-3a79-425d-9a03-6248036b4ea9","system_id":"levelo_inurba_marseille","lat":43.250965,"lon":5.3955,"is_reserved":false,"is_disabled":false,"rental_uris":{"android":"levelo://app?vid=50b5da2f-3a79-425d-9a03-6248036b4ea9","ios":"levelo://app?vid=50b5da2f-3a79-425d-9a03-6248036b4ea9"},"vehicle_type_id":"4","last_reported":1745856711,"current_range_meters":20800,"station_id":"ce4bhm12rcd13ifvqgkg","pricing_plan_id":"cebpf4jnsgd1na2vs0mg"},{"bike_id":"61144dfe-675f-4e9a-9e34-e211c9859fc4","system_id":"levelo_inurba_marseille","lat":43.250926,"lon":5.395147,"is_reserved":false,"is_disabled":false,"rental_uris":{"android":"levelo://app?vid=61144dfe-675f-4e9a-9e34-e211c9859fc4","ios":"levelo://app?vid=61144dfe-675f-4e9a-9e34-e211c9859fc4"},"vehicle_type_id":"4","last_reported":1745856711,"current_range_meters":20800,"station_id":"ce4bhm12rcd13ifvqgkg","pricing_plan_id":"cebpf4jnsgd1na2vs0mg"},{"bike_id":"59a2bab4-a1c3-439c-80de-0686114596c8","system_id":"levelo_inurba_marseille","lat":43.29524,"lon":5.39021,"is_reserved":false,"is_disabled":false,"rental_uris":{"android":"levelo://app?vid=59a2bab4-a1c3-439c-80de-0686114596c8","ios":"levelo://app?vid=59a2bab4-a1c3-439c-80de-0686114596c8"},"vehicle_type_id":"4","last_reported":1745856711,"current_range_meters":21600,"station_id":"ce4bh3p2rcd13ifvqdp0","pricing_plan_id":"cebpf4jnsgd1na2vs0mg"},{"bike_id":"c8cb842d-6f92-4f9a-a60c-c8c6a8ae91e0","system_id":"levelo_inurba_marseille","lat":43.33121,"lon":5.38632,"is_reserved":false,"is_disabled":false,"rental_uris":{"android":"levelo://app?vid=c8cb842d-6f92-4f9a-a60c-c8c6a8ae91e0","ios":"levelo://app?vid=c8cb842d-6f92-4f9a-a60c-c8c6a8ae91e0"},"vehicle_type_id":"4","last_reported":1745856711,"current_range_meters":21600,"station_id":"","pricing_plan_id":"cebpf4jnsgd1na2vs0mg"},{"bike_id":"df476133-e3d3-4c98-b741-4232e0912c77","system_id":"levelo_inurba_marseille","lat":43.29875,"lon":5.39744,"is_reserved":false,"is_disabled":false,"rental_uris":{"android":"levelo://app?vid=df476133-e3d3-4c98-b741-4232e0912c77","ios":"levelo://app?vid=df476133-e3d3-4c98-b741-4232e0912c77"},"vehicle_type_id":"4","last_reported":1745856711,"current_range_meters":20800,"station_id":"ce4bh0h2rcd13ifvqd50","pricing_plan_id":"cebpf4jnsgd1na2vs0mg"},{"bike_id":"0bb6f31a-b0f3-4064-8919-5aefca0bbb99","system_id":"levelo_inurba_marseille","lat":43.29081,"lon":5.3718,"is_reserved":false,"is_disabled":false,"rental_uris":{"android":"levelo://app?vid=0bb6f31a-b0f3-4064-8919-5aefca0bbb99","ios":"levelo://app?vid=0bb6f31a-b0f3-4064-8919-5aefca0bbb99"},"vehicle_type_id":"4","last_reported":1745856711,"current_range_meters":21600,"station_id":"ce4bh5p2rcd13ifvqe4g","pricing_plan_id":"cebpf4jnsgd1na2vs0mg"},{"bike_id":"ed367d88-1f3e-465b-b9e5-d32948076439","system_id":"levelo_inurba_marseille","lat":43.29424,"lon":5.38643,"is_reserved":false,"is_disabled":false,"rental_uris":{"android":"levelo://app?vid=ed367d88-1f3e-465b-b9e5-d32948076439","ios":"levelo://app?vid=ed367d88-1f3e-465b-b9e5-d32948076439"},"vehicle_type_id":"4","last_reported":1745856711,"current_range_meters":21600,"station_id":"ce4bh2h2rcd13ifvqdh0","pricing_plan_id":"cebpf4jnsgd1na2vs0mg"},{"bike_id":"8cbfa04d-5e8b-4221-8c22-b3e2e0301f60","system_id":"levelo_inurba_marseille","lat":43.2857,"lon":5.39505,"is_reserved":false,"is_disabled":false,"rental_uris":{"android":"levelo://app?vid=8cbfa04d-5e8b-4221-8c22-b3e2e0301f60","ios":"levelo://app?vid=8cbfa04d-5e8b-4221-8c22-b3e2e0301f60"},"vehicle_type_id":"4","last_reported":1745856711,"current_range_meters":21600,"station_id":"ce4bh292rcd13ifvqdg0","pricing_plan_id":"cebpf4jnsgd1na2vs0mg"},{"bike_id":"7737b9fe-3249-467f-80a2-21669e611a2e","system_id":"levelo_inurba_marseille","lat":43.26946,"lon":5.40233,"is_reserved":false,"is_disabled":false,"rental_uris":{"android":"levelo://app?vid=7737b9fe-3249-467f-80a2-21669e611a2e","ios":"levelo://app?vid=7737b9fe-3249-467f-80a2-21669e611a2e"},"vehicle_type_id":"4","last_reported":1745856711,"current_range_meters":21600,"station_id":"cjm6bp8fraef2m0cb0m0","pricing_plan_id":"cebpf4jnsgd1na2vs0mg"},{"bike_id":"f3040ce3-a5b5-4f90-aa27-7461aaf99bd6","system_id":"levelo_inurba_marseille","lat":43.28722,"lon":5.36088,"is_reserved":false,"is_disabled":false,"rental_uris":{"android":"levelo://app?vid=f3040ce3-a5b5-4f90-aa27-7461aaf99bd6","ios":"levelo://app?vid=f3040ce3-a5b5-4f90-aa27-7461aaf99bd6"},"vehicle_type_id":"4","last_reported":1745856711,"current_range_meters":21600,"station_id":"cki0cbj6b192h4jlfktg","pricing_plan_id":"cebpf4jnsgd1na2vs0mg"},{"bike_id":"3ea922b3-990b-48c6-8eef-81931d0c21ee","system_id":"levelo_inurba_marseille","lat":43.326933,"lon":5.392672,"is_reserved":false,"is_disabled":false,"rental_uris":{"android":"levelo://app?vid=3ea922b3-990b-48c6-8eef-81931d0c21ee","ios":"levelo://app?vid=3ea922b3-990b-48c6-8eef-81931d0c21ee"},"vehicle_type_id":"4","last_reported":1745856711,"current_range_meters":22000,"station_id":"","pricing_plan_id":"cebpf4jnsgd1na2vs0mg"},{"bike_id":"9205708d-89e6-4ca9-a8ca-b632bffd6c41","system_id":"levelo_inurba_marseille","lat":43.21194,"lon":5.35069,"is_reserved":false,"is_disabled":false,"rental_uris":{"android":"levelo://app?vid=9205708d-89e6-4ca9-a8ca-b632bffd6c41","ios":"levelo://app?vid=9205708d-89e6-4ca9-a8ca-b632bffd6c41"},"vehicle_type_id":"4","last_reported":1745856711,"current_range_meters":22000,"station_id":"st_cvj6sg6p6f1abm77japg","pricing_plan_id":"cebpf4jnsgd1na2vs0mg"},{"bike_id":"0ed8d87a-194a-4535-bc30-c76245e25b28","system_id":"levelo_inurba_marseille","lat":43.28619,"lon":5.35106,"is_reserved":false,"is_disabled":false,"rental_uris":{"android":"levelo://app?vid=0ed8d87a-194a-4535-bc30-c76245e25b28","ios":"levelo://app?vid=0ed8d87a-194a-4535-bc30-c76245e25b28"},"vehicle_type_id":"4","last_reported":1745856711,"current_range_meters":22000,"station_id":"ce4bhch2rcd13ifvqeug","pricing_plan_id":"cebpf4jnsgd1na2vs0mg"},{"bike_id":"a6fc1fdf-36ab-4f76-83c1-7c5286c1748e","system_id":"levelo_inurba_marseille","lat":43.29874,"lon":5.39732,"is_reserved":false,"is_disabled":false,"rental_uris":{"android":"levelo://app?vid=a6fc1fdf-36ab-4f76-83c1-7c5286c1748e","ios":"levelo://app?vid=a6fc1fdf-36ab-4f76-83c1-7c5286c1748e"},"vehicle_type_id":"4","last_reported":1745856711,"current_range_meters":22000,"station_id":"ce4bh0h2rcd13ifvqd50","pricing_plan_id":"cebpf4jnsgd1na2vs0mg"},{"bike_id":"3248918d-462d-4f4e-a74b-8c35a25b8a88","system_id":"levelo_inurba_marseille","lat":43.30222,"lon":5.3949,"is_reserved":false,"is_disabled":false,"rental_uris":{"android":"levelo://app?vid=3248918d-462d-4f4e-a74b-8c35a25b8a88","ios":"levelo://app?vid=3248918d-462d-4f4e-a74b-8c35a25b8a88"},"vehicle_type_id":"4","last_reported":1745856711,"current_range_meters":22000,"station_id":"ce4bh0p2rcd13ifvqd70","pricing_plan_id":"cebpf4jnsgd1na2vs0mg"},{"bike_id":"97f41198-4254-4e08-906f-9032b6e1099c","system_id":"levelo_inurba_marseille","lat":43.25828,"lon":5.39438,"is_reserved":false,"is_disabled":false,"rental_uris":{"android":"levelo://app?vid=97f41198-4254-4e08-906f-9032b6e1099c","ios":"levelo://app?vid=97f41198-4254-4e08-906f-9032b6e1099c"},"vehicle_type_id":"4","last_reported":1745856711,"current_range_meters":22400,"station_id":"ce4bhip2rcd13ifvqft0","pricing_plan_id":"cebpf4jnsgd1na2vs0mg"},{"bike_id":"940b7320-b328-4afe-85a6-d4d069ced16a","system_id":"levelo_inurba_marseille","lat":43.309268,"lon":5.401465,"is_reserved":false,"is_disabled":true,"rental_uris":{"android":"levelo://app?vid=940b7320-b328-4afe-85a6-d4d069ced16a","ios":"levelo://app?vid=940b7320-b328-4afe-85a6-d4d069ced16a"},"vehicle_type_id":"4","last_reported":1745856711,"current_range_meters":22800,"station_id":"ce4bgvp2rcd13ifvqct0","pricing_plan_id":"cebpf4jnsgd1na2vs0mg"},{"bike_id":"db636a3f-8d9b-4ad6-9be1-bf4e3635f6a3","system_id":"levelo_inurba_marseille","lat":43.29792,"lon":5.38085,"is_reserved":false,"is_disabled":false,"rental_uris":{"android":"levelo://app?vid=db636a3f-8d9b-4ad6-9be1-bf4e3635f6a3","ios":"levelo://app?vid=db636a3f-8d9b-4ad6-9be1-bf4e3635f6a3"},"vehicle_type_id":"4","last_reported":1745856711,"current_range_meters":22800,"station_id":"ce4bgip2rcd13ifvqbb0","pricing_plan_id":"cebpf4jnsgd1na2vs0mg"},{"bike_id":"885c637c-2531-4a3e-90ab-768c0484a253","system_id":"levelo_inurba_marseille","lat":43.31086,"lon":5.42424,"is_reserved":false,"is_disabled":false,"rental_uris":{"android":"levelo://app?vid=885c637c-2531-4a3e-90ab-768c0484a253","ios":"levelo://app?vid=885c637c-2531-4a3e-90ab-768c0484a253"},"vehicle_type_id":"4","last_reported":1745856711,"current_range_meters":23200,"station_id":"ce4bhp92rcd13ifvqhag","pricing_plan_id":"cebpf4jnsgd1na2vs0mg"},{"bike_id":"b26a0b33-650f-4f7b-8536-58a942167ba4","system_id":"levelo_inurba_marseille","lat":43.231907,"lon":5.35554,"is_reserved":false,"is_disabled":false,"rental_uris":{"android":"levelo://app?vid=b26a0b33-650f-4f7b-8536-58a942167ba4","ios":"levelo://app?vid=b26a0b33-650f-4f7b-8536-58a942167ba4"},"vehicle_type_id":"4","last_reported":1745856711,"current_range_meters":23200,"station_id":"ce4bhu92rcd13ifvqi70","pricing_plan_id":"cebpf4jnsgd1na2vs0mg"},{"bike_id":"9bb40f70-527a-433a-8eb5-e41fb3b277df","system_id":"levelo_inurba_marseille","lat":43.27976,"lon":5.38738,"is_reserved":false,"is_disabled":false,"rental_uris":{"android":"levelo://app?vid=9bb40f70-527a-433a-8eb5-e41fb3b277df","ios":"levelo://app?vid=9bb40f70-527a-433a-8eb5-e41fb3b277df"},"vehicle_type_id":"4","last_reported":1745856711,"current_range_meters":23200,"station_id":"ce4bhg12rcd13ifvqf80","pricing_plan_id":"cebpf4jnsgd1na2vs0mg"},{"bike_id":"e5e0e9e5-5df7-4039-8df8-fdad54133f16","system_id":"levelo_inurba_marseille","lat":43.27971,"lon":5.38752,"is_reserved":false,"is_disabled":false,"rental_uris":{"android":"levelo://app?vid=e5e0e9e5-5df7-4039-8df8-fdad54133f16","ios":"levelo://app?vid=e5e0e9e5-5df7-4039-8df8-fdad54133f16"},"vehicle_type_id":"4","last_reported":1745856711,"current_range_meters":23200,"station_id":"ce4bhg12rcd13ifvqf80","pricing_plan_id":"cebpf4jnsgd1na2vs0mg"},{"bike_id":"afb557a4-e34c-4db2-b1e6-4fe0401a7f33","system_id":"levelo_inurba_marseille","lat":43.29028,"lon":5.38642,"is_reserved":false,"is_disabled":false,"rental_uris":{"android":"levelo://app?vid=afb557a4-e34c-4db2-b1e6-4fe0401a7f33","ios":"levelo://app?vid=afb557a4-e34c-4db2-b1e6-4fe0401a7f33"},"vehicle_type_id":"4","last_reported":1745856711,"current_range_meters":23200,"station_id":"ce4bh4p2rcd13ifvqe0g","pricing_plan_id":"cebpf4jnsgd1na2vs0mg"},{"bike_id":"29838295-b7a7-4550-a64c-42e70de59d5a","system_id":"levelo_inurba_marseille","lat":43.29894,"lon":5.38911,"is_reserved":false,"is_disabled":false,"rental_uris":{"android":"levelo://app?vid=29838295-b7a7-4550-a64c-42e70de59d5a","ios":"levelo://app?vid=29838295-b7a7-4550-a64c-42e70de59d5a"},"vehicle_type_id":"4","last_reported":1745856711,"current_range_meters":22800,"station_id":"ce4bh392rcd13ifvqdl0","pricing_plan_id":"cebpf4jnsgd1na2vs0mg"},{"bike_id":"e2923a37-47e7-45c5-ab6a-503a5d11df50","system_id":"levelo_inurba_marseille","lat":43.2963,"lon":5.37724,"is_reserved":false,"is_disabled":false,"rental_uris":{"android":"levelo://app?vid=e2923a37-47e7-45c5-ab6a-503a5d11df50","ios":"levelo://app?vid=e2923a37-47e7-45c5-ab6a-503a5d11df50"},"vehicle_type_id":"4","last_reported":1745856711,"current_range_meters":22800,"station_id":"ce4bgi92rcd13ifvqb90","pricing_plan_id":"cebpf4jnsgd1na2vs0mg"},{"bike_id":"f908e3b9-c559-4ee6-9fc9-0fb2b41211ec","system_id":"levelo_inurba_marseille","lat":43.29526,"lon":5.37502,"is_reserved":false,"is_disabled":false,"rental_uris":{"android":"levelo://app?vid=f908e3b9-c559-4ee6-9fc9-0fb2b41211ec","ios":"levelo://app?vid=f908e3b9-c559-4ee6-9fc9-0fb2b41211ec"},"vehicle_type_id":"4","last_reported":1745856711,"current_range_meters":23200,"station_id":"ce4bgkp2rcd13ifvqbmg","pricing_plan_id":"cebpf4jnsgd1na2vs0mg"},{"bike_id":"6f07a4c6-c9d8-4425-9447-8676203a33a0","system_id":"levelo_inurba_marseille","lat":43.2417,"lon":5.36401,"is_reserved":false,"is_disabled":false,"rental_uris":{"android":"levelo://app?vid=6f07a4c6-c9d8-4425-9447-8676203a33a0","ios":"levelo://app?vid=6f07a4c6-c9d8-4425-9447-8676203a33a0"},"vehicle_type_id":"4","last_reported":1745856711,"current_range_meters":23200,"station_id":"cpo36qri1sfpv3e86is0","pricing_plan_id":"cebpf4jnsgd1na2vs0mg"},{"bike_id":"88f6416c-a8cf-48b6-bb44-3988c8b89e2f","system_id":"levelo_inurba_marseille","lat":43.241717,"lon":5.363969,"is_reserved":false,"is_disabled":false,"rental_uris":{"android":"levelo://app?vid=88f6416c-a8cf-48b6-bb44-3988c8b89e2f","ios":"levelo://app?vid=88f6416c-a8cf-48b6-bb44-3988c8b89e2f"},"vehicle_type_id":"4","last_reported":1745856711,"current_range_meters":24000,"station_id":"cpo36qri1sfpv3e86is0","pricing_plan_id":"cebpf4jnsgd1na2vs0mg"},