{"last_updated":1718989673,"ttl":30,"version":"2.2","data":{"bikes":[{"bike_id":"7fa891f2-814d-40eb-baa5-2897e7572fc7","system_id":"levelo_inurba_marseille","lat":43.31341,"lon":5.367098,"is_reserved":false,"is_disabled":false,"rental_uris":{"android":"levelo://app?vid=7fa891f2-814d-40eb-baa5-2897e7572fc7","ios":"levelo://app?vid=7fa891f2-814d-40eb-baa5-2897e7572fc7"},"vehicle_type_id":"4","last_reported":1718989673,"current_range_meters":6400,"station_id":"ce4bgr92rcd13ifvqc6g","pricing_plan_id":"cebpf4jnsgd1na2vs0mg"},{"bike_id":"a0467883-60da-499d-9876-1a2335b34a20","system_id":"levelo_inurba_marseille","lat":43.312239,"lon":5.368562,"is_reserved":false,"is_disabled":false,"rental_uris":{"android":"levelo://app?vid=a0467883-60da-499d-9876-1a2335b34a20","ios":"levelo://app?vid=a0467883-60da-499d-9876-1a2335b34a20"},"vehicle_type_id":"4","last_reported":1718989673,"current_range_meters":800,"station_id":"ce4bgl92rcd13ifvqbq0","pricing_plan_id":"cebpf4jnsgd1na2vs0mg"},{"bike_id":"20f31c62-307b-4c16-93b6-6fcc5accd677","system_id":"levelo_inurba_marseille","lat":43.3146,"lon":5.373707,"is_reserved":false,"is_disabled":false,"rental_uris":{"android":"levelo://app?vid=20f31c62-307b-4c16-93b6-6fcc5accd677","ios":"levelo://app?vid=20f31c62-307b-4c16-93b6-6fcc5accd677"},"vehicle_type_id":"4","last_reported":1718989673,"current_range_meters":16400,"station_id":"ce4bgt12rcd13ifvqcd0","pricing_plan_id":"cebpf4jnsgd1na2vs0mg"},{"bike_id":"5b4044b7-636d-4067-806e-1954e20ba3bf","system_id":"levelo_inurba_marseille","lat":43.309039,"lon":5.371797,"is_reserved":false,"is_disabled":false,"rental_uris":{"android":"levelo://app?vid=5b4044b7-636d-4067-806e-1954e20ba3bf","ios":"levelo://app?vid=5b4044b7-636d-4067-806e-1954e20ba3bf"},"vehicle_type_id":"4","last_reported":1718989673,"current_range_meters":0,"station_id":"ce4bguh2rcd13ifvqckg","pricing_plan_id":"cebpf4jnsgd1na2vs0mg"},{"bike_id":"ed14ec74-1f1c-4cfd-8d26-59aa92fdca8a","system_id":"levelo_inurba_marseille","lat":43.305614,"lon":5.365876,"is_reserved":false,"is_disabled":false,"rental_uris":{"android":"levelo://app?vid=ed14ec74-1f1c-4cfd-8d26-59aa92fdca8a","ios":"levelo://app?vid=ed14ec74-1f1c-4cfd-8d26-59aa92fdca8a"},"vehicle_type_id":"4","last_reported":1718989673,"current_range_meters":27600,"station_id":"ce4bgs12rcd13ifvqcag","pricing_plan_id":"cebpf4jnsgd1na2vs0mg"},{"bike_id":"a77a9731-98e8-46ce-95d2-92a0a241eadf","system_id":"levelo_inurba_marseille","lat":43.30537,"lon":5.367345,"is_reserved":false,"is_disabled":false,"rental_uris":{"android":"levelo://app?vid=a77a9731-98e8-46ce-95d2-92a0a241eadf","ios":"levelo://app?vid=a77a9731-98e8-46ce-95d2-92a0a241eadf"},"vehicle_type_id":"4","last_reported":1718989673,"current_range_meters":0,"station_id":"ce4bgrp2rcd13ifvqc9g","pricing_plan_id":"cebpf4jnsgd1na2vs0mg"},{"bike_id":"1ae8fb30-20b0-44da-bbf1-bf9eee88619a","system_id":"levelo_inurba_marseille","lat":43.305368,"lon":5.367343,"is_reserved":false,"is_disabled":false,"rental_uris":{"android":"levelo://app?vid=1ae8fb30-20b0-44da-bbf1-bf9eee88619a","ios":"levelo://app?vid=1ae8fb30-20b0-44da-bbf1-bf9eee88619a"},"vehicle_type_id":"4","last_reported":1718989673,"current_range_meters":22000,"station_id":"ce4bgrp2rcd13ifvqc9g","pricing_plan_id":"cebpf4jnsgd1na2vs0mg"},{"bike_id":"4f6c3683-d097-469a-8722-72a7e359972e","system_id":"levelo_inurba_marseille","lat":43.307945,"lon":5.376487,"is_reserved":false,"is_disabled":false,"rental_uris":{"android":"levelo://app?vid=4f6c3683-d097-469a-8722-72a7e359972e","ios":"levelo://app?vid=4f6c3683-d097-469a-8722-72a7e359972e"},"vehicle_type_id":"4","last_reported":1718989673,"current_range_meters":0,"station_id":"ce4bgv92rcd13ifvqcq0","pricing_plan_id":"cebpf4jnsgd1na2vs0mg"},{"bike_id":"355cf518-9154-45dd-860d-8b6810d7dcd3","system_id":"levelo_inurba_marseille","lat":43.317075,"lon":5.377367,"is_reserved":false,"is_disabled":false,"rental_uris":{"android":"levelo://app?vid=355cf518-9154-45dd-860d-8b6810d7dcd3","ios":"levelo://app?vid=355cf518-9154-45dd-860d-8b6810d7dcd3"},"vehicle_type_id":"4","last_reported":1718989673,"current_range_meters":9600,"station_id":"ce4bgth2rcd13ifvqch0","pricing_plan_id":"cebpf4jnsgd1na2vs0mg"},{"bike_id":"7ce330ad-48a3-427b-ba38-21c10da18be8","system_id":"levelo_inurba_marseille","lat":43.317075,"lon":5.377367,"is_reserved":false,"is_disabled":false,"rental_uris":{"android":"levelo://app?vid=7ce330ad-48a3-427b-ba38-21c10da18be8","ios":"levelo://app?vid=7ce330ad-48a3-427b-ba38-21c10da18be8"},"vehicle_type_id":"4","last_reported":1718989673,"current_range_meters":28400,"station_id":"ce4bgth2rcd13ifvqch0","pricing_plan_id":"cebpf4jnsgd1na2vs0mg"},{"bike_id":"1aa9382d-bd55-4aff-8971-b23615fccdae","system_id":"levelo_inurba_marseille","lat":43.311083,"lon":5.381259,"is_reserved":false,"is_disabled":false,"rental_uris":{"android":"levelo://app?vid=1aa9382d-bd55-4aff-8971-b23615fccdae","ios":"levelo://app?vid=1aa9382d-bd55-4aff-8971-b23615fccdae"},"vehicle_type_id":"4","last_reported":1718989673,"current_range_meters":4400,"station_id":"","pricing_plan_id":"cebpf4jnsgd1na2vs0mg"},{"bike_id":"e5074d53-385d-4992-b5c0-0ac8bbe8c07f","system_id":"levelo_inurba_marseille","lat":43.308012,"lon":5.381511,"is_reserved":false,"is_disabled":false,"rental_uris":{"android":"levelo://app?vid=e5074d53-385d-4992-b5c0-0ac8bbe8c07f","ios":"levelo://app?vid=e5074d53-385d-4992-b5c0-0ac8bbe8c07f"},"vehicle_type_id":"4","last_reported":1718989673,"current_range_meters":16400,"station_id":"ce4bgt12rcd13ifvqce0","pricing_plan_id":"cebpf4jnsgd1na2vs0mg"},{"bike_id":"6da2e868-03c3-40e9-8e4d-e2291fde0c86","system_id":"levelo_inurba_marseille","lat":43.308012,"lon":5.381511,"is_reserved":false,"is_disabled":false,"rental_uris":{"android":"levelo://app?vid=6da2e868-03c3-40e9-8e4d-e2291fde0c86","ios":"levelo://app?vid=6da2e868-03c3-40e9-8e4d-e2291fde0c86"},"vehicle_type_id":"4","last_reported":1718989673,"current_range_meters":0,"station_id":"ce4bgt12rcd13ifvqce0","pricing_plan_id":"cebpf4jnsgd1na2vs0mg"},{"bike_id":"a3351bc9-57e5-40a8-a632-fb07b59c3abd","system_id":"levelo_inurba_marseille","lat":43.300874,"lon":5.365434,"is_reserved":false,"is_disabled":false,"rental_uris":{"android":"levelo://app?vid=a3351bc9-57e5-40a8-a632-fb07b59c3abd","ios":"levelo://app?vid=a3351bc9-57e5-40a8-a632-fb07b59c3abd"},"vehicle_type_id":"4","last_reported":1718989673,"current_range_meters":0,"station_id":"","pricing_plan_id":"cebpf4jnsgd1na2vs0mg"},{"bike_id":"1bb7ee8b-1a33-440d-b9b0-36718503460c","system_id":"levelo_inurba_marseille","lat":43.304598,"lon":5.378968,"is_reserved":false,"is_disabled":false,"rental_uris":{"android":"levelo://app?vid=1bb7ee8b-1a33-440d-b9b0-36718503460c","ios":"levelo://app?vid=1bb7ee8b-1a33-440d-b9b0-36718503460c"},"vehicle_type_id":"4","last_reported":1718989673,"current_range_meters":0,"station_id":"ce4bgup2rcd13ifvqcn0","pricing_plan_id":"cebpf4jnsgd1na2vs0mg"},{"bike_id":"7eacc1ce-ad5f-4ddd-9bb0-ebce4282ee38","system_id":"levelo_inurba_marseille","lat":43.304606,"lon":5.379026,"is_reserved":false,"is_disabled":false,"rental_uris":{"android":"levelo://app?vid=7eacc1ce-ad5f-4ddd-9bb0-ebce4282ee38","ios":"levelo://app?vid=7eacc1ce-ad5f-4ddd-9bb0-ebce4282ee38"},"vehicle_type_id":"4","last_reported":1718989673,"current_range_meters":0,"station_id":"ce4bgup2rcd13ifvqcn0","pricing_plan_id":"cebpf4jnsgd1na2vs0mg"},{"bike_id":"ef36762d-00f8-43bf-8792-134eafb43d09","system_id":"levelo_inurba_marseille","lat":43.304606,"lon":5.379026,"is_reserved":false,"is_disabled":false,"rental_uris":{"android":"levelo://app?vid=ef36762d-00f8-43bf-8792-134eafb43d09","ios":"levelo://app?vid=ef36762d-00f8-43bf-8792-134eafb43d09"},"vehicle_type_id":"4","last_reported":1718989673,"current_range_meters":18000,"station_id":"ce4bgup2rcd13ifvqcn0","pricing_plan_id":"cebpf4jnsgd1na2vs0mg"},{"bike_id":"0cf4f2e2-150e-4567-bd04-06c956a4df89","system_id":"levelo_inurba_marseille","lat":43.3248,"lon":5.36556,"is_reserved":false,"is_disabled":false,"rental_uris":{"android":"levelo://app?vid=0cf4f2e2-150e-4567-bd04-06c956a4df89","ios":"levelo://app?vid=0cf4f2e2-150e-4567-bd04-06c956a4df89"},"vehicle_type_id":"4","last_reported":1718989673,"current_range_meters":0,"station_id":"ce4bhs12rcd13ifvqhvg","pricing_plan_id":"cebpf4jnsgd1na2vs0mg"},{"bike_id":"94b6215c-2a2e-47bf-baf8-4aa958368093","system_id":"levelo_inurba_marseille","lat":43.301429,"lon":5.37413,"is_reserved":false,"is_disabled":false,"rental_uris":{"android":"levelo://app?vid=94b6215c-2a2e-47bf-baf8-4aa958368093","ios":"levelo://app?vid=94b6215c-2a2e-47bf-baf8-4aa958368093"},"vehicle_type_id":"4","last_reported":1718989673,"current_range_meters":400,"station_id":"ce4bgs92rcd13ifvqcc0","pricing_plan_id":"cebpf4jnsgd1na2vs0mg"},{"bike_id":"e752bdcd-f3af-439c-b1fb-a1a7fc33d9ef","system_id":"levelo_inurba_marseille","lat":43.301429,"lon":5.37413,"is_reserved":false,"is_disabled":false,"rental_uris":{"android":"levelo://app?vid=e752bdcd-f3af-439c-b1fb-a1a7fc33d9ef","ios":"levelo://app?vid=e752bdcd-f3af-439c-b1fb-a1a7fc33d9ef"},"vehicle_type_id":"4","last_reported":1718989673,"current_range_meters":4000,"station_id":"ce4bgs92rcd13ifvqcc0","pricing_plan_id":"cebpf4jnsgd1na2vs0mg"},{"bike_id":"c8d74784-cfa3-4dc0-a55e-c53d6b6b7590","system_id":"levelo_inurba_marseille","lat":43.3253,"lon":5.36616,"is_reserved":false,"is_disabled":false,"rental_uris":{"android":"levelo://app?vid=c8d74784-cfa3-4dc0-a55e-c53d6b6b7590","ios":"levelo://app?vid=c8d74784-cfa3-4dc0-a55e-c53d6b6b7590"},"vehicle_type_id":"4","last_reported":1718989673,"current_range_meters":18400,"station_id":"","pricing_plan_id":"cebpf4jnsgd1na2vs0mg"},{"bike_id":"4f17b089-79cb-4f2e-a7e1-b736df93b457","system_id":"levelo_inurba_marseille","lat":43.31991,"lon":5.3815,"is_reserved":false,"is_disabled":false,"rental_uris":{"android":"levelo://app?vid=4f17b089-79cb-4f2e-a7e1-b736df93b457","ios":"levelo://app?vid=4f17b089-79cb-4f2e-a7e1-b736df93b457"},"vehicle_type_id":"4","last_reported":1718989673,"current_range_meters":0,"station_id":"ce4bhr12rcd13ifvqhpg","pricing_plan_id":"cebpf4jnsgd1na2vs0mg"},{"bike_id":"47e8612f-51f0-49d7-a39f-8cdb4b916fd1","system_id":"levelo_inurba_marseille","lat":43.313571,"lon":5.384829,"is_reserved":false,"is_disabled":false,"rental_uris":{"android":"levelo://app?vid=47e8612f-51f0-49d7-a39f-8cdb4b916fd1","ios":"levelo://app?vid=47e8612f-51f0-49d7-a39f-8cdb4b916fd1"},"vehicle_type_id":"4","last_reported":1718989673,"current_range_meters":0,"station_id":"ce4bgt92rcd13ifvqcf0","pricing_plan_id":"cebpf4jnsgd1na2vs0mg"},{"bike_id":"ff067c04-d4bd-43c3-b32d-cdd752d77cae","system_id":"levelo_inurba_marseille","lat":43.313571,"lon":5.384829,"is_reserved":false,"is_disabled":false,"rental_uris":{"android":"levelo://app?vid=ff067c04-d4bd-43c3-b32d-cdd752d77cae","ios":"levelo://app?vid=ff067c04-d4bd-43c3-b32d-cdd752d77cae"},"vehicle_type_id":"4","last_reported":1718989673,"current_range_meters":2000,"station_id":"ce4bgt92rcd13ifvqcf0","pricing_plan_id":"cebpf4jnsgd1na2vs0mg"},{"bike_id":"8b1b0f50-e382-4808-99d8-12e0dbc413f0","system_id":"levelo_inurba_marseille","lat":43.313571,"lon":5.384829,"is_reserved":false,"is_disabled":false,"rental_uris":{"android":"levelo://app?vid=8b1b0f50-e382-4808-99d8-12e0dbc413f0","ios":"levelo://app?vid=8b1b0f50-e382-4808-99d8-12e0dbc413f0"},"vehicle_type_id":"4","last_reported":1718989673,"current_range_meters":28400,"station_id":"ce4bgt92rcd13ifvqcf0","pricing_plan_id":"cebpf4jnsgd1na2vs0mg"},{"bike_id":"3acaf467-8b0c-4980-a9e2-671890c4e48b","system_id":"levelo_inurba_marseille","lat":43.313571,"lon":5.384829,"is_reserved":false,"is_disabled":false,"rental_uris":{"android":"levelo://app?vid=3acaf467-8b0c-4980-a9e2-671890c4e48b","ios":"levelo://app?vid=3acaf467-8b0c-4980-a9e2-671890c4e48b"},"vehicle_type_id":"4","last_reported":1718989673,"current_range_meters":19200,"station_id":"ce4bgt92rcd13ifvqcf0","pricing_plan_id":"cebpf4jnsgd1na2vs0mg"},{"bike_id":"2eebb88e-77f3-4fee-9f7f-141f85d9ba1b","system_id":"levelo_inurba_marseille","lat":43.313571,"lon":5.384829,"is_reserved":false,"is_disabled":false,"rental_uris":{"android":"levelo://app?vid=2eebb88e-77f3-4fee-9f7f-141f85d9ba1b","ios":"levelo://app?vid=2eebb88e-77f3-4fee-9f7f-141f85d9ba1b"},"vehicle_type_id":"4","last_reported":1718989673,"current_range_meters":6000,"station_id":"ce4bgt92rcd13ifvqcf0","pricing_plan_id":"cebpf4jnsgd1na2vs0mg"},{"bike_id":"483edee4-9935-42c7-9527-fac4f5e89fc5","system_id":"levelo_inurba_marseille","lat":43.29986,"lon":5.37169,"is_reserved":false,"is_disabled":false,"rental_uris":{"android":"levelo://app?vid=483edee4-9935-42c7-9527-fac4f5e89fc5","ios":"levelo://app?vid=483edee4-9935-42c7-9527-fac4f5e89fc5"},"vehicle_type_id":"4","last_reported":1718989673,"current_range_meters":18400,"station_id":"ce4bgr92rcd13ifvqc7g","pricing_plan_id":"cebpf4jnsgd1na2vs0mg"},{"bike_id":"abe016f4-1154-4e2e-94eb-011bb2787761","system_id":"levelo_inurba_marseille","lat":43.299724,"lon":5.371829,"is_reserved":false,"is_disabled":false,"rental_uris":{"android":"levelo://app?vid=abe016f4-1154-4e2e-94eb-011bb2787761","ios":"levelo://app?vid=abe016f4-1154-4e2e-94eb-011bb2787761"},"vehicle_type_id":"4","last_reported":1718989673,"current_range_meters":7600,"station_id":"ce4bgr92rcd13ifvqc7g","pricing_plan_id":"cebpf4jnsgd1na2vs0mg"},{"bike_id":"66401327-4e4d-4696-8cd2-ebbbd4abaceb","system_id":"levelo_inurba_marseille","lat":43.299243,"lon":5.37481,"is_reserved":false,"is_disabled":false,"rental_uris":{"android":"levelo://app?vid=66401327-4e4d-4696-8cd2-ebbbd4abaceb","ios":"levelo://app?vid=66401327-4e4d-4696-8cd2-ebbbd4abaceb"},"vehicle_type_id":"4","last_reported":1718989673,"current_range_meters":23200,"station_id":"ce4bgjh2rcd13ifvqbg0","pricing_plan_id":"cebpf4jnsgd1na2vs0mg"},{"bike_id":"e20e1157-6ed4-46b5-9869-fe8467fe0ea2","system_id":"levelo_inurba_marseille","lat":43.305338,"lon":5.384367,"is_reserved":false,"is_disabled":false,"rental_uris":{"android":"levelo://app?vid=e20e1157-6ed4-46b5-9869-fe8467fe0ea2","ios":"levelo://app?vid=e20e1157-6ed4-46b5-9869-fe8467fe0ea2"},"vehicle_type_id":"4","last_reported":1718989673,"current_range_meters":0,"station_id":"ce4bgg92rcd13ifvqb30","pricing_plan_id":"cebpf4jnsgd1na2vs0mg"},{"bike_id":"c1d65987-48ee-458c-b46b-dd6ba45d95ff","system_id":"levelo_inurba_marseille","lat":43.297774,"lon":5.370875,"is_reserved":false,"is_disabled":false,"rental_uris":{"android":"levelo://app?vid=c1d65987-48ee-458c-b46b-dd6ba45d95ff","ios":"levelo://app?vid=c1d65987-48ee-458c-b46b-dd6ba45d95ff"},"vehicle_type_id":"4","last_reported":1718989673,"current_range_meters":7600,"station_id":"ce4bgop2rcd13ifvqc1g","pricing_plan_id":"cebpf4jnsgd1na2vs0mg"},{"bike_id":"3ca1d2df-ebb6-4da2-9d43-c60baf8ae874","system_id":"levelo_inurba_marseille","lat":43.297794,"lon":5.370888,"is_reserved":false,"is_disabled":false,"rental_uris":{"android":"levelo://app?vid=3ca1d2df-ebb6-4da2-9d43-c60baf8ae874","ios":"levelo://app?vid=3ca1d2df-ebb6-4da2-9d43-c60baf8ae874"},"vehicle_type_id":"4","last_reported":1718989673,"current_range_meters":23600,"station_id":"ce4bgop2rcd13ifvqc1g","pricing_plan_id":"cebpf4jnsgd1na2vs0mg"},{"bike_id":"3ae12918-7860-47be-aac5-d54ae234676a","system_id":"levelo_inurba_marseille","lat":43.322872,"lon":5.382756,"is_reserved":false,"is_disabled":false,"rental_uris":{"android":"levelo://app?vid=3ae12918-7860-47be-aac5-d54ae234676a","ios":"levelo://app?vid=3ae12918-7860-47be-aac5-d54ae234676a"},"vehicle_type_id":"4","last_reported":1718989673,"current_range_meters":31200,"station_id":"ce4bhr12rcd13ifvqhqg","pricing_plan_id":"cebpf4jnsgd1na2vs0mg"},{"bike_id":"03e65689-adea-4bf1-88f2-df16518fdb39","system_id":"levelo_inurba_marseille","lat":43.297163,"lon":5.365866,"is_reserved":false,"is_disabled":false,"rental_uris":{"android":"levelo://app?vid=03e65689-adea-4bf1-88f2-df16518fdb39","ios":"levelo://app?vid=03e65689-adea-4bf1-88f2-df16518fdb39"},"vehicle_type_id":"4","last_reported":1718989673,"current_range_meters":5200,"station_id":"ce4bgn12rcd13ifvqbt0","pricing_plan_id":"cebpf4jnsgd1na2vs0mg"},{"bike_id":"e263a540-5938-4b10-b778-3f6aeee6e462","system_id":"levelo_inurba_marseille","lat":43.2968,"lon":5.37291,"is_reserved":false,"is_disabled":false,"rental_uris":{"android":"levelo://app?vid=e263a540-5938-4b10-b778-3f6aeee6e462","ios":"levelo://app?vid=e263a540-5938-4b10-b778-3f6aeee6e462"},"vehicle_type_id":"4","last_reported":1718989673,"current_range_meters":25600,"station_id":"ce4bgk12rcd13ifvqbj0","pricing_plan_id":"cebpf4jnsgd1na2vs0mg"},{"bike_id":"86f7677c-1cad-4d33-a91f-616682d852a1","system_id":"levelo_inurba_marseille","lat":43.296129,"lon":5.370777,"is_reserved":false,"is_disabled":false,"rental_uris":{"android":"levelo://app?vid=86f7677c-1cad-4d33-a91f-616682d852a1","ios":"levelo://app?vid=86f7677c-1cad-4d33-a91f-616682d852a1"},"vehicle_type_id":"4","last_reported":1718989673,"current_range_meters":0,"station_id":"ce4bgnh2rcd13ifvqc0g","pricing_plan_id":"cebpf4jnsgd1na2vs0mg"},{"bike_id":"50ddfab6-5ce8-4efa-8893-c2a6f8af3431","system_id":"levelo_inurba_marseille","lat":43.296131,"lon":5.370773,"is_reserved":false,"is_disabled":false,"rental_uris":{"android":"levelo://app?vid=50ddfab6-5ce8-4efa-8893-c2a6f8af3431","ios":"levelo://app?vid=50ddfab6-5ce8-4efa-8893-c2a6f8af3431"},"vehicle_type_id":"4","last_reported":1718989673,"current_range_meters":9200,"station_id":"ce4bgnh2rcd13ifvqc0g","pricing_plan_id":"cebpf4jnsgd1na2vs0mg"},{"bike_id":"1a3f23c0-ee13-466b-b7ac-7d060aae2d41","system_id":"levelo_inurba_marseille","lat":43.30954,"lon":5.39023,"is_reserved":false,"is_disabled":false,"rental_uris":{"android":"levelo://app?vid=1a3f23c0-ee13-466b-b7ac-7d060aae2d41","ios":"levelo://app?vid=1a3f23c0-ee13-466b-b7ac-7d060aae2d41"},"vehicle_type_id":"4","last_reported":1718989673,"current_range_meters":0,"station_id":"ce4bgup2rcd13ifvqco0","pricing_plan_id":"cebpf4jnsgd1na2vs0mg"},{"bike_id":"78d71de0-ae58-4d8f-a2b1-48578f7f7058","system_id":"levelo_inurba_marseille","lat":43.299028,"lon":5.381509,"is_reserved":false,"is_disabled":false,"rental_uris":{"android":"levelo://app?vid=78d71de0-ae58-4d8f-a2b1-48578f7f7058","ios":"levelo://app?vid=78d71de0-ae58-4d8f-a2b1-48578f7f7058"},"vehicle_type_id":"4","last_reported":1718989673,"current_range_meters":13600,"station_id":"ce4bgj12rcd13ifvqbc0","pricing_plan_id":"cebpf4jnsgd1na2vs0mg"},{"bike_id":"75d0bf74-3c48-4508-b75e-7e676dc232c1","system_id":"levelo_inurba_marseille","lat":43.309534,"lon":5.39028,"is_reserved":false,"is_disabled":false,"rental_uris":{"android":"levelo://app?vid=75d0bf74-3c48-4508-b75e-7e676dc232c1","ios":"levelo://app?vid=75d0bf74-3c48-4508-b75e-7e676dc232c1"},"vehicle_type_id":"4","last_reported":1718989673,"current_range_meters":0,"station_id":"ce4bgup2rcd13ifvqco0","pricing_plan_id":"cebpf4jnsgd1na2vs0mg"},{"bike_id":"a196473c-95b4-4494-8b73-8971e2d96741","system_id":"levelo_inurba_marseille","lat":43.296935,"lon":5.376544,"is_reserved":false,"is_disabled":false,"rental_uris":{"android":"levelo://app?vid=a196473c-95b4-4494-8b73-8971e2d96741","ios":"levelo://app?vid=a196473c-95b4-4494-8b73-8971e2d96741"},"vehicle_type_id":"4","last_reported":1718989673,"current_range_meters":18800,"station_id":"ce4bgkh2rcd13ifvqbl0","pricing_plan_id":"cebpf4jnsgd1na2vs0mg"},{"bike_id":"cec770be-9ef6-43a4-95b3-3185ff251c5e","system_id":"levelo_inurba_marseille","lat":43.295957,"lon":5.374705,"is_reserved":false,"is_disabled":false,"rental_uris":{"android":"levelo://app?vid=cec770be-9ef6-43a4-95b3-3185ff251c5e","ios":"levelo://app?vid=cec770be-9ef6-43a4-95b3-3185ff251c5e"},"vehicle_type_id":"4","last_reported":1718989673,"current_range_meters":0,"station_id":"ce4bgh92rcd13ifvqb50","pricing_plan_id":"cebpf4jnsgd1na2vs0mg"},{"bike_id":"5f697c3e-dc00-4de4-8213-cdf07d72f3e3","system_id":"levelo_inurba_marseille","lat":43.29803,"lon":5.380807,"is_reserved":false,"is_disabled":false,"rental_uris":{"android":"levelo://app?vid=5f697c3e-dc00-4de4-8213-cdf07d72f3e3","ios":"levelo://app?vid=5f697c3e-dc00-4de4-8213-cdf07d72f3e3"},"vehicle_type_id":"4","last_reported":1718989673,"current_range_meters":0,"station_id":"ce4bgip2rcd13ifvqbb0","pricing_plan_id":"cebpf4jnsgd1na2vs0mg"},{"bike_id":"de53c3ad-7bf8-429f-87b7-381d28b75dca","system_id":"levelo_inurba_marseille","lat":43.298037,"lon":5.381066,"is_reserved":false,"is_disabled":false,"rental_uris":{"android":"levelo://app?vid=de53c3ad-7bf8-429f-87b7-381d28b75dca","ios":"levelo://app?vid=de53c3ad-7bf8-429f-87b7-381d28b75dca"},"vehicle_type_id":"4","last_reported":1718989673,"current_range_meters":0,"station_id":"ce4bgip2rcd13ifvqbb0","pricing_plan_id":"cebpf4jnsgd1na2vs0mg"},{"bike_id":"01a8fe80-ba64-4b94-82bc-8be55d1a1bb6","system_id":"levelo_inurba_marseille","lat":43.29785,"lon":5.38093,"is_reserved":false,"is_disabled":false,"rental_uris":{"android":"levelo://app?vid=01a8fe80-ba64-4b94-82bc-8be55d1a1bb6","ios":"levelo://app?vid=01a8fe80-ba64-4b94-82bc-8be55d1a1bb6"},"vehicle_type_id":"4","last_reported":1718989673,"current_range_meters":1200,"station_id":"ce4bgip2rcd13ifvqbb0","pricing_plan_id":"cebpf4jnsgd1na2vs0mg"},{"bike_id":"848e15e7-df25-4abe-9990-3b61802a1eec","system_id":"levelo_inurba_marseille","lat":43.298037,"lon":5.381066,"is_reserved":false,"is_disabled":false,"rental_uris":{"android":"levelo://app?vid=848e15e7-df25-4abe-9990-3b61802a1eec","ios":"levelo://app?vid=848e15e7-df25-4abe-9990-3b61802a1eec"},"vehicle_type_id":"4","last_reported":1718989673,"current_range_meters":2000,"station_id":"ce4bgip2rcd13ifvqbb0","pricing_plan_id":"cebpf4jnsgd1na2vs0mg"},{"bike_id":"24030a30-53f6-4c7f-a7ce-a39781f6b013","system_id":"levelo_inurba_marseille","lat":43.29782,"lon":5.38102,"is_reserved":false,"is_disabled":false,"rental_uris":{"android":"levelo://app?vid=24030a30-53f6-4c7f-a7ce-a39781f6b013","ios":"levelo://app?vid=24030a30-53f6-4c7f-a7ce-a39781f6b013"},"vehicle_type_id":"4","last_reported":1718989673,"current_range_meters":0,"station_id":"ce4bgip2rcd13ifvqbb0","pricing_plan_id":"cebpf4jnsgd1na2vs0mg"},{"bike_id":"6cd0b7d8-c248-42fe-b7f6-102da2ff5402","system_id":"levelo_inurba_marseille","lat":43.296263,"lon":5.377094,"is_reserved":false,"is_disabled":false,"rental_uris":{"android":"levelo://app?vid=6cd0b7d8-c248-42fe-b7f6-102da2ff5402","ios":"levelo://app?vid=6cd0b7d8-c248-42fe-b7f6-102da2ff5402"},"vehicle_type_id":"4","last_reported":1718989673,"current_range_meters":26000,"station_id":"ce4bgi92rcd13ifvqb90","pricing_plan_id":"cebpf4jnsgd1na2vs0mg"},{"bike_id":"9b4138ee-0f4b-4906-ad0e-7d0e0f8b1724","system_id":"levelo_inurba_marseille","lat":43.295921,"lon":5.377156,"is_reserved":false,"is_disabled":false,"rental_uris":{"android":"levelo://app?vid=9b4138ee-0f4b-4906-ad0e-7d0e0f8b1724","ios":"levelo://app?vid=9b4138ee-0f4b-4906-ad0e-7d0e0f8b1724"},"vehicle_type_id":"4","last_reported":1718989673,"current_range_meters":0,"station_id":"ce4bgi92rcd13ifvqb90","pricing_plan_id":"cebpf4jnsgd1na2vs0mg"},{"bike_id":"3a7d57bb-6222-4a34-9daf-6e2149d042a7","system_id":"levelo_inurba_marseille","lat":43.299717,"lon":5.384845,"is_reserved":false,"is_disabled":false,"rental_uris":{"android":"levelo://app?vid=3a7d57bb-6222-4a34-9daf-6e2149d042a7","ios":"levelo://app?vid=3a7d57bb-6222-4a34-9daf-6e2149d042a7"},"vehicle_type_id":"4","last_reported":1718989673,"current_range_meters":13600,"station_id":"ce4bgj92rcd13ifvqbd0","pricing_plan_id":"cebpf4jnsgd1na2vs0mg"},{"bike_id":"323e041e-5534-47d1-a0bd-405f7ee17808","system_id":"levelo_inurba_marseille","lat":43.30207,"lon":5.38811,"is_reserved":false,"is_disabled":false,"rental_uris":{"android":"levelo://app?vid=323e041e-5534-47d1-a0bd-405f7ee17808","ios":"levelo://app?vid=323e041e-5534-47d1-a0bd-405f7ee17808"},"vehicle_type_id":"4","last_reported":1718989673,"current_range_meters":14400,"station_id":"","pricing_plan_id":"cebpf4jnsgd1na2vs0mg"},{"bike_id":"d1f78f56-a60b-47a2-8be4-8d1cacc5c068","system_id":"levelo_inurba_marseille","lat":43.323665,"lon":5.388815,"is_reserved":false,"is_disabled":false,"rental_uris":{"android":"levelo://app?vid=d1f78f56-a60b-47a2-8be4-8d1cacc5c068","ios":"levelo://app?vid=d1f78f56-a60b-47a2-8be4-8d1cacc5c068"},"vehicle_type_id":"4","last_reported":1718989673,"current_range_meters":0,"station_id":"ce4bgk12rcd13ifvqbj0","pricing_plan_id":"cebpf4jnsgd1na2vs0mg"},{"bike_id":"82ace0c0-75b9-47d9-9c08-2a31f7fdf23f","system_id":"levelo_inurba_marseille","lat":43.32367,"lon":5.388836,"is_reserved":false,"is_disabled":false,"rental_uris":{"android":"levelo://app?vid=82ace0c0-75b9-47d9-9c08-2a31f7fdf23f","ios":"levelo://app?vid=82ace0c0-75b9-47d9-9c08-2a31f7fdf23f"},"vehicle_type_id":"4","last_reported":1718989673,"current_range_meters":1200,"station_id":"ce4bhqp2rcd13ifvqhog","pricing_plan_id":"cebpf4jnsgd1na2vs0mg"},{"bike_id":"a555b8a4-62f8-4664-bd82-556b67dc8787","system_id":"levelo_inurba_marseille","lat":43.29599,"lon":5.38096,"is_reserved":false,"is_disabled":false,"rental_uris":{"android":"levelo://app?vid=a555b8a4-62f8-4664-bd82-556b67dc8787","ios":"levelo://app?vid=a555b8a4-62f8-4664-bd82-556b67dc8787"},"vehicle_type_id":"4","last_reported":1718989673,"current_range_meters":0,"station_id":"ce4bgl12rcd13ifvqbo0","pricing_plan_id":"cebpf4jnsgd1na2vs0mg"},{"bike_id":"dc92bd1b-26ec-4356-98cf-69c0bf4d1531","system_id":"levelo_inurba_marseille","lat":43.292749,"lon":5.368402,"is_reserved":false,"is_disabled":false,"rental_uris":{"android":"levelo://app?vid=dc92bd1b-26ec-4356-98cf-69c0bf4d1531","ios":"levelo://app?vid=dc92bd1b-26ec-4356-98cf-69c0bf4d1531"},"vehicle_type_id":"4","last_reported":1718989673,"current_range_meters":26400,"station_id":"ce4bhbp2rcd13ifvqesg","pricing_plan_id":"cebpf4jnsgd1na2vs0mg"},{"bike_id":"f98e8bfa-4432-4f5e-9c44-b3764ca7a69f","system_id":"levelo_inurba_marseille","lat":43.293249,"lon":5.371578,"is_reserved":false,"is_disabled":false,"rental_uris":{"android":"levelo://app?vid=f98e8bfa-4432-4f5e-9c44-b3764ca7a69f","ios":"levelo://app?vid=f98e8bfa-4432-4f5e-9c44-b3764ca7a69f"},"vehicle_type_id":"4","last_reported":1718989673,"current_range_meters":10400,"station_id":"ce4bgh92rcd13ifvqb40","pricing_plan_id":"cebpf4jnsgd1na2vs0mg"},{"bike_id":"e5ecdcf2-3067-4efb-bfc7-c360607099c1","system_id":"levelo_inurba_marseille","lat":43.292749,"lon":5.368402,"is_reserved":false,"is_disabled":false,"rental_uris":{"android":"levelo://app?vid=e5ecdcf2-3067-4efb-bfc7-c360607099c1","ios":"levelo://app?vid=e5ecdcf2-3067-4efb-bfc7-c360607099c1"},"vehicle_type_id":"4","last_reported":1718989673,"current_range_meters":11600,"station_id":"ce4bhbp2rcd13ifvqesg","pricing_plan_id":"cebpf4jnsgd1na2vs0mg"},{"bike_id":"8429675f-c030-4a85-af72-287108f4c385","system_id":"levelo_inurba_marseille","lat":43.292749,"lon":5.368402,"is_reserved":false,"is_disabled":false,"rental_uris":{"android":"levelo://app?vid=8429675f-c030-4a85-af72-287108f4c385","ios":"levelo://app?vid=8429675f-c030-4a85-af72-287108f4c385"},"vehicle_type_id":"4","last_reported":1718989673,"current_range_meters":6000,"station_id":"ce4bhbp2rcd13ifvqesg","pricing_plan_id":"cebpf4jnsgd1na2vs0mg"},{"bike_id":"b563bcc0-3834-42e8-83c0-e3d29bff2ae0","system_id":"levelo_inurba_marseille","lat":43.292749,"lon":5.368402,"is_reserved":false,"is_disabled":false,"rental_uris":{"android":"levelo://app?vid=b563bcc0-3834-42e8-83c0-e3d29bff2ae0","ios":"levelo://app?vid=b563bcc0-3834-42e8-83c0-e3d29bff2ae0"},"vehicle_type_id":"4","last_reported":1718989673,"current_range_meters":4000,"station_id":"ce4bhbp2rcd13ifvqesg","pricing_plan_id":"cebpf4jnsgd1na2vs0mg"},{"bike_id":"c9443ceb-e8c0-496b-b949-84ebd05e2555","system_id":"levelo_inurba_marseille","lat":43.297449,"lon":5.385391,"is_reserved":false,"is_disabled":false,"rental_uris":{"android":"levelo://app?vid=c9443ceb-e8c0-496b-b949-84ebd05e2555","ios":"levelo://app?vid=c9443ceb-e8c0-496b-b949-84ebd05e2555"},"vehicle_type_id":"4","last_reported":1718989673,"current_range_meters":0,"station_id":"","pricing_plan_id":"cebpf4jnsgd1na2vs0mg"},{"bike_id":"99e48374-3896-492d-961a-84b4ff1f0570","system_id":"levelo_inurba_marseille","lat":43.293009,"lon":5.374584,"is_reserved":false,"is_disabled":false,"rental_uris":{"android":"levelo://app?vid=99e48374-3896-492d-961a-84b4ff1f0570","ios":"levelo://app?vid=99e48374-3896-492d-961a-84b4ff1f0570"},"vehicle_type_id":"4","last_reported":1718989673,"current_range_meters":400,"station_id":"ce4bgi12rcd13ifvqb70","pricing_plan_id":"cebpf4jnsgd1na2vs0mg"},{"bike_id":"b1598a3e-8bb0-4ca9-90be-d838c40612e2","system_id":"levelo_inurba_marseille","lat":43.30594,"lon":5.3935,"is_reserved":false,"is_disabled":false,"rental_uris":{"android":"levelo://app?vid=b1598a3e-8bb0-4ca9-90be-d838c40612e2","ios":"levelo://app?vid=b1598a3e-8bb0-4ca9-90be-d838c40612e2"},"vehicle_type_id":"4","last_reported":1718989673,"current_range_meters":0,"station_id":"ce4bh0p2rcd13ifvqd80","pricing_plan_id":"cebpf4jnsgd1na2vs0mg"},{"bike_id":"f7eb65a8-efff-41eb-b74b-00661c47b1c6","system_id":"levelo_inurba_marseille","lat":43.29297,"lon":5.37439,"is_reserved":false,"is_disabled":false,"rental_uris":{"android":"levelo://app?vid=f7eb65a8-efff-41eb-b74b-00661c47b1c6","ios":"levelo://app?vid=f7eb65a8-efff-41eb-b74b-00661c47b1c6"},"vehicle_type_id":"4","last_reported":1718989673,"current_range_meters":0,"station_id":"ce4bgi12rcd13ifvqb70","pricing_plan_id":"cebpf4jnsgd1na2vs0mg"},{"bike_id":"41aec1c8-f278-42e6-a429-e325c61a0664","system_id":"levelo_inurba_marseille","lat":43.29294,"lon":5.37443,"is_reserved":false,"is_disabled":false,"rental_uris":{"android":"levelo://app?vid=41aec1c8-f278-42e6-a429-e325c61a0664","ios":"levelo://app?vid=41aec1c8-f278-42e6-a429-e325c61a0664"},"vehicle_type_id":"4","last_reported":1718989673,"current_range_meters":0,"station_id":"ce4bgi12rcd13ifvqb70","pricing_plan_id":"cebpf4jnsgd1na2vs0mg"},{"bike_id":"c464e044-fa42-4e0c-9592-9e4a8be762d6","system_id":"levelo_inurba_marseille","lat":43.302992,"lon":5.392136,"is_reserved":false,"is_disabled":false,"rental_uris":{"android":"levelo://app?vid=c464e044-fa42-4e0c-9592-9e4a8be762d6","ios":"levelo://app?vid=c464e044-fa42-4e0c-9592-9e4a8be762d6"},"vehicle_type_id":"4","last_reported":1718989673,"current_range_meters":14000,"station_id":"ce4bgkh2rcd13ifvqbk0","pricing_plan_id":"cebpf4jnsgd1na2vs0mg"},{"bike_id":"5b59230c-ec9e-4f8c-9134-5bbadcda132b","system_id":"levelo_inurba_marseille","lat":43.302992,"lon":5.392136,"is_reserved":false,"is_disabled":false,"rental_uris":{"android":"levelo://app?vid=5b59230c-ec9e-4f8c-9134-5bbadcda132b","ios":"levelo://app?vid=5b59230c-ec9e-4f8c-9134-5bbadcda132b"},"vehicle_type_id":"4","last_reported":1718989673,"current_range_meters":0,"station_id":"ce4bgkh2rcd13ifvqbk0","pricing_plan_id":"cebpf4jnsgd1na2vs0mg"},{"bike_id":"a8dbf867-a30e-4a97-8a1e-493dce074504","system_id":"levelo_inurba_marseille","lat":43.302992,"lon":5.392136,"is_reserved":false,"is_disabled":false,"rental_uris":{"android":"levelo://app?vid=a8dbf867-a30e-4a97-8a1e-493dce074504","ios":"levelo://app?vid=a8dbf867-a30e-4a97-8a1e-493dce074504"},"vehicle_type_id":"4","last_reported":1718989673,"current_range_meters":16000,"station_id":"ce4bgkh2rcd13ifvqbk0","pricing_plan_id":"cebpf4jnsgd1na2vs0mg"},{"bike_id":"04ade20b-5f45-48f5-b83f-968fd474942a","system_id":"levelo_inurba_marseille","lat":43.302992,"lon":5.392136,"is_reserved":false,"is_disabled":false,"rental_uris":{"android":"levelo://app?vid=04ade20b-5f45-48f5-b83f-968fd474942a","ios":"levelo://app?vid=04ade20b-5f45-48f5-b83f-968fd474942a"},"vehicle_type_id":"4","last_reported":1718989673,"current_range_meters":0,"station_id":"ce4bgkh2rcd13ifvqbk0","pricing_plan_id":"cebpf4jnsgd1na2vs0mg"},{"bike_id":"8da8a2bd-5c18-408e-80f7-b48d6ca3737d","system_id":"levelo_inurba_marseille","lat":43.293618,"lon":5.37841,"is_reserved":false,"is_disabled":false,"rental_uris":{"android":"levelo://app?vid=8da8a2bd-5c18-408e-80f7-b48d6ca3737d","ios":"levelo://app?vid=8da8a2bd-5c18-408e-80f7-b48d6ca3737d"},"vehicle_type_id":"4","last_reported":1718989673,"current_range_meters":0,"station_id":"ce4bgjh2rcd13ifvqbf0","pricing_plan_id":"cebpf4jnsgd1na2vs0mg"},{"bike_id":"9c7019ae-cecb-4748-bd4a-f189dc97ca06","system_id":"levelo_inurba_marseille","lat":43.30085,"lon":5.390856,"is_reserved":false,"is_disabled":false,"rental_uris":{"android":"levelo://app?vid=9c7019ae-cecb-4748-bd4a-f189dc97ca06","ios":"levelo://app?vid=9c7019ae-cecb-4748-bd4a-f189dc97ca06"},"vehicle_type_id":"4","last_reported":1718989673,"current_range_meters":6800,"station_id":"ce4bh192rcd13ifvqdb0","pricing_plan_id":"cebpf4jnsgd1na2vs0mg"},{"bike_id":"1befb791-72e5-47b8-b385-b4c84864aa01","system_id":"levelo_inurba_marseille","lat":43.298764,"lon":5.388973,"is_reserved":false,"is_disabled":false,"rental_uris":{"android":"levelo://app?vid=1befb791-72e5-47b8-b385-b4c84864aa01","ios":"levelo://app?vid=1befb791-72e5-47b8-b385-b4c84864aa01"},"vehicle_type_id":"4","last_reported":1718989673,"current_range_meters":0,"station_id":"ce4bh392rcd13ifvqdl0","pricing_plan_id":"cebpf4jnsgd1na2vs0mg"},{"bike_id":"f5ae6590-e724-4689-b4a9-d1588a50d98f","system_id":"levelo_inurba_marseille","lat":43.298764,"lon":5.388973,"is_reserved":false,"is_disabled":false,"rental_uris":{"android":"levelo://app?vid=f5ae6590-e724-4689-b4a9-d1588a50d98f","ios":"levelo://app?vid=f5ae6590-e724-4689-b4a9-d1588a50d98f"},"vehicle_type_id":"4","last_reported":1718989673,"current_range_meters":4800,"station_id":"ce4bh392rcd13ifvqdl0","pricing_plan_id":"cebpf4jnsgd1na2vs0mg"},{"bike_id":"7fb9f733-c719-44f3-b5eb-db77a7df42ff","system_id":"levelo_inurba_marseille","lat":43.298764,"lon":5.388973,"is_reserved":false,"is_disabled":false,"rental_uris":{"android":"levelo://app?vid=7fb9f733-c719-44f3-b5eb-db77a7df42ff","ios":"levelo://app?vid=7fb9f733-c719-44f3-b5eb-db77a7df42ff"},"vehicle_type_id":"4","last_reported":1718989673,"current_range_meters":2000,"station_id":"ce4bh392rcd13ifvqdl0","pricing_plan_id":"cebpf4jnsgd1na2vs0mg"},{"bike_id":"726ba589-b028-48e8-9f79-9abb7d2be1e6","system_id":"levelo_inurba_marseille","lat":43.298764,"lon":5.388973,"is_reserved":false,"is_disabled":false,"rental_uris":{"android":"levelo://app?vid=726ba589-b028-48e8-9f79-9abb7d2be1e6","ios":"levelo://app?vid=726ba589-b028-48e8-9f79-9abb7d2be1e6"},"vehicle_type_id":"4","last_reported":1718989673,"current_range_meters":5600,"station_id":"ce4bh392rcd13ifvqdl0","pricing_plan_id":"cebpf4jnsgd1na2vs0mg"},{"bike_id":"f57e0af1-1d41-46d6-aeb6-b7b02f570db8","system_id":"levelo_inurba_marseille","lat":43.313291,"lon":5.396838,"is_reserved":false,"is_disabled":false,"rental_uris":{"android":"levelo://app?vid=f57e0af1-1d41-46d6-aeb6-b7b02f570db8","ios":"levelo://app?vid=f57e0af1-1d41-46d6-aeb6-b7b02f570db8"},"vehicle_type_id":"4","last_reported":1718989673,"current_range_meters":3200,"station_id":"ce4bgvp2rcd13ifvqcu0","pricing_plan_id":"cebpf4jnsgd1na2vs0mg"},{"bike_id":"cb73dc94-b4d6-49dc-81e4-848ae4b2ce01","system_id":"levelo_inurba_marseille","lat":43.313291,"lon":5.396838,"is_reserved":false,"is_disabled":false,"rental_uris":{"android":"levelo://app?vid=cb73dc94-b4d6-49dc-81e4-848ae4b2ce01","ios":"levelo://app?vid=cb73dc94-b4d6-49dc-81e4-848ae4b2ce01"},"vehicle_type_id":"4","last_reported":1718989673,"current_range_meters":16400,"station_id":"ce4bgvp2rcd13ifvqcu0","pricing_plan_id":"cebpf4jnsgd1na2vs0mg"},{"bike_id":"34f91150-7798-49d3-beae-7d0546822434","system_id":"levelo_inurba_marseille","lat":43.309047,"lon":5.396551,"is_reserved":false,"is_disabled":false,"rental_uris":{"android":"levelo://app?vid=34f91150-7798-49d3-beae-7d0546822434","ios":"levelo://app?vid=34f91150-7798-49d3-beae-7d0546822434"},"vehicle_type_id":"4","last_reported":1718989673,"current_range_meters":2000,"station_id":"ce4bh012rcd13ifvqcv0","pricing_plan_id":"cebpf4jnsgd1na2vs0mg"},{"bike_id":"665cf7b6-4893-4b4f-b126-aa6be51e0821","system_id":"levelo_inurba_marseille","lat":43.313291,"lon":5.396838,"is_reserved":false,"is_disabled":false,"rental_uris":{"android":"levelo://app?vid=665cf7b6-4893-4b4f-b126-aa6be51e0821","ios":"levelo://app?vid=665cf7b6-4893-4b4f-b126-aa6be51e0821"},"vehicle_type_id":"4","last_reported":1718989673,"current_range_meters":20000,"station_id":"ce4bgvp2rcd13ifvqcu0","pricing_plan_id":"cebpf4jnsgd1na2vs0mg"},{"bike_id":"0da329bd-c8b2-4203-a4a7-45cca453e42e","system_id":"levelo_inurba_marseille","lat":43.313291,"lon":5.396838,"is_reserved":false,"is_disabled":false,"rental_uris":{"android":"levelo://app?vid=0da329bd-c8b2-4203-a4a7-45cca453e42e","ios":"levelo://app?vid=0da329bd-c8b2-4203-a4a7-45cca453e42e"},"vehicle_type_id":"4","last_reported":1718989673,"current_range_meters":21600,"station_id":"ce4bgvp2rcd13ifvqcu0","pricing_plan_id":"cebpf4jnsgd1na2vs0mg"},{"bike_id":"78181ffc-6372-4f84-9d0f-910b5e75a458","system_id":"levelo_inurba_marseille","lat":43.313291,"lon":5.396838,"is_reserved":false,"is_disabled":false,"rental_uris":{"android":"levelo://app?vid=78181ffc-6372-4f84-9d0f-910b5e75a458","ios":"levelo://app?vid=78181ffc-6372-4f84-9d0f-910b5e75a458"},"vehicle_type_id":"4","last_reported":1718989673,"current_range_meters":19600,"station_id":"ce4bgvp2rcd13ifvqcu0","pricing_plan_id":"cebpf4jnsgd1na2vs0mg"},{"bike_id":"bc0c3fb9-e332-40e5-bae3-3fc9f256d9a3","system_id":"levelo_inurba_marseille","lat":43.309038,"lon":5.396546,"is_reserved":false,"is_disabled":false,"rental_uris":{"android":"levelo://app?vid=bc0c3fb9-e332-40e5-bae3-3fc9f256d9a3","ios":"levelo://app?vid=bc0c3fb9-e332-40e5-bae3-3fc9f256d9a3"},"vehicle_type_id":"4","last_reported":1718989673,"current_range_meters":2000,"station_id":"ce4bh012rcd13ifvqcv0","pricing_plan_id":"cebpf4jnsgd1na2vs0mg"},{"bike_id":"cf09fb06-1470-46c2-b9fc-226e4271063c","system_id":"levelo_inurba_marseille","lat":43.29529,"lon":5.385581,"is_reserved":false,"is_disabled":false,"rental_uris":{"android":"levelo://app?vid=cf09fb06-1470-46c2-b9fc-226e4271063c","ios":"levelo://app?vid=cf09fb06-1470-46c2-b9fc-226e4271063c"},"vehicle_type_id":"4","last_reported":1718989673,"current_range_meters":19200,"station_id":"ce4bgih2rcd13ifvqba0","pricing_plan_id":"cebpf4jnsgd1na2vs0mg"},{"bike_id":"4ad37af8-316f-4868-8bae-a9b2e59d991e","system_id":"levelo_inurba_marseille","lat":43.29529,"lon":5.385581,"is_reserved":false,"is_disabled":false,"rental_uris":{"android":"levelo://app?vid=4ad37af8-316f-4868-8bae-a9b2e59d991e","ios":"levelo://app?vid=4ad37af8-316f-4868-8bae-a9b2e59d991e"},"vehicle_type_id":"4","last_reported":1718989673,"current_range_meters":8000,"station_id":"ce4bgih2rcd13ifvqba0","pricing_plan_id":"cebpf4jnsgd1na2vs0mg"},{"bike_id":"b633bb77-0e13-4f2a-86f4-b2a60dcc6116","system_id":"levelo_inurba_marseille","lat":43.29529,"lon":5.385581,"is_reserved":false,"is_disabled":false,"rental_uris":{"android":"levelo://app?vid=b633bb77-0e13-4f2a-86f4-b2a60dcc6116","ios":"levelo://app?vid=b633bb77-0e13-4f2a-86f4-b2a60dcc6116"},"vehicle_type_id":"4","last_reported":1718989673,"current_range_meters":12000,"station_id":"ce4bgih2rcd13ifvqba0","pricing_plan_id":"cebpf4jnsgd1na2vs0mg"},{"bike_id":"ef3eebba-1c08-49f9-8a00-bc8595410930","system_id":"levelo_inurba_marseille","lat":43.29529,"lon":5.385581,"is_reserved":false,"is_disabled":false,"rental_uris":{"android":"levelo://app?vid=ef3eebba-1c08-49f9-8a00-bc8595410930","ios":"levelo://app?vid=ef3eebba-1c08-49f9-8a00-bc8595410930"},"vehicle_type_id":"4","last_reported":1718989673,"current_range_meters":27200,"station_id":"ce4bgih2rcd13ifvqba0","pricing_plan_id":"cebpf4jnsgd1na2vs0mg"},{"bike_id":"e5456ba6-c244-45b0-968c-60251c416dd5","system_id":"levelo_inurba_marseille","lat":43.29529,"lon":5.385581,"is_reserved":false,"is_disabled":false,"rental_uris":{"android":"levelo://app?vid=e5456ba6-c244-45b0-968c-60251c416dd5","ios":"levelo://app?vid=e5456ba6-c244-45b0-968c-60251c416dd5"},"vehicle_type_id":"4","last_reported":1718989673,"current_range_meters":5600,"station_id":"ce4bgih2rcd13ifvqba0","pricing_plan_id":"cebpf4jnsgd1na2vs0mg"},{"bike_id":"00407984-fc6c-4968-81af-e26059682b42","system_id":"levelo_inurba_marseille","lat":43.29529,"lon":5.385581,"is_reserved":false,"is_disabled":false,"rental_uris":{"android":"levelo://app?vid=00407984-fc6c-4968-81af-e26059682b42","ios":"levelo://app?vid=00407984-fc6c-4968-81af-e26059682b42"},"vehicle_type_id":"4","last_reported":1718989673,"current_range_meters":6000,"station_id":"ce4bgih2rcd13ifvqba0","pricing_plan_id":"cebpf4jnsgd1na2vs0mg"},{"bike_id":"223e3244-b6f2-470e-a8e4-0deee2c3817e","system_id":"levelo_inurba_marseille","lat":43.29529,"lon":5.385581,"is_reserved":false,"is_disabled":false,"rental_uris":{"android":"levelo://app?vid=223e3244-b6f2-470e-a8e4-0deee2c3817e","ios":"levelo://app?vid=223e3244-b6f2-470e-a8e4-0deee2c3817e"},"vehicle_type_id":"4","last_reported":1718989673,"current_range_meters":5200,"station_id":"ce4bgih2rcd13ifvqba0","pricing_plan_id":"cebpf4jnsgd1na2vs0mg"},{"bike_id":"1475602b-9f76-4517-9ca1-59d703bae1c0","system_id":"levelo_inurba_marseille","lat":43.29529,"lon":5.385581,"is_reserved":false,"is_disabled":false,"rental_uris":{"android":"levelo://app?vid=1475602b-9f76-4517-9ca1-59d703bae1c0","ios":"levelo://app?vid=1475602b-9f76-4517-9ca1-59d703bae1c0"},"vehicle_type_id":"4","last_reported":1718989673,"current_range_meters":10000,"station_id":"ce4bgih2rcd13ifvqba0","pricing_plan_id":"cebpf4jnsgd1na2vs0mg"},{"bike_id":"e6fdbd44-6891-40ca-86d1-b4c7e00e8925","system_id":"levelo_inurba_marseille","lat":43.29529,"lon":5.385581,"is_reserved":false,"is_disabled":false,"rental_uris":{"android":"levelo://app?vid=e6fdbd44-6891-40ca-86d1-b4c7e00e8925","ios":"levelo://app?vid=e6fdbd44-6891-40ca-86d1-b4c7e00e8925"},"vehicle_type_id":"4","last_reported":1718989673,"current_range_meters":20400,"station_id":"ce4bgih2rcd13ifvqba0","pricing_plan_id":"cebpf4jnsgd1na2vs0mg"},{"bike_id":"4aa87f2e-607b-4759-8a22-76f65b797b5c","system_id":"levelo_inurba_marseille","lat":43.29529,"lon":5.385581,"is_reserved":false,"is_disabled":false,"rental_uris":{"android":"levelo://app?vid=4aa87f2e-607b-4759-8a22-76f65b797b5c","ios":"levelo://app?vid=4aa87f2e-607b-4759-8a22-76f65b797b5c"},"vehicle_type_id":"4","last_reported":1718989673,"current_range_meters":1200,"station_id":"ce4bgih2rcd13ifvqba0","pricing_plan_id":"cebpf4jnsgd1na2vs0mg"},{"bike_id":"ecdba8b9-60dd-4dfb-91ac-473e48a9e09d","system_id":"levelo_inurba_marseille","lat":43.29529,"lon":5.385581,"is_reserved":false,"is_disabled":false,"rental_uris":{"android":"levelo://app?vid=ecdba8b9-60dd-4dfb-91ac-473e48a9e09d","ios":"levelo://app?vid=ecdba8b9-60dd-4dfb-91ac-473e48a9e09d"},"vehicle_type_id":"4","last_reported":1718989673,"current_range_meters":31600,"station_id":"ce4bgih2rcd13ifvqba0","pricing_plan_id":"cebpf4jnsgd1na2vs0mg"},{"bike_id":"6e7ccf66-365c-46ef-aff6-fd7f76725fcc","system_id":"levelo_inurba_marseille","lat":43.29529,"lon":5.385581,"is_reserved":false,"is_disabled":false,"rental_uris":{"android":"levelo://app?vid=6e7ccf66-365c-46ef-aff6-fd7f76725fcc","ios":"levelo://app?vid=6e7ccf66-365c-46ef-aff6-fd7f76725fcc"},"vehicle_type_id":"4","last_reported":1718989673,"current_range_meters":12000,"station_id":"ce4bgih2rcd13ifvqba0","pricing_plan_id":"cebpf4jnsgd1na2vs0mg"},{"bike_id":"fc11e692-dea3-47b1-b738-8178c163ce89","system_id":"levelo_inurba_marseille","lat":43.29529,"lon":5.385581,"is_reserved":false,"is_disabled":false,"rental_uris":{"android":"levelo://app?vid=fc11e692-dea3-47b1-b738-8178c163ce89","ios":"levelo://app?vid=fc11e692-dea3-47b1-b738-8178c163ce89"},"vehicle_type_id":"4","last_reported":1718989673,"current_range_meters":12000,"station_id":"ce4bgih2rcd13ifvqba0","pricing_plan_id":"cebpf4jnsgd1na2vs0mg"},{"bike_id":"48a82c1a-a661-456b-beaf-4005c6d5cdd8","system_id":"levelo_inurba_marseille","lat":43.29529,"lon":5.385581,"is_reserved":false,"is_disabled":false,"rental_uris":{"android":"levelo://app?vid=48a82c1a-a661-456b-beaf-4005c6d5cdd8","ios":"levelo://app?vid=48a82c1a-a661-456b-beaf-4005c6d5cdd8"},"vehicle_type_id":"4","last_reported":1718989673,"current_range_meters":12400,"station_id":"ce4bgih2rcd13ifvqba0","pricing_plan_id":"cebpf4jnsgd1na2vs0mg"},{"bike_id":"b6bf2dfd-6704-4c52-81b9-c36c624d49f6","system_id":"levelo_inurba_marseille","lat":43.29529,"lon":5.385581,"is_reserved":false,"is_disabled":false,"rental_uris":{"android":"levelo://app?vid=b6bf2dfd-6704-4c52-81b9-c36c624d49f6","ios":"levelo://app?vid=b6bf2dfd-6704-4c52-81b9-c36c624d49f6"},"vehicle_type_id":"4","last_reported":1718989673,"current_range_meters":14000,"station_id":"ce4bgih2rcd13ifvqba0","pricing_plan_id":"cebpf4jnsgd1na2vs0mg"},{"bike_id":"b394ba8c-7c01-40a9-a93f-86ac4637b143","system_id":"levelo_inurba_marseille","lat":43.29529,"lon":5.385581,"is_reserved":false,"is_disabled":false,"rental_uris":{"android":"levelo://app?vid=b394ba8c-7c01-40a9-a93f-86ac4637b143","ios":"levelo://app?vid=b394ba8c-7c01-40a9-a93f-86ac4637b143"},"vehicle_type_id":"4","last_reported":1718989673,"current_range_meters":28800,"station_id":"ce4bgih2rcd13ifvqba0","pricing_plan_id":"cebpf4jnsgd1na2vs0mg"},{"bike_id":"84337c7c-6876-495b-a432-f482839cfea2","system_id":"levelo_inurba_marseille","lat":43.29529,"lon":5.385581,"is_reserved":false,"is_disabled":false,"rental_uris":{"android":"levelo://app?vid=84337c7c-6876-495b-a432-f482839cfea2","ios":"levelo://app?vid=84337c7c-6876-495b-a432-f482839cfea2"},"vehicle_type_id":"4","last_reported":1718989673,"current_range_meters":0,"station_id":"ce4bgih2rcd13ifvqba0","pricing_plan_id":"cebpf4jnsgd1na2vs0mg"},{"bike_id":"0bdf9a76-042c-4267-a55c-30a158a64225","system_id":"levelo_inurba_marseille","lat":43.29529,"lon":5.385581,"is_reserved":false,"is_disabled":false,"rental_uris":{"android":"levelo://app?vid=0bdf9a76-042c-4267-a55c-30a158a64225","ios":"levelo://app?vid=0bdf9a76-042c-4267-a55c-30a158a64225"},"vehicle_type_id":"4","last_reported":1718989673,"current_range_meters":30000,"station_id":"ce4bgih2rcd13ifvqba0","pricing_plan_id":"cebpf4jnsgd1na2vs0mg"},{"bike_id":"0ff508f4-1627-40ad-8b8e-038e94cec50e","system_id":"levelo_inurba_marseille","lat":43.29529,"lon":5.385581,"is_reserved":false,"is_disabled":false,"rental_uris":{"android":"levelo://app?vid=0ff508f4-1627-40ad-8b8e-038e94cec50e","ios":"levelo://app?vid=0ff508f4-1627-40ad-8b8e-038e94cec50e"},"vehicle_type_id":"4","last_reported":1718989673,"current_range_meters":0,"station_id":"ce4bgih2rcd13ifvqba0","pricing_plan_id":"cebpf4jnsgd1na2vs0mg"},{"bike_id":"a09d4367-7904-4885-b94e-175d9b091b4f","system_id":"levelo_inurba_marseille","lat":43.290779,"lon":5.371482,"is_reserved":false,"is_disabled":false,"rental_uris":{"android":"levelo://app?vid=a09d4367-7904-4885-b94e-175d9b091b4f","ios":"levelo://app?vid=a09d4367-7904-4885-b94e-175d9b091b4f"},"vehicle_type_id":"4","last_reported":1718989673,"current_range_meters":0,"station_id":"ce4bh5p2rcd13ifvqe4g","pricing_plan_id":"cebpf4jnsgd1na2vs0mg"},{"bike_id":"1217d5c0-e9c7-4795-b84a-6ece7f05f1e0","system_id":"levelo_inurba_marseille","lat":43.290779,"lon":5.371482,"is_reserved":false,"is_disabled":false,"rental_uris":{"android":"levelo://app?vid=1217d5c0-e9c7-4795-b84a-6ece7f05f1e0","ios":"levelo://app?vid=1217d5c0-e9c7-4795-b84a-6ece7f05f1e0"},"vehicle_type_id":"4","last_reported":1718989673,"current_range_meters":17200,"station_id":"ce4bh5p2rcd13ifvqe4g","pricing_plan_id":"cebpf4jnsgd1na2vs0mg"},{"bike_id":"b064984e-e2fa-480b-a537-d1d2f7ec57c2","system_id":"levelo_inurba_marseille","lat":43.302008,"lon":5.394694,"is_reserved":false,"is_disabled":false,"rental_uris":{"android":"levelo://app?vid=b064984e-e2fa-480b-a537-d1d2f7ec57c2","ios":"levelo://app?vid=b064984e-e2fa-480b-a537-d1d2f7ec57c2"},"vehicle_type_id":"4","last_reported":1718989673,"current_range_meters":11600,"station_id":"ce4bh0p2rcd13ifvqd70","pricing_plan_id":"cebpf4jnsgd1na2vs0mg"},{"bike_id":"7aa8dba3-af95-44e4-b2ac-cdd40a7fb21a","system_id":"levelo_inurba_marseille","lat":43.302008,"lon":5.394694,"is_reserved":false,"is_disabled":false,"rental_uris":{"android":"levelo://app?vid=7aa8dba3-af95-44e4-b2ac-cdd40a7fb21a","ios":"levelo://app?vid=7aa8dba3-af95-44e4-b2ac-cdd40a7fb21a"},"vehicle_type_id":"4","last_reported":1718989673,"current_range_meters":15200,"station_id":"ce4bh0p2rcd13ifvqd70","pricing_plan_id":"cebpf4jnsgd1na2vs0mg"},{"bike_id":"5a5319e9-8d2a-4806-bbe3-4a1cbbe73ba3","system_id":"levelo_inurba_marseille","lat":43.302008,"lon":5.394694,"is_reserved":false,"is_disabled":false,"rental_uris":{"android":"levelo://app?vid=5a5319e9-8d2a-4806-bbe3-4a1cbbe73ba3","ios":"levelo://app?vid=5a5319e9-8d2a-4806-bbe3-4a1cbbe73ba3"},"vehicle_type_id":"4","last_reported":1718989673,"current_range_meters":3600,"station_id":"ce4bh0p2rcd13ifvqd70","pricing_plan_id":"cebpf4jnsgd1na2vs0mg"},{"bike_id":"828a6add-16e7-4638-96f4-b6782b22bf59","system_id":"levelo_inurba_marseille","lat":43.29424,"lon":5.38613,"is_reserved":false,"is_disabled":false,"rental_uris":{"android":"levelo://app?vid=828a6add-16e7-4638-96f4-b6782b22bf59","ios":"levelo://app?vid=828a6add-16e7-4638-96f4-b6782b22bf59"},"vehicle_type_id":"4","last_reported":1718989673,"current_range_meters":0,"station_id":"ce4bh2h2rcd13ifvqdh0","pricing_plan_id":"cebpf4jnsgd1na2vs0mg"},{"bike_id":"3b287552-e507-4060-8b9b-94351a3df037","system_id":"levelo_inurba_marseille","lat":43.29422,"lon":5.38628,"is_reserved":false,"is_disabled":false,"rental_uris":{"android":"levelo://app?vid=3b287552-e507-4060-8b9b-94351a3df037","ios":"levelo://app?vid=3b287552-e507-4060-8b9b-94351a3df037"},"vehicle_type_id":"4","last_reported":1718989673,"current_range_meters":31200,"station_id":"ce4bh2h2rcd13ifvqdh0","pricing_plan_id":"cebpf4jnsgd1na2vs0mg"},{"bike_id":"312565f8-0cd8-46e5-a128-bd15b55adbed","system_id":"levelo_inurba_marseille","lat":43.29417,"lon":5.38623,"is_reserved":false,"is_disabled":false,"rental_uris":{"android":"levelo://app?vid=312565f8-0cd8-46e5-a128-bd15b55adbed","ios":"levelo://app?vid=312565f8-0cd8-46e5-a128-bd15b55adbed"},"vehicle_type_id":"4","last_reported":1718989673,"current_range_meters":4400,"station_id":"ce4bh2h2rcd13ifvqdh0","pricing_plan_id":"cebpf4jnsgd1na2vs0mg"},{"bike_id":"d69b9168-0d16-48a2-8191-dec274cbc5db","system_id":"levelo_inurba_marseille","lat":43.29418,"lon":5.38625,"is_reserved":false,"is_disabled":false,"rental_uris":{"android":"levelo://app?vid=d69b9168-0d16-48a2-8191-dec274cbc5db","ios":"levelo://app?vid=d69b9168-0d16-48a2-8191-dec274cbc5db"},"vehicle_type_id":"4","last_reported":1718989673,"current_range_meters":0,"station_id":"ce4bh2h2rcd13ifvqdh0","pricing_plan_id":"cebpf4jnsgd1na2vs0mg"},{"bike_id":"834f449c-adbf-4fe9-b409-120ee131407a","system_id":"levelo_inurba_marseille","lat":43.29415,"lon":5.38621,"is_reserved":false,"is_disabled":false,"rental_uris":{"android":"levelo://app?vid=834f449c-adbf-4fe9-b409-120ee131407a","ios":"levelo://app?vid=834f449c-adbf-4fe9-b409-120ee131407a"},"vehicle_type_id":"4","last_reported":1718989673,"current_range_meters":30800,"station_id":"ce4bh2h2rcd13ifvqdh0","pricing_plan_id":"cebpf4jnsgd1na2vs0mg"},{"bike_id":"8e9fa600-e4f3-4f68-9665-c0092bab17de","system_id":"levelo_inurba_marseille","lat":43.29415,"lon":5.38622,"is_reserved":false,"is_disabled":false,"rental_uris":{"android":"levelo://app?vid=8e9fa600-e4f3-4f68-9665-c0092bab17de","ios":"levelo://app?vid=8e9fa600-e4f3-4f68-9665-c0092bab17de"},"vehicle_type_id":"4","last_reported":1718989673,"current_range_meters":30000,"station_id":"ce4bh2h2rcd13ifvqdh0","pricing_plan_id":"cebpf4jnsgd1na2vs0mg"},{"bike_id":"6ce6c5e0-3166-4bf8-b903-08bdf649a722","system_id":"levelo_inurba_marseille","lat":43.29417,"lon":5.38626,"is_reserved":false,"is_disabled":false,"rental_uris":{"android":"levelo://app?vid=6ce6c5e0-3166-4bf8-b903-08bdf649a722","ios":"levelo://app?vid=6ce6c5e0-3166-4bf8-b903-08bdf649a722"},"vehicle_type_id":"4","last_reported":1718989673,"current_range_meters":0,"station_id":"ce4bh2h2rcd13ifvqdh0","pricing_plan_id":"cebpf4jnsgd1na2vs0mg"},{"bike_id":"59dbb4d2-7da0-4b5e-8cd5-063e4661a316","system_id":"levelo_inurba_marseille","lat":43.29418,"lon":5.38628,"is_reserved":false,"is_disabled":false,"rental_uris":{"android":"levelo://app?vid=59dbb4d2-7da0-4b5e-8cd5-063e4661a316","ios":"levelo://app?vid=59dbb4d2-7da0-4b5e-8cd5-063e4661a316"},"vehicle_type_id":"4","last_reported":1718989673,"current_range_meters":4800,"station_id":"ce4bh2h2rcd13ifvqdh0","pricing_plan_id":"cebpf4jnsgd1na2vs0mg"},{"bike_id":"20e02092-a377-4062-b28b-6c55f115f2b4","system_id":"levelo_inurba_marseille","lat":43.294153,"lon":5.386305,"is_reserved":false,"is_disabled":false,"rental_uris":{"android":"levelo://app?vid=20e02092-a377-4062-b28b-6c55f115f2b4","ios":"levelo://app?vid=20e02092-a377-4062-b28b-6c55f115f2b4"},"vehicle_type_id":"4","last_reported":1718989673,"current_range_meters":19200,"station_id":"ce4bh2h2rcd13ifvqdh0","pricing_plan_id":"cebpf4jnsgd1na2vs0mg"},{"bike_id":"c8e02177-8a8b-4668-88f3-9556a2ce24f1","system_id":"levelo_inurba_marseille","lat":43.29413,"lon":5.38623,"is_reserved":false,"is_disabled":false,"rental_uris":{"android":"levelo://app?vid=c8e02177-8a8b-4668-88f3-9556a2ce24f1","ios":"levelo://app?vid=c8e02177-8a8b-4668-88f3-9556a2ce24f1"},"vehicle_type_id":"4","last_reported":1718989673,"current_range_meters":0,"station_id":"ce4bh2h2rcd13ifvqdh0","pricing_plan_id":"cebpf4jnsgd1na2vs0mg"},{"bike_id":"33e9bf35-c249-43b6-b226-20edf086c020","system_id":"levelo_inurba_marseille","lat":43.29413,"lon":5.38625,"is_reserved":false,"is_disabled":false,"rental_uris":{"android":"levelo://app?vid=33e9bf35-c249-43b6-b226-20edf086c020","ios":"levelo://app?vid=33e9bf35-c249-43b6-b226-20edf086c020"},"vehicle_type_id":"4","last_reported":1718989673,"current_range_meters":20000,"station_id":"ce4bh2h2rcd13ifvqdh0","pricing_plan_id":"cebpf4jnsgd1na2vs0mg"},{"bike_id":"1c048c9f-9eb0-42c2-a5ac-bde34891858b","system_id":"levelo_inurba_marseille","lat":43.29413,"lon":5.38627,"is_reserved":false,"is_disabled":false,"rental_uris":{"android":"levelo://app?vid=1c048c9f-9eb0-42c2-a5ac-bde34891858b","ios":"levelo://app?vid=1c048c9f-9eb0-42c2-a5ac-bde34891858b"},"vehicle_type_id":"4","last_reported":1718989673,"current_range_meters":1600,"station_id":"ce4bh2h2rcd13ifvqdh0","pricing_plan_id":"cebpf4jnsgd1na2vs0mg"},{"bike_id":"0be22c8d-aa89-4edf-9643-9e4c8c35915b","system_id":"levelo_inurba_marseille","lat":43.289184,"lon":5.366408,"is_reserved":false,"is_disabled":false,"rental_uris":{"android":"levelo://app?vid=0be22c8d-aa89-4edf-9643-9e4c8c35915b","ios":"levelo://app?vid=0be22c8d-aa89-4edf-9643-9e4c8c35915b"},"vehicle_type_id":"4","last_reported":1718989673,"current_range_meters":22000,"station_id":"ce4bhap2rcd13ifvqek0","pricing_plan_id":"cebpf4jnsgd1na2vs0mg"},{"bike_id":"96a25c35-57e1-4e49-97fe-1a093523ce02","system_id":"levelo_inurba_marseille","lat":43.289468,"lon":5.363719,"is_reserved":false,"is_disabled":false,"rental_uris":{"android":"levelo://app?vid=96a25c35-57e1-4e49-97fe-1a093523ce02","ios":"levelo://app?vid=96a25c35-57e1-4e49-97fe-1a093523ce02"},"vehicle_type_id":"4","last_reported":1718989673,"current_range_meters":28400,"station_id":"ce4bhc92rcd13ifvqetg","pricing_plan_id":"cebpf4jnsgd1na2vs0mg"},{"bike_id":"ac822f4f-f23d-4741-942f-eb12db27bd77","system_id":"levelo_inurba_marseille","lat":43.289468,"lon":5.363719,"is_reserved":false,"is_disabled":false,"rental_uris":{"android":"levelo://app?vid=ac822f4f-f23d-4741-942f-eb12db27bd77","ios":"levelo://app?vid=ac822f4f-f23d-4741-942f-eb12db27bd77"},"vehicle_type_id":"4","last_reported":1718989673,"current_range_meters":24400,"station_id":"ce4bhc92rcd13ifvqetg","pricing_plan_id":"cebpf4jnsgd1na2vs0mg"},{"bike_id":"b4f1eee5-507d-453e-bdb3-9c99315d54df","system_id":"levelo_inurba_marseille","lat":43.29261,"lon":5.38433,"is_reserved":false,"is_disabled":false,"rental_uris":{"android":"levelo://app?vid=b4f1eee5-507d-453e-bdb3-9c99315d54df","ios":"levelo://app?vid=b4f1eee5-507d-453e-bdb3-9c99315d54df"},"vehicle_type_id":"4","last_reported":1718989673,"current_range_meters":2000,"station_id":"ce4bh692rcd13ifvqea0","pricing_plan_id":"cebpf4jnsgd1na2vs0mg"},{"bike_id":"37bfb117-0666-4281-a19d-c3100f0f05bc","system_id":"levelo_inurba_marseille","lat":43.292642,"lon":5.384254,"is_reserved":false,"is_disabled":false,"rental_uris":{"android":"levelo://app?vid=37bfb117-0666-4281-a19d-c3100f0f05bc","ios":"levelo://app?vid=37bfb117-0666-4281-a19d-c3100f0f05bc"},"vehicle_type_id":"4","last_reported":1718989673,"current_range_meters":0,"station_id":"ce4bh692rcd13ifvqea0","pricing_plan_id":"cebpf4jnsgd1na2vs0mg"},{"bike_id":"9a0e23b8-8e85-4409-be31-34497de02484","system_id":"levelo_inurba_marseille","lat":43.292642,"lon":5.384254,"is_reserved":false,"is_disabled":false,"rental_uris":{"android":"levelo://app?vid=9a0e23b8-8e85-4409-be31-34497de02484","ios":"levelo://app?vid=9a0e23b8-8e85-4409-be31-34497de02484"},"vehicle_type_id":"4","last_reported":1718989673,"current_range_meters":6800,"station_id":"ce4bh692rcd13ifvqea0","pricing_plan_id":"cebpf4jnsgd1na2vs0mg"},{"bike_id":"52ff25d9-4bb2-4188-b738-009fe482d4ef","system_id":"levelo_inurba_marseille","lat":43.292644,"lon":5.384257,"is_reserved":false,"is_disabled":false,"rental_uris":{"android":"levelo://app?vid=52ff25d9-4bb2-4188-b738-009fe482d4ef","ios":"levelo://app?vid=52ff25d9-4bb2-4188-b738-009fe482d4ef"},"vehicle_type_id":"4","last_reported":1718989673,"current_range_meters":14400,"station_id":"ce4bh692rcd13ifvqea0","pricing_plan_id":"cebpf4jnsgd1na2vs0mg"},{"bike_id":"a7c988bf-2cda-4403-85ef-a6b56e550e16","system_id":"levelo_inurba_marseille","lat":43.29256,"lon":5.38439,"is_reserved":false,"is_disabled":false,"rental_uris":{"android":"levelo://app?vid=a7c988bf-2cda-4403-85ef-a6b56e550e16","ios":"levelo://app?vid=a7c988bf-2cda-4403-85ef-a6b56e550e16"},"vehicle_type_id":"4","last_reported":1718989673,"current_range_meters":14000,"station_id":"ce4bh692rcd13ifvqea0","pricing_plan_id":"cebpf4jnsgd1na2vs0mg"},{"bike_id":"844ec1d8-d39f-47ae-b7d8-35e739596a4f","system_id":"levelo_inurba_marseille","lat":43.292644,"lon":5.384257,"is_reserved":false,"is_disabled":false,"rental_uris":{"android":"levelo://app?vid=844ec1d8-d39f-47ae-b7d8-35e739596a4f","ios":"levelo://app?vid=844ec1d8-d39f-47ae-b7d8-35e739596a4f"},"vehicle_type_id":"4","last_reported":1718989673,"current_range_meters":20400,"station_id":"ce4bh692rcd13ifvqea0","pricing_plan_id":"cebpf4jnsgd1na2vs0mg"},{"bike_id":"e803b978-b2b6-40ca-8a6d-c70386515432","system_id":"levelo_inurba_marseille","lat":43.29259,"lon":5.38454,"is_reserved":false,"is_disabled":false,"rental_uris":{"android":"levelo://app?vid=e803b978-b2b6-40ca-8a6d-c70386515432","ios":"levelo://app?vid=e803b978-b2b6-40ca-8a6d-c70386515432"},"vehicle_type_id":"4","last_reported":1718989673,"current_range_meters":6800,"station_id":"ce4bh692rcd13ifvqea0","pricing_plan_id":"cebpf4jnsgd1na2vs0mg"},{"bike_id":"3f4dba2a-9019-4574-a042-54fb9131eef9","system_id":"levelo_inurba_marseille","lat":43.289,"lon":5.36195,"is_reserved":false,"is_disabled":false,"rental_uris":{"android":"levelo://app?vid=3f4dba2a-9019-4574-a042-54fb9131eef9","ios":"levelo://app?vid=3f4dba2a-9019-4574-a042-54fb9131eef9"},"vehicle_type_id":"4","last_reported":1718989673,"current_range_meters":6400,"station_id":"","pricing_plan_id":"cebpf4jnsgd1na2vs0mg"},{"bike_id":"a8b01aeb-cc98-4fd5-b603-5195e11aabec","system_id":"levelo_inurba_marseille","lat":43.290103,"lon":5.356114,"is_reserved":false,"is_disabled":false,"rental_uris":{"android":"levelo://app?vid=a8b01aeb-cc98-4fd5-b603-5195e11aabec","ios":"levelo://app?vid=a8b01aeb-cc98-4fd5-b603-5195e11aabec"},"vehicle_type_id":"4","last_reported":1718989673,"current_range_meters":0,"station_id":"ce4bhb92rcd13ifvqen0","pricing_plan_id":"cebpf4jnsgd1na2vs0mg"},{"bike_id":"d6d44a89-ef21-4724-9d89-3c2951634229","system_id":"levelo_inurba_marseille","lat":43.290104,"lon":5.356111,"is_reserved":false,"is_disabled":false,"rental_uris":{"android":"levelo://app?vid=d6d44a89-ef21-4724-9d89-3c2951634229","ios":"levelo://app?vid=d6d44a89-ef21-4724-9d89-3c2951634229"},"vehicle_type_id":"4","last_reported":1718989673,"current_range_meters":18800,"station_id":"ce4bhb92rcd13ifvqen0","pricing_plan_id":"cebpf4jnsgd1na2vs0mg"},{"bike_id":"a447ebfd-83b7-4996-abe4-15fcc9add3e9","system_id":"levelo_inurba_marseille","lat":43.29788,"lon":5.39323,"is_reserved":false,"is_disabled":false,"rental_uris":{"android":"levelo://app?vid=a447ebfd-83b7-4996-abe4-15fcc9add3e9","ios":"levelo://app?vid=a447ebfd-83b7-4996-abe4-15fcc9add3e9"},"vehicle_type_id":"4","last_reported":1718989673,"current_range_meters":400,"station_id":"chh1huq6cuj3fo74tm60","pricing_plan_id":"cebpf4jnsgd1na2vs0mg"},{"bike_id":"01c0172d-2c4c-4fd3-badd-b3ccba2133cd","system_id":"levelo_inurba_marseille","lat":43.290995,"lon":5.381361,"is_reserved":false,"is_disabled":false,"rental_uris":{"android":"levelo://app?vid=01c0172d-2c4c-4fd3-badd-b3ccba2133cd","ios":"levelo://app?vid=01c0172d-2c4c-4fd3-badd-b3ccba2133cd"},"vehicle_type_id":"4","last_reported":1718989673,"current_range_meters":30800,"station_id":"ce4bh512rcd13ifvqe2g","pricing_plan_id":"cebpf4jnsgd1na2vs0mg"},{"bike_id":"142a99ef-dfbd-4da3-906d-aae0c36ea764","system_id":"levelo_inurba_marseille","lat":43.295169,"lon":5.390426,"is_reserved":false,"is_disabled":false,"rental_uris":{"android":"levelo://app?vid=142a99ef-dfbd-4da3-906d-aae0c36ea764","ios":"levelo://app?vid=142a99ef-dfbd-4da3-906d-aae0c36ea764"},"vehicle_type_id":"4","last_reported":1718989673,"current_range_meters":6800,"station_id":"ce4bh3p2rcd13ifvqdp0","pricing_plan_id":"cebpf4jnsgd1na2vs0mg"},{"bike_id":"83aec871-6900-4ad8-8153-208dda79c8a0","system_id":"levelo_inurba_marseille","lat":43.289741,"lon":5.378306,"is_reserved":false,"is_disabled":false,"rental_uris":{"android":"levelo://app?vid=83aec871-6900-4ad8-8153-208dda79c8a0","ios":"levelo://app?vid=83aec871-6900-4ad8-8153-208dda79c8a0"},"vehicle_type_id":"4","last_reported":1718989673,"current_range_meters":0,"station_id":"ce4bh9p2rcd13ifvqed0","pricing_plan_id":"cebpf4jnsgd1na2vs0mg"},{"bike_id":"2efdd807-a3c4-4ce3-af94-2fe1629c4a3f","system_id":"levelo_inurba_marseille","lat":43.297814,"lon":5.393513,"is_reserved":false,"is_disabled":false,"rental_uris":{"android":"levelo://app?vid=2efdd807-a3c4-4ce3-af94-2fe1629c4a3f","ios":"levelo://app?vid=2efdd807-a3c4-4ce3-af94-2fe1629c4a3f"},"vehicle_type_id":"4","last_reported":1718989673,"current_range_meters":10800,"station_id":"chh1huq6cuj3fo74tm60","pricing_plan_id":"cebpf4jnsgd1na2vs0mg"},{"bike_id":"93a43e40-719c-4e0e-8818-93988821dea0","system_id":"levelo_inurba_marseille","lat":43.295169,"lon":5.390426,"is_reserved":false,"is_disabled":false,"rental_uris":{"android":"levelo://app?vid=93a43e40-719c-4e0e-8818-93988821dea0","ios":"levelo://app?vid=93a43e40-719c-4e0e-8818-93988821dea0"},"vehicle_type_id":"4","last_reported":1718989673,"current_range_meters":25600,"station_id":"ce4bh3p2rcd13ifvqdp0","pricing_plan_id":"cebpf4jnsgd1na2vs0mg"},{"bike_id":"c378967f-2e86-4344-aede-b2be7d9ab5fd","system_id":"levelo_inurba_marseille","lat":43.29529,"lon":5.39051,"is_reserved":false,"is_disabled":false,"rental_uris":{"android":"levelo://app?vid=c378967f-2e86-4344-aede-b2be7d9ab5fd","ios":"levelo://app?vid=c378967f-2e86-4344-aede-b2be7d9ab5fd"},"vehicle_type_id":"4","last_reported":1718989673,"current_range_meters":18800,"station_id":"ce4bh3p2rcd13ifvqdp0","pricing_plan_id":"cebpf4jnsgd1na2vs0mg"},{"bike_id":"a261c3da-b8f2-4832-8e9f-a88868859bb4","system_id":"levelo_inurba_marseille","lat":43.295215,"lon":5.390419,"is_reserved":false,"is_disabled":false,"rental_uris":{"android":"levelo://app?vid=a261c3da-b8f2-4832-8e9f-a88868859bb4","ios":"levelo://app?vid=a261c3da-b8f2-4832-8e9f-a88868859bb4"},"vehicle_type_id":"4","last_reported":1718989673,"current_range_meters":10000,"station_id":"ce4bh3p2rcd13ifvqdp0","pricing_plan_id":"cebpf4jnsgd1na2vs0mg"},{"bike_id":"065b4825-60e1-4fb1-975f-158b3960c3d9","system_id":"levelo_inurba_marseille","lat":43.295169,"lon":5.390426,"is_reserved":false,"is_disabled":false,"rental_uris":{"android":"levelo://app?vid=065b4825-60e1-4fb1-975f-158b3960c3d9","ios":"levelo://app?vid=065b4825-60e1-4fb1-975f-158b3960c3d9"},"vehicle_type_id":"4","last_reported":1718989673,"current_range_meters":5200,"station_id":"ce4bh3p2rcd13ifvqdp0","pricing_plan_id":"cebpf4jnsgd1na2vs0mg"},{"bike_id":"f0c6277c-6b87-409e-93c4-be87a5797afe","system_id":"levelo_inurba_marseille","lat":43.29519,"lon":5.39045,"is_reserved":false,"is_disabled":false,"rental_uris":{"android":"levelo://app?vid=f0c6277c-6b87-409e-93c4-be87a5797afe","ios":"levelo://app?vid=f0c6277c-6b87-409e-93c4-be87a5797afe"},"vehicle_type_id":"4","last_reported":1718989673,"current_range_meters":6400,"station_id":"ce4bh3p2rcd13ifvqdp0","pricing_plan_id":"cebpf4jnsgd1na2vs0mg"},{"bike_id":"95c48da4-b1ea-4c7c-8f4b-5f780f018775","system_id":"levelo_inurba_marseille","lat":43.29516,"lon":5.39045,"is_reserved":false,"is_disabled":false,"rental_uris":{"android":"levelo://app?vid=95c48da4-b1ea-4c7c-8f4b-5f780f018775","ios":"levelo://app?vid=95c48da4-b1ea-4c7c-8f4b-5f780f018775"},"vehicle_type_id":"4","last_reported":1718989673,"current_range_meters":31200,"station_id":"ce4bh3p2rcd13ifvqdp0","pricing_plan_id":"cebpf4jnsgd1na2vs0mg"},{"bike_id":"5ec3c6c6-6138-441b-a8e7-9a2c83fd9eef","system_id":"levelo_inurba_marseille","lat":43.295169,"lon":5.390426,"is_reserved":false,"is_disabled":false,"rental_uris":{"android":"levelo://app?vid=5ec3c6c6-6138-441b-a8e7-9a2c83fd9eef","ios":"levelo://app?vid=5ec3c6c6-6138-441b-a8e7-9a2c83fd9eef"},"vehicle_type_id":"4","last_reported":1718989673,"current_range_meters":0,"station_id":"ce4bh3p2rcd13ifvqdp0","pricing_plan_id":"cebpf4jnsgd1na2vs0mg"},{"bike_id":"89c76322-6ccf-4b6e-ad45-96becbd71b17","system_id":"levelo_inurba_marseille","lat":43.295169,"lon":5.390426,"is_reserved":false,"is_disabled":false,"rental_uris":{"android":"levelo://app?vid=89c76322-6ccf-4b6e-ad45-96becbd71b17","ios":"levelo://app?vid=89c76322-6ccf-4b6e-ad45-96becbd71b17"},"vehicle_type_id":"4","last_reported":1718989673,"current_range_meters":28000,"station_id":"ce4bh3p2rcd13ifvqdp0","pricing_plan_id":"cebpf4jnsgd1na2vs0mg"},{"bike_id":"e6528d05-09b0-4dcd-b05d-1935fb91b78d","system_id":"levelo_inurba_marseille","lat":43.29517,"lon":5.39054,"is_reserved":false,"is_disabled":false,"rental_uris":{"android":"levelo://app?vid=e6528d05-09b0-4dcd-b05d-1935fb91b78d","ios":"levelo://app?vid=e6528d05-09b0-4dcd-b05d-1935fb91b78d"},"vehicle_type_id":"4","last_reported":1718989673,"current_range_meters":21600,"station_id":"ce4bh3p2rcd13ifvqdp0","pricing_plan_id":"cebpf4jnsgd1na2vs0mg"},{"bike_id":"2bb69026-40fa-4282-b6d7-c91bba8c7045","system_id":"levelo_inurba_marseille","lat":43.295169,"lon":5.390426,"is_reserved":false,"is_disabled":false,"rental_uris":{"android":"levelo://app?vid=2bb69026-40fa-4282-b6d7-c91bba8c7045","ios":"levelo://app?vid=2bb69026-40fa-4282-b6d7-c91bba8c7045"},"vehicle_type_id":"4","last_reported":1718989673,"current_range_meters":16000,"station_id":"ce4bh3p2rcd13ifvqdp0","pricing_plan_id":"cebpf4jnsgd1na2vs0mg"},{"bike_id":"04d92fd0-9438-4e20-994a-65d22995fcc4","system_id":"levelo_inurba_marseille","lat":43.2901,"lon":5.381269,"is_reserved":false,"is_disabled":false,"rental_uris":{"android":"levelo://app?vid=04d92fd0-9438-4e20-994a-65d22995fcc4","ios":"levelo://app?vid=04d92fd0-9438-4e20-994a-65d22995fcc4"},"vehicle_type_id":"4","last_reported":1718989673,"current_range_meters":31200,"station_id":"ce4bh4p2rcd13ifvqe1g","pricing_plan_id":"cebpf4jnsgd1na2vs0mg"},{"bike_id":"db534928-e6a2-47cc-a852-558fe66ed50c","system_id":"levelo_inurba_marseille","lat":43.33735,"lon":5.3747,"is_reserved":false,"is_disabled":false,"rental_uris":{"android":"levelo://app?vid=db534928-e6a2-47cc-a852-558fe66ed50c","ios":"levelo://app?vid=db534928-e6a2-47cc-a852-558fe66ed50c"},"vehicle_type_id":"4","last_reported":1718989673,"current_range_meters":22000,"station_id":"","pricing_plan_id":"cebpf4jnsgd1na2vs0mg"},{"bike_id":"05092e03-5cef-41c3-9575-df5db7507ebd","system_id":"levelo_inurba_marseille","lat":43.33739,"lon":5.37464,"is_reserved":false,"is_disabled":false,"rental_uris":{"android":"levelo://app?vid=05092e03-5cef-41c3-9575-df5db7507ebd","ios":"levelo://app?vid=05092e03-5cef-41c3-9575-df5db7507ebd"},"vehicle_type_id":"4","last_reported":1718989673,"current_range_meters":22800,"station_id":"","pricing_plan_id":"cebpf4jnsgd1na2vs0mg"},{"bike_id":"d689a06a-4369-4cef-9754-43dddd10e797","system_id":"levelo_inurba_marseille","lat":43.312609,"lon":5.401662,"is_reserved":false,"is_disabled":false,"rental_uris":{"android":"levelo://app?vid=d689a06a-4369-4cef-9754-43dddd10e797","ios":"levelo://app?vid=d689a06a-4369-4cef-9754-43dddd10e797"},"vehicle_type_id":"4","last_reported":1718989673,"current_range_meters":0,"station_id":"ce4bh092rcd13ifvqd30","pricing_plan_id":"cebpf4jnsgd1na2vs0mg"},{"bike_id":"df7d5fcd-6750-4e54-acaa-7b1750230e2e","system_id":"levelo_inurba_marseille","lat":43.30155,"lon":5.39819,"is_reserved":false,"is_disabled":false,"rental_uris":{"android":"levelo://app?vid=df7d5fcd-6750-4e54-acaa-7b1750230e2e","ios":"levelo://app?vid=df7d5fcd-6750-4e54-acaa-7b1750230e2e"},"vehicle_type_id":"4","last_reported":1718989673,"current_range_meters":0,"station_id":"","pricing_plan_id":"cebpf4jnsgd1na2vs0mg"},{"bike_id":"47810f1a-1216-4418-ad34-08df273dbdd2","system_id":"levelo_inurba_marseille","lat":43.309371,"lon":5.401449,"is_reserved":false,"is_disabled":false,"rental_uris":{"android":"levelo://app?vid=47810f1a-1216-4418-ad34-08df273dbdd2","ios":"levelo://app?vid=47810f1a-1216-4418-ad34-08df273dbdd2"},"vehicle_type_id":"4","last_reported":1718989673,"current_range_meters":6400,"station_id":"ce4bgvp2rcd13ifvqct0","pricing_plan_id":"cebpf4jnsgd1na2vs0mg"},{"bike_id":"6e445f2c-ca64-4b5f-91f7-41d553691ea5","system_id":"levelo_inurba_marseille","lat":43.33755,"lon":5.37433,"is_reserved":false,"is_disabled":false,"rental_uris":{"android":"levelo://app?vid=6e445f2c-ca64-4b5f-91f7-41d553691ea5","ios":"levelo://app?vid=6e445f2c-ca64-4b5f-91f7-41d553691ea5"},"vehicle_type_id":"4","last_reported":1718989673,"current_range_meters":30800,"station_id":"","pricing_plan_id":"cebpf4jnsgd1na2vs0mg"},{"bike_id":"a00c218c-138a-4388-aca4-2952a6961815","system_id":"levelo_inurba_marseille","lat":43.337452,"lon":5.374928,"is_reserved":false,"is_disabled":false,"rental_uris":{"android":"levelo://app?vid=a00c218c-138a-4388-aca4-2952a6961815","ios":"levelo://app?vid=a00c218c-138a-4388-aca4-2952a6961815"},"vehicle_type_id":"4","last_reported":1718989673,"current_range_meters":30000,"station_id":"","pricing_plan_id":"cebpf4jnsgd1na2vs0mg"},{"bike_id":"0e11bbab-a5d9-4098-a6f1-624d89f27c59","system_id":"levelo_inurba_marseille","lat":43.337572,"lon":5.374546,"is_reserved":false,"is_disabled":false,"rental_uris":{"android":"levelo://app?vid=0e11bbab-a5d9-4098-a6f1-624d89f27c59","ios":"levelo://app?vid=0e11bbab-a5d9-4098-a6f1-624d89f27c59"},"vehicle_type_id":"4","last_reported":1718989673,"current_range_meters":27600,"station_id":"","pricing_plan_id":"cebpf4jnsgd1na2vs0mg"},{"bike_id":"c9b66a2b-0639-4d7a-b560-2bf673d8bd00","system_id":"levelo_inurba_marseille","lat":43.33033,"lon":5.39233,"is_reserved":false,"is_disabled":false,"rental_uris":{"android":"levelo://app?vid=c9b66a2b-0639-4d7a-b560-2bf673d8bd00","ios":"levelo://app?vid=c9b66a2b-0639-4d7a-b560-2bf673d8bd00"},"vehicle_type_id":"4","last_reported":1718989673,"current_range_meters":0,"station_id":"","pricing_plan_id":"cebpf4jnsgd1na2vs0mg"},{"bike_id":"c2330fee-8a15-408f-9b20-55afc88440c5","system_id":"levelo_inurba_marseille","lat":43.33032,"lon":5.39238,"is_reserved":false,"is_disabled":false,"rental_uris":{"android":"levelo://app?vid=c2330fee-8a15-408f-9b20-55afc88440c5","ios":"levelo://app?vid=c2330fee-8a15-408f-9b20-55afc88440c5"},"vehicle_type_id":"4","last_reported":1718989673,"current_range_meters":0,"station_id":"","pricing_plan_id":"cebpf4jnsgd1na2vs0mg"},{"bike_id":"e7be790b-07e4-40f3-b60f-da683b157943","system_id":"levelo_inurba_marseille","lat":43.33033,"lon":5.39238,"is_reserved":false,"is_disabled":false,"rental_uris":{"android":"levelo://app?vid=e7be790b-07e4-40f3-b60f-da683b157943","ios":"levelo://app?vid=e7be790b-07e4-40f3-b60f-da683b157943"},"vehicle_type_id":"4","last_reported":1718989673,"current_range_meters":22000,"station_id":"","pricing_plan_id":"cebpf4jnsgd1na2vs0mg"},{"bike_id":"a77bf3f1-dc55-4e35-8fe0-6292cee970ef","system_id":"levelo_inurba_marseille","lat":43.33035,"lon":5.39239,"is_reserved":false,"is_disabled":false,"rental_uris":{"android":"levelo://app?vid=a77bf3f1-dc55-4e35-8fe0-6292cee970ef","ios":"levelo://app?vid=a77bf3f1-dc55-4e35-8fe0-6292cee970ef"},"vehicle_type_id":"4","last_reported":1718989673,"current_range_meters":24800,"station_id":"","pricing_plan_id":"cebpf4jnsgd1na2vs0mg"},{"bike_id":"49cd187c-ad83-4781-b627-aa996a309ef2","system_id":"levelo_inurba_marseille","lat":43.290345,"lon":5.38646,"is_reserved":false,"is_disabled":false,"rental_uris":{"android":"levelo://app?vid=49cd187c-ad83-4781-b627-aa996a309ef2","ios":"levelo://app?vid=49cd187c-ad83-4781-b627-aa996a309ef2"},"vehicle_type_id":"4","last_reported":1718989673,"current_range_meters":5200,"station_id":"ce4bh4p2rcd13ifvqe0g","pricing_plan_id":"cebpf4jnsgd1na2vs0mg"},{"bike_id":"50f704c9-8f8a-43ca-baf0-021fade19a36","system_id":"levelo_inurba_marseille","lat":43.301117,"lon":5.398795,"is_reserved":false,"is_disabled":false,"rental_uris":{"android":"levelo://app?vid=50f704c9-8f8a-43ca-baf0-021fade19a36","ios":"levelo://app?vid=50f704c9-8f8a-43ca-baf0-021fade19a36"},"vehicle_type_id":"4","last_reported":1718989673,"current_range_meters":0,"station_id":"ce4bh0h2rcd13ifvqd40","pricing_plan_id":"cebpf4jnsgd1na2vs0mg"},{"bike_id":"a845f5d2-5eae-4715-b82a-27495cc1095b","system_id":"levelo_inurba_marseille","lat":43.301117,"lon":5.398795,"is_reserved":false,"is_disabled":false,"rental_uris":{"android":"levelo://app?vid=a845f5d2-5eae-4715-b82a-27495cc1095b","ios":"levelo://app?vid=a845f5d2-5eae-4715-b82a-27495cc1095b"},"vehicle_type_id":"4","last_reported":1718989673,"current_range_meters":0,"station_id":"ce4bh0h2rcd13ifvqd40","pricing_plan_id":"cebpf4jnsgd1na2vs0mg"},{"bike_id":"f1e0265f-df20-4cbe-a680-0b53e674baa9","system_id":"levelo_inurba_marseille","lat":43.301117,"lon":5.398795,"is_reserved":false,"is_disabled":false,"rental_uris":{"android":"levelo://app?vid=f1e0265f-df20-4cbe-a680-0b53e674baa9","ios":"levelo://app?vid=f1e0265f-df20-4cbe-a680-0b53e674baa9"},"vehicle_type_id":"4","last_reported":1718989673,"current_range_meters":2800,"station_id":"ce4bh0h2rcd13ifvqd40","pricing_plan_id":"cebpf4jnsgd1na2vs0mg"},{"bike_id":"1529575d-3c24-4053-9dc4-3fc753c20a3e","system_id":"levelo_inurba_marseille","lat":43.3304,"lon":5.39281,"is_reserved":false,"is_disabled":false,"rental_uris":{"android":"levelo://app?vid=1529575d-3c24-4053-9dc4-3fc753c20a3e","ios":"levelo://app?vid=1529575d-3c24-4053-9dc4-3fc753c20a3e"},"vehicle_type_id":"4","last_reported":1718989673,"current_range_meters":5200,"station_id":"","pricing_plan_id":"cebpf4jnsgd1na2vs0mg"},{"bike_id":"3a9f9167-cd54-4da5-9ad9-9192d81c6685","system_id":"levelo_inurba_marseille","lat":43.29873,"lon":5.3973,"is_reserved":false,"is_disabled":false,"rental_uris":{"android":"levelo://app?vid=3a9f9167-cd54-4da5-9ad9-9192d81c6685","ios":"levelo://app?vid=3a9f9167-cd54-4da5-9ad9-9192d81c6685"},"vehicle_type_id":"4","last_reported":1718989673,"current_range_meters":0,"station_id":"ce4bh0h2rcd13ifvqd50","pricing_plan_id":"cebpf4jnsgd1na2vs0mg"},{"bike_id":"7c7fb54a-850d-45af-a5b9-2bafa0cc6487","system_id":"levelo_inurba_marseille","lat":43.286961,"lon":5.373785,"is_reserved":false,"is_disabled":false,"rental_uris":{"android":"levelo://app?vid=7c7fb54a-850d-45af-a5b9-2bafa0cc6487","ios":"levelo://app?vid=7c7fb54a-850d-45af-a5b9-2bafa0cc6487"},"vehicle_type_id":"4","last_reported":1718989673,"current_range_meters":6800,"station_id":"ce4bh3p2rcd13ifvqdq0","pricing_plan_id":"cebpf4jnsgd1na2vs0mg"},{"bike_id":"5f95bddd-8ad1-4ef5-ba36-0728245cb251","system_id":"levelo_inurba_marseille","lat":43.29869,"lon":5.39734,"is_reserved":false,"is_disabled":false,"rental_uris":{"android":"levelo://app?vid=5f95bddd-8ad1-4ef5-ba36-0728245cb251","ios":"levelo://app?vid=5f95bddd-8ad1-4ef5-ba36-0728245cb251"},"vehicle_type_id":"4","last_reported":1718989673,"current_range_meters":0,"station_id":"ce4bh0h2rcd13ifvqd50","pricing_plan_id":"cebpf4jnsgd1na2vs0mg"},{"bike_id":"fe735764-7033-4b43-aab5-b4feb153ab39","system_id":"levelo_inurba_marseille","lat":43.298681,"lon":5.397225,"is_reserved":false,"is_disabled":false,"rental_uris":{"android":"levelo://app?vid=fe735764-7033-4b43-aab5-b4feb153ab39","ios":"levelo://app?vid=fe735764-7033-4b43-aab5-b4feb153ab39"},"vehicle_type_id":"4","last_reported":1718989673,"current_range_meters":19600,"station_id":"ce4bh0h2rcd13ifvqd50","pricing_plan_id":"cebpf4jnsgd1na2vs0mg"},{"bike_id":"8f0375e4-92c5-422c-96c3-5fe1813a3063","system_id":"levelo_inurba_marseille","lat":43.286961,"lon":5.373785,"is_reserved":false,"is_disabled":false,"rental_uris":{"android":"levelo://app?vid=8f0375e4-92c5-422c-96c3-5fe1813a3063","ios":"levelo://app?vid=8f0375e4-92c5-422c-96c3-5fe1813a3063"},"vehicle_type_id":"4","last_reported":1718989673,"current_range_meters":0,"station_id":"ce4bh3p2rcd13ifvqdq0","pricing_plan_id":"cebpf4jnsgd1na2vs0mg"},{"bike_id":"6e942535-baa0-49a3-ba49-248b4bec5f97","system_id":"levelo_inurba_marseille","lat":43.286593,"lon":5.363346,"is_reserved":false,"is_disabled":false,"rental_uris":{"android":"levelo://app?vid=6e942535-baa0-49a3-ba49-248b4bec5f97","ios":"levelo://app?vid=6e942535-baa0-49a3-ba49-248b4bec5f97"},"vehicle_type_id":"4","last_reported":1718989673,"current_range_meters":19200,"station_id":"ce4bhah2rcd13ifvqej0","pricing_plan_id":"cebpf4jnsgd1na2vs0mg"},{"bike_id":"60d02880-9d4f-4da8-b937-18b69d63a9b3","system_id":"levelo_inurba_marseille","lat":43.298681,"lon":5.397225,"is_reserved":false,"is_disabled":false,"rental_uris":{"android":"levelo://app?vid=60d02880-9d4f-4da8-b937-18b69d63a9b3","ios":"levelo://app?vid=60d02880-9d4f-4da8-b937-18b69d63a9b3"},"vehicle_type_id":"4","last_reported":1718989673,"current_range_meters":31200,"station_id":"ce4bh0h2rcd13ifvqd50","pricing_plan_id":"cebpf4jnsgd1na2vs0mg"},{"bike_id":"e7339c32-9b69-4140-9653-c845819d9096","system_id":"levelo_inurba_marseille","lat":43.290345,"lon":5.38646,"is_reserved":false,"is_disabled":false,"rental_uris":{"android":"levelo://app?vid=e7339c32-9b69-4140-9653-c845819d9096","ios":"levelo://app?vid=e7339c32-9b69-4140-9653-c845819d9096"},"vehicle_type_id":"4","last_reported":1718989673,"current_range_meters":26000,"station_id":"ce4bh4p2rcd13ifvqe0g","pricing_plan_id":"cebpf4jnsgd1na2vs0mg"},{"bike_id":"fe1ede22-7ae3-46c0-b891-d0713ea70ecb","system_id":"levelo_inurba_marseille","lat":43.295194,"lon":5.39397,"is_reserved":false,"is_disabled":false,"rental_uris":{"android":"levelo://app?vid=fe1ede22-7ae3-46c0-b891-d0713ea70ecb","ios":"levelo://app?vid=fe1ede22-7ae3-46c0-b891-d0713ea70ecb"},"vehicle_type_id":"4","last_reported":1718989673,"current_range_meters":4000,"station_id":"ce4bh292rcd13ifvqdf0","pricing_plan_id":"cebpf4jnsgd1na2vs0mg"},{"bike_id":"1915822a-3316-4402-9189-364b15ff87b0","system_id":"levelo_inurba_marseille","lat":43.295194,"lon":5.39397,"is_reserved":false,"is_disabled":false,"rental_uris":{"android":"levelo://app?vid=1915822a-3316-4402-9189-364b15ff87b0","ios":"levelo://app?vid=1915822a-3316-4402-9189-364b15ff87b0"},"vehicle_type_id":"4","last_reported":1718989673,"current_range_meters":31200,"station_id":"ce4bh292rcd13ifvqdf0","pricing_plan_id":"cebpf4jnsgd1na2vs0mg"},{"bike_id":"72085c6e-012d-4085-99c4-475fddec34ab","system_id":"levelo_inurba_marseille","lat":43.289307,"lon":5.38406,"is_reserved":false,"is_disabled":false,"rental_uris":{"android":"levelo://app?vid=72085c6e-012d-4085-99c4-475fddec34ab","ios":"levelo://app?vid=72085c6e-012d-4085-99c4-475fddec34ab"},"vehicle_type_id":"4","last_reported":1718989673,"current_range_meters":0,"station_id":"ce4bh612rcd13ifvqe6g","pricing_plan_id":"cebpf4jnsgd1na2vs0mg"},{"bike_id":"61607dfb-ed50-4db4-9f3e-7bf27c4049ee","system_id":"levelo_inurba_marseille","lat":43.30245,"lon":5.40054,"is_reserved":false,"is_disabled":false,"rental_uris":{"android":"levelo://app?vid=61607dfb-ed50-4db4-9f3e-7bf27c4049ee","ios":"levelo://app?vid=61607dfb-ed50-4db4-9f3e-7bf27c4049ee"},"vehicle_type_id":"4","last_reported":1718989673,"current_range_meters":0,"station_id":"ce4bgvh2rcd13ifvqcs0","pricing_plan_id":"cebpf4jnsgd1na2vs0mg"},{"bike_id":"6c6bbba9-80f5-4ca0-9ba7-3aa0e3a2c6ee","system_id":"levelo_inurba_marseille","lat":43.302759,"lon":5.400793,"is_reserved":false,"is_disabled":false,"rental_uris":{"android":"levelo://app?vid=6c6bbba9-80f5-4ca0-9ba7-3aa0e3a2c6ee","ios":"levelo://app?vid=6c6bbba9-80f5-4ca0-9ba7-3aa0e3a2c6ee"},"vehicle_type_id":"4","last_reported":1718989673,"current_range_meters":30800,"station_id":"ce4bgvh2rcd13ifvqcs0","pricing_plan_id":"cebpf4jnsgd1na2vs0mg"},{"bike_id":"bc17386f-0ea8-404b-b2ea-62c9ab8c17d5","system_id":"levelo_inurba_marseille","lat":43.290336,"lon":5.386425,"is_reserved":false,"is_disabled":false,"rental_uris":{"android":"levelo://app?vid=bc17386f-0ea8-404b-b2ea-62c9ab8c17d5","ios":"levelo://app?vid=bc17386f-0ea8-404b-b2ea-62c9ab8c17d5"},"vehicle_type_id":"4","last_reported":1718989673,"current_range_meters":13600,"station_id":"ce4bh4p2rcd13ifvqe0g","pricing_plan_id":"cebpf4jnsgd1na2vs0mg"},{"bike_id":"40b2039e-5c8b-4696-9456-37bebb165164","system_id":"levelo_inurba_marseille","lat":43.287185,"lon":5.379373,"is_reserved":false,"is_disabled":false,"rental_uris":{"android":"levelo://app?vid=40b2039e-5c8b-4696-9456-37bebb165164","ios":"levelo://app?vid=40b2039e-5c8b-4696-9456-37bebb165164"},"vehicle_type_id":"4","last_reported":1718989673,"current_range_meters":28800,"station_id":"ce4bh9p2rcd13ifvqec0","pricing_plan_id":"cebpf4jnsgd1na2vs0mg"},{"bike_id":"f674f9fd-f1a7-44d6-9b5f-765b14997d97","system_id":"levelo_inurba_marseille","lat":43.2998,"lon":5.40035,"is_reserved":false,"is_disabled":false,"rental_uris":{"android":"levelo://app?vid=f674f9fd-f1a7-44d6-9b5f-765b14997d97","ios":"levelo://app?vid=f674f9fd-f1a7-44d6-9b5f-765b14997d97"},"vehicle_type_id":"4","last_reported":1718989673,"current_range_meters":16800,"station_id":"","pricing_plan_id":"cebpf4jnsgd1na2vs0mg"},{"bike_id":"fef8b7d2-d17e-40e7-a449-f56a83246bb8","system_id":"levelo_inurba_marseille","lat":43.3126,"lon":5.40479,"is_reserved":false,"is_disabled":false,"rental_uris":{"android":"levelo://app?vid=fef8b7d2-d17e-40e7-a449-f56a83246bb8","ios":"levelo://app?vid=fef8b7d2-d17e-40e7-a449-f56a83246bb8"},"vehicle_type_id":"4","last_reported":1718989673,"current_range_meters":3200,"station_id":"","pricing_plan_id":"cebpf4jnsgd1na2vs0mg"},{"bike_id":"f4a6fccf-6457-4706-8b9a-ed6eb67df10f","system_id":"levelo_inurba_marseille","lat":43.31694,"lon":5.40464,"is_reserved":false,"is_disabled":false,"rental_uris":{"android":"levelo://app?vid=f4a6fccf-6457-4706-8b9a-ed6eb67df10f","ios":"levelo://app?vid=f4a6fccf-6457-4706-8b9a-ed6eb67df10f"},"vehicle_type_id":"4","last_reported":1718989673,"current_range_meters":0,"station_id":"ce4bh012rcd13ifvqd00","pricing_plan_id":"cebpf4jnsgd1na2vs0mg"},{"bike_id":"b7780172-f913-44f8-a810-636511a31e9b","system_id":"levelo_inurba_marseille","lat":43.316821,"lon":5.404737,"is_reserved":false,"is_disabled":false,"rental_uris":{"android":"levelo://app?vid=b7780172-f913-44f8-a810-636511a31e9b","ios":"levelo://app?vid=b7780172-f913-44f8-a810-636511a31e9b"},"vehicle_type_id":"4","last_reported":1718989673,"current_range_meters":7600,"station_id":"ce4bh012rcd13ifvqd00","pricing_plan_id":"cebpf4jnsgd1na2vs0mg"},{"bike_id":"bc956cb7-a470-4b84-9039-0022e6c8e1fc","system_id":"levelo_inurba_marseille","lat":43.28672,"lon":5.38318,"is_reserved":false,"is_disabled":false,"rental_uris":{"android":"levelo://app?vid=bc956cb7-a470-4b84-9039-0022e6c8e1fc","ios":"levelo://app?vid=bc956cb7-a470-4b84-9039-0022e6c8e1fc"},"vehicle_type_id":"4","last_reported":1718989673,"current_range_meters":28400,"station_id":"","pricing_plan_id":"cebpf4jnsgd1na2vs0mg"},{"bike_id":"2d8af8ed-a4bf-4608-a4f4-b92f7add3b5a","system_id":"levelo_inurba_marseille","lat":43.294484,"lon":5.397544,"is_reserved":false,"is_disabled":false,"rental_uris":{"android":"levelo://app?vid=2d8af8ed-a4bf-4608-a4f4-b92f7add3b5a","ios":"levelo://app?vid=2d8af8ed-a4bf-4608-a4f4-b92f7add3b5a"},"vehicle_type_id":"4","last_reported":1718989673,"current_range_meters":0,"station_id":"ce4bh3h2rcd13ifvqdo0","pricing_plan_id":"cebpf4jnsgd1na2vs0mg"},{"bike_id":"983b3445-cd28-4406-b3eb-fb029c0a7826","system_id":"levelo_inurba_marseille","lat":43.294439,"lon":5.397501,"is_reserved":false,"is_disabled":false,"rental_uris":{"android":"levelo://app?vid=983b3445-cd28-4406-b3eb-fb029c0a7826","ios":"levelo://app?vid=983b3445-cd28-4406-b3eb-fb029c0a7826"},"vehicle_type_id":"4","last_reported":1718989673,"current_range_meters":0,"station_id":"ce4bh3h2rcd13ifvqdo0","pricing_plan_id":"cebpf4jnsgd1na2vs0mg"},{"bike_id":"253a87c3-50c5-40f6-97d4-f1a72306c8a0","system_id":"levelo_inurba_marseille","lat":43.285856,"lon":5.350771,"is_reserved":false,"is_disabled":false,"rental_uris":{"android":"levelo://app?vid=253a87c3-50c5-40f6-97d4-f1a72306c8a0","ios":"levelo://app?vid=253a87c3-50c5-40f6-97d4-f1a72306c8a0"},"vehicle_type_id":"4","last_reported":1718989673,"current_range_meters":17600,"station_id":"ce4bhch2rcd13ifvqeug","pricing_plan_id":"cebpf4jnsgd1na2vs0mg"},{"bike_id":"b0d1d082-761e-4e71-b232-77da6943b4d7","system_id":"levelo_inurba_marseille","lat":43.283998,"lon":5.375062,"is_reserved":false,"is_disabled":false,"rental_uris":{"android":"levelo://app?vid=b0d1d082-761e-4e71-b232-77da6943b4d7","ios":"levelo://app?vid=b0d1d082-761e-4e71-b232-77da6943b4d7"},"vehicle_type_id":"4","last_reported":1718989673,"current_range_meters":0,"station_id":"ce4bh412rcd13ifvqds0","pricing_plan_id":"cebpf4jnsgd1na2vs0mg"},{"bike_id":"fb73e12e-39a8-4f24-8ab7-df295819a247","system_id":"levelo_inurba_marseille","lat":43.2957,"lon":5.39969,"is_reserved":false,"is_disabled":false,"rental_uris":{"android":"levelo://app?vid=fb73e12e-39a8-4f24-8ab7-df295819a247","ios":"levelo://app?vid=fb73e12e-39a8-4f24-8ab7-df295819a247"},"vehicle_type_id":"4","last_reported":1718989673,"current_range_meters":0,"station_id":"ce4bh312rcd13ifvqdj0","pricing_plan_id":"cebpf4jnsgd1na2vs0mg"},{"bike_id":"79d75958-de16-4166-9092-184f9507e781","system_id":"levelo_inurba_marseille","lat":43.29751,"lon":5.40134,"is_reserved":false,"is_disabled":false,"rental_uris":{"android":"levelo://app?vid=79d75958-de16-4166-9092-184f9507e781","ios":"levelo://app?vid=79d75958-de16-4166-9092-184f9507e781"},"vehicle_type_id":"4","last_reported":1718989673,"current_range_meters":0,"station_id":"","pricing_plan_id":"cebpf4jnsgd1na2vs0mg"},{"bike_id":"dc312d88-cc8e-49c7-8e3b-17bfe82a2708","system_id":"levelo_inurba_marseille","lat":43.283998,"lon":5.375062,"is_reserved":false,"is_disabled":false,"rental_uris":{"android":"levelo://app?vid=dc312d88-cc8e-49c7-8e3b-17bfe82a2708","ios":"levelo://app?vid=dc312d88-cc8e-49c7-8e3b-17bfe82a2708"},"vehicle_type_id":"4","last_reported":1718989673,"current_range_meters":1600,"station_id":"ce4bh412rcd13ifvqds0","pricing_plan_id":"cebpf4jnsgd1na2vs0mg"},{"bike_id":"cbc8e3ba-5c86-402b-8186-1caf553e487d","system_id":"levelo_inurba_marseille","lat":43.319179,"lon":5.407725,"is_reserved":false,"is_disabled":false,"rental_uris":{"android":"levelo://app?vid=cbc8e3ba-5c86-402b-8186-1caf553e487d","ios":"levelo://app?vid=cbc8e3ba-5c86-402b-8186-1caf553e487d"},"vehicle_type_id":"4","last_reported":1718989673,"current_range_meters":20400,"station_id":"ce4bhq12rcd13ifvqhig","pricing_plan_id":"cebpf4jnsgd1na2vs0mg"},{"bike_id":"5d8a624f-45c0-4d82-8899-e1a8da177ca3","system_id":"levelo_inurba_marseille","lat":43.319179,"lon":5.407725,"is_reserved":false,"is_disabled":false,"rental_uris":{"android":"levelo://app?vid=5d8a624f-45c0-4d82-8899-e1a8da177ca3","ios":"levelo://app?vid=5d8a624f-45c0-4d82-8899-e1a8da177ca3"},"vehicle_type_id":"4","last_reported":1718989673,"current_range_meters":30800,"station_id":"ce4bhq12rcd13ifvqhig","pricing_plan_id":"cebpf4jnsgd1na2vs0mg"},{"bike_id":"a3ed557b-85fd-4f79-ba1c-7209899e3e4c","system_id":"levelo_inurba_marseille","lat":43.284787,"lon":5.384116,"is_reserved":false,"is_disabled":false,"rental_uris":{"android":"levelo://app?vid=a3ed557b-85fd-4f79-ba1c-7209899e3e4c","ios":"levelo://app?vid=a3ed557b-85fd-4f79-ba1c-7209899e3e4c"},"vehicle_type_id":"4","last_reported":1718989673,"current_range_meters":2800,"station_id":"ce4bh512rcd13ifvqe3g","pricing_plan_id":"cebpf4jnsgd1na2vs0mg"},{"bike_id":"18cc1187-6ebd-4ce1-88ed-40312a7477cf","system_id":"levelo_inurba_marseille","lat":43.284787,"lon":5.384116,"is_reserved":false,"is_disabled":false,"rental_uris":{"android":"levelo://app?vid=18cc1187-6ebd-4ce1-88ed-40312a7477cf","ios":"levelo://app?vid=18cc1187-6ebd-4ce1-88ed-40312a7477cf"},"vehicle_type_id":"4","last_reported":1718989673,"current_range_meters":0,"station_id":"ce4bh512rcd13ifvqe3g","pricing_plan_id":"cebpf4jnsgd1na2vs0mg"},{"bike_id":"d115e95a-e059-49fe-9175-432de25339ae","system_id":"levelo_inurba_marseille","lat":43.284793,"lon":5.384119,"is_reserved":false,"is_disabled":false,"rental_uris":{"android":"levelo://app?vid=d115e95a-e059-49fe-9175-432de25339ae","ios":"levelo://app?vid=d115e95a-e059-49fe-9175-432de25339ae"},"vehicle_type_id":"4","last_reported":1718989673,"current_range_meters":0,"station_id":"ce4bh512rcd13ifvqe3g","pricing_plan_id":"cebpf4jnsgd1na2vs0mg"},{"bike_id":"ec34c3d3-9770-4b22-af50-cc267f5b8267","system_id":"levelo_inurba_marseille","lat":43.288497,"lon":5.393089,"is_reserved":false,"is_disabled":false,"rental_uris":{"android":"levelo://app?vid=ec34c3d3-9770-4b22-af50-cc267f5b8267","ios":"levelo://app?vid=ec34c3d3-9770-4b22-af50-cc267f5b8267"},"vehicle_type_id":"4","last_reported":1718989673,"current_range_meters":400,"station_id":"ce4bh2p2rcd13ifvqdi0","pricing_plan_id":"cebpf4jnsgd1na2vs0mg"},{"bike_id":"01c24a53-4f51-4e9a-8e37-2f81256094cc","system_id":"levelo_inurba_marseille","lat":43.292734,"lon":5.401188,"is_reserved":false,"is_disabled":false,"rental_uris":{"android":"levelo://app?vid=01c24a53-4f51-4e9a-8e37-2f81256094cc","ios":"levelo://app?vid=01c24a53-4f51-4e9a-8e37-2f81256094cc"},"vehicle_type_id":"4","last_reported":1718989673,"current_range_meters":0,"station_id":"ce4bh312rcd13ifvqdk0","pricing_plan_id":"cebpf4jnsgd1na2vs0mg"},{"bike_id":"bb995786-6a8a-497e-8843-c15cc9bdd91c","system_id":"levelo_inurba_marseille","lat":43.282744,"lon":5.350533,"is_reserved":false,"is_disabled":false,"rental_uris":{"android":"levelo://app?vid=bb995786-6a8a-497e-8843-c15cc9bdd91c","ios":"levelo://app?vid=bb995786-6a8a-497e-8843-c15cc9bdd91c"},"vehicle_type_id":"4","last_reported":1718989673,"current_range_meters":21600,"station_id":"ce4bhbp2rcd13ifvqerg","pricing_plan_id":"cebpf4jnsgd1na2vs0mg"},{"bike_id":"5eb1d469-cd73-416d-85b9-ddecf9ba207a","system_id":"levelo_inurba_marseille","lat":43.282754,"lon":5.350519,"is_reserved":false,"is_disabled":false,"rental_uris":{"android":"levelo://app?vid=5eb1d469-cd73-416d-85b9-ddecf9ba207a","ios":"levelo://app?vid=5eb1d469-cd73-416d-85b9-ddecf9ba207a"},"vehicle_type_id":"4","last_reported":1718989673,"current_range_meters":0,"station_id":"ce4bhbp2rcd13ifvqerg","pricing_plan_id":"cebpf4jnsgd1na2vs0mg"},{"bike_id":"dd08f801-6811-4ea6-96df-92e9c8a853a7","system_id":"levelo_inurba_marseille","lat":43.282744,"lon":5.350533,"is_reserved":false,"is_disabled":false,"rental_uris":{"android":"levelo://app?vid=dd08f801-6811-4ea6-96df-92e9c8a853a7","ios":"levelo://app?vid=dd08f801-6811-4ea6-96df-92e9c8a853a7"},"vehicle_type_id":"4","last_reported":1718989673,"current_range_meters":23600,"station_id":"ce4bhbp2rcd13ifvqerg","pricing_plan_id":"cebpf4jnsgd1na2vs0mg"},{"bike_id":"9255eb29-0250-471f-982b-ed9f39790a17","system_id":"levelo_inurba_marseille","lat":43.28042,"lon":5.36939,"is_reserved":false,"is_disabled":false,"rental_uris":{"android":"levelo://app?vid=9255eb29-0250-471f-982b-ed9f39790a17","ios":"levelo://app?vid=9255eb29-0250-471f-982b-ed9f39790a17"},"vehicle_type_id":"4","last_reported":1718989673,"current_range_meters":0,"station_id":"ce4bha12rcd13ifvqef0","pricing_plan_id":"cebpf4jnsgd1na2vs0mg"},{"bike_id":"bb3ff4dd-579b-4338-bf70-e31022084488","system_id":"levelo_inurba_marseille","lat":43.282744,"lon":5.350533,"is_reserved":false,"is_disabled":false,"rental_uris":{"android":"levelo://app?vid=bb3ff4dd-579b-4338-bf70-e31022084488","ios":"levelo://app?vid=bb3ff4dd-579b-4338-bf70-e31022084488"},"vehicle_type_id":"4","last_reported":1718989673,"current_range_meters":16000,"station_id":"ce4bhbp2rcd13ifvqerg","pricing_plan_id":"cebpf4jnsgd1na2vs0mg"},{"bike_id":"83e5200d-fa65-4cc0-a1c4-f62c4383c02a","system_id":"levelo_inurba_marseille","lat":43.283502,"lon":5.386471,"is_reserved":false,"is_disabled":false,"rental_uris":{"android":"levelo://app?vid=83e5200d-fa65-4cc0-a1c4-f62c4383c02a","ios":"levelo://app?vid=83e5200d-fa65-4cc0-a1c4-f62c4383c02a"},"vehicle_type_id":"4","last_reported":1718989673,"current_range_meters":0,"station_id":"ce4bh492rcd13ifvqdvg","pricing_plan_id":"cebpf4jnsgd1na2vs0mg"},{"bike_id":"dd248cdd-50d3-4510-8be9-527edb8c3974","system_id":"levelo_inurba_marseille","lat":43.28033,"lon":5.3694,"is_reserved":false,"is_disabled":false,"rental_uris":{"android":"levelo://app?vid=dd248cdd-50d3-4510-8be9-527edb8c3974","ios":"levelo://app?vid=dd248cdd-50d3-4510-8be9-527edb8c3974"},"vehicle_type_id":"4","last_reported":1718989673,"current_range_meters":2000,"station_id":"ce4bha12rcd13ifvqef0","pricing_plan_id":"cebpf4jnsgd1na2vs0mg"},{"bike_id":"a7aac065-ad35-4aa5-9eac-0d21958400cf","system_id":"levelo_inurba_marseille","lat":43.28028,"lon":5.36938,"is_reserved":false,"is_disabled":false,"rental_uris":{"android":"levelo://app?vid=a7aac065-ad35-4aa5-9eac-0d21958400cf","ios":"levelo://app?vid=a7aac065-ad35-4aa5-9eac-0d21958400cf"},"vehicle_type_id":"4","last_reported":1718989673,"current_range_meters":0,"station_id":"ce4bha12rcd13ifvqef0","pricing_plan_id":"cebpf4jnsgd1na2vs0mg"},{"bike_id":"23b32089-2dff-46ab-844e-732aca7266d9","system_id":"levelo_inurba_marseille","lat":43.28027,"lon":5.36939,"is_reserved":false,"is_disabled":false,"rental_uris":{"android":"levelo://app?vid=23b32089-2dff-46ab-844e-732aca7266d9","ios":"levelo://app?vid=23b32089-2dff-46ab-844e-732aca7266d9"},"vehicle_type_id":"4","last_reported":1718989673,"current_range_meters":10000,"station_id":"ce4bha12rcd13ifvqef0","pricing_plan_id":"cebpf4jnsgd1na2vs0mg"},{"bike_id":"78156966-51a5-4259-96f0-4794303023b8","system_id":"levelo_inurba_marseille","lat":43.28039,"lon":5.369297,"is_reserved":false,"is_disabled":false,"rental_uris":{"android":"levelo://app?vid=78156966-51a5-4259-96f0-4794303023b8","ios":"levelo://app?vid=78156966-51a5-4259-96f0-4794303023b8"},"vehicle_type_id":"4","last_reported":1718989673,"current_range_meters":400,"station_id":"ce4bha12rcd13ifvqef0","pricing_plan_id":"cebpf4jnsgd1na2vs0mg"},{"bike_id":"92552b77-fbb2-406d-bea1-777585524d22","system_id":"levelo_inurba_marseille","lat":43.281044,"lon":5.378308,"is_reserved":false,"is_disabled":false,"rental_uris":{"android":"levelo://app?vid=92552b77-fbb2-406d-bea1-777585524d22","ios":"levelo://app?vid=92552b77-fbb2-406d-bea1-777585524d22"},"vehicle_type_id":"4","last_reported":1718989673,"current_range_meters":6000,"station_id":"ce4bha12rcd13ifvqee0","pricing_plan_id":"cebpf4jnsgd1na2vs0mg"},{"bike_id":"bdfeb5c6-eafc-4f2c-9e5b-9596b0448480","system_id":"levelo_inurba_marseille","lat":43.281044,"lon":5.378308,"is_reserved":false,"is_disabled":false,"rental_uris":{"android":"levelo://app?vid=bdfeb5c6-eafc-4f2c-9e5b-9596b0448480","ios":"levelo://app?vid=bdfeb5c6-eafc-4f2c-9e5b-9596b0448480"},"vehicle_type_id":"4","last_reported":1718989673,"current_range_meters":6400,"station_id":"ce4bha12rcd13ifvqee0","pricing_plan_id":"cebpf4jnsgd1na2vs0mg"},{"bike_id":"b6e427cc-030f-49fa-9606-4b31eebc892f","system_id":"levelo_inurba_marseille","lat":43.284462,"lon":5.392121,"is_reserved":false,"is_disabled":false,"rental_uris":{"android":"levelo://app?vid=b6e427cc-030f-49fa-9606-4b31eebc892f","ios":"levelo://app?vid=b6e427cc-030f-49fa-9606-4b31eebc892f"},"vehicle_type_id":"4","last_reported":1718989673,"current_range_meters":27600,"station_id":"ce4bhoh2rcd13ifvqh5g","pricing_plan_id":"cebpf4jnsgd1na2vs0mg"},{"bike_id":"69426005-87e4-41fe-8553-9d6c50ef11d9","system_id":"levelo_inurba_marseille","lat":43.279087,"lon":5.380114,"is_reserved":false,"is_disabled":false,"rental_uris":{"android":"levelo://app?vid=69426005-87e4-41fe-8553-9d6c50ef11d9","ios":"levelo://app?vid=69426005-87e4-41fe-8553-9d6c50ef11d9"},"vehicle_type_id":"4","last_reported":1718989673,"current_range_meters":8000,"station_id":"ce4bhf92rcd13ifvqf50","pricing_plan_id":"cebpf4jnsgd1na2vs0mg"},{"bike_id":"bc797d51-8ade-4e3a-8cbf-057f68991645","system_id":"levelo_inurba_marseille","lat":43.27906,"lon":5.38007,"is_reserved":false,"is_disabled":false,"rental_uris":{"android":"levelo://app?vid=bc797d51-8ade-4e3a-8cbf-057f68991645","ios":"levelo://app?vid=bc797d51-8ade-4e3a-8cbf-057f68991645"},"vehicle_type_id":"4","last_reported":1718989673,"current_range_meters":12800,"station_id":"ce4bhf92rcd13ifvqf50","pricing_plan_id":"cebpf4jnsgd1na2vs0mg"},{"bike_id":"4c231419-5884-4800-88ea-7f1445530dda","system_id":"levelo_inurba_marseille","lat":43.279087,"lon":5.380114,"is_reserved":false,"is_disabled":false,"rental_uris":{"android":"levelo://app?vid=4c231419-5884-4800-88ea-7f1445530dda","ios":"levelo://app?vid=4c231419-5884-4800-88ea-7f1445530dda"},"vehicle_type_id":"4","last_reported":1718989673,"current_range_meters":0,"station_id":"ce4bhf92rcd13ifvqf50","pricing_plan_id":"cebpf4jnsgd1na2vs0mg"},{"bike_id":"0c0cf063-3f66-4c89-8079-9acbe495adc0","system_id":"levelo_inurba_marseille","lat":43.28705,"lon":5.39988,"is_reserved":false,"is_disabled":false,"rental_uris":{"android":"levelo://app?vid=0c0cf063-3f66-4c89-8079-9acbe495adc0","ios":"levelo://app?vid=0c0cf063-3f66-4c89-8079-9acbe495adc0"},"vehicle_type_id":"4","last_reported":1718989673,"current_range_meters":0,"station_id":"ce4bho92rcd13ifvqh3g","pricing_plan_id":"cebpf4jnsgd1na2vs0mg"},{"bike_id":"0a15721c-38ae-439d-92a9-092be999be4d","system_id":"levelo_inurba_marseille","lat":43.28695,"lon":5.3998,"is_reserved":false,"is_disabled":false,"rental_uris":{"android":"levelo://app?vid=0a15721c-38ae-439d-92a9-092be999be4d","ios":"levelo://app?vid=0a15721c-38ae-439d-92a9-092be999be4d"},"vehicle_type_id":"4","last_reported":1718989673,"current_range_meters":0,"station_id":"ce4bho92rcd13ifvqh3g","pricing_plan_id":"cebpf4jnsgd1na2vs0mg"},{"bike_id":"4a7e1512-0bb6-403d-9d76-458aee854d35","system_id":"levelo_inurba_marseille","lat":43.299579,"lon":5.413255,"is_reserved":false,"is_disabled":false,"rental_uris":{"android":"levelo://app?vid=4a7e1512-0bb6-403d-9d76-458aee854d35","ios":"levelo://app?vid=4a7e1512-0bb6-403d-9d76-458aee854d35"},"vehicle_type_id":"4","last_reported":1718989673,"current_range_meters":20400,"station_id":"ce4bhp12rcd13ifvqh9g","pricing_plan_id":"cebpf4jnsgd1na2vs0mg"},{"bike_id":"eb7eeb46-cb45-45af-9edd-17656277ae81","system_id":"levelo_inurba_marseille","lat":43.299579,"lon":5.413255,"is_reserved":false,"is_disabled":false,"rental_uris":{"android":"levelo://app?vid=eb7eeb46-cb45-45af-9edd-17656277ae81","ios":"levelo://app?vid=eb7eeb46-cb45-45af-9edd-17656277ae81"},"vehicle_type_id":"4","last_reported":1718989673,"current_range_meters":28000,"station_id":"ce4bhp12rcd13ifvqh9g","pricing_plan_id":"cebpf4jnsgd1na2vs0mg"},{"bike_id":"ee35e966-234d-4703-bd62-b8ddb63445ec","system_id":"levelo_inurba_marseille","lat":43.299577,"lon":5.413277,"is_reserved":false,"is_disabled":false,"rental_uris":{"android":"levelo://app?vid=ee35e966-234d-4703-bd62-b8ddb63445ec","ios":"levelo://app?vid=ee35e966-234d-4703-bd62-b8ddb63445ec"},"vehicle_type_id":"4","last_reported":1718989673,"current_range_meters":14000,"station_id":"ce4bhp12rcd13ifvqh9g","pricing_plan_id":"cebpf4jnsgd1na2vs0mg"},{"bike_id":"f00a316f-87f1-485d-8d03-34ac05b90f95","system_id":"levelo_inurba_marseille","lat":43.279742,"lon":5.38744,"is_reserved":false,"is_disabled":false,"rental_uris":{"android":"levelo://app?vid=f00a316f-87f1-485d-8d03-34ac05b90f95","ios":"levelo://app?vid=f00a316f-87f1-485d-8d03-34ac05b90f95"},