{"last_updated":1726333677,"ttl":30,"version":"2.2","data":{"bikes":[{"bike_id":"78b7b752-89ab-4d79-95ae-11957cb4908d","system_id":"levelo_inurba_marseille","lat":43.32292,"lon":5.38261,"is_reserved":false,"is_disabled":false,"rental_uris":{"android":"levelo://app?vid=78b7b752-89ab-4d79-95ae-11957cb4908d","ios":"levelo://app?vid=78b7b752-89ab-4d79-95ae-11957cb4908d"},"vehicle_type_id":"4","last_reported":1726333677,"current_range_meters":28400,"station_id":"ce4bhr12rcd13ifvqhqg","pricing_plan_id":"cebpf4jnsgd1na2vs0mg"},{"bike_id":"5ac99355-4c7a-4bb2-a856-f7d0bd716ab4","system_id":"levelo_inurba_marseille","lat":43.2942,"lon":5.38625,"is_reserved":false,"is_disabled":false,"rental_uris":{"android":"levelo://app?vid=5ac99355-4c7a-4bb2-a856-f7d0bd716ab4","ios":"levelo://app?vid=5ac99355-4c7a-4bb2-a856-f7d0bd716ab4"},"vehicle_type_id":"4","last_reported":1726333677,"current_range_meters":8400,"station_id":"ce4bh2h2rcd13ifvqdh0","pricing_plan_id":"cebpf4jnsgd1na2vs0mg"},{"bike_id":"1433cc86-19c5-4d38-a0b5-c5c087739e0a","system_id":"levelo_inurba_marseille","lat":43.22927,"lon":5.35375,"is_reserved":false,"is_disabled":false,"rental_uris":{"android":"levelo://app?vid=1433cc86-19c5-4d38-a0b5-c5c087739e0a","ios":"levelo://app?vid=1433cc86-19c5-4d38-a0b5-c5c087739e0a"},"vehicle_type_id":"4","last_reported":1726333677,"current_range_meters":25200,"station_id":"cpo3532slgdg3j2ikp40","pricing_plan_id":"cebpf4jnsgd1na2vs0mg"},{"bike_id":"ed9abaca-cc3a-4ce8-88db-5fa8612efb56","system_id":"levelo_inurba_marseille","lat":43.29242,"lon":5.36061,"is_reserved":false,"is_disabled":false,"rental_uris":{"android":"levelo://app?vid=ed9abaca-cc3a-4ce8-88db-5fa8612efb56","ios":"levelo://app?vid=ed9abaca-cc3a-4ce8-88db-5fa8612efb56"},"vehicle_type_id":"4","last_reported":1726333677,"current_range_meters":35200,"station_id":"ce4bhbh2rcd13ifvqeqg","pricing_plan_id":"cebpf4jnsgd1na2vs0mg"},{"bike_id":"083984dd-1abd-4a7d-84c6-e8ceb7b63abe","system_id":"levelo_inurba_marseille","lat":43.31294,"lon":5.37812,"is_reserved":false,"is_disabled":false,"rental_uris":{"android":"levelo://app?vid=083984dd-1abd-4a7d-84c6-e8ceb7b63abe","ios":"levelo://app?vid=083984dd-1abd-4a7d-84c6-e8ceb7b63abe"},"vehicle_type_id":"4","last_reported":1726333677,"current_range_meters":37600,"station_id":"","pricing_plan_id":"cebpf4jnsgd1na2vs0mg"},{"bike_id":"16532e4c-0462-47c6-985e-ae6a993a18c4","system_id":"levelo_inurba_marseille","lat":43.2941,"lon":5.3863,"is_reserved":false,"is_disabled":false,"rental_uris":{"android":"levelo://app?vid=16532e4c-0462-47c6-985e-ae6a993a18c4","ios":"levelo://app?vid=16532e4c-0462-47c6-985e-ae6a993a18c4"},"vehicle_type_id":"4","last_reported":1726333677,"current_range_meters":2800,"station_id":"ce4bh2h2rcd13ifvqdh0","pricing_plan_id":"cebpf4jnsgd1na2vs0mg"},{"bike_id":"ea63a9bf-ab7a-4dfc-aadc-555a28bd95c2","system_id":"levelo_inurba_marseille","lat":43.30355,"lon":5.41876,"is_reserved":false,"is_disabled":false,"rental_uris":{"android":"levelo://app?vid=ea63a9bf-ab7a-4dfc-aadc-555a28bd95c2","ios":"levelo://app?vid=ea63a9bf-ab7a-4dfc-aadc-555a28bd95c2"},"vehicle_type_id":"4","last_reported":1726333677,"current_range_meters":19600,"station_id":"ce4bhop2rcd13ifvqh7g","pricing_plan_id":"cebpf4jnsgd1na2vs0mg"},{"bike_id":"78e8b1af-39b3-4486-9f1e-8f9320f078e7","system_id":"levelo_inurba_marseille","lat":43.2694,"lon":5.40256,"is_reserved":false,"is_disabled":false,"rental_uris":{"android":"levelo://app?vid=78e8b1af-39b3-4486-9f1e-8f9320f078e7","ios":"levelo://app?vid=78e8b1af-39b3-4486-9f1e-8f9320f078e7"},"vehicle_type_id":"4","last_reported":1726333677,"current_range_meters":38000,"station_id":"cjm6bp8fraef2m0cb0m0","pricing_plan_id":"cebpf4jnsgd1na2vs0mg"},{"bike_id":"4aef7966-3967-4b60-9f27-03b22b3c78cd","system_id":"levelo_inurba_marseille","lat":43.29411,"lon":5.38628,"is_reserved":false,"is_disabled":false,"rental_uris":{"android":"levelo://app?vid=4aef7966-3967-4b60-9f27-03b22b3c78cd","ios":"levelo://app?vid=4aef7966-3967-4b60-9f27-03b22b3c78cd"},"vehicle_type_id":"4","last_reported":1726333677,"current_range_meters":17600,"station_id":"ce4bh2h2rcd13ifvqdh0","pricing_plan_id":"cebpf4jnsgd1na2vs0mg"},{"bike_id":"13c4bde3-79a1-495d-a0c0-1dbceff892e5","system_id":"levelo_inurba_marseille","lat":43.25932,"lon":5.40911,"is_reserved":false,"is_disabled":false,"rental_uris":{"android":"levelo://app?vid=13c4bde3-79a1-495d-a0c0-1dbceff892e5","ios":"levelo://app?vid=13c4bde3-79a1-495d-a0c0-1dbceff892e5"},"vehicle_type_id":"4","last_reported":1726333677,"current_range_meters":7200,"station_id":"ce4bhm92rcd13ifvqglg","pricing_plan_id":"cebpf4jnsgd1na2vs0mg"},{"bike_id":"ccb3c9e6-9ade-4d9a-bcc5-3aaa23c63374","system_id":"levelo_inurba_marseille","lat":43.24662,"lon":5.38161,"is_reserved":false,"is_disabled":false,"rental_uris":{"android":"levelo://app?vid=ccb3c9e6-9ade-4d9a-bcc5-3aaa23c63374","ios":"levelo://app?vid=ccb3c9e6-9ade-4d9a-bcc5-3aaa23c63374"},"vehicle_type_id":"4","last_reported":1726333677,"current_range_meters":3200,"station_id":"ce4bhih2rcd13ifvqfr0","pricing_plan_id":"cebpf4jnsgd1na2vs0mg"},{"bike_id":"13ec4916-f0ea-4897-8afc-596425b42c42","system_id":"levelo_inurba_marseille","lat":43.23195,"lon":5.35552,"is_reserved":false,"is_disabled":false,"rental_uris":{"android":"levelo://app?vid=13ec4916-f0ea-4897-8afc-596425b42c42","ios":"levelo://app?vid=13ec4916-f0ea-4897-8afc-596425b42c42"},"vehicle_type_id":"4","last_reported":1726333677,"current_range_meters":26000,"station_id":"ce4bhu92rcd13ifvqi70","pricing_plan_id":"cebpf4jnsgd1na2vs0mg"},{"bike_id":"80e67a00-ef8c-47ab-af77-512ecc3203cc","system_id":"levelo_inurba_marseille","lat":43.30353,"lon":5.41876,"is_reserved":false,"is_disabled":false,"rental_uris":{"android":"levelo://app?vid=80e67a00-ef8c-47ab-af77-512ecc3203cc","ios":"levelo://app?vid=80e67a00-ef8c-47ab-af77-512ecc3203cc"},"vehicle_type_id":"4","last_reported":1726333677,"current_range_meters":10000,"station_id":"ce4bhop2rcd13ifvqh7g","pricing_plan_id":"cebpf4jnsgd1na2vs0mg"},{"bike_id":"f42e63e6-0376-4fc0-a80d-76732dfb6fe1","system_id":"levelo_inurba_marseille","lat":43.28675,"lon":5.38671,"is_reserved":false,"is_disabled":false,"rental_uris":{"android":"levelo://app?vid=f42e63e6-0376-4fc0-a80d-76732dfb6fe1","ios":"levelo://app?vid=f42e63e6-0376-4fc0-a80d-76732dfb6fe1"},"vehicle_type_id":"4","last_reported":1726333677,"current_range_meters":14800,"station_id":"ce4bh492rcd13ifvqdug","pricing_plan_id":"cebpf4jnsgd1na2vs0mg"},{"bike_id":"1b69e28d-b657-4802-b5dd-aa17fb5a768b","system_id":"levelo_inurba_marseille","lat":43.27163,"lon":5.42808,"is_reserved":false,"is_disabled":false,"rental_uris":{"android":"levelo://app?vid=1b69e28d-b657-4802-b5dd-aa17fb5a768b","ios":"levelo://app?vid=1b69e28d-b657-4802-b5dd-aa17fb5a768b"},"vehicle_type_id":"4","last_reported":1726333677,"current_range_meters":25200,"station_id":"","pricing_plan_id":"cebpf4jnsgd1na2vs0mg"},{"bike_id":"995d3a7e-289e-4ebd-b785-9d2da426ad57","system_id":"levelo_inurba_marseille","lat":43.23193,"lon":5.35549,"is_reserved":false,"is_disabled":false,"rental_uris":{"android":"levelo://app?vid=995d3a7e-289e-4ebd-b785-9d2da426ad57","ios":"levelo://app?vid=995d3a7e-289e-4ebd-b785-9d2da426ad57"},"vehicle_type_id":"4","last_reported":1726333677,"current_range_meters":19200,"station_id":"ce4bhu92rcd13ifvqi70","pricing_plan_id":"cebpf4jnsgd1na2vs0mg"},{"bike_id":"74c67d55-8a5f-40c9-8066-d68354718f8c","system_id":"levelo_inurba_marseille","lat":43.23188,"lon":5.35552,"is_reserved":false,"is_disabled":false,"rental_uris":{"android":"levelo://app?vid=74c67d55-8a5f-40c9-8066-d68354718f8c","ios":"levelo://app?vid=74c67d55-8a5f-40c9-8066-d68354718f8c"},"vehicle_type_id":"4","last_reported":1726333677,"current_range_meters":24800,"station_id":"ce4bhu92rcd13ifvqi70","pricing_plan_id":"cebpf4jnsgd1na2vs0mg"},{"bike_id":"2348432a-2e1b-4480-8221-dc0ae33b40e8","system_id":"levelo_inurba_marseille","lat":43.24391,"lon":5.37062,"is_reserved":false,"is_disabled":false,"rental_uris":{"android":"levelo://app?vid=2348432a-2e1b-4480-8221-dc0ae33b40e8","ios":"levelo://app?vid=2348432a-2e1b-4480-8221-dc0ae33b40e8"},"vehicle_type_id":"4","last_reported":1726333677,"current_range_meters":19600,"station_id":"ce4bhhh2rcd13ifvqfk0","pricing_plan_id":"cebpf4jnsgd1na2vs0mg"},{"bike_id":"800976f0-afec-47ca-8f1d-602c7d4384d7","system_id":"levelo_inurba_marseille","lat":43.31756,"lon":5.39013,"is_reserved":false,"is_disabled":false,"rental_uris":{"android":"levelo://app?vid=800976f0-afec-47ca-8f1d-602c7d4384d7","ios":"levelo://app?vid=800976f0-afec-47ca-8f1d-602c7d4384d7"},"vehicle_type_id":"4","last_reported":1726333677,"current_range_meters":16000,"station_id":"ce4bhqp2rcd13ifvqhng","pricing_plan_id":"cebpf4jnsgd1na2vs0mg"},{"bike_id":"5f3461c7-455c-4dd1-845d-d9b247d646ee","system_id":"levelo_inurba_marseille","lat":43.25109,"lon":5.39444,"is_reserved":false,"is_disabled":false,"rental_uris":{"android":"levelo://app?vid=5f3461c7-455c-4dd1-845d-d9b247d646ee","ios":"levelo://app?vid=5f3461c7-455c-4dd1-845d-d9b247d646ee"},"vehicle_type_id":"4","last_reported":1726333677,"current_range_meters":36800,"station_id":"ce4bhm12rcd13ifvqgkg","pricing_plan_id":"cebpf4jnsgd1na2vs0mg"},{"bike_id":"d0b58367-a304-4a76-91e0-08059d9200ca","system_id":"levelo_inurba_marseille","lat":43.24067,"lon":5.37764,"is_reserved":false,"is_disabled":false,"rental_uris":{"android":"levelo://app?vid=d0b58367-a304-4a76-91e0-08059d9200ca","ios":"levelo://app?vid=d0b58367-a304-4a76-91e0-08059d9200ca"},"vehicle_type_id":"4","last_reported":1726333677,"current_range_meters":38800,"station_id":"ce4bhnp2rcd13ifvqgvg","pricing_plan_id":"cebpf4jnsgd1na2vs0mg"},{"bike_id":"5695be2b-9a5b-4c85-9c3e-237c284c36d2","system_id":"levelo_inurba_marseille","lat":43.32295,"lon":5.3826,"is_reserved":false,"is_disabled":false,"rental_uris":{"android":"levelo://app?vid=5695be2b-9a5b-4c85-9c3e-237c284c36d2","ios":"levelo://app?vid=5695be2b-9a5b-4c85-9c3e-237c284c36d2"},"vehicle_type_id":"4","last_reported":1726333677,"current_range_meters":39200,"station_id":"ce4bhr12rcd13ifvqhqg","pricing_plan_id":"cebpf4jnsgd1na2vs0mg"},{"bike_id":"6bb4dc32-64c3-4cd9-8227-671dacde581f","system_id":"levelo_inurba_marseille","lat":43.26559,"lon":5.39014,"is_reserved":false,"is_disabled":false,"rental_uris":{"android":"levelo://app?vid=6bb4dc32-64c3-4cd9-8227-671dacde581f","ios":"levelo://app?vid=6bb4dc32-64c3-4cd9-8227-671dacde581f"},"vehicle_type_id":"4","last_reported":1726333677,"current_range_meters":20800,"station_id":"ce4bhe12rcd13ifvqf30","pricing_plan_id":"cebpf4jnsgd1na2vs0mg"},{"bike_id":"bf28b48c-7f55-471b-a70c-8c0f83526061","system_id":"levelo_inurba_marseille","lat":43.283414,"lon":5.380976,"is_reserved":false,"is_disabled":false,"rental_uris":{"android":"levelo://app?vid=bf28b48c-7f55-471b-a70c-8c0f83526061","ios":"levelo://app?vid=bf28b48c-7f55-471b-a70c-8c0f83526061"},"vehicle_type_id":"4","last_reported":1726333677,"current_range_meters":3200,"station_id":"ce4bh412rcd13ifvqdr0","pricing_plan_id":"cebpf4jnsgd1na2vs0mg"},{"bike_id":"aac07f6f-d068-41e5-80ed-ad695afca2fa","system_id":"levelo_inurba_marseille","lat":43.2572,"lon":5.41116,"is_reserved":false,"is_disabled":false,"rental_uris":{"android":"levelo://app?vid=aac07f6f-d068-41e5-80ed-ad695afca2fa","ios":"levelo://app?vid=aac07f6f-d068-41e5-80ed-ad695afca2fa"},"vehicle_type_id":"4","last_reported":1726333677,"current_range_meters":36400,"station_id":"ce4bhkp2rcd13ifvqgd0","pricing_plan_id":"cebpf4jnsgd1na2vs0mg"},{"bike_id":"4d170c7a-0ca4-4194-8109-7efeb5ba72af","system_id":"levelo_inurba_marseille","lat":43.29207,"lon":5.358061,"is_reserved":false,"is_disabled":false,"rental_uris":{"android":"levelo://app?vid=4d170c7a-0ca4-4194-8109-7efeb5ba72af","ios":"levelo://app?vid=4d170c7a-0ca4-4194-8109-7efeb5ba72af"},"vehicle_type_id":"4","last_reported":1726333677,"current_range_meters":14800,"station_id":"ce4bhb12rcd13ifvqel0","pricing_plan_id":"cebpf4jnsgd1na2vs0mg"},{"bike_id":"30fc1f51-20b6-4e13-8f56-75175e166910","system_id":"levelo_inurba_marseille","lat":43.2306,"lon":5.35492,"is_reserved":false,"is_disabled":false,"rental_uris":{"android":"levelo://app?vid=30fc1f51-20b6-4e13-8f56-75175e166910","ios":"levelo://app?vid=30fc1f51-20b6-4e13-8f56-75175e166910"},"vehicle_type_id":"4","last_reported":1726333677,"current_range_meters":38800,"station_id":"cpo3342slgdg3j2ifvpg","pricing_plan_id":"cebpf4jnsgd1na2vs0mg"},{"bike_id":"16a55a0e-cabc-4ae3-b719-58798f88fb8a","system_id":"levelo_inurba_marseille","lat":43.29647,"lon":5.37162,"is_reserved":false,"is_disabled":false,"rental_uris":{"android":"levelo://app?vid=16a55a0e-cabc-4ae3-b719-58798f88fb8a","ios":"levelo://app?vid=16a55a0e-cabc-4ae3-b719-58798f88fb8a"},"vehicle_type_id":"4","last_reported":1726333677,"current_range_meters":0,"station_id":"ce4bgnh2rcd13ifvqc0g","pricing_plan_id":"cebpf4jnsgd1na2vs0mg"},{"bike_id":"f89ebaff-608b-48c6-99bf-a4efd018954e","system_id":"levelo_inurba_marseille","lat":43.25721,"lon":5.41117,"is_reserved":false,"is_disabled":false,"rental_uris":{"android":"levelo://app?vid=f89ebaff-608b-48c6-99bf-a4efd018954e","ios":"levelo://app?vid=f89ebaff-608b-48c6-99bf-a4efd018954e"},"vehicle_type_id":"4","last_reported":1726333677,"current_range_meters":21600,"station_id":"ce4bhkp2rcd13ifvqgd0","pricing_plan_id":"cebpf4jnsgd1na2vs0mg"},{"bike_id":"272c2fa2-caba-4282-bc85-538948b56cfb","system_id":"levelo_inurba_marseille","lat":43.29603,"lon":5.38099,"is_reserved":false,"is_disabled":false,"rental_uris":{"android":"levelo://app?vid=272c2fa2-caba-4282-bc85-538948b56cfb","ios":"levelo://app?vid=272c2fa2-caba-4282-bc85-538948b56cfb"},"vehicle_type_id":"4","last_reported":1726333677,"current_range_meters":37600,"station_id":"ce4bgl12rcd13ifvqbo0","pricing_plan_id":"cebpf4jnsgd1na2vs0mg"},{"bike_id":"fc8b27c4-f2ac-4aa3-a72e-f0799ca48e22","system_id":"levelo_inurba_marseille","lat":43.23147,"lon":5.43709,"is_reserved":false,"is_disabled":false,"rental_uris":{"android":"levelo://app?vid=fc8b27c4-f2ac-4aa3-a72e-f0799ca48e22","ios":"levelo://app?vid=fc8b27c4-f2ac-4aa3-a72e-f0799ca48e22"},"vehicle_type_id":"4","last_reported":1726333677,"current_range_meters":16400,"station_id":"ce4bhmp2rcd13ifvqgog","pricing_plan_id":"cebpf4jnsgd1na2vs0mg"},{"bike_id":"66338ee3-df5d-48f3-9b11-400530c21f93","system_id":"levelo_inurba_marseille","lat":43.29865,"lon":5.39733,"is_reserved":false,"is_disabled":false,"rental_uris":{"android":"levelo://app?vid=66338ee3-df5d-48f3-9b11-400530c21f93","ios":"levelo://app?vid=66338ee3-df5d-48f3-9b11-400530c21f93"},"vehicle_type_id":"4","last_reported":1726333677,"current_range_meters":6400,"station_id":"ce4bh0h2rcd13ifvqd50","pricing_plan_id":"cebpf4jnsgd1na2vs0mg"},{"bike_id":"16ca6d91-7513-415c-9a61-5d33eb8ad677","system_id":"levelo_inurba_marseille","lat":43.22934,"lon":5.35374,"is_reserved":false,"is_disabled":false,"rental_uris":{"android":"levelo://app?vid=16ca6d91-7513-415c-9a61-5d33eb8ad677","ios":"levelo://app?vid=16ca6d91-7513-415c-9a61-5d33eb8ad677"},"vehicle_type_id":"4","last_reported":1726333677,"current_range_meters":21600,"station_id":"cpo3532slgdg3j2ikp40","pricing_plan_id":"cebpf4jnsgd1na2vs0mg"},{"bike_id":"93643616-c5b1-4647-8fb7-df9ebfd48fb4","system_id":"levelo_inurba_marseille","lat":43.24079,"lon":5.37755,"is_reserved":false,"is_disabled":false,"rental_uris":{"android":"levelo://app?vid=93643616-c5b1-4647-8fb7-df9ebfd48fb4","ios":"levelo://app?vid=93643616-c5b1-4647-8fb7-df9ebfd48fb4"},"vehicle_type_id":"4","last_reported":1726333677,"current_range_meters":38800,"station_id":"ce4bhnp2rcd13ifvqgvg","pricing_plan_id":"cebpf4jnsgd1na2vs0mg"},{"bike_id":"26b7ba46-c338-4b22-acd3-2713d51c6ffd","system_id":"levelo_inurba_marseille","lat":43.31056,"lon":5.42559,"is_reserved":false,"is_disabled":false,"rental_uris":{"android":"levelo://app?vid=26b7ba46-c338-4b22-acd3-2713d51c6ffd","ios":"levelo://app?vid=26b7ba46-c338-4b22-acd3-2713d51c6ffd"},"vehicle_type_id":"4","last_reported":1726333677,"current_range_meters":9200,"station_id":"ce4bhp92rcd13ifvqhag","pricing_plan_id":"cebpf4jnsgd1na2vs0mg"},{"bike_id":"8f4fbacf-8cdd-4859-9447-c2f634319890","system_id":"levelo_inurba_marseille","lat":43.29908,"lon":5.37467,"is_reserved":false,"is_disabled":false,"rental_uris":{"android":"levelo://app?vid=8f4fbacf-8cdd-4859-9447-c2f634319890","ios":"levelo://app?vid=8f4fbacf-8cdd-4859-9447-c2f634319890"},"vehicle_type_id":"4","last_reported":1726333677,"current_range_meters":38000,"station_id":"ce4bgjh2rcd13ifvqbg0","pricing_plan_id":"cebpf4jnsgd1na2vs0mg"},{"bike_id":"bdfb1aa6-90b4-462f-973a-3a4bafe2ac22","system_id":"levelo_inurba_marseille","lat":43.25111,"lon":5.40324,"is_reserved":false,"is_disabled":false,"rental_uris":{"android":"levelo://app?vid=bdfb1aa6-90b4-462f-973a-3a4bafe2ac22","ios":"levelo://app?vid=bdfb1aa6-90b4-462f-973a-3a4bafe2ac22"},"vehicle_type_id":"4","last_reported":1726333677,"current_range_meters":36800,"station_id":"ce4bhlh2rcd13ifvqgig","pricing_plan_id":"cebpf4jnsgd1na2vs0mg"},{"bike_id":"5e18022f-a047-431a-b3f1-37e607a28d9e","system_id":"levelo_inurba_marseille","lat":43.29877,"lon":5.38913,"is_reserved":false,"is_disabled":false,"rental_uris":{"android":"levelo://app?vid=5e18022f-a047-431a-b3f1-37e607a28d9e","ios":"levelo://app?vid=5e18022f-a047-431a-b3f1-37e607a28d9e"},"vehicle_type_id":"4","last_reported":1726333677,"current_range_meters":19200,"station_id":"ce4bh392rcd13ifvqdl0","pricing_plan_id":"cebpf4jnsgd1na2vs0mg"},{"bike_id":"055cecc8-99d3-4e9a-b046-cac98e4beede","system_id":"levelo_inurba_marseille","lat":43.23961,"lon":5.36618,"is_reserved":false,"is_disabled":false,"rental_uris":{"android":"levelo://app?vid=055cecc8-99d3-4e9a-b046-cac98e4beede","ios":"levelo://app?vid=055cecc8-99d3-4e9a-b046-cac98e4beede"},"vehicle_type_id":"4","last_reported":1726333677,"current_range_meters":6400,"station_id":"ce4bhi12rcd13ifvqfp0","pricing_plan_id":"cebpf4jnsgd1na2vs0mg"},{"bike_id":"aca35048-f597-491e-a34d-035218314962","system_id":"levelo_inurba_marseille","lat":43.303009,"lon":5.392164,"is_reserved":false,"is_disabled":false,"rental_uris":{"android":"levelo://app?vid=aca35048-f597-491e-a34d-035218314962","ios":"levelo://app?vid=aca35048-f597-491e-a34d-035218314962"},"vehicle_type_id":"4","last_reported":1726333677,"current_range_meters":8000,"station_id":"ce4bgkh2rcd13ifvqbk0","pricing_plan_id":"cebpf4jnsgd1na2vs0mg"},{"bike_id":"26db0265-0a91-4c66-8aa8-67a94f7eef0d","system_id":"levelo_inurba_marseille","lat":43.26935,"lon":5.40054,"is_reserved":false,"is_disabled":false,"rental_uris":{"android":"levelo://app?vid=26db0265-0a91-4c66-8aa8-67a94f7eef0d","ios":"levelo://app?vid=26db0265-0a91-4c66-8aa8-67a94f7eef0d"},"vehicle_type_id":"4","last_reported":1726333677,"current_range_meters":16400,"station_id":"","pricing_plan_id":"cebpf4jnsgd1na2vs0mg"},{"bike_id":"9b49fc06-69dc-4375-9bc8-2ab31283d424","system_id":"levelo_inurba_marseille","lat":43.29903,"lon":5.43662,"is_reserved":false,"is_disabled":false,"rental_uris":{"android":"levelo://app?vid=9b49fc06-69dc-4375-9bc8-2ab31283d424","ios":"levelo://app?vid=9b49fc06-69dc-4375-9bc8-2ab31283d424"},"vehicle_type_id":"4","last_reported":1726333677,"current_range_meters":31200,"station_id":"ce4bhpp2rcd13ifvqhfg","pricing_plan_id":"cebpf4jnsgd1na2vs0mg"},{"bike_id":"e20ed7cb-0fba-43c3-82dd-8d945fce1fe3","system_id":"levelo_inurba_marseille","lat":43.29419,"lon":5.38618,"is_reserved":false,"is_disabled":false,"rental_uris":{"android":"levelo://app?vid=e20ed7cb-0fba-43c3-82dd-8d945fce1fe3","ios":"levelo://app?vid=e20ed7cb-0fba-43c3-82dd-8d945fce1fe3"},"vehicle_type_id":"4","last_reported":1726333677,"current_range_meters":12800,"station_id":"ce4bh2h2rcd13ifvqdh0","pricing_plan_id":"cebpf4jnsgd1na2vs0mg"},{"bike_id":"6d033369-8770-416a-93df-f9fb5a207c31","system_id":"levelo_inurba_marseille","lat":43.31757,"lon":5.39011,"is_reserved":false,"is_disabled":false,"rental_uris":{"android":"levelo://app?vid=6d033369-8770-416a-93df-f9fb5a207c31","ios":"levelo://app?vid=6d033369-8770-416a-93df-f9fb5a207c31"},"vehicle_type_id":"4","last_reported":1726333677,"current_range_meters":4000,"station_id":"ce4bhqp2rcd13ifvqhng","pricing_plan_id":"cebpf4jnsgd1na2vs0mg"},{"bike_id":"bea2eb63-6dba-4a7f-ba8a-ed9270863fa0","system_id":"levelo_inurba_marseille","lat":43.25503,"lon":5.37652,"is_reserved":false,"is_disabled":false,"rental_uris":{"android":"levelo://app?vid=bea2eb63-6dba-4a7f-ba8a-ed9270863fa0","ios":"levelo://app?vid=bea2eb63-6dba-4a7f-ba8a-ed9270863fa0"},"vehicle_type_id":"4","last_reported":1726333677,"current_range_meters":33200,"station_id":"ce4bhh12rcd13ifvqff0","pricing_plan_id":"cebpf4jnsgd1na2vs0mg"},{"bike_id":"e00d038a-00c7-4258-ab4b-259bdb081cfd","system_id":"levelo_inurba_marseille","lat":43.23191,"lon":5.35545,"is_reserved":false,"is_disabled":false,"rental_uris":{"android":"levelo://app?vid=e00d038a-00c7-4258-ab4b-259bdb081cfd","ios":"levelo://app?vid=e00d038a-00c7-4258-ab4b-259bdb081cfd"},"vehicle_type_id":"4","last_reported":1726333677,"current_range_meters":34000,"station_id":"ce4bhu92rcd13ifvqi70","pricing_plan_id":"cebpf4jnsgd1na2vs0mg"},{"bike_id":"4f847161-8733-40c0-9d1a-924c211b3057","system_id":"levelo_inurba_marseille","lat":43.23191,"lon":5.35539,"is_reserved":false,"is_disabled":false,"rental_uris":{"android":"levelo://app?vid=4f847161-8733-40c0-9d1a-924c211b3057","ios":"levelo://app?vid=4f847161-8733-40c0-9d1a-924c211b3057"},"vehicle_type_id":"4","last_reported":1726333677,"current_range_meters":36800,"station_id":"ce4bhu92rcd13ifvqi70","pricing_plan_id":"cebpf4jnsgd1na2vs0mg"},{"bike_id":"aced5ab7-b508-4250-8809-353d2c8a330a","system_id":"levelo_inurba_marseille","lat":43.255829,"lon":5.38236,"is_reserved":false,"is_disabled":false,"rental_uris":{"android":"levelo://app?vid=aced5ab7-b508-4250-8809-353d2c8a330a","ios":"levelo://app?vid=aced5ab7-b508-4250-8809-353d2c8a330a"},"vehicle_type_id":"4","last_reported":1726333677,"current_range_meters":18000,"station_id":"ce4bhih2rcd13ifvqfs0","pricing_plan_id":"cebpf4jnsgd1na2vs0mg"},{"bike_id":"557fbab8-6db7-456b-91cd-8b32161ddb92","system_id":"levelo_inurba_marseille","lat":43.31721,"lon":5.42401,"is_reserved":false,"is_disabled":false,"rental_uris":{"android":"levelo://app?vid=557fbab8-6db7-456b-91cd-8b32161ddb92","ios":"levelo://app?vid=557fbab8-6db7-456b-91cd-8b32161ddb92"},"vehicle_type_id":"4","last_reported":1726333677,"current_range_meters":3600,"station_id":"ce4bhp92rcd13ifvqhbg","pricing_plan_id":"cebpf4jnsgd1na2vs0mg"},{"bike_id":"fcbafe9a-15ce-4b81-8ec5-797af1962a96","system_id":"levelo_inurba_marseille","lat":43.30239,"lon":5.40058,"is_reserved":false,"is_disabled":false,"rental_uris":{"android":"levelo://app?vid=fcbafe9a-15ce-4b81-8ec5-797af1962a96","ios":"levelo://app?vid=fcbafe9a-15ce-4b81-8ec5-797af1962a96"},"vehicle_type_id":"4","last_reported":1726333677,"current_range_meters":6800,"station_id":"ce4bgvh2rcd13ifvqcs0","pricing_plan_id":"cebpf4jnsgd1na2vs0mg"},{"bike_id":"9e6b05d9-5b9e-4e8c-a7ed-a6aa23fe9a42","system_id":"levelo_inurba_marseille","lat":43.2861,"lon":5.351,"is_reserved":false,"is_disabled":false,"rental_uris":{"android":"levelo://app?vid=9e6b05d9-5b9e-4e8c-a7ed-a6aa23fe9a42","ios":"levelo://app?vid=9e6b05d9-5b9e-4e8c-a7ed-a6aa23fe9a42"},"vehicle_type_id":"4","last_reported":1726333677,"current_range_meters":26800,"station_id":"ce4bhch2rcd13ifvqeug","pricing_plan_id":"cebpf4jnsgd1na2vs0mg"},{"bike_id":"883d6aac-580d-461c-b94f-6721061913de","system_id":"levelo_inurba_marseille","lat":43.26805,"lon":5.40269,"is_reserved":false,"is_disabled":false,"rental_uris":{"android":"levelo://app?vid=883d6aac-580d-461c-b94f-6721061913de","ios":"levelo://app?vid=883d6aac-580d-461c-b94f-6721061913de"},"vehicle_type_id":"4","last_reported":1726333677,"current_range_meters":26000,"station_id":"ce501612rcd8frsf0b60","pricing_plan_id":"cebpf4jnsgd1na2vs0mg"},{"bike_id":"8c3e8487-67a5-4236-9445-7ce1cc901264","system_id":"levelo_inurba_marseille","lat":43.31693,"lon":5.37728,"is_reserved":false,"is_disabled":false,"rental_uris":{"android":"levelo://app?vid=8c3e8487-67a5-4236-9445-7ce1cc901264","ios":"levelo://app?vid=8c3e8487-67a5-4236-9445-7ce1cc901264"},"vehicle_type_id":"4","last_reported":1726333677,"current_range_meters":37600,"station_id":"ce4bgth2rcd13ifvqch0","pricing_plan_id":"cebpf4jnsgd1na2vs0mg"},{"bike_id":"c593eed4-fed5-420d-b7fb-9ee251a23dc1","system_id":"levelo_inurba_marseille","lat":43.2937,"lon":5.37851,"is_reserved":false,"is_disabled":false,"rental_uris":{"android":"levelo://app?vid=c593eed4-fed5-420d-b7fb-9ee251a23dc1","ios":"levelo://app?vid=c593eed4-fed5-420d-b7fb-9ee251a23dc1"},"vehicle_type_id":"4","last_reported":1726333677,"current_range_meters":800,"station_id":"ce4bgjh2rcd13ifvqbf0","pricing_plan_id":"cebpf4jnsgd1na2vs0mg"},{"bike_id":"b42e60b9-14cd-4c23-a32c-310fe5532122","system_id":"levelo_inurba_marseille","lat":43.23967,"lon":5.36631,"is_reserved":false,"is_disabled":false,"rental_uris":{"android":"levelo://app?vid=b42e60b9-14cd-4c23-a32c-310fe5532122","ios":"levelo://app?vid=b42e60b9-14cd-4c23-a32c-310fe5532122"},"vehicle_type_id":"4","last_reported":1726333677,"current_range_meters":22000,"station_id":"ce4bhi12rcd13ifvqfp0","pricing_plan_id":"cebpf4jnsgd1na2vs0mg"},{"bike_id":"75ab97a9-5ac4-477f-acd8-77a2c5e313b0","system_id":"levelo_inurba_marseille","lat":43.29193,"lon":5.35806,"is_reserved":false,"is_disabled":false,"rental_uris":{"android":"levelo://app?vid=75ab97a9-5ac4-477f-acd8-77a2c5e313b0","ios":"levelo://app?vid=75ab97a9-5ac4-477f-acd8-77a2c5e313b0"},"vehicle_type_id":"4","last_reported":1726333677,"current_range_meters":25600,"station_id":"ce4bhb12rcd13ifvqel0","pricing_plan_id":"cebpf4jnsgd1na2vs0mg"},{"bike_id":"cf839b8c-d2b4-4941-90f2-d9ddaab8561a","system_id":"levelo_inurba_marseille","lat":43.28846,"lon":5.39303,"is_reserved":false,"is_disabled":false,"rental_uris":{"android":"levelo://app?vid=cf839b8c-d2b4-4941-90f2-d9ddaab8561a","ios":"levelo://app?vid=cf839b8c-d2b4-4941-90f2-d9ddaab8561a"},"vehicle_type_id":"4","last_reported":1726333677,"current_range_meters":9200,"station_id":"ce4bh2p2rcd13ifvqdi0","pricing_plan_id":"cebpf4jnsgd1na2vs0mg"},{"bike_id":"b1db6496-7d7b-4acc-a88c-e5406d38e100","system_id":"levelo_inurba_marseille","lat":43.23202,"lon":5.35548,"is_reserved":false,"is_disabled":false,"rental_uris":{"android":"levelo://app?vid=b1db6496-7d7b-4acc-a88c-e5406d38e100","ios":"levelo://app?vid=b1db6496-7d7b-4acc-a88c-e5406d38e100"},"vehicle_type_id":"4","last_reported":1726333677,"current_range_meters":38800,"station_id":"ce4bhu92rcd13ifvqi70","pricing_plan_id":"cebpf4jnsgd1na2vs0mg"},{"bike_id":"48660d4b-6119-42c2-b57d-fd2e1ad319a5","system_id":"levelo_inurba_marseille","lat":43.2315,"lon":5.43711,"is_reserved":false,"is_disabled":false,"rental_uris":{"android":"levelo://app?vid=48660d4b-6119-42c2-b57d-fd2e1ad319a5","ios":"levelo://app?vid=48660d4b-6119-42c2-b57d-fd2e1ad319a5"},"vehicle_type_id":"4","last_reported":1726333677,"current_range_meters":6800,"station_id":"ce4bhmp2rcd13ifvqgog","pricing_plan_id":"cebpf4jnsgd1na2vs0mg"},{"bike_id":"ee721f16-71d0-49c8-9da4-858f78b55bcb","system_id":"levelo_inurba_marseille","lat":43.25937,"lon":5.40904,"is_reserved":false,"is_disabled":false,"rental_uris":{"android":"levelo://app?vid=ee721f16-71d0-49c8-9da4-858f78b55bcb","ios":"levelo://app?vid=ee721f16-71d0-49c8-9da4-858f78b55bcb"},"vehicle_type_id":"4","last_reported":1726333677,"current_range_meters":28800,"station_id":"ce4bhm92rcd13ifvqglg","pricing_plan_id":"cebpf4jnsgd1na2vs0mg"},{"bike_id":"549399d4-a960-46d0-ba6c-19d1346b06ad","system_id":"levelo_inurba_marseille","lat":43.25108,"lon":5.40325,"is_reserved":false,"is_disabled":false,"rental_uris":{"android":"levelo://app?vid=549399d4-a960-46d0-ba6c-19d1346b06ad","ios":"levelo://app?vid=549399d4-a960-46d0-ba6c-19d1346b06ad"},"vehicle_type_id":"4","last_reported":1726333677,"current_range_meters":32800,"station_id":"ce4bhlh2rcd13ifvqgig","pricing_plan_id":"cebpf4jnsgd1na2vs0mg"},{"bike_id":"347f870b-7fa7-4e99-8c43-45406dc834e2","system_id":"levelo_inurba_marseille","lat":43.28704,"lon":5.39977,"is_reserved":false,"is_disabled":false,"rental_uris":{"android":"levelo://app?vid=347f870b-7fa7-4e99-8c43-45406dc834e2","ios":"levelo://app?vid=347f870b-7fa7-4e99-8c43-45406dc834e2"},"vehicle_type_id":"4","last_reported":1726333677,"current_range_meters":28400,"station_id":"ce4bho92rcd13ifvqh3g","pricing_plan_id":"cebpf4jnsgd1na2vs0mg"},{"bike_id":"5d57090e-631a-43c2-bed6-50c5bdc6029c","system_id":"levelo_inurba_marseille","lat":43.312195,"lon":5.368462,"is_reserved":false,"is_disabled":false,"rental_uris":{"android":"levelo://app?vid=5d57090e-631a-43c2-bed6-50c5bdc6029c","ios":"levelo://app?vid=5d57090e-631a-43c2-bed6-50c5bdc6029c"},"vehicle_type_id":"4","last_reported":1726333677,"current_range_meters":28400,"station_id":"ce4bgl92rcd13ifvqbq0","pricing_plan_id":"cebpf4jnsgd1na2vs0mg"},{"bike_id":"dfc7e944-178a-43bd-85e8-0abf1cafc416","system_id":"levelo_inurba_marseille","lat":43.22931,"lon":5.35374,"is_reserved":false,"is_disabled":false,"rental_uris":{"android":"levelo://app?vid=dfc7e944-178a-43bd-85e8-0abf1cafc416","ios":"levelo://app?vid=dfc7e944-178a-43bd-85e8-0abf1cafc416"},"vehicle_type_id":"4","last_reported":1726333677,"current_range_meters":25200,"station_id":"cpo3532slgdg3j2ikp40","pricing_plan_id":"cebpf4jnsgd1na2vs0mg"},{"bike_id":"14797242-d817-47be-8637-258e7e1fb8f0","system_id":"levelo_inurba_marseille","lat":43.29422,"lon":5.38632,"is_reserved":false,"is_disabled":false,"rental_uris":{"android":"levelo://app?vid=14797242-d817-47be-8637-258e7e1fb8f0","ios":"levelo://app?vid=14797242-d817-47be-8637-258e7e1fb8f0"},"vehicle_type_id":"4","last_reported":1726333677,"current_range_meters":17200,"station_id":"ce4bh2h2rcd13ifvqdh0","pricing_plan_id":"cebpf4jnsgd1na2vs0mg"},{"bike_id":"bd26f63e-d7bd-4ada-8a1f-3b93d54404f8","system_id":"levelo_inurba_marseille","lat":43.29928,"lon":5.38141,"is_reserved":false,"is_disabled":false,"rental_uris":{"android":"levelo://app?vid=bd26f63e-d7bd-4ada-8a1f-3b93d54404f8","ios":"levelo://app?vid=bd26f63e-d7bd-4ada-8a1f-3b93d54404f8"},"vehicle_type_id":"4","last_reported":1726333677,"current_range_meters":28400,"station_id":"","pricing_plan_id":"cebpf4jnsgd1na2vs0mg"},{"bike_id":"464d87e3-0004-4dd8-b94c-6e23cec7a328","system_id":"levelo_inurba_marseille","lat":43.32052,"lon":5.41556,"is_reserved":false,"is_disabled":false,"rental_uris":{"android":"levelo://app?vid=464d87e3-0004-4dd8-b94c-6e23cec7a328","ios":"levelo://app?vid=464d87e3-0004-4dd8-b94c-6e23cec7a328"},"vehicle_type_id":"4","last_reported":1726333677,"current_range_meters":25200,"station_id":"ce4bhq92rcd13ifvqhkg","pricing_plan_id":"cebpf4jnsgd1na2vs0mg"},{"bike_id":"cc8810b7-84d5-40c3-8ff1-50bc4910235a","system_id":"levelo_inurba_marseille","lat":43.24079,"lon":5.37759,"is_reserved":false,"is_disabled":false,"rental_uris":{"android":"levelo://app?vid=cc8810b7-84d5-40c3-8ff1-50bc4910235a","ios":"levelo://app?vid=cc8810b7-84d5-40c3-8ff1-50bc4910235a"},"vehicle_type_id":"4","last_reported":1726333677,"current_range_meters":38800,"station_id":"ce4bhnp2rcd13ifvqgvg","pricing_plan_id":"cebpf4jnsgd1na2vs0mg"},{"bike_id":"b645ac77-0d58-4fa9-8ad3-947af8bdb1d9","system_id":"levelo_inurba_marseille","lat":43.29895,"lon":5.43661,"is_reserved":false,"is_disabled":false,"rental_uris":{"android":"levelo://app?vid=b645ac77-0d58-4fa9-8ad3-947af8bdb1d9","ios":"levelo://app?vid=b645ac77-0d58-4fa9-8ad3-947af8bdb1d9"},"vehicle_type_id":"4","last_reported":1726333677,"current_range_meters":37600,"station_id":"ce4bhpp2rcd13ifvqhfg","pricing_plan_id":"cebpf4jnsgd1na2vs0mg"},{"bike_id":"a5678295-0458-4f6d-9ccb-6897bde67101","system_id":"levelo_inurba_marseille","lat":43.24161,"lon":5.36415,"is_reserved":false,"is_disabled":false,"rental_uris":{"android":"levelo://app?vid=a5678295-0458-4f6d-9ccb-6897bde67101","ios":"levelo://app?vid=a5678295-0458-4f6d-9ccb-6897bde67101"},"vehicle_type_id":"4","last_reported":1726333677,"current_range_meters":38800,"station_id":"cpo36qri1sfpv3e86is0","pricing_plan_id":"cebpf4jnsgd1na2vs0mg"},{"bike_id":"91d155a1-0e95-42f4-9cf2-24e586735a13","system_id":"levelo_inurba_marseille","lat":43.33718,"lon":5.39187,"is_reserved":false,"is_disabled":false,"rental_uris":{"android":"levelo://app?vid=91d155a1-0e95-42f4-9cf2-24e586735a13","ios":"levelo://app?vid=91d155a1-0e95-42f4-9cf2-24e586735a13"},"vehicle_type_id":"4","last_reported":1726333677,"current_range_meters":38800,"station_id":"ce4bhr92rcd13ifvqhsg","pricing_plan_id":"cebpf4jnsgd1na2vs0mg"},{"bike_id":"2dd2b019-ab30-45cf-b185-396e0efbcc1a","system_id":"levelo_inurba_marseille","lat":43.27211,"lon":5.39175,"is_reserved":false,"is_disabled":false,"rental_uris":{"android":"levelo://app?vid=2dd2b019-ab30-45cf-b185-396e0efbcc1a","ios":"levelo://app?vid=2dd2b019-ab30-45cf-b185-396e0efbcc1a"},"vehicle_type_id":"4","last_reported":1726333677,"current_range_meters":8800,"station_id":"ce4bhhp2rcd13ifvqfm0","pricing_plan_id":"cebpf4jnsgd1na2vs0mg"},{"bike_id":"141abc26-a0ad-49d8-9aa2-9e71376fa5e2","system_id":"levelo_inurba_marseille","lat":43.28479,"lon":5.385507,"is_reserved":false,"is_disabled":false,"rental_uris":{"android":"levelo://app?vid=141abc26-a0ad-49d8-9aa2-9e71376fa5e2","ios":"levelo://app?vid=141abc26-a0ad-49d8-9aa2-9e71376fa5e2"},"vehicle_type_id":"4","last_reported":1726333677,"current_range_meters":20000,"station_id":"ce4bh8p2rcd13ifvqeb0","pricing_plan_id":"cebpf4jnsgd1na2vs0mg"},{"bike_id":"8a584696-e516-4ec2-a1a7-8ab89ddab84f","system_id":"levelo_inurba_marseille","lat":43.29416,"lon":5.38628,"is_reserved":false,"is_disabled":false,"rental_uris":{"android":"levelo://app?vid=8a584696-e516-4ec2-a1a7-8ab89ddab84f","ios":"levelo://app?vid=8a584696-e516-4ec2-a1a7-8ab89ddab84f"},"vehicle_type_id":"4","last_reported":1726333677,"current_range_meters":8000,"station_id":"ce4bh2h2rcd13ifvqdh0","pricing_plan_id":"cebpf4jnsgd1na2vs0mg"},{"bike_id":"4123515d-635a-4a62-9f56-c2589ef20496","system_id":"levelo_inurba_marseille","lat":43.29894,"lon":5.43669,"is_reserved":false,"is_disabled":false,"rental_uris":{"android":"levelo://app?vid=4123515d-635a-4a62-9f56-c2589ef20496","ios":"levelo://app?vid=4123515d-635a-4a62-9f56-c2589ef20496"},"vehicle_type_id":"4","last_reported":1726333677,"current_range_meters":30400,"station_id":"ce4bhpp2rcd13ifvqhfg","pricing_plan_id":"cebpf4jnsgd1na2vs0mg"},{"bike_id":"bbd2450a-84a7-42e1-bc94-af6bf7be8eb5","system_id":"levelo_inurba_marseille","lat":43.33025,"lon":5.39045,"is_reserved":false,"is_disabled":false,"rental_uris":{"android":"levelo://app?vid=bbd2450a-84a7-42e1-bc94-af6bf7be8eb5","ios":"levelo://app?vid=bbd2450a-84a7-42e1-bc94-af6bf7be8eb5"},"vehicle_type_id":"4","last_reported":1726333677,"current_range_meters":36800,"station_id":"ce4bhr92rcd13ifvqhrg","pricing_plan_id":"cebpf4jnsgd1na2vs0mg"},{"bike_id":"069e7322-7a49-4433-ad04-8f989ec83df7","system_id":"levelo_inurba_marseille","lat":43.30802,"lon":5.37646,"is_reserved":false,"is_disabled":false,"rental_uris":{"android":"levelo://app?vid=069e7322-7a49-4433-ad04-8f989ec83df7","ios":"levelo://app?vid=069e7322-7a49-4433-ad04-8f989ec83df7"},"vehicle_type_id":"4","last_reported":1726333677,"current_range_meters":18800,"station_id":"ce4bgv92rcd13ifvqcq0","pricing_plan_id":"cebpf4jnsgd1na2vs0mg"},{"bike_id":"8b291dad-ffa6-4bbc-819e-9dd77ae198d7","system_id":"levelo_inurba_marseille","lat":43.29969,"lon":5.38496,"is_reserved":false,"is_disabled":false,"rental_uris":{"android":"levelo://app?vid=8b291dad-ffa6-4bbc-819e-9dd77ae198d7","ios":"levelo://app?vid=8b291dad-ffa6-4bbc-819e-9dd77ae198d7"},"vehicle_type_id":"4","last_reported":1726333677,"current_range_meters":14800,"station_id":"ce4bgj92rcd13ifvqbd0","pricing_plan_id":"cebpf4jnsgd1na2vs0mg"},{"bike_id":"0d8ba700-2032-4674-80b6-cc3e5985c19f","system_id":"levelo_inurba_marseille","lat":43.29587,"lon":5.38107,"is_reserved":false,"is_disabled":false,"rental_uris":{"android":"levelo://app?vid=0d8ba700-2032-4674-80b6-cc3e5985c19f","ios":"levelo://app?vid=0d8ba700-2032-4674-80b6-cc3e5985c19f"},"vehicle_type_id":"4","last_reported":1726333677,"current_range_meters":4400,"station_id":"ce4bgl12rcd13ifvqbo0","pricing_plan_id":"cebpf4jnsgd1na2vs0mg"},{"bike_id":"552ccea4-a0ab-4fa2-9015-1ea8da64cd61","system_id":"levelo_inurba_marseille","lat":43.25577,"lon":5.38231,"is_reserved":false,"is_disabled":false,"rental_uris":{"android":"levelo://app?vid=552ccea4-a0ab-4fa2-9015-1ea8da64cd61","ios":"levelo://app?vid=552ccea4-a0ab-4fa2-9015-1ea8da64cd61"},"vehicle_type_id":"4","last_reported":1726333677,"current_range_meters":5600,"station_id":"ce4bhih2rcd13ifvqfs0","pricing_plan_id":"cebpf4jnsgd1na2vs0mg"},{"bike_id":"caf0f6c5-d4f6-4bc3-a4a5-63c3733522d3","system_id":"levelo_inurba_marseille","lat":43.33021,"lon":5.39043,"is_reserved":false,"is_disabled":false,"rental_uris":{"android":"levelo://app?vid=caf0f6c5-d4f6-4bc3-a4a5-63c3733522d3","ios":"levelo://app?vid=caf0f6c5-d4f6-4bc3-a4a5-63c3733522d3"},"vehicle_type_id":"4","last_reported":1726333677,"current_range_meters":2800,"station_id":"ce4bhr92rcd13ifvqhrg","pricing_plan_id":"cebpf4jnsgd1na2vs0mg"},{"bike_id":"edf20ab5-b6fb-4ac2-84e1-bc016e5ba262","system_id":"levelo_inurba_marseille","lat":43.29554,"lon":5.42276,"is_reserved":false,"is_disabled":false,"rental_uris":{"android":"levelo://app?vid=edf20ab5-b6fb-4ac2-84e1-bc016e5ba262","ios":"levelo://app?vid=edf20ab5-b6fb-4ac2-84e1-bc016e5ba262"},"vehicle_type_id":"4","last_reported":1726333677,"current_range_meters":9200,"station_id":"ce4bhph2rcd13ifvqhdg","pricing_plan_id":"cebpf4jnsgd1na2vs0mg"},{"bike_id":"5d0659c7-0149-4a54-a0ab-54d11cfe7a6d","system_id":"levelo_inurba_marseille","lat":43.27559,"lon":5.38428,"is_reserved":false,"is_disabled":false,"rental_uris":{"android":"levelo://app?vid=5d0659c7-0149-4a54-a0ab-54d11cfe7a6d","ios":"levelo://app?vid=5d0659c7-0149-4a54-a0ab-54d11cfe7a6d"},"vehicle_type_id":"4","last_reported":1726333677,"current_range_meters":14400,"station_id":"ce4bhh92rcd13ifvqfi0","pricing_plan_id":"cebpf4jnsgd1na2vs0mg"},{"bike_id":"05675f93-103a-4dd3-bc69-86f2b2f97577","system_id":"levelo_inurba_marseille","lat":43.31727,"lon":5.42401,"is_reserved":false,"is_disabled":false,"rental_uris":{"android":"levelo://app?vid=05675f93-103a-4dd3-bc69-86f2b2f97577","ios":"levelo://app?vid=05675f93-103a-4dd3-bc69-86f2b2f97577"},"vehicle_type_id":"4","last_reported":1726333677,"current_range_meters":27600,"station_id":"ce4bhp92rcd13ifvqhbg","pricing_plan_id":"cebpf4jnsgd1na2vs0mg"},{"bike_id":"de7cab8e-4462-45f1-bdc3-fec489000317","system_id":"levelo_inurba_marseille","lat":43.24667,"lon":5.38162,"is_reserved":false,"is_disabled":false,"rental_uris":{"android":"levelo://app?vid=de7cab8e-4462-45f1-bdc3-fec489000317","ios":"levelo://app?vid=de7cab8e-4462-45f1-bdc3-fec489000317"},"vehicle_type_id":"4","last_reported":1726333677,"current_range_meters":40000,"station_id":"ce4bhih2rcd13ifvqfr0","pricing_plan_id":"cebpf4jnsgd1na2vs0mg"},{"bike_id":"82963226-179e-4530-b617-cf15d265d3e5","system_id":"levelo_inurba_marseille","lat":43.2781,"lon":5.40714,"is_reserved":false,"is_disabled":false,"rental_uris":{"android":"levelo://app?vid=82963226-179e-4530-b617-cf15d265d3e5","ios":"levelo://app?vid=82963226-179e-4530-b617-cf15d265d3e5"},"vehicle_type_id":"4","last_reported":1726333677,"current_range_meters":16800,"station_id":"ce4bhnh2rcd13ifvqgtg","pricing_plan_id":"cebpf4jnsgd1na2vs0mg"},{"bike_id":"7251d55d-befd-400d-90d9-ab0b68ba8caa","system_id":"levelo_inurba_marseille","lat":43.24811,"lon":5.37455,"is_reserved":false,"is_disabled":false,"rental_uris":{"android":"levelo://app?vid=7251d55d-befd-400d-90d9-ab0b68ba8caa","ios":"levelo://app?vid=7251d55d-befd-400d-90d9-ab0b68ba8caa"},"vehicle_type_id":"4","last_reported":1726333677,"current_range_meters":31200,"station_id":"ce4bhgh2rcd13ifvqfb0","pricing_plan_id":"cebpf4jnsgd1na2vs0mg"},{"bike_id":"53a2d874-293d-47cc-bdbd-a03b3468623b","system_id":"levelo_inurba_marseille","lat":43.29899,"lon":5.43681,"is_reserved":false,"is_disabled":false,"rental_uris":{"android":"levelo://app?vid=53a2d874-293d-47cc-bdbd-a03b3468623b","ios":"levelo://app?vid=53a2d874-293d-47cc-bdbd-a03b3468623b"},"vehicle_type_id":"4","last_reported":1726333677,"current_range_meters":8800,"station_id":"ce4bhpp2rcd13ifvqhfg","pricing_plan_id":"cebpf4jnsgd1na2vs0mg"},{"bike_id":"bb7acf50-b6bc-4b2d-adf4-833abc23b24c","system_id":"levelo_inurba_marseille","lat":43.23195,"lon":5.35546,"is_reserved":false,"is_disabled":false,"rental_uris":{"android":"levelo://app?vid=bb7acf50-b6bc-4b2d-adf4-833abc23b24c","ios":"levelo://app?vid=bb7acf50-b6bc-4b2d-adf4-833abc23b24c"},"vehicle_type_id":"4","last_reported":1726333677,"current_range_meters":38800,"station_id":"ce4bhu92rcd13ifvqi70","pricing_plan_id":"cebpf4jnsgd1na2vs0mg"},{"bike_id":"f6de5503-3f64-4c45-a987-7e74ca5c7044","system_id":"levelo_inurba_marseille","lat":43.24177,"lon":5.36393,"is_reserved":false,"is_disabled":false,"rental_uris":{"android":"levelo://app?vid=f6de5503-3f64-4c45-a987-7e74ca5c7044","ios":"levelo://app?vid=f6de5503-3f64-4c45-a987-7e74ca5c7044"},"vehicle_type_id":"4","last_reported":1726333677,"current_range_meters":30000,"station_id":"cpo36qri1sfpv3e86is0","pricing_plan_id":"cebpf4jnsgd1na2vs0mg"},{"bike_id":"3e56a42c-4a02-4619-ab0c-310c47e605da","system_id":"levelo_inurba_marseille","lat":43.23063,"lon":5.35488,"is_reserved":false,"is_disabled":false,"rental_uris":{"android":"levelo://app?vid=3e56a42c-4a02-4619-ab0c-310c47e605da","ios":"levelo://app?vid=3e56a42c-4a02-4619-ab0c-310c47e605da"},"vehicle_type_id":"4","last_reported":1726333677,"current_range_meters":27200,"station_id":"cpo3342slgdg3j2ifvpg","pricing_plan_id":"cebpf4jnsgd1na2vs0mg"},{"bike_id":"bc8be1fd-7bee-49c5-817c-184bdd69b536","system_id":"levelo_inurba_marseille","lat":43.27374,"lon":5.41942,"is_reserved":false,"is_disabled":false,"rental_uris":{"android":"levelo://app?vid=bc8be1fd-7bee-49c5-817c-184bdd69b536","ios":"levelo://app?vid=bc8be1fd-7bee-49c5-817c-184bdd69b536"},"vehicle_type_id":"4","last_reported":1726333677,"current_range_meters":30000,"station_id":"","pricing_plan_id":"cebpf4jnsgd1na2vs0mg"},{"bike_id":"74a29ea6-a103-43ad-b009-2f7c20440120","system_id":"levelo_inurba_marseille","lat":43.297078,"lon":5.366152,"is_reserved":false,"is_disabled":false,"rental_uris":{"android":"levelo://app?vid=74a29ea6-a103-43ad-b009-2f7c20440120","ios":"levelo://app?vid=74a29ea6-a103-43ad-b009-2f7c20440120"},"vehicle_type_id":"4","last_reported":1726333677,"current_range_meters":25200,"station_id":"ce4bgn12rcd13ifvqbt0","pricing_plan_id":"cebpf4jnsgd1na2vs0mg"},{"bike_id":"47cb0d4a-5768-4801-a8cb-79e84c86cf2f","system_id":"levelo_inurba_marseille","lat":43.31721,"lon":5.42401,"is_reserved":false,"is_disabled":false,"rental_uris":{"android":"levelo://app?vid=47cb0d4a-5768-4801-a8cb-79e84c86cf2f","ios":"levelo://app?vid=47cb0d4a-5768-4801-a8cb-79e84c86cf2f"},"vehicle_type_id":"4","last_reported":1726333677,"current_range_meters":22000,"station_id":"ce4bhp92rcd13ifvqhbg","pricing_plan_id":"cebpf4jnsgd1na2vs0mg"},{"bike_id":"632de835-3430-40ed-ac94-819588647085","system_id":"levelo_inurba_marseille","lat":43.24816,"lon":5.37461,"is_reserved":false,"is_disabled":false,"rental_uris":{"android":"levelo://app?vid=632de835-3430-40ed-ac94-819588647085","ios":"levelo://app?vid=632de835-3430-40ed-ac94-819588647085"},"vehicle_type_id":"4","last_reported":1726333677,"current_range_meters":6000,"station_id":"ce4bhgh2rcd13ifvqfb0","pricing_plan_id":"cebpf4jnsgd1na2vs0mg"},{"bike_id":"adc6131b-4eba-45f2-9a73-1c0e75fa49dd","system_id":"levelo_inurba_marseille","lat":43.30305,"lon":5.39209,"is_reserved":false,"is_disabled":false,"rental_uris":{"android":"levelo://app?vid=adc6131b-4eba-45f2-9a73-1c0e75fa49dd","ios":"levelo://app?vid=adc6131b-4eba-45f2-9a73-1c0e75fa49dd"},"vehicle_type_id":"4","last_reported":1726333677,"current_range_meters":25600,"station_id":"ce4bgkh2rcd13ifvqbk0","pricing_plan_id":"cebpf4jnsgd1na2vs0mg"},{"bike_id":"bb046787-1b6f-4a52-9f6c-67f38be48f9e","system_id":"levelo_inurba_marseille","lat":43.260344,"lon":5.375456,"is_reserved":false,"is_disabled":false,"rental_uris":{"android":"levelo://app?vid=bb046787-1b6f-4a52-9f6c-67f38be48f9e","ios":"levelo://app?vid=bb046787-1b6f-4a52-9f6c-67f38be48f9e"},"vehicle_type_id":"4","last_reported":1726333677,"current_range_meters":37600,"station_id":"ce4bhgh2rcd13ifvqfa0","pricing_plan_id":"cebpf4jnsgd1na2vs0mg"},{"bike_id":"e0fefe01-0e72-41cb-96e2-555d817cb852","system_id":"levelo_inurba_marseille","lat":43.26192,"lon":5.37448,"is_reserved":false,"is_disabled":false,"rental_uris":{"android":"levelo://app?vid=e0fefe01-0e72-41cb-96e2-555d817cb852","ios":"levelo://app?vid=e0fefe01-0e72-41cb-96e2-555d817cb852"},"vehicle_type_id":"4","last_reported":1726333677,"current_range_meters":9200,"station_id":"ce4bhgp2rcd13ifvqfc0","pricing_plan_id":"cebpf4jnsgd1na2vs0mg"},{"bike_id":"bd9993b0-31b7-42dc-ba35-a7829b4d9ee3","system_id":"levelo_inurba_marseille","lat":43.27315,"lon":5.39084,"is_reserved":false,"is_disabled":false,"rental_uris":{"android":"levelo://app?vid=bd9993b0-31b7-42dc-ba35-a7829b4d9ee3","ios":"levelo://app?vid=bd9993b0-31b7-42dc-ba35-a7829b4d9ee3"},"vehicle_type_id":"4","last_reported":1726333677,"current_range_meters":28400,"station_id":"ce4bhgp2rcd13ifvqfe0","pricing_plan_id":"cebpf4jnsgd1na2vs0mg"},{"bike_id":"05dce78e-2b1f-446e-8956-bcf56a752a91","system_id":"levelo_inurba_marseille","lat":43.26938,"lon":5.40256,"is_reserved":false,"is_disabled":false,"rental_uris":{"android":"levelo://app?vid=05dce78e-2b1f-446e-8956-bcf56a752a91","ios":"levelo://app?vid=05dce78e-2b1f-446e-8956-bcf56a752a91"},"vehicle_type_id":"4","last_reported":1726333677,"current_range_meters":38000,"station_id":"cjm6bp8fraef2m0cb0m0","pricing_plan_id":"cebpf4jnsgd1na2vs0mg"},{"bike_id":"dbdd0cf1-9ac9-42ed-9e04-9369c829f327","system_id":"levelo_inurba_marseille","lat":43.26936,"lon":5.40264,"is_reserved":false,"is_disabled":false,"rental_uris":{"android":"levelo://app?vid=dbdd0cf1-9ac9-42ed-9e04-9369c829f327","ios":"levelo://app?vid=dbdd0cf1-9ac9-42ed-9e04-9369c829f327"},"vehicle_type_id":"4","last_reported":1726333677,"current_range_meters":24000,"station_id":"cjm6bp8fraef2m0cb0m0","pricing_plan_id":"cebpf4jnsgd1na2vs0mg"},{"bike_id":"026a8105-a313-4bd8-96fb-a8d6d1b140a9","system_id":"levelo_inurba_marseille","lat":43.23204,"lon":5.35554,"is_reserved":false,"is_disabled":false,"rental_uris":{"android":"levelo://app?vid=026a8105-a313-4bd8-96fb-a8d6d1b140a9","ios":"levelo://app?vid=026a8105-a313-4bd8-96fb-a8d6d1b140a9"},"vehicle_type_id":"4","last_reported":1726333677,"current_range_meters":37600,"station_id":"ce4bhu92rcd13ifvqi70","pricing_plan_id":"cebpf4jnsgd1na2vs0mg"},{"bike_id":"d9356156-db60-426b-b7e5-5201b0d16dea","system_id":"levelo_inurba_marseille","lat":43.29557,"lon":5.42286,"is_reserved":false,"is_disabled":false,"rental_uris":{"android":"levelo://app?vid=d9356156-db60-426b-b7e5-5201b0d16dea","ios":"levelo://app?vid=d9356156-db60-426b-b7e5-5201b0d16dea"},"vehicle_type_id":"4","last_reported":1726333677,"current_range_meters":14400,"station_id":"ce4bhph2rcd13ifvqhdg","pricing_plan_id":"cebpf4jnsgd1na2vs0mg"},{"bike_id":"9378e46c-90ff-48e5-9112-f5aafd156a5f","system_id":"levelo_inurba_marseille","lat":43.29557,"lon":5.42286,"is_reserved":false,"is_disabled":false,"rental_uris":{"android":"levelo://app?vid=9378e46c-90ff-48e5-9112-f5aafd156a5f","ios":"levelo://app?vid=9378e46c-90ff-48e5-9112-f5aafd156a5f"},"vehicle_type_id":"4","last_reported":1726333677,"current_range_meters":24400,"station_id":"ce4bhph2rcd13ifvqhdg","pricing_plan_id":"cebpf4jnsgd1na2vs0mg"},{"bike_id":"ccc81115-c769-40cb-a420-a414e3f0cc3b","system_id":"levelo_inurba_marseille","lat":43.24393,"lon":5.37064,"is_reserved":false,"is_disabled":false,"rental_uris":{"android":"levelo://app?vid=ccc81115-c769-40cb-a420-a414e3f0cc3b","ios":"levelo://app?vid=ccc81115-c769-40cb-a420-a414e3f0cc3b"},"vehicle_type_id":"4","last_reported":1726333677,"current_range_meters":38800,"station_id":"ce4bhhh2rcd13ifvqfk0","pricing_plan_id":"cebpf4jnsgd1na2vs0mg"},{"bike_id":"b44311ec-bbf0-45d2-bc47-811697edd400","system_id":"levelo_inurba_marseille","lat":43.27993,"lon":5.41651,"is_reserved":false,"is_disabled":false,"rental_uris":{"android":"levelo://app?vid=b44311ec-bbf0-45d2-bc47-811697edd400","ios":"levelo://app?vid=b44311ec-bbf0-45d2-bc47-811697edd400"},"vehicle_type_id":"4","last_reported":1726333677,"current_range_meters":28400,"station_id":"ce4bho12rcd13ifvqh1g","pricing_plan_id":"cebpf4jnsgd1na2vs0mg"},{"bike_id":"3ac1e464-9455-472f-88b7-b800240da9a4","system_id":"levelo_inurba_marseille","lat":43.28487,"lon":5.38579,"is_reserved":false,"is_disabled":false,"rental_uris":{"android":"levelo://app?vid=3ac1e464-9455-472f-88b7-b800240da9a4","ios":"levelo://app?vid=3ac1e464-9455-472f-88b7-b800240da9a4"},"vehicle_type_id":"4","last_reported":1726333677,"current_range_meters":26000,"station_id":"ce4bh8p2rcd13ifvqeb0","pricing_plan_id":"cebpf4jnsgd1na2vs0mg"},{"bike_id":"a94855f9-9768-4780-9460-6365532d00f1","system_id":"levelo_inurba_marseille","lat":43.287048,"lon":5.399883,"is_reserved":false,"is_disabled":false,"rental_uris":{"android":"levelo://app?vid=a94855f9-9768-4780-9460-6365532d00f1","ios":"levelo://app?vid=a94855f9-9768-4780-9460-6365532d00f1"},"vehicle_type_id":"4","last_reported":1726333677,"current_range_meters":38800,"station_id":"ce4bho92rcd13ifvqh3g","pricing_plan_id":"cebpf4jnsgd1na2vs0mg"},{"bike_id":"ad703ad9-ad7f-45f6-a3b6-55e6756a354c","system_id":"levelo_inurba_marseille","lat":43.25819,"lon":5.39434,"is_reserved":false,"is_disabled":false,"rental_uris":{"android":"levelo://app?vid=ad703ad9-ad7f-45f6-a3b6-55e6756a354c","ios":"levelo://app?vid=ad703ad9-ad7f-45f6-a3b6-55e6756a354c"},"vehicle_type_id":"4","last_reported":1726333677,"current_range_meters":4000,"station_id":"ce4bhip2rcd13ifvqft0","pricing_plan_id":"cebpf4jnsgd1na2vs0mg"},{"bike_id":"789c2c97-ddf6-4b7a-b2dc-a0c73ebe6e6b","system_id":"levelo_inurba_marseille","lat":43.26955,"lon":5.38629,"is_reserved":false,"is_disabled":false,"rental_uris":{"android":"levelo://app?vid=789c2c97-ddf6-4b7a-b2dc-a0c73ebe6e6b","ios":"levelo://app?vid=789c2c97-ddf6-4b7a-b2dc-a0c73ebe6e6b"},"vehicle_type_id":"4","last_reported":1726333677,"current_range_meters":28400,"station_id":"ce4bhh92rcd13ifvqfh0","pricing_plan_id":"cebpf4jnsgd1na2vs0mg"},{"bike_id":"891003f3-b6c1-4b1e-be7b-c4062b8330ce","system_id":"levelo_inurba_marseille","lat":43.289093,"lon":5.354353,"is_reserved":false,"is_disabled":false,"rental_uris":{"android":"levelo://app?vid=891003f3-b6c1-4b1e-be7b-c4062b8330ce","ios":"levelo://app?vid=891003f3-b6c1-4b1e-be7b-c4062b8330ce"},"vehicle_type_id":"4","last_reported":1726333677,"current_range_meters":30800,"station_id":"","pricing_plan_id":"cebpf4jnsgd1na2vs0mg"},{"bike_id":"68b48fd8-e4bd-4dfc-bfcb-9fc8a682d907","system_id":"levelo_inurba_marseille","lat":43.30883,"lon":5.40019,"is_reserved":false,"is_disabled":false,"rental_uris":{"android":"levelo://app?vid=68b48fd8-e4bd-4dfc-bfcb-9fc8a682d907","ios":"levelo://app?vid=68b48fd8-e4bd-4dfc-bfcb-9fc8a682d907"},"vehicle_type_id":"4","last_reported":1726333677,"current_range_meters":4800,"station_id":"ce4bh092rcd13ifvqd30","pricing_plan_id":"cebpf4jnsgd1na2vs0mg"},{"bike_id":"59b9963c-64aa-4813-ae73-928d306f1a8f","system_id":"levelo_inurba_marseille","lat":43.26802,"lon":5.40267,"is_reserved":false,"is_disabled":false,"rental_uris":{"android":"levelo://app?vid=59b9963c-64aa-4813-ae73-928d306f1a8f","ios":"levelo://app?vid=59b9963c-64aa-4813-ae73-928d306f1a8f"},"vehicle_type_id":"4","last_reported":1726333677,"current_range_meters":3600,"station_id":"ce501612rcd8frsf0b60","pricing_plan_id":"cebpf4jnsgd1na2vs0mg"},{"bike_id":"6d2f1fdf-ef85-4dbc-b421-2602e9d32ca8","system_id":"levelo_inurba_marseille","lat":43.25931,"lon":5.40911,"is_reserved":false,"is_disabled":false,"rental_uris":{"android":"levelo://app?vid=6d2f1fdf-ef85-4dbc-b421-2602e9d32ca8","ios":"levelo://app?vid=6d2f1fdf-ef85-4dbc-b421-2602e9d32ca8"},"vehicle_type_id":"4","last_reported":1726333677,"current_range_meters":24800,"station_id":"ce4bhm92rcd13ifvqglg","pricing_plan_id":"cebpf4jnsgd1na2vs0mg"},{"bike_id":"d09aedb3-0212-456b-a0d7-0a019f75665d","system_id":"levelo_inurba_marseille","lat":43.23153,"lon":5.43707,"is_reserved":false,"is_disabled":false,"rental_uris":{"android":"levelo://app?vid=d09aedb3-0212-456b-a0d7-0a019f75665d","ios":"levelo://app?vid=d09aedb3-0212-456b-a0d7-0a019f75665d"},"vehicle_type_id":"4","last_reported":1726333677,"current_range_meters":38800,"station_id":"ce4bhmp2rcd13ifvqgog","pricing_plan_id":"cebpf4jnsgd1na2vs0mg"},{"bike_id":"0d73ab04-3a54-4ce4-b2b6-cac471577993","system_id":"levelo_inurba_marseille","lat":43.28361,"lon":5.38637,"is_reserved":false,"is_disabled":false,"rental_uris":{"android":"levelo://app?vid=0d73ab04-3a54-4ce4-b2b6-cac471577993","ios":"levelo://app?vid=0d73ab04-3a54-4ce4-b2b6-cac471577993"},"vehicle_type_id":"4","last_reported":1726333677,"current_range_meters":36400,"station_id":"ce4bh492rcd13ifvqdvg","pricing_plan_id":"cebpf4jnsgd1na2vs0mg"},{"bike_id":"02269f0e-1758-473f-8a5c-764f1ddf9ddc","system_id":"levelo_inurba_marseille","lat":43.23181,"lon":5.39985,"is_reserved":false,"is_disabled":false,"rental_uris":{"android":"levelo://app?vid=02269f0e-1758-473f-8a5c-764f1ddf9ddc","ios":"levelo://app?vid=02269f0e-1758-473f-8a5c-764f1ddf9ddc"},"vehicle_type_id":"4","last_reported":1726333677,"current_range_meters":38800,"station_id":"ce4bhn12rcd13ifvqgqg","pricing_plan_id":"cebpf4jnsgd1na2vs0mg"},{"bike_id":"43412657-8f93-44d7-90fb-da7639962547","system_id":"levelo_inurba_marseille","lat":43.33716,"lon":5.39174,"is_reserved":false,"is_disabled":false,"rental_uris":{"android":"levelo://app?vid=43412657-8f93-44d7-90fb-da7639962547","ios":"levelo://app?vid=43412657-8f93-44d7-90fb-da7639962547"},"vehicle_type_id":"4","last_reported":1726333677,"current_range_meters":25200,"station_id":"ce4bhr92rcd13ifvqhsg","pricing_plan_id":"cebpf4jnsgd1na2vs0mg"},{"bike_id":"2a29b388-d4ff-45e1-bf47-010ffa290630","system_id":"levelo_inurba_marseille","lat":43.27314,"lon":5.39098,"is_reserved":false,"is_disabled":false,"rental_uris":{"android":"levelo://app?vid=2a29b388-d4ff-45e1-bf47-010ffa290630","ios":"levelo://app?vid=2a29b388-d4ff-45e1-bf47-010ffa290630"},"vehicle_type_id":"4","last_reported":1726333677,"current_range_meters":25600,"station_id":"ce4bhgp2rcd13ifvqfe0","pricing_plan_id":"cebpf4jnsgd1na2vs0mg"},{"bike_id":"5a5a0bc6-9e78-49be-8c45-77fa54342321","system_id":"levelo_inurba_marseille","lat":43.24997,"lon":5.38933,"is_reserved":false,"is_disabled":false,"rental_uris":{"android":"levelo://app?vid=5a5a0bc6-9e78-49be-8c45-77fa54342321","ios":"levelo://app?vid=5a5a0bc6-9e78-49be-8c45-77fa54342321"},"vehicle_type_id":"4","last_reported":1726333677,"current_range_meters":23200,"station_id":"ce4bhgp2rcd13ifvqfd0","pricing_plan_id":"cebpf4jnsgd1na2vs0mg"},{"bike_id":"5c40ab76-4443-48dd-8145-4083cf71a50a","system_id":"levelo_inurba_marseille","lat":43.292727,"lon":5.368338,"is_reserved":false,"is_disabled":false,"rental_uris":{"android":"levelo://app?vid=5c40ab76-4443-48dd-8145-4083cf71a50a","ios":"levelo://app?vid=5c40ab76-4443-48dd-8145-4083cf71a50a"},"vehicle_type_id":"4","last_reported":1726333677,"current_range_meters":26000,"station_id":"ce4bhbp2rcd13ifvqesg","pricing_plan_id":"cebpf4jnsgd1na2vs0mg"},{"bike_id":"61e00977-be43-400f-99ea-3c33330f7657","system_id":"levelo_inurba_marseille","lat":43.25009,"lon":5.38913,"is_reserved":false,"is_disabled":false,"rental_uris":{"android":"levelo://app?vid=61e00977-be43-400f-99ea-3c33330f7657","ios":"levelo://app?vid=61e00977-be43-400f-99ea-3c33330f7657"},"vehicle_type_id":"4","last_reported":1726333677,"current_range_meters":18800,"station_id":"ce4bhgp2rcd13ifvqfd0","pricing_plan_id":"cebpf4jnsgd1na2vs0mg"},{"bike_id":"76a98413-6f89-40eb-b0ef-d4732c8350fd","system_id":"levelo_inurba_marseille","lat":43.279175,"lon":5.412304,"is_reserved":false,"is_disabled":false,"rental_uris":{"android":"levelo://app?vid=76a98413-6f89-40eb-b0ef-d4732c8350fd","ios":"levelo://app?vid=76a98413-6f89-40eb-b0ef-d4732c8350fd"},"vehicle_type_id":"4","last_reported":1726333677,"current_range_meters":18000,"station_id":"ce4bhnp2rcd13ifvqh0g","pricing_plan_id":"cebpf4jnsgd1na2vs0mg"},{"bike_id":"d1f38fcd-be46-4877-a9ac-34b365272c30","system_id":"levelo_inurba_marseille","lat":43.27096,"lon":5.43318,"is_reserved":false,"is_disabled":false,"rental_uris":{"android":"levelo://app?vid=d1f38fcd-be46-4877-a9ac-34b365272c30","ios":"levelo://app?vid=d1f38fcd-be46-4877-a9ac-34b365272c30"},"vehicle_type_id":"4","last_reported":1726333677,"current_range_meters":31200,"station_id":"","pricing_plan_id":"cebpf4jnsgd1na2vs0mg"},{"bike_id":"e27ff86c-4b9f-4a50-859e-90350c57fc40","system_id":"levelo_inurba_marseille","lat":43.276184,"lon":5.36104,"is_reserved":false,"is_disabled":false,"rental_uris":{"android":"levelo://app?vid=e27ff86c-4b9f-4a50-859e-90350c57fc40","ios":"levelo://app?vid=e27ff86c-4b9f-4a50-859e-90350c57fc40"},"vehicle_type_id":"4","last_reported":1726333677,"current_range_meters":16400,"station_id":"ce4bgj92rcd13ifvqbe0","pricing_plan_id":"cebpf4jnsgd1na2vs0mg"},{"bike_id":"56340ccb-411d-4947-9e44-be9debe47e14","system_id":"levelo_inurba_marseille","lat":43.30892,"lon":5.37193,"is_reserved":false,"is_disabled":false,"rental_uris":{"android":"levelo://app?vid=56340ccb-411d-4947-9e44-be9debe47e14","ios":"levelo://app?vid=56340ccb-411d-4947-9e44-be9debe47e14"},"vehicle_type_id":"4","last_reported":1726333677,"current_range_meters":18000,"station_id":"ce4bguh2rcd13ifvqckg","pricing_plan_id":"cebpf4jnsgd1na2vs0mg"},{"bike_id":"312b00c3-6c5b-440b-8745-549e9043a90d","system_id":"levelo_inurba_marseille","lat":43.27326,"lon":5.39094,"is_reserved":false,"is_disabled":false,"rental_uris":{"android":"levelo://app?vid=312b00c3-6c5b-440b-8745-549e9043a90d","ios":"levelo://app?vid=312b00c3-6c5b-440b-8745-549e9043a90d"},"vehicle_type_id":"4","last_reported":1726333677,"current_range_meters":24000,"station_id":"ce4bhgp2rcd13ifvqfe0","pricing_plan_id":"cebpf4jnsgd1na2vs0mg"},{"bike_id":"f9076aec-56e7-4b2e-a7b1-575337aca9d5","system_id":"levelo_inurba_marseille","lat":43.24175,"lon":5.36401,"is_reserved":false,"is_disabled":false,"rental_uris":{"android":"levelo://app?vid=f9076aec-56e7-4b2e-a7b1-575337aca9d5","ios":"levelo://app?vid=f9076aec-56e7-4b2e-a7b1-575337aca9d5"},"vehicle_type_id":"4","last_reported":1726333677,"current_range_meters":32000,"station_id":"cpo36qri1sfpv3e86is0","pricing_plan_id":"cebpf4jnsgd1na2vs0mg"},{"bike_id":"8276ff57-e16f-4fee-a0cd-8cad62de0a67","system_id":"levelo_inurba_marseille","lat":43.29783,"lon":5.38103,"is_reserved":false,"is_disabled":false,"rental_uris":{"android":"levelo://app?vid=8276ff57-e16f-4fee-a0cd-8cad62de0a67","ios":"levelo://app?vid=8276ff57-e16f-4fee-a0cd-8cad62de0a67"},"vehicle_type_id":"4","last_reported":1726333677,"current_range_meters":27600,"station_id":"ce4bgip2rcd13ifvqbb0","pricing_plan_id":"cebpf4jnsgd1na2vs0mg"},{"bike_id":"9da3cfc3-76e1-45aa-bd84-0cc476fb2e0c","system_id":"levelo_inurba_marseille","lat":43.22933,"lon":5.35377,"is_reserved":false,"is_disabled":false,"rental_uris":{"android":"levelo://app?vid=9da3cfc3-76e1-45aa-bd84-0cc476fb2e0c","ios":"levelo://app?vid=9da3cfc3-76e1-45aa-bd84-0cc476fb2e0c"},"vehicle_type_id":"4","last_reported":1726333677,"current_range_meters":32000,"station_id":"cpo3532slgdg3j2ikp40","pricing_plan_id":"cebpf4jnsgd1na2vs0mg"},{"bike_id":"a4f18687-e126-425b-b639-a942cceab9e8","system_id":"levelo_inurba_marseille","lat":43.24654,"lon":5.38895,"is_reserved":false,"is_disabled":false,"rental_uris":{"android":"levelo://app?vid=a4f18687-e126-425b-b639-a942cceab9e8","ios":"levelo://app?vid=a4f18687-e126-425b-b639-a942cceab9e8"},"vehicle_type_id":"4","last_reported":1726333677,"current_range_meters":18800,"station_id":"ce4bhg12rcd13ifvqf60","pricing_plan_id":"cebpf4jnsgd1na2vs0mg"},{"bike_id":"c4c6ccd2-d6fe-4e0b-8cb1-a0168a9a2006","system_id":"levelo_inurba_marseille","lat":43.26679,"lon":5.38266,"is_reserved":false,"is_disabled":false,"rental_uris":{"android":"levelo://app?vid=c4c6ccd2-d6fe-4e0b-8cb1-a0168a9a2006","ios":"levelo://app?vid=c4c6ccd2-d6fe-4e0b-8cb1-a0168a9a2006"},"vehicle_type_id":"4","last_reported":1726333677,"current_range_meters":11600,"station_id":"ce4bhg92rcd13ifvqf90","pricing_plan_id":"cebpf4jnsgd1na2vs0mg"},{"bike_id":"103cf9f9-2f0a-447b-a31f-dbd4bc9e6e95","system_id":"levelo_inurba_marseille","lat":43.29552,"lon":5.42277,"is_reserved":false,"is_disabled":false,"rental_uris":{"android":"levelo://app?vid=103cf9f9-2f0a-447b-a31f-dbd4bc9e6e95","ios":"levelo://app?vid=103cf9f9-2f0a-447b-a31f-dbd4bc9e6e95"},"vehicle_type_id":"4","last_reported":1726333677,"current_range_meters":38800,"station_id":"ce4bhph2rcd13ifvqhdg","pricing_plan_id":"cebpf4jnsgd1na2vs0mg"},{"bike_id":"7560168d-c555-4b8e-a518-1c66771c1c72","system_id":"levelo_inurba_marseille","lat":43.24178,"lon":5.39725,"is_reserved":false,"is_disabled":false,"rental_uris":{"android":"levelo://app?vid=7560168d-c555-4b8e-a518-1c66771c1c72","ios":"levelo://app?vid=7560168d-c555-4b8e-a518-1c66771c1c72"},"vehicle_type_id":"4","last_reported":1726333677,"current_range_meters":14000,"station_id":"ce4bhn12rcd13ifvqgpg","pricing_plan_id":"cebpf4jnsgd1na2vs0mg"},{"bike_id":"0152c769-0df7-4e57-8a8c-50b2ebf80587","system_id":"levelo_inurba_marseille","lat":43.26193,"lon":5.37449,"is_reserved":false,"is_disabled":false,"rental_uris":{"android":"levelo://app?vid=0152c769-0df7-4e57-8a8c-50b2ebf80587","ios":"levelo://app?vid=0152c769-0df7-4e57-8a8c-50b2ebf80587"},"vehicle_type_id":"4","last_reported":1726333677,"current_range_meters":34800,"station_id":"ce4bhgp2rcd13ifvqfc0","pricing_plan_id":"cebpf4jnsgd1na2vs0mg"},{"bike_id":"4e26d67f-3260-467d-88af-075a11ad36b7","system_id":"levelo_inurba_marseille","lat":43.29953,"lon":5.38482,"is_reserved":false,"is_disabled":false,"rental_uris":{"android":"levelo://app?vid=4e26d67f-3260-467d-88af-075a11ad36b7","ios":"levelo://app?vid=4e26d67f-3260-467d-88af-075a11ad36b7"},"vehicle_type_id":"4","last_reported":1726333677,"current_range_meters":11200,"station_id":"ce4bgj92rcd13ifvqbd0","pricing_plan_id":"cebpf4jnsgd1na2vs0mg"},{"bike_id":"8884a964-e04f-4e79-a46f-768bb8958d69","system_id":"levelo_inurba_marseille","lat":43.298985,"lon":5.387993,"is_reserved":false,"is_disabled":false,"rental_uris":{"android":"levelo://app?vid=8884a964-e04f-4e79-a46f-768bb8958d69","ios":"levelo://app?vid=8884a964-e04f-4e79-a46f-768bb8958d69"},"vehicle_type_id":"4","last_reported":1726333677,"current_range_meters":15200,"station_id":"","pricing_plan_id":"cebpf4jnsgd1na2vs0mg"},{"bike_id":"a8bd3620-89ae-4e6c-8c6e-bcd92fa6af76","system_id":"levelo_inurba_marseille","lat":43.27327,"lon":5.39076,"is_reserved":false,"is_disabled":false,"rental_uris":{"android":"levelo://app?vid=a8bd3620-89ae-4e6c-8c6e-bcd92fa6af76","ios":"levelo://app?vid=a8bd3620-89ae-4e6c-8c6e-bcd92fa6af76"},"vehicle_type_id":"4","last_reported":1726333677,"current_range_meters":28000,"station_id":"ce4bhgp2rcd13ifvqfe0","pricing_plan_id":"cebpf4jnsgd1na2vs0mg"},{"bike_id":"f8841b1c-2e61-49cb-9be6-3829e41e323d","system_id":"levelo_inurba_marseille","lat":43.26193,"lon":5.37452,"is_reserved":false,"is_disabled":false,"rental_uris":{"android":"levelo://app?vid=f8841b1c-2e61-49cb-9be6-3829e41e323d","ios":"levelo://app?vid=f8841b1c-2e61-49cb-9be6-3829e41e323d"},"vehicle_type_id":"4","last_reported":1726333677,"current_range_meters":8800,"station_id":"ce4bhgp2rcd13ifvqfc0","pricing_plan_id":"cebpf4jnsgd1na2vs0mg"},{"bike_id":"e4c49bc1-eb92-4d59-ba87-4552de70d6bf","system_id":"levelo_inurba_marseille","lat":43.29439,"lon":5.3975,"is_reserved":false,"is_disabled":false,"rental_uris":{"android":"levelo://app?vid=e4c49bc1-eb92-4d59-ba87-4552de70d6bf","ios":"levelo://app?vid=e4c49bc1-eb92-4d59-ba87-4552de70d6bf"},"vehicle_type_id":"4","last_reported":1726333677,"current_range_meters":32000,"station_id":"ce4bh3h2rcd13ifvqdo0","pricing_plan_id":"cebpf4jnsgd1na2vs0mg"},{"bike_id":"0b0bebf1-d87d-4afa-a3e2-c8630aaf5a11","system_id":"levelo_inurba_marseille","lat":43.278897,"lon":5.383071,"is_reserved":false,"is_disabled":false,"rental_uris":{"android":"levelo://app?vid=0b0bebf1-d87d-4afa-a3e2-c8630aaf5a11","ios":"levelo://app?vid=0b0bebf1-d87d-4afa-a3e2-c8630aaf5a11"},"vehicle_type_id":"4","last_reported":1726333677,"current_range_meters":12000,"station_id":"ce4bhh92rcd13ifvqfi0","pricing_plan_id":"cebpf4jnsgd1na2vs0mg"},{"bike_id":"af97313c-5eff-4f01-8281-7ae294759090","system_id":"levelo_inurba_marseille","lat":43.2733,"lon":5.39085,"is_reserved":false,"is_disabled":false,"rental_uris":{"android":"levelo://app?vid=af97313c-5eff-4f01-8281-7ae294759090","ios":"levelo://app?vid=af97313c-5eff-4f01-8281-7ae294759090"},"vehicle_type_id":"4","last_reported":1726333677,"current_range_meters":22800,"station_id":"ce4bhgp2rcd13ifvqfe0","pricing_plan_id":"cebpf4jnsgd1na2vs0mg"},{"bike_id":"e8bbfa78-6c79-4695-ad0b-071569a98406","system_id":"levelo_inurba_marseille","lat":43.29712,"lon":5.36618,"is_reserved":false,"is_disabled":false,"rental_uris":{"android":"levelo://app?vid=e8bbfa78-6c79-4695-ad0b-071569a98406","ios":"levelo://app?vid=e8bbfa78-6c79-4695-ad0b-071569a98406"},"vehicle_type_id":"4","last_reported":1726333677,"current_range_meters":32800,"station_id":"ce4bgn12rcd13ifvqbt0","pricing_plan_id":"cebpf4jnsgd1na2vs0mg"},{"bike_id":"a2297e44-ed7c-404a-9891-8598306504eb","system_id":"levelo_inurba_marseille","lat":43.31729,"lon":5.42394,"is_reserved":false,"is_disabled":false,"rental_uris":{"android":"levelo://app?vid=a2297e44-ed7c-404a-9891-8598306504eb","ios":"levelo://app?vid=a2297e44-ed7c-404a-9891-8598306504eb"},"vehicle_type_id":"4","last_reported":1726333677,"current_range_meters":30000,"station_id":"ce4bhp92rcd13ifvqhbg","pricing_plan_id":"cebpf4jnsgd1na2vs0mg"},{"bike_id":"deedf90a-6afc-496e-bfba-82dcceee3ce6","system_id":"levelo_inurba_marseille","lat":43.25491,"lon":5.37642,"is_reserved":false,"is_disabled":false,"rental_uris":{"android":"levelo://app?vid=deedf90a-6afc-496e-bfba-82dcceee3ce6","ios":"levelo://app?vid=deedf90a-6afc-496e-bfba-82dcceee3ce6"},"vehicle_type_id":"4","last_reported":1726333677,"current_range_meters":29600,"station_id":"ce4bhh12rcd13ifvqff0","pricing_plan_id":"cebpf4jnsgd1na2vs0mg"},{"bike_id":"e45c06f9-ad71-4d8e-9ba1-661d1798f960","system_id":"levelo_inurba_marseille","lat":43.2572,"lon":5.41108,"is_reserved":false,"is_disabled":false,"rental_uris":{"android":"levelo://app?vid=e45c06f9-ad71-4d8e-9ba1-661d1798f960","ios":"levelo://app?vid=e45c06f9-ad71-4d8e-9ba1-661d1798f960"},"vehicle_type_id":"4","last_reported":1726333677,"current_range_meters":20800,"station_id":"ce4bhkp2rcd13ifvqgd0","pricing_plan_id":"cebpf4jnsgd1na2vs0mg"},{"bike_id":"4252997a-048e-467d-b47c-5290f1fef794","system_id":"levelo_inurba_marseille","lat":43.245904,"lon":5.394723,"is_reserved":false,"is_disabled":false,"rental_uris":{"android":"levelo://app?vid=4252997a-048e-467d-b47c-5290f1fef794","ios":"levelo://app?vid=4252997a-048e-467d-b47c-5290f1fef794"},"vehicle_type_id":"4","last_reported":1726333677,"current_range_meters":14000,"station_id":"ce4bhlp2rcd13ifvqgjg","pricing_plan_id":"cebpf4jnsgd1na2vs0mg"},{"bike_id":"13e4e1f1-ca7a-4e6f-b284-520dc9687025","system_id":"levelo_inurba_marseille","lat":43.26197,"lon":5.37451,"is_reserved":false,"is_disabled":false,"rental_uris":{"android":"levelo://app?vid=13e4e1f1-ca7a-4e6f-b284-520dc9687025","ios":"levelo://app?vid=13e4e1f1-ca7a-4e6f-b284-520dc9687025"},"vehicle_type_id":"4","last_reported":1726333677,"current_range_meters":17600,"station_id":"ce4bhgp2rcd13ifvqfc0","pricing_plan_id":"cebpf4jnsgd1na2vs0mg"},{"bike_id":"328d45f9-980e-4811-97c0-47d761861509","system_id":"levelo_inurba_marseille","lat":43.29847,"lon":5.37836,"is_reserved":false,"is_disabled":false,"rental_uris":{"android":"levelo://app?vid=328d45f9-980e-4811-97c0-47d761861509","ios":"levelo://app?vid=328d45f9-980e-4811-97c0-47d761861509"},"vehicle_type_id":"4","last_reported":1726333677,"current_range_meters":31200,"station_id":"ce4bgkh2rcd13ifvqbl0","pricing_plan_id":"cebpf4jnsgd1na2vs0mg"},{"bike_id":"7bef3134-bc3d-4d65-a01a-f2434a18c622","system_id":"levelo_inurba_marseille","lat":43.2572,"lon":5.41107,"is_reserved":false,"is_disabled":false,"rental_uris":{"android":"levelo://app?vid=7bef3134-bc3d-4d65-a01a-f2434a18c622","ios":"levelo://app?vid=7bef3134-bc3d-4d65-a01a-f2434a18c622"},"vehicle_type_id":"4","last_reported":1726333677,"current_range_meters":18000,"station_id":"ce4bhkp2rcd13ifvqgd0","pricing_plan_id":"cebpf4jnsgd1na2vs0mg"},{"bike_id":"9ef74294-1e9f-40c9-b6de-b65562b51f9f","system_id":"levelo_inurba_marseille","lat":43.29551,"lon":5.42284,"is_reserved":false,"is_disabled":false,"rental_uris":{"android":"levelo://app?vid=9ef74294-1e9f-40c9-b6de-b65562b51f9f","ios":"levelo://app?vid=9ef74294-1e9f-40c9-b6de-b65562b51f9f"},"vehicle_type_id":"4","last_reported":1726333677,"current_range_meters":38800,"station_id":"ce4bhph2rcd13ifvqhdg","pricing_plan_id":"cebpf4jnsgd1na2vs0mg"},{"bike_id":"951d8c98-1e60-4353-8f63-6acfd8d9bd82","system_id":"levelo_inurba_marseille","lat":43.2768,"lon":5.38865,"is_reserved":false,"is_disabled":false,"rental_uris":{"android":"levelo://app?vid=951d8c98-1e60-4353-8f63-6acfd8d9bd82","ios":"levelo://app?vid=951d8c98-1e60-4353-8f63-6acfd8d9bd82"},"vehicle_type_id":"4","last_reported":1726333677,"current_range_meters":20000,"station_id":"ce4bhi12rcd13ifvqfo0","pricing_plan_id":"cebpf4jnsgd1na2vs0mg"},{"bike_id":"b974fc54-18f1-4d31-9ab8-f4cb7eee67fa","system_id":"levelo_inurba_marseille","lat":43.23149,"lon":5.43717,"is_reserved":false,"is_disabled":false,"rental_uris":{"android":"levelo://app?vid=b974fc54-18f1-4d31-9ab8-f4cb7eee67fa","ios":"levelo://app?vid=b974fc54-18f1-4d31-9ab8-f4cb7eee67fa"},"vehicle_type_id":"4","last_reported":1726333677,"current_range_meters":3600,"station_id":"ce4bhmp2rcd13ifvqgog","pricing_plan_id":"cebpf4jnsgd1na2vs0mg"},{"bike_id":"0d8a5958-c4ce-4316-9b39-1b845954a2a1","system_id":"levelo_inurba_marseille","lat":43.26065,"lon":5.39396,"is_reserved":false,"is_disabled":false,"rental_uris":{"android":"levelo://app?vid=0d8a5958-c4ce-4316-9b39-1b845954a2a1","ios":"levelo://app?vid=0d8a5958-c4ce-4316-9b39-1b845954a2a1"},"vehicle_type_id":"4","last_reported":1726333677,"current_range_meters":18000,"station_id":"ce4bhh92rcd13ifvqfj0","pricing_plan_id":"cebpf4jnsgd1na2vs0mg"},{"bike_id":"8b608b96-fedf-4511-8d4b-09bad2606e1a","system_id":"levelo_inurba_marseille","lat":43.27725,"lon":5.41135,"is_reserved":false,"is_disabled":false,"rental_uris":{"android":"levelo://app?vid=8b608b96-fedf-4511-8d4b-09bad2606e1a","ios":"levelo://app?vid=8b608b96-fedf-4511-8d4b-09bad2606e1a"},"vehicle_type_id":"4","last_reported":1726333677,"current_range_meters":26000,"station_id":"","pricing_plan_id":"cebpf4jnsgd1na2vs0mg"},{"bike_id":"0cd1c978-13e8-4405-af4b-07c5d83560a3","system_id":"levelo_inurba_marseille","lat":43.29896,"lon":5.43661,"is_reserved":false,"is_disabled":false,"rental_uris":{"android":"levelo://app?vid=0cd1c978-13e8-4405-af4b-07c5d83560a3","ios":"levelo://app?vid=0cd1c978-13e8-4405-af4b-07c5d83560a3"},"vehicle_type_id":"4","last_reported":1726333677,"current_range_meters":37600,"station_id":"ce4bhpp2rcd13ifvqhfg","pricing_plan_id":"cebpf4jnsgd1na2vs0mg"},{"bike_id":"6a8756d9-2e1b-4d61-a696-f5271f06b346","system_id":"levelo_inurba_marseille","lat":43.29918,"lon":5.37469,"is_reserved":false,"is_disabled":false,"rental_uris":{"android":"levelo://app?vid=6a8756d9-2e1b-4d61-a696-f5271f06b346","ios":"levelo://app?vid=6a8756d9-2e1b-4d61-a696-f5271f06b346"},"vehicle_type_id":"4","last_reported":1726333677,"current_range_meters":10800,"station_id":"ce4bgjh2rcd13ifvqbg0","pricing_plan_id":"cebpf4jnsgd1na2vs0mg"},{"bike_id":"446cb251-0763-431f-9adc-18c89be63a93","system_id":"levelo_inurba_marseille","lat":43.29524,"lon":5.39042,"is_reserved":false,"is_disabled":false,"rental_uris":{"android":"levelo://app?vid=446cb251-0763-431f-9adc-18c89be63a93","ios":"levelo://app?vid=446cb251-0763-431f-9adc-18c89be63a93"},"vehicle_type_id":"4","last_reported":1726333677,"current_range_meters":3600,"station_id":"ce4bh3p2rcd13ifvqdp0","pricing_plan_id":"cebpf4jnsgd1na2vs0mg"},{"bike_id":"08838023-fd29-43d3-8150-3afe4a40ba4f","system_id":"levelo_inurba_marseille","lat":43.282654,"lon":5.350537,"is_reserved":false,"is_disabled":false,"rental_uris":{"android":"levelo://app?vid=08838023-fd29-43d3-8150-3afe4a40ba4f","ios":"levelo://app?vid=08838023-fd29-43d3-8150-3afe4a40ba4f"},"vehicle_type_id":"4","last_reported":1726333677,"current_range_meters":22400,"station_id":"ce4bhbp2rcd13ifvqerg","pricing_plan_id":"cebpf4jnsgd1na2vs0mg"},{"bike_id":"5c28a4bf-0da4-4bd3-9b3b-bb1a4f70bd2f","system_id":"levelo_inurba_marseille","lat":43.30279,"lon":5.37701,"is_reserved":false,"is_disabled":false,"rental_uris":{"android":"levelo://app?vid=5c28a4bf-0da4-4bd3-9b3b-bb1a4f70bd2f","ios":"levelo://app?vid=5c28a4bf-0da4-4bd3-9b3b-bb1a4f70bd2f"},"vehicle_type_id":"4","last_reported":1726333677,"current_range_meters":17200,"station_id":"ce4bguh2rcd13ifvqcj0","pricing_plan_id":"cebpf4jnsgd1na2vs0mg"},{"bike_id":"fa2b0a9f-66ad-4cd1-b7bb-93b9cffdc904","system_id":"levelo_inurba_marseille","lat":43.2593,"lon":5.40911,"is_reserved":false,"is_disabled":false,"rental_uris":{"android":"levelo://app?vid=fa2b0a9f-66ad-4cd1-b7bb-93b9cffdc904","ios":"levelo://app?vid=fa2b0a9f-66ad-4cd1-b7bb-93b9cffdc904"},"vehicle_type_id":"4","last_reported":1726333677,"current_range_meters":36400,"station_id":"ce4bhm92rcd13ifvqglg","pricing_plan_id":"cebpf4jnsgd1na2vs0mg"},{"bike_id":"dfdc5a5d-40cf-4ee7-9a62-0843dd4916d7","system_id":"levelo_inurba_marseille","lat":43.27551,"lon":5.40922,"is_reserved":false,"is_disabled":false,"rental_uris":{"android":"levelo://app?vid=dfdc5a5d-40cf-4ee7-9a62-0843dd4916d7","ios":"levelo://app?vid=dfdc5a5d-40cf-4ee7-9a62-0843dd4916d7"},"vehicle_type_id":"4","last_reported":1726333677,"current_range_meters":6400,"station_id":"ce4bhnp2rcd13ifvqh0g","pricing_plan_id":"cebpf4jnsgd1na2vs0mg"},{"bike_id":"2fa7a912-256f-4ebe-9793-d9b6c6940c4a","system_id":"levelo_inurba_marseille","lat":43.25,"lon":5.38935,"is_reserved":false,"is_disabled":false,"rental_uris":{"android":"levelo://app?vid=2fa7a912-256f-4ebe-9793-d9b6c6940c4a","ios":"levelo://app?vid=2fa7a912-256f-4ebe-9793-d9b6c6940c4a"},"vehicle_type_id":"4","last_reported":1726333677,"current_range_meters":28000,"station_id":"ce4bhgp2rcd13ifvqfd0","pricing_plan_id":"cebpf4jnsgd1na2vs0mg"},{"bike_id":"24de36d0-9629-4bb1-a6e0-14638ef98963","system_id":"levelo_inurba_marseille","lat":43.31726,"lon":5.42398,"is_reserved":false,"is_disabled":false,"rental_uris":{"android":"levelo://app?vid=24de36d0-9629-4bb1-a6e0-14638ef98963","ios":"levelo://app?vid=24de36d0-9629-4bb1-a6e0-14638ef98963"},"vehicle_type_id":"4","last_reported":1726333677,"current_range_meters":2800,"station_id":"ce4bhp92rcd13ifvqhbg","pricing_plan_id":"cebpf4jnsgd1na2vs0mg"},{"bike_id":"312f7592-2b21-4d29-8fdc-9f4fda955c62","system_id":"levelo_inurba_marseille","lat":43.294373,"lon":5.385778,"is_reserved":false,"is_disabled":false,"rental_uris":{"android":"levelo://app?vid=312f7592-2b21-4d29-8fdc-9f4fda955c62","ios":"levelo://app?vid=312f7592-2b21-4d29-8fdc-9f4fda955c62"},"vehicle_type_id":"4","last_reported":1726333677,"current_range_meters":28800,"station_id":"ce4bh2h2rcd13ifvqdh0","pricing_plan_id":"cebpf4jnsgd1na2vs0mg"},{"bike_id":"f6d9edfd-6fc8-4773-bddd-596f133127da","system_id":"levelo_inurba_marseille","lat":43.25582,"lon":5.38229,"is_reserved":false,"is_disabled":false,"rental_uris":{"android":"levelo://app?vid=f6d9edfd-6fc8-4773-bddd-596f133127da","ios":"levelo://app?vid=f6d9edfd-6fc8-4773-bddd-596f133127da"},"vehicle_type_id":"4","last_reported":1726333677,"current_range_meters":23200,"station_id":"ce4bhih2rcd13ifvqfs0","pricing_plan_id":"cebpf4jnsgd1na2vs0mg"},{"bike_id":"478aeb92-9a48-4f00-9c8d-8fbe144a0e57","system_id":"levelo_inurba_marseille","lat":43.246082,"lon":5.380752,"is_reserved":false,"is_disabled":false,"rental_uris":{"android":"levelo://app?vid=478aeb92-9a48-4f00-9c8d-8fbe144a0e57","ios":"levelo://app?vid=478aeb92-9a48-4f00-9c8d-8fbe144a0e57"},"vehicle_type_id":"4","last_reported":1726333677,"current_range_meters":23200,"station_id":"ce4bhih2rcd13ifvqfr0","pricing_plan_id":"cebpf4jnsgd1na2vs0mg"},{"bike_id":"9a553698-4c77-41ac-bb17-fceb937eb60c","system_id":"levelo_inurba_marseille","lat":43.30127,"lon":5.39861,"is_reserved":false,"is_disabled":false,"rental_uris":{"android":"levelo://app?vid=9a553698-4c77-41ac-bb17-fceb937eb60c","ios":"levelo://app?vid=9a553698-4c77-41ac-bb17-fceb937eb60c"},"vehicle_type_id":"4","last_reported":1726333677,"current_range_meters":24800,"station_id":"ce4bh0h2rcd13ifvqd40","pricing_plan_id":"cebpf4jnsgd1na2vs0mg"},{"bike_id":"f1e8ceee-9573-4b77-ab79-482d0d3b70cc","system_id":"levelo_inurba_marseille","lat":43.24168,"lon":5.36404,"is_reserved":false,"is_disabled":false,"rental_uris":{"android":"levelo://app?vid=f1e8ceee-9573-4b77-ab79-482d0d3b70cc","ios":"levelo://app?vid=f1e8ceee-9573-4b77-ab79-482d0d3b70cc"},"vehicle_type_id":"4","last_reported":1726333677,"current_range_meters":38800,"station_id":"cpo36qri1sfpv3e86is0","pricing_plan_id":"cebpf4jnsgd1na2vs0mg"},{"bike_id":"4e76adff-72f1-472c-89e7-673ae4137b06","system_id":"levelo_inurba_marseille","lat":43.28726,"lon":5.36094,"is_reserved":false,"is_disabled":false,"rental_uris":{"android":"levelo://app?vid=4e76adff-72f1-472c-89e7-673ae4137b06","ios":"levelo://app?vid=4e76adff-72f1-472c-89e7-673ae4137b06"},"vehicle_type_id":"4","last_reported":1726333677,"current_range_meters":28400,"station_id":"cki0cbj6b192h4jlfktg","pricing_plan_id":"cebpf4jnsgd1na2vs0mg"},{"bike_id":"41b3dd49-1d82-48df-b768-00dc56c7501e","system_id":"levelo_inurba_marseille","lat":43.27205,"lon":5.39185,"is_reserved":false,"is_disabled":false,"rental_uris":{"android":"levelo://app?vid=41b3dd49-1d82-48df-b768-00dc56c7501e","ios":"levelo://app?vid=41b3dd49-1d82-48df-b768-00dc56c7501e"},"vehicle_type_id":"4","last_reported":1726333677,"current_range_meters":35600,"station_id":"ce4bhhp2rcd13ifvqfm0","pricing_plan_id":"cebpf4jnsgd1na2vs0mg"},{"bike_id":"7dd8a123-95bb-425c-8378-f33a9e32b4c6","system_id":"levelo_inurba_marseille","lat":43.272033,"lon":5.391814,"is_reserved":false,"is_disabled":false,"rental_uris":{"android":"levelo://app?vid=7dd8a123-95bb-425c-8378-f33a9e32b4c6","ios":"levelo://app?vid=7dd8a123-95bb-425c-8378-f33a9e32b4c6"},"vehicle_type_id":"4","last_reported":1726333677,"current_range_meters":10800,"station_id":"ce4bhhp2rcd13ifvqfm0","pricing_plan_id":"cebpf4jnsgd1na2vs0mg"},{"bike_id":"6da1a485-297b-4231-a115-9f771a04b98d","system_id":"levelo_inurba_marseille","lat":43.30786,"lon":5.37645,"is_reserved":false,"is_disabled":false,"rental_uris":{"android":"levelo://app?vid=6da1a485-297b-4231-a115-9f771a04b98d","ios":"levelo://app?vid=6da1a485-297b-4231-a115-9f771a04b98d"},"vehicle_type_id":"4","last_reported":1726333677,"current_range_meters":4000,"station_id":"ce4bgv92rcd13ifvqcq0","pricing_plan_id":"cebpf4jnsgd1na2vs0mg"},{"bike_id":"da1b93de-078a-4bf2-a07c-64d16316c020","system_id":"levelo_inurba_marseille","lat":43.33026,"lon":5.39043,"is_reserved":false,"is_disabled":false,"rental_uris":{"android":"levelo://app?vid=da1b93de-078a-4bf2-a07c-64d16316c020","ios":"levelo://app?vid=da1b93de-078a-4bf2-a07c-64d16316c020"},"vehicle_type_id":"4","last_reported":1726333677,"current_range_meters":20400,"station_id":"ce4bhr92rcd13ifvqhrg","pricing_plan_id":"cebpf4jnsgd1na2vs0mg"},{"bike_id":"19905df6-e73e-46a1-ae96-6fdb91b17345","system_id":"levelo_inurba_marseille","lat":43.32191,"lon":5.41324,"is_reserved":false,"is_disabled":false,"rental_uris":{"android":"levelo://app?vid=19905df6-e73e-46a1-ae96-6fdb91b17345","ios":"levelo://app?vid=19905df6-e73e-46a1-ae96-6fdb91b17345"},"vehicle_type_id":"4","last_reported":1726333677,"current_range_meters":22400,"station_id":"","pricing_plan_id":"cebpf4jnsgd1na2vs0mg"},{"bike_id":"1b641a54-34a7-4e15-bbcd-bdb9a02e2999","system_id":"levelo_inurba_marseille","lat":43.28468,"lon":5.38423,"is_reserved":false,"is_disabled":false,"rental_uris":{"android":"levelo://app?vid=1b641a54-34a7-4e15-bbcd-bdb9a02e2999","ios":"levelo://app?vid=1b641a54-34a7-4e15-bbcd-bdb9a02e2999"},"vehicle_type_id":"4","last_reported":1726333677,"current_range_meters":12800,"station_id":"ce4bh512rcd13ifvqe3g","pricing_plan_id":"cebpf4jnsgd1na2vs0mg"},{"bike_id":"9f597e05-505a-4fec-b054-08689e9fb8a5","system_id":"levelo_inurba_marseille","lat":43.26947,"lon":5.386396,"is_reserved":false,"is_disabled":false,"rental_uris":{"android":"levelo://app?vid=9f597e05-505a-4fec-b054-08689e9fb8a5","ios":"levelo://app?vid=9f597e05-505a-4fec-b054-08689e9fb8a5"},"vehicle_type_id":"4","last_reported":1726333677,"current_range_meters":3200,"station_id":"ce4bhqp2rcd13ifvqhng","pricing_plan_id":"cebpf4jnsgd1na2vs0mg"},{"bike_id":"9f184087-17f8-4824-864a-d0581ecdd293","system_id":"levelo_inurba_marseille","lat":43.26569,"lon":5.39025,"is_reserved":false,"is_disabled":false,"rental_uris":{"android":"levelo://app?vid=9f184087-17f8-4824-864a-d0581ecdd293","ios":"levelo://app?vid=9f184087-17f8-4824-864a-d0581ecdd293"},"vehicle_type_id":"4","last_reported":1726333677,"current_range_meters":12800,"station_id":"ce4bhe12rcd13ifvqf30","pricing_plan_id":"cebpf4jnsgd1na2vs0mg"},{"bike_id":"3b2c9c2a-1352-4dac-8864-5d1da4a5ae11","system_id":"levelo_inurba_marseille","lat":43.24174,"lon":5.39725,"is_reserved":false,"is_disabled":false,"rental_uris":{"android":"levelo://app?vid=3b2c9c2a-1352-4dac-8864-5d1da4a5ae11","ios":"levelo://app?vid=3b2c9c2a-1352-4dac-8864-5d1da4a5ae11"},"vehicle_type_id":"4","last_reported":1726333677,"current_range_meters":38800,"station_id":"ce4bhn12rcd13ifvqgpg","pricing_plan_id":"cebpf4jnsgd1na2vs0mg"},{"bike_id":"61a6189f-429e-4436-a791-1ff44720eb24","system_id":"levelo_inurba_marseille","lat":43.28267,"lon":5.35062,"is_reserved":false,"is_disabled":false,"rental_uris":{"android":"levelo://app?vid=61a6189f-429e-4436-a791-1ff44720eb24","ios":"levelo://app?vid=61a6189f-429e-4436-a791-1ff44720eb24"},"vehicle_type_id":"4","last_reported":1726333677,"current_range_meters":8000,"station_id":"ce4bhbp2rcd13ifvqerg","pricing_plan_id":"cebpf4jnsgd1na2vs0mg"},{"bike_id":"27e0fb4b-6eab-4384-be01-13d2e5c905fe","system_id":"levelo_inurba_marseille","lat":43.24179,"lon":5.39726,"is_reserved":false,"is_disabled":false,"rental_uris":{"android":"levelo://app?vid=27e0fb4b-6eab-4384-be01-13d2e5c905fe","ios":"levelo://app?vid=27e0fb4b-6eab-4384-be01-13d2e5c905fe"},"vehicle_type_id":"4","last_reported":1726333677,"current_range_meters":38800,"station_id":"ce4bhn12rcd13ifvqgpg","pricing_plan_id":"cebpf4jnsgd1na2vs0mg"},{"bike_id":"528debb2-0321-4113-9bed-d2af385c5597","system_id":"levelo_inurba_marseille","lat":43.31708,"lon":5.43705,"is_reserved":false,"is_disabled":false,"rental_uris":{"android":"levelo://app?vid=528debb2-0321-4113-9bed-d2af385c5597","ios":"levelo://app?vid=528debb2-0321-4113-9bed-d2af385c5597"},"vehicle_type_id":"4","last_reported":1726333677,"current_range_meters":38000,"station_id":"ce4bhp92rcd13ifvqhcg","pricing_plan_id":"cebpf4jnsgd1na2vs0mg"},{"bike_id":"2fdf6d3b-9be8-47c4-b92a-4d0a310061c3","system_id":"levelo_inurba_marseille","lat":43.33602,"lon":5.41034,"is_reserved":false,"is_disabled":false,"rental_uris":{"android":"levelo://app?vid=2fdf6d3b-9be8-47c4-b92a-4d0a310061c3","ios":"levelo://app?vid=2fdf6d3b-9be8-47c4-b92a-4d0a310061c3"},"vehicle_type_id":"4","last_reported":1726333677,"current_range_meters":39200,"station_id":"ce4bhqh2rcd13ifvqhmg","pricing_plan_id":"cebpf4jnsgd1na2vs0mg"},{"bike_id":"2a59670b-0cd5-4576-9a44-704e9179f478","system_id":"levelo_inurba_marseille","lat":43.30355,"lon":5.41879,"is_reserved":false,"is_disabled":false,"rental_uris":{"android":"levelo://app?vid=2a59670b-0cd5-4576-9a44-704e9179f478","ios":"levelo://app?vid=2a59670b-0cd5-4576-9a44-704e9179f478"},"vehicle_type_id":"4","last_reported":1726333677,"current_range_meters":30800,"station_id":"ce4bhop2rcd13ifvqh7g","pricing_plan_id":"cebpf4jnsgd1na2vs0mg"},{"bike_id":"79db6e48-47d9-4845-8e52-1a2fbaa46ae4","system_id":"levelo_inurba_marseille","lat":43.29645,"lon":5.37787,"is_reserved":false,"is_disabled":false,"rental_uris":{"android":"levelo://app?vid=79db6e48-47d9-4845-8e52-1a2fbaa46ae4","ios":"levelo://app?vid=79db6e48-47d9-4845-8e52-1a2fbaa46ae4"},"vehicle_type_id":"4","last_reported":1726333677,"current_range_meters":15200,"station_id":"ce4bgi92rcd13ifvqb90","pricing_plan_id":"cebpf4jnsgd1na2vs0mg"},{"bike_id":"6255f5ea-9f70-4f67-839f-e1fe0f9a7f74","system_id":"levelo_inurba_marseille","lat":43.29257,"lon":5.3844,"is_reserved":false,"is_disabled":false,"rental_uris":{"android":"levelo://app?vid=6255f5ea-9f70-4f67-839f-e1fe0f9a7f74","ios":"levelo://app?vid=6255f5ea-9f70-4f67-839f-e1fe0f9a7f74"},"vehicle_type_id":"4","last_reported":1726333677,"current_range_meters":24400,"station_id":"ce4bh692rcd13ifvqea0","pricing_plan_id":"cebpf4jnsgd1na2vs0mg"},{"bike_id":"ee41233d-7057-4ec4-b3c6-63f582836de8","system_id":"levelo_inurba_marseille","lat":43.22931,"lon":5.35383,"is_reserved":false,"is_disabled":false,"rental_uris":{"android":"levelo://app?vid=ee41233d-7057-4ec4-b3c6-63f582836de8","ios":"levelo://app?vid=ee41233d-7057-4ec4-b3c6-63f582836de8"},"vehicle_type_id":"4","last_reported":1726333677,"current_range_meters":23200,"station_id":"cpo3532slgdg3j2ikp40","pricing_plan_id":"cebpf4jnsgd1na2vs0mg"},{"bike_id":"075a5701-7319-4020-b5f0-0ca09e0799c5","system_id":"levelo_inurba_marseille","lat":43.26939,"lon":5.40264,"is_reserved":false,"is_disabled":false,"rental_uris":{"android":"levelo://app?vid=075a5701-7319-4020-b5f0-0ca09e0799c5","ios":"levelo://app?vid=075a5701-7319-4020-b5f0-0ca09e0799c5"},"vehicle_type_id":"4","last_reported":1726333677,"current_range_meters":19200,"station_id":"cjm6bp8fraef2m0cb0m0","pricing_plan_id":"cebpf4jnsgd1na2vs0mg"},{"bike_id":"b8509c28-9583-43c9-ab00-680c2cb12173","system_id":"levelo_inurba_marseille","lat":43.231925,"lon":5.355531,"is_reserved":false,"is_disabled":false,"rental_uris":{"android":"levelo://app?vid=b8509c28-9583-43c9-ab00-680c2cb12173","ios":"levelo://app?vid=b8509c28-9583-43c9-ab00-680c2cb12173"},"vehicle_type_id":"4","last_reported":1726333677,"current_range_meters":14000,"station_id":"ce4bh0p2rcd13ifvqd70","pricing_plan_id":"cebpf4jnsgd1na2vs0mg"},{"bike_id":"66c88e83-61b7-4275-acd0-0b704ab789ac","system_id":"levelo_inurba_marseille","lat":43.27214,"lon":5.39196,"is_reserved":false,"is_disabled":false,"rental_uris":{"android":"levelo://app?vid=66c88e83-61b7-4275-acd0-0b704ab789ac","ios":"levelo://app?vid=66c88e83-61b7-4275-acd0-0b704ab789ac"},"vehicle_type_id":"4","last_reported":1726333677,"current_range_meters":22800,"station_id":"ce4bhhp2rcd13ifvqfm0","pricing_plan_id":"cebpf4jnsgd1na2vs0mg"},{"bike_id":"c4148733-d340-4184-9add-27aa76062a46","system_id":"levelo_inurba_marseille","lat":43.25008,"lon":5.38918,"is_reserved":false,"is_disabled":false,"rental_uris":{"android":"levelo://app?vid=c4148733-d340-4184-9add-27aa76062a46","ios":"levelo://app?vid=c4148733-d340-4184-9add-27aa76062a46"},"vehicle_type_id":"4","last_reported":1726333677,"current_range_meters":38800,"station_id":"ce4bhgp2rcd13ifvqfd0","pricing_plan_id":"cebpf4jnsgd1na2vs0mg"},{"bike_id":"e1486374-613c-407b-84d3-7c03fd100821","system_id":"levelo_inurba_marseille","lat":43.23184,"lon":5.39983,"is_reserved":false,"is_disabled":false,"rental_uris":{"android":"levelo://app?vid=e1486374-613c-407b-84d3-7c03fd100821","ios":"levelo://app?vid=e1486374-613c-407b-84d3-7c03fd100821"},"vehicle_type_id":"4","last_reported":1726333677,"current_range_meters":9200,"station_id":"ce4bhn12rcd13ifvqgqg","pricing_plan_id":"cebpf4jnsgd1na2vs0mg"},{"bike_id":"c16a9dfb-c36f-420c-99ca-efe834924f00","system_id":"levelo_inurba_marseille","lat":43.28614,"lon":5.35099,"is_reserved":false,"is_disabled":false,"rental_uris":{"android":"levelo://app?vid=c16a9dfb-c36f-420c-99ca-efe834924f00","ios":"levelo://app?vid=c16a9dfb-c36f-420c-99ca-efe834924f00"},"vehicle_type_id":"4","last_reported":1726333677,"current_range_meters":39200,"station_id":"ce4bhch2rcd13ifvqeug","pricing_plan_id":"cebpf4jnsgd1na2vs0mg"},{"bike_id":"3eaf1591-bc5c-4d0f-927d-889e0d930426","system_id":"levelo_inurba_marseille","lat":43.25105,"lon":5.40316,"is_reserved":false,"is_disabled":false,"rental_uris":{"android":"levelo://app?vid=3eaf1591-bc5c-4d0f-927d-889e0d930426","ios":"levelo://app?vid=3eaf1591-bc5c-4d0f-927d-889e0d930426"},"vehicle_type_id":"4","last_reported":1726333677,"current_range_meters":24000,"station_id":"ce4bhlh2rcd13ifvqgig","pricing_plan_id":"cebpf4jnsgd1na2vs0mg"},{"bike_id":"fdae58d0-e507-4c77-83cb-5c50fd8c510c","system_id":"levelo_inurba_marseille","lat":43.24168,"lon":5.36396,"is_reserved":false,"is_disabled":false,"rental_uris":{"android":"levelo://app?vid=fdae58d0-e507-4c77-83cb-5c50fd8c510c","ios":"levelo://app?vid=fdae58d0-e507-4c77-83cb-5c50fd8c510c"},"vehicle_type_id":"4","last_reported":1726333677,"current_range_meters":7200,"station_id":"cpo36qri1sfpv3e86is0","pricing_plan_id":"cebpf4jnsgd1na2vs0mg"},{"bike_id":"2a969e1b-8a7b-492e-b672-6602c625e9cd","system_id":"levelo_inurba_marseille","lat":43.23205,"lon":5.35548,"is_reserved":false,"is_disabled":false,"rental_uris":{"android":"levelo://app?vid=2a969e1b-8a7b-492e-b672-6602c625e9cd","ios":"levelo://app?vid=2a969e1b-8a7b-492e-b672-6602c625e9cd"},"vehicle_type_id":"4","last_reported":1726333677,"current_range_meters":27200,"station_id":"ce4bhu92rcd13ifvqi70","pricing_plan_id":"cebpf4jnsgd1na2vs0mg"},{"bike_id":"1d4e335d-2bde-4711-8e64-da4ced3723ea","system_id":"levelo_inurba_marseille","lat":43.22935,"lon":5.35374,"is_reserved":false,"is_disabled":false,"rental_uris":{"android":"levelo://app?vid=1d4e335d-2bde-4711-8e64-da4ced3723ea","ios":"levelo://app?vid=1d4e335d-2bde-4711-8e64-da4ced3723ea"},"vehicle_type_id":"4","last_reported":1726333677,"current_range_meters":30400,"station_id":"cpo3532slgdg3j2ikp40","pricing_plan_id":"cebpf4jnsgd1na2vs0mg"},{"bike_id":"e8e2f527-488a-4e62-a20f-2f463cb999a3","system_id":"levelo_inurba_marseille","lat":43.2318,"lon":5.39986,"is_reserved":false,"is_disabled":false,"rental_uris":{"android":"levelo://app?vid=e8e2f527-488a-4e62-a20f-2f463cb999a3","ios":"levelo://app?vid=e8e2f527-488a-4e62-a20f-2f463cb999a3"},"vehicle_type_id":"4","last_reported":1726333677,"current_range_meters":39200,"station_id":"ce4bhn12rcd13ifvqgqg","pricing_plan_id":"cebpf4jnsgd1na2vs0mg"},{"bike_id":"b47d57f9-38d3-43b2-80cf-e573deeefa47","system_id":"levelo_inurba_marseille","lat":43.262038,"lon":5.379293,"is_reserved":false,"is_disabled":false,"rental_uris":{"android":"levelo://app?vid=b47d57f9-38d3-43b2-80cf-e573deeefa47","ios":"levelo://app?vid=b47d57f9-38d3-43b2-80cf-e573deeefa47"},"vehicle_type_id":"4","last_reported":1726333677,"current_range_meters":10800,"station_id":"ce4bhjp2rcd13ifvqg90","pricing_plan_id":"cebpf4jnsgd1na2vs0mg"},{"bike_id":"c267cd16-cc1d-45ef-a6ad-204b2a50eea4","system_id":"levelo_inurba_marseille","lat":43.31722,"lon":5.42399,"is_reserved":false,"is_disabled":false,"rental_uris":{"android":"levelo://app?vid=c267cd16-cc1d-45ef-a6ad-204b2a50eea4","ios":"levelo://app?vid=c267cd16-cc1d-45ef-a6ad-204b2a50eea4"},"vehicle_type_id":"4","last_reported":1726333677,"current_range_meters":38800,"station_id":"ce4bhp92rcd13ifvqhbg","pricing_plan_id":"cebpf4jnsgd1na2vs0mg"},{"bike_id":"d2325a36-c7de-435e-91a8-61150241f56d","system_id":"levelo_inurba_marseille","lat":43.26935,"lon":5.38918,"is_reserved":false,"is_disabled":false,"rental_uris":{"android":"levelo://app?vid=d2325a36-c7de-435e-91a8-61150241f56d","ios":"levelo://app?vid=d2325a36-c7de-435e-91a8-61150241f56d"},"vehicle_type_id":"4","last_reported":1726333677,"current_range_meters":40000,"station_id":"ce4bhhh2rcd13ifvqfl0","pricing_plan_id":"cebpf4jnsgd1na2vs0mg"},{"bike_id":"f9c00423-adeb-4963-892c-81c7168e1aa1","system_id":"levelo_inurba_marseille","lat":43.25009,"lon":5.38913,"is_reserved":false,"is_disabled":false,"rental_uris":{"android":"levelo://app?vid=f9c00423-adeb-4963-892c-81c7168e1aa1","ios":"levelo://app?vid=f9c00423-adeb-4963-892c-81c7168e1aa1"},"vehicle_type_id":"4","last_reported":1726333677,"current_range_meters":11600,"station_id":"ce4bhgp2rcd13ifvqfd0","pricing_plan_id":"cebpf4jnsgd1na2vs0mg"},{"bike_id":"37f42743-ecb4-45bf-9964-3b08c5abaef2","system_id":"levelo_inurba_marseille","lat":43.29417,"lon":5.38629,"is_reserved":false,"is_disabled":false,"rental_uris":{"android":"levelo://app?vid=37f42743-ecb4-45bf-9964-3b08c5abaef2","ios":"levelo://app?vid=37f42743-ecb4-45bf-9964-3b08c5abaef2"},"vehicle_type_id":"4","last_reported":1726333677,"current_range_meters":13600,"station_id":"ce4bh2h2rcd13ifvqdh0","pricing_plan_id":"cebpf4jnsgd1na2vs0mg"},{"bike_id":"4e6ad008-5e88-45b8-8a97-d7b0ac029cef","system_id":"levelo_inurba_marseille","lat":43.29223,"lon":5.36069,"is_reserved":false,"is_disabled":false,"rental_uris":{"android":"levelo://app?vid=4e6ad008-5e88-45b8-8a97-d7b0ac029cef","ios":"levelo://app?vid=4e6ad008-5e88-45b8-8a97-d7b0ac029cef"},"vehicle_type_id":"4","last_reported":1726333677,"current_range_meters":37600,"station_id":"ce4bhbh2rcd13ifvqeqg","pricing_plan_id":"cebpf4jnsgd1na2vs0mg"},{"bike_id":"6352dcb7-6513-4854-923c-e36161f232e4","system_id":"levelo_inurba_marseille","lat":43.29203,"lon":5.35796,"is_reserved":false,"is_disabled":false,"rental_uris":{"android":"levelo://app?vid=6352dcb7-6513-4854-923c-e36161f232e4","ios":"levelo://app?vid=6352dcb7-6513-4854-923c-e36161f232e4"},"vehicle_type_id":"4","last_reported":1726333677,"current_range_meters":39200,"station_id":"ce4bhb12rcd13ifvqel0","pricing_plan_id":"cebpf4jnsgd1na2vs0mg"},{"bike_id":"6bb13d93-f15c-4cf5-99fb-8bb4c60cc2f0","system_id":"levelo_inurba_marseille","lat":43.30603,"lon":5.372294,"is_reserved":false,"is_disabled":false,"rental_uris":{"android":"levelo://app?vid=6bb13d93-f15c-4cf5-99fb-8bb4c60cc2f0","ios":"levelo://app?vid=6bb13d93-f15c-4cf5-99fb-8bb4c60cc2f0"},"vehicle_type_id":"4","last_reported":1726333677,"current_range_meters":10000,"station_id":"ce4bgqh2rcd13ifvqc4g","pricing_plan_id":"cebpf4jnsgd1na2vs0mg"},{"bike_id":"bf266847-f4f5-4fae-a325-ed3bc7465c21","system_id":"levelo_inurba_marseille","lat":43.31758,"lon":5.39018,"is_reserved":false,"is_disabled":false,"rental_uris":{"android":"levelo://app?vid=bf266847-f4f5-4fae-a325-ed3bc7465c21","ios":"levelo://app?vid=bf266847-f4f5-4fae-a325-ed3bc7465c21"},"vehicle_type_id":"4","last_reported":1726333677,"current_range_meters":39200,"station_id":"ce4bhqp2rcd13ifvqhng","pricing_plan_id":"cebpf4jnsgd1na2vs0mg"},{"bike_id":"ff62e84e-cfd5-4373-ab69-3dfaecfae2ca","system_id":"levelo_inurba_marseille","lat":43.29202,"lon":5.39327,"is_reserved":false,"is_disabled":false,"rental_uris":{"android":"levelo://app?vid=ff62e84e-cfd5-4373-ab69-3dfaecfae2ca","ios":"levelo://app?vid=ff62e84e-cfd5-4373-ab69-3dfaecfae2ca"},"vehicle_type_id":"4","last_reported":1726333677,"current_range_meters":6800,"station_id":"ce4bh192rcd13ifvqdd0","pricing_plan_id":"cebpf4jnsgd1na2vs0mg"},{"bike_id":"9d15484e-ba20-4f05-a36f-48debf171666","system_id":"levelo_inurba_marseille","lat":43.31758,"lon":5.39013,"is_reserved":false,"is_disabled":false,"rental_uris":{"android":"levelo://app?vid=9d15484e-ba20-4f05-a36f-48debf171666","ios":"levelo://app?vid=9d15484e-ba20-4f05-a36f-48debf171666"},"vehicle_type_id":"4","last_reported":1726333677,"current_range_meters":12800,"station_id":"ce4bhqp2rcd13ifvqhng","pricing_plan_id":"cebpf4jnsgd1na2vs0mg"},{"bike_id":"f6a54bc4-9310-4060-bc88-8673cd5e01ea","system_id":"levelo_inurba_marseille","lat":43.2732,"lon":5.39089,"is_reserved":false,"is_disabled":false,"rental_uris":{"android":"levelo://app?vid=f6a54bc4-9310-4060-bc88-8673cd5e01ea","ios":"levelo://app?vid=f6a54bc4-9310-4060-bc88-8673cd5e01ea"},"vehicle_type_id":"4","last_reported":1726333677,"current_range_meters":6800,"station_id":"ce4bhgp2rcd13ifvqfe0","pricing_plan_id":"cebpf4jnsgd1na2vs0mg"},{"bike_id":"734bc2e1-27df-4c54-bed0-c6f8c35e9e49","system_id":"levelo_inurba_marseille","lat":43.24175,"lon":5.39737,"is_reserved":false,"is_disabled":false,"rental_uris":{"android":"levelo://app?vid=734bc2e1-27df-4c54-bed0-c6f8c35e9e49","ios":"levelo://app?vid=734bc2e1-27df-4c54-bed0-c6f8c35e9e49"},"vehicle_type_id":"4","last_reported":1726333677,"current_range_meters":29600,"station_id":"ce4bhn12rcd13ifvqgpg","pricing_plan_id":"cebpf4jnsgd1na2vs0mg"},{"bike_id":"0d375eb8-097f-41aa-90a3-0e9f02733bd3","system_id":"levelo_inurba_marseille","lat":43.26936,"lon":5.40255,"is_reserved":false,"is_disabled":false,"rental_uris":{"android":"levelo://app?vid=0d375eb8-097f-41aa-90a3-0e9f02733bd3","ios":"levelo://app?vid=0d375eb8-097f-41aa-90a3-0e9f02733bd3"},"vehicle_type_id":"4","last_reported":1726333677,"current_range_meters":11600,"station_id":"cjm6bp8fraef2m0cb0m0","pricing_plan_id":"cebpf4jnsgd1na2vs0mg"},{"bike_id":"b743a9c7-bff2-4e35-9357-5b891b452147","system_id":"levelo_inurba_marseille","lat":43.29898,"lon":5.43665,"is_reserved":false,"is_disabled":false,"rental_uris":{"android":"levelo://app?vid=b743a9c7-bff2-4e35-9357-5b891b452147","ios":"levelo://app?vid=b743a9c7-bff2-4e35-9357-5b891b452147"},"vehicle_type_id":"4","last_reported":1726333677,"current_range_meters":24400,"station_id":"ce4bhpp2rcd13ifvqhfg","pricing_plan_id":"cebpf4jnsgd1na2vs0mg"},{"bike_id":"4706b8fd-af09-440f-be9d-f3a396be8d72","system_id":"levelo_inurba_marseille","lat":43.26803,"lon":5.40269,"is_reserved":false,"is_disabled":false,"rental_uris":{"android":"levelo://app?vid=4706b8fd-af09-440f-be9d-f3a396be8d72","ios":"levelo://app?vid=4706b8fd-af09-440f-be9d-f3a396be8d72"},"vehicle_type_id":"4","last_reported":1726333677,"current_range_meters":4400,"station_id":"ce501612rcd8frsf0b60","pricing_plan_id":"cebpf4jnsgd1na2vs0mg"},{"bike_id":"3941c7c1-54d2-4c9d-b5b7-b06daf386fe0","system_id":"levelo_inurba_marseille","lat":43.31324,"lon":5.37956,"is_reserved":false,"is_disabled":false,"rental_uris":{"android":"levelo://app?vid=3941c7c1-54d2-4c9d-b5b7-b06daf386fe0","ios":"levelo://app?vid=3941c7c1-54d2-4c9d-b5b7-b06daf386fe0"},"vehicle_type_id":"4","last_reported":1726333677,"current_range_meters":12400,"station_id":"","pricing_plan_id":"cebpf4jnsgd1na2vs0mg"},{"bike_id":"dc0ff945-0316-48c7-984e-cb9d6c616ef1","system_id":"levelo_inurba_marseille","lat":43.31489,"lon":5.37308,"is_reserved":false,"is_disabled":false,"rental_uris":{"android":"levelo://app?vid=dc0ff945-0316-48c7-984e-cb9d6c616ef1","ios":"levelo://app?vid=dc0ff945-0316-48c7-984e-cb9d6c616ef1"},"vehicle_type_id":"4","last_reported":1726333677,"current_range_meters":34000,"station_id":"ce4bgt12rcd13ifvqcd0","pricing_plan_id":"cebpf4jnsgd1na2vs0mg"},{"bike_id":"382c0e91-23dc-4de4-813f-d6e61b3334e4","system_id":"levelo_inurba_marseille","lat":43.22934,"lon":5.35374,"is_reserved":false,"is_disabled":false,"rental_uris":{"android":"levelo://app?vid=382c0e91-23dc-4de4-813f-d6e61b3334e4","ios":"levelo://app?vid=382c0e91-23dc-4de4-813f-d6e61b3334e4"},"vehicle_type_id":"4","last_reported":1726333677,"current_range_meters":11200,"station_id":"cpo3532slgdg3j2ikp40","pricing_plan_id":"cebpf4jnsgd1na2vs0mg"},{"bike_id":"86141fec-5eef-44a7-af74-c77a6a78bfc6","system_id":"levelo_inurba_marseille","lat":43.23201,"lon":5.35553,"is_reserved":false,"is_disabled":false,"rental_uris":{"android":"levelo://app?vid=86141fec-5eef-44a7-af74-c77a6a78bfc6","ios":"levelo://app?vid=86141fec-5eef-44a7-af74-c77a6a78bfc6"},"vehicle_type_id":"4","last_reported":1726333677,"current_range_meters":38800,"station_id":"ce4bhu92rcd13ifvqi70","pricing_plan_id":"cebpf4jnsgd1na2vs0mg"},{"bike_id":"cffa9b6b-5f38-44c7-bd12-bbb6d415cbc3","system_id":"levelo_inurba_marseille","lat":43.2481,"lon":5.37458,"is_reserved":false,"is_disabled":false,"rental_uris":{"android":"levelo://app?vid=cffa9b6b-5f38-44c7-bd12-bbb6d415cbc3","ios":"levelo://app?vid=cffa9b6b-5f38-44c7-bd12-bbb6d415cbc3"},"vehicle_type_id":"4","last_reported":1726333677,"current_range_meters":24800,"station_id":"ce4bhgh2rcd13ifvqfb0","pricing_plan_id":"cebpf4jnsgd1na2vs0mg"},