{"last_updated":1766264940,"ttl":60,"version":"2.2","data":{"bikes":[{"bike_id":"4f0446ec-0149-4c8f-b055-4358f0b72681","system_id":"levelo_inurba_marseille","lat":43.301894,"lon":5.380705,"is_reserved":false,"is_disabled":false,"rental_uris":{"android":"levelo://app?vid=4f0446ec-0149-4c8f-b055-4358f0b72681","ios":"levelo://app?vid=4f0446ec-0149-4c8f-b055-4358f0b72681"},"vehicle_type_id":"4","last_reported":1766264940,"current_range_meters":2800,"station_id":"ce4bgkp2rcd13ifvqbmg","pricing_plan_id":"cebpf4jnsgd1na2vs0mg"},{"bike_id":"ddf74a66-5f13-4abc-923d-8e4ee89432d9","system_id":"levelo_inurba_marseille","lat":43.29279,"lon":5.36843,"is_reserved":false,"is_disabled":false,"rental_uris":{"android":"levelo://app?vid=ddf74a66-5f13-4abc-923d-8e4ee89432d9","ios":"levelo://app?vid=ddf74a66-5f13-4abc-923d-8e4ee89432d9"},"vehicle_type_id":"4","last_reported":1766264940,"current_range_meters":2800,"station_id":"","pricing_plan_id":"cebpf4jnsgd1na2vs0mg"},{"bike_id":"ff5be584-3612-4fde-bb6e-5a7ee21a6392","system_id":"levelo_inurba_marseille","lat":43.26556,"lon":5.39021,"is_reserved":false,"is_disabled":false,"rental_uris":{"android":"levelo://app?vid=ff5be584-3612-4fde-bb6e-5a7ee21a6392","ios":"levelo://app?vid=ff5be584-3612-4fde-bb6e-5a7ee21a6392"},"vehicle_type_id":"4","last_reported":1766264940,"current_range_meters":2800,"station_id":"ce4bhe12rcd13ifvqf30","pricing_plan_id":"cebpf4jnsgd1na2vs0mg"},{"bike_id":"f3a4c2fd-c27a-4ca6-bbe5-3949d2a88808","system_id":"levelo_inurba_marseille","lat":43.28578,"lon":5.42985,"is_reserved":false,"is_disabled":false,"rental_uris":{"android":"levelo://app?vid=f3a4c2fd-c27a-4ca6-bbe5-3949d2a88808","ios":"levelo://app?vid=f3a4c2fd-c27a-4ca6-bbe5-3949d2a88808"},"vehicle_type_id":"4","last_reported":1766264940,"current_range_meters":3200,"station_id":"","pricing_plan_id":"cebpf4jnsgd1na2vs0mg"},{"bike_id":"eaa0f977-2359-4dc4-86cd-5f33c0f5df50","system_id":"levelo_inurba_marseille","lat":43.24462,"lon":5.42525,"is_reserved":false,"is_disabled":false,"rental_uris":{"android":"levelo://app?vid=eaa0f977-2359-4dc4-86cd-5f33c0f5df50","ios":"levelo://app?vid=eaa0f977-2359-4dc4-86cd-5f33c0f5df50"},"vehicle_type_id":"4","last_reported":1766264940,"current_range_meters":3600,"station_id":"st_d4a3vfp97mjs738cd8kg","pricing_plan_id":"cebpf4jnsgd1na2vs0mg"},{"bike_id":"c33a2087-0604-4f57-8f58-1dbd983ba346","system_id":"levelo_inurba_marseille","lat":43.284361,"lon":5.391888,"is_reserved":false,"is_disabled":false,"rental_uris":{"android":"levelo://app?vid=c33a2087-0604-4f57-8f58-1dbd983ba346","ios":"levelo://app?vid=c33a2087-0604-4f57-8f58-1dbd983ba346"},"vehicle_type_id":"4","last_reported":1766264940,"current_range_meters":3600,"station_id":"ce4bhoh2rcd13ifvqh5g","pricing_plan_id":"cebpf4jnsgd1na2vs0mg"},{"bike_id":"355853da-93f2-4192-945c-727c46e64804","system_id":"levelo_inurba_marseille","lat":43.23934,"lon":5.39767,"is_reserved":false,"is_disabled":false,"rental_uris":{"android":"levelo://app?vid=355853da-93f2-4192-945c-727c46e64804","ios":"levelo://app?vid=355853da-93f2-4192-945c-727c46e64804"},"vehicle_type_id":"4","last_reported":1766264940,"current_range_meters":4000,"station_id":"","pricing_plan_id":"cebpf4jnsgd1na2vs0mg"},{"bike_id":"0099fb35-d431-499d-8b9f-4d4c24c64983","system_id":"levelo_inurba_marseille","lat":43.30583,"lon":5.39355,"is_reserved":false,"is_disabled":false,"rental_uris":{"android":"levelo://app?vid=0099fb35-d431-499d-8b9f-4d4c24c64983","ios":"levelo://app?vid=0099fb35-d431-499d-8b9f-4d4c24c64983"},"vehicle_type_id":"4","last_reported":1766264940,"current_range_meters":4400,"station_id":"ce4bh0p2rcd13ifvqd80","pricing_plan_id":"cebpf4jnsgd1na2vs0mg"},{"bike_id":"48e30a46-3a61-4ed5-93c8-2b0ee8661bac","system_id":"levelo_inurba_marseille","lat":43.29817,"lon":5.37788,"is_reserved":false,"is_disabled":false,"rental_uris":{"android":"levelo://app?vid=48e30a46-3a61-4ed5-93c8-2b0ee8661bac","ios":"levelo://app?vid=48e30a46-3a61-4ed5-93c8-2b0ee8661bac"},"vehicle_type_id":"4","last_reported":1766264940,"current_range_meters":4800,"station_id":"","pricing_plan_id":"cebpf4jnsgd1na2vs0mg"},{"bike_id":"81ce12bb-d913-4e95-82bb-d4b0088cf271","system_id":"levelo_inurba_marseille","lat":43.24467,"lon":5.42527,"is_reserved":false,"is_disabled":false,"rental_uris":{"android":"levelo://app?vid=81ce12bb-d913-4e95-82bb-d4b0088cf271","ios":"levelo://app?vid=81ce12bb-d913-4e95-82bb-d4b0088cf271"},"vehicle_type_id":"4","last_reported":1766264940,"current_range_meters":4800,"station_id":"st_d4a3vfp97mjs738cd8kg","pricing_plan_id":"cebpf4jnsgd1na2vs0mg"},{"bike_id":"cde75731-be94-4954-af76-b79651b240b9","system_id":"levelo_inurba_marseille","lat":43.29918,"lon":5.39386,"is_reserved":false,"is_disabled":false,"rental_uris":{"android":"levelo://app?vid=cde75731-be94-4954-af76-b79651b240b9","ios":"levelo://app?vid=cde75731-be94-4954-af76-b79651b240b9"},"vehicle_type_id":"4","last_reported":1766264940,"current_range_meters":5600,"station_id":"","pricing_plan_id":"cebpf4jnsgd1na2vs0mg"},{"bike_id":"d06fc2bf-3878-459e-98a3-673413f06ef4","system_id":"levelo_inurba_marseille","lat":43.288422,"lon":5.393135,"is_reserved":false,"is_disabled":false,"rental_uris":{"android":"levelo://app?vid=d06fc2bf-3878-459e-98a3-673413f06ef4","ios":"levelo://app?vid=d06fc2bf-3878-459e-98a3-673413f06ef4"},"vehicle_type_id":"4","last_reported":1766264940,"current_range_meters":5600,"station_id":"ce4bh2p2rcd13ifvqdi0","pricing_plan_id":"cebpf4jnsgd1na2vs0mg"},{"bike_id":"4f670ef7-d05e-4f82-901e-0f96bfb6d318","system_id":"levelo_inurba_marseille","lat":43.341406,"lon":5.409163,"is_reserved":false,"is_disabled":false,"rental_uris":{"android":"levelo://app?vid=4f670ef7-d05e-4f82-901e-0f96bfb6d318","ios":"levelo://app?vid=4f670ef7-d05e-4f82-901e-0f96bfb6d318"},"vehicle_type_id":"4","last_reported":1766264940,"current_range_meters":5600,"station_id":"ce4bhqh2rcd13ifvqhlg","pricing_plan_id":"cebpf4jnsgd1na2vs0mg"},{"bike_id":"33e5d832-7e55-4714-838a-424020bfdb4a","system_id":"levelo_inurba_marseille","lat":43.26545,"lon":5.37274,"is_reserved":false,"is_disabled":false,"rental_uris":{"android":"levelo://app?vid=33e5d832-7e55-4714-838a-424020bfdb4a","ios":"levelo://app?vid=33e5d832-7e55-4714-838a-424020bfdb4a"},"vehicle_type_id":"4","last_reported":1766264940,"current_range_meters":5600,"station_id":"ce4bhg12rcd13ifvqf70","pricing_plan_id":"cebpf4jnsgd1na2vs0mg"},{"bike_id":"84543e18-1f7b-4714-82ec-64849378bd51","system_id":"levelo_inurba_marseille","lat":43.24076,"lon":5.37756,"is_reserved":false,"is_disabled":false,"rental_uris":{"android":"levelo://app?vid=84543e18-1f7b-4714-82ec-64849378bd51","ios":"levelo://app?vid=84543e18-1f7b-4714-82ec-64849378bd51"},"vehicle_type_id":"4","last_reported":1766264940,"current_range_meters":5600,"station_id":"ce4bhnp2rcd13ifvqgvg","pricing_plan_id":"cebpf4jnsgd1na2vs0mg"},{"bike_id":"700442f5-a082-454e-8bc7-ab3bbb77bfce","system_id":"levelo_inurba_marseille","lat":43.26655,"lon":5.37455,"is_reserved":false,"is_disabled":false,"rental_uris":{"android":"levelo://app?vid=700442f5-a082-454e-8bc7-ab3bbb77bfce","ios":"levelo://app?vid=700442f5-a082-454e-8bc7-ab3bbb77bfce"},"vehicle_type_id":"4","last_reported":1766264940,"current_range_meters":5600,"station_id":"","pricing_plan_id":"cebpf4jnsgd1na2vs0mg"},{"bike_id":"1d36acf0-fafa-40da-b277-2b6636368583","system_id":"levelo_inurba_marseille","lat":43.30125,"lon":5.43114,"is_reserved":false,"is_disabled":false,"rental_uris":{"android":"levelo://app?vid=1d36acf0-fafa-40da-b277-2b6636368583","ios":"levelo://app?vid=1d36acf0-fafa-40da-b277-2b6636368583"},"vehicle_type_id":"4","last_reported":1766264940,"current_range_meters":6000,"station_id":"st_d3js3co5814s73ftftug","pricing_plan_id":"cebpf4jnsgd1na2vs0mg"},{"bike_id":"aeea8b8f-7017-4851-8498-538a913c28ac","system_id":"levelo_inurba_marseille","lat":43.2964,"lon":5.37756,"is_reserved":false,"is_disabled":false,"rental_uris":{"android":"levelo://app?vid=aeea8b8f-7017-4851-8498-538a913c28ac","ios":"levelo://app?vid=aeea8b8f-7017-4851-8498-538a913c28ac"},"vehicle_type_id":"4","last_reported":1766264940,"current_range_meters":6000,"station_id":"ce4bgi92rcd13ifvqb90","pricing_plan_id":"cebpf4jnsgd1na2vs0mg"},{"bike_id":"70cbfcf2-edd0-4a6e-b6a2-3e33c4e34a2c","system_id":"levelo_inurba_marseille","lat":43.225563,"lon":5.416277,"is_reserved":false,"is_disabled":false,"rental_uris":{"android":"levelo://app?vid=70cbfcf2-edd0-4a6e-b6a2-3e33c4e34a2c","ios":"levelo://app?vid=70cbfcf2-edd0-4a6e-b6a2-3e33c4e34a2c"},"vehicle_type_id":"4","last_reported":1766264940,"current_range_meters":6000,"station_id":"st_d2o4gvlbi1j2169b742g","pricing_plan_id":"cebpf4jnsgd1na2vs0mg"},{"bike_id":"27e6ea58-5ccf-4902-ad2a-71b7ca4e77a1","system_id":"levelo_inurba_marseille","lat":43.28868,"lon":5.42518,"is_reserved":false,"is_disabled":false,"rental_uris":{"android":"levelo://app?vid=27e6ea58-5ccf-4902-ad2a-71b7ca4e77a1","ios":"levelo://app?vid=27e6ea58-5ccf-4902-ad2a-71b7ca4e77a1"},"vehicle_type_id":"4","last_reported":1766264940,"current_range_meters":6000,"station_id":"st_d3b462108ojc7389ooeg","pricing_plan_id":"cebpf4jnsgd1na2vs0mg"},{"bike_id":"c6b47f80-7c35-4bef-baa0-08e45387d804","system_id":"levelo_inurba_marseille","lat":43.30476,"lon":5.37894,"is_reserved":false,"is_disabled":false,"rental_uris":{"android":"levelo://app?vid=c6b47f80-7c35-4bef-baa0-08e45387d804","ios":"levelo://app?vid=c6b47f80-7c35-4bef-baa0-08e45387d804"},"vehicle_type_id":"4","last_reported":1766264940,"current_range_meters":6400,"station_id":"ce4bgup2rcd13ifvqcn0","pricing_plan_id":"cebpf4jnsgd1na2vs0mg"},{"bike_id":"128f68df-e6c8-471d-bf6e-3a9c347712de","system_id":"levelo_inurba_marseille","lat":43.29234,"lon":5.40898,"is_reserved":false,"is_disabled":false,"rental_uris":{"android":"levelo://app?vid=128f68df-e6c8-471d-bf6e-3a9c347712de","ios":"levelo://app?vid=128f68df-e6c8-471d-bf6e-3a9c347712de"},"vehicle_type_id":"4","last_reported":1766264940,"current_range_meters":6400,"station_id":"ce4bh192rcd13ifvqdc0","pricing_plan_id":"cebpf4jnsgd1na2vs0mg"},{"bike_id":"24eb8ade-a521-4b6d-9df6-e437ddc2ffd4","system_id":"levelo_inurba_marseille","lat":43.337444,"lon":5.374475,"is_reserved":false,"is_disabled":false,"rental_uris":{"android":"levelo://app?vid=24eb8ade-a521-4b6d-9df6-e437ddc2ffd4","ios":"levelo://app?vid=24eb8ade-a521-4b6d-9df6-e437ddc2ffd4"},"vehicle_type_id":"4","last_reported":1766264940,"current_range_meters":6400,"station_id":"","pricing_plan_id":"cebpf4jnsgd1na2vs0mg"},{"bike_id":"3e0bbc55-72f2-4117-8163-1e6612b1714f","system_id":"levelo_inurba_marseille","lat":43.27068,"lon":5.42273,"is_reserved":false,"is_disabled":false,"rental_uris":{"android":"levelo://app?vid=3e0bbc55-72f2-4117-8163-1e6612b1714f","ios":"levelo://app?vid=3e0bbc55-72f2-4117-8163-1e6612b1714f"},"vehicle_type_id":"4","last_reported":1766264940,"current_range_meters":6400,"station_id":"ce4bhk92rcd13ifvqgb0","pricing_plan_id":"cebpf4jnsgd1na2vs0mg"},{"bike_id":"d575c171-89a1-4c01-8b87-47a21f717456","system_id":"levelo_inurba_marseille","lat":43.27061,"lon":5.4025,"is_reserved":false,"is_disabled":false,"rental_uris":{"android":"levelo://app?vid=d575c171-89a1-4c01-8b87-47a21f717456","ios":"levelo://app?vid=d575c171-89a1-4c01-8b87-47a21f717456"},"vehicle_type_id":"4","last_reported":1766264940,"current_range_meters":6400,"station_id":"ce4bhk92rcd13ifvqgc0","pricing_plan_id":"cebpf4jnsgd1na2vs0mg"},{"bike_id":"8ceaea02-4fe7-4b45-94f7-be81f955ed80","system_id":"levelo_inurba_marseille","lat":43.32663,"lon":5.40986,"is_reserved":false,"is_disabled":false,"rental_uris":{"android":"levelo://app?vid=8ceaea02-4fe7-4b45-94f7-be81f955ed80","ios":"levelo://app?vid=8ceaea02-4fe7-4b45-94f7-be81f955ed80"},"vehicle_type_id":"4","last_reported":1766264940,"current_range_meters":6400,"station_id":"ce4bhpp2rcd13ifvqhgg","pricing_plan_id":"cebpf4jnsgd1na2vs0mg"},{"bike_id":"fcd75001-1344-42ec-a013-2f4c6240ace8","system_id":"levelo_inurba_marseille","lat":43.29806,"lon":5.38655,"is_reserved":false,"is_disabled":false,"rental_uris":{"android":"levelo://app?vid=fcd75001-1344-42ec-a013-2f4c6240ace8","ios":"levelo://app?vid=fcd75001-1344-42ec-a013-2f4c6240ace8"},"vehicle_type_id":"4","last_reported":1766264940,"current_range_meters":6800,"station_id":"","pricing_plan_id":"cebpf4jnsgd1na2vs0mg"},{"bike_id":"26c78947-38c8-4fe2-9c04-b54c7806b0ba","system_id":"levelo_inurba_marseille","lat":43.27375,"lon":5.36256,"is_reserved":false,"is_disabled":true,"rental_uris":{"android":"levelo://app?vid=26c78947-38c8-4fe2-9c04-b54c7806b0ba","ios":"levelo://app?vid=26c78947-38c8-4fe2-9c04-b54c7806b0ba"},"vehicle_type_id":"4","last_reported":1766264940,"current_range_meters":6800,"station_id":"ce4bhbh2rcd13ifvqeo0","pricing_plan_id":"cebpf4jnsgd1na2vs0mg"},{"bike_id":"1c79eb29-135e-40c1-8651-901759d4aaa6","system_id":"levelo_inurba_marseille","lat":43.28571,"lon":5.35296,"is_reserved":false,"is_disabled":false,"rental_uris":{"android":"levelo://app?vid=1c79eb29-135e-40c1-8651-901759d4aaa6","ios":"levelo://app?vid=1c79eb29-135e-40c1-8651-901759d4aaa6"},"vehicle_type_id":"4","last_reported":1766264940,"current_range_meters":6800,"station_id":"","pricing_plan_id":"cebpf4jnsgd1na2vs0mg"},{"bike_id":"0069df92-4479-4e78-bc22-13d9ee1ed262","system_id":"levelo_inurba_marseille","lat":43.3038,"lon":5.42484,"is_reserved":false,"is_disabled":false,"rental_uris":{"android":"levelo://app?vid=0069df92-4479-4e78-bc22-13d9ee1ed262","ios":"levelo://app?vid=0069df92-4479-4e78-bc22-13d9ee1ed262"},"vehicle_type_id":"4","last_reported":1766264940,"current_range_meters":6800,"station_id":"ce4bhoh2rcd13ifvqh6g","pricing_plan_id":"cebpf4jnsgd1na2vs0mg"},{"bike_id":"dd825939-8a3a-4c65-8eac-1c99de74b373","system_id":"levelo_inurba_marseille","lat":43.28931,"lon":5.36633,"is_reserved":false,"is_disabled":false,"rental_uris":{"android":"levelo://app?vid=dd825939-8a3a-4c65-8eac-1c99de74b373","ios":"levelo://app?vid=dd825939-8a3a-4c65-8eac-1c99de74b373"},"vehicle_type_id":"4","last_reported":1766264940,"current_range_meters":6800,"station_id":"ce4bhap2rcd13ifvqek0","pricing_plan_id":"cebpf4jnsgd1na2vs0mg"},{"bike_id":"b2d8b27f-a096-47d3-885f-58ee4161417c","system_id":"levelo_inurba_marseille","lat":43.29108,"lon":5.38152,"is_reserved":false,"is_disabled":false,"rental_uris":{"android":"levelo://app?vid=b2d8b27f-a096-47d3-885f-58ee4161417c","ios":"levelo://app?vid=b2d8b27f-a096-47d3-885f-58ee4161417c"},"vehicle_type_id":"4","last_reported":1766264940,"current_range_meters":6800,"station_id":"ce4bh512rcd13ifvqe2g","pricing_plan_id":"cebpf4jnsgd1na2vs0mg"},{"bike_id":"15ee3ca9-673a-4229-81fa-4edd22822ad5","system_id":"levelo_inurba_marseille","lat":43.27667,"lon":5.389,"is_reserved":false,"is_disabled":false,"rental_uris":{"android":"levelo://app?vid=15ee3ca9-673a-4229-81fa-4edd22822ad5","ios":"levelo://app?vid=15ee3ca9-673a-4229-81fa-4edd22822ad5"},"vehicle_type_id":"4","last_reported":1766264940,"current_range_meters":7200,"station_id":"ce4bhi12rcd13ifvqfo0","pricing_plan_id":"cebpf4jnsgd1na2vs0mg"},{"bike_id":"c6032a2b-4943-4c7f-b1cf-9eaafb4de658","system_id":"levelo_inurba_marseille","lat":43.26194,"lon":5.37449,"is_reserved":false,"is_disabled":false,"rental_uris":{"android":"levelo://app?vid=c6032a2b-4943-4c7f-b1cf-9eaafb4de658","ios":"levelo://app?vid=c6032a2b-4943-4c7f-b1cf-9eaafb4de658"},"vehicle_type_id":"4","last_reported":1766264940,"current_range_meters":7200,"station_id":"ce4bhgp2rcd13ifvqfc0","pricing_plan_id":"cebpf4jnsgd1na2vs0mg"},{"bike_id":"97823889-a54f-4867-8787-f3baf865a269","system_id":"levelo_inurba_marseille","lat":43.25575,"lon":5.38232,"is_reserved":false,"is_disabled":false,"rental_uris":{"android":"levelo://app?vid=97823889-a54f-4867-8787-f3baf865a269","ios":"levelo://app?vid=97823889-a54f-4867-8787-f3baf865a269"},"vehicle_type_id":"4","last_reported":1766264940,"current_range_meters":7200,"station_id":"ce4bhih2rcd13ifvqfs0","pricing_plan_id":"cebpf4jnsgd1na2vs0mg"},{"bike_id":"a17bf767-a9a0-42e7-a852-47a245ee1ba5","system_id":"levelo_inurba_marseille","lat":43.26566,"lon":5.39008,"is_reserved":false,"is_disabled":false,"rental_uris":{"android":"levelo://app?vid=a17bf767-a9a0-42e7-a852-47a245ee1ba5","ios":"levelo://app?vid=a17bf767-a9a0-42e7-a852-47a245ee1ba5"},"vehicle_type_id":"4","last_reported":1766264940,"current_range_meters":7200,"station_id":"ce4bhe12rcd13ifvqf30","pricing_plan_id":"cebpf4jnsgd1na2vs0mg"},{"bike_id":"46f6c635-a42f-42f7-979c-8e7dbaa711c6","system_id":"levelo_inurba_marseille","lat":43.27855,"lon":5.35469,"is_reserved":false,"is_disabled":false,"rental_uris":{"android":"levelo://app?vid=46f6c635-a42f-42f7-979c-8e7dbaa711c6","ios":"levelo://app?vid=46f6c635-a42f-42f7-979c-8e7dbaa711c6"},"vehicle_type_id":"4","last_reported":1766264940,"current_range_meters":7200,"station_id":"","pricing_plan_id":"cebpf4jnsgd1na2vs0mg"},{"bike_id":"f577692b-beb9-462c-a948-ba15765380b7","system_id":"levelo_inurba_marseille","lat":43.30066,"lon":5.38627,"is_reserved":false,"is_disabled":false,"rental_uris":{"android":"levelo://app?vid=f577692b-beb9-462c-a948-ba15765380b7","ios":"levelo://app?vid=f577692b-beb9-462c-a948-ba15765380b7"},"vehicle_type_id":"4","last_reported":1766264940,"current_range_meters":7200,"station_id":"","pricing_plan_id":"cebpf4jnsgd1na2vs0mg"},{"bike_id":"edb2ae95-367d-477f-9a9a-26ad235afa02","system_id":"levelo_inurba_marseille","lat":43.278116,"lon":5.407151,"is_reserved":false,"is_disabled":false,"rental_uris":{"android":"levelo://app?vid=edb2ae95-367d-477f-9a9a-26ad235afa02","ios":"levelo://app?vid=edb2ae95-367d-477f-9a9a-26ad235afa02"},"vehicle_type_id":"4","last_reported":1766264940,"current_range_meters":8000,"station_id":"ce4bhnh2rcd13ifvqgtg","pricing_plan_id":"cebpf4jnsgd1na2vs0mg"},{"bike_id":"8b25ad8f-55a1-4091-8638-68f821149a91","system_id":"levelo_inurba_marseille","lat":43.30957,"lon":5.39032,"is_reserved":false,"is_disabled":false,"rental_uris":{"android":"levelo://app?vid=8b25ad8f-55a1-4091-8638-68f821149a91","ios":"levelo://app?vid=8b25ad8f-55a1-4091-8638-68f821149a91"},"vehicle_type_id":"4","last_reported":1766264940,"current_range_meters":8000,"station_id":"ce4bgup2rcd13ifvqco0","pricing_plan_id":"cebpf4jnsgd1na2vs0mg"},{"bike_id":"207776d7-b88e-48a6-b74f-2b1aae5e54c7","system_id":"levelo_inurba_marseille","lat":43.268961,"lon":5.387159,"is_reserved":false,"is_disabled":true,"rental_uris":{"android":"levelo://app?vid=207776d7-b88e-48a6-b74f-2b1aae5e54c7","ios":"levelo://app?vid=207776d7-b88e-48a6-b74f-2b1aae5e54c7"},"vehicle_type_id":"4","last_reported":1766264940,"current_range_meters":8000,"station_id":"","pricing_plan_id":"cebpf4jnsgd1na2vs0mg"},{"bike_id":"8ddf5f0b-8638-4227-b0ee-efe27c023df6","system_id":"levelo_inurba_marseille","lat":43.308014,"lon":5.381433,"is_reserved":false,"is_disabled":true,"rental_uris":{"android":"levelo://app?vid=8ddf5f0b-8638-4227-b0ee-efe27c023df6","ios":"levelo://app?vid=8ddf5f0b-8638-4227-b0ee-efe27c023df6"},"vehicle_type_id":"4","last_reported":1766264940,"current_range_meters":8000,"station_id":"ce4bgjp2rcd13ifvqbh0","pricing_plan_id":"cebpf4jnsgd1na2vs0mg"},{"bike_id":"7905ae8d-cc82-4f8d-9146-9561edff9060","system_id":"levelo_inurba_marseille","lat":43.295197,"lon":5.375042,"is_reserved":false,"is_disabled":false,"rental_uris":{"android":"levelo://app?vid=7905ae8d-cc82-4f8d-9146-9561edff9060","ios":"levelo://app?vid=7905ae8d-cc82-4f8d-9146-9561edff9060"},"vehicle_type_id":"4","last_reported":1766264940,"current_range_meters":8000,"station_id":"ce4bgkp2rcd13ifvqbmg","pricing_plan_id":"cebpf4jnsgd1na2vs0mg"},{"bike_id":"e473bd1d-bff8-4fb5-a794-d58a75d9821a","system_id":"levelo_inurba_marseille","lat":43.25337,"lon":5.42173,"is_reserved":false,"is_disabled":true,"rental_uris":{"android":"levelo://app?vid=e473bd1d-bff8-4fb5-a794-d58a75d9821a","ios":"levelo://app?vid=e473bd1d-bff8-4fb5-a794-d58a75d9821a"},"vehicle_type_id":"4","last_reported":1766264940,"current_range_meters":8000,"station_id":"st_d2m65c5bi1j21697t3ng","pricing_plan_id":"cebpf4jnsgd1na2vs0mg"},{"bike_id":"756cfcf3-5558-464d-b053-d2a93dd5b90b","system_id":"levelo_inurba_marseille","lat":43.26562,"lon":5.37321,"is_reserved":false,"is_disabled":false,"rental_uris":{"android":"levelo://app?vid=756cfcf3-5558-464d-b053-d2a93dd5b90b","ios":"levelo://app?vid=756cfcf3-5558-464d-b053-d2a93dd5b90b"},"vehicle_type_id":"4","last_reported":1766264940,"current_range_meters":8000,"station_id":"ce4bhg12rcd13ifvqf70","pricing_plan_id":"cebpf4jnsgd1na2vs0mg"},{"bike_id":"518e84e9-852b-4b3d-973e-04a6d92fe8dd","system_id":"levelo_inurba_marseille","lat":43.23194,"lon":5.39966,"is_reserved":false,"is_disabled":false,"rental_uris":{"android":"levelo://app?vid=518e84e9-852b-4b3d-973e-04a6d92fe8dd","ios":"levelo://app?vid=518e84e9-852b-4b3d-973e-04a6d92fe8dd"},"vehicle_type_id":"4","last_reported":1766264940,"current_range_meters":8000,"station_id":"ce4bhn12rcd13ifvqgqg","pricing_plan_id":"cebpf4jnsgd1na2vs0mg"},{"bike_id":"12138612-a604-48fa-aed1-618503ec37b2","system_id":"levelo_inurba_marseille","lat":43.26164,"lon":5.39737,"is_reserved":false,"is_disabled":false,"rental_uris":{"android":"levelo://app?vid=12138612-a604-48fa-aed1-618503ec37b2","ios":"levelo://app?vid=12138612-a604-48fa-aed1-618503ec37b2"},"vehicle_type_id":"4","last_reported":1766264940,"current_range_meters":8000,"station_id":"","pricing_plan_id":"cebpf4jnsgd1na2vs0mg"},{"bike_id":"6ec9a6be-eed9-4adb-a34f-9a64c85ea37b","system_id":"levelo_inurba_marseille","lat":43.30635,"lon":5.37569,"is_reserved":false,"is_disabled":false,"rental_uris":{"android":"levelo://app?vid=6ec9a6be-eed9-4adb-a34f-9a64c85ea37b","ios":"levelo://app?vid=6ec9a6be-eed9-4adb-a34f-9a64c85ea37b"},"vehicle_type_id":"4","last_reported":1766264940,"current_range_meters":8000,"station_id":"","pricing_plan_id":"cebpf4jnsgd1na2vs0mg"},{"bike_id":"1ede3a76-a6bc-41e8-8052-ae7adc8eca33","system_id":"levelo_inurba_marseille","lat":43.246467,"lon":5.388904,"is_reserved":false,"is_disabled":false,"rental_uris":{"android":"levelo://app?vid=1ede3a76-a6bc-41e8-8052-ae7adc8eca33","ios":"levelo://app?vid=1ede3a76-a6bc-41e8-8052-ae7adc8eca33"},"vehicle_type_id":"4","last_reported":1766264940,"current_range_meters":8000,"station_id":"ce4bhg12rcd13ifvqf60","pricing_plan_id":"cebpf4jnsgd1na2vs0mg"},{"bike_id":"3fbe86d6-50aa-4dbb-b535-cf846f212f8d","system_id":"levelo_inurba_marseille","lat":43.21194,"lon":5.35084,"is_reserved":false,"is_disabled":false,"rental_uris":{"android":"levelo://app?vid=3fbe86d6-50aa-4dbb-b535-cf846f212f8d","ios":"levelo://app?vid=3fbe86d6-50aa-4dbb-b535-cf846f212f8d"},"vehicle_type_id":"4","last_reported":1766264940,"current_range_meters":8400,"station_id":"st_cvj6sg6p6f1abm77japg","pricing_plan_id":"cebpf4jnsgd1na2vs0mg"},{"bike_id":"f1c6ef30-df40-4531-b632-19b3b8de3f93","system_id":"levelo_inurba_marseille","lat":43.337444,"lon":5.374475,"is_reserved":false,"is_disabled":false,"rental_uris":{"android":"levelo://app?vid=f1c6ef30-df40-4531-b632-19b3b8de3f93","ios":"levelo://app?vid=f1c6ef30-df40-4531-b632-19b3b8de3f93"},"vehicle_type_id":"4","last_reported":1766264940,"current_range_meters":8400,"station_id":"","pricing_plan_id":"cebpf4jnsgd1na2vs0mg"},{"bike_id":"c45b43dd-31e3-4705-91a4-5752de991750","system_id":"levelo_inurba_marseille","lat":43.30938,"lon":5.3904,"is_reserved":false,"is_disabled":false,"rental_uris":{"android":"levelo://app?vid=c45b43dd-31e3-4705-91a4-5752de991750","ios":"levelo://app?vid=c45b43dd-31e3-4705-91a4-5752de991750"},"vehicle_type_id":"4","last_reported":1766264940,"current_range_meters":8400,"station_id":"ce4bgup2rcd13ifvqco0","pricing_plan_id":"cebpf4jnsgd1na2vs0mg"},{"bike_id":"657677ff-bd0f-45b9-a985-0cee09b5fde2","system_id":"levelo_inurba_marseille","lat":43.317126,"lon":5.436965,"is_reserved":false,"is_disabled":false,"rental_uris":{"android":"levelo://app?vid=657677ff-bd0f-45b9-a985-0cee09b5fde2","ios":"levelo://app?vid=657677ff-bd0f-45b9-a985-0cee09b5fde2"},"vehicle_type_id":"4","last_reported":1766264940,"current_range_meters":8400,"station_id":"ce4bhp92rcd13ifvqhcg","pricing_plan_id":"cebpf4jnsgd1na2vs0mg"},{"bike_id":"342831ac-e927-49d6-8b43-22fa72e5bef8","system_id":"levelo_inurba_marseille","lat":43.2802,"lon":5.38769,"is_reserved":false,"is_disabled":false,"rental_uris":{"android":"levelo://app?vid=342831ac-e927-49d6-8b43-22fa72e5bef8","ios":"levelo://app?vid=342831ac-e927-49d6-8b43-22fa72e5bef8"},"vehicle_type_id":"4","last_reported":1766264940,"current_range_meters":8400,"station_id":"","pricing_plan_id":"cebpf4jnsgd1na2vs0mg"},{"bike_id":"538a2746-f60c-40bb-a9a4-46b37073187c","system_id":"levelo_inurba_marseille","lat":43.24479,"lon":5.42542,"is_reserved":false,"is_disabled":false,"rental_uris":{"android":"levelo://app?vid=538a2746-f60c-40bb-a9a4-46b37073187c","ios":"levelo://app?vid=538a2746-f60c-40bb-a9a4-46b37073187c"},"vehicle_type_id":"4","last_reported":1766264940,"current_range_meters":8400,"station_id":"st_d4a3vfp97mjs738cd8kg","pricing_plan_id":"cebpf4jnsgd1na2vs0mg"},{"bike_id":"2774eca9-c878-4033-8514-2330fd47f167","system_id":"levelo_inurba_marseille","lat":43.28483,"lon":5.48404,"is_reserved":false,"is_disabled":false,"rental_uris":{"android":"levelo://app?vid=2774eca9-c878-4033-8514-2330fd47f167","ios":"levelo://app?vid=2774eca9-c878-4033-8514-2330fd47f167"},"vehicle_type_id":"4","last_reported":1766264940,"current_range_meters":8400,"station_id":"","pricing_plan_id":"cebpf4jnsgd1na2vs0mg"},{"bike_id":"bbe6d64f-2cb1-409d-ba24-ff27de876e43","system_id":"levelo_inurba_marseille","lat":43.28533,"lon":5.44096,"is_reserved":false,"is_disabled":false,"rental_uris":{"android":"levelo://app?vid=bbe6d64f-2cb1-409d-ba24-ff27de876e43","ios":"levelo://app?vid=bbe6d64f-2cb1-409d-ba24-ff27de876e43"},"vehicle_type_id":"4","last_reported":1766264940,"current_range_meters":8800,"station_id":"st_d3j3df2ikq2c7380ej80","pricing_plan_id":"cebpf4jnsgd1na2vs0mg"},{"bike_id":"99ad97c1-5a83-4b1c-9cf1-08492f7d7210","system_id":"levelo_inurba_marseille","lat":43.29249,"lon":5.409,"is_reserved":false,"is_disabled":false,"rental_uris":{"android":"levelo://app?vid=99ad97c1-5a83-4b1c-9cf1-08492f7d7210","ios":"levelo://app?vid=99ad97c1-5a83-4b1c-9cf1-08492f7d7210"},"vehicle_type_id":"4","last_reported":1766264940,"current_range_meters":8800,"station_id":"ce4bh192rcd13ifvqdc0","pricing_plan_id":"cebpf4jnsgd1na2vs0mg"},{"bike_id":"bcb638ec-1f7a-45bb-913f-62a7a0a453a1","system_id":"levelo_inurba_marseille","lat":43.29835,"lon":5.38574,"is_reserved":false,"is_disabled":false,"rental_uris":{"android":"levelo://app?vid=bcb638ec-1f7a-45bb-913f-62a7a0a453a1","ios":"levelo://app?vid=bcb638ec-1f7a-45bb-913f-62a7a0a453a1"},"vehicle_type_id":"4","last_reported":1766264940,"current_range_meters":8800,"station_id":"","pricing_plan_id":"cebpf4jnsgd1na2vs0mg"},{"bike_id":"16cbd352-d293-4a94-96f0-eea08a192136","system_id":"levelo_inurba_marseille","lat":43.2644,"lon":5.39051,"is_reserved":false,"is_disabled":false,"rental_uris":{"android":"levelo://app?vid=16cbd352-d293-4a94-96f0-eea08a192136","ios":"levelo://app?vid=16cbd352-d293-4a94-96f0-eea08a192136"},"vehicle_type_id":"4","last_reported":1766264940,"current_range_meters":8800,"station_id":"","pricing_plan_id":"cebpf4jnsgd1na2vs0mg"},{"bike_id":"156e61f2-3d75-4260-9924-a8b3ec92c21b","system_id":"levelo_inurba_marseille","lat":43.22564,"lon":5.41641,"is_reserved":false,"is_disabled":true,"rental_uris":{"android":"levelo://app?vid=156e61f2-3d75-4260-9924-a8b3ec92c21b","ios":"levelo://app?vid=156e61f2-3d75-4260-9924-a8b3ec92c21b"},"vehicle_type_id":"4","last_reported":1766264940,"current_range_meters":8800,"station_id":"st_d2o4gvlbi1j2169b742g","pricing_plan_id":"cebpf4jnsgd1na2vs0mg"},{"bike_id":"3082ab75-2c15-422b-9739-f0cf65236f2d","system_id":"levelo_inurba_marseille","lat":43.24665,"lon":5.38137,"is_reserved":false,"is_disabled":false,"rental_uris":{"android":"levelo://app?vid=3082ab75-2c15-422b-9739-f0cf65236f2d","ios":"levelo://app?vid=3082ab75-2c15-422b-9739-f0cf65236f2d"},"vehicle_type_id":"4","last_reported":1766264940,"current_range_meters":8800,"station_id":"ce4bhih2rcd13ifvqfr0","pricing_plan_id":"cebpf4jnsgd1na2vs0mg"},{"bike_id":"58c74df8-5e75-45d0-b47f-a582d0387946","system_id":"levelo_inurba_marseille","lat":43.24179,"lon":5.39727,"is_reserved":false,"is_disabled":false,"rental_uris":{"android":"levelo://app?vid=58c74df8-5e75-45d0-b47f-a582d0387946","ios":"levelo://app?vid=58c74df8-5e75-45d0-b47f-a582d0387946"},"vehicle_type_id":"4","last_reported":1766264940,"current_range_meters":8800,"station_id":"ce4bhn12rcd13ifvqgpg","pricing_plan_id":"cebpf4jnsgd1na2vs0mg"},{"bike_id":"3d8062de-4bd0-49c7-86a6-7bf3b5df4845","system_id":"levelo_inurba_marseille","lat":43.284782,"lon":5.483972,"is_reserved":false,"is_disabled":false,"rental_uris":{"android":"levelo://app?vid=3d8062de-4bd0-49c7-86a6-7bf3b5df4845","ios":"levelo://app?vid=3d8062de-4bd0-49c7-86a6-7bf3b5df4845"},"vehicle_type_id":"4","last_reported":1766264940,"current_range_meters":8800,"station_id":"st_d3svhcjqgbts73a3dn0g","pricing_plan_id":"cebpf4jnsgd1na2vs0mg"},{"bike_id":"59aab69d-aa14-4a71-8d9b-0aa143ba58f2","system_id":"levelo_inurba_marseille","lat":43.28538,"lon":5.44087,"is_reserved":false,"is_disabled":false,"rental_uris":{"android":"levelo://app?vid=59aab69d-aa14-4a71-8d9b-0aa143ba58f2","ios":"levelo://app?vid=59aab69d-aa14-4a71-8d9b-0aa143ba58f2"},"vehicle_type_id":"4","last_reported":1766264940,"current_range_meters":8800,"station_id":"st_d3j3df2ikq2c7380ej80","pricing_plan_id":"cebpf4jnsgd1na2vs0mg"},{"bike_id":"e18d88c4-447f-4613-ac8f-5a6e3bb9a21c","system_id":"levelo_inurba_marseille","lat":43.29813,"lon":5.44068,"is_reserved":false,"is_disabled":false,"rental_uris":{"android":"levelo://app?vid=e18d88c4-447f-4613-ac8f-5a6e3bb9a21c","ios":"levelo://app?vid=e18d88c4-447f-4613-ac8f-5a6e3bb9a21c"},"vehicle_type_id":"4","last_reported":1766264940,"current_range_meters":8800,"station_id":"st_d3jp68qikq2c7381ktn0","pricing_plan_id":"cebpf4jnsgd1na2vs0mg"},{"bike_id":"a155df3e-4b60-4af2-bb99-ef9672812592","system_id":"levelo_inurba_marseille","lat":43.3118,"lon":5.38149,"is_reserved":false,"is_disabled":false,"rental_uris":{"android":"levelo://app?vid=a155df3e-4b60-4af2-bb99-ef9672812592","ios":"levelo://app?vid=a155df3e-4b60-4af2-bb99-ef9672812592"},"vehicle_type_id":"4","last_reported":1766264940,"current_range_meters":8800,"station_id":"","pricing_plan_id":"cebpf4jnsgd1na2vs0mg"},{"bike_id":"7253e438-cc08-4cbc-80e3-117e38665b59","system_id":"levelo_inurba_marseille","lat":43.21188,"lon":5.35073,"is_reserved":false,"is_disabled":false,"rental_uris":{"android":"levelo://app?vid=7253e438-cc08-4cbc-80e3-117e38665b59","ios":"levelo://app?vid=7253e438-cc08-4cbc-80e3-117e38665b59"},"vehicle_type_id":"4","last_reported":1766264940,"current_range_meters":8800,"station_id":"st_cvj6sg6p6f1abm77japg","pricing_plan_id":"cebpf4jnsgd1na2vs0mg"},{"bike_id":"025bcf3c-9127-4e0c-b7ed-8709d35ce958","system_id":"levelo_inurba_marseille","lat":43.31735,"lon":5.37171,"is_reserved":false,"is_disabled":false,"rental_uris":{"android":"levelo://app?vid=025bcf3c-9127-4e0c-b7ed-8709d35ce958","ios":"levelo://app?vid=025bcf3c-9127-4e0c-b7ed-8709d35ce958"},"vehicle_type_id":"4","last_reported":1766264940,"current_range_meters":9200,"station_id":"","pricing_plan_id":"cebpf4jnsgd1na2vs0mg"},{"bike_id":"0c1f6896-cbd5-4c55-b68a-3cd9b92201dc","system_id":"levelo_inurba_marseille","lat":43.29895,"lon":5.43666,"is_reserved":false,"is_disabled":false,"rental_uris":{"android":"levelo://app?vid=0c1f6896-cbd5-4c55-b68a-3cd9b92201dc","ios":"levelo://app?vid=0c1f6896-cbd5-4c55-b68a-3cd9b92201dc"},"vehicle_type_id":"4","last_reported":1766264940,"current_range_meters":9200,"station_id":"ce4bhpp2rcd13ifvqhfg","pricing_plan_id":"cebpf4jnsgd1na2vs0mg"},{"bike_id":"ad96ab35-147e-4b00-8b43-b29c4d85a4c0","system_id":"levelo_inurba_marseille","lat":43.29664,"lon":5.36957,"is_reserved":false,"is_disabled":false,"rental_uris":{"android":"levelo://app?vid=ad96ab35-147e-4b00-8b43-b29c4d85a4c0","ios":"levelo://app?vid=ad96ab35-147e-4b00-8b43-b29c4d85a4c0"},"vehicle_type_id":"4","last_reported":1766264940,"current_range_meters":9200,"station_id":"","pricing_plan_id":"cebpf4jnsgd1na2vs0mg"},{"bike_id":"c80adda4-7ac2-4d7d-bc5c-11a63666b380","system_id":"levelo_inurba_marseille","lat":43.29938,"lon":5.365606,"is_reserved":false,"is_disabled":false,"rental_uris":{"android":"levelo://app?vid=c80adda4-7ac2-4d7d-bc5c-11a63666b380","ios":"levelo://app?vid=c80adda4-7ac2-4d7d-bc5c-11a63666b380"},"vehicle_type_id":"4","last_reported":1766264940,"current_range_meters":9200,"station_id":"ce4bgm92rcd13ifvqbr0","pricing_plan_id":"cebpf4jnsgd1na2vs0mg"},{"bike_id":"e545acdf-1e9f-499b-b9de-efe40c06e2a7","system_id":"levelo_inurba_marseille","lat":43.23149,"lon":5.43722,"is_reserved":false,"is_disabled":false,"rental_uris":{"android":"levelo://app?vid=e545acdf-1e9f-499b-b9de-efe40c06e2a7","ios":"levelo://app?vid=e545acdf-1e9f-499b-b9de-efe40c06e2a7"},"vehicle_type_id":"4","last_reported":1766264940,"current_range_meters":9200,"station_id":"ce4bhmp2rcd13ifvqgog","pricing_plan_id":"cebpf4jnsgd1na2vs0mg"},{"bike_id":"af1f9193-90aa-4f34-b2c4-fb0bbaea183c","system_id":"levelo_inurba_marseille","lat":43.28481,"lon":5.48396,"is_reserved":false,"is_disabled":false,"rental_uris":{"android":"levelo://app?vid=af1f9193-90aa-4f34-b2c4-fb0bbaea183c","ios":"levelo://app?vid=af1f9193-90aa-4f34-b2c4-fb0bbaea183c"},"vehicle_type_id":"4","last_reported":1766264940,"current_range_meters":9200,"station_id":"st_d3svhcjqgbts73a3dn0g","pricing_plan_id":"cebpf4jnsgd1na2vs0mg"},{"bike_id":"dc3689f5-e765-4c32-91f9-79dc71fe1c49","system_id":"levelo_inurba_marseille","lat":43.24952,"lon":5.40483,"is_reserved":false,"is_disabled":false,"rental_uris":{"android":"levelo://app?vid=dc3689f5-e765-4c32-91f9-79dc71fe1c49","ios":"levelo://app?vid=dc3689f5-e765-4c32-91f9-79dc71fe1c49"},"vehicle_type_id":"4","last_reported":1766264940,"current_range_meters":9200,"station_id":"st_d2ngiaodas8pm72gd1h0","pricing_plan_id":"cebpf4jnsgd1na2vs0mg"},{"bike_id":"9b5a730d-e0e9-4daf-9138-8878ba912514","system_id":"levelo_inurba_marseille","lat":43.25896,"lon":5.39844,"is_reserved":false,"is_disabled":false,"rental_uris":{"android":"levelo://app?vid=9b5a730d-e0e9-4daf-9138-8878ba912514","ios":"levelo://app?vid=9b5a730d-e0e9-4daf-9138-8878ba912514"},"vehicle_type_id":"4","last_reported":1766264940,"current_range_meters":9200,"station_id":"","pricing_plan_id":"cebpf4jnsgd1na2vs0mg"},{"bike_id":"db3dd2e5-bfe5-4ef9-ac56-a9eab3a3f3f6","system_id":"levelo_inurba_marseille","lat":43.29277,"lon":5.36831,"is_reserved":false,"is_disabled":false,"rental_uris":{"android":"levelo://app?vid=db3dd2e5-bfe5-4ef9-ac56-a9eab3a3f3f6","ios":"levelo://app?vid=db3dd2e5-bfe5-4ef9-ac56-a9eab3a3f3f6"},"vehicle_type_id":"4","last_reported":1766264940,"current_range_meters":9600,"station_id":"ce4bhbp2rcd13ifvqesg","pricing_plan_id":"cebpf4jnsgd1na2vs0mg"},{"bike_id":"13510b18-4a9b-47d0-a954-6d7cdc2c118c","system_id":"levelo_inurba_marseille","lat":43.28494,"lon":5.48375,"is_reserved":false,"is_disabled":false,"rental_uris":{"android":"levelo://app?vid=13510b18-4a9b-47d0-a954-6d7cdc2c118c","ios":"levelo://app?vid=13510b18-4a9b-47d0-a954-6d7cdc2c118c"},"vehicle_type_id":"4","last_reported":1766264940,"current_range_meters":9600,"station_id":"","pricing_plan_id":"cebpf4jnsgd1na2vs0mg"},{"bike_id":"73278cb8-eff4-493e-bb3c-f3c420880d0d","system_id":"levelo_inurba_marseille","lat":43.26574,"lon":5.38999,"is_reserved":false,"is_disabled":false,"rental_uris":{"android":"levelo://app?vid=73278cb8-eff4-493e-bb3c-f3c420880d0d","ios":"levelo://app?vid=73278cb8-eff4-493e-bb3c-f3c420880d0d"},"vehicle_type_id":"4","last_reported":1766264940,"current_range_meters":9600,"station_id":"ce4bhe12rcd13ifvqf30","pricing_plan_id":"cebpf4jnsgd1na2vs0mg"},{"bike_id":"6b6caf9c-9787-47bf-ac43-5c5b152038f5","system_id":"levelo_inurba_marseille","lat":43.31706,"lon":5.37725,"is_reserved":false,"is_disabled":false,"rental_uris":{"android":"levelo://app?vid=6b6caf9c-9787-47bf-ac43-5c5b152038f5","ios":"levelo://app?vid=6b6caf9c-9787-47bf-ac43-5c5b152038f5"},"vehicle_type_id":"4","last_reported":1766264940,"current_range_meters":9600,"station_id":"ce4bgth2rcd13ifvqch0","pricing_plan_id":"cebpf4jnsgd1na2vs0mg"},{"bike_id":"b66e6001-42b2-4cd7-9e7b-84f8964d6c17","system_id":"levelo_inurba_marseille","lat":43.32484,"lon":5.38309,"is_reserved":false,"is_disabled":false,"rental_uris":{"android":"levelo://app?vid=b66e6001-42b2-4cd7-9e7b-84f8964d6c17","ios":"levelo://app?vid=b66e6001-42b2-4cd7-9e7b-84f8964d6c17"},"vehicle_type_id":"4","last_reported":1766264940,"current_range_meters":9600,"station_id":"st_d4asgbiv49dc73anf9m0","pricing_plan_id":"cebpf4jnsgd1na2vs0mg"},{"bike_id":"1a7958be-ce0b-4685-b01f-f383b74dd21a","system_id":"levelo_inurba_marseille","lat":43.28935,"lon":5.366353,"is_reserved":false,"is_disabled":false,"rental_uris":{"android":"levelo://app?vid=1a7958be-ce0b-4685-b01f-f383b74dd21a","ios":"levelo://app?vid=1a7958be-ce0b-4685-b01f-f383b74dd21a"},"vehicle_type_id":"4","last_reported":1766264940,"current_range_meters":9600,"station_id":"ce4bhap2rcd13ifvqek0","pricing_plan_id":"cebpf4jnsgd1na2vs0mg"},{"bike_id":"3c6e115a-4e88-4ff0-a629-f9b030c94498","system_id":"levelo_inurba_marseille","lat":43.24676,"lon":5.38152,"is_reserved":false,"is_disabled":true,"rental_uris":{"android":"levelo://app?vid=3c6e115a-4e88-4ff0-a629-f9b030c94498","ios":"levelo://app?vid=3c6e115a-4e88-4ff0-a629-f9b030c94498"},"vehicle_type_id":"4","last_reported":1766264940,"current_range_meters":10000,"station_id":"ce4bhih2rcd13ifvqfr0","pricing_plan_id":"cebpf4jnsgd1na2vs0mg"},{"bike_id":"9288dce9-f7b9-4348-89e0-817fc8bdda7b","system_id":"levelo_inurba_marseille","lat":43.295722,"lon":5.375089,"is_reserved":false,"is_disabled":false,"rental_uris":{"android":"levelo://app?vid=9288dce9-f7b9-4348-89e0-817fc8bdda7b","ios":"levelo://app?vid=9288dce9-f7b9-4348-89e0-817fc8bdda7b"},"vehicle_type_id":"4","last_reported":1766264940,"current_range_meters":10000,"station_id":"ce4bgh92rcd13ifvqb50","pricing_plan_id":"cebpf4jnsgd1na2vs0mg"},{"bike_id":"d333f5c5-54f8-4cf5-940a-bb6a2ed8e5fd","system_id":"levelo_inurba_marseille","lat":43.30547,"lon":5.37653,"is_reserved":false,"is_disabled":false,"rental_uris":{"android":"levelo://app?vid=d333f5c5-54f8-4cf5-940a-bb6a2ed8e5fd","ios":"levelo://app?vid=d333f5c5-54f8-4cf5-940a-bb6a2ed8e5fd"},"vehicle_type_id":"4","last_reported":1766264940,"current_range_meters":10000,"station_id":"","pricing_plan_id":"cebpf4jnsgd1na2vs0mg"},{"bike_id":"b93ee6cd-d46b-4d33-8313-23684a41a56c","system_id":"levelo_inurba_marseille","lat":43.23787,"lon":5.36638,"is_reserved":false,"is_disabled":false,"rental_uris":{"android":"levelo://app?vid=b93ee6cd-d46b-4d33-8313-23684a41a56c","ios":"levelo://app?vid=b93ee6cd-d46b-4d33-8313-23684a41a56c"},"vehicle_type_id":"4","last_reported":1766264940,"current_range_meters":10000,"station_id":"st_d3nk18o9ro0c73en2l3g","pricing_plan_id":"cebpf4jnsgd1na2vs0mg"},{"bike_id":"9ed2abc5-3eb4-46ee-9006-c9e3411abb84","system_id":"levelo_inurba_marseille","lat":43.26362,"lon":5.3991,"is_reserved":false,"is_disabled":false,"rental_uris":{"android":"levelo://app?vid=9ed2abc5-3eb4-46ee-9006-c9e3411abb84","ios":"levelo://app?vid=9ed2abc5-3eb4-46ee-9006-c9e3411abb84"},"vehicle_type_id":"4","last_reported":1766264940,"current_range_meters":10000,"station_id":"","pricing_plan_id":"cebpf4jnsgd1na2vs0mg"},{"bike_id":"e690c867-6f92-4878-bff7-a3243322d024","system_id":"levelo_inurba_marseille","lat":43.29467,"lon":5.42751,"is_reserved":false,"is_disabled":false,"rental_uris":{"android":"levelo://app?vid=e690c867-6f92-4878-bff7-a3243322d024","ios":"levelo://app?vid=e690c867-6f92-4878-bff7-a3243322d024"},"vehicle_type_id":"4","last_reported":1766264940,"current_range_meters":10000,"station_id":"","pricing_plan_id":"cebpf4jnsgd1na2vs0mg"},{"bike_id":"4f2bc6c6-d63f-4e59-bdbf-91760def261d","system_id":"levelo_inurba_marseille","lat":43.28532,"lon":5.44116,"is_reserved":false,"is_disabled":false,"rental_uris":{"android":"levelo://app?vid=4f2bc6c6-d63f-4e59-bdbf-91760def261d","ios":"levelo://app?vid=4f2bc6c6-d63f-4e59-bdbf-91760def261d"},"vehicle_type_id":"4","last_reported":1766264940,"current_range_meters":10000,"station_id":"st_d3j3df2ikq2c7380ej80","pricing_plan_id":"cebpf4jnsgd1na2vs0mg"},{"bike_id":"693daa65-f98e-49a9-8cb7-de40b16ccdc7","system_id":"levelo_inurba_marseille","lat":43.225693,"lon":5.416208,"is_reserved":false,"is_disabled":false,"rental_uris":{"android":"levelo://app?vid=693daa65-f98e-49a9-8cb7-de40b16ccdc7","ios":"levelo://app?vid=693daa65-f98e-49a9-8cb7-de40b16ccdc7"},"vehicle_type_id":"4","last_reported":1766264940,"current_range_meters":10000,"station_id":"st_d2o4gvlbi1j2169b742g","pricing_plan_id":"cebpf4jnsgd1na2vs0mg"},{"bike_id":"2a0b8521-e8c2-435f-ac2a-f305f0065e9f","system_id":"levelo_inurba_marseille","lat":43.21188,"lon":5.35067,"is_reserved":false,"is_disabled":false,"rental_uris":{"android":"levelo://app?vid=2a0b8521-e8c2-435f-ac2a-f305f0065e9f","ios":"levelo://app?vid=2a0b8521-e8c2-435f-ac2a-f305f0065e9f"},"vehicle_type_id":"4","last_reported":1766264940,"current_range_meters":10800,"station_id":"","pricing_plan_id":"cebpf4jnsgd1na2vs0mg"},{"bike_id":"90dac6f2-4e58-4623-b929-4f8d06ec1c31","system_id":"levelo_inurba_marseille","lat":43.285,"lon":5.4254,"is_reserved":false,"is_disabled":false,"rental_uris":{"android":"levelo://app?vid=90dac6f2-4e58-4623-b929-4f8d06ec1c31","ios":"levelo://app?vid=90dac6f2-4e58-4623-b929-4f8d06ec1c31"},"vehicle_type_id":"4","last_reported":1766264940,"current_range_meters":10800,"station_id":"","pricing_plan_id":"cebpf4jnsgd1na2vs0mg"},{"bike_id":"6444e80f-721e-421b-9602-b6ea1869266b","system_id":"levelo_inurba_marseille","lat":43.26683,"lon":5.38268,"is_reserved":false,"is_disabled":false,"rental_uris":{"android":"levelo://app?vid=6444e80f-721e-421b-9602-b6ea1869266b","ios":"levelo://app?vid=6444e80f-721e-421b-9602-b6ea1869266b"},"vehicle_type_id":"4","last_reported":1766264940,"current_range_meters":10800,"station_id":"ce4bhg92rcd13ifvqf90","pricing_plan_id":"cebpf4jnsgd1na2vs0mg"},{"bike_id":"ac69310b-48fc-4542-b776-5797f9034e72","system_id":"levelo_inurba_marseille","lat":43.29813,"lon":5.44064,"is_reserved":false,"is_disabled":false,"rental_uris":{"android":"levelo://app?vid=ac69310b-48fc-4542-b776-5797f9034e72","ios":"levelo://app?vid=ac69310b-48fc-4542-b776-5797f9034e72"},"vehicle_type_id":"4","last_reported":1766264940,"current_range_meters":10800,"station_id":"st_d3jp68qikq2c7381ktn0","pricing_plan_id":"cebpf4jnsgd1na2vs0mg"},{"bike_id":"8946ed89-1084-41ac-9051-51993bcbdd4f","system_id":"levelo_inurba_marseille","lat":43.29565,"lon":5.37513,"is_reserved":false,"is_disabled":false,"rental_uris":{"android":"levelo://app?vid=8946ed89-1084-41ac-9051-51993bcbdd4f","ios":"levelo://app?vid=8946ed89-1084-41ac-9051-51993bcbdd4f"},"vehicle_type_id":"4","last_reported":1766264940,"current_range_meters":10800,"station_id":"ce4bgh92rcd13ifvqb50","pricing_plan_id":"cebpf4jnsgd1na2vs0mg"},{"bike_id":"5cdf0c26-71fe-4230-ab4f-b50d47db508a","system_id":"levelo_inurba_marseille","lat":43.30123,"lon":5.39738,"is_reserved":false,"is_disabled":false,"rental_uris":{"android":"levelo://app?vid=5cdf0c26-71fe-4230-ab4f-b50d47db508a","ios":"levelo://app?vid=5cdf0c26-71fe-4230-ab4f-b50d47db508a"},"vehicle_type_id":"4","last_reported":1766264940,"current_range_meters":10800,"station_id":"","pricing_plan_id":"cebpf4jnsgd1na2vs0mg"},{"bike_id":"11072089-4b46-418b-8a56-7ed3428c06cc","system_id":"levelo_inurba_marseille","lat":43.30731,"lon":5.37112,"is_reserved":false,"is_disabled":false,"rental_uris":{"android":"levelo://app?vid=11072089-4b46-418b-8a56-7ed3428c06cc","ios":"levelo://app?vid=11072089-4b46-418b-8a56-7ed3428c06cc"},"vehicle_type_id":"4","last_reported":1766264940,"current_range_meters":10800,"station_id":"","pricing_plan_id":"cebpf4jnsgd1na2vs0mg"},{"bike_id":"628a75f3-7312-4f05-a812-11eaca59fded","system_id":"levelo_inurba_marseille","lat":43.28469,"lon":5.38568,"is_reserved":false,"is_disabled":false,"rental_uris":{"android":"levelo://app?vid=628a75f3-7312-4f05-a812-11eaca59fded","ios":"levelo://app?vid=628a75f3-7312-4f05-a812-11eaca59fded"},"vehicle_type_id":"4","last_reported":1766264940,"current_range_meters":10800,"station_id":"ce4bh8p2rcd13ifvqeb0","pricing_plan_id":"cebpf4jnsgd1na2vs0mg"},{"bike_id":"70571eb3-1ed9-45b8-b88d-a5d69fb4688a","system_id":"levelo_inurba_marseille","lat":43.24654,"lon":5.3816,"is_reserved":false,"is_disabled":false,"rental_uris":{"android":"levelo://app?vid=70571eb3-1ed9-45b8-b88d-a5d69fb4688a","ios":"levelo://app?vid=70571eb3-1ed9-45b8-b88d-a5d69fb4688a"},"vehicle_type_id":"4","last_reported":1766264940,"current_range_meters":10800,"station_id":"ce4bhih2rcd13ifvqfr0","pricing_plan_id":"cebpf4jnsgd1na2vs0mg"},{"bike_id":"c84b8e47-5802-4c21-b1cc-1df47c4f26c2","system_id":"levelo_inurba_marseille","lat":43.28476,"lon":5.48392,"is_reserved":false,"is_disabled":false,"rental_uris":{"android":"levelo://app?vid=c84b8e47-5802-4c21-b1cc-1df47c4f26c2","ios":"levelo://app?vid=c84b8e47-5802-4c21-b1cc-1df47c4f26c2"},"vehicle_type_id":"4","last_reported":1766264940,"current_range_meters":10800,"station_id":"","pricing_plan_id":"cebpf4jnsgd1na2vs0mg"},{"bike_id":"98c040ff-ac12-4358-bded-c79cb9358db9","system_id":"levelo_inurba_marseille","lat":43.31721,"lon":5.42397,"is_reserved":false,"is_disabled":false,"rental_uris":{"android":"levelo://app?vid=98c040ff-ac12-4358-bded-c79cb9358db9","ios":"levelo://app?vid=98c040ff-ac12-4358-bded-c79cb9358db9"},"vehicle_type_id":"4","last_reported":1766264940,"current_range_meters":10800,"station_id":"ce4bhp92rcd13ifvqhbg","pricing_plan_id":"cebpf4jnsgd1na2vs0mg"},{"bike_id":"a11d251c-0745-40fb-a584-12c77fa9a98f","system_id":"levelo_inurba_marseille","lat":43.31521,"lon":5.38048,"is_reserved":false,"is_disabled":false,"rental_uris":{"android":"levelo://app?vid=a11d251c-0745-40fb-a584-12c77fa9a98f","ios":"levelo://app?vid=a11d251c-0745-40fb-a584-12c77fa9a98f"},"vehicle_type_id":"4","last_reported":1766264940,"current_range_meters":10800,"station_id":"ce4bhsp2rcd13ifvqi50","pricing_plan_id":"cebpf4jnsgd1na2vs0mg"},{"bike_id":"1a399a16-62ed-47ae-ba1c-654e7762c033","system_id":"levelo_inurba_marseille","lat":43.29999,"lon":5.37984,"is_reserved":false,"is_disabled":false,"rental_uris":{"android":"levelo://app?vid=1a399a16-62ed-47ae-ba1c-654e7762c033","ios":"levelo://app?vid=1a399a16-62ed-47ae-ba1c-654e7762c033"},"vehicle_type_id":"4","last_reported":1766264940,"current_range_meters":11200,"station_id":"","pricing_plan_id":"cebpf4jnsgd1na2vs0mg"},{"bike_id":"06fae415-f45a-47d1-81b6-79d818bb9da0","system_id":"levelo_inurba_marseille","lat":43.29562,"lon":5.37507,"is_reserved":false,"is_disabled":false,"rental_uris":{"android":"levelo://app?vid=06fae415-f45a-47d1-81b6-79d818bb9da0","ios":"levelo://app?vid=06fae415-f45a-47d1-81b6-79d818bb9da0"},"vehicle_type_id":"4","last_reported":1766264940,"current_range_meters":11200,"station_id":"ce4bgh92rcd13ifvqb50","pricing_plan_id":"cebpf4jnsgd1na2vs0mg"},{"bike_id":"40009ca7-653c-4ec5-9d63-44cc85c4497a","system_id":"levelo_inurba_marseille","lat":43.295249,"lon":5.374941,"is_reserved":false,"is_disabled":false,"rental_uris":{"android":"levelo://app?vid=40009ca7-653c-4ec5-9d63-44cc85c4497a","ios":"levelo://app?vid=40009ca7-653c-4ec5-9d63-44cc85c4497a"},"vehicle_type_id":"4","last_reported":1766264940,"current_range_meters":11200,"station_id":"ce4bgkp2rcd13ifvqbmg","pricing_plan_id":"cebpf4jnsgd1na2vs0mg"},{"bike_id":"6321fe57-59f4-4d15-83e3-f64320476ab2","system_id":"levelo_inurba_marseille","lat":43.212,"lon":5.35069,"is_reserved":false,"is_disabled":false,"rental_uris":{"android":"levelo://app?vid=6321fe57-59f4-4d15-83e3-f64320476ab2","ios":"levelo://app?vid=6321fe57-59f4-4d15-83e3-f64320476ab2"},"vehicle_type_id":"4","last_reported":1766264940,"current_range_meters":11200,"station_id":"st_cvj6sg6p6f1abm77japg","pricing_plan_id":"cebpf4jnsgd1na2vs0mg"},{"bike_id":"ab0fb638-49f0-4b4c-88fe-be7c6b61f7ae","system_id":"levelo_inurba_marseille","lat":43.292971,"lon":5.374694,"is_reserved":false,"is_disabled":false,"rental_uris":{"android":"levelo://app?vid=ab0fb638-49f0-4b4c-88fe-be7c6b61f7ae","ios":"levelo://app?vid=ab0fb638-49f0-4b4c-88fe-be7c6b61f7ae"},"vehicle_type_id":"4","last_reported":1766264940,"current_range_meters":11200,"station_id":"ce4bh392rcd13ifvqdl0","pricing_plan_id":"cebpf4jnsgd1na2vs0mg"},{"bike_id":"f9324862-e584-4211-b75d-c7050cb927aa","system_id":"levelo_inurba_marseille","lat":43.30501,"lon":5.37888,"is_reserved":false,"is_disabled":false,"rental_uris":{"android":"levelo://app?vid=f9324862-e584-4211-b75d-c7050cb927aa","ios":"levelo://app?vid=f9324862-e584-4211-b75d-c7050cb927aa"},"vehicle_type_id":"4","last_reported":1766264940,"current_range_meters":11200,"station_id":"ce4bgup2rcd13ifvqcn0","pricing_plan_id":"cebpf4jnsgd1na2vs0mg"},{"bike_id":"a0b3e142-ad94-48c1-8950-54b2bfb4fd08","system_id":"levelo_inurba_marseille","lat":43.270491,"lon":5.402637,"is_reserved":false,"is_disabled":false,"rental_uris":{"android":"levelo://app?vid=a0b3e142-ad94-48c1-8950-54b2bfb4fd08","ios":"levelo://app?vid=a0b3e142-ad94-48c1-8950-54b2bfb4fd08"},"vehicle_type_id":"4","last_reported":1766264940,"current_range_meters":11200,"station_id":"ce4bhk92rcd13ifvqgc0","pricing_plan_id":"cebpf4jnsgd1na2vs0mg"},{"bike_id":"f247771e-2838-4c74-9387-68cb8feccb4e","system_id":"levelo_inurba_marseille","lat":43.28577,"lon":5.40468,"is_reserved":false,"is_disabled":false,"rental_uris":{"android":"levelo://app?vid=f247771e-2838-4c74-9387-68cb8feccb4e","ios":"levelo://app?vid=f247771e-2838-4c74-9387-68cb8feccb4e"},"vehicle_type_id":"4","last_reported":1766264940,"current_range_meters":11200,"station_id":"","pricing_plan_id":"cebpf4jnsgd1na2vs0mg"},{"bike_id":"eff70d7b-111f-4970-bc9e-79019584abb0","system_id":"levelo_inurba_marseille","lat":43.31256,"lon":5.36906,"is_reserved":false,"is_disabled":false,"rental_uris":{"android":"levelo://app?vid=eff70d7b-111f-4970-bc9e-79019584abb0","ios":"levelo://app?vid=eff70d7b-111f-4970-bc9e-79019584abb0"},"vehicle_type_id":"4","last_reported":1766264940,"current_range_meters":11200,"station_id":"ce4bgl92rcd13ifvqbq0","pricing_plan_id":"cebpf4jnsgd1na2vs0mg"},{"bike_id":"de4957ca-9c93-409a-ae9b-9b8d86479fcf","system_id":"levelo_inurba_marseille","lat":43.29552,"lon":5.37495,"is_reserved":false,"is_disabled":false,"rental_uris":{"android":"levelo://app?vid=de4957ca-9c93-409a-ae9b-9b8d86479fcf","ios":"levelo://app?vid=de4957ca-9c93-409a-ae9b-9b8d86479fcf"},"vehicle_type_id":"4","last_reported":1766264940,"current_range_meters":11600,"station_id":"ce4bgkp2rcd13ifvqbmg","pricing_plan_id":"cebpf4jnsgd1na2vs0mg"},{"bike_id":"b4c06ecc-7a46-4aca-a09e-6e605e584bbd","system_id":"levelo_inurba_marseille","lat":43.29819,"lon":5.44055,"is_reserved":false,"is_disabled":false,"rental_uris":{"android":"levelo://app?vid=b4c06ecc-7a46-4aca-a09e-6e605e584bbd","ios":"levelo://app?vid=b4c06ecc-7a46-4aca-a09e-6e605e584bbd"},"vehicle_type_id":"4","last_reported":1766264940,"current_range_meters":11600,"station_id":"st_d3jp68qikq2c7381ktn0","pricing_plan_id":"cebpf4jnsgd1na2vs0mg"},{"bike_id":"e34de377-5e3f-4ed9-87a5-527091617ac5","system_id":"levelo_inurba_marseille","lat":43.29517,"lon":5.37503,"is_reserved":false,"is_disabled":false,"rental_uris":{"android":"levelo://app?vid=e34de377-5e3f-4ed9-87a5-527091617ac5","ios":"levelo://app?vid=e34de377-5e3f-4ed9-87a5-527091617ac5"},"vehicle_type_id":"4","last_reported":1766264940,"current_range_meters":11600,"station_id":"ce4bgkp2rcd13ifvqbmg","pricing_plan_id":"cebpf4jnsgd1na2vs0mg"},{"bike_id":"167ff5eb-f7ec-4a9a-a389-047000be67d8","system_id":"levelo_inurba_marseille","lat":43.281733,"lon":5.426302,"is_reserved":false,"is_disabled":false,"rental_uris":{"android":"levelo://app?vid=167ff5eb-f7ec-4a9a-a389-047000be67d8","ios":"levelo://app?vid=167ff5eb-f7ec-4a9a-a389-047000be67d8"},"vehicle_type_id":"4","last_reported":1766264940,"current_range_meters":11600,"station_id":"ce4bhnh2rcd13ifvqgug","pricing_plan_id":"cebpf4jnsgd1na2vs0mg"},{"bike_id":"00a29bb1-88ca-440d-9219-07d673c689ed","system_id":"levelo_inurba_marseille","lat":43.2976,"lon":5.38464,"is_reserved":false,"is_disabled":false,"rental_uris":{"android":"levelo://app?vid=00a29bb1-88ca-440d-9219-07d673c689ed","ios":"levelo://app?vid=00a29bb1-88ca-440d-9219-07d673c689ed"},"vehicle_type_id":"4","last_reported":1766264940,"current_range_meters":11600,"station_id":"","pricing_plan_id":"cebpf4jnsgd1na2vs0mg"},{"bike_id":"220aff5d-2c09-4121-a94f-34ba8ddd6f6f","system_id":"levelo_inurba_marseille","lat":43.2854,"lon":5.44097,"is_reserved":false,"is_disabled":false,"rental_uris":{"android":"levelo://app?vid=220aff5d-2c09-4121-a94f-34ba8ddd6f6f","ios":"levelo://app?vid=220aff5d-2c09-4121-a94f-34ba8ddd6f6f"},"vehicle_type_id":"4","last_reported":1766264940,"current_range_meters":11600,"station_id":"st_d3j3df2ikq2c7380ej80","pricing_plan_id":"cebpf4jnsgd1na2vs0mg"},{"bike_id":"4cd31c8b-e2bf-4aad-b061-09eb9872ab3f","system_id":"levelo_inurba_marseille","lat":43.307375,"lon":5.424417,"is_reserved":false,"is_disabled":false,"rental_uris":{"android":"levelo://app?vid=4cd31c8b-e2bf-4aad-b061-09eb9872ab3f","ios":"levelo://app?vid=4cd31c8b-e2bf-4aad-b061-09eb9872ab3f"},"vehicle_type_id":"4","last_reported":1766264940,"current_range_meters":11600,"station_id":"st_cvj6ca6bvosntc0bfgr0","pricing_plan_id":"cebpf4jnsgd1na2vs0mg"},{"bike_id":"85f80c36-b01d-4148-8a0f-5ed00798dda8","system_id":"levelo_inurba_marseille","lat":43.30081,"lon":5.36488,"is_reserved":false,"is_disabled":false,"rental_uris":{"android":"levelo://app?vid=85f80c36-b01d-4148-8a0f-5ed00798dda8","ios":"levelo://app?vid=85f80c36-b01d-4148-8a0f-5ed00798dda8"},"vehicle_type_id":"4","last_reported":1766264940,"current_range_meters":11600,"station_id":"","pricing_plan_id":"cebpf4jnsgd1na2vs0mg"},{"bike_id":"e23c6908-1148-4542-b6eb-bf0b95251a99","system_id":"levelo_inurba_marseille","lat":43.29503,"lon":5.37494,"is_reserved":false,"is_disabled":false,"rental_uris":{"android":"levelo://app?vid=e23c6908-1148-4542-b6eb-bf0b95251a99","ios":"levelo://app?vid=e23c6908-1148-4542-b6eb-bf0b95251a99"},"vehicle_type_id":"4","last_reported":1766264940,"current_range_meters":12000,"station_id":"ce4bgkp2rcd13ifvqbmg","pricing_plan_id":"cebpf4jnsgd1na2vs0mg"},{"bike_id":"28ad1a9a-391c-435e-96a8-1e7f1aea86aa","system_id":"levelo_inurba_marseille","lat":43.301238,"lon":5.431199,"is_reserved":false,"is_disabled":false,"rental_uris":{"android":"levelo://app?vid=28ad1a9a-391c-435e-96a8-1e7f1aea86aa","ios":"levelo://app?vid=28ad1a9a-391c-435e-96a8-1e7f1aea86aa"},"vehicle_type_id":"4","last_reported":1766264940,"current_range_meters":12000,"station_id":"st_d3js3co5814s73ftftug","pricing_plan_id":"cebpf4jnsgd1na2vs0mg"},{"bike_id":"7003f313-702d-4b1e-9579-528ba4d56198","system_id":"levelo_inurba_marseille","lat":43.30158,"lon":5.38091,"is_reserved":false,"is_disabled":false,"rental_uris":{"android":"levelo://app?vid=7003f313-702d-4b1e-9579-528ba4d56198","ios":"levelo://app?vid=7003f313-702d-4b1e-9579-528ba4d56198"},"vehicle_type_id":"4","last_reported":1766264940,"current_range_meters":12000,"station_id":"ce4bgjp2rcd13ifvqbh0","pricing_plan_id":"cebpf4jnsgd1na2vs0mg"},{"bike_id":"b7e8a2cf-8551-45bd-a474-430e2d79f4e7","system_id":"levelo_inurba_marseille","lat":43.29266,"lon":5.38453,"is_reserved":false,"is_disabled":false,"rental_uris":{"android":"levelo://app?vid=b7e8a2cf-8551-45bd-a474-430e2d79f4e7","ios":"levelo://app?vid=b7e8a2cf-8551-45bd-a474-430e2d79f4e7"},"vehicle_type_id":"4","last_reported":1766264940,"current_range_meters":12000,"station_id":"ce4bh692rcd13ifvqea0","pricing_plan_id":"cebpf4jnsgd1na2vs0mg"},{"bike_id":"88faa14e-1a0a-4d67-8915-3eda7601efcf","system_id":"levelo_inurba_marseille","lat":43.211871,"lon":5.350688,"is_reserved":false,"is_disabled":false,"rental_uris":{"android":"levelo://app?vid=88faa14e-1a0a-4d67-8915-3eda7601efcf","ios":"levelo://app?vid=88faa14e-1a0a-4d67-8915-3eda7601efcf"},"vehicle_type_id":"4","last_reported":1766264940,"current_range_meters":12000,"station_id":"st_cvj6sg6p6f1abm77japg","pricing_plan_id":"cebpf4jnsgd1na2vs0mg"},{"bike_id":"1297d7d4-6788-43a1-ac73-4fb6d116076e","system_id":"levelo_inurba_marseille","lat":43.29567,"lon":5.37498,"is_reserved":false,"is_disabled":true,"rental_uris":{"android":"levelo://app?vid=1297d7d4-6788-43a1-ac73-4fb6d116076e","ios":"levelo://app?vid=1297d7d4-6788-43a1-ac73-4fb6d116076e"},"vehicle_type_id":"4","last_reported":1766264940,"current_range_meters":12000,"station_id":"ce4bgh92rcd13ifvqb50","pricing_plan_id":"cebpf4jnsgd1na2vs0mg"},{"bike_id":"9d21dcb0-ce26-48db-a303-317550439f40","system_id":"levelo_inurba_marseille","lat":43.28512,"lon":5.484,"is_reserved":false,"is_disabled":false,"rental_uris":{"android":"levelo://app?vid=9d21dcb0-ce26-48db-a303-317550439f40","ios":"levelo://app?vid=9d21dcb0-ce26-48db-a303-317550439f40"},"vehicle_type_id":"4","last_reported":1766264940,"current_range_meters":12000,"station_id":"st_d3svhcjqgbts73a3dn0g","pricing_plan_id":"cebpf4jnsgd1na2vs0mg"},{"bike_id":"fc16fa3f-3425-4b7f-a6ba-68ebea003e5c","system_id":"levelo_inurba_marseille","lat":43.26943,"lon":5.38922,"is_reserved":false,"is_disabled":false,"rental_uris":{"android":"levelo://app?vid=fc16fa3f-3425-4b7f-a6ba-68ebea003e5c","ios":"levelo://app?vid=fc16fa3f-3425-4b7f-a6ba-68ebea003e5c"},"vehicle_type_id":"4","last_reported":1766264940,"current_range_meters":12000,"station_id":"ce4bhhh2rcd13ifvqfl0","pricing_plan_id":"cebpf4jnsgd1na2vs0mg"},{"bike_id":"0c9b32cb-982e-4cfb-8098-15bfb9c320f6","system_id":"levelo_inurba_marseille","lat":43.29282,"lon":5.3683,"is_reserved":false,"is_disabled":false,"rental_uris":{"android":"levelo://app?vid=0c9b32cb-982e-4cfb-8098-15bfb9c320f6","ios":"levelo://app?vid=0c9b32cb-982e-4cfb-8098-15bfb9c320f6"},"vehicle_type_id":"4","last_reported":1766264940,"current_range_meters":12000,"station_id":"ce4bhbp2rcd13ifvqesg","pricing_plan_id":"cebpf4jnsgd1na2vs0mg"},{"bike_id":"5c4c256b-e0f5-4c24-aeb9-e03ccfe0d2bf","system_id":"levelo_inurba_marseille","lat":43.28539,"lon":5.44072,"is_reserved":false,"is_disabled":false,"rental_uris":{"android":"levelo://app?vid=5c4c256b-e0f5-4c24-aeb9-e03ccfe0d2bf","ios":"levelo://app?vid=5c4c256b-e0f5-4c24-aeb9-e03ccfe0d2bf"},"vehicle_type_id":"4","last_reported":1766264940,"current_range_meters":12000,"station_id":"st_d3j3df2ikq2c7380ej80","pricing_plan_id":"cebpf4jnsgd1na2vs0mg"},{"bike_id":"49b32667-a5b9-4886-84eb-14582b80721d","system_id":"levelo_inurba_marseille","lat":43.29785,"lon":5.37678,"is_reserved":false,"is_disabled":false,"rental_uris":{"android":"levelo://app?vid=49b32667-a5b9-4886-84eb-14582b80721d","ios":"levelo://app?vid=49b32667-a5b9-4886-84eb-14582b80721d"},"vehicle_type_id":"4","last_reported":1766264940,"current_range_meters":12000,"station_id":"","pricing_plan_id":"cebpf4jnsgd1na2vs0mg"},{"bike_id":"cb2ddf25-9953-4b95-8452-31ba7b49bd16","system_id":"levelo_inurba_marseille","lat":43.24657,"lon":5.3889,"is_reserved":false,"is_disabled":false,"rental_uris":{"android":"levelo://app?vid=cb2ddf25-9953-4b95-8452-31ba7b49bd16","ios":"levelo://app?vid=cb2ddf25-9953-4b95-8452-31ba7b49bd16"},"vehicle_type_id":"4","last_reported":1766264940,"current_range_meters":12000,"station_id":"ce4bhg12rcd13ifvqf60","pricing_plan_id":"cebpf4jnsgd1na2vs0mg"},{"bike_id":"656edf73-60ef-4804-a0ec-9110991503dd","system_id":"levelo_inurba_marseille","lat":43.303259,"lon":5.404326,"is_reserved":false,"is_disabled":false,"rental_uris":{"android":"levelo://app?vid=656edf73-60ef-4804-a0ec-9110991503dd","ios":"levelo://app?vid=656edf73-60ef-4804-a0ec-9110991503dd"},"vehicle_type_id":"4","last_reported":1766264940,"current_range_meters":12400,"station_id":"ce4bh012rcd13ifvqd10","pricing_plan_id":"cebpf4jnsgd1na2vs0mg"},{"bike_id":"5046e52c-2d03-4dab-83b5-0d9b216c15bd","system_id":"levelo_inurba_marseille","lat":43.3077,"lon":5.3695,"is_reserved":false,"is_disabled":false,"rental_uris":{"android":"levelo://app?vid=5046e52c-2d03-4dab-83b5-0d9b216c15bd","ios":"levelo://app?vid=5046e52c-2d03-4dab-83b5-0d9b216c15bd"},"vehicle_type_id":"4","last_reported":1766264940,"current_range_meters":12400,"station_id":"","pricing_plan_id":"cebpf4jnsgd1na2vs0mg"},{"bike_id":"c0fb8cc1-ebe9-4001-a3ec-0d3fc87db3d9","system_id":"levelo_inurba_marseille","lat":43.343526,"lon":5.355248,"is_reserved":false,"is_disabled":false,"rental_uris":{"android":"levelo://app?vid=c0fb8cc1-ebe9-4001-a3ec-0d3fc87db3d9","ios":"levelo://app?vid=c0fb8cc1-ebe9-4001-a3ec-0d3fc87db3d9"},"vehicle_type_id":"4","last_reported":1766264940,"current_range_meters":12400,"station_id":"","pricing_plan_id":"cebpf4jnsgd1na2vs0mg"},{"bike_id":"b5a98133-8267-4179-8e69-4caa1a3fdd3c","system_id":"levelo_inurba_marseille","lat":43.29304,"lon":5.37434,"is_reserved":false,"is_disabled":false,"rental_uris":{"android":"levelo://app?vid=b5a98133-8267-4179-8e69-4caa1a3fdd3c","ios":"levelo://app?vid=b5a98133-8267-4179-8e69-4caa1a3fdd3c"},"vehicle_type_id":"4","last_reported":1766264940,"current_range_meters":12400,"station_id":"ce4bgi12rcd13ifvqb70","pricing_plan_id":"cebpf4jnsgd1na2vs0mg"},{"bike_id":"f74f690a-ab44-4e9f-8a36-1702c27f53fd","system_id":"levelo_inurba_marseille","lat":43.29644,"lon":5.37061,"is_reserved":false,"is_disabled":false,"rental_uris":{"android":"levelo://app?vid=f74f690a-ab44-4e9f-8a36-1702c27f53fd","ios":"levelo://app?vid=f74f690a-ab44-4e9f-8a36-1702c27f53fd"},"vehicle_type_id":"4","last_reported":1766264940,"current_range_meters":12400,"station_id":"","pricing_plan_id":"cebpf4jnsgd1na2vs0mg"},{"bike_id":"f75f3558-da19-405a-b928-7628e2e693bf","system_id":"levelo_inurba_marseille","lat":43.3012,"lon":5.4312,"is_reserved":false,"is_disabled":false,"rental_uris":{"android":"levelo://app?vid=f75f3558-da19-405a-b928-7628e2e693bf","ios":"levelo://app?vid=f75f3558-da19-405a-b928-7628e2e693bf"},"vehicle_type_id":"4","last_reported":1766264940,"current_range_meters":12400,"station_id":"st_d3js3co5814s73ftftug","pricing_plan_id":"cebpf4jnsgd1na2vs0mg"},{"bike_id":"f3fdb73c-e2e3-4dd3-a99d-4f3e3986936b","system_id":"levelo_inurba_marseille","lat":43.22564,"lon":5.41632,"is_reserved":false,"is_disabled":false,"rental_uris":{"android":"levelo://app?vid=f3fdb73c-e2e3-4dd3-a99d-4f3e3986936b","ios":"levelo://app?vid=f3fdb73c-e2e3-4dd3-a99d-4f3e3986936b"},"vehicle_type_id":"4","last_reported":1766264940,"current_range_meters":12400,"station_id":"st_d2o4gvlbi1j2169b742g","pricing_plan_id":"cebpf4jnsgd1na2vs0mg"},{"bike_id":"b5c37b4c-5839-4b87-9c4d-cd6cceb26ce3","system_id":"levelo_inurba_marseille","lat":43.29279,"lon":5.36833,"is_reserved":false,"is_disabled":false,"rental_uris":{"android":"levelo://app?vid=b5c37b4c-5839-4b87-9c4d-cd6cceb26ce3","ios":"levelo://app?vid=b5c37b4c-5839-4b87-9c4d-cd6cceb26ce3"},"vehicle_type_id":"4","last_reported":1766264940,"current_range_meters":12800,"station_id":"ce4bhbp2rcd13ifvqesg","pricing_plan_id":"cebpf4jnsgd1na2vs0mg"},{"bike_id":"700449c3-16f1-424f-8553-e61ef556af28","system_id":"levelo_inurba_marseille","lat":43.25934,"lon":5.40909,"is_reserved":false,"is_disabled":false,"rental_uris":{"android":"levelo://app?vid=700449c3-16f1-424f-8553-e61ef556af28","ios":"levelo://app?vid=700449c3-16f1-424f-8553-e61ef556af28"},"vehicle_type_id":"4","last_reported":1766264940,"current_range_meters":12800,"station_id":"ce4bhm92rcd13ifvqglg","pricing_plan_id":"cebpf4jnsgd1na2vs0mg"},{"bike_id":"894b07af-2d2b-4e6f-add6-20e2189c2168","system_id":"levelo_inurba_marseille","lat":43.26954,"lon":5.38639,"is_reserved":false,"is_disabled":false,"rental_uris":{"android":"levelo://app?vid=894b07af-2d2b-4e6f-add6-20e2189c2168","ios":"levelo://app?vid=894b07af-2d2b-4e6f-add6-20e2189c2168"},"vehicle_type_id":"4","last_reported":1766264940,"current_range_meters":12800,"station_id":"ce4bhh92rcd13ifvqfh0","pricing_plan_id":"cebpf4jnsgd1na2vs0mg"},{"bike_id":"906d8739-d98c-46c1-8d28-ba3873f3b033","system_id":"levelo_inurba_marseille","lat":43.27972,"lon":5.38739,"is_reserved":false,"is_disabled":false,"rental_uris":{"android":"levelo://app?vid=906d8739-d98c-46c1-8d28-ba3873f3b033","ios":"levelo://app?vid=906d8739-d98c-46c1-8d28-ba3873f3b033"},"vehicle_type_id":"4","last_reported":1766264940,"current_range_meters":12800,"station_id":"ce4bhg12rcd13ifvqf80","pricing_plan_id":"cebpf4jnsgd1na2vs0mg"},{"bike_id":"96e54ed3-5d23-4d6c-9bae-d9331f6a4fa1","system_id":"levelo_inurba_marseille","lat":43.27238,"lon":5.36258,"is_reserved":false,"is_disabled":false,"rental_uris":{"android":"levelo://app?vid=96e54ed3-5d23-4d6c-9bae-d9331f6a4fa1","ios":"levelo://app?vid=96e54ed3-5d23-4d6c-9bae-d9331f6a4fa1"},"vehicle_type_id":"4","last_reported":1766264940,"current_range_meters":12800,"station_id":"","pricing_plan_id":"cebpf4jnsgd1na2vs0mg"},{"bike_id":"ae4ab178-3f59-414c-83e6-d26a131c1826","system_id":"levelo_inurba_marseille","lat":43.24178,"lon":5.39727,"is_reserved":false,"is_disabled":false,"rental_uris":{"android":"levelo://app?vid=ae4ab178-3f59-414c-83e6-d26a131c1826","ios":"levelo://app?vid=ae4ab178-3f59-414c-83e6-d26a131c1826"},"vehicle_type_id":"4","last_reported":1766264940,"current_range_meters":12800,"station_id":"ce4bhn12rcd13ifvqgpg","pricing_plan_id":"cebpf4jnsgd1na2vs0mg"},{"bike_id":"bf701d90-fc1c-49dd-8f73-365f2d4930c4","system_id":"levelo_inurba_marseille","lat":43.28668,"lon":5.36351,"is_reserved":false,"is_disabled":false,"rental_uris":{"android":"levelo://app?vid=bf701d90-fc1c-49dd-8f73-365f2d4930c4","ios":"levelo://app?vid=bf701d90-fc1c-49dd-8f73-365f2d4930c4"},"vehicle_type_id":"4","last_reported":1766264940,"current_range_meters":12800,"station_id":"ce4bhah2rcd13ifvqej0","pricing_plan_id":"cebpf4jnsgd1na2vs0mg"},{"bike_id":"a51e64e5-17d3-4723-8db9-2a9d672a879c","system_id":"levelo_inurba_marseille","lat":43.293056,"lon":5.374623,"is_reserved":false,"is_disabled":false,"rental_uris":{"android":"levelo://app?vid=a51e64e5-17d3-4723-8db9-2a9d672a879c","ios":"levelo://app?vid=a51e64e5-17d3-4723-8db9-2a9d672a879c"},"vehicle_type_id":"4","last_reported":1766264940,"current_range_meters":12800,"station_id":"","pricing_plan_id":"cebpf4jnsgd1na2vs0mg"},{"bike_id":"e1e0c5d5-d1ff-4328-abce-0032e41eb0b8","system_id":"levelo_inurba_marseille","lat":43.24629,"lon":5.43145,"is_reserved":false,"is_disabled":false,"rental_uris":{"android":"levelo://app?vid=e1e0c5d5-d1ff-4328-abce-0032e41eb0b8","ios":"levelo://app?vid=e1e0c5d5-d1ff-4328-abce-0032e41eb0b8"},"vehicle_type_id":"4","last_reported":1766264940,"current_range_meters":13600,"station_id":"st_d2m6c4gdas8pm72e190g","pricing_plan_id":"cebpf4jnsgd1na2vs0mg"},{"bike_id":"2bbc71c7-bd58-41dd-b1bc-322a7159a69f","system_id":"levelo_inurba_marseille","lat":43.30135,"lon":5.38085,"is_reserved":false,"is_disabled":false,"rental_uris":{"android":"levelo://app?vid=2bbc71c7-bd58-41dd-b1bc-322a7159a69f","ios":"levelo://app?vid=2bbc71c7-bd58-41dd-b1bc-322a7159a69f"},"vehicle_type_id":"4","last_reported":1766264940,"current_range_meters":13600,"station_id":"ce4bgjp2rcd13ifvqbh0","pricing_plan_id":"cebpf4jnsgd1na2vs0mg"},{"bike_id":"6806d895-2251-4944-acf3-fe0a5d8277e8","system_id":"levelo_inurba_marseille","lat":43.27906,"lon":5.38014,"is_reserved":false,"is_disabled":false,"rental_uris":{"android":"levelo://app?vid=6806d895-2251-4944-acf3-fe0a5d8277e8","ios":"levelo://app?vid=6806d895-2251-4944-acf3-fe0a5d8277e8"},"vehicle_type_id":"4","last_reported":1766264940,"current_range_meters":13600,"station_id":"ce4bhf92rcd13ifvqf50","pricing_plan_id":"cebpf4jnsgd1na2vs0mg"},{"bike_id":"785156da-0593-4b75-94f6-e2ccbbaee3ef","system_id":"levelo_inurba_marseille","lat":43.27373,"lon":5.39522,"is_reserved":false,"is_disabled":false,"rental_uris":{"android":"levelo://app?vid=785156da-0593-4b75-94f6-e2ccbbaee3ef","ios":"levelo://app?vid=785156da-0593-4b75-94f6-e2ccbbaee3ef"},"vehicle_type_id":"4","last_reported":1766264940,"current_range_meters":13600,"station_id":"","pricing_plan_id":"cebpf4jnsgd1na2vs0mg"},{"bike_id":"611bb42d-81f1-42fc-b832-157e5dfb6bb7","system_id":"levelo_inurba_marseille","lat":43.28534,"lon":5.44103,"is_reserved":false,"is_disabled":false,"rental_uris":{"android":"levelo://app?vid=611bb42d-81f1-42fc-b832-157e5dfb6bb7","ios":"levelo://app?vid=611bb42d-81f1-42fc-b832-157e5dfb6bb7"},"vehicle_type_id":"4","last_reported":1766264940,"current_range_meters":13600,"station_id":"st_d3j3df2ikq2c7380ej80","pricing_plan_id":"cebpf4jnsgd1na2vs0mg"},{"bike_id":"49302437-6f32-4b67-a486-ae28561da399","system_id":"levelo_inurba_marseille","lat":43.27988,"lon":5.41657,"is_reserved":false,"is_disabled":false,"rental_uris":{"android":"levelo://app?vid=49302437-6f32-4b67-a486-ae28561da399","ios":"levelo://app?vid=49302437-6f32-4b67-a486-ae28561da399"},"vehicle_type_id":"4","last_reported":1766264940,"current_range_meters":13600,"station_id":"ce4bho12rcd13ifvqh1g","pricing_plan_id":"cebpf4jnsgd1na2vs0mg"},{"bike_id":"788c94de-1a40-4861-940f-f8c6403d139b","system_id":"levelo_inurba_marseille","lat":43.24799,"lon":5.37464,"is_reserved":false,"is_disabled":false,"rental_uris":{"android":"levelo://app?vid=788c94de-1a40-4861-940f-f8c6403d139b","ios":"levelo://app?vid=788c94de-1a40-4861-940f-f8c6403d139b"},"vehicle_type_id":"4","last_reported":1766264940,"current_range_meters":13600,"station_id":"ce4bhgh2rcd13ifvqfb0","pricing_plan_id":"cebpf4jnsgd1na2vs0mg"},{"bike_id":"1a80cb1e-f6c4-464e-b7b2-c93856f1b02c","system_id":"levelo_inurba_marseille","lat":43.29069,"lon":5.38123,"is_reserved":false,"is_disabled":false,"rental_uris":{"android":"levelo://app?vid=1a80cb1e-f6c4-464e-b7b2-c93856f1b02c","ios":"levelo://app?vid=1a80cb1e-f6c4-464e-b7b2-c93856f1b02c"},"vehicle_type_id":"4","last_reported":1766264940,"current_range_meters":13600,"station_id":"ce4bh4p2rcd13ifvqe1g","pricing_plan_id":"cebpf4jnsgd1na2vs0mg"},{"bike_id":"455016d2-5fbf-4a3e-85ba-1e7337979a51","system_id":"levelo_inurba_marseille","lat":43.23774,"lon":5.36632,"is_reserved":false,"is_disabled":false,"rental_uris":{"android":"levelo://app?vid=455016d2-5fbf-4a3e-85ba-1e7337979a51","ios":"levelo://app?vid=455016d2-5fbf-4a3e-85ba-1e7337979a51"},"vehicle_type_id":"4","last_reported":1766264940,"current_range_meters":13600,"station_id":"st_d3nk18o9ro0c73en2l3g","pricing_plan_id":"cebpf4jnsgd1na2vs0mg"},{"bike_id":"81973c80-51fd-4263-9eee-9c6b2d998a96","system_id":"levelo_inurba_marseille","lat":43.27618,"lon":5.36106,"is_reserved":false,"is_disabled":false,"rental_uris":{"android":"levelo://app?vid=81973c80-51fd-4263-9eee-9c6b2d998a96","ios":"levelo://app?vid=81973c80-51fd-4263-9eee-9c6b2d998a96"},"vehicle_type_id":"4","last_reported":1766264940,"current_range_meters":13600,"station_id":"ce4bgj92rcd13ifvqbe0","pricing_plan_id":"cebpf4jnsgd1na2vs0mg"},{"bike_id":"7a709ab5-44f1-4190-add0-08bfe5af389c","system_id":"levelo_inurba_marseille","lat":43.30908,"lon":5.3684,"is_reserved":false,"is_disabled":false,"rental_uris":{"android":"levelo://app?vid=7a709ab5-44f1-4190-add0-08bfe5af389c","ios":"levelo://app?vid=7a709ab5-44f1-4190-add0-08bfe5af389c"},"vehicle_type_id":"4","last_reported":1766264940,"current_range_meters":13600,"station_id":"ce4bgn92rcd13ifvqbvg","pricing_plan_id":"cebpf4jnsgd1na2vs0mg"},{"bike_id":"0f5a8291-9fc2-4f45-864d-513ec0d61577","system_id":"levelo_inurba_marseille","lat":43.336034,"lon":5.410377,"is_reserved":false,"is_disabled":false,"rental_uris":{"android":"levelo://app?vid=0f5a8291-9fc2-4f45-864d-513ec0d61577","ios":"levelo://app?vid=0f5a8291-9fc2-4f45-864d-513ec0d61577"},"vehicle_type_id":"4","last_reported":1766264940,"current_range_meters":13600,"station_id":"ce4bhqh2rcd13ifvqhmg","pricing_plan_id":"cebpf4jnsgd1na2vs0mg"},{"bike_id":"2bede430-4250-4bb5-9cc1-2011ee04070d","system_id":"levelo_inurba_marseille","lat":43.28479,"lon":5.484,"is_reserved":false,"is_disabled":false,"rental_uris":{"android":"levelo://app?vid=2bede430-4250-4bb5-9cc1-2011ee04070d","ios":"levelo://app?vid=2bede430-4250-4bb5-9cc1-2011ee04070d"},"vehicle_type_id":"4","last_reported":1766264940,"current_range_meters":14000,"station_id":"","pricing_plan_id":"cebpf4jnsgd1na2vs0mg"},{"bike_id":"be6edca5-cbaf-425d-ba3c-7981181dd2c6","system_id":"levelo_inurba_marseille","lat":43.283626,"lon":5.386419,"is_reserved":false,"is_disabled":true,"rental_uris":{"android":"levelo://app?vid=be6edca5-cbaf-425d-ba3c-7981181dd2c6","ios":"levelo://app?vid=be6edca5-cbaf-425d-ba3c-7981181dd2c6"},"vehicle_type_id":"4","last_reported":1766264940,"current_range_meters":14000,"station_id":"ce4bhi12rcd13ifvqfo0","pricing_plan_id":"cebpf4jnsgd1na2vs0mg"},{"bike_id":"ade91ab6-5e8a-4de3-9d82-ea6f467f1576","system_id":"levelo_inurba_marseille","lat":43.22923,"lon":5.35387,"is_reserved":false,"is_disabled":false,"rental_uris":{"android":"levelo://app?vid=ade91ab6-5e8a-4de3-9d82-ea6f467f1576","ios":"levelo://app?vid=ade91ab6-5e8a-4de3-9d82-ea6f467f1576"},"vehicle_type_id":"4","last_reported":1766264940,"current_range_meters":14000,"station_id":"cpo3532slgdg3j2ikp40","pricing_plan_id":"cebpf4jnsgd1na2vs0mg"},{"bike_id":"ae6c1aeb-ea56-4930-8ca5-97f00c057268","system_id":"levelo_inurba_marseille","lat":43.2499,"lon":5.38957,"is_reserved":false,"is_disabled":false,"rental_uris":{"android":"levelo://app?vid=ae6c1aeb-ea56-4930-8ca5-97f00c057268","ios":"levelo://app?vid=ae6c1aeb-ea56-4930-8ca5-97f00c057268"},"vehicle_type_id":"4","last_reported":1766264940,"current_range_meters":14000,"station_id":"ce4bhgp2rcd13ifvqfd0","pricing_plan_id":"cebpf4jnsgd1na2vs0mg"},{"bike_id":"a4fe11a2-c8ef-410f-82d6-4d5df9f7093b","system_id":"levelo_inurba_marseille","lat":43.297453,"lon":5.376629,"is_reserved":false,"is_disabled":false,"rental_uris":{"android":"levelo://app?vid=a4fe11a2-c8ef-410f-82d6-4d5df9f7093b","ios":"levelo://app?vid=a4fe11a2-c8ef-410f-82d6-4d5df9f7093b"},"vehicle_type_id":"4","last_reported":1766264940,"current_range_meters":14000,"station_id":"ce4bgkh2rcd13ifvqbl0","pricing_plan_id":"cebpf4jnsgd1na2vs0mg"},{"bike_id":"2b865b81-8e0b-44c8-9263-6925783afa45","system_id":"levelo_inurba_marseille","lat":43.26212,"lon":5.37436,"is_reserved":false,"is_disabled":false,"rental_uris":{"android":"levelo://app?vid=2b865b81-8e0b-44c8-9263-6925783afa45","ios":"levelo://app?vid=2b865b81-8e0b-44c8-9263-6925783afa45"},"vehicle_type_id":"4","last_reported":1766264940,"current_range_meters":14000,"station_id":"ce4bhgp2rcd13ifvqfc0","pricing_plan_id":"cebpf4jnsgd1na2vs0mg"},{"bike_id":"73e2925b-3961-4e27-be9f-277c3490deb8","system_id":"levelo_inurba_marseille","lat":43.2961,"lon":5.37716,"is_reserved":false,"is_disabled":false,"rental_uris":{"android":"levelo://app?vid=73e2925b-3961-4e27-be9f-277c3490deb8","ios":"levelo://app?vid=73e2925b-3961-4e27-be9f-277c3490deb8"},"vehicle_type_id":"4","last_reported":1766264940,"current_range_meters":14000,"station_id":"ce4bgi92rcd13ifvqb90","pricing_plan_id":"cebpf4jnsgd1na2vs0mg"},{"bike_id":"44692cea-5bbf-4044-9d9f-905140fec479","system_id":"levelo_inurba_marseille","lat":43.31253,"lon":5.37794,"is_reserved":false,"is_disabled":false,"rental_uris":{"android":"levelo://app?vid=44692cea-5bbf-4044-9d9f-905140fec479","ios":"levelo://app?vid=44692cea-5bbf-4044-9d9f-905140fec479"},"vehicle_type_id":"4","last_reported":1766264940,"current_range_meters":14400,"station_id":"","pricing_plan_id":"cebpf4jnsgd1na2vs0mg"},{"bike_id":"f31dbb72-bf54-4cbb-8dd1-b4bc42c07a56","system_id":"levelo_inurba_marseille","lat":43.2321,"lon":5.3992,"is_reserved":false,"is_disabled":false,"rental_uris":{"android":"levelo://app?vid=f31dbb72-bf54-4cbb-8dd1-b4bc42c07a56","ios":"levelo://app?vid=f31dbb72-bf54-4cbb-8dd1-b4bc42c07a56"},"vehicle_type_id":"4","last_reported":1766264940,"current_range_meters":14400,"station_id":"ce4bhn12rcd13ifvqgqg","pricing_plan_id":"cebpf4jnsgd1na2vs0mg"},{"bike_id":"6547efc2-f028-4fc5-9c25-b87129a94b8a","system_id":"levelo_inurba_marseille","lat":43.24958,"lon":5.40487,"is_reserved":false,"is_disabled":false,"rental_uris":{"android":"levelo://app?vid=6547efc2-f028-4fc5-9c25-b87129a94b8a","ios":"levelo://app?vid=6547efc2-f028-4fc5-9c25-b87129a94b8a"},"vehicle_type_id":"4","last_reported":1766264940,"current_range_meters":14800,"station_id":"st_d2ngiaodas8pm72gd1h0","pricing_plan_id":"cebpf4jnsgd1na2vs0mg"},{"bike_id":"7a2810d9-a7a2-4f55-a626-e3338912c6bf","system_id":"levelo_inurba_marseille","lat":43.337586,"lon":5.3749,"is_reserved":false,"is_disabled":false,"rental_uris":{"android":"levelo://app?vid=7a2810d9-a7a2-4f55-a626-e3338912c6bf","ios":"levelo://app?vid=7a2810d9-a7a2-4f55-a626-e3338912c6bf"},"vehicle_type_id":"4","last_reported":1766264940,"current_range_meters":14800,"station_id":"","pricing_plan_id":"cebpf4jnsgd1na2vs0mg"},{"bike_id":"674911cf-1cfd-40f1-9e5e-f3941e7b6fc6","system_id":"levelo_inurba_marseille","lat":43.337444,"lon":5.374475,"is_reserved":false,"is_disabled":false,"rental_uris":{"android":"levelo://app?vid=674911cf-1cfd-40f1-9e5e-f3941e7b6fc6","ios":"levelo://app?vid=674911cf-1cfd-40f1-9e5e-f3941e7b6fc6"},"vehicle_type_id":"4","last_reported":1766264940,"current_range_meters":14800,"station_id":"","pricing_plan_id":"cebpf4jnsgd1na2vs0mg"},{"bike_id":"6c8e8f42-d745-4468-a186-046bf57622ae","system_id":"levelo_inurba_marseille","lat":43.30216,"lon":5.36436,"is_reserved":false,"is_disabled":false,"rental_uris":{"android":"levelo://app?vid=6c8e8f42-d745-4468-a186-046bf57622ae","ios":"levelo://app?vid=6c8e8f42-d745-4468-a186-046bf57622ae"},"vehicle_type_id":"4","last_reported":1766264940,"current_range_meters":14800,"station_id":"","pricing_plan_id":"cebpf4jnsgd1na2vs0mg"},{"bike_id":"2c46c7a5-389f-47fc-8086-ed2504307f23","system_id":"levelo_inurba_marseille","lat":43.27952,"lon":5.41051,"is_reserved":false,"is_disabled":false,"rental_uris":{"android":"levelo://app?vid=2c46c7a5-389f-47fc-8086-ed2504307f23","ios":"levelo://app?vid=2c46c7a5-389f-47fc-8086-ed2504307f23"},"vehicle_type_id":"4","last_reported":1766264940,"current_range_meters":14800,"station_id":"ce4bhnp2rcd13ifvqh0g","pricing_plan_id":"cebpf4jnsgd1na2vs0mg"},{"bike_id":"c0723a55-d0d0-493e-a4c5-9479bcaeff93","system_id":"levelo_inurba_marseille","lat":43.28475,"lon":5.48378,"is_reserved":false,"is_disabled":false,"rental_uris":{"android":"levelo://app?vid=c0723a55-d0d0-493e-a4c5-9479bcaeff93","ios":"levelo://app?vid=c0723a55-d0d0-493e-a4c5-9479bcaeff93"},"vehicle_type_id":"4","last_reported":1766264940,"current_range_meters":14800,"station_id":"st_d3svhcjqgbts73a3dn0g","pricing_plan_id":"cebpf4jnsgd1na2vs0mg"},{"bike_id":"86bd40dd-851a-468c-8735-7ad7bc2a030d","system_id":"levelo_inurba_marseille","lat":43.29897,"lon":5.38611,"is_reserved":false,"is_disabled":false,"rental_uris":{"android":"levelo://app?vid=86bd40dd-851a-468c-8735-7ad7bc2a030d","ios":"levelo://app?vid=86bd40dd-851a-468c-8735-7ad7bc2a030d"},"vehicle_type_id":"4","last_reported":1766264940,"current_range_meters":14800,"station_id":"","pricing_plan_id":"cebpf4jnsgd1na2vs0mg"},{"bike_id":"81bc56d9-f272-4aad-911d-c681a3d7cfb7","system_id":"levelo_inurba_marseille","lat":43.28363,"lon":5.350018,"is_reserved":false,"is_disabled":false,"rental_uris":{"android":"levelo://app?vid=81bc56d9-f272-4aad-911d-c681a3d7cfb7","ios":"levelo://app?vid=81bc56d9-f272-4aad-911d-c681a3d7cfb7"},"vehicle_type_id":"4","last_reported":1766264940,"current_range_meters":14800,"station_id":"ce4bhbp2rcd13ifvqerg","pricing_plan_id":"cebpf4jnsgd1na2vs0mg"},{"bike_id":"45030eb7-ebe1-45f5-a637-9fc36ad5d96f","system_id":"levelo_inurba_marseille","lat":43.26679,"lon":5.38256,"is_reserved":false,"is_disabled":false,"rental_uris":{"android":"levelo://app?vid=45030eb7-ebe1-45f5-a637-9fc36ad5d96f","ios":"levelo://app?vid=45030eb7-ebe1-45f5-a637-9fc36ad5d96f"},"vehicle_type_id":"4","last_reported":1766264940,"current_range_meters":15200,"station_id":"ce4bhg92rcd13ifvqf90","pricing_plan_id":"cebpf4jnsgd1na2vs0mg"},{"bike_id":"b07e4d74-f66b-44ab-948c-0f49d351d05f","system_id":"levelo_inurba_marseille","lat":43.24628,"lon":5.43144,"is_reserved":false,"is_disabled":false,"rental_uris":{"android":"levelo://app?vid=b07e4d74-f66b-44ab-948c-0f49d351d05f","ios":"levelo://app?vid=b07e4d74-f66b-44ab-948c-0f49d351d05f"},"vehicle_type_id":"4","last_reported":1766264940,"current_range_meters":15200,"station_id":"st_d2m6c4gdas8pm72e190g","pricing_plan_id":"cebpf4jnsgd1na2vs0mg"},{"bike_id":"bfef6781-c6ff-4dab-bab5-e62c0ef633b0","system_id":"levelo_inurba_marseille","lat":43.30872,"lon":5.37185,"is_reserved":false,"is_disabled":false,"rental_uris":{"android":"levelo://app?vid=bfef6781-c6ff-4dab-bab5-e62c0ef633b0","ios":"levelo://app?vid=bfef6781-c6ff-4dab-bab5-e62c0ef633b0"},"vehicle_type_id":"4","last_reported":1766264940,"current_range_meters":15200,"station_id":"ce4bguh2rcd13ifvqckg","pricing_plan_id":"cebpf4jnsgd1na2vs0mg"},{"bike_id":"515b1067-c9f1-499f-828f-2aace95d367e","system_id":"levelo_inurba_marseille","lat":43.270703,"lon":5.422826,"is_reserved":false,"is_disabled":false,"rental_uris":{"android":"levelo://app?vid=515b1067-c9f1-499f-828f-2aace95d367e","ios":"levelo://app?vid=515b1067-c9f1-499f-828f-2aace95d367e"},"vehicle_type_id":"4","last_reported":1766264940,"current_range_meters":15200,"station_id":"ce4bhk92rcd13ifvqgb0","pricing_plan_id":"cebpf4jnsgd1na2vs0mg"},{"bike_id":"5086247d-11ba-46e6-ab2f-482a8af85bcc","system_id":"levelo_inurba_marseille","lat":43.28052,"lon":5.35072,"is_reserved":false,"is_disabled":false,"rental_uris":{"android":"levelo://app?vid=5086247d-11ba-46e6-ab2f-482a8af85bcc","ios":"levelo://app?vid=5086247d-11ba-46e6-ab2f-482a8af85bcc"},"vehicle_type_id":"4","last_reported":1766264940,"current_range_meters":15200,"station_id":"","pricing_plan_id":"cebpf4jnsgd1na2vs0mg"},{"bike_id":"70125e1e-2e2f-4154-aec8-6770631e1df3","system_id":"levelo_inurba_marseille","lat":43.31694,"lon":5.43705,"is_reserved":false,"is_disabled":false,"rental_uris":{"android":"levelo://app?vid=70125e1e-2e2f-4154-aec8-6770631e1df3","ios":"levelo://app?vid=70125e1e-2e2f-4154-aec8-6770631e1df3"},"vehicle_type_id":"4","last_reported":1766264940,"current_range_meters":15200,"station_id":"ce4bhp92rcd13ifvqhcg","pricing_plan_id":"cebpf4jnsgd1na2vs0mg"},{"bike_id":"7779a310-72f4-4850-9ca4-aaa217a589d2","system_id":"levelo_inurba_marseille","lat":43.337444,"lon":5.374475,"is_reserved":false,"is_disabled":false,"rental_uris":{"android":"levelo://app?vid=7779a310-72f4-4850-9ca4-aaa217a589d2","ios":"levelo://app?vid=7779a310-72f4-4850-9ca4-aaa217a589d2"},"vehicle_type_id":"4","last_reported":1766264940,"current_range_meters":15200,"station_id":"","pricing_plan_id":"cebpf4jnsgd1na2vs0mg"},{"bike_id":"83fed173-7580-46e0-b352-0d4e3f32a3b6","system_id":"levelo_inurba_marseille","lat":43.3079,"lon":5.36888,"is_reserved":false,"is_disabled":false,"rental_uris":{"android":"levelo://app?vid=83fed173-7580-46e0-b352-0d4e3f32a3b6","ios":"levelo://app?vid=83fed173-7580-46e0-b352-0d4e3f32a3b6"},"vehicle_type_id":"4","last_reported":1766264940,"current_range_meters":15200,"station_id":"","pricing_plan_id":"cebpf4jnsgd1na2vs0mg"},{"bike_id":"74ccc73c-b6bc-46fc-b8ca-bb71ec1881ea","system_id":"levelo_inurba_marseille","lat":43.26193,"lon":5.37438,"is_reserved":false,"is_disabled":false,"rental_uris":{"android":"levelo://app?vid=74ccc73c-b6bc-46fc-b8ca-bb71ec1881ea","ios":"levelo://app?vid=74ccc73c-b6bc-46fc-b8ca-bb71ec1881ea"},"vehicle_type_id":"4","last_reported":1766264940,"current_range_meters":15200,"station_id":"ce4bhgp2rcd13ifvqfc0","pricing_plan_id":"cebpf4jnsgd1na2vs0mg"},{"bike_id":"e28c1a95-2b8b-49d6-bb4e-2f66c032c7cb","system_id":"levelo_inurba_marseille","lat":43.2901,"lon":5.38136,"is_reserved":false,"is_disabled":false,"rental_uris":{"android":"levelo://app?vid=e28c1a95-2b8b-49d6-bb4e-2f66c032c7cb","ios":"levelo://app?vid=e28c1a95-2b8b-49d6-bb4e-2f66c032c7cb"},"vehicle_type_id":"4","last_reported":1766264940,"current_range_meters":16000,"station_id":"ce4bh4p2rcd13ifvqe1g","pricing_plan_id":"cebpf4jnsgd1na2vs0mg"},{"bike_id":"50e991f6-2d38-438c-8336-363253871f9a","system_id":"levelo_inurba_marseille","lat":43.312777,"lon":5.377608,"is_reserved":false,"is_disabled":false,"rental_uris":{"android":"levelo://app?vid=50e991f6-2d38-438c-8336-363253871f9a","ios":"levelo://app?vid=50e991f6-2d38-438c-8336-363253871f9a"},"vehicle_type_id":"4","last_reported":1766264940,"current_range_meters":16000,"station_id":"","pricing_plan_id":"cebpf4jnsgd1na2vs0mg"},{"bike_id":"92e0f935-b0c4-4bba-aa6f-a16378018aba","system_id":"levelo_inurba_marseille","lat":43.30322,"lon":5.40424,"is_reserved":false,"is_disabled":false,"rental_uris":{"android":"levelo://app?vid=92e0f935-b0c4-4bba-aa6f-a16378018aba","ios":"levelo://app?vid=92e0f935-b0c4-4bba-aa6f-a16378018aba"},"vehicle_type_id":"4","last_reported":1766264940,"current_range_meters":16000,"station_id":"ce4bh012rcd13ifvqd10","pricing_plan_id":"cebpf4jnsgd1na2vs0mg"},{"bike_id":"aa793e20-82db-4f69-a543-1cb9541e1e49","system_id":"levelo_inurba_marseille","lat":43.24543,"lon":5.39524,"is_reserved":false,"is_disabled":false,"rental_uris":{"android":"levelo://app?vid=aa793e20-82db-4f69-a543-1cb9541e1e49","ios":"levelo://app?vid=aa793e20-82db-4f69-a543-1cb9541e1e49"},"vehicle_type_id":"4","last_reported":1766264940,"current_range_meters":16000,"station_id":"ce4bhlp2rcd13ifvqgjg","pricing_plan_id":"cebpf4jnsgd1na2vs0mg"},{"bike_id":"309d3522-48b1-420c-85e4-38546a111063","system_id":"levelo_inurba_marseille","lat":43.30782,"lon":5.38188,"is_reserved":false,"is_disabled":true,"rental_uris":{"android":"levelo://app?vid=309d3522-48b1-420c-85e4-38546a111063","ios":"levelo://app?vid=309d3522-48b1-420c-85e4-38546a111063"},"vehicle_type_id":"4","last_reported":1766264940,"current_range_meters":16000,"station_id":"ce4bgt12rcd13ifvqce0","pricing_plan_id":"cebpf4jnsgd1na2vs0mg"},{"bike_id":"d7ecbadb-8a49-41dd-ba3e-a720de1f5d21","system_id":"levelo_inurba_marseille","lat":43.293682,"lon":5.378352,"is_reserved":false,"is_disabled":false,"rental_uris":{"android":"levelo://app?vid=d7ecbadb-8a49-41dd-ba3e-a720de1f5d21","ios":"levelo://app?vid=d7ecbadb-8a49-41dd-ba3e-a720de1f5d21"},"vehicle_type_id":"4","last_reported":1766264940,"current_range_meters":16000,"station_id":"ce4bgjh2rcd13ifvqbf0","pricing_plan_id":"cebpf4jnsgd1na2vs0mg"},{"bike_id":"6e93bb3f-8639-49ad-a1bd-672303861f12","system_id":"levelo_inurba_marseille","lat":43.23786,"lon":5.36634,"is_reserved":false,"is_disabled":false,"rental_uris":{"android":"levelo://app?vid=6e93bb3f-8639-49ad-a1bd-672303861f12","ios":"levelo://app?vid=6e93bb3f-8639-49ad-a1bd-672303861f12"},"vehicle_type_id":"4","last_reported":1766264940,"current_range_meters":16000,"station_id":"st_d3nk18o9ro0c73en2l3g","pricing_plan_id":"cebpf4jnsgd1na2vs0mg"},{"bike_id":"6cb2ec26-e982-42f0-bb3f-f14852fb7a12","system_id":"levelo_inurba_marseille","lat":43.21188,"lon":5.35074,"is_reserved":false,"is_disabled":false,"rental_uris":{"android":"levelo://app?vid=6cb2ec26-e982-42f0-bb3f-f14852fb7a12","ios":"levelo://app?vid=6cb2ec26-e982-42f0-bb3f-f14852fb7a12"},"vehicle_type_id":"4","last_reported":1766264940,"current_range_meters":16000,"station_id":"st_cvj6sg6p6f1abm77japg","pricing_plan_id":"cebpf4jnsgd1na2vs0mg"},{"bike_id":"1cbde4c5-fa7c-44c3-ad99-3818ee3aa1f8","system_id":"levelo_inurba_marseille","lat":43.24814,"lon":5.37457,"is_reserved":false,"is_disabled":false,"rental_uris":{"android":"levelo://app?vid=1cbde4c5-fa7c-44c3-ad99-3818ee3aa1f8","ios":"levelo://app?vid=1cbde4c5-fa7c-44c3-ad99-3818ee3aa1f8"},"vehicle_type_id":"4","last_reported":1766264940,"current_range_meters":16000,"station_id":"ce4bhgh2rcd13ifvqfb0","pricing_plan_id":"cebpf4jnsgd1na2vs0mg"},{"bike_id":"2c264a92-79b9-4d59-a79b-aab684bda467","system_id":"levelo_inurba_marseille","lat":43.29548,"lon":5.38534,"is_reserved":false,"is_disabled":false,"rental_uris":{"android":"levelo://app?vid=2c264a92-79b9-4d59-a79b-aab684bda467","ios":"levelo://app?vid=2c264a92-79b9-4d59-a79b-aab684bda467"},"vehicle_type_id":"4","last_reported":1766264940,"current_range_meters":16000,"station_id":"ce4bgih2rcd13ifvqba0","pricing_plan_id":"cebpf4jnsgd1na2vs0mg"},{"bike_id":"27891e4a-590f-4d7f-bcc8-98aaaa481c67","system_id":"levelo_inurba_marseille","lat":43.301483,"lon":5.380955,"is_reserved":false,"is_disabled":false,"rental_uris":{"android":"levelo://app?vid=27891e4a-590f-4d7f-bcc8-98aaaa481c67","ios":"levelo://app?vid=27891e4a-590f-4d7f-bcc8-98aaaa481c67"},"vehicle_type_id":"4","last_reported":1766264940,"current_range_meters":16000,"station_id":"","pricing_plan_id":"cebpf4jnsgd1na2vs0mg"},{"bike_id":"6670ebf0-d4f3-491c-9b45-9d960673e300","system_id":"levelo_inurba_marseille","lat":43.29571,"lon":5.37433,"is_reserved":false,"is_disabled":false,"rental_uris":{"android":"levelo://app?vid=6670ebf0-d4f3-491c-9b45-9d960673e300","ios":"levelo://app?vid=6670ebf0-d4f3-491c-9b45-9d960673e300"},"vehicle_type_id":"4","last_reported":1766264940,"current_range_meters":16000,"station_id":"","pricing_plan_id":"cebpf4jnsgd1na2vs0mg"},{"bike_id":"b5a81ca2-8cba-49e4-bb2c-fd3f55667448","system_id":"levelo_inurba_marseille","lat":43.29965,"lon":5.3856,"is_reserved":false,"is_disabled":false,"rental_uris":{"android":"levelo://app?vid=b5a81ca2-8cba-49e4-bb2c-fd3f55667448","ios":"levelo://app?vid=b5a81ca2-8cba-49e4-bb2c-fd3f55667448"},"vehicle_type_id":"4","last_reported":1766264940,"current_range_meters":16000,"station_id":"","pricing_plan_id":"cebpf4jnsgd1na2vs0mg"},{"bike_id":"bd217906-e5bf-44f0-bb95-365f8a696fe5","system_id":"levelo_inurba_marseille","lat":43.28106,"lon":5.37812,"is_reserved":false,"is_disabled":false,"rental_uris":{"android":"levelo://app?vid=bd217906-e5bf-44f0-bb95-365f8a696fe5","ios":"levelo://app?vid=bd217906-e5bf-44f0-bb95-365f8a696fe5"},"vehicle_type_id":"4","last_reported":1766264940,"current_range_meters":16400,"station_id":"ce4bha12rcd13ifvqee0","pricing_plan_id":"cebpf4jnsgd1na2vs0mg"},{"bike_id":"51ea5b17-e3cf-47d8-a8d0-a89ffb4a6928","system_id":"levelo_inurba_marseille","lat":43.26682,"lon":5.38265,"is_reserved":false,"is_disabled":false,"rental_uris":{"android":"levelo://app?vid=51ea5b17-e3cf-47d8-a8d0-a89ffb4a6928","ios":"levelo://app?vid=51ea5b17-e3cf-47d8-a8d0-a89ffb4a6928"},"vehicle_type_id":"4","last_reported":1766264940,"current_range_meters":16400,"station_id":"ce4bhg92rcd13ifvqf90","pricing_plan_id":"cebpf4jnsgd1na2vs0mg"},{"bike_id":"a7f5e564-2da3-4d4c-812e-fef42f417be1","system_id":"levelo_inurba_marseille","lat":43.21197,"lon":5.35072,"is_reserved":false,"is_disabled":false,"rental_uris":{"android":"levelo://app?vid=a7f5e564-2da3-4d4c-812e-fef42f417be1","ios":"levelo://app?vid=a7f5e564-2da3-4d4c-812e-fef42f417be1"},"vehicle_type_id":"4","last_reported":1766264940,"current_range_meters":16400,"station_id":"st_cvj6sg6p6f1abm77japg","pricing_plan_id":"cebpf4jnsgd1na2vs0mg"},{"bike_id":"f60f8344-00ab-4607-bcb1-f56a6aa75d34","system_id":"levelo_inurba_marseille","lat":43.29298,"lon":5.37438,"is_reserved":false,"is_disabled":false,"rental_uris":{"android":"levelo://app?vid=f60f8344-00ab-4607-bcb1-f56a6aa75d34","ios":"levelo://app?vid=f60f8344-00ab-4607-bcb1-f56a6aa75d34"},"vehicle_type_id":"4","last_reported":1766264940,"current_range_meters":16400,"station_id":"ce4bgi12rcd13ifvqb70","pricing_plan_id":"cebpf4jnsgd1na2vs0mg"},{"bike_id":"fb013f92-0f19-4aed-b06a-8f8f12c01541","system_id":"levelo_inurba_marseille","lat":43.27886,"lon":5.37818,"is_reserved":false,"is_disabled":false,"rental_uris":{"android":"levelo://app?vid=fb013f92-0f19-4aed-b06a-8f8f12c01541","ios":"levelo://app?vid=fb013f92-0f19-4aed-b06a-8f8f12c01541"},"vehicle_type_id":"4","last_reported":1766264940,"current_range_meters":16400,"station_id":"","pricing_plan_id":"cebpf4jnsgd1na2vs0mg"},{"bike_id":"3c5d7678-a6b4-4f08-8d63-3149a72a8b72","system_id":"levelo_inurba_marseille","lat":43.29594,"lon":5.37681,"is_reserved":false,"is_disabled":false,"rental_uris":{"android":"levelo://app?vid=3c5d7678-a6b4-4f08-8d63-3149a72a8b72","ios":"levelo://app?vid=3c5d7678-a6b4-4f08-8d63-3149a72a8b72"},"vehicle_type_id":"4","last_reported":1766264940,"current_range_meters":16400,"station_id":"ce4bgi92rcd13ifvqb90","pricing_plan_id":"cebpf4jnsgd1na2vs0mg"},{"bike_id":"dff177be-90f2-4b86-b2b4-4e6401756b69","system_id":"levelo_inurba_marseille","lat":43.30289,"lon":5.36904,"is_reserved":false,"is_disabled":false,"rental_uris":{"android":"levelo://app?vid=dff177be-90f2-4b86-b2b4-4e6401756b69","ios":"levelo://app?vid=dff177be-90f2-4b86-b2b4-4e6401756b69"},"vehicle_type_id":"4","last_reported":1766264940,"current_range_meters":16400,"station_id":"ce4bgqh2rcd13ifvqc5g","pricing_plan_id":"cebpf4jnsgd1na2vs0mg"},{"bike_id":"2222d618-c8ea-4138-addb-8d2109b7e703","system_id":"levelo_inurba_marseille","lat":43.32105,"lon":5.36764,"is_reserved":false,"is_disabled":false,"rental_uris":{"android":"levelo://app?vid=2222d618-c8ea-4138-addb-8d2109b7e703","ios":"levelo://app?vid=2222d618-c8ea-4138-addb-8d2109b7e703"},"vehicle_type_id":"4","last_reported":1766264940,"current_range_meters":16400,"station_id":"ce4bhrh2rcd13ifvqhug","pricing_plan_id":"cebpf4jnsgd1na2vs0mg"},{"bike_id":"f3d87c50-b9fe-49b6-a8fd-e7b9bab8389f","system_id":"levelo_inurba_marseille","lat":43.26194,"lon":5.37435,"is_reserved":false,"is_disabled":false,"rental_uris":{"android":"levelo://app?vid=f3d87c50-b9fe-49b6-a8fd-e7b9bab8389f","ios":"levelo://app?vid=f3d87c50-b9fe-49b6-a8fd-e7b9bab8389f"},"vehicle_type_id":"4","last_reported":1766264940,"current_range_meters":16400,"station_id":"ce4bhgp2rcd13ifvqfc0","pricing_plan_id":"cebpf4jnsgd1na2vs0mg"},{"bike_id":"8ba31c15-1d10-4003-88df-8c9563504b49","system_id":"levelo_inurba_marseille","lat":43.23164,"lon":5.43706,"is_reserved":false,"is_disabled":true,"rental_uris":{"android":"levelo://app?vid=8ba31c15-1d10-4003-88df-8c9563504b49","ios":"levelo://app?vid=8ba31c15-1d10-4003-88df-8c9563504b49"},"vehicle_type_id":"4","last_reported":1766264940,"current_range_meters":16400,"station_id":"ce4bhmp2rcd13ifvqgog","pricing_plan_id":"cebpf4jnsgd1na2vs0mg"},{"bike_id":"82047f2c-bcd9-4a30-9130-942816beee94","system_id":"levelo_inurba_marseille","lat":43.30498,"lon":5.40205,"is_reserved":false,"is_disabled":false,"rental_uris":{"android":"levelo://app?vid=82047f2c-bcd9-4a30-9130-942816beee94","ios":"levelo://app?vid=82047f2c-bcd9-4a30-9130-942816beee94"},"vehicle_type_id":"4","last_reported":1766264940,"current_range_meters":16400,"station_id":"","pricing_plan_id":"cebpf4jnsgd1na2vs0mg"},{"bike_id":"70da76fc-ab09-4547-98e4-ca4d04180e54","system_id":"levelo_inurba_marseille","lat":43.21189,"lon":5.35077,"is_reserved":false,"is_disabled":false,"rental_uris":{"android":"levelo://app?vid=70da76fc-ab09-4547-98e4-ca4d04180e54","ios":"levelo://app?vid=70da76fc-ab09-4547-98e4-ca4d04180e54"},"vehicle_type_id":"4","last_reported":1766264940,"current_range_meters":16400,"station_id":"","pricing_plan_id":"cebpf4jnsgd1na2vs0mg"},{"bike_id":"29e10cc3-d301-4e01-a9ed-da89dea68a61","system_id":"levelo_inurba_marseille","lat":43.293129,"lon":5.371912,"is_reserved":false,"is_disabled":false,"rental_uris":{"android":"levelo://app?vid=29e10cc3-d301-4e01-a9ed-da89dea68a61","ios":"levelo://app?vid=29e10cc3-d301-4e01-a9ed-da89dea68a61"},"vehicle_type_id":"4","last_reported":1766264940,"current_range_meters":16400,"station_id":"ce4bgh92rcd13ifvqb40","pricing_plan_id":"cebpf4jnsgd1na2vs0mg"},{"bike_id":"ef26096b-b73a-40cf-b6be-60ca3412b3f7","system_id":"levelo_inurba_marseille","lat":43.26678,"lon":5.38261,"is_reserved":false,"is_disabled":false,"rental_uris":{"android":"levelo://app?vid=ef26096b-b73a-40cf-b6be-60ca3412b3f7","ios":"levelo://app?vid=ef26096b-b73a-40cf-b6be-60ca3412b3f7"},"vehicle_type_id":"4","last_reported":1766264940,"current_range_meters":16800,"station_id":"ce4bhg92rcd13ifvqf90","pricing_plan_id":"cebpf4jnsgd1na2vs0mg"},{"bike_id":"d07dc22c-a864-4104-81e7-c60339403064","system_id":"levelo_inurba_marseille","lat":43.2986,"lon":5.37891,"is_reserved":false,"is_disabled":false,"rental_uris":{"android":"levelo://app?vid=d07dc22c-a864-4104-81e7-c60339403064","ios":"levelo://app?vid=d07dc22c-a864-4104-81e7-c60339403064"},"vehicle_type_id":"4","last_reported":1766264940,"current_range_meters":16800,"station_id":"","pricing_plan_id":"cebpf4jnsgd1na2vs0mg"},{"bike_id":"07d24866-4176-4d4d-b0a1-808def6d3c19","system_id":"levelo_inurba_marseille","lat":43.296231,"lon":5.37724,"is_reserved":false,"is_disabled":false,"rental_uris":{"android":"levelo://app?vid=07d24866-4176-4d4d-b0a1-808def6d3c19","ios":"levelo://app?vid=07d24866-4176-4d4d-b0a1-808def6d3c19"},"vehicle_type_id":"4","last_reported":1766264940,"current_range_meters":16800,"station_id":"ce4bgi92rcd13ifvqb90","pricing_plan_id":"cebpf4jnsgd1na2vs0mg"},{"bike_id":"99ee623e-1ed3-495d-9b61-e64f7da0e97b","system_id":"levelo_inurba_marseille","lat":43.29686,"lon":5.37724,"is_reserved":false,"is_disabled":false,"rental_uris":{"android":"levelo://app?vid=99ee623e-1ed3-495d-9b61-e64f7da0e97b","ios":"levelo://app?vid=99ee623e-1ed3-495d-9b61-e64f7da0e97b"},"vehicle_type_id":"4","last_reported":1766264940,"current_range_meters":16800,"station_id":"ce4bgkh2rcd13ifvqbl0","pricing_plan_id":"cebpf4jnsgd1na2vs0mg"},{"bike_id":"80e5704f-ad4a-47fa-8434-b81adbddb3a7","system_id":"levelo_inurba_marseille","lat":43.27955,"lon":5.41038,"is_reserved":false,"is_disabled":true,"rental_uris":{"android":"levelo://app?vid=80e5704f-ad4a-47fa-8434-b81adbddb3a7","ios":"levelo://app?vid=80e5704f-ad4a-47fa-8434-b81adbddb3a7"},"vehicle_type_id":"4","last_reported":1766264940,"current_range_meters":16800,"station_id":"ce4bhnp2rcd13ifvqh0g","pricing_plan_id":"cebpf4jnsgd1na2vs0mg"},{"bike_id":"84706bb4-c72f-4577-a7d9-07ec2707a2c7","system_id":"levelo_inurba_marseille","lat":43.29599,"lon":5.37701,"is_reserved":false,"is_disabled":false,"rental_uris":{"android":"levelo://app?vid=84706bb4-c72f-4577-a7d9-07ec2707a2c7","ios":"levelo://app?vid=84706bb4-c72f-4577-a7d9-07ec2707a2c7"},"vehicle_type_id":"4","last_reported":1766264940,"current_range_meters":16800,"station_id":"ce4bgi92rcd13ifvqb90","pricing_plan_id":"cebpf4jnsgd1na2vs0mg"},{"bike_id":"67bf8f90-a5df-42e7-b267-9ae66edff758","system_id":"levelo_inurba_marseille","lat":43.30611,"lon":5.37611,"is_reserved":false,"is_disabled":false,"rental_uris":{"android":"levelo://app?vid=67bf8f90-a5df-42e7-b267-9ae66edff758","ios":"levelo://app?vid=67bf8f90-a5df-42e7-b267-9ae66edff758"},"vehicle_type_id":"4","last_reported":1766264940,"current_range_meters":16800,"station_id":"","pricing_plan_id":"cebpf4jnsgd1na2vs0mg"},{"bike_id":"9af2ac6d-d85c-4788-bf06-adad39a822f2","system_id":"levelo_inurba_marseille","lat":43.31701,"lon":5.437,"is_reserved":false,"is_disabled":false,"rental_uris":{"android":"levelo://app?vid=9af2ac6d-d85c-4788-bf06-adad39a822f2","ios":"levelo://app?vid=9af2ac6d-d85c-4788-bf06-adad39a822f2"},"vehicle_type_id":"4","last_reported":1766264940,"current_range_meters":16800,"station_id":"ce4bhp92rcd13ifvqhcg","pricing_plan_id":"cebpf4jnsgd1na2vs0mg"},{"bike_id":"109b8e86-dbd0-4cb2-9e46-968fb351f1a4","system_id":"levelo_inurba_marseille","lat":43.29274,"lon":5.38446,"is_reserved":false,"is_disabled":false,"rental_uris":{"android":"levelo://app?vid=109b8e86-dbd0-4cb2-9e46-968fb351f1a4","ios":"levelo://app?vid=109b8e86-dbd0-4cb2-9e46-968fb351f1a4"},"vehicle_type_id":"4","last_reported":1766264940,"current_range_meters":16800,"station_id":"ce4bh692rcd13ifvqea0","pricing_plan_id":"cebpf4jnsgd1na2vs0mg"},{"bike_id":"3229e168-65a5-4987-8699-8239178f016c","system_id":"levelo_inurba_marseille","lat":43.29061,"lon":5.37161,"is_reserved":false,"is_disabled":false,"rental_uris":{"android":"levelo://app?vid=3229e168-65a5-4987-8699-8239178f016c","ios":"levelo://app?vid=3229e168-65a5-4987-8699-8239178f016c"},"vehicle_type_id":"4","last_reported":1766264940,"current_range_meters":16800,"station_id":"ce4bh5p2rcd13ifvqe4g","pricing_plan_id":"cebpf4jnsgd1na2vs0mg"},{"bike_id":"3b2555e2-d9a7-47a5-acd6-22fcfa2900ff","system_id":"levelo_inurba_marseille","lat":43.2939,"lon":5.3754,"is_reserved":false,"is_disabled":false,"rental_uris":{"android":"levelo://app?vid=3b2555e2-d9a7-47a5-acd6-22fcfa2900ff","ios":"levelo://app?vid=3b2555e2-d9a7-47a5-acd6-22fcfa2900ff"},"vehicle_type_id":"4","last_reported":1766264940,"current_range_meters":16800,"station_id":"","pricing_plan_id":"cebpf4jnsgd1na2vs0mg"},