{"last_updated":1773228300,"ttl":60,"version":"2.2","data":{"bikes":[{"bike_id":"08c06ba4-3c46-4749-a4fd-be6c2bcdb1d3","system_id":"levelo_inurba_marseille","lat":43.29705,"lon":5.377,"is_reserved":false,"is_disabled":false,"rental_uris":{"android":"levelo://app?vid=08c06ba4-3c46-4749-a4fd-be6c2bcdb1d3","ios":"levelo://app?vid=08c06ba4-3c46-4749-a4fd-be6c2bcdb1d3"},"vehicle_type_id":"4","last_reported":1773228301,"current_range_meters":28400,"station_id":"ce4bgkh2rcd13ifvqbl0","pricing_plan_id":"cebpf4jnsgd1na2vs0mg"},{"bike_id":"ead3593f-fa2e-4a2b-924f-b78da0a491ce","system_id":"levelo_inurba_marseille","lat":43.30149,"lon":5.37412,"is_reserved":false,"is_disabled":false,"rental_uris":{"android":"levelo://app?vid=ead3593f-fa2e-4a2b-924f-b78da0a491ce","ios":"levelo://app?vid=ead3593f-fa2e-4a2b-924f-b78da0a491ce"},"vehicle_type_id":"4","last_reported":1773228301,"current_range_meters":39200,"station_id":"ce4bgs92rcd13ifvqcc0","pricing_plan_id":"cebpf4jnsgd1na2vs0mg"},{"bike_id":"3dec1967-a2d4-4b31-91e4-8f35aaaccd28","system_id":"levelo_inurba_marseille","lat":43.3088,"lon":5.36894,"is_reserved":false,"is_disabled":false,"rental_uris":{"android":"levelo://app?vid=3dec1967-a2d4-4b31-91e4-8f35aaaccd28","ios":"levelo://app?vid=3dec1967-a2d4-4b31-91e4-8f35aaaccd28"},"vehicle_type_id":"4","last_reported":1773228301,"current_range_meters":38800,"station_id":"ce4bgn92rcd13ifvqbvg","pricing_plan_id":"cebpf4jnsgd1na2vs0mg"},{"bike_id":"63c001da-87ad-4674-b58a-9985da9b1420","system_id":"levelo_inurba_marseille","lat":43.30509,"lon":5.36504,"is_reserved":false,"is_disabled":false,"rental_uris":{"android":"levelo://app?vid=63c001da-87ad-4674-b58a-9985da9b1420","ios":"levelo://app?vid=63c001da-87ad-4674-b58a-9985da9b1420"},"vehicle_type_id":"4","last_reported":1773228301,"current_range_meters":24000,"station_id":"","pricing_plan_id":"cebpf4jnsgd1na2vs0mg"},{"bike_id":"b57eaa1e-92fe-4d82-96f3-b9712112bf8e","system_id":"levelo_inurba_marseille","lat":43.29614,"lon":5.37698,"is_reserved":false,"is_disabled":false,"rental_uris":{"android":"levelo://app?vid=b57eaa1e-92fe-4d82-96f3-b9712112bf8e","ios":"levelo://app?vid=b57eaa1e-92fe-4d82-96f3-b9712112bf8e"},"vehicle_type_id":"4","last_reported":1773228301,"current_range_meters":35600,"station_id":"ce4bgi92rcd13ifvqb90","pricing_plan_id":"cebpf4jnsgd1na2vs0mg"},{"bike_id":"ccc1cd5b-0d83-4be5-bc94-8798d4c7b6ab","system_id":"levelo_inurba_marseille","lat":43.30563,"lon":5.36533,"is_reserved":false,"is_disabled":false,"rental_uris":{"android":"levelo://app?vid=ccc1cd5b-0d83-4be5-bc94-8798d4c7b6ab","ios":"levelo://app?vid=ccc1cd5b-0d83-4be5-bc94-8798d4c7b6ab"},"vehicle_type_id":"4","last_reported":1773228301,"current_range_meters":10000,"station_id":"ce4bgs12rcd13ifvqcag","pricing_plan_id":"cebpf4jnsgd1na2vs0mg"},{"bike_id":"beb344ca-4534-4ba9-9c05-5bf124c258c5","system_id":"levelo_inurba_marseille","lat":43.29277,"lon":5.40108,"is_reserved":false,"is_disabled":false,"rental_uris":{"android":"levelo://app?vid=beb344ca-4534-4ba9-9c05-5bf124c258c5","ios":"levelo://app?vid=beb344ca-4534-4ba9-9c05-5bf124c258c5"},"vehicle_type_id":"4","last_reported":1773228301,"current_range_meters":12400,"station_id":"ce4bh312rcd13ifvqdk0","pricing_plan_id":"cebpf4jnsgd1na2vs0mg"},{"bike_id":"42e10ec5-887c-403e-bb2a-345f5f4847db","system_id":"levelo_inurba_marseille","lat":43.25014,"lon":5.38928,"is_reserved":false,"is_disabled":false,"rental_uris":{"android":"levelo://app?vid=42e10ec5-887c-403e-bb2a-345f5f4847db","ios":"levelo://app?vid=42e10ec5-887c-403e-bb2a-345f5f4847db"},"vehicle_type_id":"4","last_reported":1773228301,"current_range_meters":34000,"station_id":"ce4bhgp2rcd13ifvqfd0","pricing_plan_id":"cebpf4jnsgd1na2vs0mg"},{"bike_id":"5061e64b-7a6f-416d-95f6-434ea56b6a99","system_id":"levelo_inurba_marseille","lat":43.3464,"lon":5.36722,"is_reserved":false,"is_disabled":false,"rental_uris":{"android":"levelo://app?vid=5061e64b-7a6f-416d-95f6-434ea56b6a99","ios":"levelo://app?vid=5061e64b-7a6f-416d-95f6-434ea56b6a99"},"vehicle_type_id":"4","last_reported":1773228301,"current_range_meters":30000,"station_id":"","pricing_plan_id":"cebpf4jnsgd1na2vs0mg"},{"bike_id":"2e0998c3-285b-4a51-9d8a-491c28e4b524","system_id":"levelo_inurba_marseille","lat":43.27812,"lon":5.4072,"is_reserved":false,"is_disabled":true,"rental_uris":{"android":"levelo://app?vid=2e0998c3-285b-4a51-9d8a-491c28e4b524","ios":"levelo://app?vid=2e0998c3-285b-4a51-9d8a-491c28e4b524"},"vehicle_type_id":"4","last_reported":1773228301,"current_range_meters":30400,"station_id":"ce4bhnh2rcd13ifvqgtg","pricing_plan_id":"cebpf4jnsgd1na2vs0mg"},{"bike_id":"9faea34b-1c48-4a1b-8f51-2bafe5184a50","system_id":"levelo_inurba_marseille","lat":43.28473,"lon":5.48406,"is_reserved":false,"is_disabled":false,"rental_uris":{"android":"levelo://app?vid=9faea34b-1c48-4a1b-8f51-2bafe5184a50","ios":"levelo://app?vid=9faea34b-1c48-4a1b-8f51-2bafe5184a50"},"vehicle_type_id":"4","last_reported":1773228301,"current_range_meters":35200,"station_id":"st_d3svhcjqgbts73a3dn0g","pricing_plan_id":"cebpf4jnsgd1na2vs0mg"},{"bike_id":"d427d34d-e739-4c0f-a843-74b85111544b","system_id":"levelo_inurba_marseille","lat":43.33159,"lon":5.37692,"is_reserved":false,"is_disabled":false,"rental_uris":{"android":"levelo://app?vid=d427d34d-e739-4c0f-a843-74b85111544b","ios":"levelo://app?vid=d427d34d-e739-4c0f-a843-74b85111544b"},"vehicle_type_id":"4","last_reported":1773228301,"current_range_meters":28000,"station_id":"st_d46cu089ee8s73dldbu0","pricing_plan_id":"cebpf4jnsgd1na2vs0mg"},{"bike_id":"29c38e6f-ac96-4686-bbb6-b5b4d61fc6ca","system_id":"levelo_inurba_marseille","lat":43.2936,"lon":5.37851,"is_reserved":false,"is_disabled":false,"rental_uris":{"android":"levelo://app?vid=29c38e6f-ac96-4686-bbb6-b5b4d61fc6ca","ios":"levelo://app?vid=29c38e6f-ac96-4686-bbb6-b5b4d61fc6ca"},"vehicle_type_id":"4","last_reported":1773228301,"current_range_meters":20000,"station_id":"ce4bgjh2rcd13ifvqbf0","pricing_plan_id":"cebpf4jnsgd1na2vs0mg"},{"bike_id":"c943c8f2-fd97-497f-b02c-47e60712859d","system_id":"levelo_inurba_marseille","lat":43.25827,"lon":5.39434,"is_reserved":false,"is_disabled":false,"rental_uris":{"android":"levelo://app?vid=c943c8f2-fd97-497f-b02c-47e60712859d","ios":"levelo://app?vid=c943c8f2-fd97-497f-b02c-47e60712859d"},"vehicle_type_id":"4","last_reported":1773228301,"current_range_meters":27600,"station_id":"ce4bhip2rcd13ifvqft0","pricing_plan_id":"cebpf4jnsgd1na2vs0mg"},{"bike_id":"fbf9381a-109c-4c90-8318-1ee8539cbd40","system_id":"levelo_inurba_marseille","lat":43.30321,"lon":5.36887,"is_reserved":false,"is_disabled":false,"rental_uris":{"android":"levelo://app?vid=fbf9381a-109c-4c90-8318-1ee8539cbd40","ios":"levelo://app?vid=fbf9381a-109c-4c90-8318-1ee8539cbd40"},"vehicle_type_id":"4","last_reported":1773228301,"current_range_meters":38400,"station_id":"ce4bgqh2rcd13ifvqc5g","pricing_plan_id":"cebpf4jnsgd1na2vs0mg"},{"bike_id":"4eea0efe-f6a6-4276-a933-ded02f6a7c75","system_id":"levelo_inurba_marseille","lat":43.296,"lon":5.37727,"is_reserved":false,"is_disabled":false,"rental_uris":{"android":"levelo://app?vid=4eea0efe-f6a6-4276-a933-ded02f6a7c75","ios":"levelo://app?vid=4eea0efe-f6a6-4276-a933-ded02f6a7c75"},"vehicle_type_id":"4","last_reported":1773228301,"current_range_meters":22000,"station_id":"ce4bgi92rcd13ifvqb90","pricing_plan_id":"cebpf4jnsgd1na2vs0mg"},{"bike_id":"4be35303-a285-477a-a9f7-112d75dc7eb6","system_id":"levelo_inurba_marseille","lat":43.30941,"lon":5.3905,"is_reserved":false,"is_disabled":false,"rental_uris":{"android":"levelo://app?vid=4be35303-a285-477a-a9f7-112d75dc7eb6","ios":"levelo://app?vid=4be35303-a285-477a-a9f7-112d75dc7eb6"},"vehicle_type_id":"4","last_reported":1773228301,"current_range_meters":40000,"station_id":"ce4bgup2rcd13ifvqco0","pricing_plan_id":"cebpf4jnsgd1na2vs0mg"},{"bike_id":"5a975b1d-0596-4736-ac6b-10af6b3b727f","system_id":"levelo_inurba_marseille","lat":43.296001,"lon":5.380997,"is_reserved":false,"is_disabled":false,"rental_uris":{"android":"levelo://app?vid=5a975b1d-0596-4736-ac6b-10af6b3b727f","ios":"levelo://app?vid=5a975b1d-0596-4736-ac6b-10af6b3b727f"},"vehicle_type_id":"4","last_reported":1773228301,"current_range_meters":21600,"station_id":"ce4bgl12rcd13ifvqbo0","pricing_plan_id":"cebpf4jnsgd1na2vs0mg"},{"bike_id":"37990a43-0b9b-4fbc-a153-ce5d4e78025e","system_id":"levelo_inurba_marseille","lat":43.28226,"lon":5.3907,"is_reserved":false,"is_disabled":false,"rental_uris":{"android":"levelo://app?vid=37990a43-0b9b-4fbc-a153-ce5d4e78025e","ios":"levelo://app?vid=37990a43-0b9b-4fbc-a153-ce5d4e78025e"},"vehicle_type_id":"4","last_reported":1773228301,"current_range_meters":28800,"station_id":"ce4bhn92rcd13ifvqgsg","pricing_plan_id":"cebpf4jnsgd1na2vs0mg"},{"bike_id":"145be154-1961-4507-9feb-83f30ea10cc5","system_id":"levelo_inurba_marseille","lat":43.31535,"lon":5.38027,"is_reserved":false,"is_disabled":false,"rental_uris":{"android":"levelo://app?vid=145be154-1961-4507-9feb-83f30ea10cc5","ios":"levelo://app?vid=145be154-1961-4507-9feb-83f30ea10cc5"},"vehicle_type_id":"4","last_reported":1773228301,"current_range_meters":40000,"station_id":"ce4bhsp2rcd13ifvqi50","pricing_plan_id":"cebpf4jnsgd1na2vs0mg"},{"bike_id":"f18a97ed-e43a-4a4a-9a1c-f27f3fa368f5","system_id":"levelo_inurba_marseille","lat":43.27949,"lon":5.41047,"is_reserved":false,"is_disabled":false,"rental_uris":{"android":"levelo://app?vid=f18a97ed-e43a-4a4a-9a1c-f27f3fa368f5","ios":"levelo://app?vid=f18a97ed-e43a-4a4a-9a1c-f27f3fa368f5"},"vehicle_type_id":"4","last_reported":1773228301,"current_range_meters":22400,"station_id":"ce4bhnp2rcd13ifvqh0g","pricing_plan_id":"cebpf4jnsgd1na2vs0mg"},{"bike_id":"66796482-b4de-4f94-b605-12681c60b721","system_id":"levelo_inurba_marseille","lat":43.32449,"lon":5.41522,"is_reserved":false,"is_disabled":true,"rental_uris":{"android":"levelo://app?vid=66796482-b4de-4f94-b605-12681c60b721","ios":"levelo://app?vid=66796482-b4de-4f94-b605-12681c60b721"},"vehicle_type_id":"4","last_reported":1773228301,"current_range_meters":1600,"station_id":"","pricing_plan_id":"cebpf4jnsgd1na2vs0mg"},{"bike_id":"2ae42dd6-1c2d-422f-b349-05cc8dc2420e","system_id":"levelo_inurba_marseille","lat":43.25004,"lon":5.38929,"is_reserved":false,"is_disabled":false,"rental_uris":{"android":"levelo://app?vid=2ae42dd6-1c2d-422f-b349-05cc8dc2420e","ios":"levelo://app?vid=2ae42dd6-1c2d-422f-b349-05cc8dc2420e"},"vehicle_type_id":"4","last_reported":1773228301,"current_range_meters":36400,"station_id":"ce4bhgp2rcd13ifvqfd0","pricing_plan_id":"cebpf4jnsgd1na2vs0mg"},{"bike_id":"a63517d9-4acf-454c-8ecb-261b0e42bb01","system_id":"levelo_inurba_marseille","lat":43.30311,"lon":5.36897,"is_reserved":false,"is_disabled":false,"rental_uris":{"android":"levelo://app?vid=a63517d9-4acf-454c-8ecb-261b0e42bb01","ios":"levelo://app?vid=a63517d9-4acf-454c-8ecb-261b0e42bb01"},"vehicle_type_id":"4","last_reported":1773228301,"current_range_meters":40000,"station_id":"ce4bgqh2rcd13ifvqc5g","pricing_plan_id":"cebpf4jnsgd1na2vs0mg"},{"bike_id":"03779cd2-135d-4261-a819-cde0347bc271","system_id":"levelo_inurba_marseille","lat":43.29523,"lon":5.3938,"is_reserved":false,"is_disabled":false,"rental_uris":{"android":"levelo://app?vid=03779cd2-135d-4261-a819-cde0347bc271","ios":"levelo://app?vid=03779cd2-135d-4261-a819-cde0347bc271"},"vehicle_type_id":"4","last_reported":1773228301,"current_range_meters":32000,"station_id":"ce4bh292rcd13ifvqdf0","pricing_plan_id":"cebpf4jnsgd1na2vs0mg"},{"bike_id":"4035076b-e1f7-4550-ba18-40b5d2e4f17a","system_id":"levelo_inurba_marseille","lat":43.33761,"lon":5.37469,"is_reserved":false,"is_disabled":false,"rental_uris":{"android":"levelo://app?vid=4035076b-e1f7-4550-ba18-40b5d2e4f17a","ios":"levelo://app?vid=4035076b-e1f7-4550-ba18-40b5d2e4f17a"},"vehicle_type_id":"4","last_reported":1773228301,"current_range_meters":8400,"station_id":"","pricing_plan_id":"cebpf4jnsgd1na2vs0mg"},{"bike_id":"2903fad4-26af-4987-ab87-4fbdb3f77c6e","system_id":"levelo_inurba_marseille","lat":43.24999,"lon":5.38922,"is_reserved":false,"is_disabled":false,"rental_uris":{"android":"levelo://app?vid=2903fad4-26af-4987-ab87-4fbdb3f77c6e","ios":"levelo://app?vid=2903fad4-26af-4987-ab87-4fbdb3f77c6e"},"vehicle_type_id":"4","last_reported":1773228301,"current_range_meters":34800,"station_id":"ce4bhgp2rcd13ifvqfd0","pricing_plan_id":"cebpf4jnsgd1na2vs0mg"},{"bike_id":"b7ec09dc-5e62-4b1d-ae66-6fe915e9e9a7","system_id":"levelo_inurba_marseille","lat":43.29269,"lon":5.36844,"is_reserved":false,"is_disabled":false,"rental_uris":{"android":"levelo://app?vid=b7ec09dc-5e62-4b1d-ae66-6fe915e9e9a7","ios":"levelo://app?vid=b7ec09dc-5e62-4b1d-ae66-6fe915e9e9a7"},"vehicle_type_id":"4","last_reported":1773228301,"current_range_meters":24000,"station_id":"ce4bhbp2rcd13ifvqesg","pricing_plan_id":"cebpf4jnsgd1na2vs0mg"},{"bike_id":"677b9231-f9df-4822-aa20-44127fc76e19","system_id":"levelo_inurba_marseille","lat":43.28729,"lon":5.36089,"is_reserved":false,"is_disabled":false,"rental_uris":{"android":"levelo://app?vid=677b9231-f9df-4822-aa20-44127fc76e19","ios":"levelo://app?vid=677b9231-f9df-4822-aa20-44127fc76e19"},"vehicle_type_id":"4","last_reported":1773228301,"current_range_meters":37600,"station_id":"cki0cbj6b192h4jlfktg","pricing_plan_id":"cebpf4jnsgd1na2vs0mg"},{"bike_id":"94ecc346-3888-4801-96b7-afa97a11f6a0","system_id":"levelo_inurba_marseille","lat":43.24554,"lon":5.39509,"is_reserved":false,"is_disabled":false,"rental_uris":{"android":"levelo://app?vid=94ecc346-3888-4801-96b7-afa97a11f6a0","ios":"levelo://app?vid=94ecc346-3888-4801-96b7-afa97a11f6a0"},"vehicle_type_id":"4","last_reported":1773228301,"current_range_meters":22000,"station_id":"ce4bhlp2rcd13ifvqgjg","pricing_plan_id":"cebpf4jnsgd1na2vs0mg"},{"bike_id":"2149ac68-c5e2-4713-981d-84e5714f9018","system_id":"levelo_inurba_marseille","lat":43.275125,"lon":5.415818,"is_reserved":false,"is_disabled":false,"rental_uris":{"android":"levelo://app?vid=2149ac68-c5e2-4713-981d-84e5714f9018","ios":"levelo://app?vid=2149ac68-c5e2-4713-981d-84e5714f9018"},"vehicle_type_id":"4","last_reported":1773228301,"current_range_meters":38800,"station_id":"st_d6im8g6chgec73a5pndg","pricing_plan_id":"cebpf4jnsgd1na2vs0mg"},{"bike_id":"3a993606-eb1a-49ad-8c38-bbbf6b12074b","system_id":"levelo_inurba_marseille","lat":43.2953,"lon":5.37511,"is_reserved":false,"is_disabled":false,"rental_uris":{"android":"levelo://app?vid=3a993606-eb1a-49ad-8c38-bbbf6b12074b","ios":"levelo://app?vid=3a993606-eb1a-49ad-8c38-bbbf6b12074b"},"vehicle_type_id":"4","last_reported":1773228301,"current_range_meters":39200,"station_id":"ce4bgkp2rcd13ifvqbmg","pricing_plan_id":"cebpf4jnsgd1na2vs0mg"},{"bike_id":"faa6004d-cd41-4008-8bcc-b182163123b5","system_id":"levelo_inurba_marseille","lat":43.24156,"lon":5.36396,"is_reserved":false,"is_disabled":false,"rental_uris":{"android":"levelo://app?vid=faa6004d-cd41-4008-8bcc-b182163123b5","ios":"levelo://app?vid=faa6004d-cd41-4008-8bcc-b182163123b5"},"vehicle_type_id":"4","last_reported":1773228301,"current_range_meters":12000,"station_id":"cpo36qri1sfpv3e86is0","pricing_plan_id":"cebpf4jnsgd1na2vs0mg"},{"bike_id":"643a041d-3faf-4dc4-a3ad-d2cb17d6236c","system_id":"levelo_inurba_marseille","lat":43.29925,"lon":5.3748,"is_reserved":false,"is_disabled":false,"rental_uris":{"android":"levelo://app?vid=643a041d-3faf-4dc4-a3ad-d2cb17d6236c","ios":"levelo://app?vid=643a041d-3faf-4dc4-a3ad-d2cb17d6236c"},"vehicle_type_id":"4","last_reported":1773228301,"current_range_meters":37600,"station_id":"ce4bgjh2rcd13ifvqbg0","pricing_plan_id":"cebpf4jnsgd1na2vs0mg"},{"bike_id":"b341e72d-5fce-4c51-b215-6aa24a52f35b","system_id":"levelo_inurba_marseille","lat":43.29713,"lon":5.37266,"is_reserved":false,"is_disabled":false,"rental_uris":{"android":"levelo://app?vid=b341e72d-5fce-4c51-b215-6aa24a52f35b","ios":"levelo://app?vid=b341e72d-5fce-4c51-b215-6aa24a52f35b"},"vehicle_type_id":"4","last_reported":1773228301,"current_range_meters":12400,"station_id":"ce4bgk12rcd13ifvqbj0","pricing_plan_id":"cebpf4jnsgd1na2vs0mg"},{"bike_id":"a98a2ffa-f3fb-4c8b-86b7-609f1d5345a7","system_id":"levelo_inurba_marseille","lat":43.30311,"lon":5.36876,"is_reserved":false,"is_disabled":false,"rental_uris":{"android":"levelo://app?vid=a98a2ffa-f3fb-4c8b-86b7-609f1d5345a7","ios":"levelo://app?vid=a98a2ffa-f3fb-4c8b-86b7-609f1d5345a7"},"vehicle_type_id":"4","last_reported":1773228301,"current_range_meters":29600,"station_id":"ce4bgqh2rcd13ifvqc5g","pricing_plan_id":"cebpf4jnsgd1na2vs0mg"},{"bike_id":"72be02f2-0c45-414e-9863-fbd32e0bd8df","system_id":"levelo_inurba_marseille","lat":43.29712,"lon":5.37703,"is_reserved":false,"is_disabled":false,"rental_uris":{"android":"levelo://app?vid=72be02f2-0c45-414e-9863-fbd32e0bd8df","ios":"levelo://app?vid=72be02f2-0c45-414e-9863-fbd32e0bd8df"},"vehicle_type_id":"4","last_reported":1773228301,"current_range_meters":35200,"station_id":"ce4bgkh2rcd13ifvqbl0","pricing_plan_id":"cebpf4jnsgd1na2vs0mg"},{"bike_id":"17ce7070-d813-4eaf-a544-6259968aa271","system_id":"levelo_inurba_marseille","lat":43.3111,"lon":5.36903,"is_reserved":false,"is_disabled":false,"rental_uris":{"android":"levelo://app?vid=17ce7070-d813-4eaf-a544-6259968aa271","ios":"levelo://app?vid=17ce7070-d813-4eaf-a544-6259968aa271"},"vehicle_type_id":"4","last_reported":1773228301,"current_range_meters":8800,"station_id":"","pricing_plan_id":"cebpf4jnsgd1na2vs0mg"},{"bike_id":"bd397dac-97a0-4bb3-82c1-a84a04fd6c02","system_id":"levelo_inurba_marseille","lat":43.27151,"lon":5.39124,"is_reserved":false,"is_disabled":false,"rental_uris":{"android":"levelo://app?vid=bd397dac-97a0-4bb3-82c1-a84a04fd6c02","ios":"levelo://app?vid=bd397dac-97a0-4bb3-82c1-a84a04fd6c02"},"vehicle_type_id":"4","last_reported":1773228301,"current_range_meters":36400,"station_id":"","pricing_plan_id":"cebpf4jnsgd1na2vs0mg"},{"bike_id":"84edac93-97f0-4f16-980c-7e1b057bc44a","system_id":"levelo_inurba_marseille","lat":43.25834,"lon":5.3943,"is_reserved":false,"is_disabled":false,"rental_uris":{"android":"levelo://app?vid=84edac93-97f0-4f16-980c-7e1b057bc44a","ios":"levelo://app?vid=84edac93-97f0-4f16-980c-7e1b057bc44a"},"vehicle_type_id":"4","last_reported":1773228301,"current_range_meters":26800,"station_id":"ce4bhip2rcd13ifvqft0","pricing_plan_id":"cebpf4jnsgd1na2vs0mg"},{"bike_id":"16ced00d-b75b-480f-bfe3-587817c52078","system_id":"levelo_inurba_marseille","lat":43.24651,"lon":5.38899,"is_reserved":false,"is_disabled":false,"rental_uris":{"android":"levelo://app?vid=16ced00d-b75b-480f-bfe3-587817c52078","ios":"levelo://app?vid=16ced00d-b75b-480f-bfe3-587817c52078"},"vehicle_type_id":"4","last_reported":1773228301,"current_range_meters":38400,"station_id":"ce4bhg12rcd13ifvqf60","pricing_plan_id":"cebpf4jnsgd1na2vs0mg"},{"bike_id":"095740f3-4e12-4adb-8a1a-03aa33c9cd08","system_id":"levelo_inurba_marseille","lat":43.26553,"lon":5.37291,"is_reserved":false,"is_disabled":false,"rental_uris":{"android":"levelo://app?vid=095740f3-4e12-4adb-8a1a-03aa33c9cd08","ios":"levelo://app?vid=095740f3-4e12-4adb-8a1a-03aa33c9cd08"},"vehicle_type_id":"4","last_reported":1773228301,"current_range_meters":13600,"station_id":"ce4bhg12rcd13ifvqf70","pricing_plan_id":"cebpf4jnsgd1na2vs0mg"},{"bike_id":"07d667a1-20cd-44c6-a08f-d51c851309d8","system_id":"levelo_inurba_marseille","lat":43.29777,"lon":5.37109,"is_reserved":false,"is_disabled":false,"rental_uris":{"android":"levelo://app?vid=07d667a1-20cd-44c6-a08f-d51c851309d8","ios":"levelo://app?vid=07d667a1-20cd-44c6-a08f-d51c851309d8"},"vehicle_type_id":"4","last_reported":1773228301,"current_range_meters":25600,"station_id":"ce4bgop2rcd13ifvqc1g","pricing_plan_id":"cebpf4jnsgd1na2vs0mg"},{"bike_id":"566d1d1a-0852-4e0d-907b-e1334e0d6bf9","system_id":"levelo_inurba_marseille","lat":43.23791,"lon":5.36651,"is_reserved":false,"is_disabled":false,"rental_uris":{"android":"levelo://app?vid=566d1d1a-0852-4e0d-907b-e1334e0d6bf9","ios":"levelo://app?vid=566d1d1a-0852-4e0d-907b-e1334e0d6bf9"},"vehicle_type_id":"4","last_reported":1773228301,"current_range_meters":14800,"station_id":"st_d3nk18o9ro0c73en2l3g","pricing_plan_id":"cebpf4jnsgd1na2vs0mg"},{"bike_id":"ba4d6291-f191-48b7-a6a8-ceee01b66f96","system_id":"levelo_inurba_marseille","lat":43.28133,"lon":5.38219,"is_reserved":false,"is_disabled":false,"rental_uris":{"android":"levelo://app?vid=ba4d6291-f191-48b7-a6a8-ceee01b66f96","ios":"levelo://app?vid=ba4d6291-f191-48b7-a6a8-ceee01b66f96"},"vehicle_type_id":"4","last_reported":1773228301,"current_range_meters":22000,"station_id":"","pricing_plan_id":"cebpf4jnsgd1na2vs0mg"},{"bike_id":"dd6d12c4-c00c-4021-839a-f38c2ba6c7b9","system_id":"levelo_inurba_marseille","lat":43.27195,"lon":5.39197,"is_reserved":false,"is_disabled":false,"rental_uris":{"android":"levelo://app?vid=dd6d12c4-c00c-4021-839a-f38c2ba6c7b9","ios":"levelo://app?vid=dd6d12c4-c00c-4021-839a-f38c2ba6c7b9"},"vehicle_type_id":"4","last_reported":1773228301,"current_range_meters":39200,"station_id":"ce4bhhp2rcd13ifvqfm0","pricing_plan_id":"cebpf4jnsgd1na2vs0mg"},{"bike_id":"1c573354-cf53-44d3-9111-eb37080df88e","system_id":"levelo_inurba_marseille","lat":43.31579,"lon":5.37309,"is_reserved":false,"is_disabled":false,"rental_uris":{"android":"levelo://app?vid=1c573354-cf53-44d3-9111-eb37080df88e","ios":"levelo://app?vid=1c573354-cf53-44d3-9111-eb37080df88e"},"vehicle_type_id":"4","last_reported":1773228301,"current_range_meters":17600,"station_id":"","pricing_plan_id":"cebpf4jnsgd1na2vs0mg"},{"bike_id":"4681a970-3332-4681-8ab0-503cc4b97467","system_id":"levelo_inurba_marseille","lat":43.27312,"lon":5.39084,"is_reserved":false,"is_disabled":false,"rental_uris":{"android":"levelo://app?vid=4681a970-3332-4681-8ab0-503cc4b97467","ios":"levelo://app?vid=4681a970-3332-4681-8ab0-503cc4b97467"},"vehicle_type_id":"4","last_reported":1773228301,"current_range_meters":38800,"station_id":"ce4bhgp2rcd13ifvqfe0","pricing_plan_id":"cebpf4jnsgd1na2vs0mg"},{"bike_id":"8b783c91-f0ea-46f4-943f-be57fd8cd390","system_id":"levelo_inurba_marseille","lat":43.25929,"lon":5.40873,"is_reserved":false,"is_disabled":false,"rental_uris":{"android":"levelo://app?vid=8b783c91-f0ea-46f4-943f-be57fd8cd390","ios":"levelo://app?vid=8b783c91-f0ea-46f4-943f-be57fd8cd390"},"vehicle_type_id":"4","last_reported":1773228301,"current_range_meters":14000,"station_id":"ce4bhm92rcd13ifvqglg","pricing_plan_id":"cebpf4jnsgd1na2vs0mg"},{"bike_id":"d9ae451b-394d-4600-bc8e-250781c8b682","system_id":"levelo_inurba_marseille","lat":43.26562,"lon":5.37281,"is_reserved":false,"is_disabled":false,"rental_uris":{"android":"levelo://app?vid=d9ae451b-394d-4600-bc8e-250781c8b682","ios":"levelo://app?vid=d9ae451b-394d-4600-bc8e-250781c8b682"},"vehicle_type_id":"4","last_reported":1773228301,"current_range_meters":39200,"station_id":"ce4bhg12rcd13ifvqf70","pricing_plan_id":"cebpf4jnsgd1na2vs0mg"},{"bike_id":"c33732c3-34b3-43cf-9550-258c10091c04","system_id":"levelo_inurba_marseille","lat":43.29915,"lon":5.42092,"is_reserved":false,"is_disabled":false,"rental_uris":{"android":"levelo://app?vid=c33732c3-34b3-43cf-9550-258c10091c04","ios":"levelo://app?vid=c33732c3-34b3-43cf-9550-258c10091c04"},"vehicle_type_id":"4","last_reported":1773228301,"current_range_meters":38800,"station_id":"","pricing_plan_id":"cebpf4jnsgd1na2vs0mg"},{"bike_id":"38d64d90-bc77-43f0-a98c-12d498a8594c","system_id":"levelo_inurba_marseille","lat":43.29795,"lon":5.38068,"is_reserved":false,"is_disabled":false,"rental_uris":{"android":"levelo://app?vid=38d64d90-bc77-43f0-a98c-12d498a8594c","ios":"levelo://app?vid=38d64d90-bc77-43f0-a98c-12d498a8594c"},"vehicle_type_id":"4","last_reported":1773228301,"current_range_meters":24800,"station_id":"ce4bgip2rcd13ifvqbb0","pricing_plan_id":"cebpf4jnsgd1na2vs0mg"},{"bike_id":"17b09d81-d149-4724-af91-a2adea08448a","system_id":"levelo_inurba_marseille","lat":43.29324,"lon":5.37177,"is_reserved":false,"is_disabled":false,"rental_uris":{"android":"levelo://app?vid=17b09d81-d149-4724-af91-a2adea08448a","ios":"levelo://app?vid=17b09d81-d149-4724-af91-a2adea08448a"},"vehicle_type_id":"4","last_reported":1773228301,"current_range_meters":28400,"station_id":"ce4bgh92rcd13ifvqb40","pricing_plan_id":"cebpf4jnsgd1na2vs0mg"},{"bike_id":"c0f5bd4a-cbc2-427a-92f0-0be45de4abfd","system_id":"levelo_inurba_marseille","lat":43.28538,"lon":5.44106,"is_reserved":false,"is_disabled":false,"rental_uris":{"android":"levelo://app?vid=c0f5bd4a-cbc2-427a-92f0-0be45de4abfd","ios":"levelo://app?vid=c0f5bd4a-cbc2-427a-92f0-0be45de4abfd"},"vehicle_type_id":"4","last_reported":1773228301,"current_range_meters":6000,"station_id":"st_d3j3df2ikq2c7380ej80","pricing_plan_id":"cebpf4jnsgd1na2vs0mg"},{"bike_id":"c6c0ebab-0295-4a0b-844e-e34d619beca3","system_id":"levelo_inurba_marseille","lat":43.23186,"lon":5.39993,"is_reserved":false,"is_disabled":false,"rental_uris":{"android":"levelo://app?vid=c6c0ebab-0295-4a0b-844e-e34d619beca3","ios":"levelo://app?vid=c6c0ebab-0295-4a0b-844e-e34d619beca3"},"vehicle_type_id":"4","last_reported":1773228301,"current_range_meters":33600,"station_id":"ce4bhn12rcd13ifvqgqg","pricing_plan_id":"cebpf4jnsgd1na2vs0mg"},{"bike_id":"6eaf328c-de35-4b3f-8c0e-4c90d9499b4b","system_id":"levelo_inurba_marseille","lat":43.321,"lon":5.36767,"is_reserved":false,"is_disabled":false,"rental_uris":{"android":"levelo://app?vid=6eaf328c-de35-4b3f-8c0e-4c90d9499b4b","ios":"levelo://app?vid=6eaf328c-de35-4b3f-8c0e-4c90d9499b4b"},"vehicle_type_id":"4","last_reported":1773228301,"current_range_meters":38400,"station_id":"ce4bhrh2rcd13ifvqhug","pricing_plan_id":"cebpf4jnsgd1na2vs0mg"},{"bike_id":"a5eb7e2e-f45f-42c7-8ba3-bf76c2472338","system_id":"levelo_inurba_marseille","lat":43.30207,"lon":5.39438,"is_reserved":false,"is_disabled":false,"rental_uris":{"android":"levelo://app?vid=a5eb7e2e-f45f-42c7-8ba3-bf76c2472338","ios":"levelo://app?vid=a5eb7e2e-f45f-42c7-8ba3-bf76c2472338"},"vehicle_type_id":"4","last_reported":1773228301,"current_range_meters":24400,"station_id":"ce4bh0p2rcd13ifvqd70","pricing_plan_id":"cebpf4jnsgd1na2vs0mg"},{"bike_id":"bb4d2406-b5bc-49be-9f7c-f47fcdbe593b","system_id":"levelo_inurba_marseille","lat":43.3055,"lon":5.36705,"is_reserved":false,"is_disabled":true,"rental_uris":{"android":"levelo://app?vid=bb4d2406-b5bc-49be-9f7c-f47fcdbe593b","ios":"levelo://app?vid=bb4d2406-b5bc-49be-9f7c-f47fcdbe593b"},"vehicle_type_id":"4","last_reported":1773228301,"current_range_meters":38400,"station_id":"ce4bgrp2rcd13ifvqc9g","pricing_plan_id":"cebpf4jnsgd1na2vs0mg"},{"bike_id":"fda7a845-f92c-419b-81b8-71eaee9a407d","system_id":"levelo_inurba_marseille","lat":43.29524,"lon":5.37501,"is_reserved":false,"is_disabled":false,"rental_uris":{"android":"levelo://app?vid=fda7a845-f92c-419b-81b8-71eaee9a407d","ios":"levelo://app?vid=fda7a845-f92c-419b-81b8-71eaee9a407d"},"vehicle_type_id":"4","last_reported":1773228301,"current_range_meters":39200,"station_id":"ce4bgkp2rcd13ifvqbmg","pricing_plan_id":"cebpf4jnsgd1na2vs0mg"},{"bike_id":"5f72350b-2c43-4ae3-97f1-1beffc338161","system_id":"levelo_inurba_marseille","lat":43.23971,"lon":5.36613,"is_reserved":false,"is_disabled":false,"rental_uris":{"android":"levelo://app?vid=5f72350b-2c43-4ae3-97f1-1beffc338161","ios":"levelo://app?vid=5f72350b-2c43-4ae3-97f1-1beffc338161"},"vehicle_type_id":"4","last_reported":1773228301,"current_range_meters":39200,"station_id":"ce4bhi12rcd13ifvqfp0","pricing_plan_id":"cebpf4jnsgd1na2vs0mg"},{"bike_id":"00adc013-06bc-44f0-92b9-114da8a17fc8","system_id":"levelo_inurba_marseille","lat":43.29662,"lon":5.39362,"is_reserved":false,"is_disabled":false,"rental_uris":{"android":"levelo://app?vid=00adc013-06bc-44f0-92b9-114da8a17fc8","ios":"levelo://app?vid=00adc013-06bc-44f0-92b9-114da8a17fc8"},"vehicle_type_id":"4","last_reported":1773228301,"current_range_meters":9200,"station_id":"","pricing_plan_id":"cebpf4jnsgd1na2vs0mg"},{"bike_id":"73355373-2d2c-4850-beb6-f530137cdd8e","system_id":"levelo_inurba_marseille","lat":43.33161,"lon":5.37698,"is_reserved":false,"is_disabled":false,"rental_uris":{"android":"levelo://app?vid=73355373-2d2c-4850-beb6-f530137cdd8e","ios":"levelo://app?vid=73355373-2d2c-4850-beb6-f530137cdd8e"},"vehicle_type_id":"4","last_reported":1773228301,"current_range_meters":17200,"station_id":"st_d46cu089ee8s73dldbu0","pricing_plan_id":"cebpf4jnsgd1na2vs0mg"},{"bike_id":"f27be3cb-d5fc-4498-8e52-861d9b4aac8e","system_id":"levelo_inurba_marseille","lat":43.24798,"lon":5.37441,"is_reserved":false,"is_disabled":false,"rental_uris":{"android":"levelo://app?vid=f27be3cb-d5fc-4498-8e52-861d9b4aac8e","ios":"levelo://app?vid=f27be3cb-d5fc-4498-8e52-861d9b4aac8e"},"vehicle_type_id":"4","last_reported":1773228301,"current_range_meters":39200,"station_id":"ce4bhgh2rcd13ifvqfb0","pricing_plan_id":"cebpf4jnsgd1na2vs0mg"},{"bike_id":"3d7b1bec-2a06-47da-a7d0-796cda99d14f","system_id":"levelo_inurba_marseille","lat":43.27075,"lon":5.38309,"is_reserved":false,"is_disabled":false,"rental_uris":{"android":"levelo://app?vid=3d7b1bec-2a06-47da-a7d0-796cda99d14f","ios":"levelo://app?vid=3d7b1bec-2a06-47da-a7d0-796cda99d14f"},"vehicle_type_id":"4","last_reported":1773228301,"current_range_meters":20000,"station_id":"st_d3n2fo6cfp8s73cte1j0","pricing_plan_id":"cebpf4jnsgd1na2vs0mg"},{"bike_id":"571cdadb-645f-4884-a710-d1e512ca8e71","system_id":"levelo_inurba_marseille","lat":43.31359,"lon":5.36734,"is_reserved":false,"is_disabled":false,"rental_uris":{"android":"levelo://app?vid=571cdadb-645f-4884-a710-d1e512ca8e71","ios":"levelo://app?vid=571cdadb-645f-4884-a710-d1e512ca8e71"},"vehicle_type_id":"4","last_reported":1773228301,"current_range_meters":38000,"station_id":"ce4bgr92rcd13ifvqc6g","pricing_plan_id":"cebpf4jnsgd1na2vs0mg"},{"bike_id":"a3c89552-882d-48ad-8e51-cea3f92560f0","system_id":"levelo_inurba_marseille","lat":43.3022,"lon":5.39454,"is_reserved":false,"is_disabled":false,"rental_uris":{"android":"levelo://app?vid=a3c89552-882d-48ad-8e51-cea3f92560f0","ios":"levelo://app?vid=a3c89552-882d-48ad-8e51-cea3f92560f0"},"vehicle_type_id":"4","last_reported":1773228301,"current_range_meters":11600,"station_id":"ce4bh0p2rcd13ifvqd70","pricing_plan_id":"cebpf4jnsgd1na2vs0mg"},{"bike_id":"2386054f-29f0-4bbb-b4c5-1b35b953f1c0","system_id":"levelo_inurba_marseille","lat":43.25013,"lon":5.38935,"is_reserved":false,"is_disabled":false,"rental_uris":{"android":"levelo://app?vid=2386054f-29f0-4bbb-b4c5-1b35b953f1c0","ios":"levelo://app?vid=2386054f-29f0-4bbb-b4c5-1b35b953f1c0"},"vehicle_type_id":"4","last_reported":1773228301,"current_range_meters":39200,"station_id":"ce4bhgp2rcd13ifvqfd0","pricing_plan_id":"cebpf4jnsgd1na2vs0mg"},{"bike_id":"937372f5-5b7b-47bc-8f0c-ea6079dd82b4","system_id":"levelo_inurba_marseille","lat":43.25941,"lon":5.40866,"is_reserved":false,"is_disabled":false,"rental_uris":{"android":"levelo://app?vid=937372f5-5b7b-47bc-8f0c-ea6079dd82b4","ios":"levelo://app?vid=937372f5-5b7b-47bc-8f0c-ea6079dd82b4"},"vehicle_type_id":"4","last_reported":1773228301,"current_range_meters":9200,"station_id":"ce4bhm92rcd13ifvqglg","pricing_plan_id":"cebpf4jnsgd1na2vs0mg"},{"bike_id":"dd854777-f378-4132-94e6-63027cc18b82","system_id":"levelo_inurba_marseille","lat":43.29727,"lon":5.41059,"is_reserved":false,"is_disabled":false,"rental_uris":{"android":"levelo://app?vid=dd854777-f378-4132-94e6-63027cc18b82","ios":"levelo://app?vid=dd854777-f378-4132-94e6-63027cc18b82"},"vehicle_type_id":"4","last_reported":1773228301,"current_range_meters":29600,"station_id":"","pricing_plan_id":"cebpf4jnsgd1na2vs0mg"},{"bike_id":"2b03b27d-1e57-4ce6-ac91-ce54c6b69170","system_id":"levelo_inurba_marseille","lat":43.29312,"lon":5.37164,"is_reserved":false,"is_disabled":false,"rental_uris":{"android":"levelo://app?vid=2b03b27d-1e57-4ce6-ac91-ce54c6b69170","ios":"levelo://app?vid=2b03b27d-1e57-4ce6-ac91-ce54c6b69170"},"vehicle_type_id":"4","last_reported":1773228301,"current_range_meters":22400,"station_id":"ce4bgh92rcd13ifvqb40","pricing_plan_id":"cebpf4jnsgd1na2vs0mg"},{"bike_id":"8bb61b0a-3b8c-41ed-b28b-1ae38f2e8b15","system_id":"levelo_inurba_marseille","lat":43.27069,"lon":5.40264,"is_reserved":false,"is_disabled":false,"rental_uris":{"android":"levelo://app?vid=8bb61b0a-3b8c-41ed-b28b-1ae38f2e8b15","ios":"levelo://app?vid=8bb61b0a-3b8c-41ed-b28b-1ae38f2e8b15"},"vehicle_type_id":"4","last_reported":1773228301,"current_range_meters":30000,"station_id":"ce4bhk92rcd13ifvqgc0","pricing_plan_id":"cebpf4jnsgd1na2vs0mg"},{"bike_id":"fbd51e80-3e10-4058-acb1-0f66319692e4","system_id":"levelo_inurba_marseille","lat":43.29068,"lon":5.37158,"is_reserved":false,"is_disabled":false,"rental_uris":{"android":"levelo://app?vid=fbd51e80-3e10-4058-acb1-0f66319692e4","ios":"levelo://app?vid=fbd51e80-3e10-4058-acb1-0f66319692e4"},"vehicle_type_id":"4","last_reported":1773228301,"current_range_meters":6800,"station_id":"ce4bh5p2rcd13ifvqe4g","pricing_plan_id":"cebpf4jnsgd1na2vs0mg"},{"bike_id":"b0b11621-aed8-4097-9198-b0e52790f9e5","system_id":"levelo_inurba_marseille","lat":43.29531,"lon":5.38545,"is_reserved":false,"is_disabled":false,"rental_uris":{"android":"levelo://app?vid=b0b11621-aed8-4097-9198-b0e52790f9e5","ios":"levelo://app?vid=b0b11621-aed8-4097-9198-b0e52790f9e5"},"vehicle_type_id":"4","last_reported":1773228301,"current_range_meters":30000,"station_id":"ce4bgih2rcd13ifvqba0","pricing_plan_id":"cebpf4jnsgd1na2vs0mg"},{"bike_id":"532f1fe9-6384-4056-88f3-ddfdd084688a","system_id":"levelo_inurba_marseille","lat":43.29811,"lon":5.4188,"is_reserved":false,"is_disabled":false,"rental_uris":{"android":"levelo://app?vid=532f1fe9-6384-4056-88f3-ddfdd084688a","ios":"levelo://app?vid=532f1fe9-6384-4056-88f3-ddfdd084688a"},"vehicle_type_id":"4","last_reported":1773228301,"current_range_meters":30000,"station_id":"","pricing_plan_id":"cebpf4jnsgd1na2vs0mg"},{"bike_id":"7b13b3db-41b1-4922-a06b-13fea874a109","system_id":"levelo_inurba_marseille","lat":43.31201,"lon":5.36821,"is_reserved":false,"is_disabled":false,"rental_uris":{"android":"levelo://app?vid=7b13b3db-41b1-4922-a06b-13fea874a109","ios":"levelo://app?vid=7b13b3db-41b1-4922-a06b-13fea874a109"},"vehicle_type_id":"4","last_reported":1773228301,"current_range_meters":27600,"station_id":"ce4bgl92rcd13ifvqbq0","pricing_plan_id":"cebpf4jnsgd1na2vs0mg"},{"bike_id":"3c8d6bce-d9c4-4269-82c6-7e6f35ffe4b3","system_id":"levelo_inurba_marseille","lat":43.29576,"lon":5.37504,"is_reserved":false,"is_disabled":false,"rental_uris":{"android":"levelo://app?vid=3c8d6bce-d9c4-4269-82c6-7e6f35ffe4b3","ios":"levelo://app?vid=3c8d6bce-d9c4-4269-82c6-7e6f35ffe4b3"},"vehicle_type_id":"4","last_reported":1773228301,"current_range_meters":9200,"station_id":"ce4bgh92rcd13ifvqb50","pricing_plan_id":"cebpf4jnsgd1na2vs0mg"},{"bike_id":"cc593fe5-fc64-4ca2-9559-ba18291eaedc","system_id":"levelo_inurba_marseille","lat":43.28418,"lon":5.34979,"is_reserved":false,"is_disabled":false,"rental_uris":{"android":"levelo://app?vid=cc593fe5-fc64-4ca2-9559-ba18291eaedc","ios":"levelo://app?vid=cc593fe5-fc64-4ca2-9559-ba18291eaedc"},"vehicle_type_id":"4","last_reported":1773228301,"current_range_meters":23200,"station_id":"ce4bhbh2rcd13ifvqepg","pricing_plan_id":"cebpf4jnsgd1na2vs0mg"},{"bike_id":"f3aa073f-48b3-4a32-af09-7955b12779b7","system_id":"levelo_inurba_marseille","lat":43.23188,"lon":5.39992,"is_reserved":false,"is_disabled":false,"rental_uris":{"android":"levelo://app?vid=f3aa073f-48b3-4a32-af09-7955b12779b7","ios":"levelo://app?vid=f3aa073f-48b3-4a32-af09-7955b12779b7"},"vehicle_type_id":"4","last_reported":1773228301,"current_range_meters":32000,"station_id":"ce4bhn12rcd13ifvqgqg","pricing_plan_id":"cebpf4jnsgd1na2vs0mg"},{"bike_id":"5ff4eed9-cc94-417e-b8b0-f370f495b41d","system_id":"levelo_inurba_marseille","lat":43.28154,"lon":5.42628,"is_reserved":false,"is_disabled":false,"rental_uris":{"android":"levelo://app?vid=5ff4eed9-cc94-417e-b8b0-f370f495b41d","ios":"levelo://app?vid=5ff4eed9-cc94-417e-b8b0-f370f495b41d"},"vehicle_type_id":"4","last_reported":1773228301,"current_range_meters":23200,"station_id":"ce4bhnh2rcd13ifvqgug","pricing_plan_id":"cebpf4jnsgd1na2vs0mg"},{"bike_id":"fd9b8b1e-322b-4afa-b4f5-df8cffc9cd00","system_id":"levelo_inurba_marseille","lat":43.26213,"lon":5.37474,"is_reserved":false,"is_disabled":false,"rental_uris":{"android":"levelo://app?vid=fd9b8b1e-322b-4afa-b4f5-df8cffc9cd00","ios":"levelo://app?vid=fd9b8b1e-322b-4afa-b4f5-df8cffc9cd00"},"vehicle_type_id":"4","last_reported":1773228301,"current_range_meters":33600,"station_id":"ce4bhgp2rcd13ifvqfc0","pricing_plan_id":"cebpf4jnsgd1na2vs0mg"},{"bike_id":"9c43543f-fc19-4ea8-90b0-d1837be6e5d0","system_id":"levelo_inurba_marseille","lat":43.26543,"lon":5.37289,"is_reserved":false,"is_disabled":false,"rental_uris":{"android":"levelo://app?vid=9c43543f-fc19-4ea8-90b0-d1837be6e5d0","ios":"levelo://app?vid=9c43543f-fc19-4ea8-90b0-d1837be6e5d0"},"vehicle_type_id":"4","last_reported":1773228301,"current_range_meters":39200,"station_id":"ce4bhg12rcd13ifvqf70","pricing_plan_id":"cebpf4jnsgd1na2vs0mg"},{"bike_id":"1db2ee9f-e736-4670-9bc3-7e0d6ea6ba6e","system_id":"levelo_inurba_marseille","lat":43.29949,"lon":5.41315,"is_reserved":false,"is_disabled":false,"rental_uris":{"android":"levelo://app?vid=1db2ee9f-e736-4670-9bc3-7e0d6ea6ba6e","ios":"levelo://app?vid=1db2ee9f-e736-4670-9bc3-7e0d6ea6ba6e"},"vehicle_type_id":"4","last_reported":1773228301,"current_range_meters":38000,"station_id":"","pricing_plan_id":"cebpf4jnsgd1na2vs0mg"},{"bike_id":"b94c3b6d-7912-4bb7-bd16-b874ff101a3d","system_id":"levelo_inurba_marseille","lat":43.24799,"lon":5.37452,"is_reserved":false,"is_disabled":false,"rental_uris":{"android":"levelo://app?vid=b94c3b6d-7912-4bb7-bd16-b874ff101a3d","ios":"levelo://app?vid=b94c3b6d-7912-4bb7-bd16-b874ff101a3d"},"vehicle_type_id":"4","last_reported":1773228301,"current_range_meters":28800,"station_id":"ce4bhgh2rcd13ifvqfb0","pricing_plan_id":"cebpf4jnsgd1na2vs0mg"},{"bike_id":"3268841f-fecd-44bf-a7ce-948df12685f0","system_id":"levelo_inurba_marseille","lat":43.30553,"lon":5.36696,"is_reserved":false,"is_disabled":false,"rental_uris":{"android":"levelo://app?vid=3268841f-fecd-44bf-a7ce-948df12685f0","ios":"levelo://app?vid=3268841f-fecd-44bf-a7ce-948df12685f0"},"vehicle_type_id":"4","last_reported":1773228301,"current_range_meters":33600,"station_id":"ce4bgrp2rcd13ifvqc9g","pricing_plan_id":"cebpf4jnsgd1na2vs0mg"},{"bike_id":"05f10376-920a-4e54-ab2d-37940827b657","system_id":"levelo_inurba_marseille","lat":43.32097,"lon":5.36773,"is_reserved":false,"is_disabled":false,"rental_uris":{"android":"levelo://app?vid=05f10376-920a-4e54-ab2d-37940827b657","ios":"levelo://app?vid=05f10376-920a-4e54-ab2d-37940827b657"},"vehicle_type_id":"4","last_reported":1773228301,"current_range_meters":32000,"station_id":"ce4bhrh2rcd13ifvqhug","pricing_plan_id":"cebpf4jnsgd1na2vs0mg"},{"bike_id":"7de6ca69-27cb-4f01-b0b4-5059a464752e","system_id":"levelo_inurba_marseille","lat":43.26687,"lon":5.38241,"is_reserved":false,"is_disabled":false,"rental_uris":{"android":"levelo://app?vid=7de6ca69-27cb-4f01-b0b4-5059a464752e","ios":"levelo://app?vid=7de6ca69-27cb-4f01-b0b4-5059a464752e"},"vehicle_type_id":"4","last_reported":1773228301,"current_range_meters":39200,"station_id":"ce4bhg92rcd13ifvqf90","pricing_plan_id":"cebpf4jnsgd1na2vs0mg"},{"bike_id":"c52459fc-dfb2-4ddf-a65d-9bbba8809c07","system_id":"levelo_inurba_marseille","lat":43.22542,"lon":5.34831,"is_reserved":false,"is_disabled":true,"rental_uris":{"android":"levelo://app?vid=c52459fc-dfb2-4ddf-a65d-9bbba8809c07","ios":"levelo://app?vid=c52459fc-dfb2-4ddf-a65d-9bbba8809c07"},"vehicle_type_id":"4","last_reported":1773228301,"current_range_meters":0,"station_id":"st_cvj5dfep6f1abm77gieg","pricing_plan_id":"cebpf4jnsgd1na2vs0mg"},{"bike_id":"1571cd23-3e05-4a34-a3fd-964238daee25","system_id":"levelo_inurba_marseille","lat":43.31192,"lon":5.36852,"is_reserved":false,"is_disabled":false,"rental_uris":{"android":"levelo://app?vid=1571cd23-3e05-4a34-a3fd-964238daee25","ios":"levelo://app?vid=1571cd23-3e05-4a34-a3fd-964238daee25"},"vehicle_type_id":"4","last_reported":1773228301,"current_range_meters":39200,"station_id":"ce4bgl92rcd13ifvqbq0","pricing_plan_id":"cebpf4jnsgd1na2vs0mg"},{"bike_id":"55bd5bac-e5e3-4912-aac3-69de96a3e316","system_id":"levelo_inurba_marseille","lat":43.32488,"lon":5.38282,"is_reserved":false,"is_disabled":false,"rental_uris":{"android":"levelo://app?vid=55bd5bac-e5e3-4912-aac3-69de96a3e316","ios":"levelo://app?vid=55bd5bac-e5e3-4912-aac3-69de96a3e316"},"vehicle_type_id":"4","last_reported":1773228301,"current_range_meters":18800,"station_id":"st_d4asgbiv49dc73anf9m0","pricing_plan_id":"cebpf4jnsgd1na2vs0mg"},{"bike_id":"ff7bc7f2-7e0b-4064-8199-044e49fbc425","system_id":"levelo_inurba_marseille","lat":43.29878,"lon":5.36242,"is_reserved":false,"is_disabled":false,"rental_uris":{"android":"levelo://app?vid=ff7bc7f2-7e0b-4064-8199-044e49fbc425","ios":"levelo://app?vid=ff7bc7f2-7e0b-4064-8199-044e49fbc425"},"vehicle_type_id":"4","last_reported":1773228301,"current_range_meters":39200,"station_id":"ce4bgpp2rcd13ifvqc3g","pricing_plan_id":"cebpf4jnsgd1na2vs0mg"},{"bike_id":"54b4edaa-4eb5-4701-b972-9c0f8b9dfbbf","system_id":"levelo_inurba_marseille","lat":43.2963,"lon":5.37702,"is_reserved":false,"is_disabled":false,"rental_uris":{"android":"levelo://app?vid=54b4edaa-4eb5-4701-b972-9c0f8b9dfbbf","ios":"levelo://app?vid=54b4edaa-4eb5-4701-b972-9c0f8b9dfbbf"},"vehicle_type_id":"4","last_reported":1773228301,"current_range_meters":26800,"station_id":"ce4bgi92rcd13ifvqb90","pricing_plan_id":"cebpf4jnsgd1na2vs0mg"},{"bike_id":"2301d092-fcd2-45f3-804a-bf87c6aa69a3","system_id":"levelo_inurba_marseille","lat":43.29586,"lon":5.37619,"is_reserved":false,"is_disabled":false,"rental_uris":{"android":"levelo://app?vid=2301d092-fcd2-45f3-804a-bf87c6aa69a3","ios":"levelo://app?vid=2301d092-fcd2-45f3-804a-bf87c6aa69a3"},"vehicle_type_id":"4","last_reported":1773228301,"current_range_meters":18800,"station_id":"","pricing_plan_id":"cebpf4jnsgd1na2vs0mg"},{"bike_id":"61a991f1-1c61-4cf7-8c66-0365b5426fe3","system_id":"levelo_inurba_marseille","lat":43.256,"lon":5.38205,"is_reserved":false,"is_disabled":false,"rental_uris":{"android":"levelo://app?vid=61a991f1-1c61-4cf7-8c66-0365b5426fe3","ios":"levelo://app?vid=61a991f1-1c61-4cf7-8c66-0365b5426fe3"},"vehicle_type_id":"4","last_reported":1773228301,"current_range_meters":30800,"station_id":"ce4bhih2rcd13ifvqfs0","pricing_plan_id":"cebpf4jnsgd1na2vs0mg"},{"bike_id":"3cb4118e-249f-4f7f-8bd1-0ddb85d3d47f","system_id":"levelo_inurba_marseille","lat":43.29056,"lon":5.42499,"is_reserved":false,"is_disabled":false,"rental_uris":{"android":"levelo://app?vid=3cb4118e-249f-4f7f-8bd1-0ddb85d3d47f","ios":"levelo://app?vid=3cb4118e-249f-4f7f-8bd1-0ddb85d3d47f"},"vehicle_type_id":"4","last_reported":1773228301,"current_range_meters":38000,"station_id":"","pricing_plan_id":"cebpf4jnsgd1na2vs0mg"},{"bike_id":"c5f5e45d-b982-4b63-8254-c2be3044de48","system_id":"levelo_inurba_marseille","lat":43.279,"lon":5.38016,"is_reserved":false,"is_disabled":false,"rental_uris":{"android":"levelo://app?vid=c5f5e45d-b982-4b63-8254-c2be3044de48","ios":"levelo://app?vid=c5f5e45d-b982-4b63-8254-c2be3044de48"},"vehicle_type_id":"4","last_reported":1773228301,"current_range_meters":4000,"station_id":"ce4bhf92rcd13ifvqf50","pricing_plan_id":"cebpf4jnsgd1na2vs0mg"},{"bike_id":"78ccdb19-13f7-409b-8044-f74ab6a3fb78","system_id":"levelo_inurba_marseille","lat":43.24603,"lon":5.38209,"is_reserved":false,"is_disabled":false,"rental_uris":{"android":"levelo://app?vid=78ccdb19-13f7-409b-8044-f74ab6a3fb78","ios":"levelo://app?vid=78ccdb19-13f7-409b-8044-f74ab6a3fb78"},"vehicle_type_id":"4","last_reported":1773228301,"current_range_meters":39200,"station_id":"ce4bhih2rcd13ifvqfr0","pricing_plan_id":"cebpf4jnsgd1na2vs0mg"},{"bike_id":"da8afc32-a324-49b8-b98b-eccd284df7b0","system_id":"levelo_inurba_marseille","lat":43.23178,"lon":5.39986,"is_reserved":false,"is_disabled":false,"rental_uris":{"android":"levelo://app?vid=da8afc32-a324-49b8-b98b-eccd284df7b0","ios":"levelo://app?vid=da8afc32-a324-49b8-b98b-eccd284df7b0"},"vehicle_type_id":"4","last_reported":1773228301,"current_range_meters":17200,"station_id":"ce4bhn12rcd13ifvqgqg","pricing_plan_id":"cebpf4jnsgd1na2vs0mg"},{"bike_id":"896440e6-cef8-4268-bb86-ac2c6e2de747","system_id":"levelo_inurba_marseille","lat":43.28482,"lon":5.48398,"is_reserved":false,"is_disabled":false,"rental_uris":{"android":"levelo://app?vid=896440e6-cef8-4268-bb86-ac2c6e2de747","ios":"levelo://app?vid=896440e6-cef8-4268-bb86-ac2c6e2de747"},"vehicle_type_id":"4","last_reported":1773228301,"current_range_meters":30400,"station_id":"","pricing_plan_id":"cebpf4jnsgd1na2vs0mg"},{"bike_id":"144d0f12-8c50-4356-9304-ba9c305ea568","system_id":"levelo_inurba_marseille","lat":43.31174,"lon":5.36827,"is_reserved":false,"is_disabled":false,"rental_uris":{"android":"levelo://app?vid=144d0f12-8c50-4356-9304-ba9c305ea568","ios":"levelo://app?vid=144d0f12-8c50-4356-9304-ba9c305ea568"},"vehicle_type_id":"4","last_reported":1773228301,"current_range_meters":27200,"station_id":"","pricing_plan_id":"cebpf4jnsgd1na2vs0mg"},{"bike_id":"536e4253-28c1-4e4f-ba07-998ca885fbee","system_id":"levelo_inurba_marseille","lat":43.29308,"lon":5.3715,"is_reserved":false,"is_disabled":false,"rental_uris":{"android":"levelo://app?vid=536e4253-28c1-4e4f-ba07-998ca885fbee","ios":"levelo://app?vid=536e4253-28c1-4e4f-ba07-998ca885fbee"},"vehicle_type_id":"4","last_reported":1773228301,"current_range_meters":38000,"station_id":"ce4bgh92rcd13ifvqb40","pricing_plan_id":"cebpf4jnsgd1na2vs0mg"},{"bike_id":"2c1215f2-9624-4e50-bbbb-a53264cdd31e","system_id":"levelo_inurba_marseille","lat":43.2848,"lon":5.48388,"is_reserved":false,"is_disabled":false,"rental_uris":{"android":"levelo://app?vid=2c1215f2-9624-4e50-bbbb-a53264cdd31e","ios":"levelo://app?vid=2c1215f2-9624-4e50-bbbb-a53264cdd31e"},"vehicle_type_id":"4","last_reported":1773228301,"current_range_meters":28000,"station_id":"","pricing_plan_id":"cebpf4jnsgd1na2vs0mg"},{"bike_id":"60a57b5e-57db-4a7e-a306-ebc7321eb1ba","system_id":"levelo_inurba_marseille","lat":43.27499,"lon":5.41603,"is_reserved":false,"is_disabled":false,"rental_uris":{"android":"levelo://app?vid=60a57b5e-57db-4a7e-a306-ebc7321eb1ba","ios":"levelo://app?vid=60a57b5e-57db-4a7e-a306-ebc7321eb1ba"},"vehicle_type_id":"4","last_reported":1773228301,"current_range_meters":31200,"station_id":"st_d6im8g6chgec73a5pndg","pricing_plan_id":"cebpf4jnsgd1na2vs0mg"},{"bike_id":"c1db54c2-038e-4f3d-a503-c0e3fc6c96ed","system_id":"levelo_inurba_marseille","lat":43.33539,"lon":5.37462,"is_reserved":false,"is_disabled":false,"rental_uris":{"android":"levelo://app?vid=c1db54c2-038e-4f3d-a503-c0e3fc6c96ed","ios":"levelo://app?vid=c1db54c2-038e-4f3d-a503-c0e3fc6c96ed"},"vehicle_type_id":"4","last_reported":1773228301,"current_range_meters":14400,"station_id":"st_d46tts09ee8s73dlu43g","pricing_plan_id":"cebpf4jnsgd1na2vs0mg"},{"bike_id":"a0ab89fd-d4e3-4039-8377-577b0acf001d","system_id":"levelo_inurba_marseille","lat":43.24368,"lon":5.44097,"is_reserved":false,"is_disabled":true,"rental_uris":{"android":"levelo://app?vid=a0ab89fd-d4e3-4039-8377-577b0acf001d","ios":"levelo://app?vid=a0ab89fd-d4e3-4039-8377-577b0acf001d"},"vehicle_type_id":"4","last_reported":1773228301,"current_range_meters":10000,"station_id":"","pricing_plan_id":"cebpf4jnsgd1na2vs0mg"},{"bike_id":"3848849f-8b5c-4f22-abad-8aa3329f0d32","system_id":"levelo_inurba_marseille","lat":43.31362,"lon":5.36731,"is_reserved":false,"is_disabled":false,"rental_uris":{"android":"levelo://app?vid=3848849f-8b5c-4f22-abad-8aa3329f0d32","ios":"levelo://app?vid=3848849f-8b5c-4f22-abad-8aa3329f0d32"},"vehicle_type_id":"4","last_reported":1773228301,"current_range_meters":40000,"station_id":"ce4bgr92rcd13ifvqc6g","pricing_plan_id":"cebpf4jnsgd1na2vs0mg"},{"bike_id":"ca2cf491-3f45-4bb7-b977-e609934edf12","system_id":"levelo_inurba_marseille","lat":43.2919,"lon":5.35789,"is_reserved":false,"is_disabled":false,"rental_uris":{"android":"levelo://app?vid=ca2cf491-3f45-4bb7-b977-e609934edf12","ios":"levelo://app?vid=ca2cf491-3f45-4bb7-b977-e609934edf12"},"vehicle_type_id":"4","last_reported":1773228301,"current_range_meters":39200,"station_id":"ce4bhb12rcd13ifvqel0","pricing_plan_id":"cebpf4jnsgd1na2vs0mg"},{"bike_id":"c9fdec63-7232-4c40-8487-75579466936b","system_id":"levelo_inurba_marseille","lat":43.26683,"lon":5.38273,"is_reserved":false,"is_disabled":false,"rental_uris":{"android":"levelo://app?vid=c9fdec63-7232-4c40-8487-75579466936b","ios":"levelo://app?vid=c9fdec63-7232-4c40-8487-75579466936b"},"vehicle_type_id":"4","last_reported":1773228301,"current_range_meters":29600,"station_id":"ce4bhg92rcd13ifvqf90","pricing_plan_id":"cebpf4jnsgd1na2vs0mg"},{"bike_id":"b3ed314a-8d8b-481f-8884-f493f8450d16","system_id":"levelo_inurba_marseille","lat":43.29628,"lon":5.37713,"is_reserved":false,"is_disabled":false,"rental_uris":{"android":"levelo://app?vid=b3ed314a-8d8b-481f-8884-f493f8450d16","ios":"levelo://app?vid=b3ed314a-8d8b-481f-8884-f493f8450d16"},"vehicle_type_id":"4","last_reported":1773228301,"current_range_meters":10800,"station_id":"ce4bgi92rcd13ifvqb90","pricing_plan_id":"cebpf4jnsgd1na2vs0mg"},{"bike_id":"e8b7d766-9ece-4870-a1b8-5b316a1b8e67","system_id":"levelo_inurba_marseille","lat":43.22562,"lon":5.41625,"is_reserved":false,"is_disabled":false,"rental_uris":{"android":"levelo://app?vid=e8b7d766-9ece-4870-a1b8-5b316a1b8e67","ios":"levelo://app?vid=e8b7d766-9ece-4870-a1b8-5b316a1b8e67"},"vehicle_type_id":"4","last_reported":1773228301,"current_range_meters":19600,"station_id":"st_d2o4gvlbi1j2169b742g","pricing_plan_id":"cebpf4jnsgd1na2vs0mg"},{"bike_id":"7f11766f-a4e3-407c-8c37-c09dddc0793b","system_id":"levelo_inurba_marseille","lat":43.2784,"lon":5.39209,"is_reserved":false,"is_disabled":false,"rental_uris":{"android":"levelo://app?vid=7f11766f-a4e3-407c-8c37-c09dddc0793b","ios":"levelo://app?vid=7f11766f-a4e3-407c-8c37-c09dddc0793b"},"vehicle_type_id":"4","last_reported":1773228301,"current_range_meters":39200,"station_id":"ce4bhjp2rcd13ifvqga0","pricing_plan_id":"cebpf4jnsgd1na2vs0mg"},{"bike_id":"7fec08d5-ee68-460a-ac18-925555054430","system_id":"levelo_inurba_marseille","lat":43.24176,"lon":5.3639,"is_reserved":false,"is_disabled":false,"rental_uris":{"android":"levelo://app?vid=7fec08d5-ee68-460a-ac18-925555054430","ios":"levelo://app?vid=7fec08d5-ee68-460a-ac18-925555054430"},"vehicle_type_id":"4","last_reported":1773228301,"current_range_meters":17200,"station_id":"cpo36qri1sfpv3e86is0","pricing_plan_id":"cebpf4jnsgd1na2vs0mg"},{"bike_id":"e7ede997-8031-4ef1-ae70-21cfb8a06e17","system_id":"levelo_inurba_marseille","lat":43.32492,"lon":5.38283,"is_reserved":false,"is_disabled":false,"rental_uris":{"android":"levelo://app?vid=e7ede997-8031-4ef1-ae70-21cfb8a06e17","ios":"levelo://app?vid=e7ede997-8031-4ef1-ae70-21cfb8a06e17"},"vehicle_type_id":"4","last_reported":1773228301,"current_range_meters":32800,"station_id":"st_d4asgbiv49dc73anf9m0","pricing_plan_id":"cebpf4jnsgd1na2vs0mg"},{"bike_id":"8649da40-2768-48b2-9c2c-b9c2c7d914e4","system_id":"levelo_inurba_marseille","lat":43.33598,"lon":5.41002,"is_reserved":false,"is_disabled":false,"rental_uris":{"android":"levelo://app?vid=8649da40-2768-48b2-9c2c-b9c2c7d914e4","ios":"levelo://app?vid=8649da40-2768-48b2-9c2c-b9c2c7d914e4"},"vehicle_type_id":"4","last_reported":1773228301,"current_range_meters":39200,"station_id":"ce4bhqh2rcd13ifvqhmg","pricing_plan_id":"cebpf4jnsgd1na2vs0mg"},{"bike_id":"fbacc4e2-20d2-440b-8334-f840b8c13084","system_id":"levelo_inurba_marseille","lat":43.23163,"lon":5.43678,"is_reserved":false,"is_disabled":false,"rental_uris":{"android":"levelo://app?vid=fbacc4e2-20d2-440b-8334-f840b8c13084","ios":"levelo://app?vid=fbacc4e2-20d2-440b-8334-f840b8c13084"},"vehicle_type_id":"4","last_reported":1773228301,"current_range_meters":23200,"station_id":"ce4bhmp2rcd13ifvqgog","pricing_plan_id":"cebpf4jnsgd1na2vs0mg"},{"bike_id":"e50c6797-fb66-441b-97d0-c7fbbc3eb9c6","system_id":"levelo_inurba_marseille","lat":43.31711,"lon":5.43699,"is_reserved":false,"is_disabled":false,"rental_uris":{"android":"levelo://app?vid=e50c6797-fb66-441b-97d0-c7fbbc3eb9c6","ios":"levelo://app?vid=e50c6797-fb66-441b-97d0-c7fbbc3eb9c6"},"vehicle_type_id":"4","last_reported":1773228301,"current_range_meters":23200,"station_id":"ce4bhp92rcd13ifvqhcg","pricing_plan_id":"cebpf4jnsgd1na2vs0mg"},{"bike_id":"07a96d34-f015-4fa1-9007-671989f64e13","system_id":"levelo_inurba_marseille","lat":43.2956,"lon":5.39963,"is_reserved":false,"is_disabled":true,"rental_uris":{"android":"levelo://app?vid=07a96d34-f015-4fa1-9007-671989f64e13","ios":"levelo://app?vid=07a96d34-f015-4fa1-9007-671989f64e13"},"vehicle_type_id":"4","last_reported":1773228301,"current_range_meters":38800,"station_id":"ce4bh312rcd13ifvqdj0","pricing_plan_id":"cebpf4jnsgd1na2vs0mg"},{"bike_id":"d936ee88-e6c5-41eb-94c9-c0f089a32b91","system_id":"levelo_inurba_marseille","lat":43.31201,"lon":5.37717,"is_reserved":false,"is_disabled":false,"rental_uris":{"android":"levelo://app?vid=d936ee88-e6c5-41eb-94c9-c0f089a32b91","ios":"levelo://app?vid=d936ee88-e6c5-41eb-94c9-c0f089a32b91"},"vehicle_type_id":"4","last_reported":1773228301,"current_range_meters":33200,"station_id":"","pricing_plan_id":"cebpf4jnsgd1na2vs0mg"},{"bike_id":"64db144a-07de-49ea-9432-4bcd2298dea1","system_id":"levelo_inurba_marseille","lat":43.26684,"lon":5.38274,"is_reserved":false,"is_disabled":false,"rental_uris":{"android":"levelo://app?vid=64db144a-07de-49ea-9432-4bcd2298dea1","ios":"levelo://app?vid=64db144a-07de-49ea-9432-4bcd2298dea1"},"vehicle_type_id":"4","last_reported":1773228301,"current_range_meters":18000,"station_id":"ce4bhg92rcd13ifvqf90","pricing_plan_id":"cebpf4jnsgd1na2vs0mg"},{"bike_id":"90e4ebea-690f-4e00-aeb2-15f726d01347","system_id":"levelo_inurba_marseille","lat":43.29535,"lon":5.37526,"is_reserved":false,"is_disabled":false,"rental_uris":{"android":"levelo://app?vid=90e4ebea-690f-4e00-aeb2-15f726d01347","ios":"levelo://app?vid=90e4ebea-690f-4e00-aeb2-15f726d01347"},"vehicle_type_id":"4","last_reported":1773228301,"current_range_meters":39200,"station_id":"ce4bgkp2rcd13ifvqbmg","pricing_plan_id":"cebpf4jnsgd1na2vs0mg"},{"bike_id":"1c6d8a9c-5142-453f-83da-91ca8f641afa","system_id":"levelo_inurba_marseille","lat":43.30951,"lon":5.39089,"is_reserved":false,"is_disabled":false,"rental_uris":{"android":"levelo://app?vid=1c6d8a9c-5142-453f-83da-91ca8f641afa","ios":"levelo://app?vid=1c6d8a9c-5142-453f-83da-91ca8f641afa"},"vehicle_type_id":"4","last_reported":1773228301,"current_range_meters":28000,"station_id":"ce4bgup2rcd13ifvqco0","pricing_plan_id":"cebpf4jnsgd1na2vs0mg"},{"bike_id":"302da97d-6164-4efb-a8ae-be5297c8f943","system_id":"levelo_inurba_marseille","lat":43.2926,"lon":5.36856,"is_reserved":false,"is_disabled":false,"rental_uris":{"android":"levelo://app?vid=302da97d-6164-4efb-a8ae-be5297c8f943","ios":"levelo://app?vid=302da97d-6164-4efb-a8ae-be5297c8f943"},"vehicle_type_id":"4","last_reported":1773228301,"current_range_meters":25600,"station_id":"ce4bhbp2rcd13ifvqesg","pricing_plan_id":"cebpf4jnsgd1na2vs0mg"},{"bike_id":"794f959c-f1b8-45bf-aaff-93adbc53443c","system_id":"levelo_inurba_marseille","lat":43.30484,"lon":5.37907,"is_reserved":false,"is_disabled":false,"rental_uris":{"android":"levelo://app?vid=794f959c-f1b8-45bf-aaff-93adbc53443c","ios":"levelo://app?vid=794f959c-f1b8-45bf-aaff-93adbc53443c"},"vehicle_type_id":"4","last_reported":1773228301,"current_range_meters":9600,"station_id":"ce4bgup2rcd13ifvqcn0","pricing_plan_id":"cebpf4jnsgd1na2vs0mg"},{"bike_id":"f62cbee2-12e5-4cdd-bfbc-04088f9f32fa","system_id":"levelo_inurba_marseille","lat":43.28481,"lon":5.48388,"is_reserved":false,"is_disabled":false,"rental_uris":{"android":"levelo://app?vid=f62cbee2-12e5-4cdd-bfbc-04088f9f32fa","ios":"levelo://app?vid=f62cbee2-12e5-4cdd-bfbc-04088f9f32fa"},"vehicle_type_id":"4","last_reported":1773228301,"current_range_meters":21600,"station_id":"","pricing_plan_id":"cebpf4jnsgd1na2vs0mg"},{"bike_id":"7ac56760-0833-4a18-a6cf-5947e0e74876","system_id":"levelo_inurba_marseille","lat":43.26538,"lon":5.37206,"is_reserved":false,"is_disabled":false,"rental_uris":{"android":"levelo://app?vid=7ac56760-0833-4a18-a6cf-5947e0e74876","ios":"levelo://app?vid=7ac56760-0833-4a18-a6cf-5947e0e74876"},"vehicle_type_id":"4","last_reported":1773228301,"current_range_meters":39200,"station_id":"","pricing_plan_id":"cebpf4jnsgd1na2vs0mg"},{"bike_id":"93664cea-8a8e-43de-8703-e7ab61aea72a","system_id":"levelo_inurba_marseille","lat":43.30173,"lon":5.38054,"is_reserved":false,"is_disabled":false,"rental_uris":{"android":"levelo://app?vid=93664cea-8a8e-43de-8703-e7ab61aea72a","ios":"levelo://app?vid=93664cea-8a8e-43de-8703-e7ab61aea72a"},"vehicle_type_id":"4","last_reported":1773228301,"current_range_meters":32400,"station_id":"ce4bgjp2rcd13ifvqbh0","pricing_plan_id":"cebpf4jnsgd1na2vs0mg"},{"bike_id":"681fca49-d7d0-4d64-ba5f-a1615360789c","system_id":"levelo_inurba_marseille","lat":43.25847,"lon":5.39412,"is_reserved":false,"is_disabled":false,"rental_uris":{"android":"levelo://app?vid=681fca49-d7d0-4d64-ba5f-a1615360789c","ios":"levelo://app?vid=681fca49-d7d0-4d64-ba5f-a1615360789c"},"vehicle_type_id":"4","last_reported":1773228301,"current_range_meters":37600,"station_id":"ce4bhip2rcd13ifvqft0","pricing_plan_id":"cebpf4jnsgd1na2vs0mg"},{"bike_id":"12c1b6e2-0d87-4045-a57e-72458b065b0b","system_id":"levelo_inurba_marseille","lat":43.31367,"lon":5.38488,"is_reserved":false,"is_disabled":false,"rental_uris":{"android":"levelo://app?vid=12c1b6e2-0d87-4045-a57e-72458b065b0b","ios":"levelo://app?vid=12c1b6e2-0d87-4045-a57e-72458b065b0b"},"vehicle_type_id":"4","last_reported":1773228301,"current_range_meters":6000,"station_id":"ce4bgt92rcd13ifvqcf0","pricing_plan_id":"cebpf4jnsgd1na2vs0mg"},{"bike_id":"ba3a231f-10a0-4302-b0e7-08f11861cd04","system_id":"levelo_inurba_marseille","lat":43.28479,"lon":5.48391,"is_reserved":false,"is_disabled":false,"rental_uris":{"android":"levelo://app?vid=ba3a231f-10a0-4302-b0e7-08f11861cd04","ios":"levelo://app?vid=ba3a231f-10a0-4302-b0e7-08f11861cd04"},"vehicle_type_id":"4","last_reported":1773228301,"current_range_meters":38800,"station_id":"","pricing_plan_id":"cebpf4jnsgd1na2vs0mg"},{"bike_id":"79d8b1e1-f7c6-4acb-9e38-336801c75b93","system_id":"levelo_inurba_marseille","lat":43.28847,"lon":5.35844,"is_reserved":false,"is_disabled":false,"rental_uris":{"android":"levelo://app?vid=79d8b1e1-f7c6-4acb-9e38-336801c75b93","ios":"levelo://app?vid=79d8b1e1-f7c6-4acb-9e38-336801c75b93"},"vehicle_type_id":"4","last_reported":1773228301,"current_range_meters":39200,"station_id":"ce4bhb12rcd13ifvqem0","pricing_plan_id":"cebpf4jnsgd1na2vs0mg"},{"bike_id":"0b3a6178-c659-4afa-a1c1-935435363474","system_id":"levelo_inurba_marseille","lat":43.23962,"lon":5.3664,"is_reserved":false,"is_disabled":false,"rental_uris":{"android":"levelo://app?vid=0b3a6178-c659-4afa-a1c1-935435363474","ios":"levelo://app?vid=0b3a6178-c659-4afa-a1c1-935435363474"},"vehicle_type_id":"4","last_reported":1773228301,"current_range_meters":39200,"station_id":"ce4bhi12rcd13ifvqfp0","pricing_plan_id":"cebpf4jnsgd1na2vs0mg"},{"bike_id":"ca0bc524-b0c1-4cc6-9e80-621b87ac7f0b","system_id":"levelo_inurba_marseille","lat":43.30207,"lon":5.39471,"is_reserved":false,"is_disabled":false,"rental_uris":{"android":"levelo://app?vid=ca0bc524-b0c1-4cc6-9e80-621b87ac7f0b","ios":"levelo://app?vid=ca0bc524-b0c1-4cc6-9e80-621b87ac7f0b"},"vehicle_type_id":"4","last_reported":1773228301,"current_range_meters":22800,"station_id":"ce4bh0p2rcd13ifvqd70","pricing_plan_id":"cebpf4jnsgd1na2vs0mg"},{"bike_id":"352c9f7d-89b4-42e5-9e2e-76d972a274bd","system_id":"levelo_inurba_marseille","lat":43.29708,"lon":5.42524,"is_reserved":false,"is_disabled":false,"rental_uris":{"android":"levelo://app?vid=352c9f7d-89b4-42e5-9e2e-76d972a274bd","ios":"levelo://app?vid=352c9f7d-89b4-42e5-9e2e-76d972a274bd"},"vehicle_type_id":"4","last_reported":1773228301,"current_range_meters":11200,"station_id":"","pricing_plan_id":"cebpf4jnsgd1na2vs0mg"},{"bike_id":"04a17b6d-7ebf-4022-9d3a-a2dd2cbb9c97","system_id":"levelo_inurba_marseille","lat":43.30542,"lon":5.36693,"is_reserved":false,"is_disabled":false,"rental_uris":{"android":"levelo://app?vid=04a17b6d-7ebf-4022-9d3a-a2dd2cbb9c97","ios":"levelo://app?vid=04a17b6d-7ebf-4022-9d3a-a2dd2cbb9c97"},"vehicle_type_id":"4","last_reported":1773228301,"current_range_meters":39200,"station_id":"ce4bgrp2rcd13ifvqc9g","pricing_plan_id":"cebpf4jnsgd1na2vs0mg"},{"bike_id":"bfee60c3-8b74-4c9f-aef3-67f690ec877a","system_id":"levelo_inurba_marseille","lat":43.30302,"lon":5.36885,"is_reserved":false,"is_disabled":false,"rental_uris":{"android":"levelo://app?vid=bfee60c3-8b74-4c9f-aef3-67f690ec877a","ios":"levelo://app?vid=bfee60c3-8b74-4c9f-aef3-67f690ec877a"},"vehicle_type_id":"4","last_reported":1773228301,"current_range_meters":14400,"station_id":"ce4bgqh2rcd13ifvqc5g","pricing_plan_id":"cebpf4jnsgd1na2vs0mg"},{"bike_id":"c59a5209-1b70-42df-8250-859beecf23e1","system_id":"levelo_inurba_marseille","lat":43.23201,"lon":5.35545,"is_reserved":false,"is_disabled":false,"rental_uris":{"android":"levelo://app?vid=c59a5209-1b70-42df-8250-859beecf23e1","ios":"levelo://app?vid=c59a5209-1b70-42df-8250-859beecf23e1"},"vehicle_type_id":"4","last_reported":1773228301,"current_range_meters":36800,"station_id":"ce4bhu92rcd13ifvqi70","pricing_plan_id":"cebpf4jnsgd1na2vs0mg"},{"bike_id":"f336589f-866f-46c6-b212-a692ab2ba293","system_id":"levelo_inurba_marseille","lat":43.29676,"lon":5.37113,"is_reserved":false,"is_disabled":false,"rental_uris":{"android":"levelo://app?vid=f336589f-866f-46c6-b212-a692ab2ba293","ios":"levelo://app?vid=f336589f-866f-46c6-b212-a692ab2ba293"},"vehicle_type_id":"4","last_reported":1773228301,"current_range_meters":14400,"station_id":"","pricing_plan_id":"cebpf4jnsgd1na2vs0mg"},{"bike_id":"0ec9318f-6d3d-41d0-ae7d-e609f87217a7","system_id":"levelo_inurba_marseille","lat":43.30957,"lon":5.39038,"is_reserved":false,"is_disabled":false,"rental_uris":{"android":"levelo://app?vid=0ec9318f-6d3d-41d0-ae7d-e609f87217a7","ios":"levelo://app?vid=0ec9318f-6d3d-41d0-ae7d-e609f87217a7"},"vehicle_type_id":"4","last_reported":1773228301,"current_range_meters":30400,"station_id":"ce4bgup2rcd13ifvqco0","pricing_plan_id":"cebpf4jnsgd1na2vs0mg"},{"bike_id":"fed428a6-a508-4132-94d7-783075e10fe3","system_id":"levelo_inurba_marseille","lat":43.32371,"lon":5.36749,"is_reserved":false,"is_disabled":false,"rental_uris":{"android":"levelo://app?vid=fed428a6-a508-4132-94d7-783075e10fe3","ios":"levelo://app?vid=fed428a6-a508-4132-94d7-783075e10fe3"},"vehicle_type_id":"4","last_reported":1773228301,"current_range_meters":36000,"station_id":"ce4bhsh2rcd13ifvqi2g","pricing_plan_id":"cebpf4jnsgd1na2vs0mg"},{"bike_id":"096022fa-aa89-4f31-9ae6-fdef7d3c8e2e","system_id":"levelo_inurba_marseille","lat":43.30314,"lon":5.39208,"is_reserved":false,"is_disabled":false,"rental_uris":{"android":"levelo://app?vid=096022fa-aa89-4f31-9ae6-fdef7d3c8e2e","ios":"levelo://app?vid=096022fa-aa89-4f31-9ae6-fdef7d3c8e2e"},"vehicle_type_id":"4","last_reported":1773228301,"current_range_meters":25600,"station_id":"ce4bgkh2rcd13ifvqbk0","pricing_plan_id":"cebpf4jnsgd1na2vs0mg"},{"bike_id":"b77fb604-0801-47d9-99a2-3844aa44df9a","system_id":"levelo_inurba_marseille","lat":43.25324,"lon":5.4217,"is_reserved":false,"is_disabled":false,"rental_uris":{"android":"levelo://app?vid=b77fb604-0801-47d9-99a2-3844aa44df9a","ios":"levelo://app?vid=b77fb604-0801-47d9-99a2-3844aa44df9a"},"vehicle_type_id":"4","last_reported":1773228301,"current_range_meters":28400,"station_id":"st_d2m65c5bi1j21697t3ng","pricing_plan_id":"cebpf4jnsgd1na2vs0mg"},{"bike_id":"dcad9259-a4d3-4cc7-94fc-0c8a7321317d","system_id":"levelo_inurba_marseille","lat":43.27067,"lon":5.38297,"is_reserved":false,"is_disabled":false,"rental_uris":{"android":"levelo://app?vid=dcad9259-a4d3-4cc7-94fc-0c8a7321317d","ios":"levelo://app?vid=dcad9259-a4d3-4cc7-94fc-0c8a7321317d"},"vehicle_type_id":"4","last_reported":1773228301,"current_range_meters":30000,"station_id":"st_d3n2fo6cfp8s73cte1j0","pricing_plan_id":"cebpf4jnsgd1na2vs0mg"},{"bike_id":"54dedf02-9946-4658-9e75-e2e8b7cf4198","system_id":"levelo_inurba_marseille","lat":43.24179,"lon":5.36385,"is_reserved":false,"is_disabled":false,"rental_uris":{"android":"levelo://app?vid=54dedf02-9946-4658-9e75-e2e8b7cf4198","ios":"levelo://app?vid=54dedf02-9946-4658-9e75-e2e8b7cf4198"},"vehicle_type_id":"4","last_reported":1773228301,"current_range_meters":18000,"station_id":"cpo36qri1sfpv3e86is0","pricing_plan_id":"cebpf4jnsgd1na2vs0mg"},{"bike_id":"16fce51b-761c-456a-9844-de0d7986c901","system_id":"levelo_inurba_marseille","lat":43.29643,"lon":5.3713,"is_reserved":false,"is_disabled":false,"rental_uris":{"android":"levelo://app?vid=16fce51b-761c-456a-9844-de0d7986c901","ios":"levelo://app?vid=16fce51b-761c-456a-9844-de0d7986c901"},"vehicle_type_id":"4","last_reported":1773228301,"current_range_meters":40000,"station_id":"ce4bgnh2rcd13ifvqc0g","pricing_plan_id":"cebpf4jnsgd1na2vs0mg"},{"bike_id":"65fb7e73-27fb-4983-8d0d-7baefc4dbf16","system_id":"levelo_inurba_marseille","lat":43.24412,"lon":5.37059,"is_reserved":false,"is_disabled":false,"rental_uris":{"android":"levelo://app?vid=65fb7e73-27fb-4983-8d0d-7baefc4dbf16","ios":"levelo://app?vid=65fb7e73-27fb-4983-8d0d-7baefc4dbf16"},"vehicle_type_id":"4","last_reported":1773228301,"current_range_meters":9600,"station_id":"ce4bhhh2rcd13ifvqfk0","pricing_plan_id":"cebpf4jnsgd1na2vs0mg"},{"bike_id":"0bd65bd6-432d-4f03-9bc1-a502b4962690","system_id":"levelo_inurba_marseille","lat":43.29302,"lon":5.37436,"is_reserved":false,"is_disabled":false,"rental_uris":{"android":"levelo://app?vid=0bd65bd6-432d-4f03-9bc1-a502b4962690","ios":"levelo://app?vid=0bd65bd6-432d-4f03-9bc1-a502b4962690"},"vehicle_type_id":"4","last_reported":1773228301,"current_range_meters":28800,"station_id":"ce4bgi12rcd13ifvqb70","pricing_plan_id":"cebpf4jnsgd1na2vs0mg"},{"bike_id":"b6942993-6967-4f6c-b7e8-d4ca854e4d0e","system_id":"levelo_inurba_marseille","lat":43.24995,"lon":5.3894,"is_reserved":false,"is_disabled":false,"rental_uris":{"android":"levelo://app?vid=b6942993-6967-4f6c-b7e8-d4ca854e4d0e","ios":"levelo://app?vid=b6942993-6967-4f6c-b7e8-d4ca854e4d0e"},"vehicle_type_id":"4","last_reported":1773228301,"current_range_meters":40000,"station_id":"ce4bhgp2rcd13ifvqfd0","pricing_plan_id":"cebpf4jnsgd1na2vs0mg"},{"bike_id":"33f682c2-36e9-444f-b2ec-0c2e39d9cf98","system_id":"levelo_inurba_marseille","lat":43.29182,"lon":5.3931,"is_reserved":false,"is_disabled":false,"rental_uris":{"android":"levelo://app?vid=33f682c2-36e9-444f-b2ec-0c2e39d9cf98","ios":"levelo://app?vid=33f682c2-36e9-444f-b2ec-0c2e39d9cf98"},"vehicle_type_id":"4","last_reported":1773228301,"current_range_meters":19200,"station_id":"ce4bh192rcd13ifvqdd0","pricing_plan_id":"cebpf4jnsgd1na2vs0mg"},{"bike_id":"a540b441-3928-4042-84dc-78cbd8de6fd0","system_id":"levelo_inurba_marseille","lat":43.24399,"lon":5.3706,"is_reserved":false,"is_disabled":false,"rental_uris":{"android":"levelo://app?vid=a540b441-3928-4042-84dc-78cbd8de6fd0","ios":"levelo://app?vid=a540b441-3928-4042-84dc-78cbd8de6fd0"},"vehicle_type_id":"4","last_reported":1773228301,"current_range_meters":34800,"station_id":"ce4bhhh2rcd13ifvqfk0","pricing_plan_id":"cebpf4jnsgd1na2vs0mg"},{"bike_id":"f43e3eef-00cf-48aa-9787-77212340770c","system_id":"levelo_inurba_marseille","lat":43.29191,"lon":5.35803,"is_reserved":false,"is_disabled":false,"rental_uris":{"android":"levelo://app?vid=f43e3eef-00cf-48aa-9787-77212340770c","ios":"levelo://app?vid=f43e3eef-00cf-48aa-9787-77212340770c"},"vehicle_type_id":"4","last_reported":1773228301,"current_range_meters":30800,"station_id":"ce4bhb12rcd13ifvqel0","pricing_plan_id":"cebpf4jnsgd1na2vs0mg"},{"bike_id":"4a415183-4d40-452c-9d2d-b724e2dfa905","system_id":"levelo_inurba_marseille","lat":43.29278,"lon":5.36855,"is_reserved":false,"is_disabled":false,"rental_uris":{"android":"levelo://app?vid=4a415183-4d40-452c-9d2d-b724e2dfa905","ios":"levelo://app?vid=4a415183-4d40-452c-9d2d-b724e2dfa905"},"vehicle_type_id":"4","last_reported":1773228301,"current_range_meters":31200,"station_id":"ce4bhbp2rcd13ifvqesg","pricing_plan_id":"cebpf4jnsgd1na2vs0mg"},{"bike_id":"2ac129ef-0500-4e15-8179-6818cd0eb7ac","system_id":"levelo_inurba_marseille","lat":43.27063,"lon":5.423,"is_reserved":false,"is_disabled":false,"rental_uris":{"android":"levelo://app?vid=2ac129ef-0500-4e15-8179-6818cd0eb7ac","ios":"levelo://app?vid=2ac129ef-0500-4e15-8179-6818cd0eb7ac"},"vehicle_type_id":"4","last_reported":1773228301,"current_range_meters":8800,"station_id":"ce4bhk92rcd13ifvqgb0","pricing_plan_id":"cebpf4jnsgd1na2vs0mg"},{"bike_id":"09b51f1e-4608-4273-bc57-8753e2939ff2","system_id":"levelo_inurba_marseille","lat":43.29931,"lon":5.36476,"is_reserved":false,"is_disabled":false,"rental_uris":{"android":"levelo://app?vid=09b51f1e-4608-4273-bc57-8753e2939ff2","ios":"levelo://app?vid=09b51f1e-4608-4273-bc57-8753e2939ff2"},"vehicle_type_id":"4","last_reported":1773228301,"current_range_meters":33600,"station_id":"ce4bgm92rcd13ifvqbr0","pricing_plan_id":"cebpf4jnsgd1na2vs0mg"},{"bike_id":"bf087080-fbd0-45e9-b421-f3cbdc582b45","system_id":"levelo_inurba_marseille","lat":43.29857,"lon":5.37668,"is_reserved":false,"is_disabled":false,"rental_uris":{"android":"levelo://app?vid=bf087080-fbd0-45e9-b421-f3cbdc582b45","ios":"levelo://app?vid=bf087080-fbd0-45e9-b421-f3cbdc582b45"},"vehicle_type_id":"4","last_reported":1773228301,"current_range_meters":27600,"station_id":"","pricing_plan_id":"cebpf4jnsgd1na2vs0mg"},{"bike_id":"412ebc32-5589-4f6e-8ac6-13ac9134d8c4","system_id":"levelo_inurba_marseille","lat":43.279694,"lon":5.387333,"is_reserved":false,"is_disabled":false,"rental_uris":{"android":"levelo://app?vid=412ebc32-5589-4f6e-8ac6-13ac9134d8c4","ios":"levelo://app?vid=412ebc32-5589-4f6e-8ac6-13ac9134d8c4"},"vehicle_type_id":"4","last_reported":1773228301,"current_range_meters":14400,"station_id":"ce4bhg12rcd13ifvqf80","pricing_plan_id":"cebpf4jnsgd1na2vs0mg"},{"bike_id":"02b6a88d-0d97-4f65-94e5-a6918763d252","system_id":"levelo_inurba_marseille","lat":43.30179,"lon":5.38066,"is_reserved":false,"is_disabled":false,"rental_uris":{"android":"levelo://app?vid=02b6a88d-0d97-4f65-94e5-a6918763d252","ios":"levelo://app?vid=02b6a88d-0d97-4f65-94e5-a6918763d252"},"vehicle_type_id":"4","last_reported":1773228301,"current_range_meters":22000,"station_id":"ce4bgjp2rcd13ifvqbh0","pricing_plan_id":"cebpf4jnsgd1na2vs0mg"},{"bike_id":"42ad98ee-dfe1-4261-a276-fba11b95eb9e","system_id":"levelo_inurba_marseille","lat":43.26208,"lon":5.37449,"is_reserved":false,"is_disabled":false,"rental_uris":{"android":"levelo://app?vid=42ad98ee-dfe1-4261-a276-fba11b95eb9e","ios":"levelo://app?vid=42ad98ee-dfe1-4261-a276-fba11b95eb9e"},"vehicle_type_id":"4","last_reported":1773228301,"current_range_meters":36800,"station_id":"ce4bhgp2rcd13ifvqfc0","pricing_plan_id":"cebpf4jnsgd1na2vs0mg"},{"bike_id":"5d35e186-9ea2-469b-87a9-367aebad843f","system_id":"levelo_inurba_marseille","lat":43.24182,"lon":5.3974,"is_reserved":false,"is_disabled":false,"rental_uris":{"android":"levelo://app?vid=5d35e186-9ea2-469b-87a9-367aebad843f","ios":"levelo://app?vid=5d35e186-9ea2-469b-87a9-367aebad843f"},"vehicle_type_id":"4","last_reported":1773228301,"current_range_meters":6800,"station_id":"ce4bhn12rcd13ifvqgpg","pricing_plan_id":"cebpf4jnsgd1na2vs0mg"},{"bike_id":"0a2f9b28-6219-4106-b011-3026133a767c","system_id":"levelo_inurba_marseille","lat":43.2957,"lon":5.37987,"is_reserved":false,"is_disabled":true,"rental_uris":{"android":"levelo://app?vid=0a2f9b28-6219-4106-b011-3026133a767c","ios":"levelo://app?vid=0a2f9b28-6219-4106-b011-3026133a767c"},"vehicle_type_id":"4","last_reported":1773228301,"current_range_meters":21600,"station_id":"","pricing_plan_id":"cebpf4jnsgd1na2vs0mg"},{"bike_id":"b5973cf5-4746-4a2a-bd57-36d0d0b72cbe","system_id":"levelo_inurba_marseille","lat":43.25494,"lon":5.37655,"is_reserved":false,"is_disabled":false,"rental_uris":{"android":"levelo://app?vid=b5973cf5-4746-4a2a-bd57-36d0d0b72cbe","ios":"levelo://app?vid=b5973cf5-4746-4a2a-bd57-36d0d0b72cbe"},"vehicle_type_id":"4","last_reported":1773228301,"current_range_meters":9600,"station_id":"ce4bhh12rcd13ifvqff0","pricing_plan_id":"cebpf4jnsgd1na2vs0mg"},{"bike_id":"333c1115-21ab-4cac-9273-ad709bdfe532","system_id":"levelo_inurba_marseille","lat":43.27499,"lon":5.42452,"is_reserved":false,"is_disabled":false,"rental_uris":{"android":"levelo://app?vid=333c1115-21ab-4cac-9273-ad709bdfe532","ios":"levelo://app?vid=333c1115-21ab-4cac-9273-ad709bdfe532"},"vehicle_type_id":"4","last_reported":1773228301,"current_range_meters":38000,"station_id":"ce4bhn92rcd13ifvqgrg","pricing_plan_id":"cebpf4jnsgd1na2vs0mg"},{"bike_id":"01c56011-233a-4c07-9933-91e369243105","system_id":"levelo_inurba_marseille","lat":43.34149,"lon":5.40902,"is_reserved":false,"is_disabled":false,"rental_uris":{"android":"levelo://app?vid=01c56011-233a-4c07-9933-91e369243105","ios":"levelo://app?vid=01c56011-233a-4c07-9933-91e369243105"},"vehicle_type_id":"4","last_reported":1773228301,"current_range_meters":27200,"station_id":"ce4bhqh2rcd13ifvqhlg","pricing_plan_id":"cebpf4jnsgd1na2vs0mg"},{"bike_id":"4b45c180-d867-4a3e-a722-37aba97630d5","system_id":"levelo_inurba_marseille","lat":43.27209,"lon":5.39186,"is_reserved":false,"is_disabled":false,"rental_uris":{"android":"levelo://app?vid=4b45c180-d867-4a3e-a722-37aba97630d5","ios":"levelo://app?vid=4b45c180-d867-4a3e-a722-37aba97630d5"},"vehicle_type_id":"4","last_reported":1773228301,"current_range_meters":38400,"station_id":"ce4bhhp2rcd13ifvqfm0","pricing_plan_id":"cebpf4jnsgd1na2vs0mg"},{"bike_id":"1ba906c2-b99a-496d-9d7e-8f97fbefd372","system_id":"levelo_inurba_marseille","lat":43.29386,"lon":5.37822,"is_reserved":false,"is_disabled":false,"rental_uris":{"android":"levelo://app?vid=1ba906c2-b99a-496d-9d7e-8f97fbefd372","ios":"levelo://app?vid=1ba906c2-b99a-496d-9d7e-8f97fbefd372"},"vehicle_type_id":"4","last_reported":1773228301,"current_range_meters":11200,"station_id":"ce4bgjh2rcd13ifvqbf0","pricing_plan_id":"cebpf4jnsgd1na2vs0mg"},{"bike_id":"9644a39d-d88a-45f9-9c69-7f88a3621822","system_id":"levelo_inurba_marseille","lat":43.29194,"lon":5.35799,"is_reserved":false,"is_disabled":false,"rental_uris":{"android":"levelo://app?vid=9644a39d-d88a-45f9-9c69-7f88a3621822","ios":"levelo://app?vid=9644a39d-d88a-45f9-9c69-7f88a3621822"},"vehicle_type_id":"4","last_reported":1773228301,"current_range_meters":40000,"station_id":"ce4bhb12rcd13ifvqel0","pricing_plan_id":"cebpf4jnsgd1na2vs0mg"},{"bike_id":"7567ece7-d0eb-41af-8836-79be3883e346","system_id":"levelo_inurba_marseille","lat":43.27201,"lon":5.39169,"is_reserved":false,"is_disabled":false,"rental_uris":{"android":"levelo://app?vid=7567ece7-d0eb-41af-8836-79be3883e346","ios":"levelo://app?vid=7567ece7-d0eb-41af-8836-79be3883e346"},"vehicle_type_id":"4","last_reported":1773228301,"current_range_meters":27200,"station_id":"ce4bhhp2rcd13ifvqfm0","pricing_plan_id":"cebpf4jnsgd1na2vs0mg"},{"bike_id":"4e5bdbc7-0f5f-42cb-979d-e84063fd515f","system_id":"levelo_inurba_marseille","lat":43.29297,"lon":5.37459,"is_reserved":false,"is_disabled":false,"rental_uris":{"android":"levelo://app?vid=4e5bdbc7-0f5f-42cb-979d-e84063fd515f","ios":"levelo://app?vid=4e5bdbc7-0f5f-42cb-979d-e84063fd515f"},"vehicle_type_id":"4","last_reported":1773228301,"current_range_meters":12800,"station_id":"ce4bgi12rcd13ifvqb70","pricing_plan_id":"cebpf4jnsgd1na2vs0mg"},{"bike_id":"aed86b01-743d-440d-a139-4282c98e0c95","system_id":"levelo_inurba_marseille","lat":43.24169,"lon":5.36389,"is_reserved":false,"is_disabled":false,"rental_uris":{"android":"levelo://app?vid=aed86b01-743d-440d-a139-4282c98e0c95","ios":"levelo://app?vid=aed86b01-743d-440d-a139-4282c98e0c95"},"vehicle_type_id":"4","last_reported":1773228301,"current_range_meters":14000,"station_id":"cpo36qri1sfpv3e86is0","pricing_plan_id":"cebpf4jnsgd1na2vs0mg"},{"bike_id":"ceb85dfd-9fcd-4b77-9f66-3415af1cb0f5","system_id":"levelo_inurba_marseille","lat":43.30158,"lon":5.38086,"is_reserved":false,"is_disabled":false,"rental_uris":{"android":"levelo://app?vid=ceb85dfd-9fcd-4b77-9f66-3415af1cb0f5","ios":"levelo://app?vid=ceb85dfd-9fcd-4b77-9f66-3415af1cb0f5"},"vehicle_type_id":"4","last_reported":1773228301,"current_range_meters":28800,"station_id":"ce4bgjp2rcd13ifvqbh0","pricing_plan_id":"cebpf4jnsgd1na2vs0mg"},{"bike_id":"04bae361-14ef-4b60-8d09-8cfddfc335ec","system_id":"levelo_inurba_marseille","lat":43.2835,"lon":5.38096,"is_reserved":false,"is_disabled":false,"rental_uris":{"android":"levelo://app?vid=04bae361-14ef-4b60-8d09-8cfddfc335ec","ios":"levelo://app?vid=04bae361-14ef-4b60-8d09-8cfddfc335ec"},"vehicle_type_id":"4","last_reported":1773228301,"current_range_meters":32800,"station_id":"ce4bh412rcd13ifvqdr0","pricing_plan_id":"cebpf4jnsgd1na2vs0mg"},{"bike_id":"3bb30847-837b-4c44-9e3e-b9ace5e9b620","system_id":"levelo_inurba_marseille","lat":43.29571,"lon":5.37509,"is_reserved":false,"is_disabled":true,"rental_uris":{"android":"levelo://app?vid=3bb30847-837b-4c44-9e3e-b9ace5e9b620","ios":"levelo://app?vid=3bb30847-837b-4c44-9e3e-b9ace5e9b620"},"vehicle_type_id":"4","last_reported":1773228301,"current_range_meters":400,"station_id":"ce4bgh92rcd13ifvqb50","pricing_plan_id":"cebpf4jnsgd1na2vs0mg"},{"bike_id":"3e7d4306-0e73-489e-9de5-5d65178e92cd","system_id":"levelo_inurba_marseille","lat":43.28419,"lon":5.34983,"is_reserved":false,"is_disabled":false,"rental_uris":{"android":"levelo://app?vid=3e7d4306-0e73-489e-9de5-5d65178e92cd","ios":"levelo://app?vid=3e7d4306-0e73-489e-9de5-5d65178e92cd"},"vehicle_type_id":"4","last_reported":1773228301,"current_range_meters":36800,"station_id":"ce4bhbh2rcd13ifvqepg","pricing_plan_id":"cebpf4jnsgd1na2vs0mg"},{"bike_id":"4eb01288-23f5-4e80-9a9a-837bb161c164","system_id":"levelo_inurba_marseille","lat":43.2707,"lon":5.38317,"is_reserved":false,"is_disabled":false,"rental_uris":{"android":"levelo://app?vid=4eb01288-23f5-4e80-9a9a-837bb161c164","ios":"levelo://app?vid=4eb01288-23f5-4e80-9a9a-837bb161c164"},"vehicle_type_id":"4","last_reported":1773228301,"current_range_meters":36800,"station_id":"st_d3n2fo6cfp8s73cte1j0","pricing_plan_id":"cebpf4jnsgd1na2vs0mg"},{"bike_id":"faec2436-d48c-4b11-8b30-20bb4a2e1087","system_id":"levelo_inurba_marseille","lat":43.2731,"lon":5.39074,"is_reserved":false,"is_disabled":false,"rental_uris":{"android":"levelo://app?vid=faec2436-d48c-4b11-8b30-20bb4a2e1087","ios":"levelo://app?vid=faec2436-d48c-4b11-8b30-20bb4a2e1087"},"vehicle_type_id":"4","last_reported":1773228301,"current_range_meters":38800,"station_id":"ce4bhgp2rcd13ifvqfe0","pricing_plan_id":"cebpf4jnsgd1na2vs0mg"},{"bike_id":"a63d22a1-9803-47da-97c5-9eb5069b8019","system_id":"levelo_inurba_marseille","lat":43.25826,"lon":5.39432,"is_reserved":false,"is_disabled":false,"rental_uris":{"android":"levelo://app?vid=a63d22a1-9803-47da-97c5-9eb5069b8019","ios":"levelo://app?vid=a63d22a1-9803-47da-97c5-9eb5069b8019"},"vehicle_type_id":"4","last_reported":1773228301,"current_range_meters":39200,"station_id":"ce4bhip2rcd13ifvqft0","pricing_plan_id":"cebpf4jnsgd1na2vs0mg"},{"bike_id":"893e0a49-3615-4028-ba62-16f7e52631a3","system_id":"levelo_inurba_marseille","lat":43.31375,"lon":5.36676,"is_reserved":false,"is_disabled":false,"rental_uris":{"android":"levelo://app?vid=893e0a49-3615-4028-ba62-16f7e52631a3","ios":"levelo://app?vid=893e0a49-3615-4028-ba62-16f7e52631a3"},"vehicle_type_id":"4","last_reported":1773228301,"current_range_meters":23200,"station_id":"ce4bgr92rcd13ifvqc6g","pricing_plan_id":"cebpf4jnsgd1na2vs0mg"},{"bike_id":"712f73a5-ccbd-4df8-a2bf-f8199628c205","system_id":"levelo_inurba_marseille","lat":43.25948,"lon":5.40886,"is_reserved":false,"is_disabled":false,"rental_uris":{"android":"levelo://app?vid=712f73a5-ccbd-4df8-a2bf-f8199628c205","ios":"levelo://app?vid=712f73a5-ccbd-4df8-a2bf-f8199628c205"},"vehicle_type_id":"4","last_reported":1773228301,"current_range_meters":3200,"station_id":"ce4bhm92rcd13ifvqglg","pricing_plan_id":"cebpf4jnsgd1na2vs0mg"},{"bike_id":"8b2e521b-1101-44fe-9d4a-0344f080c81c","system_id":"levelo_inurba_marseille","lat":43.28487,"lon":5.48399,"is_reserved":false,"is_disabled":false,"rental_uris":{"android":"levelo://app?vid=8b2e521b-1101-44fe-9d4a-0344f080c81c","ios":"levelo://app?vid=8b2e521b-1101-44fe-9d4a-0344f080c81c"},"vehicle_type_id":"4","last_reported":1773228301,"current_range_meters":37600,"station_id":"","pricing_plan_id":"cebpf4jnsgd1na2vs0mg"},{"bike_id":"47211649-8614-4b6a-9490-eec4357ab879","system_id":"levelo_inurba_marseille","lat":43.27668,"lon":5.38905,"is_reserved":false,"is_disabled":false,"rental_uris":{"android":"levelo://app?vid=47211649-8614-4b6a-9490-eec4357ab879","ios":"levelo://app?vid=47211649-8614-4b6a-9490-eec4357ab879"},"vehicle_type_id":"4","last_reported":1773228301,"current_range_meters":39200,"station_id":"ce4bhi12rcd13ifvqfo0","pricing_plan_id":"cebpf4jnsgd1na2vs0mg"},{"bike_id":"4386d34c-4be1-4d7c-9bab-b85b2df287fe","system_id":"levelo_inurba_marseille","lat":43.23973,"lon":5.36624,"is_reserved":false,"is_disabled":false,"rental_uris":{"android":"levelo://app?vid=4386d34c-4be1-4d7c-9bab-b85b2df287fe","ios":"levelo://app?vid=4386d34c-4be1-4d7c-9bab-b85b2df287fe"},"vehicle_type_id":"4","last_reported":1773228301,"current_range_meters":17600,"station_id":"ce4bhi12rcd13ifvqfp0","pricing_plan_id":"cebpf4jnsgd1na2vs0mg"},{"bike_id":"1697678c-c8a4-4c47-ade7-901915c540a8","system_id":"levelo_inurba_marseille","lat":43.29587,"lon":5.38092,"is_reserved":false,"is_disabled":true,"rental_uris":{"android":"levelo://app?vid=1697678c-c8a4-4c47-ade7-901915c540a8","ios":"levelo://app?vid=1697678c-c8a4-4c47-ade7-901915c540a8"},"vehicle_type_id":"4","last_reported":1773228301,"current_range_meters":6800,"station_id":"ce4bgl12rcd13ifvqbo0","pricing_plan_id":"cebpf4jnsgd1na2vs0mg"},{"bike_id":"c218a525-9f9c-4fa7-ade2-984f84feab52","system_id":"levelo_inurba_marseille","lat":43.30914,"lon":5.36858,"is_reserved":false,"is_disabled":false,"rental_uris":{"android":"levelo://app?vid=c218a525-9f9c-4fa7-ade2-984f84feab52","ios":"levelo://app?vid=c218a525-9f9c-4fa7-ade2-984f84feab52"},"vehicle_type_id":"4","last_reported":1773228301,"current_range_meters":38400,"station_id":"ce4bgn92rcd13ifvqbvg","pricing_plan_id":"cebpf4jnsgd1na2vs0mg"},{"bike_id":"b50eac4f-03f7-43b9-b93d-ea23993cb71a","system_id":"levelo_inurba_marseille","lat":43.26786,"lon":5.39408,"is_reserved":false,"is_disabled":false,"rental_uris":{"android":"levelo://app?vid=b50eac4f-03f7-43b9-b93d-ea23993cb71a","ios":"levelo://app?vid=b50eac4f-03f7-43b9-b93d-ea23993cb71a"},"vehicle_type_id":"4","last_reported":1773228301,"current_range_meters":36400,"station_id":"ce4bhh12rcd13ifvqfg0","pricing_plan_id":"cebpf4jnsgd1na2vs0mg"},{"bike_id":"9f771103-8db9-4e4d-8970-6580b0d7771b","system_id":"levelo_inurba_marseille","lat":43.30551,"lon":5.367,"is_reserved":false,"is_disabled":false,"rental_uris":{"android":"levelo://app?vid=9f771103-8db9-4e4d-8970-6580b0d7771b","ios":"levelo://app?vid=9f771103-8db9-4e4d-8970-6580b0d7771b"},"vehicle_type_id":"4","last_reported":1773228301,"current_range_meters":24800,"station_id":"ce4bgrp2rcd13ifvqc9g","pricing_plan_id":"cebpf4jnsgd1na2vs0mg"},{"bike_id":"95626eb4-bf2f-4dba-99bf-fd8693a2d64c","system_id":"levelo_inurba_marseille","lat":43.27317,"lon":5.39076,"is_reserved":false,"is_disabled":false,"rental_uris":{"android":"levelo://app?vid=95626eb4-bf2f-4dba-99bf-fd8693a2d64c","ios":"levelo://app?vid=95626eb4-bf2f-4dba-99bf-fd8693a2d64c"},"vehicle_type_id":"4","last_reported":1773228301,"current_range_meters":32800,"station_id":"ce4bhgp2rcd13ifvqfe0","pricing_plan_id":"cebpf4jnsgd1na2vs0mg"},{"bike_id":"bc8846b0-d567-493b-8d14-5a421dbe54aa","system_id":"levelo_inurba_marseille","lat":43.29562,"lon":5.37511,"is_reserved":false,"is_disabled":false,"rental_uris":{"android":"levelo://app?vid=bc8846b0-d567-493b-8d14-5a421dbe54aa","ios":"levelo://app?vid=bc8846b0-d567-493b-8d14-5a421dbe54aa"},"vehicle_type_id":"4","last_reported":1773228301,"current_range_meters":24000,"station_id":"ce4bgh92rcd13ifvqb50","pricing_plan_id":"cebpf4jnsgd1na2vs0mg"},{"bike_id":"2b24f05b-53e2-46bd-9d2a-5741d3f7b3c5","system_id":"levelo_inurba_marseille","lat":43.24074,"lon":5.37751,"is_reserved":false,"is_disabled":false,"rental_uris":{"android":"levelo://app?vid=2b24f05b-53e2-46bd-9d2a-5741d3f7b3c5","ios":"levelo://app?vid=2b24f05b-53e2-46bd-9d2a-5741d3f7b3c5"},"vehicle_type_id":"4","last_reported":1773228301,"current_range_meters":16400,"station_id":"ce4bhnp2rcd13ifvqgvg","pricing_plan_id":"cebpf4jnsgd1na2vs0mg"},{"bike_id":"2436638b-fa42-4103-b807-af930e438fa3","system_id":"levelo_inurba_marseille","lat":43.2465,"lon":5.38892,"is_reserved":false,"is_disabled":false,"rental_uris":{"android":"levelo://app?vid=2436638b-fa42-4103-b807-af930e438fa3","ios":"levelo://app?vid=2436638b-fa42-4103-b807-af930e438fa3"},"vehicle_type_id":"4","last_reported":1773228301,"current_range_meters":14000,"station_id":"ce4bhg12rcd13ifvqf60","pricing_plan_id":"cebpf4jnsgd1na2vs0mg"},{"bike_id":"84f24c4f-c2e8-44eb-93b8-496d29da2656","system_id":"levelo_inurba_marseille","lat":43.30907,"lon":5.36863,"is_reserved":false,"is_disabled":false,"rental_uris":{"android":"levelo://app?vid=84f24c4f-c2e8-44eb-93b8-496d29da2656","ios":"levelo://app?vid=84f24c4f-c2e8-44eb-93b8-496d29da2656"},"vehicle_type_id":"4","last_reported":1773228301,"current_range_meters":36000,"station_id":"ce4bgn92rcd13ifvqbvg","pricing_plan_id":"cebpf4jnsgd1na2vs0mg"},{"bike_id":"d8fb0563-4b9c-474d-af91-4151d99113bf","system_id":"levelo_inurba_marseille","lat":43.33157,"lon":5.37699,"is_reserved":false,"is_disabled":false,"rental_uris":{"android":"levelo://app?vid=d8fb0563-4b9c-474d-af91-4151d99113bf","ios":"levelo://app?vid=d8fb0563-4b9c-474d-af91-4151d99113bf"},"vehicle_type_id":"4","last_reported":1773228301,"current_range_meters":33200,"station_id":"st_d46cu089ee8s73dldbu0","pricing_plan_id":"cebpf4jnsgd1na2vs0mg"},{"bike_id":"9683c60a-dfca-4bee-baf8-d62d4e08aa82","system_id":"levelo_inurba_marseille","lat":43.309,"lon":5.37176,"is_reserved":false,"is_disabled":false,"rental_uris":{"android":"levelo://app?vid=9683c60a-dfca-4bee-baf8-d62d4e08aa82","ios":"levelo://app?vid=9683c60a-dfca-4bee-baf8-d62d4e08aa82"},"vehicle_type_id":"4","last_reported":1773228301,"current_range_meters":17200,"station_id":"ce4bguh2rcd13ifvqckg","pricing_plan_id":"cebpf4jnsgd1na2vs0mg"},{"bike_id":"629a5b04-9225-42cf-b2f9-d31afe3f11aa","system_id":"levelo_inurba_marseille","lat":43.26544,"lon":5.37282,"is_reserved":false,"is_disabled":false,"rental_uris":{"android":"levelo://app?vid=629a5b04-9225-42cf-b2f9-d31afe3f11aa","ios":"levelo://app?vid=629a5b04-9225-42cf-b2f9-d31afe3f11aa"},"vehicle_type_id":"4","last_reported":1773228301,"current_range_meters":39200,"station_id":"ce4bhg12rcd13ifvqf70","pricing_plan_id":"cebpf4jnsgd1na2vs0mg"},{"bike_id":"26a6b2e2-002a-4072-a1a2-b594f4e8b66c","system_id":"levelo_inurba_marseille","lat":43.295628,"lon":5.375213,"is_reserved":false,"is_disabled":false,"rental_uris":{"android":"levelo://app?vid=26a6b2e2-002a-4072-a1a2-b594f4e8b66c","ios":"levelo://app?vid=26a6b2e2-002a-4072-a1a2-b594f4e8b66c"},"vehicle_type_id":"4","last_reported":1773228301,"current_range_meters":29600,"station_id":"","pricing_plan_id":"cebpf4jnsgd1na2vs0mg"},{"bike_id":"c0f412de-40e6-4a94-a5dd-7c358ceb2433","system_id":"levelo_inurba_marseille","lat":43.23192,"lon":5.39985,"is_reserved":false,"is_disabled":false,"rental_uris":{"android":"levelo://app?vid=c0f412de-40e6-4a94-a5dd-7c358ceb2433","ios":"levelo://app?vid=c0f412de-40e6-4a94-a5dd-7c358ceb2433"},"vehicle_type_id":"4","last_reported":1773228301,"current_range_meters":39200,"station_id":"ce4bhn12rcd13ifvqgqg","pricing_plan_id":"cebpf4jnsgd1na2vs0mg"},{"bike_id":"34442958-43b2-4a68-9875-0a9f86e4ffcd","system_id":"levelo_inurba_marseille","lat":43.31032,"lon":5.37157,"is_reserved":false,"is_disabled":false,"rental_uris":{"android":"levelo://app?vid=34442958-43b2-4a68-9875-0a9f86e4ffcd","ios":"levelo://app?vid=34442958-43b2-4a68-9875-0a9f86e4ffcd"},"vehicle_type_id":"4","last_reported":1773228301,"current_range_meters":35200,"station_id":"st_d4kl2rp97mjs73e7tdfg","pricing_plan_id":"cebpf4jnsgd1na2vs0mg"},{"bike_id":"18e13506-47ec-472b-952c-0cda623df6f9","system_id":"levelo_inurba_marseille","lat":43.27211,"lon":5.39159,"is_reserved":false,"is_disabled":false,"rental_uris":{"android":"levelo://app?vid=18e13506-47ec-472b-952c-0cda623df6f9","ios":"levelo://app?vid=18e13506-47ec-472b-952c-0cda623df6f9"},"vehicle_type_id":"4","last_reported":1773228301,"current_range_meters":40000,"station_id":"ce4bhhp2rcd13ifvqfm0","pricing_plan_id":"cebpf4jnsgd1na2vs0mg"},{"bike_id":"fd7d5543-5a5d-41d6-9fce-f29d16997315","system_id":"levelo_inurba_marseille","lat":43.24949,"lon":5.40503,"is_reserved":false,"is_disabled":false,"rental_uris":{"android":"levelo://app?vid=fd7d5543-5a5d-41d6-9fce-f29d16997315","ios":"levelo://app?vid=fd7d5543-5a5d-41d6-9fce-f29d16997315"},"vehicle_type_id":"4","last_reported":1773228301,"current_range_meters":30800,"station_id":"st_d2ngiaodas8pm72gd1h0","pricing_plan_id":"cebpf4jnsgd1na2vs0mg"},{"bike_id":"231581b3-46e8-4052-85e7-dfb6a3c34fca","system_id":"levelo_inurba_marseille","lat":43.3189,"lon":5.40737,"is_reserved":false,"is_disabled":false,"rental_uris":{"android":"levelo://app?vid=231581b3-46e8-4052-85e7-dfb6a3c34fca","ios":"levelo://app?vid=231581b3-46e8-4052-85e7-dfb6a3c34fca"},"vehicle_type_id":"4","last_reported":1773228301,"current_range_meters":36400,"station_id":"","pricing_plan_id":"cebpf4jnsgd1na2vs0mg"},{"bike_id":"3b115ee3-0f3c-4a49-8a38-cee8c9bed173","system_id":"levelo_inurba_marseille","lat":43.2675,"lon":5.39455,"is_reserved":false,"is_disabled":false,"rental_uris":{"android":"levelo://app?vid=3b115ee3-0f3c-4a49-8a38-cee8c9bed173","ios":"levelo://app?vid=3b115ee3-0f3c-4a49-8a38-cee8c9bed173"},"vehicle_type_id":"4","last_reported":1773228301,"current_range_meters":40000,"station_id":"ce4bhh12rcd13ifvqfg0","pricing_plan_id":"cebpf4jnsgd1na2vs0mg"},{"bike_id":"9f5b9ce4-41cf-4059-85ba-1b9a1f61f335","system_id":"levelo_inurba_marseille","lat":43.27205,"lon":5.39171,"is_reserved":false,"is_disabled":false,"rental_uris":{"android":"levelo://app?vid=9f5b9ce4-41cf-4059-85ba-1b9a1f61f335","ios":"levelo://app?vid=9f5b9ce4-41cf-4059-85ba-1b9a1f61f335"},"vehicle_type_id":"4","last_reported":1773228301,"current_range_meters":24400,"station_id":"ce4bhhp2rcd13ifvqfm0","pricing_plan_id":"cebpf4jnsgd1na2vs0mg"},{"bike_id":"2d2308ef-69dd-4485-8115-280e831dcf87","system_id":"levelo_inurba_marseille","lat":43.28485,"lon":5.48383,"is_reserved":false,"is_disabled":false,"rental_uris":{"android":"levelo://app?vid=2d2308ef-69dd-4485-8115-280e831dcf87","ios":"levelo://app?vid=2d2308ef-69dd-4485-8115-280e831dcf87"},"vehicle_type_id":"4","last_reported":1773228301,"current_range_meters":8800,"station_id":"st_d3svhcjqgbts73a3dn0g","pricing_plan_id":"cebpf4jnsgd1na2vs0mg"},{"bike_id":"354b5bda-3949-4498-85b6-eb76538c91b8","system_id":"levelo_inurba_marseille","lat":43.31558,"lon":5.37312,"is_reserved":false,"is_disabled":false,"rental_uris":{"android":"levelo://app?vid=354b5bda-3949-4498-85b6-eb76538c91b8","ios":"levelo://app?vid=354b5bda-3949-4498-85b6-eb76538c91b8"},"vehicle_type_id":"4","last_reported":1773228301,"current_range_meters":37600,"station_id":"","pricing_plan_id":"cebpf4jnsgd1na2vs0mg"},{"bike_id":"31eab7aa-d2ff-4d19-8af0-c2c63f0c6b5f","system_id":"levelo_inurba_marseille","lat":43.23191,"lon":5.3557,"is_reserved":false,"is_disabled":false,"rental_uris":{"android":"levelo://app?vid=31eab7aa-d2ff-4d19-8af0-c2c63f0c6b5f","ios":"levelo://app?vid=31eab7aa-d2ff-4d19-8af0-c2c63f0c6b5f"},"vehicle_type_id":"4","last_reported":1773228301,"current_range_meters":25200,"station_id":"ce4bhu92rcd13ifvqi70","pricing_plan_id":"cebpf4jnsgd1na2vs0mg"},{"bike_id":"005c0dd6-e851-4edd-8194-6a5137ecba58","system_id":"levelo_inurba_marseille","lat":43.3031,"lon":5.36902,"is_reserved":false,"is_disabled":false,"rental_uris":{"android":"levelo://app?vid=005c0dd6-e851-4edd-8194-6a5137ecba58","ios":"levelo://app?vid=005c0dd6-e851-4edd-8194-6a5137ecba58"},"vehicle_type_id":"4","last_reported":1773228301,"current_range_meters":25600,"station_id":"ce4bgqh2rcd13ifvqc5g","pricing_plan_id":"cebpf4jnsgd1na2vs0mg"},{"bike_id":"6ed2579b-f5de-4d3b-9ebf-1f39021367ee","system_id":"levelo_inurba_marseille","lat":43.27225,"lon":5.39171,"is_reserved":false,"is_disabled":false,"rental_uris":{"android":"levelo://app?vid=6ed2579b-f5de-4d3b-9ebf-1f39021367ee","ios":"levelo://app?vid=6ed2579b-f5de-4d3b-9ebf-1f39021367ee"},"vehicle_type_id":"4","last_reported":1773228301,"current_range_meters":37600,"station_id":"ce4bhhp2rcd13ifvqfm0","pricing_plan_id":"cebpf4jnsgd1na2vs0mg"},{"bike_id":"6274b93b-7cff-4de6-88de-a7a402cb13f2","system_id":"levelo_inurba_marseille","lat":43.28275,"lon":5.35066,"is_reserved":false,"is_disabled":false,"rental_uris":{"android":"levelo://app?vid=6274b93b-7cff-4de6-88de-a7a402cb13f2","ios":"levelo://app?vid=6274b93b-7cff-4de6-88de-a7a402cb13f2"},"vehicle_type_id":"4","last_reported":1773228301,"current_range_meters":10800,"station_id":"ce4bhbp2rcd13ifvqerg","pricing_plan_id":"cebpf4jnsgd1na2vs0mg"},{"bike_id":"531af1f4-c05d-44d3-b0db-af9c9ec2582b","system_id":"levelo_inurba_marseille","lat":43.29943,"lon":5.36515,"is_reserved":false,"is_disabled":true,"rental_uris":{"android":"levelo://app?vid=531af1f4-c05d-44d3-b0db-af9c9ec2582b","ios":"levelo://app?vid=531af1f4-c05d-44d3-b0db-af9c9ec2582b"},"vehicle_type_id":"4","last_reported":1773228301,"current_range_meters":30400,"station_id":"ce4bgm92rcd13ifvqbr0","pricing_plan_id":"cebpf4jnsgd1na2vs0mg"},{"bike_id":"358135ca-c3f5-4edc-b039-6456adc8657b","system_id":"levelo_inurba_marseille","lat":43.26681,"lon":5.38252,"is_reserved":false,"is_disabled":false,"rental_uris":{"android":"levelo://app?vid=358135ca-c3f5-4edc-b039-6456adc8657b","ios":"levelo://app?vid=358135ca-c3f5-4edc-b039-6456adc8657b"},"vehicle_type_id":"4","last_reported":1773228301,"current_range_meters":19600,"station_id":"ce4bhg92rcd13ifvqf90","pricing_plan_id":"cebpf4jnsgd1na2vs0mg"},{"bike_id":"a0aa8461-cd6a-4db7-9d35-4a39cc18dc6b","system_id":"levelo_inurba_marseille","lat":43.30513,"lon":5.36647,"is_reserved":false,"is_disabled":true,"rental_uris":{"android":"levelo://app?vid=a0aa8461-cd6a-4db7-9d35-4a39cc18dc6b","ios":"levelo://app?vid=a0aa8461-cd6a-4db7-9d35-4a39cc18dc6b"},"vehicle_type_id":"4","last_reported":1773228301,"current_range_meters":26000,"station_id":"","pricing_plan_id":"cebpf4jnsgd1na2vs0mg"},{"bike_id":"122daf15-e5de-4005-b987-3d5b56ed7244","system_id":"levelo_inurba_marseille","lat":43.29207,"lon":5.36065,"is_reserved":false,"is_disabled":false,"rental_uris":{"android":"levelo://app?vid=122daf15-e5de-4005-b987-3d5b56ed7244","ios":"levelo://app?vid=122daf15-e5de-4005-b987-3d5b56ed7244"},"vehicle_type_id":"4","last_reported":1773228301,"current_range_meters":36800,"station_id":"ce4bhbh2rcd13ifvqeqg","pricing_plan_id":"cebpf4jnsgd1na2vs0mg"},{"bike_id":"2577d371-c061-468a-9c16-f42c2764a051","system_id":"levelo_inurba_marseille","lat":43.27292,"lon":5.39048,"is_reserved":false,"is_disabled":false,"rental_uris":{"android":"levelo://app?vid=2577d371-c061-468a-9c16-f42c2764a051","ios":"levelo://app?vid=2577d371-c061-468a-9c16-f42c2764a051"},"vehicle_type_id":"4","last_reported":1773228301,"current_range_meters":24800,"station_id":"ce4bhgp2rcd13ifvqfe0","pricing_plan_id":"cebpf4jnsgd1na2vs0mg"},{"bike_id":"bf616549-7a35-47e2-9426-d41582ad9bc0","system_id":"levelo_inurba_marseille","lat":43.28152,"lon":5.42638,"is_reserved":false,"is_disabled":false,"rental_uris":{"android":"levelo://app?vid=bf616549-7a35-47e2-9426-d41582ad9bc0","ios":"levelo://app?vid=bf616549-7a35-47e2-9426-d41582ad9bc0"},"vehicle_type_id":"4","last_reported":1773228301,"current_range_meters":17200,"station_id":"ce4bhnh2rcd13ifvqgug","pricing_plan_id":"cebpf4jnsgd1na2vs0mg"},{"bike_id":"3c5f9fc9-6c03-4527-85fa-ee20ae245c46","system_id":"levelo_inurba_marseille","lat":43.31036,"lon":5.37182,"is_reserved":false,"is_disabled":false,"rental_uris":{"android":"levelo://app?vid=3c5f9fc9-6c03-4527-85fa-ee20ae245c46","ios":"levelo://app?vid=3c5f9fc9-6c03-4527-85fa-ee20ae245c46"},"vehicle_type_id":"4","last_reported":1773228301,"current_range_meters":39200,"station_id":"st_d4kl2rp97mjs73e7tdfg","pricing_plan_id":"cebpf4jnsgd1na2vs0mg"},{"bike_id":"4164d970-9387-4571-a484-190ff6193b27","system_id":"levelo_inurba_marseille","lat":43.25582,"lon":5.38225,"is_reserved":false,"is_disabled":false,"rental_uris":{"android":"levelo://app?vid=4164d970-9387-4571-a484-190ff6193b27","ios":"levelo://app?vid=4164d970-9387-4571-a484-190ff6193b27"},"vehicle_type_id":"4","last_reported":1773228301,"current_range_meters":39200,"station_id":"ce4bhih2rcd13ifvqfs0","pricing_plan_id":"cebpf4jnsgd1na2vs0mg"},{"bike_id":"2b63a029-e2e4-4870-b2ff-57547637fc6d","system_id":"levelo_inurba_marseille","lat":43.30934,"lon":5.38997,"is_reserved":false,"is_disabled":false,"rental_uris":{"android":"levelo://app?vid=2b63a029-e2e4-4870-b2ff-57547637fc6d","ios":"levelo://app?vid=2b63a029-e2e4-4870-b2ff-57547637fc6d"},"vehicle_type_id":"4","last_reported":1773228301,"current_range_meters":39200,"station_id":"ce4bgup2rcd13ifvqco0","pricing_plan_id":"cebpf4jnsgd1na2vs0mg"},{"bike_id":"f97838ae-0f9e-464a-b1c4-9b705b228cb8","system_id":"levelo_inurba_marseille","lat":43.29017,"lon":5.37532,"is_reserved":false,"is_disabled":false,"rental_uris":{"android":"levelo://app?vid=f97838ae-0f9e-464a-b1c4-9b705b228cb8","ios":"levelo://app?vid=f97838ae-0f9e-464a-b1c4-9b705b228cb8"},"vehicle_type_id":"4","last_reported":1773228301,"current_range_meters":22000,"station_id":"ce4bh692rcd13ifvqe90","pricing_plan_id":"cebpf4jnsgd1na2vs0mg"},{"bike_id":"b5cd3256-ce96-453d-9c85-53f392e6873f","system_id":"levelo_inurba_marseille","lat":43.29801,"lon":5.38093,"is_reserved":false,"is_disabled":false,"rental_uris":{"android":"levelo://app?vid=b5cd3256-ce96-453d-9c85-53f392e6873f","ios":"levelo://app?vid=b5cd3256-ce96-453d-9c85-53f392e6873f"},"vehicle_type_id":"4","last_reported":1773228301,"current_range_meters":27200,"station_id":"ce4bgip2rcd13ifvqbb0","pricing_plan_id":"cebpf4jnsgd1na2vs0mg"},{"bike_id":"eee030f9-7359-435a-8db7-cd8193b34512","system_id":"levelo_inurba_marseille","lat":43.26065,"lon":5.3939,"is_reserved":false,"is_disabled":false,"rental_uris":{"android":"levelo://app?vid=eee030f9-7359-435a-8db7-cd8193b34512","ios":"levelo://app?vid=eee030f9-7359-435a-8db7-cd8193b34512"},"vehicle_type_id":"4","last_reported":1773228301,"current_range_meters":31200,"station_id":"ce4bhh92rcd13ifvqfj0","pricing_plan_id":"cebpf4jnsgd1na2vs0mg"},{"bike_id":"e1953514-6bba-4fb4-94e4-40c57b362e06","system_id":"levelo_inurba_marseille","lat":43.27991,"lon":5.40019,"is_reserved":false,"is_disabled":false,"rental_uris":{"android":"levelo://app?vid=e1953514-6bba-4fb4-94e4-40c57b362e06","ios":"levelo://app?vid=e1953514-6bba-4fb4-94e4-40c57b362e06"},"vehicle_type_id":"4","last_reported":1773228301,"current_range_meters":19600,"station_id":"ce4bho92rcd13ifvqh4g","pricing_plan_id":"cebpf4jnsgd1na2vs0mg"},{"bike_id":"3123a7b5-e359-46e1-90c5-b2b95daf93ca","system_id":"levelo_inurba_marseille","lat":43.27946,"lon":5.41004,"is_reserved":false,"is_disabled":false,"rental_uris":{"android":"levelo://app?vid=3123a7b5-e359-46e1-90c5-b2b95daf93ca","ios":"levelo://app?vid=3123a7b5-e359-46e1-90c5-b2b95daf93ca"},"vehicle_type_id":"4","last_reported":1773228301,"current_range_meters":39200,"station_id":"ce4bhnp2rcd13ifvqh0g","pricing_plan_id":"cebpf4jnsgd1na2vs0mg"},{"bike_id":"11a157cb-b049-4efb-8fac-e0f23e985f12","system_id":"levelo_inurba_marseille","lat":43.28345,"lon":5.38616,"is_reserved":false,"is_disabled":false,"rental_uris":{"android":"levelo://app?vid=11a157cb-b049-4efb-8fac-e0f23e985f12","ios":"levelo://app?vid=11a157cb-b049-4efb-8fac-e0f23e985f12"},"vehicle_type_id":"4","last_reported":1773228301,"current_range_meters":26800,"station_id":"ce4bh492rcd13ifvqdvg","pricing_plan_id":"cebpf4jnsgd1na2vs0mg"},