{"last_updated":1737367811,"ttl":60,"version":"2.2","data":{"bikes":[{"bike_id":"2615861c-10e7-4b67-912a-ccc72afe4684","system_id":"levelo_inurba_marseille","lat":43.29353,"lon":5.37844,"is_reserved":false,"is_disabled":false,"rental_uris":{"android":"levelo://app?vid=2615861c-10e7-4b67-912a-ccc72afe4684","ios":"levelo://app?vid=2615861c-10e7-4b67-912a-ccc72afe4684"},"vehicle_type_id":"4","last_reported":1737367811,"current_range_meters":39200,"station_id":"ce4bgjh2rcd13ifvqbf0","pricing_plan_id":"cebpf4jnsgd1na2vs0mg"},{"bike_id":"976d939b-a82d-41e6-abb4-e25496ddb17f","system_id":"levelo_inurba_marseille","lat":43.25945,"lon":5.40902,"is_reserved":false,"is_disabled":false,"rental_uris":{"android":"levelo://app?vid=976d939b-a82d-41e6-abb4-e25496ddb17f","ios":"levelo://app?vid=976d939b-a82d-41e6-abb4-e25496ddb17f"},"vehicle_type_id":"4","last_reported":1737367811,"current_range_meters":28400,"station_id":"ce4bhm92rcd13ifvqglg","pricing_plan_id":"cebpf4jnsgd1na2vs0mg"},{"bike_id":"54699930-2dbc-4d91-ab1b-41cfe810e817","system_id":"levelo_inurba_marseille","lat":43.29181,"lon":5.39394,"is_reserved":false,"is_disabled":true,"rental_uris":{"android":"levelo://app?vid=54699930-2dbc-4d91-ab1b-41cfe810e817","ios":"levelo://app?vid=54699930-2dbc-4d91-ab1b-41cfe810e817"},"vehicle_type_id":"4","last_reported":1737367811,"current_range_meters":0,"station_id":"","pricing_plan_id":"cebpf4jnsgd1na2vs0mg"},{"bike_id":"97895ebf-d09c-4c8b-9e0a-2dc38f2cc398","system_id":"levelo_inurba_marseille","lat":43.25105,"lon":5.40338,"is_reserved":false,"is_disabled":false,"rental_uris":{"android":"levelo://app?vid=97895ebf-d09c-4c8b-9e0a-2dc38f2cc398","ios":"levelo://app?vid=97895ebf-d09c-4c8b-9e0a-2dc38f2cc398"},"vehicle_type_id":"4","last_reported":1737367811,"current_range_meters":34000,"station_id":"ce4bhlh2rcd13ifvqgig","pricing_plan_id":"cebpf4jnsgd1na2vs0mg"},{"bike_id":"e841df29-8d21-48cf-a019-18bc26b21d64","system_id":"levelo_inurba_marseille","lat":43.27349,"lon":5.36229,"is_reserved":false,"is_disabled":false,"rental_uris":{"android":"levelo://app?vid=e841df29-8d21-48cf-a019-18bc26b21d64","ios":"levelo://app?vid=e841df29-8d21-48cf-a019-18bc26b21d64"},"vehicle_type_id":"4","last_reported":1737367811,"current_range_meters":38800,"station_id":"ce4bhbh2rcd13ifvqeo0","pricing_plan_id":"cebpf4jnsgd1na2vs0mg"},{"bike_id":"016891d3-d48d-43ea-9d8d-aacd30510a50","system_id":"levelo_inurba_marseille","lat":43.23053,"lon":5.35511,"is_reserved":false,"is_disabled":false,"rental_uris":{"android":"levelo://app?vid=016891d3-d48d-43ea-9d8d-aacd30510a50","ios":"levelo://app?vid=016891d3-d48d-43ea-9d8d-aacd30510a50"},"vehicle_type_id":"4","last_reported":1737367811,"current_range_meters":19200,"station_id":"cpo3342slgdg3j2ifvpg","pricing_plan_id":"cebpf4jnsgd1na2vs0mg"},{"bike_id":"f71bc3ec-9988-416c-9e0a-34d2a661e101","system_id":"levelo_inurba_marseille","lat":43.30145,"lon":5.39897,"is_reserved":false,"is_disabled":false,"rental_uris":{"android":"levelo://app?vid=f71bc3ec-9988-416c-9e0a-34d2a661e101","ios":"levelo://app?vid=f71bc3ec-9988-416c-9e0a-34d2a661e101"},"vehicle_type_id":"4","last_reported":1737367811,"current_range_meters":3600,"station_id":"ce4bh0h2rcd13ifvqd40","pricing_plan_id":"cebpf4jnsgd1na2vs0mg"},{"bike_id":"70ac5e43-1a65-4943-bf4c-9459b26a7429","system_id":"levelo_inurba_marseille","lat":43.25716,"lon":5.41115,"is_reserved":false,"is_disabled":false,"rental_uris":{"android":"levelo://app?vid=70ac5e43-1a65-4943-bf4c-9459b26a7429","ios":"levelo://app?vid=70ac5e43-1a65-4943-bf4c-9459b26a7429"},"vehicle_type_id":"4","last_reported":1737367811,"current_range_meters":16400,"station_id":"ce4bhkp2rcd13ifvqgd0","pricing_plan_id":"cebpf4jnsgd1na2vs0mg"},{"bike_id":"df58e329-f965-400a-bdeb-530cef255b9a","system_id":"levelo_inurba_marseille","lat":43.28488,"lon":5.38433,"is_reserved":false,"is_disabled":false,"rental_uris":{"android":"levelo://app?vid=df58e329-f965-400a-bdeb-530cef255b9a","ios":"levelo://app?vid=df58e329-f965-400a-bdeb-530cef255b9a"},"vehicle_type_id":"4","last_reported":1737367811,"current_range_meters":34000,"station_id":"ce4bh512rcd13ifvqe3g","pricing_plan_id":"cebpf4jnsgd1na2vs0mg"},{"bike_id":"89c60171-e7c9-486b-9ccc-9e4795e53faf","system_id":"levelo_inurba_marseille","lat":43.33619,"lon":5.40946,"is_reserved":false,"is_disabled":true,"rental_uris":{"android":"levelo://app?vid=89c60171-e7c9-486b-9ccc-9e4795e53faf","ios":"levelo://app?vid=89c60171-e7c9-486b-9ccc-9e4795e53faf"},"vehicle_type_id":"4","last_reported":1737367811,"current_range_meters":0,"station_id":"ce4bhqh2rcd13ifvqhmg","pricing_plan_id":"cebpf4jnsgd1na2vs0mg"},{"bike_id":"f18d3e3b-1d40-4085-ac6a-1f816d51e8b1","system_id":"levelo_inurba_marseille","lat":43.330225,"lon":5.390368,"is_reserved":false,"is_disabled":false,"rental_uris":{"android":"levelo://app?vid=f18d3e3b-1d40-4085-ac6a-1f816d51e8b1","ios":"levelo://app?vid=f18d3e3b-1d40-4085-ac6a-1f816d51e8b1"},"vehicle_type_id":"4","last_reported":1737367811,"current_range_meters":25600,"station_id":"ce4bhr92rcd13ifvqhrg","pricing_plan_id":"cebpf4jnsgd1na2vs0mg"},{"bike_id":"e3d5a69f-7604-4ab5-bfce-dc9cf0dd7b56","system_id":"levelo_inurba_marseille","lat":43.29568,"lon":5.40003,"is_reserved":false,"is_disabled":true,"rental_uris":{"android":"levelo://app?vid=e3d5a69f-7604-4ab5-bfce-dc9cf0dd7b56","ios":"levelo://app?vid=e3d5a69f-7604-4ab5-bfce-dc9cf0dd7b56"},"vehicle_type_id":"4","last_reported":1737367811,"current_range_meters":32000,"station_id":"ce4bh312rcd13ifvqdj0","pricing_plan_id":"cebpf4jnsgd1na2vs0mg"},{"bike_id":"9c0fd3c1-e419-4d89-88bd-d6f5d38ac254","system_id":"levelo_inurba_marseille","lat":43.27368,"lon":5.36264,"is_reserved":false,"is_disabled":false,"rental_uris":{"android":"levelo://app?vid=9c0fd3c1-e419-4d89-88bd-d6f5d38ac254","ios":"levelo://app?vid=9c0fd3c1-e419-4d89-88bd-d6f5d38ac254"},"vehicle_type_id":"4","last_reported":1737367811,"current_range_meters":27200,"station_id":"ce4bhbh2rcd13ifvqeo0","pricing_plan_id":"cebpf4jnsgd1na2vs0mg"},{"bike_id":"00151686-4522-4f04-bae0-71a6018071d9","system_id":"levelo_inurba_marseille","lat":43.28487,"lon":5.38415,"is_reserved":false,"is_disabled":false,"rental_uris":{"android":"levelo://app?vid=00151686-4522-4f04-bae0-71a6018071d9","ios":"levelo://app?vid=00151686-4522-4f04-bae0-71a6018071d9"},"vehicle_type_id":"4","last_reported":1737367811,"current_range_meters":3600,"station_id":"ce4bh512rcd13ifvqe3g","pricing_plan_id":"cebpf4jnsgd1na2vs0mg"},{"bike_id":"9d98433c-79bd-46fc-b91b-e31fc151a57e","system_id":"levelo_inurba_marseille","lat":43.25929,"lon":5.40918,"is_reserved":false,"is_disabled":false,"rental_uris":{"android":"levelo://app?vid=9d98433c-79bd-46fc-b91b-e31fc151a57e","ios":"levelo://app?vid=9d98433c-79bd-46fc-b91b-e31fc151a57e"},"vehicle_type_id":"4","last_reported":1737367811,"current_range_meters":37600,"station_id":"ce4bhm92rcd13ifvqglg","pricing_plan_id":"cebpf4jnsgd1na2vs0mg"},{"bike_id":"77bd2703-d2d9-474a-b79f-02c75e2dc359","system_id":"levelo_inurba_marseille","lat":43.30293,"lon":5.36916,"is_reserved":false,"is_disabled":false,"rental_uris":{"android":"levelo://app?vid=77bd2703-d2d9-474a-b79f-02c75e2dc359","ios":"levelo://app?vid=77bd2703-d2d9-474a-b79f-02c75e2dc359"},"vehicle_type_id":"4","last_reported":1737367811,"current_range_meters":36800,"station_id":"ce4bgqh2rcd13ifvqc5g","pricing_plan_id":"cebpf4jnsgd1na2vs0mg"},{"bike_id":"7686ade4-3aaf-4ba5-9b29-242cbb3cee7c","system_id":"levelo_inurba_marseille","lat":43.28947,"lon":5.36401,"is_reserved":false,"is_disabled":true,"rental_uris":{"android":"levelo://app?vid=7686ade4-3aaf-4ba5-9b29-242cbb3cee7c","ios":"levelo://app?vid=7686ade4-3aaf-4ba5-9b29-242cbb3cee7c"},"vehicle_type_id":"4","last_reported":1737367811,"current_range_meters":32000,"station_id":"ce4bhc92rcd13ifvqetg","pricing_plan_id":"cebpf4jnsgd1na2vs0mg"},{"bike_id":"bca2e029-c4f5-4f56-a954-84519e377e1f","system_id":"levelo_inurba_marseille","lat":43.27301,"lon":5.39102,"is_reserved":false,"is_disabled":false,"rental_uris":{"android":"levelo://app?vid=bca2e029-c4f5-4f56-a954-84519e377e1f","ios":"levelo://app?vid=bca2e029-c4f5-4f56-a954-84519e377e1f"},"vehicle_type_id":"4","last_reported":1737367811,"current_range_meters":39200,"station_id":"ce4bhgp2rcd13ifvqfe0","pricing_plan_id":"cebpf4jnsgd1na2vs0mg"},{"bike_id":"365c623b-5ad5-47e2-a231-fb7961d1cced","system_id":"levelo_inurba_marseille","lat":43.30468,"lon":5.37948,"is_reserved":false,"is_disabled":false,"rental_uris":{"android":"levelo://app?vid=365c623b-5ad5-47e2-a231-fb7961d1cced","ios":"levelo://app?vid=365c623b-5ad5-47e2-a231-fb7961d1cced"},"vehicle_type_id":"4","last_reported":1737367811,"current_range_meters":30400,"station_id":"ce4bgup2rcd13ifvqcn0","pricing_plan_id":"cebpf4jnsgd1na2vs0mg"},{"bike_id":"763ed4fc-16fd-47a0-aedf-62c028daa66f","system_id":"levelo_inurba_marseille","lat":43.36391,"lon":5.355704,"is_reserved":false,"is_disabled":false,"rental_uris":{"android":"levelo://app?vid=763ed4fc-16fd-47a0-aedf-62c028daa66f","ios":"levelo://app?vid=763ed4fc-16fd-47a0-aedf-62c028daa66f"},"vehicle_type_id":"4","last_reported":1737367811,"current_range_meters":9200,"station_id":"","pricing_plan_id":"cebpf4jnsgd1na2vs0mg"},{"bike_id":"54e47bbf-d358-4fc6-9623-23d2eb6b92a9","system_id":"levelo_inurba_marseille","lat":43.276747,"lon":5.388474,"is_reserved":false,"is_disabled":true,"rental_uris":{"android":"levelo://app?vid=54e47bbf-d358-4fc6-9623-23d2eb6b92a9","ios":"levelo://app?vid=54e47bbf-d358-4fc6-9623-23d2eb6b92a9"},"vehicle_type_id":"4","last_reported":1737367811,"current_range_meters":17600,"station_id":"","pricing_plan_id":"cebpf4jnsgd1na2vs0mg"},{"bike_id":"a2771881-b956-4a9a-9bc9-a89642d437c9","system_id":"levelo_inurba_marseille","lat":43.23201,"lon":5.35563,"is_reserved":false,"is_disabled":false,"rental_uris":{"android":"levelo://app?vid=a2771881-b956-4a9a-9bc9-a89642d437c9","ios":"levelo://app?vid=a2771881-b956-4a9a-9bc9-a89642d437c9"},"vehicle_type_id":"4","last_reported":1737367811,"current_range_meters":36800,"station_id":"ce4bhu92rcd13ifvqi70","pricing_plan_id":"cebpf4jnsgd1na2vs0mg"},{"bike_id":"0be1187a-5975-4d58-85d8-03195cdaf1ca","system_id":"levelo_inurba_marseille","lat":43.32476,"lon":5.3657,"is_reserved":false,"is_disabled":false,"rental_uris":{"android":"levelo://app?vid=0be1187a-5975-4d58-85d8-03195cdaf1ca","ios":"levelo://app?vid=0be1187a-5975-4d58-85d8-03195cdaf1ca"},"vehicle_type_id":"4","last_reported":1737367811,"current_range_meters":15200,"station_id":"ce4bhs12rcd13ifvqhvg","pricing_plan_id":"cebpf4jnsgd1na2vs0mg"},{"bike_id":"0f1425ca-4180-4d3a-bdfa-6aa77c98beff","system_id":"levelo_inurba_marseille","lat":43.33624,"lon":5.41005,"is_reserved":false,"is_disabled":false,"rental_uris":{"android":"levelo://app?vid=0f1425ca-4180-4d3a-bdfa-6aa77c98beff","ios":"levelo://app?vid=0f1425ca-4180-4d3a-bdfa-6aa77c98beff"},"vehicle_type_id":"4","last_reported":1737367811,"current_range_meters":24000,"station_id":"ce4bhqh2rcd13ifvqhmg","pricing_plan_id":"cebpf4jnsgd1na2vs0mg"},{"bike_id":"f3c94274-f861-4c89-8bb1-1ebe1a531935","system_id":"levelo_inurba_marseille","lat":43.24998,"lon":5.38929,"is_reserved":false,"is_disabled":false,"rental_uris":{"android":"levelo://app?vid=f3c94274-f861-4c89-8bb1-1ebe1a531935","ios":"levelo://app?vid=f3c94274-f861-4c89-8bb1-1ebe1a531935"},"vehicle_type_id":"4","last_reported":1737367811,"current_range_meters":35200,"station_id":"ce4bhgp2rcd13ifvqfd0","pricing_plan_id":"cebpf4jnsgd1na2vs0mg"},{"bike_id":"8cbe6785-3e99-446b-a437-e1032da4e762","system_id":"levelo_inurba_marseille","lat":43.25578,"lon":5.38247,"is_reserved":false,"is_disabled":false,"rental_uris":{"android":"levelo://app?vid=8cbe6785-3e99-446b-a437-e1032da4e762","ios":"levelo://app?vid=8cbe6785-3e99-446b-a437-e1032da4e762"},"vehicle_type_id":"4","last_reported":1737367811,"current_range_meters":30000,"station_id":"ce4bhih2rcd13ifvqfs0","pricing_plan_id":"cebpf4jnsgd1na2vs0mg"},{"bike_id":"ea820ade-d81d-428e-82b9-7f165f7e8e75","system_id":"levelo_inurba_marseille","lat":43.32348,"lon":5.36751,"is_reserved":false,"is_disabled":false,"rental_uris":{"android":"levelo://app?vid=ea820ade-d81d-428e-82b9-7f165f7e8e75","ios":"levelo://app?vid=ea820ade-d81d-428e-82b9-7f165f7e8e75"},"vehicle_type_id":"4","last_reported":1737367811,"current_range_meters":10800,"station_id":"ce4bhsh2rcd13ifvqi2g","pricing_plan_id":"cebpf4jnsgd1na2vs0mg"},{"bike_id":"c29020e0-83ef-4b06-ac4f-c4422257f84a","system_id":"levelo_inurba_marseille","lat":43.36386,"lon":5.35611,"is_reserved":false,"is_disabled":false,"rental_uris":{"android":"levelo://app?vid=c29020e0-83ef-4b06-ac4f-c4422257f84a","ios":"levelo://app?vid=c29020e0-83ef-4b06-ac4f-c4422257f84a"},"vehicle_type_id":"4","last_reported":1737367811,"current_range_meters":14400,"station_id":"","pricing_plan_id":"cebpf4jnsgd1na2vs0mg"},{"bike_id":"9a9f5094-96b5-4ffb-92ab-bc926b485321","system_id":"levelo_inurba_marseille","lat":43.23186,"lon":5.39981,"is_reserved":false,"is_disabled":false,"rental_uris":{"android":"levelo://app?vid=9a9f5094-96b5-4ffb-92ab-bc926b485321","ios":"levelo://app?vid=9a9f5094-96b5-4ffb-92ab-bc926b485321"},"vehicle_type_id":"4","last_reported":1737367811,"current_range_meters":38800,"station_id":"ce4bhn12rcd13ifvqgqg","pricing_plan_id":"cebpf4jnsgd1na2vs0mg"},{"bike_id":"2134fa96-3287-49a0-8c4d-ce46e95d9fc9","system_id":"levelo_inurba_marseille","lat":43.259333,"lon":5.409063,"is_reserved":false,"is_disabled":false,"rental_uris":{"android":"levelo://app?vid=2134fa96-3287-49a0-8c4d-ce46e95d9fc9","ios":"levelo://app?vid=2134fa96-3287-49a0-8c4d-ce46e95d9fc9"},"vehicle_type_id":"4","last_reported":1737367811,"current_range_meters":29600,"station_id":"ce4bhm92rcd13ifvqglg","pricing_plan_id":"cebpf4jnsgd1na2vs0mg"},{"bike_id":"963dc661-c10f-478a-a4c3-6a67429abb8f","system_id":"levelo_inurba_marseille","lat":43.31687,"lon":5.40475,"is_reserved":false,"is_disabled":false,"rental_uris":{"android":"levelo://app?vid=963dc661-c10f-478a-a4c3-6a67429abb8f","ios":"levelo://app?vid=963dc661-c10f-478a-a4c3-6a67429abb8f"},"vehicle_type_id":"4","last_reported":1737367811,"current_range_meters":4800,"station_id":"ce4bh012rcd13ifvqd00","pricing_plan_id":"cebpf4jnsgd1na2vs0mg"},{"bike_id":"6bf5bd29-3e54-437a-9020-86384919dc04","system_id":"levelo_inurba_marseille","lat":43.32285,"lon":5.38291,"is_reserved":false,"is_disabled":false,"rental_uris":{"android":"levelo://app?vid=6bf5bd29-3e54-437a-9020-86384919dc04","ios":"levelo://app?vid=6bf5bd29-3e54-437a-9020-86384919dc04"},"vehicle_type_id":"4","last_reported":1737367811,"current_range_meters":38800,"station_id":"ce4bhr12rcd13ifvqhqg","pricing_plan_id":"cebpf4jnsgd1na2vs0mg"},{"bike_id":"c2f1954e-eebc-4f53-ae0c-43b3602a41b2","system_id":"levelo_inurba_marseille","lat":43.28937,"lon":5.36625,"is_reserved":false,"is_disabled":true,"rental_uris":{"android":"levelo://app?vid=c2f1954e-eebc-4f53-ae0c-43b3602a41b2","ios":"levelo://app?vid=c2f1954e-eebc-4f53-ae0c-43b3602a41b2"},"vehicle_type_id":"4","last_reported":1737367811,"current_range_meters":30000,"station_id":"ce4bhap2rcd13ifvqek0","pricing_plan_id":"cebpf4jnsgd1na2vs0mg"},{"bike_id":"d1fe8692-eb9a-4c29-b94c-0567b580aa37","system_id":"levelo_inurba_marseille","lat":43.2929,"lon":5.37439,"is_reserved":false,"is_disabled":false,"rental_uris":{"android":"levelo://app?vid=d1fe8692-eb9a-4c29-b94c-0567b580aa37","ios":"levelo://app?vid=d1fe8692-eb9a-4c29-b94c-0567b580aa37"},"vehicle_type_id":"4","last_reported":1737367811,"current_range_meters":39200,"station_id":"ce4bgi12rcd13ifvqb70","pricing_plan_id":"cebpf4jnsgd1na2vs0mg"},{"bike_id":"722e2d1b-5934-451d-bce8-481fd6d08752","system_id":"levelo_inurba_marseille","lat":43.26661,"lon":5.38247,"is_reserved":false,"is_disabled":false,"rental_uris":{"android":"levelo://app?vid=722e2d1b-5934-451d-bce8-481fd6d08752","ios":"levelo://app?vid=722e2d1b-5934-451d-bce8-481fd6d08752"},"vehicle_type_id":"4","last_reported":1737367811,"current_range_meters":25600,"station_id":"ce4bhg92rcd13ifvqf90","pricing_plan_id":"cebpf4jnsgd1na2vs0mg"},{"bike_id":"04e7f6b2-1170-476d-8eb7-54bc6ab7d23c","system_id":"levelo_inurba_marseille","lat":43.2439,"lon":5.37061,"is_reserved":false,"is_disabled":false,"rental_uris":{"android":"levelo://app?vid=04e7f6b2-1170-476d-8eb7-54bc6ab7d23c","ios":"levelo://app?vid=04e7f6b2-1170-476d-8eb7-54bc6ab7d23c"},"vehicle_type_id":"4","last_reported":1737367811,"current_range_meters":34800,"station_id":"ce4bhhh2rcd13ifvqfk0","pricing_plan_id":"cebpf4jnsgd1na2vs0mg"},{"bike_id":"7c0e9d98-7a5e-4b52-9f60-ea6cf5d28a9f","system_id":"levelo_inurba_marseille","lat":43.2901,"lon":5.38144,"is_reserved":false,"is_disabled":false,"rental_uris":{"android":"levelo://app?vid=7c0e9d98-7a5e-4b52-9f60-ea6cf5d28a9f","ios":"levelo://app?vid=7c0e9d98-7a5e-4b52-9f60-ea6cf5d28a9f"},"vehicle_type_id":"4","last_reported":1737367811,"current_range_meters":18000,"station_id":"ce4bh4p2rcd13ifvqe1g","pricing_plan_id":"cebpf4jnsgd1na2vs0mg"},{"bike_id":"7cb02900-340f-4d8c-b7a9-8629cd52e8ff","system_id":"levelo_inurba_marseille","lat":43.27403,"lon":5.39447,"is_reserved":false,"is_disabled":false,"rental_uris":{"android":"levelo://app?vid=7cb02900-340f-4d8c-b7a9-8629cd52e8ff","ios":"levelo://app?vid=7cb02900-340f-4d8c-b7a9-8629cd52e8ff"},"vehicle_type_id":"4","last_reported":1737367811,"current_range_meters":22800,"station_id":"ce4bhdp2rcd13ifvqf20","pricing_plan_id":"cebpf4jnsgd1na2vs0mg"},{"bike_id":"6f98d506-629c-4500-922c-9b7734eef896","system_id":"levelo_inurba_marseille","lat":43.29883,"lon":5.38903,"is_reserved":false,"is_disabled":false,"rental_uris":{"android":"levelo://app?vid=6f98d506-629c-4500-922c-9b7734eef896","ios":"levelo://app?vid=6f98d506-629c-4500-922c-9b7734eef896"},"vehicle_type_id":"4","last_reported":1737367811,"current_range_meters":13600,"station_id":"ce4bh392rcd13ifvqdl0","pricing_plan_id":"cebpf4jnsgd1na2vs0mg"},{"bike_id":"c8fe6bd0-5be5-4ede-8e98-69d8c19fd7cf","system_id":"levelo_inurba_marseille","lat":43.23131,"lon":5.43724,"is_reserved":false,"is_disabled":false,"rental_uris":{"android":"levelo://app?vid=c8fe6bd0-5be5-4ede-8e98-69d8c19fd7cf","ios":"levelo://app?vid=c8fe6bd0-5be5-4ede-8e98-69d8c19fd7cf"},"vehicle_type_id":"4","last_reported":1737367811,"current_range_meters":39200,"station_id":"ce4bhmp2rcd13ifvqgog","pricing_plan_id":"cebpf4jnsgd1na2vs0mg"},{"bike_id":"c78f7e7f-52ee-4f32-891f-83dc2fa63ee7","system_id":"levelo_inurba_marseille","lat":43.28719,"lon":5.39971,"is_reserved":false,"is_disabled":false,"rental_uris":{"android":"levelo://app?vid=c78f7e7f-52ee-4f32-891f-83dc2fa63ee7","ios":"levelo://app?vid=c78f7e7f-52ee-4f32-891f-83dc2fa63ee7"},"vehicle_type_id":"4","last_reported":1737367811,"current_range_meters":38400,"station_id":"ce4bho92rcd13ifvqh3g","pricing_plan_id":"cebpf4jnsgd1na2vs0mg"},{"bike_id":"57b0e606-8fdf-401d-8223-87c7978ca31e","system_id":"levelo_inurba_marseille","lat":43.26214,"lon":5.40493,"is_reserved":false,"is_disabled":false,"rental_uris":{"android":"levelo://app?vid=57b0e606-8fdf-401d-8223-87c7978ca31e","ios":"levelo://app?vid=57b0e606-8fdf-401d-8223-87c7978ca31e"},"vehicle_type_id":"4","last_reported":1737367811,"current_range_meters":31200,"station_id":"","pricing_plan_id":"cebpf4jnsgd1na2vs0mg"},{"bike_id":"d6dda788-2ee0-45e5-a6fd-f8b98f248df1","system_id":"levelo_inurba_marseille","lat":43.23142,"lon":5.43729,"is_reserved":false,"is_disabled":false,"rental_uris":{"android":"levelo://app?vid=d6dda788-2ee0-45e5-a6fd-f8b98f248df1","ios":"levelo://app?vid=d6dda788-2ee0-45e5-a6fd-f8b98f248df1"},"vehicle_type_id":"4","last_reported":1737367811,"current_range_meters":38000,"station_id":"ce4bhmp2rcd13ifvqgog","pricing_plan_id":"cebpf4jnsgd1na2vs0mg"},{"bike_id":"7aff494d-7a2d-409f-80df-4ac73acb637c","system_id":"levelo_inurba_marseille","lat":43.29036,"lon":5.39969,"is_reserved":false,"is_disabled":false,"rental_uris":{"android":"levelo://app?vid=7aff494d-7a2d-409f-80df-4ac73acb637c","ios":"levelo://app?vid=7aff494d-7a2d-409f-80df-4ac73acb637c"},"vehicle_type_id":"4","last_reported":1737367811,"current_range_meters":33200,"station_id":"ce4bh392rcd13ifvqdm0","pricing_plan_id":"cebpf4jnsgd1na2vs0mg"},{"bike_id":"94bdaa84-8d49-464b-898c-663f4980c5b8","system_id":"levelo_inurba_marseille","lat":43.32535,"lon":5.41464,"is_reserved":false,"is_disabled":false,"rental_uris":{"android":"levelo://app?vid=94bdaa84-8d49-464b-898c-663f4980c5b8","ios":"levelo://app?vid=94bdaa84-8d49-464b-898c-663f4980c5b8"},"vehicle_type_id":"4","last_reported":1737367811,"current_range_meters":38800,"station_id":"ce4bhq12rcd13ifvqhhg","pricing_plan_id":"cebpf4jnsgd1na2vs0mg"},{"bike_id":"81112329-1dad-4775-ba9b-1357b51686d0","system_id":"levelo_inurba_marseille","lat":43.31313,"lon":5.37334,"is_reserved":false,"is_disabled":false,"rental_uris":{"android":"levelo://app?vid=81112329-1dad-4775-ba9b-1357b51686d0","ios":"levelo://app?vid=81112329-1dad-4775-ba9b-1357b51686d0"},"vehicle_type_id":"4","last_reported":1737367811,"current_range_meters":33200,"station_id":"","pricing_plan_id":"cebpf4jnsgd1na2vs0mg"},{"bike_id":"d2209cbe-5891-4e53-950a-08fc01a95fa9","system_id":"levelo_inurba_marseille","lat":43.27489,"lon":5.42458,"is_reserved":false,"is_disabled":false,"rental_uris":{"android":"levelo://app?vid=d2209cbe-5891-4e53-950a-08fc01a95fa9","ios":"levelo://app?vid=d2209cbe-5891-4e53-950a-08fc01a95fa9"},"vehicle_type_id":"4","last_reported":1737367811,"current_range_meters":19200,"station_id":"ce4bhn92rcd13ifvqgrg","pricing_plan_id":"cebpf4jnsgd1na2vs0mg"},{"bike_id":"aa58a370-3dfc-419f-ac67-60fe6fa0a1a7","system_id":"levelo_inurba_marseille","lat":43.24669,"lon":5.38184,"is_reserved":false,"is_disabled":false,"rental_uris":{"android":"levelo://app?vid=aa58a370-3dfc-419f-ac67-60fe6fa0a1a7","ios":"levelo://app?vid=aa58a370-3dfc-419f-ac67-60fe6fa0a1a7"},"vehicle_type_id":"4","last_reported":1737367811,"current_range_meters":7200,"station_id":"ce4bhih2rcd13ifvqfr0","pricing_plan_id":"cebpf4jnsgd1na2vs0mg"},{"bike_id":"723ec519-2c6e-4b27-96af-5795a19ae78c","system_id":"levelo_inurba_marseille","lat":43.31493,"lon":5.37313,"is_reserved":false,"is_disabled":false,"rental_uris":{"android":"levelo://app?vid=723ec519-2c6e-4b27-96af-5795a19ae78c","ios":"levelo://app?vid=723ec519-2c6e-4b27-96af-5795a19ae78c"},"vehicle_type_id":"4","last_reported":1737367811,"current_range_meters":18800,"station_id":"ce4bgt12rcd13ifvqcd0","pricing_plan_id":"cebpf4jnsgd1na2vs0mg"},{"bike_id":"25a1483f-1859-4f2a-a274-9eb2c53ccd4c","system_id":"levelo_inurba_marseille","lat":43.27503,"lon":5.42459,"is_reserved":false,"is_disabled":false,"rental_uris":{"android":"levelo://app?vid=25a1483f-1859-4f2a-a274-9eb2c53ccd4c","ios":"levelo://app?vid=25a1483f-1859-4f2a-a274-9eb2c53ccd4c"},"vehicle_type_id":"4","last_reported":1737367811,"current_range_meters":24400,"station_id":"ce4bhn92rcd13ifvqgrg","pricing_plan_id":"cebpf4jnsgd1na2vs0mg"},{"bike_id":"3860f79b-6390-4baa-9962-103869425bc6","system_id":"levelo_inurba_marseille","lat":43.29889,"lon":5.43681,"is_reserved":false,"is_disabled":false,"rental_uris":{"android":"levelo://app?vid=3860f79b-6390-4baa-9962-103869425bc6","ios":"levelo://app?vid=3860f79b-6390-4baa-9962-103869425bc6"},"vehicle_type_id":"4","last_reported":1737367811,"current_range_meters":18000,"station_id":"ce4bhpp2rcd13ifvqhfg","pricing_plan_id":"cebpf4jnsgd1na2vs0mg"},{"bike_id":"2957e628-d299-4374-83a0-9006ed203c98","system_id":"levelo_inurba_marseille","lat":43.29578,"lon":5.37519,"is_reserved":false,"is_disabled":false,"rental_uris":{"android":"levelo://app?vid=2957e628-d299-4374-83a0-9006ed203c98","ios":"levelo://app?vid=2957e628-d299-4374-83a0-9006ed203c98"},"vehicle_type_id":"4","last_reported":1737367811,"current_range_meters":31200,"station_id":"ce4bgh92rcd13ifvqb50","pricing_plan_id":"cebpf4jnsgd1na2vs0mg"},{"bike_id":"e05cfd67-2fa3-49cf-9cca-4f0057a960aa","system_id":"levelo_inurba_marseille","lat":43.24645,"lon":5.38893,"is_reserved":false,"is_disabled":false,"rental_uris":{"android":"levelo://app?vid=e05cfd67-2fa3-49cf-9cca-4f0057a960aa","ios":"levelo://app?vid=e05cfd67-2fa3-49cf-9cca-4f0057a960aa"},"vehicle_type_id":"4","last_reported":1737367811,"current_range_meters":38400,"station_id":"ce4bhg12rcd13ifvqf60","pricing_plan_id":"cebpf4jnsgd1na2vs0mg"},{"bike_id":"b0801854-5326-4e78-a4a1-c6ae8f5cd173","system_id":"levelo_inurba_marseille","lat":43.29621,"lon":5.37701,"is_reserved":false,"is_disabled":false,"rental_uris":{"android":"levelo://app?vid=b0801854-5326-4e78-a4a1-c6ae8f5cd173","ios":"levelo://app?vid=b0801854-5326-4e78-a4a1-c6ae8f5cd173"},"vehicle_type_id":"4","last_reported":1737367811,"current_range_meters":30000,"station_id":"ce4bgi92rcd13ifvqb90","pricing_plan_id":"cebpf4jnsgd1na2vs0mg"},{"bike_id":"cd5eade1-e8df-45ed-be1d-88651d3fad48","system_id":"levelo_inurba_marseille","lat":43.28711,"lon":5.3794,"is_reserved":false,"is_disabled":false,"rental_uris":{"android":"levelo://app?vid=cd5eade1-e8df-45ed-be1d-88651d3fad48","ios":"levelo://app?vid=cd5eade1-e8df-45ed-be1d-88651d3fad48"},"vehicle_type_id":"4","last_reported":1737367811,"current_range_meters":37600,"station_id":"ce4bh9p2rcd13ifvqec0","pricing_plan_id":"cebpf4jnsgd1na2vs0mg"},{"bike_id":"ca8aa51d-4833-4c77-8009-59b7c07323a3","system_id":"levelo_inurba_marseille","lat":43.323644,"lon":5.367598,"is_reserved":false,"is_disabled":false,"rental_uris":{"android":"levelo://app?vid=ca8aa51d-4833-4c77-8009-59b7c07323a3","ios":"levelo://app?vid=ca8aa51d-4833-4c77-8009-59b7c07323a3"},"vehicle_type_id":"4","last_reported":1737367811,"current_range_meters":32800,"station_id":"ce4bhsh2rcd13ifvqi2g","pricing_plan_id":"cebpf4jnsgd1na2vs0mg"},{"bike_id":"b2eb5e4d-22a0-4f9e-8a89-51bd832bc768","system_id":"levelo_inurba_marseille","lat":43.30886,"lon":5.39027,"is_reserved":false,"is_disabled":false,"rental_uris":{"android":"levelo://app?vid=b2eb5e4d-22a0-4f9e-8a89-51bd832bc768","ios":"levelo://app?vid=b2eb5e4d-22a0-4f9e-8a89-51bd832bc768"},"vehicle_type_id":"4","last_reported":1737367811,"current_range_meters":30000,"station_id":"","pricing_plan_id":"cebpf4jnsgd1na2vs0mg"},{"bike_id":"32727600-11a3-4399-9c5e-7c1c3358d8db","system_id":"levelo_inurba_marseille","lat":43.29069,"lon":5.37166,"is_reserved":false,"is_disabled":false,"rental_uris":{"android":"levelo://app?vid=32727600-11a3-4399-9c5e-7c1c3358d8db","ios":"levelo://app?vid=32727600-11a3-4399-9c5e-7c1c3358d8db"},"vehicle_type_id":"4","last_reported":1737367811,"current_range_meters":38400,"station_id":"ce4bh5p2rcd13ifvqe4g","pricing_plan_id":"cebpf4jnsgd1na2vs0mg"},{"bike_id":"49edd341-1744-445c-b1f6-ec80c4f617c5","system_id":"levelo_inurba_marseille","lat":43.27063,"lon":5.42277,"is_reserved":false,"is_disabled":false,"rental_uris":{"android":"levelo://app?vid=49edd341-1744-445c-b1f6-ec80c4f617c5","ios":"levelo://app?vid=49edd341-1744-445c-b1f6-ec80c4f617c5"},"vehicle_type_id":"4","last_reported":1737367811,"current_range_meters":38800,"station_id":"ce4bhk92rcd13ifvqgb0","pricing_plan_id":"cebpf4jnsgd1na2vs0mg"},{"bike_id":"51379e9f-1ebd-43ee-bd84-6927ab606473","system_id":"levelo_inurba_marseille","lat":43.24165,"lon":5.36407,"is_reserved":false,"is_disabled":false,"rental_uris":{"android":"levelo://app?vid=51379e9f-1ebd-43ee-bd84-6927ab606473","ios":"levelo://app?vid=51379e9f-1ebd-43ee-bd84-6927ab606473"},"vehicle_type_id":"4","last_reported":1737367811,"current_range_meters":23200,"station_id":"cpo36qri1sfpv3e86is0","pricing_plan_id":"cebpf4jnsgd1na2vs0mg"},{"bike_id":"57d9fa47-e597-4ea4-913f-9b45079bd718","system_id":"levelo_inurba_marseille","lat":43.33024,"lon":5.39018,"is_reserved":false,"is_disabled":false,"rental_uris":{"android":"levelo://app?vid=57d9fa47-e597-4ea4-913f-9b45079bd718","ios":"levelo://app?vid=57d9fa47-e597-4ea4-913f-9b45079bd718"},"vehicle_type_id":"4","last_reported":1737367811,"current_range_meters":38800,"station_id":"ce4bhr92rcd13ifvqhrg","pricing_plan_id":"cebpf4jnsgd1na2vs0mg"},{"bike_id":"a6817152-9db4-45be-84b1-a30b6bbc47cf","system_id":"levelo_inurba_marseille","lat":43.24163,"lon":5.3971,"is_reserved":false,"is_disabled":false,"rental_uris":{"android":"levelo://app?vid=a6817152-9db4-45be-84b1-a30b6bbc47cf","ios":"levelo://app?vid=a6817152-9db4-45be-84b1-a30b6bbc47cf"},"vehicle_type_id":"4","last_reported":1737367811,"current_range_meters":38800,"station_id":"ce4bhn12rcd13ifvqgpg","pricing_plan_id":"cebpf4jnsgd1na2vs0mg"},{"bike_id":"d7b57092-5089-4c4a-819e-bef9772d11d8","system_id":"levelo_inurba_marseille","lat":43.31799,"lon":5.37812,"is_reserved":false,"is_disabled":false,"rental_uris":{"android":"levelo://app?vid=d7b57092-5089-4c4a-819e-bef9772d11d8","ios":"levelo://app?vid=d7b57092-5089-4c4a-819e-bef9772d11d8"},"vehicle_type_id":"4","last_reported":1737367811,"current_range_meters":28800,"station_id":"","pricing_plan_id":"cebpf4jnsgd1na2vs0mg"},{"bike_id":"f8285391-65c7-4933-97c9-1a73bc9cdc8d","system_id":"levelo_inurba_marseille","lat":43.28151,"lon":5.42643,"is_reserved":false,"is_disabled":false,"rental_uris":{"android":"levelo://app?vid=f8285391-65c7-4933-97c9-1a73bc9cdc8d","ios":"levelo://app?vid=f8285391-65c7-4933-97c9-1a73bc9cdc8d"},"vehicle_type_id":"4","last_reported":1737367811,"current_range_meters":38800,"station_id":"ce4bhnh2rcd13ifvqgug","pricing_plan_id":"cebpf4jnsgd1na2vs0mg"},{"bike_id":"970eacc2-5e8f-4753-aa3e-5d8cafb72393","system_id":"levelo_inurba_marseille","lat":43.25932,"lon":5.40913,"is_reserved":false,"is_disabled":false,"rental_uris":{"android":"levelo://app?vid=970eacc2-5e8f-4753-aa3e-5d8cafb72393","ios":"levelo://app?vid=970eacc2-5e8f-4753-aa3e-5d8cafb72393"},"vehicle_type_id":"4","last_reported":1737367811,"current_range_meters":32000,"station_id":"ce4bhm92rcd13ifvqglg","pricing_plan_id":"cebpf4jnsgd1na2vs0mg"},{"bike_id":"ae35589b-d85c-4f9a-b98c-9bc44748a230","system_id":"levelo_inurba_marseille","lat":43.25712,"lon":5.4112,"is_reserved":false,"is_disabled":false,"rental_uris":{"android":"levelo://app?vid=ae35589b-d85c-4f9a-b98c-9bc44748a230","ios":"levelo://app?vid=ae35589b-d85c-4f9a-b98c-9bc44748a230"},"vehicle_type_id":"4","last_reported":1737367811,"current_range_meters":16400,"station_id":"ce4bhkp2rcd13ifvqgd0","pricing_plan_id":"cebpf4jnsgd1na2vs0mg"},{"bike_id":"690db51c-a7a2-4ecc-b4f4-c069d27e1fc8","system_id":"levelo_inurba_marseille","lat":43.24075,"lon":5.37761,"is_reserved":false,"is_disabled":false,"rental_uris":{"android":"levelo://app?vid=690db51c-a7a2-4ecc-b4f4-c069d27e1fc8","ios":"levelo://app?vid=690db51c-a7a2-4ecc-b4f4-c069d27e1fc8"},"vehicle_type_id":"4","last_reported":1737367811,"current_range_meters":38800,"station_id":"ce4bhnp2rcd13ifvqgvg","pricing_plan_id":"cebpf4jnsgd1na2vs0mg"},{"bike_id":"4104cbba-088f-4383-b2a0-261d17699731","system_id":"levelo_inurba_marseille","lat":43.23955,"lon":5.36647,"is_reserved":false,"is_disabled":false,"rental_uris":{"android":"levelo://app?vid=4104cbba-088f-4383-b2a0-261d17699731","ios":"levelo://app?vid=4104cbba-088f-4383-b2a0-261d17699731"},"vehicle_type_id":"4","last_reported":1737367811,"current_range_meters":32800,"station_id":"ce4bhi12rcd13ifvqfp0","pricing_plan_id":"cebpf4jnsgd1na2vs0mg"},{"bike_id":"7be810f6-d21f-44ca-8f08-d9a4a9e1b082","system_id":"levelo_inurba_marseille","lat":43.32358,"lon":5.3675,"is_reserved":false,"is_disabled":false,"rental_uris":{"android":"levelo://app?vid=7be810f6-d21f-44ca-8f08-d9a4a9e1b082","ios":"levelo://app?vid=7be810f6-d21f-44ca-8f08-d9a4a9e1b082"},"vehicle_type_id":"4","last_reported":1737367811,"current_range_meters":10800,"station_id":"ce4bhsh2rcd13ifvqi2g","pricing_plan_id":"cebpf4jnsgd1na2vs0mg"},{"bike_id":"7333fb9e-3166-4fae-8e75-795501422942","system_id":"levelo_inurba_marseille","lat":43.27672,"lon":5.38889,"is_reserved":false,"is_disabled":false,"rental_uris":{"android":"levelo://app?vid=7333fb9e-3166-4fae-8e75-795501422942","ios":"levelo://app?vid=7333fb9e-3166-4fae-8e75-795501422942"},"vehicle_type_id":"4","last_reported":1737367811,"current_range_meters":39200,"station_id":"ce4bhi12rcd13ifvqfo0","pricing_plan_id":"cebpf4jnsgd1na2vs0mg"},{"bike_id":"e769477c-b503-4bb8-b7d3-b7f7ff9ddf2d","system_id":"levelo_inurba_marseille","lat":43.29192,"lon":5.36924,"is_reserved":false,"is_disabled":false,"rental_uris":{"android":"levelo://app?vid=e769477c-b503-4bb8-b7d3-b7f7ff9ddf2d","ios":"levelo://app?vid=e769477c-b503-4bb8-b7d3-b7f7ff9ddf2d"},"vehicle_type_id":"4","last_reported":1737367811,"current_range_meters":16000,"station_id":"","pricing_plan_id":"cebpf4jnsgd1na2vs0mg"},{"bike_id":"87f748ae-200c-46f9-a87e-58da3bbaecae","system_id":"levelo_inurba_marseille","lat":43.33407,"lon":5.42968,"is_reserved":false,"is_disabled":false,"rental_uris":{"android":"levelo://app?vid=87f748ae-200c-46f9-a87e-58da3bbaecae","ios":"levelo://app?vid=87f748ae-200c-46f9-a87e-58da3bbaecae"},"vehicle_type_id":"4","last_reported":1737367811,"current_range_meters":23200,"station_id":"","pricing_plan_id":"cebpf4jnsgd1na2vs0mg"},{"bike_id":"28ef1c1e-dd89-43e8-817b-9b489831397b","system_id":"levelo_inurba_marseille","lat":43.271062,"lon":5.39629,"is_reserved":false,"is_disabled":true,"rental_uris":{"android":"levelo://app?vid=28ef1c1e-dd89-43e8-817b-9b489831397b","ios":"levelo://app?vid=28ef1c1e-dd89-43e8-817b-9b489831397b"},"vehicle_type_id":"4","last_reported":1737367811,"current_range_meters":0,"station_id":"","pricing_plan_id":"cebpf4jnsgd1na2vs0mg"},{"bike_id":"a090d58d-a1fb-4921-bd15-f1d1e2db9ea4","system_id":"levelo_inurba_marseille","lat":43.24171,"lon":5.39729,"is_reserved":false,"is_disabled":false,"rental_uris":{"android":"levelo://app?vid=a090d58d-a1fb-4921-bd15-f1d1e2db9ea4","ios":"levelo://app?vid=a090d58d-a1fb-4921-bd15-f1d1e2db9ea4"},"vehicle_type_id":"4","last_reported":1737367811,"current_range_meters":27600,"station_id":"ce4bhn12rcd13ifvqgpg","pricing_plan_id":"cebpf4jnsgd1na2vs0mg"},{"bike_id":"b8c33cc5-e538-44b1-a7f5-a0c6163b2176","system_id":"levelo_inurba_marseille","lat":43.2721,"lon":5.39216,"is_reserved":false,"is_disabled":false,"rental_uris":{"android":"levelo://app?vid=b8c33cc5-e538-44b1-a7f5-a0c6163b2176","ios":"levelo://app?vid=b8c33cc5-e538-44b1-a7f5-a0c6163b2176"},"vehicle_type_id":"4","last_reported":1737367811,"current_range_meters":26800,"station_id":"ce4bhhp2rcd13ifvqfm0","pricing_plan_id":"cebpf4jnsgd1na2vs0mg"},{"bike_id":"bbd6e56f-1a5f-4813-a7fd-d882eb94346c","system_id":"levelo_inurba_marseille","lat":43.31708,"lon":5.43712,"is_reserved":false,"is_disabled":true,"rental_uris":{"android":"levelo://app?vid=bbd6e56f-1a5f-4813-a7fd-d882eb94346c","ios":"levelo://app?vid=bbd6e56f-1a5f-4813-a7fd-d882eb94346c"},"vehicle_type_id":"4","last_reported":1737367811,"current_range_meters":35600,"station_id":"ce4bhp92rcd13ifvqhcg","pricing_plan_id":"cebpf4jnsgd1na2vs0mg"},{"bike_id":"25ab3857-b989-4b59-a2ab-bde27b49aadd","system_id":"levelo_inurba_marseille","lat":43.29264,"lon":5.40134,"is_reserved":false,"is_disabled":true,"rental_uris":{"android":"levelo://app?vid=25ab3857-b989-4b59-a2ab-bde27b49aadd","ios":"levelo://app?vid=25ab3857-b989-4b59-a2ab-bde27b49aadd"},"vehicle_type_id":"4","last_reported":1737367811,"current_range_meters":36800,"station_id":"ce4bh312rcd13ifvqdk0","pricing_plan_id":"cebpf4jnsgd1na2vs0mg"},{"bike_id":"9591e31e-6673-4bff-8f50-6b7e82a6b9d7","system_id":"levelo_inurba_marseille","lat":43.24078,"lon":5.37798,"is_reserved":false,"is_disabled":false,"rental_uris":{"android":"levelo://app?vid=9591e31e-6673-4bff-8f50-6b7e82a6b9d7","ios":"levelo://app?vid=9591e31e-6673-4bff-8f50-6b7e82a6b9d7"},"vehicle_type_id":"4","last_reported":1737367811,"current_range_meters":39200,"station_id":"ce4bhnp2rcd13ifvqgvg","pricing_plan_id":"cebpf4jnsgd1na2vs0mg"},{"bike_id":"4ca0c0a8-ebec-4495-a31b-51805b75ee6d","system_id":"levelo_inurba_marseille","lat":43.24654,"lon":5.38878,"is_reserved":false,"is_disabled":false,"rental_uris":{"android":"levelo://app?vid=4ca0c0a8-ebec-4495-a31b-51805b75ee6d","ios":"levelo://app?vid=4ca0c0a8-ebec-4495-a31b-51805b75ee6d"},"vehicle_type_id":"4","last_reported":1737367811,"current_range_meters":38800,"station_id":"ce4bhg12rcd13ifvqf60","pricing_plan_id":"cebpf4jnsgd1na2vs0mg"},{"bike_id":"59573d05-8b25-4d08-928a-2e522ea4e7a5","system_id":"levelo_inurba_marseille","lat":43.31161,"lon":5.38719,"is_reserved":false,"is_disabled":true,"rental_uris":{"android":"levelo://app?vid=59573d05-8b25-4d08-928a-2e522ea4e7a5","ios":"levelo://app?vid=59573d05-8b25-4d08-928a-2e522ea4e7a5"},"vehicle_type_id":"4","last_reported":1737367811,"current_range_meters":38800,"station_id":"ce4bgv12rcd13ifvqcp0","pricing_plan_id":"cebpf4jnsgd1na2vs0mg"},{"bike_id":"d714004e-0a5d-46dc-8f45-dcd4ee7c47a7","system_id":"levelo_inurba_marseille","lat":43.29523,"lon":5.37518,"is_reserved":false,"is_disabled":false,"rental_uris":{"android":"levelo://app?vid=d714004e-0a5d-46dc-8f45-dcd4ee7c47a7","ios":"levelo://app?vid=d714004e-0a5d-46dc-8f45-dcd4ee7c47a7"},"vehicle_type_id":"4","last_reported":1737367811,"current_range_meters":39200,"station_id":"ce4bgkp2rcd13ifvqbmg","pricing_plan_id":"cebpf4jnsgd1na2vs0mg"},{"bike_id":"d1fbee56-a8f7-4480-a4bd-ba66bb143867","system_id":"levelo_inurba_marseille","lat":43.30261,"lon":5.37718,"is_reserved":false,"is_disabled":false,"rental_uris":{"android":"levelo://app?vid=d1fbee56-a8f7-4480-a4bd-ba66bb143867","ios":"levelo://app?vid=d1fbee56-a8f7-4480-a4bd-ba66bb143867"},"vehicle_type_id":"4","last_reported":1737367811,"current_range_meters":39200,"station_id":"ce4bguh2rcd13ifvqcj0","pricing_plan_id":"cebpf4jnsgd1na2vs0mg"},{"bike_id":"7edfec00-4b2e-4f8f-84c8-80dc19a05f65","system_id":"levelo_inurba_marseille","lat":43.26656,"lon":5.38267,"is_reserved":false,"is_disabled":false,"rental_uris":{"android":"levelo://app?vid=7edfec00-4b2e-4f8f-84c8-80dc19a05f65","ios":"levelo://app?vid=7edfec00-4b2e-4f8f-84c8-80dc19a05f65"},"vehicle_type_id":"4","last_reported":1737367811,"current_range_meters":38000,"station_id":"ce4bhg92rcd13ifvqf90","pricing_plan_id":"cebpf4jnsgd1na2vs0mg"},{"bike_id":"d2420bec-3d56-4379-9c60-dccd464e9eac","system_id":"levelo_inurba_marseille","lat":43.26786,"lon":5.39419,"is_reserved":false,"is_disabled":false,"rental_uris":{"android":"levelo://app?vid=d2420bec-3d56-4379-9c60-dccd464e9eac","ios":"levelo://app?vid=d2420bec-3d56-4379-9c60-dccd464e9eac"},"vehicle_type_id":"4","last_reported":1737367811,"current_range_meters":28800,"station_id":"ce4bhh12rcd13ifvqfg0","pricing_plan_id":"cebpf4jnsgd1na2vs0mg"},{"bike_id":"01a07bd9-36a1-4c19-a88b-7c9e3a6ee490","system_id":"levelo_inurba_marseille","lat":43.25075,"lon":5.39509,"is_reserved":false,"is_disabled":false,"rental_uris":{"android":"levelo://app?vid=01a07bd9-36a1-4c19-a88b-7c9e3a6ee490","ios":"levelo://app?vid=01a07bd9-36a1-4c19-a88b-7c9e3a6ee490"},"vehicle_type_id":"4","last_reported":1737367811,"current_range_meters":29600,"station_id":"ce4bhm12rcd13ifvqgkg","pricing_plan_id":"cebpf4jnsgd1na2vs0mg"},{"bike_id":"0069c554-ac74-499d-afc3-e2b4d4ee85fc","system_id":"levelo_inurba_marseille","lat":43.29777,"lon":5.38108,"is_reserved":false,"is_disabled":false,"rental_uris":{"android":"levelo://app?vid=0069c554-ac74-499d-afc3-e2b4d4ee85fc","ios":"levelo://app?vid=0069c554-ac74-499d-afc3-e2b4d4ee85fc"},"vehicle_type_id":"4","last_reported":1737367811,"current_range_meters":10800,"station_id":"ce4bgip2rcd13ifvqbb0","pricing_plan_id":"cebpf4jnsgd1na2vs0mg"},{"bike_id":"782d955d-0ed1-4a93-a5de-e57ac4510214","system_id":"levelo_inurba_marseille","lat":43.2732,"lon":5.39137,"is_reserved":false,"is_disabled":false,"rental_uris":{"android":"levelo://app?vid=782d955d-0ed1-4a93-a5de-e57ac4510214","ios":"levelo://app?vid=782d955d-0ed1-4a93-a5de-e57ac4510214"},"vehicle_type_id":"4","last_reported":1737367811,"current_range_meters":38000,"station_id":"","pricing_plan_id":"cebpf4jnsgd1na2vs0mg"},{"bike_id":"d751e749-afcd-4240-9c1e-54752c62ac8f","system_id":"levelo_inurba_marseille","lat":43.27484,"lon":5.42463,"is_reserved":false,"is_disabled":false,"rental_uris":{"android":"levelo://app?vid=d751e749-afcd-4240-9c1e-54752c62ac8f","ios":"levelo://app?vid=d751e749-afcd-4240-9c1e-54752c62ac8f"},"vehicle_type_id":"4","last_reported":1737367811,"current_range_meters":36400,"station_id":"ce4bhn92rcd13ifvqgrg","pricing_plan_id":"cebpf4jnsgd1na2vs0mg"},{"bike_id":"9af972b2-17c3-4aa9-9268-80d56c2cf43f","system_id":"levelo_inurba_marseille","lat":43.29239,"lon":5.40888,"is_reserved":false,"is_disabled":false,"rental_uris":{"android":"levelo://app?vid=9af972b2-17c3-4aa9-9268-80d56c2cf43f","ios":"levelo://app?vid=9af972b2-17c3-4aa9-9268-80d56c2cf43f"},"vehicle_type_id":"4","last_reported":1737367811,"current_range_meters":38800,"station_id":"ce4bh192rcd13ifvqdc0","pricing_plan_id":"cebpf4jnsgd1na2vs0mg"},{"bike_id":"c42268c0-a5e0-42b8-b874-93ef21576df8","system_id":"levelo_inurba_marseille","lat":43.28143,"lon":5.42653,"is_reserved":false,"is_disabled":false,"rental_uris":{"android":"levelo://app?vid=c42268c0-a5e0-42b8-b874-93ef21576df8","ios":"levelo://app?vid=c42268c0-a5e0-42b8-b874-93ef21576df8"},"vehicle_type_id":"4","last_reported":1737367811,"current_range_meters":24400,"station_id":"ce4bhnh2rcd13ifvqgug","pricing_plan_id":"cebpf4jnsgd1na2vs0mg"},{"bike_id":"77192f79-2b12-4ff4-874e-f5cab7df388a","system_id":"levelo_inurba_marseille","lat":43.28431,"lon":5.34993,"is_reserved":false,"is_disabled":true,"rental_uris":{"android":"levelo://app?vid=77192f79-2b12-4ff4-874e-f5cab7df388a","ios":"levelo://app?vid=77192f79-2b12-4ff4-874e-f5cab7df388a"},"vehicle_type_id":"4","last_reported":1737367811,"current_range_meters":33600,"station_id":"ce4bhbh2rcd13ifvqepg","pricing_plan_id":"cebpf4jnsgd1na2vs0mg"},{"bike_id":"0f2743d1-4d5e-4f5d-80a9-2ff55d9ea33b","system_id":"levelo_inurba_marseille","lat":43.24056,"lon":5.37715,"is_reserved":false,"is_disabled":false,"rental_uris":{"android":"levelo://app?vid=0f2743d1-4d5e-4f5d-80a9-2ff55d9ea33b","ios":"levelo://app?vid=0f2743d1-4d5e-4f5d-80a9-2ff55d9ea33b"},"vehicle_type_id":"4","last_reported":1737367811,"current_range_meters":33200,"station_id":"ce4bhnp2rcd13ifvqgvg","pricing_plan_id":"cebpf4jnsgd1na2vs0mg"},{"bike_id":"f6477394-37ad-474b-869e-23ecf9fee49a","system_id":"levelo_inurba_marseille","lat":43.24177,"lon":5.39737,"is_reserved":false,"is_disabled":false,"rental_uris":{"android":"levelo://app?vid=f6477394-37ad-474b-869e-23ecf9fee49a","ios":"levelo://app?vid=f6477394-37ad-474b-869e-23ecf9fee49a"},"vehicle_type_id":"4","last_reported":1737367811,"current_range_meters":39200,"station_id":"ce4bhn12rcd13ifvqgpg","pricing_plan_id":"cebpf4jnsgd1na2vs0mg"},{"bike_id":"f810629b-41b2-416a-8601-64f1d6ef92eb","system_id":"levelo_inurba_marseille","lat":43.29019,"lon":5.38136,"is_reserved":false,"is_disabled":false,"rental_uris":{"android":"levelo://app?vid=f810629b-41b2-416a-8601-64f1d6ef92eb","ios":"levelo://app?vid=f810629b-41b2-416a-8601-64f1d6ef92eb"},"vehicle_type_id":"4","last_reported":1737367811,"current_range_meters":37600,"station_id":"ce4bh4p2rcd13ifvqe1g","pricing_plan_id":"cebpf4jnsgd1na2vs0mg"},{"bike_id":"4291632b-b89c-4c47-8e03-1ac2c74e4815","system_id":"levelo_inurba_marseille","lat":43.24161,"lon":5.39728,"is_reserved":false,"is_disabled":false,"rental_uris":{"android":"levelo://app?vid=4291632b-b89c-4c47-8e03-1ac2c74e4815","ios":"levelo://app?vid=4291632b-b89c-4c47-8e03-1ac2c74e4815"},"vehicle_type_id":"4","last_reported":1737367811,"current_range_meters":35200,"station_id":"ce4bhn12rcd13ifvqgpg","pricing_plan_id":"cebpf4jnsgd1na2vs0mg"},{"bike_id":"30413a28-f6e8-4ebb-b8a3-7197fc2abd3d","system_id":"levelo_inurba_marseille","lat":43.24076,"lon":5.37751,"is_reserved":false,"is_disabled":false,"rental_uris":{"android":"levelo://app?vid=30413a28-f6e8-4ebb-b8a3-7197fc2abd3d","ios":"levelo://app?vid=30413a28-f6e8-4ebb-b8a3-7197fc2abd3d"},"vehicle_type_id":"4","last_reported":1737367811,"current_range_meters":14400,"station_id":"ce4bhnp2rcd13ifvqgvg","pricing_plan_id":"cebpf4jnsgd1na2vs0mg"},{"bike_id":"4e25d71c-9400-476e-b3db-0782305a88df","system_id":"levelo_inurba_marseille","lat":43.27494,"lon":5.42464,"is_reserved":false,"is_disabled":false,"rental_uris":{"android":"levelo://app?vid=4e25d71c-9400-476e-b3db-0782305a88df","ios":"levelo://app?vid=4e25d71c-9400-476e-b3db-0782305a88df"},"vehicle_type_id":"4","last_reported":1737367811,"current_range_meters":9200,"station_id":"ce4bhn92rcd13ifvqgrg","pricing_plan_id":"cebpf4jnsgd1na2vs0mg"},{"bike_id":"5c355f1f-2346-434b-b0b1-1dbab4b16da7","system_id":"levelo_inurba_marseille","lat":43.30925,"lon":5.36846,"is_reserved":false,"is_disabled":false,"rental_uris":{"android":"levelo://app?vid=5c355f1f-2346-434b-b0b1-1dbab4b16da7","ios":"levelo://app?vid=5c355f1f-2346-434b-b0b1-1dbab4b16da7"},"vehicle_type_id":"4","last_reported":1737367811,"current_range_meters":38400,"station_id":"ce4bgn92rcd13ifvqbvg","pricing_plan_id":"cebpf4jnsgd1na2vs0mg"},{"bike_id":"f9be9437-13be-4302-8cb6-459c7bce5ece","system_id":"levelo_inurba_marseille","lat":43.27491,"lon":5.42454,"is_reserved":false,"is_disabled":false,"rental_uris":{"android":"levelo://app?vid=f9be9437-13be-4302-8cb6-459c7bce5ece","ios":"levelo://app?vid=f9be9437-13be-4302-8cb6-459c7bce5ece"},"vehicle_type_id":"4","last_reported":1737367811,"current_range_meters":28400,"station_id":"ce4bhn92rcd13ifvqgrg","pricing_plan_id":"cebpf4jnsgd1na2vs0mg"},{"bike_id":"a928f3f8-500f-4949-9198-e59e77dfdb5f","system_id":"levelo_inurba_marseille","lat":43.24997,"lon":5.3894,"is_reserved":false,"is_disabled":false,"rental_uris":{"android":"levelo://app?vid=a928f3f8-500f-4949-9198-e59e77dfdb5f","ios":"levelo://app?vid=a928f3f8-500f-4949-9198-e59e77dfdb5f"},"vehicle_type_id":"4","last_reported":1737367811,"current_range_meters":24800,"station_id":"ce4bhgp2rcd13ifvqfd0","pricing_plan_id":"cebpf4jnsgd1na2vs0mg"},{"bike_id":"0897e627-1690-4b1c-984d-29cb463c9770","system_id":"levelo_inurba_marseille","lat":43.31903,"lon":5.40734,"is_reserved":false,"is_disabled":true,"rental_uris":{"android":"levelo://app?vid=0897e627-1690-4b1c-984d-29cb463c9770","ios":"levelo://app?vid=0897e627-1690-4b1c-984d-29cb463c9770"},"vehicle_type_id":"4","last_reported":1737367811,"current_range_meters":0,"station_id":"ce4bhq12rcd13ifvqhig","pricing_plan_id":"cebpf4jnsgd1na2vs0mg"},{"bike_id":"80bcc3e7-77de-44a5-8965-f19acb6d7452","system_id":"levelo_inurba_marseille","lat":43.33009,"lon":5.3905,"is_reserved":false,"is_disabled":false,"rental_uris":{"android":"levelo://app?vid=80bcc3e7-77de-44a5-8965-f19acb6d7452","ios":"levelo://app?vid=80bcc3e7-77de-44a5-8965-f19acb6d7452"},"vehicle_type_id":"4","last_reported":1737367811,"current_range_meters":38800,"station_id":"ce4bhr92rcd13ifvqhrg","pricing_plan_id":"cebpf4jnsgd1na2vs0mg"},{"bike_id":"6f2577d2-70b8-4845-b5b9-b8ee004783df","system_id":"levelo_inurba_marseille","lat":43.24068,"lon":5.3777,"is_reserved":false,"is_disabled":false,"rental_uris":{"android":"levelo://app?vid=6f2577d2-70b8-4845-b5b9-b8ee004783df","ios":"levelo://app?vid=6f2577d2-70b8-4845-b5b9-b8ee004783df"},"vehicle_type_id":"4","last_reported":1737367811,"current_range_meters":22000,"station_id":"ce4bhnp2rcd13ifvqgvg","pricing_plan_id":"cebpf4jnsgd1na2vs0mg"},{"bike_id":"b3bbec6d-8e05-4d19-8fdb-b6e3ec816df6","system_id":"levelo_inurba_marseille","lat":43.31282,"lon":5.36847,"is_reserved":false,"is_disabled":false,"rental_uris":{"android":"levelo://app?vid=b3bbec6d-8e05-4d19-8fdb-b6e3ec816df6","ios":"levelo://app?vid=b3bbec6d-8e05-4d19-8fdb-b6e3ec816df6"},"vehicle_type_id":"4","last_reported":1737367811,"current_range_meters":32400,"station_id":"ce4bgl92rcd13ifvqbq0","pricing_plan_id":"cebpf4jnsgd1na2vs0mg"},{"bike_id":"210ffe2d-27bf-471a-a897-ba0eb55d9e2b","system_id":"levelo_inurba_marseille","lat":43.27071,"lon":5.4228,"is_reserved":false,"is_disabled":false,"rental_uris":{"android":"levelo://app?vid=210ffe2d-27bf-471a-a897-ba0eb55d9e2b","ios":"levelo://app?vid=210ffe2d-27bf-471a-a897-ba0eb55d9e2b"},"vehicle_type_id":"4","last_reported":1737367811,"current_range_meters":30800,"station_id":"ce4bhk92rcd13ifvqgb0","pricing_plan_id":"cebpf4jnsgd1na2vs0mg"},{"bike_id":"a6e30b5e-77a1-446c-9a66-a1e396e11705","system_id":"levelo_inurba_marseille","lat":43.29965,"lon":5.38497,"is_reserved":false,"is_disabled":false,"rental_uris":{"android":"levelo://app?vid=a6e30b5e-77a1-446c-9a66-a1e396e11705","ios":"levelo://app?vid=a6e30b5e-77a1-446c-9a66-a1e396e11705"},"vehicle_type_id":"4","last_reported":1737367811,"current_range_meters":5600,"station_id":"ce4bgj92rcd13ifvqbd0","pricing_plan_id":"cebpf4jnsgd1na2vs0mg"},{"bike_id":"e16bfad3-6e5c-42b6-90cd-e77c51d0ba6a","system_id":"levelo_inurba_marseille","lat":43.299,"lon":5.38141,"is_reserved":false,"is_disabled":true,"rental_uris":{"android":"levelo://app?vid=e16bfad3-6e5c-42b6-90cd-e77c51d0ba6a","ios":"levelo://app?vid=e16bfad3-6e5c-42b6-90cd-e77c51d0ba6a"},"vehicle_type_id":"4","last_reported":1737367811,"current_range_meters":14800,"station_id":"ce4bgj12rcd13ifvqbc0","pricing_plan_id":"cebpf4jnsgd1na2vs0mg"},{"bike_id":"acedcb23-de95-406a-89f8-5a70e7654940","system_id":"levelo_inurba_marseille","lat":43.2886,"lon":5.35858,"is_reserved":false,"is_disabled":true,"rental_uris":{"android":"levelo://app?vid=acedcb23-de95-406a-89f8-5a70e7654940","ios":"levelo://app?vid=acedcb23-de95-406a-89f8-5a70e7654940"},"vehicle_type_id":"4","last_reported":1737367811,"current_range_meters":38800,"station_id":"ce4bhb12rcd13ifvqem0","pricing_plan_id":"cebpf4jnsgd1na2vs0mg"},{"bike_id":"50343fe7-b049-4115-b6cd-1d192f0464f8","system_id":"levelo_inurba_marseille","lat":43.25816,"lon":5.39449,"is_reserved":false,"is_disabled":false,"rental_uris":{"android":"levelo://app?vid=50343fe7-b049-4115-b6cd-1d192f0464f8","ios":"levelo://app?vid=50343fe7-b049-4115-b6cd-1d192f0464f8"},"vehicle_type_id":"4","last_reported":1737367811,"current_range_meters":38800,"station_id":"ce4bhip2rcd13ifvqft0","pricing_plan_id":"cebpf4jnsgd1na2vs0mg"},{"bike_id":"cabc6bad-8b1b-43d7-9c91-7ab7b5e05aa2","system_id":"levelo_inurba_marseille","lat":43.274901,"lon":5.424576,"is_reserved":false,"is_disabled":false,"rental_uris":{"android":"levelo://app?vid=cabc6bad-8b1b-43d7-9c91-7ab7b5e05aa2","ios":"levelo://app?vid=cabc6bad-8b1b-43d7-9c91-7ab7b5e05aa2"},"vehicle_type_id":"4","last_reported":1737367811,"current_range_meters":32000,"station_id":"ce4bhn92rcd13ifvqgrg","pricing_plan_id":"cebpf4jnsgd1na2vs0mg"},{"bike_id":"a647e767-5199-4dd6-913b-4df8a3b985b1","system_id":"levelo_inurba_marseille","lat":43.293,"lon":5.37447,"is_reserved":false,"is_disabled":false,"rental_uris":{"android":"levelo://app?vid=a647e767-5199-4dd6-913b-4df8a3b985b1","ios":"levelo://app?vid=a647e767-5199-4dd6-913b-4df8a3b985b1"},"vehicle_type_id":"4","last_reported":1737367811,"current_range_meters":12800,"station_id":"ce4bgi12rcd13ifvqb70","pricing_plan_id":"cebpf4jnsgd1na2vs0mg"},{"bike_id":"28c5dac0-7f56-4120-8993-2baa3e59ebdd","system_id":"levelo_inurba_marseille","lat":43.304543,"lon":5.378784,"is_reserved":false,"is_disabled":false,"rental_uris":{"android":"levelo://app?vid=28c5dac0-7f56-4120-8993-2baa3e59ebdd","ios":"levelo://app?vid=28c5dac0-7f56-4120-8993-2baa3e59ebdd"},"vehicle_type_id":"4","last_reported":1737367811,"current_range_meters":26800,"station_id":"ce4bgup2rcd13ifvqcn0","pricing_plan_id":"cebpf4jnsgd1na2vs0mg"},{"bike_id":"43ab6a6e-18b0-45a2-bdfd-26946078537a","system_id":"levelo_inurba_marseille","lat":43.25012,"lon":5.38931,"is_reserved":false,"is_disabled":false,"rental_uris":{"android":"levelo://app?vid=43ab6a6e-18b0-45a2-bdfd-26946078537a","ios":"levelo://app?vid=43ab6a6e-18b0-45a2-bdfd-26946078537a"},"vehicle_type_id":"4","last_reported":1737367811,"current_range_meters":38000,"station_id":"ce4bhgp2rcd13ifvqfd0","pricing_plan_id":"cebpf4jnsgd1na2vs0mg"},{"bike_id":"9ab67adb-321b-4a82-805c-9fd59d93d937","system_id":"levelo_inurba_marseille","lat":43.26944,"lon":5.38653,"is_reserved":false,"is_disabled":false,"rental_uris":{"android":"levelo://app?vid=9ab67adb-321b-4a82-805c-9fd59d93d937","ios":"levelo://app?vid=9ab67adb-321b-4a82-805c-9fd59d93d937"},"vehicle_type_id":"4","last_reported":1737367811,"current_range_meters":25600,"station_id":"ce4bhh92rcd13ifvqfh0","pricing_plan_id":"cebpf4jnsgd1na2vs0mg"},{"bike_id":"5ae8ec47-921a-4a21-8ff2-83fb110c111a","system_id":"levelo_inurba_marseille","lat":43.29865,"lon":5.38912,"is_reserved":false,"is_disabled":false,"rental_uris":{"android":"levelo://app?vid=5ae8ec47-921a-4a21-8ff2-83fb110c111a","ios":"levelo://app?vid=5ae8ec47-921a-4a21-8ff2-83fb110c111a"},"vehicle_type_id":"4","last_reported":1737367811,"current_range_meters":14800,"station_id":"ce4bh392rcd13ifvqdl0","pricing_plan_id":"cebpf4jnsgd1na2vs0mg"},{"bike_id":"b69f7b86-d90e-491b-a17d-ddcffba66e34","system_id":"levelo_inurba_marseille","lat":43.2959,"lon":5.37732,"is_reserved":false,"is_disabled":false,"rental_uris":{"android":"levelo://app?vid=b69f7b86-d90e-491b-a17d-ddcffba66e34","ios":"levelo://app?vid=b69f7b86-d90e-491b-a17d-ddcffba66e34"},"vehicle_type_id":"4","last_reported":1737367811,"current_range_meters":38800,"station_id":"ce4bgi92rcd13ifvqb90","pricing_plan_id":"cebpf4jnsgd1na2vs0mg"},{"bike_id":"f50c355d-0a75-47b0-b4cf-cd0ad431856e","system_id":"levelo_inurba_marseille","lat":43.30143,"lon":5.38086,"is_reserved":false,"is_disabled":false,"rental_uris":{"android":"levelo://app?vid=f50c355d-0a75-47b0-b4cf-cd0ad431856e","ios":"levelo://app?vid=f50c355d-0a75-47b0-b4cf-cd0ad431856e"},"vehicle_type_id":"4","last_reported":1737367811,"current_range_meters":38000,"station_id":"ce4bgjp2rcd13ifvqbh0","pricing_plan_id":"cebpf4jnsgd1na2vs0mg"},{"bike_id":"6f96f579-6420-47a1-bde4-954551008875","system_id":"levelo_inurba_marseille","lat":43.27306,"lon":5.39153,"is_reserved":false,"is_disabled":false,"rental_uris":{"android":"levelo://app?vid=6f96f579-6420-47a1-bde4-954551008875","ios":"levelo://app?vid=6f96f579-6420-47a1-bde4-954551008875"},"vehicle_type_id":"4","last_reported":1737367811,"current_range_meters":20400,"station_id":"","pricing_plan_id":"cebpf4jnsgd1na2vs0mg"},{"bike_id":"3eefd8c6-4cdf-47fa-9ddb-2ce61a76ff5d","system_id":"levelo_inurba_marseille","lat":43.27494,"lon":5.42458,"is_reserved":false,"is_disabled":false,"rental_uris":{"android":"levelo://app?vid=3eefd8c6-4cdf-47fa-9ddb-2ce61a76ff5d","ios":"levelo://app?vid=3eefd8c6-4cdf-47fa-9ddb-2ce61a76ff5d"},"vehicle_type_id":"4","last_reported":1737367811,"current_range_meters":29600,"station_id":"ce4bhn92rcd13ifvqgrg","pricing_plan_id":"cebpf4jnsgd1na2vs0mg"},{"bike_id":"0da2ecad-d3b6-4585-836d-795f50ec6d78","system_id":"levelo_inurba_marseille","lat":43.279363,"lon":5.41048,"is_reserved":false,"is_disabled":false,"rental_uris":{"android":"levelo://app?vid=0da2ecad-d3b6-4585-836d-795f50ec6d78","ios":"levelo://app?vid=0da2ecad-d3b6-4585-836d-795f50ec6d78"},"vehicle_type_id":"4","last_reported":1737367811,"current_range_meters":16400,"station_id":"ce4bhnp2rcd13ifvqh0g","pricing_plan_id":"cebpf4jnsgd1na2vs0mg"},{"bike_id":"5759774f-56fe-4ef4-9310-4288813407ac","system_id":"levelo_inurba_marseille","lat":43.240625,"lon":5.377488,"is_reserved":false,"is_disabled":false,"rental_uris":{"android":"levelo://app?vid=5759774f-56fe-4ef4-9310-4288813407ac","ios":"levelo://app?vid=5759774f-56fe-4ef4-9310-4288813407ac"},"vehicle_type_id":"4","last_reported":1737367811,"current_range_meters":24000,"station_id":"ce4bhnp2rcd13ifvqgvg","pricing_plan_id":"cebpf4jnsgd1na2vs0mg"},{"bike_id":"56b8e9bc-f750-4815-bc98-9098414d16db","system_id":"levelo_inurba_marseille","lat":43.23199,"lon":5.35546,"is_reserved":false,"is_disabled":true,"rental_uris":{"android":"levelo://app?vid=56b8e9bc-f750-4815-bc98-9098414d16db","ios":"levelo://app?vid=56b8e9bc-f750-4815-bc98-9098414d16db"},"vehicle_type_id":"4","last_reported":1737367811,"current_range_meters":0,"station_id":"ce4bhu92rcd13ifvqi70","pricing_plan_id":"cebpf4jnsgd1na2vs0mg"},{"bike_id":"0e91b70c-1e42-4d65-a90a-72cbd40954b0","system_id":"levelo_inurba_marseille","lat":43.3236,"lon":5.367571,"is_reserved":false,"is_disabled":false,"rental_uris":{"android":"levelo://app?vid=0e91b70c-1e42-4d65-a90a-72cbd40954b0","ios":"levelo://app?vid=0e91b70c-1e42-4d65-a90a-72cbd40954b0"},"vehicle_type_id":"4","last_reported":1737367811,"current_range_meters":38000,"station_id":"ce4bhsh2rcd13ifvqi2g","pricing_plan_id":"cebpf4jnsgd1na2vs0mg"},{"bike_id":"809cb738-c150-49d8-8dbb-7ac1d2ee4312","system_id":"levelo_inurba_marseille","lat":43.30206,"lon":5.36643,"is_reserved":false,"is_disabled":false,"rental_uris":{"android":"levelo://app?vid=809cb738-c150-49d8-8dbb-7ac1d2ee4312","ios":"levelo://app?vid=809cb738-c150-49d8-8dbb-7ac1d2ee4312"},"vehicle_type_id":"4","last_reported":1737367811,"current_range_meters":39200,"station_id":"ce4bgrh2rcd13ifvqc8g","pricing_plan_id":"cebpf4jnsgd1na2vs0mg"},{"bike_id":"aa22fa6c-42ae-4d36-823e-1aad847d8b87","system_id":"levelo_inurba_marseille","lat":43.29263,"lon":5.3844,"is_reserved":false,"is_disabled":false,"rental_uris":{"android":"levelo://app?vid=aa22fa6c-42ae-4d36-823e-1aad847d8b87","ios":"levelo://app?vid=aa22fa6c-42ae-4d36-823e-1aad847d8b87"},"vehicle_type_id":"4","last_reported":1737367811,"current_range_meters":24000,"station_id":"ce4bh692rcd13ifvqea0","pricing_plan_id":"cebpf4jnsgd1na2vs0mg"},{"bike_id":"89ddcf6f-361a-4f00-8d6e-06103c00ccbd","system_id":"levelo_inurba_marseille","lat":43.28668,"lon":5.36354,"is_reserved":false,"is_disabled":false,"rental_uris":{"android":"levelo://app?vid=89ddcf6f-361a-4f00-8d6e-06103c00ccbd","ios":"levelo://app?vid=89ddcf6f-361a-4f00-8d6e-06103c00ccbd"},"vehicle_type_id":"4","last_reported":1737367811,"current_range_meters":25200,"station_id":"ce4bhah2rcd13ifvqej0","pricing_plan_id":"cebpf4jnsgd1na2vs0mg"},{"bike_id":"7f6908f7-cfcb-4080-a4c3-d5b221bf885b","system_id":"levelo_inurba_marseille","lat":43.320476,"lon":5.415798,"is_reserved":false,"is_disabled":true,"rental_uris":{"android":"levelo://app?vid=7f6908f7-cfcb-4080-a4c3-d5b221bf885b","ios":"levelo://app?vid=7f6908f7-cfcb-4080-a4c3-d5b221bf885b"},"vehicle_type_id":"4","last_reported":1737367811,"current_range_meters":0,"station_id":"ce4bhq92rcd13ifvqhkg","pricing_plan_id":"cebpf4jnsgd1na2vs0mg"},{"bike_id":"146a0fc6-102c-4b68-8436-40e86162d01b","system_id":"levelo_inurba_marseille","lat":43.25935,"lon":5.40903,"is_reserved":false,"is_disabled":false,"rental_uris":{"android":"levelo://app?vid=146a0fc6-102c-4b68-8436-40e86162d01b","ios":"levelo://app?vid=146a0fc6-102c-4b68-8436-40e86162d01b"},"vehicle_type_id":"4","last_reported":1737367811,"current_range_meters":36800,"station_id":"ce4bhm92rcd13ifvqglg","pricing_plan_id":"cebpf4jnsgd1na2vs0mg"},{"bike_id":"e1d4cfce-97ba-4979-9280-aca77649dc20","system_id":"levelo_inurba_marseille","lat":43.29032,"lon":5.39972,"is_reserved":false,"is_disabled":false,"rental_uris":{"android":"levelo://app?vid=e1d4cfce-97ba-4979-9280-aca77649dc20","ios":"levelo://app?vid=e1d4cfce-97ba-4979-9280-aca77649dc20"},"vehicle_type_id":"4","last_reported":1737367811,"current_range_meters":36400,"station_id":"ce4bh392rcd13ifvqdm0","pricing_plan_id":"cebpf4jnsgd1na2vs0mg"},{"bike_id":"02f25583-5bae-4143-b3b2-7b8d3f3e60d9","system_id":"levelo_inurba_marseille","lat":43.28465,"lon":5.38435,"is_reserved":false,"is_disabled":true,"rental_uris":{"android":"levelo://app?vid=02f25583-5bae-4143-b3b2-7b8d3f3e60d9","ios":"levelo://app?vid=02f25583-5bae-4143-b3b2-7b8d3f3e60d9"},"vehicle_type_id":"4","last_reported":1737367811,"current_range_meters":32000,"station_id":"ce4bh512rcd13ifvqe3g","pricing_plan_id":"cebpf4jnsgd1na2vs0mg"},{"bike_id":"825415c5-b344-4283-b47f-98ddc61746b7","system_id":"levelo_inurba_marseille","lat":43.28479,"lon":5.38529,"is_reserved":false,"is_disabled":true,"rental_uris":{"android":"levelo://app?vid=825415c5-b344-4283-b47f-98ddc61746b7","ios":"levelo://app?vid=825415c5-b344-4283-b47f-98ddc61746b7"},"vehicle_type_id":"4","last_reported":1737367811,"current_range_meters":1200,"station_id":"ce4bh8p2rcd13ifvqeb0","pricing_plan_id":"cebpf4jnsgd1na2vs0mg"},{"bike_id":"48296075-65f0-4f2d-bc40-de3e02ade20f","system_id":"levelo_inurba_marseille","lat":43.283437,"lon":5.38126,"is_reserved":false,"is_disabled":false,"rental_uris":{"android":"levelo://app?vid=48296075-65f0-4f2d-bc40-de3e02ade20f","ios":"levelo://app?vid=48296075-65f0-4f2d-bc40-de3e02ade20f"},"vehicle_type_id":"4","last_reported":1737367811,"current_range_meters":38800,"station_id":"ce4bh412rcd13ifvqdr0","pricing_plan_id":"cebpf4jnsgd1na2vs0mg"},{"bike_id":"4cc0c724-4f32-4315-8b99-760453815736","system_id":"levelo_inurba_marseille","lat":43.33746,"lon":5.37461,"is_reserved":false,"is_disabled":false,"rental_uris":{"android":"levelo://app?vid=4cc0c724-4f32-4315-8b99-760453815736","ios":"levelo://app?vid=4cc0c724-4f32-4315-8b99-760453815736"},"vehicle_type_id":"4","last_reported":1737367811,"current_range_meters":31200,"station_id":"","pricing_plan_id":"cebpf4jnsgd1na2vs0mg"},{"bike_id":"7944f103-435e-484a-8b2c-2f4ab0a687c2","system_id":"levelo_inurba_marseille","lat":43.24084,"lon":5.37748,"is_reserved":false,"is_disabled":false,"rental_uris":{"android":"levelo://app?vid=7944f103-435e-484a-8b2c-2f4ab0a687c2","ios":"levelo://app?vid=7944f103-435e-484a-8b2c-2f4ab0a687c2"},"vehicle_type_id":"4","last_reported":1737367811,"current_range_meters":6000,"station_id":"ce4bhnp2rcd13ifvqgvg","pricing_plan_id":"cebpf4jnsgd1na2vs0mg"},{"bike_id":"f50183e4-71ca-412a-b3a0-01a0e393ecef","system_id":"levelo_inurba_marseille","lat":43.28146,"lon":5.42646,"is_reserved":false,"is_disabled":false,"rental_uris":{"android":"levelo://app?vid=f50183e4-71ca-412a-b3a0-01a0e393ecef","ios":"levelo://app?vid=f50183e4-71ca-412a-b3a0-01a0e393ecef"},"vehicle_type_id":"4","last_reported":1737367811,"current_range_meters":26000,"station_id":"ce4bhnh2rcd13ifvqgug","pricing_plan_id":"cebpf4jnsgd1na2vs0mg"},{"bike_id":"06815d35-757d-4280-814a-8dba22433ced","system_id":"levelo_inurba_marseille","lat":43.27082,"lon":5.42284,"is_reserved":false,"is_disabled":false,"rental_uris":{"android":"levelo://app?vid=06815d35-757d-4280-814a-8dba22433ced","ios":"levelo://app?vid=06815d35-757d-4280-814a-8dba22433ced"},"vehicle_type_id":"4","last_reported":1737367811,"current_range_meters":37600,"station_id":"ce4bhk92rcd13ifvqgb0","pricing_plan_id":"cebpf4jnsgd1na2vs0mg"},{"bike_id":"9d8c985f-9ddd-4ed5-810e-e641fc79bfe6","system_id":"levelo_inurba_marseille","lat":43.29808,"lon":5.38098,"is_reserved":false,"is_disabled":false,"rental_uris":{"android":"levelo://app?vid=9d8c985f-9ddd-4ed5-810e-e641fc79bfe6","ios":"levelo://app?vid=9d8c985f-9ddd-4ed5-810e-e641fc79bfe6"},"vehicle_type_id":"4","last_reported":1737367811,"current_range_meters":38800,"station_id":"ce4bgip2rcd13ifvqbb0","pricing_plan_id":"cebpf4jnsgd1na2vs0mg"},{"bike_id":"53443e11-018e-454a-8f35-9e70c2476374","system_id":"levelo_inurba_marseille","lat":43.265968,"lon":5.380117,"is_reserved":false,"is_disabled":false,"rental_uris":{"android":"levelo://app?vid=53443e11-018e-454a-8f35-9e70c2476374","ios":"levelo://app?vid=53443e11-018e-454a-8f35-9e70c2476374"},"vehicle_type_id":"4","last_reported":1737367811,"current_range_meters":30800,"station_id":"ce4bhh92rcd13ifvqfh0","pricing_plan_id":"cebpf4jnsgd1na2vs0mg"},{"bike_id":"572ea419-6589-48a5-9b2e-9afd4fb2ffc5","system_id":"levelo_inurba_marseille","lat":43.28934,"lon":5.36391,"is_reserved":false,"is_disabled":false,"rental_uris":{"android":"levelo://app?vid=572ea419-6589-48a5-9b2e-9afd4fb2ffc5","ios":"levelo://app?vid=572ea419-6589-48a5-9b2e-9afd4fb2ffc5"},"vehicle_type_id":"4","last_reported":1737367811,"current_range_meters":7200,"station_id":"ce4bhc92rcd13ifvqetg","pricing_plan_id":"cebpf4jnsgd1na2vs0mg"},{"bike_id":"7a956b0b-b8f6-4389-bb50-97bccab2a50c","system_id":"levelo_inurba_marseille","lat":43.25932,"lon":5.40898,"is_reserved":false,"is_disabled":false,"rental_uris":{"android":"levelo://app?vid=7a956b0b-b8f6-4389-bb50-97bccab2a50c","ios":"levelo://app?vid=7a956b0b-b8f6-4389-bb50-97bccab2a50c"},"vehicle_type_id":"4","last_reported":1737367811,"current_range_meters":38800,"station_id":"ce4bhm92rcd13ifvqglg","pricing_plan_id":"cebpf4jnsgd1na2vs0mg"},{"bike_id":"45b46742-a62d-4855-9ae3-d6f0621cbfdc","system_id":"levelo_inurba_marseille","lat":43.25824,"lon":5.39433,"is_reserved":false,"is_disabled":false,"rental_uris":{"android":"levelo://app?vid=45b46742-a62d-4855-9ae3-d6f0621cbfdc","ios":"levelo://app?vid=45b46742-a62d-4855-9ae3-d6f0621cbfdc"},"vehicle_type_id":"4","last_reported":1737367811,"current_range_meters":37600,"station_id":"ce4bhip2rcd13ifvqft0","pricing_plan_id":"cebpf4jnsgd1na2vs0mg"},{"bike_id":"a80b852c-67f7-4f92-bf4d-54e70b44a4b9","system_id":"levelo_inurba_marseille","lat":43.29842,"lon":5.3627,"is_reserved":false,"is_disabled":false,"rental_uris":{"android":"levelo://app?vid=a80b852c-67f7-4f92-bf4d-54e70b44a4b9","ios":"levelo://app?vid=a80b852c-67f7-4f92-bf4d-54e70b44a4b9"},"vehicle_type_id":"4","last_reported":1737367811,"current_range_meters":9200,"station_id":"ce4bgpp2rcd13ifvqc3g","pricing_plan_id":"cebpf4jnsgd1na2vs0mg"},{"bike_id":"b6d1ac21-fc62-4f37-818a-ccd3f22a727f","system_id":"levelo_inurba_marseille","lat":43.30955,"lon":5.39033,"is_reserved":false,"is_disabled":false,"rental_uris":{"android":"levelo://app?vid=b6d1ac21-fc62-4f37-818a-ccd3f22a727f","ios":"levelo://app?vid=b6d1ac21-fc62-4f37-818a-ccd3f22a727f"},"vehicle_type_id":"4","last_reported":1737367811,"current_range_meters":13600,"station_id":"ce4bgup2rcd13ifvqco0","pricing_plan_id":"cebpf4jnsgd1na2vs0mg"},{"bike_id":"1fff2a9f-023a-43ec-bd02-633596668a23","system_id":"levelo_inurba_marseille","lat":43.29621,"lon":5.37161,"is_reserved":false,"is_disabled":false,"rental_uris":{"android":"levelo://app?vid=1fff2a9f-023a-43ec-bd02-633596668a23","ios":"levelo://app?vid=1fff2a9f-023a-43ec-bd02-633596668a23"},"vehicle_type_id":"4","last_reported":1737367811,"current_range_meters":38800,"station_id":"ce4bgnh2rcd13ifvqc0g","pricing_plan_id":"cebpf4jnsgd1na2vs0mg"},{"bike_id":"072c3726-49c0-4288-9182-c88fa0a8900c","system_id":"levelo_inurba_marseille","lat":43.27804,"lon":5.40719,"is_reserved":false,"is_disabled":false,"rental_uris":{"android":"levelo://app?vid=072c3726-49c0-4288-9182-c88fa0a8900c","ios":"levelo://app?vid=072c3726-49c0-4288-9182-c88fa0a8900c"},"vehicle_type_id":"4","last_reported":1737367811,"current_range_meters":28400,"station_id":"ce4bhnh2rcd13ifvqgtg","pricing_plan_id":"cebpf4jnsgd1na2vs0mg"},{"bike_id":"5b178285-a7f5-4068-a3ef-aecd67e47184","system_id":"levelo_inurba_marseille","lat":43.309216,"lon":5.36842,"is_reserved":false,"is_disabled":false,"rental_uris":{"android":"levelo://app?vid=5b178285-a7f5-4068-a3ef-aecd67e47184","ios":"levelo://app?vid=5b178285-a7f5-4068-a3ef-aecd67e47184"},"vehicle_type_id":"4","last_reported":1737367811,"current_range_meters":32000,"station_id":"ce4bgn92rcd13ifvqbvg","pricing_plan_id":"cebpf4jnsgd1na2vs0mg"},{"bike_id":"938d9992-b51b-4f34-b859-f8488ec9749b","system_id":"levelo_inurba_marseille","lat":43.31752,"lon":5.39015,"is_reserved":false,"is_disabled":false,"rental_uris":{"android":"levelo://app?vid=938d9992-b51b-4f34-b859-f8488ec9749b","ios":"levelo://app?vid=938d9992-b51b-4f34-b859-f8488ec9749b"},"vehicle_type_id":"4","last_reported":1737367811,"current_range_meters":25200,"station_id":"ce4bhqp2rcd13ifvqhng","pricing_plan_id":"cebpf4jnsgd1na2vs0mg"},{"bike_id":"5a868be9-e1c4-4f9c-a6a9-bf1df3c6b0ed","system_id":"levelo_inurba_marseille","lat":43.32298,"lon":5.38855,"is_reserved":false,"is_disabled":false,"rental_uris":{"android":"levelo://app?vid=5a868be9-e1c4-4f9c-a6a9-bf1df3c6b0ed","ios":"levelo://app?vid=5a868be9-e1c4-4f9c-a6a9-bf1df3c6b0ed"},"vehicle_type_id":"4","last_reported":1737367811,"current_range_meters":4000,"station_id":"ce4bhqp2rcd13ifvqhog","pricing_plan_id":"cebpf4jnsgd1na2vs0mg"},{"bike_id":"f2390374-e060-4fe1-bcfa-cb2711193e58","system_id":"levelo_inurba_marseille","lat":43.250886,"lon":5.395215,"is_reserved":false,"is_disabled":false,"rental_uris":{"android":"levelo://app?vid=f2390374-e060-4fe1-bcfa-cb2711193e58","ios":"levelo://app?vid=f2390374-e060-4fe1-bcfa-cb2711193e58"},"vehicle_type_id":"4","last_reported":1737367811,"current_range_meters":36000,"station_id":"ce4bhm12rcd13ifvqgkg","pricing_plan_id":"cebpf4jnsgd1na2vs0mg"},{"bike_id":"eff8ce08-e20d-4aca-aa26-405f5c5c11db","system_id":"levelo_inurba_marseille","lat":43.30893,"lon":5.36845,"is_reserved":false,"is_disabled":false,"rental_uris":{"android":"levelo://app?vid=eff8ce08-e20d-4aca-aa26-405f5c5c11db","ios":"levelo://app?vid=eff8ce08-e20d-4aca-aa26-405f5c5c11db"},"vehicle_type_id":"4","last_reported":1737367811,"current_range_meters":33600,"station_id":"ce4bgn92rcd13ifvqbvg","pricing_plan_id":"cebpf4jnsgd1na2vs0mg"},{"bike_id":"dce3c90d-37f4-4b01-88a0-6c51ce8cf835","system_id":"levelo_inurba_marseille","lat":43.30945,"lon":5.39057,"is_reserved":false,"is_disabled":false,"rental_uris":{"android":"levelo://app?vid=dce3c90d-37f4-4b01-88a0-6c51ce8cf835","ios":"levelo://app?vid=dce3c90d-37f4-4b01-88a0-6c51ce8cf835"},"vehicle_type_id":"4","last_reported":1737367811,"current_range_meters":28400,"station_id":"ce4bgup2rcd13ifvqco0","pricing_plan_id":"cebpf4jnsgd1na2vs0mg"},{"bike_id":"76a67948-e0d0-4720-8934-3556d97efacc","system_id":"levelo_inurba_marseille","lat":43.24058,"lon":5.37788,"is_reserved":false,"is_disabled":false,"rental_uris":{"android":"levelo://app?vid=76a67948-e0d0-4720-8934-3556d97efacc","ios":"levelo://app?vid=76a67948-e0d0-4720-8934-3556d97efacc"},"vehicle_type_id":"4","last_reported":1737367811,"current_range_meters":16000,"station_id":"ce4bhnp2rcd13ifvqgvg","pricing_plan_id":"cebpf4jnsgd1na2vs0mg"},{"bike_id":"e7e5efb6-7753-4636-9496-83307e65eeb6","system_id":"levelo_inurba_marseille","lat":43.260546,"lon":5.393968,"is_reserved":false,"is_disabled":false,"rental_uris":{"android":"levelo://app?vid=e7e5efb6-7753-4636-9496-83307e65eeb6","ios":"levelo://app?vid=e7e5efb6-7753-4636-9496-83307e65eeb6"},"vehicle_type_id":"4","last_reported":1737367811,"current_range_meters":27600,"station_id":"ce4bhh92rcd13ifvqfj0","pricing_plan_id":"cebpf4jnsgd1na2vs0mg"},{"bike_id":"9a83225f-f618-4128-b78f-c253de1ef803","system_id":"levelo_inurba_marseille","lat":43.292997,"lon":5.371775,"is_reserved":false,"is_disabled":false,"rental_uris":{"android":"levelo://app?vid=9a83225f-f618-4128-b78f-c253de1ef803","ios":"levelo://app?vid=9a83225f-f618-4128-b78f-c253de1ef803"},"vehicle_type_id":"4","last_reported":1737367811,"current_range_meters":38800,"station_id":"ce4bgh92rcd13ifvqb40","pricing_plan_id":"cebpf4jnsgd1na2vs0mg"},{"bike_id":"6bbc47c9-ed18-464f-ae15-c7d53e2bd9ba","system_id":"levelo_inurba_marseille","lat":43.29799,"lon":5.37111,"is_reserved":false,"is_disabled":false,"rental_uris":{"android":"levelo://app?vid=6bbc47c9-ed18-464f-ae15-c7d53e2bd9ba","ios":"levelo://app?vid=6bbc47c9-ed18-464f-ae15-c7d53e2bd9ba"},"vehicle_type_id":"4","last_reported":1737367811,"current_range_meters":39200,"station_id":"ce4bgop2rcd13ifvqc1g","pricing_plan_id":"cebpf4jnsgd1na2vs0mg"},{"bike_id":"5c5bd4e8-fb2d-401c-90ca-a89a2ddb4152","system_id":"levelo_inurba_marseille","lat":43.30781,"lon":5.37647,"is_reserved":false,"is_disabled":false,"rental_uris":{"android":"levelo://app?vid=5c5bd4e8-fb2d-401c-90ca-a89a2ddb4152","ios":"levelo://app?vid=5c5bd4e8-fb2d-401c-90ca-a89a2ddb4152"},"vehicle_type_id":"4","last_reported":1737367811,"current_range_meters":36400,"station_id":"ce4bgv92rcd13ifvqcq0","pricing_plan_id":"cebpf4jnsgd1na2vs0mg"},{"bike_id":"4745fb0b-613e-4644-964b-be6d100912e5","system_id":"levelo_inurba_marseille","lat":43.31751,"lon":5.39012,"is_reserved":false,"is_disabled":false,"rental_uris":{"android":"levelo://app?vid=4745fb0b-613e-4644-964b-be6d100912e5","ios":"levelo://app?vid=4745fb0b-613e-4644-964b-be6d100912e5"},"vehicle_type_id":"4","last_reported":1737367811,"current_range_meters":10800,"station_id":"ce4bhqp2rcd13ifvqhng","pricing_plan_id":"cebpf4jnsgd1na2vs0mg"},{"bike_id":"748eb233-2b55-40e5-87d6-91e025faacdf","system_id":"levelo_inurba_marseille","lat":43.31241,"lon":5.36883,"is_reserved":false,"is_disabled":false,"rental_uris":{"android":"levelo://app?vid=748eb233-2b55-40e5-87d6-91e025faacdf","ios":"levelo://app?vid=748eb233-2b55-40e5-87d6-91e025faacdf"},"vehicle_type_id":"4","last_reported":1737367811,"current_range_meters":29600,"station_id":"ce4bgl92rcd13ifvqbq0","pricing_plan_id":"cebpf4jnsgd1na2vs0mg"},{"bike_id":"d2c70813-c2dc-439d-aba2-297c3279b67b","system_id":"levelo_inurba_marseille","lat":43.30476,"lon":5.37893,"is_reserved":false,"is_disabled":false,"rental_uris":{"android":"levelo://app?vid=d2c70813-c2dc-439d-aba2-297c3279b67b","ios":"levelo://app?vid=d2c70813-c2dc-439d-aba2-297c3279b67b"},"vehicle_type_id":"4","last_reported":1737367811,"current_range_meters":37600,"station_id":"ce4bgup2rcd13ifvqcn0","pricing_plan_id":"cebpf4jnsgd1na2vs0mg"},{"bike_id":"490838b6-f744-4b79-ac77-a247533aa296","system_id":"levelo_inurba_marseille","lat":43.31751,"lon":5.40444,"is_reserved":false,"is_disabled":false,"rental_uris":{"android":"levelo://app?vid=490838b6-f744-4b79-ac77-a247533aa296","ios":"levelo://app?vid=490838b6-f744-4b79-ac77-a247533aa296"},"vehicle_type_id":"4","last_reported":1737367811,"current_range_meters":38400,"station_id":"","pricing_plan_id":"cebpf4jnsgd1na2vs0mg"},{"bike_id":"4ad51266-48e4-4d1b-8631-93a7a7c83fc9","system_id":"levelo_inurba_marseille","lat":43.30965,"lon":5.39064,"is_reserved":false,"is_disabled":false,"rental_uris":{"android":"levelo://app?vid=4ad51266-48e4-4d1b-8631-93a7a7c83fc9","ios":"levelo://app?vid=4ad51266-48e4-4d1b-8631-93a7a7c83fc9"},"vehicle_type_id":"4","last_reported":1737367811,"current_range_meters":13600,"station_id":"ce4bgup2rcd13ifvqco0","pricing_plan_id":"cebpf4jnsgd1na2vs0mg"},{"bike_id":"88ce3a2b-343a-48fa-9bfd-c30ff1dbe4e5","system_id":"levelo_inurba_marseille","lat":43.2508,"lon":5.39512,"is_reserved":false,"is_disabled":false,"rental_uris":{"android":"levelo://app?vid=88ce3a2b-343a-48fa-9bfd-c30ff1dbe4e5","ios":"levelo://app?vid=88ce3a2b-343a-48fa-9bfd-c30ff1dbe4e5"},"vehicle_type_id":"4","last_reported":1737367811,"current_range_meters":10800,"station_id":"ce4bhm12rcd13ifvqgkg","pricing_plan_id":"cebpf4jnsgd1na2vs0mg"},{"bike_id":"4f0ff530-dfb4-423a-a949-731343171449","system_id":"levelo_inurba_marseille","lat":43.33584,"lon":5.4107,"is_reserved":false,"is_disabled":false,"rental_uris":{"android":"levelo://app?vid=4f0ff530-dfb4-423a-a949-731343171449","ios":"levelo://app?vid=4f0ff530-dfb4-423a-a949-731343171449"},"vehicle_type_id":"4","last_reported":1737367811,"current_range_meters":36800,"station_id":"ce4bhqh2rcd13ifvqhmg","pricing_plan_id":"cebpf4jnsgd1na2vs0mg"},{"bike_id":"5957b55c-bbf3-4d79-a9fa-182e34bda710","system_id":"levelo_inurba_marseille","lat":43.266695,"lon":5.402981,"is_reserved":false,"is_disabled":false,"rental_uris":{"android":"levelo://app?vid=5957b55c-bbf3-4d79-a9fa-182e34bda710","ios":"levelo://app?vid=5957b55c-bbf3-4d79-a9fa-182e34bda710"},"vehicle_type_id":"4","last_reported":1737367811,"current_range_meters":10800,"station_id":"","pricing_plan_id":"cebpf4jnsgd1na2vs0mg"},{"bike_id":"85ecc783-1dcd-4d7b-9945-51ef75ced28d","system_id":"levelo_inurba_marseille","lat":43.303,"lon":5.36901,"is_reserved":false,"is_disabled":false,"rental_uris":{"android":"levelo://app?vid=85ecc783-1dcd-4d7b-9945-51ef75ced28d","ios":"levelo://app?vid=85ecc783-1dcd-4d7b-9945-51ef75ced28d"},"vehicle_type_id":"4","last_reported":1737367811,"current_range_meters":12800,"station_id":"ce4bgqh2rcd13ifvqc5g","pricing_plan_id":"cebpf4jnsgd1na2vs0mg"},{"bike_id":"22127a39-61a0-40f0-bfe9-3941ee863681","system_id":"levelo_inurba_marseille","lat":43.27498,"lon":5.42453,"is_reserved":false,"is_disabled":false,"rental_uris":{"android":"levelo://app?vid=22127a39-61a0-40f0-bfe9-3941ee863681","ios":"levelo://app?vid=22127a39-61a0-40f0-bfe9-3941ee863681"},"vehicle_type_id":"4","last_reported":1737367811,"current_range_meters":28000,"station_id":"ce4bhn92rcd13ifvqgrg","pricing_plan_id":"cebpf4jnsgd1na2vs0mg"},{"bike_id":"668f9767-c78d-438a-96bb-c0760f782967","system_id":"levelo_inurba_marseille","lat":43.26207,"lon":5.37907,"is_reserved":false,"is_disabled":false,"rental_uris":{"android":"levelo://app?vid=668f9767-c78d-438a-96bb-c0760f782967","ios":"levelo://app?vid=668f9767-c78d-438a-96bb-c0760f782967"},"vehicle_type_id":"4","last_reported":1737367811,"current_range_meters":32400,"station_id":"ce4bhjp2rcd13ifvqg90","pricing_plan_id":"cebpf4jnsgd1na2vs0mg"},{"bike_id":"b4fa5c01-cecc-49e4-9482-65309291a760","system_id":"levelo_inurba_marseille","lat":43.24995,"lon":5.38939,"is_reserved":false,"is_disabled":false,"rental_uris":{"android":"levelo://app?vid=b4fa5c01-cecc-49e4-9482-65309291a760","ios":"levelo://app?vid=b4fa5c01-cecc-49e4-9482-65309291a760"},"vehicle_type_id":"4","last_reported":1737367811,"current_range_meters":33600,"station_id":"ce4bhgp2rcd13ifvqfd0","pricing_plan_id":"cebpf4jnsgd1na2vs0mg"},{"bike_id":"d3065fdf-82b3-4a0a-82e8-7714b3103849","system_id":"levelo_inurba_marseille","lat":43.30421,"lon":5.38894,"is_reserved":false,"is_disabled":false,"rental_uris":{"android":"levelo://app?vid=d3065fdf-82b3-4a0a-82e8-7714b3103849","ios":"levelo://app?vid=d3065fdf-82b3-4a0a-82e8-7714b3103849"},"vehicle_type_id":"4","last_reported":1737367811,"current_range_meters":25600,"station_id":"ce4bgk12rcd13ifvqbi0","pricing_plan_id":"cebpf4jnsgd1na2vs0mg"},{"bike_id":"e60bcc88-5ab6-40c5-af7a-e995b02098bd","system_id":"levelo_inurba_marseille","lat":43.24031,"lon":5.37737,"is_reserved":false,"is_disabled":false,"rental_uris":{"android":"levelo://app?vid=e60bcc88-5ab6-40c5-af7a-e995b02098bd","ios":"levelo://app?vid=e60bcc88-5ab6-40c5-af7a-e995b02098bd"},"vehicle_type_id":"4","last_reported":1737367811,"current_range_meters":38800,"station_id":"ce4bhnp2rcd13ifvqgvg","pricing_plan_id":"cebpf4jnsgd1na2vs0mg"},{"bike_id":"e6781628-ba47-414d-a529-11ed03d9bf96","system_id":"levelo_inurba_marseille","lat":43.27965,"lon":5.38753,"is_reserved":false,"is_disabled":false,"rental_uris":{"android":"levelo://app?vid=e6781628-ba47-414d-a529-11ed03d9bf96","ios":"levelo://app?vid=e6781628-ba47-414d-a529-11ed03d9bf96"},"vehicle_type_id":"4","last_reported":1737367811,"current_range_meters":28400,"station_id":"ce4bhg12rcd13ifvqf80","pricing_plan_id":"cebpf4jnsgd1na2vs0mg"},{"bike_id":"55ffbcd1-eef7-48c6-8e1e-15dc3a2da4c1","system_id":"levelo_inurba_marseille","lat":43.28148,"lon":5.42647,"is_reserved":false,"is_disabled":false,"rental_uris":{"android":"levelo://app?vid=55ffbcd1-eef7-48c6-8e1e-15dc3a2da4c1","ios":"levelo://app?vid=55ffbcd1-eef7-48c6-8e1e-15dc3a2da4c1"},"vehicle_type_id":"4","last_reported":1737367811,"current_range_meters":27200,"station_id":"ce4bhnh2rcd13ifvqgug","pricing_plan_id":"cebpf4jnsgd1na2vs0mg"},{"bike_id":"c92cbb9f-5a8c-4f30-b00a-221ba31b944d","system_id":"levelo_inurba_marseille","lat":43.2842,"lon":5.35007,"is_reserved":false,"is_disabled":true,"rental_uris":{"android":"levelo://app?vid=c92cbb9f-5a8c-4f30-b00a-221ba31b944d","ios":"levelo://app?vid=c92cbb9f-5a8c-4f30-b00a-221ba31b944d"},"vehicle_type_id":"4","last_reported":1737367811,"current_range_meters":27600,"station_id":"ce4bhbh2rcd13ifvqepg","pricing_plan_id":"cebpf4jnsgd1na2vs0mg"},{"bike_id":"0494aee5-720b-41bb-9089-898589ae1ece","system_id":"levelo_inurba_marseille","lat":43.32366,"lon":5.38885,"is_reserved":false,"is_disabled":false,"rental_uris":{"android":"levelo://app?vid=0494aee5-720b-41bb-9089-898589ae1ece","ios":"levelo://app?vid=0494aee5-720b-41bb-9089-898589ae1ece"},"vehicle_type_id":"4","last_reported":1737367811,"current_range_meters":35200,"station_id":"ce4bhqp2rcd13ifvqhog","pricing_plan_id":"cebpf4jnsgd1na2vs0mg"},{"bike_id":"5e3888f2-e706-456d-b756-ee132011fb9c","system_id":"levelo_inurba_marseille","lat":43.28946,"lon":5.36391,"is_reserved":false,"is_disabled":false,"rental_uris":{"android":"levelo://app?vid=5e3888f2-e706-456d-b756-ee132011fb9c","ios":"levelo://app?vid=5e3888f2-e706-456d-b756-ee132011fb9c"},"vehicle_type_id":"4","last_reported":1737367811,"current_range_meters":37600,"station_id":"ce4bhc92rcd13ifvqetg","pricing_plan_id":"cebpf4jnsgd1na2vs0mg"},{"bike_id":"2398b642-cd0a-4a16-abf3-3ac0b4a8c4a8","system_id":"levelo_inurba_marseille","lat":43.32473,"lon":5.36599,"is_reserved":false,"is_disabled":false,"rental_uris":{"android":"levelo://app?vid=2398b642-cd0a-4a16-abf3-3ac0b4a8c4a8","ios":"levelo://app?vid=2398b642-cd0a-4a16-abf3-3ac0b4a8c4a8"},"vehicle_type_id":"4","last_reported":1737367811,"current_range_meters":16800,"station_id":"ce4bhs12rcd13ifvqhvg","pricing_plan_id":"cebpf4jnsgd1na2vs0mg"},{"bike_id":"fe90f7a6-3920-456a-9451-50d213b7000f","system_id":"levelo_inurba_marseille","lat":43.2845,"lon":5.38442,"is_reserved":false,"is_disabled":true,"rental_uris":{"android":"levelo://app?vid=fe90f7a6-3920-456a-9451-50d213b7000f","ios":"levelo://app?vid=fe90f7a6-3920-456a-9451-50d213b7000f"},"vehicle_type_id":"4","last_reported":1737367811,"current_range_meters":28400,"station_id":"ce4bh512rcd13ifvqe3g","pricing_plan_id":"cebpf4jnsgd1na2vs0mg"},{"bike_id":"fc5e1f00-56bf-4fdd-97a9-753fd5fc0fd4","system_id":"levelo_inurba_marseille","lat":43.28921,"lon":5.38395,"is_reserved":false,"is_disabled":false,"rental_uris":{"android":"levelo://app?vid=fc5e1f00-56bf-4fdd-97a9-753fd5fc0fd4","ios":"levelo://app?vid=fc5e1f00-56bf-4fdd-97a9-753fd5fc0fd4"},"vehicle_type_id":"4","last_reported":1737367811,"current_range_meters":33600,"station_id":"ce4bh612rcd13ifvqe6g","pricing_plan_id":"cebpf4jnsgd1na2vs0mg"},{"bike_id":"ed868312-ee35-4b8b-bb0e-7ded591ae493","system_id":"levelo_inurba_marseille","lat":43.30279,"lon":5.37716,"is_reserved":false,"is_disabled":false,"rental_uris":{"android":"levelo://app?vid=ed868312-ee35-4b8b-bb0e-7ded591ae493","ios":"levelo://app?vid=ed868312-ee35-4b8b-bb0e-7ded591ae493"},"vehicle_type_id":"4","last_reported":1737367811,"current_range_meters":33600,"station_id":"ce4bguh2rcd13ifvqcj0","pricing_plan_id":"cebpf4jnsgd1na2vs0mg"},{"bike_id":"9c64d9ef-ceb9-49b7-9bce-40fc18ba7667","system_id":"levelo_inurba_marseille","lat":43.231443,"lon":5.437164,"is_reserved":false,"is_disabled":false,"rental_uris":{"android":"levelo://app?vid=9c64d9ef-ceb9-49b7-9bce-40fc18ba7667","ios":"levelo://app?vid=9c64d9ef-ceb9-49b7-9bce-40fc18ba7667"},"vehicle_type_id":"4","last_reported":1737367811,"current_range_meters":23200,"station_id":"ce4bhmp2rcd13ifvqgog","pricing_plan_id":"cebpf4jnsgd1na2vs0mg"},{"bike_id":"aeeb7245-8a7c-4b79-b9ac-efca69f7818a","system_id":"levelo_inurba_marseille","lat":43.32121,"lon":5.36792,"is_reserved":false,"is_disabled":false,"rental_uris":{"android":"levelo://app?vid=aeeb7245-8a7c-4b79-b9ac-efca69f7818a","ios":"levelo://app?vid=aeeb7245-8a7c-4b79-b9ac-efca69f7818a"},"vehicle_type_id":"4","last_reported":1737367811,"current_range_meters":16400,"station_id":"ce4bhrh2rcd13ifvqhug","pricing_plan_id":"cebpf4jnsgd1na2vs0mg"},{"bike_id":"77f19411-a09d-4ad2-82a2-5a2d72180224","system_id":"levelo_inurba_marseille","lat":43.26679,"lon":5.38278,"is_reserved":false,"is_disabled":false,"rental_uris":{"android":"levelo://app?vid=77f19411-a09d-4ad2-82a2-5a2d72180224","ios":"levelo://app?vid=77f19411-a09d-4ad2-82a2-5a2d72180224"},"vehicle_type_id":"4","last_reported":1737367811,"current_range_meters":38000,"station_id":"ce4bhg92rcd13ifvqf90","pricing_plan_id":"cebpf4jnsgd1na2vs0mg"},{"bike_id":"d7ebea74-ea94-4f72-85c3-775497bc315c","system_id":"levelo_inurba_marseille","lat":43.322811,"lon":5.382822,"is_reserved":false,"is_disabled":false,"rental_uris":{"android":"levelo://app?vid=d7ebea74-ea94-4f72-85c3-775497bc315c","ios":"levelo://app?vid=d7ebea74-ea94-4f72-85c3-775497bc315c"},"vehicle_type_id":"4","last_reported":1737367811,"current_range_meters":38800,"station_id":"ce4bhr12rcd13ifvqhqg","pricing_plan_id":"cebpf4jnsgd1na2vs0mg"},{"bike_id":"01c5dbcb-0ce1-4138-ac1b-29294ab651c5","system_id":"levelo_inurba_marseille","lat":43.30972,"lon":5.39051,"is_reserved":false,"is_disabled":false,"rental_uris":{"android":"levelo://app?vid=01c5dbcb-0ce1-4138-ac1b-29294ab651c5","ios":"levelo://app?vid=01c5dbcb-0ce1-4138-ac1b-29294ab651c5"},"vehicle_type_id":"4","last_reported":1737367811,"current_range_meters":34800,"station_id":"ce4bgup2rcd13ifvqco0","pricing_plan_id":"cebpf4jnsgd1na2vs0mg"},{"bike_id":"9eb335b9-be9e-4d87-ab11-b7aad1d486a4","system_id":"levelo_inurba_marseille","lat":43.23154,"lon":5.43722,"is_reserved":false,"is_disabled":false,"rental_uris":{"android":"levelo://app?vid=9eb335b9-be9e-4d87-ab11-b7aad1d486a4","ios":"levelo://app?vid=9eb335b9-be9e-4d87-ab11-b7aad1d486a4"},"vehicle_type_id":"4","last_reported":1737367811,"current_range_meters":38400,"station_id":"ce4bhmp2rcd13ifvqgog","pricing_plan_id":"cebpf4jnsgd1na2vs0mg"},{"bike_id":"30f7c008-83db-41a2-9001-893147853026","system_id":"levelo_inurba_marseille","lat":43.32476,"lon":5.36566,"is_reserved":false,"is_disabled":false,"rental_uris":{"android":"levelo://app?vid=30f7c008-83db-41a2-9001-893147853026","ios":"levelo://app?vid=30f7c008-83db-41a2-9001-893147853026"},"vehicle_type_id":"4","last_reported":1737367811,"current_range_meters":28400,"station_id":"ce4bhs12rcd13ifvqhvg","pricing_plan_id":"cebpf4jnsgd1na2vs0mg"},{"bike_id":"b6139d96-ffdb-4520-aef7-305d62d3c370","system_id":"levelo_inurba_marseille","lat":43.31222,"lon":5.36855,"is_reserved":false,"is_disabled":false,"rental_uris":{"android":"levelo://app?vid=b6139d96-ffdb-4520-aef7-305d62d3c370","ios":"levelo://app?vid=b6139d96-ffdb-4520-aef7-305d62d3c370"},"vehicle_type_id":"4","last_reported":1737367811,"current_range_meters":17600,"station_id":"ce4bgl92rcd13ifvqbq0","pricing_plan_id":"cebpf4jnsgd1na2vs0mg"},{"bike_id":"c152fc79-1cd4-48b6-9683-75e37b136f35","system_id":"levelo_inurba_marseille","lat":43.25017,"lon":5.38917,"is_reserved":false,"is_disabled":false,"rental_uris":{"android":"levelo://app?vid=c152fc79-1cd4-48b6-9683-75e37b136f35","ios":"levelo://app?vid=c152fc79-1cd4-48b6-9683-75e37b136f35"},"vehicle_type_id":"4","last_reported":1737367811,"current_range_meters":38800,"station_id":"ce4bhgp2rcd13ifvqfd0","pricing_plan_id":"cebpf4jnsgd1na2vs0mg"},{"bike_id":"63a0c470-0e3d-4f46-a361-302d7a67e5d2","system_id":"levelo_inurba_marseille","lat":43.24808,"lon":5.37462,"is_reserved":false,"is_disabled":false,"rental_uris":{"android":"levelo://app?vid=63a0c470-0e3d-4f46-a361-302d7a67e5d2","ios":"levelo://app?vid=63a0c470-0e3d-4f46-a361-302d7a67e5d2"},"vehicle_type_id":"4","last_reported":1737367811,"current_range_meters":36400,"station_id":"ce4bhgh2rcd13ifvqfb0","pricing_plan_id":"cebpf4jnsgd1na2vs0mg"},{"bike_id":"5434439c-80a7-45ef-8e7d-a897cb833684","system_id":"levelo_inurba_marseille","lat":43.32417,"lon":5.36753,"is_reserved":false,"is_disabled":false,"rental_uris":{"android":"levelo://app?vid=5434439c-80a7-45ef-8e7d-a897cb833684","ios":"levelo://app?vid=5434439c-80a7-45ef-8e7d-a897cb833684"},"vehicle_type_id":"4","last_reported":1737367811,"current_range_meters":8000,"station_id":"","pricing_plan_id":"cebpf4jnsgd1na2vs0mg"},{"bike_id":"4b67df20-9582-432d-941a-3038c10ba6db","system_id":"levelo_inurba_marseille","lat":43.24064,"lon":5.37769,"is_reserved":false,"is_disabled":false,"rental_uris":{"android":"levelo://app?vid=4b67df20-9582-432d-941a-3038c10ba6db","ios":"levelo://app?vid=4b67df20-9582-432d-941a-3038c10ba6db"},"vehicle_type_id":"4","last_reported":1737367811,"current_range_meters":36800,"station_id":"ce4bhnp2rcd13ifvqgvg","pricing_plan_id":"cebpf4jnsgd1na2vs0mg"},{"bike_id":"476e06e6-2eeb-4379-aeb7-c49f6afc2fe6","system_id":"levelo_inurba_marseille","lat":43.30472,"lon":5.37903,"is_reserved":false,"is_disabled":false,"rental_uris":{"android":"levelo://app?vid=476e06e6-2eeb-4379-aeb7-c49f6afc2fe6","ios":"levelo://app?vid=476e06e6-2eeb-4379-aeb7-c49f6afc2fe6"},"vehicle_type_id":"4","last_reported":1737367811,"current_range_meters":36400,"station_id":"ce4bgup2rcd13ifvqcn0","pricing_plan_id":"cebpf4jnsgd1na2vs0mg"},{"bike_id":"50267a36-8428-4ee1-ac27-ac6a771a71af","system_id":"levelo_inurba_marseille","lat":43.33696,"lon":5.35612,"is_reserved":false,"is_disabled":true,"rental_uris":{"android":"levelo://app?vid=50267a36-8428-4ee1-ac27-ac6a771a71af","ios":"levelo://app?vid=50267a36-8428-4ee1-ac27-ac6a771a71af"},"vehicle_type_id":"4","last_reported":1737367811,"current_range_meters":1200,"station_id":"","pricing_plan_id":"cebpf4jnsgd1na2vs0mg"},{"bike_id":"f5863b18-13a1-4c6e-92de-5668ea912ad3","system_id":"levelo_inurba_marseille","lat":43.26234,"lon":5.40439,"is_reserved":false,"is_disabled":true,"rental_uris":{"android":"levelo://app?vid=f5863b18-13a1-4c6e-92de-5668ea912ad3","ios":"levelo://app?vid=f5863b18-13a1-4c6e-92de-5668ea912ad3"},"vehicle_type_id":"4","last_reported":1737367811,"current_range_meters":0,"station_id":"","pricing_plan_id":"cebpf4jnsgd1na2vs0mg"},{"bike_id":"e3969d47-7a98-48ce-95b3-bbad5d42c766","system_id":"levelo_inurba_marseille","lat":43.25098,"lon":5.40399,"is_reserved":false,"is_disabled":false,"rental_uris":{"android":"levelo://app?vid=e3969d47-7a98-48ce-95b3-bbad5d42c766","ios":"levelo://app?vid=e3969d47-7a98-48ce-95b3-bbad5d42c766"},"vehicle_type_id":"4","last_reported":1737367811,"current_range_meters":38800,"station_id":"ce4bhlh2rcd13ifvqgig","pricing_plan_id":"cebpf4jnsgd1na2vs0mg"},{"bike_id":"aadeea6a-4f60-4f7c-87ee-1d6ddbecb58b","system_id":"levelo_inurba_marseille","lat":43.27475,"lon":5.4246,"is_reserved":false,"is_disabled":false,"rental_uris":{"android":"levelo://app?vid=aadeea6a-4f60-4f7c-87ee-1d6ddbecb58b","ios":"levelo://app?vid=aadeea6a-4f60-4f7c-87ee-1d6ddbecb58b"},"vehicle_type_id":"4","last_reported":1737367811,"current_range_meters":26800,"station_id":"ce4bhn92rcd13ifvqgrg","pricing_plan_id":"cebpf4jnsgd1na2vs0mg"},{"bike_id":"eb6fcbf2-4dba-4dcc-a3a1-6b992d95097c","system_id":"levelo_inurba_marseille","lat":43.23963,"lon":5.36635,"is_reserved":false,"is_disabled":false,"rental_uris":{"android":"levelo://app?vid=eb6fcbf2-4dba-4dcc-a3a1-6b992d95097c","ios":"levelo://app?vid=eb6fcbf2-4dba-4dcc-a3a1-6b992d95097c"},"vehicle_type_id":"4","last_reported":1737367811,"current_range_meters":28400,"station_id":"ce4bhi12rcd13ifvqfp0","pricing_plan_id":"cebpf4jnsgd1na2vs0mg"},{"bike_id":"c160579d-57a0-455c-96db-5193fb7ebdc0","system_id":"levelo_inurba_marseille","lat":43.33024,"lon":5.39027,"is_reserved":false,"is_disabled":false,"rental_uris":{"android":"levelo://app?vid=c160579d-57a0-455c-96db-5193fb7ebdc0","ios":"levelo://app?vid=c160579d-57a0-455c-96db-5193fb7ebdc0"},"vehicle_type_id":"4","last_reported":1737367811,"current_range_meters":12800,"station_id":"ce4bhr92rcd13ifvqhrg","pricing_plan_id":"cebpf4jnsgd1na2vs0mg"},{"bike_id":"701ad8a5-4a2f-4eda-bee4-d8f2c0da4dac","system_id":"levelo_inurba_marseille","lat":43.29861,"lon":5.38924,"is_reserved":false,"is_disabled":true,"rental_uris":{"android":"levelo://app?vid=701ad8a5-4a2f-4eda-bee4-d8f2c0da4dac","ios":"levelo://app?vid=701ad8a5-4a2f-4eda-bee4-d8f2c0da4dac"},"vehicle_type_id":"4","last_reported":1737367811,"current_range_meters":26000,"station_id":"ce4bh392rcd13ifvqdl0","pricing_plan_id":"cebpf4jnsgd1na2vs0mg"},{"bike_id":"c94c794f-285c-4d78-9d1c-6671e4c75b23","system_id":"levelo_inurba_marseille","lat":43.25499,"lon":5.37651,"is_reserved":false,"is_disabled":false,"rental_uris":{"android":"levelo://app?vid=c94c794f-285c-4d78-9d1c-6671e4c75b23","ios":"levelo://app?vid=c94c794f-285c-4d78-9d1c-6671e4c75b23"},"vehicle_type_id":"4","last_reported":1737367811,"current_range_meters":38800,"station_id":"ce4bhh12rcd13ifvqff0","pricing_plan_id":"cebpf4jnsgd1na2vs0mg"},{"bike_id":"f0f7ae09-777e-4d19-af74-78fcd2e44652","system_id":"levelo_inurba_marseille","lat":43.24989,"lon":5.38973,"is_reserved":false,"is_disabled":false,"rental_uris":{"android":"levelo://app?vid=f0f7ae09-777e-4d19-af74-78fcd2e44652","ios":"levelo://app?vid=f0f7ae09-777e-4d19-af74-78fcd2e44652"},"vehicle_type_id":"4","last_reported":1737367811,"current_range_meters":10800,"station_id":"","pricing_plan_id":"cebpf4jnsgd1na2vs0mg"},{"bike_id":"4fe58642-8ec3-4f25-a4fc-eb5dc3dc47a8","system_id":"levelo_inurba_marseille","lat":43.3354,"lon":5.36135,"is_reserved":false,"is_disabled":true,"rental_uris":{"android":"levelo://app?vid=4fe58642-8ec3-4f25-a4fc-eb5dc3dc47a8","ios":"levelo://app?vid=4fe58642-8ec3-4f25-a4fc-eb5dc3dc47a8"},"vehicle_type_id":"4","last_reported":1737367811,"current_range_meters":26000,"station_id":"","pricing_plan_id":"cebpf4jnsgd1na2vs0mg"},{"bike_id":"9cccd2ff-b864-466b-83c6-b52ec2815836","system_id":"levelo_inurba_marseille","lat":43.25707,"lon":5.41134,"is_reserved":false,"is_disabled":false,"rental_uris":{"android":"levelo://app?vid=9cccd2ff-b864-466b-83c6-b52ec2815836","ios":"levelo://app?vid=9cccd2ff-b864-466b-83c6-b52ec2815836"},"vehicle_type_id":"4","last_reported":1737367811,"current_range_meters":32800,"station_id":"ce4bhkp2rcd13ifvqgd0","pricing_plan_id":"cebpf4jnsgd1na2vs0mg"},{"bike_id":"db1a23f2-6330-48c2-8bc0-30bb0d83aa08","system_id":"levelo_inurba_marseille","lat":43.29419,"lon":5.3862,"is_reserved":false,"is_disabled":false,"rental_uris":{"android":"levelo://app?vid=db1a23f2-6330-48c2-8bc0-30bb0d83aa08","ios":"levelo://app?vid=db1a23f2-6330-48c2-8bc0-30bb0d83aa08"},"vehicle_type_id":"4","last_reported":1737367811,"current_range_meters":20000,"station_id":"ce4bh2h2rcd13ifvqdh0","pricing_plan_id":"cebpf4jnsgd1na2vs0mg"},{"bike_id":"a43fecb6-f529-4c00-87b3-36c31a287f6b","system_id":"levelo_inurba_marseille","lat":43.29709,"lon":5.36611,"is_reserved":false,"is_disabled":false,"rental_uris":{"android":"levelo://app?vid=a43fecb6-f529-4c00-87b3-36c31a287f6b","ios":"levelo://app?vid=a43fecb6-f529-4c00-87b3-36c31a287f6b"},"vehicle_type_id":"4","last_reported":1737367811,"current_range_meters":20800,"station_id":"ce4bgn12rcd13ifvqbt0","pricing_plan_id":"cebpf4jnsgd1na2vs0mg"},{"bike_id":"b5b91842-f1aa-4bba-964f-7a9484225fb0","system_id":"levelo_inurba_marseille","lat":43.25857,"lon":5.399,"is_reserved":false,"is_disabled":false,"rental_uris":{"android":"levelo://app?vid=b5b91842-f1aa-4bba-964f-7a9484225fb0","ios":"levelo://app?vid=b5b91842-f1aa-4bba-964f-7a9484225fb0"},"vehicle_type_id":"4","last_reported":1737367811,"current_range_meters":30800,"station_id":"ce4bhl92rcd13ifvqghg","pricing_plan_id":"cebpf4jnsgd1na2vs0mg"},{"bike_id":"13a9853e-21c2-4d7a-8ae7-af374064a8b8","system_id":"levelo_inurba_marseille","lat":43.31801,"lon":5.37393,"is_reserved":false,"is_disabled":false,"rental_uris":{"android":"levelo://app?vid=13a9853e-21c2-4d7a-8ae7-af374064a8b8","ios":"levelo://app?vid=13a9853e-21c2-4d7a-8ae7-af374064a8b8"},"vehicle_type_id":"4","last_reported":1737367811,"current_range_meters":22800,"station_id":"","pricing_plan_id":"cebpf4jnsgd1na2vs0mg"},{"bike_id":"60b7d049-237a-4dbd-ad0c-436ecde1802f","system_id":"levelo_inurba_marseille","lat":43.23185,"lon":5.35575,"is_reserved":false,"is_disabled":false,"rental_uris":{"android":"levelo://app?vid=60b7d049-237a-4dbd-ad0c-436ecde1802f","ios":"levelo://app?vid=60b7d049-237a-4dbd-ad0c-436ecde1802f"},"vehicle_type_id":"4","last_reported":1737367811,"current_range_meters":25200,"station_id":"ce4bhu92rcd13ifvqi70","pricing_plan_id":"cebpf4jnsgd1na2vs0mg"},{"bike_id":"bc87d271-4826-4334-8a44-9654f7f2f9ae","system_id":"levelo_inurba_marseille","lat":43.29789,"lon":5.38116,"is_reserved":false,"is_disabled":false,"rental_uris":{"android":"levelo://app?vid=bc87d271-4826-4334-8a44-9654f7f2f9ae","ios":"levelo://app?vid=bc87d271-4826-4334-8a44-9654f7f2f9ae"},"vehicle_type_id":"4","last_reported":1737367811,"current_range_meters":12800,"station_id":"ce4bgip2rcd13ifvqbb0","pricing_plan_id":"cebpf4jnsgd1na2vs0mg"},{"bike_id":"23a5b3f4-0f7a-4a4e-8090-ef0fdae8d7e5","system_id":"levelo_inurba_marseille","lat":43.32473,"lon":5.36569,"is_reserved":false,"is_disabled":false,"rental_uris":{"android":"levelo://app?vid=23a5b3f4-0f7a-4a4e-8090-ef0fdae8d7e5","ios":"levelo://app?vid=23a5b3f4-0f7a-4a4e-8090-ef0fdae8d7e5"},"vehicle_type_id":"4","last_reported":1737367811,"current_range_meters":16000,"station_id":"ce4bhs12rcd13ifvqhvg","pricing_plan_id":"cebpf4jnsgd1na2vs0mg"},{"bike_id":"6ad06d21-24e5-49ab-93db-c06720207b21","system_id":"levelo_inurba_marseille","lat":43.301413,"lon":5.374155,"is_reserved":false,"is_disabled":false,"rental_uris":{"android":"levelo://app?vid=6ad06d21-24e5-49ab-93db-c06720207b21","ios":"levelo://app?vid=6ad06d21-24e5-49ab-93db-c06720207b21"},"vehicle_type_id":"4","last_reported":1737367811,"current_range_meters":10800,"station_id":"ce4bgs92rcd13ifvqcc0","pricing_plan_id":"cebpf4jnsgd1na2vs0mg"},{"bike_id":"85c98260-362a-4903-ab01-b97a98d411e1","system_id":"levelo_inurba_marseille","lat":43.24814,"lon":5.37451,"is_reserved":false,"is_disabled":false,"rental_uris":{"android":"levelo://app?vid=85c98260-362a-4903-ab01-b97a98d411e1","ios":"levelo://app?vid=85c98260-362a-4903-ab01-b97a98d411e1"},"vehicle_type_id":"4","last_reported":1737367811,"current_range_meters":30000,"station_id":"ce4bhgh2rcd13ifvqfb0","pricing_plan_id":"cebpf4jnsgd1na2vs0mg"},{"bike_id":"2d51570f-6288-4129-ae48-9c2661ae0551","system_id":"levelo_inurba_marseille","lat":43.30514,"lon":5.36723,"is_reserved":false,"is_disabled":false,"rental_uris":{"android":"levelo://app?vid=2d51570f-6288-4129-ae48-9c2661ae0551","ios":"levelo://app?vid=2d51570f-6288-4129-ae48-9c2661ae0551"},"vehicle_type_id":"4","last_reported":1737367811,"current_range_meters":33200,"station_id":"ce4bgrp2rcd13ifvqc9g","pricing_plan_id":"cebpf4jnsgd1na2vs0mg"},{"bike_id":"53ab56fa-80ef-4c7c-86e0-1910fb5964b6","system_id":"levelo_inurba_marseille","lat":43.30518,"lon":5.37885,"is_reserved":false,"is_disabled":false,"rental_uris":{"android":"levelo://app?vid=53ab56fa-80ef-4c7c-86e0-1910fb5964b6","ios":"levelo://app?vid=53ab56fa-80ef-4c7c-86e0-1910fb5964b6"},"vehicle_type_id":"4","last_reported":1737367811,"current_range_meters":12400,"station_id":"","pricing_plan_id":"cebpf4jnsgd1na2vs0mg"},{"bike_id":"c73224c5-8662-473f-8844-f010af6d2952","system_id":"levelo_inurba_marseille","lat":43.27206,"lon":5.40997,"is_reserved":false,"is_disabled":true,"rental_uris":{"android":"levelo://app?vid=c73224c5-8662-473f-8844-f010af6d2952","ios":"levelo://app?vid=c73224c5-8662-473f-8844-f010af6d2952"},"vehicle_type_id":"4","last_reported":1737367811,"current_range_meters":14400,"station_id":"ce4bhl12rcd13ifvqgf0","pricing_plan_id":"cebpf4jnsgd1na2vs0mg"},{"bike_id":"511441a2-57fd-40c6-9873-dc1f8837f88c","system_id":"levelo_inurba_marseille","lat":43.34141,"lon":5.40909,"is_reserved":false,"is_disabled":false,"rental_uris":{"android":"levelo://app?vid=511441a2-57fd-40c6-9873-dc1f8837f88c","ios":"levelo://app?vid=511441a2-57fd-40c6-9873-dc1f8837f88c"},"vehicle_type_id":"4","last_reported":1737367811,"current_range_meters":38000,"station_id":"ce4bhqh2rcd13ifvqhlg","pricing_plan_id":"cebpf4jnsgd1na2vs0mg"},{"bike_id":"95b517d0-9dcf-47f9-8053-773bec6e6a69","system_id":"levelo_inurba_marseille","lat":43.26657,"lon":5.39537,"is_reserved":false,"is_disabled":false,"rental_uris":{"android":"levelo://app?vid=95b517d0-9dcf-47f9-8053-773bec6e6a69","ios":"levelo://app?vid=95b517d0-9dcf-47f9-8053-773bec6e6a69"},"vehicle_type_id":"4","last_reported":1737367811,"current_range_meters":8400,"station_id":"","pricing_plan_id":"cebpf4jnsgd1na2vs0mg"},{"bike_id":"ef6995fd-e68e-4985-8c9d-7187adb30bbc","system_id":"levelo_inurba_marseille","lat":43.24633,"lon":5.38936,"is_reserved":false,"is_disabled":false,"rental_uris":{"android":"levelo://app?vid=ef6995fd-e68e-4985-8c9d-7187adb30bbc","ios":"levelo://app?vid=ef6995fd-e68e-4985-8c9d-7187adb30bbc"},"vehicle_type_id":"4","last_reported":1737367811,"current_range_meters":38800,"station_id":"ce4bhg12rcd13ifvqf60","pricing_plan_id":"cebpf4jnsgd1na2vs0mg"},{"bike_id":"486385f4-89df-4f44-8c44-b8da6c6dd1f8","system_id":"levelo_inurba_marseille","lat":43.27365,"lon":5.36254,"is_reserved":false,"is_disabled":false,"rental_uris":{"android":"levelo://app?vid=486385f4-89df-4f44-8c44-b8da6c6dd1f8","ios":"levelo://app?vid=486385f4-89df-4f44-8c44-b8da6c6dd1f8"},"vehicle_type_id":"4","last_reported":1737367811,"current_range_meters":38800,"station_id":"ce4bhbh2rcd13ifvqeo0","pricing_plan_id":"cebpf4jnsgd1na2vs0mg"},{"bike_id":"439798a6-ea6f-4ae7-a9c7-60c98771753a","system_id":"levelo_inurba_marseille","lat":43.28567,"lon":5.39503,"is_reserved":false,"is_disabled":false,"rental_uris":{"android":"levelo://app?vid=439798a6-ea6f-4ae7-a9c7-60c98771753a","ios":"levelo://app?vid=439798a6-ea6f-4ae7-a9c7-60c98771753a"},