{"last_updated":1720030222,"ttl":30,"version":"2.2","data":{"bikes":[{"bike_id":"28122393-692c-4ba4-b270-6be980b74afb","system_id":"levelo_inurba_marseille","lat":43.313391,"lon":5.36706,"is_reserved":false,"is_disabled":false,"rental_uris":{"android":"levelo://app?vid=28122393-692c-4ba4-b270-6be980b74afb","ios":"levelo://app?vid=28122393-692c-4ba4-b270-6be980b74afb"},"vehicle_type_id":"4","last_reported":1720030222,"current_range_meters":0,"station_id":"ce4bgr92rcd13ifvqc6g","pricing_plan_id":"cebpf4jnsgd1na2vs0mg"},{"bike_id":"f2ea8d97-0990-4c4c-8f57-922643dc33c7","system_id":"levelo_inurba_marseille","lat":43.312239,"lon":5.368562,"is_reserved":false,"is_disabled":false,"rental_uris":{"android":"levelo://app?vid=f2ea8d97-0990-4c4c-8f57-922643dc33c7","ios":"levelo://app?vid=f2ea8d97-0990-4c4c-8f57-922643dc33c7"},"vehicle_type_id":"4","last_reported":1720030222,"current_range_meters":4000,"station_id":"ce4bgl92rcd13ifvqbq0","pricing_plan_id":"cebpf4jnsgd1na2vs0mg"},{"bike_id":"c69041d2-bcf1-4a02-94e1-342574ab4e23","system_id":"levelo_inurba_marseille","lat":43.312239,"lon":5.368562,"is_reserved":false,"is_disabled":false,"rental_uris":{"android":"levelo://app?vid=c69041d2-bcf1-4a02-94e1-342574ab4e23","ios":"levelo://app?vid=c69041d2-bcf1-4a02-94e1-342574ab4e23"},"vehicle_type_id":"4","last_reported":1720030222,"current_range_meters":15200,"station_id":"ce4bgl92rcd13ifvqbq0","pricing_plan_id":"cebpf4jnsgd1na2vs0mg"},{"bike_id":"aad62bcb-481f-4b4e-a82a-08db639d60eb","system_id":"levelo_inurba_marseille","lat":43.312239,"lon":5.368562,"is_reserved":false,"is_disabled":false,"rental_uris":{"android":"levelo://app?vid=aad62bcb-481f-4b4e-a82a-08db639d60eb","ios":"levelo://app?vid=aad62bcb-481f-4b4e-a82a-08db639d60eb"},"vehicle_type_id":"4","last_reported":1720030222,"current_range_meters":18400,"station_id":"ce4bgl92rcd13ifvqbq0","pricing_plan_id":"cebpf4jnsgd1na2vs0mg"},{"bike_id":"fef13b07-5c12-4146-9cc7-52021b22f309","system_id":"levelo_inurba_marseille","lat":43.312239,"lon":5.368562,"is_reserved":false,"is_disabled":false,"rental_uris":{"android":"levelo://app?vid=fef13b07-5c12-4146-9cc7-52021b22f309","ios":"levelo://app?vid=fef13b07-5c12-4146-9cc7-52021b22f309"},"vehicle_type_id":"4","last_reported":1720030222,"current_range_meters":0,"station_id":"ce4bgl92rcd13ifvqbq0","pricing_plan_id":"cebpf4jnsgd1na2vs0mg"},{"bike_id":"1ce685da-61b7-46e6-999c-5ebcd4ced5ce","system_id":"levelo_inurba_marseille","lat":43.312239,"lon":5.368562,"is_reserved":false,"is_disabled":false,"rental_uris":{"android":"levelo://app?vid=1ce685da-61b7-46e6-999c-5ebcd4ced5ce","ios":"levelo://app?vid=1ce685da-61b7-46e6-999c-5ebcd4ced5ce"},"vehicle_type_id":"4","last_reported":1720030222,"current_range_meters":0,"station_id":"ce4bgl92rcd13ifvqbq0","pricing_plan_id":"cebpf4jnsgd1na2vs0mg"},{"bike_id":"0cd50438-1cb4-4ef0-9eef-21d7f8b2e8ba","system_id":"levelo_inurba_marseille","lat":43.312239,"lon":5.368562,"is_reserved":false,"is_disabled":false,"rental_uris":{"android":"levelo://app?vid=0cd50438-1cb4-4ef0-9eef-21d7f8b2e8ba","ios":"levelo://app?vid=0cd50438-1cb4-4ef0-9eef-21d7f8b2e8ba"},"vehicle_type_id":"4","last_reported":1720030222,"current_range_meters":4000,"station_id":"ce4bgl92rcd13ifvqbq0","pricing_plan_id":"cebpf4jnsgd1na2vs0mg"},{"bike_id":"3663290f-9d70-473b-8e52-2928c458c54a","system_id":"levelo_inurba_marseille","lat":43.312239,"lon":5.368562,"is_reserved":false,"is_disabled":false,"rental_uris":{"android":"levelo://app?vid=3663290f-9d70-473b-8e52-2928c458c54a","ios":"levelo://app?vid=3663290f-9d70-473b-8e52-2928c458c54a"},"vehicle_type_id":"4","last_reported":1720030222,"current_range_meters":400,"station_id":"ce4bgl92rcd13ifvqbq0","pricing_plan_id":"cebpf4jnsgd1na2vs0mg"},{"bike_id":"8959c5f9-5f02-4670-bc0c-53e66a0477dd","system_id":"levelo_inurba_marseille","lat":43.31105,"lon":5.370523,"is_reserved":false,"is_disabled":false,"rental_uris":{"android":"levelo://app?vid=8959c5f9-5f02-4670-bc0c-53e66a0477dd","ios":"levelo://app?vid=8959c5f9-5f02-4670-bc0c-53e66a0477dd"},"vehicle_type_id":"4","last_reported":1720030222,"current_range_meters":12800,"station_id":"","pricing_plan_id":"cebpf4jnsgd1na2vs0mg"},{"bike_id":"a0dc10ac-1a90-4f07-86aa-bd4456d43c76","system_id":"levelo_inurba_marseille","lat":43.31502,"lon":5.37302,"is_reserved":false,"is_disabled":false,"rental_uris":{"android":"levelo://app?vid=a0dc10ac-1a90-4f07-86aa-bd4456d43c76","ios":"levelo://app?vid=a0dc10ac-1a90-4f07-86aa-bd4456d43c76"},"vehicle_type_id":"4","last_reported":1720030222,"current_range_meters":5600,"station_id":"ce4bgt12rcd13ifvqcd0","pricing_plan_id":"cebpf4jnsgd1na2vs0mg"},{"bike_id":"aed082f1-a008-4ddd-9114-c0d777fcc1bf","system_id":"levelo_inurba_marseille","lat":43.314811,"lon":5.373104,"is_reserved":false,"is_disabled":false,"rental_uris":{"android":"levelo://app?vid=aed082f1-a008-4ddd-9114-c0d777fcc1bf","ios":"levelo://app?vid=aed082f1-a008-4ddd-9114-c0d777fcc1bf"},"vehicle_type_id":"4","last_reported":1720030222,"current_range_meters":0,"station_id":"ce4bgt12rcd13ifvqcd0","pricing_plan_id":"cebpf4jnsgd1na2vs0mg"},{"bike_id":"aca0fd86-7997-4a5e-99ee-bf52d09e2b9f","system_id":"levelo_inurba_marseille","lat":43.298433,"lon":5.362774,"is_reserved":false,"is_disabled":false,"rental_uris":{"android":"levelo://app?vid=aca0fd86-7997-4a5e-99ee-bf52d09e2b9f","ios":"levelo://app?vid=aca0fd86-7997-4a5e-99ee-bf52d09e2b9f"},"vehicle_type_id":"4","last_reported":1720030222,"current_range_meters":16800,"station_id":"ce4bgpp2rcd13ifvqc3g","pricing_plan_id":"cebpf4jnsgd1na2vs0mg"},{"bike_id":"1a378c2d-d02e-41a3-9f90-294fe62dba4e","system_id":"levelo_inurba_marseille","lat":43.31081,"lon":5.37512,"is_reserved":false,"is_disabled":false,"rental_uris":{"android":"levelo://app?vid=1a378c2d-d02e-41a3-9f90-294fe62dba4e","ios":"levelo://app?vid=1a378c2d-d02e-41a3-9f90-294fe62dba4e"},"vehicle_type_id":"4","last_reported":1720030222,"current_range_meters":0,"station_id":"","pricing_plan_id":"cebpf4jnsgd1na2vs0mg"},{"bike_id":"680354a0-47dd-4515-9af6-2f5bab6d1594","system_id":"levelo_inurba_marseille","lat":43.30546,"lon":5.36656,"is_reserved":false,"is_disabled":false,"rental_uris":{"android":"levelo://app?vid=680354a0-47dd-4515-9af6-2f5bab6d1594","ios":"levelo://app?vid=680354a0-47dd-4515-9af6-2f5bab6d1594"},"vehicle_type_id":"4","last_reported":1720030222,"current_range_meters":5600,"station_id":"","pricing_plan_id":"cebpf4jnsgd1na2vs0mg"},{"bike_id":"898878a3-2153-4e9e-9970-000bbeb36b90","system_id":"levelo_inurba_marseille","lat":43.306064,"lon":5.372144,"is_reserved":false,"is_disabled":false,"rental_uris":{"android":"levelo://app?vid=898878a3-2153-4e9e-9970-000bbeb36b90","ios":"levelo://app?vid=898878a3-2153-4e9e-9970-000bbeb36b90"},"vehicle_type_id":"4","last_reported":1720030222,"current_range_meters":19600,"station_id":"ce4bgqh2rcd13ifvqc4g","pricing_plan_id":"cebpf4jnsgd1na2vs0mg"},{"bike_id":"b6bdeb41-905c-4192-94dc-c95eda443a0f","system_id":"levelo_inurba_marseille","lat":43.306073,"lon":5.37232,"is_reserved":false,"is_disabled":false,"rental_uris":{"android":"levelo://app?vid=b6bdeb41-905c-4192-94dc-c95eda443a0f","ios":"levelo://app?vid=b6bdeb41-905c-4192-94dc-c95eda443a0f"},"vehicle_type_id":"4","last_reported":1720030222,"current_range_meters":0,"station_id":"ce4bgqh2rcd13ifvqc4g","pricing_plan_id":"cebpf4jnsgd1na2vs0mg"},{"bike_id":"943e9858-20e7-4df4-8a94-8942d454ca0d","system_id":"levelo_inurba_marseille","lat":43.30597,"lon":5.37227,"is_reserved":false,"is_disabled":false,"rental_uris":{"android":"levelo://app?vid=943e9858-20e7-4df4-8a94-8942d454ca0d","ios":"levelo://app?vid=943e9858-20e7-4df4-8a94-8942d454ca0d"},"vehicle_type_id":"4","last_reported":1720030222,"current_range_meters":0,"station_id":"ce4bgqh2rcd13ifvqc4g","pricing_plan_id":"cebpf4jnsgd1na2vs0mg"},{"bike_id":"ae94c5c0-acfa-4d7d-aafa-8ae89296cf63","system_id":"levelo_inurba_marseille","lat":43.311125,"lon":5.377624,"is_reserved":false,"is_disabled":false,"rental_uris":{"android":"levelo://app?vid=ae94c5c0-acfa-4d7d-aafa-8ae89296cf63","ios":"levelo://app?vid=ae94c5c0-acfa-4d7d-aafa-8ae89296cf63"},"vehicle_type_id":"4","last_reported":1720030222,"current_range_meters":4400,"station_id":"ce4bgt92rcd13ifvqcg0","pricing_plan_id":"cebpf4jnsgd1na2vs0mg"},{"bike_id":"9735300d-fe4a-41ea-907f-ce0cd04836b6","system_id":"levelo_inurba_marseille","lat":43.311125,"lon":5.377624,"is_reserved":false,"is_disabled":false,"rental_uris":{"android":"levelo://app?vid=9735300d-fe4a-41ea-907f-ce0cd04836b6","ios":"levelo://app?vid=9735300d-fe4a-41ea-907f-ce0cd04836b6"},"vehicle_type_id":"4","last_reported":1720030222,"current_range_meters":22000,"station_id":"ce4bgt92rcd13ifvqcg0","pricing_plan_id":"cebpf4jnsgd1na2vs0mg"},{"bike_id":"3a5700e2-530b-4eb1-9e67-c68f93f16a22","system_id":"levelo_inurba_marseille","lat":43.303046,"lon":5.368981,"is_reserved":false,"is_disabled":false,"rental_uris":{"android":"levelo://app?vid=3a5700e2-530b-4eb1-9e67-c68f93f16a22","ios":"levelo://app?vid=3a5700e2-530b-4eb1-9e67-c68f93f16a22"},"vehicle_type_id":"4","last_reported":1720030222,"current_range_meters":19200,"station_id":"ce4bgqh2rcd13ifvqc5g","pricing_plan_id":"cebpf4jnsgd1na2vs0mg"},{"bike_id":"5283b42e-13c3-4399-97e5-15d4a875ff38","system_id":"levelo_inurba_marseille","lat":43.30675,"lon":5.37743,"is_reserved":false,"is_disabled":false,"rental_uris":{"android":"levelo://app?vid=5283b42e-13c3-4399-97e5-15d4a875ff38","ios":"levelo://app?vid=5283b42e-13c3-4399-97e5-15d4a875ff38"},"vehicle_type_id":"4","last_reported":1720030222,"current_range_meters":15600,"station_id":"","pricing_plan_id":"cebpf4jnsgd1na2vs0mg"},{"bike_id":"873c4abc-365d-458d-a5e6-f7289a4690e6","system_id":"levelo_inurba_marseille","lat":43.301939,"lon":5.366286,"is_reserved":false,"is_disabled":false,"rental_uris":{"android":"levelo://app?vid=873c4abc-365d-458d-a5e6-f7289a4690e6","ios":"levelo://app?vid=873c4abc-365d-458d-a5e6-f7289a4690e6"},"vehicle_type_id":"4","last_reported":1720030222,"current_range_meters":2400,"station_id":"ce4bgrh2rcd13ifvqc8g","pricing_plan_id":"cebpf4jnsgd1na2vs0mg"},{"bike_id":"4862f2f8-776c-4e63-b970-70d6271944a2","system_id":"levelo_inurba_marseille","lat":43.308012,"lon":5.381511,"is_reserved":false,"is_disabled":false,"rental_uris":{"android":"levelo://app?vid=4862f2f8-776c-4e63-b970-70d6271944a2","ios":"levelo://app?vid=4862f2f8-776c-4e63-b970-70d6271944a2"},"vehicle_type_id":"4","last_reported":1720030222,"current_range_meters":0,"station_id":"ce4bgt12rcd13ifvqce0","pricing_plan_id":"cebpf4jnsgd1na2vs0mg"},{"bike_id":"f961aecb-8dcc-4369-9f6b-e6f9d09ff442","system_id":"levelo_inurba_marseille","lat":43.308012,"lon":5.381511,"is_reserved":false,"is_disabled":false,"rental_uris":{"android":"levelo://app?vid=f961aecb-8dcc-4369-9f6b-e6f9d09ff442","ios":"levelo://app?vid=f961aecb-8dcc-4369-9f6b-e6f9d09ff442"},"vehicle_type_id":"4","last_reported":1720030222,"current_range_meters":26000,"station_id":"ce4bgt12rcd13ifvqce0","pricing_plan_id":"cebpf4jnsgd1na2vs0mg"},{"bike_id":"d75d3940-f863-4614-9923-792e0b2f247b","system_id":"levelo_inurba_marseille","lat":43.30769,"lon":5.38167,"is_reserved":false,"is_disabled":false,"rental_uris":{"android":"levelo://app?vid=d75d3940-f863-4614-9923-792e0b2f247b","ios":"levelo://app?vid=d75d3940-f863-4614-9923-792e0b2f247b"},"vehicle_type_id":"4","last_reported":1720030222,"current_range_meters":18000,"station_id":"","pricing_plan_id":"cebpf4jnsgd1na2vs0mg"},{"bike_id":"9fb1612d-5d94-4466-abcc-9faee1ce917a","system_id":"levelo_inurba_marseille","lat":43.301429,"lon":5.37413,"is_reserved":false,"is_disabled":false,"rental_uris":{"android":"levelo://app?vid=9fb1612d-5d94-4466-abcc-9faee1ce917a","ios":"levelo://app?vid=9fb1612d-5d94-4466-abcc-9faee1ce917a"},"vehicle_type_id":"4","last_reported":1720030222,"current_range_meters":800,"station_id":"ce4bgs92rcd13ifvqcc0","pricing_plan_id":"cebpf4jnsgd1na2vs0mg"},{"bike_id":"fb784225-4dd2-4714-a6df-68e25ad6f644","system_id":"levelo_inurba_marseille","lat":43.319935,"lon":5.381699,"is_reserved":false,"is_disabled":false,"rental_uris":{"android":"levelo://app?vid=fb784225-4dd2-4714-a6df-68e25ad6f644","ios":"levelo://app?vid=fb784225-4dd2-4714-a6df-68e25ad6f644"},"vehicle_type_id":"4","last_reported":1720030222,"current_range_meters":21600,"station_id":"ce4bhr12rcd13ifvqhpg","pricing_plan_id":"cebpf4jnsgd1na2vs0mg"},{"bike_id":"c6cbf7b6-5ed8-49c3-b94a-474b7ab0374f","system_id":"levelo_inurba_marseille","lat":43.319935,"lon":5.381699,"is_reserved":false,"is_disabled":false,"rental_uris":{"android":"levelo://app?vid=c6cbf7b6-5ed8-49c3-b94a-474b7ab0374f","ios":"levelo://app?vid=c6cbf7b6-5ed8-49c3-b94a-474b7ab0374f"},"vehicle_type_id":"4","last_reported":1720030222,"current_range_meters":12400,"station_id":"ce4bhr12rcd13ifvqhpg","pricing_plan_id":"cebpf4jnsgd1na2vs0mg"},{"bike_id":"0cd72888-f059-40c9-aa34-044825869350","system_id":"levelo_inurba_marseille","lat":43.313571,"lon":5.384829,"is_reserved":false,"is_disabled":false,"rental_uris":{"android":"levelo://app?vid=0cd72888-f059-40c9-aa34-044825869350","ios":"levelo://app?vid=0cd72888-f059-40c9-aa34-044825869350"},"vehicle_type_id":"4","last_reported":1720030222,"current_range_meters":14400,"station_id":"ce4bgt92rcd13ifvqcf0","pricing_plan_id":"cebpf4jnsgd1na2vs0mg"},{"bike_id":"2483e846-b5c3-4dca-b337-9f7a14a4d83a","system_id":"levelo_inurba_marseille","lat":43.299619,"lon":5.365705,"is_reserved":false,"is_disabled":false,"rental_uris":{"android":"levelo://app?vid=2483e846-b5c3-4dca-b337-9f7a14a4d83a","ios":"levelo://app?vid=2483e846-b5c3-4dca-b337-9f7a14a4d83a"},"vehicle_type_id":"4","last_reported":1720030222,"current_range_meters":13600,"station_id":"","pricing_plan_id":"cebpf4jnsgd1na2vs0mg"},{"bike_id":"b4ba1a89-41eb-4800-a6e7-314cbc0dd261","system_id":"levelo_inurba_marseille","lat":43.299222,"lon":5.365554,"is_reserved":false,"is_disabled":false,"rental_uris":{"android":"levelo://app?vid=b4ba1a89-41eb-4800-a6e7-314cbc0dd261","ios":"levelo://app?vid=b4ba1a89-41eb-4800-a6e7-314cbc0dd261"},"vehicle_type_id":"4","last_reported":1720030222,"current_range_meters":19200,"station_id":"ce4bgm92rcd13ifvqbr0","pricing_plan_id":"cebpf4jnsgd1na2vs0mg"},{"bike_id":"9a15c099-8a21-408b-bee4-32de3b3c599b","system_id":"levelo_inurba_marseille","lat":43.299222,"lon":5.365554,"is_reserved":false,"is_disabled":false,"rental_uris":{"android":"levelo://app?vid=9a15c099-8a21-408b-bee4-32de3b3c599b","ios":"levelo://app?vid=9a15c099-8a21-408b-bee4-32de3b3c599b"},"vehicle_type_id":"4","last_reported":1720030222,"current_range_meters":3600,"station_id":"ce4bgm92rcd13ifvqbr0","pricing_plan_id":"cebpf4jnsgd1na2vs0mg"},{"bike_id":"fdc09372-28d4-4de8-a5fc-780dffc37080","system_id":"levelo_inurba_marseille","lat":43.313571,"lon":5.384829,"is_reserved":false,"is_disabled":false,"rental_uris":{"android":"levelo://app?vid=fdc09372-28d4-4de8-a5fc-780dffc37080","ios":"levelo://app?vid=fdc09372-28d4-4de8-a5fc-780dffc37080"},"vehicle_type_id":"4","last_reported":1720030222,"current_range_meters":18800,"station_id":"ce4bgt92rcd13ifvqcf0","pricing_plan_id":"cebpf4jnsgd1na2vs0mg"},{"bike_id":"ffe7d714-b389-4213-8fac-c023442c6266","system_id":"levelo_inurba_marseille","lat":43.298433,"lon":5.362774,"is_reserved":false,"is_disabled":false,"rental_uris":{"android":"levelo://app?vid=ffe7d714-b389-4213-8fac-c023442c6266","ios":"levelo://app?vid=ffe7d714-b389-4213-8fac-c023442c6266"},"vehicle_type_id":"4","last_reported":1720030222,"current_range_meters":22800,"station_id":"ce4bgpp2rcd13ifvqc3g","pricing_plan_id":"cebpf4jnsgd1na2vs0mg"},{"bike_id":"5b489e1a-5937-4057-81b3-493e841ec16a","system_id":"levelo_inurba_marseille","lat":43.298433,"lon":5.362774,"is_reserved":false,"is_disabled":false,"rental_uris":{"android":"levelo://app?vid=5b489e1a-5937-4057-81b3-493e841ec16a","ios":"levelo://app?vid=5b489e1a-5937-4057-81b3-493e841ec16a"},"vehicle_type_id":"4","last_reported":1720030222,"current_range_meters":0,"station_id":"ce4bgpp2rcd13ifvqc3g","pricing_plan_id":"cebpf4jnsgd1na2vs0mg"},{"bike_id":"e27e8071-7297-4a83-abfb-c09e0fcd30e1","system_id":"levelo_inurba_marseille","lat":43.298433,"lon":5.362774,"is_reserved":false,"is_disabled":false,"rental_uris":{"android":"levelo://app?vid=e27e8071-7297-4a83-abfb-c09e0fcd30e1","ios":"levelo://app?vid=e27e8071-7297-4a83-abfb-c09e0fcd30e1"},"vehicle_type_id":"4","last_reported":1720030222,"current_range_meters":0,"station_id":"ce4bgpp2rcd13ifvqc3g","pricing_plan_id":"cebpf4jnsgd1na2vs0mg"},{"bike_id":"9b7eb7a3-0a9c-4a61-acbb-14f1596c824b","system_id":"levelo_inurba_marseille","lat":43.298433,"lon":5.362774,"is_reserved":false,"is_disabled":false,"rental_uris":{"android":"levelo://app?vid=9b7eb7a3-0a9c-4a61-acbb-14f1596c824b","ios":"levelo://app?vid=9b7eb7a3-0a9c-4a61-acbb-14f1596c824b"},"vehicle_type_id":"4","last_reported":1720030222,"current_range_meters":800,"station_id":"ce4bgpp2rcd13ifvqc3g","pricing_plan_id":"cebpf4jnsgd1na2vs0mg"},{"bike_id":"e8e412cf-b47d-4365-873f-66c4d96d0417","system_id":"levelo_inurba_marseille","lat":43.297824,"lon":5.371082,"is_reserved":false,"is_disabled":false,"rental_uris":{"android":"levelo://app?vid=e8e412cf-b47d-4365-873f-66c4d96d0417","ios":"levelo://app?vid=e8e412cf-b47d-4365-873f-66c4d96d0417"},"vehicle_type_id":"4","last_reported":1720030222,"current_range_meters":0,"station_id":"ce4bgop2rcd13ifvqc1g","pricing_plan_id":"cebpf4jnsgd1na2vs0mg"},{"bike_id":"bc1331b9-ddb5-4214-8863-610e016bc98f","system_id":"levelo_inurba_marseille","lat":43.322872,"lon":5.382756,"is_reserved":false,"is_disabled":false,"rental_uris":{"android":"levelo://app?vid=bc1331b9-ddb5-4214-8863-610e016bc98f","ios":"levelo://app?vid=bc1331b9-ddb5-4214-8863-610e016bc98f"},"vehicle_type_id":"4","last_reported":1720030222,"current_range_meters":10400,"station_id":"ce4bhr12rcd13ifvqhqg","pricing_plan_id":"cebpf4jnsgd1na2vs0mg"},{"bike_id":"71f33ad2-ab56-460e-b966-06291c845516","system_id":"levelo_inurba_marseille","lat":43.297794,"lon":5.370888,"is_reserved":false,"is_disabled":false,"rental_uris":{"android":"levelo://app?vid=71f33ad2-ab56-460e-b966-06291c845516","ios":"levelo://app?vid=71f33ad2-ab56-460e-b966-06291c845516"},"vehicle_type_id":"4","last_reported":1720030222,"current_range_meters":0,"station_id":"ce4bgop2rcd13ifvqc1g","pricing_plan_id":"cebpf4jnsgd1na2vs0mg"},{"bike_id":"f1748190-5169-40de-8e5f-9315241db08e","system_id":"levelo_inurba_marseille","lat":43.322843,"lon":5.38272,"is_reserved":false,"is_disabled":false,"rental_uris":{"android":"levelo://app?vid=f1748190-5169-40de-8e5f-9315241db08e","ios":"levelo://app?vid=f1748190-5169-40de-8e5f-9315241db08e"},"vehicle_type_id":"4","last_reported":1720030222,"current_range_meters":17600,"station_id":"ce4bhr12rcd13ifvqhqg","pricing_plan_id":"cebpf4jnsgd1na2vs0mg"},{"bike_id":"53203fa2-ad9c-436d-9645-dc9ddd90f4dd","system_id":"levelo_inurba_marseille","lat":43.297774,"lon":5.370875,"is_reserved":false,"is_disabled":false,"rental_uris":{"android":"levelo://app?vid=53203fa2-ad9c-436d-9645-dc9ddd90f4dd","ios":"levelo://app?vid=53203fa2-ad9c-436d-9645-dc9ddd90f4dd"},"vehicle_type_id":"4","last_reported":1720030222,"current_range_meters":1200,"station_id":"ce4bgop2rcd13ifvqc1g","pricing_plan_id":"cebpf4jnsgd1na2vs0mg"},{"bike_id":"acbacc07-3406-42b6-a4b4-6ba8eee52b33","system_id":"levelo_inurba_marseille","lat":43.322872,"lon":5.382756,"is_reserved":false,"is_disabled":false,"rental_uris":{"android":"levelo://app?vid=acbacc07-3406-42b6-a4b4-6ba8eee52b33","ios":"levelo://app?vid=acbacc07-3406-42b6-a4b4-6ba8eee52b33"},"vehicle_type_id":"4","last_reported":1720030222,"current_range_meters":31600,"station_id":"ce4bhr12rcd13ifvqhqg","pricing_plan_id":"cebpf4jnsgd1na2vs0mg"},{"bike_id":"27a6bef8-9fa2-4c7c-a852-ef52da7f4c34","system_id":"levelo_inurba_marseille","lat":43.322872,"lon":5.382756,"is_reserved":false,"is_disabled":false,"rental_uris":{"android":"levelo://app?vid=27a6bef8-9fa2-4c7c-a852-ef52da7f4c34","ios":"levelo://app?vid=27a6bef8-9fa2-4c7c-a852-ef52da7f4c34"},"vehicle_type_id":"4","last_reported":1720030222,"current_range_meters":31200,"station_id":"ce4bhr12rcd13ifvqhqg","pricing_plan_id":"cebpf4jnsgd1na2vs0mg"},{"bike_id":"489ca125-8191-47bc-845a-75e5e64afb40","system_id":"levelo_inurba_marseille","lat":43.322872,"lon":5.382756,"is_reserved":false,"is_disabled":false,"rental_uris":{"android":"levelo://app?vid=489ca125-8191-47bc-845a-75e5e64afb40","ios":"levelo://app?vid=489ca125-8191-47bc-845a-75e5e64afb40"},"vehicle_type_id":"4","last_reported":1720030222,"current_range_meters":8400,"station_id":"ce4bhr12rcd13ifvqhqg","pricing_plan_id":"cebpf4jnsgd1na2vs0mg"},{"bike_id":"b59c78d5-5340-405b-bf63-a02f0f9f2ed5","system_id":"levelo_inurba_marseille","lat":43.297163,"lon":5.365866,"is_reserved":false,"is_disabled":false,"rental_uris":{"android":"levelo://app?vid=b59c78d5-5340-405b-bf63-a02f0f9f2ed5","ios":"levelo://app?vid=b59c78d5-5340-405b-bf63-a02f0f9f2ed5"},"vehicle_type_id":"4","last_reported":1720030222,"current_range_meters":4000,"station_id":"ce4bgn12rcd13ifvqbt0","pricing_plan_id":"cebpf4jnsgd1na2vs0mg"},{"bike_id":"805c26d3-9d6b-4162-ac4f-a5547bfc31ea","system_id":"levelo_inurba_marseille","lat":43.297163,"lon":5.365866,"is_reserved":false,"is_disabled":false,"rental_uris":{"android":"levelo://app?vid=805c26d3-9d6b-4162-ac4f-a5547bfc31ea","ios":"levelo://app?vid=805c26d3-9d6b-4162-ac4f-a5547bfc31ea"},"vehicle_type_id":"4","last_reported":1720030222,"current_range_meters":30800,"station_id":"ce4bgn12rcd13ifvqbt0","pricing_plan_id":"cebpf4jnsgd1na2vs0mg"},{"bike_id":"5f763b8a-a38a-44b2-9c20-0e02b9204e00","system_id":"levelo_inurba_marseille","lat":43.297163,"lon":5.365866,"is_reserved":false,"is_disabled":false,"rental_uris":{"android":"levelo://app?vid=5f763b8a-a38a-44b2-9c20-0e02b9204e00","ios":"levelo://app?vid=5f763b8a-a38a-44b2-9c20-0e02b9204e00"},"vehicle_type_id":"4","last_reported":1720030222,"current_range_meters":26800,"station_id":"ce4bgn12rcd13ifvqbt0","pricing_plan_id":"cebpf4jnsgd1na2vs0mg"},{"bike_id":"974cd13a-b13b-4815-b046-b51e791dee06","system_id":"levelo_inurba_marseille","lat":43.297163,"lon":5.365866,"is_reserved":false,"is_disabled":false,"rental_uris":{"android":"levelo://app?vid=974cd13a-b13b-4815-b046-b51e791dee06","ios":"levelo://app?vid=974cd13a-b13b-4815-b046-b51e791dee06"},"vehicle_type_id":"4","last_reported":1720030222,"current_range_meters":0,"station_id":"ce4bgn12rcd13ifvqbt0","pricing_plan_id":"cebpf4jnsgd1na2vs0mg"},{"bike_id":"fe6f4d5f-b026-4774-a179-01deab04e26e","system_id":"levelo_inurba_marseille","lat":43.31318,"lon":5.38927,"is_reserved":false,"is_disabled":false,"rental_uris":{"android":"levelo://app?vid=fe6f4d5f-b026-4774-a179-01deab04e26e","ios":"levelo://app?vid=fe6f4d5f-b026-4774-a179-01deab04e26e"},"vehicle_type_id":"4","last_reported":1720030222,"current_range_meters":4400,"station_id":"","pricing_plan_id":"cebpf4jnsgd1na2vs0mg"},{"bike_id":"c3d3ed5c-2c34-4918-aa9b-44f355b0920f","system_id":"levelo_inurba_marseille","lat":43.2968,"lon":5.37291,"is_reserved":false,"is_disabled":false,"rental_uris":{"android":"levelo://app?vid=c3d3ed5c-2c34-4918-aa9b-44f355b0920f","ios":"levelo://app?vid=c3d3ed5c-2c34-4918-aa9b-44f355b0920f"},"vehicle_type_id":"4","last_reported":1720030222,"current_range_meters":15200,"station_id":"ce4bgk12rcd13ifvqbj0","pricing_plan_id":"cebpf4jnsgd1na2vs0mg"},{"bike_id":"0c845e77-91f9-4f53-b4c0-9cd585c05b3e","system_id":"levelo_inurba_marseille","lat":43.29663,"lon":5.36162,"is_reserved":false,"is_disabled":false,"rental_uris":{"android":"levelo://app?vid=0c845e77-91f9-4f53-b4c0-9cd585c05b3e","ios":"levelo://app?vid=0c845e77-91f9-4f53-b4c0-9cd585c05b3e"},"vehicle_type_id":"4","last_reported":1720030222,"current_range_meters":3200,"station_id":"","pricing_plan_id":"cebpf4jnsgd1na2vs0mg"},{"bike_id":"84b83639-69c2-44bd-955c-3a618b7edacd","system_id":"levelo_inurba_marseille","lat":43.29582,"lon":5.3674,"is_reserved":false,"is_disabled":false,"rental_uris":{"android":"levelo://app?vid=84b83639-69c2-44bd-955c-3a618b7edacd","ios":"levelo://app?vid=84b83639-69c2-44bd-955c-3a618b7edacd"},"vehicle_type_id":"4","last_reported":1720030222,"current_range_meters":0,"station_id":"ce4bgph2rcd13ifvqc2g","pricing_plan_id":"cebpf4jnsgd1na2vs0mg"},{"bike_id":"a648f7b5-5b43-46b6-a3e2-9941b858ecef","system_id":"levelo_inurba_marseille","lat":43.29573,"lon":5.367355,"is_reserved":false,"is_disabled":false,"rental_uris":{"android":"levelo://app?vid=a648f7b5-5b43-46b6-a3e2-9941b858ecef","ios":"levelo://app?vid=a648f7b5-5b43-46b6-a3e2-9941b858ecef"},"vehicle_type_id":"4","last_reported":1720030222,"current_range_meters":17600,"station_id":"ce4bgph2rcd13ifvqc2g","pricing_plan_id":"cebpf4jnsgd1na2vs0mg"},{"bike_id":"18b65b38-4c89-4933-bb53-8737af7ab442","system_id":"levelo_inurba_marseille","lat":43.29579,"lon":5.36739,"is_reserved":false,"is_disabled":false,"rental_uris":{"android":"levelo://app?vid=18b65b38-4c89-4933-bb53-8737af7ab442","ios":"levelo://app?vid=18b65b38-4c89-4933-bb53-8737af7ab442"},"vehicle_type_id":"4","last_reported":1720030222,"current_range_meters":29600,"station_id":"ce4bgph2rcd13ifvqc2g","pricing_plan_id":"cebpf4jnsgd1na2vs0mg"},{"bike_id":"0dc4c540-67ea-46de-b14e-ddcc98d9d074","system_id":"levelo_inurba_marseille","lat":43.303069,"lon":5.386224,"is_reserved":false,"is_disabled":false,"rental_uris":{"android":"levelo://app?vid=0dc4c540-67ea-46de-b14e-ddcc98d9d074","ios":"levelo://app?vid=0dc4c540-67ea-46de-b14e-ddcc98d9d074"},"vehicle_type_id":"4","last_reported":1720030222,"current_range_meters":0,"station_id":"","pricing_plan_id":"cebpf4jnsgd1na2vs0mg"},{"bike_id":"859101a5-2019-46e7-bd39-9e5a0b2a43c7","system_id":"levelo_inurba_marseille","lat":43.299028,"lon":5.381509,"is_reserved":false,"is_disabled":false,"rental_uris":{"android":"levelo://app?vid=859101a5-2019-46e7-bd39-9e5a0b2a43c7","ios":"levelo://app?vid=859101a5-2019-46e7-bd39-9e5a0b2a43c7"},"vehicle_type_id":"4","last_reported":1720030222,"current_range_meters":1200,"station_id":"ce4bgj12rcd13ifvqbc0","pricing_plan_id":"cebpf4jnsgd1na2vs0mg"},{"bike_id":"4bbe8e8e-03e6-4c13-b183-532eb5667a3b","system_id":"levelo_inurba_marseille","lat":43.30956,"lon":5.39027,"is_reserved":false,"is_disabled":false,"rental_uris":{"android":"levelo://app?vid=4bbe8e8e-03e6-4c13-b183-532eb5667a3b","ios":"levelo://app?vid=4bbe8e8e-03e6-4c13-b183-532eb5667a3b"},"vehicle_type_id":"4","last_reported":1720030222,"current_range_meters":0,"station_id":"","pricing_plan_id":"cebpf4jnsgd1na2vs0mg"},{"bike_id":"d24c9007-5781-4009-98c4-c9a6298a0f9b","system_id":"levelo_inurba_marseille","lat":43.309589,"lon":5.390258,"is_reserved":false,"is_disabled":false,"rental_uris":{"android":"levelo://app?vid=d24c9007-5781-4009-98c4-c9a6298a0f9b","ios":"levelo://app?vid=d24c9007-5781-4009-98c4-c9a6298a0f9b"},"vehicle_type_id":"4","last_reported":1720030222,"current_range_meters":24800,"station_id":"ce4bgup2rcd13ifvqco0","pricing_plan_id":"cebpf4jnsgd1na2vs0mg"},{"bike_id":"71f6b426-8889-4033-b69a-fe93810206a2","system_id":"levelo_inurba_marseille","lat":43.30957,"lon":5.3903,"is_reserved":false,"is_disabled":false,"rental_uris":{"android":"levelo://app?vid=71f6b426-8889-4033-b69a-fe93810206a2","ios":"levelo://app?vid=71f6b426-8889-4033-b69a-fe93810206a2"},"vehicle_type_id":"4","last_reported":1720030222,"current_range_meters":0,"station_id":"ce4bgup2rcd13ifvqco0","pricing_plan_id":"cebpf4jnsgd1na2vs0mg"},{"bike_id":"ab03acfb-9629-4e23-a88f-370acd6a5473","system_id":"levelo_inurba_marseille","lat":43.309589,"lon":5.390258,"is_reserved":false,"is_disabled":false,"rental_uris":{"android":"levelo://app?vid=ab03acfb-9629-4e23-a88f-370acd6a5473","ios":"levelo://app?vid=ab03acfb-9629-4e23-a88f-370acd6a5473"},"vehicle_type_id":"4","last_reported":1720030222,"current_range_meters":0,"station_id":"ce4bgup2rcd13ifvqco0","pricing_plan_id":"cebpf4jnsgd1na2vs0mg"},{"bike_id":"2767897a-d436-42fa-8f59-d9c0e17e6ff1","system_id":"levelo_inurba_marseille","lat":43.309589,"lon":5.390258,"is_reserved":false,"is_disabled":false,"rental_uris":{"android":"levelo://app?vid=2767897a-d436-42fa-8f59-d9c0e17e6ff1","ios":"levelo://app?vid=2767897a-d436-42fa-8f59-d9c0e17e6ff1"},"vehicle_type_id":"4","last_reported":1720030222,"current_range_meters":4800,"station_id":"ce4bgup2rcd13ifvqco0","pricing_plan_id":"cebpf4jnsgd1na2vs0mg"},{"bike_id":"e72853bd-d165-49bd-801c-e8094654378f","system_id":"levelo_inurba_marseille","lat":43.317557,"lon":5.390173,"is_reserved":false,"is_disabled":false,"rental_uris":{"android":"levelo://app?vid=e72853bd-d165-49bd-801c-e8094654378f","ios":"levelo://app?vid=e72853bd-d165-49bd-801c-e8094654378f"},"vehicle_type_id":"4","last_reported":1720030222,"current_range_meters":18800,"station_id":"ce4bhqp2rcd13ifvqhng","pricing_plan_id":"cebpf4jnsgd1na2vs0mg"},{"bike_id":"d2ea3854-35ca-438c-a7e6-4a23df9ecdd6","system_id":"levelo_inurba_marseille","lat":43.317557,"lon":5.390173,"is_reserved":false,"is_disabled":false,"rental_uris":{"android":"levelo://app?vid=d2ea3854-35ca-438c-a7e6-4a23df9ecdd6","ios":"levelo://app?vid=d2ea3854-35ca-438c-a7e6-4a23df9ecdd6"},"vehicle_type_id":"4","last_reported":1720030222,"current_range_meters":4000,"station_id":"ce4bhqp2rcd13ifvqhng","pricing_plan_id":"cebpf4jnsgd1na2vs0mg"},{"bike_id":"d33dd3d4-93c9-4ff1-98a3-f6289698b32d","system_id":"levelo_inurba_marseille","lat":43.29797,"lon":5.38104,"is_reserved":false,"is_disabled":false,"rental_uris":{"android":"levelo://app?vid=d33dd3d4-93c9-4ff1-98a3-f6289698b32d","ios":"levelo://app?vid=d33dd3d4-93c9-4ff1-98a3-f6289698b32d"},"vehicle_type_id":"4","last_reported":1720030222,"current_range_meters":19200,"station_id":"ce4bgip2rcd13ifvqbb0","pricing_plan_id":"cebpf4jnsgd1na2vs0mg"},{"bike_id":"65523920-468c-4ec7-ac65-8253a5f7999f","system_id":"levelo_inurba_marseille","lat":43.304274,"lon":5.388873,"is_reserved":false,"is_disabled":false,"rental_uris":{"android":"levelo://app?vid=65523920-468c-4ec7-ac65-8253a5f7999f","ios":"levelo://app?vid=65523920-468c-4ec7-ac65-8253a5f7999f"},"vehicle_type_id":"4","last_reported":1720030222,"current_range_meters":0,"station_id":"ce4bgk12rcd13ifvqbi0","pricing_plan_id":"cebpf4jnsgd1na2vs0mg"},{"bike_id":"d7c8caeb-157d-48dd-ae85-5b7fef937f27","system_id":"levelo_inurba_marseille","lat":43.29789,"lon":5.38098,"is_reserved":false,"is_disabled":false,"rental_uris":{"android":"levelo://app?vid=d7c8caeb-157d-48dd-ae85-5b7fef937f27","ios":"levelo://app?vid=d7c8caeb-157d-48dd-ae85-5b7fef937f27"},"vehicle_type_id":"4","last_reported":1720030222,"current_range_meters":1200,"station_id":"ce4bgip2rcd13ifvqbb0","pricing_plan_id":"cebpf4jnsgd1na2vs0mg"},{"bike_id":"480422ed-9581-404f-b17f-61577faf1b19","system_id":"levelo_inurba_marseille","lat":43.304274,"lon":5.388873,"is_reserved":false,"is_disabled":false,"rental_uris":{"android":"levelo://app?vid=480422ed-9581-404f-b17f-61577faf1b19","ios":"levelo://app?vid=480422ed-9581-404f-b17f-61577faf1b19"},"vehicle_type_id":"4","last_reported":1720030222,"current_range_meters":14000,"station_id":"ce4bgk12rcd13ifvqbi0","pricing_plan_id":"cebpf4jnsgd1na2vs0mg"},{"bike_id":"e1b10eda-c275-4331-8e20-beb553bf3634","system_id":"levelo_inurba_marseille","lat":43.304278,"lon":5.388868,"is_reserved":false,"is_disabled":false,"rental_uris":{"android":"levelo://app?vid=e1b10eda-c275-4331-8e20-beb553bf3634","ios":"levelo://app?vid=e1b10eda-c275-4331-8e20-beb553bf3634"},"vehicle_type_id":"4","last_reported":1720030222,"current_range_meters":5600,"station_id":"ce4bgk12rcd13ifvqbi0","pricing_plan_id":"cebpf4jnsgd1na2vs0mg"},{"bike_id":"30b81943-cdc6-4200-ad0f-7049f4850d4d","system_id":"levelo_inurba_marseille","lat":43.29788,"lon":5.3811,"is_reserved":false,"is_disabled":false,"rental_uris":{"android":"levelo://app?vid=30b81943-cdc6-4200-ad0f-7049f4850d4d","ios":"levelo://app?vid=30b81943-cdc6-4200-ad0f-7049f4850d4d"},"vehicle_type_id":"4","last_reported":1720030222,"current_range_meters":4400,"station_id":"ce4bgip2rcd13ifvqbb0","pricing_plan_id":"cebpf4jnsgd1na2vs0mg"},{"bike_id":"ca06d822-219f-4655-a95f-f35df6d951ee","system_id":"levelo_inurba_marseille","lat":43.296263,"lon":5.377094,"is_reserved":false,"is_disabled":false,"rental_uris":{"android":"levelo://app?vid=ca06d822-219f-4655-a95f-f35df6d951ee","ios":"levelo://app?vid=ca06d822-219f-4655-a95f-f35df6d951ee"},"vehicle_type_id":"4","last_reported":1720030222,"current_range_meters":0,"station_id":"ce4bgi92rcd13ifvqb90","pricing_plan_id":"cebpf4jnsgd1na2vs0mg"},{"bike_id":"0d67e8ba-e4e7-417b-961f-8adcb08fbc65","system_id":"levelo_inurba_marseille","lat":43.296277,"lon":5.377108,"is_reserved":false,"is_disabled":false,"rental_uris":{"android":"levelo://app?vid=0d67e8ba-e4e7-417b-961f-8adcb08fbc65","ios":"levelo://app?vid=0d67e8ba-e4e7-417b-961f-8adcb08fbc65"},"vehicle_type_id":"4","last_reported":1720030222,"current_range_meters":1600,"station_id":"ce4bgi92rcd13ifvqb90","pricing_plan_id":"cebpf4jnsgd1na2vs0mg"},{"bike_id":"1cb3e565-2e3a-4e87-ba30-1ff26a193920","system_id":"levelo_inurba_marseille","lat":43.29536,"lon":5.37494,"is_reserved":false,"is_disabled":false,"rental_uris":{"android":"levelo://app?vid=1cb3e565-2e3a-4e87-ba30-1ff26a193920","ios":"levelo://app?vid=1cb3e565-2e3a-4e87-ba30-1ff26a193920"},"vehicle_type_id":"4","last_reported":1720030222,"current_range_meters":5600,"station_id":"ce4bgkp2rcd13ifvqbmg","pricing_plan_id":"cebpf4jnsgd1na2vs0mg"},{"bike_id":"74ee7fcb-5988-4ca8-95a0-0ed651cd831a","system_id":"levelo_inurba_marseille","lat":43.295279,"lon":5.375048,"is_reserved":false,"is_disabled":false,"rental_uris":{"android":"levelo://app?vid=74ee7fcb-5988-4ca8-95a0-0ed651cd831a","ios":"levelo://app?vid=74ee7fcb-5988-4ca8-95a0-0ed651cd831a"},"vehicle_type_id":"4","last_reported":1720030222,"current_range_meters":800,"station_id":"ce4bgkp2rcd13ifvqbmg","pricing_plan_id":"cebpf4jnsgd1na2vs0mg"},{"bike_id":"cdfbba13-3beb-4ec4-9257-b54945e0e4b0","system_id":"levelo_inurba_marseille","lat":43.299717,"lon":5.384845,"is_reserved":false,"is_disabled":false,"rental_uris":{"android":"levelo://app?vid=cdfbba13-3beb-4ec4-9257-b54945e0e4b0","ios":"levelo://app?vid=cdfbba13-3beb-4ec4-9257-b54945e0e4b0"},"vehicle_type_id":"4","last_reported":1720030222,"current_range_meters":28000,"station_id":"ce4bgj92rcd13ifvqbd0","pricing_plan_id":"cebpf4jnsgd1na2vs0mg"},{"bike_id":"8d728408-d184-4ff5-911f-1a9730595cf5","system_id":"levelo_inurba_marseille","lat":43.299724,"lon":5.384848,"is_reserved":false,"is_disabled":false,"rental_uris":{"android":"levelo://app?vid=8d728408-d184-4ff5-911f-1a9730595cf5","ios":"levelo://app?vid=8d728408-d184-4ff5-911f-1a9730595cf5"},"vehicle_type_id":"4","last_reported":1720030222,"current_range_meters":11600,"station_id":"ce4bgj92rcd13ifvqbd0","pricing_plan_id":"cebpf4jnsgd1na2vs0mg"},{"bike_id":"712d50b2-bde9-452c-ba81-5ad6ae2d1e8d","system_id":"levelo_inurba_marseille","lat":43.299717,"lon":5.384845,"is_reserved":false,"is_disabled":false,"rental_uris":{"android":"levelo://app?vid=712d50b2-bde9-452c-ba81-5ad6ae2d1e8d","ios":"levelo://app?vid=712d50b2-bde9-452c-ba81-5ad6ae2d1e8d"},"vehicle_type_id":"4","last_reported":1720030222,"current_range_meters":23600,"station_id":"ce4bgj92rcd13ifvqbd0","pricing_plan_id":"cebpf4jnsgd1na2vs0mg"},{"bike_id":"59a0f55c-3232-4cca-bfe3-862bad30c1ca","system_id":"levelo_inurba_marseille","lat":43.299724,"lon":5.384848,"is_reserved":false,"is_disabled":false,"rental_uris":{"android":"levelo://app?vid=59a0f55c-3232-4cca-bfe3-862bad30c1ca","ios":"levelo://app?vid=59a0f55c-3232-4cca-bfe3-862bad30c1ca"},"vehicle_type_id":"4","last_reported":1720030222,"current_range_meters":31200,"station_id":"ce4bgj92rcd13ifvqbd0","pricing_plan_id":"cebpf4jnsgd1na2vs0mg"},{"bike_id":"1aec3067-5185-434c-aee0-c2d426dc0099","system_id":"levelo_inurba_marseille","lat":43.30148,"lon":5.38782,"is_reserved":false,"is_disabled":false,"rental_uris":{"android":"levelo://app?vid=1aec3067-5185-434c-aee0-c2d426dc0099","ios":"levelo://app?vid=1aec3067-5185-434c-aee0-c2d426dc0099"},"vehicle_type_id":"4","last_reported":1720030222,"current_range_meters":0,"station_id":"ce4bghh2rcd13ifvqb60","pricing_plan_id":"cebpf4jnsgd1na2vs0mg"},{"bike_id":"85f74836-046a-4b95-91b6-a46106c5e5c4","system_id":"levelo_inurba_marseille","lat":43.301375,"lon":5.38775,"is_reserved":false,"is_disabled":false,"rental_uris":{"android":"levelo://app?vid=85f74836-046a-4b95-91b6-a46106c5e5c4","ios":"levelo://app?vid=85f74836-046a-4b95-91b6-a46106c5e5c4"},"vehicle_type_id":"4","last_reported":1720030222,"current_range_meters":0,"station_id":"ce4bghh2rcd13ifvqb60","pricing_plan_id":"cebpf4jnsgd1na2vs0mg"},{"bike_id":"ede19cab-0035-4975-94fb-53229d81f475","system_id":"levelo_inurba_marseille","lat":43.30138,"lon":5.38783,"is_reserved":false,"is_disabled":false,"rental_uris":{"android":"levelo://app?vid=ede19cab-0035-4975-94fb-53229d81f475","ios":"levelo://app?vid=ede19cab-0035-4975-94fb-53229d81f475"},"vehicle_type_id":"4","last_reported":1720030222,"current_range_meters":15200,"station_id":"ce4bghh2rcd13ifvqb60","pricing_plan_id":"cebpf4jnsgd1na2vs0mg"},{"bike_id":"86a14f22-24a7-4338-8a8b-572a837b347d","system_id":"levelo_inurba_marseille","lat":43.30132,"lon":5.38788,"is_reserved":false,"is_disabled":false,"rental_uris":{"android":"levelo://app?vid=86a14f22-24a7-4338-8a8b-572a837b347d","ios":"levelo://app?vid=86a14f22-24a7-4338-8a8b-572a837b347d"},"vehicle_type_id":"4","last_reported":1720030222,"current_range_meters":0,"station_id":"ce4bghh2rcd13ifvqb60","pricing_plan_id":"cebpf4jnsgd1na2vs0mg"},{"bike_id":"f25afbf7-7337-4931-a567-0bdc543cf811","system_id":"levelo_inurba_marseille","lat":43.32367,"lon":5.388836,"is_reserved":false,"is_disabled":false,"rental_uris":{"android":"levelo://app?vid=f25afbf7-7337-4931-a567-0bdc543cf811","ios":"levelo://app?vid=f25afbf7-7337-4931-a567-0bdc543cf811"},"vehicle_type_id":"4","last_reported":1720030222,"current_range_meters":13200,"station_id":"ce4bhqp2rcd13ifvqhog","pricing_plan_id":"cebpf4jnsgd1na2vs0mg"},{"bike_id":"0f852103-f586-4cbe-8bdb-b46721cc31f5","system_id":"levelo_inurba_marseille","lat":43.32367,"lon":5.388836,"is_reserved":false,"is_disabled":false,"rental_uris":{"android":"levelo://app?vid=0f852103-f586-4cbe-8bdb-b46721cc31f5","ios":"levelo://app?vid=0f852103-f586-4cbe-8bdb-b46721cc31f5"},"vehicle_type_id":"4","last_reported":1720030222,"current_range_meters":0,"station_id":"ce4bhqp2rcd13ifvqhog","pricing_plan_id":"cebpf4jnsgd1na2vs0mg"},{"bike_id":"27e71306-da20-49bd-9b93-c18781396ca7","system_id":"levelo_inurba_marseille","lat":43.32368,"lon":5.38884,"is_reserved":false,"is_disabled":false,"rental_uris":{"android":"levelo://app?vid=27e71306-da20-49bd-9b93-c18781396ca7","ios":"levelo://app?vid=27e71306-da20-49bd-9b93-c18781396ca7"},"vehicle_type_id":"4","last_reported":1720030222,"current_range_meters":0,"station_id":"ce4bhqp2rcd13ifvqhog","pricing_plan_id":"cebpf4jnsgd1na2vs0mg"},{"bike_id":"b9b494e4-8491-4c93-9808-6611cce545e9","system_id":"levelo_inurba_marseille","lat":43.32369,"lon":5.38884,"is_reserved":false,"is_disabled":false,"rental_uris":{"android":"levelo://app?vid=b9b494e4-8491-4c93-9808-6611cce545e9","ios":"levelo://app?vid=b9b494e4-8491-4c93-9808-6611cce545e9"},"vehicle_type_id":"4","last_reported":1720030222,"current_range_meters":26400,"station_id":"ce4bhqp2rcd13ifvqhog","pricing_plan_id":"cebpf4jnsgd1na2vs0mg"},{"bike_id":"e986b6a2-2358-46eb-8adc-6b2a332119f5","system_id":"levelo_inurba_marseille","lat":43.2961,"lon":5.38096,"is_reserved":false,"is_disabled":false,"rental_uris":{"android":"levelo://app?vid=e986b6a2-2358-46eb-8adc-6b2a332119f5","ios":"levelo://app?vid=e986b6a2-2358-46eb-8adc-6b2a332119f5"},"vehicle_type_id":"4","last_reported":1720030222,"current_range_meters":0,"station_id":"ce4bgl12rcd13ifvqbo0","pricing_plan_id":"cebpf4jnsgd1na2vs0mg"},{"bike_id":"7532591c-bbb0-4136-8ecc-b6672c682a45","system_id":"levelo_inurba_marseille","lat":43.292749,"lon":5.368402,"is_reserved":false,"is_disabled":false,"rental_uris":{"android":"levelo://app?vid=7532591c-bbb0-4136-8ecc-b6672c682a45","ios":"levelo://app?vid=7532591c-bbb0-4136-8ecc-b6672c682a45"},"vehicle_type_id":"4","last_reported":1720030222,"current_range_meters":0,"station_id":"ce4bhbp2rcd13ifvqesg","pricing_plan_id":"cebpf4jnsgd1na2vs0mg"},{"bike_id":"a30fbba0-aee9-4672-b203-92dbc930a945","system_id":"levelo_inurba_marseille","lat":43.29362,"lon":5.375433,"is_reserved":false,"is_disabled":false,"rental_uris":{"android":"levelo://app?vid=a30fbba0-aee9-4672-b203-92dbc930a945","ios":"levelo://app?vid=a30fbba0-aee9-4672-b203-92dbc930a945"},"vehicle_type_id":"4","last_reported":1720030222,"current_range_meters":4400,"station_id":"","pricing_plan_id":"cebpf4jnsgd1na2vs0mg"},{"bike_id":"e3a03ae8-fa40-4978-8f29-ac98a0f5ad7e","system_id":"levelo_inurba_marseille","lat":43.29298,"lon":5.37447,"is_reserved":false,"is_disabled":false,"rental_uris":{"android":"levelo://app?vid=e3a03ae8-fa40-4978-8f29-ac98a0f5ad7e","ios":"levelo://app?vid=e3a03ae8-fa40-4978-8f29-ac98a0f5ad7e"},"vehicle_type_id":"4","last_reported":1720030222,"current_range_meters":0,"station_id":"ce4bgi12rcd13ifvqb70","pricing_plan_id":"cebpf4jnsgd1na2vs0mg"},{"bike_id":"f32ffe4e-510d-4bbf-8774-790987ab0cdd","system_id":"levelo_inurba_marseille","lat":43.29296,"lon":5.37461,"is_reserved":false,"is_disabled":false,"rental_uris":{"android":"levelo://app?vid=f32ffe4e-510d-4bbf-8774-790987ab0cdd","ios":"levelo://app?vid=f32ffe4e-510d-4bbf-8774-790987ab0cdd"},"vehicle_type_id":"4","last_reported":1720030222,"current_range_meters":0,"station_id":"ce4bgi12rcd13ifvqb70","pricing_plan_id":"cebpf4jnsgd1na2vs0mg"},{"bike_id":"2ce8e593-35e5-4214-9444-6b5e8e97de5d","system_id":"levelo_inurba_marseille","lat":43.29296,"lon":5.37461,"is_reserved":false,"is_disabled":false,"rental_uris":{"android":"levelo://app?vid=2ce8e593-35e5-4214-9444-6b5e8e97de5d","ios":"levelo://app?vid=2ce8e593-35e5-4214-9444-6b5e8e97de5d"},"vehicle_type_id":"4","last_reported":1720030222,"current_range_meters":0,"station_id":"ce4bgi12rcd13ifvqb70","pricing_plan_id":"cebpf4jnsgd1na2vs0mg"},{"bike_id":"2dbcaacb-5369-448a-8274-2e02feec9298","system_id":"levelo_inurba_marseille","lat":43.293009,"lon":5.374584,"is_reserved":false,"is_disabled":false,"rental_uris":{"android":"levelo://app?vid=2dbcaacb-5369-448a-8274-2e02feec9298","ios":"levelo://app?vid=2dbcaacb-5369-448a-8274-2e02feec9298"},"vehicle_type_id":"4","last_reported":1720030222,"current_range_meters":4000,"station_id":"ce4bgi12rcd13ifvqb70","pricing_plan_id":"cebpf4jnsgd1na2vs0mg"},{"bike_id":"824785a3-a2eb-4574-ae39-f5f161d7ca4f","system_id":"levelo_inurba_marseille","lat":43.305994,"lon":5.393687,"is_reserved":false,"is_disabled":false,"rental_uris":{"android":"levelo://app?vid=824785a3-a2eb-4574-ae39-f5f161d7ca4f","ios":"levelo://app?vid=824785a3-a2eb-4574-ae39-f5f161d7ca4f"},"vehicle_type_id":"4","last_reported":1720030222,"current_range_meters":13600,"station_id":"ce4bh0p2rcd13ifvqd80","pricing_plan_id":"cebpf4jnsgd1na2vs0mg"},{"bike_id":"3775044d-772c-4762-a620-67aa507d10de","system_id":"levelo_inurba_marseille","lat":43.305994,"lon":5.393687,"is_reserved":false,"is_disabled":false,"rental_uris":{"android":"levelo://app?vid=3775044d-772c-4762-a620-67aa507d10de","ios":"levelo://app?vid=3775044d-772c-4762-a620-67aa507d10de"},"vehicle_type_id":"4","last_reported":1720030222,"current_range_meters":16800,"station_id":"ce4bh0p2rcd13ifvqd80","pricing_plan_id":"cebpf4jnsgd1na2vs0mg"},{"bike_id":"cae91818-ee71-4b6d-a280-434eaae6aa25","system_id":"levelo_inurba_marseille","lat":43.29233,"lon":5.36059,"is_reserved":false,"is_disabled":false,"rental_uris":{"android":"levelo://app?vid=cae91818-ee71-4b6d-a280-434eaae6aa25","ios":"levelo://app?vid=cae91818-ee71-4b6d-a280-434eaae6aa25"},"vehicle_type_id":"4","last_reported":1720030222,"current_range_meters":14400,"station_id":"ce4bhbh2rcd13ifvqeqg","pricing_plan_id":"cebpf4jnsgd1na2vs0mg"},{"bike_id":"f210adb4-1345-4374-998a-d0c33af9c1da","system_id":"levelo_inurba_marseille","lat":43.292311,"lon":5.360731,"is_reserved":false,"is_disabled":false,"rental_uris":{"android":"levelo://app?vid=f210adb4-1345-4374-998a-d0c33af9c1da","ios":"levelo://app?vid=f210adb4-1345-4374-998a-d0c33af9c1da"},"vehicle_type_id":"4","last_reported":1720030222,"current_range_meters":31200,"station_id":"ce4bhbh2rcd13ifvqeqg","pricing_plan_id":"cebpf4jnsgd1na2vs0mg"},{"bike_id":"f303cba7-9da5-4035-8414-07af03b15d79","system_id":"levelo_inurba_marseille","lat":43.30085,"lon":5.390856,"is_reserved":false,"is_disabled":false,"rental_uris":{"android":"levelo://app?vid=f303cba7-9da5-4035-8414-07af03b15d79","ios":"levelo://app?vid=f303cba7-9da5-4035-8414-07af03b15d79"},"vehicle_type_id":"4","last_reported":1720030222,"current_range_meters":0,"station_id":"ce4bh192rcd13ifvqdb0","pricing_plan_id":"cebpf4jnsgd1na2vs0mg"},{"bike_id":"28485580-a987-4bf1-b98b-f4328ae93e9e","system_id":"levelo_inurba_marseille","lat":43.292311,"lon":5.360731,"is_reserved":false,"is_disabled":false,"rental_uris":{"android":"levelo://app?vid=28485580-a987-4bf1-b98b-f4328ae93e9e","ios":"levelo://app?vid=28485580-a987-4bf1-b98b-f4328ae93e9e"},"vehicle_type_id":"4","last_reported":1720030222,"current_range_meters":3200,"station_id":"ce4bhbh2rcd13ifvqeqg","pricing_plan_id":"cebpf4jnsgd1na2vs0mg"},{"bike_id":"523ad916-eb33-4a5e-8c4e-21c3f1309df0","system_id":"levelo_inurba_marseille","lat":43.292311,"lon":5.360731,"is_reserved":false,"is_disabled":false,"rental_uris":{"android":"levelo://app?vid=523ad916-eb33-4a5e-8c4e-21c3f1309df0","ios":"levelo://app?vid=523ad916-eb33-4a5e-8c4e-21c3f1309df0"},"vehicle_type_id":"4","last_reported":1720030222,"current_range_meters":12000,"station_id":"ce4bhbh2rcd13ifvqeqg","pricing_plan_id":"cebpf4jnsgd1na2vs0mg"},{"bike_id":"fa9318e1-9ff1-40c0-91ce-83bd3924f4de","system_id":"levelo_inurba_marseille","lat":43.292311,"lon":5.360731,"is_reserved":false,"is_disabled":false,"rental_uris":{"android":"levelo://app?vid=fa9318e1-9ff1-40c0-91ce-83bd3924f4de","ios":"levelo://app?vid=fa9318e1-9ff1-40c0-91ce-83bd3924f4de"},"vehicle_type_id":"4","last_reported":1720030222,"current_range_meters":31600,"station_id":"ce4bhbh2rcd13ifvqeqg","pricing_plan_id":"cebpf4jnsgd1na2vs0mg"},{"bike_id":"4501887a-5499-4f10-b501-cfa11e11934c","system_id":"levelo_inurba_marseille","lat":43.29228,"lon":5.36056,"is_reserved":false,"is_disabled":false,"rental_uris":{"android":"levelo://app?vid=4501887a-5499-4f10-b501-cfa11e11934c","ios":"levelo://app?vid=4501887a-5499-4f10-b501-cfa11e11934c"},"vehicle_type_id":"4","last_reported":1720030222,"current_range_meters":26800,"station_id":"","pricing_plan_id":"cebpf4jnsgd1na2vs0mg"},{"bike_id":"789d2081-2879-4978-84d5-9575d9174b74","system_id":"levelo_inurba_marseille","lat":43.292311,"lon":5.360731,"is_reserved":false,"is_disabled":false,"rental_uris":{"android":"levelo://app?vid=789d2081-2879-4978-84d5-9575d9174b74","ios":"levelo://app?vid=789d2081-2879-4978-84d5-9575d9174b74"},"vehicle_type_id":"4","last_reported":1720030222,"current_range_meters":0,"station_id":"ce4bhbh2rcd13ifvqeqg","pricing_plan_id":"cebpf4jnsgd1na2vs0mg"},{"bike_id":"d9efe23c-7b92-4ef4-8be6-7942ffac5748","system_id":"levelo_inurba_marseille","lat":43.29224,"lon":5.360498,"is_reserved":false,"is_disabled":false,"rental_uris":{"android":"levelo://app?vid=d9efe23c-7b92-4ef4-8be6-7942ffac5748","ios":"levelo://app?vid=d9efe23c-7b92-4ef4-8be6-7942ffac5748"},"vehicle_type_id":"4","last_reported":1720030222,"current_range_meters":27200,"station_id":"ce4bhbh2rcd13ifvqeqg","pricing_plan_id":"cebpf4jnsgd1na2vs0mg"},{"bike_id":"e0c0acd1-5afa-413b-af64-60a80ddaf4f9","system_id":"levelo_inurba_marseille","lat":43.30085,"lon":5.390856,"is_reserved":false,"is_disabled":false,"rental_uris":{"android":"levelo://app?vid=e0c0acd1-5afa-413b-af64-60a80ddaf4f9","ios":"levelo://app?vid=e0c0acd1-5afa-413b-af64-60a80ddaf4f9"},"vehicle_type_id":"4","last_reported":1720030222,"current_range_meters":8800,"station_id":"ce4bh192rcd13ifvqdb0","pricing_plan_id":"cebpf4jnsgd1na2vs0mg"},{"bike_id":"e88c13b7-690a-4c32-9f33-3b5f41e672c9","system_id":"levelo_inurba_marseille","lat":43.292311,"lon":5.360731,"is_reserved":false,"is_disabled":false,"rental_uris":{"android":"levelo://app?vid=e88c13b7-690a-4c32-9f33-3b5f41e672c9","ios":"levelo://app?vid=e88c13b7-690a-4c32-9f33-3b5f41e672c9"},"vehicle_type_id":"4","last_reported":1720030222,"current_range_meters":16800,"station_id":"ce4bhbh2rcd13ifvqeqg","pricing_plan_id":"cebpf4jnsgd1na2vs0mg"},{"bike_id":"7d2b3dec-e7d0-4e1d-a75a-8db146afcbdf","system_id":"levelo_inurba_marseille","lat":43.292311,"lon":5.360731,"is_reserved":false,"is_disabled":false,"rental_uris":{"android":"levelo://app?vid=7d2b3dec-e7d0-4e1d-a75a-8db146afcbdf","ios":"levelo://app?vid=7d2b3dec-e7d0-4e1d-a75a-8db146afcbdf"},"vehicle_type_id":"4","last_reported":1720030222,"current_range_meters":24800,"station_id":"ce4bhbh2rcd13ifvqeqg","pricing_plan_id":"cebpf4jnsgd1na2vs0mg"},{"bike_id":"41023a7e-109c-44d6-99ca-7e18a18b0d0e","system_id":"levelo_inurba_marseille","lat":43.300852,"lon":5.390859,"is_reserved":false,"is_disabled":false,"rental_uris":{"android":"levelo://app?vid=41023a7e-109c-44d6-99ca-7e18a18b0d0e","ios":"levelo://app?vid=41023a7e-109c-44d6-99ca-7e18a18b0d0e"},"vehicle_type_id":"4","last_reported":1720030222,"current_range_meters":31200,"station_id":"ce4bh192rcd13ifvqdb0","pricing_plan_id":"cebpf4jnsgd1na2vs0mg"},{"bike_id":"0f4a2688-83dc-49fd-aaa7-f2df50c221e0","system_id":"levelo_inurba_marseille","lat":43.292311,"lon":5.360731,"is_reserved":false,"is_disabled":false,"rental_uris":{"android":"levelo://app?vid=0f4a2688-83dc-49fd-aaa7-f2df50c221e0","ios":"levelo://app?vid=0f4a2688-83dc-49fd-aaa7-f2df50c221e0"},"vehicle_type_id":"4","last_reported":1720030222,"current_range_meters":29200,"station_id":"ce4bhbh2rcd13ifvqeqg","pricing_plan_id":"cebpf4jnsgd1na2vs0mg"},{"bike_id":"7d57bd1c-fd15-480b-8021-0a7cd49f8a3a","system_id":"levelo_inurba_marseille","lat":43.292311,"lon":5.360731,"is_reserved":false,"is_disabled":false,"rental_uris":{"android":"levelo://app?vid=7d57bd1c-fd15-480b-8021-0a7cd49f8a3a","ios":"levelo://app?vid=7d57bd1c-fd15-480b-8021-0a7cd49f8a3a"},"vehicle_type_id":"4","last_reported":1720030222,"current_range_meters":20000,"station_id":"ce4bhbh2rcd13ifvqeqg","pricing_plan_id":"cebpf4jnsgd1na2vs0mg"},{"bike_id":"fec4796b-e10b-4713-811b-f177a0870691","system_id":"levelo_inurba_marseille","lat":43.292311,"lon":5.360731,"is_reserved":false,"is_disabled":false,"rental_uris":{"android":"levelo://app?vid=fec4796b-e10b-4713-811b-f177a0870691","ios":"levelo://app?vid=fec4796b-e10b-4713-811b-f177a0870691"},"vehicle_type_id":"4","last_reported":1720030222,"current_range_meters":14400,"station_id":"ce4bhbh2rcd13ifvqeqg","pricing_plan_id":"cebpf4jnsgd1na2vs0mg"},{"bike_id":"55113e73-88a0-4394-ad18-9d37a6c761c4","system_id":"levelo_inurba_marseille","lat":43.291675,"lon":5.371583,"is_reserved":false,"is_disabled":false,"rental_uris":{"android":"levelo://app?vid=55113e73-88a0-4394-ad18-9d37a6c761c4","ios":"levelo://app?vid=55113e73-88a0-4394-ad18-9d37a6c761c4"},"vehicle_type_id":"4","last_reported":1720030222,"current_range_meters":0,"station_id":"ce4bha92rcd13ifvqeh0","pricing_plan_id":"cebpf4jnsgd1na2vs0mg"},{"bike_id":"f9965db1-ca4b-4e61-b65e-7674a47aab72","system_id":"levelo_inurba_marseille","lat":43.298764,"lon":5.388973,"is_reserved":false,"is_disabled":false,"rental_uris":{"android":"levelo://app?vid=f9965db1-ca4b-4e61-b65e-7674a47aab72","ios":"levelo://app?vid=f9965db1-ca4b-4e61-b65e-7674a47aab72"},"vehicle_type_id":"4","last_reported":1720030222,"current_range_meters":10800,"station_id":"ce4bh392rcd13ifvqdl0","pricing_plan_id":"cebpf4jnsgd1na2vs0mg"},{"bike_id":"faaa56fc-49e0-4b50-bc04-4c575f1187e6","system_id":"levelo_inurba_marseille","lat":43.336134,"lon":5.410341,"is_reserved":false,"is_disabled":false,"rental_uris":{"android":"levelo://app?vid=faaa56fc-49e0-4b50-bc04-4c575f1187e6","ios":"levelo://app?vid=faaa56fc-49e0-4b50-bc04-4c575f1187e6"},"vehicle_type_id":"4","last_reported":1720030222,"current_range_meters":31600,"station_id":"ce4bhqh2rcd13ifvqhmg","pricing_plan_id":"cebpf4jnsgd1na2vs0mg"},{"bike_id":"e611ce14-3e49-4c7c-a82b-687b71d1c83d","system_id":"levelo_inurba_marseille","lat":43.298764,"lon":5.388973,"is_reserved":false,"is_disabled":false,"rental_uris":{"android":"levelo://app?vid=e611ce14-3e49-4c7c-a82b-687b71d1c83d","ios":"levelo://app?vid=e611ce14-3e49-4c7c-a82b-687b71d1c83d"},"vehicle_type_id":"4","last_reported":1720030222,"current_range_meters":400,"station_id":"ce4bh392rcd13ifvqdl0","pricing_plan_id":"cebpf4jnsgd1na2vs0mg"},{"bike_id":"4c45b91b-6d1b-4f65-8c11-b9892a1bd197","system_id":"levelo_inurba_marseille","lat":43.298764,"lon":5.388973,"is_reserved":false,"is_disabled":false,"rental_uris":{"android":"levelo://app?vid=4c45b91b-6d1b-4f65-8c11-b9892a1bd197","ios":"levelo://app?vid=4c45b91b-6d1b-4f65-8c11-b9892a1bd197"},"vehicle_type_id":"4","last_reported":1720030222,"current_range_meters":3200,"station_id":"ce4bh392rcd13ifvqdl0","pricing_plan_id":"cebpf4jnsgd1na2vs0mg"},{"bike_id":"5690c954-f500-4320-a090-f2155a6a293f","system_id":"levelo_inurba_marseille","lat":43.292005,"lon":5.357875,"is_reserved":false,"is_disabled":false,"rental_uris":{"android":"levelo://app?vid=5690c954-f500-4320-a090-f2155a6a293f","ios":"levelo://app?vid=5690c954-f500-4320-a090-f2155a6a293f"},"vehicle_type_id":"4","last_reported":1720030222,"current_range_meters":4400,"station_id":"ce4bhb12rcd13ifvqel0","pricing_plan_id":"cebpf4jnsgd1na2vs0mg"},{"bike_id":"eadb1b64-5d85-48e5-87d2-6b3bc027f000","system_id":"levelo_inurba_marseille","lat":43.29196,"lon":5.35797,"is_reserved":false,"is_disabled":false,"rental_uris":{"android":"levelo://app?vid=eadb1b64-5d85-48e5-87d2-6b3bc027f000","ios":"levelo://app?vid=eadb1b64-5d85-48e5-87d2-6b3bc027f000"},"vehicle_type_id":"4","last_reported":1720030222,"current_range_meters":30400,"station_id":"ce4bhb12rcd13ifvqel0","pricing_plan_id":"cebpf4jnsgd1na2vs0mg"},{"bike_id":"488ec128-d28f-4951-880a-152b288dc169","system_id":"levelo_inurba_marseille","lat":43.29193,"lon":5.35799,"is_reserved":false,"is_disabled":false,"rental_uris":{"android":"levelo://app?vid=488ec128-d28f-4951-880a-152b288dc169","ios":"levelo://app?vid=488ec128-d28f-4951-880a-152b288dc169"},"vehicle_type_id":"4","last_reported":1720030222,"current_range_meters":31200,"station_id":"ce4bhb12rcd13ifvqel0","pricing_plan_id":"cebpf4jnsgd1na2vs0mg"},{"bike_id":"1493f067-0bbd-4ce1-b07f-7fb1d6602621","system_id":"levelo_inurba_marseille","lat":43.313291,"lon":5.396838,"is_reserved":false,"is_disabled":false,"rental_uris":{"android":"levelo://app?vid=1493f067-0bbd-4ce1-b07f-7fb1d6602621","ios":"levelo://app?vid=1493f067-0bbd-4ce1-b07f-7fb1d6602621"},"vehicle_type_id":"4","last_reported":1720030222,"current_range_meters":3200,"station_id":"ce4bgvp2rcd13ifvqcu0","pricing_plan_id":"cebpf4jnsgd1na2vs0mg"},{"bike_id":"990dc57f-b79a-46e8-8bce-f00aba920bbb","system_id":"levelo_inurba_marseille","lat":43.309038,"lon":5.396546,"is_reserved":false,"is_disabled":false,"rental_uris":{"android":"levelo://app?vid=990dc57f-b79a-46e8-8bce-f00aba920bbb","ios":"levelo://app?vid=990dc57f-b79a-46e8-8bce-f00aba920bbb"},"vehicle_type_id":"4","last_reported":1720030222,"current_range_meters":8000,"station_id":"ce4bh012rcd13ifvqcv0","pricing_plan_id":"cebpf4jnsgd1na2vs0mg"},{"bike_id":"19f3f185-6eb9-4f8b-b951-279f9e8e256d","system_id":"levelo_inurba_marseille","lat":43.309038,"lon":5.396546,"is_reserved":false,"is_disabled":false,"rental_uris":{"android":"levelo://app?vid=19f3f185-6eb9-4f8b-b951-279f9e8e256d","ios":"levelo://app?vid=19f3f185-6eb9-4f8b-b951-279f9e8e256d"},"vehicle_type_id":"4","last_reported":1720030222,"current_range_meters":13200,"station_id":"ce4bh012rcd13ifvqcv0","pricing_plan_id":"cebpf4jnsgd1na2vs0mg"},{"bike_id":"6ebec17a-6546-414c-a12a-b2fe66d3d64d","system_id":"levelo_inurba_marseille","lat":43.29529,"lon":5.385581,"is_reserved":false,"is_disabled":false,"rental_uris":{"android":"levelo://app?vid=6ebec17a-6546-414c-a12a-b2fe66d3d64d","ios":"levelo://app?vid=6ebec17a-6546-414c-a12a-b2fe66d3d64d"},"vehicle_type_id":"4","last_reported":1720030222,"current_range_meters":16000,"station_id":"ce4bgih2rcd13ifvqba0","pricing_plan_id":"cebpf4jnsgd1na2vs0mg"},{"bike_id":"0b2f3e31-22c2-4c28-9e81-7cb1d85f1598","system_id":"levelo_inurba_marseille","lat":43.29529,"lon":5.385581,"is_reserved":false,"is_disabled":false,"rental_uris":{"android":"levelo://app?vid=0b2f3e31-22c2-4c28-9e81-7cb1d85f1598","ios":"levelo://app?vid=0b2f3e31-22c2-4c28-9e81-7cb1d85f1598"},"vehicle_type_id":"4","last_reported":1720030222,"current_range_meters":18400,"station_id":"ce4bgih2rcd13ifvqba0","pricing_plan_id":"cebpf4jnsgd1na2vs0mg"},{"bike_id":"0cbe67c7-563c-4bed-b258-ecdf6bab1012","system_id":"levelo_inurba_marseille","lat":43.29541,"lon":5.38548,"is_reserved":false,"is_disabled":false,"rental_uris":{"android":"levelo://app?vid=0cbe67c7-563c-4bed-b258-ecdf6bab1012","ios":"levelo://app?vid=0cbe67c7-563c-4bed-b258-ecdf6bab1012"},"vehicle_type_id":"4","last_reported":1720030222,"current_range_meters":31200,"station_id":"ce4bgih2rcd13ifvqba0","pricing_plan_id":"cebpf4jnsgd1na2vs0mg"},{"bike_id":"ceb7f814-185c-4704-93bf-d2a510aef33d","system_id":"levelo_inurba_marseille","lat":43.29529,"lon":5.385581,"is_reserved":false,"is_disabled":false,"rental_uris":{"android":"levelo://app?vid=ceb7f814-185c-4704-93bf-d2a510aef33d","ios":"levelo://app?vid=ceb7f814-185c-4704-93bf-d2a510aef33d"},"vehicle_type_id":"4","last_reported":1720030222,"current_range_meters":18000,"station_id":"ce4bgih2rcd13ifvqba0","pricing_plan_id":"cebpf4jnsgd1na2vs0mg"},{"bike_id":"bfa082c6-833f-4ff3-8a8d-9c4e90fc5af0","system_id":"levelo_inurba_marseille","lat":43.29529,"lon":5.385581,"is_reserved":false,"is_disabled":false,"rental_uris":{"android":"levelo://app?vid=bfa082c6-833f-4ff3-8a8d-9c4e90fc5af0","ios":"levelo://app?vid=bfa082c6-833f-4ff3-8a8d-9c4e90fc5af0"},"vehicle_type_id":"4","last_reported":1720030222,"current_range_meters":0,"station_id":"ce4bgih2rcd13ifvqba0","pricing_plan_id":"cebpf4jnsgd1na2vs0mg"},{"bike_id":"05daa3c2-2339-400a-943f-98162b9f7269","system_id":"levelo_inurba_marseille","lat":43.29529,"lon":5.385581,"is_reserved":false,"is_disabled":false,"rental_uris":{"android":"levelo://app?vid=05daa3c2-2339-400a-943f-98162b9f7269","ios":"levelo://app?vid=05daa3c2-2339-400a-943f-98162b9f7269"},"vehicle_type_id":"4","last_reported":1720030222,"current_range_meters":8000,"station_id":"ce4bgih2rcd13ifvqba0","pricing_plan_id":"cebpf4jnsgd1na2vs0mg"},{"bike_id":"6b7b2128-5cb8-482b-9752-de18d2b3a88f","system_id":"levelo_inurba_marseille","lat":43.291994,"lon":5.357886,"is_reserved":false,"is_disabled":false,"rental_uris":{"android":"levelo://app?vid=6b7b2128-5cb8-482b-9752-de18d2b3a88f","ios":"levelo://app?vid=6b7b2128-5cb8-482b-9752-de18d2b3a88f"},"vehicle_type_id":"4","last_reported":1720030222,"current_range_meters":21600,"station_id":"ce4bhb12rcd13ifvqel0","pricing_plan_id":"cebpf4jnsgd1na2vs0mg"},{"bike_id":"ae3f6a63-0257-4c22-930a-6493a45c6f51","system_id":"levelo_inurba_marseille","lat":43.29529,"lon":5.385581,"is_reserved":false,"is_disabled":false,"rental_uris":{"android":"levelo://app?vid=ae3f6a63-0257-4c22-930a-6493a45c6f51","ios":"levelo://app?vid=ae3f6a63-0257-4c22-930a-6493a45c6f51"},"vehicle_type_id":"4","last_reported":1720030222,"current_range_meters":4800,"station_id":"ce4bgih2rcd13ifvqba0","pricing_plan_id":"cebpf4jnsgd1na2vs0mg"},{"bike_id":"148e200b-1105-4493-b306-c5c4c2265729","system_id":"levelo_inurba_marseille","lat":43.29529,"lon":5.385581,"is_reserved":false,"is_disabled":false,"rental_uris":{"android":"levelo://app?vid=148e200b-1105-4493-b306-c5c4c2265729","ios":"levelo://app?vid=148e200b-1105-4493-b306-c5c4c2265729"},"vehicle_type_id":"4","last_reported":1720030222,"current_range_meters":8000,"station_id":"ce4bgih2rcd13ifvqba0","pricing_plan_id":"cebpf4jnsgd1na2vs0mg"},{"bike_id":"7bd23a62-1af5-41ef-bbe5-a12a711952ca","system_id":"levelo_inurba_marseille","lat":43.29529,"lon":5.385581,"is_reserved":false,"is_disabled":false,"rental_uris":{"android":"levelo://app?vid=7bd23a62-1af5-41ef-bbe5-a12a711952ca","ios":"levelo://app?vid=7bd23a62-1af5-41ef-bbe5-a12a711952ca"},"vehicle_type_id":"4","last_reported":1720030222,"current_range_meters":0,"station_id":"ce4bgih2rcd13ifvqba0","pricing_plan_id":"cebpf4jnsgd1na2vs0mg"},{"bike_id":"057eb368-59bc-4f95-a7e2-e3c398d71877","system_id":"levelo_inurba_marseille","lat":43.29529,"lon":5.385581,"is_reserved":false,"is_disabled":false,"rental_uris":{"android":"levelo://app?vid=057eb368-59bc-4f95-a7e2-e3c398d71877","ios":"levelo://app?vid=057eb368-59bc-4f95-a7e2-e3c398d71877"},"vehicle_type_id":"4","last_reported":1720030222,"current_range_meters":27200,"station_id":"ce4bgih2rcd13ifvqba0","pricing_plan_id":"cebpf4jnsgd1na2vs0mg"},{"bike_id":"15290253-0ece-4d66-909e-fe9072d33282","system_id":"levelo_inurba_marseille","lat":43.29529,"lon":5.385581,"is_reserved":false,"is_disabled":false,"rental_uris":{"android":"levelo://app?vid=15290253-0ece-4d66-909e-fe9072d33282","ios":"levelo://app?vid=15290253-0ece-4d66-909e-fe9072d33282"},"vehicle_type_id":"4","last_reported":1720030222,"current_range_meters":800,"station_id":"ce4bgih2rcd13ifvqba0","pricing_plan_id":"cebpf4jnsgd1na2vs0mg"},{"bike_id":"5311e9f4-38c4-4a8f-b3fc-d085a640ad2b","system_id":"levelo_inurba_marseille","lat":43.29529,"lon":5.385581,"is_reserved":false,"is_disabled":false,"rental_uris":{"android":"levelo://app?vid=5311e9f4-38c4-4a8f-b3fc-d085a640ad2b","ios":"levelo://app?vid=5311e9f4-38c4-4a8f-b3fc-d085a640ad2b"},"vehicle_type_id":"4","last_reported":1720030222,"current_range_meters":2400,"station_id":"ce4bgih2rcd13ifvqba0","pricing_plan_id":"cebpf4jnsgd1na2vs0mg"},{"bike_id":"1971b436-9271-46b1-9f7f-fc6c20f17674","system_id":"levelo_inurba_marseille","lat":43.29529,"lon":5.385581,"is_reserved":false,"is_disabled":false,"rental_uris":{"android":"levelo://app?vid=1971b436-9271-46b1-9f7f-fc6c20f17674","ios":"levelo://app?vid=1971b436-9271-46b1-9f7f-fc6c20f17674"},"vehicle_type_id":"4","last_reported":1720030222,"current_range_meters":6400,"station_id":"ce4bgih2rcd13ifvqba0","pricing_plan_id":"cebpf4jnsgd1na2vs0mg"},{"bike_id":"8a6591e7-5848-41c7-bdd6-6766e7f00c6f","system_id":"levelo_inurba_marseille","lat":43.29529,"lon":5.385581,"is_reserved":false,"is_disabled":false,"rental_uris":{"android":"levelo://app?vid=8a6591e7-5848-41c7-bdd6-6766e7f00c6f","ios":"levelo://app?vid=8a6591e7-5848-41c7-bdd6-6766e7f00c6f"},"vehicle_type_id":"4","last_reported":1720030222,"current_range_meters":27200,"station_id":"ce4bgih2rcd13ifvqba0","pricing_plan_id":"cebpf4jnsgd1na2vs0mg"},{"bike_id":"ab2e0e4b-d694-4bb8-bd70-ef54adceda7f","system_id":"levelo_inurba_marseille","lat":43.29529,"lon":5.385581,"is_reserved":false,"is_disabled":false,"rental_uris":{"android":"levelo://app?vid=ab2e0e4b-d694-4bb8-bd70-ef54adceda7f","ios":"levelo://app?vid=ab2e0e4b-d694-4bb8-bd70-ef54adceda7f"},"vehicle_type_id":"4","last_reported":1720030222,"current_range_meters":18800,"station_id":"ce4bgih2rcd13ifvqba0","pricing_plan_id":"cebpf4jnsgd1na2vs0mg"},{"bike_id":"20e6dd0e-09de-418d-9f89-f58b261f3a14","system_id":"levelo_inurba_marseille","lat":43.29529,"lon":5.385581,"is_reserved":false,"is_disabled":false,"rental_uris":{"android":"levelo://app?vid=20e6dd0e-09de-418d-9f89-f58b261f3a14","ios":"levelo://app?vid=20e6dd0e-09de-418d-9f89-f58b261f3a14"},"vehicle_type_id":"4","last_reported":1720030222,"current_range_meters":10400,"station_id":"ce4bgih2rcd13ifvqba0","pricing_plan_id":"cebpf4jnsgd1na2vs0mg"},{"bike_id":"9e261906-8a84-4bd8-875b-18577a12f770","system_id":"levelo_inurba_marseille","lat":43.29529,"lon":5.385581,"is_reserved":false,"is_disabled":false,"rental_uris":{"android":"levelo://app?vid=9e261906-8a84-4bd8-875b-18577a12f770","ios":"levelo://app?vid=9e261906-8a84-4bd8-875b-18577a12f770"},"vehicle_type_id":"4","last_reported":1720030222,"current_range_meters":30000,"station_id":"ce4bgih2rcd13ifvqba0","pricing_plan_id":"cebpf4jnsgd1na2vs0mg"},{"bike_id":"b47df6eb-6b58-45bc-8017-1d8003399103","system_id":"levelo_inurba_marseille","lat":43.29529,"lon":5.385581,"is_reserved":false,"is_disabled":false,"rental_uris":{"android":"levelo://app?vid=b47df6eb-6b58-45bc-8017-1d8003399103","ios":"levelo://app?vid=b47df6eb-6b58-45bc-8017-1d8003399103"},"vehicle_type_id":"4","last_reported":1720030222,"current_range_meters":1600,"station_id":"ce4bgih2rcd13ifvqba0","pricing_plan_id":"cebpf4jnsgd1na2vs0mg"},{"bike_id":"de8bb9ee-e46a-4662-827a-35b0e6c2b6d1","system_id":"levelo_inurba_marseille","lat":43.29529,"lon":5.385581,"is_reserved":false,"is_disabled":false,"rental_uris":{"android":"levelo://app?vid=de8bb9ee-e46a-4662-827a-35b0e6c2b6d1","ios":"levelo://app?vid=de8bb9ee-e46a-4662-827a-35b0e6c2b6d1"},"vehicle_type_id":"4","last_reported":1720030222,"current_range_meters":26400,"station_id":"ce4bgih2rcd13ifvqba0","pricing_plan_id":"cebpf4jnsgd1na2vs0mg"},{"bike_id":"669d14ce-dfdf-4643-95d8-00a17e3d0080","system_id":"levelo_inurba_marseille","lat":43.29529,"lon":5.385581,"is_reserved":false,"is_disabled":false,"rental_uris":{"android":"levelo://app?vid=669d14ce-dfdf-4643-95d8-00a17e3d0080","ios":"levelo://app?vid=669d14ce-dfdf-4643-95d8-00a17e3d0080"},"vehicle_type_id":"4","last_reported":1720030222,"current_range_meters":16000,"station_id":"ce4bgih2rcd13ifvqba0","pricing_plan_id":"cebpf4jnsgd1na2vs0mg"},{"bike_id":"f88f81cd-5bb8-44d8-a37f-798aa9ef1ab4","system_id":"levelo_inurba_marseille","lat":43.290779,"lon":5.371482,"is_reserved":false,"is_disabled":false,"rental_uris":{"android":"levelo://app?vid=f88f81cd-5bb8-44d8-a37f-798aa9ef1ab4","ios":"levelo://app?vid=f88f81cd-5bb8-44d8-a37f-798aa9ef1ab4"},"vehicle_type_id":"4","last_reported":1720030222,"current_range_meters":8000,"station_id":"ce4bh5p2rcd13ifvqe4g","pricing_plan_id":"cebpf4jnsgd1na2vs0mg"},{"bike_id":"cf473374-f391-44e6-be15-56a0c9cb02b2","system_id":"levelo_inurba_marseille","lat":43.290779,"lon":5.371482,"is_reserved":false,"is_disabled":false,"rental_uris":{"android":"levelo://app?vid=cf473374-f391-44e6-be15-56a0c9cb02b2","ios":"levelo://app?vid=cf473374-f391-44e6-be15-56a0c9cb02b2"},"vehicle_type_id":"4","last_reported":1720030222,"current_range_meters":23200,"station_id":"ce4bh5p2rcd13ifvqe4g","pricing_plan_id":"cebpf4jnsgd1na2vs0mg"},{"bike_id":"49876018-9018-4a91-a4bc-188a92947faa","system_id":"levelo_inurba_marseille","lat":43.29529,"lon":5.385581,"is_reserved":false,"is_disabled":false,"rental_uris":{"android":"levelo://app?vid=49876018-9018-4a91-a4bc-188a92947faa","ios":"levelo://app?vid=49876018-9018-4a91-a4bc-188a92947faa"},"vehicle_type_id":"4","last_reported":1720030222,"current_range_meters":3200,"station_id":"ce4bgih2rcd13ifvqba0","pricing_plan_id":"cebpf4jnsgd1na2vs0mg"},{"bike_id":"9ae305da-70ce-4493-93f4-259a3c7b3e6e","system_id":"levelo_inurba_marseille","lat":43.290779,"lon":5.371482,"is_reserved":false,"is_disabled":false,"rental_uris":{"android":"levelo://app?vid=9ae305da-70ce-4493-93f4-259a3c7b3e6e","ios":"levelo://app?vid=9ae305da-70ce-4493-93f4-259a3c7b3e6e"},"vehicle_type_id":"4","last_reported":1720030222,"current_range_meters":0,"station_id":"ce4bh5p2rcd13ifvqe4g","pricing_plan_id":"cebpf4jnsgd1na2vs0mg"},{"bike_id":"83d4df28-13c1-4d37-a4fe-f60c9520ce97","system_id":"levelo_inurba_marseille","lat":43.3022,"lon":5.39471,"is_reserved":false,"is_disabled":false,"rental_uris":{"android":"levelo://app?vid=83d4df28-13c1-4d37-a4fe-f60c9520ce97","ios":"levelo://app?vid=83d4df28-13c1-4d37-a4fe-f60c9520ce97"},"vehicle_type_id":"4","last_reported":1720030222,"current_range_meters":3200,"station_id":"","pricing_plan_id":"cebpf4jnsgd1na2vs0mg"},{"bike_id":"323a6991-0ead-4d9e-a5c4-93db1972ddfe","system_id":"levelo_inurba_marseille","lat":43.302008,"lon":5.394694,"is_reserved":false,"is_disabled":false,"rental_uris":{"android":"levelo://app?vid=323a6991-0ead-4d9e-a5c4-93db1972ddfe","ios":"levelo://app?vid=323a6991-0ead-4d9e-a5c4-93db1972ddfe"},"vehicle_type_id":"4","last_reported":1720030222,"current_range_meters":3200,"station_id":"ce4bh0p2rcd13ifvqd70","pricing_plan_id":"cebpf4jnsgd1na2vs0mg"},{"bike_id":"a01d6686-60d7-4017-b386-b08474ca4752","system_id":"levelo_inurba_marseille","lat":43.30209,"lon":5.3947,"is_reserved":false,"is_disabled":false,"rental_uris":{"android":"levelo://app?vid=a01d6686-60d7-4017-b386-b08474ca4752","ios":"levelo://app?vid=a01d6686-60d7-4017-b386-b08474ca4752"},"vehicle_type_id":"4","last_reported":1720030222,"current_range_meters":0,"station_id":"ce4bh0p2rcd13ifvqd70","pricing_plan_id":"cebpf4jnsgd1na2vs0mg"},{"bike_id":"deb975ad-bdc3-425c-91b8-0f3e9daef0e3","system_id":"levelo_inurba_marseille","lat":43.29045,"lon":5.35919,"is_reserved":false,"is_disabled":false,"rental_uris":{"android":"levelo://app?vid=deb975ad-bdc3-425c-91b8-0f3e9daef0e3","ios":"levelo://app?vid=deb975ad-bdc3-425c-91b8-0f3e9daef0e3"},"vehicle_type_id":"4","last_reported":1720030222,"current_range_meters":0,"station_id":"ce4bha92rcd13ifvqeg0","pricing_plan_id":"cebpf4jnsgd1na2vs0mg"},{"bike_id":"9b7c1a75-afc2-4192-bcee-923f5560dc43","system_id":"levelo_inurba_marseille","lat":43.294153,"lon":5.386305,"is_reserved":false,"is_disabled":false,"rental_uris":{"android":"levelo://app?vid=9b7c1a75-afc2-4192-bcee-923f5560dc43","ios":"levelo://app?vid=9b7c1a75-afc2-4192-bcee-923f5560dc43"},"vehicle_type_id":"4","last_reported":1720030222,"current_range_meters":0,"station_id":"ce4bh2h2rcd13ifvqdh0","pricing_plan_id":"cebpf4jnsgd1na2vs0mg"},{"bike_id":"445bec25-5e05-41fb-a7cc-4cf012152cd6","system_id":"levelo_inurba_marseille","lat":43.294153,"lon":5.386305,"is_reserved":false,"is_disabled":false,"rental_uris":{"android":"levelo://app?vid=445bec25-5e05-41fb-a7cc-4cf012152cd6","ios":"levelo://app?vid=445bec25-5e05-41fb-a7cc-4cf012152cd6"},"vehicle_type_id":"4","last_reported":1720030222,"current_range_meters":0,"station_id":"ce4bh2h2rcd13ifvqdh0","pricing_plan_id":"cebpf4jnsgd1na2vs0mg"},{"bike_id":"afe66edc-216f-4d9c-a28f-1825e0b5339f","system_id":"levelo_inurba_marseille","lat":43.294178,"lon":5.386224,"is_reserved":false,"is_disabled":false,"rental_uris":{"android":"levelo://app?vid=afe66edc-216f-4d9c-a28f-1825e0b5339f","ios":"levelo://app?vid=afe66edc-216f-4d9c-a28f-1825e0b5339f"},"vehicle_type_id":"4","last_reported":1720030222,"current_range_meters":21200,"station_id":"ce4bh2h2rcd13ifvqdh0","pricing_plan_id":"cebpf4jnsgd1na2vs0mg"},{"bike_id":"34a425cd-8275-44a0-bdf0-9362f4b94a9c","system_id":"levelo_inurba_marseille","lat":43.29423,"lon":5.38632,"is_reserved":false,"is_disabled":false,"rental_uris":{"android":"levelo://app?vid=34a425cd-8275-44a0-bdf0-9362f4b94a9c","ios":"levelo://app?vid=34a425cd-8275-44a0-bdf0-9362f4b94a9c"},"vehicle_type_id":"4","last_reported":1720030222,"current_range_meters":26800,"station_id":"ce4bh2h2rcd13ifvqdh0","pricing_plan_id":"cebpf4jnsgd1na2vs0mg"},{"bike_id":"4406141b-205a-44b4-b5b9-2cd2aaec77bb","system_id":"levelo_inurba_marseille","lat":43.2942,"lon":5.38629,"is_reserved":false,"is_disabled":false,"rental_uris":{"android":"levelo://app?vid=4406141b-205a-44b4-b5b9-2cd2aaec77bb","ios":"levelo://app?vid=4406141b-205a-44b4-b5b9-2cd2aaec77bb"},"vehicle_type_id":"4","last_reported":1720030222,"current_range_meters":31200,"station_id":"ce4bh2h2rcd13ifvqdh0","pricing_plan_id":"cebpf4jnsgd1na2vs0mg"},{"bike_id":"48d82fd5-3fa6-47e1-b98a-5efb3b89ec55","system_id":"levelo_inurba_marseille","lat":43.29416,"lon":5.38624,"is_reserved":false,"is_disabled":false,"rental_uris":{"android":"levelo://app?vid=48d82fd5-3fa6-47e1-b98a-5efb3b89ec55","ios":"levelo://app?vid=48d82fd5-3fa6-47e1-b98a-5efb3b89ec55"},"vehicle_type_id":"4","last_reported":1720030222,"current_range_meters":29200,"station_id":"ce4bh2h2rcd13ifvqdh0","pricing_plan_id":"cebpf4jnsgd1na2vs0mg"},{"bike_id":"c546e43d-1086-4dd5-9f8f-d12b81d5d9ab","system_id":"levelo_inurba_marseille","lat":43.29415,"lon":5.38625,"is_reserved":false,"is_disabled":false,"rental_uris":{"android":"levelo://app?vid=c546e43d-1086-4dd5-9f8f-d12b81d5d9ab","ios":"levelo://app?vid=c546e43d-1086-4dd5-9f8f-d12b81d5d9ab"},"vehicle_type_id":"4","last_reported":1720030222,"current_range_meters":0,"station_id":"ce4bh2h2rcd13ifvqdh0","pricing_plan_id":"cebpf4jnsgd1na2vs0mg"},{"bike_id":"709af6ae-3ca3-419f-9fe0-77f9935bad8b","system_id":"levelo_inurba_marseille","lat":43.289184,"lon":5.366408,"is_reserved":false,"is_disabled":false,"rental_uris":{"android":"levelo://app?vid=709af6ae-3ca3-419f-9fe0-77f9935bad8b","ios":"levelo://app?vid=709af6ae-3ca3-419f-9fe0-77f9935bad8b"},"vehicle_type_id":"4","last_reported":1720030222,"current_range_meters":0,"station_id":"ce4bhap2rcd13ifvqek0","pricing_plan_id":"cebpf4jnsgd1na2vs0mg"},{"bike_id":"2f98f936-dde5-496e-aec3-f816e3152af9","system_id":"levelo_inurba_marseille","lat":43.28939,"lon":5.36641,"is_reserved":false,"is_disabled":false,"rental_uris":{"android":"levelo://app?vid=2f98f936-dde5-496e-aec3-f816e3152af9","ios":"levelo://app?vid=2f98f936-dde5-496e-aec3-f816e3152af9"},"vehicle_type_id":"4","last_reported":1720030222,"current_range_meters":3200,"station_id":"ce4bhap2rcd13ifvqek0","pricing_plan_id":"cebpf4jnsgd1na2vs0mg"},{"bike_id":"10a2675f-5f26-420a-8cf9-7429504047b3","system_id":"levelo_inurba_marseille","lat":43.289184,"lon":5.366408,"is_reserved":false,"is_disabled":false,"rental_uris":{"android":"levelo://app?vid=10a2675f-5f26-420a-8cf9-7429504047b3","ios":"levelo://app?vid=10a2675f-5f26-420a-8cf9-7429504047b3"},"vehicle_type_id":"4","last_reported":1720030222,"current_range_meters":0,"station_id":"ce4bhap2rcd13ifvqek0","pricing_plan_id":"cebpf4jnsgd1na2vs0mg"},{"bike_id":"6b6178bf-4a2e-4b7d-bf65-313ddcc9e7f0","system_id":"levelo_inurba_marseille","lat":43.289184,"lon":5.366408,"is_reserved":false,"is_disabled":false,"rental_uris":{"android":"levelo://app?vid=6b6178bf-4a2e-4b7d-bf65-313ddcc9e7f0","ios":"levelo://app?vid=6b6178bf-4a2e-4b7d-bf65-313ddcc9e7f0"},"vehicle_type_id":"4","last_reported":1720030222,"current_range_meters":0,"station_id":"ce4bhap2rcd13ifvqek0","pricing_plan_id":"cebpf4jnsgd1na2vs0mg"},{"bike_id":"91eacbe6-df75-4ef4-9993-4ea3aff65c6e","system_id":"levelo_inurba_marseille","lat":43.289184,"lon":5.366408,"is_reserved":false,"is_disabled":false,"rental_uris":{"android":"levelo://app?vid=91eacbe6-df75-4ef4-9993-4ea3aff65c6e","ios":"levelo://app?vid=91eacbe6-df75-4ef4-9993-4ea3aff65c6e"},"vehicle_type_id":"4","last_reported":1720030222,"current_range_meters":800,"station_id":"ce4bhap2rcd13ifvqek0","pricing_plan_id":"cebpf4jnsgd1na2vs0mg"},{"bike_id":"1ed9f4ad-bfbb-43bf-bd73-7f84957879c7","system_id":"levelo_inurba_marseille","lat":43.289468,"lon":5.363719,"is_reserved":false,"is_disabled":false,"rental_uris":{"android":"levelo://app?vid=1ed9f4ad-bfbb-43bf-bd73-7f84957879c7","ios":"levelo://app?vid=1ed9f4ad-bfbb-43bf-bd73-7f84957879c7"},"vehicle_type_id":"4","last_reported":1720030222,"current_range_meters":2000,"station_id":"ce4bhc92rcd13ifvqetg","pricing_plan_id":"cebpf4jnsgd1na2vs0mg"},{"bike_id":"1fefaf91-2790-415f-ab98-ac19c602059b","system_id":"levelo_inurba_marseille","lat":43.289468,"lon":5.363719,"is_reserved":false,"is_disabled":false,"rental_uris":{"android":"levelo://app?vid=1fefaf91-2790-415f-ab98-ac19c602059b","ios":"levelo://app?vid=1fefaf91-2790-415f-ab98-ac19c602059b"},"vehicle_type_id":"4","last_reported":1720030222,"current_range_meters":10800,"station_id":"ce4bhc92rcd13ifvqetg","pricing_plan_id":"cebpf4jnsgd1na2vs0mg"},{"bike_id":"4ac97728-69bb-4e03-9187-96e8c6cec23f","system_id":"levelo_inurba_marseille","lat":43.289468,"lon":5.363719,"is_reserved":false,"is_disabled":false,"rental_uris":{"android":"levelo://app?vid=4ac97728-69bb-4e03-9187-96e8c6cec23f","ios":"levelo://app?vid=4ac97728-69bb-4e03-9187-96e8c6cec23f"},"vehicle_type_id":"4","last_reported":1720030222,"current_range_meters":14800,"station_id":"ce4bhc92rcd13ifvqetg","pricing_plan_id":"cebpf4jnsgd1na2vs0mg"},{"bike_id":"e7b51383-2d46-4997-a76f-9a76826994d7","system_id":"levelo_inurba_marseille","lat":43.289468,"lon":5.363719,"is_reserved":false,"is_disabled":false,"rental_uris":{"android":"levelo://app?vid=e7b51383-2d46-4997-a76f-9a76826994d7","ios":"levelo://app?vid=e7b51383-2d46-4997-a76f-9a76826994d7"},"vehicle_type_id":"4","last_reported":1720030222,"current_range_meters":20800,"station_id":"ce4bhc92rcd13ifvqetg","pricing_plan_id":"cebpf4jnsgd1na2vs0mg"},{"bike_id":"53c98365-075e-4aae-935f-b7fd3f041efb","system_id":"levelo_inurba_marseille","lat":43.292644,"lon":5.384257,"is_reserved":false,"is_disabled":false,"rental_uris":{"android":"levelo://app?vid=53c98365-075e-4aae-935f-b7fd3f041efb","ios":"levelo://app?vid=53c98365-075e-4aae-935f-b7fd3f041efb"},"vehicle_type_id":"4","last_reported":1720030222,"current_range_meters":4400,"station_id":"ce4bh692rcd13ifvqea0","pricing_plan_id":"cebpf4jnsgd1na2vs0mg"},{"bike_id":"6a82fa7b-49a3-4599-8911-ac0fbe4cd88b","system_id":"levelo_inurba_marseille","lat":43.292642,"lon":5.384254,"is_reserved":false,"is_disabled":false,"rental_uris":{"android":"levelo://app?vid=6a82fa7b-49a3-4599-8911-ac0fbe4cd88b","ios":"levelo://app?vid=6a82fa7b-49a3-4599-8911-ac0fbe4cd88b"},"vehicle_type_id":"4","last_reported":1720030222,"current_range_meters":28400,"station_id":"ce4bh692rcd13ifvqea0","pricing_plan_id":"cebpf4jnsgd1na2vs0mg"},{"bike_id":"09532894-0fe6-4986-84ab-cda57a323288","system_id":"levelo_inurba_marseille","lat":43.29269,"lon":5.38446,"is_reserved":false,"is_disabled":false,"rental_uris":{"android":"levelo://app?vid=09532894-0fe6-4986-84ab-cda57a323288","ios":"levelo://app?vid=09532894-0fe6-4986-84ab-cda57a323288"},"vehicle_type_id":"4","last_reported":1720030222,"current_range_meters":26800,"station_id":"ce4bh692rcd13ifvqea0","pricing_plan_id":"cebpf4jnsgd1na2vs0mg"},{"bike_id":"643119e5-1037-4dbb-a4ec-b67982b1027b","system_id":"levelo_inurba_marseille","lat":43.3043,"lon":5.39746,"is_reserved":false,"is_disabled":false,"rental_uris":{"android":"levelo://app?vid=643119e5-1037-4dbb-a4ec-b67982b1027b","ios":"levelo://app?vid=643119e5-1037-4dbb-a4ec-b67982b1027b"},"vehicle_type_id":"4","last_reported":1720030222,"current_range_meters":0,"station_id":"ce4bh092rcd13ifvqd20","pricing_plan_id":"cebpf4jnsgd1na2vs0mg"},{"bike_id":"ef22c8e3-452c-4935-9a06-b0617203eeb6","system_id":"levelo_inurba_marseille","lat":43.304296,"lon":5.397513,"is_reserved":false,"is_disabled":false,"rental_uris":{"android":"levelo://app?vid=ef22c8e3-452c-4935-9a06-b0617203eeb6","ios":"levelo://app?vid=ef22c8e3-452c-4935-9a06-b0617203eeb6"},"vehicle_type_id":"4","last_reported":1720030222,"current_range_meters":0,"station_id":"ce4bh092rcd13ifvqd20","pricing_plan_id":"cebpf4jnsgd1na2vs0mg"},{"bike_id":"70affcd9-6c34-452f-9941-0856c559686a","system_id":"levelo_inurba_marseille","lat":43.29263,"lon":5.38448,"is_reserved":false,"is_disabled":false,"rental_uris":{"android":"levelo://app?vid=70affcd9-6c34-452f-9941-0856c559686a","ios":"levelo://app?vid=70affcd9-6c34-452f-9941-0856c559686a"},"vehicle_type_id":"4","last_reported":1720030222,"current_range_meters":16000,"station_id":"ce4bh692rcd13ifvqea0","pricing_plan_id":"cebpf4jnsgd1na2vs0mg"},{"bike_id":"130fb766-ef2c-4f52-8512-85ba3792f4ba","system_id":"levelo_inurba_marseille","lat":43.292576,"lon":5.384435,"is_reserved":false,"is_disabled":false,"rental_uris":{"android":"levelo://app?vid=130fb766-ef2c-4f52-8512-85ba3792f4ba","ios":"levelo://app?vid=130fb766-ef2c-4f52-8512-85ba3792f4ba"},"vehicle_type_id":"4","last_reported":1720030222,"current_range_meters":31200,"station_id":"ce4bh692rcd13ifvqea0","pricing_plan_id":"cebpf4jnsgd1na2vs0mg"},{"bike_id":"c107ef1f-277f-42e1-bf28-7c3d345c3116","system_id":"levelo_inurba_marseille","lat":43.290047,"lon":5.356224,"is_reserved":false,"is_disabled":false,"rental_uris":{"android":"levelo://app?vid=c107ef1f-277f-42e1-bf28-7c3d345c3116","ios":"levelo://app?vid=c107ef1f-277f-42e1-bf28-7c3d345c3116"},"vehicle_type_id":"4","last_reported":1720030222,"current_range_meters":30000,"station_id":"ce4bhb92rcd13ifvqen0","pricing_plan_id":"cebpf4jnsgd1na2vs0mg"},{"bike_id":"30548edc-f3d5-4d19-8fd4-e8425a5e6a55","system_id":"levelo_inurba_marseille","lat":43.28999,"lon":5.35623,"is_reserved":false,"is_disabled":false,"rental_uris":{"android":"levelo://app?vid=30548edc-f3d5-4d19-8fd4-e8425a5e6a55","ios":"levelo://app?vid=30548edc-f3d5-4d19-8fd4-e8425a5e6a55"},"vehicle_type_id":"4","last_reported":1720030222,"current_range_meters":31200,"station_id":"ce4bhb92rcd13ifvqen0","pricing_plan_id":"cebpf4jnsgd1na2vs0mg"},{"bike_id":"030d6085-e10a-451f-b13a-537f493ed24b","system_id":"levelo_inurba_marseille","lat":43.29102,"lon":5.38122,"is_reserved":false,"is_disabled":false,"rental_uris":{"android":"levelo://app?vid=030d6085-e10a-451f-b13a-537f493ed24b","ios":"levelo://app?vid=030d6085-e10a-451f-b13a-537f493ed24b"},"vehicle_type_id":"4","last_reported":1720030222,"current_range_meters":1600,"station_id":"ce4bh512rcd13ifvqe2g","pricing_plan_id":"cebpf4jnsgd1na2vs0mg"},{"bike_id":"3d7a0ed6-bb36-48a3-90d0-177cc77d6c00","system_id":"levelo_inurba_marseille","lat":43.295137,"lon":5.389523,"is_reserved":false,"is_disabled":false,"rental_uris":{"android":"levelo://app?vid=3d7a0ed6-bb36-48a3-90d0-177cc77d6c00","ios":"levelo://app?vid=3d7a0ed6-bb36-48a3-90d0-177cc77d6c00"},"vehicle_type_id":"4","last_reported":1720030222,"current_range_meters":12000,"station_id":"","pricing_plan_id":"cebpf4jnsgd1na2vs0mg"},{"bike_id":"3beba966-8189-4378-b0b4-0a56b04b0aa7","system_id":"levelo_inurba_marseille","lat":43.29103,"lon":5.381294,"is_reserved":false,"is_disabled":false,"rental_uris":{"android":"levelo://app?vid=3beba966-8189-4378-b0b4-0a56b04b0aa7","ios":"levelo://app?vid=3beba966-8189-4378-b0b4-0a56b04b0aa7"},"vehicle_type_id":"4","last_reported":1720030222,"current_range_meters":0,"station_id":"ce4bh512rcd13ifvqe2g","pricing_plan_id":"cebpf4jnsgd1na2vs0mg"},{"bike_id":"efc3037e-6b9c-4a2d-9dba-5aeb929c1d1f","system_id":"levelo_inurba_marseille","lat":43.290995,"lon":5.381361,"is_reserved":false,"is_disabled":false,"rental_uris":{"android":"levelo://app?vid=efc3037e-6b9c-4a2d-9dba-5aeb929c1d1f","ios":"levelo://app?vid=efc3037e-6b9c-4a2d-9dba-5aeb929c1d1f"},"vehicle_type_id":"4","last_reported":1720030222,"current_range_meters":0,"station_id":"ce4bh512rcd13ifvqe2g","pricing_plan_id":"cebpf4jnsgd1na2vs0mg"},{"bike_id":"6f35ce30-9d2a-4120-a135-0d3b5e5b22ce","system_id":"levelo_inurba_marseille","lat":43.29783,"lon":5.39331,"is_reserved":false,"is_disabled":false,"rental_uris":{"android":"levelo://app?vid=6f35ce30-9d2a-4120-a135-0d3b5e5b22ce","ios":"levelo://app?vid=6f35ce30-9d2a-4120-a135-0d3b5e5b22ce"},"vehicle_type_id":"4","last_reported":1720030222,"current_range_meters":30000,"station_id":"chh1huq6cuj3fo74tm60","pricing_plan_id":"cebpf4jnsgd1na2vs0mg"},{"bike_id":"5c3e3a11-b394-4337-a805-4c935b50240e","system_id":"levelo_inurba_marseille","lat":43.289741,"lon":5.378306,"is_reserved":false,"is_disabled":false,"rental_uris":{"android":"levelo://app?vid=5c3e3a11-b394-4337-a805-4c935b50240e","ios":"levelo://app?vid=5c3e3a11-b394-4337-a805-4c935b50240e"},"vehicle_type_id":"4","last_reported":1720030222,"current_range_meters":1600,"station_id":"ce4bh9p2rcd13ifvqed0","pricing_plan_id":"cebpf4jnsgd1na2vs0mg"},{"bike_id":"a3ed7893-4d1e-4f0f-9169-f1f29a55cae4","system_id":"levelo_inurba_marseille","lat":43.330442,"lon":5.389148,"is_reserved":false,"is_disabled":false,"rental_uris":{"android":"levelo://app?vid=a3ed7893-4d1e-4f0f-9169-f1f29a55cae4","ios":"levelo://app?vid=a3ed7893-4d1e-4f0f-9169-f1f29a55cae4"},"vehicle_type_id":"4","last_reported":1720030222,"current_range_meters":31200,"station_id":"ce4bhr92rcd13ifvqhrg","pricing_plan_id":"cebpf4jnsgd1na2vs0mg"},{"bike_id":"7564a762-4fa9-4c33-9c1f-9d581bbe8b63","system_id":"levelo_inurba_marseille","lat":43.2901,"lon":5.381269,"is_reserved":false,"is_disabled":false,"rental_uris":{"android":"levelo://app?vid=7564a762-4fa9-4c33-9c1f-9d581bbe8b63","ios":"levelo://app?vid=7564a762-4fa9-4c33-9c1f-9d581bbe8b63"},"vehicle_type_id":"4","last_reported":1720030222,"current_range_meters":17600,"station_id":"ce4bh4p2rcd13ifvqe1g","pricing_plan_id":"cebpf4jnsgd1na2vs0mg"},{"bike_id":"a995d27b-a344-4250-975b-60cd400e49e4","system_id":"levelo_inurba_marseille","lat":43.290094,"lon":5.381264,"is_reserved":false,"is_disabled":false,"rental_uris":{"android":"levelo://app?vid=a995d27b-a344-4250-975b-60cd400e49e4","ios":"levelo://app?vid=a995d27b-a344-4250-975b-60cd400e49e4"},"vehicle_type_id":"4","last_reported":1720030222,"current_range_meters":23600,"station_id":"ce4bh4p2rcd13ifvqe1g","pricing_plan_id":"cebpf4jnsgd1na2vs0mg"},{"bike_id":"693628d7-bd18-4e15-8485-0093943de4ba","system_id":"levelo_inurba_marseille","lat":43.28956,"lon":5.35495,"is_reserved":false,"is_disabled":false,"rental_uris":{"android":"levelo://app?vid=693628d7-bd18-4e15-8485-0093943de4ba","ios":"levelo://app?vid=693628d7-bd18-4e15-8485-0093943de4ba"},"vehicle_type_id":"4","last_reported":1720030222,"current_range_meters":17600,"station_id":"","pricing_plan_id":"cebpf4jnsgd1na2vs0mg"},{"bike_id":"c66d1f9a-3ed3-40cc-8c32-caa4262ebaa9","system_id":"levelo_inurba_marseille","lat":43.290094,"lon":5.381264,"is_reserved":false,"is_disabled":false,"rental_uris":{"android":"levelo://app?vid=c66d1f9a-3ed3-40cc-8c32-caa4262ebaa9","ios":"levelo://app?vid=c66d1f9a-3ed3-40cc-8c32-caa4262ebaa9"},"vehicle_type_id":"4","last_reported":1720030222,"current_range_meters":0,"station_id":"ce4bh4p2rcd13ifvqe1g","pricing_plan_id":"cebpf4jnsgd1na2vs0mg"},{"bike_id":"bf117401-6767-462e-9c46-50796b9f3043","system_id":"levelo_inurba_marseille","lat":43.2901,"lon":5.381269,"is_reserved":false,"is_disabled":false,"rental_uris":{"android":"levelo://app?vid=bf117401-6767-462e-9c46-50796b9f3043","ios":"levelo://app?vid=bf117401-6767-462e-9c46-50796b9f3043"},"vehicle_type_id":"4","last_reported":1720030222,"current_range_meters":26000,"station_id":"ce4bh4p2rcd13ifvqe1g","pricing_plan_id":"cebpf4jnsgd1na2vs0mg"},{"bike_id":"232f33b7-79ab-4bef-978c-43a0f923aa0a","system_id":"levelo_inurba_marseille","lat":43.290094,"lon":5.381264,"is_reserved":false,"is_disabled":false,"rental_uris":{"android":"levelo://app?vid=232f33b7-79ab-4bef-978c-43a0f923aa0a","ios":"levelo://app?vid=232f33b7-79ab-4bef-978c-43a0f923aa0a"},"vehicle_type_id":"4","last_reported":1720030222,"current_range_meters":18400,"station_id":"ce4bh4p2rcd13ifvqe1g","pricing_plan_id":"cebpf4jnsgd1na2vs0mg"},{"bike_id":"7b91c933-54f9-460f-93b3-b3eaae1776ea","system_id":"levelo_inurba_marseille","lat":43.28859,"lon":5.35851,"is_reserved":false,"is_disabled":false,"rental_uris":{"android":"levelo://app?vid=7b91c933-54f9-460f-93b3-b3eaae1776ea","ios":"levelo://app?vid=7b91c933-54f9-460f-93b3-b3eaae1776ea"},"vehicle_type_id":"4","last_reported":1720030222,"current_range_meters":1200,"station_id":"ce4bhb12rcd13ifvqem0","pricing_plan_id":"cebpf4jnsgd1na2vs0mg"},{"bike_id":"93bd9ec3-27a0-44cf-868d-53cb8aaabfe2","system_id":"levelo_inurba_marseille","lat":43.28855,"lon":5.35847,"is_reserved":false,"is_disabled":false,"rental_uris":{"android":"levelo://app?vid=93bd9ec3-27a0-44cf-868d-53cb8aaabfe2","ios":"levelo://app?vid=93bd9ec3-27a0-44cf-868d-53cb8aaabfe2"},"vehicle_type_id":"4","last_reported":1720030222,"current_range_meters":0,"station_id":"ce4bhb12rcd13ifvqem0","pricing_plan_id":"cebpf4jnsgd1na2vs0mg"},{"bike_id":"cb73aa62-47ca-42db-b474-e7b66935fcff","system_id":"levelo_inurba_marseille","lat":43.28856,"lon":5.358371,"is_reserved":false,"is_disabled":false,"rental_uris":{"android":"levelo://app?vid=cb73aa62-47ca-42db-b474-e7b66935fcff","ios":"levelo://app?vid=cb73aa62-47ca-42db-b474-e7b66935fcff"},"vehicle_type_id":"4","last_reported":1720030222,"current_range_meters":11200,"station_id":"ce4bhb12rcd13ifvqem0","pricing_plan_id":"cebpf4jnsgd1na2vs0mg"},{"bike_id":"10745327-a5b7-4302-be3a-6dcfaa833f3a","system_id":"levelo_inurba_marseille","lat":43.28856,"lon":5.358371,"is_reserved":false,"is_disabled":false,"rental_uris":{"android":"levelo://app?vid=10745327-a5b7-4302-be3a-6dcfaa833f3a","ios":"levelo://app?vid=10745327-a5b7-4302-be3a-6dcfaa833f3a"},"vehicle_type_id":"4","last_reported":1720030222,"current_range_meters":0,"station_id":"ce4bhb12rcd13ifvqem0","pricing_plan_id":"cebpf4jnsgd1na2vs0mg"},{"bike_id":"8d622bb8-d857-4521-a5cf-a7f1c0deb42c","system_id":"levelo_inurba_marseille","lat":43.28856,"lon":5.358371,"is_reserved":false,"is_disabled":false,"rental_uris":{"android":"levelo://app?vid=8d622bb8-d857-4521-a5cf-a7f1c0deb42c","ios":"levelo://app?vid=8d622bb8-d857-4521-a5cf-a7f1c0deb42c"},"vehicle_type_id":"4","last_reported":1720030222,"current_range_meters":26400,"station_id":"ce4bhb12rcd13ifvqem0","pricing_plan_id":"cebpf4jnsgd1na2vs0mg"},{"bike_id":"6ecb25e4-95df-4cba-818f-b0abeab5a0c0","system_id":"levelo_inurba_marseille","lat":43.288455,"lon":5.358511,"is_reserved":false,"is_disabled":false,"rental_uris":{"android":"levelo://app?vid=6ecb25e4-95df-4cba-818f-b0abeab5a0c0","ios":"levelo://app?vid=6ecb25e4-95df-4cba-818f-b0abeab5a0c0"},"vehicle_type_id":"4","last_reported":1720030222,"current_range_meters":20800,"station_id":"ce4bhb12rcd13ifvqem0","pricing_plan_id":"cebpf4jnsgd1na2vs0mg"},{"bike_id":"32a3f006-4e6d-4d47-a306-f9ddfed75a70","system_id":"levelo_inurba_marseille","lat":43.312609,"lon":5.401662,"is_reserved":false,"is_disabled":false,"rental_uris":{"android":"levelo://app?vid=32a3f006-4e6d-4d47-a306-f9ddfed75a70","ios":"levelo://app?vid=32a3f006-4e6d-4d47-a306-f9ddfed75a70"},"vehicle_type_id":"4","last_reported":1720030222,"current_range_meters":0,"station_id":"ce4bh092rcd13ifvqd30","pricing_plan_id":"cebpf4jnsgd1na2vs0mg"},{"bike_id":"3c361718-b25a-44ff-9abb-f4e963b02ed4","system_id":"levelo_inurba_marseille","lat":43.3374,"lon":5.37448,"is_reserved":false,"is_disabled":false,"rental_uris":{"android":"levelo://app?vid=3c361718-b25a-44ff-9abb-f4e963b02ed4","ios":"levelo://app?vid=3c361718-b25a-44ff-9abb-f4e963b02ed4"},"vehicle_type_id":"4","last_reported":1720030222,"current_range_meters":5600,"station_id":"","pricing_plan_id":"cebpf4jnsgd1na2vs0mg"},{"bike_id":"f5fd895d-be29-4dd0-8ed1-68cb1a9acd6a","system_id":"levelo_inurba_marseille","lat":43.337444,"lon":5.374475,"is_reserved":false,"is_disabled":false,"rental_uris":{"android":"levelo://app?vid=f5fd895d-be29-4dd0-8ed1-68cb1a9acd6a","ios":"levelo://app?vid=f5fd895d-be29-4dd0-8ed1-68cb1a9acd6a"},"vehicle_type_id":"4","last_reported":1720030222,"current_range_meters":20400,"station_id":"","pricing_plan_id":"cebpf4jnsgd1na2vs0mg"},{"bike_id":"668b6270-367b-4f6c-b750-d67dec44cb4f","system_id":"levelo_inurba_marseille","lat":43.33747,"lon":5.37452,"is_reserved":false,"is_disabled":false,"rental_uris":{"android":"levelo://app?vid=668b6270-367b-4f6c-b750-d67dec44cb4f","ios":"levelo://app?vid=668b6270-367b-4f6c-b750-d67dec44cb4f"},"vehicle_type_id":"4","last_reported":1720030222,"current_range_meters":24400,"station_id":"","pricing_plan_id":"cebpf4jnsgd1na2vs0mg"},{"bike_id":"26186307-2584-4002-9c8c-fe2a31238548","system_id":"levelo_inurba_marseille","lat":43.337513,"lon":5.374569,"is_reserved":false,"is_disabled":false,"rental_uris":{"android":"levelo://app?vid=26186307-2584-4002-9c8c-fe2a31238548","ios":"levelo://app?vid=26186307-2584-4002-9c8c-fe2a31238548"},"vehicle_type_id":"4","last_reported":1720030222,"current_range_meters":24400,"station_id":"","pricing_plan_id":"cebpf4jnsgd1na2vs0mg"},{"bike_id":"0ed4044d-b045-4ceb-8b78-b4c3041d7f8a","system_id":"levelo_inurba_marseille","lat":43.33752,"lon":5.374591,"is_reserved":false,"is_disabled":false,"rental_uris":{"android":"levelo://app?vid=0ed4044d-b045-4ceb-8b78-b4c3041d7f8a","ios":"levelo://app?vid=0ed4044d-b045-4ceb-8b78-b4c3041d7f8a"},"vehicle_type_id":"4","last_reported":1720030222,"current_range_meters":26000,"station_id":"","pricing_plan_id":"cebpf4jnsgd1na2vs0mg"},{"bike_id":"5c35fd79-137e-4785-ac4e-212539aff542","system_id":"levelo_inurba_marseille","lat":43.337558,"lon":5.374551,"is_reserved":false,"is_disabled":false,"rental_uris":{"android":"levelo://app?vid=5c35fd79-137e-4785-ac4e-212539aff542","ios":"levelo://app?vid=5c35fd79-137e-4785-ac4e-212539aff542"},"vehicle_type_id":"4","last_reported":1720030222,"current_range_meters":22800,"station_id":"","pricing_plan_id":"cebpf4jnsgd1na2vs0mg"},{"bike_id":"d3c4f001-2270-4ab4-ba18-ac05000c8d46","system_id":"levelo_inurba_marseille","lat":43.337559,"lon":5.374547,"is_reserved":false,"is_disabled":false,"rental_uris":{"android":"levelo://app?vid=d3c4f001-2270-4ab4-ba18-ac05000c8d46","ios":"levelo://app?vid=d3c4f001-2270-4ab4-ba18-ac05000c8d46"},"vehicle_type_id":"4","last_reported":1720030222,"current_range_meters":26000,"station_id":"","pricing_plan_id":"cebpf4jnsgd1na2vs0mg"},{"bike_id":"b365cded-7e1f-4c49-8848-d4269ed24fae","system_id":"levelo_inurba_marseille","lat":43.33759,"lon":5.37436,"is_reserved":false,"is_disabled":false,"rental_uris":{"android":"levelo://app?vid=b365cded-7e1f-4c49-8848-d4269ed24fae","ios":"levelo://app?vid=b365cded-7e1f-4c49-8848-d4269ed24fae"},"vehicle_type_id":"4","last_reported":1720030222,"current_range_meters":30800,"station_id":"","pricing_plan_id":"cebpf4jnsgd1na2vs0mg"},{"bike_id":"b6434eae-5cb4-4c31-b322-b4ecf8f28910","system_id":"levelo_inurba_marseille","lat":43.337568,"lon":5.374554,"is_reserved":false,"is_disabled":false,"rental_uris":{"android":"levelo://app?vid=b6434eae-5cb4-4c31-b322-b4ecf8f28910","ios":"levelo://app?vid=b6434eae-5cb4-4c31-b322-b4ecf8f28910"},"vehicle_type_id":"4","last_reported":1720030222,"current_range_meters":26000,"station_id":"","pricing_plan_id":"cebpf4jnsgd1na2vs0mg"},{"bike_id":"7799d0a3-c9f5-4e76-a056-c410e036458d","system_id":"levelo_inurba_marseille","lat":43.3376,"lon":5.37437,"is_reserved":false,"is_disabled":false,"rental_uris":{"android":"levelo://app?vid=7799d0a3-c9f5-4e76-a056-c410e036458d","ios":"levelo://app?vid=7799d0a3-c9f5-4e76-a056-c410e036458d"},"vehicle_type_id":"4","last_reported":1720030222,"current_range_meters":30000,"station_id":"","pricing_plan_id":"cebpf4jnsgd1na2vs0mg"},{"bike_id":"63add096-1435-4c3b-b83b-a3a36c1eb8d7","system_id":"levelo_inurba_marseille","lat":43.337572,"lon":5.374553,"is_reserved":false,"is_disabled":false,"rental_uris":{"android":"levelo://app?vid=63add096-1435-4c3b-b83b-a3a36c1eb8d7","ios":"levelo://app?vid=63add096-1435-4c3b-b83b-a3a36c1eb8d7"},"vehicle_type_id":"4","last_reported":1720030222,"current_range_meters":8400,"station_id":"","pricing_plan_id":"cebpf4jnsgd1na2vs0mg"},{"bike_id":"1bf3f2e0-998e-4534-b968-553047dd9433","system_id":"levelo_inurba_marseille","lat":43.337581,"lon":5.374552,"is_reserved":false,"is_disabled":false,"rental_uris":{"android":"levelo://app?vid=1bf3f2e0-998e-4534-b968-553047dd9433","ios":"levelo://app?vid=1bf3f2e0-998e-4534-b968-553047dd9433"},"vehicle_type_id":"4","last_reported":1720030222,"current_range_meters":26000,"station_id":"","pricing_plan_id":"cebpf4jnsgd1na2vs0mg"},{"bike_id":"7829749a-6357-4f25-b52b-22d8bde55cb0","system_id":"levelo_inurba_marseille","lat":43.33762,"lon":5.374435,"is_reserved":false,"is_disabled":false,"rental_uris":{"android":"levelo://app?vid=7829749a-6357-4f25-b52b-22d8bde55cb0","ios":"levelo://app?vid=7829749a-6357-4f25-b52b-22d8bde55cb0"},"vehicle_type_id":"4","last_reported":1720030222,"current_range_meters":30800,"station_id":"","pricing_plan_id":"cebpf4jnsgd1na2vs0mg"},{"bike_id":"7b133e30-4849-4feb-84bb-89d23ea09217","system_id":"levelo_inurba_marseille","lat":43.337626,"lon":5.374463,"is_reserved":false,"is_disabled":false,"rental_uris":{"android":"levelo://app?vid=7b133e30-4849-4feb-84bb-89d23ea09217","ios":"levelo://app?vid=7b133e30-4849-4feb-84bb-89d23ea09217"},"vehicle_type_id":"4","last_reported":1720030222,"current_range_meters":29200,"station_id":"","pricing_plan_id":"cebpf4jnsgd1na2vs0mg"},{"bike_id":"d8a84473-84e3-40da-a2b5-1ab5576f24b8","system_id":"levelo_inurba_marseille","lat":43.33755,"lon":5.37499,"is_reserved":false,"is_disabled":false,"rental_uris":{"android":"levelo://app?vid=d8a84473-84e3-40da-a2b5-1ab5576f24b8","ios":"levelo://app?vid=d8a84473-84e3-40da-a2b5-1ab5576f24b8"},"vehicle_type_id":"4","last_reported":1720030222,"current_range_meters":10800,"station_id":"","pricing_plan_id":"cebpf4jnsgd1na2vs0mg"},{"bike_id":"05254307-f8fb-46a2-985d-3a0823608688","system_id":"levelo_inurba_marseille","lat":43.33768,"lon":5.374407,"is_reserved":false,"is_disabled":false,"rental_uris":{"android":"levelo://app?vid=05254307-f8fb-46a2-985d-3a0823608688","ios":"levelo://app?vid=05254307-f8fb-46a2-985d-3a0823608688"},"vehicle_type_id":"4","last_reported":1720030222,"current_range_meters":9200,"station_id":"","pricing_plan_id":"cebpf4jnsgd1na2vs0mg"},{"bike_id":"e6f06451-e4f2-4ab1-96a6-300e1cead605","system_id":"levelo_inurba_marseille","lat":43.30135,"lon":5.3986,"is_reserved":false,"is_disabled":false,"rental_uris":{"android":"levelo://app?vid=e6f06451-e4f2-4ab1-96a6-300e1cead605","ios":"levelo://app?vid=e6f06451-e4f2-4ab1-96a6-300e1cead605"},"vehicle_type_id":"4","last_reported":1720030222,"current_range_meters":0,"station_id":"ce4bh0h2rcd13ifvqd40","pricing_plan_id":"cebpf4jnsgd1na2vs0mg"},{"bike_id":"40c40b76-32f7-4999-a9a6-41eeedd7f7ed","system_id":"levelo_inurba_marseille","lat":43.301423,"lon":5.398775,"is_reserved":false,"is_disabled":false,"rental_uris":{"android":"levelo://app?vid=40c40b76-32f7-4999-a9a6-41eeedd7f7ed","ios":"levelo://app?vid=40c40b76-32f7-4999-a9a6-41eeedd7f7ed"},"vehicle_type_id":"4","last_reported":1720030222,"current_range_meters":0,"station_id":"ce4bh0h2rcd13ifvqd40","pricing_plan_id":"cebpf4jnsgd1na2vs0mg"},{"bike_id":"6c50292d-97f2-4017-b5c8-39f846d0d557","system_id":"levelo_inurba_marseille","lat":43.28729,"lon":5.36084,"is_reserved":false,"is_disabled":false,"rental_uris":{"android":"levelo://app?vid=6c50292d-97f2-4017-b5c8-39f846d0d557","ios":"levelo://app?vid=6c50292d-97f2-4017-b5c8-39f846d0d557"},"vehicle_type_id":"4","last_reported":1720030222,"current_range_meters":26800,"station_id":"cki0cbj6b192h4jlfktg","pricing_plan_id":"cebpf4jnsgd1na2vs0mg"},{"bike_id":"68c2546f-4c6b-4603-ac3b-40783e987bc9","system_id":"levelo_inurba_marseille","lat":43.287242,"lon":5.36088,"is_reserved":false,"is_disabled":false,"rental_uris":{"android":"levelo://app?vid=68c2546f-4c6b-4603-ac3b-40783e987bc9","ios":"levelo://app?vid=68c2546f-4c6b-4603-ac3b-40783e987bc9"},"vehicle_type_id":"4","last_reported":1720030222,"current_range_meters":24000,"station_id":"cki0cbj6b192h4jlfktg","pricing_plan_id":"cebpf4jnsgd1na2vs0mg"},{"bike_id":"bb310e55-1ae2-45dc-aa84-f865a5578e7a","system_id":"levelo_inurba_marseille","lat":43.298681,"lon":5.397225,"is_reserved":false,"is_disabled":false,"rental_uris":{"android":"levelo://app?vid=bb310e55-1ae2-45dc-aa84-f865a5578e7a","ios":"levelo://app?vid=bb310e55-1ae2-45dc-aa84-f865a5578e7a"},"vehicle_type_id":"4","last_reported":1720030222,"current_range_meters":0,"station_id":"ce4bh0h2rcd13ifvqd50","pricing_plan_id":"cebpf4jnsgd1na2vs0mg"},{"bike_id":"79fe76f3-ba60-463d-952f-3e11ff5d41b8","system_id":"levelo_inurba_marseille","lat":43.286591,"lon":5.363346,"is_reserved":false,"is_disabled":false,"rental_uris":{"android":"levelo://app?vid=79fe76f3-ba60-463d-952f-3e11ff5d41b8","ios":"levelo://app?vid=79fe76f3-ba60-463d-952f-3e11ff5d41b8"},"vehicle_type_id":"4","last_reported":1720030222,"current_range_meters":1600,"station_id":"ce4bhah2rcd13ifvqej0","pricing_plan_id":"cebpf4jnsgd1na2vs0mg"},{"bike_id":"5e2c70cf-93d3-43d5-b29d-6f18ece8c879","system_id":"levelo_inurba_marseille","lat":43.286591,"lon":5.363346,"is_reserved":false,"is_disabled":false,"rental_uris":{"android":"levelo://app?vid=5e2c70cf-93d3-43d5-b29d-6f18ece8c879","ios":"levelo://app?vid=5e2c70cf-93d3-43d5-b29d-6f18ece8c879"},"vehicle_type_id":"4","last_reported":1720030222,"current_range_meters":7600,"station_id":"ce4bhah2rcd13ifvqej0","pricing_plan_id":"cebpf4jnsgd1na2vs0mg"},{"bike_id":"2b36e823-a8f0-48ba-a1f5-ea42ccbac785","system_id":"levelo_inurba_marseille","lat":43.28704,"lon":5.37397,"is_reserved":false,"is_disabled":false,"rental_uris":{"android":"levelo://app?vid=2b36e823-a8f0-48ba-a1f5-ea42ccbac785","ios":"levelo://app?vid=2b36e823-a8f0-48ba-a1f5-ea42ccbac785"},"vehicle_type_id":"4","last_reported":1720030222,"current_range_meters":0,"station_id":"ce4bh3p2rcd13ifvqdq0","pricing_plan_id":"cebpf4jnsgd1na2vs0mg"},