{"last_updated":1730103194,"ttl":60,"version":"2.2","data":{"bikes":[{"bike_id":"17a2755b-a6ea-427e-9540-a2fa27710355","system_id":"levelo_inurba_marseille","lat":43.30542,"lon":5.36537,"is_reserved":false,"is_disabled":false,"rental_uris":{"android":"levelo://app?vid=17a2755b-a6ea-427e-9540-a2fa27710355","ios":"levelo://app?vid=17a2755b-a6ea-427e-9540-a2fa27710355"},"vehicle_type_id":"4","last_reported":1730103194,"current_range_meters":36800,"station_id":"ce4bgs12rcd13ifvqcag","pricing_plan_id":"cebpf4jnsgd1na2vs0mg"},{"bike_id":"2a3e2a73-2b42-45ac-a96b-1bd75e2f7a15","system_id":"levelo_inurba_marseille","lat":43.30905,"lon":5.3685,"is_reserved":false,"is_disabled":false,"rental_uris":{"android":"levelo://app?vid=2a3e2a73-2b42-45ac-a96b-1bd75e2f7a15","ios":"levelo://app?vid=2a3e2a73-2b42-45ac-a96b-1bd75e2f7a15"},"vehicle_type_id":"4","last_reported":1730103194,"current_range_meters":17200,"station_id":"ce4bgn92rcd13ifvqbvg","pricing_plan_id":"cebpf4jnsgd1na2vs0mg"},{"bike_id":"be5a3a72-d468-4d30-85f6-bb87b3df969e","system_id":"levelo_inurba_marseille","lat":43.299667,"lon":5.384984,"is_reserved":false,"is_disabled":false,"rental_uris":{"android":"levelo://app?vid=be5a3a72-d468-4d30-85f6-bb87b3df969e","ios":"levelo://app?vid=be5a3a72-d468-4d30-85f6-bb87b3df969e"},"vehicle_type_id":"4","last_reported":1730103194,"current_range_meters":37600,"station_id":"ce4bgj92rcd13ifvqbd0","pricing_plan_id":"cebpf4jnsgd1na2vs0mg"},{"bike_id":"20f5ef21-1b7a-4887-b730-d77554d6c81d","system_id":"levelo_inurba_marseille","lat":43.337575,"lon":5.374539,"is_reserved":false,"is_disabled":false,"rental_uris":{"android":"levelo://app?vid=20f5ef21-1b7a-4887-b730-d77554d6c81d","ios":"levelo://app?vid=20f5ef21-1b7a-4887-b730-d77554d6c81d"},"vehicle_type_id":"4","last_reported":1730103194,"current_range_meters":38800,"station_id":"","pricing_plan_id":"cebpf4jnsgd1na2vs0mg"},{"bike_id":"1e7c1adc-6e5f-45d9-a75d-a51f2ad067c8","system_id":"levelo_inurba_marseille","lat":43.29889,"lon":5.43665,"is_reserved":false,"is_disabled":false,"rental_uris":{"android":"levelo://app?vid=1e7c1adc-6e5f-45d9-a75d-a51f2ad067c8","ios":"levelo://app?vid=1e7c1adc-6e5f-45d9-a75d-a51f2ad067c8"},"vehicle_type_id":"4","last_reported":1730103194,"current_range_meters":2800,"station_id":"ce4bhpp2rcd13ifvqhfg","pricing_plan_id":"cebpf4jnsgd1na2vs0mg"},{"bike_id":"6cd46184-ccd4-41a7-92e5-9f321ea4dee8","system_id":"levelo_inurba_marseille","lat":43.24081,"lon":5.37745,"is_reserved":false,"is_disabled":false,"rental_uris":{"android":"levelo://app?vid=6cd46184-ccd4-41a7-92e5-9f321ea4dee8","ios":"levelo://app?vid=6cd46184-ccd4-41a7-92e5-9f321ea4dee8"},"vehicle_type_id":"4","last_reported":1730103194,"current_range_meters":38000,"station_id":"ce4bhnp2rcd13ifvqgvg","pricing_plan_id":"cebpf4jnsgd1na2vs0mg"},{"bike_id":"90b09f7c-4665-4372-8e70-8220f506b4de","system_id":"levelo_inurba_marseille","lat":43.25724,"lon":5.41102,"is_reserved":false,"is_disabled":false,"rental_uris":{"android":"levelo://app?vid=90b09f7c-4665-4372-8e70-8220f506b4de","ios":"levelo://app?vid=90b09f7c-4665-4372-8e70-8220f506b4de"},"vehicle_type_id":"4","last_reported":1730103194,"current_range_meters":8800,"station_id":"ce4bhkp2rcd13ifvqgd0","pricing_plan_id":"cebpf4jnsgd1na2vs0mg"},{"bike_id":"7501dbaf-a35e-4bd2-9151-59352e5a8638","system_id":"levelo_inurba_marseille","lat":43.23152,"lon":5.43701,"is_reserved":false,"is_disabled":false,"rental_uris":{"android":"levelo://app?vid=7501dbaf-a35e-4bd2-9151-59352e5a8638","ios":"levelo://app?vid=7501dbaf-a35e-4bd2-9151-59352e5a8638"},"vehicle_type_id":"4","last_reported":1730103194,"current_range_meters":20000,"station_id":"ce4bhmp2rcd13ifvqgog","pricing_plan_id":"cebpf4jnsgd1na2vs0mg"},{"bike_id":"53a1757e-300f-49af-ad4c-14fc4c1dc8d2","system_id":"levelo_inurba_marseille","lat":43.295967,"lon":5.381018,"is_reserved":false,"is_disabled":false,"rental_uris":{"android":"levelo://app?vid=53a1757e-300f-49af-ad4c-14fc4c1dc8d2","ios":"levelo://app?vid=53a1757e-300f-49af-ad4c-14fc4c1dc8d2"},"vehicle_type_id":"4","last_reported":1730103194,"current_range_meters":11600,"station_id":"ce4bgl12rcd13ifvqbo0","pricing_plan_id":"cebpf4jnsgd1na2vs0mg"},{"bike_id":"0444e437-39ff-4713-bcec-924f5a4e125a","system_id":"levelo_inurba_marseille","lat":43.29972,"lon":5.38487,"is_reserved":false,"is_disabled":false,"rental_uris":{"android":"levelo://app?vid=0444e437-39ff-4713-bcec-924f5a4e125a","ios":"levelo://app?vid=0444e437-39ff-4713-bcec-924f5a4e125a"},"vehicle_type_id":"4","last_reported":1730103194,"current_range_meters":14000,"station_id":"ce4bgj92rcd13ifvqbd0","pricing_plan_id":"cebpf4jnsgd1na2vs0mg"},{"bike_id":"17aa6f14-cc79-45fe-8e27-d09aff5af5c3","system_id":"levelo_inurba_marseille","lat":43.27175,"lon":5.40999,"is_reserved":false,"is_disabled":false,"rental_uris":{"android":"levelo://app?vid=17aa6f14-cc79-45fe-8e27-d09aff5af5c3","ios":"levelo://app?vid=17aa6f14-cc79-45fe-8e27-d09aff5af5c3"},"vehicle_type_id":"4","last_reported":1730103194,"current_range_meters":38800,"station_id":"ce4bhl12rcd13ifvqgf0","pricing_plan_id":"cebpf4jnsgd1na2vs0mg"},{"bike_id":"0417c2c0-a8fa-4e85-94c8-8f98d5bb5512","system_id":"levelo_inurba_marseille","lat":43.24806,"lon":5.37452,"is_reserved":false,"is_disabled":false,"rental_uris":{"android":"levelo://app?vid=0417c2c0-a8fa-4e85-94c8-8f98d5bb5512","ios":"levelo://app?vid=0417c2c0-a8fa-4e85-94c8-8f98d5bb5512"},"vehicle_type_id":"4","last_reported":1730103194,"current_range_meters":36800,"station_id":"ce4bhgh2rcd13ifvqfb0","pricing_plan_id":"cebpf4jnsgd1na2vs0mg"},{"bike_id":"323b4ed3-59b7-4064-9874-ddb44cdc1ab2","system_id":"levelo_inurba_marseille","lat":43.29048,"lon":5.37164,"is_reserved":false,"is_disabled":false,"rental_uris":{"android":"levelo://app?vid=323b4ed3-59b7-4064-9874-ddb44cdc1ab2","ios":"levelo://app?vid=323b4ed3-59b7-4064-9874-ddb44cdc1ab2"},"vehicle_type_id":"4","last_reported":1730103194,"current_range_meters":24400,"station_id":"ce4bh5p2rcd13ifvqe4g","pricing_plan_id":"cebpf4jnsgd1na2vs0mg"},{"bike_id":"e3d7c40f-8add-4bbc-994c-e504707c1c67","system_id":"levelo_inurba_marseille","lat":43.30904,"lon":5.36853,"is_reserved":false,"is_disabled":false,"rental_uris":{"android":"levelo://app?vid=e3d7c40f-8add-4bbc-994c-e504707c1c67","ios":"levelo://app?vid=e3d7c40f-8add-4bbc-994c-e504707c1c67"},"vehicle_type_id":"4","last_reported":1730103194,"current_range_meters":37600,"station_id":"ce4bgn92rcd13ifvqbvg","pricing_plan_id":"cebpf4jnsgd1na2vs0mg"},{"bike_id":"836f7436-a4c1-44c4-bfd8-a2c6c8f2c411","system_id":"levelo_inurba_marseille","lat":43.32937,"lon":5.41101,"is_reserved":false,"is_disabled":false,"rental_uris":{"android":"levelo://app?vid=836f7436-a4c1-44c4-bfd8-a2c6c8f2c411","ios":"levelo://app?vid=836f7436-a4c1-44c4-bfd8-a2c6c8f2c411"},"vehicle_type_id":"4","last_reported":1730103194,"current_range_meters":30400,"station_id":"","pricing_plan_id":"cebpf4jnsgd1na2vs0mg"},{"bike_id":"165632c2-bf24-4ddf-9b0c-1ac1684518ef","system_id":"levelo_inurba_marseille","lat":43.31351,"lon":5.3669,"is_reserved":false,"is_disabled":false,"rental_uris":{"android":"levelo://app?vid=165632c2-bf24-4ddf-9b0c-1ac1684518ef","ios":"levelo://app?vid=165632c2-bf24-4ddf-9b0c-1ac1684518ef"},"vehicle_type_id":"4","last_reported":1730103194,"current_range_meters":24400,"station_id":"ce4bgr92rcd13ifvqc6g","pricing_plan_id":"cebpf4jnsgd1na2vs0mg"},{"bike_id":"76a28f5b-ab00-4d04-a1f7-c957914a592c","system_id":"levelo_inurba_marseille","lat":43.27206,"lon":5.39189,"is_reserved":false,"is_disabled":false,"rental_uris":{"android":"levelo://app?vid=76a28f5b-ab00-4d04-a1f7-c957914a592c","ios":"levelo://app?vid=76a28f5b-ab00-4d04-a1f7-c957914a592c"},"vehicle_type_id":"4","last_reported":1730103194,"current_range_meters":38800,"station_id":"ce4bhhp2rcd13ifvqfm0","pricing_plan_id":"cebpf4jnsgd1na2vs0mg"},{"bike_id":"c151cf74-fa7e-4aca-97a5-f6e88f5aac2e","system_id":"levelo_inurba_marseille","lat":43.29257,"lon":5.36601,"is_reserved":false,"is_disabled":false,"rental_uris":{"android":"levelo://app?vid=c151cf74-fa7e-4aca-97a5-f6e88f5aac2e","ios":"levelo://app?vid=c151cf74-fa7e-4aca-97a5-f6e88f5aac2e"},"vehicle_type_id":"4","last_reported":1730103194,"current_range_meters":37600,"station_id":"","pricing_plan_id":"cebpf4jnsgd1na2vs0mg"},{"bike_id":"86b8ffd9-d209-40a4-a518-d6fc44ca9cad","system_id":"levelo_inurba_marseille","lat":43.27312,"lon":5.39073,"is_reserved":false,"is_disabled":false,"rental_uris":{"android":"levelo://app?vid=86b8ffd9-d209-40a4-a518-d6fc44ca9cad","ios":"levelo://app?vid=86b8ffd9-d209-40a4-a518-d6fc44ca9cad"},"vehicle_type_id":"4","last_reported":1730103194,"current_range_meters":26800,"station_id":"ce4bhgp2rcd13ifvqfe0","pricing_plan_id":"cebpf4jnsgd1na2vs0mg"},{"bike_id":"18a28ea4-22e5-477c-bd3e-942358665252","system_id":"levelo_inurba_marseille","lat":43.289342,"lon":5.366381,"is_reserved":false,"is_disabled":false,"rental_uris":{"android":"levelo://app?vid=18a28ea4-22e5-477c-bd3e-942358665252","ios":"levelo://app?vid=18a28ea4-22e5-477c-bd3e-942358665252"},"vehicle_type_id":"4","last_reported":1730103194,"current_range_meters":24000,"station_id":"ce4bgt92rcd13ifvqcf0","pricing_plan_id":"cebpf4jnsgd1na2vs0mg"},{"bike_id":"8c62532a-f601-41ff-8656-ed501730a731","system_id":"levelo_inurba_marseille","lat":43.27807,"lon":5.40718,"is_reserved":false,"is_disabled":false,"rental_uris":{"android":"levelo://app?vid=8c62532a-f601-41ff-8656-ed501730a731","ios":"levelo://app?vid=8c62532a-f601-41ff-8656-ed501730a731"},"vehicle_type_id":"4","last_reported":1730103194,"current_range_meters":38800,"station_id":"ce4bhnh2rcd13ifvqgtg","pricing_plan_id":"cebpf4jnsgd1na2vs0mg"},{"bike_id":"c0710a3f-9259-48fc-8baf-5f373be38096","system_id":"levelo_inurba_marseille","lat":43.30615,"lon":5.37239,"is_reserved":false,"is_disabled":false,"rental_uris":{"android":"levelo://app?vid=c0710a3f-9259-48fc-8baf-5f373be38096","ios":"levelo://app?vid=c0710a3f-9259-48fc-8baf-5f373be38096"},"vehicle_type_id":"4","last_reported":1730103194,"current_range_meters":34800,"station_id":"ce4bgqh2rcd13ifvqc4g","pricing_plan_id":"cebpf4jnsgd1na2vs0mg"},{"bike_id":"ca9cd911-25a7-4f50-88a9-a234673fee30","system_id":"levelo_inurba_marseille","lat":43.27215,"lon":5.3918,"is_reserved":false,"is_disabled":false,"rental_uris":{"android":"levelo://app?vid=ca9cd911-25a7-4f50-88a9-a234673fee30","ios":"levelo://app?vid=ca9cd911-25a7-4f50-88a9-a234673fee30"},"vehicle_type_id":"4","last_reported":1730103194,"current_range_meters":30000,"station_id":"ce4bhhp2rcd13ifvqfm0","pricing_plan_id":"cebpf4jnsgd1na2vs0mg"},{"bike_id":"eb74aa32-c49d-4202-bac3-91a96c4d4783","system_id":"levelo_inurba_marseille","lat":43.30803,"lon":5.36991,"is_reserved":false,"is_disabled":false,"rental_uris":{"android":"levelo://app?vid=eb74aa32-c49d-4202-bac3-91a96c4d4783","ios":"levelo://app?vid=eb74aa32-c49d-4202-bac3-91a96c4d4783"},"vehicle_type_id":"4","last_reported":1730103194,"current_range_meters":16800,"station_id":"ce4bguh2rcd13ifvqckg","pricing_plan_id":"cebpf4jnsgd1na2vs0mg"},{"bike_id":"84e374c4-fc62-498f-bc8b-cb0b8a3e0a0c","system_id":"levelo_inurba_marseille","lat":43.25726,"lon":5.41103,"is_reserved":false,"is_disabled":false,"rental_uris":{"android":"levelo://app?vid=84e374c4-fc62-498f-bc8b-cb0b8a3e0a0c","ios":"levelo://app?vid=84e374c4-fc62-498f-bc8b-cb0b8a3e0a0c"},"vehicle_type_id":"4","last_reported":1730103194,"current_range_meters":38400,"station_id":"ce4bhkp2rcd13ifvqgd0","pricing_plan_id":"cebpf4jnsgd1na2vs0mg"},{"bike_id":"0ad713f1-9091-41a0-aeb4-ff06192f73cc","system_id":"levelo_inurba_marseille","lat":43.30155,"lon":5.38087,"is_reserved":false,"is_disabled":false,"rental_uris":{"android":"levelo://app?vid=0ad713f1-9091-41a0-aeb4-ff06192f73cc","ios":"levelo://app?vid=0ad713f1-9091-41a0-aeb4-ff06192f73cc"},"vehicle_type_id":"4","last_reported":1730103194,"current_range_meters":37600,"station_id":"ce4bgjp2rcd13ifvqbh0","pricing_plan_id":"cebpf4jnsgd1na2vs0mg"},{"bike_id":"fca4de4b-4cc2-4fad-9ba2-58c0350dc750","system_id":"levelo_inurba_marseille","lat":43.30274,"lon":5.37714,"is_reserved":false,"is_disabled":false,"rental_uris":{"android":"levelo://app?vid=fca4de4b-4cc2-4fad-9ba2-58c0350dc750","ios":"levelo://app?vid=fca4de4b-4cc2-4fad-9ba2-58c0350dc750"},"vehicle_type_id":"4","last_reported":1730103194,"current_range_meters":10000,"station_id":"ce4bguh2rcd13ifvqcj0","pricing_plan_id":"cebpf4jnsgd1na2vs0mg"},{"bike_id":"0e021d4d-95bb-417b-8442-9b1d7b880222","system_id":"levelo_inurba_marseille","lat":43.28076,"lon":5.39662,"is_reserved":false,"is_disabled":false,"rental_uris":{"android":"levelo://app?vid=0e021d4d-95bb-417b-8442-9b1d7b880222","ios":"levelo://app?vid=0e021d4d-95bb-417b-8442-9b1d7b880222"},"vehicle_type_id":"4","last_reported":1730103194,"current_range_meters":8000,"station_id":"ce4bho12rcd13ifvqh2g","pricing_plan_id":"cebpf4jnsgd1na2vs0mg"},{"bike_id":"b2bc07b7-5a44-4c72-884e-58dcc56da0ab","system_id":"levelo_inurba_marseille","lat":43.29975,"lon":5.38492,"is_reserved":false,"is_disabled":false,"rental_uris":{"android":"levelo://app?vid=b2bc07b7-5a44-4c72-884e-58dcc56da0ab","ios":"levelo://app?vid=b2bc07b7-5a44-4c72-884e-58dcc56da0ab"},"vehicle_type_id":"4","last_reported":1730103194,"current_range_meters":33600,"station_id":"ce4bgj92rcd13ifvqbd0","pricing_plan_id":"cebpf4jnsgd1na2vs0mg"},{"bike_id":"090c043d-c75d-4799-97ee-f225f61fa3ea","system_id":"levelo_inurba_marseille","lat":43.28152,"lon":5.42646,"is_reserved":false,"is_disabled":false,"rental_uris":{"android":"levelo://app?vid=090c043d-c75d-4799-97ee-f225f61fa3ea","ios":"levelo://app?vid=090c043d-c75d-4799-97ee-f225f61fa3ea"},"vehicle_type_id":"4","last_reported":1730103194,"current_range_meters":16400,"station_id":"ce4bhnh2rcd13ifvqgug","pricing_plan_id":"cebpf4jnsgd1na2vs0mg"},{"bike_id":"04be2868-2aab-4e6c-8872-303c9381e9e2","system_id":"levelo_inurba_marseille","lat":43.30063,"lon":5.40079,"is_reserved":false,"is_disabled":false,"rental_uris":{"android":"levelo://app?vid=04be2868-2aab-4e6c-8872-303c9381e9e2","ios":"levelo://app?vid=04be2868-2aab-4e6c-8872-303c9381e9e2"},"vehicle_type_id":"4","last_reported":1730103194,"current_range_meters":9600,"station_id":"ce4bh112rcd13ifvqd90","pricing_plan_id":"cebpf4jnsgd1na2vs0mg"},{"bike_id":"b19d0821-7ae5-4f12-a858-6d7b4ca876de","system_id":"levelo_inurba_marseille","lat":43.30888,"lon":5.36846,"is_reserved":false,"is_disabled":false,"rental_uris":{"android":"levelo://app?vid=b19d0821-7ae5-4f12-a858-6d7b4ca876de","ios":"levelo://app?vid=b19d0821-7ae5-4f12-a858-6d7b4ca876de"},"vehicle_type_id":"4","last_reported":1730103194,"current_range_meters":38800,"station_id":"ce4bgn92rcd13ifvqbvg","pricing_plan_id":"cebpf4jnsgd1na2vs0mg"},{"bike_id":"9f113e3c-8920-4ab8-9198-269cff71881f","system_id":"levelo_inurba_marseille","lat":43.30157,"lon":5.38089,"is_reserved":false,"is_disabled":false,"rental_uris":{"android":"levelo://app?vid=9f113e3c-8920-4ab8-9198-269cff71881f","ios":"levelo://app?vid=9f113e3c-8920-4ab8-9198-269cff71881f"},"vehicle_type_id":"4","last_reported":1730103194,"current_range_meters":30800,"station_id":"ce4bgjp2rcd13ifvqbh0","pricing_plan_id":"cebpf4jnsgd1na2vs0mg"},{"bike_id":"2050649a-1cd7-4a8d-b17b-1746427e677b","system_id":"levelo_inurba_marseille","lat":43.303,"lon":5.36905,"is_reserved":false,"is_disabled":false,"rental_uris":{"android":"levelo://app?vid=2050649a-1cd7-4a8d-b17b-1746427e677b","ios":"levelo://app?vid=2050649a-1cd7-4a8d-b17b-1746427e677b"},"vehicle_type_id":"4","last_reported":1730103194,"current_range_meters":36400,"station_id":"ce4bgqh2rcd13ifvqc5g","pricing_plan_id":"cebpf4jnsgd1na2vs0mg"},{"bike_id":"2ab6a876-b383-42be-8174-3b09d00c2764","system_id":"levelo_inurba_marseille","lat":43.22925,"lon":5.35375,"is_reserved":false,"is_disabled":false,"rental_uris":{"android":"levelo://app?vid=2ab6a876-b383-42be-8174-3b09d00c2764","ios":"levelo://app?vid=2ab6a876-b383-42be-8174-3b09d00c2764"},"vehicle_type_id":"4","last_reported":1730103194,"current_range_meters":37600,"station_id":"cpo3532slgdg3j2ikp40","pricing_plan_id":"cebpf4jnsgd1na2vs0mg"},{"bike_id":"c06fca11-d9ce-434c-b6b9-1f270f4699a8","system_id":"levelo_inurba_marseille","lat":43.267548,"lon":5.38334,"is_reserved":false,"is_disabled":false,"rental_uris":{"android":"levelo://app?vid=c06fca11-d9ce-434c-b6b9-1f270f4699a8","ios":"levelo://app?vid=c06fca11-d9ce-434c-b6b9-1f270f4699a8"},"vehicle_type_id":"4","last_reported":1730103194,"current_range_meters":38000,"station_id":"ce4bhg92rcd13ifvqf90","pricing_plan_id":"cebpf4jnsgd1na2vs0mg"},{"bike_id":"e9d2627b-0323-4f6a-bb61-f8fed2e2d6e2","system_id":"levelo_inurba_marseille","lat":43.24175,"lon":5.3971,"is_reserved":false,"is_disabled":false,"rental_uris":{"android":"levelo://app?vid=e9d2627b-0323-4f6a-bb61-f8fed2e2d6e2","ios":"levelo://app?vid=e9d2627b-0323-4f6a-bb61-f8fed2e2d6e2"},"vehicle_type_id":"4","last_reported":1730103194,"current_range_meters":9600,"station_id":"ce4bhn12rcd13ifvqgpg","pricing_plan_id":"cebpf4jnsgd1na2vs0mg"},{"bike_id":"711ea989-9bbd-4a86-a947-8e287449186f","system_id":"levelo_inurba_marseille","lat":43.22922,"lon":5.35377,"is_reserved":false,"is_disabled":false,"rental_uris":{"android":"levelo://app?vid=711ea989-9bbd-4a86-a947-8e287449186f","ios":"levelo://app?vid=711ea989-9bbd-4a86-a947-8e287449186f"},"vehicle_type_id":"4","last_reported":1730103194,"current_range_meters":37600,"station_id":"cpo3532slgdg3j2ikp40","pricing_plan_id":"cebpf4jnsgd1na2vs0mg"},{"bike_id":"c5791810-6641-4af9-87c3-fc70694e4cde","system_id":"levelo_inurba_marseille","lat":43.2572,"lon":5.41109,"is_reserved":false,"is_disabled":false,"rental_uris":{"android":"levelo://app?vid=c5791810-6641-4af9-87c3-fc70694e4cde","ios":"levelo://app?vid=c5791810-6641-4af9-87c3-fc70694e4cde"},"vehicle_type_id":"4","last_reported":1730103194,"current_range_meters":6400,"station_id":"ce4bhkp2rcd13ifvqgd0","pricing_plan_id":"cebpf4jnsgd1na2vs0mg"},{"bike_id":"27f39214-437b-402f-ba70-e8fd46f4e41b","system_id":"levelo_inurba_marseille","lat":43.2851,"lon":5.36876,"is_reserved":false,"is_disabled":false,"rental_uris":{"android":"levelo://app?vid=27f39214-437b-402f-ba70-e8fd46f4e41b","ios":"levelo://app?vid=27f39214-437b-402f-ba70-e8fd46f4e41b"},"vehicle_type_id":"4","last_reported":1730103194,"current_range_meters":14800,"station_id":"","pricing_plan_id":"cebpf4jnsgd1na2vs0mg"},{"bike_id":"d1dacee6-8f47-4ca5-823b-a2ea6c3413e8","system_id":"levelo_inurba_marseille","lat":43.23193,"lon":5.3555,"is_reserved":false,"is_disabled":false,"rental_uris":{"android":"levelo://app?vid=d1dacee6-8f47-4ca5-823b-a2ea6c3413e8","ios":"levelo://app?vid=d1dacee6-8f47-4ca5-823b-a2ea6c3413e8"},"vehicle_type_id":"4","last_reported":1730103194,"current_range_meters":36800,"station_id":"ce4bhu92rcd13ifvqi70","pricing_plan_id":"cebpf4jnsgd1na2vs0mg"},{"bike_id":"f46c2cd5-06c8-4818-b62f-ac21d641618a","system_id":"levelo_inurba_marseille","lat":43.29565,"lon":5.37506,"is_reserved":false,"is_disabled":false,"rental_uris":{"android":"levelo://app?vid=f46c2cd5-06c8-4818-b62f-ac21d641618a","ios":"levelo://app?vid=f46c2cd5-06c8-4818-b62f-ac21d641618a"},"vehicle_type_id":"4","last_reported":1730103194,"current_range_meters":36800,"station_id":"ce4bgh92rcd13ifvqb50","pricing_plan_id":"cebpf4jnsgd1na2vs0mg"},{"bike_id":"03d55284-2761-4f0a-99ad-de6474a188e4","system_id":"levelo_inurba_marseille","lat":43.30459,"lon":5.37903,"is_reserved":false,"is_disabled":false,"rental_uris":{"android":"levelo://app?vid=03d55284-2761-4f0a-99ad-de6474a188e4","ios":"levelo://app?vid=03d55284-2761-4f0a-99ad-de6474a188e4"},"vehicle_type_id":"4","last_reported":1730103194,"current_range_meters":35200,"station_id":"ce4bgup2rcd13ifvqcn0","pricing_plan_id":"cebpf4jnsgd1na2vs0mg"},{"bike_id":"c15bb78c-79db-454d-9049-5376c32a3e58","system_id":"levelo_inurba_marseille","lat":43.25088,"lon":5.3952,"is_reserved":false,"is_disabled":false,"rental_uris":{"android":"levelo://app?vid=c15bb78c-79db-454d-9049-5376c32a3e58","ios":"levelo://app?vid=c15bb78c-79db-454d-9049-5376c32a3e58"},"vehicle_type_id":"4","last_reported":1730103194,"current_range_meters":20400,"station_id":"ce4bhm12rcd13ifvqgkg","pricing_plan_id":"cebpf4jnsgd1na2vs0mg"},{"bike_id":"f86ffbbb-c6b3-4c95-8c77-72cb73d6b6a3","system_id":"levelo_inurba_marseille","lat":43.26031,"lon":5.37541,"is_reserved":false,"is_disabled":false,"rental_uris":{"android":"levelo://app?vid=f86ffbbb-c6b3-4c95-8c77-72cb73d6b6a3","ios":"levelo://app?vid=f86ffbbb-c6b3-4c95-8c77-72cb73d6b6a3"},"vehicle_type_id":"4","last_reported":1730103194,"current_range_meters":38800,"station_id":"ce4bhgh2rcd13ifvqfa0","pricing_plan_id":"cebpf4jnsgd1na2vs0mg"},{"bike_id":"b652026e-8893-4b05-8312-42061658ba51","system_id":"levelo_inurba_marseille","lat":43.29043,"lon":5.3996,"is_reserved":false,"is_disabled":false,"rental_uris":{"android":"levelo://app?vid=b652026e-8893-4b05-8312-42061658ba51","ios":"levelo://app?vid=b652026e-8893-4b05-8312-42061658ba51"},"vehicle_type_id":"4","last_reported":1730103194,"current_range_meters":8800,"station_id":"ce4bh392rcd13ifvqdm0","pricing_plan_id":"cebpf4jnsgd1na2vs0mg"},{"bike_id":"062c37a5-8c98-4262-a368-0baffa13b81a","system_id":"levelo_inurba_marseille","lat":43.295506,"lon":5.422864,"is_reserved":false,"is_disabled":false,"rental_uris":{"android":"levelo://app?vid=062c37a5-8c98-4262-a368-0baffa13b81a","ios":"levelo://app?vid=062c37a5-8c98-4262-a368-0baffa13b81a"},"vehicle_type_id":"4","last_reported":1730103194,"current_range_meters":18800,"station_id":"ce4bhph2rcd13ifvqhdg","pricing_plan_id":"cebpf4jnsgd1na2vs0mg"},{"bike_id":"a20baa14-9c7f-4d28-bb8c-c563b2bd579c","system_id":"levelo_inurba_marseille","lat":43.29031,"lon":5.38114,"is_reserved":false,"is_disabled":false,"rental_uris":{"android":"levelo://app?vid=a20baa14-9c7f-4d28-bb8c-c563b2bd579c","ios":"levelo://app?vid=a20baa14-9c7f-4d28-bb8c-c563b2bd579c"},"vehicle_type_id":"4","last_reported":1730103194,"current_range_meters":35600,"station_id":"ce4bh4p2rcd13ifvqe1g","pricing_plan_id":"cebpf4jnsgd1na2vs0mg"},{"bike_id":"2a4b3e5a-17d0-4019-b3ee-401daa0d2ca0","system_id":"levelo_inurba_marseille","lat":43.30471,"lon":5.37894,"is_reserved":false,"is_disabled":false,"rental_uris":{"android":"levelo://app?vid=2a4b3e5a-17d0-4019-b3ee-401daa0d2ca0","ios":"levelo://app?vid=2a4b3e5a-17d0-4019-b3ee-401daa0d2ca0"},"vehicle_type_id":"4","last_reported":1730103194,"current_range_meters":34800,"station_id":"ce4bgup2rcd13ifvqcn0","pricing_plan_id":"cebpf4jnsgd1na2vs0mg"},{"bike_id":"f166fcae-cd80-4a8e-9519-64e16d8dd52c","system_id":"levelo_inurba_marseille","lat":43.30911,"lon":5.36847,"is_reserved":false,"is_disabled":false,"rental_uris":{"android":"levelo://app?vid=f166fcae-cd80-4a8e-9519-64e16d8dd52c","ios":"levelo://app?vid=f166fcae-cd80-4a8e-9519-64e16d8dd52c"},"vehicle_type_id":"4","last_reported":1730103194,"current_range_meters":28400,"station_id":"ce4bgn92rcd13ifvqbvg","pricing_plan_id":"cebpf4jnsgd1na2vs0mg"},{"bike_id":"b953eceb-3ed9-4394-8d28-9bc7a648a5cb","system_id":"levelo_inurba_marseille","lat":43.23146,"lon":5.43708,"is_reserved":false,"is_disabled":false,"rental_uris":{"android":"levelo://app?vid=b953eceb-3ed9-4394-8d28-9bc7a648a5cb","ios":"levelo://app?vid=b953eceb-3ed9-4394-8d28-9bc7a648a5cb"},"vehicle_type_id":"4","last_reported":1730103194,"current_range_meters":14800,"station_id":"ce4bhmp2rcd13ifvqgog","pricing_plan_id":"cebpf4jnsgd1na2vs0mg"},{"bike_id":"49d48a20-ca55-4e3a-abd2-6bef373d1253","system_id":"levelo_inurba_marseille","lat":43.230611,"lon":5.354941,"is_reserved":false,"is_disabled":false,"rental_uris":{"android":"levelo://app?vid=49d48a20-ca55-4e3a-abd2-6bef373d1253","ios":"levelo://app?vid=49d48a20-ca55-4e3a-abd2-6bef373d1253"},"vehicle_type_id":"4","last_reported":1730103194,"current_range_meters":36800,"station_id":"cpo3342slgdg3j2ifvpg","pricing_plan_id":"cebpf4jnsgd1na2vs0mg"},{"bike_id":"6875a1a6-32b9-4783-93f5-84a3a0c85f67","system_id":"levelo_inurba_marseille","lat":43.23066,"lon":5.35491,"is_reserved":false,"is_disabled":false,"rental_uris":{"android":"levelo://app?vid=6875a1a6-32b9-4783-93f5-84a3a0c85f67","ios":"levelo://app?vid=6875a1a6-32b9-4783-93f5-84a3a0c85f67"},"vehicle_type_id":"4","last_reported":1730103194,"current_range_meters":20400,"station_id":"cpo3342slgdg3j2ifvpg","pricing_plan_id":"cebpf4jnsgd1na2vs0mg"},{"bike_id":"94d6eccc-b6d9-4b50-b069-cf8bef7cfe2b","system_id":"levelo_inurba_marseille","lat":43.29915,"lon":5.37483,"is_reserved":false,"is_disabled":false,"rental_uris":{"android":"levelo://app?vid=94d6eccc-b6d9-4b50-b069-cf8bef7cfe2b","ios":"levelo://app?vid=94d6eccc-b6d9-4b50-b069-cf8bef7cfe2b"},"vehicle_type_id":"4","last_reported":1730103194,"current_range_meters":36000,"station_id":"ce4bgjh2rcd13ifvqbg0","pricing_plan_id":"cebpf4jnsgd1na2vs0mg"},{"bike_id":"f9d8fe85-375c-42c9-9c8e-cbdc12420b5d","system_id":"levelo_inurba_marseille","lat":43.26805,"lon":5.4027,"is_reserved":false,"is_disabled":false,"rental_uris":{"android":"levelo://app?vid=f9d8fe85-375c-42c9-9c8e-cbdc12420b5d","ios":"levelo://app?vid=f9d8fe85-375c-42c9-9c8e-cbdc12420b5d"},"vehicle_type_id":"4","last_reported":1730103194,"current_range_meters":38400,"station_id":"ce501612rcd8frsf0b60","pricing_plan_id":"cebpf4jnsgd1na2vs0mg"},{"bike_id":"90105efd-8841-4220-8302-dd66fd9355b9","system_id":"levelo_inurba_marseille","lat":43.30906,"lon":5.36845,"is_reserved":false,"is_disabled":false,"rental_uris":{"android":"levelo://app?vid=90105efd-8841-4220-8302-dd66fd9355b9","ios":"levelo://app?vid=90105efd-8841-4220-8302-dd66fd9355b9"},"vehicle_type_id":"4","last_reported":1730103194,"current_range_meters":30400,"station_id":"ce4bgn92rcd13ifvqbvg","pricing_plan_id":"cebpf4jnsgd1na2vs0mg"},{"bike_id":"e89036ab-06cb-459b-91f1-830ff3435de6","system_id":"levelo_inurba_marseille","lat":43.23188,"lon":5.35543,"is_reserved":false,"is_disabled":false,"rental_uris":{"android":"levelo://app?vid=e89036ab-06cb-459b-91f1-830ff3435de6","ios":"levelo://app?vid=e89036ab-06cb-459b-91f1-830ff3435de6"},"vehicle_type_id":"4","last_reported":1730103194,"current_range_meters":37600,"station_id":"ce4bhu92rcd13ifvqi70","pricing_plan_id":"cebpf4jnsgd1na2vs0mg"},{"bike_id":"29e4d27e-c275-400d-963d-7448af940e61","system_id":"levelo_inurba_marseille","lat":43.32338,"lon":5.40622,"is_reserved":false,"is_disabled":false,"rental_uris":{"android":"levelo://app?vid=29e4d27e-c275-400d-963d-7448af940e61","ios":"levelo://app?vid=29e4d27e-c275-400d-963d-7448af940e61"},"vehicle_type_id":"4","last_reported":1730103194,"current_range_meters":16800,"station_id":"ce4bhq92rcd13ifvqhjg","pricing_plan_id":"cebpf4jnsgd1na2vs0mg"},{"bike_id":"66fb00a7-295c-492a-b5c9-538d3dea086f","system_id":"levelo_inurba_marseille","lat":43.23166,"lon":5.43716,"is_reserved":false,"is_disabled":false,"rental_uris":{"android":"levelo://app?vid=66fb00a7-295c-492a-b5c9-538d3dea086f","ios":"levelo://app?vid=66fb00a7-295c-492a-b5c9-538d3dea086f"},"vehicle_type_id":"4","last_reported":1730103194,"current_range_meters":13600,"station_id":"","pricing_plan_id":"cebpf4jnsgd1na2vs0mg"},{"bike_id":"c037433a-6300-4d39-8da4-a5676b2bb3eb","system_id":"levelo_inurba_marseille","lat":43.33758,"lon":5.37458,"is_reserved":false,"is_disabled":false,"rental_uris":{"android":"levelo://app?vid=c037433a-6300-4d39-8da4-a5676b2bb3eb","ios":"levelo://app?vid=c037433a-6300-4d39-8da4-a5676b2bb3eb"},"vehicle_type_id":"4","last_reported":1730103194,"current_range_meters":38800,"station_id":"","pricing_plan_id":"cebpf4jnsgd1na2vs0mg"},{"bike_id":"b1d55027-2f8a-47e1-9245-9ac2ee1613ea","system_id":"levelo_inurba_marseille","lat":43.30891,"lon":5.3719,"is_reserved":false,"is_disabled":false,"rental_uris":{"android":"levelo://app?vid=b1d55027-2f8a-47e1-9245-9ac2ee1613ea","ios":"levelo://app?vid=b1d55027-2f8a-47e1-9245-9ac2ee1613ea"},"vehicle_type_id":"4","last_reported":1730103194,"current_range_meters":20800,"station_id":"ce4bguh2rcd13ifvqckg","pricing_plan_id":"cebpf4jnsgd1na2vs0mg"},{"bike_id":"7fe76d9c-88a1-4c85-8e5f-9f86d7557849","system_id":"levelo_inurba_marseille","lat":43.2315,"lon":5.4371,"is_reserved":false,"is_disabled":false,"rental_uris":{"android":"levelo://app?vid=7fe76d9c-88a1-4c85-8e5f-9f86d7557849","ios":"levelo://app?vid=7fe76d9c-88a1-4c85-8e5f-9f86d7557849"},"vehicle_type_id":"4","last_reported":1730103194,"current_range_meters":22400,"station_id":"ce4bhmp2rcd13ifvqgog","pricing_plan_id":"cebpf4jnsgd1na2vs0mg"},{"bike_id":"5d013205-968f-46f0-8cb2-f55d13ad5ff4","system_id":"levelo_inurba_marseille","lat":43.32475,"lon":5.36573,"is_reserved":false,"is_disabled":false,"rental_uris":{"android":"levelo://app?vid=5d013205-968f-46f0-8cb2-f55d13ad5ff4","ios":"levelo://app?vid=5d013205-968f-46f0-8cb2-f55d13ad5ff4"},"vehicle_type_id":"4","last_reported":1730103194,"current_range_meters":37600,"station_id":"ce4bhs12rcd13ifvqhvg","pricing_plan_id":"cebpf4jnsgd1na2vs0mg"},{"bike_id":"4aee1b18-b4c8-4ec8-a58f-6833accd77f8","system_id":"levelo_inurba_marseille","lat":43.2418,"lon":5.39717,"is_reserved":false,"is_disabled":false,"rental_uris":{"android":"levelo://app?vid=4aee1b18-b4c8-4ec8-a58f-6833accd77f8","ios":"levelo://app?vid=4aee1b18-b4c8-4ec8-a58f-6833accd77f8"},"vehicle_type_id":"4","last_reported":1730103194,"current_range_meters":18800,"station_id":"ce4bhn12rcd13ifvqgpg","pricing_plan_id":"cebpf4jnsgd1na2vs0mg"},{"bike_id":"1dac9f90-505a-4945-be02-99158a4cbe84","system_id":"levelo_inurba_marseille","lat":43.29358,"lon":5.37831,"is_reserved":false,"is_disabled":false,"rental_uris":{"android":"levelo://app?vid=1dac9f90-505a-4945-be02-99158a4cbe84","ios":"levelo://app?vid=1dac9f90-505a-4945-be02-99158a4cbe84"},"vehicle_type_id":"4","last_reported":1730103194,"current_range_meters":5600,"station_id":"ce4bgjh2rcd13ifvqbf0","pricing_plan_id":"cebpf4jnsgd1na2vs0mg"},{"bike_id":"28e348df-b548-40c0-a750-3cf3466aca98","system_id":"levelo_inurba_marseille","lat":43.30151,"lon":5.381,"is_reserved":false,"is_disabled":false,"rental_uris":{"android":"levelo://app?vid=28e348df-b548-40c0-a750-3cf3466aca98","ios":"levelo://app?vid=28e348df-b548-40c0-a750-3cf3466aca98"},"vehicle_type_id":"4","last_reported":1730103194,"current_range_meters":8400,"station_id":"ce4bgjp2rcd13ifvqbh0","pricing_plan_id":"cebpf4jnsgd1na2vs0mg"},{"bike_id":"c9f299e7-44b3-4adc-a93d-769d4eadb8bd","system_id":"levelo_inurba_marseille","lat":43.231518,"lon":5.437167,"is_reserved":false,"is_disabled":false,"rental_uris":{"android":"levelo://app?vid=c9f299e7-44b3-4adc-a93d-769d4eadb8bd","ios":"levelo://app?vid=c9f299e7-44b3-4adc-a93d-769d4eadb8bd"},"vehicle_type_id":"4","last_reported":1730103194,"current_range_meters":34000,"station_id":"ce4bhmp2rcd13ifvqgog","pricing_plan_id":"cebpf4jnsgd1na2vs0mg"},{"bike_id":"ccbbcc3a-57dc-4100-9e85-b0b48ef3c3ea","system_id":"levelo_inurba_marseille","lat":43.30153,"lon":5.38084,"is_reserved":false,"is_disabled":false,"rental_uris":{"android":"levelo://app?vid=ccbbcc3a-57dc-4100-9e85-b0b48ef3c3ea","ios":"levelo://app?vid=ccbbcc3a-57dc-4100-9e85-b0b48ef3c3ea"},"vehicle_type_id":"4","last_reported":1730103194,"current_range_meters":27200,"station_id":"ce4bgjp2rcd13ifvqbh0","pricing_plan_id":"cebpf4jnsgd1na2vs0mg"},{"bike_id":"8b1435f2-e9dd-44c1-a5f6-f4cfccf31c9f","system_id":"levelo_inurba_marseille","lat":43.33108,"lon":5.38211,"is_reserved":false,"is_disabled":false,"rental_uris":{"android":"levelo://app?vid=8b1435f2-e9dd-44c1-a5f6-f4cfccf31c9f","ios":"levelo://app?vid=8b1435f2-e9dd-44c1-a5f6-f4cfccf31c9f"},"vehicle_type_id":"4","last_reported":1730103194,"current_range_meters":30400,"station_id":"","pricing_plan_id":"cebpf4jnsgd1na2vs0mg"},{"bike_id":"1959dbd9-0ee0-478d-a3dc-b3a0dfb37df2","system_id":"levelo_inurba_marseille","lat":43.30539,"lon":5.36538,"is_reserved":false,"is_disabled":false,"rental_uris":{"android":"levelo://app?vid=1959dbd9-0ee0-478d-a3dc-b3a0dfb37df2","ios":"levelo://app?vid=1959dbd9-0ee0-478d-a3dc-b3a0dfb37df2"},"vehicle_type_id":"4","last_reported":1730103194,"current_range_meters":36000,"station_id":"ce4bgs12rcd13ifvqcag","pricing_plan_id":"cebpf4jnsgd1na2vs0mg"},{"bike_id":"3d822701-cfd6-42b9-b711-72bd3e903ecb","system_id":"levelo_inurba_marseille","lat":43.25107,"lon":5.40323,"is_reserved":false,"is_disabled":false,"rental_uris":{"android":"levelo://app?vid=3d822701-cfd6-42b9-b711-72bd3e903ecb","ios":"levelo://app?vid=3d822701-cfd6-42b9-b711-72bd3e903ecb"},"vehicle_type_id":"4","last_reported":1730103194,"current_range_meters":11600,"station_id":"ce4bhlh2rcd13ifvqgig","pricing_plan_id":"cebpf4jnsgd1na2vs0mg"},{"bike_id":"f2510b72-7e55-4d25-ac93-c226c89cf60e","system_id":"levelo_inurba_marseille","lat":43.30301,"lon":5.36896,"is_reserved":false,"is_disabled":false,"rental_uris":{"android":"levelo://app?vid=f2510b72-7e55-4d25-ac93-c226c89cf60e","ios":"levelo://app?vid=f2510b72-7e55-4d25-ac93-c226c89cf60e"},"vehicle_type_id":"4","last_reported":1730103194,"current_range_meters":36800,"station_id":"ce4bgqh2rcd13ifvqc5g","pricing_plan_id":"cebpf4jnsgd1na2vs0mg"},{"bike_id":"247a689a-40ba-4468-aac4-f7f54e12b286","system_id":"levelo_inurba_marseille","lat":43.26193,"lon":5.37448,"is_reserved":false,"is_disabled":false,"rental_uris":{"android":"levelo://app?vid=247a689a-40ba-4468-aac4-f7f54e12b286","ios":"levelo://app?vid=247a689a-40ba-4468-aac4-f7f54e12b286"},"vehicle_type_id":"4","last_reported":1730103194,"current_range_meters":22800,"station_id":"ce4bhgp2rcd13ifvqfc0","pricing_plan_id":"cebpf4jnsgd1na2vs0mg"},{"bike_id":"ef915c69-a746-473b-bdc6-ca2cdbe5bac9","system_id":"levelo_inurba_marseille","lat":43.32284,"lon":5.38279,"is_reserved":false,"is_disabled":false,"rental_uris":{"android":"levelo://app?vid=ef915c69-a746-473b-bdc6-ca2cdbe5bac9","ios":"levelo://app?vid=ef915c69-a746-473b-bdc6-ca2cdbe5bac9"},"vehicle_type_id":"4","last_reported":1730103194,"current_range_meters":39200,"station_id":"ce4bhr12rcd13ifvqhqg","pricing_plan_id":"cebpf4jnsgd1na2vs0mg"},{"bike_id":"6e4158cd-dbb8-468e-827a-350a592e6481","system_id":"levelo_inurba_marseille","lat":43.30132,"lon":5.37426,"is_reserved":false,"is_disabled":false,"rental_uris":{"android":"levelo://app?vid=6e4158cd-dbb8-468e-827a-350a592e6481","ios":"levelo://app?vid=6e4158cd-dbb8-468e-827a-350a592e6481"},"vehicle_type_id":"4","last_reported":1730103194,"current_range_meters":24400,"station_id":"ce4bgs92rcd13ifvqcc0","pricing_plan_id":"cebpf4jnsgd1na2vs0mg"},{"bike_id":"cd8988cf-34e0-4cd8-92c1-67d3cd8c964e","system_id":"levelo_inurba_marseille","lat":43.23955,"lon":5.36628,"is_reserved":false,"is_disabled":false,"rental_uris":{"android":"levelo://app?vid=cd8988cf-34e0-4cd8-92c1-67d3cd8c964e","ios":"levelo://app?vid=cd8988cf-34e0-4cd8-92c1-67d3cd8c964e"},"vehicle_type_id":"4","last_reported":1730103194,"current_range_meters":11200,"station_id":"ce4bhi12rcd13ifvqfp0","pricing_plan_id":"cebpf4jnsgd1na2vs0mg"},{"bike_id":"31731729-3cdf-4e18-bb74-84a41fc61abe","system_id":"levelo_inurba_marseille","lat":43.299,"lon":5.43676,"is_reserved":false,"is_disabled":false,"rental_uris":{"android":"levelo://app?vid=31731729-3cdf-4e18-bb74-84a41fc61abe","ios":"levelo://app?vid=31731729-3cdf-4e18-bb74-84a41fc61abe"},"vehicle_type_id":"4","last_reported":1730103194,"current_range_meters":36000,"station_id":"ce4bhpp2rcd13ifvqhfg","pricing_plan_id":"cebpf4jnsgd1na2vs0mg"},{"bike_id":"24c053cc-373c-4d62-8b09-84a4d2361cd9","system_id":"levelo_inurba_marseille","lat":43.31347,"lon":5.36693,"is_reserved":false,"is_disabled":false,"rental_uris":{"android":"levelo://app?vid=24c053cc-373c-4d62-8b09-84a4d2361cd9","ios":"levelo://app?vid=24c053cc-373c-4d62-8b09-84a4d2361cd9"},"vehicle_type_id":"4","last_reported":1730103194,"current_range_meters":38800,"station_id":"ce4bgr92rcd13ifvqc6g","pricing_plan_id":"cebpf4jnsgd1na2vs0mg"},{"bike_id":"8855e967-b244-4cd4-8977-f3e8557936f2","system_id":"levelo_inurba_marseille","lat":43.28268,"lon":5.35062,"is_reserved":false,"is_disabled":false,"rental_uris":{"android":"levelo://app?vid=8855e967-b244-4cd4-8977-f3e8557936f2","ios":"levelo://app?vid=8855e967-b244-4cd4-8977-f3e8557936f2"},"vehicle_type_id":"4","last_reported":1730103194,"current_range_meters":34800,"station_id":"ce4bhbp2rcd13ifvqerg","pricing_plan_id":"cebpf4jnsgd1na2vs0mg"},{"bike_id":"4461f702-9d41-45c6-b89e-9f584ce5f30d","system_id":"levelo_inurba_marseille","lat":43.28938,"lon":5.36394,"is_reserved":false,"is_disabled":false,"rental_uris":{"android":"levelo://app?vid=4461f702-9d41-45c6-b89e-9f584ce5f30d","ios":"levelo://app?vid=4461f702-9d41-45c6-b89e-9f584ce5f30d"},"vehicle_type_id":"4","last_reported":1730103194,"current_range_meters":27600,"station_id":"ce4bhc92rcd13ifvqetg","pricing_plan_id":"cebpf4jnsgd1na2vs0mg"},{"bike_id":"ed359f0a-e127-4b75-a938-306e58651b29","system_id":"levelo_inurba_marseille","lat":43.30286,"lon":5.37706,"is_reserved":false,"is_disabled":false,"rental_uris":{"android":"levelo://app?vid=ed359f0a-e127-4b75-a938-306e58651b29","ios":"levelo://app?vid=ed359f0a-e127-4b75-a938-306e58651b29"},"vehicle_type_id":"4","last_reported":1730103194,"current_range_meters":24800,"station_id":"ce4bguh2rcd13ifvqcj0","pricing_plan_id":"cebpf4jnsgd1na2vs0mg"},{"bike_id":"cb1dfec9-10d1-4857-876c-42659ada593e","system_id":"levelo_inurba_marseille","lat":43.29943,"lon":5.37175,"is_reserved":false,"is_disabled":false,"rental_uris":{"android":"levelo://app?vid=cb1dfec9-10d1-4857-876c-42659ada593e","ios":"levelo://app?vid=cb1dfec9-10d1-4857-876c-42659ada593e"},"vehicle_type_id":"4","last_reported":1730103194,"current_range_meters":30000,"station_id":"","pricing_plan_id":"cebpf4jnsgd1na2vs0mg"},{"bike_id":"2104c826-6d75-44d1-abf6-37a05a059a7c","system_id":"levelo_inurba_marseille","lat":43.27056,"lon":5.39963,"is_reserved":false,"is_disabled":false,"rental_uris":{"android":"levelo://app?vid=2104c826-6d75-44d1-abf6-37a05a059a7c","ios":"levelo://app?vid=2104c826-6d75-44d1-abf6-37a05a059a7c"},"vehicle_type_id":"4","last_reported":1730103194,"current_range_meters":36800,"station_id":"","pricing_plan_id":"cebpf4jnsgd1na2vs0mg"},{"bike_id":"bea43885-0856-455e-ac3f-50e3c52f4d9e","system_id":"levelo_inurba_marseille","lat":43.251,"lon":5.40315,"is_reserved":false,"is_disabled":false,"rental_uris":{"android":"levelo://app?vid=bea43885-0856-455e-ac3f-50e3c52f4d9e","ios":"levelo://app?vid=bea43885-0856-455e-ac3f-50e3c52f4d9e"},"vehicle_type_id":"4","last_reported":1730103194,"current_range_meters":38000,"station_id":"ce4bhlh2rcd13ifvqgig","pricing_plan_id":"cebpf4jnsgd1na2vs0mg"},{"bike_id":"9ac06857-e5cf-459f-87b4-75d0710bcab5","system_id":"levelo_inurba_marseille","lat":43.32336,"lon":5.40618,"is_reserved":false,"is_disabled":false,"rental_uris":{"android":"levelo://app?vid=9ac06857-e5cf-459f-87b4-75d0710bcab5","ios":"levelo://app?vid=9ac06857-e5cf-459f-87b4-75d0710bcab5"},"vehicle_type_id":"4","last_reported":1730103194,"current_range_meters":12800,"station_id":"ce4bhq92rcd13ifvqhjg","pricing_plan_id":"cebpf4jnsgd1na2vs0mg"},{"bike_id":"22ca0989-6470-4735-a8b1-883f9bf848b8","system_id":"levelo_inurba_marseille","lat":43.24543,"lon":5.3952,"is_reserved":false,"is_disabled":false,"rental_uris":{"android":"levelo://app?vid=22ca0989-6470-4735-a8b1-883f9bf848b8","ios":"levelo://app?vid=22ca0989-6470-4735-a8b1-883f9bf848b8"},"vehicle_type_id":"4","last_reported":1730103194,"current_range_meters":38800,"station_id":"ce4bhlp2rcd13ifvqgjg","pricing_plan_id":"cebpf4jnsgd1na2vs0mg"},{"bike_id":"aacb3cb6-ebb2-4c9a-9d59-1efc9a1b694e","system_id":"levelo_inurba_marseille","lat":43.25103,"lon":5.40323,"is_reserved":false,"is_disabled":false,"rental_uris":{"android":"levelo://app?vid=aacb3cb6-ebb2-4c9a-9d59-1efc9a1b694e","ios":"levelo://app?vid=aacb3cb6-ebb2-4c9a-9d59-1efc9a1b694e"},"vehicle_type_id":"4","last_reported":1730103194,"current_range_meters":9200,"station_id":"ce4bhlh2rcd13ifvqgig","pricing_plan_id":"cebpf4jnsgd1na2vs0mg"},{"bike_id":"fe0f4ad9-8221-48ed-be5d-c64547a2f47a","system_id":"levelo_inurba_marseille","lat":43.28629,"lon":5.38351,"is_reserved":false,"is_disabled":false,"rental_uris":{"android":"levelo://app?vid=fe0f4ad9-8221-48ed-be5d-c64547a2f47a","ios":"levelo://app?vid=fe0f4ad9-8221-48ed-be5d-c64547a2f47a"},"vehicle_type_id":"4","last_reported":1730103194,"current_range_meters":23200,"station_id":"ce4bh4p2rcd13ifvqe1g","pricing_plan_id":"cebpf4jnsgd1na2vs0mg"},{"bike_id":"9adafdd8-3240-48a9-a8cf-b77695dc96b2","system_id":"levelo_inurba_marseille","lat":43.32364,"lon":5.38883,"is_reserved":false,"is_disabled":false,"rental_uris":{"android":"levelo://app?vid=9adafdd8-3240-48a9-a8cf-b77695dc96b2","ios":"levelo://app?vid=9adafdd8-3240-48a9-a8cf-b77695dc96b2"},"vehicle_type_id":"4","last_reported":1730103194,"current_range_meters":38000,"station_id":"ce4bhqp2rcd13ifvqhog","pricing_plan_id":"cebpf4jnsgd1na2vs0mg"},{"bike_id":"8d66ba2e-e771-4c67-99ad-ef2d113002e3","system_id":"levelo_inurba_marseille","lat":43.25082,"lon":5.39517,"is_reserved":false,"is_disabled":false,"rental_uris":{"android":"levelo://app?vid=8d66ba2e-e771-4c67-99ad-ef2d113002e3","ios":"levelo://app?vid=8d66ba2e-e771-4c67-99ad-ef2d113002e3"},"vehicle_type_id":"4","last_reported":1730103194,"current_range_meters":39200,"station_id":"ce4bhm12rcd13ifvqgkg","pricing_plan_id":"cebpf4jnsgd1na2vs0mg"},{"bike_id":"98ca223a-8c46-4f02-9218-2cb2e554a3a3","system_id":"levelo_inurba_marseille","lat":43.26782,"lon":5.39416,"is_reserved":false,"is_disabled":false,"rental_uris":{"android":"levelo://app?vid=98ca223a-8c46-4f02-9218-2cb2e554a3a3","ios":"levelo://app?vid=98ca223a-8c46-4f02-9218-2cb2e554a3a3"},"vehicle_type_id":"4","last_reported":1730103194,"current_range_meters":38400,"station_id":"ce4bhh12rcd13ifvqfg0","pricing_plan_id":"cebpf4jnsgd1na2vs0mg"},{"bike_id":"3bfc8956-bd70-4cd7-83ff-1e40935f485a","system_id":"levelo_inurba_marseille","lat":43.29031,"lon":5.37573,"is_reserved":false,"is_disabled":false,"rental_uris":{"android":"levelo://app?vid=3bfc8956-bd70-4cd7-83ff-1e40935f485a","ios":"levelo://app?vid=3bfc8956-bd70-4cd7-83ff-1e40935f485a"},"vehicle_type_id":"4","last_reported":1730103194,"current_range_meters":35200,"station_id":"ce4bh692rcd13ifvqe90","pricing_plan_id":"cebpf4jnsgd1na2vs0mg"},{"bike_id":"c8713419-a835-43b9-ac75-b05adb95bea9","system_id":"levelo_inurba_marseille","lat":43.29553,"lon":5.42286,"is_reserved":false,"is_disabled":false,"rental_uris":{"android":"levelo://app?vid=c8713419-a835-43b9-ac75-b05adb95bea9","ios":"levelo://app?vid=c8713419-a835-43b9-ac75-b05adb95bea9"},"vehicle_type_id":"4","last_reported":1730103194,"current_range_meters":39200,"station_id":"ce4bhph2rcd13ifvqhdg","pricing_plan_id":"cebpf4jnsgd1na2vs0mg"},{"bike_id":"612cf43d-6624-4c64-a8a8-1bf41fca40e0","system_id":"levelo_inurba_marseille","lat":43.30555,"lon":5.36695,"is_reserved":false,"is_disabled":false,"rental_uris":{"android":"levelo://app?vid=612cf43d-6624-4c64-a8a8-1bf41fca40e0","ios":"levelo://app?vid=612cf43d-6624-4c64-a8a8-1bf41fca40e0"},"vehicle_type_id":"4","last_reported":1730103194,"current_range_meters":38000,"station_id":"ce4bgrp2rcd13ifvqc9g","pricing_plan_id":"cebpf4jnsgd1na2vs0mg"},{"bike_id":"697a39e7-ee9b-4cc2-933f-abb15a8dd790","system_id":"levelo_inurba_marseille","lat":43.31344,"lon":5.36704,"is_reserved":false,"is_disabled":false,"rental_uris":{"android":"levelo://app?vid=697a39e7-ee9b-4cc2-933f-abb15a8dd790","ios":"levelo://app?vid=697a39e7-ee9b-4cc2-933f-abb15a8dd790"},"vehicle_type_id":"4","last_reported":1730103194,"current_range_meters":31200,"station_id":"ce4bgr92rcd13ifvqc6g","pricing_plan_id":"cebpf4jnsgd1na2vs0mg"},{"bike_id":"ef4c3fc5-30a2-4016-a8cb-6ce788a189fc","system_id":"levelo_inurba_marseille","lat":43.29322,"lon":5.37023,"is_reserved":false,"is_disabled":false,"rental_uris":{"android":"levelo://app?vid=ef4c3fc5-30a2-4016-a8cb-6ce788a189fc","ios":"levelo://app?vid=ef4c3fc5-30a2-4016-a8cb-6ce788a189fc"},"vehicle_type_id":"4","last_reported":1730103194,"current_range_meters":12800,"station_id":"","pricing_plan_id":"cebpf4jnsgd1na2vs0mg"},{"bike_id":"b71692a0-9c4b-4b27-9a46-1ce85400b7ef","system_id":"levelo_inurba_marseille","lat":43.31487,"lon":5.37307,"is_reserved":false,"is_disabled":false,"rental_uris":{"android":"levelo://app?vid=b71692a0-9c4b-4b27-9a46-1ce85400b7ef","ios":"levelo://app?vid=b71692a0-9c4b-4b27-9a46-1ce85400b7ef"},"vehicle_type_id":"4","last_reported":1730103194,"current_range_meters":26800,"station_id":"ce4bgt12rcd13ifvqcd0","pricing_plan_id":"cebpf4jnsgd1na2vs0mg"},{"bike_id":"6a13b893-b42b-4a62-9517-c2734937350b","system_id":"levelo_inurba_marseille","lat":43.30589,"lon":5.37247,"is_reserved":false,"is_disabled":false,"rental_uris":{"android":"levelo://app?vid=6a13b893-b42b-4a62-9517-c2734937350b","ios":"levelo://app?vid=6a13b893-b42b-4a62-9517-c2734937350b"},"vehicle_type_id":"4","last_reported":1730103194,"current_range_meters":20800,"station_id":"ce4bgqh2rcd13ifvqc4g","pricing_plan_id":"cebpf4jnsgd1na2vs0mg"},{"bike_id":"22e69140-bec2-4569-b1a2-bd6ec9c288e5","system_id":"levelo_inurba_marseille","lat":43.28147,"lon":5.42641,"is_reserved":false,"is_disabled":false,"rental_uris":{"android":"levelo://app?vid=22e69140-bec2-4569-b1a2-bd6ec9c288e5","ios":"levelo://app?vid=22e69140-bec2-4569-b1a2-bd6ec9c288e5"},"vehicle_type_id":"4","last_reported":1730103194,"current_range_meters":19200,"station_id":"ce4bhnh2rcd13ifvqgug","pricing_plan_id":"cebpf4jnsgd1na2vs0mg"},{"bike_id":"e113f747-4daa-44f7-a218-9e030daa2565","system_id":"levelo_inurba_marseille","lat":43.32105,"lon":5.36769,"is_reserved":false,"is_disabled":false,"rental_uris":{"android":"levelo://app?vid=e113f747-4daa-44f7-a218-9e030daa2565","ios":"levelo://app?vid=e113f747-4daa-44f7-a218-9e030daa2565"},"vehicle_type_id":"4","last_reported":1730103194,"current_range_meters":22400,"station_id":"ce4bhrh2rcd13ifvqhug","pricing_plan_id":"cebpf4jnsgd1na2vs0mg"},{"bike_id":"4a48cb8e-10e3-419e-99a0-e47c4c5c8495","system_id":"levelo_inurba_marseille","lat":43.30554,"lon":5.36708,"is_reserved":false,"is_disabled":false,"rental_uris":{"android":"levelo://app?vid=4a48cb8e-10e3-419e-99a0-e47c4c5c8495","ios":"levelo://app?vid=4a48cb8e-10e3-419e-99a0-e47c4c5c8495"},"vehicle_type_id":"4","last_reported":1730103194,"current_range_meters":37600,"station_id":"ce4bgrp2rcd13ifvqc9g","pricing_plan_id":"cebpf4jnsgd1na2vs0mg"},{"bike_id":"c83bf92a-895e-4031-90cc-0a4806604b3f","system_id":"levelo_inurba_marseille","lat":43.23054,"lon":5.35491,"is_reserved":false,"is_disabled":false,"rental_uris":{"android":"levelo://app?vid=c83bf92a-895e-4031-90cc-0a4806604b3f","ios":"levelo://app?vid=c83bf92a-895e-4031-90cc-0a4806604b3f"},"vehicle_type_id":"4","last_reported":1730103194,"current_range_meters":37600,"station_id":"cpo3342slgdg3j2ifvpg","pricing_plan_id":"cebpf4jnsgd1na2vs0mg"},{"bike_id":"9fd56fad-5f3d-42b4-b491-7b57b76bc0cf","system_id":"levelo_inurba_marseille","lat":43.27815,"lon":5.40722,"is_reserved":false,"is_disabled":false,"rental_uris":{"android":"levelo://app?vid=9fd56fad-5f3d-42b4-b491-7b57b76bc0cf","ios":"levelo://app?vid=9fd56fad-5f3d-42b4-b491-7b57b76bc0cf"},"vehicle_type_id":"4","last_reported":1730103194,"current_range_meters":17600,"station_id":"ce4bhnh2rcd13ifvqgtg","pricing_plan_id":"cebpf4jnsgd1na2vs0mg"},{"bike_id":"cbb5244a-901c-4135-8648-dab36ee0d21c","system_id":"levelo_inurba_marseille","lat":43.25932,"lon":5.40908,"is_reserved":false,"is_disabled":false,"rental_uris":{"android":"levelo://app?vid=cbb5244a-901c-4135-8648-dab36ee0d21c","ios":"levelo://app?vid=cbb5244a-901c-4135-8648-dab36ee0d21c"},"vehicle_type_id":"4","last_reported":1730103194,"current_range_meters":37600,"station_id":"ce4bhm92rcd13ifvqglg","pricing_plan_id":"cebpf4jnsgd1na2vs0mg"},{"bike_id":"3963d24a-4167-42a3-b2c2-205be6a8e586","system_id":"levelo_inurba_marseille","lat":43.30468,"lon":5.37917,"is_reserved":false,"is_disabled":false,"rental_uris":{"android":"levelo://app?vid=3963d24a-4167-42a3-b2c2-205be6a8e586","ios":"levelo://app?vid=3963d24a-4167-42a3-b2c2-205be6a8e586"},"vehicle_type_id":"4","last_reported":1730103194,"current_range_meters":20000,"station_id":"ce4bgup2rcd13ifvqcn0","pricing_plan_id":"cebpf4jnsgd1na2vs0mg"},{"bike_id":"68063af6-6bba-4cd8-931d-fc445f6cbf5e","system_id":"levelo_inurba_marseille","lat":43.31756,"lon":5.39009,"is_reserved":false,"is_disabled":false,"rental_uris":{"android":"levelo://app?vid=68063af6-6bba-4cd8-931d-fc445f6cbf5e","ios":"levelo://app?vid=68063af6-6bba-4cd8-931d-fc445f6cbf5e"},"vehicle_type_id":"4","last_reported":1730103194,"current_range_meters":8000,"station_id":"ce4bhqp2rcd13ifvqhng","pricing_plan_id":"cebpf4jnsgd1na2vs0mg"},{"bike_id":"16578466-81f3-472d-b079-b2e4ec231203","system_id":"levelo_inurba_marseille","lat":43.33611,"lon":5.41022,"is_reserved":false,"is_disabled":false,"rental_uris":{"android":"levelo://app?vid=16578466-81f3-472d-b079-b2e4ec231203","ios":"levelo://app?vid=16578466-81f3-472d-b079-b2e4ec231203"},"vehicle_type_id":"4","last_reported":1730103194,"current_range_meters":38800,"station_id":"ce4bhqh2rcd13ifvqhmg","pricing_plan_id":"cebpf4jnsgd1na2vs0mg"},{"bike_id":"1d0d92b7-f6c1-4ccd-8c1f-6182976eb675","system_id":"levelo_inurba_marseille","lat":43.26194,"lon":5.37927,"is_reserved":false,"is_disabled":false,"rental_uris":{"android":"levelo://app?vid=1d0d92b7-f6c1-4ccd-8c1f-6182976eb675","ios":"levelo://app?vid=1d0d92b7-f6c1-4ccd-8c1f-6182976eb675"},"vehicle_type_id":"4","last_reported":1730103194,"current_range_meters":34800,"station_id":"ce4bhjp2rcd13ifvqg90","pricing_plan_id":"cebpf4jnsgd1na2vs0mg"},{"bike_id":"88f4470b-7870-405c-bb98-30d944051ae9","system_id":"levelo_inurba_marseille","lat":43.30155,"lon":5.38079,"is_reserved":false,"is_disabled":false,"rental_uris":{"android":"levelo://app?vid=88f4470b-7870-405c-bb98-30d944051ae9","ios":"levelo://app?vid=88f4470b-7870-405c-bb98-30d944051ae9"},"vehicle_type_id":"4","last_reported":1730103194,"current_range_meters":20800,"station_id":"ce4bgjp2rcd13ifvqbh0","pricing_plan_id":"cebpf4jnsgd1na2vs0mg"},{"bike_id":"eb383e1b-c90c-425f-9626-df8f75fabf88","system_id":"levelo_inurba_marseille","lat":43.30906,"lon":5.3685,"is_reserved":false,"is_disabled":false,"rental_uris":{"android":"levelo://app?vid=eb383e1b-c90c-425f-9626-df8f75fabf88","ios":"levelo://app?vid=eb383e1b-c90c-425f-9626-df8f75fabf88"},"vehicle_type_id":"4","last_reported":1730103194,"current_range_meters":36400,"station_id":"ce4bgn92rcd13ifvqbvg","pricing_plan_id":"cebpf4jnsgd1na2vs0mg"},{"bike_id":"939ef23a-8e9f-47e0-ba95-784e8e1c14b8","system_id":"levelo_inurba_marseille","lat":43.23059,"lon":5.35486,"is_reserved":false,"is_disabled":false,"rental_uris":{"android":"levelo://app?vid=939ef23a-8e9f-47e0-ba95-784e8e1c14b8","ios":"levelo://app?vid=939ef23a-8e9f-47e0-ba95-784e8e1c14b8"},"vehicle_type_id":"4","last_reported":1730103194,"current_range_meters":17200,"station_id":"cpo3342slgdg3j2ifvpg","pricing_plan_id":"cebpf4jnsgd1na2vs0mg"},{"bike_id":"53e7b528-93ab-4527-9dda-fad8e8bc50dd","system_id":"levelo_inurba_marseille","lat":43.299708,"lon":5.371681,"is_reserved":false,"is_disabled":false,"rental_uris":{"android":"levelo://app?vid=53e7b528-93ab-4527-9dda-fad8e8bc50dd","ios":"levelo://app?vid=53e7b528-93ab-4527-9dda-fad8e8bc50dd"},"vehicle_type_id":"4","last_reported":1730103194,"current_range_meters":14800,"station_id":"ce4bguh2rcd13ifvqcj0","pricing_plan_id":"cebpf4jnsgd1na2vs0mg"},{"bike_id":"ba7ff12b-4fb3-47ea-b304-85ab8fca1364","system_id":"levelo_inurba_marseille","lat":43.32282,"lon":5.38276,"is_reserved":false,"is_disabled":false,"rental_uris":{"android":"levelo://app?vid=ba7ff12b-4fb3-47ea-b304-85ab8fca1364","ios":"levelo://app?vid=ba7ff12b-4fb3-47ea-b304-85ab8fca1364"},"vehicle_type_id":"4","last_reported":1730103194,"current_range_meters":39200,"station_id":"ce4bhr12rcd13ifvqhqg","pricing_plan_id":"cebpf4jnsgd1na2vs0mg"},{"bike_id":"86a58622-3617-4cf3-a0cf-7fecc6f1ed7e","system_id":"levelo_inurba_marseille","lat":43.28999,"lon":5.38133,"is_reserved":false,"is_disabled":false,"rental_uris":{"android":"levelo://app?vid=86a58622-3617-4cf3-a0cf-7fecc6f1ed7e","ios":"levelo://app?vid=86a58622-3617-4cf3-a0cf-7fecc6f1ed7e"},"vehicle_type_id":"4","last_reported":1730103194,"current_range_meters":28000,"station_id":"ce4bh4p2rcd13ifvqe1g","pricing_plan_id":"cebpf4jnsgd1na2vs0mg"},{"bike_id":"7eb6b8b8-427c-44ca-8b12-8504481810c5","system_id":"levelo_inurba_marseille","lat":43.25857,"lon":5.39903,"is_reserved":false,"is_disabled":false,"rental_uris":{"android":"levelo://app?vid=7eb6b8b8-427c-44ca-8b12-8504481810c5","ios":"levelo://app?vid=7eb6b8b8-427c-44ca-8b12-8504481810c5"},"vehicle_type_id":"4","last_reported":1730103194,"current_range_meters":34000,"station_id":"ce4bhl92rcd13ifvqghg","pricing_plan_id":"cebpf4jnsgd1na2vs0mg"},{"bike_id":"e25b08b7-745a-4210-bcf7-4e097ebda2a4","system_id":"levelo_inurba_marseille","lat":43.28154,"lon":5.42646,"is_reserved":false,"is_disabled":false,"rental_uris":{"android":"levelo://app?vid=e25b08b7-745a-4210-bcf7-4e097ebda2a4","ios":"levelo://app?vid=e25b08b7-745a-4210-bcf7-4e097ebda2a4"},"vehicle_type_id":"4","last_reported":1730103194,"current_range_meters":20800,"station_id":"ce4bhnh2rcd13ifvqgug","pricing_plan_id":"cebpf4jnsgd1na2vs0mg"},{"bike_id":"f7a50275-88a4-4be4-ac33-5cce1242cfaa","system_id":"levelo_inurba_marseille","lat":43.31704,"lon":5.37765,"is_reserved":false,"is_disabled":false,"rental_uris":{"android":"levelo://app?vid=f7a50275-88a4-4be4-ac33-5cce1242cfaa","ios":"levelo://app?vid=f7a50275-88a4-4be4-ac33-5cce1242cfaa"},"vehicle_type_id":"4","last_reported":1730103194,"current_range_meters":39200,"station_id":"ce4bgth2rcd13ifvqch0","pricing_plan_id":"cebpf4jnsgd1na2vs0mg"},{"bike_id":"c0959fc4-323d-46f6-be90-4c8641b38a48","system_id":"levelo_inurba_marseille","lat":43.28111,"lon":5.37839,"is_reserved":false,"is_disabled":false,"rental_uris":{"android":"levelo://app?vid=c0959fc4-323d-46f6-be90-4c8641b38a48","ios":"levelo://app?vid=c0959fc4-323d-46f6-be90-4c8641b38a48"},"vehicle_type_id":"4","last_reported":1730103194,"current_range_meters":33200,"station_id":"ce4bha12rcd13ifvqee0","pricing_plan_id":"cebpf4jnsgd1na2vs0mg"},{"bike_id":"1cdf921d-fdda-47f6-bd64-5bab04ad6d73","system_id":"levelo_inurba_marseille","lat":43.30905,"lon":5.36835,"is_reserved":false,"is_disabled":false,"rental_uris":{"android":"levelo://app?vid=1cdf921d-fdda-47f6-bd64-5bab04ad6d73","ios":"levelo://app?vid=1cdf921d-fdda-47f6-bd64-5bab04ad6d73"},"vehicle_type_id":"4","last_reported":1730103194,"current_range_meters":31200,"station_id":"ce4bgn92rcd13ifvqbvg","pricing_plan_id":"cebpf4jnsgd1na2vs0mg"},{"bike_id":"0e6d7f45-38e9-416c-af7c-70cf58d1daa1","system_id":"levelo_inurba_marseille","lat":43.30465,"lon":5.37898,"is_reserved":false,"is_disabled":false,"rental_uris":{"android":"levelo://app?vid=0e6d7f45-38e9-416c-af7c-70cf58d1daa1","ios":"levelo://app?vid=0e6d7f45-38e9-416c-af7c-70cf58d1daa1"},"vehicle_type_id":"4","last_reported":1730103194,"current_range_meters":38800,"station_id":"ce4bgup2rcd13ifvqcn0","pricing_plan_id":"cebpf4jnsgd1na2vs0mg"},{"bike_id":"957a53db-c5fb-4871-b50b-0afb0067443d","system_id":"levelo_inurba_marseille","lat":43.25932,"lon":5.40908,"is_reserved":false,"is_disabled":false,"rental_uris":{"android":"levelo://app?vid=957a53db-c5fb-4871-b50b-0afb0067443d","ios":"levelo://app?vid=957a53db-c5fb-4871-b50b-0afb0067443d"},"vehicle_type_id":"4","last_reported":1730103194,"current_range_meters":36400,"station_id":"ce4bhm92rcd13ifvqglg","pricing_plan_id":"cebpf4jnsgd1na2vs0mg"},{"bike_id":"abc5207f-d86f-4e31-9ce9-ca2d68d828ba","system_id":"levelo_inurba_marseille","lat":43.24995,"lon":5.38927,"is_reserved":false,"is_disabled":false,"rental_uris":{"android":"levelo://app?vid=abc5207f-d86f-4e31-9ce9-ca2d68d828ba","ios":"levelo://app?vid=abc5207f-d86f-4e31-9ce9-ca2d68d828ba"},"vehicle_type_id":"4","last_reported":1730103194,"current_range_meters":38800,"station_id":"ce4bhgp2rcd13ifvqfd0","pricing_plan_id":"cebpf4jnsgd1na2vs0mg"},{"bike_id":"7ca56edd-ab0f-42b5-b290-aff4cb25cb72","system_id":"levelo_inurba_marseille","lat":43.24386,"lon":5.37053,"is_reserved":false,"is_disabled":false,"rental_uris":{"android":"levelo://app?vid=7ca56edd-ab0f-42b5-b290-aff4cb25cb72","ios":"levelo://app?vid=7ca56edd-ab0f-42b5-b290-aff4cb25cb72"},"vehicle_type_id":"4","last_reported":1730103194,"current_range_meters":30400,"station_id":"ce4bhhh2rcd13ifvqfk0","pricing_plan_id":"cebpf4jnsgd1na2vs0mg"},{"bike_id":"b0600213-fe43-4c25-995a-dc67b09adc71","system_id":"levelo_inurba_marseille","lat":43.337603,"lon":5.374696,"is_reserved":false,"is_disabled":false,"rental_uris":{"android":"levelo://app?vid=b0600213-fe43-4c25-995a-dc67b09adc71","ios":"levelo://app?vid=b0600213-fe43-4c25-995a-dc67b09adc71"},"vehicle_type_id":"4","last_reported":1730103194,"current_range_meters":38000,"station_id":"","pricing_plan_id":"cebpf4jnsgd1na2vs0mg"},{"bike_id":"4cf016cf-222a-4af0-b71c-5001d7c7e17d","system_id":"levelo_inurba_marseille","lat":43.25086,"lon":5.3951,"is_reserved":false,"is_disabled":false,"rental_uris":{"android":"levelo://app?vid=4cf016cf-222a-4af0-b71c-5001d7c7e17d","ios":"levelo://app?vid=4cf016cf-222a-4af0-b71c-5001d7c7e17d"},"vehicle_type_id":"4","last_reported":1730103194,"current_range_meters":32400,"station_id":"ce4bhm12rcd13ifvqgkg","pricing_plan_id":"cebpf4jnsgd1na2vs0mg"},{"bike_id":"170813c6-534a-4805-bc5d-cfceac12d6b1","system_id":"levelo_inurba_marseille","lat":43.29911,"lon":5.37467,"is_reserved":false,"is_disabled":false,"rental_uris":{"android":"levelo://app?vid=170813c6-534a-4805-bc5d-cfceac12d6b1","ios":"levelo://app?vid=170813c6-534a-4805-bc5d-cfceac12d6b1"},"vehicle_type_id":"4","last_reported":1730103194,"current_range_meters":16800,"station_id":"ce4bgjh2rcd13ifvqbg0","pricing_plan_id":"cebpf4jnsgd1na2vs0mg"},{"bike_id":"75e8beb8-e3e5-4099-b841-6f6e399f9a0c","system_id":"levelo_inurba_marseille","lat":43.337444,"lon":5.374475,"is_reserved":false,"is_disabled":false,"rental_uris":{"android":"levelo://app?vid=75e8beb8-e3e5-4099-b841-6f6e399f9a0c","ios":"levelo://app?vid=75e8beb8-e3e5-4099-b841-6f6e399f9a0c"},"vehicle_type_id":"4","last_reported":1730103194,"current_range_meters":16800,"station_id":"","pricing_plan_id":"cebpf4jnsgd1na2vs0mg"},{"bike_id":"a25b6a83-2d57-4dc8-94af-f08d4dbf848d","system_id":"levelo_inurba_marseille","lat":43.25933,"lon":5.40895,"is_reserved":false,"is_disabled":false,"rental_uris":{"android":"levelo://app?vid=a25b6a83-2d57-4dc8-94af-f08d4dbf848d","ios":"levelo://app?vid=a25b6a83-2d57-4dc8-94af-f08d4dbf848d"},"vehicle_type_id":"4","last_reported":1730103194,"current_range_meters":30800,"station_id":"ce4bhm92rcd13ifvqglg","pricing_plan_id":"cebpf4jnsgd1na2vs0mg"},{"bike_id":"78fcf145-15de-49ac-b73f-aca0cce5b252","system_id":"levelo_inurba_marseille","lat":43.33761,"lon":5.3743,"is_reserved":false,"is_disabled":false,"rental_uris":{"android":"levelo://app?vid=78fcf145-15de-49ac-b73f-aca0cce5b252","ios":"levelo://app?vid=78fcf145-15de-49ac-b73f-aca0cce5b252"},"vehicle_type_id":"4","last_reported":1730103194,"current_range_meters":38800,"station_id":"","pricing_plan_id":"cebpf4jnsgd1na2vs0mg"},{"bike_id":"9befed88-9f8c-464c-b07b-093bd97066bb","system_id":"levelo_inurba_marseille","lat":43.29805,"lon":5.37136,"is_reserved":false,"is_disabled":false,"rental_uris":{"android":"levelo://app?vid=9befed88-9f8c-464c-b07b-093bd97066bb","ios":"levelo://app?vid=9befed88-9f8c-464c-b07b-093bd97066bb"},"vehicle_type_id":"4","last_reported":1730103194,"current_range_meters":16400,"station_id":"","pricing_plan_id":"cebpf4jnsgd1na2vs0mg"},{"bike_id":"f01c22e4-4c7a-44f1-8b92-29bb59dc0a63","system_id":"levelo_inurba_marseille","lat":43.290588,"lon":5.37811,"is_reserved":false,"is_disabled":false,"rental_uris":{"android":"levelo://app?vid=f01c22e4-4c7a-44f1-8b92-29bb59dc0a63","ios":"levelo://app?vid=f01c22e4-4c7a-44f1-8b92-29bb59dc0a63"},"vehicle_type_id":"4","last_reported":1730103194,"current_range_meters":32000,"station_id":"ce4bh9p2rcd13ifvqed0","pricing_plan_id":"cebpf4jnsgd1na2vs0mg"},{"bike_id":"f37e3b02-a49c-4c4e-b112-f9c8c24edf90","system_id":"levelo_inurba_marseille","lat":43.23186,"lon":5.35557,"is_reserved":false,"is_disabled":false,"rental_uris":{"android":"levelo://app?vid=f37e3b02-a49c-4c4e-b112-f9c8c24edf90","ios":"levelo://app?vid=f37e3b02-a49c-4c4e-b112-f9c8c24edf90"},"vehicle_type_id":"4","last_reported":1730103194,"current_range_meters":10800,"station_id":"ce4bhu92rcd13ifvqi70","pricing_plan_id":"cebpf4jnsgd1na2vs0mg"},{"bike_id":"7bbf5f0c-95bf-455f-bc07-38788fcc946c","system_id":"levelo_inurba_marseille","lat":43.29272,"lon":5.36847,"is_reserved":false,"is_disabled":false,"rental_uris":{"android":"levelo://app?vid=7bbf5f0c-95bf-455f-bc07-38788fcc946c","ios":"levelo://app?vid=7bbf5f0c-95bf-455f-bc07-38788fcc946c"},"vehicle_type_id":"4","last_reported":1730103194,"current_range_meters":32800,"station_id":"ce4bhbp2rcd13ifvqesg","pricing_plan_id":"cebpf4jnsgd1na2vs0mg"},{"bike_id":"7e9e06a6-9ef2-4e90-8e33-ad059cb0edf6","system_id":"levelo_inurba_marseille","lat":43.30463,"lon":5.37906,"is_reserved":false,"is_disabled":false,"rental_uris":{"android":"levelo://app?vid=7e9e06a6-9ef2-4e90-8e33-ad059cb0edf6","ios":"levelo://app?vid=7e9e06a6-9ef2-4e90-8e33-ad059cb0edf6"},"vehicle_type_id":"4","last_reported":1730103194,"current_range_meters":30000,"station_id":"ce4bgup2rcd13ifvqcn0","pricing_plan_id":"cebpf4jnsgd1na2vs0mg"},{"bike_id":"0681c7df-c6b0-46f5-93c0-114f45cf54c6","system_id":"levelo_inurba_marseille","lat":43.32535,"lon":5.41436,"is_reserved":false,"is_disabled":false,"rental_uris":{"android":"levelo://app?vid=0681c7df-c6b0-46f5-93c0-114f45cf54c6","ios":"levelo://app?vid=0681c7df-c6b0-46f5-93c0-114f45cf54c6"},"vehicle_type_id":"4","last_reported":1730103194,"current_range_meters":18800,"station_id":"ce4bhq12rcd13ifvqhhg","pricing_plan_id":"cebpf4jnsgd1na2vs0mg"},{"bike_id":"50884efb-aa93-47c7-b30a-d43a956bc7bb","system_id":"levelo_inurba_marseille","lat":43.30885,"lon":5.37189,"is_reserved":false,"is_disabled":false,"rental_uris":{"android":"levelo://app?vid=50884efb-aa93-47c7-b30a-d43a956bc7bb","ios":"levelo://app?vid=50884efb-aa93-47c7-b30a-d43a956bc7bb"},"vehicle_type_id":"4","last_reported":1730103194,"current_range_meters":39200,"station_id":"ce4bguh2rcd13ifvqckg","pricing_plan_id":"cebpf4jnsgd1na2vs0mg"},{"bike_id":"45fd3cf8-8ef7-4153-9f92-719140053506","system_id":"levelo_inurba_marseille","lat":43.32286,"lon":5.38276,"is_reserved":false,"is_disabled":false,"rental_uris":{"android":"levelo://app?vid=45fd3cf8-8ef7-4153-9f92-719140053506","ios":"levelo://app?vid=45fd3cf8-8ef7-4153-9f92-719140053506"},"vehicle_type_id":"4","last_reported":1730103194,"current_range_meters":25200,"station_id":"ce4bhr12rcd13ifvqhqg","pricing_plan_id":"cebpf4jnsgd1na2vs0mg"},{"bike_id":"0fc35ec4-d69e-455a-854d-9256f0d5a7e6","system_id":"levelo_inurba_marseille","lat":43.24067,"lon":5.37758,"is_reserved":false,"is_disabled":false,"rental_uris":{"android":"levelo://app?vid=0fc35ec4-d69e-455a-854d-9256f0d5a7e6","ios":"levelo://app?vid=0fc35ec4-d69e-455a-854d-9256f0d5a7e6"},"vehicle_type_id":"4","last_reported":1730103194,"current_range_meters":24000,"station_id":"ce4bhnp2rcd13ifvqgvg","pricing_plan_id":"cebpf4jnsgd1na2vs0mg"},{"bike_id":"9c975ea9-79b8-44be-86c3-0afb0514a4ca","system_id":"levelo_inurba_marseille","lat":43.28152,"lon":5.42643,"is_reserved":false,"is_disabled":false,"rental_uris":{"android":"levelo://app?vid=9c975ea9-79b8-44be-86c3-0afb0514a4ca","ios":"levelo://app?vid=9c975ea9-79b8-44be-86c3-0afb0514a4ca"},"vehicle_type_id":"4","last_reported":1730103194,"current_range_meters":20400,"station_id":"ce4bhnh2rcd13ifvqgug","pricing_plan_id":"cebpf4jnsgd1na2vs0mg"},{"bike_id":"9f501856-31bd-489e-8c68-79174caf584a","system_id":"levelo_inurba_marseille","lat":43.27499,"lon":5.42457,"is_reserved":false,"is_disabled":false,"rental_uris":{"android":"levelo://app?vid=9f501856-31bd-489e-8c68-79174caf584a","ios":"levelo://app?vid=9f501856-31bd-489e-8c68-79174caf584a"},"vehicle_type_id":"4","last_reported":1730103194,"current_range_meters":38000,"station_id":"ce4bhn92rcd13ifvqgrg","pricing_plan_id":"cebpf4jnsgd1na2vs0mg"},{"bike_id":"cbf683de-7bcc-46aa-8c8e-99509c1a0985","system_id":"levelo_inurba_marseille","lat":43.25939,"lon":5.40894,"is_reserved":false,"is_disabled":false,"rental_uris":{"android":"levelo://app?vid=cbf683de-7bcc-46aa-8c8e-99509c1a0985","ios":"levelo://app?vid=cbf683de-7bcc-46aa-8c8e-99509c1a0985"},"vehicle_type_id":"4","last_reported":1730103194,"current_range_meters":25600,"station_id":"ce4bhm92rcd13ifvqglg","pricing_plan_id":"cebpf4jnsgd1na2vs0mg"},{"bike_id":"bb8e7d17-0c92-493c-b404-117c89baf87d","system_id":"levelo_inurba_marseille","lat":43.3055,"lon":5.36558,"is_reserved":false,"is_disabled":false,"rental_uris":{"android":"levelo://app?vid=bb8e7d17-0c92-493c-b404-117c89baf87d","ios":"levelo://app?vid=bb8e7d17-0c92-493c-b404-117c89baf87d"},"vehicle_type_id":"4","last_reported":1730103194,"current_range_meters":23200,"station_id":"ce4bgs12rcd13ifvqcag","pricing_plan_id":"cebpf4jnsgd1na2vs0mg"},{"bike_id":"e39645c5-87ac-4e87-90ca-e4c6f3ff67ce","system_id":"levelo_inurba_marseille","lat":43.29934,"lon":5.36559,"is_reserved":false,"is_disabled":false,"rental_uris":{"android":"levelo://app?vid=e39645c5-87ac-4e87-90ca-e4c6f3ff67ce","ios":"levelo://app?vid=e39645c5-87ac-4e87-90ca-e4c6f3ff67ce"},"vehicle_type_id":"4","last_reported":1730103194,"current_range_meters":30800,"station_id":"ce4bgm92rcd13ifvqbr0","pricing_plan_id":"cebpf4jnsgd1na2vs0mg"},{"bike_id":"2e060024-d696-433e-be76-e64d25c06c79","system_id":"levelo_inurba_marseille","lat":43.24803,"lon":5.37448,"is_reserved":false,"is_disabled":false,"rental_uris":{"android":"levelo://app?vid=2e060024-d696-433e-be76-e64d25c06c79","ios":"levelo://app?vid=2e060024-d696-433e-be76-e64d25c06c79"},"vehicle_type_id":"4","last_reported":1730103194,"current_range_meters":38800,"station_id":"ce4bhgh2rcd13ifvqfb0","pricing_plan_id":"cebpf4jnsgd1na2vs0mg"},{"bike_id":"def66fbe-9129-4b94-9aa6-f0a9941a832b","system_id":"levelo_inurba_marseille","lat":43.29172,"lon":5.36906,"is_reserved":false,"is_disabled":false,"rental_uris":{"android":"levelo://app?vid=def66fbe-9129-4b94-9aa6-f0a9941a832b","ios":"levelo://app?vid=def66fbe-9129-4b94-9aa6-f0a9941a832b"},"vehicle_type_id":"4","last_reported":1730103194,"current_range_meters":12400,"station_id":"","pricing_plan_id":"cebpf4jnsgd1na2vs0mg"},{"bike_id":"fd78cb31-692c-4b3f-b71e-c669fb4b3f6d","system_id":"levelo_inurba_marseille","lat":43.30812,"lon":5.38152,"is_reserved":false,"is_disabled":false,"rental_uris":{"android":"levelo://app?vid=fd78cb31-692c-4b3f-b71e-c669fb4b3f6d","ios":"levelo://app?vid=fd78cb31-692c-4b3f-b71e-c669fb4b3f6d"},"vehicle_type_id":"4","last_reported":1730103194,"current_range_meters":38800,"station_id":"ce4bgt12rcd13ifvqce0","pricing_plan_id":"cebpf4jnsgd1na2vs0mg"},{"bike_id":"18671998-be02-49ce-a8e2-00d701de0664","system_id":"levelo_inurba_marseille","lat":43.29097,"lon":5.38145,"is_reserved":false,"is_disabled":false,"rental_uris":{"android":"levelo://app?vid=18671998-be02-49ce-a8e2-00d701de0664","ios":"levelo://app?vid=18671998-be02-49ce-a8e2-00d701de0664"},"vehicle_type_id":"4","last_reported":1730103194,"current_range_meters":36800,"station_id":"ce4bh512rcd13ifvqe2g","pricing_plan_id":"cebpf4jnsgd1na2vs0mg"},{"bike_id":"f3ceeb8f-42c4-458f-a4d0-0ac814d6e04b","system_id":"levelo_inurba_marseille","lat":43.29841,"lon":5.36268,"is_reserved":false,"is_disabled":false,"rental_uris":{"android":"levelo://app?vid=f3ceeb8f-42c4-458f-a4d0-0ac814d6e04b","ios":"levelo://app?vid=f3ceeb8f-42c4-458f-a4d0-0ac814d6e04b"},"vehicle_type_id":"4","last_reported":1730103194,"current_range_meters":20800,"station_id":"ce4bgpp2rcd13ifvqc3g","pricing_plan_id":"cebpf4jnsgd1na2vs0mg"},{"bike_id":"b1c1dd4f-91f5-47fb-896f-64ee4de894ca","system_id":"levelo_inurba_marseille","lat":43.29256,"lon":5.40901,"is_reserved":false,"is_disabled":false,"rental_uris":{"android":"levelo://app?vid=b1c1dd4f-91f5-47fb-896f-64ee4de894ca","ios":"levelo://app?vid=b1c1dd4f-91f5-47fb-896f-64ee4de894ca"},"vehicle_type_id":"4","last_reported":1730103194,"current_range_meters":37600,"station_id":"ce4bh192rcd13ifvqdc0","pricing_plan_id":"cebpf4jnsgd1na2vs0mg"},{"bike_id":"3dadd146-8408-42e3-a5a7-f84f066b5cfd","system_id":"levelo_inurba_marseille","lat":43.3149,"lon":5.37306,"is_reserved":false,"is_disabled":false,"rental_uris":{"android":"levelo://app?vid=3dadd146-8408-42e3-a5a7-f84f066b5cfd","ios":"levelo://app?vid=3dadd146-8408-42e3-a5a7-f84f066b5cfd"},"vehicle_type_id":"4","last_reported":1730103194,"current_range_meters":16800,"station_id":"ce4bgt12rcd13ifvqcd0","pricing_plan_id":"cebpf4jnsgd1na2vs0mg"},{"bike_id":"d3a1e469-070d-43bf-bdd2-6010cb24abab","system_id":"levelo_inurba_marseille","lat":43.29621,"lon":5.37154,"is_reserved":false,"is_disabled":false,"rental_uris":{"android":"levelo://app?vid=d3a1e469-070d-43bf-bdd2-6010cb24abab","ios":"levelo://app?vid=d3a1e469-070d-43bf-bdd2-6010cb24abab"},"vehicle_type_id":"4","last_reported":1730103194,"current_range_meters":30400,"station_id":"ce4bgnh2rcd13ifvqc0g","pricing_plan_id":"cebpf4jnsgd1na2vs0mg"},{"bike_id":"a08296db-b3f4-4d7c-b368-674ac3a21b1e","system_id":"levelo_inurba_marseille","lat":43.23058,"lon":5.35493,"is_reserved":false,"is_disabled":false,"rental_uris":{"android":"levelo://app?vid=a08296db-b3f4-4d7c-b368-674ac3a21b1e","ios":"levelo://app?vid=a08296db-b3f4-4d7c-b368-674ac3a21b1e"},"vehicle_type_id":"4","last_reported":1730103194,"current_range_meters":37600,"station_id":"cpo3342slgdg3j2ifvpg","pricing_plan_id":"cebpf4jnsgd1na2vs0mg"},{"bike_id":"98a56849-4e66-4fa9-b4e9-1a4c5931fc9b","system_id":"levelo_inurba_marseille","lat":43.31337,"lon":5.36712,"is_reserved":false,"is_disabled":false,"rental_uris":{"android":"levelo://app?vid=98a56849-4e66-4fa9-b4e9-1a4c5931fc9b","ios":"levelo://app?vid=98a56849-4e66-4fa9-b4e9-1a4c5931fc9b"},"vehicle_type_id":"4","last_reported":1730103194,"current_range_meters":17200,"station_id":"ce4bgr92rcd13ifvqc6g","pricing_plan_id":"cebpf4jnsgd1na2vs0mg"},{"bike_id":"e8b1d499-1fb8-48d9-9f2a-60b4b9923777","system_id":"levelo_inurba_marseille","lat":43.3054,"lon":5.36695,"is_reserved":false,"is_disabled":false,"rental_uris":{"android":"levelo://app?vid=e8b1d499-1fb8-48d9-9f2a-60b4b9923777","ios":"levelo://app?vid=e8b1d499-1fb8-48d9-9f2a-60b4b9923777"},"vehicle_type_id":"4","last_reported":1730103194,"current_range_meters":27600,"station_id":"ce4bgrp2rcd13ifvqc9g","pricing_plan_id":"cebpf4jnsgd1na2vs0mg"},{"bike_id":"4678b8b4-3a7a-4200-b179-47d199973fa1","system_id":"levelo_inurba_marseille","lat":43.26775,"lon":5.39414,"is_reserved":false,"is_disabled":false,"rental_uris":{"android":"levelo://app?vid=4678b8b4-3a7a-4200-b179-47d199973fa1","ios":"levelo://app?vid=4678b8b4-3a7a-4200-b179-47d199973fa1"},"vehicle_type_id":"4","last_reported":1730103194,"current_range_meters":24800,"station_id":"ce4bhh12rcd13ifvqfg0","pricing_plan_id":"cebpf4jnsgd1na2vs0mg"},{"bike_id":"8ad359cc-17ad-4946-92a2-75ffb73bf8da","system_id":"levelo_inurba_marseille","lat":43.30459,"lon":5.3791,"is_reserved":false,"is_disabled":false,"rental_uris":{"android":"levelo://app?vid=8ad359cc-17ad-4946-92a2-75ffb73bf8da","ios":"levelo://app?vid=8ad359cc-17ad-4946-92a2-75ffb73bf8da"},"vehicle_type_id":"4","last_reported":1730103194,"current_range_meters":26000,"station_id":"ce4bgup2rcd13ifvqcn0","pricing_plan_id":"cebpf4jnsgd1na2vs0mg"},{"bike_id":"88e952d6-f8c2-479f-9c0b-024d5ffb801c","system_id":"levelo_inurba_marseille","lat":43.28158,"lon":5.42639,"is_reserved":false,"is_disabled":false,"rental_uris":{"android":"levelo://app?vid=88e952d6-f8c2-479f-9c0b-024d5ffb801c","ios":"levelo://app?vid=88e952d6-f8c2-479f-9c0b-024d5ffb801c"},"vehicle_type_id":"4","last_reported":1730103194,"current_range_meters":24800,"station_id":"ce4bhnh2rcd13ifvqgug","pricing_plan_id":"cebpf4jnsgd1na2vs0mg"},{"bike_id":"2a6848c1-d22b-44f2-a324-89f4967e1c2c","system_id":"levelo_inurba_marseille","lat":43.30137,"lon":5.37427,"is_reserved":false,"is_disabled":false,"rental_uris":{"android":"levelo://app?vid=2a6848c1-d22b-44f2-a324-89f4967e1c2c","ios":"levelo://app?vid=2a6848c1-d22b-44f2-a324-89f4967e1c2c"},"vehicle_type_id":"4","last_reported":1730103194,"current_range_meters":28400,"station_id":"ce4bgs92rcd13ifvqcc0","pricing_plan_id":"cebpf4jnsgd1na2vs0mg"},{"bike_id":"3da2b441-84ba-4dd2-867a-0bc4320d98b3","system_id":"levelo_inurba_marseille","lat":43.3229,"lon":5.3827,"is_reserved":false,"is_disabled":false,"rental_uris":{"android":"levelo://app?vid=3da2b441-84ba-4dd2-867a-0bc4320d98b3","ios":"levelo://app?vid=3da2b441-84ba-4dd2-867a-0bc4320d98b3"},"vehicle_type_id":"4","last_reported":1730103194,"current_range_meters":39200,"station_id":"ce4bhr12rcd13ifvqhqg","pricing_plan_id":"cebpf4jnsgd1na2vs0mg"},{"bike_id":"d42cd8f1-be9f-4587-96dc-fd9d11f4d1a0","system_id":"levelo_inurba_marseille","lat":43.25104,"lon":5.40305,"is_reserved":false,"is_disabled":false,"rental_uris":{"android":"levelo://app?vid=d42cd8f1-be9f-4587-96dc-fd9d11f4d1a0","ios":"levelo://app?vid=d42cd8f1-be9f-4587-96dc-fd9d11f4d1a0"},"vehicle_type_id":"4","last_reported":1730103194,"current_range_meters":22800,"station_id":"ce4bhlh2rcd13ifvqgig","pricing_plan_id":"cebpf4jnsgd1na2vs0mg"},{"bike_id":"76588601-f0de-444c-8708-6d6ae74a37db","system_id":"levelo_inurba_marseille","lat":43.23967,"lon":5.36632,"is_reserved":false,"is_disabled":false,"rental_uris":{"android":"levelo://app?vid=76588601-f0de-444c-8708-6d6ae74a37db","ios":"levelo://app?vid=76588601-f0de-444c-8708-6d6ae74a37db"},"vehicle_type_id":"4","last_reported":1730103194,"current_range_meters":40000,"station_id":"ce4bhi12rcd13ifvqfp0","pricing_plan_id":"cebpf4jnsgd1na2vs0mg"},{"bike_id":"43656d77-6ade-43ab-b1d6-5ebd7441ac45","system_id":"levelo_inurba_marseille","lat":43.30525,"lon":5.36714,"is_reserved":false,"is_disabled":false,"rental_uris":{"android":"levelo://app?vid=43656d77-6ade-43ab-b1d6-5ebd7441ac45","ios":"levelo://app?vid=43656d77-6ade-43ab-b1d6-5ebd7441ac45"},"vehicle_type_id":"4","last_reported":1730103194,"current_range_meters":24000,"station_id":"ce4bgrp2rcd13ifvqc9g","pricing_plan_id":"cebpf4jnsgd1na2vs0mg"},{"bike_id":"670968be-382e-49ac-a03c-a0a735afb68f","system_id":"levelo_inurba_marseille","lat":43.25577,"lon":5.38234,"is_reserved":false,"is_disabled":false,"rental_uris":{"android":"levelo://app?vid=670968be-382e-49ac-a03c-a0a735afb68f","ios":"levelo://app?vid=670968be-382e-49ac-a03c-a0a735afb68f"},"vehicle_type_id":"4","last_reported":1730103194,"current_range_meters":38800,"station_id":"ce4bhih2rcd13ifvqfs0","pricing_plan_id":"cebpf4jnsgd1na2vs0mg"},{"bike_id":"9a599d39-93e1-4768-9001-e14667f53e65","system_id":"levelo_inurba_marseille","lat":43.30812,"lon":5.38149,"is_reserved":false,"is_disabled":false,"rental_uris":{"android":"levelo://app?vid=9a599d39-93e1-4768-9001-e14667f53e65","ios":"levelo://app?vid=9a599d39-93e1-4768-9001-e14667f53e65"},"vehicle_type_id":"4","last_reported":1730103194,"current_range_meters":38800,"station_id":"ce4bgt12rcd13ifvqce0","pricing_plan_id":"cebpf4jnsgd1na2vs0mg"},{"bike_id":"9403ad19-9050-4623-81ae-08b1b66bb37c","system_id":"levelo_inurba_marseille","lat":43.23181,"lon":5.39972,"is_reserved":false,"is_disabled":false,"rental_uris":{"android":"levelo://app?vid=9403ad19-9050-4623-81ae-08b1b66bb37c","ios":"levelo://app?vid=9403ad19-9050-4623-81ae-08b1b66bb37c"},"vehicle_type_id":"4","last_reported":1730103194,"current_range_meters":37600,"station_id":"ce4bhn12rcd13ifvqgqg","pricing_plan_id":"cebpf4jnsgd1na2vs0mg"},{"bike_id":"e30cba18-8ad3-4890-bf39-1c93660bed0c","system_id":"levelo_inurba_marseille","lat":43.25934,"lon":5.40899,"is_reserved":false,"is_disabled":false,"rental_uris":{"android":"levelo://app?vid=e30cba18-8ad3-4890-bf39-1c93660bed0c","ios":"levelo://app?vid=e30cba18-8ad3-4890-bf39-1c93660bed0c"},"vehicle_type_id":"4","last_reported":1730103194,"current_range_meters":23200,"station_id":"ce4bhm92rcd13ifvqglg","pricing_plan_id":"cebpf4jnsgd1na2vs0mg"},{"bike_id":"d5a1c7ae-9162-4121-b272-151b950895e5","system_id":"levelo_inurba_marseille","lat":43.27948,"lon":5.41046,"is_reserved":false,"is_disabled":false,"rental_uris":{"android":"levelo://app?vid=d5a1c7ae-9162-4121-b272-151b950895e5","ios":"levelo://app?vid=d5a1c7ae-9162-4121-b272-151b950895e5"},"vehicle_type_id":"4","last_reported":1730103194,"current_range_meters":15200,"station_id":"ce4bhnp2rcd13ifvqh0g","pricing_plan_id":"cebpf4jnsgd1na2vs0mg"},{"bike_id":"3031a6d3-2c8d-41a2-bb76-f20d51ee3218","system_id":"levelo_inurba_marseille","lat":43.29024,"lon":5.39952,"is_reserved":false,"is_disabled":false,"rental_uris":{"android":"levelo://app?vid=3031a6d3-2c8d-41a2-bb76-f20d51ee3218","ios":"levelo://app?vid=3031a6d3-2c8d-41a2-bb76-f20d51ee3218"},"vehicle_type_id":"4","last_reported":1730103194,"current_range_meters":28000,"station_id":"ce4bhh92rcd13ifvqfh0","pricing_plan_id":"cebpf4jnsgd1na2vs0mg"},{"bike_id":"79b412b6-7504-41de-b13f-6567b5a9d93f","system_id":"levelo_inurba_marseille","lat":43.31531,"lon":5.38037,"is_reserved":false,"is_disabled":false,"rental_uris":{"android":"levelo://app?vid=79b412b6-7504-41de-b13f-6567b5a9d93f","ios":"levelo://app?vid=79b412b6-7504-41de-b13f-6567b5a9d93f"},"vehicle_type_id":"4","last_reported":1730103194,"current_range_meters":6800,"station_id":"ce4bhsp2rcd13ifvqi50","pricing_plan_id":"cebpf4jnsgd1na2vs0mg"},{"bike_id":"a764cfb4-3e3d-4080-9b40-c76c6f394b50","system_id":"levelo_inurba_marseille","lat":43.29552,"lon":5.42289,"is_reserved":false,"is_disabled":false,"rental_uris":{"android":"levelo://app?vid=a764cfb4-3e3d-4080-9b40-c76c6f394b50","ios":"levelo://app?vid=a764cfb4-3e3d-4080-9b40-c76c6f394b50"},"vehicle_type_id":"4","last_reported":1730103194,"current_range_meters":34000,"station_id":"ce4bhph2rcd13ifvqhdg","pricing_plan_id":"cebpf4jnsgd1na2vs0mg"},{"bike_id":"02fd0614-a6c6-42e2-a6aa-0d2136f615e7","system_id":"levelo_inurba_marseille","lat":43.25105,"lon":5.40324,"is_reserved":false,"is_disabled":false,"rental_uris":{"android":"levelo://app?vid=02fd0614-a6c6-42e2-a6aa-0d2136f615e7","ios":"levelo://app?vid=02fd0614-a6c6-42e2-a6aa-0d2136f615e7"},"vehicle_type_id":"4","last_reported":1730103194,"current_range_meters":22400,"station_id":"ce4bhlh2rcd13ifvqgig","pricing_plan_id":"cebpf4jnsgd1na2vs0mg"},{"bike_id":"cd68f1dc-3134-4c22-9fa5-8490da02f071","system_id":"levelo_inurba_marseille","lat":43.23142,"lon":5.43719,"is_reserved":false,"is_disabled":false,"rental_uris":{"android":"levelo://app?vid=cd68f1dc-3134-4c22-9fa5-8490da02f071","ios":"levelo://app?vid=cd68f1dc-3134-4c22-9fa5-8490da02f071"},"vehicle_type_id":"4","last_reported":1730103194,"current_range_meters":10800,"station_id":"ce4bhmp2rcd13ifvqgog","pricing_plan_id":"cebpf4jnsgd1na2vs0mg"},{"bike_id":"037021ab-9917-46df-bd5b-5a97a8700bfa","system_id":"levelo_inurba_marseille","lat":43.28351,"lon":5.38624,"is_reserved":false,"is_disabled":false,"rental_uris":{"android":"levelo://app?vid=037021ab-9917-46df-bd5b-5a97a8700bfa","ios":"levelo://app?vid=037021ab-9917-46df-bd5b-5a97a8700bfa"},"vehicle_type_id":"4","last_reported":1730103194,"current_range_meters":30800,"station_id":"ce4bh492rcd13ifvqdvg","pricing_plan_id":"cebpf4jnsgd1na2vs0mg"},{"bike_id":"9df781dc-a17d-4c43-8d58-f238f2778b8b","system_id":"levelo_inurba_marseille","lat":43.25103,"lon":5.40323,"is_reserved":false,"is_disabled":false,"rental_uris":{"android":"levelo://app?vid=9df781dc-a17d-4c43-8d58-f238f2778b8b","ios":"levelo://app?vid=9df781dc-a17d-4c43-8d58-f238f2778b8b"},"vehicle_type_id":"4","last_reported":1730103194,"current_range_meters":11600,"station_id":"ce4bhlh2rcd13ifvqgig","pricing_plan_id":"cebpf4jnsgd1na2vs0mg"},{"bike_id":"83951415-bd72-4fd4-82c4-ca875a9c879e","system_id":"levelo_inurba_marseille","lat":43.30537,"lon":5.36548,"is_reserved":false,"is_disabled":false,"rental_uris":{"android":"levelo://app?vid=83951415-bd72-4fd4-82c4-ca875a9c879e","ios":"levelo://app?vid=83951415-bd72-4fd4-82c4-ca875a9c879e"},"vehicle_type_id":"4","last_reported":1730103194,"current_range_meters":22400,"station_id":"ce4bgs12rcd13ifvqcag","pricing_plan_id":"cebpf4jnsgd1na2vs0mg"},{"bike_id":"a5e385c9-904e-4fc8-b75a-a1b0091661fe","system_id":"levelo_inurba_marseille","lat":43.30141,"lon":5.38094,"is_reserved":false,"is_disabled":false,"rental_uris":{"android":"levelo://app?vid=a5e385c9-904e-4fc8-b75a-a1b0091661fe","ios":"levelo://app?vid=a5e385c9-904e-4fc8-b75a-a1b0091661fe"},"vehicle_type_id":"4","last_reported":1730103194,"current_range_meters":36800,"station_id":"ce4bgjp2rcd13ifvqbh0","pricing_plan_id":"cebpf4jnsgd1na2vs0mg"},{"bike_id":"5ed2fff8-c3d4-4654-a668-3b57adf4f72b","system_id":"levelo_inurba_marseille","lat":43.27487,"lon":5.42453,"is_reserved":false,"is_disabled":false,"rental_uris":{"android":"levelo://app?vid=5ed2fff8-c3d4-4654-a668-3b57adf4f72b","ios":"levelo://app?vid=5ed2fff8-c3d4-4654-a668-3b57adf4f72b"},"vehicle_type_id":"4","last_reported":1730103194,"current_range_meters":19600,"station_id":"ce4bhn92rcd13ifvqgrg","pricing_plan_id":"cebpf4jnsgd1na2vs0mg"},{"bike_id":"a7c6eb8e-227c-4432-958d-8969596fd179","system_id":"levelo_inurba_marseille","lat":43.2572,"lon":5.41103,"is_reserved":false,"is_disabled":false,"rental_uris":{"android":"levelo://app?vid=a7c6eb8e-227c-4432-958d-8969596fd179","ios":"levelo://app?vid=a7c6eb8e-227c-4432-958d-8969596fd179"},"vehicle_type_id":"4","last_reported":1730103194,"current_range_meters":39200,"station_id":"ce4bhkp2rcd13ifvqgd0","pricing_plan_id":"cebpf4jnsgd1na2vs0mg"},{"bike_id":"c43d76fc-8dd7-430b-af42-f70b3dce699a","system_id":"levelo_inurba_marseille","lat":43.28155,"lon":5.42635,"is_reserved":false,"is_disabled":false,"rental_uris":{"android":"levelo://app?vid=c43d76fc-8dd7-430b-af42-f70b3dce699a","ios":"levelo://app?vid=c43d76fc-8dd7-430b-af42-f70b3dce699a"},"vehicle_type_id":"4","last_reported":1730103194,"current_range_meters":38800,"station_id":"ce4bhnh2rcd13ifvqgug","pricing_plan_id":"cebpf4jnsgd1na2vs0mg"},{"bike_id":"1af1ace0-6d50-4670-9928-9bb4053befbf","system_id":"levelo_inurba_marseille","lat":43.25864,"lon":5.39895,"is_reserved":false,"is_disabled":false,"rental_uris":{"android":"levelo://app?vid=1af1ace0-6d50-4670-9928-9bb4053befbf","ios":"levelo://app?vid=1af1ace0-6d50-4670-9928-9bb4053befbf"},"vehicle_type_id":"4","last_reported":1730103194,"current_range_meters":38800,"station_id":"ce4bhl92rcd13ifvqghg","pricing_plan_id":"cebpf4jnsgd1na2vs0mg"},{"bike_id":"88d679ce-bf81-422c-88c5-977567915cf3","system_id":"levelo_inurba_marseille","lat":43.27491,"lon":5.42461,"is_reserved":false,"is_disabled":false,"rental_uris":{"android":"levelo://app?vid=88d679ce-bf81-422c-88c5-977567915cf3","ios":"levelo://app?vid=88d679ce-bf81-422c-88c5-977567915cf3"},"vehicle_type_id":"4","last_reported":1730103194,"current_range_meters":39200,"station_id":"ce4bhn92rcd13ifvqgrg","pricing_plan_id":"cebpf4jnsgd1na2vs0mg"},{"bike_id":"12b46aa8-14d4-4aa0-b33a-938bb0535be7","system_id":"levelo_inurba_marseille","lat":43.28943,"lon":5.39635,"is_reserved":false,"is_disabled":false,"rental_uris":{"android":"levelo://app?vid=12b46aa8-14d4-4aa0-b33a-938bb0535be7","ios":"levelo://app?vid=12b46aa8-14d4-4aa0-b33a-938bb0535be7"},"vehicle_type_id":"4","last_reported":1730103194,"current_range_meters":8400,"station_id":"ce4bh3h2rcd13ifvqdn0","pricing_plan_id":"cebpf4jnsgd1na2vs0mg"},{"bike_id":"4a8afaa6-e73a-4887-b108-6febd66433ff","system_id":"levelo_inurba_marseille","lat":43.31345,"lon":5.36712,"is_reserved":false,"is_disabled":false,"rental_uris":{"android":"levelo://app?vid=4a8afaa6-e73a-4887-b108-6febd66433ff","ios":"levelo://app?vid=4a8afaa6-e73a-4887-b108-6febd66433ff"},"vehicle_type_id":"4","last_reported":1730103194,"current_range_meters":30000,"station_id":"ce4bgr92rcd13ifvqc6g","pricing_plan_id":"cebpf4jnsgd1na2vs0mg"},{"bike_id":"81e500be-3ff6-45b1-af40-237783c8efb0","system_id":"levelo_inurba_marseille","lat":43.27813,"lon":5.40713,"is_reserved":false,"is_disabled":false,"rental_uris":{"android":"levelo://app?vid=81e500be-3ff6-45b1-af40-237783c8efb0","ios":"levelo://app?vid=81e500be-3ff6-45b1-af40-237783c8efb0"},"vehicle_type_id":"4","last_reported":1730103194,"current_range_meters":9200,"station_id":"ce4bhnh2rcd13ifvqgtg","pricing_plan_id":"cebpf4jnsgd1na2vs0mg"},{"bike_id":"5d820ce0-2d55-46e5-b74d-cc75a18e2e27","system_id":"levelo_inurba_marseille","lat":43.26992,"lon":5.39245,"is_reserved":false,"is_disabled":false,"rental_uris":{"android":"levelo://app?vid=5d820ce0-2d55-46e5-b74d-cc75a18e2e27","ios":"levelo://app?vid=5d820ce0-2d55-46e5-b74d-cc75a18e2e27"},"vehicle_type_id":"4","last_reported":1730103194,"current_range_meters":32800,"station_id":"ce4bgh92rcd13ifvqb40","pricing_plan_id":"cebpf4jnsgd1na2vs0mg"},{"bike_id":"40b039ad-0769-4a0e-8ad8-e16a05aa5fd5","system_id":"levelo_inurba_marseille","lat":43.27945,"lon":5.41045,"is_reserved":false,"is_disabled":false,"rental_uris":{"android":"levelo://app?vid=40b039ad-0769-4a0e-8ad8-e16a05aa5fd5","ios":"levelo://app?vid=40b039ad-0769-4a0e-8ad8-e16a05aa5fd5"},"vehicle_type_id":"4","last_reported":1730103194,"current_range_meters":38000,"station_id":"ce4bhnp2rcd13ifvqh0g","pricing_plan_id":"cebpf4jnsgd1na2vs0mg"},{"bike_id":"a3d8fac0-8f48-41e9-8149-d26035cb46ea","system_id":"levelo_inurba_marseille","lat":43.283616,"lon":5.386307,"is_reserved":false,"is_disabled":false,"rental_uris":{"android":"levelo://app?vid=a3d8fac0-8f48-41e9-8149-d26035cb46ea","ios":"levelo://app?vid=a3d8fac0-8f48-41e9-8149-d26035cb46ea"},"vehicle_type_id":"4","last_reported":1730103194,"current_range_meters":25200,"station_id":"ce4bh492rcd13ifvqdvg","pricing_plan_id":"cebpf4jnsgd1na2vs0mg"},{"bike_id":"e3f47b80-4d77-4b5e-837f-43a3c11bfd44","system_id":"levelo_inurba_marseille","lat":43.31198,"lon":5.36838,"is_reserved":false,"is_disabled":false,"rental_uris":{"android":"levelo://app?vid=e3f47b80-4d77-4b5e-837f-43a3c11bfd44","ios":"levelo://app?vid=e3f47b80-4d77-4b5e-837f-43a3c11bfd44"},"vehicle_type_id":"4","last_reported":1730103194,"current_range_meters":39200,"station_id":"ce4bgl92rcd13ifvqbq0","pricing_plan_id":"cebpf4jnsgd1na2vs0mg"},{"bike_id":"df18a4d4-051a-4a60-ad8e-e275c817d3a2","system_id":"levelo_inurba_marseille","lat":43.30532,"lon":5.36537,"is_reserved":false,"is_disabled":false,"rental_uris":{"android":"levelo://app?vid=df18a4d4-051a-4a60-ad8e-e275c817d3a2","ios":"levelo://app?vid=df18a4d4-051a-4a60-ad8e-e275c817d3a2"},"vehicle_type_id":"4","last_reported":1730103194,"current_range_meters":34000,"station_id":"ce4bgs12rcd13ifvqcag","pricing_plan_id":"cebpf4jnsgd1na2vs0mg"},{"bike_id":"85954db0-0f95-4cab-bd1b-ba49cde47c67","system_id":"levelo_inurba_marseille","lat":43.31291,"lon":5.38286,"is_reserved":false,"is_disabled":false,"rental_uris":{"android":"levelo://app?vid=85954db0-0f95-4cab-bd1b-ba49cde47c67","ios":"levelo://app?vid=85954db0-0f95-4cab-bd1b-ba49cde47c67"},"vehicle_type_id":"4","last_reported":1730103194,"current_range_meters":16400,"station_id":"","pricing_plan_id":"cebpf4jnsgd1na2vs0mg"},{"bike_id":"37169305-de66-436f-9c77-4e934acf2c2a","system_id":"levelo_inurba_marseille","lat":43.292847,"lon":5.407565,"is_reserved":false,"is_disabled":false,"rental_uris":{"android":"levelo://app?vid=37169305-de66-436f-9c77-4e934acf2c2a","ios":"levelo://app?vid=37169305-de66-436f-9c77-4e934acf2c2a"},"vehicle_type_id":"4","last_reported":1730103194,"current_range_meters":38800,"station_id":"ce4bh392rcd13ifvqdm0","pricing_plan_id":"cebpf4jnsgd1na2vs0mg"},{"bike_id":"248614b5-378d-4b82-9791-2a22be703bbc","system_id":"levelo_inurba_marseille","lat":43.27313,"lon":5.39084,"is_reserved":false,"is_disabled":false,"rental_uris":{"android":"levelo://app?vid=248614b5-378d-4b82-9791-2a22be703bbc","ios":"levelo://app?vid=248614b5-378d-4b82-9791-2a22be703bbc"},"vehicle_type_id":"4","last_reported":1730103194,"current_range_meters":37600,"station_id":"ce4bhgp2rcd13ifvqfe0","pricing_plan_id":"cebpf4jnsgd1na2vs0mg"},{"bike_id":"92a9229f-4e73-42bf-9c73-ff4ec7e0d3ca","system_id":"levelo_inurba_marseille","lat":43.303,"lon":5.36883,"is_reserved":false,"is_disabled":false,"rental_uris":{"android":"levelo://app?vid=92a9229f-4e73-42bf-9c73-ff4ec7e0d3ca","ios":"levelo://app?vid=92a9229f-4e73-42bf-9c73-ff4ec7e0d3ca"},"vehicle_type_id":"4","last_reported":1730103194,"current_range_meters":24400,"station_id":"ce4bgqh2rcd13ifvqc5g","pricing_plan_id":"cebpf4jnsgd1na2vs0mg"},{"bike_id":"adadb5c5-f7d3-4b8a-81d5-3df3051cde40","system_id":"levelo_inurba_marseille","lat":43.30943,"lon":5.39033,"is_reserved":false,"is_disabled":false,"rental_uris":{"android":"levelo://app?vid=adadb5c5-f7d3-4b8a-81d5-3df3051cde40","ios":"levelo://app?vid=adadb5c5-f7d3-4b8a-81d5-3df3051cde40"},"vehicle_type_id":"4","last_reported":1730103194,"current_range_meters":34000,"station_id":"ce4bgup2rcd13ifvqco0","pricing_plan_id":"cebpf4jnsgd1na2vs0mg"},{"bike_id":"8d875046-c003-4303-8d71-2434c9617cda","system_id":"levelo_inurba_marseille","lat":43.26198,"lon":5.37923,"is_reserved":false,"is_disabled":false,"rental_uris":{"android":"levelo://app?vid=8d875046-c003-4303-8d71-2434c9617cda","ios":"levelo://app?vid=8d875046-c003-4303-8d71-2434c9617cda"},"vehicle_type_id":"4","last_reported":1730103194,"current_range_meters":38400,"station_id":"ce4bhjp2rcd13ifvqg90","pricing_plan_id":"cebpf4jnsgd1na2vs0mg"},{"bike_id":"628ec5cc-4883-45f3-ab38-563c60e63a3a","system_id":"levelo_inurba_marseille","lat":43.26193,"lon":5.37926,"is_reserved":false,"is_disabled":false,"rental_uris":{"android":"levelo://app?vid=628ec5cc-4883-45f3-ab38-563c60e63a3a","ios":"levelo://app?vid=628ec5cc-4883-45f3-ab38-563c60e63a3a"},"vehicle_type_id":"4","last_reported":1730103194,"current_range_meters":5600,"station_id":"ce4bhjp2rcd13ifvqg90","pricing_plan_id":"cebpf4jnsgd1na2vs0mg"},{"bike_id":"5e8add12-0a2f-4ee0-a948-b3005ed38fe3","system_id":"levelo_inurba_marseille","lat":43.3248,"lon":5.36562,"is_reserved":false,"is_disabled":false,"rental_uris":{"android":"levelo://app?vid=5e8add12-0a2f-4ee0-a948-b3005ed38fe3","ios":"levelo://app?vid=5e8add12-0a2f-4ee0-a948-b3005ed38fe3"},"vehicle_type_id":"4","last_reported":1730103194,"current_range_meters":38000,"station_id":"ce4bhs12rcd13ifvqhvg","pricing_plan_id":"cebpf4jnsgd1na2vs0mg"},{"bike_id":"1a0488e6-cb96-4aac-a069-c55916ff5f1e","system_id":"levelo_inurba_marseille","lat":43.32038,"lon":5.40745,"is_reserved":false,"is_disabled":false,"rental_uris":{"android":"levelo://app?vid=1a0488e6-cb96-4aac-a069-c55916ff5f1e","ios":"levelo://app?vid=1a0488e6-cb96-4aac-a069-c55916ff5f1e"},"vehicle_type_id":"4","last_reported":1730103194,"current_range_meters":4400,"station_id":"ce4bhq92rcd13ifvqhjg","pricing_plan_id":"cebpf4jnsgd1na2vs0mg"},{"bike_id":"dc1db8f0-a45c-4980-84b1-5990614565b3","system_id":"levelo_inurba_marseille","lat":43.30157,"lon":5.38082,"is_reserved":false,"is_disabled":false,"rental_uris":{"android":"levelo://app?vid=dc1db8f0-a45c-4980-84b1-5990614565b3","ios":"levelo://app?vid=dc1db8f0-a45c-4980-84b1-5990614565b3"},"vehicle_type_id":"4","last_reported":1730103194,"current_range_meters":32000,"station_id":"ce4bgjp2rcd13ifvqbh0","pricing_plan_id":"cebpf4jnsgd1na2vs0mg"},{"bike_id":"58c29938-9a66-4cb0-80d8-96474a8212ec","system_id":"levelo_inurba_marseille","lat":43.23154,"lon":5.43719,"is_reserved":false,"is_disabled":false,"rental_uris":{"android":"levelo://app?vid=58c29938-9a66-4cb0-80d8-96474a8212ec","ios":"levelo://app?vid=58c29938-9a66-4cb0-80d8-96474a8212ec"},"vehicle_type_id":"4","last_reported":1730103194,"current_range_meters":23200,"station_id":"ce4bhmp2rcd13ifvqgog","pricing_plan_id":"cebpf4jnsgd1na2vs0mg"},{"bike_id":"5317dd4f-a2cf-49fa-953c-f663dd091208","system_id":"levelo_inurba_marseille","lat":43.29158,"lon":5.39318,"is_reserved":false,"is_disabled":false,"rental_uris":{"android":"levelo://app?vid=5317dd4f-a2cf-49fa-953c-f663dd091208","ios":"levelo://app?vid=5317dd4f-a2cf-49fa-953c-f663dd091208"},"vehicle_type_id":"4","last_reported":1730103194,"current_range_meters":29600,"station_id":"ce4bh192rcd13ifvqdd0","pricing_plan_id":"cebpf4jnsgd1na2vs0mg"},{"bike_id":"d6ca5251-fe14-4d88-a071-2d3567937dda","system_id":"levelo_inurba_marseille","lat":43.26194,"lon":5.37932,"is_reserved":false,"is_disabled":false,"rental_uris":{"android":"levelo://app?vid=d6ca5251-fe14-4d88-a071-2d3567937dda","ios":"levelo://app?vid=d6ca5251-fe14-4d88-a071-2d3567937dda"},"vehicle_type_id":"4","last_reported":1730103194,"current_range_meters":26000,"station_id":"ce4bhjp2rcd13ifvqg90","pricing_plan_id":"cebpf4jnsgd1na2vs0mg"},{"bike_id":"289f2bfb-331d-4023-a9ef-99c7fa84834b","system_id":"levelo_inurba_marseille","lat":43.28597,"lon":5.35104,"is_reserved":false,"is_disabled":false,"rental_uris":{"android":"levelo://app?vid=289f2bfb-331d-4023-a9ef-99c7fa84834b","ios":"levelo://app?vid=289f2bfb-331d-4023-a9ef-99c7fa84834b"},"vehicle_type_id":"4","last_reported":1730103194,"current_range_meters":37600,"station_id":"ce4bhch2rcd13ifvqeug","pricing_plan_id":"cebpf4jnsgd1na2vs0mg"},{"bike_id":"a792347a-d158-4403-9c48-1b4e0c6fc790","system_id":"levelo_inurba_marseille","lat":43.27072,"lon":5.42275,"is_reserved":false,"is_disabled":false,"rental_uris":{"android":"levelo://app?vid=a792347a-d158-4403-9c48-1b4e0c6fc790","ios":"levelo://app?vid=a792347a-d158-4403-9c48-1b4e0c6fc790"},"vehicle_type_id":"4","last_reported":1730103194,"current_range_meters":38800,"station_id":"ce4bhk92rcd13ifvqgb0","pricing_plan_id":"cebpf4jnsgd1na2vs0mg"},{"bike_id":"0ca86776-ab60-42b5-b974-38ec7ad2ba4a","system_id":"levelo_inurba_marseille","lat":43.294983,"lon":5.374372,"is_reserved":false,"is_disabled":false,"rental_uris":{"android":"levelo://app?vid=0ca86776-ab60-42b5-b974-38ec7ad2ba4a","ios":"levelo://app?vid=0ca86776-ab60-42b5-b974-38ec7ad2ba4a"},"vehicle_type_id":"4","last_reported":1730103194,"current_range_meters":27200,"station_id":"ce4bgkp2rcd13ifvqbmg","pricing_plan_id":"cebpf4jnsgd1na2vs0mg"},{"bike_id":"a8c3d82e-c2fe-49cf-933b-be8a59a77910","system_id":"levelo_inurba_marseille","lat":43.32463,"lon":5.36557,"is_reserved":false,"is_disabled":false,"rental_uris":{"android":"levelo://app?vid=a8c3d82e-c2fe-49cf-933b-be8a59a77910","ios":"levelo://app?vid=a8c3d82e-c2fe-49cf-933b-be8a59a77910"},"vehicle_type_id":"4","last_reported":1730103194,"current_range_meters":38400,"station_id":"ce4bhs12rcd13ifvqhvg","pricing_plan_id":"cebpf4jnsgd1na2vs0mg"},{"bike_id":"b497d91c-1f87-4508-b462-50136e06ba9f","system_id":"levelo_inurba_marseille","lat":43.24174,"lon":5.39723,"is_reserved":false,"is_disabled":false,"rental_uris":{"android":"levelo://app?vid=b497d91c-1f87-4508-b462-50136e06ba9f","ios":"levelo://app?vid=b497d91c-1f87-4508-b462-50136e06ba9f"},"vehicle_type_id":"4","last_reported":1730103194,"current_range_meters":32800,"station_id":"ce4bhn12rcd13ifvqgpg","pricing_plan_id":"cebpf4jnsgd1na2vs0mg"},{"bike_id":"e0bf05b6-3eb6-4872-8e8d-82b38f035f72","system_id":"levelo_inurba_marseille","lat":43.23182,"lon":5.39978,"is_reserved":false,"is_disabled":false,"rental_uris":{"android":"levelo://app?vid=e0bf05b6-3eb6-4872-8e8d-82b38f035f72","ios":"levelo://app?vid=e0bf05b6-3eb6-4872-8e8d-82b38f035f72"},"vehicle_type_id":"4","last_reported":1730103194,"current_range_meters":38800,"station_id":"ce4bhn12rcd13ifvqgqg","pricing_plan_id":"cebpf4jnsgd1na2vs0mg"},{"bike_id":"4cc98e25-b0be-4721-95ef-a85e2979b3b0","system_id":"levelo_inurba_marseille","lat":43.29271,"lon":5.36847,"is_reserved":false,"is_disabled":false,"rental_uris":{"android":"levelo://app?vid=4cc98e25-b0be-4721-95ef-a85e2979b3b0","ios":"levelo://app?vid=4cc98e25-b0be-4721-95ef-a85e2979b3b0"},"vehicle_type_id":"4","last_reported":1730103194,"current_range_meters":38800,"station_id":"ce4bhbp2rcd13ifvqesg","pricing_plan_id":"cebpf4jnsgd1na2vs0mg"},{"bike_id":"870759aa-b4f1-410f-8dd7-8cce75f5dcfb","system_id":"levelo_inurba_marseille","lat":43.23149,"lon":5.4372,"is_reserved":false,"is_disabled":false,"rental_uris":{"android":"levelo://app?vid=870759aa-b4f1-410f-8dd7-8cce75f5dcfb","ios":"levelo://app?vid=870759aa-b4f1-410f-8dd7-8cce75f5dcfb"},"vehicle_type_id":"4","last_reported":1730103194,"current_range_meters":39200,"station_id":"ce4bhmp2rcd13ifvqgog","pricing_plan_id":"cebpf4jnsgd1na2vs0mg"},{"bike_id":"826eb7f4-7b2c-4960-b8f0-1ad2d382103e","system_id":"levelo_inurba_marseille","lat":43.27496,"lon":5.42446,"is_reserved":false,"is_disabled":false,"rental_uris":{"android":"levelo://app?vid=826eb7f4-7b2c-4960-b8f0-1ad2d382103e","ios":"levelo://app?vid=826eb7f4-7b2c-4960-b8f0-1ad2d382103e"},"vehicle_type_id":"4","last_reported":1730103194,"current_range_meters":38400,"station_id":"ce4bhn92rcd13ifvqgrg","pricing_plan_id":"cebpf4jnsgd1na2vs0mg"},{"bike_id":"03ffeab1-71a3-48a9-9c51-d04215d91470","system_id":"levelo_inurba_marseille","lat":43.281534,"lon":5.426472,"is_reserved":false,"is_disabled":false,"rental_uris":{"android":"levelo://app?vid=03ffeab1-71a3-48a9-9c51-d04215d91470","ios":"levelo://app?vid=03ffeab1-71a3-48a9-9c51-d04215d91470"},"vehicle_type_id":"4","last_reported":1730103194,"current_range_meters":22000,"station_id":"ce4bhnh2rcd13ifvqgug","pricing_plan_id":"cebpf4jnsgd1na2vs0mg"},{"bike_id":"5790618d-de32-4a58-898a-bfa124a2426f","system_id":"levelo_inurba_marseille","lat":43.24173,"lon":5.39716,"is_reserved":false,"is_disabled":false,"rental_uris":{"android":"levelo://app?vid=5790618d-de32-4a58-898a-bfa124a2426f","ios":"levelo://app?vid=5790618d-de32-4a58-898a-bfa124a2426f"},"vehicle_type_id":"4","last_reported":1730103194,"current_range_meters":29600,"station_id":"ce4bhn12rcd13ifvqgpg","pricing_plan_id":"cebpf4jnsgd1na2vs0mg"},{"bike_id":"089c37ba-3c44-437d-be3a-8dcc8e4e5629","system_id":"levelo_inurba_marseille","lat":43.30552,"lon":5.36544,"is_reserved":false,"is_disabled":false,"rental_uris":{"android":"levelo://app?vid=089c37ba-3c44-437d-be3a-8dcc8e4e5629","ios":"levelo://app?vid=089c37ba-3c44-437d-be3a-8dcc8e4e5629"},"vehicle_type_id":"4","last_reported":1730103194,"current_range_meters":38800,"station_id":"ce4bgs12rcd13ifvqcag","pricing_plan_id":"cebpf4jnsgd1na2vs0mg"},{"bike_id":"4dcd7956-9706-4e34-9524-b28c92b24994","system_id":"levelo_inurba_marseille","lat":43.30545,"lon":5.36707,"is_reserved":false,"is_disabled":false,"rental_uris":{"android":"levelo://app?vid=4dcd7956-9706-4e34-9524-b28c92b24994","ios":"levelo://app?vid=4dcd7956-9706-4e34-9524-b28c92b24994"},"vehicle_type_id":"4","last_reported":1730103194,"current_range_meters":36800,"station_id":"ce4bgrp2rcd13ifvqc9g","pricing_plan_id":"cebpf4jnsgd1na2vs0mg"},{"bike_id":"dd07f644-fe08-40c5-852c-6a322588ef28","system_id":"levelo_inurba_marseille","lat":43.31363,"lon":5.38495,"is_reserved":false,"is_disabled":false,"rental_uris":{"android":"levelo://app?vid=dd07f644-fe08-40c5-852c-6a322588ef28","ios":"levelo://app?vid=dd07f644-fe08-40c5-852c-6a322588ef28"},"vehicle_type_id":"4","last_reported":1730103194,"current_range_meters":27200,"station_id":"ce4bgt92rcd13ifvqcf0","pricing_plan_id":"cebpf4jnsgd1na2vs0mg"},{"bike_id":"60749919-b1e7-4299-821f-83d2deaf9f68","system_id":"levelo_inurba_marseille","lat":43.29587,"lon":5.36744,"is_reserved":false,"is_disabled":false,"rental_uris":{"android":"levelo://app?vid=60749919-b1e7-4299-821f-83d2deaf9f68","ios":"levelo://app?vid=60749919-b1e7-4299-821f-83d2deaf9f68"},"vehicle_type_id":"4","last_reported":1730103194,"current_range_meters":38800,"station_id":"ce4bgph2rcd13ifvqc2g","pricing_plan_id":"cebpf4jnsgd1na2vs0mg"},{"bike_id":"849785e9-df49-4bb2-922a-1f828700f85e","system_id":"levelo_inurba_marseille","lat":43.26551,"lon":5.37285,"is_reserved":false,"is_disabled":false,"rental_uris":{"android":"levelo://app?vid=849785e9-df49-4bb2-922a-1f828700f85e","ios":"levelo://app?vid=849785e9-df49-4bb2-922a-1f828700f85e"},"vehicle_type_id":"4","last_reported":1730103194,"current_range_meters":34000,"station_id":"ce4bhg12rcd13ifvqf70","pricing_plan_id":"cebpf4jnsgd1na2vs0mg"},{"bike_id":"e40d7012-0fcd-44be-b951-206a63f4bc12","system_id":"levelo_inurba_marseille","lat":43.30147,"lon":5.38076,"is_reserved":false,"is_disabled":false,"rental_uris":{"android":"levelo://app?vid=e40d7012-0fcd-44be-b951-206a63f4bc12","ios":"levelo://app?vid=e40d7012-0fcd-44be-b951-206a63f4bc12"},"vehicle_type_id":"4","last_reported":1730103194,"current_range_meters":38800,"station_id":"ce4bgjp2rcd13ifvqbh0","pricing_plan_id":"cebpf4jnsgd1na2vs0mg"},