{"last_updated":1735657687,"ttl":60,"version":"2.2","data":{"bikes":[{"bike_id":"474c001f-8474-406d-ae88-70642aa13495","system_id":"levelo_inurba_marseille","lat":43.28439,"lon":5.39179,"is_reserved":false,"is_disabled":false,"rental_uris":{"android":"levelo://app?vid=474c001f-8474-406d-ae88-70642aa13495","ios":"levelo://app?vid=474c001f-8474-406d-ae88-70642aa13495"},"vehicle_type_id":"4","last_reported":1735657688,"current_range_meters":39200,"station_id":"ce4bhoh2rcd13ifvqh5g","pricing_plan_id":"cebpf4jnsgd1na2vs0mg"},{"bike_id":"446d3da9-7829-402c-97cb-ca1dad65cd97","system_id":"levelo_inurba_marseille","lat":43.27185,"lon":5.40991,"is_reserved":false,"is_disabled":false,"rental_uris":{"android":"levelo://app?vid=446d3da9-7829-402c-97cb-ca1dad65cd97","ios":"levelo://app?vid=446d3da9-7829-402c-97cb-ca1dad65cd97"},"vehicle_type_id":"4","last_reported":1735657688,"current_range_meters":29600,"station_id":"ce4bhl12rcd13ifvqgf0","pricing_plan_id":"cebpf4jnsgd1na2vs0mg"},{"bike_id":"52d5ec45-529c-4b07-9e70-6967d7b9be75","system_id":"levelo_inurba_marseille","lat":43.2606,"lon":5.394,"is_reserved":false,"is_disabled":false,"rental_uris":{"android":"levelo://app?vid=52d5ec45-529c-4b07-9e70-6967d7b9be75","ios":"levelo://app?vid=52d5ec45-529c-4b07-9e70-6967d7b9be75"},"vehicle_type_id":"4","last_reported":1735657688,"current_range_meters":38000,"station_id":"ce4bhh92rcd13ifvqfj0","pricing_plan_id":"cebpf4jnsgd1na2vs0mg"},{"bike_id":"f15ceb0b-2c59-48e1-97c7-597f4ecedcd3","system_id":"levelo_inurba_marseille","lat":43.26212,"lon":5.3744,"is_reserved":false,"is_disabled":false,"rental_uris":{"android":"levelo://app?vid=f15ceb0b-2c59-48e1-97c7-597f4ecedcd3","ios":"levelo://app?vid=f15ceb0b-2c59-48e1-97c7-597f4ecedcd3"},"vehicle_type_id":"4","last_reported":1735657688,"current_range_meters":17600,"station_id":"ce4bhgp2rcd13ifvqfc0","pricing_plan_id":"cebpf4jnsgd1na2vs0mg"},{"bike_id":"7135a48b-cb43-4a1b-8aac-0699abe422db","system_id":"levelo_inurba_marseille","lat":43.2795,"lon":5.41052,"is_reserved":false,"is_disabled":false,"rental_uris":{"android":"levelo://app?vid=7135a48b-cb43-4a1b-8aac-0699abe422db","ios":"levelo://app?vid=7135a48b-cb43-4a1b-8aac-0699abe422db"},"vehicle_type_id":"4","last_reported":1735657688,"current_range_meters":24400,"station_id":"ce4bhnp2rcd13ifvqh0g","pricing_plan_id":"cebpf4jnsgd1na2vs0mg"},{"bike_id":"a0c124c9-3c60-4a2e-a0f3-69bfc4ba35d5","system_id":"levelo_inurba_marseille","lat":43.25574,"lon":5.38243,"is_reserved":false,"is_disabled":false,"rental_uris":{"android":"levelo://app?vid=a0c124c9-3c60-4a2e-a0f3-69bfc4ba35d5","ios":"levelo://app?vid=a0c124c9-3c60-4a2e-a0f3-69bfc4ba35d5"},"vehicle_type_id":"4","last_reported":1735657688,"current_range_meters":6400,"station_id":"ce4bhih2rcd13ifvqfs0","pricing_plan_id":"cebpf4jnsgd1na2vs0mg"},{"bike_id":"3991aac2-ec7f-43c8-801f-23e11845f2d6","system_id":"levelo_inurba_marseille","lat":43.281521,"lon":5.426523,"is_reserved":false,"is_disabled":false,"rental_uris":{"android":"levelo://app?vid=3991aac2-ec7f-43c8-801f-23e11845f2d6","ios":"levelo://app?vid=3991aac2-ec7f-43c8-801f-23e11845f2d6"},"vehicle_type_id":"4","last_reported":1735657688,"current_range_meters":38800,"station_id":"ce4bhnh2rcd13ifvqgug","pricing_plan_id":"cebpf4jnsgd1na2vs0mg"},{"bike_id":"a84c903a-16f0-44ed-becd-c6849674ff70","system_id":"levelo_inurba_marseille","lat":43.22933,"lon":5.35394,"is_reserved":false,"is_disabled":false,"rental_uris":{"android":"levelo://app?vid=a84c903a-16f0-44ed-becd-c6849674ff70","ios":"levelo://app?vid=a84c903a-16f0-44ed-becd-c6849674ff70"},"vehicle_type_id":"4","last_reported":1735657688,"current_range_meters":8400,"station_id":"cpo3532slgdg3j2ikp40","pricing_plan_id":"cebpf4jnsgd1na2vs0mg"},{"bike_id":"4a606822-e9f0-4a05-b24d-aefbbf534d02","system_id":"levelo_inurba_marseille","lat":43.29043,"lon":5.35907,"is_reserved":false,"is_disabled":false,"rental_uris":{"android":"levelo://app?vid=4a606822-e9f0-4a05-b24d-aefbbf534d02","ios":"levelo://app?vid=4a606822-e9f0-4a05-b24d-aefbbf534d02"},"vehicle_type_id":"4","last_reported":1735657688,"current_range_meters":29600,"station_id":"ce4bha92rcd13ifvqeg0","pricing_plan_id":"cebpf4jnsgd1na2vs0mg"},{"bike_id":"7b399b3d-aa57-4ef6-b42c-b48ccc46741f","system_id":"levelo_inurba_marseille","lat":43.29695,"lon":5.37701,"is_reserved":false,"is_disabled":false,"rental_uris":{"android":"levelo://app?vid=7b399b3d-aa57-4ef6-b42c-b48ccc46741f","ios":"levelo://app?vid=7b399b3d-aa57-4ef6-b42c-b48ccc46741f"},"vehicle_type_id":"4","last_reported":1735657688,"current_range_meters":38800,"station_id":"ce4bgkh2rcd13ifvqbl0","pricing_plan_id":"cebpf4jnsgd1na2vs0mg"},{"bike_id":"8ad09b60-3a79-4fc1-9f8d-63dc687108f3","system_id":"levelo_inurba_marseille","lat":43.337444,"lon":5.374475,"is_reserved":false,"is_disabled":false,"rental_uris":{"android":"levelo://app?vid=8ad09b60-3a79-4fc1-9f8d-63dc687108f3","ios":"levelo://app?vid=8ad09b60-3a79-4fc1-9f8d-63dc687108f3"},"vehicle_type_id":"4","last_reported":1735657688,"current_range_meters":38800,"station_id":"","pricing_plan_id":"cebpf4jnsgd1na2vs0mg"},{"bike_id":"d3d30c5e-be0b-4780-90cc-ff13d0799f61","system_id":"levelo_inurba_marseille","lat":43.26204,"lon":5.37449,"is_reserved":false,"is_disabled":false,"rental_uris":{"android":"levelo://app?vid=d3d30c5e-be0b-4780-90cc-ff13d0799f61","ios":"levelo://app?vid=d3d30c5e-be0b-4780-90cc-ff13d0799f61"},"vehicle_type_id":"4","last_reported":1735657688,"current_range_meters":36800,"station_id":"ce4bhgp2rcd13ifvqfc0","pricing_plan_id":"cebpf4jnsgd1na2vs0mg"},{"bike_id":"34746fd6-7d22-4962-bfa1-605bd86ec832","system_id":"levelo_inurba_marseille","lat":43.25502,"lon":5.37651,"is_reserved":false,"is_disabled":false,"rental_uris":{"android":"levelo://app?vid=34746fd6-7d22-4962-bfa1-605bd86ec832","ios":"levelo://app?vid=34746fd6-7d22-4962-bfa1-605bd86ec832"},"vehicle_type_id":"4","last_reported":1735657688,"current_range_meters":37600,"station_id":"ce4bhh12rcd13ifvqff0","pricing_plan_id":"cebpf4jnsgd1na2vs0mg"},{"bike_id":"d276c78c-bf06-4b74-905e-b5dff25974e7","system_id":"levelo_inurba_marseille","lat":43.25108,"lon":5.40324,"is_reserved":false,"is_disabled":false,"rental_uris":{"android":"levelo://app?vid=d276c78c-bf06-4b74-905e-b5dff25974e7","ios":"levelo://app?vid=d276c78c-bf06-4b74-905e-b5dff25974e7"},"vehicle_type_id":"4","last_reported":1735657688,"current_range_meters":28000,"station_id":"ce4bhlh2rcd13ifvqgig","pricing_plan_id":"cebpf4jnsgd1na2vs0mg"},{"bike_id":"ac9edfbd-2c81-4be2-9272-e6762f5e5829","system_id":"levelo_inurba_marseille","lat":43.29608,"lon":5.37733,"is_reserved":false,"is_disabled":false,"rental_uris":{"android":"levelo://app?vid=ac9edfbd-2c81-4be2-9272-e6762f5e5829","ios":"levelo://app?vid=ac9edfbd-2c81-4be2-9272-e6762f5e5829"},"vehicle_type_id":"4","last_reported":1735657688,"current_range_meters":36400,"station_id":"ce4bgi92rcd13ifvqb90","pricing_plan_id":"cebpf4jnsgd1na2vs0mg"},{"bike_id":"07abed00-5289-4968-ad13-b97801099ad4","system_id":"levelo_inurba_marseille","lat":43.29163,"lon":5.38609,"is_reserved":false,"is_disabled":false,"rental_uris":{"android":"levelo://app?vid=07abed00-5289-4968-ad13-b97801099ad4","ios":"levelo://app?vid=07abed00-5289-4968-ad13-b97801099ad4"},"vehicle_type_id":"4","last_reported":1735657688,"current_range_meters":30400,"station_id":"","pricing_plan_id":"cebpf4jnsgd1na2vs0mg"},{"bike_id":"3a87c08b-d35b-4ccb-bbd2-ccebf2da9f2c","system_id":"levelo_inurba_marseille","lat":43.26211,"lon":5.37444,"is_reserved":false,"is_disabled":false,"rental_uris":{"android":"levelo://app?vid=3a87c08b-d35b-4ccb-bbd2-ccebf2da9f2c","ios":"levelo://app?vid=3a87c08b-d35b-4ccb-bbd2-ccebf2da9f2c"},"vehicle_type_id":"4","last_reported":1735657688,"current_range_meters":22000,"station_id":"ce4bhgp2rcd13ifvqfc0","pricing_plan_id":"cebpf4jnsgd1na2vs0mg"},{"bike_id":"0e5a5f49-bc78-4b22-94c8-1c303a81b9cf","system_id":"levelo_inurba_marseille","lat":43.29517,"lon":5.37501,"is_reserved":false,"is_disabled":false,"rental_uris":{"android":"levelo://app?vid=0e5a5f49-bc78-4b22-94c8-1c303a81b9cf","ios":"levelo://app?vid=0e5a5f49-bc78-4b22-94c8-1c303a81b9cf"},"vehicle_type_id":"4","last_reported":1735657688,"current_range_meters":33200,"station_id":"ce4bgkp2rcd13ifvqbmg","pricing_plan_id":"cebpf4jnsgd1na2vs0mg"},{"bike_id":"f80486c0-769f-4f08-94f5-daaa1ac79068","system_id":"levelo_inurba_marseille","lat":43.24791,"lon":5.37459,"is_reserved":false,"is_disabled":false,"rental_uris":{"android":"levelo://app?vid=f80486c0-769f-4f08-94f5-daaa1ac79068","ios":"levelo://app?vid=f80486c0-769f-4f08-94f5-daaa1ac79068"},"vehicle_type_id":"4","last_reported":1735657688,"current_range_meters":28400,"station_id":"ce4bhgh2rcd13ifvqfb0","pricing_plan_id":"cebpf4jnsgd1na2vs0mg"},{"bike_id":"5630e7bd-33dd-46a6-96b7-e6d4c34fd774","system_id":"levelo_inurba_marseille","lat":43.26787,"lon":5.39421,"is_reserved":false,"is_disabled":false,"rental_uris":{"android":"levelo://app?vid=5630e7bd-33dd-46a6-96b7-e6d4c34fd774","ios":"levelo://app?vid=5630e7bd-33dd-46a6-96b7-e6d4c34fd774"},"vehicle_type_id":"4","last_reported":1735657688,"current_range_meters":14000,"station_id":"ce4bhh12rcd13ifvqfg0","pricing_plan_id":"cebpf4jnsgd1na2vs0mg"},{"bike_id":"d08aed72-c4aa-4b14-9e94-1554d28646fc","system_id":"levelo_inurba_marseille","lat":43.23964,"lon":5.36633,"is_reserved":false,"is_disabled":false,"rental_uris":{"android":"levelo://app?vid=d08aed72-c4aa-4b14-9e94-1554d28646fc","ios":"levelo://app?vid=d08aed72-c4aa-4b14-9e94-1554d28646fc"},"vehicle_type_id":"4","last_reported":1735657688,"current_range_meters":33200,"station_id":"ce4bhi12rcd13ifvqfp0","pricing_plan_id":"cebpf4jnsgd1na2vs0mg"},{"bike_id":"68fe914d-78e4-4773-bb6b-5e8407fd5609","system_id":"levelo_inurba_marseille","lat":43.29527,"lon":5.37496,"is_reserved":false,"is_disabled":false,"rental_uris":{"android":"levelo://app?vid=68fe914d-78e4-4773-bb6b-5e8407fd5609","ios":"levelo://app?vid=68fe914d-78e4-4773-bb6b-5e8407fd5609"},"vehicle_type_id":"4","last_reported":1735657688,"current_range_meters":28800,"station_id":"ce4bgkp2rcd13ifvqbmg","pricing_plan_id":"cebpf4jnsgd1na2vs0mg"},{"bike_id":"3e9657d5-35fb-4b62-8cf0-daf55d9b82f1","system_id":"levelo_inurba_marseille","lat":43.2511,"lon":5.40321,"is_reserved":false,"is_disabled":false,"rental_uris":{"android":"levelo://app?vid=3e9657d5-35fb-4b62-8cf0-daf55d9b82f1","ios":"levelo://app?vid=3e9657d5-35fb-4b62-8cf0-daf55d9b82f1"},"vehicle_type_id":"4","last_reported":1735657688,"current_range_meters":6400,"station_id":"ce4bhlh2rcd13ifvqgig","pricing_plan_id":"cebpf4jnsgd1na2vs0mg"},{"bike_id":"c662c50f-131c-47cb-9ba2-f1c1e3f28599","system_id":"levelo_inurba_marseille","lat":43.29576,"lon":5.37518,"is_reserved":false,"is_disabled":false,"rental_uris":{"android":"levelo://app?vid=c662c50f-131c-47cb-9ba2-f1c1e3f28599","ios":"levelo://app?vid=c662c50f-131c-47cb-9ba2-f1c1e3f28599"},"vehicle_type_id":"4","last_reported":1735657688,"current_range_meters":33600,"station_id":"ce4bgh92rcd13ifvqb50","pricing_plan_id":"cebpf4jnsgd1na2vs0mg"},{"bike_id":"37b5c94a-c717-42bf-b960-d5cd6c7e2be3","system_id":"levelo_inurba_marseille","lat":43.29545,"lon":5.42278,"is_reserved":false,"is_disabled":false,"rental_uris":{"android":"levelo://app?vid=37b5c94a-c717-42bf-b960-d5cd6c7e2be3","ios":"levelo://app?vid=37b5c94a-c717-42bf-b960-d5cd6c7e2be3"},"vehicle_type_id":"4","last_reported":1735657688,"current_range_meters":38000,"station_id":"ce4bhph2rcd13ifvqhdg","pricing_plan_id":"cebpf4jnsgd1na2vs0mg"},{"bike_id":"e65dafaa-5904-4704-8b5a-49b78209ac36","system_id":"levelo_inurba_marseille","lat":43.28153,"lon":5.42648,"is_reserved":false,"is_disabled":false,"rental_uris":{"android":"levelo://app?vid=e65dafaa-5904-4704-8b5a-49b78209ac36","ios":"levelo://app?vid=e65dafaa-5904-4704-8b5a-49b78209ac36"},"vehicle_type_id":"4","last_reported":1735657688,"current_range_meters":32400,"station_id":"ce4bhnh2rcd13ifvqgug","pricing_plan_id":"cebpf4jnsgd1na2vs0mg"},{"bike_id":"ff49d49a-53c3-499a-b296-89a67f332a8a","system_id":"levelo_inurba_marseille","lat":43.24169,"lon":5.3639,"is_reserved":false,"is_disabled":false,"rental_uris":{"android":"levelo://app?vid=ff49d49a-53c3-499a-b296-89a67f332a8a","ios":"levelo://app?vid=ff49d49a-53c3-499a-b296-89a67f332a8a"},"vehicle_type_id":"4","last_reported":1735657688,"current_range_meters":36400,"station_id":"cpo36qri1sfpv3e86is0","pricing_plan_id":"cebpf4jnsgd1na2vs0mg"},{"bike_id":"d841d641-2f56-46e3-be38-87db9829533f","system_id":"levelo_inurba_marseille","lat":43.27792,"lon":5.40763,"is_reserved":false,"is_disabled":false,"rental_uris":{"android":"levelo://app?vid=d841d641-2f56-46e3-be38-87db9829533f","ios":"levelo://app?vid=d841d641-2f56-46e3-be38-87db9829533f"},"vehicle_type_id":"4","last_reported":1735657688,"current_range_meters":27200,"station_id":"ce4bhnh2rcd13ifvqgtg","pricing_plan_id":"cebpf4jnsgd1na2vs0mg"},{"bike_id":"68ce89d7-2c49-47a3-af51-4cee0b21d337","system_id":"levelo_inurba_marseille","lat":43.27938,"lon":5.38671,"is_reserved":false,"is_disabled":false,"rental_uris":{"android":"levelo://app?vid=68ce89d7-2c49-47a3-af51-4cee0b21d337","ios":"levelo://app?vid=68ce89d7-2c49-47a3-af51-4cee0b21d337"},"vehicle_type_id":"4","last_reported":1735657688,"current_range_meters":35200,"station_id":"","pricing_plan_id":"cebpf4jnsgd1na2vs0mg"},{"bike_id":"027085de-3c06-4c90-8099-b9537f78e863","system_id":"levelo_inurba_marseille","lat":43.23147,"lon":5.43725,"is_reserved":false,"is_disabled":false,"rental_uris":{"android":"levelo://app?vid=027085de-3c06-4c90-8099-b9537f78e863","ios":"levelo://app?vid=027085de-3c06-4c90-8099-b9537f78e863"},"vehicle_type_id":"4","last_reported":1735657688,"current_range_meters":38400,"station_id":"ce4bhmp2rcd13ifvqgog","pricing_plan_id":"cebpf4jnsgd1na2vs0mg"},{"bike_id":"e84435b8-7aa2-4087-b8cb-43dccde14c58","system_id":"levelo_inurba_marseille","lat":43.29793,"lon":5.38075,"is_reserved":false,"is_disabled":false,"rental_uris":{"android":"levelo://app?vid=e84435b8-7aa2-4087-b8cb-43dccde14c58","ios":"levelo://app?vid=e84435b8-7aa2-4087-b8cb-43dccde14c58"},"vehicle_type_id":"4","last_reported":1735657688,"current_range_meters":4400,"station_id":"ce4bgip2rcd13ifvqbb0","pricing_plan_id":"cebpf4jnsgd1na2vs0mg"},{"bike_id":"13f84696-4405-43e0-b0f5-1a61d67abe32","system_id":"levelo_inurba_marseille","lat":43.278391,"lon":5.392018,"is_reserved":false,"is_disabled":false,"rental_uris":{"android":"levelo://app?vid=13f84696-4405-43e0-b0f5-1a61d67abe32","ios":"levelo://app?vid=13f84696-4405-43e0-b0f5-1a61d67abe32"},"vehicle_type_id":"4","last_reported":1735657688,"current_range_meters":14000,"station_id":"ce4bhjp2rcd13ifvqga0","pricing_plan_id":"cebpf4jnsgd1na2vs0mg"},{"bike_id":"084f20e0-058f-4845-bcf8-330201a6e3a6","system_id":"levelo_inurba_marseille","lat":43.312729,"lon":5.401736,"is_reserved":false,"is_disabled":false,"rental_uris":{"android":"levelo://app?vid=084f20e0-058f-4845-bcf8-330201a6e3a6","ios":"levelo://app?vid=084f20e0-058f-4845-bcf8-330201a6e3a6"},"vehicle_type_id":"4","last_reported":1735657688,"current_range_meters":38800,"station_id":"ce4bh092rcd13ifvqd30","pricing_plan_id":"cebpf4jnsgd1na2vs0mg"},{"bike_id":"6275c667-9408-4738-96cb-6278121ca45a","system_id":"levelo_inurba_marseille","lat":43.274296,"lon":5.394166,"is_reserved":false,"is_disabled":false,"rental_uris":{"android":"levelo://app?vid=6275c667-9408-4738-96cb-6278121ca45a","ios":"levelo://app?vid=6275c667-9408-4738-96cb-6278121ca45a"},"vehicle_type_id":"4","last_reported":1735657688,"current_range_meters":8400,"station_id":"ce4bhdp2rcd13ifvqf20","pricing_plan_id":"cebpf4jnsgd1na2vs0mg"},{"bike_id":"317bbece-85f5-4709-8e50-643ba25a75ff","system_id":"levelo_inurba_marseille","lat":43.33766,"lon":5.37445,"is_reserved":false,"is_disabled":false,"rental_uris":{"android":"levelo://app?vid=317bbece-85f5-4709-8e50-643ba25a75ff","ios":"levelo://app?vid=317bbece-85f5-4709-8e50-643ba25a75ff"},"vehicle_type_id":"4","last_reported":1735657688,"current_range_meters":38000,"station_id":"","pricing_plan_id":"cebpf4jnsgd1na2vs0mg"},{"bike_id":"e7774da4-c308-4bfa-aba8-31efca07b3a0","system_id":"levelo_inurba_marseille","lat":43.33741,"lon":5.37467,"is_reserved":false,"is_disabled":false,"rental_uris":{"android":"levelo://app?vid=e7774da4-c308-4bfa-aba8-31efca07b3a0","ios":"levelo://app?vid=e7774da4-c308-4bfa-aba8-31efca07b3a0"},"vehicle_type_id":"4","last_reported":1735657688,"current_range_meters":12000,"station_id":"","pricing_plan_id":"cebpf4jnsgd1na2vs0mg"},{"bike_id":"8e93d70a-d0ee-4fc3-a7e7-63e94e7a481d","system_id":"levelo_inurba_marseille","lat":43.30143,"lon":5.37412,"is_reserved":false,"is_disabled":false,"rental_uris":{"android":"levelo://app?vid=8e93d70a-d0ee-4fc3-a7e7-63e94e7a481d","ios":"levelo://app?vid=8e93d70a-d0ee-4fc3-a7e7-63e94e7a481d"},"vehicle_type_id":"4","last_reported":1735657688,"current_range_meters":38800,"station_id":"ce4bgs92rcd13ifvqcc0","pricing_plan_id":"cebpf4jnsgd1na2vs0mg"},{"bike_id":"cb97c7ba-1edf-46c0-b0a5-43188f79be9f","system_id":"levelo_inurba_marseille","lat":43.24552,"lon":5.39538,"is_reserved":false,"is_disabled":true,"rental_uris":{"android":"levelo://app?vid=cb97c7ba-1edf-46c0-b0a5-43188f79be9f","ios":"levelo://app?vid=cb97c7ba-1edf-46c0-b0a5-43188f79be9f"},"vehicle_type_id":"4","last_reported":1735657688,"current_range_meters":1200,"station_id":"ce4bhlp2rcd13ifvqgjg","pricing_plan_id":"cebpf4jnsgd1na2vs0mg"},{"bike_id":"ad09079b-2a66-443a-a13d-b1f84ab569d5","system_id":"levelo_inurba_marseille","lat":43.250067,"lon":5.389329,"is_reserved":false,"is_disabled":false,"rental_uris":{"android":"levelo://app?vid=ad09079b-2a66-443a-a13d-b1f84ab569d5","ios":"levelo://app?vid=ad09079b-2a66-443a-a13d-b1f84ab569d5"},"vehicle_type_id":"4","last_reported":1735657688,"current_range_meters":38800,"station_id":"ce4bhgp2rcd13ifvqfd0","pricing_plan_id":"cebpf4jnsgd1na2vs0mg"},{"bike_id":"c8251911-96d2-46f6-9a37-f0aa60459aa2","system_id":"levelo_inurba_marseille","lat":43.29439,"lon":5.38596,"is_reserved":false,"is_disabled":false,"rental_uris":{"android":"levelo://app?vid=c8251911-96d2-46f6-9a37-f0aa60459aa2","ios":"levelo://app?vid=c8251911-96d2-46f6-9a37-f0aa60459aa2"},"vehicle_type_id":"4","last_reported":1735657688,"current_range_meters":28800,"station_id":"ce4bh2h2rcd13ifvqdh0","pricing_plan_id":"cebpf4jnsgd1na2vs0mg"},{"bike_id":"b0772fac-bdce-4e38-a388-89455c81aad0","system_id":"levelo_inurba_marseille","lat":43.30593,"lon":5.37232,"is_reserved":false,"is_disabled":false,"rental_uris":{"android":"levelo://app?vid=b0772fac-bdce-4e38-a388-89455c81aad0","ios":"levelo://app?vid=b0772fac-bdce-4e38-a388-89455c81aad0"},"vehicle_type_id":"4","last_reported":1735657688,"current_range_meters":34000,"station_id":"ce4bgqh2rcd13ifvqc4g","pricing_plan_id":"cebpf4jnsgd1na2vs0mg"},{"bike_id":"23ccad46-cca7-4f59-8163-f079aa369233","system_id":"levelo_inurba_marseille","lat":43.29185,"lon":5.35809,"is_reserved":false,"is_disabled":false,"rental_uris":{"android":"levelo://app?vid=23ccad46-cca7-4f59-8163-f079aa369233","ios":"levelo://app?vid=23ccad46-cca7-4f59-8163-f079aa369233"},"vehicle_type_id":"4","last_reported":1735657688,"current_range_meters":25200,"station_id":"ce4bhb12rcd13ifvqel0","pricing_plan_id":"cebpf4jnsgd1na2vs0mg"},{"bike_id":"8aee6e51-ec03-4d1e-a7f9-0bc033449db3","system_id":"levelo_inurba_marseille","lat":43.28438,"lon":5.37577,"is_reserved":false,"is_disabled":false,"rental_uris":{"android":"levelo://app?vid=8aee6e51-ec03-4d1e-a7f9-0bc033449db3","ios":"levelo://app?vid=8aee6e51-ec03-4d1e-a7f9-0bc033449db3"},"vehicle_type_id":"4","last_reported":1735657688,"current_range_meters":36400,"station_id":"ce4bh412rcd13ifvqds0","pricing_plan_id":"cebpf4jnsgd1na2vs0mg"},{"bike_id":"f2756997-3783-41ee-b9e8-e73905ab6ff3","system_id":"levelo_inurba_marseille","lat":43.29225,"lon":5.36065,"is_reserved":false,"is_disabled":false,"rental_uris":{"android":"levelo://app?vid=f2756997-3783-41ee-b9e8-e73905ab6ff3","ios":"levelo://app?vid=f2756997-3783-41ee-b9e8-e73905ab6ff3"},"vehicle_type_id":"4","last_reported":1735657688,"current_range_meters":29600,"station_id":"ce4bhbh2rcd13ifvqeqg","pricing_plan_id":"cebpf4jnsgd1na2vs0mg"},{"bike_id":"da3075ee-8070-42f9-8350-58e475a60c82","system_id":"levelo_inurba_marseille","lat":43.2756,"lon":5.38413,"is_reserved":false,"is_disabled":false,"rental_uris":{"android":"levelo://app?vid=da3075ee-8070-42f9-8350-58e475a60c82","ios":"levelo://app?vid=da3075ee-8070-42f9-8350-58e475a60c82"},"vehicle_type_id":"4","last_reported":1735657688,"current_range_meters":39200,"station_id":"ce4bhh92rcd13ifvqfi0","pricing_plan_id":"cebpf4jnsgd1na2vs0mg"},{"bike_id":"d90fa962-5d9a-4060-9e48-4bb7027ee321","system_id":"levelo_inurba_marseille","lat":43.27988,"lon":5.41663,"is_reserved":false,"is_disabled":false,"rental_uris":{"android":"levelo://app?vid=d90fa962-5d9a-4060-9e48-4bb7027ee321","ios":"levelo://app?vid=d90fa962-5d9a-4060-9e48-4bb7027ee321"},"vehicle_type_id":"4","last_reported":1735657688,"current_range_meters":29600,"station_id":"ce4bho12rcd13ifvqh1g","pricing_plan_id":"cebpf4jnsgd1na2vs0mg"},{"bike_id":"07c99ec9-f027-47a4-9b93-3697bcc5f573","system_id":"levelo_inurba_marseille","lat":43.269175,"lon":5.402505,"is_reserved":false,"is_disabled":false,"rental_uris":{"android":"levelo://app?vid=07c99ec9-f027-47a4-9b93-3697bcc5f573","ios":"levelo://app?vid=07c99ec9-f027-47a4-9b93-3697bcc5f573"},"vehicle_type_id":"4","last_reported":1735657688,"current_range_meters":38000,"station_id":"cjm6bp8fraef2m0cb0m0","pricing_plan_id":"cebpf4jnsgd1na2vs0mg"},{"bike_id":"749f111c-214e-4166-b331-0b5d1ae21780","system_id":"levelo_inurba_marseille","lat":43.29437,"lon":5.39759,"is_reserved":false,"is_disabled":false,"rental_uris":{"android":"levelo://app?vid=749f111c-214e-4166-b331-0b5d1ae21780","ios":"levelo://app?vid=749f111c-214e-4166-b331-0b5d1ae21780"},"vehicle_type_id":"4","last_reported":1735657688,"current_range_meters":38800,"station_id":"ce4bh3h2rcd13ifvqdo0","pricing_plan_id":"cebpf4jnsgd1na2vs0mg"},{"bike_id":"c754264e-2257-42b1-89f9-0bf9a740ba42","system_id":"levelo_inurba_marseille","lat":43.2756,"lon":5.38431,"is_reserved":false,"is_disabled":false,"rental_uris":{"android":"levelo://app?vid=c754264e-2257-42b1-89f9-0bf9a740ba42","ios":"levelo://app?vid=c754264e-2257-42b1-89f9-0bf9a740ba42"},"vehicle_type_id":"4","last_reported":1735657688,"current_range_meters":30000,"station_id":"ce4bhh92rcd13ifvqfi0","pricing_plan_id":"cebpf4jnsgd1na2vs0mg"},{"bike_id":"814a430e-8e1e-4140-bc1d-8d97690e3be2","system_id":"levelo_inurba_marseille","lat":43.31264,"lon":5.40166,"is_reserved":false,"is_disabled":false,"rental_uris":{"android":"levelo://app?vid=814a430e-8e1e-4140-bc1d-8d97690e3be2","ios":"levelo://app?vid=814a430e-8e1e-4140-bc1d-8d97690e3be2"},"vehicle_type_id":"4","last_reported":1735657688,"current_range_meters":17600,"station_id":"ce4bh092rcd13ifvqd30","pricing_plan_id":"cebpf4jnsgd1na2vs0mg"},{"bike_id":"34f3c0c0-03ba-45d4-97d6-6d42483a7eec","system_id":"levelo_inurba_marseille","lat":43.2863,"lon":5.35105,"is_reserved":false,"is_disabled":false,"rental_uris":{"android":"levelo://app?vid=34f3c0c0-03ba-45d4-97d6-6d42483a7eec","ios":"levelo://app?vid=34f3c0c0-03ba-45d4-97d6-6d42483a7eec"},"vehicle_type_id":"4","last_reported":1735657688,"current_range_meters":14000,"station_id":"ce4bhch2rcd13ifvqeug","pricing_plan_id":"cebpf4jnsgd1na2vs0mg"},{"bike_id":"63d3d27f-f4c2-4cfa-99f6-359012ea8eb1","system_id":"levelo_inurba_marseille","lat":43.2957,"lon":5.37517,"is_reserved":false,"is_disabled":false,"rental_uris":{"android":"levelo://app?vid=63d3d27f-f4c2-4cfa-99f6-359012ea8eb1","ios":"levelo://app?vid=63d3d27f-f4c2-4cfa-99f6-359012ea8eb1"},"vehicle_type_id":"4","last_reported":1735657688,"current_range_meters":22800,"station_id":"ce4bgh92rcd13ifvqb50","pricing_plan_id":"cebpf4jnsgd1na2vs0mg"},{"bike_id":"711375a4-5689-42ea-a27c-d36b9acf3b32","system_id":"levelo_inurba_marseille","lat":43.27211,"lon":5.40976,"is_reserved":false,"is_disabled":false,"rental_uris":{"android":"levelo://app?vid=711375a4-5689-42ea-a27c-d36b9acf3b32","ios":"levelo://app?vid=711375a4-5689-42ea-a27c-d36b9acf3b32"},"vehicle_type_id":"4","last_reported":1735657688,"current_range_meters":18000,"station_id":"ce4bhl12rcd13ifvqgf0","pricing_plan_id":"cebpf4jnsgd1na2vs0mg"},{"bike_id":"6d5c031b-41ce-447d-95e4-0cd5d366a17a","system_id":"levelo_inurba_marseille","lat":43.30593,"lon":5.37218,"is_reserved":false,"is_disabled":false,"rental_uris":{"android":"levelo://app?vid=6d5c031b-41ce-447d-95e4-0cd5d366a17a","ios":"levelo://app?vid=6d5c031b-41ce-447d-95e4-0cd5d366a17a"},"vehicle_type_id":"4","last_reported":1735657688,"current_range_meters":19600,"station_id":"ce4bgqh2rcd13ifvqc4g","pricing_plan_id":"cebpf4jnsgd1na2vs0mg"},{"bike_id":"7f5dde4c-fda4-458a-9ce1-6490aeb3a8ff","system_id":"levelo_inurba_marseille","lat":43.304618,"lon":5.379136,"is_reserved":false,"is_disabled":false,"rental_uris":{"android":"levelo://app?vid=7f5dde4c-fda4-458a-9ce1-6490aeb3a8ff","ios":"levelo://app?vid=7f5dde4c-fda4-458a-9ce1-6490aeb3a8ff"},"vehicle_type_id":"4","last_reported":1735657688,"current_range_meters":20800,"station_id":"ce4bgup2rcd13ifvqcn0","pricing_plan_id":"cebpf4jnsgd1na2vs0mg"},{"bike_id":"f5237a56-7c3e-482c-81f6-629b1f9ac345","system_id":"levelo_inurba_marseille","lat":43.29664,"lon":5.37114,"is_reserved":false,"is_disabled":false,"rental_uris":{"android":"levelo://app?vid=f5237a56-7c3e-482c-81f6-629b1f9ac345","ios":"levelo://app?vid=f5237a56-7c3e-482c-81f6-629b1f9ac345"},"vehicle_type_id":"4","last_reported":1735657688,"current_range_meters":38400,"station_id":"","pricing_plan_id":"cebpf4jnsgd1na2vs0mg"},{"bike_id":"cd85b716-8cf0-4caa-b767-250083b8bce6","system_id":"levelo_inurba_marseille","lat":43.29184,"lon":5.35811,"is_reserved":false,"is_disabled":false,"rental_uris":{"android":"levelo://app?vid=cd85b716-8cf0-4caa-b767-250083b8bce6","ios":"levelo://app?vid=cd85b716-8cf0-4caa-b767-250083b8bce6"},"vehicle_type_id":"4","last_reported":1735657688,"current_range_meters":38800,"station_id":"ce4bhb12rcd13ifvqel0","pricing_plan_id":"cebpf4jnsgd1na2vs0mg"},{"bike_id":"a871e8bb-4f17-4f79-8bac-42efdc696fa0","system_id":"levelo_inurba_marseille","lat":43.29005,"lon":5.35605,"is_reserved":false,"is_disabled":false,"rental_uris":{"android":"levelo://app?vid=a871e8bb-4f17-4f79-8bac-42efdc696fa0","ios":"levelo://app?vid=a871e8bb-4f17-4f79-8bac-42efdc696fa0"},"vehicle_type_id":"4","last_reported":1735657688,"current_range_meters":38400,"station_id":"ce4bhb92rcd13ifvqen0","pricing_plan_id":"cebpf4jnsgd1na2vs0mg"},{"bike_id":"0e2f82cb-6b44-4d96-9b88-3e8aacbe754f","system_id":"levelo_inurba_marseille","lat":43.30155,"lon":5.38084,"is_reserved":false,"is_disabled":false,"rental_uris":{"android":"levelo://app?vid=0e2f82cb-6b44-4d96-9b88-3e8aacbe754f","ios":"levelo://app?vid=0e2f82cb-6b44-4d96-9b88-3e8aacbe754f"},"vehicle_type_id":"4","last_reported":1735657688,"current_range_meters":38800,"station_id":"ce4bgjp2rcd13ifvqbh0","pricing_plan_id":"cebpf4jnsgd1na2vs0mg"},{"bike_id":"e72c6d65-0b04-411e-bf0f-f72d15cad0d7","system_id":"levelo_inurba_marseille","lat":43.33737,"lon":5.3919,"is_reserved":false,"is_disabled":false,"rental_uris":{"android":"levelo://app?vid=e72c6d65-0b04-411e-bf0f-f72d15cad0d7","ios":"levelo://app?vid=e72c6d65-0b04-411e-bf0f-f72d15cad0d7"},"vehicle_type_id":"4","last_reported":1735657688,"current_range_meters":38800,"station_id":"ce4bhr92rcd13ifvqhsg","pricing_plan_id":"cebpf4jnsgd1na2vs0mg"},{"bike_id":"2f3149f2-eb37-4c9d-8223-ab006e23f26f","system_id":"levelo_inurba_marseille","lat":43.2957,"lon":5.37528,"is_reserved":false,"is_disabled":false,"rental_uris":{"android":"levelo://app?vid=2f3149f2-eb37-4c9d-8223-ab006e23f26f","ios":"levelo://app?vid=2f3149f2-eb37-4c9d-8223-ab006e23f26f"},"vehicle_type_id":"4","last_reported":1735657688,"current_range_meters":22000,"station_id":"ce4bgh92rcd13ifvqb50","pricing_plan_id":"cebpf4jnsgd1na2vs0mg"},{"bike_id":"44c33bee-fe37-4148-9fab-0084162adb4a","system_id":"levelo_inurba_marseille","lat":43.30884,"lon":5.37188,"is_reserved":false,"is_disabled":false,"rental_uris":{"android":"levelo://app?vid=44c33bee-fe37-4148-9fab-0084162adb4a","ios":"levelo://app?vid=44c33bee-fe37-4148-9fab-0084162adb4a"},"vehicle_type_id":"4","last_reported":1735657688,"current_range_meters":29600,"station_id":"ce4bguh2rcd13ifvqckg","pricing_plan_id":"cebpf4jnsgd1na2vs0mg"},{"bike_id":"56dbbcc3-1892-4773-8fd7-ae4c917e4bc5","system_id":"levelo_inurba_marseille","lat":43.24672,"lon":5.38158,"is_reserved":false,"is_disabled":false,"rental_uris":{"android":"levelo://app?vid=56dbbcc3-1892-4773-8fd7-ae4c917e4bc5","ios":"levelo://app?vid=56dbbcc3-1892-4773-8fd7-ae4c917e4bc5"},"vehicle_type_id":"4","last_reported":1735657688,"current_range_meters":29600,"station_id":"ce4bhih2rcd13ifvqfr0","pricing_plan_id":"cebpf4jnsgd1na2vs0mg"},{"bike_id":"bf5ca0f3-f5d9-41d7-a66f-c78c330d30fc","system_id":"levelo_inurba_marseille","lat":43.30883,"lon":5.39657,"is_reserved":false,"is_disabled":false,"rental_uris":{"android":"levelo://app?vid=bf5ca0f3-f5d9-41d7-a66f-c78c330d30fc","ios":"levelo://app?vid=bf5ca0f3-f5d9-41d7-a66f-c78c330d30fc"},"vehicle_type_id":"4","last_reported":1735657688,"current_range_meters":38800,"station_id":"ce4bh012rcd13ifvqcv0","pricing_plan_id":"cebpf4jnsgd1na2vs0mg"},{"bike_id":"006f0bdd-7d2b-4734-9c57-82dcb1069f4e","system_id":"levelo_inurba_marseille","lat":43.31081,"lon":5.42431,"is_reserved":false,"is_disabled":false,"rental_uris":{"android":"levelo://app?vid=006f0bdd-7d2b-4734-9c57-82dcb1069f4e","ios":"levelo://app?vid=006f0bdd-7d2b-4734-9c57-82dcb1069f4e"},"vehicle_type_id":"4","last_reported":1735657688,"current_range_meters":16400,"station_id":"ce4bhp92rcd13ifvqhag","pricing_plan_id":"cebpf4jnsgd1na2vs0mg"},{"bike_id":"892733af-3cd1-46b0-8c64-c29a2eeba768","system_id":"levelo_inurba_marseille","lat":43.340605,"lon":5.376779,"is_reserved":false,"is_disabled":false,"rental_uris":{"android":"levelo://app?vid=892733af-3cd1-46b0-8c64-c29a2eeba768","ios":"levelo://app?vid=892733af-3cd1-46b0-8c64-c29a2eeba768"},"vehicle_type_id":"4","last_reported":1735657688,"current_range_meters":37600,"station_id":"","pricing_plan_id":"cebpf4jnsgd1na2vs0mg"},{"bike_id":"a26095db-4f23-48c6-bf5a-dd810c1fb24d","system_id":"levelo_inurba_marseille","lat":43.27292,"lon":5.39248,"is_reserved":false,"is_disabled":false,"rental_uris":{"android":"levelo://app?vid=a26095db-4f23-48c6-bf5a-dd810c1fb24d","ios":"levelo://app?vid=a26095db-4f23-48c6-bf5a-dd810c1fb24d"},"vehicle_type_id":"4","last_reported":1735657688,"current_range_meters":16000,"station_id":"","pricing_plan_id":"cebpf4jnsgd1na2vs0mg"},{"bike_id":"57103b12-06fc-494b-9a1a-1903f8f245d5","system_id":"levelo_inurba_marseille","lat":43.27988,"lon":5.41675,"is_reserved":false,"is_disabled":false,"rental_uris":{"android":"levelo://app?vid=57103b12-06fc-494b-9a1a-1903f8f245d5","ios":"levelo://app?vid=57103b12-06fc-494b-9a1a-1903f8f245d5"},"vehicle_type_id":"4","last_reported":1735657688,"current_range_meters":7200,"station_id":"ce4bho12rcd13ifvqh1g","pricing_plan_id":"cebpf4jnsgd1na2vs0mg"},{"bike_id":"602938e9-5a0d-48cd-9073-bca96485ca77","system_id":"levelo_inurba_marseille","lat":43.26208,"lon":5.37447,"is_reserved":false,"is_disabled":false,"rental_uris":{"android":"levelo://app?vid=602938e9-5a0d-48cd-9073-bca96485ca77","ios":"levelo://app?vid=602938e9-5a0d-48cd-9073-bca96485ca77"},"vehicle_type_id":"4","last_reported":1735657688,"current_range_meters":11200,"station_id":"ce4bhgp2rcd13ifvqfc0","pricing_plan_id":"cebpf4jnsgd1na2vs0mg"},{"bike_id":"dad825e9-c481-4ecb-8e5a-ab3402dc32ab","system_id":"levelo_inurba_marseille","lat":43.30139,"lon":5.37426,"is_reserved":false,"is_disabled":false,"rental_uris":{"android":"levelo://app?vid=dad825e9-c481-4ecb-8e5a-ab3402dc32ab","ios":"levelo://app?vid=dad825e9-c481-4ecb-8e5a-ab3402dc32ab"},"vehicle_type_id":"4","last_reported":1735657688,"current_range_meters":38800,"station_id":"ce4bgs92rcd13ifvqcc0","pricing_plan_id":"cebpf4jnsgd1na2vs0mg"},{"bike_id":"30a49652-d136-44e4-a4d9-d7c1b83f0627","system_id":"levelo_inurba_marseille","lat":43.337444,"lon":5.374475,"is_reserved":false,"is_disabled":false,"rental_uris":{"android":"levelo://app?vid=30a49652-d136-44e4-a4d9-d7c1b83f0627","ios":"levelo://app?vid=30a49652-d136-44e4-a4d9-d7c1b83f0627"},"vehicle_type_id":"4","last_reported":1735657688,"current_range_meters":18800,"station_id":"","pricing_plan_id":"cebpf4jnsgd1na2vs0mg"},{"bike_id":"4d09da81-c598-4276-bcd1-1d0971ab92b4","system_id":"levelo_inurba_marseille","lat":43.27611,"lon":5.36119,"is_reserved":false,"is_disabled":false,"rental_uris":{"android":"levelo://app?vid=4d09da81-c598-4276-bcd1-1d0971ab92b4","ios":"levelo://app?vid=4d09da81-c598-4276-bcd1-1d0971ab92b4"},"vehicle_type_id":"4","last_reported":1735657688,"current_range_meters":35600,"station_id":"ce4bgj92rcd13ifvqbe0","pricing_plan_id":"cebpf4jnsgd1na2vs0mg"},{"bike_id":"b8f199fc-2ec3-4cea-89a8-539f8a9d9d79","system_id":"levelo_inurba_marseille","lat":43.29031,"lon":5.38174,"is_reserved":false,"is_disabled":false,"rental_uris":{"android":"levelo://app?vid=b8f199fc-2ec3-4cea-89a8-539f8a9d9d79","ios":"levelo://app?vid=b8f199fc-2ec3-4cea-89a8-539f8a9d9d79"},"vehicle_type_id":"4","last_reported":1735657688,"current_range_meters":38800,"station_id":"ce4bh4p2rcd13ifvqe1g","pricing_plan_id":"cebpf4jnsgd1na2vs0mg"},{"bike_id":"aaba686d-a844-4e73-af16-9dda4aef3540","system_id":"levelo_inurba_marseille","lat":43.31987,"lon":5.38163,"is_reserved":false,"is_disabled":false,"rental_uris":{"android":"levelo://app?vid=aaba686d-a844-4e73-af16-9dda4aef3540","ios":"levelo://app?vid=aaba686d-a844-4e73-af16-9dda4aef3540"},"vehicle_type_id":"4","last_reported":1735657688,"current_range_meters":26000,"station_id":"ce4bhr12rcd13ifvqhpg","pricing_plan_id":"cebpf4jnsgd1na2vs0mg"},{"bike_id":"2243fd3b-7b92-4cf9-84c9-33851e8481b0","system_id":"levelo_inurba_marseille","lat":43.30136,"lon":5.38794,"is_reserved":false,"is_disabled":false,"rental_uris":{"android":"levelo://app?vid=2243fd3b-7b92-4cf9-84c9-33851e8481b0","ios":"levelo://app?vid=2243fd3b-7b92-4cf9-84c9-33851e8481b0"},"vehicle_type_id":"4","last_reported":1735657688,"current_range_meters":24400,"station_id":"ce4bghh2rcd13ifvqb60","pricing_plan_id":"cebpf4jnsgd1na2vs0mg"},{"bike_id":"d5e6fa8e-d815-468d-9f90-63ce79d3d743","system_id":"levelo_inurba_marseille","lat":43.24395,"lon":5.37049,"is_reserved":false,"is_disabled":false,"rental_uris":{"android":"levelo://app?vid=d5e6fa8e-d815-468d-9f90-63ce79d3d743","ios":"levelo://app?vid=d5e6fa8e-d815-468d-9f90-63ce79d3d743"},"vehicle_type_id":"4","last_reported":1735657688,"current_range_meters":8400,"station_id":"ce4bhhh2rcd13ifvqfk0","pricing_plan_id":"cebpf4jnsgd1na2vs0mg"},{"bike_id":"1ce05690-65ba-4e15-b28c-5fd535e467f0","system_id":"levelo_inurba_marseille","lat":43.32066,"lon":5.41549,"is_reserved":false,"is_disabled":false,"rental_uris":{"android":"levelo://app?vid=1ce05690-65ba-4e15-b28c-5fd535e467f0","ios":"levelo://app?vid=1ce05690-65ba-4e15-b28c-5fd535e467f0"},"vehicle_type_id":"4","last_reported":1735657688,"current_range_meters":12000,"station_id":"ce4bhq92rcd13ifvqhkg","pricing_plan_id":"cebpf4jnsgd1na2vs0mg"},{"bike_id":"d996ebe6-a085-4671-8aef-57e91ba860dc","system_id":"levelo_inurba_marseille","lat":43.26789,"lon":5.40288,"is_reserved":false,"is_disabled":false,"rental_uris":{"android":"levelo://app?vid=d996ebe6-a085-4671-8aef-57e91ba860dc","ios":"levelo://app?vid=d996ebe6-a085-4671-8aef-57e91ba860dc"},"vehicle_type_id":"4","last_reported":1735657688,"current_range_meters":32800,"station_id":"ce501612rcd8frsf0b60","pricing_plan_id":"cebpf4jnsgd1na2vs0mg"},{"bike_id":"bb279a99-b132-491d-a3ad-1b25a8c9949b","system_id":"levelo_inurba_marseille","lat":43.30553,"lon":5.36708,"is_reserved":false,"is_disabled":false,"rental_uris":{"android":"levelo://app?vid=bb279a99-b132-491d-a3ad-1b25a8c9949b","ios":"levelo://app?vid=bb279a99-b132-491d-a3ad-1b25a8c9949b"},"vehicle_type_id":"4","last_reported":1735657688,"current_range_meters":32000,"station_id":"ce4bgrp2rcd13ifvqc9g","pricing_plan_id":"cebpf4jnsgd1na2vs0mg"},{"bike_id":"261f84eb-7209-4691-ba89-1395784a623f","system_id":"levelo_inurba_marseille","lat":43.27564,"lon":5.38424,"is_reserved":false,"is_disabled":false,"rental_uris":{"android":"levelo://app?vid=261f84eb-7209-4691-ba89-1395784a623f","ios":"levelo://app?vid=261f84eb-7209-4691-ba89-1395784a623f"},"vehicle_type_id":"4","last_reported":1735657688,"current_range_meters":32800,"station_id":"ce4bhh92rcd13ifvqfi0","pricing_plan_id":"cebpf4jnsgd1na2vs0mg"},{"bike_id":"ee970bd2-03e3-45d8-9920-35ca0e47ef20","system_id":"levelo_inurba_marseille","lat":43.24999,"lon":5.38928,"is_reserved":false,"is_disabled":false,"rental_uris":{"android":"levelo://app?vid=ee970bd2-03e3-45d8-9920-35ca0e47ef20","ios":"levelo://app?vid=ee970bd2-03e3-45d8-9920-35ca0e47ef20"},"vehicle_type_id":"4","last_reported":1735657688,"current_range_meters":19200,"station_id":"ce4bhgp2rcd13ifvqfd0","pricing_plan_id":"cebpf4jnsgd1na2vs0mg"},{"bike_id":"e73ae31c-b561-4616-859f-f7e984104f63","system_id":"levelo_inurba_marseille","lat":43.30152,"lon":5.38078,"is_reserved":false,"is_disabled":false,"rental_uris":{"android":"levelo://app?vid=e73ae31c-b561-4616-859f-f7e984104f63","ios":"levelo://app?vid=e73ae31c-b561-4616-859f-f7e984104f63"},"vehicle_type_id":"4","last_reported":1735657688,"current_range_meters":29600,"station_id":"ce4bgjp2rcd13ifvqbh0","pricing_plan_id":"cebpf4jnsgd1na2vs0mg"},{"bike_id":"ea990fc9-5f95-4acd-a2be-29105099e24e","system_id":"levelo_inurba_marseille","lat":43.23063,"lon":5.35489,"is_reserved":false,"is_disabled":false,"rental_uris":{"android":"levelo://app?vid=ea990fc9-5f95-4acd-a2be-29105099e24e","ios":"levelo://app?vid=ea990fc9-5f95-4acd-a2be-29105099e24e"},"vehicle_type_id":"4","last_reported":1735657688,"current_range_meters":35200,"station_id":"cpo3342slgdg3j2ifvpg","pricing_plan_id":"cebpf4jnsgd1na2vs0mg"},{"bike_id":"f336b0fc-9e0d-491e-a37e-be2936c57e46","system_id":"levelo_inurba_marseille","lat":43.29965,"lon":5.38508,"is_reserved":false,"is_disabled":false,"rental_uris":{"android":"levelo://app?vid=f336b0fc-9e0d-491e-a37e-be2936c57e46","ios":"levelo://app?vid=f336b0fc-9e0d-491e-a37e-be2936c57e46"},"vehicle_type_id":"4","last_reported":1735657688,"current_range_meters":19200,"station_id":"ce4bgj92rcd13ifvqbd0","pricing_plan_id":"cebpf4jnsgd1na2vs0mg"},{"bike_id":"973aa388-ffdb-43dd-93f3-210e2c0f6c64","system_id":"levelo_inurba_marseille","lat":43.29032,"lon":5.38134,"is_reserved":false,"is_disabled":false,"rental_uris":{"android":"levelo://app?vid=973aa388-ffdb-43dd-93f3-210e2c0f6c64","ios":"levelo://app?vid=973aa388-ffdb-43dd-93f3-210e2c0f6c64"},"vehicle_type_id":"4","last_reported":1735657688,"current_range_meters":32000,"station_id":"ce4bh4p2rcd13ifvqe1g","pricing_plan_id":"cebpf4jnsgd1na2vs0mg"},{"bike_id":"72980645-c48e-494a-8437-a0b22bfd8087","system_id":"levelo_inurba_marseille","lat":43.28414,"lon":5.34982,"is_reserved":false,"is_disabled":false,"rental_uris":{"android":"levelo://app?vid=72980645-c48e-494a-8437-a0b22bfd8087","ios":"levelo://app?vid=72980645-c48e-494a-8437-a0b22bfd8087"},"vehicle_type_id":"4","last_reported":1735657688,"current_range_meters":22000,"station_id":"ce4bhbh2rcd13ifvqepg","pricing_plan_id":"cebpf4jnsgd1na2vs0mg"},{"bike_id":"d79c51db-d4d0-4792-af5c-8dc533939040","system_id":"levelo_inurba_marseille","lat":43.30089,"lon":5.39094,"is_reserved":false,"is_disabled":false,"rental_uris":{"android":"levelo://app?vid=d79c51db-d4d0-4792-af5c-8dc533939040","ios":"levelo://app?vid=d79c51db-d4d0-4792-af5c-8dc533939040"},"vehicle_type_id":"4","last_reported":1735657688,"current_range_meters":22400,"station_id":"ce4bh192rcd13ifvqdb0","pricing_plan_id":"cebpf4jnsgd1na2vs0mg"},{"bike_id":"6fe0c686-8ac1-4ca4-9215-5bdce1a7f464","system_id":"levelo_inurba_marseille","lat":43.26563,"lon":5.37279,"is_reserved":false,"is_disabled":false,"rental_uris":{"android":"levelo://app?vid=6fe0c686-8ac1-4ca4-9215-5bdce1a7f464","ios":"levelo://app?vid=6fe0c686-8ac1-4ca4-9215-5bdce1a7f464"},"vehicle_type_id":"4","last_reported":1735657688,"current_range_meters":35600,"station_id":"ce4bhg12rcd13ifvqf70","pricing_plan_id":"cebpf4jnsgd1na2vs0mg"},{"bike_id":"c2c56de4-87e8-4eb7-a2bd-84ad7418d961","system_id":"levelo_inurba_marseille","lat":43.28472,"lon":5.3588,"is_reserved":false,"is_disabled":false,"rental_uris":{"android":"levelo://app?vid=c2c56de4-87e8-4eb7-a2bd-84ad7418d961","ios":"levelo://app?vid=c2c56de4-87e8-4eb7-a2bd-84ad7418d961"},"vehicle_type_id":"4","last_reported":1735657688,"current_range_meters":38800,"station_id":"ce4bhah2rcd13ifvqei0","pricing_plan_id":"cebpf4jnsgd1na2vs0mg"},{"bike_id":"014c9963-df7d-4ae6-acf1-083a95b2d0ad","system_id":"levelo_inurba_marseille","lat":43.31224,"lon":5.36843,"is_reserved":false,"is_disabled":false,"rental_uris":{"android":"levelo://app?vid=014c9963-df7d-4ae6-acf1-083a95b2d0ad","ios":"levelo://app?vid=014c9963-df7d-4ae6-acf1-083a95b2d0ad"},"vehicle_type_id":"4","last_reported":1735657688,"current_range_meters":30400,"station_id":"ce4bgl92rcd13ifvqbq0","pricing_plan_id":"cebpf4jnsgd1na2vs0mg"},{"bike_id":"32afc6cc-1544-4f88-ab5c-34496cc35b04","system_id":"levelo_inurba_marseille","lat":43.23056,"lon":5.35493,"is_reserved":false,"is_disabled":false,"rental_uris":{"android":"levelo://app?vid=32afc6cc-1544-4f88-ab5c-34496cc35b04","ios":"levelo://app?vid=32afc6cc-1544-4f88-ab5c-34496cc35b04"},"vehicle_type_id":"4","last_reported":1735657688,"current_range_meters":16800,"station_id":"cpo3342slgdg3j2ifvpg","pricing_plan_id":"cebpf4jnsgd1na2vs0mg"},{"bike_id":"1fbbb53e-d679-4797-bfc5-ea8c228afe3b","system_id":"levelo_inurba_marseille","lat":43.27061,"lon":5.40258,"is_reserved":false,"is_disabled":false,"rental_uris":{"android":"levelo://app?vid=1fbbb53e-d679-4797-bfc5-ea8c228afe3b","ios":"levelo://app?vid=1fbbb53e-d679-4797-bfc5-ea8c228afe3b"},"vehicle_type_id":"4","last_reported":1735657688,"current_range_meters":26800,"station_id":"ce4bhk92rcd13ifvqgc0","pricing_plan_id":"cebpf4jnsgd1na2vs0mg"},{"bike_id":"9deb79b2-d873-447b-8063-0447587cd1ae","system_id":"levelo_inurba_marseille","lat":43.29627,"lon":5.37165,"is_reserved":false,"is_disabled":false,"rental_uris":{"android":"levelo://app?vid=9deb79b2-d873-447b-8063-0447587cd1ae","ios":"levelo://app?vid=9deb79b2-d873-447b-8063-0447587cd1ae"},"vehicle_type_id":"4","last_reported":1735657688,"current_range_meters":8400,"station_id":"ce4bgnh2rcd13ifvqc0g","pricing_plan_id":"cebpf4jnsgd1na2vs0mg"},{"bike_id":"a56287ab-847c-4262-85f3-004e763e6a0e","system_id":"levelo_inurba_marseille","lat":43.30139,"lon":5.37419,"is_reserved":false,"is_disabled":false,"rental_uris":{"android":"levelo://app?vid=a56287ab-847c-4262-85f3-004e763e6a0e","ios":"levelo://app?vid=a56287ab-847c-4262-85f3-004e763e6a0e"},"vehicle_type_id":"4","last_reported":1735657688,"current_range_meters":20800,"station_id":"ce4bgs92rcd13ifvqcc0","pricing_plan_id":"cebpf4jnsgd1na2vs0mg"},{"bike_id":"9aa2582b-1b34-42dd-917b-ed5755dab742","system_id":"levelo_inurba_marseille","lat":43.29622,"lon":5.37163,"is_reserved":false,"is_disabled":true,"rental_uris":{"android":"levelo://app?vid=9aa2582b-1b34-42dd-917b-ed5755dab742","ios":"levelo://app?vid=9aa2582b-1b34-42dd-917b-ed5755dab742"},"vehicle_type_id":"4","last_reported":1735657688,"current_range_meters":0,"station_id":"ce4bgnh2rcd13ifvqc0g","pricing_plan_id":"cebpf4jnsgd1na2vs0mg"},{"bike_id":"55e5bb48-d03c-42b0-885b-e5af4696496a","system_id":"levelo_inurba_marseille","lat":43.29578,"lon":5.37522,"is_reserved":false,"is_disabled":false,"rental_uris":{"android":"levelo://app?vid=55e5bb48-d03c-42b0-885b-e5af4696496a","ios":"levelo://app?vid=55e5bb48-d03c-42b0-885b-e5af4696496a"},"vehicle_type_id":"4","last_reported":1735657688,"current_range_meters":19600,"station_id":"ce4bgh92rcd13ifvqb50","pricing_plan_id":"cebpf4jnsgd1na2vs0mg"},{"bike_id":"d9039fb6-1526-43a5-ab47-bf6c74051347","system_id":"levelo_inurba_marseille","lat":43.28172,"lon":5.42644,"is_reserved":false,"is_disabled":false,"rental_uris":{"android":"levelo://app?vid=d9039fb6-1526-43a5-ab47-bf6c74051347","ios":"levelo://app?vid=d9039fb6-1526-43a5-ab47-bf6c74051347"},"vehicle_type_id":"4","last_reported":1735657688,"current_range_meters":10800,"station_id":"ce4bhnh2rcd13ifvqgug","pricing_plan_id":"cebpf4jnsgd1na2vs0mg"},{"bike_id":"e791c80d-0f00-4cc4-b22d-eb1100d0352a","system_id":"levelo_inurba_marseille","lat":43.30091,"lon":5.39092,"is_reserved":false,"is_disabled":false,"rental_uris":{"android":"levelo://app?vid=e791c80d-0f00-4cc4-b22d-eb1100d0352a","ios":"levelo://app?vid=e791c80d-0f00-4cc4-b22d-eb1100d0352a"},"vehicle_type_id":"4","last_reported":1735657688,"current_range_meters":38800,"station_id":"ce4bh192rcd13ifvqdb0","pricing_plan_id":"cebpf4jnsgd1na2vs0mg"},{"bike_id":"5016f44c-c8b8-4ca7-8151-4f5ed6d912b4","system_id":"levelo_inurba_marseille","lat":43.29932,"lon":5.36543,"is_reserved":false,"is_disabled":false,"rental_uris":{"android":"levelo://app?vid=5016f44c-c8b8-4ca7-8151-4f5ed6d912b4","ios":"levelo://app?vid=5016f44c-c8b8-4ca7-8151-4f5ed6d912b4"},"vehicle_type_id":"4","last_reported":1735657688,"current_range_meters":37600,"station_id":"ce4bgm92rcd13ifvqbr0","pricing_plan_id":"cebpf4jnsgd1na2vs0mg"},{"bike_id":"ce872ff4-1114-4dbb-a1cd-0587f9a75e23","system_id":"levelo_inurba_marseille","lat":43.24804,"lon":5.37482,"is_reserved":false,"is_disabled":false,"rental_uris":{"android":"levelo://app?vid=ce872ff4-1114-4dbb-a1cd-0587f9a75e23","ios":"levelo://app?vid=ce872ff4-1114-4dbb-a1cd-0587f9a75e23"},"vehicle_type_id":"4","last_reported":1735657688,"current_range_meters":39200,"station_id":"ce4bhgh2rcd13ifvqfb0","pricing_plan_id":"cebpf4jnsgd1na2vs0mg"},{"bike_id":"022d826a-d31d-48ef-b07e-f8dd0ceaa746","system_id":"levelo_inurba_marseille","lat":43.24996,"lon":5.38935,"is_reserved":false,"is_disabled":false,"rental_uris":{"android":"levelo://app?vid=022d826a-d31d-48ef-b07e-f8dd0ceaa746","ios":"levelo://app?vid=022d826a-d31d-48ef-b07e-f8dd0ceaa746"},"vehicle_type_id":"4","last_reported":1735657688,"current_range_meters":36400,"station_id":"ce4bhgp2rcd13ifvqfd0","pricing_plan_id":"cebpf4jnsgd1na2vs0mg"},{"bike_id":"e5933a6d-74a2-4f0b-a868-af7f60e53f01","system_id":"levelo_inurba_marseille","lat":43.23961,"lon":5.36631,"is_reserved":false,"is_disabled":false,"rental_uris":{"android":"levelo://app?vid=e5933a6d-74a2-4f0b-a868-af7f60e53f01","ios":"levelo://app?vid=e5933a6d-74a2-4f0b-a868-af7f60e53f01"},"vehicle_type_id":"4","last_reported":1735657688,"current_range_meters":26000,"station_id":"ce4bhi12rcd13ifvqfp0","pricing_plan_id":"cebpf4jnsgd1na2vs0mg"},{"bike_id":"04e7867a-1371-4222-a6db-9d80083cea73","system_id":"levelo_inurba_marseille","lat":43.28839,"lon":5.35834,"is_reserved":false,"is_disabled":true,"rental_uris":{"android":"levelo://app?vid=04e7867a-1371-4222-a6db-9d80083cea73","ios":"levelo://app?vid=04e7867a-1371-4222-a6db-9d80083cea73"},"vehicle_type_id":"4","last_reported":1735657688,"current_range_meters":34800,"station_id":"ce4bhb12rcd13ifvqem0","pricing_plan_id":"cebpf4jnsgd1na2vs0mg"},{"bike_id":"97a26378-897a-4cc3-94fc-ef7846cd6637","system_id":"levelo_inurba_marseille","lat":43.31394,"lon":5.3668,"is_reserved":false,"is_disabled":true,"rental_uris":{"android":"levelo://app?vid=97a26378-897a-4cc3-94fc-ef7846cd6637","ios":"levelo://app?vid=97a26378-897a-4cc3-94fc-ef7846cd6637"},"vehicle_type_id":"4","last_reported":1735657688,"current_range_meters":0,"station_id":"ce4bgr92rcd13ifvqc6g","pricing_plan_id":"cebpf4jnsgd1na2vs0mg"},{"bike_id":"f9b49761-5345-4789-b9af-ee11fc92fdb8","system_id":"levelo_inurba_marseille","lat":43.31348,"lon":5.36716,"is_reserved":false,"is_disabled":false,"rental_uris":{"android":"levelo://app?vid=f9b49761-5345-4789-b9af-ee11fc92fdb8","ios":"levelo://app?vid=f9b49761-5345-4789-b9af-ee11fc92fdb8"},"vehicle_type_id":"4","last_reported":1735657688,"current_range_meters":38800,"station_id":"ce4bgr92rcd13ifvqc6g","pricing_plan_id":"cebpf4jnsgd1na2vs0mg"},{"bike_id":"266b3f09-67f7-4c77-a95d-8b79de7c6118","system_id":"levelo_inurba_marseille","lat":43.29903,"lon":5.43653,"is_reserved":false,"is_disabled":false,"rental_uris":{"android":"levelo://app?vid=266b3f09-67f7-4c77-a95d-8b79de7c6118","ios":"levelo://app?vid=266b3f09-67f7-4c77-a95d-8b79de7c6118"},"vehicle_type_id":"4","last_reported":1735657688,"current_range_meters":26800,"station_id":"ce4bhpp2rcd13ifvqhfg","pricing_plan_id":"cebpf4jnsgd1na2vs0mg"},{"bike_id":"340d724f-2e72-4a60-9f8e-b76031b3cf15","system_id":"levelo_inurba_marseille","lat":43.29783,"lon":5.392992,"is_reserved":false,"is_disabled":false,"rental_uris":{"android":"levelo://app?vid=340d724f-2e72-4a60-9f8e-b76031b3cf15","ios":"levelo://app?vid=340d724f-2e72-4a60-9f8e-b76031b3cf15"},"vehicle_type_id":"4","last_reported":1735657688,"current_range_meters":32400,"station_id":"chh1huq6cuj3fo74tm60","pricing_plan_id":"cebpf4jnsgd1na2vs0mg"},{"bike_id":"35c2c095-e215-44a0-bbc2-feea0af9e5d1","system_id":"levelo_inurba_marseille","lat":43.266758,"lon":5.382904,"is_reserved":false,"is_disabled":false,"rental_uris":{"android":"levelo://app?vid=35c2c095-e215-44a0-bbc2-feea0af9e5d1","ios":"levelo://app?vid=35c2c095-e215-44a0-bbc2-feea0af9e5d1"},"vehicle_type_id":"4","last_reported":1735657688,"current_range_meters":38800,"station_id":"ce4bhg92rcd13ifvqf90","pricing_plan_id":"cebpf4jnsgd1na2vs0mg"},{"bike_id":"016e9495-5958-43c7-8a33-5362090be415","system_id":"levelo_inurba_marseille","lat":43.29004,"lon":5.3562,"is_reserved":false,"is_disabled":false,"rental_uris":{"android":"levelo://app?vid=016e9495-5958-43c7-8a33-5362090be415","ios":"levelo://app?vid=016e9495-5958-43c7-8a33-5362090be415"},"vehicle_type_id":"4","last_reported":1735657688,"current_range_meters":33200,"station_id":"ce4bhb92rcd13ifvqen0","pricing_plan_id":"cebpf4jnsgd1na2vs0mg"},{"bike_id":"a005e1bf-2999-4035-942d-1957469d29ca","system_id":"levelo_inurba_marseille","lat":43.24662,"lon":5.38168,"is_reserved":false,"is_disabled":true,"rental_uris":{"android":"levelo://app?vid=a005e1bf-2999-4035-942d-1957469d29ca","ios":"levelo://app?vid=a005e1bf-2999-4035-942d-1957469d29ca"},"vehicle_type_id":"4","last_reported":1735657688,"current_range_meters":36000,"station_id":"ce4bhih2rcd13ifvqfr0","pricing_plan_id":"cebpf4jnsgd1na2vs0mg"},{"bike_id":"ba48c954-cfdc-4161-9476-771c321a4ac6","system_id":"levelo_inurba_marseille","lat":43.23958,"lon":5.36649,"is_reserved":false,"is_disabled":false,"rental_uris":{"android":"levelo://app?vid=ba48c954-cfdc-4161-9476-771c321a4ac6","ios":"levelo://app?vid=ba48c954-cfdc-4161-9476-771c321a4ac6"},"vehicle_type_id":"4","last_reported":1735657688,"current_range_meters":32800,"station_id":"ce4bhi12rcd13ifvqfp0","pricing_plan_id":"cebpf4jnsgd1na2vs0mg"},{"bike_id":"f6c3569e-efa4-4a1c-b75b-94ded8df3e64","system_id":"levelo_inurba_marseille","lat":43.27951,"lon":5.3869,"is_reserved":false,"is_disabled":false,"rental_uris":{"android":"levelo://app?vid=f6c3569e-efa4-4a1c-b75b-94ded8df3e64","ios":"levelo://app?vid=f6c3569e-efa4-4a1c-b75b-94ded8df3e64"},"vehicle_type_id":"4","last_reported":1735657688,"current_range_meters":32400,"station_id":"","pricing_plan_id":"cebpf4jnsgd1na2vs0mg"},{"bike_id":"d86434c3-9263-42e6-b463-9b1720bea57f","system_id":"levelo_inurba_marseille","lat":43.32106,"lon":5.36772,"is_reserved":false,"is_disabled":false,"rental_uris":{"android":"levelo://app?vid=d86434c3-9263-42e6-b463-9b1720bea57f","ios":"levelo://app?vid=d86434c3-9263-42e6-b463-9b1720bea57f"},"vehicle_type_id":"4","last_reported":1735657688,"current_range_meters":38000,"station_id":"ce4bhrh2rcd13ifvqhug","pricing_plan_id":"cebpf4jnsgd1na2vs0mg"},{"bike_id":"4c39f437-a5ef-4ec6-98f1-e0f11722d3df","system_id":"levelo_inurba_marseille","lat":43.29608,"lon":5.37739,"is_reserved":false,"is_disabled":false,"rental_uris":{"android":"levelo://app?vid=4c39f437-a5ef-4ec6-98f1-e0f11722d3df","ios":"levelo://app?vid=4c39f437-a5ef-4ec6-98f1-e0f11722d3df"},"vehicle_type_id":"4","last_reported":1735657688,"current_range_meters":12400,"station_id":"ce4bgi92rcd13ifvqb90","pricing_plan_id":"cebpf4jnsgd1na2vs0mg"},{"bike_id":"00138e32-e492-49ec-8baf-715fb2b9afd1","system_id":"levelo_inurba_marseille","lat":43.28057,"lon":5.35292,"is_reserved":false,"is_disabled":false,"rental_uris":{"android":"levelo://app?vid=00138e32-e492-49ec-8baf-715fb2b9afd1","ios":"levelo://app?vid=00138e32-e492-49ec-8baf-715fb2b9afd1"},"vehicle_type_id":"4","last_reported":1735657688,"current_range_meters":25200,"station_id":"ce4bhbh2rcd13ifvqeo0","pricing_plan_id":"cebpf4jnsgd1na2vs0mg"},{"bike_id":"04ba624c-608e-4af8-9acb-3ec60691192b","system_id":"levelo_inurba_marseille","lat":43.29019,"lon":5.38142,"is_reserved":false,"is_disabled":false,"rental_uris":{"android":"levelo://app?vid=04ba624c-608e-4af8-9acb-3ec60691192b","ios":"levelo://app?vid=04ba624c-608e-4af8-9acb-3ec60691192b"},"vehicle_type_id":"4","last_reported":1735657688,"current_range_meters":17600,"station_id":"ce4bh4p2rcd13ifvqe1g","pricing_plan_id":"cebpf4jnsgd1na2vs0mg"},{"bike_id":"3f85ce8b-2fdd-4846-86c7-195e7b202f6b","system_id":"levelo_inurba_marseille","lat":43.26685,"lon":5.38285,"is_reserved":false,"is_disabled":false,"rental_uris":{"android":"levelo://app?vid=3f85ce8b-2fdd-4846-86c7-195e7b202f6b","ios":"levelo://app?vid=3f85ce8b-2fdd-4846-86c7-195e7b202f6b"},"vehicle_type_id":"4","last_reported":1735657688,"current_range_meters":31200,"station_id":"ce4bhg92rcd13ifvqf90","pricing_plan_id":"cebpf4jnsgd1na2vs0mg"},{"bike_id":"e7f232e6-9751-45f4-a24f-005b95d10947","system_id":"levelo_inurba_marseille","lat":43.2961,"lon":5.37722,"is_reserved":false,"is_disabled":true,"rental_uris":{"android":"levelo://app?vid=e7f232e6-9751-45f4-a24f-005b95d10947","ios":"levelo://app?vid=e7f232e6-9751-45f4-a24f-005b95d10947"},"vehicle_type_id":"4","last_reported":1735657688,"current_range_meters":30400,"station_id":"ce4bgi92rcd13ifvqb90","pricing_plan_id":"cebpf4jnsgd1na2vs0mg"},{"bike_id":"dfd0134d-73ec-4fd9-b561-a804c0959d48","system_id":"levelo_inurba_marseille","lat":43.27424,"lon":5.39417,"is_reserved":false,"is_disabled":false,"rental_uris":{"android":"levelo://app?vid=dfd0134d-73ec-4fd9-b561-a804c0959d48","ios":"levelo://app?vid=dfd0134d-73ec-4fd9-b561-a804c0959d48"},"vehicle_type_id":"4","last_reported":1735657688,"current_range_meters":39200,"station_id":"ce4bhdp2rcd13ifvqf20","pricing_plan_id":"cebpf4jnsgd1na2vs0mg"},{"bike_id":"7e14ec6a-66d4-48f8-a7f6-60346add6b65","system_id":"levelo_inurba_marseille","lat":43.29632,"lon":5.40598,"is_reserved":false,"is_disabled":false,"rental_uris":{"android":"levelo://app?vid=7e14ec6a-66d4-48f8-a7f6-60346add6b65","ios":"levelo://app?vid=7e14ec6a-66d4-48f8-a7f6-60346add6b65"},"vehicle_type_id":"4","last_reported":1735657688,"current_range_meters":25600,"station_id":"ce4bh0h2rcd13ifvqd60","pricing_plan_id":"cebpf4jnsgd1na2vs0mg"},{"bike_id":"dd5a7536-ce28-4f1d-a147-a1a057d547a6","system_id":"levelo_inurba_marseille","lat":43.32477,"lon":5.36569,"is_reserved":false,"is_disabled":false,"rental_uris":{"android":"levelo://app?vid=dd5a7536-ce28-4f1d-a147-a1a057d547a6","ios":"levelo://app?vid=dd5a7536-ce28-4f1d-a147-a1a057d547a6"},"vehicle_type_id":"4","last_reported":1735657688,"current_range_meters":14800,"station_id":"ce4bhs12rcd13ifvqhvg","pricing_plan_id":"cebpf4jnsgd1na2vs0mg"},{"bike_id":"6b8fd8f3-0bc3-45eb-97a5-adab4ffeed71","system_id":"levelo_inurba_marseille","lat":43.30143,"lon":5.38067,"is_reserved":false,"is_disabled":false,"rental_uris":{"android":"levelo://app?vid=6b8fd8f3-0bc3-45eb-97a5-adab4ffeed71","ios":"levelo://app?vid=6b8fd8f3-0bc3-45eb-97a5-adab4ffeed71"},"vehicle_type_id":"4","last_reported":1735657688,"current_range_meters":27600,"station_id":"ce4bgjp2rcd13ifvqbh0","pricing_plan_id":"cebpf4jnsgd1na2vs0mg"},{"bike_id":"1a821a66-e0f6-4530-86b3-250338051818","system_id":"levelo_inurba_marseille","lat":43.27066,"lon":5.42285,"is_reserved":false,"is_disabled":false,"rental_uris":{"android":"levelo://app?vid=1a821a66-e0f6-4530-86b3-250338051818","ios":"levelo://app?vid=1a821a66-e0f6-4530-86b3-250338051818"},"vehicle_type_id":"4","last_reported":1735657688,"current_range_meters":38800,"station_id":"ce4bhk92rcd13ifvqgb0","pricing_plan_id":"cebpf4jnsgd1na2vs0mg"},{"bike_id":"f245617d-a787-4211-9327-d50956fbd801","system_id":"levelo_inurba_marseille","lat":43.22928,"lon":5.35384,"is_reserved":false,"is_disabled":false,"rental_uris":{"android":"levelo://app?vid=f245617d-a787-4211-9327-d50956fbd801","ios":"levelo://app?vid=f245617d-a787-4211-9327-d50956fbd801"},"vehicle_type_id":"4","last_reported":1735657688,"current_range_meters":20000,"station_id":"cpo3532slgdg3j2ikp40","pricing_plan_id":"cebpf4jnsgd1na2vs0mg"},{"bike_id":"bf964ff7-d6c4-4655-aa3c-b44a133b182b","system_id":"levelo_inurba_marseille","lat":43.29003,"lon":5.35618,"is_reserved":false,"is_disabled":false,"rental_uris":{"android":"levelo://app?vid=bf964ff7-d6c4-4655-aa3c-b44a133b182b","ios":"levelo://app?vid=bf964ff7-d6c4-4655-aa3c-b44a133b182b"},"vehicle_type_id":"4","last_reported":1735657688,"current_range_meters":39200,"station_id":"ce4bhb92rcd13ifvqen0","pricing_plan_id":"cebpf4jnsgd1na2vs0mg"},{"bike_id":"faae590e-0ff5-40df-8fed-0dfe83ba2bcf","system_id":"levelo_inurba_marseille","lat":43.28153,"lon":5.4264,"is_reserved":false,"is_disabled":false,"rental_uris":{"android":"levelo://app?vid=faae590e-0ff5-40df-8fed-0dfe83ba2bcf","ios":"levelo://app?vid=faae590e-0ff5-40df-8fed-0dfe83ba2bcf"},"vehicle_type_id":"4","last_reported":1735657688,"current_range_meters":26000,"station_id":"ce4bhnh2rcd13ifvqgug","pricing_plan_id":"cebpf4jnsgd1na2vs0mg"},{"bike_id":"f5997a88-606e-48c9-933e-041b10894cea","system_id":"levelo_inurba_marseille","lat":43.2707,"lon":5.42281,"is_reserved":false,"is_disabled":false,"rental_uris":{"android":"levelo://app?vid=f5997a88-606e-48c9-933e-041b10894cea","ios":"levelo://app?vid=f5997a88-606e-48c9-933e-041b10894cea"},"vehicle_type_id":"4","last_reported":1735657688,"current_range_meters":24400,"station_id":"ce4bhk92rcd13ifvqgb0","pricing_plan_id":"cebpf4jnsgd1na2vs0mg"},{"bike_id":"dde8ea31-ba55-48ea-9fc3-47305ace2d36","system_id":"levelo_inurba_marseille","lat":43.29329,"lon":5.3751,"is_reserved":false,"is_disabled":false,"rental_uris":{"android":"levelo://app?vid=dde8ea31-ba55-48ea-9fc3-47305ace2d36","ios":"levelo://app?vid=dde8ea31-ba55-48ea-9fc3-47305ace2d36"},"vehicle_type_id":"4","last_reported":1735657688,"current_range_meters":34000,"station_id":"ce4bgi12rcd13ifvqb70","pricing_plan_id":"cebpf4jnsgd1na2vs0mg"},{"bike_id":"73ca5d84-a6e3-49c9-a8ea-23faa3eb40bb","system_id":"levelo_inurba_marseille","lat":43.30543,"lon":5.36698,"is_reserved":false,"is_disabled":false,"rental_uris":{"android":"levelo://app?vid=73ca5d84-a6e3-49c9-a8ea-23faa3eb40bb","ios":"levelo://app?vid=73ca5d84-a6e3-49c9-a8ea-23faa3eb40bb"},"vehicle_type_id":"4","last_reported":1735657688,"current_range_meters":38800,"station_id":"ce4bgrp2rcd13ifvqc9g","pricing_plan_id":"cebpf4jnsgd1na2vs0mg"},{"bike_id":"f8632b8a-dba7-414c-9580-e3984c6c4549","system_id":"levelo_inurba_marseille","lat":43.29582,"lon":5.36739,"is_reserved":false,"is_disabled":false,"rental_uris":{"android":"levelo://app?vid=f8632b8a-dba7-414c-9580-e3984c6c4549","ios":"levelo://app?vid=f8632b8a-dba7-414c-9580-e3984c6c4549"},"vehicle_type_id":"4","last_reported":1735657688,"current_range_meters":38800,"station_id":"ce4bgph2rcd13ifvqc2g","pricing_plan_id":"cebpf4jnsgd1na2vs0mg"},{"bike_id":"dbc25549-89f2-4e1d-87df-8fa80a5742c7","system_id":"levelo_inurba_marseille","lat":43.29558,"lon":5.42276,"is_reserved":false,"is_disabled":false,"rental_uris":{"android":"levelo://app?vid=dbc25549-89f2-4e1d-87df-8fa80a5742c7","ios":"levelo://app?vid=dbc25549-89f2-4e1d-87df-8fa80a5742c7"},"vehicle_type_id":"4","last_reported":1735657688,"current_range_meters":38800,"station_id":"ce4bhph2rcd13ifvqhdg","pricing_plan_id":"cebpf4jnsgd1na2vs0mg"},{"bike_id":"4ae90592-e920-400e-8a25-b327a1d3d78f","system_id":"levelo_inurba_marseille","lat":43.24658,"lon":5.38168,"is_reserved":false,"is_disabled":false,"rental_uris":{"android":"levelo://app?vid=4ae90592-e920-400e-8a25-b327a1d3d78f","ios":"levelo://app?vid=4ae90592-e920-400e-8a25-b327a1d3d78f"},"vehicle_type_id":"4","last_reported":1735657688,"current_range_meters":8400,"station_id":"ce4bhih2rcd13ifvqfr0","pricing_plan_id":"cebpf4jnsgd1na2vs0mg"},{"bike_id":"4667387b-d7de-42f7-a615-87f091e510ef","system_id":"levelo_inurba_marseille","lat":43.26699,"lon":5.38256,"is_reserved":false,"is_disabled":false,"rental_uris":{"android":"levelo://app?vid=4667387b-d7de-42f7-a615-87f091e510ef","ios":"levelo://app?vid=4667387b-d7de-42f7-a615-87f091e510ef"},"vehicle_type_id":"4","last_reported":1735657688,"current_range_meters":38400,"station_id":"ce4bhg92rcd13ifvqf90","pricing_plan_id":"cebpf4jnsgd1na2vs0mg"},{"bike_id":"6e1cc815-f1dc-4cdd-9e7e-8cf9ae5f415a","system_id":"levelo_inurba_marseille","lat":43.27046,"lon":5.40282,"is_reserved":false,"is_disabled":false,"rental_uris":{"android":"levelo://app?vid=6e1cc815-f1dc-4cdd-9e7e-8cf9ae5f415a","ios":"levelo://app?vid=6e1cc815-f1dc-4cdd-9e7e-8cf9ae5f415a"},"vehicle_type_id":"4","last_reported":1735657688,"current_range_meters":22000,"station_id":"ce4bhk92rcd13ifvqgc0","pricing_plan_id":"cebpf4jnsgd1na2vs0mg"},{"bike_id":"1e7e0009-7be7-499a-a4d2-a6c912d4dc6f","system_id":"levelo_inurba_marseille","lat":43.29568,"lon":5.37502,"is_reserved":false,"is_disabled":false,"rental_uris":{"android":"levelo://app?vid=1e7e0009-7be7-499a-a4d2-a6c912d4dc6f","ios":"levelo://app?vid=1e7e0009-7be7-499a-a4d2-a6c912d4dc6f"},"vehicle_type_id":"4","last_reported":1735657688,"current_range_meters":34000,"station_id":"ce4bgh92rcd13ifvqb50","pricing_plan_id":"cebpf4jnsgd1na2vs0mg"},{"bike_id":"62771821-47a2-41f7-be56-96ae48d59df1","system_id":"levelo_inurba_marseille","lat":43.28925,"lon":5.38387,"is_reserved":false,"is_disabled":false,"rental_uris":{"android":"levelo://app?vid=62771821-47a2-41f7-be56-96ae48d59df1","ios":"levelo://app?vid=62771821-47a2-41f7-be56-96ae48d59df1"},"vehicle_type_id":"4","last_reported":1735657688,"current_range_meters":30400,"station_id":"ce4bh612rcd13ifvqe6g","pricing_plan_id":"cebpf4jnsgd1na2vs0mg"},{"bike_id":"e2e37fcf-bdca-4703-b57b-04e9ac7eb714","system_id":"levelo_inurba_marseille","lat":43.30906,"lon":5.37161,"is_reserved":false,"is_disabled":false,"rental_uris":{"android":"levelo://app?vid=e2e37fcf-bdca-4703-b57b-04e9ac7eb714","ios":"levelo://app?vid=e2e37fcf-bdca-4703-b57b-04e9ac7eb714"},"vehicle_type_id":"4","last_reported":1735657688,"current_range_meters":29600,"station_id":"ce4bguh2rcd13ifvqckg","pricing_plan_id":"cebpf4jnsgd1na2vs0mg"},{"bike_id":"3bab2653-c962-46e7-8d14-0cb64372ec3d","system_id":"levelo_inurba_marseille","lat":43.3205,"lon":5.41547,"is_reserved":false,"is_disabled":false,"rental_uris":{"android":"levelo://app?vid=3bab2653-c962-46e7-8d14-0cb64372ec3d","ios":"levelo://app?vid=3bab2653-c962-46e7-8d14-0cb64372ec3d"},"vehicle_type_id":"4","last_reported":1735657688,"current_range_meters":14000,"station_id":"ce4bhq92rcd13ifvqhkg","pricing_plan_id":"cebpf4jnsgd1na2vs0mg"},{"bike_id":"b008a273-4e3e-469d-bc7f-c98a8ea7cb09","system_id":"levelo_inurba_marseille","lat":43.27424,"lon":5.39421,"is_reserved":false,"is_disabled":false,"rental_uris":{"android":"levelo://app?vid=b008a273-4e3e-469d-bc7f-c98a8ea7cb09","ios":"levelo://app?vid=b008a273-4e3e-469d-bc7f-c98a8ea7cb09"},"vehicle_type_id":"4","last_reported":1735657688,"current_range_meters":35200,"station_id":"ce4bhdp2rcd13ifvqf20","pricing_plan_id":"cebpf4jnsgd1na2vs0mg"},{"bike_id":"94e6dee2-3159-449e-9ee5-297188ebe26e","system_id":"levelo_inurba_marseille","lat":43.29917,"lon":5.37466,"is_reserved":false,"is_disabled":false,"rental_uris":{"android":"levelo://app?vid=94e6dee2-3159-449e-9ee5-297188ebe26e","ios":"levelo://app?vid=94e6dee2-3159-449e-9ee5-297188ebe26e"},"vehicle_type_id":"4","last_reported":1735657688,"current_range_meters":25600,"station_id":"ce4bgjh2rcd13ifvqbg0","pricing_plan_id":"cebpf4jnsgd1na2vs0mg"},{"bike_id":"217f9c51-4d4b-4786-9985-c31b0dc7580f","system_id":"levelo_inurba_marseille","lat":43.30518,"lon":5.36712,"is_reserved":false,"is_disabled":false,"rental_uris":{"android":"levelo://app?vid=217f9c51-4d4b-4786-9985-c31b0dc7580f","ios":"levelo://app?vid=217f9c51-4d4b-4786-9985-c31b0dc7580f"},"vehicle_type_id":"4","last_reported":1735657688,"current_range_meters":30000,"station_id":"","pricing_plan_id":"cebpf4jnsgd1na2vs0mg"},{"bike_id":"abb384d4-50ff-4793-a8c5-8fc16babe629","system_id":"levelo_inurba_marseille","lat":43.30159,"lon":5.37369,"is_reserved":false,"is_disabled":false,"rental_uris":{"android":"levelo://app?vid=abb384d4-50ff-4793-a8c5-8fc16babe629","ios":"levelo://app?vid=abb384d4-50ff-4793-a8c5-8fc16babe629"},"vehicle_type_id":"4","last_reported":1735657688,"current_range_meters":38800,"station_id":"ce4bgs92rcd13ifvqcc0","pricing_plan_id":"cebpf4jnsgd1na2vs0mg"},{"bike_id":"56731e3e-7f36-4713-a4bd-24b5ee5d43d3","system_id":"levelo_inurba_marseille","lat":43.28027,"lon":5.36952,"is_reserved":false,"is_disabled":false,"rental_uris":{"android":"levelo://app?vid=56731e3e-7f36-4713-a4bd-24b5ee5d43d3","ios":"levelo://app?vid=56731e3e-7f36-4713-a4bd-24b5ee5d43d3"},"vehicle_type_id":"4","last_reported":1735657688,"current_range_meters":36800,"station_id":"ce4bha12rcd13ifvqef0","pricing_plan_id":"cebpf4jnsgd1na2vs0mg"},{"bike_id":"8cbc8b99-428c-4040-b86c-4e2c4fffea65","system_id":"levelo_inurba_marseille","lat":43.33771,"lon":5.37435,"is_reserved":false,"is_disabled":true,"rental_uris":{"android":"levelo://app?vid=8cbc8b99-428c-4040-b86c-4e2c4fffea65","ios":"levelo://app?vid=8cbc8b99-428c-4040-b86c-4e2c4fffea65"},"vehicle_type_id":"4","last_reported":1735657688,"current_range_meters":38000,"station_id":"","pricing_plan_id":"cebpf4jnsgd1na2vs0mg"},{"bike_id":"65e47f8e-8281-4877-9957-4bbb63858c4d","system_id":"levelo_inurba_marseille","lat":43.25727,"lon":5.41101,"is_reserved":false,"is_disabled":false,"rental_uris":{"android":"levelo://app?vid=65e47f8e-8281-4877-9957-4bbb63858c4d","ios":"levelo://app?vid=65e47f8e-8281-4877-9957-4bbb63858c4d"},"vehicle_type_id":"4","last_reported":1735657688,"current_range_meters":28400,"station_id":"ce4bhkp2rcd13ifvqgd0","pricing_plan_id":"cebpf4jnsgd1na2vs0mg"},{"bike_id":"73a8b095-bee6-42fb-a11d-f93149228c21","system_id":"levelo_inurba_marseille","lat":43.30603,"lon":5.37221,"is_reserved":false,"is_disabled":false,"rental_uris":{"android":"levelo://app?vid=73a8b095-bee6-42fb-a11d-f93149228c21","ios":"levelo://app?vid=73a8b095-bee6-42fb-a11d-f93149228c21"},"vehicle_type_id":"4","last_reported":1735657688,"current_range_meters":32800,"station_id":"ce4bgqh2rcd13ifvqc4g","pricing_plan_id":"cebpf4jnsgd1na2vs0mg"},{"bike_id":"749a2a84-3a9f-4103-a540-347a56e3c886","system_id":"levelo_inurba_marseille","lat":43.2756,"lon":5.38428,"is_reserved":false,"is_disabled":false,"rental_uris":{"android":"levelo://app?vid=749a2a84-3a9f-4103-a540-347a56e3c886","ios":"levelo://app?vid=749a2a84-3a9f-4103-a540-347a56e3c886"},"vehicle_type_id":"4","last_reported":1735657688,"current_range_meters":16800,"station_id":"ce4bhh92rcd13ifvqfi0","pricing_plan_id":"cebpf4jnsgd1na2vs0mg"},{"bike_id":"b1815487-383e-42be-8a0b-8b8db0c2ceef","system_id":"levelo_inurba_marseille","lat":43.32285,"lon":5.38258,"is_reserved":false,"is_disabled":false,"rental_uris":{"android":"levelo://app?vid=b1815487-383e-42be-8a0b-8b8db0c2ceef","ios":"levelo://app?vid=b1815487-383e-42be-8a0b-8b8db0c2ceef"},"vehicle_type_id":"4","last_reported":1735657688,"current_range_meters":38000,"station_id":"ce4bhr12rcd13ifvqhqg","pricing_plan_id":"cebpf4jnsgd1na2vs0mg"},{"bike_id":"963e4bba-1257-4e74-8c01-a686a15557dc","system_id":"levelo_inurba_marseille","lat":43.29607,"lon":5.37739,"is_reserved":false,"is_disabled":false,"rental_uris":{"android":"levelo://app?vid=963e4bba-1257-4e74-8c01-a686a15557dc","ios":"levelo://app?vid=963e4bba-1257-4e74-8c01-a686a15557dc"},"vehicle_type_id":"4","last_reported":1735657688,"current_range_meters":37600,"station_id":"ce4bgi92rcd13ifvqb90","pricing_plan_id":"cebpf4jnsgd1na2vs0mg"},{"bike_id":"74bfd52b-7e46-465d-8766-e79667dc7763","system_id":"levelo_inurba_marseille","lat":43.32061,"lon":5.4153,"is_reserved":false,"is_disabled":false,"rental_uris":{"android":"levelo://app?vid=74bfd52b-7e46-465d-8766-e79667dc7763","ios":"levelo://app?vid=74bfd52b-7e46-465d-8766-e79667dc7763"},"vehicle_type_id":"4","last_reported":1735657688,"current_range_meters":38800,"station_id":"ce4bhq92rcd13ifvqhkg","pricing_plan_id":"cebpf4jnsgd1na2vs0mg"},{"bike_id":"393e71c9-0198-4d45-bd8d-1ec9c786b251","system_id":"levelo_inurba_marseille","lat":43.30101,"lon":5.39082,"is_reserved":false,"is_disabled":false,"rental_uris":{"android":"levelo://app?vid=393e71c9-0198-4d45-bd8d-1ec9c786b251","ios":"levelo://app?vid=393e71c9-0198-4d45-bd8d-1ec9c786b251"},"vehicle_type_id":"4","last_reported":1735657688,"current_range_meters":36800,"station_id":"ce4bh192rcd13ifvqdb0","pricing_plan_id":"cebpf4jnsgd1na2vs0mg"},{"bike_id":"a9ad46d6-1750-405f-8074-9378a5ffcb62","system_id":"levelo_inurba_marseille","lat":43.29571,"lon":5.37528,"is_reserved":false,"is_disabled":false,"rental_uris":{"android":"levelo://app?vid=a9ad46d6-1750-405f-8074-9378a5ffcb62","ios":"levelo://app?vid=a9ad46d6-1750-405f-8074-9378a5ffcb62"},"vehicle_type_id":"4","last_reported":1735657688,"current_range_meters":24800,"station_id":"ce4bgh92rcd13ifvqb50","pricing_plan_id":"cebpf4jnsgd1na2vs0mg"},{"bike_id":"df334d50-4421-42a5-a762-fb7f39807cc1","system_id":"levelo_inurba_marseille","lat":43.337444,"lon":5.374475,"is_reserved":false,"is_disabled":false,"rental_uris":{"android":"levelo://app?vid=df334d50-4421-42a5-a762-fb7f39807cc1","ios":"levelo://app?vid=df334d50-4421-42a5-a762-fb7f39807cc1"},"vehicle_type_id":"4","last_reported":1735657688,"current_range_meters":38800,"station_id":"","pricing_plan_id":"cebpf4jnsgd1na2vs0mg"},{"bike_id":"06a845ee-9c64-4db7-8cf7-04ee769e84b3","system_id":"levelo_inurba_marseille","lat":43.25125,"lon":5.40336,"is_reserved":false,"is_disabled":false,"rental_uris":{"android":"levelo://app?vid=06a845ee-9c64-4db7-8cf7-04ee769e84b3","ios":"levelo://app?vid=06a845ee-9c64-4db7-8cf7-04ee769e84b3"},"vehicle_type_id":"4","last_reported":1735657688,"current_range_meters":25600,"station_id":"ce4bhlh2rcd13ifvqgig","pricing_plan_id":"cebpf4jnsgd1na2vs0mg"},{"bike_id":"db32cf0d-643f-4166-93d9-c2dd42363683","system_id":"levelo_inurba_marseille","lat":43.30298,"lon":5.36924,"is_reserved":false,"is_disabled":false,"rental_uris":{"android":"levelo://app?vid=db32cf0d-643f-4166-93d9-c2dd42363683","ios":"levelo://app?vid=db32cf0d-643f-4166-93d9-c2dd42363683"},"vehicle_type_id":"4","last_reported":1735657688,"current_range_meters":27600,"station_id":"ce4bgqh2rcd13ifvqc5g","pricing_plan_id":"cebpf4jnsgd1na2vs0mg"},{"bike_id":"9779391f-1699-4617-9cc7-3855c54dda9e","system_id":"levelo_inurba_marseille","lat":43.30931,"lon":5.40147,"is_reserved":false,"is_disabled":false,"rental_uris":{"android":"levelo://app?vid=9779391f-1699-4617-9cc7-3855c54dda9e","ios":"levelo://app?vid=9779391f-1699-4617-9cc7-3855c54dda9e"},"vehicle_type_id":"4","last_reported":1735657688,"current_range_meters":6400,"station_id":"ce4bgvp2rcd13ifvqct0","pricing_plan_id":"cebpf4jnsgd1na2vs0mg"},{"bike_id":"b0286157-8666-4de5-bcfc-57adf665a11a","system_id":"levelo_inurba_marseille","lat":43.30595,"lon":5.37206,"is_reserved":false,"is_disabled":false,"rental_uris":{"android":"levelo://app?vid=b0286157-8666-4de5-bcfc-57adf665a11a","ios":"levelo://app?vid=b0286157-8666-4de5-bcfc-57adf665a11a"},"vehicle_type_id":"4","last_reported":1735657688,"current_range_meters":39200,"station_id":"ce4bgqh2rcd13ifvqc4g","pricing_plan_id":"cebpf4jnsgd1na2vs0mg"},{"bike_id":"923c8f4c-11ee-4d68-88a4-4f22af762798","system_id":"levelo_inurba_marseille","lat":43.324857,"lon":5.365583,"is_reserved":false,"is_disabled":false,"rental_uris":{"android":"levelo://app?vid=923c8f4c-11ee-4d68-88a4-4f22af762798","ios":"levelo://app?vid=923c8f4c-11ee-4d68-88a4-4f22af762798"},"vehicle_type_id":"4","last_reported":1735657688,"current_range_meters":31200,"station_id":"ce4bhs12rcd13ifvqhvg","pricing_plan_id":"cebpf4jnsgd1na2vs0mg"},{"bike_id":"5367a292-5564-4681-91cd-97babb89fc00","system_id":"levelo_inurba_marseille","lat":43.22926,"lon":5.35388,"is_reserved":false,"is_disabled":false,"rental_uris":{"android":"levelo://app?vid=5367a292-5564-4681-91cd-97babb89fc00","ios":"levelo://app?vid=5367a292-5564-4681-91cd-97babb89fc00"},"vehicle_type_id":"4","last_reported":1735657688,"current_range_meters":27600,"station_id":"cpo3532slgdg3j2ikp40","pricing_plan_id":"cebpf4jnsgd1na2vs0mg"},{"bike_id":"0483d5a5-12c2-4b90-8e6c-47d6d5a4b82c","system_id":"levelo_inurba_marseille","lat":43.25821,"lon":5.39416,"is_reserved":false,"is_disabled":false,"rental_uris":{"android":"levelo://app?vid=0483d5a5-12c2-4b90-8e6c-47d6d5a4b82c","ios":"levelo://app?vid=0483d5a5-12c2-4b90-8e6c-47d6d5a4b82c"},"vehicle_type_id":"4","last_reported":1735657688,"current_range_meters":38800,"station_id":"ce4bhip2rcd13ifvqft0","pricing_plan_id":"cebpf4jnsgd1na2vs0mg"},{"bike_id":"523f53b8-d5fa-4c60-a25e-8902b398e89d","system_id":"levelo_inurba_marseille","lat":43.29553,"lon":5.42269,"is_reserved":false,"is_disabled":false,"rental_uris":{"android":"levelo://app?vid=523f53b8-d5fa-4c60-a25e-8902b398e89d","ios":"levelo://app?vid=523f53b8-d5fa-4c60-a25e-8902b398e89d"},"vehicle_type_id":"4","last_reported":1735657688,"current_range_meters":38800,"station_id":"ce4bhph2rcd13ifvqhdg","pricing_plan_id":"cebpf4jnsgd1na2vs0mg"},{"bike_id":"23505c2c-304f-4342-94c8-a6209410577c","system_id":"levelo_inurba_marseille","lat":43.30207,"lon":5.39465,"is_reserved":false,"is_disabled":false,"rental_uris":{"android":"levelo://app?vid=23505c2c-304f-4342-94c8-a6209410577c","ios":"levelo://app?vid=23505c2c-304f-4342-94c8-a6209410577c"},"vehicle_type_id":"4","last_reported":1735657688,"current_range_meters":19200,"station_id":"ce4bh0p2rcd13ifvqd70","pricing_plan_id":"cebpf4jnsgd1na2vs0mg"},{"bike_id":"742a68bc-68fb-48aa-aad7-6fa68f68cfb6","system_id":"levelo_inurba_marseille","lat":43.30885,"lon":5.37196,"is_reserved":false,"is_disabled":false,"rental_uris":{"android":"levelo://app?vid=742a68bc-68fb-48aa-aad7-6fa68f68cfb6","ios":"levelo://app?vid=742a68bc-68fb-48aa-aad7-6fa68f68cfb6"},"vehicle_type_id":"4","last_reported":1735657688,"current_range_meters":38000,"station_id":"ce4bguh2rcd13ifvqckg","pricing_plan_id":"cebpf4jnsgd1na2vs0mg"},{"bike_id":"280cf13f-324a-4d2b-a5bf-4abcbbaf118f","system_id":"levelo_inurba_marseille","lat":43.32367,"lon":5.3889,"is_reserved":false,"is_disabled":false,"rental_uris":{"android":"levelo://app?vid=280cf13f-324a-4d2b-a5bf-4abcbbaf118f","ios":"levelo://app?vid=280cf13f-324a-4d2b-a5bf-4abcbbaf118f"},"vehicle_type_id":"4","last_reported":1735657688,"current_range_meters":14400,"station_id":"ce4bhqp2rcd13ifvqhog","pricing_plan_id":"cebpf4jnsgd1na2vs0mg"},{"bike_id":"c6eedc9a-d2e0-4edf-a75c-a45a3178a9ec","system_id":"levelo_inurba_marseille","lat":43.260318,"lon":5.375489,"is_reserved":false,"is_disabled":false,"rental_uris":{"android":"levelo://app?vid=c6eedc9a-d2e0-4edf-a75c-a45a3178a9ec","ios":"levelo://app?vid=c6eedc9a-d2e0-4edf-a75c-a45a3178a9ec"},"vehicle_type_id":"4","last_reported":1735657688,"current_range_meters":38000,"station_id":"ce4bhgh2rcd13ifvqfa0","pricing_plan_id":"cebpf4jnsgd1na2vs0mg"},{"bike_id":"94d38955-21a2-4852-a963-0a3cc1374e49","system_id":"levelo_inurba_marseille","lat":43.23196,"lon":5.35549,"is_reserved":false,"is_disabled":false,"rental_uris":{"android":"levelo://app?vid=94d38955-21a2-4852-a963-0a3cc1374e49","ios":"levelo://app?vid=94d38955-21a2-4852-a963-0a3cc1374e49"},"vehicle_type_id":"4","last_reported":1735657688,"current_range_meters":38000,"station_id":"ce4bhu92rcd13ifvqi70","pricing_plan_id":"cebpf4jnsgd1na2vs0mg"},{"bike_id":"e53a814f-c190-4153-a68e-519bc61d22d3","system_id":"levelo_inurba_marseille","lat":43.24545,"lon":5.39524,"is_reserved":false,"is_disabled":false,"rental_uris":{"android":"levelo://app?vid=e53a814f-c190-4153-a68e-519bc61d22d3","ios":"levelo://app?vid=e53a814f-c190-4153-a68e-519bc61d22d3"},"vehicle_type_id":"4","last_reported":1735657688,"current_range_meters":31200,"station_id":"ce4bhlp2rcd13ifvqgjg","pricing_plan_id":"cebpf4jnsgd1na2vs0mg"},{"bike_id":"88369a77-7b87-45c1-9953-a4d4e1155364","system_id":"levelo_inurba_marseille","lat":43.2842,"lon":5.34977,"is_reserved":false,"is_disabled":false,"rental_uris":{"android":"levelo://app?vid=88369a77-7b87-45c1-9953-a4d4e1155364","ios":"levelo://app?vid=88369a77-7b87-45c1-9953-a4d4e1155364"},"vehicle_type_id":"4","last_reported":1735657688,"current_range_meters":38400,"station_id":"ce4bhbh2rcd13ifvqepg","pricing_plan_id":"cebpf4jnsgd1na2vs0mg"},{"bike_id":"e7f6b94b-592f-4376-ae27-ecfe3110b335","system_id":"levelo_inurba_marseille","lat":43.29572,"lon":5.37523,"is_reserved":false,"is_disabled":false,"rental_uris":{"android":"levelo://app?vid=e7f6b94b-592f-4376-ae27-ecfe3110b335","ios":"levelo://app?vid=e7f6b94b-592f-4376-ae27-ecfe3110b335"},"vehicle_type_id":"4","last_reported":1735657688,"current_range_meters":15200,"station_id":"ce4bgh92rcd13ifvqb50","pricing_plan_id":"cebpf4jnsgd1na2vs0mg"},{"bike_id":"ca497fc6-cd22-4171-8d71-508c45bf12cf","system_id":"levelo_inurba_marseille","lat":43.29634,"lon":5.37172,"is_reserved":false,"is_disabled":false,"rental_uris":{"android":"levelo://app?vid=ca497fc6-cd22-4171-8d71-508c45bf12cf","ios":"levelo://app?vid=ca497fc6-cd22-4171-8d71-508c45bf12cf"},"vehicle_type_id":"4","last_reported":1735657688,"current_range_meters":23200,"station_id":"ce4bgnh2rcd13ifvqc0g","pricing_plan_id":"cebpf4jnsgd1na2vs0mg"},{"bike_id":"fdcb93a4-8a39-475e-8a0d-caf375d10c96","system_id":"levelo_inurba_marseille","lat":43.29562,"lon":5.37498,"is_reserved":false,"is_disabled":false,"rental_uris":{"android":"levelo://app?vid=fdcb93a4-8a39-475e-8a0d-caf375d10c96","ios":"levelo://app?vid=fdcb93a4-8a39-475e-8a0d-caf375d10c96"},"vehicle_type_id":"4","last_reported":1735657688,"current_range_meters":36400,"station_id":"ce4bgh92rcd13ifvqb50","pricing_plan_id":"cebpf4jnsgd1na2vs0mg"},{"bike_id":"179f7c7e-cf60-4979-b064-1b4336e1db8c","system_id":"levelo_inurba_marseille","lat":43.27835,"lon":5.39203,"is_reserved":false,"is_disabled":false,"rental_uris":{"android":"levelo://app?vid=179f7c7e-cf60-4979-b064-1b4336e1db8c","ios":"levelo://app?vid=179f7c7e-cf60-4979-b064-1b4336e1db8c"},"vehicle_type_id":"4","last_reported":1735657688,"current_range_meters":37600,"station_id":"ce4bhjp2rcd13ifvqga0","pricing_plan_id":"cebpf4jnsgd1na2vs0mg"},{"bike_id":"0547b34c-25d9-4bc6-8d46-6341805d8780","system_id":"levelo_inurba_marseille","lat":43.30293,"lon":5.39216,"is_reserved":false,"is_disabled":false,"rental_uris":{"android":"levelo://app?vid=0547b34c-25d9-4bc6-8d46-6341805d8780","ios":"levelo://app?vid=0547b34c-25d9-4bc6-8d46-6341805d8780"},"vehicle_type_id":"4","last_reported":1735657688,"current_range_meters":6000,"station_id":"ce4bgkh2rcd13ifvqbk0","pricing_plan_id":"cebpf4jnsgd1na2vs0mg"},{"bike_id":"91f48556-6be7-4726-856a-0ff67d45df38","system_id":"levelo_inurba_marseille","lat":43.31163,"lon":5.38719,"is_reserved":false,"is_disabled":false,"rental_uris":{"android":"levelo://app?vid=91f48556-6be7-4726-856a-0ff67d45df38","ios":"levelo://app?vid=91f48556-6be7-4726-856a-0ff67d45df38"},"vehicle_type_id":"4","last_reported":1735657688,"current_range_meters":34000,"station_id":"ce4bgv12rcd13ifvqcp0","pricing_plan_id":"cebpf4jnsgd1na2vs0mg"},{"bike_id":"c7a5c9c7-3430-4156-9d90-b61acb6089ec","system_id":"levelo_inurba_marseille","lat":43.274319,"lon":5.394169,"is_reserved":false,"is_disabled":false,"rental_uris":{"android":"levelo://app?vid=c7a5c9c7-3430-4156-9d90-b61acb6089ec","ios":"levelo://app?vid=c7a5c9c7-3430-4156-9d90-b61acb6089ec"},"vehicle_type_id":"4","last_reported":1735657688,"current_range_meters":27600,"station_id":"ce4bhdp2rcd13ifvqf20","pricing_plan_id":"cebpf4jnsgd1na2vs0mg"},{"bike_id":"c738546a-ac09-4cd2-9a1c-6317df85c4ab","system_id":"levelo_inurba_marseille","lat":43.251195,"lon":5.403184,"is_reserved":false,"is_disabled":false,"rental_uris":{"android":"levelo://app?vid=c738546a-ac09-4cd2-9a1c-6317df85c4ab","ios":"levelo://app?vid=c738546a-ac09-4cd2-9a1c-6317df85c4ab"},"vehicle_type_id":"4","last_reported":1735657688,"current_range_meters":34000,"station_id":"ce4bhlh2rcd13ifvqgig","pricing_plan_id":"cebpf4jnsgd1na2vs0mg"},{"bike_id":"dac94ecf-3203-4c89-acc0-21c14e979588","system_id":"levelo_inurba_marseille","lat":43.26687,"lon":5.3828,"is_reserved":false,"is_disabled":false,"rental_uris":{"android":"levelo://app?vid=dac94ecf-3203-4c89-acc0-21c14e979588","ios":"levelo://app?vid=dac94ecf-3203-4c89-acc0-21c14e979588"},"vehicle_type_id":"4","last_reported":1735657688,"current_range_meters":15200,"station_id":"ce4bhg92rcd13ifvqf90","pricing_plan_id":"cebpf4jnsgd1na2vs0mg"},{"bike_id":"9e91de34-832c-4bc5-8127-e1d137e3a135","system_id":"levelo_inurba_marseille","lat":43.2866,"lon":5.36364,"is_reserved":false,"is_disabled":false,"rental_uris":{"android":"levelo://app?vid=9e91de34-832c-4bc5-8127-e1d137e3a135","ios":"levelo://app?vid=9e91de34-832c-4bc5-8127-e1d137e3a135"},"vehicle_type_id":"4","last_reported":1735657688,"current_range_meters":25600,"station_id":"ce4bhah2rcd13ifvqej0","pricing_plan_id":"cebpf4jnsgd1na2vs0mg"},{"bike_id":"b0d9889d-a445-4b3b-904c-8857ddd98aef","system_id":"levelo_inurba_marseille","lat":43.32541,"lon":5.41439,"is_reserved":false,"is_disabled":false,"rental_uris":{"android":"levelo://app?vid=b0d9889d-a445-4b3b-904c-8857ddd98aef","ios":"levelo://app?vid=b0d9889d-a445-4b3b-904c-8857ddd98aef"},"vehicle_type_id":"4","last_reported":1735657688,"current_range_meters":38400,"station_id":"ce4bhq12rcd13ifvqhhg","pricing_plan_id":"cebpf4jnsgd1na2vs0mg"},{"bike_id":"9c42c59a-a990-48ee-91ac-32ebebcaabf5","system_id":"levelo_inurba_marseille","lat":43.27568,"lon":5.38412,"is_reserved":false,"is_disabled":false,"rental_uris":{"android":"levelo://app?vid=9c42c59a-a990-48ee-91ac-32ebebcaabf5","ios":"levelo://app?vid=9c42c59a-a990-48ee-91ac-32ebebcaabf5"},"vehicle_type_id":"4","last_reported":1735657688,"current_range_meters":39200,"station_id":"ce4bhh92rcd13ifvqfi0","pricing_plan_id":"cebpf4jnsgd1na2vs0mg"},{"bike_id":"33627164-74dc-4db2-a6ec-b1f60092e8e5","system_id":"levelo_inurba_marseille","lat":43.3032,"lon":5.36912,"is_reserved":false,"is_disabled":false,"rental_uris":{"android":"levelo://app?vid=33627164-74dc-4db2-a6ec-b1f60092e8e5","ios":"levelo://app?vid=33627164-74dc-4db2-a6ec-b1f60092e8e5"},"vehicle_type_id":"4","last_reported":1735657688,"current_range_meters":32800,"station_id":"ce4bgqh2rcd13ifvqc5g","pricing_plan_id":"cebpf4jnsgd1na2vs0mg"},{"bike_id":"d302ac21-f9d9-4202-903a-56cd6afc41c0","system_id":"levelo_inurba_marseille","lat":43.29286,"lon":5.37431,"is_reserved":false,"is_disabled":false,"rental_uris":{"android":"levelo://app?vid=d302ac21-f9d9-4202-903a-56cd6afc41c0","ios":"levelo://app?vid=d302ac21-f9d9-4202-903a-56cd6afc41c0"},"vehicle_type_id":"4","last_reported":1735657688,"current_range_meters":32400,"station_id":"ce4bgi12rcd13ifvqb70","pricing_plan_id":"cebpf4jnsgd1na2vs0mg"},{"bike_id":"c7aba7d9-d022-4fb9-82fc-f90434ca21be","system_id":"levelo_inurba_marseille","lat":43.29112,"lon":5.39953,"is_reserved":false,"is_disabled":false,"rental_uris":{"android":"levelo://app?vid=c7aba7d9-d022-4fb9-82fc-f90434ca21be","ios":"levelo://app?vid=c7aba7d9-d022-4fb9-82fc-f90434ca21be"},"vehicle_type_id":"4","last_reported":1735657688,"current_range_meters":6800,"station_id":"","pricing_plan_id":"cebpf4jnsgd1na2vs0mg"},{"bike_id":"9a676dd5-12ee-4ad0-b0dc-83677d2c12a4","system_id":"levelo_inurba_marseille","lat":43.26576,"lon":5.39012,"is_reserved":false,"is_disabled":false,"rental_uris":{"android":"levelo://app?vid=9a676dd5-12ee-4ad0-b0dc-83677d2c12a4","ios":"levelo://app?vid=9a676dd5-12ee-4ad0-b0dc-83677d2c12a4"},"vehicle_type_id":"4","last_reported":1735657688,"current_range_meters":22400,"station_id":"ce4bhe12rcd13ifvqf30","pricing_plan_id":"cebpf4jnsgd1na2vs0mg"},{"bike_id":"ddaa2fb9-dbb8-4086-8c94-de0ff251173c","system_id":"levelo_inurba_marseille","lat":43.27829,"lon":5.39211,"is_reserved":false,"is_disabled":false,"rental_uris":{"android":"levelo://app?vid=ddaa2fb9-dbb8-4086-8c94-de0ff251173c","ios":"levelo://app?vid=ddaa2fb9-dbb8-4086-8c94-de0ff251173c"},"vehicle_type_id":"4","last_reported":1735657688,"current_range_meters":37600,"station_id":"ce4bhjp2rcd13ifvqga0","pricing_plan_id":"cebpf4jnsgd1na2vs0mg"},{"bike_id":"9c1ff583-8c67-46c7-9cc0-403d0e93a126","system_id":"levelo_inurba_marseille","lat":43.28705,"lon":5.36094,"is_reserved":false,"is_disabled":false,"rental_uris":{"android":"levelo://app?vid=9c1ff583-8c67-46c7-9cc0-403d0e93a126","ios":"levelo://app?vid=9c1ff583-8c67-46c7-9cc0-403d0e93a126"},"vehicle_type_id":"4","last_reported":1735657688,"current_range_meters":38800,"station_id":"cki0cbj6b192h4jlfktg","pricing_plan_id":"cebpf4jnsgd1na2vs0mg"},{"bike_id":"94c825d5-d06d-4fd4-aa27-10c8f0378f5c","system_id":"levelo_inurba_marseille","lat":43.286559,"lon":5.363464,"is_reserved":false,"is_disabled":false,"rental_uris":{"android":"levelo://app?vid=94c825d5-d06d-4fd4-aa27-10c8f0378f5c","ios":"levelo://app?vid=94c825d5-d06d-4fd4-aa27-10c8f0378f5c"},"vehicle_type_id":"4","last_reported":1735657688,"current_range_meters":36400,"station_id":"ce4bhah2rcd13ifvqej0","pricing_plan_id":"cebpf4jnsgd1na2vs0mg"},{"bike_id":"0d02c513-ca2e-4e40-9108-e87868ca0473","system_id":"levelo_inurba_marseille","lat":43.28148,"lon":5.42643,"is_reserved":false,"is_disabled":false,"rental_uris":{"android":"levelo://app?vid=0d02c513-ca2e-4e40-9108-e87868ca0473","ios":"levelo://app?vid=0d02c513-ca2e-4e40-9108-e87868ca0473"},"vehicle_type_id":"4","last_reported":1735657688,"current_range_meters":27600,"station_id":"ce4bhnh2rcd13ifvqgug","pricing_plan_id":"cebpf4jnsgd1na2vs0mg"},{"bike_id":"cd27ae46-f3c8-4d99-a4f3-476eab1ca365","system_id":"levelo_inurba_marseille","lat":43.23198,"lon":5.35551,"is_reserved":false,"is_disabled":false,"rental_uris":{"android":"levelo://app?vid=cd27ae46-f3c8-4d99-a4f3-476eab1ca365","ios":"levelo://app?vid=cd27ae46-f3c8-4d99-a4f3-476eab1ca365"},"vehicle_type_id":"4","last_reported":1735657688,"current_range_meters":19200,"station_id":"ce4bhu92rcd13ifvqi70","pricing_plan_id":"cebpf4jnsgd1na2vs0mg"},{"bike_id":"aba77de7-e5c5-4bb0-82c3-f89fc6727dc8","system_id":"levelo_inurba_marseille","lat":43.25737,"lon":5.41119,"is_reserved":false,"is_disabled":false,"rental_uris":{"android":"levelo://app?vid=aba77de7-e5c5-4bb0-82c3-f89fc6727dc8","ios":"levelo://app?vid=aba77de7-e5c5-4bb0-82c3-f89fc6727dc8"},"vehicle_type_id":"4","last_reported":1735657688,"current_range_meters":38800,"station_id":"ce4bhkp2rcd13ifvqgd0","pricing_plan_id":"cebpf4jnsgd1na2vs0mg"},{"bike_id":"9491c45b-577c-4aa6-a7cc-82502b6825b0","system_id":"levelo_inurba_marseille","lat":43.2966,"lon":5.37301,"is_reserved":false,"is_disabled":false,"rental_uris":{"android":"levelo://app?vid=9491c45b-577c-4aa6-a7cc-82502b6825b0","ios":"levelo://app?vid=9491c45b-577c-4aa6-a7cc-82502b6825b0"},"vehicle_type_id":"4","last_reported":1735657688,"current_range_meters":39200,"station_id":"ce4bgk12rcd13ifvqbj0","pricing_plan_id":"cebpf4jnsgd1na2vs0mg"},{"bike_id":"06e6f4bf-73d4-4c64-a08b-f60c3ad8da9c","system_id":"levelo_inurba_marseille","lat":43.30189,"lon":5.36625,"is_reserved":false,"is_disabled":false,"rental_uris":{"android":"levelo://app?vid=06e6f4bf-73d4-4c64-a08b-f60c3ad8da9c","ios":"levelo://app?vid=06e6f4bf-73d4-4c64-a08b-f60c3ad8da9c"},"vehicle_type_id":"4","last_reported":1735657688,"current_range_meters":38800,"station_id":"ce4bgrh2rcd13ifvqc8g","pricing_plan_id":"cebpf4jnsgd1na2vs0mg"},{"bike_id":"7467f2bd-b244-46de-8ee5-970ed51bb6ab","system_id":"levelo_inurba_marseille","lat":43.29007,"lon":5.35611,"is_reserved":false,"is_disabled":false,"rental_uris":{"android":"levelo://app?vid=7467f2bd-b244-46de-8ee5-970ed51bb6ab","ios":"levelo://app?vid=7467f2bd-b244-46de-8ee5-970ed51bb6ab"},"vehicle_type_id":"4","last_reported":1735657688,"current_range_meters":26800,"station_id":"ce4bhb92rcd13ifvqen0","pricing_plan_id":"cebpf4jnsgd1na2vs0mg"},{"bike_id":"fe5556f6-9d51-40e4-9c9d-dd1e41952242","system_id":"levelo_inurba_marseille","lat":43.29961,"lon":5.385,"is_reserved":false,"is_disabled":false,"rental_uris":{"android":"levelo://app?vid=fe5556f6-9d51-40e4-9c9d-dd1e41952242","ios":"levelo://app?vid=fe5556f6-9d51-40e4-9c9d-dd1e41952242"},"vehicle_type_id":"4","last_reported":1735657688,"current_range_meters":25200,"station_id":"ce4bgj92rcd13ifvqbd0","pricing_plan_id":"cebpf4jnsgd1na2vs0mg"},{"bike_id":"cc6187a7-9348-475a-94e1-760441b17aaf","system_id":"levelo_inurba_marseille","lat":43.29031,"lon":5.38132,"is_reserved":false,"is_disabled":false,"rental_uris":{"android":"levelo://app?vid=cc6187a7-9348-475a-94e1-760441b17aaf","ios":"levelo://app?vid=cc6187a7-9348-475a-94e1-760441b17aaf"},"vehicle_type_id":"4","last_reported":1735657688,"current_range_meters":37600,"station_id":"ce4bh4p2rcd13ifvqe1g","pricing_plan_id":"cebpf4jnsgd1na2vs0mg"},{"bike_id":"a2c981a9-118a-4e0c-9c91-df48407f1dcd","system_id":"levelo_inurba_marseille","lat":43.23056,"lon":5.35509,"is_reserved":false,"is_disabled":false,"rental_uris":{"android":"levelo://app?vid=a2c981a9-118a-4e0c-9c91-df48407f1dcd","ios":"levelo://app?vid=a2c981a9-118a-4e0c-9c91-df48407f1dcd"},"vehicle_type_id":"4","last_reported":1735657688,"current_range_meters":36400,"station_id":"cpo3342slgdg3j2ifvpg","pricing_plan_id":"cebpf4jnsgd1na2vs0mg"},{"bike_id":"f3defa72-66ca-478e-b840-1fc6aacbb41c","system_id":"levelo_inurba_marseille","lat":43.29705,"lon":5.37696,"is_reserved":false,"is_disabled":false,"rental_uris":{"android":"levelo://app?vid=f3defa72-66ca-478e-b840-1fc6aacbb41c","ios":"levelo://app?vid=f3defa72-66ca-478e-b840-1fc6aacbb41c"},"vehicle_type_id":"4","last_reported":1735657688,"current_range_meters":24400,"station_id":"ce4bgkh2rcd13ifvqbl0","pricing_plan_id":"cebpf4jnsgd1na2vs0mg"},{"bike_id":"cd94eb7e-0628-465d-8394-6b4b166ba69b","system_id":"levelo_inurba_marseille","lat":43.26803,"lon":5.39428,"is_reserved":false,"is_disabled":false,"rental_uris":{"android":"levelo://app?vid=cd94eb7e-0628-465d-8394-6b4b166ba69b","ios":"levelo://app?vid=cd94eb7e-0628-465d-8394-6b4b166ba69b"},"vehicle_type_id":"4","last_reported":1735657688,"current_range_meters":38800,"station_id":"ce4bhh12rcd13ifvqfg0","pricing_plan_id":"cebpf4jnsgd1na2vs0mg"},{"bike_id":"3fdbca98-341e-4a99-b37b-90394d708c9d","system_id":"levelo_inurba_marseille","lat":43.29363,"lon":5.37852,"is_reserved":false,"is_disabled":false,"rental_uris":{"android":"levelo://app?vid=3fdbca98-341e-4a99-b37b-90394d708c9d","ios":"levelo://app?vid=3fdbca98-341e-4a99-b37b-90394d708c9d"},"vehicle_type_id":"4","last_reported":1735657688,"current_range_meters":32000,"station_id":"ce4bgjh2rcd13ifvqbf0","pricing_plan_id":"cebpf4jnsgd1na2vs0mg"},{"bike_id":"0b70a3fd-cd64-4597-b1e3-c9c4cb5327b0","system_id":"levelo_inurba_marseille","lat":43.2587,"lon":5.3991,"is_reserved":false,"is_disabled":false,"rental_uris":{"android":"levelo://app?vid=0b70a3fd-cd64-4597-b1e3-c9c4cb5327b0","ios":"levelo://app?vid=0b70a3fd-cd64-4597-b1e3-c9c4cb5327b0"},"vehicle_type_id":"4","last_reported":1735657688,"current_range_meters":38800,"station_id":"ce4bhl92rcd13ifvqghg","pricing_plan_id":"cebpf4jnsgd1na2vs0mg"},{"bike_id":"e6b5eb0c-b0ca-4323-beaa-86130528ab40","system_id":"levelo_inurba_marseille","lat":43.28999,"lon":5.35614,"is_reserved":false,"is_disabled":false,"rental_uris":{"android":"levelo://app?vid=e6b5eb0c-b0ca-4323-beaa-86130528ab40","ios":"levelo://app?vid=e6b5eb0c-b0ca-4323-beaa-86130528ab40"},"vehicle_type_id":"4","last_reported":1735657688,"current_range_meters":34000,"station_id":"ce4bhb92rcd13ifvqen0","pricing_plan_id":"cebpf4jnsgd1na2vs0mg"},{"bike_id":"86aa6f0b-a7f6-467a-90c7-6a5aadae74e1","system_id":"levelo_inurba_marseille","lat":43.272093,"lon":5.392034,"is_reserved":false,"is_disabled":false,"rental_uris":{"android":"levelo://app?vid=86aa6f0b-a7f6-467a-90c7-6a5aadae74e1","ios":"levelo://app?vid=86aa6f0b-a7f6-467a-90c7-6a5aadae74e1"},"vehicle_type_id":"4","last_reported":1735657688,"current_range_meters":32000,"station_id":"ce4bhhp2rcd13ifvqfm0","pricing_plan_id":"cebpf4jnsgd1na2vs0mg"},{"bike_id":"62a66a29-bae2-4f50-983e-6ffc57057bae","system_id":"levelo_inurba_marseille","lat":43.25879,"lon":5.39912,"is_reserved":false,"is_disabled":false,"rental_uris":{"android":"levelo://app?vid=62a66a29-bae2-4f50-983e-6ffc57057bae","ios":"levelo://app?vid=62a66a29-bae2-4f50-983e-6ffc57057bae"},"vehicle_type_id":"4","last_reported":1735657688,"current_range_meters":6800,"station_id":"ce4bhl92rcd13ifvqghg","pricing_plan_id":"cebpf4jnsgd1na2vs0mg"},{"bike_id":"3eb06b53-0495-461f-921b-d9f51438e376","system_id":"levelo_inurba_marseille","lat":43.274041,"lon":5.394081,"is_reserved":false,"is_disabled":false,"rental_uris":{"android":"levelo://app?vid=3eb06b53-0495-461f-921b-d9f51438e376","ios":"levelo://app?vid=3eb06b53-0495-461f-921b-d9f51438e376"},"vehicle_type_id":"4","last_reported":1735657688,"current_range_meters":38800,"station_id":"ce4bhdp2rcd13ifvqf20","pricing_plan_id":"cebpf4jnsgd1na2vs0mg"},{"bike_id":"a06e3c0a-750d-4c5c-b0ac-872018e7f41d","system_id":"levelo_inurba_marseille","lat":43.27821,"lon":5.39201,"is_reserved":false,"is_disabled":false,"rental_uris":{"android":"levelo://app?vid=a06e3c0a-750d-4c5c-b0ac-872018e7f41d","ios":"levelo://app?vid=a06e3c0a-750d-4c5c-b0ac-872018e7f41d"},"vehicle_type_id":"4","last_reported":1735657688,"current_range_meters":36000,"station_id":"ce4bhjp2rcd13ifvqga0","pricing_plan_id":"cebpf4jnsgd1na2vs0mg"},{"bike_id":"4f763647-ea12-4015-b80f-643e4288be4b","system_id":"levelo_inurba_marseille","lat":43.31335,"lon":5.39707,"is_reserved":false,"is_disabled":false,"rental_uris":{"android":"levelo://app?vid=4f763647-ea12-4015-b80f-643e4288be4b","ios":"levelo://app?vid=4f763647-ea12-4015-b80f-643e4288be4b"},"vehicle_type_id":"4","last_reported":1735657688,"current_range_meters":38000,"station_id":"ce4bgvp2rcd13ifvqcu0","pricing_plan_id":"cebpf4jnsgd1na2vs0mg"},{"bike_id":"6aed4963-ca93-4704-bf3f-b0d795e7e7c7","system_id":"levelo_inurba_marseille","lat":43.24807,"lon":5.37461,"is_reserved":false,"is_disabled":false,"rental_uris":{"android":"levelo://app?vid=6aed4963-ca93-4704-bf3f-b0d795e7e7c7","ios":"levelo://app?vid=6aed4963-ca93-4704-bf3f-b0d795e7e7c7"},"vehicle_type_id":"4","last_reported":1735657688,"current_range_meters":35600,"station_id":"ce4bhgh2rcd13ifvqfb0","pricing_plan_id":"cebpf4jnsgd1na2vs0mg"},{"bike_id":"68012c00-8f6f-4261-8a09-ca735b753c7b","system_id":"levelo_inurba_marseille","lat":43.26793,"lon":5.39415,"is_reserved":false,"is_disabled":false,"rental_uris":{"android":"levelo://app?vid=68012c00-8f6f-4261-8a09-ca735b753c7b","ios":"levelo://app?vid=68012c00-8f6f-4261-8a09-ca735b753c7b"},"vehicle_type_id":"4","last_reported":1735657688,"current_range_meters":32000,"station_id":"ce4bhh12rcd13ifvqfg0","pricing_plan_id":"cebpf4jnsgd1na2vs0mg"},{"bike_id":"2759f2f8-b8ec-43f5-98be-868b7d5f1f6c","system_id":"levelo_inurba_marseille","lat":43.28614,"lon":5.35106,"is_reserved":false,"is_disabled":false,"rental_uris":{"android":"levelo://app?vid=2759f2f8-b8ec-43f5-98be-868b7d5f1f6c","ios":"levelo://app?vid=2759f2f8-b8ec-43f5-98be-868b7d5f1f6c"},"vehicle_type_id":"4","last_reported":1735657688,"current_range_meters":38400,"station_id":"ce4bhch2rcd13ifvqeug","pricing_plan_id":"cebpf4jnsgd1na2vs0mg"},{"bike_id":"78c586c7-6d21-482a-b8a1-f42a70ad2a53","system_id":"levelo_inurba_marseille","lat":43.26053,"lon":5.39402,"is_reserved":false,"is_disabled":false,"rental_uris":{"android":"levelo://app?vid=78c586c7-6d21-482a-b8a1-f42a70ad2a53","ios":"levelo://app?vid=78c586c7-6d21-482a-b8a1-f42a70ad2a53"},"vehicle_type_id":"4","last_reported":1735657688,"current_range_meters":35200,"station_id":"ce4bhh92rcd13ifvqfj0","pricing_plan_id":"cebpf4jnsgd1na2vs0mg"},{"bike_id":"39532236-d23b-4244-ba6f-5e2bdfb832be","system_id":"levelo_inurba_marseille","lat":43.27945,"lon":5.41064,"is_reserved":false,"is_disabled":false,"rental_uris":{"android":"levelo://app?vid=39532236-d23b-4244-ba6f-5e2bdfb832be","ios":"levelo://app?vid=39532236-d23b-4244-ba6f-5e2bdfb832be"},"vehicle_type_id":"4","last_reported":1735657688,"current_range_meters":24800,"station_id":"ce4bhnp2rcd13ifvqh0g","pricing_plan_id":"cebpf4jnsgd1na2vs0mg"},{"bike_id":"4e1e1e3c-01da-446c-9499-f790335ca6fe","system_id":"levelo_inurba_marseille","lat":43.29563,"lon":5.3752,"is_reserved":false,"is_disabled":false,"rental_uris":{"android":"levelo://app?vid=4e1e1e3c-01da-446c-9499-f790335ca6fe","ios":"levelo://app?vid=4e1e1e3c-01da-446c-9499-f790335ca6fe"},"vehicle_type_id":"4","last_reported":1735657688,"current_range_meters":12000,"station_id":"ce4bgh92rcd13ifvqb50","pricing_plan_id":"cebpf4jnsgd1na2vs0mg"},{"bike_id":"98724769-58de-4a29-9cd7-cf114df1082f","system_id":"levelo_inurba_marseille","lat":43.28455,"lon":5.35897,"is_reserved":false,"is_disabled":false,"rental_uris":{"android":"levelo://app?vid=98724769-58de-4a29-9cd7-cf114df1082f","ios":"levelo://app?vid=98724769-58de-4a29-9cd7-cf114df1082f"},"vehicle_type_id":"4","last_reported":1735657688,"current_range_meters":2800,"station_id":"ce4bhah2rcd13ifvqei0","pricing_plan_id":"cebpf4jnsgd1na2vs0mg"},{"bike_id":"b0961265-1fde-4b0e-aed9-2fba0eb48dc9","system_id":"levelo_inurba_marseille","lat":43.29915,"lon":5.3748,"is_reserved":false,"is_disabled":false,"rental_uris":{"android":"levelo://app?vid=b0961265-1fde-4b0e-aed9-2fba0eb48dc9","ios":"levelo://app?vid=b0961265-1fde-4b0e-aed9-2fba0eb48dc9"},"vehicle_type_id":"4","last_reported":1735657688,"current_range_meters":9200,"station_id":"ce4bgjh2rcd13ifvqbg0","pricing_plan_id":"cebpf4jnsgd1na2vs0mg"},{"bike_id":"a3568aab-1d34-4bdf-8c0c-ec81886f6177","system_id":"levelo_inurba_marseille","lat":43.337444,"lon":5.374475,"is_reserved":false,"is_disabled":true,"rental_uris":{"android":"levelo://app?vid=a3568aab-1d34-4bdf-8c0c-ec81886f6177","ios":"levelo://app?vid=a3568aab-1d34-4bdf-8c0c-ec81886f6177"},"vehicle_type_id":"4","last_reported":1735657688,"current_range_meters":38000,"station_id":"","pricing_plan_id":"cebpf4jnsgd1na2vs0mg"},{"bike_id":"6c06b005-c1b0-4923-878d-3176b5d46cf6","system_id":"levelo_inurba_marseille","lat":43.30552,"lon":5.36574,"is_reserved":false,"is_disabled":false,"rental_uris":{"android":"levelo://app?vid=6c06b005-c1b0-4923-878d-3176b5d46cf6","ios":"levelo://app?vid=6c06b005-c1b0-4923-878d-3176b5d46cf6"},"vehicle_type_id":"4","last_reported":1735657688,"current_range_meters":37600,"station_id":"ce4bgs12rcd13ifvqcag","pricing_plan_id":"cebpf4jnsgd1na2vs0mg"},{"bike_id":"dd2bd33b-51a5-4ed5-b5c7-968b0e730a1a","system_id":"levelo_inurba_marseille","lat":43.27375,"lon":5.36254,"is_reserved":false,"is_disabled":false,"rental_uris":{"android":"levelo://app?vid=dd2bd33b-51a5-4ed5-b5c7-968b0e730a1a","ios":"levelo://app?vid=dd2bd33b-51a5-4ed5-b5c7-968b0e730a1a"},"vehicle_type_id":"4","last_reported":1735657688,"current_range_meters":38800,"station_id":"ce4bhbh2rcd13ifvqeo0","pricing_plan_id":"cebpf4jnsgd1na2vs0mg"},{"bike_id":"27b92249-adbd-4ed4-9b55-638b46b86a3a","system_id":"levelo_inurba_marseille","lat":43.28072,"lon":5.3965,"is_reserved":false,"is_disabled":false,"rental_uris":{"android":"levelo://app?vid=27b92249-adbd-4ed4-9b55-638b46b86a3a","ios":"levelo://app?vid=27b92249-adbd-4ed4-9b55-638b46b86a3a"},"vehicle_type_id":"4","last_reported":1735657688,"current_range_meters":20000,"station_id":"ce4bho12rcd13ifvqh2g","pricing_plan_id":"cebpf4jnsgd1na2vs0mg"},{"bike_id":"2e33afa0-ca57-45a8-a769-2fe197611229","system_id":"levelo_inurba_marseille","lat":43.29011,"lon":5.37563,"is_reserved":false,"is_disabled":false,"rental_uris":{"android":"levelo://app?vid=2e33afa0-ca57-45a8-a769-2fe197611229","ios":"levelo://app?vid=2e33afa0-ca57-45a8-a769-2fe197611229"},"vehicle_type_id":"4","last_reported":1735657688,"current_range_meters":38800,"station_id":"ce4bh692rcd13ifvqe90","pricing_plan_id":"cebpf4jnsgd1na2vs0mg"},