{"last_updated":1731810068,"ttl":60,"version":"2.2","data":{"bikes":[{"bike_id":"9c319bd8-1c7c-46bb-824e-2a1d218223bc","system_id":"levelo_inurba_marseille","lat":43.25099,"lon":5.40322,"is_reserved":false,"is_disabled":false,"rental_uris":{"android":"levelo://app?vid=9c319bd8-1c7c-46bb-824e-2a1d218223bc","ios":"levelo://app?vid=9c319bd8-1c7c-46bb-824e-2a1d218223bc"},"vehicle_type_id":"4","last_reported":1731810068,"current_range_meters":34000,"station_id":"ce4bhlh2rcd13ifvqgig","pricing_plan_id":"cebpf4jnsgd1na2vs0mg"},{"bike_id":"dfe29e50-fa11-4d9f-8e25-48291d4d52bd","system_id":"levelo_inurba_marseille","lat":43.30658,"lon":5.40075,"is_reserved":false,"is_disabled":false,"rental_uris":{"android":"levelo://app?vid=dfe29e50-fa11-4d9f-8e25-48291d4d52bd","ios":"levelo://app?vid=dfe29e50-fa11-4d9f-8e25-48291d4d52bd"},"vehicle_type_id":"4","last_reported":1731810068,"current_range_meters":30400,"station_id":"ce4bh112rcd13ifvqda0","pricing_plan_id":"cebpf4jnsgd1na2vs0mg"},{"bike_id":"8f64f783-a592-44e3-bbda-2c129afa1260","system_id":"levelo_inurba_marseille","lat":43.24662,"lon":5.3887,"is_reserved":false,"is_disabled":false,"rental_uris":{"android":"levelo://app?vid=8f64f783-a592-44e3-bbda-2c129afa1260","ios":"levelo://app?vid=8f64f783-a592-44e3-bbda-2c129afa1260"},"vehicle_type_id":"4","last_reported":1731810068,"current_range_meters":39200,"station_id":"ce4bhg12rcd13ifvqf60","pricing_plan_id":"cebpf4jnsgd1na2vs0mg"},{"bike_id":"a13d7bdc-98d8-490a-987b-0aa6e9786c96","system_id":"levelo_inurba_marseille","lat":43.24549,"lon":5.39528,"is_reserved":false,"is_disabled":false,"rental_uris":{"android":"levelo://app?vid=a13d7bdc-98d8-490a-987b-0aa6e9786c96","ios":"levelo://app?vid=a13d7bdc-98d8-490a-987b-0aa6e9786c96"},"vehicle_type_id":"4","last_reported":1731810068,"current_range_meters":28800,"station_id":"ce4bhlp2rcd13ifvqgjg","pricing_plan_id":"cebpf4jnsgd1na2vs0mg"},{"bike_id":"c3d9eb04-6e82-4e57-81fe-553846473615","system_id":"levelo_inurba_marseille","lat":43.28582,"lon":5.39476,"is_reserved":false,"is_disabled":false,"rental_uris":{"android":"levelo://app?vid=c3d9eb04-6e82-4e57-81fe-553846473615","ios":"levelo://app?vid=c3d9eb04-6e82-4e57-81fe-553846473615"},"vehicle_type_id":"4","last_reported":1731810068,"current_range_meters":38000,"station_id":"ce4bh292rcd13ifvqdg0","pricing_plan_id":"cebpf4jnsgd1na2vs0mg"},{"bike_id":"5fc65484-ca9d-4d04-abb0-59c0c73b1826","system_id":"levelo_inurba_marseille","lat":43.29556,"lon":5.42286,"is_reserved":false,"is_disabled":false,"rental_uris":{"android":"levelo://app?vid=5fc65484-ca9d-4d04-abb0-59c0c73b1826","ios":"levelo://app?vid=5fc65484-ca9d-4d04-abb0-59c0c73b1826"},"vehicle_type_id":"4","last_reported":1731810068,"current_range_meters":7200,"station_id":"ce4bhph2rcd13ifvqhdg","pricing_plan_id":"cebpf4jnsgd1na2vs0mg"},{"bike_id":"fe7748b6-9d91-4994-bdd2-fe51f904eb01","system_id":"levelo_inurba_marseille","lat":43.299564,"lon":5.373757,"is_reserved":false,"is_disabled":false,"rental_uris":{"android":"levelo://app?vid=fe7748b6-9d91-4994-bdd2-fe51f904eb01","ios":"levelo://app?vid=fe7748b6-9d91-4994-bdd2-fe51f904eb01"},"vehicle_type_id":"4","last_reported":1731810068,"current_range_meters":20800,"station_id":"ce4bgjh2rcd13ifvqbg0","pricing_plan_id":"cebpf4jnsgd1na2vs0mg"},{"bike_id":"40703e49-4eae-423e-b5ad-dee8d166ef4a","system_id":"levelo_inurba_marseille","lat":43.25491,"lon":5.37644,"is_reserved":false,"is_disabled":false,"rental_uris":{"android":"levelo://app?vid=40703e49-4eae-423e-b5ad-dee8d166ef4a","ios":"levelo://app?vid=40703e49-4eae-423e-b5ad-dee8d166ef4a"},"vehicle_type_id":"4","last_reported":1731810068,"current_range_meters":35600,"station_id":"ce4bhh12rcd13ifvqff0","pricing_plan_id":"cebpf4jnsgd1na2vs0mg"},{"bike_id":"45c178a2-06a1-4784-9547-3194078b2f63","system_id":"levelo_inurba_marseille","lat":43.28695,"lon":5.37374,"is_reserved":false,"is_disabled":false,"rental_uris":{"android":"levelo://app?vid=45c178a2-06a1-4784-9547-3194078b2f63","ios":"levelo://app?vid=45c178a2-06a1-4784-9547-3194078b2f63"},"vehicle_type_id":"4","last_reported":1731810068,"current_range_meters":39200,"station_id":"ce4bh3p2rcd13ifvqdq0","pricing_plan_id":"cebpf4jnsgd1na2vs0mg"},{"bike_id":"0672d165-d197-4474-bbec-2df95543fd2f","system_id":"levelo_inurba_marseille","lat":43.29906,"lon":5.43646,"is_reserved":false,"is_disabled":false,"rental_uris":{"android":"levelo://app?vid=0672d165-d197-4474-bbec-2df95543fd2f","ios":"levelo://app?vid=0672d165-d197-4474-bbec-2df95543fd2f"},"vehicle_type_id":"4","last_reported":1731810068,"current_range_meters":9200,"station_id":"ce4bhpp2rcd13ifvqhfg","pricing_plan_id":"cebpf4jnsgd1na2vs0mg"},{"bike_id":"d9d8a7d9-cde4-4fab-ab69-fcee8fe6a6da","system_id":"levelo_inurba_marseille","lat":43.25012,"lon":5.38913,"is_reserved":false,"is_disabled":false,"rental_uris":{"android":"levelo://app?vid=d9d8a7d9-cde4-4fab-ab69-fcee8fe6a6da","ios":"levelo://app?vid=d9d8a7d9-cde4-4fab-ab69-fcee8fe6a6da"},"vehicle_type_id":"4","last_reported":1731810068,"current_range_meters":10800,"station_id":"ce4bhgp2rcd13ifvqfd0","pricing_plan_id":"cebpf4jnsgd1na2vs0mg"},{"bike_id":"083dbee0-0e04-4a5e-93ff-4f8789a778b7","system_id":"levelo_inurba_marseille","lat":43.22908,"lon":5.35398,"is_reserved":false,"is_disabled":false,"rental_uris":{"android":"levelo://app?vid=083dbee0-0e04-4a5e-93ff-4f8789a778b7","ios":"levelo://app?vid=083dbee0-0e04-4a5e-93ff-4f8789a778b7"},"vehicle_type_id":"4","last_reported":1731810068,"current_range_meters":39200,"station_id":"cpo3532slgdg3j2ikp40","pricing_plan_id":"cebpf4jnsgd1na2vs0mg"},{"bike_id":"5d392c08-4651-4065-9762-d9f710a618ff","system_id":"levelo_inurba_marseille","lat":43.2956,"lon":5.42269,"is_reserved":false,"is_disabled":false,"rental_uris":{"android":"levelo://app?vid=5d392c08-4651-4065-9762-d9f710a618ff","ios":"levelo://app?vid=5d392c08-4651-4065-9762-d9f710a618ff"},"vehicle_type_id":"4","last_reported":1731810068,"current_range_meters":38800,"station_id":"ce4bhph2rcd13ifvqhdg","pricing_plan_id":"cebpf4jnsgd1na2vs0mg"},{"bike_id":"a5e49880-532a-4bff-ab12-125b37e856b1","system_id":"levelo_inurba_marseille","lat":43.27619,"lon":5.36116,"is_reserved":false,"is_disabled":false,"rental_uris":{"android":"levelo://app?vid=a5e49880-532a-4bff-ab12-125b37e856b1","ios":"levelo://app?vid=a5e49880-532a-4bff-ab12-125b37e856b1"},"vehicle_type_id":"4","last_reported":1731810068,"current_range_meters":38800,"station_id":"ce4bgj92rcd13ifvqbe0","pricing_plan_id":"cebpf4jnsgd1na2vs0mg"},{"bike_id":"fa4d3d6b-2f22-40c0-b10a-f7a96055bc74","system_id":"levelo_inurba_marseille","lat":43.28696,"lon":5.37358,"is_reserved":false,"is_disabled":false,"rental_uris":{"android":"levelo://app?vid=fa4d3d6b-2f22-40c0-b10a-f7a96055bc74","ios":"levelo://app?vid=fa4d3d6b-2f22-40c0-b10a-f7a96055bc74"},"vehicle_type_id":"4","last_reported":1731810068,"current_range_meters":39200,"station_id":"ce4bh3p2rcd13ifvqdq0","pricing_plan_id":"cebpf4jnsgd1na2vs0mg"},{"bike_id":"4543c786-8fc8-4b79-a2f5-ca90faccf506","system_id":"levelo_inurba_marseille","lat":43.24073,"lon":5.37744,"is_reserved":false,"is_disabled":false,"rental_uris":{"android":"levelo://app?vid=4543c786-8fc8-4b79-a2f5-ca90faccf506","ios":"levelo://app?vid=4543c786-8fc8-4b79-a2f5-ca90faccf506"},"vehicle_type_id":"4","last_reported":1731810068,"current_range_meters":36000,"station_id":"ce4bhnp2rcd13ifvqgvg","pricing_plan_id":"cebpf4jnsgd1na2vs0mg"},{"bike_id":"b361c1fc-f63b-4883-ac7d-1a695da9acca","system_id":"levelo_inurba_marseille","lat":43.24165,"lon":5.39729,"is_reserved":false,"is_disabled":false,"rental_uris":{"android":"levelo://app?vid=b361c1fc-f63b-4883-ac7d-1a695da9acca","ios":"levelo://app?vid=b361c1fc-f63b-4883-ac7d-1a695da9acca"},"vehicle_type_id":"4","last_reported":1731810068,"current_range_meters":35200,"station_id":"ce4bhn12rcd13ifvqgpg","pricing_plan_id":"cebpf4jnsgd1na2vs0mg"},{"bike_id":"ecb7a052-abd7-4eaa-b8cb-9fa5975603ff","system_id":"levelo_inurba_marseille","lat":43.30312,"lon":5.392188,"is_reserved":false,"is_disabled":false,"rental_uris":{"android":"levelo://app?vid=ecb7a052-abd7-4eaa-b8cb-9fa5975603ff","ios":"levelo://app?vid=ecb7a052-abd7-4eaa-b8cb-9fa5975603ff"},"vehicle_type_id":"4","last_reported":1731810068,"current_range_meters":22000,"station_id":"ce4bgkh2rcd13ifvqbk0","pricing_plan_id":"cebpf4jnsgd1na2vs0mg"},{"bike_id":"4c167bc3-2964-4625-adc0-c92e539ad80f","system_id":"levelo_inurba_marseille","lat":43.28287,"lon":5.40807,"is_reserved":false,"is_disabled":false,"rental_uris":{"android":"levelo://app?vid=4c167bc3-2964-4625-adc0-c92e539ad80f","ios":"levelo://app?vid=4c167bc3-2964-4625-adc0-c92e539ad80f"},"vehicle_type_id":"4","last_reported":1731810068,"current_range_meters":36400,"station_id":"","pricing_plan_id":"cebpf4jnsgd1na2vs0mg"},{"bike_id":"1c5cc72e-0c5d-44cd-9766-8f0158b82609","system_id":"levelo_inurba_marseille","lat":43.29796,"lon":5.39344,"is_reserved":false,"is_disabled":false,"rental_uris":{"android":"levelo://app?vid=1c5cc72e-0c5d-44cd-9766-8f0158b82609","ios":"levelo://app?vid=1c5cc72e-0c5d-44cd-9766-8f0158b82609"},"vehicle_type_id":"4","last_reported":1731810068,"current_range_meters":38400,"station_id":"chh1huq6cuj3fo74tm60","pricing_plan_id":"cebpf4jnsgd1na2vs0mg"},{"bike_id":"4e92d02a-f561-4fc4-a7d8-eb33aad1e2f3","system_id":"levelo_inurba_marseille","lat":43.2762,"lon":5.36119,"is_reserved":false,"is_disabled":false,"rental_uris":{"android":"levelo://app?vid=4e92d02a-f561-4fc4-a7d8-eb33aad1e2f3","ios":"levelo://app?vid=4e92d02a-f561-4fc4-a7d8-eb33aad1e2f3"},"vehicle_type_id":"4","last_reported":1731810068,"current_range_meters":12400,"station_id":"ce4bgj92rcd13ifvqbe0","pricing_plan_id":"cebpf4jnsgd1na2vs0mg"},{"bike_id":"6b021c86-2252-4183-9dc4-904f3a106b9a","system_id":"levelo_inurba_marseille","lat":43.25119,"lon":5.40315,"is_reserved":false,"is_disabled":false,"rental_uris":{"android":"levelo://app?vid=6b021c86-2252-4183-9dc4-904f3a106b9a","ios":"levelo://app?vid=6b021c86-2252-4183-9dc4-904f3a106b9a"},"vehicle_type_id":"4","last_reported":1731810068,"current_range_meters":37600,"station_id":"ce4bhlh2rcd13ifvqgig","pricing_plan_id":"cebpf4jnsgd1na2vs0mg"},{"bike_id":"6b0ea79e-cb12-4a50-9845-e4686b3cacc8","system_id":"levelo_inurba_marseille","lat":43.295751,"lon":5.399791,"is_reserved":false,"is_disabled":false,"rental_uris":{"android":"levelo://app?vid=6b0ea79e-cb12-4a50-9845-e4686b3cacc8","ios":"levelo://app?vid=6b0ea79e-cb12-4a50-9845-e4686b3cacc8"},"vehicle_type_id":"4","last_reported":1731810068,"current_range_meters":11600,"station_id":"","pricing_plan_id":"cebpf4jnsgd1na2vs0mg"},{"bike_id":"6b3b29cc-0d16-4209-baf0-d9aa368351c0","system_id":"levelo_inurba_marseille","lat":43.32544,"lon":5.41482,"is_reserved":false,"is_disabled":false,"rental_uris":{"android":"levelo://app?vid=6b3b29cc-0d16-4209-baf0-d9aa368351c0","ios":"levelo://app?vid=6b3b29cc-0d16-4209-baf0-d9aa368351c0"},"vehicle_type_id":"4","last_reported":1731810068,"current_range_meters":39200,"station_id":"ce4bhq12rcd13ifvqhhg","pricing_plan_id":"cebpf4jnsgd1na2vs0mg"},{"bike_id":"ab1e2336-b4d1-4295-8ba5-67ecc35322d1","system_id":"levelo_inurba_marseille","lat":43.24993,"lon":5.38942,"is_reserved":false,"is_disabled":false,"rental_uris":{"android":"levelo://app?vid=ab1e2336-b4d1-4295-8ba5-67ecc35322d1","ios":"levelo://app?vid=ab1e2336-b4d1-4295-8ba5-67ecc35322d1"},"vehicle_type_id":"4","last_reported":1731810068,"current_range_meters":12000,"station_id":"ce4bhgp2rcd13ifvqfd0","pricing_plan_id":"cebpf4jnsgd1na2vs0mg"},{"bike_id":"a42a666c-f775-4471-8635-d240c1d4ae9f","system_id":"levelo_inurba_marseille","lat":43.30607,"lon":5.37226,"is_reserved":false,"is_disabled":false,"rental_uris":{"android":"levelo://app?vid=a42a666c-f775-4471-8635-d240c1d4ae9f","ios":"levelo://app?vid=a42a666c-f775-4471-8635-d240c1d4ae9f"},"vehicle_type_id":"4","last_reported":1731810068,"current_range_meters":35200,"station_id":"ce4bgqh2rcd13ifvqc4g","pricing_plan_id":"cebpf4jnsgd1na2vs0mg"},{"bike_id":"72499688-a320-4333-843e-c093213a74e4","system_id":"levelo_inurba_marseille","lat":43.23053,"lon":5.35496,"is_reserved":false,"is_disabled":false,"rental_uris":{"android":"levelo://app?vid=72499688-a320-4333-843e-c093213a74e4","ios":"levelo://app?vid=72499688-a320-4333-843e-c093213a74e4"},"vehicle_type_id":"4","last_reported":1731810068,"current_range_meters":6800,"station_id":"cpo3342slgdg3j2ifvpg","pricing_plan_id":"cebpf4jnsgd1na2vs0mg"},{"bike_id":"d57bd817-0cb3-43be-81ac-dc6911ab1946","system_id":"levelo_inurba_marseille","lat":43.30906,"lon":5.36851,"is_reserved":false,"is_disabled":false,"rental_uris":{"android":"levelo://app?vid=d57bd817-0cb3-43be-81ac-dc6911ab1946","ios":"levelo://app?vid=d57bd817-0cb3-43be-81ac-dc6911ab1946"},"vehicle_type_id":"4","last_reported":1731810068,"current_range_meters":38000,"station_id":"ce4bgn92rcd13ifvqbvg","pricing_plan_id":"cebpf4jnsgd1na2vs0mg"},{"bike_id":"2dbb2de1-6b20-470a-a5a8-98f709fd3897","system_id":"levelo_inurba_marseille","lat":43.25007,"lon":5.38939,"is_reserved":false,"is_disabled":false,"rental_uris":{"android":"levelo://app?vid=2dbb2de1-6b20-470a-a5a8-98f709fd3897","ios":"levelo://app?vid=2dbb2de1-6b20-470a-a5a8-98f709fd3897"},"vehicle_type_id":"4","last_reported":1731810068,"current_range_meters":28000,"station_id":"ce4bhgp2rcd13ifvqfd0","pricing_plan_id":"cebpf4jnsgd1na2vs0mg"},{"bike_id":"cfb84728-fd61-4b96-a4bf-5bedd95d8ccb","system_id":"levelo_inurba_marseille","lat":43.32342,"lon":5.40616,"is_reserved":false,"is_disabled":false,"rental_uris":{"android":"levelo://app?vid=cfb84728-fd61-4b96-a4bf-5bedd95d8ccb","ios":"levelo://app?vid=cfb84728-fd61-4b96-a4bf-5bedd95d8ccb"},"vehicle_type_id":"4","last_reported":1731810068,"current_range_meters":39200,"station_id":"ce4bhq92rcd13ifvqhjg","pricing_plan_id":"cebpf4jnsgd1na2vs0mg"},{"bike_id":"7cf438d8-b1d8-49cd-a040-7a7802b38a16","system_id":"levelo_inurba_marseille","lat":43.28108,"lon":5.37838,"is_reserved":false,"is_disabled":false,"rental_uris":{"android":"levelo://app?vid=7cf438d8-b1d8-49cd-a040-7a7802b38a16","ios":"levelo://app?vid=7cf438d8-b1d8-49cd-a040-7a7802b38a16"},"vehicle_type_id":"4","last_reported":1731810068,"current_range_meters":37600,"station_id":"ce4bha12rcd13ifvqee0","pricing_plan_id":"cebpf4jnsgd1na2vs0mg"},{"bike_id":"0e1d2e7a-8318-45fe-af1b-31857eb1aac8","system_id":"levelo_inurba_marseille","lat":43.23955,"lon":5.36634,"is_reserved":false,"is_disabled":false,"rental_uris":{"android":"levelo://app?vid=0e1d2e7a-8318-45fe-af1b-31857eb1aac8","ios":"levelo://app?vid=0e1d2e7a-8318-45fe-af1b-31857eb1aac8"},"vehicle_type_id":"4","last_reported":1731810068,"current_range_meters":26000,"station_id":"ce4bhi12rcd13ifvqfp0","pricing_plan_id":"cebpf4jnsgd1na2vs0mg"},{"bike_id":"d3d6c01f-3a4b-4f9b-a5b9-2d9687fae2ab","system_id":"levelo_inurba_marseille","lat":43.2794,"lon":5.41042,"is_reserved":false,"is_disabled":false,"rental_uris":{"android":"levelo://app?vid=d3d6c01f-3a4b-4f9b-a5b9-2d9687fae2ab","ios":"levelo://app?vid=d3d6c01f-3a4b-4f9b-a5b9-2d9687fae2ab"},"vehicle_type_id":"4","last_reported":1731810068,"current_range_meters":36400,"station_id":"ce4bhnp2rcd13ifvqh0g","pricing_plan_id":"cebpf4jnsgd1na2vs0mg"},{"bike_id":"2bd3ae1c-22d2-4b0f-9fd7-42d6b84fc3a3","system_id":"levelo_inurba_marseille","lat":43.33601,"lon":5.41033,"is_reserved":false,"is_disabled":false,"rental_uris":{"android":"levelo://app?vid=2bd3ae1c-22d2-4b0f-9fd7-42d6b84fc3a3","ios":"levelo://app?vid=2bd3ae1c-22d2-4b0f-9fd7-42d6b84fc3a3"},"vehicle_type_id":"4","last_reported":1731810068,"current_range_meters":22400,"station_id":"ce4bhqh2rcd13ifvqhmg","pricing_plan_id":"cebpf4jnsgd1na2vs0mg"},{"bike_id":"79b76398-f4aa-422b-b325-2360d07a8784","system_id":"levelo_inurba_marseille","lat":43.33724,"lon":5.39183,"is_reserved":false,"is_disabled":false,"rental_uris":{"android":"levelo://app?vid=79b76398-f4aa-422b-b325-2360d07a8784","ios":"levelo://app?vid=79b76398-f4aa-422b-b325-2360d07a8784"},"vehicle_type_id":"4","last_reported":1731810068,"current_range_meters":38000,"station_id":"ce4bhr92rcd13ifvqhsg","pricing_plan_id":"cebpf4jnsgd1na2vs0mg"},{"bike_id":"6954d931-1cf2-4337-bbd5-1c9ac3ae6e04","system_id":"levelo_inurba_marseille","lat":43.31382,"lon":5.38503,"is_reserved":false,"is_disabled":false,"rental_uris":{"android":"levelo://app?vid=6954d931-1cf2-4337-bbd5-1c9ac3ae6e04","ios":"levelo://app?vid=6954d931-1cf2-4337-bbd5-1c9ac3ae6e04"},"vehicle_type_id":"4","last_reported":1731810068,"current_range_meters":39200,"station_id":"ce4bgt92rcd13ifvqcf0","pricing_plan_id":"cebpf4jnsgd1na2vs0mg"},{"bike_id":"87f4ca05-76ff-4730-92d8-e6ff014a6758","system_id":"levelo_inurba_marseille","lat":43.28468,"lon":5.35875,"is_reserved":false,"is_disabled":false,"rental_uris":{"android":"levelo://app?vid=87f4ca05-76ff-4730-92d8-e6ff014a6758","ios":"levelo://app?vid=87f4ca05-76ff-4730-92d8-e6ff014a6758"},"vehicle_type_id":"4","last_reported":1731810068,"current_range_meters":39200,"station_id":"ce4bhah2rcd13ifvqei0","pricing_plan_id":"cebpf4jnsgd1na2vs0mg"},{"bike_id":"efd07578-0d87-479b-a620-d02e7740eb0d","system_id":"levelo_inurba_marseille","lat":43.24389,"lon":5.37075,"is_reserved":false,"is_disabled":false,"rental_uris":{"android":"levelo://app?vid=efd07578-0d87-479b-a620-d02e7740eb0d","ios":"levelo://app?vid=efd07578-0d87-479b-a620-d02e7740eb0d"},"vehicle_type_id":"4","last_reported":1731810068,"current_range_meters":39200,"station_id":"ce4bhhh2rcd13ifvqfk0","pricing_plan_id":"cebpf4jnsgd1na2vs0mg"},{"bike_id":"7ab381ea-419e-4dd7-be48-e55550c20a7d","system_id":"levelo_inurba_marseille","lat":43.2587,"lon":5.39898,"is_reserved":false,"is_disabled":false,"rental_uris":{"android":"levelo://app?vid=7ab381ea-419e-4dd7-be48-e55550c20a7d","ios":"levelo://app?vid=7ab381ea-419e-4dd7-be48-e55550c20a7d"},"vehicle_type_id":"4","last_reported":1731810068,"current_range_meters":38800,"station_id":"ce4bhl92rcd13ifvqghg","pricing_plan_id":"cebpf4jnsgd1na2vs0mg"},{"bike_id":"3fcbe528-45e3-439d-80db-ce667e24fe73","system_id":"levelo_inurba_marseille","lat":43.23062,"lon":5.35503,"is_reserved":false,"is_disabled":false,"rental_uris":{"android":"levelo://app?vid=3fcbe528-45e3-439d-80db-ce667e24fe73","ios":"levelo://app?vid=3fcbe528-45e3-439d-80db-ce667e24fe73"},"vehicle_type_id":"4","last_reported":1731810068,"current_range_meters":18000,"station_id":"cpo3342slgdg3j2ifvpg","pricing_plan_id":"cebpf4jnsgd1na2vs0mg"},{"bike_id":"43c36af0-c13f-42b5-8251-cc08a78635b2","system_id":"levelo_inurba_marseille","lat":43.31185,"lon":5.38707,"is_reserved":false,"is_disabled":false,"rental_uris":{"android":"levelo://app?vid=43c36af0-c13f-42b5-8251-cc08a78635b2","ios":"levelo://app?vid=43c36af0-c13f-42b5-8251-cc08a78635b2"},"vehicle_type_id":"4","last_reported":1731810068,"current_range_meters":24000,"station_id":"ce4bgv12rcd13ifvqcp0","pricing_plan_id":"cebpf4jnsgd1na2vs0mg"},{"bike_id":"b2f45d15-d036-4f36-a361-a492e289342e","system_id":"levelo_inurba_marseille","lat":43.22927,"lon":5.35394,"is_reserved":false,"is_disabled":false,"rental_uris":{"android":"levelo://app?vid=b2f45d15-d036-4f36-a361-a492e289342e","ios":"levelo://app?vid=b2f45d15-d036-4f36-a361-a492e289342e"},"vehicle_type_id":"4","last_reported":1731810068,"current_range_meters":36800,"station_id":"cpo3532slgdg3j2ikp40","pricing_plan_id":"cebpf4jnsgd1na2vs0mg"},{"bike_id":"a8e7bede-aa16-450c-baa0-2662d6a36dd8","system_id":"levelo_inurba_marseille","lat":43.25711,"lon":5.41114,"is_reserved":false,"is_disabled":false,"rental_uris":{"android":"levelo://app?vid=a8e7bede-aa16-450c-baa0-2662d6a36dd8","ios":"levelo://app?vid=a8e7bede-aa16-450c-baa0-2662d6a36dd8"},"vehicle_type_id":"4","last_reported":1731810068,"current_range_meters":25200,"station_id":"ce4bhkp2rcd13ifvqgd0","pricing_plan_id":"cebpf4jnsgd1na2vs0mg"},{"bike_id":"f2801993-1910-4607-8026-67d399720184","system_id":"levelo_inurba_marseille","lat":43.2955,"lon":5.42293,"is_reserved":false,"is_disabled":false,"rental_uris":{"android":"levelo://app?vid=f2801993-1910-4607-8026-67d399720184","ios":"levelo://app?vid=f2801993-1910-4607-8026-67d399720184"},"vehicle_type_id":"4","last_reported":1731810068,"current_range_meters":22400,"station_id":"ce4bhph2rcd13ifvqhdg","pricing_plan_id":"cebpf4jnsgd1na2vs0mg"},{"bike_id":"db0085fb-8c79-4ddd-9c9c-5f619ed839e1","system_id":"levelo_inurba_marseille","lat":43.27617,"lon":5.36111,"is_reserved":false,"is_disabled":false,"rental_uris":{"android":"levelo://app?vid=db0085fb-8c79-4ddd-9c9c-5f619ed839e1","ios":"levelo://app?vid=db0085fb-8c79-4ddd-9c9c-5f619ed839e1"},"vehicle_type_id":"4","last_reported":1731810068,"current_range_meters":33600,"station_id":"ce4bgj92rcd13ifvqbe0","pricing_plan_id":"cebpf4jnsgd1na2vs0mg"},{"bike_id":"5f05c607-354d-4bb9-b70b-74d4e0ea8e22","system_id":"levelo_inurba_marseille","lat":43.30189,"lon":5.36614,"is_reserved":false,"is_disabled":false,"rental_uris":{"android":"levelo://app?vid=5f05c607-354d-4bb9-b70b-74d4e0ea8e22","ios":"levelo://app?vid=5f05c607-354d-4bb9-b70b-74d4e0ea8e22"},"vehicle_type_id":"4","last_reported":1731810068,"current_range_meters":28000,"station_id":"ce4bgrh2rcd13ifvqc8g","pricing_plan_id":"cebpf4jnsgd1na2vs0mg"},{"bike_id":"d886faba-ab2b-4b0c-9539-76a921001817","system_id":"levelo_inurba_marseille","lat":43.30887,"lon":5.39649,"is_reserved":false,"is_disabled":false,"rental_uris":{"android":"levelo://app?vid=d886faba-ab2b-4b0c-9539-76a921001817","ios":"levelo://app?vid=d886faba-ab2b-4b0c-9539-76a921001817"},"vehicle_type_id":"4","last_reported":1731810068,"current_range_meters":33600,"station_id":"ce4bh012rcd13ifvqcv0","pricing_plan_id":"cebpf4jnsgd1na2vs0mg"},{"bike_id":"af4eb732-706e-44bf-8285-9a12812ac693","system_id":"levelo_inurba_marseille","lat":43.24078,"lon":5.3776,"is_reserved":false,"is_disabled":false,"rental_uris":{"android":"levelo://app?vid=af4eb732-706e-44bf-8285-9a12812ac693","ios":"levelo://app?vid=af4eb732-706e-44bf-8285-9a12812ac693"},"vehicle_type_id":"4","last_reported":1731810068,"current_range_meters":38000,"station_id":"ce4bhnp2rcd13ifvqgvg","pricing_plan_id":"cebpf4jnsgd1na2vs0mg"},{"bike_id":"c3979bf8-19b8-44f8-9c55-905eeba667a1","system_id":"levelo_inurba_marseille","lat":43.25109,"lon":5.40333,"is_reserved":false,"is_disabled":false,"rental_uris":{"android":"levelo://app?vid=c3979bf8-19b8-44f8-9c55-905eeba667a1","ios":"levelo://app?vid=c3979bf8-19b8-44f8-9c55-905eeba667a1"},"vehicle_type_id":"4","last_reported":1731810068,"current_range_meters":37600,"station_id":"ce4bhlh2rcd13ifvqgig","pricing_plan_id":"cebpf4jnsgd1na2vs0mg"},{"bike_id":"194d91d4-314e-4a6d-a0ad-54495084dacb","system_id":"levelo_inurba_marseille","lat":43.290833,"lon":5.385827,"is_reserved":false,"is_disabled":false,"rental_uris":{"android":"levelo://app?vid=194d91d4-314e-4a6d-a0ad-54495084dacb","ios":"levelo://app?vid=194d91d4-314e-4a6d-a0ad-54495084dacb"},"vehicle_type_id":"4","last_reported":1731810068,"current_range_meters":32400,"station_id":"ce4bh4p2rcd13ifvqe0g","pricing_plan_id":"cebpf4jnsgd1na2vs0mg"},{"bike_id":"3e209b65-fea7-4c25-a65a-28d2c6cbb811","system_id":"levelo_inurba_marseille","lat":43.31327,"lon":5.36697,"is_reserved":false,"is_disabled":false,"rental_uris":{"android":"levelo://app?vid=3e209b65-fea7-4c25-a65a-28d2c6cbb811","ios":"levelo://app?vid=3e209b65-fea7-4c25-a65a-28d2c6cbb811"},"vehicle_type_id":"4","last_reported":1731810068,"current_range_meters":33200,"station_id":"ce4bgr92rcd13ifvqc6g","pricing_plan_id":"cebpf4jnsgd1na2vs0mg"},{"bike_id":"129c2735-961e-4716-86d3-34ae60b3bdb3","system_id":"levelo_inurba_marseille","lat":43.30557,"lon":5.36526,"is_reserved":false,"is_disabled":false,"rental_uris":{"android":"levelo://app?vid=129c2735-961e-4716-86d3-34ae60b3bdb3","ios":"levelo://app?vid=129c2735-961e-4716-86d3-34ae60b3bdb3"},"vehicle_type_id":"4","last_reported":1731810068,"current_range_meters":36800,"station_id":"ce4bgs12rcd13ifvqcag","pricing_plan_id":"cebpf4jnsgd1na2vs0mg"},{"bike_id":"8fc19385-158a-491b-b10f-9c5819f23bf2","system_id":"levelo_inurba_marseille","lat":43.32535,"lon":5.41474,"is_reserved":false,"is_disabled":false,"rental_uris":{"android":"levelo://app?vid=8fc19385-158a-491b-b10f-9c5819f23bf2","ios":"levelo://app?vid=8fc19385-158a-491b-b10f-9c5819f23bf2"},"vehicle_type_id":"4","last_reported":1731810068,"current_range_meters":20800,"station_id":"ce4bhq12rcd13ifvqhhg","pricing_plan_id":"cebpf4jnsgd1na2vs0mg"},{"bike_id":"17c1da7f-753a-419e-b420-c5c13659a37e","system_id":"levelo_inurba_marseille","lat":43.31993,"lon":5.38149,"is_reserved":false,"is_disabled":false,"rental_uris":{"android":"levelo://app?vid=17c1da7f-753a-419e-b420-c5c13659a37e","ios":"levelo://app?vid=17c1da7f-753a-419e-b420-c5c13659a37e"},"vehicle_type_id":"4","last_reported":1731810068,"current_range_meters":11200,"station_id":"ce4bhr12rcd13ifvqhpg","pricing_plan_id":"cebpf4jnsgd1na2vs0mg"},{"bike_id":"95f650e6-603f-4925-8e5f-853d93f641f8","system_id":"levelo_inurba_marseille","lat":43.30602,"lon":5.39329,"is_reserved":false,"is_disabled":false,"rental_uris":{"android":"levelo://app?vid=95f650e6-603f-4925-8e5f-853d93f641f8","ios":"levelo://app?vid=95f650e6-603f-4925-8e5f-853d93f641f8"},"vehicle_type_id":"4","last_reported":1731810068,"current_range_meters":30000,"station_id":"ce4bh0p2rcd13ifvqd80","pricing_plan_id":"cebpf4jnsgd1na2vs0mg"},{"bike_id":"b128a8d7-7942-4d37-9966-cfc17584ff0d","system_id":"levelo_inurba_marseille","lat":43.2808,"lon":5.40807,"is_reserved":false,"is_disabled":false,"rental_uris":{"android":"levelo://app?vid=b128a8d7-7942-4d37-9966-cfc17584ff0d","ios":"levelo://app?vid=b128a8d7-7942-4d37-9966-cfc17584ff0d"},"vehicle_type_id":"4","last_reported":1731810068,"current_range_meters":16400,"station_id":"","pricing_plan_id":"cebpf4jnsgd1na2vs0mg"},{"bike_id":"76115c9c-6a69-4b90-85b6-7213cbed9156","system_id":"levelo_inurba_marseille","lat":43.31148,"lon":5.38736,"is_reserved":false,"is_disabled":false,"rental_uris":{"android":"levelo://app?vid=76115c9c-6a69-4b90-85b6-7213cbed9156","ios":"levelo://app?vid=76115c9c-6a69-4b90-85b6-7213cbed9156"},"vehicle_type_id":"4","last_reported":1731810068,"current_range_meters":10800,"station_id":"ce4bgv12rcd13ifvqcp0","pricing_plan_id":"cebpf4jnsgd1na2vs0mg"},{"bike_id":"62869ff0-723d-468c-bc17-d9b1f5888b24","system_id":"levelo_inurba_marseille","lat":43.29576,"lon":5.39976,"is_reserved":false,"is_disabled":false,"rental_uris":{"android":"levelo://app?vid=62869ff0-723d-468c-bc17-d9b1f5888b24","ios":"levelo://app?vid=62869ff0-723d-468c-bc17-d9b1f5888b24"},"vehicle_type_id":"4","last_reported":1731810068,"current_range_meters":31200,"station_id":"ce4bh312rcd13ifvqdj0","pricing_plan_id":"cebpf4jnsgd1na2vs0mg"},{"bike_id":"2d8463fd-c676-46a4-8e90-f98a398284de","system_id":"levelo_inurba_marseille","lat":43.29672,"lon":5.36594,"is_reserved":false,"is_disabled":false,"rental_uris":{"android":"levelo://app?vid=2d8463fd-c676-46a4-8e90-f98a398284de","ios":"levelo://app?vid=2d8463fd-c676-46a4-8e90-f98a398284de"},"vehicle_type_id":"4","last_reported":1731810068,"current_range_meters":37600,"station_id":"ce4bgn12rcd13ifvqbt0","pricing_plan_id":"cebpf4jnsgd1na2vs0mg"},{"bike_id":"57834c4a-44a4-482e-8ffb-0f1118195d30","system_id":"levelo_inurba_marseille","lat":43.29554,"lon":5.42271,"is_reserved":false,"is_disabled":false,"rental_uris":{"android":"levelo://app?vid=57834c4a-44a4-482e-8ffb-0f1118195d30","ios":"levelo://app?vid=57834c4a-44a4-482e-8ffb-0f1118195d30"},"vehicle_type_id":"4","last_reported":1731810068,"current_range_meters":14400,"station_id":"ce4bhph2rcd13ifvqhdg","pricing_plan_id":"cebpf4jnsgd1na2vs0mg"},{"bike_id":"5217a0fa-6488-44df-8292-eef033964837","system_id":"levelo_inurba_marseille","lat":43.27991,"lon":5.40039,"is_reserved":false,"is_disabled":false,"rental_uris":{"android":"levelo://app?vid=5217a0fa-6488-44df-8292-eef033964837","ios":"levelo://app?vid=5217a0fa-6488-44df-8292-eef033964837"},"vehicle_type_id":"4","last_reported":1731810068,"current_range_meters":32000,"station_id":"ce4bho92rcd13ifvqh4g","pricing_plan_id":"cebpf4jnsgd1na2vs0mg"},{"bike_id":"0d090cbd-7bd8-48ce-96b4-17fa666688e1","system_id":"levelo_inurba_marseille","lat":43.3415,"lon":5.40898,"is_reserved":false,"is_disabled":false,"rental_uris":{"android":"levelo://app?vid=0d090cbd-7bd8-48ce-96b4-17fa666688e1","ios":"levelo://app?vid=0d090cbd-7bd8-48ce-96b4-17fa666688e1"},"vehicle_type_id":"4","last_reported":1731810068,"current_range_meters":27200,"station_id":"ce4bhqh2rcd13ifvqhlg","pricing_plan_id":"cebpf4jnsgd1na2vs0mg"},{"bike_id":"a737b082-d05c-4a9b-a0cf-3a50ffd3d38b","system_id":"levelo_inurba_marseille","lat":43.30109,"lon":5.39838,"is_reserved":false,"is_disabled":false,"rental_uris":{"android":"levelo://app?vid=a737b082-d05c-4a9b-a0cf-3a50ffd3d38b","ios":"levelo://app?vid=a737b082-d05c-4a9b-a0cf-3a50ffd3d38b"},"vehicle_type_id":"4","last_reported":1731810068,"current_range_meters":34800,"station_id":"ce4bh0h2rcd13ifvqd40","pricing_plan_id":"cebpf4jnsgd1na2vs0mg"},{"bike_id":"c7819d65-71cb-421a-85c6-b48855dedfc5","system_id":"levelo_inurba_marseille","lat":43.32341,"lon":5.40614,"is_reserved":false,"is_disabled":false,"rental_uris":{"android":"levelo://app?vid=c7819d65-71cb-421a-85c6-b48855dedfc5","ios":"levelo://app?vid=c7819d65-71cb-421a-85c6-b48855dedfc5"},"vehicle_type_id":"4","last_reported":1731810068,"current_range_meters":28000,"station_id":"ce4bhq92rcd13ifvqhjg","pricing_plan_id":"cebpf4jnsgd1na2vs0mg"},{"bike_id":"75920a68-20af-4e25-8f9a-eebdafdde0c1","system_id":"levelo_inurba_marseille","lat":43.32349,"lon":5.40614,"is_reserved":false,"is_disabled":false,"rental_uris":{"android":"levelo://app?vid=75920a68-20af-4e25-8f9a-eebdafdde0c1","ios":"levelo://app?vid=75920a68-20af-4e25-8f9a-eebdafdde0c1"},"vehicle_type_id":"4","last_reported":1731810068,"current_range_meters":38800,"station_id":"ce4bhq92rcd13ifvqhjg","pricing_plan_id":"cebpf4jnsgd1na2vs0mg"},{"bike_id":"97effdf3-6415-487e-a3d6-f5e2de11f5c8","system_id":"levelo_inurba_marseille","lat":43.26678,"lon":5.38275,"is_reserved":false,"is_disabled":false,"rental_uris":{"android":"levelo://app?vid=97effdf3-6415-487e-a3d6-f5e2de11f5c8","ios":"levelo://app?vid=97effdf3-6415-487e-a3d6-f5e2de11f5c8"},"vehicle_type_id":"4","last_reported":1731810068,"current_range_meters":39200,"station_id":"ce4bhg92rcd13ifvqf90","pricing_plan_id":"cebpf4jnsgd1na2vs0mg"},{"bike_id":"95dc1d29-de6b-4b02-8633-320de4a8f602","system_id":"levelo_inurba_marseille","lat":43.28672,"lon":5.37404,"is_reserved":false,"is_disabled":false,"rental_uris":{"android":"levelo://app?vid=95dc1d29-de6b-4b02-8633-320de4a8f602","ios":"levelo://app?vid=95dc1d29-de6b-4b02-8633-320de4a8f602"},"vehicle_type_id":"4","last_reported":1731810068,"current_range_meters":28000,"station_id":"ce4bh3p2rcd13ifvqdq0","pricing_plan_id":"cebpf4jnsgd1na2vs0mg"},{"bike_id":"bd0ce8b1-a3cd-4b81-a293-72657974a22c","system_id":"levelo_inurba_marseille","lat":43.24804,"lon":5.37452,"is_reserved":false,"is_disabled":false,"rental_uris":{"android":"levelo://app?vid=bd0ce8b1-a3cd-4b81-a293-72657974a22c","ios":"levelo://app?vid=bd0ce8b1-a3cd-4b81-a293-72657974a22c"},"vehicle_type_id":"4","last_reported":1731810068,"current_range_meters":30400,"station_id":"ce4bhgh2rcd13ifvqfb0","pricing_plan_id":"cebpf4jnsgd1na2vs0mg"},{"bike_id":"65ec5b8c-68ba-40a3-bd6e-d2e54bfdab9c","system_id":"levelo_inurba_marseille","lat":43.31287,"lon":5.4016,"is_reserved":false,"is_disabled":false,"rental_uris":{"android":"levelo://app?vid=65ec5b8c-68ba-40a3-bd6e-d2e54bfdab9c","ios":"levelo://app?vid=65ec5b8c-68ba-40a3-bd6e-d2e54bfdab9c"},"vehicle_type_id":"4","last_reported":1731810068,"current_range_meters":36800,"station_id":"ce4bh092rcd13ifvqd30","pricing_plan_id":"cebpf4jnsgd1na2vs0mg"},{"bike_id":"0b580216-b07f-4821-a19d-686462be0488","system_id":"levelo_inurba_marseille","lat":43.22936,"lon":5.35381,"is_reserved":false,"is_disabled":false,"rental_uris":{"android":"levelo://app?vid=0b580216-b07f-4821-a19d-686462be0488","ios":"levelo://app?vid=0b580216-b07f-4821-a19d-686462be0488"},"vehicle_type_id":"4","last_reported":1731810068,"current_range_meters":36800,"station_id":"cpo3532slgdg3j2ikp40","pricing_plan_id":"cebpf4jnsgd1na2vs0mg"},{"bike_id":"8ec12441-0a09-48b5-9b60-4ec15c08e11c","system_id":"levelo_inurba_marseille","lat":43.23198,"lon":5.39963,"is_reserved":false,"is_disabled":false,"rental_uris":{"android":"levelo://app?vid=8ec12441-0a09-48b5-9b60-4ec15c08e11c","ios":"levelo://app?vid=8ec12441-0a09-48b5-9b60-4ec15c08e11c"},"vehicle_type_id":"4","last_reported":1731810068,"current_range_meters":11200,"station_id":"ce4bhn12rcd13ifvqgqg","pricing_plan_id":"cebpf4jnsgd1na2vs0mg"},{"bike_id":"919c2b04-2f05-4beb-9728-c90882114e9c","system_id":"levelo_inurba_marseille","lat":43.32365,"lon":5.38885,"is_reserved":false,"is_disabled":false,"rental_uris":{"android":"levelo://app?vid=919c2b04-2f05-4beb-9728-c90882114e9c","ios":"levelo://app?vid=919c2b04-2f05-4beb-9728-c90882114e9c"},"vehicle_type_id":"4","last_reported":1731810068,"current_range_meters":18800,"station_id":"ce4bhqp2rcd13ifvqhog","pricing_plan_id":"cebpf4jnsgd1na2vs0mg"},{"bike_id":"6c09764b-b705-4bff-8274-3ff08e7b8ec5","system_id":"levelo_inurba_marseille","lat":43.25582,"lon":5.38227,"is_reserved":false,"is_disabled":false,"rental_uris":{"android":"levelo://app?vid=6c09764b-b705-4bff-8274-3ff08e7b8ec5","ios":"levelo://app?vid=6c09764b-b705-4bff-8274-3ff08e7b8ec5"},"vehicle_type_id":"4","last_reported":1731810068,"current_range_meters":38800,"station_id":"ce4bhih2rcd13ifvqfs0","pricing_plan_id":"cebpf4jnsgd1na2vs0mg"},{"bike_id":"31f63ef9-c049-441d-a759-cf5947f4bacb","system_id":"levelo_inurba_marseille","lat":43.30656,"lon":5.40049,"is_reserved":false,"is_disabled":false,"rental_uris":{"android":"levelo://app?vid=31f63ef9-c049-441d-a759-cf5947f4bacb","ios":"levelo://app?vid=31f63ef9-c049-441d-a759-cf5947f4bacb"},"vehicle_type_id":"4","last_reported":1731810068,"current_range_meters":38800,"station_id":"ce4bh112rcd13ifvqda0","pricing_plan_id":"cebpf4jnsgd1na2vs0mg"},{"bike_id":"4138345b-cc1d-40b0-8916-e8013770729a","system_id":"levelo_inurba_marseille","lat":43.24637,"lon":5.38905,"is_reserved":false,"is_disabled":false,"rental_uris":{"android":"levelo://app?vid=4138345b-cc1d-40b0-8916-e8013770729a","ios":"levelo://app?vid=4138345b-cc1d-40b0-8916-e8013770729a"},"vehicle_type_id":"4","last_reported":1731810068,"current_range_meters":37600,"station_id":"ce4bhg12rcd13ifvqf60","pricing_plan_id":"cebpf4jnsgd1na2vs0mg"},{"bike_id":"af5ab541-76ab-45cd-806a-5949eef66788","system_id":"levelo_inurba_marseille","lat":43.31353,"lon":5.38495,"is_reserved":false,"is_disabled":false,"rental_uris":{"android":"levelo://app?vid=af5ab541-76ab-45cd-806a-5949eef66788","ios":"levelo://app?vid=af5ab541-76ab-45cd-806a-5949eef66788"},"vehicle_type_id":"4","last_reported":1731810068,"current_range_meters":38800,"station_id":"ce4bgt92rcd13ifvqcf0","pricing_plan_id":"cebpf4jnsgd1na2vs0mg"},{"bike_id":"fd9420c1-2eaa-4137-b93c-afc5545251d8","system_id":"levelo_inurba_marseille","lat":43.29563,"lon":5.42282,"is_reserved":false,"is_disabled":false,"rental_uris":{"android":"levelo://app?vid=fd9420c1-2eaa-4137-b93c-afc5545251d8","ios":"levelo://app?vid=fd9420c1-2eaa-4137-b93c-afc5545251d8"},"vehicle_type_id":"4","last_reported":1731810068,"current_range_meters":38800,"station_id":"ce4bhph2rcd13ifvqhdg","pricing_plan_id":"cebpf4jnsgd1na2vs0mg"},{"bike_id":"fea3a63b-ced7-44c6-bdc0-2336a5d6afda","system_id":"levelo_inurba_marseille","lat":43.30942,"lon":5.39047,"is_reserved":false,"is_disabled":false,"rental_uris":{"android":"levelo://app?vid=fea3a63b-ced7-44c6-bdc0-2336a5d6afda","ios":"levelo://app?vid=fea3a63b-ced7-44c6-bdc0-2336a5d6afda"},"vehicle_type_id":"4","last_reported":1731810068,"current_range_meters":14800,"station_id":"ce4bgup2rcd13ifvqco0","pricing_plan_id":"cebpf4jnsgd1na2vs0mg"},{"bike_id":"deaffe6f-3d3a-4cc9-acc5-2632916739ab","system_id":"levelo_inurba_marseille","lat":43.24173,"lon":5.39724,"is_reserved":false,"is_disabled":false,"rental_uris":{"android":"levelo://app?vid=deaffe6f-3d3a-4cc9-acc5-2632916739ab","ios":"levelo://app?vid=deaffe6f-3d3a-4cc9-acc5-2632916739ab"},"vehicle_type_id":"4","last_reported":1731810068,"current_range_meters":33600,"station_id":"ce4bhn12rcd13ifvqgpg","pricing_plan_id":"cebpf4jnsgd1na2vs0mg"},{"bike_id":"4a91ae45-0681-4069-aae6-a6cf66f15ed4","system_id":"levelo_inurba_marseille","lat":43.32644,"lon":5.41005,"is_reserved":false,"is_disabled":false,"rental_uris":{"android":"levelo://app?vid=4a91ae45-0681-4069-aae6-a6cf66f15ed4","ios":"levelo://app?vid=4a91ae45-0681-4069-aae6-a6cf66f15ed4"},"vehicle_type_id":"4","last_reported":1731810068,"current_range_meters":24800,"station_id":"ce4bhpp2rcd13ifvqhgg","pricing_plan_id":"cebpf4jnsgd1na2vs0mg"},{"bike_id":"87119aad-ad8b-4504-8d03-d8d8d5751481","system_id":"levelo_inurba_marseille","lat":43.27885,"lon":5.41214,"is_reserved":false,"is_disabled":false,"rental_uris":{"android":"levelo://app?vid=87119aad-ad8b-4504-8d03-d8d8d5751481","ios":"levelo://app?vid=87119aad-ad8b-4504-8d03-d8d8d5751481"},"vehicle_type_id":"4","last_reported":1731810068,"current_range_meters":24800,"station_id":"","pricing_plan_id":"cebpf4jnsgd1na2vs0mg"},{"bike_id":"47b4c5f7-af8d-4ed4-934d-2257f0d3fe18","system_id":"levelo_inurba_marseille","lat":43.24069,"lon":5.37747,"is_reserved":false,"is_disabled":false,"rental_uris":{"android":"levelo://app?vid=47b4c5f7-af8d-4ed4-934d-2257f0d3fe18","ios":"levelo://app?vid=47b4c5f7-af8d-4ed4-934d-2257f0d3fe18"},"vehicle_type_id":"4","last_reported":1731810068,"current_range_meters":38800,"station_id":"ce4bhnp2rcd13ifvqgvg","pricing_plan_id":"cebpf4jnsgd1na2vs0mg"},{"bike_id":"ba57f1ef-3fbb-4816-9e62-2e0737689f5e","system_id":"levelo_inurba_marseille","lat":43.33612,"lon":5.41054,"is_reserved":false,"is_disabled":false,"rental_uris":{"android":"levelo://app?vid=ba57f1ef-3fbb-4816-9e62-2e0737689f5e","ios":"levelo://app?vid=ba57f1ef-3fbb-4816-9e62-2e0737689f5e"},"vehicle_type_id":"4","last_reported":1731810068,"current_range_meters":37600,"station_id":"ce4bhqh2rcd13ifvqhmg","pricing_plan_id":"cebpf4jnsgd1na2vs0mg"},{"bike_id":"4df96d24-58e7-4ba9-9234-e475332e4941","system_id":"levelo_inurba_marseille","lat":43.26053,"lon":5.39385,"is_reserved":false,"is_disabled":false,"rental_uris":{"android":"levelo://app?vid=4df96d24-58e7-4ba9-9234-e475332e4941","ios":"levelo://app?vid=4df96d24-58e7-4ba9-9234-e475332e4941"},"vehicle_type_id":"4","last_reported":1731810068,"current_range_meters":32000,"station_id":"ce4bhh92rcd13ifvqfj0","pricing_plan_id":"cebpf4jnsgd1na2vs0mg"},{"bike_id":"31aba007-d5c0-4235-87ad-39644604de95","system_id":"levelo_inurba_marseille","lat":43.31181,"lon":5.38693,"is_reserved":false,"is_disabled":false,"rental_uris":{"android":"levelo://app?vid=31aba007-d5c0-4235-87ad-39644604de95","ios":"levelo://app?vid=31aba007-d5c0-4235-87ad-39644604de95"},"vehicle_type_id":"4","last_reported":1731810068,"current_range_meters":38000,"station_id":"ce4bgv12rcd13ifvqcp0","pricing_plan_id":"cebpf4jnsgd1na2vs0mg"},{"bike_id":"6da298a1-b1e6-4ba8-a57a-5400211d4b87","system_id":"levelo_inurba_marseille","lat":43.28007,"lon":5.41666,"is_reserved":false,"is_disabled":false,"rental_uris":{"android":"levelo://app?vid=6da298a1-b1e6-4ba8-a57a-5400211d4b87","ios":"levelo://app?vid=6da298a1-b1e6-4ba8-a57a-5400211d4b87"},"vehicle_type_id":"4","last_reported":1731810068,"current_range_meters":30800,"station_id":"ce4bho12rcd13ifvqh1g","pricing_plan_id":"cebpf4jnsgd1na2vs0mg"},{"bike_id":"bb854a25-6d1a-4bc3-8d11-c39bd005775c","system_id":"levelo_inurba_marseille","lat":43.32117,"lon":5.36766,"is_reserved":false,"is_disabled":false,"rental_uris":{"android":"levelo://app?vid=bb854a25-6d1a-4bc3-8d11-c39bd005775c","ios":"levelo://app?vid=bb854a25-6d1a-4bc3-8d11-c39bd005775c"},"vehicle_type_id":"4","last_reported":1731810068,"current_range_meters":34000,"station_id":"ce4bhrh2rcd13ifvqhug","pricing_plan_id":"cebpf4jnsgd1na2vs0mg"},{"bike_id":"461b8f01-20f2-4b5b-be2f-179315653034","system_id":"levelo_inurba_marseille","lat":43.27064,"lon":5.42286,"is_reserved":false,"is_disabled":false,"rental_uris":{"android":"levelo://app?vid=461b8f01-20f2-4b5b-be2f-179315653034","ios":"levelo://app?vid=461b8f01-20f2-4b5b-be2f-179315653034"},"vehicle_type_id":"4","last_reported":1731810068,"current_range_meters":40000,"station_id":"ce4bhk92rcd13ifvqgb0","pricing_plan_id":"cebpf4jnsgd1na2vs0mg"},{"bike_id":"c8f960ba-2944-4ef9-89a2-a6aae06a74fe","system_id":"levelo_inurba_marseille","lat":43.28441,"lon":5.39199,"is_reserved":false,"is_disabled":false,"rental_uris":{"android":"levelo://app?vid=c8f960ba-2944-4ef9-89a2-a6aae06a74fe","ios":"levelo://app?vid=c8f960ba-2944-4ef9-89a2-a6aae06a74fe"},"vehicle_type_id":"4","last_reported":1731810068,"current_range_meters":38800,"station_id":"ce4bhoh2rcd13ifvqh5g","pricing_plan_id":"cebpf4jnsgd1na2vs0mg"},{"bike_id":"12867844-fa2a-41b2-8d74-706d4ef15909","system_id":"levelo_inurba_marseille","lat":43.33764,"lon":5.37429,"is_reserved":false,"is_disabled":false,"rental_uris":{"android":"levelo://app?vid=12867844-fa2a-41b2-8d74-706d4ef15909","ios":"levelo://app?vid=12867844-fa2a-41b2-8d74-706d4ef15909"},"vehicle_type_id":"4","last_reported":1731810068,"current_range_meters":35600,"station_id":"","pricing_plan_id":"cebpf4jnsgd1na2vs0mg"},{"bike_id":"3455c789-2e35-4152-8de0-fa613ba872df","system_id":"levelo_inurba_marseille","lat":43.32362,"lon":5.38891,"is_reserved":false,"is_disabled":false,"rental_uris":{"android":"levelo://app?vid=3455c789-2e35-4152-8de0-fa613ba872df","ios":"levelo://app?vid=3455c789-2e35-4152-8de0-fa613ba872df"},"vehicle_type_id":"4","last_reported":1731810068,"current_range_meters":35600,"station_id":"ce4bhqp2rcd13ifvqhog","pricing_plan_id":"cebpf4jnsgd1na2vs0mg"},{"bike_id":"4d798a5e-55df-420f-bbaf-19d817027fbe","system_id":"levelo_inurba_marseille","lat":43.27898,"lon":5.3799,"is_reserved":false,"is_disabled":false,"rental_uris":{"android":"levelo://app?vid=4d798a5e-55df-420f-bbaf-19d817027fbe","ios":"levelo://app?vid=4d798a5e-55df-420f-bbaf-19d817027fbe"},"vehicle_type_id":"4","last_reported":1731810068,"current_range_meters":28800,"station_id":"ce4bhf92rcd13ifvqf50","pricing_plan_id":"cebpf4jnsgd1na2vs0mg"},{"bike_id":"0f94c962-6bca-4904-9b9e-b573544d963c","system_id":"levelo_inurba_marseille","lat":43.2762,"lon":5.36108,"is_reserved":false,"is_disabled":false,"rental_uris":{"android":"levelo://app?vid=0f94c962-6bca-4904-9b9e-b573544d963c","ios":"levelo://app?vid=0f94c962-6bca-4904-9b9e-b573544d963c"},"vehicle_type_id":"4","last_reported":1731810068,"current_range_meters":30800,"station_id":"ce4bgj92rcd13ifvqbe0","pricing_plan_id":"cebpf4jnsgd1na2vs0mg"},{"bike_id":"e5e782bb-c39c-4dbb-8178-2dffb0a59956","system_id":"levelo_inurba_marseille","lat":43.31167,"lon":5.38717,"is_reserved":false,"is_disabled":false,"rental_uris":{"android":"levelo://app?vid=e5e782bb-c39c-4dbb-8178-2dffb0a59956","ios":"levelo://app?vid=e5e782bb-c39c-4dbb-8178-2dffb0a59956"},"vehicle_type_id":"4","last_reported":1731810068,"current_range_meters":38800,"station_id":"ce4bgv12rcd13ifvqcp0","pricing_plan_id":"cebpf4jnsgd1na2vs0mg"},{"bike_id":"93029be8-c148-40c6-a98e-a5d31e4e4fd0","system_id":"levelo_inurba_marseille","lat":43.28347,"lon":5.38094,"is_reserved":false,"is_disabled":false,"rental_uris":{"android":"levelo://app?vid=93029be8-c148-40c6-a98e-a5d31e4e4fd0","ios":"levelo://app?vid=93029be8-c148-40c6-a98e-a5d31e4e4fd0"},"vehicle_type_id":"4","last_reported":1731810068,"current_range_meters":38800,"station_id":"ce4bh412rcd13ifvqdr0","pricing_plan_id":"cebpf4jnsgd1na2vs0mg"},{"bike_id":"8c32be87-379a-46c3-8a9b-2ad2031438ef","system_id":"levelo_inurba_marseille","lat":43.31081,"lon":5.42448,"is_reserved":false,"is_disabled":false,"rental_uris":{"android":"levelo://app?vid=8c32be87-379a-46c3-8a9b-2ad2031438ef","ios":"levelo://app?vid=8c32be87-379a-46c3-8a9b-2ad2031438ef"},"vehicle_type_id":"4","last_reported":1731810068,"current_range_meters":39200,"station_id":"ce4bhp92rcd13ifvqhag","pricing_plan_id":"cebpf4jnsgd1na2vs0mg"},{"bike_id":"7cadb4cf-c20e-49ae-a7c3-3a75db5f5ad2","system_id":"levelo_inurba_marseille","lat":43.31273,"lon":5.40149,"is_reserved":false,"is_disabled":false,"rental_uris":{"android":"levelo://app?vid=7cadb4cf-c20e-49ae-a7c3-3a75db5f5ad2","ios":"levelo://app?vid=7cadb4cf-c20e-49ae-a7c3-3a75db5f5ad2"},"vehicle_type_id":"4","last_reported":1731810068,"current_range_meters":39200,"station_id":"ce4bh092rcd13ifvqd30","pricing_plan_id":"cebpf4jnsgd1na2vs0mg"},{"bike_id":"08556236-18aa-48b5-821c-02152b23fea2","system_id":"levelo_inurba_marseille","lat":43.27072,"lon":5.42273,"is_reserved":false,"is_disabled":false,"rental_uris":{"android":"levelo://app?vid=08556236-18aa-48b5-821c-02152b23fea2","ios":"levelo://app?vid=08556236-18aa-48b5-821c-02152b23fea2"},"vehicle_type_id":"4","last_reported":1731810068,"current_range_meters":17600,"station_id":"ce4bhk92rcd13ifvqgb0","pricing_plan_id":"cebpf4jnsgd1na2vs0mg"},{"bike_id":"56428505-172c-4b4f-906d-8c6ca9064f2c","system_id":"levelo_inurba_marseille","lat":43.24388,"lon":5.37055,"is_reserved":false,"is_disabled":false,"rental_uris":{"android":"levelo://app?vid=56428505-172c-4b4f-906d-8c6ca9064f2c","ios":"levelo://app?vid=56428505-172c-4b4f-906d-8c6ca9064f2c"},"vehicle_type_id":"4","last_reported":1731810068,"current_range_meters":9600,"station_id":"ce4bhhh2rcd13ifvqfk0","pricing_plan_id":"cebpf4jnsgd1na2vs0mg"},{"bike_id":"28b79275-ade8-45ee-b25a-14126dd5c2bf","system_id":"levelo_inurba_marseille","lat":43.24823,"lon":5.37453,"is_reserved":false,"is_disabled":false,"rental_uris":{"android":"levelo://app?vid=28b79275-ade8-45ee-b25a-14126dd5c2bf","ios":"levelo://app?vid=28b79275-ade8-45ee-b25a-14126dd5c2bf"},"vehicle_type_id":"4","last_reported":1731810068,"current_range_meters":38000,"station_id":"ce4bhgh2rcd13ifvqfb0","pricing_plan_id":"cebpf4jnsgd1na2vs0mg"},{"bike_id":"198a57ec-86d5-47e1-a131-f6dc954a994d","system_id":"levelo_inurba_marseille","lat":43.29526,"lon":5.39406,"is_reserved":false,"is_disabled":false,"rental_uris":{"android":"levelo://app?vid=198a57ec-86d5-47e1-a131-f6dc954a994d","ios":"levelo://app?vid=198a57ec-86d5-47e1-a131-f6dc954a994d"},"vehicle_type_id":"4","last_reported":1731810068,"current_range_meters":19200,"station_id":"ce4bh292rcd13ifvqdf0","pricing_plan_id":"cebpf4jnsgd1na2vs0mg"},{"bike_id":"197019d9-cb9a-40a3-8d0d-41e308275835","system_id":"levelo_inurba_marseille","lat":43.27825,"lon":5.40709,"is_reserved":false,"is_disabled":false,"rental_uris":{"android":"levelo://app?vid=197019d9-cb9a-40a3-8d0d-41e308275835","ios":"levelo://app?vid=197019d9-cb9a-40a3-8d0d-41e308275835"},"vehicle_type_id":"4","last_reported":1731810068,"current_range_meters":19200,"station_id":"ce4bhnh2rcd13ifvqgtg","pricing_plan_id":"cebpf4jnsgd1na2vs0mg"},{"bike_id":"6b76da8b-8346-4b5f-a49b-cdde5bffd08b","system_id":"levelo_inurba_marseille","lat":43.27828,"lon":5.40707,"is_reserved":false,"is_disabled":false,"rental_uris":{"android":"levelo://app?vid=6b76da8b-8346-4b5f-a49b-cdde5bffd08b","ios":"levelo://app?vid=6b76da8b-8346-4b5f-a49b-cdde5bffd08b"},"vehicle_type_id":"4","last_reported":1731810068,"current_range_meters":39200,"station_id":"ce4bhnh2rcd13ifvqgtg","pricing_plan_id":"cebpf4jnsgd1na2vs0mg"},{"bike_id":"29b4b37b-f701-47a6-a128-f3171ca95432","system_id":"levelo_inurba_marseille","lat":43.25864,"lon":5.39898,"is_reserved":false,"is_disabled":false,"rental_uris":{"android":"levelo://app?vid=29b4b37b-f701-47a6-a128-f3171ca95432","ios":"levelo://app?vid=29b4b37b-f701-47a6-a128-f3171ca95432"},"vehicle_type_id":"4","last_reported":1731810068,"current_range_meters":37600,"station_id":"ce4bhl92rcd13ifvqghg","pricing_plan_id":"cebpf4jnsgd1na2vs0mg"},{"bike_id":"8216f57a-06ae-4f03-ad77-ce23f2d1436a","system_id":"levelo_inurba_marseille","lat":43.31325,"lon":5.39705,"is_reserved":false,"is_disabled":false,"rental_uris":{"android":"levelo://app?vid=8216f57a-06ae-4f03-ad77-ce23f2d1436a","ios":"levelo://app?vid=8216f57a-06ae-4f03-ad77-ce23f2d1436a"},"vehicle_type_id":"4","last_reported":1731810068,"current_range_meters":39200,"station_id":"ce4bgvp2rcd13ifvqcu0","pricing_plan_id":"cebpf4jnsgd1na2vs0mg"},{"bike_id":"9c8e7bae-0791-4566-84af-a98f37b91f81","system_id":"levelo_inurba_marseille","lat":43.31342,"lon":5.3673,"is_reserved":false,"is_disabled":false,"rental_uris":{"android":"levelo://app?vid=9c8e7bae-0791-4566-84af-a98f37b91f81","ios":"levelo://app?vid=9c8e7bae-0791-4566-84af-a98f37b91f81"},"vehicle_type_id":"4","last_reported":1731810068,"current_range_meters":39200,"station_id":"ce4bgr92rcd13ifvqc6g","pricing_plan_id":"cebpf4jnsgd1na2vs0mg"},{"bike_id":"9e93d881-f54b-4fd7-a93b-913bccb9d695","system_id":"levelo_inurba_marseille","lat":43.31077,"lon":5.38366,"is_reserved":false,"is_disabled":false,"rental_uris":{"android":"levelo://app?vid=9e93d881-f54b-4fd7-a93b-913bccb9d695","ios":"levelo://app?vid=9e93d881-f54b-4fd7-a93b-913bccb9d695"},"vehicle_type_id":"4","last_reported":1731810068,"current_range_meters":24000,"station_id":"ce4bgv92rcd13ifvqcr0","pricing_plan_id":"cebpf4jnsgd1na2vs0mg"},{"bike_id":"f739d4a4-a834-4196-8391-84b17fdc37c1","system_id":"levelo_inurba_marseille","lat":43.28275,"lon":5.35082,"is_reserved":false,"is_disabled":false,"rental_uris":{"android":"levelo://app?vid=f739d4a4-a834-4196-8391-84b17fdc37c1","ios":"levelo://app?vid=f739d4a4-a834-4196-8391-84b17fdc37c1"},"vehicle_type_id":"4","last_reported":1731810068,"current_range_meters":37600,"station_id":"ce4bhbp2rcd13ifvqerg","pricing_plan_id":"cebpf4jnsgd1na2vs0mg"},{"bike_id":"7dc5dcfe-2978-4465-9e59-792e645ba689","system_id":"levelo_inurba_marseille","lat":43.30133,"lon":5.38802,"is_reserved":false,"is_disabled":false,"rental_uris":{"android":"levelo://app?vid=7dc5dcfe-2978-4465-9e59-792e645ba689","ios":"levelo://app?vid=7dc5dcfe-2978-4465-9e59-792e645ba689"},"vehicle_type_id":"4","last_reported":1731810068,"current_range_meters":10000,"station_id":"ce4bghh2rcd13ifvqb60","pricing_plan_id":"cebpf4jnsgd1na2vs0mg"},{"bike_id":"08884508-fc57-4217-9a85-61b092dd5d95","system_id":"levelo_inurba_marseille","lat":43.30938,"lon":5.39054,"is_reserved":false,"is_disabled":false,"rental_uris":{"android":"levelo://app?vid=08884508-fc57-4217-9a85-61b092dd5d95","ios":"levelo://app?vid=08884508-fc57-4217-9a85-61b092dd5d95"},"vehicle_type_id":"4","last_reported":1731810068,"current_range_meters":32000,"station_id":"ce4bgup2rcd13ifvqco0","pricing_plan_id":"cebpf4jnsgd1na2vs0mg"},{"bike_id":"a2472f17-8be8-4e47-b766-66c9d1d07c21","system_id":"levelo_inurba_marseille","lat":43.24653,"lon":5.38894,"is_reserved":false,"is_disabled":false,"rental_uris":{"android":"levelo://app?vid=a2472f17-8be8-4e47-b766-66c9d1d07c21","ios":"levelo://app?vid=a2472f17-8be8-4e47-b766-66c9d1d07c21"},"vehicle_type_id":"4","last_reported":1731810068,"current_range_meters":4400,"station_id":"ce4bhg12rcd13ifvqf60","pricing_plan_id":"cebpf4jnsgd1na2vs0mg"},{"bike_id":"38745989-9e9a-4946-859d-5aa430e9ea79","system_id":"levelo_inurba_marseille","lat":43.29556,"lon":5.4228,"is_reserved":false,"is_disabled":false,"rental_uris":{"android":"levelo://app?vid=38745989-9e9a-4946-859d-5aa430e9ea79","ios":"levelo://app?vid=38745989-9e9a-4946-859d-5aa430e9ea79"},"vehicle_type_id":"4","last_reported":1731810068,"current_range_meters":9600,"station_id":"ce4bhph2rcd13ifvqhdg","pricing_plan_id":"cebpf4jnsgd1na2vs0mg"},{"bike_id":"01bc35cd-26f4-49a9-a235-11681323c7dc","system_id":"levelo_inurba_marseille","lat":43.24675,"lon":5.38148,"is_reserved":false,"is_disabled":false,"rental_uris":{"android":"levelo://app?vid=01bc35cd-26f4-49a9-a235-11681323c7dc","ios":"levelo://app?vid=01bc35cd-26f4-49a9-a235-11681323c7dc"},"vehicle_type_id":"4","last_reported":1731810068,"current_range_meters":16000,"station_id":"ce4bhih2rcd13ifvqfr0","pricing_plan_id":"cebpf4jnsgd1na2vs0mg"},{"bike_id":"ed7dadd4-995d-40df-ad5e-56febf5286f0","system_id":"levelo_inurba_marseille","lat":43.28563,"lon":5.39496,"is_reserved":false,"is_disabled":false,"rental_uris":{"android":"levelo://app?vid=ed7dadd4-995d-40df-ad5e-56febf5286f0","ios":"levelo://app?vid=ed7dadd4-995d-40df-ad5e-56febf5286f0"},"vehicle_type_id":"4","last_reported":1731810068,"current_range_meters":38000,"station_id":"ce4bh292rcd13ifvqdg0","pricing_plan_id":"cebpf4jnsgd1na2vs0mg"},{"bike_id":"d663e219-aed2-4e56-8788-d140d0f35f54","system_id":"levelo_inurba_marseille","lat":43.31319,"lon":5.39724,"is_reserved":false,"is_disabled":false,"rental_uris":{"android":"levelo://app?vid=d663e219-aed2-4e56-8788-d140d0f35f54","ios":"levelo://app?vid=d663e219-aed2-4e56-8788-d140d0f35f54"},"vehicle_type_id":"4","last_reported":1731810068,"current_range_meters":39200,"station_id":"ce4bgvp2rcd13ifvqcu0","pricing_plan_id":"cebpf4jnsgd1na2vs0mg"},{"bike_id":"c933bbc4-195c-448f-af58-aa9f39bdfe9e","system_id":"levelo_inurba_marseille","lat":43.28944,"lon":5.3961,"is_reserved":false,"is_disabled":false,"rental_uris":{"android":"levelo://app?vid=c933bbc4-195c-448f-af58-aa9f39bdfe9e","ios":"levelo://app?vid=c933bbc4-195c-448f-af58-aa9f39bdfe9e"},"vehicle_type_id":"4","last_reported":1731810068,"current_range_meters":38800,"station_id":"ce4bh3h2rcd13ifvqdn0","pricing_plan_id":"cebpf4jnsgd1na2vs0mg"},{"bike_id":"16e3de90-cdab-40a0-975d-f264f65e738c","system_id":"levelo_inurba_marseille","lat":43.28151,"lon":5.42641,"is_reserved":false,"is_disabled":false,"rental_uris":{"android":"levelo://app?vid=16e3de90-cdab-40a0-975d-f264f65e738c","ios":"levelo://app?vid=16e3de90-cdab-40a0-975d-f264f65e738c"},"vehicle_type_id":"4","last_reported":1731810068,"current_range_meters":35600,"station_id":"ce4bhnh2rcd13ifvqgug","pricing_plan_id":"cebpf4jnsgd1na2vs0mg"},{"bike_id":"3759aa46-8ce3-482e-88b7-d34db014c53a","system_id":"levelo_inurba_marseille","lat":43.28371,"lon":5.38627,"is_reserved":false,"is_disabled":false,"rental_uris":{"android":"levelo://app?vid=3759aa46-8ce3-482e-88b7-d34db014c53a","ios":"levelo://app?vid=3759aa46-8ce3-482e-88b7-d34db014c53a"},"vehicle_type_id":"4","last_reported":1731810068,"current_range_meters":31200,"station_id":"ce4bh492rcd13ifvqdvg","pricing_plan_id":"cebpf4jnsgd1na2vs0mg"},{"bike_id":"a005df12-ce78-479e-9f94-804652961b37","system_id":"levelo_inurba_marseille","lat":43.27818,"lon":5.40705,"is_reserved":false,"is_disabled":false,"rental_uris":{"android":"levelo://app?vid=a005df12-ce78-479e-9f94-804652961b37","ios":"levelo://app?vid=a005df12-ce78-479e-9f94-804652961b37"},"vehicle_type_id":"4","last_reported":1731810068,"current_range_meters":38000,"station_id":"ce4bhnh2rcd13ifvqgtg","pricing_plan_id":"cebpf4jnsgd1na2vs0mg"},{"bike_id":"0019aa8e-5465-41a8-83a2-1bdd40f8ac0b","system_id":"levelo_inurba_marseille","lat":43.29892,"lon":5.39727,"is_reserved":false,"is_disabled":false,"rental_uris":{"android":"levelo://app?vid=0019aa8e-5465-41a8-83a2-1bdd40f8ac0b","ios":"levelo://app?vid=0019aa8e-5465-41a8-83a2-1bdd40f8ac0b"},"vehicle_type_id":"4","last_reported":1731810068,"current_range_meters":38000,"station_id":"ce4bh0h2rcd13ifvqd50","pricing_plan_id":"cebpf4jnsgd1na2vs0mg"},{"bike_id":"5e98f026-3262-4078-85cf-cbcb53f8e78e","system_id":"levelo_inurba_marseille","lat":43.31321,"lon":5.36713,"is_reserved":false,"is_disabled":false,"rental_uris":{"android":"levelo://app?vid=5e98f026-3262-4078-85cf-cbcb53f8e78e","ios":"levelo://app?vid=5e98f026-3262-4078-85cf-cbcb53f8e78e"},"vehicle_type_id":"4","last_reported":1731810068,"current_range_meters":31200,"station_id":"ce4bgr92rcd13ifvqc6g","pricing_plan_id":"cebpf4jnsgd1na2vs0mg"},{"bike_id":"c9bdbc95-6379-4889-ac81-a9c33d6a6734","system_id":"levelo_inurba_marseille","lat":43.29803,"lon":5.4041,"is_reserved":false,"is_disabled":false,"rental_uris":{"android":"levelo://app?vid=c9bdbc95-6379-4889-ac81-a9c33d6a6734","ios":"levelo://app?vid=c9bdbc95-6379-4889-ac81-a9c33d6a6734"},"vehicle_type_id":"4","last_reported":1731810068,"current_range_meters":28000,"station_id":"ce4bh112rcd13ifvqd90","pricing_plan_id":"cebpf4jnsgd1na2vs0mg"},{"bike_id":"17d081be-279e-4b11-85bb-cf9660b5133f","system_id":"levelo_inurba_marseille","lat":43.31185,"lon":5.38707,"is_reserved":false,"is_disabled":false,"rental_uris":{"android":"levelo://app?vid=17d081be-279e-4b11-85bb-cf9660b5133f","ios":"levelo://app?vid=17d081be-279e-4b11-85bb-cf9660b5133f"},"vehicle_type_id":"4","last_reported":1731810068,"current_range_meters":16800,"station_id":"ce4bgv12rcd13ifvqcp0","pricing_plan_id":"cebpf4jnsgd1na2vs0mg"},{"bike_id":"db4a3c39-c602-4c14-bf61-77eae88de939","system_id":"levelo_inurba_marseille","lat":43.28368,"lon":5.38115,"is_reserved":false,"is_disabled":false,"rental_uris":{"android":"levelo://app?vid=db4a3c39-c602-4c14-bf61-77eae88de939","ios":"levelo://app?vid=db4a3c39-c602-4c14-bf61-77eae88de939"},"vehicle_type_id":"4","last_reported":1731810068,"current_range_meters":17600,"station_id":"ce4bh412rcd13ifvqdr0","pricing_plan_id":"cebpf4jnsgd1na2vs0mg"},{"bike_id":"d9ab48a2-5870-4a07-8651-e8aff256aae6","system_id":"levelo_inurba_marseille","lat":43.25929,"lon":5.40884,"is_reserved":false,"is_disabled":false,"rental_uris":{"android":"levelo://app?vid=d9ab48a2-5870-4a07-8651-e8aff256aae6","ios":"levelo://app?vid=d9ab48a2-5870-4a07-8651-e8aff256aae6"},"vehicle_type_id":"4","last_reported":1731810068,"current_range_meters":36800,"station_id":"ce4bhm92rcd13ifvqglg","pricing_plan_id":"cebpf4jnsgd1na2vs0mg"},{"bike_id":"90925457-87b8-44b0-a947-705f55ac3518","system_id":"levelo_inurba_marseille","lat":43.28286,"lon":5.35079,"is_reserved":false,"is_disabled":false,"rental_uris":{"android":"levelo://app?vid=90925457-87b8-44b0-a947-705f55ac3518","ios":"levelo://app?vid=90925457-87b8-44b0-a947-705f55ac3518"},"vehicle_type_id":"4","last_reported":1731810068,"current_range_meters":9600,"station_id":"ce4bhbp2rcd13ifvqerg","pricing_plan_id":"cebpf4jnsgd1na2vs0mg"},{"bike_id":"22729281-a652-4d0e-9935-de91a5d586ea","system_id":"levelo_inurba_marseille","lat":43.32066,"lon":5.41533,"is_reserved":false,"is_disabled":false,"rental_uris":{"android":"levelo://app?vid=22729281-a652-4d0e-9935-de91a5d586ea","ios":"levelo://app?vid=22729281-a652-4d0e-9935-de91a5d586ea"},"vehicle_type_id":"4","last_reported":1731810068,"current_range_meters":20400,"station_id":"ce4bhq92rcd13ifvqhkg","pricing_plan_id":"cebpf4jnsgd1na2vs0mg"},{"bike_id":"433949ed-544c-418f-a9f9-25e9b8a19fcf","system_id":"levelo_inurba_marseille","lat":43.28114,"lon":5.37831,"is_reserved":false,"is_disabled":false,"rental_uris":{"android":"levelo://app?vid=433949ed-544c-418f-a9f9-25e9b8a19fcf","ios":"levelo://app?vid=433949ed-544c-418f-a9f9-25e9b8a19fcf"},"vehicle_type_id":"4","last_reported":1731810068,"current_range_meters":36400,"station_id":"ce4bha12rcd13ifvqee0","pricing_plan_id":"cebpf4jnsgd1na2vs0mg"},{"bike_id":"9f92a7ac-738d-40f9-93b9-933c1f0ff525","system_id":"levelo_inurba_marseille","lat":43.3235,"lon":5.38901,"is_reserved":false,"is_disabled":false,"rental_uris":{"android":"levelo://app?vid=9f92a7ac-738d-40f9-93b9-933c1f0ff525","ios":"levelo://app?vid=9f92a7ac-738d-40f9-93b9-933c1f0ff525"},"vehicle_type_id":"4","last_reported":1731810068,"current_range_meters":22000,"station_id":"ce4bhqp2rcd13ifvqhog","pricing_plan_id":"cebpf4jnsgd1na2vs0mg"},{"bike_id":"e5b2dd91-6498-4dc7-9484-7e1da126be21","system_id":"levelo_inurba_marseille","lat":43.26196,"lon":5.3745,"is_reserved":false,"is_disabled":false,"rental_uris":{"android":"levelo://app?vid=e5b2dd91-6498-4dc7-9484-7e1da126be21","ios":"levelo://app?vid=e5b2dd91-6498-4dc7-9484-7e1da126be21"},"vehicle_type_id":"4","last_reported":1731810068,"current_range_meters":12800,"station_id":"ce4bhgp2rcd13ifvqfc0","pricing_plan_id":"cebpf4jnsgd1na2vs0mg"},{"bike_id":"78348635-2ae5-4a77-aae4-84f36ddd1ac4","system_id":"levelo_inurba_marseille","lat":43.27976,"lon":5.41648,"is_reserved":false,"is_disabled":false,"rental_uris":{"android":"levelo://app?vid=78348635-2ae5-4a77-aae4-84f36ddd1ac4","ios":"levelo://app?vid=78348635-2ae5-4a77-aae4-84f36ddd1ac4"},"vehicle_type_id":"4","last_reported":1731810068,"current_range_meters":28000,"station_id":"ce4bho12rcd13ifvqh1g","pricing_plan_id":"cebpf4jnsgd1na2vs0mg"},{"bike_id":"4b65d93a-a2e2-4e4e-a517-b94c00e506f8","system_id":"levelo_inurba_marseille","lat":43.30798,"lon":5.43522,"is_reserved":false,"is_disabled":false,"rental_uris":{"android":"levelo://app?vid=4b65d93a-a2e2-4e4e-a517-b94c00e506f8","ios":"levelo://app?vid=4b65d93a-a2e2-4e4e-a517-b94c00e506f8"},"vehicle_type_id":"4","last_reported":1731810068,"current_range_meters":8000,"station_id":"ce4bhph2rcd13ifvqheg","pricing_plan_id":"cebpf4jnsgd1na2vs0mg"},{"bike_id":"6812be0c-bf33-4852-96bf-44a22c1ff27d","system_id":"levelo_inurba_marseille","lat":43.26693,"lon":5.38256,"is_reserved":false,"is_disabled":false,"rental_uris":{"android":"levelo://app?vid=6812be0c-bf33-4852-96bf-44a22c1ff27d","ios":"levelo://app?vid=6812be0c-bf33-4852-96bf-44a22c1ff27d"},"vehicle_type_id":"4","last_reported":1731810068,"current_range_meters":25200,"station_id":"ce4bhg92rcd13ifvqf90","pricing_plan_id":"cebpf4jnsgd1na2vs0mg"},{"bike_id":"d54f2dfa-2ad2-469a-8720-163ef98eb87d","system_id":"levelo_inurba_marseille","lat":43.25095,"lon":5.39494,"is_reserved":false,"is_disabled":false,"rental_uris":{"android":"levelo://app?vid=d54f2dfa-2ad2-469a-8720-163ef98eb87d","ios":"levelo://app?vid=d54f2dfa-2ad2-469a-8720-163ef98eb87d"},"vehicle_type_id":"4","last_reported":1731810068,"current_range_meters":19600,"station_id":"ce4bhm12rcd13ifvqgkg","pricing_plan_id":"cebpf4jnsgd1na2vs0mg"},{"bike_id":"b680c145-b5fd-48aa-9ba1-ac91fb57fda9","system_id":"levelo_inurba_marseille","lat":43.31344,"lon":5.36704,"is_reserved":false,"is_disabled":false,"rental_uris":{"android":"levelo://app?vid=b680c145-b5fd-48aa-9ba1-ac91fb57fda9","ios":"levelo://app?vid=b680c145-b5fd-48aa-9ba1-ac91fb57fda9"},"vehicle_type_id":"4","last_reported":1731810068,"current_range_meters":17200,"station_id":"ce4bgr92rcd13ifvqc6g","pricing_plan_id":"cebpf4jnsgd1na2vs0mg"},{"bike_id":"dedbe598-ac0c-4e22-af0a-2f5863148f4b","system_id":"levelo_inurba_marseille","lat":43.31073,"lon":5.38361,"is_reserved":false,"is_disabled":false,"rental_uris":{"android":"levelo://app?vid=dedbe598-ac0c-4e22-af0a-2f5863148f4b","ios":"levelo://app?vid=dedbe598-ac0c-4e22-af0a-2f5863148f4b"},"vehicle_type_id":"4","last_reported":1731810068,"current_range_meters":38000,"station_id":"ce4bgv92rcd13ifvqcr0","pricing_plan_id":"cebpf4jnsgd1na2vs0mg"},{"bike_id":"40131c97-5534-4979-8808-2f9e4d317ef9","system_id":"levelo_inurba_marseille","lat":43.32346,"lon":5.40601,"is_reserved":false,"is_disabled":false,"rental_uris":{"android":"levelo://app?vid=40131c97-5534-4979-8808-2f9e4d317ef9","ios":"levelo://app?vid=40131c97-5534-4979-8808-2f9e4d317ef9"},"vehicle_type_id":"4","last_reported":1731810068,"current_range_meters":9600,"station_id":"ce4bhq92rcd13ifvqhjg","pricing_plan_id":"cebpf4jnsgd1na2vs0mg"},{"bike_id":"9b12e18f-b284-48fb-8e43-e7129e3d0a88","system_id":"levelo_inurba_marseille","lat":43.28974,"lon":5.37839,"is_reserved":false,"is_disabled":false,"rental_uris":{"android":"levelo://app?vid=9b12e18f-b284-48fb-8e43-e7129e3d0a88","ios":"levelo://app?vid=9b12e18f-b284-48fb-8e43-e7129e3d0a88"},"vehicle_type_id":"4","last_reported":1731810068,"current_range_meters":30400,"station_id":"ce4bh9p2rcd13ifvqed0","pricing_plan_id":"cebpf4jnsgd1na2vs0mg"},{"bike_id":"4f01fa73-c9c0-4fc0-986b-b2a94d270e4a","system_id":"levelo_inurba_marseille","lat":43.302519,"lon":5.400883,"is_reserved":false,"is_disabled":false,"rental_uris":{"android":"levelo://app?vid=4f01fa73-c9c0-4fc0-986b-b2a94d270e4a","ios":"levelo://app?vid=4f01fa73-c9c0-4fc0-986b-b2a94d270e4a"},"vehicle_type_id":"4","last_reported":1731810068,"current_range_meters":12400,"station_id":"ce4bgvh2rcd13ifvqcs0","pricing_plan_id":"cebpf4jnsgd1na2vs0mg"},{"bike_id":"6d757fef-4f26-43f9-ac2c-ffab39bf7dae","system_id":"levelo_inurba_marseille","lat":43.32249,"lon":5.36901,"is_reserved":false,"is_disabled":false,"rental_uris":{"android":"levelo://app?vid=6d757fef-4f26-43f9-ac2c-ffab39bf7dae","ios":"levelo://app?vid=6d757fef-4f26-43f9-ac2c-ffab39bf7dae"},"vehicle_type_id":"4","last_reported":1731810068,"current_range_meters":17200,"station_id":"","pricing_plan_id":"cebpf4jnsgd1na2vs0mg"},{"bike_id":"d61ade2d-2a62-45c7-aa0c-ad3400ec0ddf","system_id":"levelo_inurba_marseille","lat":43.29544,"lon":5.4227,"is_reserved":false,"is_disabled":false,"rental_uris":{"android":"levelo://app?vid=d61ade2d-2a62-45c7-aa0c-ad3400ec0ddf","ios":"levelo://app?vid=d61ade2d-2a62-45c7-aa0c-ad3400ec0ddf"},"vehicle_type_id":"4","last_reported":1731810068,"current_range_meters":39200,"station_id":"ce4bhph2rcd13ifvqhdg","pricing_plan_id":"cebpf4jnsgd1na2vs0mg"},{"bike_id":"172e75b7-2c27-416d-8cb9-e8c3a1cbb2e9","system_id":"levelo_inurba_marseille","lat":43.32356,"lon":5.38886,"is_reserved":false,"is_disabled":false,"rental_uris":{"android":"levelo://app?vid=172e75b7-2c27-416d-8cb9-e8c3a1cbb2e9","ios":"levelo://app?vid=172e75b7-2c27-416d-8cb9-e8c3a1cbb2e9"},"vehicle_type_id":"4","last_reported":1731810068,"current_range_meters":38800,"station_id":"ce4bhqp2rcd13ifvqhog","pricing_plan_id":"cebpf4jnsgd1na2vs0mg"},{"bike_id":"9cac2b15-10b2-4e98-a30f-39bcd15d6639","system_id":"levelo_inurba_marseille","lat":43.30415,"lon":5.41279,"is_reserved":false,"is_disabled":false,"rental_uris":{"android":"levelo://app?vid=9cac2b15-10b2-4e98-a30f-39bcd15d6639","ios":"levelo://app?vid=9cac2b15-10b2-4e98-a30f-39bcd15d6639"},"vehicle_type_id":"4","last_reported":1731810068,"current_range_meters":34000,"station_id":"ce4bhop2rcd13ifvqh8g","pricing_plan_id":"cebpf4jnsgd1na2vs0mg"},{"bike_id":"7282a18b-892f-48a5-ad5e-b8ee3d29abd0","system_id":"levelo_inurba_marseille","lat":43.30806,"lon":5.38148,"is_reserved":false,"is_disabled":false,"rental_uris":{"android":"levelo://app?vid=7282a18b-892f-48a5-ad5e-b8ee3d29abd0","ios":"levelo://app?vid=7282a18b-892f-48a5-ad5e-b8ee3d29abd0"},"vehicle_type_id":"4","last_reported":1731810068,"current_range_meters":30800,"station_id":"ce4bgt12rcd13ifvqce0","pricing_plan_id":"cebpf4jnsgd1na2vs0mg"},{"bike_id":"b66a4c5e-8277-41e3-b4be-fcff950cddd4","system_id":"levelo_inurba_marseille","lat":43.24646,"lon":5.38901,"is_reserved":false,"is_disabled":false,"rental_uris":{"android":"levelo://app?vid=b66a4c5e-8277-41e3-b4be-fcff950cddd4","ios":"levelo://app?vid=b66a4c5e-8277-41e3-b4be-fcff950cddd4"},"vehicle_type_id":"4","last_reported":1731810068,"current_range_meters":32000,"station_id":"ce4bhg12rcd13ifvqf60","pricing_plan_id":"cebpf4jnsgd1na2vs0mg"},{"bike_id":"53437ef7-ee07-4a39-81f3-2dc3ce6bea74","system_id":"levelo_inurba_marseille","lat":43.26565,"lon":5.37298,"is_reserved":false,"is_disabled":false,"rental_uris":{"android":"levelo://app?vid=53437ef7-ee07-4a39-81f3-2dc3ce6bea74","ios":"levelo://app?vid=53437ef7-ee07-4a39-81f3-2dc3ce6bea74"},"vehicle_type_id":"4","last_reported":1731810068,"current_range_meters":38800,"station_id":"ce4bhg12rcd13ifvqf70","pricing_plan_id":"cebpf4jnsgd1na2vs0mg"},{"bike_id":"91598634-d907-45c9-a592-1f86ec6d84b7","system_id":"levelo_inurba_marseille","lat":43.26781,"lon":5.39438,"is_reserved":false,"is_disabled":false,"rental_uris":{"android":"levelo://app?vid=91598634-d907-45c9-a592-1f86ec6d84b7","ios":"levelo://app?vid=91598634-d907-45c9-a592-1f86ec6d84b7"},"vehicle_type_id":"4","last_reported":1731810068,"current_range_meters":39200,"station_id":"ce4bhh12rcd13ifvqfg0","pricing_plan_id":"cebpf4jnsgd1na2vs0mg"},{"bike_id":"3cb028b2-e9b4-4b5d-869e-e3723400af16","system_id":"levelo_inurba_marseille","lat":43.33015,"lon":5.3904,"is_reserved":false,"is_disabled":false,"rental_uris":{"android":"levelo://app?vid=3cb028b2-e9b4-4b5d-869e-e3723400af16","ios":"levelo://app?vid=3cb028b2-e9b4-4b5d-869e-e3723400af16"},"vehicle_type_id":"4","last_reported":1731810068,"current_range_meters":34800,"station_id":"ce4bhr92rcd13ifvqhrg","pricing_plan_id":"cebpf4jnsgd1na2vs0mg"},{"bike_id":"dbafefb7-6744-41ac-ba21-e08eb13be5fe","system_id":"levelo_inurba_marseille","lat":43.24069,"lon":5.37731,"is_reserved":false,"is_disabled":false,"rental_uris":{"android":"levelo://app?vid=dbafefb7-6744-41ac-ba21-e08eb13be5fe","ios":"levelo://app?vid=dbafefb7-6744-41ac-ba21-e08eb13be5fe"},"vehicle_type_id":"4","last_reported":1731810068,"current_range_meters":38400,"station_id":"ce4bhnp2rcd13ifvqgvg","pricing_plan_id":"cebpf4jnsgd1na2vs0mg"},{"bike_id":"c06ac134-ba79-48c7-9d78-9369aa6d16dc","system_id":"levelo_inurba_marseille","lat":43.29266,"lon":5.4018,"is_reserved":false,"is_disabled":false,"rental_uris":{"android":"levelo://app?vid=c06ac134-ba79-48c7-9d78-9369aa6d16dc","ios":"levelo://app?vid=c06ac134-ba79-48c7-9d78-9369aa6d16dc"},"vehicle_type_id":"4","last_reported":1731810068,"current_range_meters":28000,"station_id":"ce4bh312rcd13ifvqdk0","pricing_plan_id":"cebpf4jnsgd1na2vs0mg"},{"bike_id":"41d65b65-9c37-49eb-ace4-aa151d422e10","system_id":"levelo_inurba_marseille","lat":43.31171,"lon":5.38709,"is_reserved":false,"is_disabled":false,"rental_uris":{"android":"levelo://app?vid=41d65b65-9c37-49eb-ace4-aa151d422e10","ios":"levelo://app?vid=41d65b65-9c37-49eb-ace4-aa151d422e10"},"vehicle_type_id":"4","last_reported":1731810068,"current_range_meters":24400,"station_id":"ce4bgv12rcd13ifvqcp0","pricing_plan_id":"cebpf4jnsgd1na2vs0mg"},{"bike_id":"432a4d77-23aa-4e43-834c-bf5e91db3985","system_id":"levelo_inurba_marseille","lat":43.3033,"lon":5.40433,"is_reserved":false,"is_disabled":false,"rental_uris":{"android":"levelo://app?vid=432a4d77-23aa-4e43-834c-bf5e91db3985","ios":"levelo://app?vid=432a4d77-23aa-4e43-834c-bf5e91db3985"},"vehicle_type_id":"4","last_reported":1731810068,"current_range_meters":17600,"station_id":"ce4bh012rcd13ifvqd10","pricing_plan_id":"cebpf4jnsgd1na2vs0mg"},{"bike_id":"a7f9b1ff-073c-4bb9-865b-47d795a80a25","system_id":"levelo_inurba_marseille","lat":43.27992,"lon":5.41658,"is_reserved":false,"is_disabled":false,"rental_uris":{"android":"levelo://app?vid=a7f9b1ff-073c-4bb9-865b-47d795a80a25","ios":"levelo://app?vid=a7f9b1ff-073c-4bb9-865b-47d795a80a25"},"vehicle_type_id":"4","last_reported":1731810068,"current_range_meters":30000,"station_id":"ce4bho12rcd13ifvqh1g","pricing_plan_id":"cebpf4jnsgd1na2vs0mg"},{"bike_id":"164fbc1d-42da-4045-a100-0c0898f1f976","system_id":"levelo_inurba_marseille","lat":43.28705,"lon":5.37389,"is_reserved":false,"is_disabled":false,"rental_uris":{"android":"levelo://app?vid=164fbc1d-42da-4045-a100-0c0898f1f976","ios":"levelo://app?vid=164fbc1d-42da-4045-a100-0c0898f1f976"},"vehicle_type_id":"4","last_reported":1731810068,"current_range_meters":39200,"station_id":"ce4bh3p2rcd13ifvqdq0","pricing_plan_id":"cebpf4jnsgd1na2vs0mg"},{"bike_id":"a4e8e96c-867e-4521-9861-087b3f6c78bd","system_id":"levelo_inurba_marseille","lat":43.25006,"lon":5.3893,"is_reserved":false,"is_disabled":false,"rental_uris":{"android":"levelo://app?vid=a4e8e96c-867e-4521-9861-087b3f6c78bd","ios":"levelo://app?vid=a4e8e96c-867e-4521-9861-087b3f6c78bd"},"vehicle_type_id":"4","last_reported":1731810068,"current_range_meters":38800,"station_id":"ce4bhgp2rcd13ifvqfd0","pricing_plan_id":"cebpf4jnsgd1na2vs0mg"},{"bike_id":"34086fed-aa86-4e74-a4e7-9fb1ff2b340d","system_id":"levelo_inurba_marseille","lat":43.27164,"lon":5.40992,"is_reserved":false,"is_disabled":false,"rental_uris":{"android":"levelo://app?vid=34086fed-aa86-4e74-a4e7-9fb1ff2b340d","ios":"levelo://app?vid=34086fed-aa86-4e74-a4e7-9fb1ff2b340d"},"vehicle_type_id":"4","last_reported":1731810068,"current_range_meters":36800,"station_id":"ce4bhl12rcd13ifvqgf0","pricing_plan_id":"cebpf4jnsgd1na2vs0mg"},{"bike_id":"9b255d94-ee94-41ce-968c-16898d9f52f3","system_id":"levelo_inurba_marseille","lat":43.23964,"lon":5.36634,"is_reserved":false,"is_disabled":false,"rental_uris":{"android":"levelo://app?vid=9b255d94-ee94-41ce-968c-16898d9f52f3","ios":"levelo://app?vid=9b255d94-ee94-41ce-968c-16898d9f52f3"},"vehicle_type_id":"4","last_reported":1731810068,"current_range_meters":38800,"station_id":"ce4bhi12rcd13ifvqfp0","pricing_plan_id":"cebpf4jnsgd1na2vs0mg"},{"bike_id":"693680f3-24ea-4d4e-87cf-4344e3551ab7","system_id":"levelo_inurba_marseille","lat":43.25864,"lon":5.39902,"is_reserved":false,"is_disabled":false,"rental_uris":{"android":"levelo://app?vid=693680f3-24ea-4d4e-87cf-4344e3551ab7","ios":"levelo://app?vid=693680f3-24ea-4d4e-87cf-4344e3551ab7"},"vehicle_type_id":"4","last_reported":1731810068,"current_range_meters":8400,"station_id":"ce4bhl92rcd13ifvqghg","pricing_plan_id":"cebpf4jnsgd1na2vs0mg"},{"bike_id":"1f7ddd9a-7ae1-4f47-aa3a-c9c9bc8358da","system_id":"levelo_inurba_marseille","lat":43.25598,"lon":5.38238,"is_reserved":false,"is_disabled":false,"rental_uris":{"android":"levelo://app?vid=1f7ddd9a-7ae1-4f47-aa3a-c9c9bc8358da","ios":"levelo://app?vid=1f7ddd9a-7ae1-4f47-aa3a-c9c9bc8358da"},"vehicle_type_id":"4","last_reported":1731810068,"current_range_meters":39200,"station_id":"ce4bhih2rcd13ifvqfs0","pricing_plan_id":"cebpf4jnsgd1na2vs0mg"},{"bike_id":"eb93b13e-d79d-4675-a72c-ca067641e771","system_id":"levelo_inurba_marseille","lat":43.25111,"lon":5.40317,"is_reserved":false,"is_disabled":false,"rental_uris":{"android":"levelo://app?vid=eb93b13e-d79d-4675-a72c-ca067641e771","ios":"levelo://app?vid=eb93b13e-d79d-4675-a72c-ca067641e771"},"vehicle_type_id":"4","last_reported":1731810068,"current_range_meters":30000,"station_id":"ce4bhlh2rcd13ifvqgig","pricing_plan_id":"cebpf4jnsgd1na2vs0mg"},{"bike_id":"972db6ff-b89e-4583-a33f-05e987ddd676","system_id":"levelo_inurba_marseille","lat":43.31714,"lon":5.43694,"is_reserved":false,"is_disabled":false,"rental_uris":{"android":"levelo://app?vid=972db6ff-b89e-4583-a33f-05e987ddd676","ios":"levelo://app?vid=972db6ff-b89e-4583-a33f-05e987ddd676"},"vehicle_type_id":"4","last_reported":1731810068,"current_range_meters":27600,"station_id":"ce4bhp92rcd13ifvqhcg","pricing_plan_id":"cebpf4jnsgd1na2vs0mg"},{"bike_id":"cc8f0397-cd92-46fd-9a26-a79b795ba590","system_id":"levelo_inurba_marseille","lat":43.28346,"lon":5.3811,"is_reserved":false,"is_disabled":false,"rental_uris":{"android":"levelo://app?vid=cc8f0397-cd92-46fd-9a26-a79b795ba590","ios":"levelo://app?vid=cc8f0397-cd92-46fd-9a26-a79b795ba590"},"vehicle_type_id":"4","last_reported":1731810068,"current_range_meters":38800,"station_id":"ce4bh412rcd13ifvqdr0","pricing_plan_id":"cebpf4jnsgd1na2vs0mg"},{"bike_id":"d4cf1962-c4fc-4987-82ad-e066e34a5012","system_id":"levelo_inurba_marseille","lat":43.34143,"lon":5.40897,"is_reserved":false,"is_disabled":false,"rental_uris":{"android":"levelo://app?vid=d4cf1962-c4fc-4987-82ad-e066e34a5012","ios":"levelo://app?vid=d4cf1962-c4fc-4987-82ad-e066e34a5012"},"vehicle_type_id":"4","last_reported":1731810068,"current_range_meters":39200,"station_id":"ce4bhqh2rcd13ifvqhlg","pricing_plan_id":"cebpf4jnsgd1na2vs0mg"},{"bike_id":"e2415f3f-5249-4f59-8e05-0d8db28b1a9c","system_id":"levelo_inurba_marseille","lat":43.30342,"lon":5.40431,"is_reserved":false,"is_disabled":false,"rental_uris":{"android":"levelo://app?vid=e2415f3f-5249-4f59-8e05-0d8db28b1a9c","ios":"levelo://app?vid=e2415f3f-5249-4f59-8e05-0d8db28b1a9c"},"vehicle_type_id":"4","last_reported":1731810068,"current_range_meters":36400,"station_id":"ce4bh012rcd13ifvqd10","pricing_plan_id":"cebpf4jnsgd1na2vs0mg"},{"bike_id":"55de28cf-e37c-4724-b81f-8a648780c5b9","system_id":"levelo_inurba_marseille","lat":43.23195,"lon":5.35553,"is_reserved":false,"is_disabled":false,"rental_uris":{"android":"levelo://app?vid=55de28cf-e37c-4724-b81f-8a648780c5b9","ios":"levelo://app?vid=55de28cf-e37c-4724-b81f-8a648780c5b9"},"vehicle_type_id":"4","last_reported":1731810068,"current_range_meters":36800,"station_id":"ce4bhu92rcd13ifvqi70","pricing_plan_id":"cebpf4jnsgd1na2vs0mg"},{"bike_id":"38305c7f-707a-4b5f-8b27-363b1d1108ca","system_id":"levelo_inurba_marseille","lat":43.28075,"lon":5.39649,"is_reserved":false,"is_disabled":false,"rental_uris":{"android":"levelo://app?vid=38305c7f-707a-4b5f-8b27-363b1d1108ca","ios":"levelo://app?vid=38305c7f-707a-4b5f-8b27-363b1d1108ca"},"vehicle_type_id":"4","last_reported":1731810068,"current_range_meters":37600,"station_id":"ce4bho12rcd13ifvqh2g","pricing_plan_id":"cebpf4jnsgd1na2vs0mg"},{"bike_id":"b79639c8-f683-439e-96da-8387beb8a08f","system_id":"levelo_inurba_marseille","lat":43.31081,"lon":5.42426,"is_reserved":false,"is_disabled":false,"rental_uris":{"android":"levelo://app?vid=b79639c8-f683-439e-96da-8387beb8a08f","ios":"levelo://app?vid=b79639c8-f683-439e-96da-8387beb8a08f"},"vehicle_type_id":"4","last_reported":1731810068,"current_range_meters":25200,"station_id":"ce4bhp92rcd13ifvqhag","pricing_plan_id":"cebpf4jnsgd1na2vs0mg"},{"bike_id":"0096dac0-07b9-4fb1-885e-c11d86e6b711","system_id":"levelo_inurba_marseille","lat":43.30956,"lon":5.39033,"is_reserved":false,"is_disabled":false,"rental_uris":{"android":"levelo://app?vid=0096dac0-07b9-4fb1-885e-c11d86e6b711","ios":"levelo://app?vid=0096dac0-07b9-4fb1-885e-c11d86e6b711"},"vehicle_type_id":"4","last_reported":1731810068,"current_range_meters":39200,"station_id":"ce4bgup2rcd13ifvqco0","pricing_plan_id":"cebpf4jnsgd1na2vs0mg"},{"bike_id":"d9e5a9a0-4575-4246-b60b-b13f94cf19c6","system_id":"levelo_inurba_marseille","lat":43.29533,"lon":5.39401,"is_reserved":false,"is_disabled":false,"rental_uris":{"android":"levelo://app?vid=d9e5a9a0-4575-4246-b60b-b13f94cf19c6","ios":"levelo://app?vid=d9e5a9a0-4575-4246-b60b-b13f94cf19c6"},"vehicle_type_id":"4","last_reported":1731810068,"current_range_meters":38400,"station_id":"ce4bh292rcd13ifvqdf0","pricing_plan_id":"cebpf4jnsgd1na2vs0mg"},{"bike_id":"cc7eaf9b-2c4d-496e-a8c3-41a4a3313bb9","system_id":"levelo_inurba_marseille","lat":43.32659,"lon":5.40982,"is_reserved":false,"is_disabled":false,"rental_uris":{"android":"levelo://app?vid=cc7eaf9b-2c4d-496e-a8c3-41a4a3313bb9","ios":"levelo://app?vid=cc7eaf9b-2c4d-496e-a8c3-41a4a3313bb9"},"vehicle_type_id":"4","last_reported":1731810068,"current_range_meters":38800,"station_id":"ce4bhpp2rcd13ifvqhgg","pricing_plan_id":"cebpf4jnsgd1na2vs0mg"},{"bike_id":"aaaf8aae-53a7-46f2-bc5a-7b42ea1053b6","system_id":"levelo_inurba_marseille","lat":43.27805,"lon":5.4071,"is_reserved":false,"is_disabled":false,"rental_uris":{"android":"levelo://app?vid=aaaf8aae-53a7-46f2-bc5a-7b42ea1053b6","ios":"levelo://app?vid=aaaf8aae-53a7-46f2-bc5a-7b42ea1053b6"},"vehicle_type_id":"4","last_reported":1731810068,"current_range_meters":40000,"station_id":"ce4bhnh2rcd13ifvqgtg","pricing_plan_id":"cebpf4jnsgd1na2vs0mg"},{"bike_id":"6926a87c-5739-4741-9d0f-4b148ee18c3c","system_id":"levelo_inurba_marseille","lat":43.27073,"lon":5.4228,"is_reserved":false,"is_disabled":false,"rental_uris":{"android":"levelo://app?vid=6926a87c-5739-4741-9d0f-4b148ee18c3c","ios":"levelo://app?vid=6926a87c-5739-4741-9d0f-4b148ee18c3c"},"vehicle_type_id":"4","last_reported":1731810068,"current_range_meters":4000,"station_id":"ce4bhk92rcd13ifvqgb0","pricing_plan_id":"cebpf4jnsgd1na2vs0mg"},{"bike_id":"8f9d75ff-a43a-4183-a50f-1179905854c6","system_id":"levelo_inurba_marseille","lat":43.3055,"lon":5.38423,"is_reserved":false,"is_disabled":false,"rental_uris":{"android":"levelo://app?vid=8f9d75ff-a43a-4183-a50f-1179905854c6","ios":"levelo://app?vid=8f9d75ff-a43a-4183-a50f-1179905854c6"},"vehicle_type_id":"4","last_reported":1731810068,"current_range_meters":38800,"station_id":"ce4bgg92rcd13ifvqb30","pricing_plan_id":"cebpf4jnsgd1na2vs0mg"},{"bike_id":"eb9a84f5-6092-4dc4-a3c0-a07efb437c77","system_id":"levelo_inurba_marseille","lat":43.33768,"lon":5.37422,"is_reserved":false,"is_disabled":false,"rental_uris":{"android":"levelo://app?vid=eb9a84f5-6092-4dc4-a3c0-a07efb437c77","ios":"levelo://app?vid=eb9a84f5-6092-4dc4-a3c0-a07efb437c77"},"vehicle_type_id":"4","last_reported":1731810068,"current_range_meters":8000,"station_id":"","pricing_plan_id":"cebpf4jnsgd1na2vs0mg"},{"bike_id":"db5ce6e8-bb75-48c2-a390-a3f436007695","system_id":"levelo_inurba_marseille","lat":43.28849,"lon":5.35832,"is_reserved":false,"is_disabled":false,"rental_uris":{"android":"levelo://app?vid=db5ce6e8-bb75-48c2-a390-a3f436007695","ios":"levelo://app?vid=db5ce6e8-bb75-48c2-a390-a3f436007695"},"vehicle_type_id":"4","last_reported":1731810068,"current_range_meters":35200,"station_id":"ce4bhb12rcd13ifvqem0","pricing_plan_id":"cebpf4jnsgd1na2vs0mg"},{"bike_id":"32422ef7-b5e8-405f-a615-240c7edd73f4","system_id":"levelo_inurba_marseille","lat":43.31175,"lon":5.38729,"is_reserved":false,"is_disabled":false,"rental_uris":{"android":"levelo://app?vid=32422ef7-b5e8-405f-a615-240c7edd73f4","ios":"levelo://app?vid=32422ef7-b5e8-405f-a615-240c7edd73f4"},"vehicle_type_id":"4","last_reported":1731810068,"current_range_meters":23200,"station_id":"ce4bgv12rcd13ifvqcp0","pricing_plan_id":"cebpf4jnsgd1na2vs0mg"},{"bike_id":"cb069ee8-abe9-4959-8278-7d741596f171","system_id":"levelo_inurba_marseille","lat":43.3041,"lon":5.41302,"is_reserved":false,"is_disabled":false,"rental_uris":{"android":"levelo://app?vid=cb069ee8-abe9-4959-8278-7d741596f171","ios":"levelo://app?vid=cb069ee8-abe9-4959-8278-7d741596f171"},"vehicle_type_id":"4","last_reported":1731810068,"current_range_meters":24800,"station_id":"ce4bhop2rcd13ifvqh8g","pricing_plan_id":"cebpf4jnsgd1na2vs0mg"},{"bike_id":"d88b7fc7-f231-498f-9588-ffbda47921d6","system_id":"levelo_inurba_marseille","lat":43.3089,"lon":5.3961,"is_reserved":false,"is_disabled":false,"rental_uris":{"android":"levelo://app?vid=d88b7fc7-f231-498f-9588-ffbda47921d6","ios":"levelo://app?vid=d88b7fc7-f231-498f-9588-ffbda47921d6"},"vehicle_type_id":"4","last_reported":1731810068,"current_range_meters":24000,"station_id":"ce4bh012rcd13ifvqcv0","pricing_plan_id":"cebpf4jnsgd1na2vs0mg"},{"bike_id":"22ea48db-755d-43c3-a7d2-0beff01815d8","system_id":"levelo_inurba_marseille","lat":43.337691,"lon":5.374309,"is_reserved":false,"is_disabled":false,"rental_uris":{"android":"levelo://app?vid=22ea48db-755d-43c3-a7d2-0beff01815d8","ios":"levelo://app?vid=22ea48db-755d-43c3-a7d2-0beff01815d8"},"vehicle_type_id":"4","last_reported":1731810068,"current_range_meters":9600,"station_id":"","pricing_plan_id":"cebpf4jnsgd1na2vs0mg"},{"bike_id":"e572c8c8-2c29-468a-9de9-47bf2d2e9b00","system_id":"levelo_inurba_marseille","lat":43.27499,"lon":5.42462,"is_reserved":false,"is_disabled":false,"rental_uris":{"android":"levelo://app?vid=e572c8c8-2c29-468a-9de9-47bf2d2e9b00","ios":"levelo://app?vid=e572c8c8-2c29-468a-9de9-47bf2d2e9b00"},"vehicle_type_id":"4","last_reported":1731810068,"current_range_meters":30000,"station_id":"ce4bhn92rcd13ifvqgrg","pricing_plan_id":"cebpf4jnsgd1na2vs0mg"},{"bike_id":"103382d6-ae1b-4a2e-b6c9-db019482ab2a","system_id":"levelo_inurba_marseille","lat":43.31888,"lon":5.40724,"is_reserved":false,"is_disabled":false,"rental_uris":{"android":"levelo://app?vid=103382d6-ae1b-4a2e-b6c9-db019482ab2a","ios":"levelo://app?vid=103382d6-ae1b-4a2e-b6c9-db019482ab2a"},"vehicle_type_id":"4","last_reported":1731810068,"current_range_meters":37600,"station_id":"ce4bhq12rcd13ifvqhig","pricing_plan_id":"cebpf4jnsgd1na2vs0mg"},{"bike_id":"eacd9ebb-691f-4a83-85ee-81beefc74253","system_id":"levelo_inurba_marseille","lat":43.33722,"lon":5.39191,"is_reserved":false,"is_disabled":false,"rental_uris":{"android":"levelo://app?vid=eacd9ebb-691f-4a83-85ee-81beefc74253","ios":"levelo://app?vid=eacd9ebb-691f-4a83-85ee-81beefc74253"},"vehicle_type_id":"4","last_reported":1731810068,"current_range_meters":38800,"station_id":"ce4bhr92rcd13ifvqhsg","pricing_plan_id":"cebpf4jnsgd1na2vs0mg"},{"bike_id":"a1862017-f597-4949-a306-4d7c53cc8b86","system_id":"levelo_inurba_marseille","lat":43.24169,"lon":5.364,"is_reserved":false,"is_disabled":false,"rental_uris":{"android":"levelo://app?vid=a1862017-f597-4949-a306-4d7c53cc8b86","ios":"levelo://app?vid=a1862017-f597-4949-a306-4d7c53cc8b86"},"vehicle_type_id":"4","last_reported":1731810068,"current_range_meters":10000,"station_id":"cpo36qri1sfpv3e86is0","pricing_plan_id":"cebpf4jnsgd1na2vs0mg"},{"bike_id":"93d2376b-d24b-4c4a-bf7c-d9d7da5c25f0","system_id":"levelo_inurba_marseille","lat":43.23062,"lon":5.35493,"is_reserved":false,"is_disabled":false,"rental_uris":{"android":"levelo://app?vid=93d2376b-d24b-4c4a-bf7c-d9d7da5c25f0","ios":"levelo://app?vid=93d2376b-d24b-4c4a-bf7c-d9d7da5c25f0"},"vehicle_type_id":"4","last_reported":1731810068,"current_range_meters":15200,"station_id":"cpo3342slgdg3j2ifvpg","pricing_plan_id":"cebpf4jnsgd1na2vs0mg"},{"bike_id":"eb0b6258-25b5-4174-825d-16bccd206154","system_id":"levelo_inurba_marseille","lat":43.33022,"lon":5.39037,"is_reserved":false,"is_disabled":false,"rental_uris":{"android":"levelo://app?vid=eb0b6258-25b5-4174-825d-16bccd206154","ios":"levelo://app?vid=eb0b6258-25b5-4174-825d-16bccd206154"},"vehicle_type_id":"4","last_reported":1731810068,"current_range_meters":6800,"station_id":"ce4bhr92rcd13ifvqhrg","pricing_plan_id":"cebpf4jnsgd1na2vs0mg"},{"bike_id":"ca655f3b-8380-4045-b3f8-8acaa0e83ede","system_id":"levelo_inurba_marseille","lat":43.33739,"lon":5.37423,"is_reserved":false,"is_disabled":false,"rental_uris":{"android":"levelo://app?vid=ca655f3b-8380-4045-b3f8-8acaa0e83ede","ios":"levelo://app?vid=ca655f3b-8380-4045-b3f8-8acaa0e83ede"},"vehicle_type_id":"4","last_reported":1731810068,"current_range_meters":35200,"station_id":"","pricing_plan_id":"cebpf4jnsgd1na2vs0mg"},{"bike_id":"551c1d7d-efb2-4ef3-9e00-e6872760014c","system_id":"levelo_inurba_marseille","lat":43.30795,"lon":5.38136,"is_reserved":false,"is_disabled":false,"rental_uris":{"android":"levelo://app?vid=551c1d7d-efb2-4ef3-9e00-e6872760014c","ios":"levelo://app?vid=551c1d7d-efb2-4ef3-9e00-e6872760014c"},"vehicle_type_id":"4","last_reported":1731810068,"current_range_meters":36400,"station_id":"ce4bgt12rcd13ifvqce0","pricing_plan_id":"cebpf4jnsgd1na2vs0mg"},{"bike_id":"da4a638c-0207-4f4c-9f65-d63a66b15fa0","system_id":"levelo_inurba_marseille","lat":43.28438,"lon":5.39172,"is_reserved":false,"is_disabled":false,"rental_uris":{"android":"levelo://app?vid=da4a638c-0207-4f4c-9f65-d63a66b15fa0","ios":"levelo://app?vid=da4a638c-0207-4f4c-9f65-d63a66b15fa0"},"vehicle_type_id":"4","last_reported":1731810068,"current_range_meters":33200,"station_id":"ce4bhoh2rcd13ifvqh5g","pricing_plan_id":"cebpf4jnsgd1na2vs0mg"},{"bike_id":"a6b8c285-acc9-4039-9531-1aae39136a33","system_id":"levelo_inurba_marseille","lat":43.312042,"lon":5.367348,"is_reserved":false,"is_disabled":false,"rental_uris":{"android":"levelo://app?vid=a6b8c285-acc9-4039-9531-1aae39136a33","ios":"levelo://app?vid=a6b8c285-acc9-4039-9531-1aae39136a33"},"vehicle_type_id":"4","last_reported":1731810068,"current_range_meters":12400,"station_id":"","pricing_plan_id":"cebpf4jnsgd1na2vs0mg"},{"bike_id":"04e579be-d930-46e5-bb29-40fdc45896e1","system_id":"levelo_inurba_marseille","lat":43.3264,"lon":5.36221,"is_reserved":false,"is_disabled":false,"rental_uris":{"android":"levelo://app?vid=04e579be-d930-46e5-bb29-40fdc45896e1","ios":"levelo://app?vid=04e579be-d930-46e5-bb29-40fdc45896e1"},"vehicle_type_id":"4","last_reported":1731810068,"current_range_meters":8000,"station_id":"","pricing_plan_id":"cebpf4jnsgd1na2vs0mg"},{"bike_id":"37b940f2-53f1-40b3-bcdc-a092eab2c248","system_id":"levelo_inurba_marseille","lat":43.23952,"lon":5.36635,"is_reserved":false,"is_disabled":false,"rental_uris":{"android":"levelo://app?vid=37b940f2-53f1-40b3-bcdc-a092eab2c248","ios":"levelo://app?vid=37b940f2-53f1-40b3-bcdc-a092eab2c248"},"vehicle_type_id":"4","last_reported":1731810068,"current_range_meters":24000,"station_id":"ce4bhi12rcd13ifvqfp0","pricing_plan_id":"cebpf4jnsgd1na2vs0mg"},{"bike_id":"3ffb823b-a005-46a1-827f-d711c4c21260","system_id":"levelo_inurba_marseille","lat":43.29572,"lon":5.42278,"is_reserved":false,"is_disabled":false,"rental_uris":{"android":"levelo://app?vid=3ffb823b-a005-46a1-827f-d711c4c21260","ios":"levelo://app?vid=3ffb823b-a005-46a1-827f-d711c4c21260"},"vehicle_type_id":"4","last_reported":1731810068,"current_range_meters":17200,"station_id":"ce4bhph2rcd13ifvqhdg","pricing_plan_id":"cebpf4jnsgd1na2vs0mg"},{"bike_id":"e4e7e038-935b-4990-ae2a-9c99c27a3ef5","system_id":"levelo_inurba_marseille","lat":43.3118,"lon":5.38713,"is_reserved":false,"is_disabled":false,"rental_uris":{"android":"levelo://app?vid=e4e7e038-935b-4990-ae2a-9c99c27a3ef5","ios":"levelo://app?vid=e4e7e038-935b-4990-ae2a-9c99c27a3ef5"},"vehicle_type_id":"4","last_reported":1731810068,"current_range_meters":38400,"station_id":"ce4bgv12rcd13ifvqcp0","pricing_plan_id":"cebpf4jnsgd1na2vs0mg"},{"bike_id":"900707cc-26f2-4ea2-8fed-9690c6b8ed62","system_id":"levelo_inurba_marseille","lat":43.2559,"lon":5.38266,"is_reserved":false,"is_disabled":false,"rental_uris":{"android":"levelo://app?vid=900707cc-26f2-4ea2-8fed-9690c6b8ed62","ios":"levelo://app?vid=900707cc-26f2-4ea2-8fed-9690c6b8ed62"},"vehicle_type_id":"4","last_reported":1731810068,"current_range_meters":20000,"station_id":"ce4bhih2rcd13ifvqfs0","pricing_plan_id":"cebpf4jnsgd1na2vs0mg"},{"bike_id":"74a49f8a-6f66-4e91-a001-465c7e9008d2","system_id":"levelo_inurba_marseille","lat":43.29564,"lon":5.4228,"is_reserved":false,"is_disabled":false,"rental_uris":{"android":"levelo://app?vid=74a49f8a-6f66-4e91-a001-465c7e9008d2","ios":"levelo://app?vid=74a49f8a-6f66-4e91-a001-465c7e9008d2"},"vehicle_type_id":"4","last_reported":1731810068,"current_range_meters":36800,"station_id":"ce4bhph2rcd13ifvqhdg","pricing_plan_id":"cebpf4jnsgd1na2vs0mg"},{"bike_id":"66a5c39d-31e8-48a9-b3bb-83880453de48","system_id":"levelo_inurba_marseille","lat":43.29934,"lon":5.37446,"is_reserved":false,"is_disabled":false,"rental_uris":{"android":"levelo://app?vid=66a5c39d-31e8-48a9-b3bb-83880453de48","ios":"levelo://app?vid=66a5c39d-31e8-48a9-b3bb-83880453de48"},"vehicle_type_id":"4","last_reported":1731810068,"current_range_meters":38000,"station_id":"ce4bgjh2rcd13ifvqbg0","pricing_plan_id":"cebpf4jnsgd1na2vs0mg"},{"bike_id":"3e3b2893-2700-445f-8ce1-a9e9bbe930d8","system_id":"levelo_inurba_marseille","lat":43.31072,"lon":5.38358,"is_reserved":false,"is_disabled":false,"rental_uris":{"android":"levelo://app?vid=3e3b2893-2700-445f-8ce1-a9e9bbe930d8","ios":"levelo://app?vid=3e3b2893-2700-445f-8ce1-a9e9bbe930d8"},"vehicle_type_id":"4","last_reported":1731810068,"current_range_meters":18000,"station_id":"ce4bgv92rcd13ifvqcr0","pricing_plan_id":"cebpf4jnsgd1na2vs0mg"},{"bike_id":"56075252-74df-41bd-8879-5a4ae6ac7900","system_id":"levelo_inurba_marseille","lat":43.24397,"lon":5.37048,"is_reserved":false,"is_disabled":false,"rental_uris":{"android":"levelo://app?vid=56075252-74df-41bd-8879-5a4ae6ac7900","ios":"levelo://app?vid=56075252-74df-41bd-8879-5a4ae6ac7900"},"vehicle_type_id":"4","last_reported":1731810068,"current_range_meters":16000,"station_id":"ce4bhhh2rcd13ifvqfk0","pricing_plan_id":"cebpf4jnsgd1na2vs0mg"},{"bike_id":"056a94b6-4f3f-4f91-8ff9-1afc6326f8f2","system_id":"levelo_inurba_marseille","lat":43.3064,"lon":5.40076,"is_reserved":false,"is_disabled":false,"rental_uris":{"android":"levelo://app?vid=056a94b6-4f3f-4f91-8ff9-1afc6326f8f2","ios":"levelo://app?vid=056a94b6-4f3f-4f91-8ff9-1afc6326f8f2"},"vehicle_type_id":"4","last_reported":1731810068,"current_range_meters":39200,"station_id":"ce4bh112rcd13ifvqda0","pricing_plan_id":"cebpf4jnsgd1na2vs0mg"},{"bike_id":"776c19bb-9271-4d1b-b450-71b28ade05f5","system_id":"levelo_inurba_marseille","lat":43.23192,"lon":5.35561,"is_reserved":false,"is_disabled":false,"rental_uris":{"android":"levelo://app?vid=776c19bb-9271-4d1b-b450-71b28ade05f5","ios":"levelo://app?vid=776c19bb-9271-4d1b-b450-71b28ade05f5"},"vehicle_type_id":"4","last_reported":1731810068,"current_range_meters":36800,"station_id":"ce4bhu92rcd13ifvqi70","pricing_plan_id":"cebpf4jnsgd1na2vs0mg"},{"bike_id":"3731846e-2218-45f1-ac96-76a41185ff9d","system_id":"levelo_inurba_marseille","lat":43.24169,"lon":5.36403,"is_reserved":false,"is_disabled":false,"rental_uris":{"android":"levelo://app?vid=3731846e-2218-45f1-ac96-76a41185ff9d","ios":"levelo://app?vid=3731846e-2218-45f1-ac96-76a41185ff9d"},"vehicle_type_id":"4","last_reported":1731810068,"current_range_meters":38000,"station_id":"cpo36qri1sfpv3e86is0","pricing_plan_id":"cebpf4jnsgd1na2vs0mg"},{"bike_id":"76f4890c-957d-48ca-a3e0-c7a9a9d95cd2","system_id":"levelo_inurba_marseille","lat":43.31991,"lon":5.38132,"is_reserved":false,"is_disabled":false,"rental_uris":{"android":"levelo://app?vid=76f4890c-957d-48ca-a3e0-c7a9a9d95cd2","ios":"levelo://app?vid=76f4890c-957d-48ca-a3e0-c7a9a9d95cd2"},"vehicle_type_id":"4","last_reported":1731810068,"current_range_meters":30400,"station_id":"ce4bhr12rcd13ifvqhpg","pricing_plan_id":"cebpf4jnsgd1na2vs0mg"},{"bike_id":"1ab38242-77f0-4584-96b9-0f51cafaaa3b","system_id":"levelo_inurba_marseille","lat":43.29795,"lon":5.39334,"is_reserved":false,"is_disabled":false,"rental_uris":{"android":"levelo://app?vid=1ab38242-77f0-4584-96b9-0f51cafaaa3b","ios":"levelo://app?vid=1ab38242-77f0-4584-96b9-0f51cafaaa3b"},"vehicle_type_id":"4","last_reported":1731810068,"current_range_meters":36800,"station_id":"chh1huq6cuj3fo74tm60","pricing_plan_id":"cebpf4jnsgd1na2vs0mg"},{"bike_id":"92ac4858-87d6-4ceb-8f6e-004635a816a8","system_id":"levelo_inurba_marseille","lat":43.27783,"lon":5.40728,"is_reserved":false,"is_disabled":false,"rental_uris":{"android":"levelo://app?vid=92ac4858-87d6-4ceb-8f6e-004635a816a8","ios":"levelo://app?vid=92ac4858-87d6-4ceb-8f6e-004635a816a8"},"vehicle_type_id":"4","last_reported":1731810068,"current_range_meters":28400,"station_id":"ce4bhnh2rcd13ifvqgtg","pricing_plan_id":"cebpf4jnsgd1na2vs0mg"},{"bike_id":"af712ab9-ece6-4723-8ff8-2d7fe5a88cad","system_id":"levelo_inurba_marseille","lat":43.31068,"lon":5.38345,"is_reserved":false,"is_disabled":false,"rental_uris":{"android":"levelo://app?vid=af712ab9-ece6-4723-8ff8-2d7fe5a88cad","ios":"levelo://app?vid=af712ab9-ece6-4723-8ff8-2d7fe5a88cad"},"vehicle_type_id":"4","last_reported":1731810068,"current_range_meters":28800,"station_id":"ce4bgv92rcd13ifvqcr0","pricing_plan_id":"cebpf4jnsgd1na2vs0mg"},{"bike_id":"1396ab55-0e44-4ee6-a17e-86cf36813da1","system_id":"levelo_inurba_marseille","lat":43.24172,"lon":5.39736,"is_reserved":false,"is_disabled":false,"rental_uris":{"android":"levelo://app?vid=1396ab55-0e44-4ee6-a17e-86cf36813da1","ios":"levelo://app?vid=1396ab55-0e44-4ee6-a17e-86cf36813da1"},"vehicle_type_id":"4","last_reported":1731810068,"current_range_meters":30000,"station_id":"ce4bhn12rcd13ifvqgpg","pricing_plan_id":"cebpf4jnsgd1na2vs0mg"},{"bike_id":"ed510db3-c47d-488a-9803-02bdd7cd9776","system_id":"levelo_inurba_marseille","lat":43.30549,"lon":5.38422,"is_reserved":false,"is_disabled":false,"rental_uris":{"android":"levelo://app?vid=ed510db3-c47d-488a-9803-02bdd7cd9776","ios":"levelo://app?vid=ed510db3-c47d-488a-9803-02bdd7cd9776"},"vehicle_type_id":"4","last_reported":1731810068,"current_range_meters":13600,"station_id":"ce4bgg92rcd13ifvqb30","pricing_plan_id":"cebpf4jnsgd1na2vs0mg"},{"bike_id":"a2b165e7-8d8d-4922-9ef2-c24fcea2bf58","system_id":"levelo_inurba_marseille","lat":43.27076,"lon":5.42275,"is_reserved":false,"is_disabled":false,"rental_uris":{"android":"levelo://app?vid=a2b165e7-8d8d-4922-9ef2-c24fcea2bf58","ios":"levelo://app?vid=a2b165e7-8d8d-4922-9ef2-c24fcea2bf58"},"vehicle_type_id":"4","last_reported":1731810068,"current_range_meters":30400,"station_id":"ce4bhk92rcd13ifvqgb0","pricing_plan_id":"cebpf4jnsgd1na2vs0mg"},{"bike_id":"7a71297a-270c-4bdc-8e58-211109a42162","system_id":"levelo_inurba_marseille","lat":43.29783,"lon":5.37078,"is_reserved":false,"is_disabled":false,"rental_uris":{"android":"levelo://app?vid=7a71297a-270c-4bdc-8e58-211109a42162","ios":"levelo://app?vid=7a71297a-270c-4bdc-8e58-211109a42162"},"vehicle_type_id":"4","last_reported":1731810068,"current_range_meters":16400,"station_id":"ce4bgop2rcd13ifvqc1g","pricing_plan_id":"cebpf4jnsgd1na2vs0mg"},{"bike_id":"1268adbc-f52e-4439-af04-da7d7abfd660","system_id":"levelo_inurba_marseille","lat":43.27621,"lon":5.36108,"is_reserved":false,"is_disabled":false,"rental_uris":{"android":"levelo://app?vid=1268adbc-f52e-4439-af04-da7d7abfd660","ios":"levelo://app?vid=1268adbc-f52e-4439-af04-da7d7abfd660"},"vehicle_type_id":"4","last_reported":1731810068,"current_range_meters":39200,"station_id":"ce4bgj92rcd13ifvqbe0","pricing_plan_id":"cebpf4jnsgd1na2vs0mg"},{"bike_id":"6134c1f6-b136-4b0c-9ad2-b5f87de5bedf","system_id":"levelo_inurba_marseille","lat":43.30593,"lon":5.3721,"is_reserved":false,"is_disabled":false,"rental_uris":{"android":"levelo://app?vid=6134c1f6-b136-4b0c-9ad2-b5f87de5bedf","ios":"levelo://app?vid=6134c1f6-b136-4b0c-9ad2-b5f87de5bedf"},"vehicle_type_id":"4","last_reported":1731810068,"current_range_meters":20400,"station_id":"ce4bgqh2rcd13ifvqc4g","pricing_plan_id":"cebpf4jnsgd1na2vs0mg"},{"bike_id":"d4498861-3c60-4389-beb1-4767aeaaf2a0","system_id":"levelo_inurba_marseille","lat":43.28619,"lon":5.35102,"is_reserved":false,"is_disabled":false,"rental_uris":{"android":"levelo://app?vid=d4498861-3c60-4389-beb1-4767aeaaf2a0","ios":"levelo://app?vid=d4498861-3c60-4389-beb1-4767aeaaf2a0"},"vehicle_type_id":"4","last_reported":1731810068,"current_range_meters":7200,"station_id":"ce4bhch2rcd13ifvqeug","pricing_plan_id":"cebpf4jnsgd1na2vs0mg"},{"bike_id":"716deff2-644f-4891-837f-fd7c8996db74","system_id":"levelo_inurba_marseille","lat":43.31997,"lon":5.38142,"is_reserved":false,"is_disabled":false,"rental_uris":{"android":"levelo://app?vid=716deff2-644f-4891-837f-fd7c8996db74","ios":"levelo://app?vid=716deff2-644f-4891-837f-fd7c8996db74"},"vehicle_type_id":"4","last_reported":1731810068,"current_range_meters":19600,"station_id":"ce4bhr12rcd13ifvqhpg","pricing_plan_id":"cebpf4jnsgd1na2vs0mg"},{"bike_id":"8f5ba682-4b27-42f9-a389-5683a76cce2b","system_id":"levelo_inurba_marseille","lat":43.24161,"lon":5.39732,"is_reserved":false,"is_disabled":false,"rental_uris":{"android":"levelo://app?vid=8f5ba682-4b27-42f9-a389-5683a76cce2b","ios":"levelo://app?vid=8f5ba682-4b27-42f9-a389-5683a76cce2b"},"vehicle_type_id":"4","last_reported":1731810068,"current_range_meters":32400,"station_id":"ce4bhn12rcd13ifvqgpg","pricing_plan_id":"cebpf4jnsgd1na2vs0mg"},{"bike_id":"538ff880-7009-4230-aa76-28de0d1a5a41","system_id":"levelo_inurba_marseille","lat":43.24385,"lon":5.37065,"is_reserved":false,"is_disabled":false,"rental_uris":{"android":"levelo://app?vid=538ff880-7009-4230-aa76-28de0d1a5a41","ios":"levelo://app?vid=538ff880-7009-4230-aa76-28de0d1a5a41"},"vehicle_type_id":"4","last_reported":1731810068,"current_range_meters":16800,"station_id":"ce4bhhh2rcd13ifvqfk0","pricing_plan_id":"cebpf4jnsgd1na2vs0mg"},{"bike_id":"3b3cdb38-8c6d-42d4-99b9-4fef005d7e67","system_id":"levelo_inurba_marseille","lat":43.28036,"lon":5.36962,"is_reserved":false,"is_disabled":false,"rental_uris":{"android":"levelo://app?vid=3b3cdb38-8c6d-42d4-99b9-4fef005d7e67","ios":"levelo://app?vid=3b3cdb38-8c6d-42d4-99b9-4fef005d7e67"},"vehicle_type_id":"4","last_reported":1731810068,"current_range_meters":38800,"station_id":"ce4bha12rcd13ifvqef0","pricing_plan_id":"cebpf4jnsgd1na2vs0mg"},{"bike_id":"a84f5389-258d-4508-9c0f-32ee5d326b43","system_id":"levelo_inurba_marseille","lat":43.33767,"lon":5.37475,"is_reserved":false,"is_disabled":false,"rental_uris":{"android":"levelo://app?vid=a84f5389-258d-4508-9c0f-32ee5d326b43","ios":"levelo://app?vid=a84f5389-258d-4508-9c0f-32ee5d326b43"},"vehicle_type_id":"4","last_reported":1731810068,"current_range_meters":32000,"station_id":"","pricing_plan_id":"cebpf4jnsgd1na2vs0mg"},{"bike_id":"4c74b5f5-43b1-4537-b65e-f81854d5e095","system_id":"levelo_inurba_marseille","lat":43.28421,"lon":5.34977,"is_reserved":false,"is_disabled":false,"rental_uris":{"android":"levelo://app?vid=4c74b5f5-43b1-4537-b65e-f81854d5e095","ios":"levelo://app?vid=4c74b5f5-43b1-4537-b65e-f81854d5e095"},"vehicle_type_id":"4","last_reported":1731810068,"current_range_meters":38000,"station_id":"ce4bhbh2rcd13ifvqepg","pricing_plan_id":"cebpf4jnsgd1na2vs0mg"},{"bike_id":"c9900b28-29be-4443-8059-b0f77df73f63","system_id":"levelo_inurba_marseille","lat":43.28721,"lon":5.36113,"is_reserved":false,"is_disabled":false,"rental_uris":{"android":"levelo://app?vid=c9900b28-29be-4443-8059-b0f77df73f63","ios":"levelo://app?vid=c9900b28-29be-4443-8059-b0f77df73f63"},"vehicle_type_id":"4","last_reported":1731810068,"current_range_meters":11600,"station_id":"cki0cbj6b192h4jlfktg","pricing_plan_id":"cebpf4jnsgd1na2vs0mg"},