{"last_updated":1687597626,"ttl":30,"version":"2.2","data":{"bikes":[{"bike_id":"ced0a6d2-4eb7-49e5-9033-37e1f9f5035d","system_id":"levelo_inurba_marseille","lat":43.3127,"lon":5.3683,"is_reserved":false,"is_disabled":false,"rental_uris":{"android":"levelo://app?vid=ced0a6d2-4eb7-49e5-9033-37e1f9f5035d","ios":"levelo://app?vid=ced0a6d2-4eb7-49e5-9033-37e1f9f5035d"},"vehicle_type_id":"4","last_reported":1687597627,"current_range_meters":23600,"station_id":"","pricing_plan_id":"free"},{"bike_id":"90fae331-e9f0-4d92-8ac4-27bb0a4c699c","system_id":"levelo_inurba_marseille","lat":43.312239,"lon":5.368562,"is_reserved":false,"is_disabled":false,"rental_uris":{"android":"levelo://app?vid=90fae331-e9f0-4d92-8ac4-27bb0a4c699c","ios":"levelo://app?vid=90fae331-e9f0-4d92-8ac4-27bb0a4c699c"},"vehicle_type_id":"4","last_reported":1687597627,"current_range_meters":25200,"station_id":"ce4bgl92rcd13ifvqbq0","pricing_plan_id":"free"},{"bike_id":"f504cec3-99c0-4460-9822-13a6247758a0","system_id":"levelo_inurba_marseille","lat":43.312239,"lon":5.368562,"is_reserved":false,"is_disabled":false,"rental_uris":{"android":"levelo://app?vid=f504cec3-99c0-4460-9822-13a6247758a0","ios":"levelo://app?vid=f504cec3-99c0-4460-9822-13a6247758a0"},"vehicle_type_id":"4","last_reported":1687597627,"current_range_meters":26000,"station_id":"ce4bgl92rcd13ifvqbq0","pricing_plan_id":"free"},{"bike_id":"06310f1c-4cc8-49c6-a574-6b33fca387cc","system_id":"levelo_inurba_marseille","lat":43.31329,"lon":5.37267,"is_reserved":false,"is_disabled":false,"rental_uris":{"android":"levelo://app?vid=06310f1c-4cc8-49c6-a574-6b33fca387cc","ios":"levelo://app?vid=06310f1c-4cc8-49c6-a574-6b33fca387cc"},"vehicle_type_id":"4","last_reported":1687597627,"current_range_meters":7600,"station_id":"","pricing_plan_id":"free"},{"bike_id":"62f88e86-17a4-4064-8803-95cf4c7ab1e4","system_id":"levelo_inurba_marseille","lat":43.314811,"lon":5.373103,"is_reserved":false,"is_disabled":false,"rental_uris":{"android":"levelo://app?vid=62f88e86-17a4-4064-8803-95cf4c7ab1e4","ios":"levelo://app?vid=62f88e86-17a4-4064-8803-95cf4c7ab1e4"},"vehicle_type_id":"4","last_reported":1687597627,"current_range_meters":27200,"station_id":"ce4bgt12rcd13ifvqcd0","pricing_plan_id":"free"},{"bike_id":"3b8af517-ced9-44b4-828b-179f95914337","system_id":"levelo_inurba_marseille","lat":43.314811,"lon":5.373103,"is_reserved":false,"is_disabled":false,"rental_uris":{"android":"levelo://app?vid=3b8af517-ced9-44b4-828b-179f95914337","ios":"levelo://app?vid=3b8af517-ced9-44b4-828b-179f95914337"},"vehicle_type_id":"4","last_reported":1687597627,"current_range_meters":31200,"station_id":"ce4bgt12rcd13ifvqcd0","pricing_plan_id":"free"},{"bike_id":"f600f79a-9522-48a4-8525-31e121f43c34","system_id":"levelo_inurba_marseille","lat":43.314811,"lon":5.373103,"is_reserved":false,"is_disabled":false,"rental_uris":{"android":"levelo://app?vid=f600f79a-9522-48a4-8525-31e121f43c34","ios":"levelo://app?vid=f600f79a-9522-48a4-8525-31e121f43c34"},"vehicle_type_id":"4","last_reported":1687597627,"current_range_meters":31200,"station_id":"ce4bgt12rcd13ifvqcd0","pricing_plan_id":"free"},{"bike_id":"ef478299-8fd5-45f8-b197-39a0d48feadf","system_id":"levelo_inurba_marseille","lat":43.30892,"lon":5.37201,"is_reserved":false,"is_disabled":false,"rental_uris":{"android":"levelo://app?vid=ef478299-8fd5-45f8-b197-39a0d48feadf","ios":"levelo://app?vid=ef478299-8fd5-45f8-b197-39a0d48feadf"},"vehicle_type_id":"4","last_reported":1687597627,"current_range_meters":8800,"station_id":"","pricing_plan_id":"free"},{"bike_id":"f3a4132f-464b-4cea-a28c-e3d64c925188","system_id":"levelo_inurba_marseille","lat":43.305368,"lon":5.367343,"is_reserved":false,"is_disabled":false,"rental_uris":{"android":"levelo://app?vid=f3a4132f-464b-4cea-a28c-e3d64c925188","ios":"levelo://app?vid=f3a4132f-464b-4cea-a28c-e3d64c925188"},"vehicle_type_id":"4","last_reported":1687597627,"current_range_meters":15200,"station_id":"ce4bgrp2rcd13ifvqc9g","pricing_plan_id":"free"},{"bike_id":"b3f792c3-339c-489d-a091-c9bd2d666c83","system_id":"levelo_inurba_marseille","lat":43.305714,"lon":5.365633,"is_reserved":false,"is_disabled":false,"rental_uris":{"android":"levelo://app?vid=b3f792c3-339c-489d-a091-c9bd2d666c83","ios":"levelo://app?vid=b3f792c3-339c-489d-a091-c9bd2d666c83"},"vehicle_type_id":"4","last_reported":1687597627,"current_range_meters":24400,"station_id":"ce4bgs12rcd13ifvqcag","pricing_plan_id":"free"},{"bike_id":"02a15c75-a977-48da-9cf3-f65a555d4c5e","system_id":"levelo_inurba_marseille","lat":43.305714,"lon":5.365633,"is_reserved":false,"is_disabled":false,"rental_uris":{"android":"levelo://app?vid=02a15c75-a977-48da-9cf3-f65a555d4c5e","ios":"levelo://app?vid=02a15c75-a977-48da-9cf3-f65a555d4c5e"},"vehicle_type_id":"4","last_reported":1687597627,"current_range_meters":16000,"station_id":"ce4bgs12rcd13ifvqcag","pricing_plan_id":"free"},{"bike_id":"8a14d82d-8fcb-452c-a2b6-6fdb3b379059","system_id":"levelo_inurba_marseille","lat":43.30548,"lon":5.36532,"is_reserved":false,"is_disabled":false,"rental_uris":{"android":"levelo://app?vid=8a14d82d-8fcb-452c-a2b6-6fdb3b379059","ios":"levelo://app?vid=8a14d82d-8fcb-452c-a2b6-6fdb3b379059"},"vehicle_type_id":"4","last_reported":1687597627,"current_range_meters":24000,"station_id":"ce4bgs12rcd13ifvqcag","pricing_plan_id":"free"},{"bike_id":"2c317a26-16dc-4a09-9410-89ff051a3030","system_id":"levelo_inurba_marseille","lat":43.305368,"lon":5.367343,"is_reserved":false,"is_disabled":false,"rental_uris":{"android":"levelo://app?vid=2c317a26-16dc-4a09-9410-89ff051a3030","ios":"levelo://app?vid=2c317a26-16dc-4a09-9410-89ff051a3030"},"vehicle_type_id":"4","last_reported":1687597627,"current_range_meters":1600,"station_id":"ce4bgrp2rcd13ifvqc9g","pricing_plan_id":"free"},{"bike_id":"9cf4df9d-6e9b-4d4d-908c-4af291d180d0","system_id":"levelo_inurba_marseille","lat":43.30545,"lon":5.36551,"is_reserved":false,"is_disabled":false,"rental_uris":{"android":"levelo://app?vid=9cf4df9d-6e9b-4d4d-908c-4af291d180d0","ios":"levelo://app?vid=9cf4df9d-6e9b-4d4d-908c-4af291d180d0"},"vehicle_type_id":"4","last_reported":1687597627,"current_range_meters":29600,"station_id":"ce4bgs12rcd13ifvqcag","pricing_plan_id":"free"},{"bike_id":"9c0d3c50-97e3-41b4-97a4-93421317fa14","system_id":"levelo_inurba_marseille","lat":43.305368,"lon":5.367343,"is_reserved":false,"is_disabled":false,"rental_uris":{"android":"levelo://app?vid=9c0d3c50-97e3-41b4-97a4-93421317fa14","ios":"levelo://app?vid=9c0d3c50-97e3-41b4-97a4-93421317fa14"},"vehicle_type_id":"4","last_reported":1687597627,"current_range_meters":11600,"station_id":"ce4bgrp2rcd13ifvqc9g","pricing_plan_id":"free"},{"bike_id":"2d433ba6-da30-49bc-ab6d-59a1f9222169","system_id":"levelo_inurba_marseille","lat":43.305714,"lon":5.365633,"is_reserved":false,"is_disabled":false,"rental_uris":{"android":"levelo://app?vid=2d433ba6-da30-49bc-ab6d-59a1f9222169","ios":"levelo://app?vid=2d433ba6-da30-49bc-ab6d-59a1f9222169"},"vehicle_type_id":"4","last_reported":1687597627,"current_range_meters":0,"station_id":"ce4bgs12rcd13ifvqcag","pricing_plan_id":"free"},{"bike_id":"6289fccf-70ea-45b8-bb32-7ddedea00214","system_id":"levelo_inurba_marseille","lat":43.305714,"lon":5.365633,"is_reserved":false,"is_disabled":false,"rental_uris":{"android":"levelo://app?vid=6289fccf-70ea-45b8-bb32-7ddedea00214","ios":"levelo://app?vid=6289fccf-70ea-45b8-bb32-7ddedea00214"},"vehicle_type_id":"4","last_reported":1687597627,"current_range_meters":22000,"station_id":"ce4bgs12rcd13ifvqcag","pricing_plan_id":"free"},{"bike_id":"5cdb7b94-40c7-4605-b0a2-f60bf0b9560d","system_id":"levelo_inurba_marseille","lat":43.305714,"lon":5.365633,"is_reserved":false,"is_disabled":false,"rental_uris":{"android":"levelo://app?vid=5cdb7b94-40c7-4605-b0a2-f60bf0b9560d","ios":"levelo://app?vid=5cdb7b94-40c7-4605-b0a2-f60bf0b9560d"},"vehicle_type_id":"4","last_reported":1687597627,"current_range_meters":28000,"station_id":"ce4bgs12rcd13ifvqcag","pricing_plan_id":"free"},{"bike_id":"8027ac30-b901-4bc9-8156-081c38b88fb8","system_id":"levelo_inurba_marseille","lat":43.305714,"lon":5.365633,"is_reserved":false,"is_disabled":false,"rental_uris":{"android":"levelo://app?vid=8027ac30-b901-4bc9-8156-081c38b88fb8","ios":"levelo://app?vid=8027ac30-b901-4bc9-8156-081c38b88fb8"},"vehicle_type_id":"4","last_reported":1687597627,"current_range_meters":30000,"station_id":"ce4bgs12rcd13ifvqcag","pricing_plan_id":"free"},{"bike_id":"0fb396fd-7f4c-492f-aa17-3b27a59bc3dc","system_id":"levelo_inurba_marseille","lat":43.305368,"lon":5.367343,"is_reserved":false,"is_disabled":false,"rental_uris":{"android":"levelo://app?vid=0fb396fd-7f4c-492f-aa17-3b27a59bc3dc","ios":"levelo://app?vid=0fb396fd-7f4c-492f-aa17-3b27a59bc3dc"},"vehicle_type_id":"4","last_reported":1687597627,"current_range_meters":23200,"station_id":"ce4bgrp2rcd13ifvqc9g","pricing_plan_id":"free"},{"bike_id":"719c0130-a4db-43df-be52-28338359eed8","system_id":"levelo_inurba_marseille","lat":43.305714,"lon":5.365633,"is_reserved":false,"is_disabled":false,"rental_uris":{"android":"levelo://app?vid=719c0130-a4db-43df-be52-28338359eed8","ios":"levelo://app?vid=719c0130-a4db-43df-be52-28338359eed8"},"vehicle_type_id":"4","last_reported":1687597627,"current_range_meters":17600,"station_id":"ce4bgs12rcd13ifvqcag","pricing_plan_id":"free"},{"bike_id":"5b000cff-9502-4ebc-a06c-1fbfcbfeb00b","system_id":"levelo_inurba_marseille","lat":43.305706,"lon":5.365654,"is_reserved":false,"is_disabled":false,"rental_uris":{"android":"levelo://app?vid=5b000cff-9502-4ebc-a06c-1fbfcbfeb00b","ios":"levelo://app?vid=5b000cff-9502-4ebc-a06c-1fbfcbfeb00b"},"vehicle_type_id":"4","last_reported":1687597627,"current_range_meters":16800,"station_id":"ce4bgs12rcd13ifvqcag","pricing_plan_id":"free"},{"bike_id":"58df1a66-e822-4ddb-ab9f-b8a85d855f60","system_id":"levelo_inurba_marseille","lat":43.305714,"lon":5.365633,"is_reserved":false,"is_disabled":false,"rental_uris":{"android":"levelo://app?vid=58df1a66-e822-4ddb-ab9f-b8a85d855f60","ios":"levelo://app?vid=58df1a66-e822-4ddb-ab9f-b8a85d855f60"},"vehicle_type_id":"4","last_reported":1687597627,"current_range_meters":30400,"station_id":"ce4bgs12rcd13ifvqcag","pricing_plan_id":"free"},{"bike_id":"cadb2279-3938-42b3-a73c-32ed68b39ca6","system_id":"levelo_inurba_marseille","lat":43.305706,"lon":5.365654,"is_reserved":false,"is_disabled":false,"rental_uris":{"android":"levelo://app?vid=cadb2279-3938-42b3-a73c-32ed68b39ca6","ios":"levelo://app?vid=cadb2279-3938-42b3-a73c-32ed68b39ca6"},"vehicle_type_id":"4","last_reported":1687597627,"current_range_meters":20400,"station_id":"ce4bgs12rcd13ifvqcag","pricing_plan_id":"free"},{"bike_id":"a62a0728-8de8-4e94-8958-5c1d77536818","system_id":"levelo_inurba_marseille","lat":43.305706,"lon":5.365654,"is_reserved":false,"is_disabled":false,"rental_uris":{"android":"levelo://app?vid=a62a0728-8de8-4e94-8958-5c1d77536818","ios":"levelo://app?vid=a62a0728-8de8-4e94-8958-5c1d77536818"},"vehicle_type_id":"4","last_reported":1687597627,"current_range_meters":27200,"station_id":"ce4bgs12rcd13ifvqcag","pricing_plan_id":"free"},{"bike_id":"01ff2fa6-d29b-4b70-bfad-899c9dac53a8","system_id":"levelo_inurba_marseille","lat":43.305706,"lon":5.365654,"is_reserved":false,"is_disabled":false,"rental_uris":{"android":"levelo://app?vid=01ff2fa6-d29b-4b70-bfad-899c9dac53a8","ios":"levelo://app?vid=01ff2fa6-d29b-4b70-bfad-899c9dac53a8"},"vehicle_type_id":"4","last_reported":1687597627,"current_range_meters":26000,"station_id":"ce4bgs12rcd13ifvqcag","pricing_plan_id":"free"},{"bike_id":"8c6a7e00-9c68-4254-910e-3bb38fc39131","system_id":"levelo_inurba_marseille","lat":43.305706,"lon":5.365654,"is_reserved":false,"is_disabled":false,"rental_uris":{"android":"levelo://app?vid=8c6a7e00-9c68-4254-910e-3bb38fc39131","ios":"levelo://app?vid=8c6a7e00-9c68-4254-910e-3bb38fc39131"},"vehicle_type_id":"4","last_reported":1687597627,"current_range_meters":31200,"station_id":"ce4bgs12rcd13ifvqcag","pricing_plan_id":"free"},{"bike_id":"ce9487af-76bc-41bd-a9cf-1f83771f0d31","system_id":"levelo_inurba_marseille","lat":43.328371,"lon":5.366909,"is_reserved":false,"is_disabled":false,"rental_uris":{"android":"levelo://app?vid=ce9487af-76bc-41bd-a9cf-1f83771f0d31","ios":"levelo://app?vid=ce9487af-76bc-41bd-a9cf-1f83771f0d31"},"vehicle_type_id":"4","last_reported":1687597627,"current_range_meters":0,"station_id":"ce4bhs92rcd13ifvqi0g","pricing_plan_id":"free"},{"bike_id":"2ab4f4a5-e084-42e6-81cd-85b975c4a50b","system_id":"levelo_inurba_marseille","lat":43.303046,"lon":5.368981,"is_reserved":false,"is_disabled":false,"rental_uris":{"android":"levelo://app?vid=2ab4f4a5-e084-42e6-81cd-85b975c4a50b","ios":"levelo://app?vid=2ab4f4a5-e084-42e6-81cd-85b975c4a50b"},"vehicle_type_id":"4","last_reported":1687597627,"current_range_meters":27200,"station_id":"ce4bgqh2rcd13ifvqc5g","pricing_plan_id":"free"},{"bike_id":"1b7fcc78-594d-4218-80c8-12a24cd48c1b","system_id":"levelo_inurba_marseille","lat":43.303046,"lon":5.368981,"is_reserved":false,"is_disabled":false,"rental_uris":{"android":"levelo://app?vid=1b7fcc78-594d-4218-80c8-12a24cd48c1b","ios":"levelo://app?vid=1b7fcc78-594d-4218-80c8-12a24cd48c1b"},"vehicle_type_id":"4","last_reported":1687597627,"current_range_meters":28800,"station_id":"ce4bgqh2rcd13ifvqc5g","pricing_plan_id":"free"},{"bike_id":"1cd246d1-b87b-4fad-8bda-265742d00c0b","system_id":"levelo_inurba_marseille","lat":43.303046,"lon":5.368981,"is_reserved":false,"is_disabled":false,"rental_uris":{"android":"levelo://app?vid=1cd246d1-b87b-4fad-8bda-265742d00c0b","ios":"levelo://app?vid=1cd246d1-b87b-4fad-8bda-265742d00c0b"},"vehicle_type_id":"4","last_reported":1687597627,"current_range_meters":24400,"station_id":"ce4bgqh2rcd13ifvqc5g","pricing_plan_id":"free"},{"bike_id":"8acf27b5-6718-43c0-bbb6-9c9a8713c827","system_id":"levelo_inurba_marseille","lat":43.303046,"lon":5.368981,"is_reserved":false,"is_disabled":false,"rental_uris":{"android":"levelo://app?vid=8acf27b5-6718-43c0-bbb6-9c9a8713c827","ios":"levelo://app?vid=8acf27b5-6718-43c0-bbb6-9c9a8713c827"},"vehicle_type_id":"4","last_reported":1687597627,"current_range_meters":6400,"station_id":"ce4bgqh2rcd13ifvqc5g","pricing_plan_id":"free"},{"bike_id":"e25ed083-7e94-4b6d-afe0-fa47e135b2ac","system_id":"levelo_inurba_marseille","lat":43.303046,"lon":5.368981,"is_reserved":false,"is_disabled":false,"rental_uris":{"android":"levelo://app?vid=e25ed083-7e94-4b6d-afe0-fa47e135b2ac","ios":"levelo://app?vid=e25ed083-7e94-4b6d-afe0-fa47e135b2ac"},"vehicle_type_id":"4","last_reported":1687597627,"current_range_meters":24000,"station_id":"ce4bgqh2rcd13ifvqc5g","pricing_plan_id":"free"},{"bike_id":"035a85f7-14a9-418b-bec6-494de6378db2","system_id":"levelo_inurba_marseille","lat":43.3153,"lon":5.3802,"is_reserved":false,"is_disabled":false,"rental_uris":{"android":"levelo://app?vid=035a85f7-14a9-418b-bec6-494de6378db2","ios":"levelo://app?vid=035a85f7-14a9-418b-bec6-494de6378db2"},"vehicle_type_id":"4","last_reported":1687597627,"current_range_meters":27600,"station_id":"ce4bhsp2rcd13ifvqi50","pricing_plan_id":"free"},{"bike_id":"b0b44079-8797-4c6e-afe6-ac78f4ed7d70","system_id":"levelo_inurba_marseille","lat":43.31532,"lon":5.38022,"is_reserved":false,"is_disabled":false,"rental_uris":{"android":"levelo://app?vid=b0b44079-8797-4c6e-afe6-ac78f4ed7d70","ios":"levelo://app?vid=b0b44079-8797-4c6e-afe6-ac78f4ed7d70"},"vehicle_type_id":"4","last_reported":1687597627,"current_range_meters":4800,"station_id":"ce4bhsp2rcd13ifvqi50","pricing_plan_id":"free"},{"bike_id":"dd875a85-efff-44b8-8320-89fd32ad6ad2","system_id":"levelo_inurba_marseille","lat":43.31541,"lon":5.38028,"is_reserved":false,"is_disabled":false,"rental_uris":{"android":"levelo://app?vid=dd875a85-efff-44b8-8320-89fd32ad6ad2","ios":"levelo://app?vid=dd875a85-efff-44b8-8320-89fd32ad6ad2"},"vehicle_type_id":"4","last_reported":1687597627,"current_range_meters":31200,"station_id":"ce4bhsp2rcd13ifvqi50","pricing_plan_id":"free"},{"bike_id":"fc699448-1da6-4df4-ac52-3ac31eb4881e","system_id":"levelo_inurba_marseille","lat":43.301939,"lon":5.366286,"is_reserved":false,"is_disabled":false,"rental_uris":{"android":"levelo://app?vid=fc699448-1da6-4df4-ac52-3ac31eb4881e","ios":"levelo://app?vid=fc699448-1da6-4df4-ac52-3ac31eb4881e"},"vehicle_type_id":"4","last_reported":1687597627,"current_range_meters":10800,"station_id":"ce4bgrh2rcd13ifvqc8g","pricing_plan_id":"free"},{"bike_id":"13cb744c-6f0c-4a5b-8d58-b0daecf92249","system_id":"levelo_inurba_marseille","lat":43.301939,"lon":5.366286,"is_reserved":false,"is_disabled":false,"rental_uris":{"android":"levelo://app?vid=13cb744c-6f0c-4a5b-8d58-b0daecf92249","ios":"levelo://app?vid=13cb744c-6f0c-4a5b-8d58-b0daecf92249"},"vehicle_type_id":"4","last_reported":1687597627,"current_range_meters":26400,"station_id":"ce4bgrh2rcd13ifvqc8g","pricing_plan_id":"free"},{"bike_id":"2af82c02-48da-44c4-aa1b-4d32fb269cc0","system_id":"levelo_inurba_marseille","lat":43.304606,"lon":5.379026,"is_reserved":false,"is_disabled":false,"rental_uris":{"android":"levelo://app?vid=2af82c02-48da-44c4-aa1b-4d32fb269cc0","ios":"levelo://app?vid=2af82c02-48da-44c4-aa1b-4d32fb269cc0"},"vehicle_type_id":"4","last_reported":1687597627,"current_range_meters":24800,"station_id":"ce4bgup2rcd13ifvqcn0","pricing_plan_id":"free"},{"bike_id":"65635d21-176d-4bb4-8c9e-bcf77d358367","system_id":"levelo_inurba_marseille","lat":43.304606,"lon":5.379026,"is_reserved":false,"is_disabled":false,"rental_uris":{"android":"levelo://app?vid=65635d21-176d-4bb4-8c9e-bcf77d358367","ios":"levelo://app?vid=65635d21-176d-4bb4-8c9e-bcf77d358367"},"vehicle_type_id":"4","last_reported":1687597627,"current_range_meters":22400,"station_id":"ce4bgup2rcd13ifvqcn0","pricing_plan_id":"free"},{"bike_id":"4860b231-90cc-4c6f-8b65-964e4f6e1d61","system_id":"levelo_inurba_marseille","lat":43.30463,"lon":5.37894,"is_reserved":false,"is_disabled":false,"rental_uris":{"android":"levelo://app?vid=4860b231-90cc-4c6f-8b65-964e4f6e1d61","ios":"levelo://app?vid=4860b231-90cc-4c6f-8b65-964e4f6e1d61"},"vehicle_type_id":"4","last_reported":1687597627,"current_range_meters":30000,"station_id":"ce4bgup2rcd13ifvqcn0","pricing_plan_id":"free"},{"bike_id":"68d3a223-cbe5-4778-ac9e-e939469da58d","system_id":"levelo_inurba_marseille","lat":43.304683,"lon":5.379053,"is_reserved":false,"is_disabled":false,"rental_uris":{"android":"levelo://app?vid=68d3a223-cbe5-4778-ac9e-e939469da58d","ios":"levelo://app?vid=68d3a223-cbe5-4778-ac9e-e939469da58d"},"vehicle_type_id":"4","last_reported":1687597627,"current_range_meters":25600,"station_id":"ce4bgup2rcd13ifvqcn0","pricing_plan_id":"free"},{"bike_id":"0ef18539-4a27-4ec4-9dbf-0a42d878c10b","system_id":"levelo_inurba_marseille","lat":43.304606,"lon":5.379026,"is_reserved":false,"is_disabled":false,"rental_uris":{"android":"levelo://app?vid=0ef18539-4a27-4ec4-9dbf-0a42d878c10b","ios":"levelo://app?vid=0ef18539-4a27-4ec4-9dbf-0a42d878c10b"},"vehicle_type_id":"4","last_reported":1687597627,"current_range_meters":18400,"station_id":"ce4bgup2rcd13ifvqcn0","pricing_plan_id":"free"},{"bike_id":"1f373ac8-a75e-4a2b-8475-f2eb09b6535b","system_id":"levelo_inurba_marseille","lat":43.304606,"lon":5.379026,"is_reserved":false,"is_disabled":false,"rental_uris":{"android":"levelo://app?vid=1f373ac8-a75e-4a2b-8475-f2eb09b6535b","ios":"levelo://app?vid=1f373ac8-a75e-4a2b-8475-f2eb09b6535b"},"vehicle_type_id":"4","last_reported":1687597627,"current_range_meters":30000,"station_id":"ce4bgup2rcd13ifvqcn0","pricing_plan_id":"free"},{"bike_id":"fa36cdbe-c8a4-4d7f-8dce-027ee02d9a91","system_id":"levelo_inurba_marseille","lat":43.304606,"lon":5.379026,"is_reserved":false,"is_disabled":false,"rental_uris":{"android":"levelo://app?vid=fa36cdbe-c8a4-4d7f-8dce-027ee02d9a91","ios":"levelo://app?vid=fa36cdbe-c8a4-4d7f-8dce-027ee02d9a91"},"vehicle_type_id":"4","last_reported":1687597627,"current_range_meters":31200,"station_id":"ce4bgup2rcd13ifvqcn0","pricing_plan_id":"free"},{"bike_id":"be02adaa-3296-446b-aa17-eb025fac9548","system_id":"levelo_inurba_marseille","lat":43.30456,"lon":5.37895,"is_reserved":false,"is_disabled":false,"rental_uris":{"android":"levelo://app?vid=be02adaa-3296-446b-aa17-eb025fac9548","ios":"levelo://app?vid=be02adaa-3296-446b-aa17-eb025fac9548"},"vehicle_type_id":"4","last_reported":1687597627,"current_range_meters":18000,"station_id":"ce4bgup2rcd13ifvqcn0","pricing_plan_id":"free"},{"bike_id":"9fa95b7b-9033-465f-8ec2-adb1e87790d3","system_id":"levelo_inurba_marseille","lat":43.304606,"lon":5.379026,"is_reserved":false,"is_disabled":false,"rental_uris":{"android":"levelo://app?vid=9fa95b7b-9033-465f-8ec2-adb1e87790d3","ios":"levelo://app?vid=9fa95b7b-9033-465f-8ec2-adb1e87790d3"},"vehicle_type_id":"4","last_reported":1687597627,"current_range_meters":31200,"station_id":"ce4bgup2rcd13ifvqcn0","pricing_plan_id":"free"},{"bike_id":"06ca62d0-e7b5-4a26-822d-d3a10de756da","system_id":"levelo_inurba_marseille","lat":43.304606,"lon":5.379026,"is_reserved":false,"is_disabled":false,"rental_uris":{"android":"levelo://app?vid=06ca62d0-e7b5-4a26-822d-d3a10de756da","ios":"levelo://app?vid=06ca62d0-e7b5-4a26-822d-d3a10de756da"},"vehicle_type_id":"4","last_reported":1687597627,"current_range_meters":27200,"station_id":"ce4bgup2rcd13ifvqcn0","pricing_plan_id":"free"},{"bike_id":"fd333aa3-c077-4a2d-ba7d-06c3d9f4b919","system_id":"levelo_inurba_marseille","lat":43.304606,"lon":5.379026,"is_reserved":false,"is_disabled":false,"rental_uris":{"android":"levelo://app?vid=fd333aa3-c077-4a2d-ba7d-06c3d9f4b919","ios":"levelo://app?vid=fd333aa3-c077-4a2d-ba7d-06c3d9f4b919"},"vehicle_type_id":"4","last_reported":1687597627,"current_range_meters":20800,"station_id":"ce4bgup2rcd13ifvqcn0","pricing_plan_id":"free"},{"bike_id":"31252285-c665-4b59-b680-0fea70133b55","system_id":"levelo_inurba_marseille","lat":43.304606,"lon":5.379026,"is_reserved":false,"is_disabled":false,"rental_uris":{"android":"levelo://app?vid=31252285-c665-4b59-b680-0fea70133b55","ios":"levelo://app?vid=31252285-c665-4b59-b680-0fea70133b55"},"vehicle_type_id":"4","last_reported":1687597627,"current_range_meters":23200,"station_id":"ce4bgup2rcd13ifvqcn0","pricing_plan_id":"free"},{"bike_id":"abe2b56e-2c16-4740-bbf9-c902d83586c0","system_id":"levelo_inurba_marseille","lat":43.302784,"lon":5.377158,"is_reserved":false,"is_disabled":false,"rental_uris":{"android":"levelo://app?vid=abe2b56e-2c16-4740-bbf9-c902d83586c0","ios":"levelo://app?vid=abe2b56e-2c16-4740-bbf9-c902d83586c0"},"vehicle_type_id":"4","last_reported":1687597627,"current_range_meters":28000,"station_id":"ce4bguh2rcd13ifvqcj0","pricing_plan_id":"free"},{"bike_id":"9da1babc-2449-4e69-b60c-ea66750be84d","system_id":"levelo_inurba_marseille","lat":43.302784,"lon":5.377158,"is_reserved":false,"is_disabled":false,"rental_uris":{"android":"levelo://app?vid=9da1babc-2449-4e69-b60c-ea66750be84d","ios":"levelo://app?vid=9da1babc-2449-4e69-b60c-ea66750be84d"},"vehicle_type_id":"4","last_reported":1687597627,"current_range_meters":31200,"station_id":"ce4bguh2rcd13ifvqcj0","pricing_plan_id":"free"},{"bike_id":"68166693-6528-485b-9beb-03b38671210f","system_id":"levelo_inurba_marseille","lat":43.30141,"lon":5.37413,"is_reserved":false,"is_disabled":false,"rental_uris":{"android":"levelo://app?vid=68166693-6528-485b-9beb-03b38671210f","ios":"levelo://app?vid=68166693-6528-485b-9beb-03b38671210f"},"vehicle_type_id":"4","last_reported":1687597627,"current_range_meters":20000,"station_id":"ce4bgs92rcd13ifvqcc0","pricing_plan_id":"free"},{"bike_id":"17ec59ee-3a2b-40e6-9f30-002788e005fe","system_id":"levelo_inurba_marseille","lat":43.3014,"lon":5.37419,"is_reserved":false,"is_disabled":false,"rental_uris":{"android":"levelo://app?vid=17ec59ee-3a2b-40e6-9f30-002788e005fe","ios":"levelo://app?vid=17ec59ee-3a2b-40e6-9f30-002788e005fe"},"vehicle_type_id":"4","last_reported":1687597627,"current_range_meters":31200,"station_id":"ce4bgs92rcd13ifvqcc0","pricing_plan_id":"free"},{"bike_id":"388b99fc-8590-48a5-b5e8-4e62559f8827","system_id":"levelo_inurba_marseille","lat":43.31466,"lon":5.38392,"is_reserved":false,"is_disabled":false,"rental_uris":{"android":"levelo://app?vid=388b99fc-8590-48a5-b5e8-4e62559f8827","ios":"levelo://app?vid=388b99fc-8590-48a5-b5e8-4e62559f8827"},"vehicle_type_id":"4","last_reported":1687597627,"current_range_meters":20000,"station_id":"","pricing_plan_id":"free"},{"bike_id":"2037dcc0-a2a1-46c4-8096-207f085e9e80","system_id":"levelo_inurba_marseille","lat":43.30134,"lon":5.37413,"is_reserved":false,"is_disabled":false,"rental_uris":{"android":"levelo://app?vid=2037dcc0-a2a1-46c4-8096-207f085e9e80","ios":"levelo://app?vid=2037dcc0-a2a1-46c4-8096-207f085e9e80"},"vehicle_type_id":"4","last_reported":1687597627,"current_range_meters":14000,"station_id":"ce4bgs92rcd13ifvqcc0","pricing_plan_id":"free"},{"bike_id":"fa56d9b4-86ce-4317-aa13-cdfec7fddbf9","system_id":"levelo_inurba_marseille","lat":43.298433,"lon":5.362774,"is_reserved":false,"is_disabled":false,"rental_uris":{"android":"levelo://app?vid=fa56d9b4-86ce-4317-aa13-cdfec7fddbf9","ios":"levelo://app?vid=fa56d9b4-86ce-4317-aa13-cdfec7fddbf9"},"vehicle_type_id":"4","last_reported":1687597627,"current_range_meters":10800,"station_id":"ce4bgpp2rcd13ifvqc3g","pricing_plan_id":"free"},{"bike_id":"f0aa2b65-9aab-4142-9ca6-93dee2935be9","system_id":"levelo_inurba_marseille","lat":43.298433,"lon":5.362774,"is_reserved":false,"is_disabled":false,"rental_uris":{"android":"levelo://app?vid=f0aa2b65-9aab-4142-9ca6-93dee2935be9","ios":"levelo://app?vid=f0aa2b65-9aab-4142-9ca6-93dee2935be9"},"vehicle_type_id":"4","last_reported":1687597627,"current_range_meters":31200,"station_id":"ce4bgpp2rcd13ifvqc3g","pricing_plan_id":"free"},{"bike_id":"cfd12065-4a0d-4f54-b827-c1f76068dc77","system_id":"levelo_inurba_marseille","lat":43.298433,"lon":5.362774,"is_reserved":false,"is_disabled":false,"rental_uris":{"android":"levelo://app?vid=cfd12065-4a0d-4f54-b827-c1f76068dc77","ios":"levelo://app?vid=cfd12065-4a0d-4f54-b827-c1f76068dc77"},"vehicle_type_id":"4","last_reported":1687597627,"current_range_meters":23200,"station_id":"ce4bgpp2rcd13ifvqc3g","pricing_plan_id":"free"},{"bike_id":"79d18c47-03a2-4e3a-9a24-362633c75748","system_id":"levelo_inurba_marseille","lat":43.30546,"lon":5.38426,"is_reserved":false,"is_disabled":false,"rental_uris":{"android":"levelo://app?vid=79d18c47-03a2-4e3a-9a24-362633c75748","ios":"levelo://app?vid=79d18c47-03a2-4e3a-9a24-362633c75748"},"vehicle_type_id":"4","last_reported":1687597627,"current_range_meters":31200,"station_id":"ce4bgg92rcd13ifvqb30","pricing_plan_id":"free"},{"bike_id":"dde7f5bc-eb63-4b56-9abb-7601c60c6e66","system_id":"levelo_inurba_marseille","lat":43.298433,"lon":5.362774,"is_reserved":false,"is_disabled":false,"rental_uris":{"android":"levelo://app?vid=dde7f5bc-eb63-4b56-9abb-7601c60c6e66","ios":"levelo://app?vid=dde7f5bc-eb63-4b56-9abb-7601c60c6e66"},"vehicle_type_id":"4","last_reported":1687597627,"current_range_meters":28800,"station_id":"ce4bgpp2rcd13ifvqc3g","pricing_plan_id":"free"},{"bike_id":"1b107875-311f-4aae-b244-c0abbd8ef5fb","system_id":"levelo_inurba_marseille","lat":43.298433,"lon":5.362774,"is_reserved":false,"is_disabled":false,"rental_uris":{"android":"levelo://app?vid=1b107875-311f-4aae-b244-c0abbd8ef5fb","ios":"levelo://app?vid=1b107875-311f-4aae-b244-c0abbd8ef5fb"},"vehicle_type_id":"4","last_reported":1687597627,"current_range_meters":26000,"station_id":"ce4bgpp2rcd13ifvqc3g","pricing_plan_id":"free"},{"bike_id":"99bfd911-37a6-4364-a85d-0e8d6620ad38","system_id":"levelo_inurba_marseille","lat":43.298433,"lon":5.362774,"is_reserved":false,"is_disabled":false,"rental_uris":{"android":"levelo://app?vid=99bfd911-37a6-4364-a85d-0e8d6620ad38","ios":"levelo://app?vid=99bfd911-37a6-4364-a85d-0e8d6620ad38"},"vehicle_type_id":"4","last_reported":1687597627,"current_range_meters":30800,"station_id":"ce4bgpp2rcd13ifvqc3g","pricing_plan_id":"free"},{"bike_id":"68c8e01e-d17b-4ae0-aa39-cf017fec362c","system_id":"levelo_inurba_marseille","lat":43.298433,"lon":5.362774,"is_reserved":false,"is_disabled":false,"rental_uris":{"android":"levelo://app?vid=68c8e01e-d17b-4ae0-aa39-cf017fec362c","ios":"levelo://app?vid=68c8e01e-d17b-4ae0-aa39-cf017fec362c"},"vehicle_type_id":"4","last_reported":1687597627,"current_range_meters":26000,"station_id":"ce4bgpp2rcd13ifvqc3g","pricing_plan_id":"free"},{"bike_id":"ade1a26e-9e32-4817-9fa9-ec2590b4d05c","system_id":"levelo_inurba_marseille","lat":43.29904,"lon":5.37472,"is_reserved":false,"is_disabled":false,"rental_uris":{"android":"levelo://app?vid=ade1a26e-9e32-4817-9fa9-ec2590b4d05c","ios":"levelo://app?vid=ade1a26e-9e32-4817-9fa9-ec2590b4d05c"},"vehicle_type_id":"4","last_reported":1687597627,"current_range_meters":0,"station_id":"ce4bgjh2rcd13ifvqbg0","pricing_plan_id":"free"},{"bike_id":"1580a472-182f-4d91-8a6c-4c3a23a9c034","system_id":"levelo_inurba_marseille","lat":43.302,"lon":5.3821,"is_reserved":false,"is_disabled":false,"rental_uris":{"android":"levelo://app?vid=1580a472-182f-4d91-8a6c-4c3a23a9c034","ios":"levelo://app?vid=1580a472-182f-4d91-8a6c-4c3a23a9c034"},"vehicle_type_id":"4","last_reported":1687597627,"current_range_meters":18000,"station_id":"","pricing_plan_id":"free"},{"bike_id":"f0c49d04-749f-4a18-8823-5f643fcb68d5","system_id":"levelo_inurba_marseille","lat":43.328371,"lon":5.366909,"is_reserved":false,"is_disabled":false,"rental_uris":{"android":"levelo://app?vid=f0c49d04-749f-4a18-8823-5f643fcb68d5","ios":"levelo://app?vid=f0c49d04-749f-4a18-8823-5f643fcb68d5"},"vehicle_type_id":"4","last_reported":1687597627,"current_range_meters":30400,"station_id":"ce4bhs92rcd13ifvqi0g","pricing_plan_id":"free"},{"bike_id":"dd41ba81-9716-41ad-bf2f-fd5f1f31dcaa","system_id":"levelo_inurba_marseille","lat":43.328371,"lon":5.366909,"is_reserved":false,"is_disabled":false,"rental_uris":{"android":"levelo://app?vid=dd41ba81-9716-41ad-bf2f-fd5f1f31dcaa","ios":"levelo://app?vid=dd41ba81-9716-41ad-bf2f-fd5f1f31dcaa"},"vehicle_type_id":"4","last_reported":1687597627,"current_range_meters":28000,"station_id":"ce4bhs92rcd13ifvqi0g","pricing_plan_id":"free"},{"bike_id":"cbdd73a9-8831-4dab-9e8d-2ce4e630f6d2","system_id":"levelo_inurba_marseille","lat":43.328371,"lon":5.366909,"is_reserved":false,"is_disabled":false,"rental_uris":{"android":"levelo://app?vid=cbdd73a9-8831-4dab-9e8d-2ce4e630f6d2","ios":"levelo://app?vid=cbdd73a9-8831-4dab-9e8d-2ce4e630f6d2"},"vehicle_type_id":"4","last_reported":1687597627,"current_range_meters":30800,"station_id":"ce4bhs92rcd13ifvqi0g","pricing_plan_id":"free"},{"bike_id":"fa80e9cd-f31a-45d0-9ce7-3d96d492f473","system_id":"levelo_inurba_marseille","lat":43.328371,"lon":5.366909,"is_reserved":false,"is_disabled":false,"rental_uris":{"android":"levelo://app?vid=fa80e9cd-f31a-45d0-9ce7-3d96d492f473","ios":"levelo://app?vid=fa80e9cd-f31a-45d0-9ce7-3d96d492f473"},"vehicle_type_id":"4","last_reported":1687597627,"current_range_meters":18400,"station_id":"ce4bhs92rcd13ifvqi0g","pricing_plan_id":"free"},{"bike_id":"360fac2c-3b34-4e1e-adeb-876ff421a723","system_id":"levelo_inurba_marseille","lat":43.328327,"lon":5.367057,"is_reserved":false,"is_disabled":false,"rental_uris":{"android":"levelo://app?vid=360fac2c-3b34-4e1e-adeb-876ff421a723","ios":"levelo://app?vid=360fac2c-3b34-4e1e-adeb-876ff421a723"},"vehicle_type_id":"4","last_reported":1687597627,"current_range_meters":23600,"station_id":"","pricing_plan_id":"free"},{"bike_id":"f0c21314-da3e-469b-88bf-3dac9af975db","system_id":"levelo_inurba_marseille","lat":43.297163,"lon":5.365866,"is_reserved":false,"is_disabled":false,"rental_uris":{"android":"levelo://app?vid=f0c21314-da3e-469b-88bf-3dac9af975db","ios":"levelo://app?vid=f0c21314-da3e-469b-88bf-3dac9af975db"},"vehicle_type_id":"4","last_reported":1687597627,"current_range_meters":15600,"station_id":"ce4bgn12rcd13ifvqbt0","pricing_plan_id":"free"},{"bike_id":"d6aa4b8f-0fbd-492f-a726-f1b64033634e","system_id":"levelo_inurba_marseille","lat":43.29705,"lon":5.36416,"is_reserved":false,"is_disabled":false,"rental_uris":{"android":"levelo://app?vid=d6aa4b8f-0fbd-492f-a726-f1b64033634e","ios":"levelo://app?vid=d6aa4b8f-0fbd-492f-a726-f1b64033634e"},"vehicle_type_id":"4","last_reported":1687597627,"current_range_meters":6800,"station_id":"","pricing_plan_id":"free"},{"bike_id":"66da242d-00bb-448e-847e-6f8acb977339","system_id":"levelo_inurba_marseille","lat":43.29693,"lon":5.37294,"is_reserved":false,"is_disabled":false,"rental_uris":{"android":"levelo://app?vid=66da242d-00bb-448e-847e-6f8acb977339","ios":"levelo://app?vid=66da242d-00bb-448e-847e-6f8acb977339"},"vehicle_type_id":"4","last_reported":1687597627,"current_range_meters":30800,"station_id":"ce4bgk12rcd13ifvqbj0","pricing_plan_id":"free"},{"bike_id":"661778c7-916e-48fc-a56e-76fc11a54098","system_id":"levelo_inurba_marseille","lat":43.29681,"lon":5.37286,"is_reserved":false,"is_disabled":false,"rental_uris":{"android":"levelo://app?vid=661778c7-916e-48fc-a56e-76fc11a54098","ios":"levelo://app?vid=661778c7-916e-48fc-a56e-76fc11a54098"},"vehicle_type_id":"4","last_reported":1687597627,"current_range_meters":12000,"station_id":"ce4bgk12rcd13ifvqbj0","pricing_plan_id":"free"},{"bike_id":"7895dde2-46d5-4807-bda9-a30d4af9763c","system_id":"levelo_inurba_marseille","lat":43.29573,"lon":5.367355,"is_reserved":false,"is_disabled":false,"rental_uris":{"android":"levelo://app?vid=7895dde2-46d5-4807-bda9-a30d4af9763c","ios":"levelo://app?vid=7895dde2-46d5-4807-bda9-a30d4af9763c"},"vehicle_type_id":"4","last_reported":1687597627,"current_range_meters":29200,"station_id":"ce4bgph2rcd13ifvqc2g","pricing_plan_id":"free"},{"bike_id":"3dffbcdc-165f-4a43-bc85-ff63ef9d6985","system_id":"levelo_inurba_marseille","lat":43.29573,"lon":5.367355,"is_reserved":false,"is_disabled":false,"rental_uris":{"android":"levelo://app?vid=3dffbcdc-165f-4a43-bc85-ff63ef9d6985","ios":"levelo://app?vid=3dffbcdc-165f-4a43-bc85-ff63ef9d6985"},"vehicle_type_id":"4","last_reported":1687597627,"current_range_meters":29200,"station_id":"ce4bgph2rcd13ifvqc2g","pricing_plan_id":"free"},{"bike_id":"d093434e-0d73-4190-94df-1f6ab92da1c6","system_id":"levelo_inurba_marseille","lat":43.296129,"lon":5.370777,"is_reserved":false,"is_disabled":false,"rental_uris":{"android":"levelo://app?vid=d093434e-0d73-4190-94df-1f6ab92da1c6","ios":"levelo://app?vid=d093434e-0d73-4190-94df-1f6ab92da1c6"},"vehicle_type_id":"4","last_reported":1687597627,"current_range_meters":19200,"station_id":"ce4bgnh2rcd13ifvqc0g","pricing_plan_id":"free"},{"bike_id":"d8ea2a6d-399a-4718-abec-4faba172bf23","system_id":"levelo_inurba_marseille","lat":43.296129,"lon":5.370777,"is_reserved":false,"is_disabled":false,"rental_uris":{"android":"levelo://app?vid=d8ea2a6d-399a-4718-abec-4faba172bf23","ios":"levelo://app?vid=d8ea2a6d-399a-4718-abec-4faba172bf23"},"vehicle_type_id":"4","last_reported":1687597627,"current_range_meters":29600,"station_id":"ce4bgnh2rcd13ifvqc0g","pricing_plan_id":"free"},{"bike_id":"b832c6ae-3ad1-423f-8da8-036703d02b55","system_id":"levelo_inurba_marseille","lat":43.29573,"lon":5.367355,"is_reserved":false,"is_disabled":false,"rental_uris":{"android":"levelo://app?vid=b832c6ae-3ad1-423f-8da8-036703d02b55","ios":"levelo://app?vid=b832c6ae-3ad1-423f-8da8-036703d02b55"},"vehicle_type_id":"4","last_reported":1687597627,"current_range_meters":4400,"station_id":"ce4bgph2rcd13ifvqc2g","pricing_plan_id":"free"},{"bike_id":"d29b53f2-534b-43a5-88ee-7e888f2792eb","system_id":"levelo_inurba_marseille","lat":43.296131,"lon":5.370791,"is_reserved":false,"is_disabled":false,"rental_uris":{"android":"levelo://app?vid=d29b53f2-534b-43a5-88ee-7e888f2792eb","ios":"levelo://app?vid=d29b53f2-534b-43a5-88ee-7e888f2792eb"},"vehicle_type_id":"4","last_reported":1687597627,"current_range_meters":20800,"station_id":"ce4bgnh2rcd13ifvqc0g","pricing_plan_id":"free"},{"bike_id":"83aaae78-5439-4d3c-98ee-73d36cee79e2","system_id":"levelo_inurba_marseille","lat":43.29573,"lon":5.367355,"is_reserved":false,"is_disabled":false,"rental_uris":{"android":"levelo://app?vid=83aaae78-5439-4d3c-98ee-73d36cee79e2","ios":"levelo://app?vid=83aaae78-5439-4d3c-98ee-73d36cee79e2"},"vehicle_type_id":"4","last_reported":1687597627,"current_range_meters":0,"station_id":"ce4bgph2rcd13ifvqc2g","pricing_plan_id":"free"},{"bike_id":"0ff24f48-f77b-489a-85b7-bd1f35968a1f","system_id":"levelo_inurba_marseille","lat":43.29573,"lon":5.367355,"is_reserved":false,"is_disabled":false,"rental_uris":{"android":"levelo://app?vid=0ff24f48-f77b-489a-85b7-bd1f35968a1f","ios":"levelo://app?vid=0ff24f48-f77b-489a-85b7-bd1f35968a1f"},"vehicle_type_id":"4","last_reported":1687597627,"current_range_meters":31200,"station_id":"ce4bgph2rcd13ifvqc2g","pricing_plan_id":"free"},{"bike_id":"31d39ff6-3930-484a-98db-0a98bc732b61","system_id":"levelo_inurba_marseille","lat":43.309589,"lon":5.390258,"is_reserved":false,"is_disabled":false,"rental_uris":{"android":"levelo://app?vid=31d39ff6-3930-484a-98db-0a98bc732b61","ios":"levelo://app?vid=31d39ff6-3930-484a-98db-0a98bc732b61"},"vehicle_type_id":"4","last_reported":1687597627,"current_range_meters":18800,"station_id":"ce4bgup2rcd13ifvqco0","pricing_plan_id":"free"},{"bike_id":"9236e461-38c3-43e5-9126-3b069dfd654a","system_id":"levelo_inurba_marseille","lat":43.309589,"lon":5.390258,"is_reserved":false,"is_disabled":false,"rental_uris":{"android":"levelo://app?vid=9236e461-38c3-43e5-9126-3b069dfd654a","ios":"levelo://app?vid=9236e461-38c3-43e5-9126-3b069dfd654a"},"vehicle_type_id":"4","last_reported":1687597627,"current_range_meters":30800,"station_id":"ce4bgup2rcd13ifvqco0","pricing_plan_id":"free"},{"bike_id":"041bc147-ef2f-419b-bb81-deca3bdf89e2","system_id":"levelo_inurba_marseille","lat":43.29611,"lon":5.36046,"is_reserved":false,"is_disabled":false,"rental_uris":{"android":"levelo://app?vid=041bc147-ef2f-419b-bb81-deca3bdf89e2","ios":"levelo://app?vid=041bc147-ef2f-419b-bb81-deca3bdf89e2"},"vehicle_type_id":"4","last_reported":1687597627,"current_range_meters":7600,"station_id":"","pricing_plan_id":"free"},{"bike_id":"c2a6f855-51cc-471c-9bd0-011f01d37a89","system_id":"levelo_inurba_marseille","lat":43.309589,"lon":5.390258,"is_reserved":false,"is_disabled":false,"rental_uris":{"android":"levelo://app?vid=c2a6f855-51cc-471c-9bd0-011f01d37a89","ios":"levelo://app?vid=c2a6f855-51cc-471c-9bd0-011f01d37a89"},"vehicle_type_id":"4","last_reported":1687597627,"current_range_meters":15600,"station_id":"ce4bgup2rcd13ifvqco0","pricing_plan_id":"free"},{"bike_id":"17edfbda-798f-415f-80a8-c7b2b016f0f7","system_id":"levelo_inurba_marseille","lat":43.309589,"lon":5.390258,"is_reserved":false,"is_disabled":false,"rental_uris":{"android":"levelo://app?vid=17edfbda-798f-415f-80a8-c7b2b016f0f7","ios":"levelo://app?vid=17edfbda-798f-415f-80a8-c7b2b016f0f7"},"vehicle_type_id":"4","last_reported":1687597627,"current_range_meters":2000,"station_id":"ce4bgup2rcd13ifvqco0","pricing_plan_id":"free"},{"bike_id":"d669cbf8-3a84-4298-8095-87429d0ac4f3","system_id":"levelo_inurba_marseille","lat":43.309589,"lon":5.390258,"is_reserved":false,"is_disabled":false,"rental_uris":{"android":"levelo://app?vid=d669cbf8-3a84-4298-8095-87429d0ac4f3","ios":"levelo://app?vid=d669cbf8-3a84-4298-8095-87429d0ac4f3"},"vehicle_type_id":"4","last_reported":1687597627,"current_range_meters":20800,"station_id":"ce4bgup2rcd13ifvqco0","pricing_plan_id":"free"},{"bike_id":"b620228d-37d4-4969-b28b-de0acc7b2432","system_id":"levelo_inurba_marseille","lat":43.317557,"lon":5.390173,"is_reserved":false,"is_disabled":false,"rental_uris":{"android":"levelo://app?vid=b620228d-37d4-4969-b28b-de0acc7b2432","ios":"levelo://app?vid=b620228d-37d4-4969-b28b-de0acc7b2432"},"vehicle_type_id":"4","last_reported":1687597627,"current_range_meters":29200,"station_id":"ce4bhqp2rcd13ifvqhng","pricing_plan_id":"free"},{"bike_id":"acc878fe-7071-4cc5-8f59-cb438feb9edd","system_id":"levelo_inurba_marseille","lat":43.317557,"lon":5.390173,"is_reserved":false,"is_disabled":false,"rental_uris":{"android":"levelo://app?vid=acc878fe-7071-4cc5-8f59-cb438feb9edd","ios":"levelo://app?vid=acc878fe-7071-4cc5-8f59-cb438feb9edd"},"vehicle_type_id":"4","last_reported":1687597627,"current_range_meters":31200,"station_id":"ce4bhqp2rcd13ifvqhng","pricing_plan_id":"free"},{"bike_id":"52bb593c-d543-4157-bc0f-72e57b14da40","system_id":"levelo_inurba_marseille","lat":43.295748,"lon":5.37522,"is_reserved":false,"is_disabled":false,"rental_uris":{"android":"levelo://app?vid=52bb593c-d543-4157-bc0f-72e57b14da40","ios":"levelo://app?vid=52bb593c-d543-4157-bc0f-72e57b14da40"},"vehicle_type_id":"4","last_reported":1687597627,"current_range_meters":20400,"station_id":"ce4bgh92rcd13ifvqb50","pricing_plan_id":"free"},{"bike_id":"45c2fa67-3bea-41bd-b80b-0ba67af436ec","system_id":"levelo_inurba_marseille","lat":43.30421,"lon":5.38874,"is_reserved":false,"is_disabled":false,"rental_uris":{"android":"levelo://app?vid=45c2fa67-3bea-41bd-b80b-0ba67af436ec","ios":"levelo://app?vid=45c2fa67-3bea-41bd-b80b-0ba67af436ec"},"vehicle_type_id":"4","last_reported":1687597627,"current_range_meters":26000,"station_id":"ce4bgk12rcd13ifvqbi0","pricing_plan_id":"free"},{"bike_id":"ba797e4e-f2ad-4874-aab3-cd63405db8b5","system_id":"levelo_inurba_marseille","lat":43.295748,"lon":5.37522,"is_reserved":false,"is_disabled":false,"rental_uris":{"android":"levelo://app?vid=ba797e4e-f2ad-4874-aab3-cd63405db8b5","ios":"levelo://app?vid=ba797e4e-f2ad-4874-aab3-cd63405db8b5"},"vehicle_type_id":"4","last_reported":1687597627,"current_range_meters":29600,"station_id":"ce4bgh92rcd13ifvqb50","pricing_plan_id":"free"},{"bike_id":"444a24fe-4b28-4f6c-97e7-4c8faffdeefe","system_id":"levelo_inurba_marseille","lat":43.29571,"lon":5.37511,"is_reserved":false,"is_disabled":false,"rental_uris":{"android":"levelo://app?vid=444a24fe-4b28-4f6c-97e7-4c8faffdeefe","ios":"levelo://app?vid=444a24fe-4b28-4f6c-97e7-4c8faffdeefe"},"vehicle_type_id":"4","last_reported":1687597627,"current_range_meters":30800,"station_id":"ce4bgh92rcd13ifvqb50","pricing_plan_id":"free"},{"bike_id":"930a7ae1-f93b-49d3-9932-9217f07aa0ec","system_id":"levelo_inurba_marseille","lat":43.30423,"lon":5.38879,"is_reserved":false,"is_disabled":false,"rental_uris":{"android":"levelo://app?vid=930a7ae1-f93b-49d3-9932-9217f07aa0ec","ios":"levelo://app?vid=930a7ae1-f93b-49d3-9932-9217f07aa0ec"},"vehicle_type_id":"4","last_reported":1687597627,"current_range_meters":19600,"station_id":"ce4bgk12rcd13ifvqbi0","pricing_plan_id":"free"},{"bike_id":"fec095fb-4ca8-4897-a122-ca3c5ac6044c","system_id":"levelo_inurba_marseille","lat":43.296263,"lon":5.377094,"is_reserved":false,"is_disabled":false,"rental_uris":{"android":"levelo://app?vid=fec095fb-4ca8-4897-a122-ca3c5ac6044c","ios":"levelo://app?vid=fec095fb-4ca8-4897-a122-ca3c5ac6044c"},"vehicle_type_id":"4","last_reported":1687597627,"current_range_meters":29600,"station_id":"ce4bgi92rcd13ifvqb90","pricing_plan_id":"free"},{"bike_id":"966e541e-b9c8-40fc-ae22-2e0d494c2a6b","system_id":"levelo_inurba_marseille","lat":43.29595,"lon":5.37704,"is_reserved":false,"is_disabled":false,"rental_uris":{"android":"levelo://app?vid=966e541e-b9c8-40fc-ae22-2e0d494c2a6b","ios":"levelo://app?vid=966e541e-b9c8-40fc-ae22-2e0d494c2a6b"},"vehicle_type_id":"4","last_reported":1687597627,"current_range_meters":7600,"station_id":"ce4bgi92rcd13ifvqb90","pricing_plan_id":"free"},{"bike_id":"90eb5eda-fa64-4660-a261-b0f7475fd128","system_id":"levelo_inurba_marseille","lat":43.299717,"lon":5.384845,"is_reserved":false,"is_disabled":false,"rental_uris":{"android":"levelo://app?vid=90eb5eda-fa64-4660-a261-b0f7475fd128","ios":"levelo://app?vid=90eb5eda-fa64-4660-a261-b0f7475fd128"},"vehicle_type_id":"4","last_reported":1687597627,"current_range_meters":28400,"station_id":"ce4bgj92rcd13ifvqbd0","pricing_plan_id":"free"},{"bike_id":"65fc3445-a912-425c-88b4-da9666bb6fc2","system_id":"levelo_inurba_marseille","lat":43.299717,"lon":5.384845,"is_reserved":false,"is_disabled":false,"rental_uris":{"android":"levelo://app?vid=65fc3445-a912-425c-88b4-da9666bb6fc2","ios":"levelo://app?vid=65fc3445-a912-425c-88b4-da9666bb6fc2"},"vehicle_type_id":"4","last_reported":1687597627,"current_range_meters":25200,"station_id":"ce4bgj92rcd13ifvqbd0","pricing_plan_id":"free"},{"bike_id":"781e98af-5adf-4988-9b7c-44f41a636367","system_id":"levelo_inurba_marseille","lat":43.299717,"lon":5.384845,"is_reserved":false,"is_disabled":false,"rental_uris":{"android":"levelo://app?vid=781e98af-5adf-4988-9b7c-44f41a636367","ios":"levelo://app?vid=781e98af-5adf-4988-9b7c-44f41a636367"},"vehicle_type_id":"4","last_reported":1687597627,"current_range_meters":29600,"station_id":"ce4bgj92rcd13ifvqbd0","pricing_plan_id":"free"},{"bike_id":"51940918-3546-4996-a165-3c869161f844","system_id":"levelo_inurba_marseille","lat":43.29511,"lon":5.3751,"is_reserved":false,"is_disabled":false,"rental_uris":{"android":"levelo://app?vid=51940918-3546-4996-a165-3c869161f844","ios":"levelo://app?vid=51940918-3546-4996-a165-3c869161f844"},"vehicle_type_id":"4","last_reported":1687597627,"current_range_meters":2400,"station_id":"ce4bgkp2rcd13ifvqbmg","pricing_plan_id":"free"},{"bike_id":"6b05f8f0-f4fb-40e7-82c0-a54912f6c06c","system_id":"levelo_inurba_marseille","lat":43.32367,"lon":5.388836,"is_reserved":false,"is_disabled":false,"rental_uris":{"android":"levelo://app?vid=6b05f8f0-f4fb-40e7-82c0-a54912f6c06c","ios":"levelo://app?vid=6b05f8f0-f4fb-40e7-82c0-a54912f6c06c"},"vehicle_type_id":"4","last_reported":1687597627,"current_range_meters":29200,"station_id":"ce4bhqp2rcd13ifvqhog","pricing_plan_id":"free"},{"bike_id":"cb4abb44-f52a-45fe-aa4f-b247ad26ddad","system_id":"levelo_inurba_marseille","lat":43.32367,"lon":5.388836,"is_reserved":false,"is_disabled":false,"rental_uris":{"android":"levelo://app?vid=cb4abb44-f52a-45fe-aa4f-b247ad26ddad","ios":"levelo://app?vid=cb4abb44-f52a-45fe-aa4f-b247ad26ddad"},"vehicle_type_id":"4","last_reported":1687597627,"current_range_meters":20000,"station_id":"ce4bhqp2rcd13ifvqhog","pricing_plan_id":"free"},{"bike_id":"e277e342-33ec-4481-8bc4-3477624b2a27","system_id":"levelo_inurba_marseille","lat":43.32367,"lon":5.388836,"is_reserved":false,"is_disabled":false,"rental_uris":{"android":"levelo://app?vid=e277e342-33ec-4481-8bc4-3477624b2a27","ios":"levelo://app?vid=e277e342-33ec-4481-8bc4-3477624b2a27"},"vehicle_type_id":"4","last_reported":1687597627,"current_range_meters":21200,"station_id":"ce4bhqp2rcd13ifvqhog","pricing_plan_id":"free"},{"bike_id":"8236622f-eab0-4c7a-a1db-1bcac87d6cb5","system_id":"levelo_inurba_marseille","lat":43.32367,"lon":5.388836,"is_reserved":false,"is_disabled":false,"rental_uris":{"android":"levelo://app?vid=8236622f-eab0-4c7a-a1db-1bcac87d6cb5","ios":"levelo://app?vid=8236622f-eab0-4c7a-a1db-1bcac87d6cb5"},"vehicle_type_id":"4","last_reported":1687597627,"current_range_meters":30800,"station_id":"ce4bhqp2rcd13ifvqhog","pricing_plan_id":"free"},{"bike_id":"ab05e67f-53e7-4b07-a295-c58e05fc4f08","system_id":"levelo_inurba_marseille","lat":43.32366,"lon":5.38876,"is_reserved":false,"is_disabled":false,"rental_uris":{"android":"levelo://app?vid=ab05e67f-53e7-4b07-a295-c58e05fc4f08","ios":"levelo://app?vid=ab05e67f-53e7-4b07-a295-c58e05fc4f08"},"vehicle_type_id":"4","last_reported":1687597627,"current_range_meters":24000,"station_id":"ce4bhqp2rcd13ifvqhog","pricing_plan_id":"free"},{"bike_id":"51ed23a6-df02-47c8-9e1b-989426c29b96","system_id":"levelo_inurba_marseille","lat":43.32367,"lon":5.388836,"is_reserved":false,"is_disabled":false,"rental_uris":{"android":"levelo://app?vid=51ed23a6-df02-47c8-9e1b-989426c29b96","ios":"levelo://app?vid=51ed23a6-df02-47c8-9e1b-989426c29b96"},"vehicle_type_id":"4","last_reported":1687597627,"current_range_meters":31200,"station_id":"ce4bhqp2rcd13ifvqhog","pricing_plan_id":"free"},{"bike_id":"520f0f8c-2924-409d-a08d-f1fb387141b2","system_id":"levelo_inurba_marseille","lat":43.32367,"lon":5.388836,"is_reserved":false,"is_disabled":false,"rental_uris":{"android":"levelo://app?vid=520f0f8c-2924-409d-a08d-f1fb387141b2","ios":"levelo://app?vid=520f0f8c-2924-409d-a08d-f1fb387141b2"},"vehicle_type_id":"4","last_reported":1687597627,"current_range_meters":24400,"station_id":"ce4bhqp2rcd13ifvqhog","pricing_plan_id":"free"},{"bike_id":"92e66387-6378-44fc-a61e-0fb9c2c59c9d","system_id":"levelo_inurba_marseille","lat":43.32367,"lon":5.388836,"is_reserved":false,"is_disabled":false,"rental_uris":{"android":"levelo://app?vid=92e66387-6378-44fc-a61e-0fb9c2c59c9d","ios":"levelo://app?vid=92e66387-6378-44fc-a61e-0fb9c2c59c9d"},"vehicle_type_id":"4","last_reported":1687597627,"current_range_meters":31200,"station_id":"ce4bhqp2rcd13ifvqhog","pricing_plan_id":"free"},{"bike_id":"f79ca90d-b1c3-4b30-b0af-8fd129c36ef0","system_id":"levelo_inurba_marseille","lat":43.32367,"lon":5.388836,"is_reserved":false,"is_disabled":false,"rental_uris":{"android":"levelo://app?vid=f79ca90d-b1c3-4b30-b0af-8fd129c36ef0","ios":"levelo://app?vid=f79ca90d-b1c3-4b30-b0af-8fd129c36ef0"},"vehicle_type_id":"4","last_reported":1687597627,"current_range_meters":21600,"station_id":"ce4bhqp2rcd13ifvqhog","pricing_plan_id":"free"},{"bike_id":"d03181c3-9091-4063-b5ab-d66c863c51ac","system_id":"levelo_inurba_marseille","lat":43.32367,"lon":5.388836,"is_reserved":false,"is_disabled":false,"rental_uris":{"android":"levelo://app?vid=d03181c3-9091-4063-b5ab-d66c863c51ac","ios":"levelo://app?vid=d03181c3-9091-4063-b5ab-d66c863c51ac"},"vehicle_type_id":"4","last_reported":1687597627,"current_range_meters":22800,"station_id":"ce4bhqp2rcd13ifvqhog","pricing_plan_id":"free"},{"bike_id":"8a13e71b-1555-4dfe-a3a4-2391fd16522a","system_id":"levelo_inurba_marseille","lat":43.29601,"lon":5.381084,"is_reserved":false,"is_disabled":false,"rental_uris":{"android":"levelo://app?vid=8a13e71b-1555-4dfe-a3a4-2391fd16522a","ios":"levelo://app?vid=8a13e71b-1555-4dfe-a3a4-2391fd16522a"},"vehicle_type_id":"4","last_reported":1687597627,"current_range_meters":30800,"station_id":"ce4bgl12rcd13ifvqbo0","pricing_plan_id":"free"},{"bike_id":"1b3b4f3d-9448-4f3a-b7a0-e0b2a4efef0d","system_id":"levelo_inurba_marseille","lat":43.29602,"lon":5.381084,"is_reserved":false,"is_disabled":false,"rental_uris":{"android":"levelo://app?vid=1b3b4f3d-9448-4f3a-b7a0-e0b2a4efef0d","ios":"levelo://app?vid=1b3b4f3d-9448-4f3a-b7a0-e0b2a4efef0d"},"vehicle_type_id":"4","last_reported":1687597627,"current_range_meters":28000,"station_id":"ce4bgl12rcd13ifvqbo0","pricing_plan_id":"free"},{"bike_id":"6765d0ba-7194-4c8c-a7ab-645d252a4c3a","system_id":"levelo_inurba_marseille","lat":43.292749,"lon":5.368402,"is_reserved":false,"is_disabled":false,"rental_uris":{"android":"levelo://app?vid=6765d0ba-7194-4c8c-a7ab-645d252a4c3a","ios":"levelo://app?vid=6765d0ba-7194-4c8c-a7ab-645d252a4c3a"},"vehicle_type_id":"4","last_reported":1687597627,"current_range_meters":21600,"station_id":"ce4bhbp2rcd13ifvqesg","pricing_plan_id":"free"},{"bike_id":"6b7c29d2-41c6-4f80-a866-3f8fae089c6b","system_id":"levelo_inurba_marseille","lat":43.305994,"lon":5.393687,"is_reserved":false,"is_disabled":false,"rental_uris":{"android":"levelo://app?vid=6b7c29d2-41c6-4f80-a866-3f8fae089c6b","ios":"levelo://app?vid=6b7c29d2-41c6-4f80-a866-3f8fae089c6b"},"vehicle_type_id":"4","last_reported":1687597627,"current_range_meters":16000,"station_id":"ce4bh0p2rcd13ifvqd80","pricing_plan_id":"free"},{"bike_id":"c97ece92-32c6-4d02-9492-4ae1f8a1b384","system_id":"levelo_inurba_marseille","lat":43.305994,"lon":5.393687,"is_reserved":false,"is_disabled":false,"rental_uris":{"android":"levelo://app?vid=c97ece92-32c6-4d02-9492-4ae1f8a1b384","ios":"levelo://app?vid=c97ece92-32c6-4d02-9492-4ae1f8a1b384"},"vehicle_type_id":"4","last_reported":1687597627,"current_range_meters":19200,"station_id":"ce4bh0p2rcd13ifvqd80","pricing_plan_id":"free"},{"bike_id":"54fda2f9-7b1a-4838-9b70-087d4101d0ae","system_id":"levelo_inurba_marseille","lat":43.33246,"lon":5.37934,"is_reserved":false,"is_disabled":false,"rental_uris":{"android":"levelo://app?vid=54fda2f9-7b1a-4838-9b70-087d4101d0ae","ios":"levelo://app?vid=54fda2f9-7b1a-4838-9b70-087d4101d0ae"},"vehicle_type_id":"4","last_reported":1687597627,"current_range_meters":0,"station_id":"","pricing_plan_id":"free"},{"bike_id":"e14afa42-64a5-42ba-ba6e-98e4e902b9bc","system_id":"levelo_inurba_marseille","lat":43.309038,"lon":5.396546,"is_reserved":false,"is_disabled":false,"rental_uris":{"android":"levelo://app?vid=e14afa42-64a5-42ba-ba6e-98e4e902b9bc","ios":"levelo://app?vid=e14afa42-64a5-42ba-ba6e-98e4e902b9bc"},"vehicle_type_id":"4","last_reported":1687597627,"current_range_meters":29200,"station_id":"ce4bh012rcd13ifvqcv0","pricing_plan_id":"free"},{"bike_id":"20b2d14c-0c60-42ec-9d28-87ce484665ba","system_id":"levelo_inurba_marseille","lat":43.309038,"lon":5.396546,"is_reserved":false,"is_disabled":false,"rental_uris":{"android":"levelo://app?vid=20b2d14c-0c60-42ec-9d28-87ce484665ba","ios":"levelo://app?vid=20b2d14c-0c60-42ec-9d28-87ce484665ba"},"vehicle_type_id":"4","last_reported":1687597627,"current_range_meters":24400,"station_id":"ce4bh012rcd13ifvqcv0","pricing_plan_id":"free"},{"bike_id":"ed649145-e923-47d8-be50-cf1fce580362","system_id":"levelo_inurba_marseille","lat":43.30886,"lon":5.39645,"is_reserved":false,"is_disabled":false,"rental_uris":{"android":"levelo://app?vid=ed649145-e923-47d8-be50-cf1fce580362","ios":"levelo://app?vid=ed649145-e923-47d8-be50-cf1fce580362"},"vehicle_type_id":"4","last_reported":1687597627,"current_range_meters":30800,"station_id":"","pricing_plan_id":"free"},{"bike_id":"0e5a6519-f485-462c-8b27-5c64348be2fe","system_id":"levelo_inurba_marseille","lat":43.294162,"lon":5.386292,"is_reserved":false,"is_disabled":false,"rental_uris":{"android":"levelo://app?vid=0e5a6519-f485-462c-8b27-5c64348be2fe","ios":"levelo://app?vid=0e5a6519-f485-462c-8b27-5c64348be2fe"},"vehicle_type_id":"4","last_reported":1687597627,"current_range_meters":25600,"station_id":"ce4bh2h2rcd13ifvqdh0","pricing_plan_id":"free"},{"bike_id":"20b2702a-2cf1-439f-b7da-41f192fa1a0a","system_id":"levelo_inurba_marseille","lat":43.29411,"lon":5.38614,"is_reserved":false,"is_disabled":false,"rental_uris":{"android":"levelo://app?vid=20b2702a-2cf1-439f-b7da-41f192fa1a0a","ios":"levelo://app?vid=20b2702a-2cf1-439f-b7da-41f192fa1a0a"},"vehicle_type_id":"4","last_reported":1687597627,"current_range_meters":20000,"station_id":"","pricing_plan_id":"free"},{"bike_id":"e36874dc-7135-4ebc-b4cd-8f7cd3793fb7","system_id":"levelo_inurba_marseille","lat":43.30339,"lon":5.39683,"is_reserved":false,"is_disabled":false,"rental_uris":{"android":"levelo://app?vid=e36874dc-7135-4ebc-b4cd-8f7cd3793fb7","ios":"levelo://app?vid=e36874dc-7135-4ebc-b4cd-8f7cd3793fb7"},"vehicle_type_id":"4","last_reported":1687597627,"current_range_meters":22400,"station_id":"","pricing_plan_id":"free"},{"bike_id":"8062f968-233f-4a24-9753-f4a79c82f613","system_id":"levelo_inurba_marseille","lat":43.304274,"lon":5.397513,"is_reserved":false,"is_disabled":false,"rental_uris":{"android":"levelo://app?vid=8062f968-233f-4a24-9753-f4a79c82f613","ios":"levelo://app?vid=8062f968-233f-4a24-9753-f4a79c82f613"},"vehicle_type_id":"4","last_reported":1687597627,"current_range_meters":22000,"station_id":"ce4bh092rcd13ifvqd20","pricing_plan_id":"free"},{"bike_id":"26a438c8-488d-4203-879a-37baad1616d7","system_id":"levelo_inurba_marseille","lat":43.292642,"lon":5.384254,"is_reserved":false,"is_disabled":false,"rental_uris":{"android":"levelo://app?vid=26a438c8-488d-4203-879a-37baad1616d7","ios":"levelo://app?vid=26a438c8-488d-4203-879a-37baad1616d7"},"vehicle_type_id":"4","last_reported":1687597627,"current_range_meters":28800,"station_id":"ce4bh692rcd13ifvqea0","pricing_plan_id":"free"},{"bike_id":"3ba65ffa-ebe5-42e2-af61-096809543958","system_id":"levelo_inurba_marseille","lat":43.33035,"lon":5.38917,"is_reserved":false,"is_disabled":false,"rental_uris":{"android":"levelo://app?vid=3ba65ffa-ebe5-42e2-af61-096809543958","ios":"levelo://app?vid=3ba65ffa-ebe5-42e2-af61-096809543958"},"vehicle_type_id":"4","last_reported":1687597627,"current_range_meters":12400,"station_id":"ce4bhr92rcd13ifvqhrg","pricing_plan_id":"free"},{"bike_id":"84bffd38-88ce-4160-b400-cbaa869d40c3","system_id":"levelo_inurba_marseille","lat":43.33038,"lon":5.38917,"is_reserved":false,"is_disabled":false,"rental_uris":{"android":"levelo://app?vid=84bffd38-88ce-4160-b400-cbaa869d40c3","ios":"levelo://app?vid=84bffd38-88ce-4160-b400-cbaa869d40c3"},"vehicle_type_id":"4","last_reported":1687597627,"current_range_meters":31200,"station_id":"ce4bhr92rcd13ifvqhrg","pricing_plan_id":"free"},{"bike_id":"7c811762-c0ee-4656-87ba-109acbb8edd1","system_id":"levelo_inurba_marseille","lat":43.33039,"lon":5.38916,"is_reserved":false,"is_disabled":false,"rental_uris":{"android":"levelo://app?vid=7c811762-c0ee-4656-87ba-109acbb8edd1","ios":"levelo://app?vid=7c811762-c0ee-4656-87ba-109acbb8edd1"},"vehicle_type_id":"4","last_reported":1687597627,"current_range_meters":8800,"station_id":"ce4bhr92rcd13ifvqhrg","pricing_plan_id":"free"},{"bike_id":"1a01895d-f344-4f7a-a2e9-47e079e18485","system_id":"levelo_inurba_marseille","lat":43.33044,"lon":5.3891,"is_reserved":false,"is_disabled":false,"rental_uris":{"android":"levelo://app?vid=1a01895d-f344-4f7a-a2e9-47e079e18485","ios":"levelo://app?vid=1a01895d-f344-4f7a-a2e9-47e079e18485"},"vehicle_type_id":"4","last_reported":1687597627,"current_range_meters":26000,"station_id":"ce4bhr92rcd13ifvqhrg","pricing_plan_id":"free"},{"bike_id":"eef6555f-627c-456c-8c25-2f16e8015c0d","system_id":"levelo_inurba_marseille","lat":43.33042,"lon":5.38914,"is_reserved":false,"is_disabled":false,"rental_uris":{"android":"levelo://app?vid=eef6555f-627c-456c-8c25-2f16e8015c0d","ios":"levelo://app?vid=eef6555f-627c-456c-8c25-2f16e8015c0d"},"vehicle_type_id":"4","last_reported":1687597627,"current_range_meters":24400,"station_id":"ce4bhr92rcd13ifvqhrg","pricing_plan_id":"free"},{"bike_id":"383564b9-2cae-4808-aee8-d3aefd710421","system_id":"levelo_inurba_marseille","lat":43.33043,"lon":5.38916,"is_reserved":false,"is_disabled":false,"rental_uris":{"android":"levelo://app?vid=383564b9-2cae-4808-aee8-d3aefd710421","ios":"levelo://app?vid=383564b9-2cae-4808-aee8-d3aefd710421"},"vehicle_type_id":"4","last_reported":1687597627,"current_range_meters":31200,"station_id":"ce4bhr92rcd13ifvqhrg","pricing_plan_id":"free"},{"bike_id":"dbf71a06-02c9-4cfe-a9d6-5738d4d32aad","system_id":"levelo_inurba_marseille","lat":43.33045,"lon":5.38913,"is_reserved":false,"is_disabled":false,"rental_uris":{"android":"levelo://app?vid=dbf71a06-02c9-4cfe-a9d6-5738d4d32aad","ios":"levelo://app?vid=dbf71a06-02c9-4cfe-a9d6-5738d4d32aad"},"vehicle_type_id":"4","last_reported":1687597627,"current_range_meters":31200,"station_id":"ce4bhr92rcd13ifvqhrg","pricing_plan_id":"free"},{"bike_id":"b49d73e2-9f19-4a2c-9b7e-4e20a517a2b2","system_id":"levelo_inurba_marseille","lat":43.3304,"lon":5.38921,"is_reserved":false,"is_disabled":false,"rental_uris":{"android":"levelo://app?vid=b49d73e2-9f19-4a2c-9b7e-4e20a517a2b2","ios":"levelo://app?vid=b49d73e2-9f19-4a2c-9b7e-4e20a517a2b2"},"vehicle_type_id":"4","last_reported":1687597627,"current_range_meters":31200,"station_id":"ce4bhr92rcd13ifvqhrg","pricing_plan_id":"free"},{"bike_id":"03acbd0b-65b8-413c-8809-142bdd43ad8d","system_id":"levelo_inurba_marseille","lat":43.33042,"lon":5.38919,"is_reserved":false,"is_disabled":false,"rental_uris":{"android":"levelo://app?vid=03acbd0b-65b8-413c-8809-142bdd43ad8d","ios":"levelo://app?vid=03acbd0b-65b8-413c-8809-142bdd43ad8d"},"vehicle_type_id":"4","last_reported":1687597627,"current_range_meters":23200,"station_id":"ce4bhr92rcd13ifvqhrg","pricing_plan_id":"free"},{"bike_id":"e4e06b95-1721-4584-9864-ef74cf24cd0f","system_id":"levelo_inurba_marseille","lat":43.33042,"lon":5.3892,"is_reserved":false,"is_disabled":false,"rental_uris":{"android":"levelo://app?vid=e4e06b95-1721-4584-9864-ef74cf24cd0f","ios":"levelo://app?vid=e4e06b95-1721-4584-9864-ef74cf24cd0f"},"vehicle_type_id":"4","last_reported":1687597627,"current_range_meters":15600,"station_id":"ce4bhr92rcd13ifvqhrg","pricing_plan_id":"free"},{"bike_id":"4725c83f-4f1d-4a55-a6c3-7e97ab9178c4","system_id":"levelo_inurba_marseille","lat":43.33044,"lon":5.38922,"is_reserved":false,"is_disabled":false,"rental_uris":{"android":"levelo://app?vid=4725c83f-4f1d-4a55-a6c3-7e97ab9178c4","ios":"levelo://app?vid=4725c83f-4f1d-4a55-a6c3-7e97ab9178c4"},"vehicle_type_id":"4","last_reported":1687597627,"current_range_meters":30400,"station_id":"ce4bhr92rcd13ifvqhrg","pricing_plan_id":"free"},{"bike_id":"3dec9c94-03ab-457b-8ffe-535d9cee682a","system_id":"levelo_inurba_marseille","lat":43.304274,"lon":5.397513,"is_reserved":false,"is_disabled":false,"rental_uris":{"android":"levelo://app?vid=3dec9c94-03ab-457b-8ffe-535d9cee682a","ios":"levelo://app?vid=3dec9c94-03ab-457b-8ffe-535d9cee682a"},"vehicle_type_id":"4","last_reported":1687597627,"current_range_meters":800,"station_id":"ce4bh092rcd13ifvqd20","pricing_plan_id":"free"},{"bike_id":"d83aa5fd-4d74-4d43-9876-4a0fb8a071cd","system_id":"levelo_inurba_marseille","lat":43.297815,"lon":5.393548,"is_reserved":false,"is_disabled":false,"rental_uris":{"android":"levelo://app?vid=d83aa5fd-4d74-4d43-9876-4a0fb8a071cd","ios":"levelo://app?vid=d83aa5fd-4d74-4d43-9876-4a0fb8a071cd"},"vehicle_type_id":"4","last_reported":1687597627,"current_range_meters":23200,"station_id":"chh1huq6cuj3fo74tm60","pricing_plan_id":"free"},{"bike_id":"593f337d-8b79-4239-8ee4-e954308d4a33","system_id":"levelo_inurba_marseille","lat":43.295169,"lon":5.390426,"is_reserved":false,"is_disabled":false,"rental_uris":{"android":"levelo://app?vid=593f337d-8b79-4239-8ee4-e954308d4a33","ios":"levelo://app?vid=593f337d-8b79-4239-8ee4-e954308d4a33"},"vehicle_type_id":"4","last_reported":1687597627,"current_range_meters":30800,"station_id":"ce4bh3p2rcd13ifvqdp0","pricing_plan_id":"free"},{"bike_id":"00ee42d9-a7bc-4334-8169-d7745ce70226","system_id":"levelo_inurba_marseille","lat":43.295169,"lon":5.390426,"is_reserved":false,"is_disabled":false,"rental_uris":{"android":"levelo://app?vid=00ee42d9-a7bc-4334-8169-d7745ce70226","ios":"levelo://app?vid=00ee42d9-a7bc-4334-8169-d7745ce70226"},"vehicle_type_id":"4","last_reported":1687597627,"current_range_meters":400,"station_id":"ce4bh3p2rcd13ifvqdp0","pricing_plan_id":"free"},{"bike_id":"2860581f-86b4-4ddb-ae87-b4ea705f07e3","system_id":"levelo_inurba_marseille","lat":43.29787,"lon":5.39368,"is_reserved":false,"is_disabled":false,"rental_uris":{"android":"levelo://app?vid=2860581f-86b4-4ddb-ae87-b4ea705f07e3","ios":"levelo://app?vid=2860581f-86b4-4ddb-ae87-b4ea705f07e3"},"vehicle_type_id":"4","last_reported":1687597627,"current_range_meters":8000,"station_id":"chh1huq6cuj3fo74tm60","pricing_plan_id":"free"},{"bike_id":"a63df6b1-9566-4fb8-9add-10a918928929","system_id":"levelo_inurba_marseille","lat":43.295169,"lon":5.390426,"is_reserved":false,"is_disabled":false,"rental_uris":{"android":"levelo://app?vid=a63df6b1-9566-4fb8-9add-10a918928929","ios":"levelo://app?vid=a63df6b1-9566-4fb8-9add-10a918928929"},"vehicle_type_id":"4","last_reported":1687597627,"current_range_meters":25200,"station_id":"ce4bh3p2rcd13ifvqdp0","pricing_plan_id":"free"},{"bike_id":"d6be6878-79ee-4d51-8621-c84943f5c1ba","system_id":"levelo_inurba_marseille","lat":43.2901,"lon":5.381269,"is_reserved":false,"is_disabled":false,"rental_uris":{"android":"levelo://app?vid=d6be6878-79ee-4d51-8621-c84943f5c1ba","ios":"levelo://app?vid=d6be6878-79ee-4d51-8621-c84943f5c1ba"},"vehicle_type_id":"4","last_reported":1687597627,"current_range_meters":400,"station_id":"ce4bh4p2rcd13ifvqe1g","pricing_plan_id":"free"},{"bike_id":"fc142cf3-2687-4a65-b0cd-726f8d491539","system_id":"levelo_inurba_marseille","lat":43.28856,"lon":5.358371,"is_reserved":false,"is_disabled":false,"rental_uris":{"android":"levelo://app?vid=fc142cf3-2687-4a65-b0cd-726f8d491539","ios":"levelo://app?vid=fc142cf3-2687-4a65-b0cd-726f8d491539"},"vehicle_type_id":"4","last_reported":1687597627,"current_range_meters":25600,"station_id":"ce4bhb12rcd13ifvqem0","pricing_plan_id":"free"},{"bike_id":"e8775203-063c-4bc3-8804-2c24eb92fc1d","system_id":"levelo_inurba_marseille","lat":43.28856,"lon":5.358371,"is_reserved":false,"is_disabled":false,"rental_uris":{"android":"levelo://app?vid=e8775203-063c-4bc3-8804-2c24eb92fc1d","ios":"levelo://app?vid=e8775203-063c-4bc3-8804-2c24eb92fc1d"},"vehicle_type_id":"4","last_reported":1687597627,"current_range_meters":26000,"station_id":"ce4bhb12rcd13ifvqem0","pricing_plan_id":"free"},{"bike_id":"3f8a925a-6a54-4259-a38f-9cf091aab246","system_id":"levelo_inurba_marseille","lat":43.29247,"lon":5.38753,"is_reserved":false,"is_disabled":false,"rental_uris":{"android":"levelo://app?vid=3f8a925a-6a54-4259-a38f-9cf091aab246","ios":"levelo://app?vid=3f8a925a-6a54-4259-a38f-9cf091aab246"},"vehicle_type_id":"4","last_reported":1687597627,"current_range_meters":21600,"station_id":"","pricing_plan_id":"free"},{"bike_id":"adbca1f0-5878-41e5-8af5-4f6447a6da6f","system_id":"levelo_inurba_marseille","lat":43.3374,"lon":5.37466,"is_reserved":false,"is_disabled":false,"rental_uris":{"android":"levelo://app?vid=adbca1f0-5878-41e5-8af5-4f6447a6da6f","ios":"levelo://app?vid=adbca1f0-5878-41e5-8af5-4f6447a6da6f"},"vehicle_type_id":"4","last_reported":1687597627,"current_range_meters":31200,"station_id":"","pricing_plan_id":"free"},{"bike_id":"fb1a1b9a-1a83-4370-81e9-3834cee986c7","system_id":"levelo_inurba_marseille","lat":43.309371,"lon":5.401449,"is_reserved":false,"is_disabled":false,"rental_uris":{"android":"levelo://app?vid=fb1a1b9a-1a83-4370-81e9-3834cee986c7","ios":"levelo://app?vid=fb1a1b9a-1a83-4370-81e9-3834cee986c7"},"vehicle_type_id":"4","last_reported":1687597627,"current_range_meters":30000,"station_id":"ce4bgvp2rcd13ifvqct0","pricing_plan_id":"free"},{"bike_id":"3879eb6b-811f-4edd-82af-5ed96f1353e5","system_id":"levelo_inurba_marseille","lat":43.309371,"lon":5.401449,"is_reserved":false,"is_disabled":false,"rental_uris":{"android":"levelo://app?vid=3879eb6b-811f-4edd-82af-5ed96f1353e5","ios":"levelo://app?vid=3879eb6b-811f-4edd-82af-5ed96f1353e5"},"vehicle_type_id":"4","last_reported":1687597627,"current_range_meters":30800,"station_id":"ce4bgvp2rcd13ifvqct0","pricing_plan_id":"free"},{"bike_id":"c180ae38-f769-441f-8a55-5a6e4930e6ad","system_id":"levelo_inurba_marseille","lat":43.3375,"lon":5.37439,"is_reserved":false,"is_disabled":false,"rental_uris":{"android":"levelo://app?vid=c180ae38-f769-441f-8a55-5a6e4930e6ad","ios":"levelo://app?vid=c180ae38-f769-441f-8a55-5a6e4930e6ad"},"vehicle_type_id":"4","last_reported":1687597627,"current_range_meters":25200,"station_id":"","pricing_plan_id":"free"},{"bike_id":"698a0c42-1f58-43ce-9158-85de813c112c","system_id":"levelo_inurba_marseille","lat":43.306412,"lon":5.401035,"is_reserved":false,"is_disabled":false,"rental_uris":{"android":"levelo://app?vid=698a0c42-1f58-43ce-9158-85de813c112c","ios":"levelo://app?vid=698a0c42-1f58-43ce-9158-85de813c112c"},"vehicle_type_id":"4","last_reported":1687597627,"current_range_meters":18000,"station_id":"ce4bh112rcd13ifvqda0","pricing_plan_id":"free"},{"bike_id":"dcf38555-22f7-4034-b160-6afa14cc0c4d","system_id":"levelo_inurba_marseille","lat":43.306412,"lon":5.401035,"is_reserved":false,"is_disabled":false,"rental_uris":{"android":"levelo://app?vid=dcf38555-22f7-4034-b160-6afa14cc0c4d","ios":"levelo://app?vid=dcf38555-22f7-4034-b160-6afa14cc0c4d"},"vehicle_type_id":"4","last_reported":1687597627,"current_range_meters":8000,"station_id":"ce4bh112rcd13ifvqda0","pricing_plan_id":"free"},{"bike_id":"8238c0b9-921a-4301-bb43-df1e88eec915","system_id":"levelo_inurba_marseille","lat":43.309371,"lon":5.401449,"is_reserved":false,"is_disabled":false,"rental_uris":{"android":"levelo://app?vid=8238c0b9-921a-4301-bb43-df1e88eec915","ios":"levelo://app?vid=8238c0b9-921a-4301-bb43-df1e88eec915"},"vehicle_type_id":"4","last_reported":1687597627,"current_range_meters":22000,"station_id":"ce4bgvp2rcd13ifvqct0","pricing_plan_id":"free"},{"bike_id":"1aaafe29-3ece-4a3d-8483-e9ad63f79c78","system_id":"levelo_inurba_marseille","lat":43.33778,"lon":5.37429,"is_reserved":false,"is_disabled":false,"rental_uris":{"android":"levelo://app?vid=1aaafe29-3ece-4a3d-8483-e9ad63f79c78","ios":"levelo://app?vid=1aaafe29-3ece-4a3d-8483-e9ad63f79c78"},"vehicle_type_id":"4","last_reported":1687597627,"current_range_meters":24800,"station_id":"","pricing_plan_id":"free"},{"bike_id":"811c0c2f-3f40-4134-a10f-1a27d6c35ac2","system_id":"levelo_inurba_marseille","lat":43.301117,"lon":5.398795,"is_reserved":false,"is_disabled":false,"rental_uris":{"android":"levelo://app?vid=811c0c2f-3f40-4134-a10f-1a27d6c35ac2","ios":"levelo://app?vid=811c0c2f-3f40-4134-a10f-1a27d6c35ac2"},"vehicle_type_id":"4","last_reported":1687597627,"current_range_meters":30400,"station_id":"ce4bh0h2rcd13ifvqd40","pricing_plan_id":"free"},{"bike_id":"6547eb8d-934d-4322-874c-9cf88b84f20a","system_id":"levelo_inurba_marseille","lat":43.301117,"lon":5.398795,"is_reserved":false,"is_disabled":false,"rental_uris":{"android":"levelo://app?vid=6547eb8d-934d-4322-874c-9cf88b84f20a","ios":"levelo://app?vid=6547eb8d-934d-4322-874c-9cf88b84f20a"},"vehicle_type_id":"4","last_reported":1687597627,"current_range_meters":27200,"station_id":"ce4bh0h2rcd13ifvqd40","pricing_plan_id":"free"},{"bike_id":"81c97749-e345-4dc9-bb48-5327432afded","system_id":"levelo_inurba_marseille","lat":43.302759,"lon":5.400793,"is_reserved":false,"is_disabled":false,"rental_uris":{"android":"levelo://app?vid=81c97749-e345-4dc9-bb48-5327432afded","ios":"levelo://app?vid=81c97749-e345-4dc9-bb48-5327432afded"},"vehicle_type_id":"4","last_reported":1687597627,"current_range_meters":31200,"station_id":"ce4bgvh2rcd13ifvqcs0","pricing_plan_id":"free"},{"bike_id":"ebb26191-1223-4625-a56e-4ed8e9407ba3","system_id":"levelo_inurba_marseille","lat":43.302759,"lon":5.400793,"is_reserved":false,"is_disabled":false,"rental_uris":{"android":"levelo://app?vid=ebb26191-1223-4625-a56e-4ed8e9407ba3","ios":"levelo://app?vid=ebb26191-1223-4625-a56e-4ed8e9407ba3"},"vehicle_type_id":"4","last_reported":1687597627,"current_range_meters":30400,"station_id":"ce4bgvh2rcd13ifvqcs0","pricing_plan_id":"free"},{"bike_id":"904e2bdd-6a2a-4ef7-babe-6f0b618fa6bf","system_id":"levelo_inurba_marseille","lat":43.29072,"lon":5.38915,"is_reserved":false,"is_disabled":false,"rental_uris":{"android":"levelo://app?vid=904e2bdd-6a2a-4ef7-babe-6f0b618fa6bf","ios":"levelo://app?vid=904e2bdd-6a2a-4ef7-babe-6f0b618fa6bf"},"vehicle_type_id":"4","last_reported":1687597627,"current_range_meters":30400,"station_id":"","pricing_plan_id":"free"},{"bike_id":"7f24866d-c1b1-429a-bab7-defa9c57c34b","system_id":"levelo_inurba_marseille","lat":43.316517,"lon":5.404375,"is_reserved":false,"is_disabled":false,"rental_uris":{"android":"levelo://app?vid=7f24866d-c1b1-429a-bab7-defa9c57c34b","ios":"levelo://app?vid=7f24866d-c1b1-429a-bab7-defa9c57c34b"},"vehicle_type_id":"4","last_reported":1687597627,"current_range_meters":19600,"station_id":"ce4bh012rcd13ifvqd00","pricing_plan_id":"free"},{"bike_id":"d69fed3a-efe9-46fb-b1dc-1240b8978d3e","system_id":"levelo_inurba_marseille","lat":43.316517,"lon":5.404375,"is_reserved":false,"is_disabled":false,"rental_uris":{"android":"levelo://app?vid=d69fed3a-efe9-46fb-b1dc-1240b8978d3e","ios":"levelo://app?vid=d69fed3a-efe9-46fb-b1dc-1240b8978d3e"},"vehicle_type_id":"4","last_reported":1687597627,"current_range_meters":20000,"station_id":"ce4bh012rcd13ifvqd00","pricing_plan_id":"free"},{"bike_id":"b946f9df-c663-48fa-907b-d419086985fe","system_id":"levelo_inurba_marseille","lat":43.316517,"lon":5.404375,"is_reserved":false,"is_disabled":false,"rental_uris":{"android":"levelo://app?vid=b946f9df-c663-48fa-907b-d419086985fe","ios":"levelo://app?vid=b946f9df-c663-48fa-907b-d419086985fe"},"vehicle_type_id":"4","last_reported":1687597627,"current_range_meters":16400,"station_id":"ce4bh012rcd13ifvqd00","pricing_plan_id":"free"},{"bike_id":"5c2055f6-43af-42f5-9106-4fb329f7a3c9","system_id":"levelo_inurba_marseille","lat":43.316517,"lon":5.404375,"is_reserved":false,"is_disabled":false,"rental_uris":{"android":"levelo://app?vid=5c2055f6-43af-42f5-9106-4fb329f7a3c9","ios":"levelo://app?vid=5c2055f6-43af-42f5-9106-4fb329f7a3c9"},"vehicle_type_id":"4","last_reported":1687597627,"current_range_meters":31200,"station_id":"ce4bh012rcd13ifvqd00","pricing_plan_id":"free"},{"bike_id":"7ff0394d-f958-44b6-9037-68a6ba6907f8","system_id":"levelo_inurba_marseille","lat":43.316517,"lon":5.404375,"is_reserved":false,"is_disabled":false,"rental_uris":{"android":"levelo://app?vid=7ff0394d-f958-44b6-9037-68a6ba6907f8","ios":"levelo://app?vid=7ff0394d-f958-44b6-9037-68a6ba6907f8"},"vehicle_type_id":"4","last_reported":1687597627,"current_range_meters":31200,"station_id":"ce4bh012rcd13ifvqd00","pricing_plan_id":"free"},{"bike_id":"f2c35237-c640-4813-ba24-ef17c0774c80","system_id":"levelo_inurba_marseille","lat":43.29568,"lon":5.39781,"is_reserved":false,"is_disabled":false,"rental_uris":{"android":"levelo://app?vid=f2c35237-c640-4813-ba24-ef17c0774c80","ios":"levelo://app?vid=f2c35237-c640-4813-ba24-ef17c0774c80"},"vehicle_type_id":"4","last_reported":1687597627,"current_range_meters":0,"station_id":"","pricing_plan_id":"free"},{"bike_id":"8953d5c2-a9b7-485e-a7bb-3df476a9c0b7","system_id":"levelo_inurba_marseille","lat":43.285848,"lon":5.350787,"is_reserved":false,"is_disabled":false,"rental_uris":{"android":"levelo://app?vid=8953d5c2-a9b7-485e-a7bb-3df476a9c0b7","ios":"levelo://app?vid=8953d5c2-a9b7-485e-a7bb-3df476a9c0b7"},"vehicle_type_id":"4","last_reported":1687597627,"current_range_meters":30800,"station_id":"ce4bhch2rcd13ifvqeug","pricing_plan_id":"free"},{"bike_id":"1ad9048e-d652-4aab-9888-3bbb242d3f1e","system_id":"levelo_inurba_marseille","lat":43.28669,"lon":5.38669,"is_reserved":false,"is_disabled":false,"rental_uris":{"android":"levelo://app?vid=1ad9048e-d652-4aab-9888-3bbb242d3f1e","ios":"levelo://app?vid=1ad9048e-d652-4aab-9888-3bbb242d3f1e"},"vehicle_type_id":"4","last_reported":1687597627,"current_range_meters":18000,"station_id":"ce4bh492rcd13ifvqdug","pricing_plan_id":"free"},{"bike_id":"165784fd-8cb0-48fe-8681-d7abe54a6cf4","system_id":"levelo_inurba_marseille","lat":43.32335,"lon":5.40617,"is_reserved":false,"is_disabled":false,"rental_uris":{"android":"levelo://app?vid=165784fd-8cb0-48fe-8681-d7abe54a6cf4","ios":"levelo://app?vid=165784fd-8cb0-48fe-8681-d7abe54a6cf4"},"vehicle_type_id":"4","last_reported":1687597627,"current_range_meters":31200,"station_id":"ce4bhq92rcd13ifvqhjg","pricing_plan_id":"free"},{"bike_id":"9cae825f-ce49-4976-9212-5608954cbbcd","system_id":"levelo_inurba_marseille","lat":43.323464,"lon":5.406297,"is_reserved":false,"is_disabled":false,"rental_uris":{"android":"levelo://app?vid=9cae825f-ce49-4976-9212-5608954cbbcd","ios":"levelo://app?vid=9cae825f-ce49-4976-9212-5608954cbbcd"},"vehicle_type_id":"4","last_reported":1687597627,"current_range_meters":31600,"station_id":"ce4bhq92rcd13ifvqhjg","pricing_plan_id":"free"},{"bike_id":"00803c85-75e3-424e-a0cb-c6ed39a02c23","system_id":"levelo_inurba_marseille","lat":43.323464,"lon":5.406297,"is_reserved":false,"is_disabled":false,"rental_uris":{"android":"levelo://app?vid=00803c85-75e3-424e-a0cb-c6ed39a02c23","ios":"levelo://app?vid=00803c85-75e3-424e-a0cb-c6ed39a02c23"},"vehicle_type_id":"4","last_reported":1687597627,"current_range_meters":31600,"station_id":"ce4bhq92rcd13ifvqhjg","pricing_plan_id":"free"},{"bike_id":"df4e7540-2833-4736-9085-78c178d2e700","system_id":"levelo_inurba_marseille","lat":43.323464,"lon":5.406297,"is_reserved":false,"is_disabled":false,"rental_uris":{"android":"levelo://app?vid=df4e7540-2833-4736-9085-78c178d2e700","ios":"levelo://app?vid=df4e7540-2833-4736-9085-78c178d2e700"},"vehicle_type_id":"4","last_reported":1687597627,"current_range_meters":31600,"station_id":"ce4bhq92rcd13ifvqhjg","pricing_plan_id":"free"},{"bike_id":"6606e82c-c0ce-4a7f-bf46-357d4faa235e","system_id":"levelo_inurba_marseille","lat":43.32332,"lon":5.40621,"is_reserved":false,"is_disabled":false,"rental_uris":{"android":"levelo://app?vid=6606e82c-c0ce-4a7f-bf46-357d4faa235e","ios":"levelo://app?vid=6606e82c-c0ce-4a7f-bf46-357d4faa235e"},"vehicle_type_id":"4","last_reported":1687597627,"current_range_meters":1200,"station_id":"ce4bhq92rcd13ifvqhjg","pricing_plan_id":"free"},{"bike_id":"8d1f88b2-a260-40c1-9cbd-c5c8b2bfd015","system_id":"levelo_inurba_marseille","lat":43.32339,"lon":5.40618,"is_reserved":false,"is_disabled":false,"rental_uris":{"android":"levelo://app?vid=8d1f88b2-a260-40c1-9cbd-c5c8b2bfd015","ios":"levelo://app?vid=8d1f88b2-a260-40c1-9cbd-c5c8b2bfd015"},"vehicle_type_id":"4","last_reported":1687597627,"current_range_meters":11600,"station_id":"ce4bhq92rcd13ifvqhjg","pricing_plan_id":"free"},{"bike_id":"a54c5183-d12c-4b5d-b1a7-e6c2a62eb9b5","system_id":"levelo_inurba_marseille","lat":43.32342,"lon":5.40623,"is_reserved":false,"is_disabled":false,"rental_uris":{"android":"levelo://app?vid=a54c5183-d12c-4b5d-b1a7-e6c2a62eb9b5","ios":"levelo://app?vid=a54c5183-d12c-4b5d-b1a7-e6c2a62eb9b5"},"vehicle_type_id":"4","last_reported":1687597627,"current_range_meters":19600,"station_id":"ce4bhq92rcd13ifvqhjg","pricing_plan_id":"free"},{"bike_id":"75b81fdb-a7b4-4460-a538-12c0506d599b","system_id":"levelo_inurba_marseille","lat":43.323464,"lon":5.406297,"is_reserved":false,"is_disabled":false,"rental_uris":{"android":"levelo://app?vid=75b81fdb-a7b4-4460-a538-12c0506d599b","ios":"levelo://app?vid=75b81fdb-a7b4-4460-a538-12c0506d599b"},"vehicle_type_id":"4","last_reported":1687597627,"current_range_meters":13200,"station_id":"ce4bhq92rcd13ifvqhjg","pricing_plan_id":"free"},{"bike_id":"50f202e5-5296-4896-9f45-a08940cc6730","system_id":"levelo_inurba_marseille","lat":43.284793,"lon":5.384113,"is_reserved":false,"is_disabled":false,"rental_uris":{"android":"levelo://app?vid=50f202e5-5296-4896-9f45-a08940cc6730","ios":"levelo://app?vid=50f202e5-5296-4896-9f45-a08940cc6730"},"vehicle_type_id":"4","last_reported":1687597627,"current_range_meters":16800,"station_id":"ce4bh512rcd13ifvqe3g","pricing_plan_id":"free"},{"bike_id":"c6e7a2d6-6908-4973-9e14-e36fdc6524c0","system_id":"levelo_inurba_marseille","lat":43.28478,"lon":5.38416,"is_reserved":false,"is_disabled":false,"rental_uris":{"android":"levelo://app?vid=c6e7a2d6-6908-4973-9e14-e36fdc6524c0","ios":"levelo://app?vid=c6e7a2d6-6908-4973-9e14-e36fdc6524c0"},"vehicle_type_id":"4","last_reported":1687597627,"current_range_meters":0,"station_id":"ce4bh512rcd13ifvqe3g","pricing_plan_id":"free"},{"bike_id":"b4c950db-352f-4a1a-8e3c-c05101a6dad0","system_id":"levelo_inurba_marseille","lat":43.288497,"lon":5.393089,"is_reserved":false,"is_disabled":false,"rental_uris":{"android":"levelo://app?vid=b4c950db-352f-4a1a-8e3c-c05101a6dad0","ios":"levelo://app?vid=b4c950db-352f-4a1a-8e3c-c05101a6dad0"},"vehicle_type_id":"4","last_reported":1687597627,"current_range_meters":31200,"station_id":"ce4bh2p2rcd13ifvqdi0","pricing_plan_id":"free"},{"bike_id":"1a712558-b3b6-4222-84d7-c57b60c11c5b","system_id":"levelo_inurba_marseille","lat":43.28848,"lon":5.39296,"is_reserved":false,"is_disabled":false,"rental_uris":{"android":"levelo://app?vid=1a712558-b3b6-4222-84d7-c57b60c11c5b","ios":"levelo://app?vid=1a712558-b3b6-4222-84d7-c57b60c11c5b"},"vehicle_type_id":"4","last_reported":1687597627,"current_range_meters":19600,"station_id":"ce4bh2p2rcd13ifvqdi0","pricing_plan_id":"free"},{"bike_id":"a8bb3d9a-eb14-4844-8c08-66b99a51ade6","system_id":"levelo_inurba_marseille","lat":43.288497,"lon":5.393089,"is_reserved":false,"is_disabled":false,"rental_uris":{"android":"levelo://app?vid=a8bb3d9a-eb14-4844-8c08-66b99a51ade6","ios":"levelo://app?vid=a8bb3d9a-eb14-4844-8c08-66b99a51ade6"},"vehicle_type_id":"4","last_reported":1687597627,"current_range_meters":26400,"station_id":"ce4bh2p2rcd13ifvqdi0","pricing_plan_id":"free"},{"bike_id":"e9bb34fa-f29b-4419-a7d6-dd07a0c9a7bf","system_id":"levelo_inurba_marseille","lat":43.30665,"lon":5.4085,"is_reserved":false,"is_disabled":false,"rental_uris":{"android":"levelo://app?vid=e9bb34fa-f29b-4419-a7d6-dd07a0c9a7bf","ios":"levelo://app?vid=e9bb34fa-f29b-4419-a7d6-dd07a0c9a7bf"},"vehicle_type_id":"4","last_reported":1687597627,"current_range_meters":0,"station_id":"","pricing_plan_id":"free"},{"bike_id":"18b07cb4-7e42-4e0d-ab43-3d6ac52f3b2b","system_id":"levelo_inurba_marseille","lat":43.284219,"lon":5.3497,"is_reserved":false,"is_disabled":false,"rental_uris":{"android":"levelo://app?vid=18b07cb4-7e42-4e0d-ab43-3d6ac52f3b2b","ios":"levelo://app?vid=18b07cb4-7e42-4e0d-ab43-3d6ac52f3b2b"},"vehicle_type_id":"4","last_reported":1687597627,"current_range_meters":20400,"station_id":"ce4bhbh2rcd13ifvqepg","pricing_plan_id":"free"},{"bike_id":"0055eff6-c9b4-4290-bec2-537a07918075","system_id":"levelo_inurba_marseille","lat":43.28422,"lon":5.3498,"is_reserved":false,"is_disabled":false,"rental_uris":{"android":"levelo://app?vid=0055eff6-c9b4-4290-bec2-537a07918075","ios":"levelo://app?vid=0055eff6-c9b4-4290-bec2-537a07918075"},"vehicle_type_id":"4","last_reported":1687597627,"current_range_meters":31200,"station_id":"ce4bhbh2rcd13ifvqepg","pricing_plan_id":"free"},{"bike_id":"94e42fa8-8c26-47ed-ba01-a260767f5995","system_id":"levelo_inurba_marseille","lat":43.284217,"lon":5.349697,"is_reserved":false,"is_disabled":false,"rental_uris":{"android":"levelo://app?vid=94e42fa8-8c26-47ed-ba01-a260767f5995","ios":"levelo://app?vid=94e42fa8-8c26-47ed-ba01-a260767f5995"},"vehicle_type_id":"4","last_reported":1687597627,"current_range_meters":20800,"station_id":"ce4bhbh2rcd13ifvqepg","pricing_plan_id":"free"},{"bike_id":"b4309bde-2c2f-41ce-80a1-8a404dff628a","system_id":"levelo_inurba_marseille","lat":43.284219,"lon":5.3497,"is_reserved":false,"is_disabled":false,"rental_uris":{"android":"levelo://app?vid=b4309bde-2c2f-41ce-80a1-8a404dff628a","ios":"levelo://app?vid=b4309bde-2c2f-41ce-80a1-8a404dff628a"},"vehicle_type_id":"4","last_reported":1687597627,"current_range_meters":24000,"station_id":"ce4bhbh2rcd13ifvqepg","pricing_plan_id":"free"},{"bike_id":"02c4906c-8403-4025-af52-6609de01361f","system_id":"levelo_inurba_marseille","lat":43.28416,"lon":5.34974,"is_reserved":false,"is_disabled":false,"rental_uris":{"android":"levelo://app?vid=02c4906c-8403-4025-af52-6609de01361f","ios":"levelo://app?vid=02c4906c-8403-4025-af52-6609de01361f"},"vehicle_type_id":"4","last_reported":1687597627,"current_range_meters":15600,"station_id":"ce4bhbh2rcd13ifvqepg","pricing_plan_id":"free"},{"bike_id":"bbfee6d7-ec59-438c-b335-6601dc8b5f80","system_id":"levelo_inurba_marseille","lat":43.284217,"lon":5.349697,"is_reserved":false,"is_disabled":false,"rental_uris":{"android":"levelo://app?vid=bbfee6d7-ec59-438c-b335-6601dc8b5f80","ios":"levelo://app?vid=bbfee6d7-ec59-438c-b335-6601dc8b5f80"},"vehicle_type_id":"4","last_reported":1687597627,"current_range_meters":16000,"station_id":"ce4bhbh2rcd13ifvqepg","pricing_plan_id":"free"},{"bike_id":"fe1f39ee-1f5f-4fee-bf72-ec5ff6851e86","system_id":"levelo_inurba_marseille","lat":43.32058,"lon":5.40906,"is_reserved":false,"is_disabled":false,"rental_uris":{"android":"levelo://app?vid=fe1f39ee-1f5f-4fee-bf72-ec5ff6851e86","ios":"levelo://app?vid=fe1f39ee-1f5f-4fee-bf72-ec5ff6851e86"},"vehicle_type_id":"4","last_reported":1687597627,"current_range_meters":2400,"station_id":"","pricing_plan_id":"free"},{"bike_id":"1a9bcc06-9b17-4a98-a6c5-6f3b60a9ddde","system_id":"levelo_inurba_marseille","lat":43.29281,"lon":5.40116,"is_reserved":false,"is_disabled":false,"rental_uris":{"android":"levelo://app?vid=1a9bcc06-9b17-4a98-a6c5-6f3b60a9ddde","ios":"levelo://app?vid=1a9bcc06-9b17-4a98-a6c5-6f3b60a9ddde"},"vehicle_type_id":"4","last_reported":1687597627,"current_range_meters":17600,"station_id":"ce4bh312rcd13ifvqdk0","pricing_plan_id":"free"},{"bike_id":"82f0c12c-a976-4c4f-addd-333e5baac730","system_id":"levelo_inurba_marseille","lat":43.29273,"lon":5.40111,"is_reserved":false,"is_disabled":false,"rental_uris":{"android":"levelo://app?vid=82f0c12c-a976-4c4f-addd-333e5baac730","ios":"levelo://app?vid=82f0c12c-a976-4c4f-addd-333e5baac730"},"vehicle_type_id":"4","last_reported":1687597627,"current_range_meters":0,"station_id":"ce4bh312rcd13ifvqdk0","pricing_plan_id":"free"},{"bike_id":"af648819-6baf-4adf-ad55-28bd186cea27","system_id":"levelo_inurba_marseille","lat":43.2929,"lon":5.4013,"is_reserved":false,"is_disabled":false,"rental_uris":{"android":"levelo://app?vid=af648819-6baf-4adf-ad55-28bd186cea27","ios":"levelo://app?vid=af648819-6baf-4adf-ad55-28bd186cea27"},"vehicle_type_id":"4","last_reported":1687597627,"current_range_meters":29200,"station_id":"ce4bh312rcd13ifvqdk0","pricing_plan_id":"free"},{"bike_id":"d3bd4065-724a-453f-9f63-0b70081928ba","system_id":"levelo_inurba_marseille","lat":43.282744,"lon":5.350533,"is_reserved":false,"is_disabled":false,"rental_uris":{"android":"levelo://app?vid=d3bd4065-724a-453f-9f63-0b70081928ba","ios":"levelo://app?vid=d3bd4065-724a-453f-9f63-0b70081928ba"},"vehicle_type_id":"4","last_reported":1687597627,"current_range_meters":14000,"station_id":"ce4bhbp2rcd13ifvqerg","pricing_plan_id":"free"},{"bike_id":"77b74c64-5c8b-4770-8ce1-956431ab9cb8","system_id":"levelo_inurba_marseille","lat":43.282744,"lon":5.350533,"is_reserved":false,"is_disabled":false,"rental_uris":{"android":"levelo://app?vid=77b74c64-5c8b-4770-8ce1-956431ab9cb8","ios":"levelo://app?vid=77b74c64-5c8b-4770-8ce1-956431ab9cb8"},"vehicle_type_id":"4","last_reported":1687597627,"current_range_meters":28000,"station_id":"ce4bhbp2rcd13ifvqerg","pricing_plan_id":"free"},{"bike_id":"5b23323e-bcf1-4cb3-973f-e4e86c364a30","system_id":"levelo_inurba_marseille","lat":43.282754,"lon":5.350519,"is_reserved":false,"is_disabled":false,"rental_uris":{"android":"levelo://app?vid=5b23323e-bcf1-4cb3-973f-e4e86c364a30","ios":"levelo://app?vid=5b23323e-bcf1-4cb3-973f-e4e86c364a30"},"vehicle_type_id":"4","last_reported":1687597627,"current_range_meters":21200,"station_id":"ce4bhbp2rcd13ifvqerg","pricing_plan_id":"free"},{"bike_id":"b7dd8217-75da-43fc-8468-d9a67f33eae7","system_id":"levelo_inurba_marseille","lat":43.282744,"lon":5.350533,"is_reserved":false,"is_disabled":false,"rental_uris":{"android":"levelo://app?vid=b7dd8217-75da-43fc-8468-d9a67f33eae7","ios":"levelo://app?vid=b7dd8217-75da-43fc-8468-d9a67f33eae7"},"vehicle_type_id":"4","last_reported":1687597627,"current_range_meters":26400,"station_id":"ce4bhbp2rcd13ifvqerg","pricing_plan_id":"free"},{"bike_id":"98f57177-7cf5-40d8-952e-06579811cde9","system_id":"levelo_inurba_marseille","lat":43.282754,"lon":5.350519,"is_reserved":false,"is_disabled":false,"rental_uris":{"android":"levelo://app?vid=98f57177-7cf5-40d8-952e-06579811cde9","ios":"levelo://app?vid=98f57177-7cf5-40d8-952e-06579811cde9"},"vehicle_type_id":"4","last_reported":1687597627,"current_range_meters":18000,"station_id":"ce4bhbp2rcd13ifvqerg","pricing_plan_id":"free"},{"bike_id":"52689154-0e9b-4040-8aed-c1c702a54b86","system_id":"levelo_inurba_marseille","lat":43.282754,"lon":5.350519,"is_reserved":false,"is_disabled":false,"rental_uris":{"android":"levelo://app?vid=52689154-0e9b-4040-8aed-c1c702a54b86","ios":"levelo://app?vid=52689154-0e9b-4040-8aed-c1c702a54b86"},"vehicle_type_id":"4","last_reported":1687597627,"current_range_meters":5200,"station_id":"ce4bhbp2rcd13ifvqerg","pricing_plan_id":"free"},{"bike_id":"56c1849c-b977-4c32-aecc-8ba8ff8f8305","system_id":"levelo_inurba_marseille","lat":43.28268,"lon":5.35069,"is_reserved":false,"is_disabled":false,"rental_uris":{"android":"levelo://app?vid=56c1849c-b977-4c32-aecc-8ba8ff8f8305","ios":"levelo://app?vid=56c1849c-b977-4c32-aecc-8ba8ff8f8305"},"vehicle_type_id":"4","last_reported":1687597627,"current_range_meters":30400,"station_id":"ce4bhbp2rcd13ifvqerg","pricing_plan_id":"free"},{"bike_id":"c426912c-69dd-459d-9142-f618cd8d58c1","system_id":"levelo_inurba_marseille","lat":43.28271,"lon":5.35057,"is_reserved":false,"is_disabled":false,"rental_uris":{"android":"levelo://app?vid=c426912c-69dd-459d-9142-f618cd8d58c1","ios":"levelo://app?vid=c426912c-69dd-459d-9142-f618cd8d58c1"},"vehicle_type_id":"4","last_reported":1687597627,"current_range_meters":19600,"station_id":"ce4bhbp2rcd13ifvqerg","pricing_plan_id":"free"},{"bike_id":"fbfaa551-2cfe-4b9a-9135-56afb0bd5f7c","system_id":"levelo_inurba_marseille","lat":43.283502,"lon":5.386471,"is_reserved":false,"is_disabled":false,"rental_uris":{"android":"levelo://app?vid=fbfaa551-2cfe-4b9a-9135-56afb0bd5f7c","ios":"levelo://app?vid=fbfaa551-2cfe-4b9a-9135-56afb0bd5f7c"},"vehicle_type_id":"4","last_reported":1687597627,"current_range_meters":26400,"station_id":"ce4bh492rcd13ifvqdvg","pricing_plan_id":"free"},{"bike_id":"87910cae-b28d-471d-846d-eb40b0f03545","system_id":"levelo_inurba_marseille","lat":43.282754,"lon":5.350519,"is_reserved":false,"is_disabled":false,"rental_uris":{"android":"levelo://app?vid=87910cae-b28d-471d-846d-eb40b0f03545","ios":"levelo://app?vid=87910cae-b28d-471d-846d-eb40b0f03545"},"vehicle_type_id":"4","last_reported":1687597627,"current_range_meters":31600,"station_id":"ce4bhbp2rcd13ifvqerg","pricing_plan_id":"free"},{"bike_id":"9fd6a1f9-d6c4-408a-a535-6401947022f6","system_id":"levelo_inurba_marseille","lat":43.283502,"lon":5.386471,"is_reserved":false,"is_disabled":false,"rental_uris":{"android":"levelo://app?vid=9fd6a1f9-d6c4-408a-a535-6401947022f6","ios":"levelo://app?vid=9fd6a1f9-d6c4-408a-a535-6401947022f6"},"vehicle_type_id":"4","last_reported":1687597627,"current_range_meters":31600,"station_id":"ce4bh492rcd13ifvqdvg","pricing_plan_id":"free"},{"bike_id":"dfda041e-ef25-4f4e-9791-85c385474199","system_id":"levelo_inurba_marseille","lat":43.296263,"lon":5.40601,"is_reserved":false,"is_disabled":false,"rental_uris":{"android":"levelo://app?vid=dfda041e-ef25-4f4e-9791-85c385474199","ios":"levelo://app?vid=dfda041e-ef25-4f4e-9791-85c385474199"},"vehicle_type_id":"4","last_reported":1687597627,"current_range_meters":29200,"station_id":"ce4bh0h2rcd13ifvqd60","pricing_plan_id":"free"},{"bike_id":"f096e2e6-b34e-4076-86e6-1257d8777bd4","system_id":"levelo_inurba_marseille","lat":43.296263,"lon":5.40601,"is_reserved":false,"is_disabled":false,"rental_uris":{"android":"levelo://app?vid=f096e2e6-b34e-4076-86e6-1257d8777bd4","ios":"levelo://app?vid=f096e2e6-b34e-4076-86e6-1257d8777bd4"},"vehicle_type_id":"4","last_reported":1687597627,"current_range_meters":31200,"station_id":"ce4bh0h2rcd13ifvqd60","pricing_plan_id":"free"},{"bike_id":"e1368f91-8ab4-40b2-aa3f-6ae25a04e8a4","system_id":"levelo_inurba_marseille","lat":43.28096,"lon":5.37832,"is_reserved":false,"is_disabled":false,"rental_uris":{"android":"levelo://app?vid=e1368f91-8ab4-40b2-aa3f-6ae25a04e8a4","ios":"levelo://app?vid=e1368f91-8ab4-40b2-aa3f-6ae25a04e8a4"},"vehicle_type_id":"4","last_reported":1687597627,"current_range_meters":30800,"station_id":"ce4bha12rcd13ifvqee0","pricing_plan_id":"free"},{"bike_id":"c640b0c3-139d-49bf-98d4-2920240cb600","system_id":"levelo_inurba_marseille","lat":43.296263,"lon":5.40601,"is_reserved":false,"is_disabled":false,"rental_uris":{"android":"levelo://app?vid=c640b0c3-139d-49bf-98d4-2920240cb600","ios":"levelo://app?vid=c640b0c3-139d-49bf-98d4-2920240cb600"},"vehicle_type_id":"4","last_reported":1687597627,"current_range_meters":20400,"station_id":"ce4bh0h2rcd13ifvqd60","pricing_plan_id":"free"},{"bike_id":"62f4e857-70a7-4dcb-86b0-b3fe5d6e832e","system_id":"levelo_inurba_marseille","lat":43.28095,"lon":5.37832,"is_reserved":false,"is_disabled":false,"rental_uris":{"android":"levelo://app?vid=62f4e857-70a7-4dcb-86b0-b3fe5d6e832e","ios":"levelo://app?vid=62f4e857-70a7-4dcb-86b0-b3fe5d6e832e"},"vehicle_type_id":"4","last_reported":1687597627,"current_range_meters":31200,"station_id":"ce4bha12rcd13ifvqee0","pricing_plan_id":"free"},{"bike_id":"ff60adae-f71a-4e2f-9c03-c28e9ecc3c45","system_id":"levelo_inurba_marseille","lat":43.32719,"lon":5.4078,"is_reserved":false,"is_disabled":false,"rental_uris":{"android":"levelo://app?vid=ff60adae-f71a-4e2f-9c03-c28e9ecc3c45","ios":"levelo://app?vid=ff60adae-f71a-4e2f-9c03-c28e9ecc3c45"},"vehicle_type_id":"4","last_reported":1687597627,"current_range_meters":6000,"station_id":"","pricing_plan_id":"free"},{"bike_id":"d4ead90d-26ac-4a55-8afb-df883e0e82c8","system_id":"levelo_inurba_marseille","lat":43.284462,"lon":5.392121,"is_reserved":false,"is_disabled":false,"rental_uris":{"android":"levelo://app?vid=d4ead90d-26ac-4a55-8afb-df883e0e82c8","ios":"levelo://app?vid=d4ead90d-26ac-4a55-8afb-df883e0e82c8"},"vehicle_type_id":"4","last_reported":1687597627,"current_range_meters":31200,"station_id":"ce4bhoh2rcd13ifvqh5g","pricing_plan_id":"free"},{"bike_id":"1a27622e-784a-4299-86c1-d0ceee191c3e","system_id":"levelo_inurba_marseille","lat":43.28439,"lon":5.39187,"is_reserved":false,"is_disabled":false,"rental_uris":{"android":"levelo://app?vid=1a27622e-784a-4299-86c1-d0ceee191c3e","ios":"levelo://app?vid=1a27622e-784a-4299-86c1-d0ceee191c3e"},"vehicle_type_id":"4","last_reported":1687597627,"current_range_meters":27200,"station_id":"ce4bhoh2rcd13ifvqh5g","pricing_plan_id":"free"},{"bike_id":"87a15827-a5b3-4ea1-b416-50bed77d3d85","system_id":"levelo_inurba_marseille","lat":43.284462,"lon":5.392121,"is_reserved":false,"is_disabled":false,"rental_uris":{"android":"levelo://app?vid=87a15827-a5b3-4ea1-b416-50bed77d3d85","ios":"levelo://app?vid=87a15827-a5b3-4ea1-b416-50bed77d3d85"},"vehicle_type_id":"4","last_reported":1687597627,"current_range_meters":31200,"station_id":"ce4bhoh2rcd13ifvqh5g","pricing_plan_id":"free"},{"bike_id":"5e40a0bf-eb88-447f-ad89-4feae2993846","system_id":"levelo_inurba_marseille","lat":43.285742,"lon":5.395004,"is_reserved":false,"is_disabled":false,"rental_uris":{"android":"levelo://app?vid=5e40a0bf-eb88-447f-ad89-4feae2993846","ios":"levelo://app?vid=5e40a0bf-eb88-447f-ad89-4feae2993846"},"vehicle_type_id":"4","last_reported":1687597627,"current_range_meters":13600,"station_id":"ce4bh292rcd13ifvqdg0","pricing_plan_id":"free"},{"bike_id":"944cc645-9c61-42d4-8b7e-807c114cae2f","system_id":"levelo_inurba_marseille","lat":43.32653,"lon":5.40983,"is_reserved":false,"is_disabled":false,"rental_uris":{"android":"levelo://app?vid=944cc645-9c61-42d4-8b7e-807c114cae2f","ios":"levelo://app?vid=944cc645-9c61-42d4-8b7e-807c114cae2f"},"vehicle_type_id":"4","last_reported":1687597627,"current_range_meters":31200,"station_id":"ce4bhpp2rcd13ifvqhgg","pricing_plan_id":"free"},{"bike_id":"bd024b9e-10e2-485e-8834-4d0dbb51c5ca","system_id":"levelo_inurba_marseille","lat":43.326605,"lon":5.409903,"is_reserved":false,"is_disabled":false,"rental_uris":{"android":"levelo://app?vid=bd024b9e-10e2-485e-8834-4d0dbb51c5ca","ios":"levelo://app?vid=bd024b9e-10e2-485e-8834-4d0dbb51c5ca"},"vehicle_type_id":"4","last_reported":1687597627,"current_range_meters":28000,"station_id":"ce4bhpp2rcd13ifvqhgg","pricing_plan_id":"free"},{"bike_id":"9b7e311b-427f-4c6b-9bfe-6d233d8bb257","system_id":"levelo_inurba_marseille","lat":43.326605,"lon":5.409903,"is_reserved":false,"is_disabled":false,"rental_uris":{"android":"levelo://app?vid=9b7e311b-427f-4c6b-9bfe-6d233d8bb257","ios":"levelo://app?vid=9b7e311b-427f-4c6b-9bfe-6d233d8bb257"},"vehicle_type_id":"4","last_reported":1687597627,"current_range_meters":28000,"station_id":"ce4bhpp2rcd13ifvqhgg","pricing_plan_id":"free"},{"bike_id":"5de98341-c4f0-4072-bcea-73b5bf2f2859","system_id":"levelo_inurba_marseille","lat":43.326605,"lon":5.409903,"is_reserved":false,"is_disabled":false,"rental_uris":{"android":"levelo://app?vid=5de98341-c4f0-4072-bcea-73b5bf2f2859","ios":"levelo://app?vid=5de98341-c4f0-4072-bcea-73b5bf2f2859"},"vehicle_type_id":"4","last_reported":1687597627,"current_range_meters":30000,"station_id":"ce4bhpp2rcd13ifvqhgg","pricing_plan_id":"free"},{"bike_id":"514e4d9d-f74c-4bd1-8d07-610055ad8743","system_id":"levelo_inurba_marseille","lat":43.32659,"lon":5.40986,"is_reserved":false,"is_disabled":false,"rental_uris":{"android":"levelo://app?vid=514e4d9d-f74c-4bd1-8d07-610055ad8743","ios":"levelo://app?vid=514e4d9d-f74c-4bd1-8d07-610055ad8743"},"vehicle_type_id":"4","last_reported":1687597627,"current_range_meters":10800,"station_id":"ce4bhpp2rcd13ifvqhgg","pricing_plan_id":"free"},{"bike_id":"61e5781c-69a0-4299-ba2e-ce4fc92d331a","system_id":"levelo_inurba_marseille","lat":43.326605,"lon":5.409903,"is_reserved":false,"is_disabled":false,"rental_uris":{"android":"levelo://app?vid=61e5781c-69a0-4299-ba2e-ce4fc92d331a","ios":"levelo://app?vid=61e5781c-69a0-4299-ba2e-ce4fc92d331a"},"vehicle_type_id":"4","last_reported":1687597627,"current_range_meters":27600,"station_id":"ce4bhpp2rcd13ifvqhgg","pricing_plan_id":"free"},{"bike_id":"0ef3f9f5-e055-4024-8130-6fbd6c3ce25a","system_id":"levelo_inurba_marseille","lat":43.326605,"lon":5.409903,"is_reserved":false,"is_disabled":false,"rental_uris":{"android":"levelo://app?vid=0ef3f9f5-e055-4024-8130-6fbd6c3ce25a","ios":"levelo://app?vid=0ef3f9f5-e055-4024-8130-6fbd6c3ce25a"},"vehicle_type_id":"4","last_reported":1687597627,"current_range_meters":31200,"station_id":"ce4bhpp2rcd13ifvqhgg","pricing_plan_id":"free"},{"bike_id":"fc2a51fe-3bf8-46f3-9fe8-f24612d4a02a","system_id":"levelo_inurba_marseille","lat":43.326565,"lon":5.409975,"is_reserved":false,"is_disabled":false,"rental_uris":{"android":"levelo://app?vid=fc2a51fe-3bf8-46f3-9fe8-f24612d4a02a","ios":"levelo://app?vid=fc2a51fe-3bf8-46f3-9fe8-f24612d4a02a"},"vehicle_type_id":"4","last_reported":1687597627,"current_range_meters":4000,"station_id":"ce4bhpp2rcd13ifvqhgg","pricing_plan_id":"free"},{"bike_id":"90876c39-45c8-4946-9fc2-02772bad30b5","system_id":"levelo_inurba_marseille","lat":43.304188,"lon":5.412904,"is_reserved":false,"is_disabled":false,"rental_uris":{"android":"levelo://app?vid=90876c39-45c8-4946-9fc2-02772bad30b5","ios":"levelo://app?vid=90876c39-45c8-4946-9fc2-02772bad30b5"},"vehicle_type_id":"4","last_reported":1687597627,"current_range_meters":14400,"station_id":"ce4bhop2rcd13ifvqh8g","pricing_plan_id":"free"},{"bike_id":"1608effb-4f12-47f4-8d55-2fc7a47d19f0","system_id":"levelo_inurba_marseille","lat":43.304188,"lon":5.412904,"is_reserved":false,"is_disabled":false,"rental_uris":{"android":"levelo://app?vid=1608effb-4f12-47f4-8d55-2fc7a47d19f0","ios":"levelo://app?vid=1608effb-4f12-47f4-8d55-2fc7a47d19f0"},"vehicle_type_id":"4","last_reported":1687597627,"current_range_meters":31200,"station_id":"ce4bhop2rcd13ifvqh8g","pricing_plan_id":"free"},{"bike_id":"fbf04ef2-ee81-4537-8210-e0fc37c88dfd","system_id":"levelo_inurba_marseille","lat":43.304188,"lon":5.412904,"is_reserved":false,"is_disabled":false,"rental_uris":{"android":"levelo://app?vid=fbf04ef2-ee81-4537-8210-e0fc37c88dfd","ios":"levelo://app?vid=fbf04ef2-ee81-4537-8210-e0fc37c88dfd"},"vehicle_type_id":"4","last_reported":1687597627,"current_range_meters":31200,"station_id":"ce4bhop2rcd13ifvqh8g","pricing_plan_id":"free"},{"bike_id":"15d6790e-c95b-494c-8abc-7c1762777321","system_id":"levelo_inurba_marseille","lat":43.27961,"lon":5.3536,"is_reserved":false,"is_disabled":false,"rental_uris":{"android":"levelo://app?vid=15d6790e-c95b-494c-8abc-7c1762777321","ios":"levelo://app?vid=15d6790e-c95b-494c-8abc-7c1762777321"},"vehicle_type_id":"4","last_reported":1687597627,"current_range_meters":800,"station_id":"","pricing_plan_id":"free"},{"bike_id":"f47d889e-f3a7-4cf7-b89b-498d12032e77","system_id":"levelo_inurba_marseille","lat":43.29289,"lon":5.40661,"is_reserved":false,"is_disabled":false,"rental_uris":{"android":"levelo://app?vid=f47d889e-f3a7-4cf7-b89b-498d12032e77","ios":"levelo://app?vid=f47d889e-f3a7-4cf7-b89b-498d12032e77"},"vehicle_type_id":"4","last_reported":1687597627,"current_range_meters":5200,"station_id":"","pricing_plan_id":"free"},{"bike_id":"50fd953c-9754-45f4-aec7-ae52bb9eb6fe","system_id":"levelo_inurba_marseille","lat":43.287154,"lon":5.399979,"is_reserved":false,"is_disabled":false,"rental_uris":{"android":"levelo://app?vid=50fd953c-9754-45f4-aec7-ae52bb9eb6fe","ios":"levelo://app?vid=50fd953c-9754-45f4-aec7-ae52bb9eb6fe"},"vehicle_type_id":"4","last_reported":1687597627,"current_range_meters":31200,"station_id":"ce4bho92rcd13ifvqh3g","pricing_plan_id":"free"},