{"last_updated":1708121178,"ttl":30,"version":"2.2","data":{"bikes":[{"bike_id":"99f675f3-2d06-421e-a914-457b999be22a","system_id":"levelo_inurba_marseille","lat":43.31341,"lon":5.367098,"is_reserved":false,"is_disabled":false,"rental_uris":{"android":"levelo://app?vid=99f675f3-2d06-421e-a914-457b999be22a","ios":"levelo://app?vid=99f675f3-2d06-421e-a914-457b999be22a"},"vehicle_type_id":"4","last_reported":1708121178,"current_range_meters":24400,"station_id":"ce4bgr92rcd13ifvqc6g","pricing_plan_id":"cebpf4jnsgd1na2vs0mg"},{"bike_id":"5d7fc29c-fb54-403d-9372-d96e992d4156","system_id":"levelo_inurba_marseille","lat":43.312239,"lon":5.368562,"is_reserved":false,"is_disabled":false,"rental_uris":{"android":"levelo://app?vid=5d7fc29c-fb54-403d-9372-d96e992d4156","ios":"levelo://app?vid=5d7fc29c-fb54-403d-9372-d96e992d4156"},"vehicle_type_id":"4","last_reported":1708121178,"current_range_meters":13200,"station_id":"ce4bgl92rcd13ifvqbq0","pricing_plan_id":"cebpf4jnsgd1na2vs0mg"},{"bike_id":"14593999-a517-4800-aa4b-684b990e0429","system_id":"levelo_inurba_marseille","lat":43.309076,"lon":5.368465,"is_reserved":false,"is_disabled":false,"rental_uris":{"android":"levelo://app?vid=14593999-a517-4800-aa4b-684b990e0429","ios":"levelo://app?vid=14593999-a517-4800-aa4b-684b990e0429"},"vehicle_type_id":"4","last_reported":1708121178,"current_range_meters":30000,"station_id":"ce4bgn92rcd13ifvqbvg","pricing_plan_id":"cebpf4jnsgd1na2vs0mg"},{"bike_id":"9808488b-f317-4b23-b106-bafa1fc610ef","system_id":"levelo_inurba_marseille","lat":43.309076,"lon":5.368465,"is_reserved":false,"is_disabled":false,"rental_uris":{"android":"levelo://app?vid=9808488b-f317-4b23-b106-bafa1fc610ef","ios":"levelo://app?vid=9808488b-f317-4b23-b106-bafa1fc610ef"},"vehicle_type_id":"4","last_reported":1708121178,"current_range_meters":18400,"station_id":"ce4bgn92rcd13ifvqbvg","pricing_plan_id":"cebpf4jnsgd1na2vs0mg"},{"bike_id":"5f896cac-5c87-4996-b8ad-a4ced64222fb","system_id":"levelo_inurba_marseille","lat":43.31485,"lon":5.373,"is_reserved":false,"is_disabled":false,"rental_uris":{"android":"levelo://app?vid=5f896cac-5c87-4996-b8ad-a4ced64222fb","ios":"levelo://app?vid=5f896cac-5c87-4996-b8ad-a4ced64222fb"},"vehicle_type_id":"4","last_reported":1708121178,"current_range_meters":18800,"station_id":"ce4bgt12rcd13ifvqcd0","pricing_plan_id":"cebpf4jnsgd1na2vs0mg"},{"bike_id":"02ce9294-8d4b-473c-8cbb-ac28baecce92","system_id":"levelo_inurba_marseille","lat":43.314811,"lon":5.373103,"is_reserved":false,"is_disabled":false,"rental_uris":{"android":"levelo://app?vid=02ce9294-8d4b-473c-8cbb-ac28baecce92","ios":"levelo://app?vid=02ce9294-8d4b-473c-8cbb-ac28baecce92"},"vehicle_type_id":"4","last_reported":1708121178,"current_range_meters":10000,"station_id":"ce4bgt12rcd13ifvqcd0","pricing_plan_id":"cebpf4jnsgd1na2vs0mg"},{"bike_id":"c8c03761-776c-4ff1-8563-6678ce81d116","system_id":"levelo_inurba_marseille","lat":43.314811,"lon":5.373103,"is_reserved":false,"is_disabled":false,"rental_uris":{"android":"levelo://app?vid=c8c03761-776c-4ff1-8563-6678ce81d116","ios":"levelo://app?vid=c8c03761-776c-4ff1-8563-6678ce81d116"},"vehicle_type_id":"4","last_reported":1708121178,"current_range_meters":24800,"station_id":"ce4bgt12rcd13ifvqcd0","pricing_plan_id":"cebpf4jnsgd1na2vs0mg"},{"bike_id":"6f7b6296-dc1d-4580-b54a-dc1170b224fe","system_id":"levelo_inurba_marseille","lat":43.308907,"lon":5.37199,"is_reserved":false,"is_disabled":false,"rental_uris":{"android":"levelo://app?vid=6f7b6296-dc1d-4580-b54a-dc1170b224fe","ios":"levelo://app?vid=6f7b6296-dc1d-4580-b54a-dc1170b224fe"},"vehicle_type_id":"4","last_reported":1708121178,"current_range_meters":28800,"station_id":"ce4bguh2rcd13ifvqckg","pricing_plan_id":"cebpf4jnsgd1na2vs0mg"},{"bike_id":"c04b0949-bb49-48b3-a002-bd898fbd218e","system_id":"levelo_inurba_marseille","lat":43.309039,"lon":5.371797,"is_reserved":false,"is_disabled":false,"rental_uris":{"android":"levelo://app?vid=c04b0949-bb49-48b3-a002-bd898fbd218e","ios":"levelo://app?vid=c04b0949-bb49-48b3-a002-bd898fbd218e"},"vehicle_type_id":"4","last_reported":1708121178,"current_range_meters":4000,"station_id":"ce4bguh2rcd13ifvqckg","pricing_plan_id":"cebpf4jnsgd1na2vs0mg"},{"bike_id":"f738dcfb-896a-4068-be16-3db134410ae2","system_id":"levelo_inurba_marseille","lat":43.305714,"lon":5.365633,"is_reserved":false,"is_disabled":false,"rental_uris":{"android":"levelo://app?vid=f738dcfb-896a-4068-be16-3db134410ae2","ios":"levelo://app?vid=f738dcfb-896a-4068-be16-3db134410ae2"},"vehicle_type_id":"4","last_reported":1708121178,"current_range_meters":3200,"station_id":"ce4bgs12rcd13ifvqcag","pricing_plan_id":"cebpf4jnsgd1na2vs0mg"},{"bike_id":"0c545ea8-4b29-474f-8858-3d2656c93003","system_id":"levelo_inurba_marseille","lat":43.306042,"lon":5.372243,"is_reserved":false,"is_disabled":false,"rental_uris":{"android":"levelo://app?vid=0c545ea8-4b29-474f-8858-3d2656c93003","ios":"levelo://app?vid=0c545ea8-4b29-474f-8858-3d2656c93003"},"vehicle_type_id":"4","last_reported":1708121178,"current_range_meters":23600,"station_id":"ce4bgqh2rcd13ifvqc4g","pricing_plan_id":"cebpf4jnsgd1na2vs0mg"},{"bike_id":"4dc5b9ab-2896-4ed5-ad2e-37158f5f3277","system_id":"levelo_inurba_marseille","lat":43.305989,"lon":5.37225,"is_reserved":false,"is_disabled":false,"rental_uris":{"android":"levelo://app?vid=4dc5b9ab-2896-4ed5-ad2e-37158f5f3277","ios":"levelo://app?vid=4dc5b9ab-2896-4ed5-ad2e-37158f5f3277"},"vehicle_type_id":"4","last_reported":1708121178,"current_range_meters":29600,"station_id":"ce4bgqh2rcd13ifvqc4g","pricing_plan_id":"cebpf4jnsgd1na2vs0mg"},{"bike_id":"f8bbef2c-e557-45fe-aec9-18bf9fa8bd6f","system_id":"levelo_inurba_marseille","lat":43.305989,"lon":5.37225,"is_reserved":false,"is_disabled":false,"rental_uris":{"android":"levelo://app?vid=f8bbef2c-e557-45fe-aec9-18bf9fa8bd6f","ios":"levelo://app?vid=f8bbef2c-e557-45fe-aec9-18bf9fa8bd6f"},"vehicle_type_id":"4","last_reported":1708121178,"current_range_meters":8800,"station_id":"ce4bgqh2rcd13ifvqc4g","pricing_plan_id":"cebpf4jnsgd1na2vs0mg"},{"bike_id":"e173dd02-1cd4-4dd4-bab5-66a19bd57874","system_id":"levelo_inurba_marseille","lat":43.30604,"lon":5.372391,"is_reserved":false,"is_disabled":false,"rental_uris":{"android":"levelo://app?vid=e173dd02-1cd4-4dd4-bab5-66a19bd57874","ios":"levelo://app?vid=e173dd02-1cd4-4dd4-bab5-66a19bd57874"},"vehicle_type_id":"4","last_reported":1708121178,"current_range_meters":14000,"station_id":"ce4bgqh2rcd13ifvqc4g","pricing_plan_id":"cebpf4jnsgd1na2vs0mg"},{"bike_id":"86d72424-de2a-491f-b97d-12c8f06e7e92","system_id":"levelo_inurba_marseille","lat":43.305989,"lon":5.37225,"is_reserved":false,"is_disabled":false,"rental_uris":{"android":"levelo://app?vid=86d72424-de2a-491f-b97d-12c8f06e7e92","ios":"levelo://app?vid=86d72424-de2a-491f-b97d-12c8f06e7e92"},"vehicle_type_id":"4","last_reported":1708121178,"current_range_meters":9200,"station_id":"ce4bgqh2rcd13ifvqc4g","pricing_plan_id":"cebpf4jnsgd1na2vs0mg"},{"bike_id":"b048fd87-eadc-4e97-8e80-4ff65f5e2991","system_id":"levelo_inurba_marseille","lat":43.305989,"lon":5.37225,"is_reserved":false,"is_disabled":false,"rental_uris":{"android":"levelo://app?vid=b048fd87-eadc-4e97-8e80-4ff65f5e2991","ios":"levelo://app?vid=b048fd87-eadc-4e97-8e80-4ff65f5e2991"},"vehicle_type_id":"4","last_reported":1708121178,"current_range_meters":13200,"station_id":"ce4bgqh2rcd13ifvqc4g","pricing_plan_id":"cebpf4jnsgd1na2vs0mg"},{"bike_id":"d6bc690c-80f6-4768-a342-674c2821fbf8","system_id":"levelo_inurba_marseille","lat":43.311125,"lon":5.377624,"is_reserved":false,"is_disabled":false,"rental_uris":{"android":"levelo://app?vid=d6bc690c-80f6-4768-a342-674c2821fbf8","ios":"levelo://app?vid=d6bc690c-80f6-4768-a342-674c2821fbf8"},"vehicle_type_id":"4","last_reported":1708121178,"current_range_meters":24000,"station_id":"ce4bgt92rcd13ifvqcg0","pricing_plan_id":"cebpf4jnsgd1na2vs0mg"},{"bike_id":"0fcdcfb8-30c0-400f-85c1-428c143628ea","system_id":"levelo_inurba_marseille","lat":43.311131,"lon":5.377651,"is_reserved":false,"is_disabled":false,"rental_uris":{"android":"levelo://app?vid=0fcdcfb8-30c0-400f-85c1-428c143628ea","ios":"levelo://app?vid=0fcdcfb8-30c0-400f-85c1-428c143628ea"},"vehicle_type_id":"4","last_reported":1708121178,"current_range_meters":18400,"station_id":"ce4bgt92rcd13ifvqcg0","pricing_plan_id":"cebpf4jnsgd1na2vs0mg"},{"bike_id":"f21d5faf-579a-420d-80eb-41e4333e8941","system_id":"levelo_inurba_marseille","lat":43.31124,"lon":5.37766,"is_reserved":false,"is_disabled":false,"rental_uris":{"android":"levelo://app?vid=f21d5faf-579a-420d-80eb-41e4333e8941","ios":"levelo://app?vid=f21d5faf-579a-420d-80eb-41e4333e8941"},"vehicle_type_id":"4","last_reported":1708121178,"current_range_meters":4400,"station_id":"ce4bgt92rcd13ifvqcg0","pricing_plan_id":"cebpf4jnsgd1na2vs0mg"},{"bike_id":"b29f639d-2d17-4f5f-b749-b9d7419d46dd","system_id":"levelo_inurba_marseille","lat":43.311125,"lon":5.377624,"is_reserved":false,"is_disabled":false,"rental_uris":{"android":"levelo://app?vid=b29f639d-2d17-4f5f-b749-b9d7419d46dd","ios":"levelo://app?vid=b29f639d-2d17-4f5f-b749-b9d7419d46dd"},"vehicle_type_id":"4","last_reported":1708121178,"current_range_meters":17200,"station_id":"ce4bgt92rcd13ifvqcg0","pricing_plan_id":"cebpf4jnsgd1na2vs0mg"},{"bike_id":"8ede5d09-590b-4e56-aecb-1ead168b393a","system_id":"levelo_inurba_marseille","lat":43.311131,"lon":5.377651,"is_reserved":false,"is_disabled":false,"rental_uris":{"android":"levelo://app?vid=8ede5d09-590b-4e56-aecb-1ead168b393a","ios":"levelo://app?vid=8ede5d09-590b-4e56-aecb-1ead168b393a"},"vehicle_type_id":"4","last_reported":1708121178,"current_range_meters":7200,"station_id":"ce4bgt92rcd13ifvqcg0","pricing_plan_id":"cebpf4jnsgd1na2vs0mg"},{"bike_id":"158503ae-058a-4ea5-808c-478cd959b7d4","system_id":"levelo_inurba_marseille","lat":43.311125,"lon":5.377624,"is_reserved":false,"is_disabled":false,"rental_uris":{"android":"levelo://app?vid=158503ae-058a-4ea5-808c-478cd959b7d4","ios":"levelo://app?vid=158503ae-058a-4ea5-808c-478cd959b7d4"},"vehicle_type_id":"4","last_reported":1708121178,"current_range_meters":0,"station_id":"ce4bgt92rcd13ifvqcg0","pricing_plan_id":"cebpf4jnsgd1na2vs0mg"},{"bike_id":"a6a918b2-ba15-48c2-8b48-d26172fdde42","system_id":"levelo_inurba_marseille","lat":43.307945,"lon":5.376487,"is_reserved":false,"is_disabled":false,"rental_uris":{"android":"levelo://app?vid=a6a918b2-ba15-48c2-8b48-d26172fdde42","ios":"levelo://app?vid=a6a918b2-ba15-48c2-8b48-d26172fdde42"},"vehicle_type_id":"4","last_reported":1708121178,"current_range_meters":26000,"station_id":"ce4bgv92rcd13ifvqcq0","pricing_plan_id":"cebpf4jnsgd1na2vs0mg"},{"bike_id":"0f735614-5b8a-4641-b044-759d38f3f2cd","system_id":"levelo_inurba_marseille","lat":43.307945,"lon":5.376487,"is_reserved":false,"is_disabled":false,"rental_uris":{"android":"levelo://app?vid=0f735614-5b8a-4641-b044-759d38f3f2cd","ios":"levelo://app?vid=0f735614-5b8a-4641-b044-759d38f3f2cd"},"vehicle_type_id":"4","last_reported":1708121178,"current_range_meters":31600,"station_id":"ce4bgv92rcd13ifvqcq0","pricing_plan_id":"cebpf4jnsgd1na2vs0mg"},{"bike_id":"62a13584-ebfe-4423-a4b2-371a980b51bb","system_id":"levelo_inurba_marseille","lat":43.307945,"lon":5.376487,"is_reserved":false,"is_disabled":false,"rental_uris":{"android":"levelo://app?vid=62a13584-ebfe-4423-a4b2-371a980b51bb","ios":"levelo://app?vid=62a13584-ebfe-4423-a4b2-371a980b51bb"},"vehicle_type_id":"4","last_reported":1708121178,"current_range_meters":1600,"station_id":"ce4bgv92rcd13ifvqcq0","pricing_plan_id":"cebpf4jnsgd1na2vs0mg"},{"bike_id":"796f5d9d-fe2a-4113-9f6e-dc9c2d0e101a","system_id":"levelo_inurba_marseille","lat":43.307945,"lon":5.376487,"is_reserved":false,"is_disabled":false,"rental_uris":{"android":"levelo://app?vid=796f5d9d-fe2a-4113-9f6e-dc9c2d0e101a","ios":"levelo://app?vid=796f5d9d-fe2a-4113-9f6e-dc9c2d0e101a"},"vehicle_type_id":"4","last_reported":1708121178,"current_range_meters":400,"station_id":"ce4bgv92rcd13ifvqcq0","pricing_plan_id":"cebpf4jnsgd1na2vs0mg"},{"bike_id":"7fd0400b-97cc-46e6-8569-2bae6fa3174c","system_id":"levelo_inurba_marseille","lat":43.307945,"lon":5.376487,"is_reserved":false,"is_disabled":false,"rental_uris":{"android":"levelo://app?vid=7fd0400b-97cc-46e6-8569-2bae6fa3174c","ios":"levelo://app?vid=7fd0400b-97cc-46e6-8569-2bae6fa3174c"},"vehicle_type_id":"4","last_reported":1708121178,"current_range_meters":23200,"station_id":"ce4bgv92rcd13ifvqcq0","pricing_plan_id":"cebpf4jnsgd1na2vs0mg"},{"bike_id":"d339509a-d341-4433-a4ab-e1ff016c074c","system_id":"levelo_inurba_marseille","lat":43.307945,"lon":5.376487,"is_reserved":false,"is_disabled":false,"rental_uris":{"android":"levelo://app?vid=d339509a-d341-4433-a4ab-e1ff016c074c","ios":"levelo://app?vid=d339509a-d341-4433-a4ab-e1ff016c074c"},"vehicle_type_id":"4","last_reported":1708121178,"current_range_meters":18800,"station_id":"ce4bgv92rcd13ifvqcq0","pricing_plan_id":"cebpf4jnsgd1na2vs0mg"},{"bike_id":"b8503d1f-72be-4134-9519-07cbef17fa5a","system_id":"levelo_inurba_marseille","lat":43.307945,"lon":5.376487,"is_reserved":false,"is_disabled":false,"rental_uris":{"android":"levelo://app?vid=b8503d1f-72be-4134-9519-07cbef17fa5a","ios":"levelo://app?vid=b8503d1f-72be-4134-9519-07cbef17fa5a"},"vehicle_type_id":"4","last_reported":1708121178,"current_range_meters":30800,"station_id":"ce4bgv92rcd13ifvqcq0","pricing_plan_id":"cebpf4jnsgd1na2vs0mg"},{"bike_id":"4e663044-41f1-46f1-836b-50cb5b98f3a3","system_id":"levelo_inurba_marseille","lat":43.307945,"lon":5.376487,"is_reserved":false,"is_disabled":false,"rental_uris":{"android":"levelo://app?vid=4e663044-41f1-46f1-836b-50cb5b98f3a3","ios":"levelo://app?vid=4e663044-41f1-46f1-836b-50cb5b98f3a3"},"vehicle_type_id":"4","last_reported":1708121178,"current_range_meters":31200,"station_id":"ce4bgv92rcd13ifvqcq0","pricing_plan_id":"cebpf4jnsgd1na2vs0mg"},{"bike_id":"e841ab86-75f1-48f4-99c6-c0452dc2f6ec","system_id":"levelo_inurba_marseille","lat":43.317038,"lon":5.37746,"is_reserved":false,"is_disabled":false,"rental_uris":{"android":"levelo://app?vid=e841ab86-75f1-48f4-99c6-c0452dc2f6ec","ios":"levelo://app?vid=e841ab86-75f1-48f4-99c6-c0452dc2f6ec"},"vehicle_type_id":"4","last_reported":1708121178,"current_range_meters":19200,"station_id":"ce4bgth2rcd13ifvqch0","pricing_plan_id":"cebpf4jnsgd1na2vs0mg"},{"bike_id":"e8396d9b-01ad-42aa-ae6a-25e7361077f6","system_id":"levelo_inurba_marseille","lat":43.317075,"lon":5.377367,"is_reserved":false,"is_disabled":false,"rental_uris":{"android":"levelo://app?vid=e8396d9b-01ad-42aa-ae6a-25e7361077f6","ios":"levelo://app?vid=e8396d9b-01ad-42aa-ae6a-25e7361077f6"},"vehicle_type_id":"4","last_reported":1708121178,"current_range_meters":31200,"station_id":"ce4bgth2rcd13ifvqch0","pricing_plan_id":"cebpf4jnsgd1na2vs0mg"},{"bike_id":"a9531e14-b43f-4c5b-9c30-9a60ea895c45","system_id":"levelo_inurba_marseille","lat":43.317075,"lon":5.377367,"is_reserved":false,"is_disabled":false,"rental_uris":{"android":"levelo://app?vid=a9531e14-b43f-4c5b-9c30-9a60ea895c45","ios":"levelo://app?vid=a9531e14-b43f-4c5b-9c30-9a60ea895c45"},"vehicle_type_id":"4","last_reported":1708121178,"current_range_meters":31200,"station_id":"ce4bgth2rcd13ifvqch0","pricing_plan_id":"cebpf4jnsgd1na2vs0mg"},{"bike_id":"cc5957e6-fbd1-424d-9cd7-351143fc571e","system_id":"levelo_inurba_marseille","lat":43.317075,"lon":5.377367,"is_reserved":false,"is_disabled":false,"rental_uris":{"android":"levelo://app?vid=cc5957e6-fbd1-424d-9cd7-351143fc571e","ios":"levelo://app?vid=cc5957e6-fbd1-424d-9cd7-351143fc571e"},"vehicle_type_id":"4","last_reported":1708121178,"current_range_meters":22400,"station_id":"ce4bgth2rcd13ifvqch0","pricing_plan_id":"cebpf4jnsgd1na2vs0mg"},{"bike_id":"732b5edc-3174-4cab-906b-666e39022afe","system_id":"levelo_inurba_marseille","lat":43.315293,"lon":5.380349,"is_reserved":false,"is_disabled":false,"rental_uris":{"android":"levelo://app?vid=732b5edc-3174-4cab-906b-666e39022afe","ios":"levelo://app?vid=732b5edc-3174-4cab-906b-666e39022afe"},"vehicle_type_id":"4","last_reported":1708121178,"current_range_meters":24800,"station_id":"ce4bhsp2rcd13ifvqi50","pricing_plan_id":"cebpf4jnsgd1na2vs0mg"},{"bike_id":"bd358fc6-c8f1-4017-aba5-09b1b508f5e5","system_id":"levelo_inurba_marseille","lat":43.315293,"lon":5.380349,"is_reserved":false,"is_disabled":false,"rental_uris":{"android":"levelo://app?vid=bd358fc6-c8f1-4017-aba5-09b1b508f5e5","ios":"levelo://app?vid=bd358fc6-c8f1-4017-aba5-09b1b508f5e5"},"vehicle_type_id":"4","last_reported":1708121178,"current_range_meters":30000,"station_id":"ce4bhsp2rcd13ifvqi50","pricing_plan_id":"cebpf4jnsgd1na2vs0mg"},{"bike_id":"b2397c6c-49b9-4475-987b-799af858b996","system_id":"levelo_inurba_marseille","lat":43.301939,"lon":5.366286,"is_reserved":false,"is_disabled":false,"rental_uris":{"android":"levelo://app?vid=b2397c6c-49b9-4475-987b-799af858b996","ios":"levelo://app?vid=b2397c6c-49b9-4475-987b-799af858b996"},"vehicle_type_id":"4","last_reported":1708121178,"current_range_meters":0,"station_id":"ce4bgrh2rcd13ifvqc8g","pricing_plan_id":"cebpf4jnsgd1na2vs0mg"},{"bike_id":"d5ce0dcd-d944-4cbe-8b30-4a51c5de7b47","system_id":"levelo_inurba_marseille","lat":43.308012,"lon":5.381511,"is_reserved":false,"is_disabled":false,"rental_uris":{"android":"levelo://app?vid=d5ce0dcd-d944-4cbe-8b30-4a51c5de7b47","ios":"levelo://app?vid=d5ce0dcd-d944-4cbe-8b30-4a51c5de7b47"},"vehicle_type_id":"4","last_reported":1708121178,"current_range_meters":16000,"station_id":"ce4bgt12rcd13ifvqce0","pricing_plan_id":"cebpf4jnsgd1na2vs0mg"},{"bike_id":"46ca02c8-461d-4f56-a1d9-1cd8e58a3553","system_id":"levelo_inurba_marseille","lat":43.323464,"lon":5.406297,"is_reserved":false,"is_disabled":false,"rental_uris":{"android":"levelo://app?vid=46ca02c8-461d-4f56-a1d9-1cd8e58a3553","ios":"levelo://app?vid=46ca02c8-461d-4f56-a1d9-1cd8e58a3553"},"vehicle_type_id":"4","last_reported":1708121178,"current_range_meters":10400,"station_id":"ce4bhq92rcd13ifvqhjg","pricing_plan_id":"cebpf4jnsgd1na2vs0mg"},{"bike_id":"9b5b66b3-dd66-4257-acbb-4730758d57ce","system_id":"levelo_inurba_marseille","lat":43.308012,"lon":5.381511,"is_reserved":false,"is_disabled":false,"rental_uris":{"android":"levelo://app?vid=9b5b66b3-dd66-4257-acbb-4730758d57ce","ios":"levelo://app?vid=9b5b66b3-dd66-4257-acbb-4730758d57ce"},"vehicle_type_id":"4","last_reported":1708121178,"current_range_meters":22400,"station_id":"ce4bgt12rcd13ifvqce0","pricing_plan_id":"cebpf4jnsgd1na2vs0mg"},{"bike_id":"94c8e9c3-fd8b-45cc-9baa-303b2b382a65","system_id":"levelo_inurba_marseille","lat":43.308012,"lon":5.381511,"is_reserved":false,"is_disabled":false,"rental_uris":{"android":"levelo://app?vid=94c8e9c3-fd8b-45cc-9baa-303b2b382a65","ios":"levelo://app?vid=94c8e9c3-fd8b-45cc-9baa-303b2b382a65"},"vehicle_type_id":"4","last_reported":1708121178,"current_range_meters":19600,"station_id":"ce4bgt12rcd13ifvqce0","pricing_plan_id":"cebpf4jnsgd1na2vs0mg"},{"bike_id":"d371df8e-4137-4748-8e5c-262937dc18e2","system_id":"levelo_inurba_marseille","lat":43.308012,"lon":5.381511,"is_reserved":false,"is_disabled":false,"rental_uris":{"android":"levelo://app?vid=d371df8e-4137-4748-8e5c-262937dc18e2","ios":"levelo://app?vid=d371df8e-4137-4748-8e5c-262937dc18e2"},"vehicle_type_id":"4","last_reported":1708121178,"current_range_meters":31200,"station_id":"ce4bgt12rcd13ifvqce0","pricing_plan_id":"cebpf4jnsgd1na2vs0mg"},{"bike_id":"99c81edb-b57e-438c-8ec6-cc469446db51","system_id":"levelo_inurba_marseille","lat":43.324771,"lon":5.36557,"is_reserved":false,"is_disabled":false,"rental_uris":{"android":"levelo://app?vid=99c81edb-b57e-438c-8ec6-cc469446db51","ios":"levelo://app?vid=99c81edb-b57e-438c-8ec6-cc469446db51"},"vehicle_type_id":"4","last_reported":1708121178,"current_range_meters":5200,"station_id":"ce4bhs12rcd13ifvqhvg","pricing_plan_id":"cebpf4jnsgd1na2vs0mg"},{"bike_id":"6775c628-a7f5-485f-9648-db8869562575","system_id":"levelo_inurba_marseille","lat":43.324771,"lon":5.36557,"is_reserved":false,"is_disabled":false,"rental_uris":{"android":"levelo://app?vid=6775c628-a7f5-485f-9648-db8869562575","ios":"levelo://app?vid=6775c628-a7f5-485f-9648-db8869562575"},"vehicle_type_id":"4","last_reported":1708121178,"current_range_meters":19200,"station_id":"ce4bhs12rcd13ifvqhvg","pricing_plan_id":"cebpf4jnsgd1na2vs0mg"},{"bike_id":"6b9724fc-0580-40ea-b70d-4628e955426e","system_id":"levelo_inurba_marseille","lat":43.324771,"lon":5.36557,"is_reserved":false,"is_disabled":false,"rental_uris":{"android":"levelo://app?vid=6b9724fc-0580-40ea-b70d-4628e955426e","ios":"levelo://app?vid=6b9724fc-0580-40ea-b70d-4628e955426e"},"vehicle_type_id":"4","last_reported":1708121178,"current_range_meters":16400,"station_id":"ce4bhs12rcd13ifvqhvg","pricing_plan_id":"cebpf4jnsgd1na2vs0mg"},{"bike_id":"f5017d9e-79da-4dc2-84df-da6269defa0b","system_id":"levelo_inurba_marseille","lat":43.324771,"lon":5.36557,"is_reserved":false,"is_disabled":false,"rental_uris":{"android":"levelo://app?vid=f5017d9e-79da-4dc2-84df-da6269defa0b","ios":"levelo://app?vid=f5017d9e-79da-4dc2-84df-da6269defa0b"},"vehicle_type_id":"4","last_reported":1708121178,"current_range_meters":5600,"station_id":"ce4bhs12rcd13ifvqhvg","pricing_plan_id":"cebpf4jnsgd1na2vs0mg"},{"bike_id":"93aee7d5-5efc-4021-bab5-b9810878aeb9","system_id":"levelo_inurba_marseille","lat":43.324771,"lon":5.36557,"is_reserved":false,"is_disabled":false,"rental_uris":{"android":"levelo://app?vid=93aee7d5-5efc-4021-bab5-b9810878aeb9","ios":"levelo://app?vid=93aee7d5-5efc-4021-bab5-b9810878aeb9"},"vehicle_type_id":"4","last_reported":1708121178,"current_range_meters":22400,"station_id":"ce4bhs12rcd13ifvqhvg","pricing_plan_id":"cebpf4jnsgd1na2vs0mg"},{"bike_id":"47024265-3d51-4a77-b25d-6d74135771d6","system_id":"levelo_inurba_marseille","lat":43.32481,"lon":5.36554,"is_reserved":false,"is_disabled":false,"rental_uris":{"android":"levelo://app?vid=47024265-3d51-4a77-b25d-6d74135771d6","ios":"levelo://app?vid=47024265-3d51-4a77-b25d-6d74135771d6"},"vehicle_type_id":"4","last_reported":1708121178,"current_range_meters":6400,"station_id":"ce4bhs12rcd13ifvqhvg","pricing_plan_id":"cebpf4jnsgd1na2vs0mg"},{"bike_id":"3af487a9-52e6-47a1-b645-48e1c5e124c8","system_id":"levelo_inurba_marseille","lat":43.324771,"lon":5.36557,"is_reserved":false,"is_disabled":false,"rental_uris":{"android":"levelo://app?vid=3af487a9-52e6-47a1-b645-48e1c5e124c8","ios":"levelo://app?vid=3af487a9-52e6-47a1-b645-48e1c5e124c8"},"vehicle_type_id":"4","last_reported":1708121178,"current_range_meters":15600,"station_id":"ce4bhs12rcd13ifvqhvg","pricing_plan_id":"cebpf4jnsgd1na2vs0mg"},{"bike_id":"e4b61d04-1f65-4b69-987e-48eb73204e86","system_id":"levelo_inurba_marseille","lat":43.324771,"lon":5.36557,"is_reserved":false,"is_disabled":false,"rental_uris":{"android":"levelo://app?vid=e4b61d04-1f65-4b69-987e-48eb73204e86","ios":"levelo://app?vid=e4b61d04-1f65-4b69-987e-48eb73204e86"},"vehicle_type_id":"4","last_reported":1708121178,"current_range_meters":8800,"station_id":"ce4bhs12rcd13ifvqhvg","pricing_plan_id":"cebpf4jnsgd1na2vs0mg"},{"bike_id":"06fc5300-dee1-4699-8484-1c8adc174e0a","system_id":"levelo_inurba_marseille","lat":43.324771,"lon":5.36557,"is_reserved":false,"is_disabled":false,"rental_uris":{"android":"levelo://app?vid=06fc5300-dee1-4699-8484-1c8adc174e0a","ios":"levelo://app?vid=06fc5300-dee1-4699-8484-1c8adc174e0a"},"vehicle_type_id":"4","last_reported":1708121178,"current_range_meters":14000,"station_id":"ce4bhs12rcd13ifvqhvg","pricing_plan_id":"cebpf4jnsgd1na2vs0mg"},{"bike_id":"8bcd21a3-369e-4435-b470-f8cd6265a2ad","system_id":"levelo_inurba_marseille","lat":43.324771,"lon":5.36557,"is_reserved":false,"is_disabled":false,"rental_uris":{"android":"levelo://app?vid=8bcd21a3-369e-4435-b470-f8cd6265a2ad","ios":"levelo://app?vid=8bcd21a3-369e-4435-b470-f8cd6265a2ad"},"vehicle_type_id":"4","last_reported":1708121178,"current_range_meters":12400,"station_id":"ce4bhs12rcd13ifvqhvg","pricing_plan_id":"cebpf4jnsgd1na2vs0mg"},{"bike_id":"75be774e-6a89-4c9d-bb07-3b65c8711b51","system_id":"levelo_inurba_marseille","lat":43.324771,"lon":5.36557,"is_reserved":false,"is_disabled":false,"rental_uris":{"android":"levelo://app?vid=75be774e-6a89-4c9d-bb07-3b65c8711b51","ios":"levelo://app?vid=75be774e-6a89-4c9d-bb07-3b65c8711b51"},"vehicle_type_id":"4","last_reported":1708121178,"current_range_meters":4000,"station_id":"ce4bhs12rcd13ifvqhvg","pricing_plan_id":"cebpf4jnsgd1na2vs0mg"},{"bike_id":"f08b84a4-2f15-4435-87f0-1dd407262584","system_id":"levelo_inurba_marseille","lat":43.324771,"lon":5.36557,"is_reserved":false,"is_disabled":false,"rental_uris":{"android":"levelo://app?vid=f08b84a4-2f15-4435-87f0-1dd407262584","ios":"levelo://app?vid=f08b84a4-2f15-4435-87f0-1dd407262584"},"vehicle_type_id":"4","last_reported":1708121178,"current_range_meters":12800,"station_id":"ce4bhs12rcd13ifvqhvg","pricing_plan_id":"cebpf4jnsgd1na2vs0mg"},{"bike_id":"5d4a9159-8fe4-4ecc-884c-b4d3e33f390c","system_id":"levelo_inurba_marseille","lat":43.310804,"lon":5.38359,"is_reserved":false,"is_disabled":false,"rental_uris":{"android":"levelo://app?vid=5d4a9159-8fe4-4ecc-884c-b4d3e33f390c","ios":"levelo://app?vid=5d4a9159-8fe4-4ecc-884c-b4d3e33f390c"},"vehicle_type_id":"4","last_reported":1708121178,"current_range_meters":7600,"station_id":"ce4bgv92rcd13ifvqcr0","pricing_plan_id":"cebpf4jnsgd1na2vs0mg"},{"bike_id":"2f50f62c-6acf-4d08-b4aa-5b76dd63a375","system_id":"levelo_inurba_marseille","lat":43.302784,"lon":5.377158,"is_reserved":false,"is_disabled":false,"rental_uris":{"android":"levelo://app?vid=2f50f62c-6acf-4d08-b4aa-5b76dd63a375","ios":"levelo://app?vid=2f50f62c-6acf-4d08-b4aa-5b76dd63a375"},"vehicle_type_id":"4","last_reported":1708121178,"current_range_meters":0,"station_id":"ce4bguh2rcd13ifvqcj0","pricing_plan_id":"cebpf4jnsgd1na2vs0mg"},{"bike_id":"9ee44995-9314-4d2b-bebb-9cdd1cc96a7b","system_id":"levelo_inurba_marseille","lat":43.301429,"lon":5.37413,"is_reserved":false,"is_disabled":false,"rental_uris":{"android":"levelo://app?vid=9ee44995-9314-4d2b-bebb-9cdd1cc96a7b","ios":"levelo://app?vid=9ee44995-9314-4d2b-bebb-9cdd1cc96a7b"},"vehicle_type_id":"4","last_reported":1708121178,"current_range_meters":2800,"station_id":"ce4bgs92rcd13ifvqcc0","pricing_plan_id":"cebpf4jnsgd1na2vs0mg"},{"bike_id":"86a243ad-e105-4f23-85b0-42a9e05b7e2c","system_id":"levelo_inurba_marseille","lat":43.301429,"lon":5.37413,"is_reserved":false,"is_disabled":false,"rental_uris":{"android":"levelo://app?vid=86a243ad-e105-4f23-85b0-42a9e05b7e2c","ios":"levelo://app?vid=86a243ad-e105-4f23-85b0-42a9e05b7e2c"},"vehicle_type_id":"4","last_reported":1708121178,"current_range_meters":2400,"station_id":"ce4bgs92rcd13ifvqcc0","pricing_plan_id":"cebpf4jnsgd1na2vs0mg"},{"bike_id":"a11f77e1-2d50-4e10-912b-80f6376e87cf","system_id":"levelo_inurba_marseille","lat":43.301429,"lon":5.37413,"is_reserved":false,"is_disabled":false,"rental_uris":{"android":"levelo://app?vid=a11f77e1-2d50-4e10-912b-80f6376e87cf","ios":"levelo://app?vid=a11f77e1-2d50-4e10-912b-80f6376e87cf"},"vehicle_type_id":"4","last_reported":1708121178,"current_range_meters":18400,"station_id":"ce4bgs92rcd13ifvqcc0","pricing_plan_id":"cebpf4jnsgd1na2vs0mg"},{"bike_id":"bb53b24e-d8ca-462d-9320-822089f6b29e","system_id":"levelo_inurba_marseille","lat":43.302784,"lon":5.377158,"is_reserved":false,"is_disabled":false,"rental_uris":{"android":"levelo://app?vid=bb53b24e-d8ca-462d-9320-822089f6b29e","ios":"levelo://app?vid=bb53b24e-d8ca-462d-9320-822089f6b29e"},"vehicle_type_id":"4","last_reported":1708121178,"current_range_meters":17600,"station_id":"ce4bguh2rcd13ifvqcj0","pricing_plan_id":"cebpf4jnsgd1na2vs0mg"},{"bike_id":"e8ba4a55-5992-4280-b9f4-d0440c446b7b","system_id":"levelo_inurba_marseille","lat":43.301429,"lon":5.37413,"is_reserved":false,"is_disabled":false,"rental_uris":{"android":"levelo://app?vid=e8ba4a55-5992-4280-b9f4-d0440c446b7b","ios":"levelo://app?vid=e8ba4a55-5992-4280-b9f4-d0440c446b7b"},"vehicle_type_id":"4","last_reported":1708121178,"current_range_meters":800,"station_id":"ce4bgs92rcd13ifvqcc0","pricing_plan_id":"cebpf4jnsgd1na2vs0mg"},{"bike_id":"253f57d7-e42e-4792-99e9-60a4836727c6","system_id":"levelo_inurba_marseille","lat":43.319979,"lon":5.381485,"is_reserved":false,"is_disabled":false,"rental_uris":{"android":"levelo://app?vid=253f57d7-e42e-4792-99e9-60a4836727c6","ios":"levelo://app?vid=253f57d7-e42e-4792-99e9-60a4836727c6"},"vehicle_type_id":"4","last_reported":1708121178,"current_range_meters":29200,"station_id":"ce4bhr12rcd13ifvqhpg","pricing_plan_id":"cebpf4jnsgd1na2vs0mg"},{"bike_id":"a778d218-c4c3-494a-b4df-fc23ae99fc31","system_id":"levelo_inurba_marseille","lat":43.31999,"lon":5.3815,"is_reserved":false,"is_disabled":false,"rental_uris":{"android":"levelo://app?vid=a778d218-c4c3-494a-b4df-fc23ae99fc31","ios":"levelo://app?vid=a778d218-c4c3-494a-b4df-fc23ae99fc31"},"vehicle_type_id":"4","last_reported":1708121178,"current_range_meters":29600,"station_id":"ce4bhr12rcd13ifvqhpg","pricing_plan_id":"cebpf4jnsgd1na2vs0mg"},{"bike_id":"a01b2ae4-3880-4ec4-8bd9-6e5e09b4e373","system_id":"levelo_inurba_marseille","lat":43.31996,"lon":5.38153,"is_reserved":false,"is_disabled":false,"rental_uris":{"android":"levelo://app?vid=a01b2ae4-3880-4ec4-8bd9-6e5e09b4e373","ios":"levelo://app?vid=a01b2ae4-3880-4ec4-8bd9-6e5e09b4e373"},"vehicle_type_id":"4","last_reported":1708121178,"current_range_meters":14000,"station_id":"ce4bhr12rcd13ifvqhpg","pricing_plan_id":"cebpf4jnsgd1na2vs0mg"},{"bike_id":"9d8c0a3b-7f60-4523-aa49-51e9485356f5","system_id":"levelo_inurba_marseille","lat":43.31996,"lon":5.38156,"is_reserved":false,"is_disabled":false,"rental_uris":{"android":"levelo://app?vid=9d8c0a3b-7f60-4523-aa49-51e9485356f5","ios":"levelo://app?vid=9d8c0a3b-7f60-4523-aa49-51e9485356f5"},"vehicle_type_id":"4","last_reported":1708121178,"current_range_meters":11600,"station_id":"ce4bhr12rcd13ifvqhpg","pricing_plan_id":"cebpf4jnsgd1na2vs0mg"},{"bike_id":"cec17300-11df-45f5-9fc2-654bdac57e67","system_id":"levelo_inurba_marseille","lat":43.32003,"lon":5.3815,"is_reserved":false,"is_disabled":false,"rental_uris":{"android":"levelo://app?vid=cec17300-11df-45f5-9fc2-654bdac57e67","ios":"levelo://app?vid=cec17300-11df-45f5-9fc2-654bdac57e67"},"vehicle_type_id":"4","last_reported":1708121178,"current_range_meters":29200,"station_id":"ce4bhr12rcd13ifvqhpg","pricing_plan_id":"cebpf4jnsgd1na2vs0mg"},{"bike_id":"fcd1c5ff-7ff1-45d7-a993-8e4b91a97aff","system_id":"levelo_inurba_marseille","lat":43.31996,"lon":5.38157,"is_reserved":false,"is_disabled":false,"rental_uris":{"android":"levelo://app?vid=fcd1c5ff-7ff1-45d7-a993-8e4b91a97aff","ios":"levelo://app?vid=fcd1c5ff-7ff1-45d7-a993-8e4b91a97aff"},"vehicle_type_id":"4","last_reported":1708121178,"current_range_meters":27200,"station_id":"ce4bhr12rcd13ifvqhpg","pricing_plan_id":"cebpf4jnsgd1na2vs0mg"},{"bike_id":"2d76af47-c728-4336-9ab6-040dda11a28b","system_id":"levelo_inurba_marseille","lat":43.319984,"lon":5.381569,"is_reserved":false,"is_disabled":false,"rental_uris":{"android":"levelo://app?vid=2d76af47-c728-4336-9ab6-040dda11a28b","ios":"levelo://app?vid=2d76af47-c728-4336-9ab6-040dda11a28b"},"vehicle_type_id":"4","last_reported":1708121178,"current_range_meters":6400,"station_id":"ce4bhr12rcd13ifvqhpg","pricing_plan_id":"cebpf4jnsgd1na2vs0mg"},{"bike_id":"69ea3702-ffbe-43c1-9f15-a1d85c37370d","system_id":"levelo_inurba_marseille","lat":43.32004,"lon":5.38157,"is_reserved":false,"is_disabled":false,"rental_uris":{"android":"levelo://app?vid=69ea3702-ffbe-43c1-9f15-a1d85c37370d","ios":"levelo://app?vid=69ea3702-ffbe-43c1-9f15-a1d85c37370d"},"vehicle_type_id":"4","last_reported":1708121178,"current_range_meters":3200,"station_id":"ce4bhr12rcd13ifvqhpg","pricing_plan_id":"cebpf4jnsgd1na2vs0mg"},{"bike_id":"2399243d-ff23-4dcc-8142-b9f519abbd70","system_id":"levelo_inurba_marseille","lat":43.313571,"lon":5.384829,"is_reserved":false,"is_disabled":false,"rental_uris":{"android":"levelo://app?vid=2399243d-ff23-4dcc-8142-b9f519abbd70","ios":"levelo://app?vid=2399243d-ff23-4dcc-8142-b9f519abbd70"},"vehicle_type_id":"4","last_reported":1708121178,"current_range_meters":16400,"station_id":"ce4bgt92rcd13ifvqcf0","pricing_plan_id":"cebpf4jnsgd1na2vs0mg"},{"bike_id":"bd01a1d5-d7aa-4fe5-af38-de04e45e97d7","system_id":"levelo_inurba_marseille","lat":43.313571,"lon":5.384829,"is_reserved":false,"is_disabled":false,"rental_uris":{"android":"levelo://app?vid=bd01a1d5-d7aa-4fe5-af38-de04e45e97d7","ios":"levelo://app?vid=bd01a1d5-d7aa-4fe5-af38-de04e45e97d7"},"vehicle_type_id":"4","last_reported":1708121178,"current_range_meters":30400,"station_id":"ce4bgt92rcd13ifvqcf0","pricing_plan_id":"cebpf4jnsgd1na2vs0mg"},{"bike_id":"9fbb4e5c-c2cb-4136-b379-691aae86b933","system_id":"levelo_inurba_marseille","lat":43.313571,"lon":5.384829,"is_reserved":false,"is_disabled":false,"rental_uris":{"android":"levelo://app?vid=9fbb4e5c-c2cb-4136-b379-691aae86b933","ios":"levelo://app?vid=9fbb4e5c-c2cb-4136-b379-691aae86b933"},"vehicle_type_id":"4","last_reported":1708121178,"current_range_meters":20800,"station_id":"ce4bgt92rcd13ifvqcf0","pricing_plan_id":"cebpf4jnsgd1na2vs0mg"},{"bike_id":"c5d09069-a7f7-4527-a2b9-a58a1f131149","system_id":"levelo_inurba_marseille","lat":43.29951,"lon":5.36534,"is_reserved":false,"is_disabled":false,"rental_uris":{"android":"levelo://app?vid=c5d09069-a7f7-4527-a2b9-a58a1f131149","ios":"levelo://app?vid=c5d09069-a7f7-4527-a2b9-a58a1f131149"},"vehicle_type_id":"4","last_reported":1708121178,"current_range_meters":18800,"station_id":"ce4bgm92rcd13ifvqbr0","pricing_plan_id":"cebpf4jnsgd1na2vs0mg"},{"bike_id":"18ea8f52-fac6-43a2-8ece-042208de6605","system_id":"levelo_inurba_marseille","lat":43.299222,"lon":5.365554,"is_reserved":false,"is_disabled":false,"rental_uris":{"android":"levelo://app?vid=18ea8f52-fac6-43a2-8ece-042208de6605","ios":"levelo://app?vid=18ea8f52-fac6-43a2-8ece-042208de6605"},"vehicle_type_id":"4","last_reported":1708121178,"current_range_meters":0,"station_id":"ce4bgm92rcd13ifvqbr0","pricing_plan_id":"cebpf4jnsgd1na2vs0mg"},{"bike_id":"85150c9f-576a-4362-8a56-6d2b0d52dfab","system_id":"levelo_inurba_marseille","lat":43.305364,"lon":5.384119,"is_reserved":false,"is_disabled":false,"rental_uris":{"android":"levelo://app?vid=85150c9f-576a-4362-8a56-6d2b0d52dfab","ios":"levelo://app?vid=85150c9f-576a-4362-8a56-6d2b0d52dfab"},"vehicle_type_id":"4","last_reported":1708121178,"current_range_meters":6000,"station_id":"ce4bgg92rcd13ifvqb30","pricing_plan_id":"cebpf4jnsgd1na2vs0mg"},{"bike_id":"653d4896-4000-47fc-80b7-c0965600d058","system_id":"levelo_inurba_marseille","lat":43.298433,"lon":5.362774,"is_reserved":false,"is_disabled":false,"rental_uris":{"android":"levelo://app?vid=653d4896-4000-47fc-80b7-c0965600d058","ios":"levelo://app?vid=653d4896-4000-47fc-80b7-c0965600d058"},"vehicle_type_id":"4","last_reported":1708121178,"current_range_meters":4000,"station_id":"ce4bgpp2rcd13ifvqc3g","pricing_plan_id":"cebpf4jnsgd1na2vs0mg"},{"bike_id":"51f85c47-e121-43f0-abde-f1d252c5cfcc","system_id":"levelo_inurba_marseille","lat":43.298433,"lon":5.362774,"is_reserved":false,"is_disabled":false,"rental_uris":{"android":"levelo://app?vid=51f85c47-e121-43f0-abde-f1d252c5cfcc","ios":"levelo://app?vid=51f85c47-e121-43f0-abde-f1d252c5cfcc"},"vehicle_type_id":"4","last_reported":1708121178,"current_range_meters":8800,"station_id":"ce4bgpp2rcd13ifvqc3g","pricing_plan_id":"cebpf4jnsgd1na2vs0mg"},{"bike_id":"49cc9468-563e-480d-8c79-836e5e183c7e","system_id":"levelo_inurba_marseille","lat":43.305364,"lon":5.384119,"is_reserved":false,"is_disabled":false,"rental_uris":{"android":"levelo://app?vid=49cc9468-563e-480d-8c79-836e5e183c7e","ios":"levelo://app?vid=49cc9468-563e-480d-8c79-836e5e183c7e"},"vehicle_type_id":"4","last_reported":1708121178,"current_range_meters":4000,"station_id":"ce4bgg92rcd13ifvqb30","pricing_plan_id":"cebpf4jnsgd1na2vs0mg"},{"bike_id":"5733a977-c3a2-4daa-a641-70fc3e793e54","system_id":"levelo_inurba_marseille","lat":43.305364,"lon":5.384119,"is_reserved":false,"is_disabled":false,"rental_uris":{"android":"levelo://app?vid=5733a977-c3a2-4daa-a641-70fc3e793e54","ios":"levelo://app?vid=5733a977-c3a2-4daa-a641-70fc3e793e54"},"vehicle_type_id":"4","last_reported":1708121178,"current_range_meters":27600,"station_id":"ce4bgg92rcd13ifvqb30","pricing_plan_id":"cebpf4jnsgd1na2vs0mg"},{"bike_id":"31289bdb-ec35-407e-965e-c237f8f4b34d","system_id":"levelo_inurba_marseille","lat":43.305364,"lon":5.384119,"is_reserved":false,"is_disabled":false,"rental_uris":{"android":"levelo://app?vid=31289bdb-ec35-407e-965e-c237f8f4b34d","ios":"levelo://app?vid=31289bdb-ec35-407e-965e-c237f8f4b34d"},"vehicle_type_id":"4","last_reported":1708121178,"current_range_meters":6400,"station_id":"ce4bgg92rcd13ifvqb30","pricing_plan_id":"cebpf4jnsgd1na2vs0mg"},{"bike_id":"fa4d9a35-e56e-4d74-b134-c684a94f293d","system_id":"levelo_inurba_marseille","lat":43.305364,"lon":5.384119,"is_reserved":false,"is_disabled":false,"rental_uris":{"android":"levelo://app?vid=fa4d9a35-e56e-4d74-b134-c684a94f293d","ios":"levelo://app?vid=fa4d9a35-e56e-4d74-b134-c684a94f293d"},"vehicle_type_id":"4","last_reported":1708121178,"current_range_meters":7600,"station_id":"ce4bgg92rcd13ifvqb30","pricing_plan_id":"cebpf4jnsgd1na2vs0mg"},{"bike_id":"7944fd32-7157-46eb-806f-7fadc094c2fc","system_id":"levelo_inurba_marseille","lat":43.305364,"lon":5.384119,"is_reserved":false,"is_disabled":false,"rental_uris":{"android":"levelo://app?vid=7944fd32-7157-46eb-806f-7fadc094c2fc","ios":"levelo://app?vid=7944fd32-7157-46eb-806f-7fadc094c2fc"},"vehicle_type_id":"4","last_reported":1708121178,"current_range_meters":9600,"station_id":"ce4bgg92rcd13ifvqb30","pricing_plan_id":"cebpf4jnsgd1na2vs0mg"},{"bike_id":"b2c5ce2e-4153-4bea-95fb-e5b3cef15237","system_id":"levelo_inurba_marseille","lat":43.298433,"lon":5.362774,"is_reserved":false,"is_disabled":false,"rental_uris":{"android":"levelo://app?vid=b2c5ce2e-4153-4bea-95fb-e5b3cef15237","ios":"levelo://app?vid=b2c5ce2e-4153-4bea-95fb-e5b3cef15237"},"vehicle_type_id":"4","last_reported":1708121178,"current_range_meters":2400,"station_id":"ce4bgpp2rcd13ifvqc3g","pricing_plan_id":"cebpf4jnsgd1na2vs0mg"},{"bike_id":"f120304c-705d-4861-ab5e-1e3ef532932c","system_id":"levelo_inurba_marseille","lat":43.298433,"lon":5.362774,"is_reserved":false,"is_disabled":false,"rental_uris":{"android":"levelo://app?vid=f120304c-705d-4861-ab5e-1e3ef532932c","ios":"levelo://app?vid=f120304c-705d-4861-ab5e-1e3ef532932c"},"vehicle_type_id":"4","last_reported":1708121178,"current_range_meters":19600,"station_id":"ce4bgpp2rcd13ifvqc3g","pricing_plan_id":"cebpf4jnsgd1na2vs0mg"},{"bike_id":"a5f7fc7e-57a8-4917-a9dd-bbe0bc82a8a8","system_id":"levelo_inurba_marseille","lat":43.311722,"lon":5.387247,"is_reserved":false,"is_disabled":false,"rental_uris":{"android":"levelo://app?vid=a5f7fc7e-57a8-4917-a9dd-bbe0bc82a8a8","ios":"levelo://app?vid=a5f7fc7e-57a8-4917-a9dd-bbe0bc82a8a8"},"vehicle_type_id":"4","last_reported":1708121178,"current_range_meters":31200,"station_id":"ce4bgv12rcd13ifvqcp0","pricing_plan_id":"cebpf4jnsgd1na2vs0mg"},{"bike_id":"73894429-1d86-4142-8100-5354f94fa833","system_id":"levelo_inurba_marseille","lat":43.311652,"lon":5.387062,"is_reserved":false,"is_disabled":false,"rental_uris":{"android":"levelo://app?vid=73894429-1d86-4142-8100-5354f94fa833","ios":"levelo://app?vid=73894429-1d86-4142-8100-5354f94fa833"},"vehicle_type_id":"4","last_reported":1708121178,"current_range_meters":22400,"station_id":"ce4bgv12rcd13ifvqcp0","pricing_plan_id":"cebpf4jnsgd1na2vs0mg"},{"bike_id":"c1a5af98-1ff5-4ac9-910b-75ef0db67d4a","system_id":"levelo_inurba_marseille","lat":43.311722,"lon":5.387247,"is_reserved":false,"is_disabled":false,"rental_uris":{"android":"levelo://app?vid=c1a5af98-1ff5-4ac9-910b-75ef0db67d4a","ios":"levelo://app?vid=c1a5af98-1ff5-4ac9-910b-75ef0db67d4a"},"vehicle_type_id":"4","last_reported":1708121178,"current_range_meters":11600,"station_id":"ce4bgv12rcd13ifvqcp0","pricing_plan_id":"cebpf4jnsgd1na2vs0mg"},{"bike_id":"89ab5a4b-69d6-466e-a49e-1df22d0aecee","system_id":"levelo_inurba_marseille","lat":43.31167,"lon":5.38721,"is_reserved":false,"is_disabled":false,"rental_uris":{"android":"levelo://app?vid=89ab5a4b-69d6-466e-a49e-1df22d0aecee","ios":"levelo://app?vid=89ab5a4b-69d6-466e-a49e-1df22d0aecee"},"vehicle_type_id":"4","last_reported":1708121178,"current_range_meters":0,"station_id":"ce4bgv12rcd13ifvqcp0","pricing_plan_id":"cebpf4jnsgd1na2vs0mg"},{"bike_id":"c98f356e-fd4c-459e-9a66-47c144d33687","system_id":"levelo_inurba_marseille","lat":43.311722,"lon":5.387247,"is_reserved":false,"is_disabled":false,"rental_uris":{"android":"levelo://app?vid=c98f356e-fd4c-459e-9a66-47c144d33687","ios":"levelo://app?vid=c98f356e-fd4c-459e-9a66-47c144d33687"},"vehicle_type_id":"4","last_reported":1708121178,"current_range_meters":9600,"station_id":"ce4bgv12rcd13ifvqcp0","pricing_plan_id":"cebpf4jnsgd1na2vs0mg"},{"bike_id":"ee481f2f-b23f-4eae-b950-8ced6db26043","system_id":"levelo_inurba_marseille","lat":43.31161,"lon":5.38731,"is_reserved":false,"is_disabled":false,"rental_uris":{"android":"levelo://app?vid=ee481f2f-b23f-4eae-b950-8ced6db26043","ios":"levelo://app?vid=ee481f2f-b23f-4eae-b950-8ced6db26043"},"vehicle_type_id":"4","last_reported":1708121178,"current_range_meters":17600,"station_id":"ce4bgv12rcd13ifvqcp0","pricing_plan_id":"cebpf4jnsgd1na2vs0mg"},{"bike_id":"70eafe38-1027-4423-ac4b-7fe911837f5c","system_id":"levelo_inurba_marseille","lat":43.32659,"lon":5.37446,"is_reserved":false,"is_disabled":false,"rental_uris":{"android":"levelo://app?vid=70eafe38-1027-4423-ac4b-7fe911837f5c","ios":"levelo://app?vid=70eafe38-1027-4423-ac4b-7fe911837f5c"},"vehicle_type_id":"4","last_reported":1708121178,"current_range_meters":4000,"station_id":"","pricing_plan_id":"cebpf4jnsgd1na2vs0mg"},{"bike_id":"3d149655-a53b-43cc-af49-d0904740e2d1","system_id":"levelo_inurba_marseille","lat":43.322872,"lon":5.382756,"is_reserved":false,"is_disabled":false,"rental_uris":{"android":"levelo://app?vid=3d149655-a53b-43cc-af49-d0904740e2d1","ios":"levelo://app?vid=3d149655-a53b-43cc-af49-d0904740e2d1"},"vehicle_type_id":"4","last_reported":1708121178,"current_range_meters":17600,"station_id":"ce4bhr12rcd13ifvqhqg","pricing_plan_id":"cebpf4jnsgd1na2vs0mg"},{"bike_id":"dd2be7c7-d39e-42f9-b4aa-905d49619990","system_id":"levelo_inurba_marseille","lat":43.322872,"lon":5.382756,"is_reserved":false,"is_disabled":false,"rental_uris":{"android":"levelo://app?vid=dd2be7c7-d39e-42f9-b4aa-905d49619990","ios":"levelo://app?vid=dd2be7c7-d39e-42f9-b4aa-905d49619990"},"vehicle_type_id":"4","last_reported":1708121178,"current_range_meters":26400,"station_id":"ce4bhr12rcd13ifvqhqg","pricing_plan_id":"cebpf4jnsgd1na2vs0mg"},{"bike_id":"3de251e7-275d-4ce6-b31d-dac248ec4967","system_id":"levelo_inurba_marseille","lat":43.322872,"lon":5.382756,"is_reserved":false,"is_disabled":false,"rental_uris":{"android":"levelo://app?vid=3de251e7-275d-4ce6-b31d-dac248ec4967","ios":"levelo://app?vid=3de251e7-275d-4ce6-b31d-dac248ec4967"},"vehicle_type_id":"4","last_reported":1708121178,"current_range_meters":27600,"station_id":"ce4bhr12rcd13ifvqhqg","pricing_plan_id":"cebpf4jnsgd1na2vs0mg"},{"bike_id":"83b5f419-4266-4c2c-b6fb-35828173d4ce","system_id":"levelo_inurba_marseille","lat":43.322872,"lon":5.382756,"is_reserved":false,"is_disabled":false,"rental_uris":{"android":"levelo://app?vid=83b5f419-4266-4c2c-b6fb-35828173d4ce","ios":"levelo://app?vid=83b5f419-4266-4c2c-b6fb-35828173d4ce"},"vehicle_type_id":"4","last_reported":1708121178,"current_range_meters":30800,"station_id":"ce4bhr12rcd13ifvqhqg","pricing_plan_id":"cebpf4jnsgd1na2vs0mg"},{"bike_id":"4e3b44c3-d23d-43af-8570-7b92afd3cb93","system_id":"levelo_inurba_marseille","lat":43.322872,"lon":5.382756,"is_reserved":false,"is_disabled":false,"rental_uris":{"android":"levelo://app?vid=4e3b44c3-d23d-43af-8570-7b92afd3cb93","ios":"levelo://app?vid=4e3b44c3-d23d-43af-8570-7b92afd3cb93"},"vehicle_type_id":"4","last_reported":1708121178,"current_range_meters":19600,"station_id":"ce4bhr12rcd13ifvqhqg","pricing_plan_id":"cebpf4jnsgd1na2vs0mg"},{"bike_id":"133959c5-6fe0-474d-be2d-d408a364bacc","system_id":"levelo_inurba_marseille","lat":43.322872,"lon":5.382756,"is_reserved":false,"is_disabled":false,"rental_uris":{"android":"levelo://app?vid=133959c5-6fe0-474d-be2d-d408a364bacc","ios":"levelo://app?vid=133959c5-6fe0-474d-be2d-d408a364bacc"},"vehicle_type_id":"4","last_reported":1708121178,"current_range_meters":24800,"station_id":"ce4bhr12rcd13ifvqhqg","pricing_plan_id":"cebpf4jnsgd1na2vs0mg"},{"bike_id":"ec21c626-faeb-41e5-9192-4d2bef3ee4d3","system_id":"levelo_inurba_marseille","lat":43.328203,"lon":5.366726,"is_reserved":false,"is_disabled":false,"rental_uris":{"android":"levelo://app?vid=ec21c626-faeb-41e5-9192-4d2bef3ee4d3","ios":"levelo://app?vid=ec21c626-faeb-41e5-9192-4d2bef3ee4d3"},"vehicle_type_id":"4","last_reported":1708121178,"current_range_meters":0,"station_id":"ce4bhs92rcd13ifvqi0g","pricing_plan_id":"cebpf4jnsgd1na2vs0mg"},{"bike_id":"e4cc1337-7654-41c0-8296-b1f3b25edb39","system_id":"levelo_inurba_marseille","lat":43.32822,"lon":5.36683,"is_reserved":false,"is_disabled":false,"rental_uris":{"android":"levelo://app?vid=e4cc1337-7654-41c0-8296-b1f3b25edb39","ios":"levelo://app?vid=e4cc1337-7654-41c0-8296-b1f3b25edb39"},"vehicle_type_id":"4","last_reported":1708121178,"current_range_meters":16400,"station_id":"ce4bhs92rcd13ifvqi0g","pricing_plan_id":"cebpf4jnsgd1na2vs0mg"},{"bike_id":"4a0314a3-53ac-4faf-a81a-365240b15a43","system_id":"levelo_inurba_marseille","lat":43.32822,"lon":5.36679,"is_reserved":false,"is_disabled":false,"rental_uris":{"android":"levelo://app?vid=4a0314a3-53ac-4faf-a81a-365240b15a43","ios":"levelo://app?vid=4a0314a3-53ac-4faf-a81a-365240b15a43"},"vehicle_type_id":"4","last_reported":1708121178,"current_range_meters":20800,"station_id":"ce4bhs92rcd13ifvqi0g","pricing_plan_id":"cebpf4jnsgd1na2vs0mg"},{"bike_id":"c9b88aad-86c2-4a51-9436-08e8586a0048","system_id":"levelo_inurba_marseille","lat":43.328371,"lon":5.366909,"is_reserved":false,"is_disabled":false,"rental_uris":{"android":"levelo://app?vid=c9b88aad-86c2-4a51-9436-08e8586a0048","ios":"levelo://app?vid=c9b88aad-86c2-4a51-9436-08e8586a0048"},"vehicle_type_id":"4","last_reported":1708121178,"current_range_meters":9600,"station_id":"ce4bhs92rcd13ifvqi0g","pricing_plan_id":"cebpf4jnsgd1na2vs0mg"},{"bike_id":"b354d40e-f748-45df-b8a4-085ee0f39b31","system_id":"levelo_inurba_marseille","lat":43.32824,"lon":5.36682,"is_reserved":false,"is_disabled":false,"rental_uris":{"android":"levelo://app?vid=b354d40e-f748-45df-b8a4-085ee0f39b31","ios":"levelo://app?vid=b354d40e-f748-45df-b8a4-085ee0f39b31"},"vehicle_type_id":"4","last_reported":1708121178,"current_range_meters":14800,"station_id":"ce4bhs92rcd13ifvqi0g","pricing_plan_id":"cebpf4jnsgd1na2vs0mg"},{"bike_id":"d059372d-713e-4306-a0dc-ef5b2b5ad059","system_id":"levelo_inurba_marseille","lat":43.32825,"lon":5.36672,"is_reserved":false,"is_disabled":false,"rental_uris":{"android":"levelo://app?vid=d059372d-713e-4306-a0dc-ef5b2b5ad059","ios":"levelo://app?vid=d059372d-713e-4306-a0dc-ef5b2b5ad059"},"vehicle_type_id":"4","last_reported":1708121178,"current_range_meters":25600,"station_id":"ce4bhs92rcd13ifvqi0g","pricing_plan_id":"cebpf4jnsgd1na2vs0mg"},{"bike_id":"cc924a54-60e4-4421-b12c-5aa0bb659927","system_id":"levelo_inurba_marseille","lat":43.32826,"lon":5.36683,"is_reserved":false,"is_disabled":false,"rental_uris":{"android":"levelo://app?vid=cc924a54-60e4-4421-b12c-5aa0bb659927","ios":"levelo://app?vid=cc924a54-60e4-4421-b12c-5aa0bb659927"},"vehicle_type_id":"4","last_reported":1708121178,"current_range_meters":6000,"station_id":"ce4bhs92rcd13ifvqi0g","pricing_plan_id":"cebpf4jnsgd1na2vs0mg"},{"bike_id":"18e2c73a-6142-4193-b7b8-60c34b367900","system_id":"levelo_inurba_marseille","lat":43.32826,"lon":5.36675,"is_reserved":false,"is_disabled":false,"rental_uris":{"android":"levelo://app?vid=18e2c73a-6142-4193-b7b8-60c34b367900","ios":"levelo://app?vid=18e2c73a-6142-4193-b7b8-60c34b367900"},"vehicle_type_id":"4","last_reported":1708121178,"current_range_meters":24800,"station_id":"ce4bhs92rcd13ifvqi0g","pricing_plan_id":"cebpf4jnsgd1na2vs0mg"},{"bike_id":"3833ec15-b081-4b20-84c5-72daf8aa7006","system_id":"levelo_inurba_marseille","lat":43.32827,"lon":5.36682,"is_reserved":false,"is_disabled":false,"rental_uris":{"android":"levelo://app?vid=3833ec15-b081-4b20-84c5-72daf8aa7006","ios":"levelo://app?vid=3833ec15-b081-4b20-84c5-72daf8aa7006"},"vehicle_type_id":"4","last_reported":1708121178,"current_range_meters":25200,"station_id":"ce4bhs92rcd13ifvqi0g","pricing_plan_id":"cebpf4jnsgd1na2vs0mg"},{"bike_id":"ecc597d3-f2ea-41b5-b374-bc2279e4f21f","system_id":"levelo_inurba_marseille","lat":43.32828,"lon":5.36685,"is_reserved":false,"is_disabled":false,"rental_uris":{"android":"levelo://app?vid=ecc597d3-f2ea-41b5-b374-bc2279e4f21f","ios":"levelo://app?vid=ecc597d3-f2ea-41b5-b374-bc2279e4f21f"},"vehicle_type_id":"4","last_reported":1708121178,"current_range_meters":1200,"station_id":"ce4bhs92rcd13ifvqi0g","pricing_plan_id":"cebpf4jnsgd1na2vs0mg"},{"bike_id":"3ce3bf05-0e26-4ba4-9a11-4781ff3d0eb6","system_id":"levelo_inurba_marseille","lat":43.328371,"lon":5.366909,"is_reserved":false,"is_disabled":false,"rental_uris":{"android":"levelo://app?vid=3ce3bf05-0e26-4ba4-9a11-4781ff3d0eb6","ios":"levelo://app?vid=3ce3bf05-0e26-4ba4-9a11-4781ff3d0eb6"},"vehicle_type_id":"4","last_reported":1708121178,"current_range_meters":6800,"station_id":"ce4bhs92rcd13ifvqi0g","pricing_plan_id":"cebpf4jnsgd1na2vs0mg"},{"bike_id":"76fab19c-4635-49a9-87e2-a2a0eadf1764","system_id":"levelo_inurba_marseille","lat":43.32831,"lon":5.36684,"is_reserved":false,"is_disabled":false,"rental_uris":{"android":"levelo://app?vid=76fab19c-4635-49a9-87e2-a2a0eadf1764","ios":"levelo://app?vid=76fab19c-4635-49a9-87e2-a2a0eadf1764"},"vehicle_type_id":"4","last_reported":1708121178,"current_range_meters":0,"station_id":"ce4bhs92rcd13ifvqi0g","pricing_plan_id":"cebpf4jnsgd1na2vs0mg"},{"bike_id":"f23daf79-1d7c-4534-81e4-4baed53eef42","system_id":"levelo_inurba_marseille","lat":43.29711,"lon":5.3661,"is_reserved":false,"is_disabled":false,"rental_uris":{"android":"levelo://app?vid=f23daf79-1d7c-4534-81e4-4baed53eef42","ios":"levelo://app?vid=f23daf79-1d7c-4534-81e4-4baed53eef42"},"vehicle_type_id":"4","last_reported":1708121178,"current_range_meters":0,"station_id":"ce4bgn12rcd13ifvqbt0","pricing_plan_id":"cebpf4jnsgd1na2vs0mg"},{"bike_id":"4da49b2c-f41c-4070-b453-dfc8b8bb5e8e","system_id":"levelo_inurba_marseille","lat":43.32595,"lon":5.37897,"is_reserved":false,"is_disabled":false,"rental_uris":{"android":"levelo://app?vid=4da49b2c-f41c-4070-b453-dfc8b8bb5e8e","ios":"levelo://app?vid=4da49b2c-f41c-4070-b453-dfc8b8bb5e8e"},"vehicle_type_id":"4","last_reported":1708121178,"current_range_meters":16400,"station_id":"","pricing_plan_id":"cebpf4jnsgd1na2vs0mg"},{"bike_id":"68ca9b29-2e16-4a1e-b0b9-b52cbb726b3c","system_id":"levelo_inurba_marseille","lat":43.29607,"lon":5.36797,"is_reserved":false,"is_disabled":false,"rental_uris":{"android":"levelo://app?vid=68ca9b29-2e16-4a1e-b0b9-b52cbb726b3c","ios":"levelo://app?vid=68ca9b29-2e16-4a1e-b0b9-b52cbb726b3c"},"vehicle_type_id":"4","last_reported":1708121178,"current_range_meters":0,"station_id":"","pricing_plan_id":"cebpf4jnsgd1na2vs0mg"},{"bike_id":"cf199a32-4cc5-45df-8915-95fba9c1ee91","system_id":"levelo_inurba_marseille","lat":43.29573,"lon":5.367355,"is_reserved":false,"is_disabled":false,"rental_uris":{"android":"levelo://app?vid=cf199a32-4cc5-45df-8915-95fba9c1ee91","ios":"levelo://app?vid=cf199a32-4cc5-45df-8915-95fba9c1ee91"},"vehicle_type_id":"4","last_reported":1708121178,"current_range_meters":2000,"station_id":"ce4bgph2rcd13ifvqc2g","pricing_plan_id":"cebpf4jnsgd1na2vs0mg"},{"bike_id":"2264ef29-8c80-49e6-b933-81f4dcd584ab","system_id":"levelo_inurba_marseille","lat":43.2974,"lon":5.37692,"is_reserved":false,"is_disabled":false,"rental_uris":{"android":"levelo://app?vid=2264ef29-8c80-49e6-b933-81f4dcd584ab","ios":"levelo://app?vid=2264ef29-8c80-49e6-b933-81f4dcd584ab"},"vehicle_type_id":"4","last_reported":1708121178,"current_range_meters":31200,"station_id":"ce4bgkh2rcd13ifvqbl0","pricing_plan_id":"cebpf4jnsgd1na2vs0mg"},{"bike_id":"3f65ffa0-6ec5-4b0e-8190-71bb8c5a5505","system_id":"levelo_inurba_marseille","lat":43.299028,"lon":5.381509,"is_reserved":false,"is_disabled":false,"rental_uris":{"android":"levelo://app?vid=3f65ffa0-6ec5-4b0e-8190-71bb8c5a5505","ios":"levelo://app?vid=3f65ffa0-6ec5-4b0e-8190-71bb8c5a5505"},"vehicle_type_id":"4","last_reported":1708121178,"current_range_meters":25200,"station_id":"ce4bgj12rcd13ifvqbc0","pricing_plan_id":"cebpf4jnsgd1na2vs0mg"},{"bike_id":"900dd3de-c646-4273-802c-220180af4ad2","system_id":"levelo_inurba_marseille","lat":43.309589,"lon":5.390258,"is_reserved":false,"is_disabled":false,"rental_uris":{"android":"levelo://app?vid=900dd3de-c646-4273-802c-220180af4ad2","ios":"levelo://app?vid=900dd3de-c646-4273-802c-220180af4ad2"},"vehicle_type_id":"4","last_reported":1708121178,"current_range_meters":11200,"station_id":"ce4bgup2rcd13ifvqco0","pricing_plan_id":"cebpf4jnsgd1na2vs0mg"},{"bike_id":"1305fb47-a678-4d20-8e84-3b3735647896","system_id":"levelo_inurba_marseille","lat":43.299028,"lon":5.381509,"is_reserved":false,"is_disabled":false,"rental_uris":{"android":"levelo://app?vid=1305fb47-a678-4d20-8e84-3b3735647896","ios":"levelo://app?vid=1305fb47-a678-4d20-8e84-3b3735647896"},"vehicle_type_id":"4","last_reported":1708121178,"current_range_meters":21600,"station_id":"ce4bgj12rcd13ifvqbc0","pricing_plan_id":"cebpf4jnsgd1na2vs0mg"},{"bike_id":"902db0b5-ee23-4a2a-8d95-58c3d441e8d2","system_id":"levelo_inurba_marseille","lat":43.299028,"lon":5.381509,"is_reserved":false,"is_disabled":false,"rental_uris":{"android":"levelo://app?vid=902db0b5-ee23-4a2a-8d95-58c3d441e8d2","ios":"levelo://app?vid=902db0b5-ee23-4a2a-8d95-58c3d441e8d2"},"vehicle_type_id":"4","last_reported":1708121178,"current_range_meters":21600,"station_id":"ce4bgj12rcd13ifvqbc0","pricing_plan_id":"cebpf4jnsgd1na2vs0mg"},{"bike_id":"a3fe80fe-a4b5-4639-9a68-dda9367b376c","system_id":"levelo_inurba_marseille","lat":43.309589,"lon":5.390258,"is_reserved":false,"is_disabled":false,"rental_uris":{"android":"levelo://app?vid=a3fe80fe-a4b5-4639-9a68-dda9367b376c","ios":"levelo://app?vid=a3fe80fe-a4b5-4639-9a68-dda9367b376c"},"vehicle_type_id":"4","last_reported":1708121178,"current_range_meters":10400,"station_id":"ce4bgup2rcd13ifvqco0","pricing_plan_id":"cebpf4jnsgd1na2vs0mg"},{"bike_id":"3d7544b7-31f2-4aec-864d-6e9479c97f71","system_id":"levelo_inurba_marseille","lat":43.309589,"lon":5.390258,"is_reserved":false,"is_disabled":false,"rental_uris":{"android":"levelo://app?vid=3d7544b7-31f2-4aec-864d-6e9479c97f71","ios":"levelo://app?vid=3d7544b7-31f2-4aec-864d-6e9479c97f71"},"vehicle_type_id":"4","last_reported":1708121178,"current_range_meters":18000,"station_id":"ce4bgup2rcd13ifvqco0","pricing_plan_id":"cebpf4jnsgd1na2vs0mg"},{"bike_id":"1b7a4234-bddd-44fc-a528-80a01224d060","system_id":"levelo_inurba_marseille","lat":43.3176,"lon":5.3901,"is_reserved":false,"is_disabled":false,"rental_uris":{"android":"levelo://app?vid=1b7a4234-bddd-44fc-a528-80a01224d060","ios":"levelo://app?vid=1b7a4234-bddd-44fc-a528-80a01224d060"},"vehicle_type_id":"4","last_reported":1708121178,"current_range_meters":2400,"station_id":"ce4bhqp2rcd13ifvqhng","pricing_plan_id":"cebpf4jnsgd1na2vs0mg"},{"bike_id":"8b19d0ec-456b-4753-8097-2e2ef0dad484","system_id":"levelo_inurba_marseille","lat":43.317557,"lon":5.390173,"is_reserved":false,"is_disabled":false,"rental_uris":{"android":"levelo://app?vid=8b19d0ec-456b-4753-8097-2e2ef0dad484","ios":"levelo://app?vid=8b19d0ec-456b-4753-8097-2e2ef0dad484"},"vehicle_type_id":"4","last_reported":1708121178,"current_range_meters":31600,"station_id":"ce4bhqp2rcd13ifvqhng","pricing_plan_id":"cebpf4jnsgd1na2vs0mg"},{"bike_id":"0ddd06ca-78d6-4fdc-92ed-9c8ef81f47fe","system_id":"levelo_inurba_marseille","lat":43.317557,"lon":5.390173,"is_reserved":false,"is_disabled":false,"rental_uris":{"android":"levelo://app?vid=0ddd06ca-78d6-4fdc-92ed-9c8ef81f47fe","ios":"levelo://app?vid=0ddd06ca-78d6-4fdc-92ed-9c8ef81f47fe"},"vehicle_type_id":"4","last_reported":1708121178,"current_range_meters":31600,"station_id":"ce4bhqp2rcd13ifvqhng","pricing_plan_id":"cebpf4jnsgd1na2vs0mg"},{"bike_id":"92c4433a-1432-4883-85e8-2b2d9843ff33","system_id":"levelo_inurba_marseille","lat":43.3176,"lon":5.39012,"is_reserved":false,"is_disabled":false,"rental_uris":{"android":"levelo://app?vid=92c4433a-1432-4883-85e8-2b2d9843ff33","ios":"levelo://app?vid=92c4433a-1432-4883-85e8-2b2d9843ff33"},"vehicle_type_id":"4","last_reported":1708121178,"current_range_meters":8800,"station_id":"ce4bhqp2rcd13ifvqhng","pricing_plan_id":"cebpf4jnsgd1na2vs0mg"},{"bike_id":"d7ff2894-9c5e-41d5-878d-d5d27747d579","system_id":"levelo_inurba_marseille","lat":43.317557,"lon":5.390173,"is_reserved":false,"is_disabled":false,"rental_uris":{"android":"levelo://app?vid=d7ff2894-9c5e-41d5-878d-d5d27747d579","ios":"levelo://app?vid=d7ff2894-9c5e-41d5-878d-d5d27747d579"},"vehicle_type_id":"4","last_reported":1708121178,"current_range_meters":14400,"station_id":"ce4bhqp2rcd13ifvqhng","pricing_plan_id":"cebpf4jnsgd1na2vs0mg"},{"bike_id":"f6535c2f-d091-4f83-8ee7-dcd26141ca83","system_id":"levelo_inurba_marseille","lat":43.31759,"lon":5.39016,"is_reserved":false,"is_disabled":false,"rental_uris":{"android":"levelo://app?vid=f6535c2f-d091-4f83-8ee7-dcd26141ca83","ios":"levelo://app?vid=f6535c2f-d091-4f83-8ee7-dcd26141ca83"},"vehicle_type_id":"4","last_reported":1708121178,"current_range_meters":19600,"station_id":"ce4bhqp2rcd13ifvqhng","pricing_plan_id":"cebpf4jnsgd1na2vs0mg"},{"bike_id":"b3dcb9ba-bf07-48c1-aada-2fbdb761a352","system_id":"levelo_inurba_marseille","lat":43.317557,"lon":5.390173,"is_reserved":false,"is_disabled":false,"rental_uris":{"android":"levelo://app?vid=b3dcb9ba-bf07-48c1-aada-2fbdb761a352","ios":"levelo://app?vid=b3dcb9ba-bf07-48c1-aada-2fbdb761a352"},"vehicle_type_id":"4","last_reported":1708121178,"current_range_meters":31200,"station_id":"ce4bhqp2rcd13ifvqhng","pricing_plan_id":"cebpf4jnsgd1na2vs0mg"},{"bike_id":"ed10a435-1a4b-4dcb-9298-e3f009503610","system_id":"levelo_inurba_marseille","lat":43.317557,"lon":5.390173,"is_reserved":false,"is_disabled":false,"rental_uris":{"android":"levelo://app?vid=ed10a435-1a4b-4dcb-9298-e3f009503610","ios":"levelo://app?vid=ed10a435-1a4b-4dcb-9298-e3f009503610"},"vehicle_type_id":"4","last_reported":1708121178,"current_range_meters":27600,"station_id":"ce4bhqp2rcd13ifvqhng","pricing_plan_id":"cebpf4jnsgd1na2vs0mg"},{"bike_id":"6ccb21c5-f410-4f97-a31b-5d3674cc4c24","system_id":"levelo_inurba_marseille","lat":43.317557,"lon":5.390173,"is_reserved":false,"is_disabled":false,"rental_uris":{"android":"levelo://app?vid=6ccb21c5-f410-4f97-a31b-5d3674cc4c24","ios":"levelo://app?vid=6ccb21c5-f410-4f97-a31b-5d3674cc4c24"},"vehicle_type_id":"4","last_reported":1708121178,"current_range_meters":31600,"station_id":"ce4bhqp2rcd13ifvqhng","pricing_plan_id":"cebpf4jnsgd1na2vs0mg"},{"bike_id":"a203661e-355b-42f4-9955-ac4c89f27d54","system_id":"levelo_inurba_marseille","lat":43.317557,"lon":5.390173,"is_reserved":false,"is_disabled":false,"rental_uris":{"android":"levelo://app?vid=a203661e-355b-42f4-9955-ac4c89f27d54","ios":"levelo://app?vid=a203661e-355b-42f4-9955-ac4c89f27d54"},"vehicle_type_id":"4","last_reported":1708121178,"current_range_meters":31600,"station_id":"ce4bhqp2rcd13ifvqhng","pricing_plan_id":"cebpf4jnsgd1na2vs0mg"},{"bike_id":"2ca97d81-6eeb-49fd-a3cc-b94b782f5563","system_id":"levelo_inurba_marseille","lat":43.31759,"lon":5.39018,"is_reserved":false,"is_disabled":false,"rental_uris":{"android":"levelo://app?vid=2ca97d81-6eeb-49fd-a3cc-b94b782f5563","ios":"levelo://app?vid=2ca97d81-6eeb-49fd-a3cc-b94b782f5563"},"vehicle_type_id":"4","last_reported":1708121178,"current_range_meters":28400,"station_id":"ce4bhqp2rcd13ifvqhng","pricing_plan_id":"cebpf4jnsgd1na2vs0mg"},{"bike_id":"3edc7f72-aa1e-4feb-820d-899f3aaa6755","system_id":"levelo_inurba_marseille","lat":43.317557,"lon":5.390173,"is_reserved":false,"is_disabled":false,"rental_uris":{"android":"levelo://app?vid=3edc7f72-aa1e-4feb-820d-899f3aaa6755","ios":"levelo://app?vid=3edc7f72-aa1e-4feb-820d-899f3aaa6755"},"vehicle_type_id":"4","last_reported":1708121178,"current_range_meters":19200,"station_id":"ce4bhqp2rcd13ifvqhng","pricing_plan_id":"cebpf4jnsgd1na2vs0mg"},{"bike_id":"ed87d69f-71e3-4a80-a6a0-6a1355afd957","system_id":"levelo_inurba_marseille","lat":43.31755,"lon":5.39022,"is_reserved":false,"is_disabled":false,"rental_uris":{"android":"levelo://app?vid=ed87d69f-71e3-4a80-a6a0-6a1355afd957","ios":"levelo://app?vid=ed87d69f-71e3-4a80-a6a0-6a1355afd957"},"vehicle_type_id":"4","last_reported":1708121178,"current_range_meters":15200,"station_id":"ce4bhqp2rcd13ifvqhng","pricing_plan_id":"cebpf4jnsgd1na2vs0mg"},{"bike_id":"47cbab22-20ac-47bd-aa6f-cdebd05b475b","system_id":"levelo_inurba_marseille","lat":43.317557,"lon":5.390173,"is_reserved":false,"is_disabled":false,"rental_uris":{"android":"levelo://app?vid=47cbab22-20ac-47bd-aa6f-cdebd05b475b","ios":"levelo://app?vid=47cbab22-20ac-47bd-aa6f-cdebd05b475b"},"vehicle_type_id":"4","last_reported":1708121178,"current_range_meters":28000,"station_id":"ce4bhqp2rcd13ifvqhng","pricing_plan_id":"cebpf4jnsgd1na2vs0mg"},{"bike_id":"44c0a2a0-88a3-4e19-8fc3-deba4ee3e011","system_id":"levelo_inurba_marseille","lat":43.317557,"lon":5.390173,"is_reserved":false,"is_disabled":false,"rental_uris":{"android":"levelo://app?vid=44c0a2a0-88a3-4e19-8fc3-deba4ee3e011","ios":"levelo://app?vid=44c0a2a0-88a3-4e19-8fc3-deba4ee3e011"},"vehicle_type_id":"4","last_reported":1708121178,"current_range_meters":25200,"station_id":"ce4bhqp2rcd13ifvqhng","pricing_plan_id":"cebpf4jnsgd1na2vs0mg"},{"bike_id":"7398ac30-36b1-486a-9259-1c790e0d0896","system_id":"levelo_inurba_marseille","lat":43.298037,"lon":5.381066,"is_reserved":false,"is_disabled":false,"rental_uris":{"android":"levelo://app?vid=7398ac30-36b1-486a-9259-1c790e0d0896","ios":"levelo://app?vid=7398ac30-36b1-486a-9259-1c790e0d0896"},"vehicle_type_id":"4","last_reported":1708121178,"current_range_meters":5600,"station_id":"ce4bgip2rcd13ifvqbb0","pricing_plan_id":"cebpf4jnsgd1na2vs0mg"},{"bike_id":"7a6b347e-5723-4459-9cb3-85b5dc94f39d","system_id":"levelo_inurba_marseille","lat":43.298037,"lon":5.381066,"is_reserved":false,"is_disabled":false,"rental_uris":{"android":"levelo://app?vid=7a6b347e-5723-4459-9cb3-85b5dc94f39d","ios":"levelo://app?vid=7a6b347e-5723-4459-9cb3-85b5dc94f39d"},"vehicle_type_id":"4","last_reported":1708121178,"current_range_meters":21600,"station_id":"ce4bgip2rcd13ifvqbb0","pricing_plan_id":"cebpf4jnsgd1na2vs0mg"},{"bike_id":"54b7782a-fca7-4562-86b6-79bbf0ced0c3","system_id":"levelo_inurba_marseille","lat":43.298037,"lon":5.381066,"is_reserved":false,"is_disabled":false,"rental_uris":{"android":"levelo://app?vid=54b7782a-fca7-4562-86b6-79bbf0ced0c3","ios":"levelo://app?vid=54b7782a-fca7-4562-86b6-79bbf0ced0c3"},"vehicle_type_id":"4","last_reported":1708121178,"current_range_meters":25600,"station_id":"ce4bgip2rcd13ifvqbb0","pricing_plan_id":"cebpf4jnsgd1na2vs0mg"},{"bike_id":"d26ec55f-30de-4c39-8309-e7bcf08a8c1f","system_id":"levelo_inurba_marseille","lat":43.298007,"lon":5.380937,"is_reserved":false,"is_disabled":false,"rental_uris":{"android":"levelo://app?vid=d26ec55f-30de-4c39-8309-e7bcf08a8c1f","ios":"levelo://app?vid=d26ec55f-30de-4c39-8309-e7bcf08a8c1f"},"vehicle_type_id":"4","last_reported":1708121178,"current_range_meters":10800,"station_id":"ce4bgip2rcd13ifvqbb0","pricing_plan_id":"cebpf4jnsgd1na2vs0mg"},{"bike_id":"bae7849d-95f4-4893-b1cf-32bbb07a1911","system_id":"levelo_inurba_marseille","lat":43.304274,"lon":5.388873,"is_reserved":false,"is_disabled":false,"rental_uris":{"android":"levelo://app?vid=bae7849d-95f4-4893-b1cf-32bbb07a1911","ios":"levelo://app?vid=bae7849d-95f4-4893-b1cf-32bbb07a1911"},"vehicle_type_id":"4","last_reported":1708121178,"current_range_meters":10000,"station_id":"ce4bgk12rcd13ifvqbi0","pricing_plan_id":"cebpf4jnsgd1na2vs0mg"},{"bike_id":"b9fdc7a2-4df8-47e1-92f4-aa4061a9f18e","system_id":"levelo_inurba_marseille","lat":43.29619,"lon":5.3773,"is_reserved":false,"is_disabled":false,"rental_uris":{"android":"levelo://app?vid=b9fdc7a2-4df8-47e1-92f4-aa4061a9f18e","ios":"levelo://app?vid=b9fdc7a2-4df8-47e1-92f4-aa4061a9f18e"},"vehicle_type_id":"4","last_reported":1708121178,"current_range_meters":21600,"station_id":"ce4bgi92rcd13ifvqb90","pricing_plan_id":"cebpf4jnsgd1na2vs0mg"},{"bike_id":"a2c7d5f5-429e-4fd0-89e7-f9e4bface09b","system_id":"levelo_inurba_marseille","lat":43.296263,"lon":5.377094,"is_reserved":false,"is_disabled":false,"rental_uris":{"android":"levelo://app?vid=a2c7d5f5-429e-4fd0-89e7-f9e4bface09b","ios":"levelo://app?vid=a2c7d5f5-429e-4fd0-89e7-f9e4bface09b"},"vehicle_type_id":"4","last_reported":1708121178,"current_range_meters":31200,"station_id":"ce4bgi92rcd13ifvqb90","pricing_plan_id":"cebpf4jnsgd1na2vs0mg"},{"bike_id":"e093e4a7-5e65-4fb8-9b34-aac10740e448","system_id":"levelo_inurba_marseille","lat":43.299707,"lon":5.384859,"is_reserved":false,"is_disabled":false,"rental_uris":{"android":"levelo://app?vid=e093e4a7-5e65-4fb8-9b34-aac10740e448","ios":"levelo://app?vid=e093e4a7-5e65-4fb8-9b34-aac10740e448"},"vehicle_type_id":"4","last_reported":1708121178,"current_range_meters":2000,"station_id":"ce4bgj92rcd13ifvqbd0","pricing_plan_id":"cebpf4jnsgd1na2vs0mg"},{"bike_id":"e349d279-afd2-4489-91c4-3c05c0d8cdb4","system_id":"levelo_inurba_marseille","lat":43.299717,"lon":5.384845,"is_reserved":false,"is_disabled":false,"rental_uris":{"android":"levelo://app?vid=e349d279-afd2-4489-91c4-3c05c0d8cdb4","ios":"levelo://app?vid=e349d279-afd2-4489-91c4-3c05c0d8cdb4"},"vehicle_type_id":"4","last_reported":1708121178,"current_range_meters":22400,"station_id":"ce4bgj92rcd13ifvqbd0","pricing_plan_id":"cebpf4jnsgd1na2vs0mg"},{"bike_id":"a821f5c6-f918-4d8f-ae20-10b0f32c86fa","system_id":"levelo_inurba_marseille","lat":43.32364,"lon":5.38877,"is_reserved":false,"is_disabled":false,"rental_uris":{"android":"levelo://app?vid=a821f5c6-f918-4d8f-ae20-10b0f32c86fa","ios":"levelo://app?vid=a821f5c6-f918-4d8f-ae20-10b0f32c86fa"},"vehicle_type_id":"4","last_reported":1708121178,"current_range_meters":10000,"station_id":"ce4bhqp2rcd13ifvqhog","pricing_plan_id":"cebpf4jnsgd1na2vs0mg"},{"bike_id":"28f989fa-bfde-4b0a-85ae-f5f93bc020bb","system_id":"levelo_inurba_marseille","lat":43.32367,"lon":5.388836,"is_reserved":false,"is_disabled":false,"rental_uris":{"android":"levelo://app?vid=28f989fa-bfde-4b0a-85ae-f5f93bc020bb","ios":"levelo://app?vid=28f989fa-bfde-4b0a-85ae-f5f93bc020bb"},"vehicle_type_id":"4","last_reported":1708121178,"current_range_meters":17200,"station_id":"ce4bhqp2rcd13ifvqhog","pricing_plan_id":"cebpf4jnsgd1na2vs0mg"},{"bike_id":"7b8ae2a5-fea4-420f-9e1d-5f67a20c6887","system_id":"levelo_inurba_marseille","lat":43.32367,"lon":5.388836,"is_reserved":false,"is_disabled":false,"rental_uris":{"android":"levelo://app?vid=7b8ae2a5-fea4-420f-9e1d-5f67a20c6887","ios":"levelo://app?vid=7b8ae2a5-fea4-420f-9e1d-5f67a20c6887"},"vehicle_type_id":"4","last_reported":1708121178,"current_range_meters":15200,"station_id":"ce4bhqp2rcd13ifvqhog","pricing_plan_id":"cebpf4jnsgd1na2vs0mg"},{"bike_id":"67e8879b-193d-41fb-b133-c51309ca16e8","system_id":"levelo_inurba_marseille","lat":43.32367,"lon":5.388836,"is_reserved":false,"is_disabled":false,"rental_uris":{"android":"levelo://app?vid=67e8879b-193d-41fb-b133-c51309ca16e8","ios":"levelo://app?vid=67e8879b-193d-41fb-b133-c51309ca16e8"},"vehicle_type_id":"4","last_reported":1708121178,"current_range_meters":27200,"station_id":"ce4bhqp2rcd13ifvqhog","pricing_plan_id":"cebpf4jnsgd1na2vs0mg"},{"bike_id":"38b2af8c-4bf0-4e39-8b67-9db9ecd30f9d","system_id":"levelo_inurba_marseille","lat":43.32367,"lon":5.388836,"is_reserved":false,"is_disabled":false,"rental_uris":{"android":"levelo://app?vid=38b2af8c-4bf0-4e39-8b67-9db9ecd30f9d","ios":"levelo://app?vid=38b2af8c-4bf0-4e39-8b67-9db9ecd30f9d"},"vehicle_type_id":"4","last_reported":1708121178,"current_range_meters":13200,"station_id":"ce4bhqp2rcd13ifvqhog","pricing_plan_id":"cebpf4jnsgd1na2vs0mg"},{"bike_id":"9a785585-c85b-4fa3-85aa-80d29ca57d9f","system_id":"levelo_inurba_marseille","lat":43.32367,"lon":5.388836,"is_reserved":false,"is_disabled":false,"rental_uris":{"android":"levelo://app?vid=9a785585-c85b-4fa3-85aa-80d29ca57d9f","ios":"levelo://app?vid=9a785585-c85b-4fa3-85aa-80d29ca57d9f"},"vehicle_type_id":"4","last_reported":1708121178,"current_range_meters":29200,"station_id":"ce4bhqp2rcd13ifvqhog","pricing_plan_id":"cebpf4jnsgd1na2vs0mg"},{"bike_id":"2327eaa2-eb6d-4642-af18-22514541f9a8","system_id":"levelo_inurba_marseille","lat":43.32365,"lon":5.38883,"is_reserved":false,"is_disabled":false,"rental_uris":{"android":"levelo://app?vid=2327eaa2-eb6d-4642-af18-22514541f9a8","ios":"levelo://app?vid=2327eaa2-eb6d-4642-af18-22514541f9a8"},"vehicle_type_id":"4","last_reported":1708121178,"current_range_meters":20800,"station_id":"ce4bhqp2rcd13ifvqhog","pricing_plan_id":"cebpf4jnsgd1na2vs0mg"},{"bike_id":"a8a3ad88-3aa3-4deb-a961-f2c130a0207e","system_id":"levelo_inurba_marseille","lat":43.32365,"lon":5.38883,"is_reserved":false,"is_disabled":false,"rental_uris":{"android":"levelo://app?vid=a8a3ad88-3aa3-4deb-a961-f2c130a0207e","ios":"levelo://app?vid=a8a3ad88-3aa3-4deb-a961-f2c130a0207e"},"vehicle_type_id":"4","last_reported":1708121178,"current_range_meters":27200,"station_id":"ce4bhqp2rcd13ifvqhog","pricing_plan_id":"cebpf4jnsgd1na2vs0mg"},{"bike_id":"fceacd93-f4c6-434d-bb12-36d15d3b0640","system_id":"levelo_inurba_marseille","lat":43.32367,"lon":5.388836,"is_reserved":false,"is_disabled":false,"rental_uris":{"android":"levelo://app?vid=fceacd93-f4c6-434d-bb12-36d15d3b0640","ios":"levelo://app?vid=fceacd93-f4c6-434d-bb12-36d15d3b0640"},"vehicle_type_id":"4","last_reported":1708121178,"current_range_meters":29200,"station_id":"ce4bhqp2rcd13ifvqhog","pricing_plan_id":"cebpf4jnsgd1na2vs0mg"},{"bike_id":"11f16d73-52cf-4b59-8120-4e257d4d363b","system_id":"levelo_inurba_marseille","lat":43.32367,"lon":5.388836,"is_reserved":false,"is_disabled":false,"rental_uris":{"android":"levelo://app?vid=11f16d73-52cf-4b59-8120-4e257d4d363b","ios":"levelo://app?vid=11f16d73-52cf-4b59-8120-4e257d4d363b"},"vehicle_type_id":"4","last_reported":1708121178,"current_range_meters":12400,"station_id":"ce4bhqp2rcd13ifvqhog","pricing_plan_id":"cebpf4jnsgd1na2vs0mg"},{"bike_id":"f9386ca3-cf78-41ba-b174-602a0647c8e4","system_id":"levelo_inurba_marseille","lat":43.32367,"lon":5.38882,"is_reserved":false,"is_disabled":false,"rental_uris":{"android":"levelo://app?vid=f9386ca3-cf78-41ba-b174-602a0647c8e4","ios":"levelo://app?vid=f9386ca3-cf78-41ba-b174-602a0647c8e4"},"vehicle_type_id":"4","last_reported":1708121178,"current_range_meters":16000,"station_id":"ce4bhqp2rcd13ifvqhog","pricing_plan_id":"cebpf4jnsgd1na2vs0mg"},{"bike_id":"47eafb4f-c4f4-4c49-adff-f0631aa24f49","system_id":"levelo_inurba_marseille","lat":43.32367,"lon":5.388836,"is_reserved":false,"is_disabled":false,"rental_uris":{"android":"levelo://app?vid=47eafb4f-c4f4-4c49-adff-f0631aa24f49","ios":"levelo://app?vid=47eafb4f-c4f4-4c49-adff-f0631aa24f49"},"vehicle_type_id":"4","last_reported":1708121178,"current_range_meters":21600,"station_id":"ce4bhqp2rcd13ifvqhog","pricing_plan_id":"cebpf4jnsgd1na2vs0mg"},{"bike_id":"6af73b7c-3333-47f9-9c52-fb4e2c063bc2","system_id":"levelo_inurba_marseille","lat":43.32367,"lon":5.388836,"is_reserved":false,"is_disabled":false,"rental_uris":{"android":"levelo://app?vid=6af73b7c-3333-47f9-9c52-fb4e2c063bc2","ios":"levelo://app?vid=6af73b7c-3333-47f9-9c52-fb4e2c063bc2"},"vehicle_type_id":"4","last_reported":1708121178,"current_range_meters":15200,"station_id":"ce4bhqp2rcd13ifvqhog","pricing_plan_id":"cebpf4jnsgd1na2vs0mg"},{"bike_id":"39218043-babe-4383-8f3e-ac96355ba56e","system_id":"levelo_inurba_marseille","lat":43.32367,"lon":5.388836,"is_reserved":false,"is_disabled":false,"rental_uris":{"android":"levelo://app?vid=39218043-babe-4383-8f3e-ac96355ba56e","ios":"levelo://app?vid=39218043-babe-4383-8f3e-ac96355ba56e"},"vehicle_type_id":"4","last_reported":1708121178,"current_range_meters":8000,"station_id":"ce4bhqp2rcd13ifvqhog","pricing_plan_id":"cebpf4jnsgd1na2vs0mg"},{"bike_id":"e979be13-7d82-45e3-be83-82cd14dc0218","system_id":"levelo_inurba_marseille","lat":43.32367,"lon":5.388836,"is_reserved":false,"is_disabled":false,"rental_uris":{"android":"levelo://app?vid=e979be13-7d82-45e3-be83-82cd14dc0218","ios":"levelo://app?vid=e979be13-7d82-45e3-be83-82cd14dc0218"},"vehicle_type_id":"4","last_reported":1708121178,"current_range_meters":21600,"station_id":"ce4bhqp2rcd13ifvqhog","pricing_plan_id":"cebpf4jnsgd1na2vs0mg"},{"bike_id":"abd11e8b-3dfc-46d1-8e24-ad98cd4efeec","system_id":"levelo_inurba_marseille","lat":43.29602,"lon":5.381084,"is_reserved":false,"is_disabled":false,"rental_uris":{"android":"levelo://app?vid=abd11e8b-3dfc-46d1-8e24-ad98cd4efeec","ios":"levelo://app?vid=abd11e8b-3dfc-46d1-8e24-ad98cd4efeec"},"vehicle_type_id":"4","last_reported":1708121178,"current_range_meters":30800,"station_id":"ce4bgl12rcd13ifvqbo0","pricing_plan_id":"cebpf4jnsgd1na2vs0mg"},{"bike_id":"f799753a-0675-4478-bf0d-baa1240bcfa1","system_id":"levelo_inurba_marseille","lat":43.293249,"lon":5.371578,"is_reserved":false,"is_disabled":false,"rental_uris":{"android":"levelo://app?vid=f799753a-0675-4478-bf0d-baa1240bcfa1","ios":"levelo://app?vid=f799753a-0675-4478-bf0d-baa1240bcfa1"},"vehicle_type_id":"4","last_reported":1708121178,"current_range_meters":14400,"station_id":"ce4bgh92rcd13ifvqb40","pricing_plan_id":"cebpf4jnsgd1na2vs0mg"},{"bike_id":"7a35b4a3-8dfc-4c08-b2bb-e6bd5ed3f8b7","system_id":"levelo_inurba_marseille","lat":43.293125,"lon":5.3717,"is_reserved":false,"is_disabled":false,"rental_uris":{"android":"levelo://app?vid=7a35b4a3-8dfc-4c08-b2bb-e6bd5ed3f8b7","ios":"levelo://app?vid=7a35b4a3-8dfc-4c08-b2bb-e6bd5ed3f8b7"},"vehicle_type_id":"4","last_reported":1708121178,"current_range_meters":14000,"station_id":"ce4bgh92rcd13ifvqb40","pricing_plan_id":"cebpf4jnsgd1na2vs0mg"},{"bike_id":"e409b0c0-9e03-48d6-a8f9-dfeafa3fc1db","system_id":"levelo_inurba_marseille","lat":43.2931,"lon":5.37173,"is_reserved":false,"is_disabled":false,"rental_uris":{"android":"levelo://app?vid=e409b0c0-9e03-48d6-a8f9-dfeafa3fc1db","ios":"levelo://app?vid=e409b0c0-9e03-48d6-a8f9-dfeafa3fc1db"},"vehicle_type_id":"4","last_reported":1708121178,"current_range_meters":24400,"station_id":"ce4bgh92rcd13ifvqb40","pricing_plan_id":"cebpf4jnsgd1na2vs0mg"},{"bike_id":"dcef5fd7-fbce-4369-a80f-f96ff5b97340","system_id":"levelo_inurba_marseille","lat":43.29305,"lon":5.37158,"is_reserved":false,"is_disabled":false,"rental_uris":{"android":"levelo://app?vid=dcef5fd7-fbce-4369-a80f-f96ff5b97340","ios":"levelo://app?vid=dcef5fd7-fbce-4369-a80f-f96ff5b97340"},"vehicle_type_id":"4","last_reported":1708121178,"current_range_meters":18800,"station_id":"ce4bgh92rcd13ifvqb40","pricing_plan_id":"cebpf4jnsgd1na2vs0mg"},{"bike_id":"923703f7-a4d7-4270-a943-443a1e643e88","system_id":"levelo_inurba_marseille","lat":43.293259,"lon":5.371586,"is_reserved":false,"is_disabled":false,"rental_uris":{"android":"levelo://app?vid=923703f7-a4d7-4270-a943-443a1e643e88","ios":"levelo://app?vid=923703f7-a4d7-4270-a943-443a1e643e88"},"vehicle_type_id":"4","last_reported":1708121178,"current_range_meters":11600,"station_id":"ce4bgh92rcd13ifvqb40","pricing_plan_id":"cebpf4jnsgd1na2vs0mg"},{"bike_id":"e6068e8c-eb50-44ff-874f-c10aa17e6d95","system_id":"levelo_inurba_marseille","lat":43.29305,"lon":5.3718,"is_reserved":false,"is_disabled":false,"rental_uris":{"android":"levelo://app?vid=e6068e8c-eb50-44ff-874f-c10aa17e6d95","ios":"levelo://app?vid=e6068e8c-eb50-44ff-874f-c10aa17e6d95"},"vehicle_type_id":"4","last_reported":1708121178,"current_range_meters":0,"station_id":"ce4bgh92rcd13ifvqb40","pricing_plan_id":"cebpf4jnsgd1na2vs0mg"},{"bike_id":"8d4550b3-0fb0-4fe9-8dfa-4f4417d2b2eb","system_id":"levelo_inurba_marseille","lat":43.293,"lon":5.37153,"is_reserved":false,"is_disabled":false,"rental_uris":{"android":"levelo://app?vid=8d4550b3-0fb0-4fe9-8dfa-4f4417d2b2eb","ios":"levelo://app?vid=8d4550b3-0fb0-4fe9-8dfa-4f4417d2b2eb"},"vehicle_type_id":"4","last_reported":1708121178,"current_range_meters":5200,"station_id":"ce4bgh92rcd13ifvqb40","pricing_plan_id":"cebpf4jnsgd1na2vs0mg"},{"bike_id":"463289a2-61ff-430e-8a43-55888c8b953e","system_id":"levelo_inurba_marseille","lat":43.293259,"lon":5.371586,"is_reserved":false,"is_disabled":false,"rental_uris":{"android":"levelo://app?vid=463289a2-61ff-430e-8a43-55888c8b953e","ios":"levelo://app?vid=463289a2-61ff-430e-8a43-55888c8b953e"},"vehicle_type_id":"4","last_reported":1708121178,"current_range_meters":0,"station_id":"ce4bgh92rcd13ifvqb40","pricing_plan_id":"cebpf4jnsgd1na2vs0mg"},{"bike_id":"ba2b908a-ae2b-4e33-85bc-030cf69a0b43","system_id":"levelo_inurba_marseille","lat":43.29271,"lon":5.36849,"is_reserved":false,"is_disabled":false,"rental_uris":{"android":"levelo://app?vid=ba2b908a-ae2b-4e33-85bc-030cf69a0b43","ios":"levelo://app?vid=ba2b908a-ae2b-4e33-85bc-030cf69a0b43"},"vehicle_type_id":"4","last_reported":1708121178,"current_range_meters":6000,"station_id":"ce4bhbp2rcd13ifvqesg","pricing_plan_id":"cebpf4jnsgd1na2vs0mg"},{"bike_id":"74d16232-3d6e-4167-bfa2-0dd353a1f127","system_id":"levelo_inurba_marseille","lat":43.29266,"lon":5.36839,"is_reserved":false,"is_disabled":false,"rental_uris":{"android":"levelo://app?vid=74d16232-3d6e-4167-bfa2-0dd353a1f127","ios":"levelo://app?vid=74d16232-3d6e-4167-bfa2-0dd353a1f127"},"vehicle_type_id":"4","last_reported":1708121178,"current_range_meters":1600,"station_id":"ce4bhbp2rcd13ifvqesg","pricing_plan_id":"cebpf4jnsgd1na2vs0mg"},{"bike_id":"ee09f811-eecd-46bf-9f8c-802ab5838af6","system_id":"levelo_inurba_marseille","lat":43.293009,"lon":5.374584,"is_reserved":false,"is_disabled":false,"rental_uris":{"android":"levelo://app?vid=ee09f811-eecd-46bf-9f8c-802ab5838af6","ios":"levelo://app?vid=ee09f811-eecd-46bf-9f8c-802ab5838af6"},"vehicle_type_id":"4","last_reported":1708121178,"current_range_meters":16800,"station_id":"ce4bgi12rcd13ifvqb70","pricing_plan_id":"cebpf4jnsgd1na2vs0mg"},{"bike_id":"c29814f6-e938-4aca-b475-06dbf04440f1","system_id":"levelo_inurba_marseille","lat":43.305994,"lon":5.393687,"is_reserved":false,"is_disabled":false,"rental_uris":{"android":"levelo://app?vid=c29814f6-e938-4aca-b475-06dbf04440f1","ios":"levelo://app?vid=c29814f6-e938-4aca-b475-06dbf04440f1"},"vehicle_type_id":"4","last_reported":1708121178,"current_range_meters":25200,"station_id":"ce4bh0p2rcd13ifvqd80","pricing_plan_id":"cebpf4jnsgd1na2vs0mg"},{"bike_id":"fa61bcfe-6d62-4035-ac4f-e420b95f3240","system_id":"levelo_inurba_marseille","lat":43.29307,"lon":5.37463,"is_reserved":false,"is_disabled":false,"rental_uris":{"android":"levelo://app?vid=fa61bcfe-6d62-4035-ac4f-e420b95f3240","ios":"levelo://app?vid=fa61bcfe-6d62-4035-ac4f-e420b95f3240"},"vehicle_type_id":"4","last_reported":1708121178,"current_range_meters":0,"station_id":"ce4bgi12rcd13ifvqb70","pricing_plan_id":"cebpf4jnsgd1na2vs0mg"},{"bike_id":"50874a50-6dc8-4a42-9746-c5c98f50b261","system_id":"levelo_inurba_marseille","lat":43.29304,"lon":5.37449,"is_reserved":false,"is_disabled":false,"rental_uris":{"android":"levelo://app?vid=50874a50-6dc8-4a42-9746-c5c98f50b261","ios":"levelo://app?vid=50874a50-6dc8-4a42-9746-c5c98f50b261"},"vehicle_type_id":"4","last_reported":1708121178,"current_range_meters":0,"station_id":"ce4bgi12rcd13ifvqb70","pricing_plan_id":"cebpf4jnsgd1na2vs0mg"},{"bike_id":"079f1a21-b2dd-42d7-b081-cbe7cce00ecb","system_id":"levelo_inurba_marseille","lat":43.293009,"lon":5.374584,"is_reserved":false,"is_disabled":false,"rental_uris":{"android":"levelo://app?vid=079f1a21-b2dd-42d7-b081-cbe7cce00ecb","ios":"levelo://app?vid=079f1a21-b2dd-42d7-b081-cbe7cce00ecb"},"vehicle_type_id":"4","last_reported":1708121178,"current_range_meters":9600,"station_id":"ce4bgi12rcd13ifvqb70","pricing_plan_id":"cebpf4jnsgd1na2vs0mg"},{"bike_id":"540d72db-bfb1-4513-b2c8-82b4c3dd5b39","system_id":"levelo_inurba_marseille","lat":43.293009,"lon":5.374584,"is_reserved":false,"is_disabled":false,"rental_uris":{"android":"levelo://app?vid=540d72db-bfb1-4513-b2c8-82b4c3dd5b39","ios":"levelo://app?vid=540d72db-bfb1-4513-b2c8-82b4c3dd5b39"},"vehicle_type_id":"4","last_reported":1708121178,"current_range_meters":0,"station_id":"ce4bgi12rcd13ifvqb70","pricing_plan_id":"cebpf4jnsgd1na2vs0mg"},{"bike_id":"16ada5b5-dd16-41b4-90f6-5117b888ce25","system_id":"levelo_inurba_marseille","lat":43.293009,"lon":5.374584,"is_reserved":false,"is_disabled":false,"rental_uris":{"android":"levelo://app?vid=16ada5b5-dd16-41b4-90f6-5117b888ce25","ios":"levelo://app?vid=16ada5b5-dd16-41b4-90f6-5117b888ce25"},"vehicle_type_id":"4","last_reported":1708121178,"current_range_meters":0,"station_id":"ce4bgi12rcd13ifvqb70","pricing_plan_id":"cebpf4jnsgd1na2vs0mg"},{"bike_id":"a32066ea-b80e-472a-afe0-b02749e23514","system_id":"levelo_inurba_marseille","lat":43.302992,"lon":5.392136,"is_reserved":false,"is_disabled":false,"rental_uris":{"android":"levelo://app?vid=a32066ea-b80e-472a-afe0-b02749e23514","ios":"levelo://app?vid=a32066ea-b80e-472a-afe0-b02749e23514"},"vehicle_type_id":"4","last_reported":1708121178,"current_range_meters":10000,"station_id":"ce4bgkh2rcd13ifvqbk0","pricing_plan_id":"cebpf4jnsgd1na2vs0mg"},{"bike_id":"7d258a4d-ee0c-45ee-bb04-3006c77c4488","system_id":"levelo_inurba_marseille","lat":43.2936,"lon":5.37835,"is_reserved":false,"is_disabled":false,"rental_uris":{"android":"levelo://app?vid=7d258a4d-ee0c-45ee-bb04-3006c77c4488","ios":"levelo://app?vid=7d258a4d-ee0c-45ee-bb04-3006c77c4488"},"vehicle_type_id":"4","last_reported":1708121178,"current_range_meters":26800,"station_id":"ce4bgjh2rcd13ifvqbf0","pricing_plan_id":"cebpf4jnsgd1na2vs0mg"},{"bike_id":"26839b27-e7eb-4e77-aca9-bc5684324679","system_id":"levelo_inurba_marseille","lat":43.303002,"lon":5.392142,"is_reserved":false,"is_disabled":false,"rental_uris":{"android":"levelo://app?vid=26839b27-e7eb-4e77-aca9-bc5684324679","ios":"levelo://app?vid=26839b27-e7eb-4e77-aca9-bc5684324679"},"vehicle_type_id":"4","last_reported":1708121178,"current_range_meters":10800,"station_id":"ce4bgkh2rcd13ifvqbk0","pricing_plan_id":"cebpf4jnsgd1na2vs0mg"},{"bike_id":"7d92e188-712d-4710-89bb-b55af24a2cd0","system_id":"levelo_inurba_marseille","lat":43.302992,"lon":5.392136,"is_reserved":false,"is_disabled":false,"rental_uris":{"android":"levelo://app?vid=7d92e188-712d-4710-89bb-b55af24a2cd0","ios":"levelo://app?vid=7d92e188-712d-4710-89bb-b55af24a2cd0"},"vehicle_type_id":"4","last_reported":1708121178,"current_range_meters":7200,"station_id":"ce4bgkh2rcd13ifvqbk0","pricing_plan_id":"cebpf4jnsgd1na2vs0mg"},{"bike_id":"8817e565-13ce-47f3-ad6b-d1fd9bf29d7a","system_id":"levelo_inurba_marseille","lat":43.293726,"lon":5.378579,"is_reserved":false,"is_disabled":false,"rental_uris":{"android":"levelo://app?vid=8817e565-13ce-47f3-ad6b-d1fd9bf29d7a","ios":"levelo://app?vid=8817e565-13ce-47f3-ad6b-d1fd9bf29d7a"},"vehicle_type_id":"4","last_reported":1708121178,"current_range_meters":0,"station_id":"ce4bgjh2rcd13ifvqbf0","pricing_plan_id":"cebpf4jnsgd1na2vs0mg"},{"bike_id":"855e8dc8-f288-4792-8057-b89c36703e8c","system_id":"levelo_inurba_marseille","lat":43.293683,"lon":5.3786,"is_reserved":false,"is_disabled":false,"rental_uris":{"android":"levelo://app?vid=855e8dc8-f288-4792-8057-b89c36703e8c","ios":"levelo://app?vid=855e8dc8-f288-4792-8057-b89c36703e8c"},"vehicle_type_id":"4","last_reported":1708121178,"current_range_meters":0,"station_id":"ce4bgjh2rcd13ifvqbf0","pricing_plan_id":"cebpf4jnsgd1na2vs0mg"},{"bike_id":"a78eaabd-d0bf-49c8-8218-476d211c469a","system_id":"levelo_inurba_marseille","lat":43.2936,"lon":5.37835,"is_reserved":false,"is_disabled":false,"rental_uris":{"android":"levelo://app?vid=a78eaabd-d0bf-49c8-8218-476d211c469a","ios":"levelo://app?vid=a78eaabd-d0bf-49c8-8218-476d211c469a"},"vehicle_type_id":"4","last_reported":1708121178,"current_range_meters":14000,"station_id":"ce4bgjh2rcd13ifvqbf0","pricing_plan_id":"cebpf4jnsgd1na2vs0mg"},{"bike_id":"24d0b294-36bc-4472-9d75-66c7e9da4f4a","system_id":"levelo_inurba_marseille","lat":43.292311,"lon":5.360731,"is_reserved":false,"is_disabled":false,"rental_uris":{"android":"levelo://app?vid=24d0b294-36bc-4472-9d75-66c7e9da4f4a","ios":"levelo://app?vid=24d0b294-36bc-4472-9d75-66c7e9da4f4a"},"vehicle_type_id":"4","last_reported":1708121178,"current_range_meters":30400,"station_id":"ce4bhbh2rcd13ifvqeqg","pricing_plan_id":"cebpf4jnsgd1na2vs0mg"},{"bike_id":"5891ac4e-1b61-4f05-bccb-975361ac5ee4","system_id":"levelo_inurba_marseille","lat":43.292721,"lon":5.376204,"is_reserved":false,"is_disabled":false,"rental_uris":{"android":"levelo://app?vid=5891ac4e-1b61-4f05-bccb-975361ac5ee4","ios":"levelo://app?vid=5891ac4e-1b61-4f05-bccb-975361ac5ee4"},"vehicle_type_id":"4","last_reported":1708121178,"current_range_meters":5600,"station_id":"","pricing_plan_id":"cebpf4jnsgd1na2vs0mg"},{"bike_id":"926c8289-3979-448e-9d21-edb8f4b90881","system_id":"levelo_inurba_marseille","lat":43.298764,"lon":5.388973,"is_reserved":false,"is_disabled":false,"rental_uris":{"android":"levelo://app?vid=926c8289-3979-448e-9d21-edb8f4b90881","ios":"levelo://app?vid=926c8289-3979-448e-9d21-edb8f4b90881"},"vehicle_type_id":"4","last_reported":1708121178,"current_range_meters":11200,"station_id":"ce4bh392rcd13ifvqdl0","pricing_plan_id":"cebpf4jnsgd1na2vs0mg"},{"bike_id":"d8a52e38-8d7e-40de-90f8-16a6dc927232","system_id":"levelo_inurba_marseille","lat":43.298764,"lon":5.388973,"is_reserved":false,"is_disabled":false,"rental_uris":{"android":"levelo://app?vid=d8a52e38-8d7e-40de-90f8-16a6dc927232","ios":"levelo://app?vid=d8a52e38-8d7e-40de-90f8-16a6dc927232"},"vehicle_type_id":"4","last_reported":1708121178,"current_range_meters":26800,"station_id":"ce4bh392rcd13ifvqdl0","pricing_plan_id":"cebpf4jnsgd1na2vs0mg"},{"bike_id":"5d55286e-8e93-40dc-a7a2-3fbeabf740d9","system_id":"levelo_inurba_marseille","lat":43.298764,"lon":5.388973,"is_reserved":false,"is_disabled":false,"rental_uris":{"android":"levelo://app?vid=5d55286e-8e93-40dc-a7a2-3fbeabf740d9","ios":"levelo://app?vid=5d55286e-8e93-40dc-a7a2-3fbeabf740d9"},"vehicle_type_id":"4","last_reported":1708121178,"current_range_meters":24800,"station_id":"ce4bh392rcd13ifvqdl0","pricing_plan_id":"cebpf4jnsgd1na2vs0mg"},{"bike_id":"04a28dd4-ee3f-43ea-b07c-cd2fb4e61d12","system_id":"levelo_inurba_marseille","lat":43.298764,"lon":5.388973,"is_reserved":false,"is_disabled":false,"rental_uris":{"android":"levelo://app?vid=04a28dd4-ee3f-43ea-b07c-cd2fb4e61d12","ios":"levelo://app?vid=04a28dd4-ee3f-43ea-b07c-cd2fb4e61d12"},"vehicle_type_id":"4","last_reported":1708121178,"current_range_meters":4800,"station_id":"ce4bh392rcd13ifvqdl0","pricing_plan_id":"cebpf4jnsgd1na2vs0mg"},{"bike_id":"2c6df833-56f1-49bb-bcc6-7df5cdb6858c","system_id":"levelo_inurba_marseille","lat":43.298764,"lon":5.388973,"is_reserved":false,"is_disabled":false,"rental_uris":{"android":"levelo://app?vid=2c6df833-56f1-49bb-bcc6-7df5cdb6858c","ios":"levelo://app?vid=2c6df833-56f1-49bb-bcc6-7df5cdb6858c"},"vehicle_type_id":"4","last_reported":1708121178,"current_range_meters":3600,"station_id":"ce4bh392rcd13ifvqdl0","pricing_plan_id":"cebpf4jnsgd1na2vs0mg"},{"bike_id":"b28cafae-2299-43c9-8822-a996762c9a6b","system_id":"levelo_inurba_marseille","lat":43.291994,"lon":5.357886,"is_reserved":false,"is_disabled":false,"rental_uris":{"android":"levelo://app?vid=b28cafae-2299-43c9-8822-a996762c9a6b","ios":"levelo://app?vid=b28cafae-2299-43c9-8822-a996762c9a6b"},"vehicle_type_id":"4","last_reported":1708121178,"current_range_meters":20400,"station_id":"ce4bhb12rcd13ifvqel0","pricing_plan_id":"cebpf4jnsgd1na2vs0mg"},{"bike_id":"6db9e8c1-eba4-4827-8b83-7bea91adb05d","system_id":"levelo_inurba_marseille","lat":43.31329,"lon":5.3969,"is_reserved":false,"is_disabled":false,"rental_uris":{"android":"levelo://app?vid=6db9e8c1-eba4-4827-8b83-7bea91adb05d","ios":"levelo://app?vid=6db9e8c1-eba4-4827-8b83-7bea91adb05d"},"vehicle_type_id":"4","last_reported":1708121178,"current_range_meters":15600,"station_id":"ce4bgvp2rcd13ifvqcu0","pricing_plan_id":"cebpf4jnsgd1na2vs0mg"},{"bike_id":"65957180-fc1c-487a-8de2-5d55b67a182a","system_id":"levelo_inurba_marseille","lat":43.31331,"lon":5.39691,"is_reserved":false,"is_disabled":false,"rental_uris":{"android":"levelo://app?vid=65957180-fc1c-487a-8de2-5d55b67a182a","ios":"levelo://app?vid=65957180-fc1c-487a-8de2-5d55b67a182a"},"vehicle_type_id":"4","last_reported":1708121178,"current_range_meters":8000,"station_id":"ce4bgvp2rcd13ifvqcu0","pricing_plan_id":"cebpf4jnsgd1na2vs0mg"},{"bike_id":"7278dac8-7bba-48ba-a0cd-9a7c6cd99a07","system_id":"levelo_inurba_marseille","lat":43.313291,"lon":5.396838,"is_reserved":false,"is_disabled":false,"rental_uris":{"android":"levelo://app?vid=7278dac8-7bba-48ba-a0cd-9a7c6cd99a07","ios":"levelo://app?vid=7278dac8-7bba-48ba-a0cd-9a7c6cd99a07"},"vehicle_type_id":"4","last_reported":1708121178,"current_range_meters":27200,"station_id":"ce4bgvp2rcd13ifvqcu0","pricing_plan_id":"cebpf4jnsgd1na2vs0mg"},{"bike_id":"d9791f3d-61ce-4b0b-b77b-d55e7ab6a353","system_id":"levelo_inurba_marseille","lat":43.309047,"lon":5.396551,"is_reserved":false,"is_disabled":false,"rental_uris":{"android":"levelo://app?vid=d9791f3d-61ce-4b0b-b77b-d55e7ab6a353","ios":"levelo://app?vid=d9791f3d-61ce-4b0b-b77b-d55e7ab6a353"},"vehicle_type_id":"4","last_reported":1708121178,"current_range_meters":2800,"station_id":"ce4bh012rcd13ifvqcv0","pricing_plan_id":"cebpf4jnsgd1na2vs0mg"},{"bike_id":"c50c5f2c-6aed-489e-88ef-b1d2302a7c93","system_id":"levelo_inurba_marseille","lat":43.31327,"lon":5.39694,"is_reserved":false,"is_disabled":false,"rental_uris":{"android":"levelo://app?vid=c50c5f2c-6aed-489e-88ef-b1d2302a7c93","ios":"levelo://app?vid=c50c5f2c-6aed-489e-88ef-b1d2302a7c93"},"vehicle_type_id":"4","last_reported":1708121178,"current_range_meters":12000,"station_id":"ce4bgvp2rcd13ifvqcu0","pricing_plan_id":"cebpf4jnsgd1na2vs0mg"},{"bike_id":"9b1a9ed7-8d47-4f4e-9609-e389aa17fb75","system_id":"levelo_inurba_marseille","lat":43.309038,"lon":5.396546,"is_reserved":false,"is_disabled":false,"rental_uris":{"android":"levelo://app?vid=9b1a9ed7-8d47-4f4e-9609-e389aa17fb75","ios":"levelo://app?vid=9b1a9ed7-8d47-4f4e-9609-e389aa17fb75"},"vehicle_type_id":"4","last_reported":1708121178,"current_range_meters":1200,"station_id":"ce4bh012rcd13ifvqcv0","pricing_plan_id":"cebpf4jnsgd1na2vs0mg"},{"bike_id":"acac2617-4bf9-4f31-bc74-e2aab28e2bac","system_id":"levelo_inurba_marseille","lat":43.309038,"lon":5.396546,"is_reserved":false,"is_disabled":false,"rental_uris":{"android":"levelo://app?vid=acac2617-4bf9-4f31-bc74-e2aab28e2bac","ios":"levelo://app?vid=acac2617-4bf9-4f31-bc74-e2aab28e2bac"},"vehicle_type_id":"4","last_reported":1708121178,"current_range_meters":25200,"station_id":"ce4bh012rcd13ifvqcv0","pricing_plan_id":"cebpf4jnsgd1na2vs0mg"},{"bike_id":"811f51c7-1eda-4527-8e96-ab88441de0ac","system_id":"levelo_inurba_marseille","lat":43.309047,"lon":5.396551,"is_reserved":false,"is_disabled":false,"rental_uris":{"android":"levelo://app?vid=811f51c7-1eda-4527-8e96-ab88441de0ac","ios":"levelo://app?vid=811f51c7-1eda-4527-8e96-ab88441de0ac"},"vehicle_type_id":"4","last_reported":1708121178,"current_range_meters":23600,"station_id":"ce4bh012rcd13ifvqcv0","pricing_plan_id":"cebpf4jnsgd1na2vs0mg"},{"bike_id":"81ec9d99-dc19-45ac-a349-2eba831183ec","system_id":"levelo_inurba_marseille","lat":43.309047,"lon":5.396551,"is_reserved":false,"is_disabled":false,"rental_uris":{"android":"levelo://app?vid=81ec9d99-dc19-45ac-a349-2eba831183ec","ios":"levelo://app?vid=81ec9d99-dc19-45ac-a349-2eba831183ec"},"vehicle_type_id":"4","last_reported":1708121178,"current_range_meters":10000,"station_id":"ce4bh012rcd13ifvqcv0","pricing_plan_id":"cebpf4jnsgd1na2vs0mg"},{"bike_id":"aed46dd0-7490-4249-8078-034e0943f732","system_id":"levelo_inurba_marseille","lat":43.295377,"lon":5.385328,"is_reserved":false,"is_disabled":false,"rental_uris":{"android":"levelo://app?vid=aed46dd0-7490-4249-8078-034e0943f732","ios":"levelo://app?vid=aed46dd0-7490-4249-8078-034e0943f732"},"vehicle_type_id":"4","last_reported":1708121178,"current_range_meters":14400,"station_id":"ce4bgih2rcd13ifvqba0","pricing_plan_id":"cebpf4jnsgd1na2vs0mg"},{"bike_id":"238143ec-b6e1-4f7b-b710-e687e7918a26","system_id":"levelo_inurba_marseille","lat":43.29534,"lon":5.3853,"is_reserved":false,"is_disabled":false,"rental_uris":{"android":"levelo://app?vid=238143ec-b6e1-4f7b-b710-e687e7918a26","ios":"levelo://app?vid=238143ec-b6e1-4f7b-b710-e687e7918a26"},"vehicle_type_id":"4","last_reported":1708121178,"current_range_meters":2400,"station_id":"ce4bgih2rcd13ifvqba0","pricing_plan_id":"cebpf4jnsgd1na2vs0mg"},{"bike_id":"6e25eeb4-b2e8-4230-b8a1-9b9cb0d6f9e8","system_id":"levelo_inurba_marseille","lat":43.29529,"lon":5.385581,"is_reserved":false,"is_disabled":false,"rental_uris":{"android":"levelo://app?vid=6e25eeb4-b2e8-4230-b8a1-9b9cb0d6f9e8","ios":"levelo://app?vid=6e25eeb4-b2e8-4230-b8a1-9b9cb0d6f9e8"},"vehicle_type_id":"4","last_reported":1708121178,"current_range_meters":400,"station_id":"ce4bgih2rcd13ifvqba0","pricing_plan_id":"cebpf4jnsgd1na2vs0mg"},{"bike_id":"46be199f-e49f-4512-90eb-6bec4cd1fa58","system_id":"levelo_inurba_marseille","lat":43.29529,"lon":5.385581,"is_reserved":false,"is_disabled":false,"rental_uris":{"android":"levelo://app?vid=46be199f-e49f-4512-90eb-6bec4cd1fa58","ios":"levelo://app?vid=46be199f-e49f-4512-90eb-6bec4cd1fa58"},"vehicle_type_id":"4","last_reported":1708121178,"current_range_meters":26000,"station_id":"ce4bgih2rcd13ifvqba0","pricing_plan_id":"cebpf4jnsgd1na2vs0mg"},{"bike_id":"b0cca690-e5c6-4c45-8e64-f407255f6098","system_id":"levelo_inurba_marseille","lat":43.29537,"lon":5.38537,"is_reserved":false,"is_disabled":false,"rental_uris":{"android":"levelo://app?vid=b0cca690-e5c6-4c45-8e64-f407255f6098","ios":"levelo://app?vid=b0cca690-e5c6-4c45-8e64-f407255f6098"},"vehicle_type_id":"4","last_reported":1708121178,"current_range_meters":19200,"station_id":"ce4bgih2rcd13ifvqba0","pricing_plan_id":"cebpf4jnsgd1na2vs0mg"},{"bike_id":"8f632f4b-83d6-470c-af67-ee457fd47db2","system_id":"levelo_inurba_marseille","lat":43.29538,"lon":5.38539,"is_reserved":false,"is_disabled":false,"rental_uris":{"android":"levelo://app?vid=8f632f4b-83d6-470c-af67-ee457fd47db2","ios":"levelo://app?vid=8f632f4b-83d6-470c-af67-ee457fd47db2"},"vehicle_type_id":"4","last_reported":1708121178,"current_range_meters":5200,"station_id":"ce4bgih2rcd13ifvqba0","pricing_plan_id":"cebpf4jnsgd1na2vs0mg"},{"bike_id":"f0538bdc-c691-4a08-84bc-f93c63168e45","system_id":"levelo_inurba_marseille","lat":43.2954,"lon":5.38544,"is_reserved":false,"is_disabled":false,"rental_uris":{"android":"levelo://app?vid=f0538bdc-c691-4a08-84bc-f93c63168e45","ios":"levelo://app?vid=f0538bdc-c691-4a08-84bc-f93c63168e45"},"vehicle_type_id":"4","last_reported":1708121178,"current_range_meters":26800,"station_id":"ce4bgih2rcd13ifvqba0","pricing_plan_id":"cebpf4jnsgd1na2vs0mg"},{"bike_id":"28aeaf77-b539-4061-b69b-e80d38671d21","system_id":"levelo_inurba_marseille","lat":43.31319,"lon":5.3971,"is_reserved":false,"is_disabled":false,"rental_uris":{"android":"levelo://app?vid=28aeaf77-b539-4061-b69b-e80d38671d21","ios":"levelo://app?vid=28aeaf77-b539-4061-b69b-e80d38671d21"},"vehicle_type_id":"4","last_reported":1708121178,"current_range_meters":24800,"station_id":"ce4bgvp2rcd13ifvqcu0","pricing_plan_id":"cebpf4jnsgd1na2vs0mg"},{"bike_id":"2ab949ef-a934-4989-b5df-056c303f3a62","system_id":"levelo_inurba_marseille","lat":43.2954,"lon":5.38545,"is_reserved":false,"is_disabled":false,"rental_uris":{"android":"levelo://app?vid=2ab949ef-a934-4989-b5df-056c303f3a62","ios":"levelo://app?vid=2ab949ef-a934-4989-b5df-056c303f3a62"},"vehicle_type_id":"4","last_reported":1708121178,"current_range_meters":27600,"station_id":"ce4bgih2rcd13ifvqba0","pricing_plan_id":"cebpf4jnsgd1na2vs0mg"},{"bike_id":"accfe0a2-9501-4366-82b7-da9241ef5f0a","system_id":"levelo_inurba_marseille","lat":43.29529,"lon":5.385581,"is_reserved":false,"is_disabled":false,"rental_uris":{"android":"levelo://app?vid=accfe0a2-9501-4366-82b7-da9241ef5f0a","ios":"levelo://app?vid=accfe0a2-9501-4366-82b7-da9241ef5f0a"},"vehicle_type_id":"4","last_reported":1708121178,"current_range_meters":14400,"station_id":"ce4bgih2rcd13ifvqba0","pricing_plan_id":"cebpf4jnsgd1na2vs0mg"},{"bike_id":"1dd08881-49ee-48d4-92cc-bc805af06e69","system_id":"levelo_inurba_marseille","lat":43.295395,"lon":5.385448,"is_reserved":false,"is_disabled":false,"rental_uris":{"android":"levelo://app?vid=1dd08881-49ee-48d4-92cc-bc805af06e69","ios":"levelo://app?vid=1dd08881-49ee-48d4-92cc-bc805af06e69"},"vehicle_type_id":"4","last_reported":1708121178,"current_range_meters":30400,"station_id":"ce4bgih2rcd13ifvqba0","pricing_plan_id":"cebpf4jnsgd1na2vs0mg"},{"bike_id":"f0b80fdf-cad6-483a-b48c-b0a134d2bae5","system_id":"levelo_inurba_marseille","lat":43.29535,"lon":5.38537,"is_reserved":false,"is_disabled":false,"rental_uris":{"android":"levelo://app?vid=f0b80fdf-cad6-483a-b48c-b0a134d2bae5","ios":"levelo://app?vid=f0b80fdf-cad6-483a-b48c-b0a134d2bae5"},"vehicle_type_id":"4","last_reported":1708121178,"current_range_meters":27200,"station_id":"ce4bgih2rcd13ifvqba0","pricing_plan_id":"cebpf4jnsgd1na2vs0mg"},{"bike_id":"d914d257-e6c5-446b-8664-959aa9acc16f","system_id":"levelo_inurba_marseille","lat":43.29529,"lon":5.385581,"is_reserved":false,"is_disabled":false,"rental_uris":{"android":"levelo://app?vid=d914d257-e6c5-446b-8664-959aa9acc16f","ios":"levelo://app?vid=d914d257-e6c5-446b-8664-959aa9acc16f"},"vehicle_type_id":"4","last_reported":1708121178,"current_range_meters":18400,"station_id":"ce4bgih2rcd13ifvqba0","pricing_plan_id":"cebpf4jnsgd1na2vs0mg"},{"bike_id":"9c8a1539-12b9-45fc-8484-62b8c58c8fdd","system_id":"levelo_inurba_marseille","lat":43.29529,"lon":5.385581,"is_reserved":false,"is_disabled":false,"rental_uris":{"android":"levelo://app?vid=9c8a1539-12b9-45fc-8484-62b8c58c8fdd","ios":"levelo://app?vid=9c8a1539-12b9-45fc-8484-62b8c58c8fdd"},"vehicle_type_id":"4","last_reported":1708121178,"current_range_meters":0,"station_id":"ce4bgih2rcd13ifvqba0","pricing_plan_id":"cebpf4jnsgd1na2vs0mg"},{"bike_id":"14a43830-a4ac-4e7b-a96c-e7e3111d65be","system_id":"levelo_inurba_marseille","lat":43.29538,"lon":5.38543,"is_reserved":false,"is_disabled":false,"rental_uris":{"android":"levelo://app?vid=14a43830-a4ac-4e7b-a96c-e7e3111d65be","ios":"levelo://app?vid=14a43830-a4ac-4e7b-a96c-e7e3111d65be"},"vehicle_type_id":"4","last_reported":1708121178,"current_range_meters":27200,"station_id":"ce4bgih2rcd13ifvqba0","pricing_plan_id":"cebpf4jnsgd1na2vs0mg"},{"bike_id":"805dd9ee-17cd-4387-9b44-4ab87a7309de","system_id":"levelo_inurba_marseille","lat":43.29538,"lon":5.38543,"is_reserved":false,"is_disabled":false,"rental_uris":{"android":"levelo://app?vid=805dd9ee-17cd-4387-9b44-4ab87a7309de","ios":"levelo://app?vid=805dd9ee-17cd-4387-9b44-4ab87a7309de"},"vehicle_type_id":"4","last_reported":1708121178,"current_range_meters":23200,"station_id":"ce4bgih2rcd13ifvqba0","pricing_plan_id":"cebpf4jnsgd1na2vs0mg"},{"bike_id":"01e9d3ed-0d72-45b9-acfd-9c83b12f2022","system_id":"levelo_inurba_marseille","lat":43.29529,"lon":5.385581,"is_reserved":false,"is_disabled":false,"rental_uris":{"android":"levelo://app?vid=01e9d3ed-0d72-45b9-acfd-9c83b12f2022","ios":"levelo://app?vid=01e9d3ed-0d72-45b9-acfd-9c83b12f2022"},"vehicle_type_id":"4","last_reported":1708121178,"current_range_meters":18800,"station_id":"ce4bgih2rcd13ifvqba0","pricing_plan_id":"cebpf4jnsgd1na2vs0mg"},