{"last_updated":1737760092,"ttl":60,"version":"2.2","data":{"bikes":[{"bike_id":"0e07a6ae-d17e-42fa-9ec3-4f7a623f0735","system_id":"levelo_inurba_marseille","lat":43.27375,"lon":5.36256,"is_reserved":false,"is_disabled":false,"rental_uris":{"android":"levelo://app?vid=0e07a6ae-d17e-42fa-9ec3-4f7a623f0735","ios":"levelo://app?vid=0e07a6ae-d17e-42fa-9ec3-4f7a623f0735"},"vehicle_type_id":"4","last_reported":1737760092,"current_range_meters":38800,"station_id":"ce4bhbh2rcd13ifvqeo0","pricing_plan_id":"cebpf4jnsgd1na2vs0mg"},{"bike_id":"558f9f6f-31a9-433c-9975-e6d95fd34192","system_id":"levelo_inurba_marseille","lat":43.29021,"lon":5.35612,"is_reserved":false,"is_disabled":false,"rental_uris":{"android":"levelo://app?vid=558f9f6f-31a9-433c-9975-e6d95fd34192","ios":"levelo://app?vid=558f9f6f-31a9-433c-9975-e6d95fd34192"},"vehicle_type_id":"4","last_reported":1737760092,"current_range_meters":33200,"station_id":"ce4bhb92rcd13ifvqen0","pricing_plan_id":"cebpf4jnsgd1na2vs0mg"},{"bike_id":"83300955-a5d2-4afa-81d7-e3e697fa28cf","system_id":"levelo_inurba_marseille","lat":43.29606,"lon":5.37506,"is_reserved":false,"is_disabled":false,"rental_uris":{"android":"levelo://app?vid=83300955-a5d2-4afa-81d7-e3e697fa28cf","ios":"levelo://app?vid=83300955-a5d2-4afa-81d7-e3e697fa28cf"},"vehicle_type_id":"4","last_reported":1737760092,"current_range_meters":38000,"station_id":"ce4bgh92rcd13ifvqb50","pricing_plan_id":"cebpf4jnsgd1na2vs0mg"},{"bike_id":"22fdda07-29f7-4097-aa7c-457566d3caba","system_id":"levelo_inurba_marseille","lat":43.2508,"lon":5.39504,"is_reserved":false,"is_disabled":false,"rental_uris":{"android":"levelo://app?vid=22fdda07-29f7-4097-aa7c-457566d3caba","ios":"levelo://app?vid=22fdda07-29f7-4097-aa7c-457566d3caba"},"vehicle_type_id":"4","last_reported":1737760092,"current_range_meters":32000,"station_id":"ce4bhm12rcd13ifvqgkg","pricing_plan_id":"cebpf4jnsgd1na2vs0mg"},{"bike_id":"ccb58490-949f-4ed7-b0ed-dc2b5267d3cb","system_id":"levelo_inurba_marseille","lat":43.24386,"lon":5.37054,"is_reserved":false,"is_disabled":false,"rental_uris":{"android":"levelo://app?vid=ccb58490-949f-4ed7-b0ed-dc2b5267d3cb","ios":"levelo://app?vid=ccb58490-949f-4ed7-b0ed-dc2b5267d3cb"},"vehicle_type_id":"4","last_reported":1737760092,"current_range_meters":38800,"station_id":"ce4bhhh2rcd13ifvqfk0","pricing_plan_id":"cebpf4jnsgd1na2vs0mg"},{"bike_id":"712ad7c5-350e-4bc1-970e-62ada6f4b9c6","system_id":"levelo_inurba_marseille","lat":43.29041,"lon":5.35914,"is_reserved":false,"is_disabled":false,"rental_uris":{"android":"levelo://app?vid=712ad7c5-350e-4bc1-970e-62ada6f4b9c6","ios":"levelo://app?vid=712ad7c5-350e-4bc1-970e-62ada6f4b9c6"},"vehicle_type_id":"4","last_reported":1737760092,"current_range_meters":25200,"station_id":"ce4bha92rcd13ifvqeg0","pricing_plan_id":"cebpf4jnsgd1na2vs0mg"},{"bike_id":"58d9e3df-28a3-4560-b2cd-4d33fefbd544","system_id":"levelo_inurba_marseille","lat":43.28369,"lon":5.38138,"is_reserved":false,"is_disabled":false,"rental_uris":{"android":"levelo://app?vid=58d9e3df-28a3-4560-b2cd-4d33fefbd544","ios":"levelo://app?vid=58d9e3df-28a3-4560-b2cd-4d33fefbd544"},"vehicle_type_id":"4","last_reported":1737760092,"current_range_meters":24800,"station_id":"ce4bh412rcd13ifvqdr0","pricing_plan_id":"cebpf4jnsgd1na2vs0mg"},{"bike_id":"0793f05d-0029-4d54-a0fe-9c0436426db5","system_id":"levelo_inurba_marseille","lat":43.2319,"lon":5.35557,"is_reserved":false,"is_disabled":false,"rental_uris":{"android":"levelo://app?vid=0793f05d-0029-4d54-a0fe-9c0436426db5","ios":"levelo://app?vid=0793f05d-0029-4d54-a0fe-9c0436426db5"},"vehicle_type_id":"4","last_reported":1737760092,"current_range_meters":38800,"station_id":"ce4bhu92rcd13ifvqi70","pricing_plan_id":"cebpf4jnsgd1na2vs0mg"},{"bike_id":"2e69219e-a32a-45dd-bfbe-a39a3389fa1c","system_id":"levelo_inurba_marseille","lat":43.251,"lon":5.39514,"is_reserved":false,"is_disabled":false,"rental_uris":{"android":"levelo://app?vid=2e69219e-a32a-45dd-bfbe-a39a3389fa1c","ios":"levelo://app?vid=2e69219e-a32a-45dd-bfbe-a39a3389fa1c"},"vehicle_type_id":"4","last_reported":1737760092,"current_range_meters":7200,"station_id":"ce4bhm12rcd13ifvqgkg","pricing_plan_id":"cebpf4jnsgd1na2vs0mg"},{"bike_id":"4914872c-162c-4b5d-a9af-cff65f389580","system_id":"levelo_inurba_marseille","lat":43.29638,"lon":5.38123,"is_reserved":false,"is_disabled":true,"rental_uris":{"android":"levelo://app?vid=4914872c-162c-4b5d-a9af-cff65f389580","ios":"levelo://app?vid=4914872c-162c-4b5d-a9af-cff65f389580"},"vehicle_type_id":"4","last_reported":1737760092,"current_range_meters":2800,"station_id":"ce4bgl12rcd13ifvqbo0","pricing_plan_id":"cebpf4jnsgd1na2vs0mg"},{"bike_id":"d11e1355-e68d-4c62-ac4f-08f047ebbee9","system_id":"levelo_inurba_marseille","lat":43.29691,"lon":5.36589,"is_reserved":false,"is_disabled":false,"rental_uris":{"android":"levelo://app?vid=d11e1355-e68d-4c62-ac4f-08f047ebbee9","ios":"levelo://app?vid=d11e1355-e68d-4c62-ac4f-08f047ebbee9"},"vehicle_type_id":"4","last_reported":1737760092,"current_range_meters":16000,"station_id":"ce4bgn12rcd13ifvqbt0","pricing_plan_id":"cebpf4jnsgd1na2vs0mg"},{"bike_id":"78f1bcbe-297f-4d89-be9d-ff7c664d65b5","system_id":"levelo_inurba_marseille","lat":43.27178,"lon":5.40991,"is_reserved":false,"is_disabled":false,"rental_uris":{"android":"levelo://app?vid=78f1bcbe-297f-4d89-be9d-ff7c664d65b5","ios":"levelo://app?vid=78f1bcbe-297f-4d89-be9d-ff7c664d65b5"},"vehicle_type_id":"4","last_reported":1737760092,"current_range_meters":11200,"station_id":"ce4bhl12rcd13ifvqgf0","pricing_plan_id":"cebpf4jnsgd1na2vs0mg"},{"bike_id":"ee661685-6c7e-40f5-b00a-04394c268470","system_id":"levelo_inurba_marseille","lat":43.2797,"lon":5.387657,"is_reserved":false,"is_disabled":false,"rental_uris":{"android":"levelo://app?vid=ee661685-6c7e-40f5-b00a-04394c268470","ios":"levelo://app?vid=ee661685-6c7e-40f5-b00a-04394c268470"},"vehicle_type_id":"4","last_reported":1737760092,"current_range_meters":36800,"station_id":"ce4bhg12rcd13ifvqf80","pricing_plan_id":"cebpf4jnsgd1na2vs0mg"},{"bike_id":"27dc32cc-bdec-4e7e-afa5-3ede9ce9e1b3","system_id":"levelo_inurba_marseille","lat":43.28977,"lon":5.37838,"is_reserved":false,"is_disabled":false,"rental_uris":{"android":"levelo://app?vid=27dc32cc-bdec-4e7e-afa5-3ede9ce9e1b3","ios":"levelo://app?vid=27dc32cc-bdec-4e7e-afa5-3ede9ce9e1b3"},"vehicle_type_id":"4","last_reported":1737760092,"current_range_meters":36800,"station_id":"ce4bh9p2rcd13ifvqed0","pricing_plan_id":"cebpf4jnsgd1na2vs0mg"},{"bike_id":"eadecfe8-1294-4c6c-a688-c77357028c6c","system_id":"levelo_inurba_marseille","lat":43.28434,"lon":5.37493,"is_reserved":false,"is_disabled":false,"rental_uris":{"android":"levelo://app?vid=eadecfe8-1294-4c6c-a688-c77357028c6c","ios":"levelo://app?vid=eadecfe8-1294-4c6c-a688-c77357028c6c"},"vehicle_type_id":"4","last_reported":1737760092,"current_range_meters":36000,"station_id":"ce4bh412rcd13ifvqds0","pricing_plan_id":"cebpf4jnsgd1na2vs0mg"},{"bike_id":"6e0e02f5-b0ae-450f-ad77-51511a2e44cf","system_id":"levelo_inurba_marseille","lat":43.309309,"lon":5.401474,"is_reserved":false,"is_disabled":true,"rental_uris":{"android":"levelo://app?vid=6e0e02f5-b0ae-450f-ad77-51511a2e44cf","ios":"levelo://app?vid=6e0e02f5-b0ae-450f-ad77-51511a2e44cf"},"vehicle_type_id":"4","last_reported":1737760092,"current_range_meters":22800,"station_id":"ce4bgvp2rcd13ifvqct0","pricing_plan_id":"cebpf4jnsgd1na2vs0mg"},{"bike_id":"e42f8bb6-9050-4e5d-926a-27300184a543","system_id":"levelo_inurba_marseille","lat":43.28929,"lon":5.36586,"is_reserved":false,"is_disabled":false,"rental_uris":{"android":"levelo://app?vid=e42f8bb6-9050-4e5d-926a-27300184a543","ios":"levelo://app?vid=e42f8bb6-9050-4e5d-926a-27300184a543"},"vehicle_type_id":"4","last_reported":1737760092,"current_range_meters":32800,"station_id":"ce4bhap2rcd13ifvqek0","pricing_plan_id":"cebpf4jnsgd1na2vs0mg"},{"bike_id":"74bd322b-436a-46cc-8213-bb4cd648cafd","system_id":"levelo_inurba_marseille","lat":43.29195,"lon":5.35797,"is_reserved":false,"is_disabled":false,"rental_uris":{"android":"levelo://app?vid=74bd322b-436a-46cc-8213-bb4cd648cafd","ios":"levelo://app?vid=74bd322b-436a-46cc-8213-bb4cd648cafd"},"vehicle_type_id":"4","last_reported":1737760092,"current_range_meters":38000,"station_id":"ce4bhb12rcd13ifvqel0","pricing_plan_id":"cebpf4jnsgd1na2vs0mg"},{"bike_id":"6df7f438-e9a2-4488-b4c5-ad9c2cc83bb9","system_id":"levelo_inurba_marseille","lat":43.26034,"lon":5.37529,"is_reserved":false,"is_disabled":false,"rental_uris":{"android":"levelo://app?vid=6df7f438-e9a2-4488-b4c5-ad9c2cc83bb9","ios":"levelo://app?vid=6df7f438-e9a2-4488-b4c5-ad9c2cc83bb9"},"vehicle_type_id":"4","last_reported":1737760092,"current_range_meters":38800,"station_id":"ce4bhgh2rcd13ifvqfa0","pricing_plan_id":"cebpf4jnsgd1na2vs0mg"},{"bike_id":"278fa707-88f8-42b0-a06f-9a61234b8e76","system_id":"levelo_inurba_marseille","lat":43.29176,"lon":5.38069,"is_reserved":false,"is_disabled":true,"rental_uris":{"android":"levelo://app?vid=278fa707-88f8-42b0-a06f-9a61234b8e76","ios":"levelo://app?vid=278fa707-88f8-42b0-a06f-9a61234b8e76"},"vehicle_type_id":"4","last_reported":1737760092,"current_range_meters":0,"station_id":"","pricing_plan_id":"cebpf4jnsgd1na2vs0mg"},{"bike_id":"5653eca4-b417-427a-a3ec-24a4ba552e07","system_id":"levelo_inurba_marseille","lat":43.3001,"lon":5.38511,"is_reserved":false,"is_disabled":true,"rental_uris":{"android":"levelo://app?vid=5653eca4-b417-427a-a3ec-24a4ba552e07","ios":"levelo://app?vid=5653eca4-b417-427a-a3ec-24a4ba552e07"},"vehicle_type_id":"4","last_reported":1737760092,"current_range_meters":36400,"station_id":"ce4bgj92rcd13ifvqbd0","pricing_plan_id":"cebpf4jnsgd1na2vs0mg"},{"bike_id":"f63fda25-b652-4a7d-98df-67faab664e5b","system_id":"levelo_inurba_marseille","lat":43.30885,"lon":5.39648,"is_reserved":false,"is_disabled":false,"rental_uris":{"android":"levelo://app?vid=f63fda25-b652-4a7d-98df-67faab664e5b","ios":"levelo://app?vid=f63fda25-b652-4a7d-98df-67faab664e5b"},"vehicle_type_id":"4","last_reported":1737760092,"current_range_meters":12000,"station_id":"ce4bh012rcd13ifvqcv0","pricing_plan_id":"cebpf4jnsgd1na2vs0mg"},{"bike_id":"3bc3d804-3682-40c0-bade-303dff5a85a9","system_id":"levelo_inurba_marseille","lat":43.28701,"lon":5.3739,"is_reserved":false,"is_disabled":false,"rental_uris":{"android":"levelo://app?vid=3bc3d804-3682-40c0-bade-303dff5a85a9","ios":"levelo://app?vid=3bc3d804-3682-40c0-bade-303dff5a85a9"},"vehicle_type_id":"4","last_reported":1737760092,"current_range_meters":38800,"station_id":"ce4bh3p2rcd13ifvqdq0","pricing_plan_id":"cebpf4jnsgd1na2vs0mg"},{"bike_id":"f7ac40bf-9ec2-46b3-898f-7f04d59d08e5","system_id":"levelo_inurba_marseille","lat":43.27177,"lon":5.40999,"is_reserved":false,"is_disabled":false,"rental_uris":{"android":"levelo://app?vid=f7ac40bf-9ec2-46b3-898f-7f04d59d08e5","ios":"levelo://app?vid=f7ac40bf-9ec2-46b3-898f-7f04d59d08e5"},"vehicle_type_id":"4","last_reported":1737760092,"current_range_meters":16800,"station_id":"ce4bhl12rcd13ifvqgf0","pricing_plan_id":"cebpf4jnsgd1na2vs0mg"},{"bike_id":"9b645a44-ff07-48b6-9c04-a5c052f054b4","system_id":"levelo_inurba_marseille","lat":43.29433,"lon":5.3865,"is_reserved":false,"is_disabled":false,"rental_uris":{"android":"levelo://app?vid=9b645a44-ff07-48b6-9c04-a5c052f054b4","ios":"levelo://app?vid=9b645a44-ff07-48b6-9c04-a5c052f054b4"},"vehicle_type_id":"4","last_reported":1737760092,"current_range_meters":15200,"station_id":"ce4bh2h2rcd13ifvqdh0","pricing_plan_id":"cebpf4jnsgd1na2vs0mg"},{"bike_id":"c1b500d7-f53d-4551-8fe5-8cdda4e457c3","system_id":"levelo_inurba_marseille","lat":43.3018,"lon":5.36623,"is_reserved":false,"is_disabled":false,"rental_uris":{"android":"levelo://app?vid=c1b500d7-f53d-4551-8fe5-8cdda4e457c3","ios":"levelo://app?vid=c1b500d7-f53d-4551-8fe5-8cdda4e457c3"},"vehicle_type_id":"4","last_reported":1737760092,"current_range_meters":16800,"station_id":"ce4bgrh2rcd13ifvqc8g","pricing_plan_id":"cebpf4jnsgd1na2vs0mg"},{"bike_id":"1b979711-dc0b-4b0b-91aa-7956df28301c","system_id":"levelo_inurba_marseille","lat":43.28106,"lon":5.37862,"is_reserved":false,"is_disabled":false,"rental_uris":{"android":"levelo://app?vid=1b979711-dc0b-4b0b-91aa-7956df28301c","ios":"levelo://app?vid=1b979711-dc0b-4b0b-91aa-7956df28301c"},"vehicle_type_id":"4","last_reported":1737760092,"current_range_meters":38800,"station_id":"ce4bha12rcd13ifvqee0","pricing_plan_id":"cebpf4jnsgd1na2vs0mg"},{"bike_id":"408c7ae9-5733-463b-a6f8-60bc2913387a","system_id":"levelo_inurba_marseille","lat":43.29062,"lon":5.38635,"is_reserved":false,"is_disabled":false,"rental_uris":{"android":"levelo://app?vid=408c7ae9-5733-463b-a6f8-60bc2913387a","ios":"levelo://app?vid=408c7ae9-5733-463b-a6f8-60bc2913387a"},"vehicle_type_id":"4","last_reported":1737760092,"current_range_meters":12800,"station_id":"ce4bh4p2rcd13ifvqe0g","pricing_plan_id":"cebpf4jnsgd1na2vs0mg"},{"bike_id":"7ff41bb0-58bb-4e7a-856f-2a2aba66f15e","system_id":"levelo_inurba_marseille","lat":43.31726,"lon":5.43738,"is_reserved":false,"is_disabled":false,"rental_uris":{"android":"levelo://app?vid=7ff41bb0-58bb-4e7a-856f-2a2aba66f15e","ios":"levelo://app?vid=7ff41bb0-58bb-4e7a-856f-2a2aba66f15e"},"vehicle_type_id":"4","last_reported":1737760092,"current_range_meters":38800,"station_id":"ce4bhp92rcd13ifvqhcg","pricing_plan_id":"cebpf4jnsgd1na2vs0mg"},{"bike_id":"799818e8-263b-4acc-a4c0-b732b7fa92e7","system_id":"levelo_inurba_marseille","lat":43.32283,"lon":5.38296,"is_reserved":false,"is_disabled":false,"rental_uris":{"android":"levelo://app?vid=799818e8-263b-4acc-a4c0-b732b7fa92e7","ios":"levelo://app?vid=799818e8-263b-4acc-a4c0-b732b7fa92e7"},"vehicle_type_id":"4","last_reported":1737760092,"current_range_meters":39200,"station_id":"ce4bhr12rcd13ifvqhqg","pricing_plan_id":"cebpf4jnsgd1na2vs0mg"},{"bike_id":"b5b8ff47-e267-47c7-9072-f6060d374225","system_id":"levelo_inurba_marseille","lat":43.30177,"lon":5.36619,"is_reserved":false,"is_disabled":false,"rental_uris":{"android":"levelo://app?vid=b5b8ff47-e267-47c7-9072-f6060d374225","ios":"levelo://app?vid=b5b8ff47-e267-47c7-9072-f6060d374225"},"vehicle_type_id":"4","last_reported":1737760092,"current_range_meters":10000,"station_id":"ce4bgrh2rcd13ifvqc8g","pricing_plan_id":"cebpf4jnsgd1na2vs0mg"},{"bike_id":"dd050f92-0eda-4089-a564-220865179cde","system_id":"levelo_inurba_marseille","lat":43.284775,"lon":5.38416,"is_reserved":false,"is_disabled":false,"rental_uris":{"android":"levelo://app?vid=dd050f92-0eda-4089-a564-220865179cde","ios":"levelo://app?vid=dd050f92-0eda-4089-a564-220865179cde"},"vehicle_type_id":"4","last_reported":1737760092,"current_range_meters":29600,"station_id":"ce4bh512rcd13ifvqe3g","pricing_plan_id":"cebpf4jnsgd1na2vs0mg"},{"bike_id":"279ff178-689e-45a0-a76a-a6380ff903e0","system_id":"levelo_inurba_marseille","lat":43.29179,"lon":5.39321,"is_reserved":false,"is_disabled":false,"rental_uris":{"android":"levelo://app?vid=279ff178-689e-45a0-a76a-a6380ff903e0","ios":"levelo://app?vid=279ff178-689e-45a0-a76a-a6380ff903e0"},"vehicle_type_id":"4","last_reported":1737760092,"current_range_meters":22000,"station_id":"ce4bh192rcd13ifvqdd0","pricing_plan_id":"cebpf4jnsgd1na2vs0mg"},{"bike_id":"b0f20276-8a45-4eb5-bf27-a2ff4cd6dffc","system_id":"levelo_inurba_marseille","lat":43.30786,"lon":5.38157,"is_reserved":false,"is_disabled":false,"rental_uris":{"android":"levelo://app?vid=b0f20276-8a45-4eb5-bf27-a2ff4cd6dffc","ios":"levelo://app?vid=b0f20276-8a45-4eb5-bf27-a2ff4cd6dffc"},"vehicle_type_id":"4","last_reported":1737760092,"current_range_meters":34000,"station_id":"ce4bgt12rcd13ifvqce0","pricing_plan_id":"cebpf4jnsgd1na2vs0mg"},{"bike_id":"a0717c68-d820-43c8-b095-b1be6f01ccad","system_id":"levelo_inurba_marseille","lat":43.28669,"lon":5.38674,"is_reserved":false,"is_disabled":false,"rental_uris":{"android":"levelo://app?vid=a0717c68-d820-43c8-b095-b1be6f01ccad","ios":"levelo://app?vid=a0717c68-d820-43c8-b095-b1be6f01ccad"},"vehicle_type_id":"4","last_reported":1737760092,"current_range_meters":35200,"station_id":"ce4bh492rcd13ifvqdug","pricing_plan_id":"cebpf4jnsgd1na2vs0mg"},{"bike_id":"4a3ca55c-fef4-43f3-af2c-be858b71f7ad","system_id":"levelo_inurba_marseille","lat":43.25005,"lon":5.38923,"is_reserved":false,"is_disabled":true,"rental_uris":{"android":"levelo://app?vid=4a3ca55c-fef4-43f3-af2c-be858b71f7ad","ios":"levelo://app?vid=4a3ca55c-fef4-43f3-af2c-be858b71f7ad"},"vehicle_type_id":"4","last_reported":1737760092,"current_range_meters":400,"station_id":"ce4bhgp2rcd13ifvqfd0","pricing_plan_id":"cebpf4jnsgd1na2vs0mg"},{"bike_id":"5a48328b-50b3-460c-8c64-2722d8c28ce3","system_id":"levelo_inurba_marseille","lat":43.30569,"lon":5.36847,"is_reserved":false,"is_disabled":false,"rental_uris":{"android":"levelo://app?vid=5a48328b-50b3-460c-8c64-2722d8c28ce3","ios":"levelo://app?vid=5a48328b-50b3-460c-8c64-2722d8c28ce3"},"vehicle_type_id":"4","last_reported":1737760092,"current_range_meters":12000,"station_id":"","pricing_plan_id":"cebpf4jnsgd1na2vs0mg"},{"bike_id":"c7884286-b0ec-4bc5-885b-828eea5a7959","system_id":"levelo_inurba_marseille","lat":43.31328,"lon":5.39696,"is_reserved":false,"is_disabled":false,"rental_uris":{"android":"levelo://app?vid=c7884286-b0ec-4bc5-885b-828eea5a7959","ios":"levelo://app?vid=c7884286-b0ec-4bc5-885b-828eea5a7959"},"vehicle_type_id":"4","last_reported":1737760092,"current_range_meters":15200,"station_id":"ce4bgvp2rcd13ifvqcu0","pricing_plan_id":"cebpf4jnsgd1na2vs0mg"},{"bike_id":"9e3a8a98-d23f-4935-95d2-d4861c84b9fe","system_id":"levelo_inurba_marseille","lat":43.31047,"lon":5.39361,"is_reserved":false,"is_disabled":false,"rental_uris":{"android":"levelo://app?vid=9e3a8a98-d23f-4935-95d2-d4861c84b9fe","ios":"levelo://app?vid=9e3a8a98-d23f-4935-95d2-d4861c84b9fe"},"vehicle_type_id":"4","last_reported":1737760092,"current_range_meters":30800,"station_id":"","pricing_plan_id":"cebpf4jnsgd1na2vs0mg"},{"bike_id":"3608a3cf-49c3-46d4-b709-f8e9629a9213","system_id":"levelo_inurba_marseille","lat":43.24649,"lon":5.38907,"is_reserved":false,"is_disabled":false,"rental_uris":{"android":"levelo://app?vid=3608a3cf-49c3-46d4-b709-f8e9629a9213","ios":"levelo://app?vid=3608a3cf-49c3-46d4-b709-f8e9629a9213"},"vehicle_type_id":"4","last_reported":1737760092,"current_range_meters":7200,"station_id":"ce4bhg12rcd13ifvqf60","pricing_plan_id":"cebpf4jnsgd1na2vs0mg"},{"bike_id":"23f2310a-7cb3-40ae-bd57-ecc8717e6a13","system_id":"levelo_inurba_marseille","lat":43.31328,"lon":5.39698,"is_reserved":false,"is_disabled":false,"rental_uris":{"android":"levelo://app?vid=23f2310a-7cb3-40ae-bd57-ecc8717e6a13","ios":"levelo://app?vid=23f2310a-7cb3-40ae-bd57-ecc8717e6a13"},"vehicle_type_id":"4","last_reported":1737760092,"current_range_meters":19200,"station_id":"ce4bgvp2rcd13ifvqcu0","pricing_plan_id":"cebpf4jnsgd1na2vs0mg"},{"bike_id":"e91204e9-d4fe-4e30-81a6-71464f86006e","system_id":"levelo_inurba_marseille","lat":43.29869,"lon":5.38119,"is_reserved":false,"is_disabled":true,"rental_uris":{"android":"levelo://app?vid=e91204e9-d4fe-4e30-81a6-71464f86006e","ios":"levelo://app?vid=e91204e9-d4fe-4e30-81a6-71464f86006e"},"vehicle_type_id":"4","last_reported":1737760092,"current_range_meters":38000,"station_id":"ce4bgj12rcd13ifvqbc0","pricing_plan_id":"cebpf4jnsgd1na2vs0mg"},{"bike_id":"66298580-e1d8-415b-89d8-52409bfc1f80","system_id":"levelo_inurba_marseille","lat":43.26189,"lon":5.37449,"is_reserved":false,"is_disabled":false,"rental_uris":{"android":"levelo://app?vid=66298580-e1d8-415b-89d8-52409bfc1f80","ios":"levelo://app?vid=66298580-e1d8-415b-89d8-52409bfc1f80"},"vehicle_type_id":"4","last_reported":1737760092,"current_range_meters":23200,"station_id":"ce4bhgp2rcd13ifvqfc0","pricing_plan_id":"cebpf4jnsgd1na2vs0mg"},{"bike_id":"da9061e1-16c5-4ace-b78a-cde4e15b5ed3","system_id":"levelo_inurba_marseille","lat":43.29948,"lon":5.38522,"is_reserved":false,"is_disabled":false,"rental_uris":{"android":"levelo://app?vid=da9061e1-16c5-4ace-b78a-cde4e15b5ed3","ios":"levelo://app?vid=da9061e1-16c5-4ace-b78a-cde4e15b5ed3"},"vehicle_type_id":"4","last_reported":1737760092,"current_range_meters":37600,"station_id":"ce4bgj92rcd13ifvqbd0","pricing_plan_id":"cebpf4jnsgd1na2vs0mg"},{"bike_id":"18d70cb6-22f2-4bb5-8b28-57d26df91344","system_id":"levelo_inurba_marseille","lat":43.27438,"lon":5.39396,"is_reserved":false,"is_disabled":false,"rental_uris":{"android":"levelo://app?vid=18d70cb6-22f2-4bb5-8b28-57d26df91344","ios":"levelo://app?vid=18d70cb6-22f2-4bb5-8b28-57d26df91344"},"vehicle_type_id":"4","last_reported":1737760092,"current_range_meters":38800,"station_id":"ce4bhdp2rcd13ifvqf20","pricing_plan_id":"cebpf4jnsgd1na2vs0mg"},{"bike_id":"6d1c7757-cbfa-452f-8195-daacd34f212b","system_id":"levelo_inurba_marseille","lat":43.23075,"lon":5.35512,"is_reserved":false,"is_disabled":false,"rental_uris":{"android":"levelo://app?vid=6d1c7757-cbfa-452f-8195-daacd34f212b","ios":"levelo://app?vid=6d1c7757-cbfa-452f-8195-daacd34f212b"},"vehicle_type_id":"4","last_reported":1737760092,"current_range_meters":38800,"station_id":"cpo3342slgdg3j2ifvpg","pricing_plan_id":"cebpf4jnsgd1na2vs0mg"},{"bike_id":"a6d13515-3f03-4afd-b118-3ec4530ea10f","system_id":"levelo_inurba_marseille","lat":43.24639,"lon":5.38899,"is_reserved":false,"is_disabled":false,"rental_uris":{"android":"levelo://app?vid=a6d13515-3f03-4afd-b118-3ec4530ea10f","ios":"levelo://app?vid=a6d13515-3f03-4afd-b118-3ec4530ea10f"},"vehicle_type_id":"4","last_reported":1737760092,"current_range_meters":38800,"station_id":"ce4bhg12rcd13ifvqf60","pricing_plan_id":"cebpf4jnsgd1na2vs0mg"},{"bike_id":"34aa6db6-d08c-4f6b-ad5e-1bad446eaa72","system_id":"levelo_inurba_marseille","lat":43.23195,"lon":5.39995,"is_reserved":false,"is_disabled":false,"rental_uris":{"android":"levelo://app?vid=34aa6db6-d08c-4f6b-ad5e-1bad446eaa72","ios":"levelo://app?vid=34aa6db6-d08c-4f6b-ad5e-1bad446eaa72"},"vehicle_type_id":"4","last_reported":1737760092,"current_range_meters":38800,"station_id":"ce4bhn12rcd13ifvqgqg","pricing_plan_id":"cebpf4jnsgd1na2vs0mg"},{"bike_id":"3acf96da-87af-41ff-80e8-4e5af52943bb","system_id":"levelo_inurba_marseille","lat":43.2954,"lon":5.3855,"is_reserved":false,"is_disabled":false,"rental_uris":{"android":"levelo://app?vid=3acf96da-87af-41ff-80e8-4e5af52943bb","ios":"levelo://app?vid=3acf96da-87af-41ff-80e8-4e5af52943bb"},"vehicle_type_id":"4","last_reported":1737760092,"current_range_meters":12400,"station_id":"ce4bgih2rcd13ifvqba0","pricing_plan_id":"cebpf4jnsgd1na2vs0mg"},{"bike_id":"990a416c-e71d-4fb7-9ef8-64308cb845c6","system_id":"levelo_inurba_marseille","lat":43.29898,"lon":5.37474,"is_reserved":false,"is_disabled":true,"rental_uris":{"android":"levelo://app?vid=990a416c-e71d-4fb7-9ef8-64308cb845c6","ios":"levelo://app?vid=990a416c-e71d-4fb7-9ef8-64308cb845c6"},"vehicle_type_id":"4","last_reported":1737760092,"current_range_meters":400,"station_id":"ce4bgjh2rcd13ifvqbg0","pricing_plan_id":"cebpf4jnsgd1na2vs0mg"},{"bike_id":"a2dbdc7e-8ab2-4f75-8035-18bef5b78a3b","system_id":"levelo_inurba_marseille","lat":43.25891,"lon":5.39925,"is_reserved":false,"is_disabled":false,"rental_uris":{"android":"levelo://app?vid=a2dbdc7e-8ab2-4f75-8035-18bef5b78a3b","ios":"levelo://app?vid=a2dbdc7e-8ab2-4f75-8035-18bef5b78a3b"},"vehicle_type_id":"4","last_reported":1737760092,"current_range_meters":38800,"station_id":"ce4bhl92rcd13ifvqghg","pricing_plan_id":"cebpf4jnsgd1na2vs0mg"},{"bike_id":"f253fc82-7ca1-4c38-a41a-566478bb536e","system_id":"levelo_inurba_marseille","lat":43.28066,"lon":5.36924,"is_reserved":false,"is_disabled":false,"rental_uris":{"android":"levelo://app?vid=f253fc82-7ca1-4c38-a41a-566478bb536e","ios":"levelo://app?vid=f253fc82-7ca1-4c38-a41a-566478bb536e"},"vehicle_type_id":"4","last_reported":1737760092,"current_range_meters":38800,"station_id":"ce4bha12rcd13ifvqef0","pricing_plan_id":"cebpf4jnsgd1na2vs0mg"},{"bike_id":"c287a3ed-5ab1-4fe0-a917-cf5ecb40f512","system_id":"levelo_inurba_marseille","lat":43.29265,"lon":5.38444,"is_reserved":false,"is_disabled":true,"rental_uris":{"android":"levelo://app?vid=c287a3ed-5ab1-4fe0-a917-cf5ecb40f512","ios":"levelo://app?vid=c287a3ed-5ab1-4fe0-a917-cf5ecb40f512"},"vehicle_type_id":"4","last_reported":1737760092,"current_range_meters":20000,"station_id":"ce4bh692rcd13ifvqea0","pricing_plan_id":"cebpf4jnsgd1na2vs0mg"},{"bike_id":"9838cc78-2b53-49d3-ae13-82df62c4fd64","system_id":"levelo_inurba_marseille","lat":43.28402,"lon":5.40936,"is_reserved":false,"is_disabled":true,"rental_uris":{"android":"levelo://app?vid=9838cc78-2b53-49d3-ae13-82df62c4fd64","ios":"levelo://app?vid=9838cc78-2b53-49d3-ae13-82df62c4fd64"},"vehicle_type_id":"4","last_reported":1737760092,"current_range_meters":0,"station_id":"","pricing_plan_id":"cebpf4jnsgd1na2vs0mg"},{"bike_id":"912cf3ca-33b3-47fa-b01b-39ffe2b1fb90","system_id":"levelo_inurba_marseille","lat":43.28563,"lon":5.39504,"is_reserved":false,"is_disabled":false,"rental_uris":{"android":"levelo://app?vid=912cf3ca-33b3-47fa-b01b-39ffe2b1fb90","ios":"levelo://app?vid=912cf3ca-33b3-47fa-b01b-39ffe2b1fb90"},"vehicle_type_id":"4","last_reported":1737760092,"current_range_meters":31200,"station_id":"ce4bh292rcd13ifvqdg0","pricing_plan_id":"cebpf4jnsgd1na2vs0mg"},{"bike_id":"340b47d1-2cc7-4677-b709-9209d740a993","system_id":"levelo_inurba_marseille","lat":43.29034,"lon":5.38626,"is_reserved":false,"is_disabled":false,"rental_uris":{"android":"levelo://app?vid=340b47d1-2cc7-4677-b709-9209d740a993","ios":"levelo://app?vid=340b47d1-2cc7-4677-b709-9209d740a993"},"vehicle_type_id":"4","last_reported":1737760092,"current_range_meters":22400,"station_id":"ce4bh4p2rcd13ifvqe0g","pricing_plan_id":"cebpf4jnsgd1na2vs0mg"},{"bike_id":"d6db8360-7a7b-4a5e-8c3e-ee74b2a817ee","system_id":"levelo_inurba_marseille","lat":43.31724,"lon":5.37836,"is_reserved":false,"is_disabled":false,"rental_uris":{"android":"levelo://app?vid=d6db8360-7a7b-4a5e-8c3e-ee74b2a817ee","ios":"levelo://app?vid=d6db8360-7a7b-4a5e-8c3e-ee74b2a817ee"},"vehicle_type_id":"4","last_reported":1737760092,"current_range_meters":39200,"station_id":"ce4bgth2rcd13ifvqch0","pricing_plan_id":"cebpf4jnsgd1na2vs0mg"},{"bike_id":"50e2033c-b25e-47fd-b2fc-453a8d6c77a3","system_id":"levelo_inurba_marseille","lat":43.3133,"lon":5.39687,"is_reserved":false,"is_disabled":false,"rental_uris":{"android":"levelo://app?vid=50e2033c-b25e-47fd-b2fc-453a8d6c77a3","ios":"levelo://app?vid=50e2033c-b25e-47fd-b2fc-453a8d6c77a3"},"vehicle_type_id":"4","last_reported":1737760092,"current_range_meters":38800,"station_id":"ce4bgvp2rcd13ifvqcu0","pricing_plan_id":"cebpf4jnsgd1na2vs0mg"},{"bike_id":"bf096a89-ee72-4f37-85bd-7b3cf9f0cb41","system_id":"levelo_inurba_marseille","lat":43.31942,"lon":5.37821,"is_reserved":false,"is_disabled":false,"rental_uris":{"android":"levelo://app?vid=bf096a89-ee72-4f37-85bd-7b3cf9f0cb41","ios":"levelo://app?vid=bf096a89-ee72-4f37-85bd-7b3cf9f0cb41"},"vehicle_type_id":"4","last_reported":1737760092,"current_range_meters":33600,"station_id":"","pricing_plan_id":"cebpf4jnsgd1na2vs0mg"},{"bike_id":"63fa3bb6-17ef-4eac-aba8-b7c788d748df","system_id":"levelo_inurba_marseille","lat":43.25494,"lon":5.37648,"is_reserved":false,"is_disabled":false,"rental_uris":{"android":"levelo://app?vid=63fa3bb6-17ef-4eac-aba8-b7c788d748df","ios":"levelo://app?vid=63fa3bb6-17ef-4eac-aba8-b7c788d748df"},"vehicle_type_id":"4","last_reported":1737760092,"current_range_meters":39200,"station_id":"ce4bhh12rcd13ifvqff0","pricing_plan_id":"cebpf4jnsgd1na2vs0mg"},{"bike_id":"a92fa0eb-942e-4e5f-b30c-cb5ee305b076","system_id":"levelo_inurba_marseille","lat":43.29247,"lon":5.38441,"is_reserved":false,"is_disabled":false,"rental_uris":{"android":"levelo://app?vid=a92fa0eb-942e-4e5f-b30c-cb5ee305b076","ios":"levelo://app?vid=a92fa0eb-942e-4e5f-b30c-cb5ee305b076"},"vehicle_type_id":"4","last_reported":1737760092,"current_range_meters":32400,"station_id":"ce4bh692rcd13ifvqea0","pricing_plan_id":"cebpf4jnsgd1na2vs0mg"},{"bike_id":"28147011-c67e-40a5-ada1-04f84de86554","system_id":"levelo_inurba_marseille","lat":43.31366,"lon":5.38505,"is_reserved":false,"is_disabled":false,"rental_uris":{"android":"levelo://app?vid=28147011-c67e-40a5-ada1-04f84de86554","ios":"levelo://app?vid=28147011-c67e-40a5-ada1-04f84de86554"},"vehicle_type_id":"4","last_reported":1737760092,"current_range_meters":38800,"station_id":"ce4bgt92rcd13ifvqcf0","pricing_plan_id":"cebpf4jnsgd1na2vs0mg"},{"bike_id":"1caf7243-b0f0-4484-919a-c8dcf048623a","system_id":"levelo_inurba_marseille","lat":43.23203,"lon":5.40015,"is_reserved":false,"is_disabled":false,"rental_uris":{"android":"levelo://app?vid=1caf7243-b0f0-4484-919a-c8dcf048623a","ios":"levelo://app?vid=1caf7243-b0f0-4484-919a-c8dcf048623a"},"vehicle_type_id":"4","last_reported":1737760092,"current_range_meters":12400,"station_id":"ce4bhn12rcd13ifvqgqg","pricing_plan_id":"cebpf4jnsgd1na2vs0mg"},{"bike_id":"8fd07e85-a454-4c1f-a811-21f58b09ae7d","system_id":"levelo_inurba_marseille","lat":43.28336,"lon":5.38105,"is_reserved":false,"is_disabled":false,"rental_uris":{"android":"levelo://app?vid=8fd07e85-a454-4c1f-a811-21f58b09ae7d","ios":"levelo://app?vid=8fd07e85-a454-4c1f-a811-21f58b09ae7d"},"vehicle_type_id":"4","last_reported":1737760092,"current_range_meters":38000,"station_id":"ce4bh412rcd13ifvqdr0","pricing_plan_id":"cebpf4jnsgd1na2vs0mg"},{"bike_id":"bd695487-0cf2-4eef-a51b-fe93246efbd0","system_id":"levelo_inurba_marseille","lat":43.26492,"lon":5.39561,"is_reserved":false,"is_disabled":false,"rental_uris":{"android":"levelo://app?vid=bd695487-0cf2-4eef-a51b-fe93246efbd0","ios":"levelo://app?vid=bd695487-0cf2-4eef-a51b-fe93246efbd0"},"vehicle_type_id":"4","last_reported":1737760092,"current_range_meters":39200,"station_id":"ce4bhi12rcd13ifvqfq0","pricing_plan_id":"cebpf4jnsgd1na2vs0mg"},{"bike_id":"c39ca458-0c9e-4f52-a635-3c7100fb01a9","system_id":"levelo_inurba_marseille","lat":43.30886,"lon":5.39638,"is_reserved":false,"is_disabled":false,"rental_uris":{"android":"levelo://app?vid=c39ca458-0c9e-4f52-a635-3c7100fb01a9","ios":"levelo://app?vid=c39ca458-0c9e-4f52-a635-3c7100fb01a9"},"vehicle_type_id":"4","last_reported":1737760092,"current_range_meters":32400,"station_id":"ce4bh012rcd13ifvqcv0","pricing_plan_id":"cebpf4jnsgd1na2vs0mg"},{"bike_id":"51c3b1a6-c5c6-4d24-9def-8186fdad8596","system_id":"levelo_inurba_marseille","lat":43.27091,"lon":5.42285,"is_reserved":false,"is_disabled":false,"rental_uris":{"android":"levelo://app?vid=51c3b1a6-c5c6-4d24-9def-8186fdad8596","ios":"levelo://app?vid=51c3b1a6-c5c6-4d24-9def-8186fdad8596"},"vehicle_type_id":"4","last_reported":1737760092,"current_range_meters":12800,"station_id":"ce4bhk92rcd13ifvqgb0","pricing_plan_id":"cebpf4jnsgd1na2vs0mg"},{"bike_id":"e6fed224-e420-4150-9f76-4b1a14407d3e","system_id":"levelo_inurba_marseille","lat":43.24176,"lon":5.36445,"is_reserved":false,"is_disabled":false,"rental_uris":{"android":"levelo://app?vid=e6fed224-e420-4150-9f76-4b1a14407d3e","ios":"levelo://app?vid=e6fed224-e420-4150-9f76-4b1a14407d3e"},"vehicle_type_id":"4","last_reported":1737760092,"current_range_meters":38800,"station_id":"cpo36qri1sfpv3e86is0","pricing_plan_id":"cebpf4jnsgd1na2vs0mg"},{"bike_id":"c276da85-c857-4b0d-8792-c2826228a14c","system_id":"levelo_inurba_marseille","lat":43.23992,"lon":5.3667,"is_reserved":false,"is_disabled":false,"rental_uris":{"android":"levelo://app?vid=c276da85-c857-4b0d-8792-c2826228a14c","ios":"levelo://app?vid=c276da85-c857-4b0d-8792-c2826228a14c"},"vehicle_type_id":"4","last_reported":1737760092,"current_range_meters":28400,"station_id":"","pricing_plan_id":"cebpf4jnsgd1na2vs0mg"},{"bike_id":"2068ce80-1659-42b4-945e-19e0e5710b37","system_id":"levelo_inurba_marseille","lat":43.297,"lon":5.365996,"is_reserved":false,"is_disabled":true,"rental_uris":{"android":"levelo://app?vid=2068ce80-1659-42b4-945e-19e0e5710b37","ios":"levelo://app?vid=2068ce80-1659-42b4-945e-19e0e5710b37"},"vehicle_type_id":"4","last_reported":1737760092,"current_range_meters":36400,"station_id":"ce4bgn12rcd13ifvqbt0","pricing_plan_id":"cebpf4jnsgd1na2vs0mg"},{"bike_id":"867d41e1-ec2e-4484-a31e-d471983f0ab7","system_id":"levelo_inurba_marseille","lat":43.33338,"lon":5.39988,"is_reserved":false,"is_disabled":false,"rental_uris":{"android":"levelo://app?vid=867d41e1-ec2e-4484-a31e-d471983f0ab7","ios":"levelo://app?vid=867d41e1-ec2e-4484-a31e-d471983f0ab7"},"vehicle_type_id":"4","last_reported":1737760092,"current_range_meters":16800,"station_id":"","pricing_plan_id":"cebpf4jnsgd1na2vs0mg"},{"bike_id":"0f00ba1e-5308-418a-981c-a71dfc8175a2","system_id":"levelo_inurba_marseille","lat":43.29877,"lon":5.39732,"is_reserved":false,"is_disabled":false,"rental_uris":{"android":"levelo://app?vid=0f00ba1e-5308-418a-981c-a71dfc8175a2","ios":"levelo://app?vid=0f00ba1e-5308-418a-981c-a71dfc8175a2"},"vehicle_type_id":"4","last_reported":1737760092,"current_range_meters":30800,"station_id":"ce4bh0h2rcd13ifvqd50","pricing_plan_id":"cebpf4jnsgd1na2vs0mg"},{"bike_id":"e84f6a72-894f-48e8-8eb1-244ae57ee71b","system_id":"levelo_inurba_marseille","lat":43.3116,"lon":5.38709,"is_reserved":false,"is_disabled":false,"rental_uris":{"android":"levelo://app?vid=e84f6a72-894f-48e8-8eb1-244ae57ee71b","ios":"levelo://app?vid=e84f6a72-894f-48e8-8eb1-244ae57ee71b"},"vehicle_type_id":"4","last_reported":1737760092,"current_range_meters":27200,"station_id":"ce4bgv12rcd13ifvqcp0","pricing_plan_id":"cebpf4jnsgd1na2vs0mg"},{"bike_id":"96150ead-5a0f-4aab-a150-26f0c34bd23b","system_id":"levelo_inurba_marseille","lat":43.31362,"lon":5.38501,"is_reserved":false,"is_disabled":false,"rental_uris":{"android":"levelo://app?vid=96150ead-5a0f-4aab-a150-26f0c34bd23b","ios":"levelo://app?vid=96150ead-5a0f-4aab-a150-26f0c34bd23b"},"vehicle_type_id":"4","last_reported":1737760092,"current_range_meters":37600,"station_id":"ce4bgt92rcd13ifvqcf0","pricing_plan_id":"cebpf4jnsgd1na2vs0mg"},{"bike_id":"5f051731-48c9-4289-a0fa-e19a22e6eee4","system_id":"levelo_inurba_marseille","lat":43.29253,"lon":5.38442,"is_reserved":false,"is_disabled":false,"rental_uris":{"android":"levelo://app?vid=5f051731-48c9-4289-a0fa-e19a22e6eee4","ios":"levelo://app?vid=5f051731-48c9-4289-a0fa-e19a22e6eee4"},"vehicle_type_id":"4","last_reported":1737760092,"current_range_meters":38800,"station_id":"ce4bh692rcd13ifvqea0","pricing_plan_id":"cebpf4jnsgd1na2vs0mg"},{"bike_id":"2590ad91-0151-4d17-8620-88aeaed152e1","system_id":"levelo_inurba_marseille","lat":43.30014,"lon":5.37192,"is_reserved":false,"is_disabled":true,"rental_uris":{"android":"levelo://app?vid=2590ad91-0151-4d17-8620-88aeaed152e1","ios":"levelo://app?vid=2590ad91-0151-4d17-8620-88aeaed152e1"},"vehicle_type_id":"4","last_reported":1737760092,"current_range_meters":36400,"station_id":"ce4bgr92rcd13ifvqc7g","pricing_plan_id":"cebpf4jnsgd1na2vs0mg"},{"bike_id":"66d1346f-013f-4af1-a701-1a936ff46a00","system_id":"levelo_inurba_marseille","lat":43.31704,"lon":5.37775,"is_reserved":false,"is_disabled":false,"rental_uris":{"android":"levelo://app?vid=66d1346f-013f-4af1-a701-1a936ff46a00","ios":"levelo://app?vid=66d1346f-013f-4af1-a701-1a936ff46a00"},"vehicle_type_id":"4","last_reported":1737760092,"current_range_meters":38000,"station_id":"ce4bgth2rcd13ifvqch0","pricing_plan_id":"cebpf4jnsgd1na2vs0mg"},{"bike_id":"93f4f4e4-86dd-44c9-bedb-dcbdace9162d","system_id":"levelo_inurba_marseille","lat":43.23187,"lon":5.39999,"is_reserved":false,"is_disabled":false,"rental_uris":{"android":"levelo://app?vid=93f4f4e4-86dd-44c9-bedb-dcbdace9162d","ios":"levelo://app?vid=93f4f4e4-86dd-44c9-bedb-dcbdace9162d"},"vehicle_type_id":"4","last_reported":1737760092,"current_range_meters":39200,"station_id":"ce4bhn12rcd13ifvqgqg","pricing_plan_id":"cebpf4jnsgd1na2vs0mg"},{"bike_id":"347dd29e-9a9e-4a37-8ddd-6e2050aaff03","system_id":"levelo_inurba_marseille","lat":43.33739,"lon":5.39198,"is_reserved":false,"is_disabled":false,"rental_uris":{"android":"levelo://app?vid=347dd29e-9a9e-4a37-8ddd-6e2050aaff03","ios":"levelo://app?vid=347dd29e-9a9e-4a37-8ddd-6e2050aaff03"},"vehicle_type_id":"4","last_reported":1737760092,"current_range_meters":36800,"station_id":"ce4bhr92rcd13ifvqhsg","pricing_plan_id":"cebpf4jnsgd1na2vs0mg"},{"bike_id":"badee5fd-b7b4-423c-a117-af12b0d774ca","system_id":"levelo_inurba_marseille","lat":43.31761,"lon":5.42387,"is_reserved":false,"is_disabled":false,"rental_uris":{"android":"levelo://app?vid=badee5fd-b7b4-423c-a117-af12b0d774ca","ios":"levelo://app?vid=badee5fd-b7b4-423c-a117-af12b0d774ca"},"vehicle_type_id":"4","last_reported":1737760092,"current_range_meters":39200,"station_id":"ce4bhp92rcd13ifvqhbg","pricing_plan_id":"cebpf4jnsgd1na2vs0mg"},{"bike_id":"1cb6eeda-e4e2-4e2b-bc5f-eb917324ab36","system_id":"levelo_inurba_marseille","lat":43.28367,"lon":5.38646,"is_reserved":false,"is_disabled":false,"rental_uris":{"android":"levelo://app?vid=1cb6eeda-e4e2-4e2b-bc5f-eb917324ab36","ios":"levelo://app?vid=1cb6eeda-e4e2-4e2b-bc5f-eb917324ab36"},"vehicle_type_id":"4","last_reported":1737760092,"current_range_meters":7200,"station_id":"ce4bh492rcd13ifvqdvg","pricing_plan_id":"cebpf4jnsgd1na2vs0mg"},{"bike_id":"689b4df9-0021-47af-92a3-26488e05e7a0","system_id":"levelo_inurba_marseille","lat":43.291965,"lon":5.358004,"is_reserved":false,"is_disabled":false,"rental_uris":{"android":"levelo://app?vid=689b4df9-0021-47af-92a3-26488e05e7a0","ios":"levelo://app?vid=689b4df9-0021-47af-92a3-26488e05e7a0"},"vehicle_type_id":"4","last_reported":1737760092,"current_range_meters":38000,"station_id":"ce4bhb12rcd13ifvqel0","pricing_plan_id":"cebpf4jnsgd1na2vs0mg"},{"bike_id":"078fec27-0171-4e07-8b6d-d1216ddff393","system_id":"levelo_inurba_marseille","lat":43.25527,"lon":5.37687,"is_reserved":false,"is_disabled":false,"rental_uris":{"android":"levelo://app?vid=078fec27-0171-4e07-8b6d-d1216ddff393","ios":"levelo://app?vid=078fec27-0171-4e07-8b6d-d1216ddff393"},"vehicle_type_id":"4","last_reported":1737760092,"current_range_meters":39200,"station_id":"ce4bhh12rcd13ifvqff0","pricing_plan_id":"cebpf4jnsgd1na2vs0mg"},{"bike_id":"553c88e4-3463-4f6a-bb1e-80a67e7529a6","system_id":"levelo_inurba_marseille","lat":43.29035,"lon":5.38623,"is_reserved":false,"is_disabled":false,"rental_uris":{"android":"levelo://app?vid=553c88e4-3463-4f6a-bb1e-80a67e7529a6","ios":"levelo://app?vid=553c88e4-3463-4f6a-bb1e-80a67e7529a6"},"vehicle_type_id":"4","last_reported":1737760092,"current_range_meters":30400,"station_id":"ce4bh4p2rcd13ifvqe0g","pricing_plan_id":"cebpf4jnsgd1na2vs0mg"},{"bike_id":"90b8a1b1-ad54-458d-9362-f5197bbdf048","system_id":"levelo_inurba_marseille","lat":43.2297,"lon":5.35399,"is_reserved":false,"is_disabled":false,"rental_uris":{"android":"levelo://app?vid=90b8a1b1-ad54-458d-9362-f5197bbdf048","ios":"levelo://app?vid=90b8a1b1-ad54-458d-9362-f5197bbdf048"},"vehicle_type_id":"4","last_reported":1737760092,"current_range_meters":38800,"station_id":"cpo3532slgdg3j2ikp40","pricing_plan_id":"cebpf4jnsgd1na2vs0mg"},{"bike_id":"7da50f07-38d9-468b-8e2c-04df74955810","system_id":"levelo_inurba_marseille","lat":43.29587,"lon":5.42269,"is_reserved":false,"is_disabled":false,"rental_uris":{"android":"levelo://app?vid=7da50f07-38d9-468b-8e2c-04df74955810","ios":"levelo://app?vid=7da50f07-38d9-468b-8e2c-04df74955810"},"vehicle_type_id":"4","last_reported":1737760092,"current_range_meters":28800,"station_id":"ce4bhph2rcd13ifvqhdg","pricing_plan_id":"cebpf4jnsgd1na2vs0mg"},{"bike_id":"8c0db246-d933-44a9-99dc-c3e44e3c75e7","system_id":"levelo_inurba_marseille","lat":43.30389,"lon":5.37694,"is_reserved":false,"is_disabled":false,"rental_uris":{"android":"levelo://app?vid=8c0db246-d933-44a9-99dc-c3e44e3c75e7","ios":"levelo://app?vid=8c0db246-d933-44a9-99dc-c3e44e3c75e7"},"vehicle_type_id":"4","last_reported":1737760092,"current_range_meters":38800,"station_id":"ce4bguh2rcd13ifvqcj0","pricing_plan_id":"cebpf4jnsgd1na2vs0mg"},{"bike_id":"7e23d8f0-5e9e-43fa-b638-7cccf897d1e9","system_id":"levelo_inurba_marseille","lat":43.29567,"lon":5.38531,"is_reserved":false,"is_disabled":false,"rental_uris":{"android":"levelo://app?vid=7e23d8f0-5e9e-43fa-b638-7cccf897d1e9","ios":"levelo://app?vid=7e23d8f0-5e9e-43fa-b638-7cccf897d1e9"},"vehicle_type_id":"4","last_reported":1737760092,"current_range_meters":19600,"station_id":"ce4bgih2rcd13ifvqba0","pricing_plan_id":"cebpf4jnsgd1na2vs0mg"},{"bike_id":"f4b60626-05b7-4b59-90c0-9ca9f07724cd","system_id":"levelo_inurba_marseille","lat":43.30879,"lon":5.39638,"is_reserved":false,"is_disabled":false,"rental_uris":{"android":"levelo://app?vid=f4b60626-05b7-4b59-90c0-9ca9f07724cd","ios":"levelo://app?vid=f4b60626-05b7-4b59-90c0-9ca9f07724cd"},"vehicle_type_id":"4","last_reported":1737760092,"current_range_meters":38800,"station_id":"ce4bh012rcd13ifvqcv0","pricing_plan_id":"cebpf4jnsgd1na2vs0mg"},{"bike_id":"e8f2d415-5e0c-49a6-949b-8f463defe2c2","system_id":"levelo_inurba_marseille","lat":43.29033,"lon":5.38642,"is_reserved":false,"is_disabled":true,"rental_uris":{"android":"levelo://app?vid=e8f2d415-5e0c-49a6-949b-8f463defe2c2","ios":"levelo://app?vid=e8f2d415-5e0c-49a6-949b-8f463defe2c2"},"vehicle_type_id":"4","last_reported":1737760092,"current_range_meters":400,"station_id":"","pricing_plan_id":"cebpf4jnsgd1na2vs0mg"},{"bike_id":"cef97fa9-08c9-4024-990f-56b8df014a7c","system_id":"levelo_inurba_marseille","lat":43.28725,"lon":5.38704,"is_reserved":false,"is_disabled":false,"rental_uris":{"android":"levelo://app?vid=cef97fa9-08c9-4024-990f-56b8df014a7c","ios":"levelo://app?vid=cef97fa9-08c9-4024-990f-56b8df014a7c"},"vehicle_type_id":"4","last_reported":1737760092,"current_range_meters":6000,"station_id":"","pricing_plan_id":"cebpf4jnsgd1na2vs0mg"},{"bike_id":"33ec549d-ccc0-4a6e-8634-adb1b6cfa83e","system_id":"levelo_inurba_marseille","lat":43.29505,"lon":5.3863,"is_reserved":false,"is_disabled":false,"rental_uris":{"android":"levelo://app?vid=33ec549d-ccc0-4a6e-8634-adb1b6cfa83e","ios":"levelo://app?vid=33ec549d-ccc0-4a6e-8634-adb1b6cfa83e"},"vehicle_type_id":"4","last_reported":1737760092,"current_range_meters":26000,"station_id":"","pricing_plan_id":"cebpf4jnsgd1na2vs0mg"},{"bike_id":"2379a823-fdeb-40da-be6e-d8af4799bc36","system_id":"levelo_inurba_marseille","lat":43.3034,"lon":5.40448,"is_reserved":false,"is_disabled":false,"rental_uris":{"android":"levelo://app?vid=2379a823-fdeb-40da-be6e-d8af4799bc36","ios":"levelo://app?vid=2379a823-fdeb-40da-be6e-d8af4799bc36"},"vehicle_type_id":"4","last_reported":1737760092,"current_range_meters":38000,"station_id":"ce4bh012rcd13ifvqd10","pricing_plan_id":"cebpf4jnsgd1na2vs0mg"},{"bike_id":"cd2a4c81-944c-45cd-ad92-4381608c75f0","system_id":"levelo_inurba_marseille","lat":43.23226,"lon":5.35566,"is_reserved":false,"is_disabled":false,"rental_uris":{"android":"levelo://app?vid=cd2a4c81-944c-45cd-ad92-4381608c75f0","ios":"levelo://app?vid=cd2a4c81-944c-45cd-ad92-4381608c75f0"},"vehicle_type_id":"4","last_reported":1737760092,"current_range_meters":9200,"station_id":"ce4bhu92rcd13ifvqi70","pricing_plan_id":"cebpf4jnsgd1na2vs0mg"},{"bike_id":"d9f0ede1-f087-42de-9d9d-25d4f226ee66","system_id":"levelo_inurba_marseille","lat":43.29043,"lon":5.38618,"is_reserved":false,"is_disabled":false,"rental_uris":{"android":"levelo://app?vid=d9f0ede1-f087-42de-9d9d-25d4f226ee66","ios":"levelo://app?vid=d9f0ede1-f087-42de-9d9d-25d4f226ee66"},"vehicle_type_id":"4","last_reported":1737760092,"current_range_meters":36800,"station_id":"ce4bh4p2rcd13ifvqe0g","pricing_plan_id":"cebpf4jnsgd1na2vs0mg"},{"bike_id":"511d1395-9b6a-4365-982c-ba6fd9ed2253","system_id":"levelo_inurba_marseille","lat":43.2919,"lon":5.38195,"is_reserved":false,"is_disabled":false,"rental_uris":{"android":"levelo://app?vid=511d1395-9b6a-4365-982c-ba6fd9ed2253","ios":"levelo://app?vid=511d1395-9b6a-4365-982c-ba6fd9ed2253"},"vehicle_type_id":"4","last_reported":1737760092,"current_range_meters":24800,"station_id":"","pricing_plan_id":"cebpf4jnsgd1na2vs0mg"},{"bike_id":"902d935f-56e3-4089-8db4-756af2e3e866","system_id":"levelo_inurba_marseille","lat":43.27948,"lon":5.4105,"is_reserved":false,"is_disabled":false,"rental_uris":{"android":"levelo://app?vid=902d935f-56e3-4089-8db4-756af2e3e866","ios":"levelo://app?vid=902d935f-56e3-4089-8db4-756af2e3e866"},"vehicle_type_id":"4","last_reported":1737760092,"current_range_meters":38800,"station_id":"ce4bhnp2rcd13ifvqh0g","pricing_plan_id":"cebpf4jnsgd1na2vs0mg"},{"bike_id":"a1378522-9377-4a0e-9d51-418700010289","system_id":"levelo_inurba_marseille","lat":43.31482,"lon":5.37304,"is_reserved":false,"is_disabled":false,"rental_uris":{"android":"levelo://app?vid=a1378522-9377-4a0e-9d51-418700010289","ios":"levelo://app?vid=a1378522-9377-4a0e-9d51-418700010289"},"vehicle_type_id":"4","last_reported":1737760092,"current_range_meters":34000,"station_id":"ce4bgt12rcd13ifvqcd0","pricing_plan_id":"cebpf4jnsgd1na2vs0mg"},{"bike_id":"8609669b-68c7-4651-8463-8b069e6b3840","system_id":"levelo_inurba_marseille","lat":43.3203,"lon":5.38139,"is_reserved":false,"is_disabled":false,"rental_uris":{"android":"levelo://app?vid=8609669b-68c7-4651-8463-8b069e6b3840","ios":"levelo://app?vid=8609669b-68c7-4651-8463-8b069e6b3840"},"vehicle_type_id":"4","last_reported":1737760092,"current_range_meters":37600,"station_id":"ce4bhr12rcd13ifvqhpg","pricing_plan_id":"cebpf4jnsgd1na2vs0mg"},{"bike_id":"dabad150-600b-4273-9d4a-f2cb97af39fc","system_id":"levelo_inurba_marseille","lat":43.24664,"lon":5.38846,"is_reserved":false,"is_disabled":false,"rental_uris":{"android":"levelo://app?vid=dabad150-600b-4273-9d4a-f2cb97af39fc","ios":"levelo://app?vid=dabad150-600b-4273-9d4a-f2cb97af39fc"},"vehicle_type_id":"4","last_reported":1737760092,"current_range_meters":35600,"station_id":"ce4bhg12rcd13ifvqf60","pricing_plan_id":"cebpf4jnsgd1na2vs0mg"},{"bike_id":"047cc11c-8ce2-462f-baa2-dda5e91a5383","system_id":"levelo_inurba_marseille","lat":43.29228,"lon":5.36075,"is_reserved":false,"is_disabled":false,"rental_uris":{"android":"levelo://app?vid=047cc11c-8ce2-462f-baa2-dda5e91a5383","ios":"levelo://app?vid=047cc11c-8ce2-462f-baa2-dda5e91a5383"},"vehicle_type_id":"4","last_reported":1737760092,"current_range_meters":14800,"station_id":"ce4bhbh2rcd13ifvqeqg","pricing_plan_id":"cebpf4jnsgd1na2vs0mg"},{"bike_id":"9dc39e20-36a6-4ade-8e04-4a01462345d9","system_id":"levelo_inurba_marseille","lat":43.31328,"lon":5.39687,"is_reserved":false,"is_disabled":false,"rental_uris":{"android":"levelo://app?vid=9dc39e20-36a6-4ade-8e04-4a01462345d9","ios":"levelo://app?vid=9dc39e20-36a6-4ade-8e04-4a01462345d9"},"vehicle_type_id":"4","last_reported":1737760092,"current_range_meters":35600,"station_id":"ce4bgvp2rcd13ifvqcu0","pricing_plan_id":"cebpf4jnsgd1na2vs0mg"},{"bike_id":"9bc94aa5-031f-43df-abb1-7903d4e49c77","system_id":"levelo_inurba_marseille","lat":43.28477,"lon":5.38417,"is_reserved":false,"is_disabled":false,"rental_uris":{"android":"levelo://app?vid=9bc94aa5-031f-43df-abb1-7903d4e49c77","ios":"levelo://app?vid=9bc94aa5-031f-43df-abb1-7903d4e49c77"},"vehicle_type_id":"4","last_reported":1737760092,"current_range_meters":19600,"station_id":"ce4bh512rcd13ifvqe3g","pricing_plan_id":"cebpf4jnsgd1na2vs0mg"},{"bike_id":"7300d36d-c4ab-4280-8550-68b033a4d615","system_id":"levelo_inurba_marseille","lat":43.2962,"lon":5.38142,"is_reserved":false,"is_disabled":false,"rental_uris":{"android":"levelo://app?vid=7300d36d-c4ab-4280-8550-68b033a4d615","ios":"levelo://app?vid=7300d36d-c4ab-4280-8550-68b033a4d615"},"vehicle_type_id":"4","last_reported":1737760092,"current_range_meters":39200,"station_id":"ce4bgl12rcd13ifvqbo0","pricing_plan_id":"cebpf4jnsgd1na2vs0mg"},{"bike_id":"39fa9923-4b7f-4a73-a7b2-7be0207cdafe","system_id":"levelo_inurba_marseille","lat":43.30291,"lon":5.40067,"is_reserved":false,"is_disabled":false,"rental_uris":{"android":"levelo://app?vid=39fa9923-4b7f-4a73-a7b2-7be0207cdafe","ios":"levelo://app?vid=39fa9923-4b7f-4a73-a7b2-7be0207cdafe"},"vehicle_type_id":"4","last_reported":1737760092,"current_range_meters":28000,"station_id":"ce4bgvh2rcd13ifvqcs0","pricing_plan_id":"cebpf4jnsgd1na2vs0mg"},{"bike_id":"91ab050e-b3b7-4908-bcb0-2dd6a4c2d548","system_id":"levelo_inurba_marseille","lat":43.28967,"lon":5.36657,"is_reserved":false,"is_disabled":false,"rental_uris":{"android":"levelo://app?vid=91ab050e-b3b7-4908-bcb0-2dd6a4c2d548","ios":"levelo://app?vid=91ab050e-b3b7-4908-bcb0-2dd6a4c2d548"},"vehicle_type_id":"4","last_reported":1737760092,"current_range_meters":24800,"station_id":"ce4bhap2rcd13ifvqek0","pricing_plan_id":"cebpf4jnsgd1na2vs0mg"},{"bike_id":"1c35c755-8b1c-439e-8798-f1a001a3969d","system_id":"levelo_inurba_marseille","lat":43.28103,"lon":5.3786,"is_reserved":false,"is_disabled":true,"rental_uris":{"android":"levelo://app?vid=1c35c755-8b1c-439e-8798-f1a001a3969d","ios":"levelo://app?vid=1c35c755-8b1c-439e-8798-f1a001a3969d"},"vehicle_type_id":"4","last_reported":1737760092,"current_range_meters":400,"station_id":"ce4bha12rcd13ifvqee0","pricing_plan_id":"cebpf4jnsgd1na2vs0mg"},{"bike_id":"c425264b-f06d-4006-8cf2-8dc867d9adfd","system_id":"levelo_inurba_marseille","lat":43.31607,"lon":5.38348,"is_reserved":false,"is_disabled":false,"rental_uris":{"android":"levelo://app?vid=c425264b-f06d-4006-8cf2-8dc867d9adfd","ios":"levelo://app?vid=c425264b-f06d-4006-8cf2-8dc867d9adfd"},"vehicle_type_id":"4","last_reported":1737760092,"current_range_meters":9600,"station_id":"","pricing_plan_id":"cebpf4jnsgd1na2vs0mg"},{"bike_id":"d56c115f-6df7-4f94-ac43-1d7eeda28b91","system_id":"levelo_inurba_marseille","lat":43.32361,"lon":5.40629,"is_reserved":false,"is_disabled":false,"rental_uris":{"android":"levelo://app?vid=d56c115f-6df7-4f94-ac43-1d7eeda28b91","ios":"levelo://app?vid=d56c115f-6df7-4f94-ac43-1d7eeda28b91"},"vehicle_type_id":"4","last_reported":1737760092,"current_range_meters":34800,"station_id":"ce4bhq92rcd13ifvqhjg","pricing_plan_id":"cebpf4jnsgd1na2vs0mg"},{"bike_id":"bce09769-02dc-489a-bcd7-84421f3b354f","system_id":"levelo_inurba_marseille","lat":43.32364,"lon":5.38886,"is_reserved":false,"is_disabled":false,"rental_uris":{"android":"levelo://app?vid=bce09769-02dc-489a-bcd7-84421f3b354f","ios":"levelo://app?vid=bce09769-02dc-489a-bcd7-84421f3b354f"},"vehicle_type_id":"4","last_reported":1737760092,"current_range_meters":20800,"station_id":"ce4bhqp2rcd13ifvqhog","pricing_plan_id":"cebpf4jnsgd1na2vs0mg"},{"bike_id":"c19baa75-cdfe-4af5-9ca7-73dcc8769b44","system_id":"levelo_inurba_marseille","lat":43.29182,"lon":5.39339,"is_reserved":false,"is_disabled":false,"rental_uris":{"android":"levelo://app?vid=c19baa75-cdfe-4af5-9ca7-73dcc8769b44","ios":"levelo://app?vid=c19baa75-cdfe-4af5-9ca7-73dcc8769b44"},"vehicle_type_id":"4","last_reported":1737760092,"current_range_meters":27200,"station_id":"ce4bh192rcd13ifvqdd0","pricing_plan_id":"cebpf4jnsgd1na2vs0mg"},{"bike_id":"47d2de13-afdb-4d27-86fb-30f47a86ca41","system_id":"levelo_inurba_marseille","lat":43.29541,"lon":5.37439,"is_reserved":false,"is_disabled":false,"rental_uris":{"android":"levelo://app?vid=47d2de13-afdb-4d27-86fb-30f47a86ca41","ios":"levelo://app?vid=47d2de13-afdb-4d27-86fb-30f47a86ca41"},"vehicle_type_id":"4","last_reported":1737760092,"current_range_meters":23200,"station_id":"","pricing_plan_id":"cebpf4jnsgd1na2vs0mg"},{"bike_id":"0fe552b3-93b3-4b45-b472-145b4509c8ff","system_id":"levelo_inurba_marseille","lat":43.27379,"lon":5.36267,"is_reserved":false,"is_disabled":false,"rental_uris":{"android":"levelo://app?vid=0fe552b3-93b3-4b45-b472-145b4509c8ff","ios":"levelo://app?vid=0fe552b3-93b3-4b45-b472-145b4509c8ff"},"vehicle_type_id":"4","last_reported":1737760092,"current_range_meters":35200,"station_id":"ce4bhbh2rcd13ifvqeo0","pricing_plan_id":"cebpf4jnsgd1na2vs0mg"},{"bike_id":"d06e4858-1735-4dcf-9f21-bf859f4d029b","system_id":"levelo_inurba_marseille","lat":43.28163,"lon":5.4263,"is_reserved":false,"is_disabled":false,"rental_uris":{"android":"levelo://app?vid=d06e4858-1735-4dcf-9f21-bf859f4d029b","ios":"levelo://app?vid=d06e4858-1735-4dcf-9f21-bf859f4d029b"},"vehicle_type_id":"4","last_reported":1737760092,"current_range_meters":38800,"station_id":"ce4bhnh2rcd13ifvqgug","pricing_plan_id":"cebpf4jnsgd1na2vs0mg"},{"bike_id":"dddde718-b5f0-4247-9093-917256745d04","system_id":"levelo_inurba_marseille","lat":43.2552,"lon":5.37641,"is_reserved":false,"is_disabled":false,"rental_uris":{"android":"levelo://app?vid=dddde718-b5f0-4247-9093-917256745d04","ios":"levelo://app?vid=dddde718-b5f0-4247-9093-917256745d04"},"vehicle_type_id":"4","last_reported":1737760092,"current_range_meters":39200,"station_id":"ce4bhh12rcd13ifvqff0","pricing_plan_id":"cebpf4jnsgd1na2vs0mg"},{"bike_id":"7f95d492-e5fe-47a9-9496-ce67e4d5c2e7","system_id":"levelo_inurba_marseille","lat":43.31747,"lon":5.39023,"is_reserved":false,"is_disabled":false,"rental_uris":{"android":"levelo://app?vid=7f95d492-e5fe-47a9-9496-ce67e4d5c2e7","ios":"levelo://app?vid=7f95d492-e5fe-47a9-9496-ce67e4d5c2e7"},"vehicle_type_id":"4","last_reported":1737760092,"current_range_meters":38800,"station_id":"ce4bhqp2rcd13ifvqhng","pricing_plan_id":"cebpf4jnsgd1na2vs0mg"},{"bike_id":"61df6208-7c8d-4faf-b087-b4cb2a715156","system_id":"levelo_inurba_marseille","lat":43.32011,"lon":5.38152,"is_reserved":false,"is_disabled":false,"rental_uris":{"android":"levelo://app?vid=61df6208-7c8d-4faf-b087-b4cb2a715156","ios":"levelo://app?vid=61df6208-7c8d-4faf-b087-b4cb2a715156"},"vehicle_type_id":"4","last_reported":1737760092,"current_range_meters":38800,"station_id":"ce4bhr12rcd13ifvqhpg","pricing_plan_id":"cebpf4jnsgd1na2vs0mg"},{"bike_id":"876caf81-20df-4ac2-8d02-2f62a9133e00","system_id":"levelo_inurba_marseille","lat":43.29271,"lon":5.38437,"is_reserved":false,"is_disabled":false,"rental_uris":{"android":"levelo://app?vid=876caf81-20df-4ac2-8d02-2f62a9133e00","ios":"levelo://app?vid=876caf81-20df-4ac2-8d02-2f62a9133e00"},"vehicle_type_id":"4","last_reported":1737760092,"current_range_meters":26800,"station_id":"ce4bh692rcd13ifvqea0","pricing_plan_id":"cebpf4jnsgd1na2vs0mg"},{"bike_id":"1a8ae368-7abe-4003-b093-3ea0bcfe3058","system_id":"levelo_inurba_marseille","lat":43.25503,"lon":5.37648,"is_reserved":false,"is_disabled":false,"rental_uris":{"android":"levelo://app?vid=1a8ae368-7abe-4003-b093-3ea0bcfe3058","ios":"levelo://app?vid=1a8ae368-7abe-4003-b093-3ea0bcfe3058"},"vehicle_type_id":"4","last_reported":1737760092,"current_range_meters":21600,"station_id":"ce4bhh12rcd13ifvqff0","pricing_plan_id":"cebpf4jnsgd1na2vs0mg"},{"bike_id":"354a0ed3-542c-4648-b29a-783f2de4680e","system_id":"levelo_inurba_marseille","lat":43.27691,"lon":5.38979,"is_reserved":false,"is_disabled":true,"rental_uris":{"android":"levelo://app?vid=354a0ed3-542c-4648-b29a-783f2de4680e","ios":"levelo://app?vid=354a0ed3-542c-4648-b29a-783f2de4680e"},"vehicle_type_id":"4","last_reported":1737760092,"current_range_meters":35600,"station_id":"ce4bhi12rcd13ifvqfo0","pricing_plan_id":"cebpf4jnsgd1na2vs0mg"},{"bike_id":"2a5bcd00-b034-49cb-a2cf-bc894e4bfe17","system_id":"levelo_inurba_marseille","lat":43.29249,"lon":5.38441,"is_reserved":false,"is_disabled":false,"rental_uris":{"android":"levelo://app?vid=2a5bcd00-b034-49cb-a2cf-bc894e4bfe17","ios":"levelo://app?vid=2a5bcd00-b034-49cb-a2cf-bc894e4bfe17"},"vehicle_type_id":"4","last_reported":1737760092,"current_range_meters":37600,"station_id":"ce4bh692rcd13ifvqea0","pricing_plan_id":"cebpf4jnsgd1na2vs0mg"},{"bike_id":"37c1cbd9-e650-4d47-9e6e-e5f4f6e5a41c","system_id":"levelo_inurba_marseille","lat":43.29003,"lon":5.37886,"is_reserved":false,"is_disabled":false,"rental_uris":{"android":"levelo://app?vid=37c1cbd9-e650-4d47-9e6e-e5f4f6e5a41c","ios":"levelo://app?vid=37c1cbd9-e650-4d47-9e6e-e5f4f6e5a41c"},"vehicle_type_id":"4","last_reported":1737760092,"current_range_meters":38800,"station_id":"ce4bh9p2rcd13ifvqed0","pricing_plan_id":"cebpf4jnsgd1na2vs0mg"},{"bike_id":"13ffeea6-4e88-4273-a218-3c5d61ae6af5","system_id":"levelo_inurba_marseille","lat":43.32068,"lon":5.36881,"is_reserved":false,"is_disabled":false,"rental_uris":{"android":"levelo://app?vid=13ffeea6-4e88-4273-a218-3c5d61ae6af5","ios":"levelo://app?vid=13ffeea6-4e88-4273-a218-3c5d61ae6af5"},"vehicle_type_id":"4","last_reported":1737760092,"current_range_meters":36000,"station_id":"ce4bhrh2rcd13ifvqhug","pricing_plan_id":"cebpf4jnsgd1na2vs0mg"},{"bike_id":"42889cd8-831e-4149-b72d-1bad167a9fca","system_id":"levelo_inurba_marseille","lat":43.296623,"lon":5.378052,"is_reserved":false,"is_disabled":false,"rental_uris":{"android":"levelo://app?vid=42889cd8-831e-4149-b72d-1bad167a9fca","ios":"levelo://app?vid=42889cd8-831e-4149-b72d-1bad167a9fca"},"vehicle_type_id":"4","last_reported":1737760092,"current_range_meters":14000,"station_id":"ce4bguh2rcd13ifvqckg","pricing_plan_id":"cebpf4jnsgd1na2vs0mg"},{"bike_id":"1f44e95f-3630-44f5-95f7-bde5eaabdcda","system_id":"levelo_inurba_marseille","lat":43.2792,"lon":5.39579,"is_reserved":false,"is_disabled":false,"rental_uris":{"android":"levelo://app?vid=1f44e95f-3630-44f5-95f7-bde5eaabdcda","ios":"levelo://app?vid=1f44e95f-3630-44f5-95f7-bde5eaabdcda"},"vehicle_type_id":"4","last_reported":1737760092,"current_range_meters":27600,"station_id":"ce4bhf92rcd13ifvqf40","pricing_plan_id":"cebpf4jnsgd1na2vs0mg"},{"bike_id":"f7056aa3-3530-4d26-9d7f-58e06b1fd1ad","system_id":"levelo_inurba_marseille","lat":43.29374,"lon":5.37868,"is_reserved":false,"is_disabled":true,"rental_uris":{"android":"levelo://app?vid=f7056aa3-3530-4d26-9d7f-58e06b1fd1ad","ios":"levelo://app?vid=f7056aa3-3530-4d26-9d7f-58e06b1fd1ad"},"vehicle_type_id":"4","last_reported":1737760092,"current_range_meters":36400,"station_id":"ce4bgjh2rcd13ifvqbf0","pricing_plan_id":"cebpf4jnsgd1na2vs0mg"},{"bike_id":"980c02c2-9503-4369-8686-9bce9678a308","system_id":"levelo_inurba_marseille","lat":43.29535,"lon":5.38552,"is_reserved":false,"is_disabled":false,"rental_uris":{"android":"levelo://app?vid=980c02c2-9503-4369-8686-9bce9678a308","ios":"levelo://app?vid=980c02c2-9503-4369-8686-9bce9678a308"},"vehicle_type_id":"4","last_reported":1737760092,"current_range_meters":17200,"station_id":"ce4bgih2rcd13ifvqba0","pricing_plan_id":"cebpf4jnsgd1na2vs0mg"},{"bike_id":"aa703b52-e664-4f8f-b3e7-cf52df8d6b25","system_id":"levelo_inurba_marseille","lat":43.29857,"lon":5.42088,"is_reserved":false,"is_disabled":false,"rental_uris":{"android":"levelo://app?vid=aa703b52-e664-4f8f-b3e7-cf52df8d6b25","ios":"levelo://app?vid=aa703b52-e664-4f8f-b3e7-cf52df8d6b25"},"vehicle_type_id":"4","last_reported":1737760092,"current_range_meters":32400,"station_id":"","pricing_plan_id":"cebpf4jnsgd1na2vs0mg"},{"bike_id":"afea86d0-c540-40e6-902d-9f55c8e116f2","system_id":"levelo_inurba_marseille","lat":43.25733,"lon":5.41059,"is_reserved":false,"is_disabled":false,"rental_uris":{"android":"levelo://app?vid=afea86d0-c540-40e6-902d-9f55c8e116f2","ios":"levelo://app?vid=afea86d0-c540-40e6-902d-9f55c8e116f2"},"vehicle_type_id":"4","last_reported":1737760092,"current_range_meters":11600,"station_id":"ce4bhkp2rcd13ifvqgd0","pricing_plan_id":"cebpf4jnsgd1na2vs0mg"},{"bike_id":"7163b50e-f30c-4d07-817b-00137a631fae","system_id":"levelo_inurba_marseille","lat":43.28705,"lon":5.39989,"is_reserved":false,"is_disabled":false,"rental_uris":{"android":"levelo://app?vid=7163b50e-f30c-4d07-817b-00137a631fae","ios":"levelo://app?vid=7163b50e-f30c-4d07-817b-00137a631fae"},"vehicle_type_id":"4","last_reported":1737760092,"current_range_meters":38000,"station_id":"ce4bho92rcd13ifvqh3g","pricing_plan_id":"cebpf4jnsgd1na2vs0mg"},{"bike_id":"5d0ced69-255e-410b-9398-708d471fa8b7","system_id":"levelo_inurba_marseille","lat":43.30321,"lon":5.39204,"is_reserved":false,"is_disabled":true,"rental_uris":{"android":"levelo://app?vid=5d0ced69-255e-410b-9398-708d471fa8b7","ios":"levelo://app?vid=5d0ced69-255e-410b-9398-708d471fa8b7"},"vehicle_type_id":"4","last_reported":1737760092,"current_range_meters":33600,"station_id":"ce4bgkh2rcd13ifvqbk0","pricing_plan_id":"cebpf4jnsgd1na2vs0mg"},{"bike_id":"35614ed7-a0df-4792-bca2-a1978fcd9fab","system_id":"levelo_inurba_marseille","lat":43.3084,"lon":5.43539,"is_reserved":false,"is_disabled":false,"rental_uris":{"android":"levelo://app?vid=35614ed7-a0df-4792-bca2-a1978fcd9fab","ios":"levelo://app?vid=35614ed7-a0df-4792-bca2-a1978fcd9fab"},"vehicle_type_id":"4","last_reported":1737760092,"current_range_meters":37600,"station_id":"ce4bhph2rcd13ifvqheg","pricing_plan_id":"cebpf4jnsgd1na2vs0mg"},{"bike_id":"0a47cc67-c469-4817-a15f-e9e426a6aa36","system_id":"levelo_inurba_marseille","lat":43.302182,"lon":5.387155,"is_reserved":false,"is_disabled":false,"rental_uris":{"android":"levelo://app?vid=0a47cc67-c469-4817-a15f-e9e426a6aa36","ios":"levelo://app?vid=0a47cc67-c469-4817-a15f-e9e426a6aa36"},"vehicle_type_id":"4","last_reported":1737760092,"current_range_meters":32400,"station_id":"","pricing_plan_id":"cebpf4jnsgd1na2vs0mg"},{"bike_id":"cf8c7e27-74f5-4c0e-a6bf-d3a8c61957ec","system_id":"levelo_inurba_marseille","lat":43.30937,"lon":5.40143,"is_reserved":false,"is_disabled":false,"rental_uris":{"android":"levelo://app?vid=cf8c7e27-74f5-4c0e-a6bf-d3a8c61957ec","ios":"levelo://app?vid=cf8c7e27-74f5-4c0e-a6bf-d3a8c61957ec"},"vehicle_type_id":"4","last_reported":1737760092,"current_range_meters":28000,"station_id":"ce4bgvp2rcd13ifvqct0","pricing_plan_id":"cebpf4jnsgd1na2vs0mg"},{"bike_id":"32c04320-9ec2-428b-9cd1-b5914294d434","system_id":"levelo_inurba_marseille","lat":43.28426,"lon":5.3868,"is_reserved":false,"is_disabled":false,"rental_uris":{"android":"levelo://app?vid=32c04320-9ec2-428b-9cd1-b5914294d434","ios":"levelo://app?vid=32c04320-9ec2-428b-9cd1-b5914294d434"},"vehicle_type_id":"4","last_reported":1737760092,"current_range_meters":38800,"station_id":"ce4bh492rcd13ifvqdvg","pricing_plan_id":"cebpf4jnsgd1na2vs0mg"},{"bike_id":"d2cb21d3-cc32-48d3-b773-800826051dd6","system_id":"levelo_inurba_marseille","lat":43.33026,"lon":5.39064,"is_reserved":false,"is_disabled":false,"rental_uris":{"android":"levelo://app?vid=d2cb21d3-cc32-48d3-b773-800826051dd6","ios":"levelo://app?vid=d2cb21d3-cc32-48d3-b773-800826051dd6"},"vehicle_type_id":"4","last_reported":1737760092,"current_range_meters":38800,"station_id":"ce4bhr92rcd13ifvqhrg","pricing_plan_id":"cebpf4jnsgd1na2vs0mg"},{"bike_id":"614069de-aa6c-4682-bdb4-b697111c134b","system_id":"levelo_inurba_marseille","lat":43.32325,"lon":5.38287,"is_reserved":false,"is_disabled":false,"rental_uris":{"android":"levelo://app?vid=614069de-aa6c-4682-bdb4-b697111c134b","ios":"levelo://app?vid=614069de-aa6c-4682-bdb4-b697111c134b"},"vehicle_type_id":"4","last_reported":1737760092,"current_range_meters":16400,"station_id":"ce4bhr12rcd13ifvqhqg","pricing_plan_id":"cebpf4jnsgd1na2vs0mg"},{"bike_id":"e5b309f5-c5da-44b1-a5a4-64dd7c407c92","system_id":"levelo_inurba_marseille","lat":43.29966,"lon":5.38494,"is_reserved":false,"is_disabled":false,"rental_uris":{"android":"levelo://app?vid=e5b309f5-c5da-44b1-a5a4-64dd7c407c92","ios":"levelo://app?vid=e5b309f5-c5da-44b1-a5a4-64dd7c407c92"},"vehicle_type_id":"4","last_reported":1737760092,"current_range_meters":37600,"station_id":"ce4bgj92rcd13ifvqbd0","pricing_plan_id":"cebpf4jnsgd1na2vs0mg"},{"bike_id":"1751fce2-cf09-42c4-909f-331d932110c8","system_id":"levelo_inurba_marseille","lat":43.30882,"lon":5.39633,"is_reserved":false,"is_disabled":true,"rental_uris":{"android":"levelo://app?vid=1751fce2-cf09-42c4-909f-331d932110c8","ios":"levelo://app?vid=1751fce2-cf09-42c4-909f-331d932110c8"},"vehicle_type_id":"4","last_reported":1737760092,"current_range_meters":22000,"station_id":"ce4bh012rcd13ifvqcv0","pricing_plan_id":"cebpf4jnsgd1na2vs0mg"},{"bike_id":"bd985015-f87a-41f4-a867-d400948c1f14","system_id":"levelo_inurba_marseille","lat":43.28676,"lon":5.38754,"is_reserved":false,"is_disabled":false,"rental_uris":{"android":"levelo://app?vid=bd985015-f87a-41f4-a867-d400948c1f14","ios":"levelo://app?vid=bd985015-f87a-41f4-a867-d400948c1f14"},"vehicle_type_id":"4","last_reported":1737760092,"current_range_meters":14400,"station_id":"ce4bh492rcd13ifvqdug","pricing_plan_id":"cebpf4jnsgd1na2vs0mg"},{"bike_id":"9338641b-a8d4-42f9-8e4d-1cdd8c9b5fa2","system_id":"levelo_inurba_marseille","lat":43.29408,"lon":5.38561,"is_reserved":false,"is_disabled":false,"rental_uris":{"android":"levelo://app?vid=9338641b-a8d4-42f9-8e4d-1cdd8c9b5fa2","ios":"levelo://app?vid=9338641b-a8d4-42f9-8e4d-1cdd8c9b5fa2"},"vehicle_type_id":"4","last_reported":1737760092,"current_range_meters":18800,"station_id":"ce4bh2h2rcd13ifvqdh0","pricing_plan_id":"cebpf4jnsgd1na2vs0mg"},{"bike_id":"fc840760-c6d7-47de-9420-cc3f4b7608bc","system_id":"levelo_inurba_marseille","lat":43.32355,"lon":5.36745,"is_reserved":false,"is_disabled":false,"rental_uris":{"android":"levelo://app?vid=fc840760-c6d7-47de-9420-cc3f4b7608bc","ios":"levelo://app?vid=fc840760-c6d7-47de-9420-cc3f4b7608bc"},"vehicle_type_id":"4","last_reported":1737760092,"current_range_meters":22800,"station_id":"ce4bhsh2rcd13ifvqi2g","pricing_plan_id":"cebpf4jnsgd1na2vs0mg"},{"bike_id":"c8088add-af24-409c-b609-0d62e4e43103","system_id":"levelo_inurba_marseille","lat":43.28702,"lon":5.37378,"is_reserved":false,"is_disabled":false,"rental_uris":{"android":"levelo://app?vid=c8088add-af24-409c-b609-0d62e4e43103","ios":"levelo://app?vid=c8088add-af24-409c-b609-0d62e4e43103"},"vehicle_type_id":"4","last_reported":1737760092,"current_range_meters":38400,"station_id":"ce4bh3p2rcd13ifvqdq0","pricing_plan_id":"cebpf4jnsgd1na2vs0mg"},{"bike_id":"94b987b4-9c8b-44e3-8df2-cd031ef2e189","system_id":"levelo_inurba_marseille","lat":43.31194,"lon":5.38715,"is_reserved":false,"is_disabled":false,"rental_uris":{"android":"levelo://app?vid=94b987b4-9c8b-44e3-8df2-cd031ef2e189","ios":"levelo://app?vid=94b987b4-9c8b-44e3-8df2-cd031ef2e189"},"vehicle_type_id":"4","last_reported":1737760092,"current_range_meters":39200,"station_id":"ce4bgv12rcd13ifvqcp0","pricing_plan_id":"cebpf4jnsgd1na2vs0mg"},{"bike_id":"4ed5e353-be30-4d65-83bf-bb705af4b953","system_id":"levelo_inurba_marseille","lat":43.31363,"lon":5.38489,"is_reserved":false,"is_disabled":false,"rental_uris":{"android":"levelo://app?vid=4ed5e353-be30-4d65-83bf-bb705af4b953","ios":"levelo://app?vid=4ed5e353-be30-4d65-83bf-bb705af4b953"},"vehicle_type_id":"4","last_reported":1737760092,"current_range_meters":27600,"station_id":"ce4bgt92rcd13ifvqcf0","pricing_plan_id":"cebpf4jnsgd1na2vs0mg"},{"bike_id":"5520acac-23cd-40c8-991a-f632417c7932","system_id":"levelo_inurba_marseille","lat":43.30164,"lon":5.3986,"is_reserved":false,"is_disabled":false,"rental_uris":{"android":"levelo://app?vid=5520acac-23cd-40c8-991a-f632417c7932","ios":"levelo://app?vid=5520acac-23cd-40c8-991a-f632417c7932"},"vehicle_type_id":"4","last_reported":1737760092,"current_range_meters":24800,"station_id":"ce4bh0h2rcd13ifvqd40","pricing_plan_id":"cebpf4jnsgd1na2vs0mg"},{"bike_id":"ea624404-124a-4128-9041-089ad79942c5","system_id":"levelo_inurba_marseille","lat":43.29552,"lon":5.42294,"is_reserved":false,"is_disabled":false,"rental_uris":{"android":"levelo://app?vid=ea624404-124a-4128-9041-089ad79942c5","ios":"levelo://app?vid=ea624404-124a-4128-9041-089ad79942c5"},"vehicle_type_id":"4","last_reported":1737760092,"current_range_meters":30800,"station_id":"ce4bhph2rcd13ifvqhdg","pricing_plan_id":"cebpf4jnsgd1na2vs0mg"},{"bike_id":"9863b7f9-4316-4322-9f6c-3cc66b0448e2","system_id":"levelo_inurba_marseille","lat":43.279439,"lon":5.389008,"is_reserved":false,"is_disabled":true,"rental_uris":{"android":"levelo://app?vid=9863b7f9-4316-4322-9f6c-3cc66b0448e2","ios":"levelo://app?vid=9863b7f9-4316-4322-9f6c-3cc66b0448e2"},"vehicle_type_id":"4","last_reported":1737760092,"current_range_meters":18000,"station_id":"","pricing_plan_id":"cebpf4jnsgd1na2vs0mg"},{"bike_id":"47659e02-b2c1-43e0-aaa2-4f93257545d4","system_id":"levelo_inurba_marseille","lat":43.29556,"lon":5.42294,"is_reserved":false,"is_disabled":false,"rental_uris":{"android":"levelo://app?vid=47659e02-b2c1-43e0-aaa2-4f93257545d4","ios":"levelo://app?vid=47659e02-b2c1-43e0-aaa2-4f93257545d4"},"vehicle_type_id":"4","last_reported":1737760092,"current_range_meters":26000,"station_id":"ce4bhph2rcd13ifvqhdg","pricing_plan_id":"cebpf4jnsgd1na2vs0mg"},{"bike_id":"99dbffeb-1c5a-4dd9-965e-fb4860ebb73e","system_id":"levelo_inurba_marseille","lat":43.30783,"lon":5.38164,"is_reserved":false,"is_disabled":false,"rental_uris":{"android":"levelo://app?vid=99dbffeb-1c5a-4dd9-965e-fb4860ebb73e","ios":"levelo://app?vid=99dbffeb-1c5a-4dd9-965e-fb4860ebb73e"},"vehicle_type_id":"4","last_reported":1737760092,"current_range_meters":38400,"station_id":"ce4bgt12rcd13ifvqce0","pricing_plan_id":"cebpf4jnsgd1na2vs0mg"},{"bike_id":"6f020587-81b6-4a98-b339-f9e2d0b47b14","system_id":"levelo_inurba_marseille","lat":43.27074,"lon":5.42289,"is_reserved":false,"is_disabled":false,"rental_uris":{"android":"levelo://app?vid=6f020587-81b6-4a98-b339-f9e2d0b47b14","ios":"levelo://app?vid=6f020587-81b6-4a98-b339-f9e2d0b47b14"},"vehicle_type_id":"4","last_reported":1737760092,"current_range_meters":20400,"station_id":"ce4bhk92rcd13ifvqgb0","pricing_plan_id":"cebpf4jnsgd1na2vs0mg"},{"bike_id":"40276c2b-c10e-42ab-857d-43e7ecb22cd6","system_id":"levelo_inurba_marseille","lat":43.27186,"lon":5.40998,"is_reserved":false,"is_disabled":false,"rental_uris":{"android":"levelo://app?vid=40276c2b-c10e-42ab-857d-43e7ecb22cd6","ios":"levelo://app?vid=40276c2b-c10e-42ab-857d-43e7ecb22cd6"},"vehicle_type_id":"4","last_reported":1737760092,"current_range_meters":36000,"station_id":"ce4bhl12rcd13ifvqgf0","pricing_plan_id":"cebpf4jnsgd1na2vs0mg"},{"bike_id":"e30fe586-d52a-489f-8e54-564b5d80c32a","system_id":"levelo_inurba_marseille","lat":43.28957,"lon":5.36406,"is_reserved":false,"is_disabled":false,"rental_uris":{"android":"levelo://app?vid=e30fe586-d52a-489f-8e54-564b5d80c32a","ios":"levelo://app?vid=e30fe586-d52a-489f-8e54-564b5d80c32a"},"vehicle_type_id":"4","last_reported":1737760092,"current_range_meters":38800,"station_id":"ce4bhc92rcd13ifvqetg","pricing_plan_id":"cebpf4jnsgd1na2vs0mg"},{"bike_id":"0661138c-ae09-4831-a5ca-b52ad2ea4fd6","system_id":"levelo_inurba_marseille","lat":43.309268,"lon":5.372747,"is_reserved":false,"is_disabled":false,"rental_uris":{"android":"levelo://app?vid=0661138c-ae09-4831-a5ca-b52ad2ea4fd6","ios":"levelo://app?vid=0661138c-ae09-4831-a5ca-b52ad2ea4fd6"},"vehicle_type_id":"4","last_reported":1737760092,"current_range_meters":10800,"station_id":"","pricing_plan_id":"cebpf4jnsgd1na2vs0mg"},{"bike_id":"6479d66e-e16c-433e-b0b6-48c8dce016f8","system_id":"levelo_inurba_marseille","lat":43.25499,"lon":5.37649,"is_reserved":false,"is_disabled":true,"rental_uris":{"android":"levelo://app?vid=6479d66e-e16c-433e-b0b6-48c8dce016f8","ios":"levelo://app?vid=6479d66e-e16c-433e-b0b6-48c8dce016f8"},"vehicle_type_id":"4","last_reported":1737760092,"current_range_meters":0,"station_id":"ce4bhh12rcd13ifvqff0","pricing_plan_id":"cebpf4jnsgd1na2vs0mg"},{"bike_id":"e98ec1dd-adaf-4e0e-af68-ec43b71cc3c5","system_id":"levelo_inurba_marseille","lat":43.29272,"lon":5.38449,"is_reserved":false,"is_disabled":false,"rental_uris":{"android":"levelo://app?vid=e98ec1dd-adaf-4e0e-af68-ec43b71cc3c5","ios":"levelo://app?vid=e98ec1dd-adaf-4e0e-af68-ec43b71cc3c5"},"vehicle_type_id":"4","last_reported":1737760092,"current_range_meters":16800,"station_id":"ce4bh692rcd13ifvqea0","pricing_plan_id":"cebpf4jnsgd1na2vs0mg"},{"bike_id":"96a5ba19-7ae2-4716-a9f8-ba830f39508c","system_id":"levelo_inurba_marseille","lat":43.29666,"lon":5.38121,"is_reserved":false,"is_disabled":false,"rental_uris":{"android":"levelo://app?vid=96a5ba19-7ae2-4716-a9f8-ba830f39508c","ios":"levelo://app?vid=96a5ba19-7ae2-4716-a9f8-ba830f39508c"},"vehicle_type_id":"4","last_reported":1737760092,"current_range_meters":31200,"station_id":"ce4bgl12rcd13ifvqbo0","pricing_plan_id":"cebpf4jnsgd1na2vs0mg"},{"bike_id":"25de2542-1bfa-4339-b5e3-b1aa2e18e3bf","system_id":"levelo_inurba_marseille","lat":43.32345,"lon":5.40612,"is_reserved":false,"is_disabled":false,"rental_uris":{"android":"levelo://app?vid=25de2542-1bfa-4339-b5e3-b1aa2e18e3bf","ios":"levelo://app?vid=25de2542-1bfa-4339-b5e3-b1aa2e18e3bf"},"vehicle_type_id":"4","last_reported":1737760092,"current_range_meters":20400,"station_id":"ce4bhq92rcd13ifvqhjg","pricing_plan_id":"cebpf4jnsgd1na2vs0mg"},{"bike_id":"cb34c09d-75c7-4b86-a04f-10301f39ae15","system_id":"levelo_inurba_marseille","lat":43.28705,"lon":5.40032,"is_reserved":false,"is_disabled":false,"rental_uris":{"android":"levelo://app?vid=cb34c09d-75c7-4b86-a04f-10301f39ae15","ios":"levelo://app?vid=cb34c09d-75c7-4b86-a04f-10301f39ae15"},"vehicle_type_id":"4","last_reported":1737760092,"current_range_meters":24400,"station_id":"ce4bho92rcd13ifvqh3g","pricing_plan_id":"cebpf4jnsgd1na2vs0mg"},{"bike_id":"f716f6a9-70e6-40ef-9b05-f7a8de90bad0","system_id":"levelo_inurba_marseille","lat":43.2695,"lon":5.38883,"is_reserved":false,"is_disabled":false,"rental_uris":{"android":"levelo://app?vid=f716f6a9-70e6-40ef-9b05-f7a8de90bad0","ios":"levelo://app?vid=f716f6a9-70e6-40ef-9b05-f7a8de90bad0"},"vehicle_type_id":"4","last_reported":1737760092,"current_range_meters":31200,"station_id":"ce4bhhh2rcd13ifvqfl0","pricing_plan_id":"cebpf4jnsgd1na2vs0mg"},{"bike_id":"2e95c2f9-54ee-4f43-9ca5-c70c6253eaff","system_id":"levelo_inurba_marseille","lat":43.2978,"lon":5.40413,"is_reserved":false,"is_disabled":false,"rental_uris":{"android":"levelo://app?vid=2e95c2f9-54ee-4f43-9ca5-c70c6253eaff","ios":"levelo://app?vid=2e95c2f9-54ee-4f43-9ca5-c70c6253eaff"},"vehicle_type_id":"4","last_reported":1737760092,"current_range_meters":38000,"station_id":"ce4bh112rcd13ifvqd90","pricing_plan_id":"cebpf4jnsgd1na2vs0mg"},{"bike_id":"63b8162a-35b2-4e10-b91a-30e5c42129fe","system_id":"levelo_inurba_marseille","lat":43.2924,"lon":5.38444,"is_reserved":false,"is_disabled":false,"rental_uris":{"android":"levelo://app?vid=63b8162a-35b2-4e10-b91a-30e5c42129fe","ios":"levelo://app?vid=63b8162a-35b2-4e10-b91a-30e5c42129fe"},"vehicle_type_id":"4","last_reported":1737760092,"current_range_meters":13600,"station_id":"ce4bh692rcd13ifvqea0","pricing_plan_id":"cebpf4jnsgd1na2vs0mg"},{"bike_id":"994af511-ccca-488a-8537-a60db72ca6b4","system_id":"levelo_inurba_marseille","lat":43.28871,"lon":5.3586,"is_reserved":false,"is_disabled":false,"rental_uris":{"android":"levelo://app?vid=994af511-ccca-488a-8537-a60db72ca6b4","ios":"levelo://app?vid=994af511-ccca-488a-8537-a60db72ca6b4"},"vehicle_type_id":"4","last_reported":1737760092,"current_range_meters":6400,"station_id":"ce4bhb12rcd13ifvqem0","pricing_plan_id":"cebpf4jnsgd1na2vs0mg"},{"bike_id":"7745a6de-bd40-49ed-850a-fc3694c0d379","system_id":"levelo_inurba_marseille","lat":43.29037,"lon":5.359,"is_reserved":false,"is_disabled":false,"rental_uris":{"android":"levelo://app?vid=7745a6de-bd40-49ed-850a-fc3694c0d379","ios":"levelo://app?vid=7745a6de-bd40-49ed-850a-fc3694c0d379"},"vehicle_type_id":"4","last_reported":1737760092,"current_range_meters":33200,"station_id":"ce4bha92rcd13ifvqeg0","pricing_plan_id":"cebpf4jnsgd1na2vs0mg"},{"bike_id":"6f0e28ce-024f-4cd7-923a-80deb29961a7","system_id":"levelo_inurba_marseille","lat":43.33033,"lon":5.39053,"is_reserved":false,"is_disabled":false,"rental_uris":{"android":"levelo://app?vid=6f0e28ce-024f-4cd7-923a-80deb29961a7","ios":"levelo://app?vid=6f0e28ce-024f-4cd7-923a-80deb29961a7"},"vehicle_type_id":"4","last_reported":1737760092,"current_range_meters":38800,"station_id":"ce4bhr92rcd13ifvqhrg","pricing_plan_id":"cebpf4jnsgd1na2vs0mg"},{"bike_id":"babf13c5-ccd3-470c-a818-292095f665e7","system_id":"levelo_inurba_marseille","lat":43.29706,"lon":5.36596,"is_reserved":false,"is_disabled":false,"rental_uris":{"android":"levelo://app?vid=babf13c5-ccd3-470c-a818-292095f665e7","ios":"levelo://app?vid=babf13c5-ccd3-470c-a818-292095f665e7"},"vehicle_type_id":"4","last_reported":1737760092,"current_range_meters":39200,"station_id":"ce4bgn12rcd13ifvqbt0","pricing_plan_id":"cebpf4jnsgd1na2vs0mg"},{"bike_id":"40b6cda8-6873-488f-a704-cb2c98a39960","system_id":"levelo_inurba_marseille","lat":43.28105,"lon":5.39623,"is_reserved":false,"is_disabled":false,"rental_uris":{"android":"levelo://app?vid=40b6cda8-6873-488f-a704-cb2c98a39960","ios":"levelo://app?vid=40b6cda8-6873-488f-a704-cb2c98a39960"},"vehicle_type_id":"4","last_reported":1737760092,"current_range_meters":37600,"station_id":"ce4bho12rcd13ifvqh2g","pricing_plan_id":"cebpf4jnsgd1na2vs0mg"},{"bike_id":"7c78a755-c7f5-4f07-a96b-621451d47948","system_id":"levelo_inurba_marseille","lat":43.29927,"lon":5.43689,"is_reserved":false,"is_disabled":false,"rental_uris":{"android":"levelo://app?vid=7c78a755-c7f5-4f07-a96b-621451d47948","ios":"levelo://app?vid=7c78a755-c7f5-4f07-a96b-621451d47948"},"vehicle_type_id":"4","last_reported":1737760092,"current_range_meters":38000,"station_id":"ce4bhpp2rcd13ifvqhfg","pricing_plan_id":"cebpf4jnsgd1na2vs0mg"},{"bike_id":"a062ecb7-c16c-4371-9288-a3a3561ee8b2","system_id":"levelo_inurba_marseille","lat":43.28721,"lon":5.37399,"is_reserved":false,"is_disabled":false,"rental_uris":{"android":"levelo://app?vid=a062ecb7-c16c-4371-9288-a3a3561ee8b2","ios":"levelo://app?vid=a062ecb7-c16c-4371-9288-a3a3561ee8b2"},"vehicle_type_id":"4","last_reported":1737760092,"current_range_meters":37600,"station_id":"ce4bh3p2rcd13ifvqdq0","pricing_plan_id":"cebpf4jnsgd1na2vs0mg"},{"bike_id":"816aa826-5ae6-4851-821c-832d952a2ba5","system_id":"levelo_inurba_marseille","lat":43.28956,"lon":5.36402,"is_reserved":false,"is_disabled":false,"rental_uris":{"android":"levelo://app?vid=816aa826-5ae6-4851-821c-832d952a2ba5","ios":"levelo://app?vid=816aa826-5ae6-4851-821c-832d952a2ba5"},"vehicle_type_id":"4","last_reported":1737760092,"current_range_meters":36400,"station_id":"ce4bhc92rcd13ifvqetg","pricing_plan_id":"cebpf4jnsgd1na2vs0mg"},{"bike_id":"deb56519-5bd3-433f-8520-373bde6a2970","system_id":"levelo_inurba_marseille","lat":43.29538,"lon":5.38549,"is_reserved":false,"is_disabled":false,"rental_uris":{"android":"levelo://app?vid=deb56519-5bd3-433f-8520-373bde6a2970","ios":"levelo://app?vid=deb56519-5bd3-433f-8520-373bde6a2970"},"vehicle_type_id":"4","last_reported":1737760092,"current_range_meters":33600,"station_id":"ce4bgih2rcd13ifvqba0","pricing_plan_id":"cebpf4jnsgd1na2vs0mg"},{"bike_id":"c684b9d5-9a12-4dc6-ba48-800452ba3471","system_id":"levelo_inurba_marseille","lat":43.31278,"lon":5.40178,"is_reserved":false,"is_disabled":false,"rental_uris":{"android":"levelo://app?vid=c684b9d5-9a12-4dc6-ba48-800452ba3471","ios":"levelo://app?vid=c684b9d5-9a12-4dc6-ba48-800452ba3471"},"vehicle_type_id":"4","last_reported":1737760092,"current_range_meters":27600,"station_id":"ce4bh092rcd13ifvqd30","pricing_plan_id":"cebpf4jnsgd1na2vs0mg"},{"bike_id":"3330f026-8ad6-4e14-a5cd-4b9e97a67a00","system_id":"levelo_inurba_marseille","lat":43.28865,"lon":5.3586,"is_reserved":false,"is_disabled":false,"rental_uris":{"android":"levelo://app?vid=3330f026-8ad6-4e14-a5cd-4b9e97a67a00","ios":"levelo://app?vid=3330f026-8ad6-4e14-a5cd-4b9e97a67a00"},"vehicle_type_id":"4","last_reported":1737760092,"current_range_meters":38000,"station_id":"ce4bhb12rcd13ifvqem0","pricing_plan_id":"cebpf4jnsgd1na2vs0mg"},{"bike_id":"fb10f928-73e1-402c-bda3-9dbab7b9d96f","system_id":"levelo_inurba_marseille","lat":43.29413,"lon":5.38619,"is_reserved":false,"is_disabled":false,"rental_uris":{"android":"levelo://app?vid=fb10f928-73e1-402c-bda3-9dbab7b9d96f","ios":"levelo://app?vid=fb10f928-73e1-402c-bda3-9dbab7b9d96f"},"vehicle_type_id":"4","last_reported":1737760092,"current_range_meters":16000,"station_id":"ce4bh2h2rcd13ifvqdh0","pricing_plan_id":"cebpf4jnsgd1na2vs0mg"},{"bike_id":"e6144616-07f5-4c03-a1a3-4500e9f15267","system_id":"levelo_inurba_marseille","lat":43.28705,"lon":5.36095,"is_reserved":false,"is_disabled":false,"rental_uris":{"android":"levelo://app?vid=e6144616-07f5-4c03-a1a3-4500e9f15267","ios":"levelo://app?vid=e6144616-07f5-4c03-a1a3-4500e9f15267"},"vehicle_type_id":"4","last_reported":1737760092,"current_range_meters":39200,"station_id":"cki0cbj6b192h4jlfktg","pricing_plan_id":"cebpf4jnsgd1na2vs0mg"},{"bike_id":"2907288b-88ed-4841-bcbf-ac3690171867","system_id":"levelo_inurba_marseille","lat":43.29538,"lon":5.38534,"is_reserved":false,"is_disabled":false,"rental_uris":{"android":"levelo://app?vid=2907288b-88ed-4841-bcbf-ac3690171867","ios":"levelo://app?vid=2907288b-88ed-4841-bcbf-ac3690171867"},"vehicle_type_id":"4","last_reported":1737760092,"current_range_meters":35600,"station_id":"ce4bgih2rcd13ifvqba0","pricing_plan_id":"cebpf4jnsgd1na2vs0mg"},{"bike_id":"e0c98710-5fb4-4db7-9792-ea351c919a24","system_id":"levelo_inurba_marseille","lat":43.2893,"lon":5.39621,"is_reserved":false,"is_disabled":false,"rental_uris":{"android":"levelo://app?vid=e0c98710-5fb4-4db7-9792-ea351c919a24","ios":"levelo://app?vid=e0c98710-5fb4-4db7-9792-ea351c919a24"},"vehicle_type_id":"4","last_reported":1737760092,"current_range_meters":38800,"station_id":"ce4bh3h2rcd13ifvqdn0","pricing_plan_id":"cebpf4jnsgd1na2vs0mg"},{"bike_id":"27e9eb13-1e5a-4bd0-8331-3345530224d2","system_id":"levelo_inurba_marseille","lat":43.28694,"lon":5.38679,"is_reserved":false,"is_disabled":false,"rental_uris":{"android":"levelo://app?vid=27e9eb13-1e5a-4bd0-8331-3345530224d2","ios":"levelo://app?vid=27e9eb13-1e5a-4bd0-8331-3345530224d2"},"vehicle_type_id":"4","last_reported":1737760092,"current_range_meters":38800,"station_id":"ce4bh492rcd13ifvqdug","pricing_plan_id":"cebpf4jnsgd1na2vs0mg"},{"bike_id":"1f2bd8a0-3ae2-4aa9-823c-a0a7750c5221","system_id":"levelo_inurba_marseille","lat":43.24603,"lon":5.39608,"is_reserved":false,"is_disabled":false,"rental_uris":{"android":"levelo://app?vid=1f2bd8a0-3ae2-4aa9-823c-a0a7750c5221","ios":"levelo://app?vid=1f2bd8a0-3ae2-4aa9-823c-a0a7750c5221"},"vehicle_type_id":"4","last_reported":1737760092,"current_range_meters":38800,"station_id":"","pricing_plan_id":"cebpf4jnsgd1na2vs0mg"},{"bike_id":"b83e9459-d765-4411-b2cb-244f1a3fc9bd","system_id":"levelo_inurba_marseille","lat":43.27214,"lon":5.39205,"is_reserved":false,"is_disabled":false,"rental_uris":{"android":"levelo://app?vid=b83e9459-d765-4411-b2cb-244f1a3fc9bd","ios":"levelo://app?vid=b83e9459-d765-4411-b2cb-244f1a3fc9bd"},"vehicle_type_id":"4","last_reported":1737760092,"current_range_meters":36400,"station_id":"ce4bhhp2rcd13ifvqfm0","pricing_plan_id":"cebpf4jnsgd1na2vs0mg"},{"bike_id":"a7ab555b-eb0a-418b-8f80-74584e92411f","system_id":"levelo_inurba_marseille","lat":43.31761,"lon":5.39019,"is_reserved":false,"is_disabled":false,"rental_uris":{"android":"levelo://app?vid=a7ab555b-eb0a-418b-8f80-74584e92411f","ios":"levelo://app?vid=a7ab555b-eb0a-418b-8f80-74584e92411f"},"vehicle_type_id":"4","last_reported":1737760092,"current_range_meters":38800,"station_id":"ce4bhqp2rcd13ifvqhng","pricing_plan_id":"cebpf4jnsgd1na2vs0mg"},{"bike_id":"c0b27dca-7c46-4ae2-bd35-d9a2116baeae","system_id":"levelo_inurba_marseille","lat":43.262054,"lon":5.374446,"is_reserved":false,"is_disabled":false,"rental_uris":{"android":"levelo://app?vid=c0b27dca-7c46-4ae2-bd35-d9a2116baeae","ios":"levelo://app?vid=c0b27dca-7c46-4ae2-bd35-d9a2116baeae"},"vehicle_type_id":"4","last_reported":1737760092,"current_range_meters":24400,"station_id":"ce4bhgp2rcd13ifvqfc0","pricing_plan_id":"cebpf4jnsgd1na2vs0mg"},{"bike_id":"3fd9580d-bac5-4b95-874e-e0ea8386ebe1","system_id":"levelo_inurba_marseille","lat":43.3238,"lon":5.38884,"is_reserved":false,"is_disabled":false,"rental_uris":{"android":"levelo://app?vid=3fd9580d-bac5-4b95-874e-e0ea8386ebe1","ios":"levelo://app?vid=3fd9580d-bac5-4b95-874e-e0ea8386ebe1"},"vehicle_type_id":"4","last_reported":1737760092,"current_range_meters":32400,"station_id":"ce4bhqp2rcd13ifvqhog","pricing_plan_id":"cebpf4jnsgd1na2vs0mg"},{"bike_id":"0b445e95-97f8-4598-9248-561c5d5d3139","system_id":"levelo_inurba_marseille","lat":43.30916,"lon":5.36838,"is_reserved":false,"is_disabled":false,"rental_uris":{"android":"levelo://app?vid=0b445e95-97f8-4598-9248-561c5d5d3139","ios":"levelo://app?vid=0b445e95-97f8-4598-9248-561c5d5d3139"},"vehicle_type_id":"4","last_reported":1737760092,"current_range_meters":32400,"station_id":"ce4bgn92rcd13ifvqbvg","pricing_plan_id":"cebpf4jnsgd1na2vs0mg"},{"bike_id":"9e35e062-68ce-415d-b4b2-b4ea9deeb06e","system_id":"levelo_inurba_marseille","lat":43.32306,"lon":5.38291,"is_reserved":false,"is_disabled":false,"rental_uris":{"android":"levelo://app?vid=9e35e062-68ce-415d-b4b2-b4ea9deeb06e","ios":"levelo://app?vid=9e35e062-68ce-415d-b4b2-b4ea9deeb06e"},"vehicle_type_id":"4","last_reported":1737760092,"current_range_meters":27600,"station_id":"ce4bhr12rcd13ifvqhqg","pricing_plan_id":"cebpf4jnsgd1na2vs0mg"},{"bike_id":"01fea039-79e3-4f00-9728-0d6d42858855","system_id":"levelo_inurba_marseille","lat":43.25494,"lon":5.37648,"is_reserved":false,"is_disabled":false,"rental_uris":{"android":"levelo://app?vid=01fea039-79e3-4f00-9728-0d6d42858855","ios":"levelo://app?vid=01fea039-79e3-4f00-9728-0d6d42858855"},"vehicle_type_id":"4","last_reported":1737760092,"current_range_meters":28800,"station_id":"ce4bhh12rcd13ifvqff0","pricing_plan_id":"cebpf4jnsgd1na2vs0mg"},{"bike_id":"fe3679b4-09f6-4e41-9aae-9d00892cb93e","system_id":"levelo_inurba_marseille","lat":43.2322,"lon":5.35553,"is_reserved":false,"is_disabled":false,"rental_uris":{"android":"levelo://app?vid=fe3679b4-09f6-4e41-9aae-9d00892cb93e","ios":"levelo://app?vid=fe3679b4-09f6-4e41-9aae-9d00892cb93e"},"vehicle_type_id":"4","last_reported":1737760092,"current_range_meters":16000,"station_id":"ce4bhu92rcd13ifvqi70","pricing_plan_id":"cebpf4jnsgd1na2vs0mg"},{"bike_id":"ec83d336-bb57-4f7c-9458-2f829bed741b","system_id":"levelo_inurba_marseille","lat":43.31361,"lon":5.39717,"is_reserved":false,"is_disabled":false,"rental_uris":{"android":"levelo://app?vid=ec83d336-bb57-4f7c-9458-2f829bed741b","ios":"levelo://app?vid=ec83d336-bb57-4f7c-9458-2f829bed741b"},"vehicle_type_id":"4","last_reported":1737760092,"current_range_meters":28800,"station_id":"ce4bgvp2rcd13ifvqcu0","pricing_plan_id":"cebpf4jnsgd1na2vs0mg"},{"bike_id":"bb59c75c-b10e-4c5c-b6ea-6be79d6de009","system_id":"levelo_inurba_marseille","lat":43.29262,"lon":5.38456,"is_reserved":false,"is_disabled":false,"rental_uris":{"android":"levelo://app?vid=bb59c75c-b10e-4c5c-b6ea-6be79d6de009","ios":"levelo://app?vid=bb59c75c-b10e-4c5c-b6ea-6be79d6de009"},"vehicle_type_id":"4","last_reported":1737760092,"current_range_meters":38000,"station_id":"ce4bh692rcd13ifvqea0","pricing_plan_id":"cebpf4jnsgd1na2vs0mg"},{"bike_id":"94a409f5-c725-4cec-9668-bc63f3f1fff2","system_id":"levelo_inurba_marseille","lat":43.30194,"lon":5.36647,"is_reserved":false,"is_disabled":false,"rental_uris":{"android":"levelo://app?vid=94a409f5-c725-4cec-9668-bc63f3f1fff2","ios":"levelo://app?vid=94a409f5-c725-4cec-9668-bc63f3f1fff2"},"vehicle_type_id":"4","last_reported":1737760092,"current_range_meters":36400,"station_id":"ce4bgrh2rcd13ifvqc8g","pricing_plan_id":"cebpf4jnsgd1na2vs0mg"},{"bike_id":"1fa3ed75-21f9-4b4a-a2ad-a96d5bf08b88","system_id":"levelo_inurba_marseille","lat":43.2942,"lon":5.38632,"is_reserved":false,"is_disabled":true,"rental_uris":{"android":"levelo://app?vid=1fa3ed75-21f9-4b4a-a2ad-a96d5bf08b88","ios":"levelo://app?vid=1fa3ed75-21f9-4b4a-a2ad-a96d5bf08b88"},"vehicle_type_id":"4","last_reported":1737760092,"current_range_meters":0,"station_id":"ce4bh2h2rcd13ifvqdh0","pricing_plan_id":"cebpf4jnsgd1na2vs0mg"},{"bike_id":"f1306753-0741-4054-bb1e-176ba35f7013","system_id":"levelo_inurba_marseille","lat":43.24811,"lon":5.37454,"is_reserved":false,"is_disabled":false,"rental_uris":{"android":"levelo://app?vid=f1306753-0741-4054-bb1e-176ba35f7013","ios":"levelo://app?vid=f1306753-0741-4054-bb1e-176ba35f7013"},"vehicle_type_id":"4","last_reported":1737760092,"current_range_meters":9200,"station_id":"ce4bhgh2rcd13ifvqfb0","pricing_plan_id":"cebpf4jnsgd1na2vs0mg"},{"bike_id":"52992c76-e8f1-43a9-8a4e-0d88bd811a27","system_id":"levelo_inurba_marseille","lat":43.29619,"lon":5.37181,"is_reserved":false,"is_disabled":false,"rental_uris":{"android":"levelo://app?vid=52992c76-e8f1-43a9-8a4e-0d88bd811a27","ios":"levelo://app?vid=52992c76-e8f1-43a9-8a4e-0d88bd811a27"},"vehicle_type_id":"4","last_reported":1737760092,"current_range_meters":27200,"station_id":"ce4bgnh2rcd13ifvqc0g","pricing_plan_id":"cebpf4jnsgd1na2vs0mg"},{"bike_id":"16cba4e1-cb10-44ef-b1a1-eca95385335f","system_id":"levelo_inurba_marseille","lat":43.28428,"lon":5.34997,"is_reserved":false,"is_disabled":true,"rental_uris":{"android":"levelo://app?vid=16cba4e1-cb10-44ef-b1a1-eca95385335f","ios":"levelo://app?vid=16cba4e1-cb10-44ef-b1a1-eca95385335f"},"vehicle_type_id":"4","last_reported":1737760092,"current_range_meters":19600,"station_id":"ce4bhbh2rcd13ifvqepg","pricing_plan_id":"cebpf4jnsgd1na2vs0mg"},{"bike_id":"cfdd9036-eeea-4da2-8257-dc703fa86ba2","system_id":"levelo_inurba_marseille","lat":43.27994,"lon":5.4424,"is_reserved":false,"is_disabled":false,"rental_uris":{"android":"levelo://app?vid=cfdd9036-eeea-4da2-8257-dc703fa86ba2","ios":"levelo://app?vid=cfdd9036-eeea-4da2-8257-dc703fa86ba2"},"vehicle_type_id":"4","last_reported":1737760092,"current_range_meters":20800,"station_id":"","pricing_plan_id":"cebpf4jnsgd1na2vs0mg"},{"bike_id":"ef5d2cf6-45a0-4ca6-a7ea-61e91d91db6a","system_id":"levelo_inurba_marseille","lat":43.29966,"lon":5.36548,"is_reserved":false,"is_disabled":false,"rental_uris":{"android":"levelo://app?vid=ef5d2cf6-45a0-4ca6-a7ea-61e91d91db6a","ios":"levelo://app?vid=ef5d2cf6-45a0-4ca6-a7ea-61e91d91db6a"},"vehicle_type_id":"4","last_reported":1737760092,"current_range_meters":24000,"station_id":"ce4bgm92rcd13ifvqbr0","pricing_plan_id":"cebpf4jnsgd1na2vs0mg"},{"bike_id":"b70c28ce-82e2-4049-831c-86098adafd1a","system_id":"levelo_inurba_marseille","lat":43.27318,"lon":5.39068,"is_reserved":false,"is_disabled":false,"rental_uris":{"android":"levelo://app?vid=b70c28ce-82e2-4049-831c-86098adafd1a","ios":"levelo://app?vid=b70c28ce-82e2-4049-831c-86098adafd1a"},"vehicle_type_id":"4","last_reported":1737760092,"current_range_meters":30000,"station_id":"ce4bhgp2rcd13ifvqfe0","pricing_plan_id":"cebpf4jnsgd1na2vs0mg"},{"bike_id":"cc2ff694-7157-41f3-add9-3190c75e9cf3","system_id":"levelo_inurba_marseille","lat":43.32522,"lon":5.41423,"is_reserved":false,"is_disabled":false,"rental_uris":{"android":"levelo://app?vid=cc2ff694-7157-41f3-add9-3190c75e9cf3","ios":"levelo://app?vid=cc2ff694-7157-41f3-add9-3190c75e9cf3"},"vehicle_type_id":"4","last_reported":1737760092,"current_range_meters":38000,"station_id":"ce4bhq12rcd13ifvqhhg","pricing_plan_id":"cebpf4jnsgd1na2vs0mg"},{"bike_id":"209a1569-01ac-4fff-97a7-34a29e8a68c2","system_id":"levelo_inurba_marseille","lat":43.32283,"lon":5.38263,"is_reserved":false,"is_disabled":false,"rental_uris":{"android":"levelo://app?vid=209a1569-01ac-4fff-97a7-34a29e8a68c2","ios":"levelo://app?vid=209a1569-01ac-4fff-97a7-34a29e8a68c2"},"vehicle_type_id":"4","last_reported":1737760092,"current_range_meters":39200,"station_id":"ce4bhr12rcd13ifvqhqg","pricing_plan_id":"cebpf4jnsgd1na2vs0mg"},{"bike_id":"c7cc5289-5e74-4eeb-a4be-1042ece43e7c","system_id":"levelo_inurba_marseille","lat":43.31718,"lon":5.37796,"is_reserved":false,"is_disabled":false,"rental_uris":{"android":"levelo://app?vid=c7cc5289-5e74-4eeb-a4be-1042ece43e7c","ios":"levelo://app?vid=c7cc5289-5e74-4eeb-a4be-1042ece43e7c"},"vehicle_type_id":"4","last_reported":1737760092,"current_range_meters":39200,"station_id":"ce4bgth2rcd13ifvqch0","pricing_plan_id":"cebpf4jnsgd1na2vs0mg"},{"bike_id":"3e77d708-c6c0-4217-9a0d-ceb3f916ffed","system_id":"levelo_inurba_marseille","lat":43.29412,"lon":5.38633,"is_reserved":false,"is_disabled":false,"rental_uris":{"android":"levelo://app?vid=3e77d708-c6c0-4217-9a0d-ceb3f916ffed","ios":"levelo://app?vid=3e77d708-c6c0-4217-9a0d-ceb3f916ffed"},"vehicle_type_id":"4","last_reported":1737760092,"current_range_meters":11200,"station_id":"ce4bh2h2rcd13ifvqdh0","pricing_plan_id":"cebpf4jnsgd1na2vs0mg"},{"bike_id":"45b366a6-6abc-4401-bb9e-1aee69db2cae","system_id":"levelo_inurba_marseille","lat":43.28089,"lon":5.39659,"is_reserved":false,"is_disabled":false,"rental_uris":{"android":"levelo://app?vid=45b366a6-6abc-4401-bb9e-1aee69db2cae","ios":"levelo://app?vid=45b366a6-6abc-4401-bb9e-1aee69db2cae"},"vehicle_type_id":"4","last_reported":1737760092,"current_range_meters":30400,"station_id":"ce4bho12rcd13ifvqh2g","pricing_plan_id":"cebpf4jnsgd1na2vs0mg"},{"bike_id":"cbd7ee1a-cd20-4539-8469-8bf9801b6640","system_id":"levelo_inurba_marseille","lat":43.26569,"lon":5.39727,"is_reserved":false,"is_disabled":false,"rental_uris":{"android":"levelo://app?vid=cbd7ee1a-cd20-4539-8469-8bf9801b6640","ios":"levelo://app?vid=cbd7ee1a-cd20-4539-8469-8bf9801b6640"},"vehicle_type_id":"4","last_reported":1737760092,"current_range_meters":16800,"station_id":"","pricing_plan_id":"cebpf4jnsgd1na2vs0mg"},{"bike_id":"5131c065-5635-4935-830a-3afe5524a963","system_id":"levelo_inurba_marseille","lat":43.31284,"lon":5.40174,"is_reserved":false,"is_disabled":false,"rental_uris":{"android":"levelo://app?vid=5131c065-5635-4935-830a-3afe5524a963","ios":"levelo://app?vid=5131c065-5635-4935-830a-3afe5524a963"},"vehicle_type_id":"4","last_reported":1737760092,"current_range_meters":6400,"station_id":"ce4bh092rcd13ifvqd30","pricing_plan_id":"cebpf4jnsgd1na2vs0mg"},{"bike_id":"de0c0827-2602-4849-a3c4-71a6fdb88560","system_id":"levelo_inurba_marseille","lat":43.33043,"lon":5.39049,"is_reserved":false,"is_disabled":false,"rental_uris":{"android":"levelo://app?vid=de0c0827-2602-4849-a3c4-71a6fdb88560","ios":"levelo://app?vid=de0c0827-2602-4849-a3c4-71a6fdb88560"},"vehicle_type_id":"4","last_reported":1737760092,"current_range_meters":28800,"station_id":"ce4bhr92rcd13ifvqhrg","pricing_plan_id":"cebpf4jnsgd1na2vs0mg"},{"bike_id":"f4a67fd7-7ba0-462e-b321-724410a83bc3","system_id":"levelo_inurba_marseille","lat":43.28643,"lon":5.35128,"is_reserved":false,"is_disabled":true,"rental_uris":{"android":"levelo://app?vid=f4a67fd7-7ba0-462e-b321-724410a83bc3","ios":"levelo://app?vid=f4a67fd7-7ba0-462e-b321-724410a83bc3"},"vehicle_type_id":"4","last_reported":1737760092,"current_range_meters":19600,"station_id":"ce4bhch2rcd13ifvqeug","pricing_plan_id":"cebpf4jnsgd1na2vs0mg"},{"bike_id":"841a1767-078e-4378-8ef2-78843610d635","system_id":"levelo_inurba_marseille","lat":43.23216,"lon":5.35555,"is_reserved":false,"is_disabled":false,"rental_uris":{"android":"levelo://app?vid=841a1767-078e-4378-8ef2-78843610d635","ios":"levelo://app?vid=841a1767-078e-4378-8ef2-78843610d635"},"vehicle_type_id":"4","last_reported":1737760092,"current_range_meters":9200,"station_id":"ce4bhu92rcd13ifvqi70","pricing_plan_id":"cebpf4jnsgd1na2vs0mg"},{"bike_id":"d531adb9-2312-4b34-a321-08be0fda69cf","system_id":"levelo_inurba_marseille","lat":43.2954,"lon":5.40045,"is_reserved":false,"is_disabled":true,"rental_uris":{"android":"levelo://app?vid=d531adb9-2312-4b34-a321-08be0fda69cf","ios":"levelo://app?vid=d531adb9-2312-4b34-a321-08be0fda69cf"},"vehicle_type_id":"4","last_reported":1737760092,"current_range_meters":0,"station_id":"","pricing_plan_id":"cebpf4jnsgd1na2vs0mg"},{"bike_id":"c17d619f-a14c-4d8a-bf25-d4388086c6f5","system_id":"levelo_inurba_marseille","lat":43.312185,"lon":5.387766,"is_reserved":false,"is_disabled":false,"rental_uris":{"android":"levelo://app?vid=c17d619f-a14c-4d8a-bf25-d4388086c6f5","ios":"levelo://app?vid=c17d619f-a14c-4d8a-bf25-d4388086c6f5"},"vehicle_type_id":"4","last_reported":1737760092,"current_range_meters":39200,"station_id":"ce4bgv12rcd13ifvqcp0","pricing_plan_id":"cebpf4jnsgd1na2vs0mg"},{"bike_id":"71ff8398-5124-48b7-9208-3660fbca47ca","system_id":"levelo_inurba_marseille","lat":43.29254,"lon":5.38451,"is_reserved":false,"is_disabled":false,"rental_uris":{"android":"levelo://app?vid=71ff8398-5124-48b7-9208-3660fbca47ca","ios":"levelo://app?vid=71ff8398-5124-48b7-9208-3660fbca47ca"},"vehicle_type_id":"4","last_reported":1737760092,"current_range_meters":36400,"station_id":"ce4bh692rcd13ifvqea0","pricing_plan_id":"cebpf4jnsgd1na2vs0mg"},{"bike_id":"c955262c-2d92-48b8-ba3f-bc4f8434c7fe","system_id":"levelo_inurba_marseille","lat":43.29916,"lon":5.37486,"is_reserved":false,"is_disabled":false,"rental_uris":{"android":"levelo://app?vid=c955262c-2d92-48b8-ba3f-bc4f8434c7fe","ios":"levelo://app?vid=c955262c-2d92-48b8-ba3f-bc4f8434c7fe"},"vehicle_type_id":"4","last_reported":1737760092,"current_range_meters":35600,"station_id":"ce4bgjh2rcd13ifvqbg0","pricing_plan_id":"cebpf4jnsgd1na2vs0mg"},{"bike_id":"a12ae140-7d40-4453-aee3-1f900eeb57d0","system_id":"levelo_inurba_marseille","lat":43.31725,"lon":5.42414,"is_reserved":false,"is_disabled":false,"rental_uris":{"android":"levelo://app?vid=a12ae140-7d40-4453-aee3-1f900eeb57d0","ios":"levelo://app?vid=a12ae140-7d40-4453-aee3-1f900eeb57d0"},"vehicle_type_id":"4","last_reported":1737760092,"current_range_meters":38800,"station_id":"ce4bhp92rcd13ifvqhbg","pricing_plan_id":"cebpf4jnsgd1na2vs0mg"},{"bike_id":"afd53ee7-c48e-4c7a-9b64-51b0a9bab2be","system_id":"levelo_inurba_marseille","lat":43.29902,"lon":5.36389,"is_reserved":false,"is_disabled":false,"rental_uris":{"android":"levelo://app?vid=afd53ee7-c48e-4c7a-9b64-51b0a9bab2be","ios":"levelo://app?vid=afd53ee7-c48e-4c7a-9b64-51b0a9bab2be"},"vehicle_type_id":"4","last_reported":1737760092,"current_range_meters":28000,"station_id":"","pricing_plan_id":"cebpf4jnsgd1na2vs0mg"},{"bike_id":"6d0b57d8-0793-48da-a368-984130c22b5e","system_id":"levelo_inurba_marseille","lat":43.27492,"lon":5.42464,"is_reserved":false,"is_disabled":false,"rental_uris":{"android":"levelo://app?vid=6d0b57d8-0793-48da-a368-984130c22b5e","ios":"levelo://app?vid=6d0b57d8-0793-48da-a368-984130c22b5e"},"vehicle_type_id":"4","last_reported":1737760092,"current_range_meters":10000,"station_id":"ce4bhn92rcd13ifvqgrg","pricing_plan_id":"cebpf4jnsgd1na2vs0mg"},{"bike_id":"2f95791e-70e9-4313-9f23-8419f6f7a3ee","system_id":"levelo_inurba_marseille","lat":43.305916,"lon":5.393456,"is_reserved":false,"is_disabled":false,"rental_uris":{"android":"levelo://app?vid=2f95791e-70e9-4313-9f23-8419f6f7a3ee","ios":"levelo://app?vid=2f95791e-70e9-4313-9f23-8419f6f7a3ee"},"vehicle_type_id":"4","last_reported":1737760092,"current_range_meters":22400,"station_id":"ce4bh0p2rcd13ifvqd80","pricing_plan_id":"cebpf4jnsgd1na2vs0mg"},{"bike_id":"0683b8fa-bf66-4a85-b23f-305b1ef8e2c5","system_id":"levelo_inurba_marseille","lat":43.29932,"lon":5.43676,"is_reserved":false,"is_disabled":true,"rental_uris":{"android":"levelo://app?vid=0683b8fa-bf66-4a85-b23f-305b1ef8e2c5","ios":"levelo://app?vid=0683b8fa-bf66-4a85-b23f-305b1ef8e2c5"},"vehicle_type_id":"4","last_reported":1737760092,"current_range_meters":0,"station_id":"","pricing_plan_id":"cebpf4jnsgd1na2vs0mg"},{"bike_id":"adce305b-52ab-48ed-b869-88a382f8d738","system_id":"levelo_inurba_marseille","lat":43.24099,"lon":5.3775,"is_reserved":false,"is_disabled":false,"rental_uris":{"android":"levelo://app?vid=adce305b-52ab-48ed-b869-88a382f8d738","ios":"levelo://app?vid=adce305b-52ab-48ed-b869-88a382f8d738"},"vehicle_type_id":"4","last_reported":1737760092,"current_range_meters":30800,"station_id":"ce4bhnp2rcd13ifvqgvg","pricing_plan_id":"cebpf4jnsgd1na2vs0mg"},{"bike_id":"fe7d93fd-8a48-4a52-8ef8-3d44e013addb","system_id":"levelo_inurba_marseille","lat":43.28427,"lon":5.37542,"is_reserved":false,"is_disabled":false,"rental_uris":{"android":"levelo://app?vid=fe7d93fd-8a48-4a52-8ef8-3d44e013addb","ios":"levelo://app?vid=fe7d93fd-8a48-4a52-8ef8-3d44e013addb"},"vehicle_type_id":"4","last_reported":1737760092,"current_range_meters":35200,"station_id":"ce4bh412rcd13ifvqds0","pricing_plan_id":"cebpf4jnsgd1na2vs0mg"},{"bike_id":"c4215d0c-e91d-4ebd-b4a6-2817e994cc3b","system_id":"levelo_inurba_marseille","lat":43.30914,"lon":5.39636,"is_reserved":false,"is_disabled":false,"rental_uris":{"android":"levelo://app?vid=c4215d0c-e91d-4ebd-b4a6-2817e994cc3b","ios":"levelo://app?vid=c4215d0c-e91d-4ebd-b4a6-2817e994cc3b"},"vehicle_type_id":"4","last_reported":1737760092,"current_range_meters":36000,"station_id":"ce4bh012rcd13ifvqcv0","pricing_plan_id":"cebpf4jnsgd1na2vs0mg"},{"bike_id":"ff391e15-70a7-4f5f-add5-ec8162bf25ff","system_id":"levelo_inurba_marseille","lat":43.27843,"lon":5.39206,"is_reserved":false,"is_disabled":false,"rental_uris":{"android":"levelo://app?vid=ff391e15-70a7-4f5f-add5-ec8162bf25ff","ios":"levelo://app?vid=ff391e15-70a7-4f5f-add5-ec8162bf25ff"},