{"last_updated":1731006399,"ttl":60,"version":"2.2","data":{"bikes":[{"bike_id":"a35bc0f5-e1de-4780-9c30-3d5f9603529a","system_id":"levelo_inurba_marseille","lat":43.23964,"lon":5.3663,"is_reserved":false,"is_disabled":false,"rental_uris":{"android":"levelo://app?vid=a35bc0f5-e1de-4780-9c30-3d5f9603529a","ios":"levelo://app?vid=a35bc0f5-e1de-4780-9c30-3d5f9603529a"},"vehicle_type_id":"4","last_reported":1731006399,"current_range_meters":22000,"station_id":"ce4bhi12rcd13ifvqfp0","pricing_plan_id":"cebpf4jnsgd1na2vs0mg"},{"bike_id":"499467bc-6a9e-4f27-b149-60d5f3105628","system_id":"levelo_inurba_marseille","lat":43.29258,"lon":5.3844,"is_reserved":false,"is_disabled":false,"rental_uris":{"android":"levelo://app?vid=499467bc-6a9e-4f27-b149-60d5f3105628","ios":"levelo://app?vid=499467bc-6a9e-4f27-b149-60d5f3105628"},"vehicle_type_id":"4","last_reported":1731006399,"current_range_meters":6000,"station_id":"ce4bh692rcd13ifvqea0","pricing_plan_id":"cebpf4jnsgd1na2vs0mg"},{"bike_id":"1cef1b77-5483-44b9-8e97-f29b4779b0b1","system_id":"levelo_inurba_marseille","lat":43.28735,"lon":5.36076,"is_reserved":false,"is_disabled":false,"rental_uris":{"android":"levelo://app?vid=1cef1b77-5483-44b9-8e97-f29b4779b0b1","ios":"levelo://app?vid=1cef1b77-5483-44b9-8e97-f29b4779b0b1"},"vehicle_type_id":"4","last_reported":1731006399,"current_range_meters":38800,"station_id":"cki0cbj6b192h4jlfktg","pricing_plan_id":"cebpf4jnsgd1na2vs0mg"},{"bike_id":"55cb1b5c-d167-4240-a3b1-5feec9b1b11f","system_id":"levelo_inurba_marseille","lat":43.30964,"lon":5.39038,"is_reserved":false,"is_disabled":false,"rental_uris":{"android":"levelo://app?vid=55cb1b5c-d167-4240-a3b1-5feec9b1b11f","ios":"levelo://app?vid=55cb1b5c-d167-4240-a3b1-5feec9b1b11f"},"vehicle_type_id":"4","last_reported":1731006399,"current_range_meters":36000,"station_id":"ce4bgup2rcd13ifvqco0","pricing_plan_id":"cebpf4jnsgd1na2vs0mg"},{"bike_id":"7f774ae5-6cb7-4c53-91e0-4e9519e7a5f3","system_id":"levelo_inurba_marseille","lat":43.31734,"lon":5.42404,"is_reserved":false,"is_disabled":false,"rental_uris":{"android":"levelo://app?vid=7f774ae5-6cb7-4c53-91e0-4e9519e7a5f3","ios":"levelo://app?vid=7f774ae5-6cb7-4c53-91e0-4e9519e7a5f3"},"vehicle_type_id":"4","last_reported":1731006399,"current_range_meters":34800,"station_id":"ce4bhp92rcd13ifvqhbg","pricing_plan_id":"cebpf4jnsgd1na2vs0mg"},{"bike_id":"d4947291-c9b6-4852-93dd-ff304d3405ed","system_id":"levelo_inurba_marseille","lat":43.28975,"lon":5.37817,"is_reserved":false,"is_disabled":false,"rental_uris":{"android":"levelo://app?vid=d4947291-c9b6-4852-93dd-ff304d3405ed","ios":"levelo://app?vid=d4947291-c9b6-4852-93dd-ff304d3405ed"},"vehicle_type_id":"4","last_reported":1731006399,"current_range_meters":38800,"station_id":"ce4bh9p2rcd13ifvqed0","pricing_plan_id":"cebpf4jnsgd1na2vs0mg"},{"bike_id":"4e2bf624-3094-4a12-982c-9efedbfe7b6e","system_id":"levelo_inurba_marseille","lat":43.31179,"lon":5.38718,"is_reserved":false,"is_disabled":false,"rental_uris":{"android":"levelo://app?vid=4e2bf624-3094-4a12-982c-9efedbfe7b6e","ios":"levelo://app?vid=4e2bf624-3094-4a12-982c-9efedbfe7b6e"},"vehicle_type_id":"4","last_reported":1731006399,"current_range_meters":13600,"station_id":"ce4bgv12rcd13ifvqcp0","pricing_plan_id":"cebpf4jnsgd1na2vs0mg"},{"bike_id":"40dd4257-d6e7-454b-ba60-8d003c5e1cfc","system_id":"levelo_inurba_marseille","lat":43.30877,"lon":5.39637,"is_reserved":false,"is_disabled":false,"rental_uris":{"android":"levelo://app?vid=40dd4257-d6e7-454b-ba60-8d003c5e1cfc","ios":"levelo://app?vid=40dd4257-d6e7-454b-ba60-8d003c5e1cfc"},"vehicle_type_id":"4","last_reported":1731006399,"current_range_meters":22000,"station_id":"ce4bh012rcd13ifvqcv0","pricing_plan_id":"cebpf4jnsgd1na2vs0mg"},{"bike_id":"7ec94a94-a5f2-49b4-913b-d1a82352110b","system_id":"levelo_inurba_marseille","lat":43.30137,"lon":5.3742,"is_reserved":false,"is_disabled":false,"rental_uris":{"android":"levelo://app?vid=7ec94a94-a5f2-49b4-913b-d1a82352110b","ios":"levelo://app?vid=7ec94a94-a5f2-49b4-913b-d1a82352110b"},"vehicle_type_id":"4","last_reported":1731006399,"current_range_meters":17600,"station_id":"ce4bgs92rcd13ifvqcc0","pricing_plan_id":"cebpf4jnsgd1na2vs0mg"},{"bike_id":"668c5825-e8b8-4395-9b1c-de51bfb328e8","system_id":"levelo_inurba_marseille","lat":43.29534,"lon":5.39399,"is_reserved":false,"is_disabled":false,"rental_uris":{"android":"levelo://app?vid=668c5825-e8b8-4395-9b1c-de51bfb328e8","ios":"levelo://app?vid=668c5825-e8b8-4395-9b1c-de51bfb328e8"},"vehicle_type_id":"4","last_reported":1731006399,"current_range_meters":22800,"station_id":"ce4bh292rcd13ifvqdf0","pricing_plan_id":"cebpf4jnsgd1na2vs0mg"},{"bike_id":"c0fd3d82-7a9a-4922-b0f5-bcdc2b7cf632","system_id":"levelo_inurba_marseille","lat":43.33021,"lon":5.39045,"is_reserved":false,"is_disabled":false,"rental_uris":{"android":"levelo://app?vid=c0fd3d82-7a9a-4922-b0f5-bcdc2b7cf632","ios":"levelo://app?vid=c0fd3d82-7a9a-4922-b0f5-bcdc2b7cf632"},"vehicle_type_id":"4","last_reported":1731006399,"current_range_meters":13600,"station_id":"ce4bhr92rcd13ifvqhrg","pricing_plan_id":"cebpf4jnsgd1na2vs0mg"},{"bike_id":"6441f0a6-ca90-4a7b-aa82-358330e3e383","system_id":"levelo_inurba_marseille","lat":43.26806,"lon":5.40255,"is_reserved":false,"is_disabled":false,"rental_uris":{"android":"levelo://app?vid=6441f0a6-ca90-4a7b-aa82-358330e3e383","ios":"levelo://app?vid=6441f0a6-ca90-4a7b-aa82-358330e3e383"},"vehicle_type_id":"4","last_reported":1731006399,"current_range_meters":3600,"station_id":"ce501612rcd8frsf0b60","pricing_plan_id":"cebpf4jnsgd1na2vs0mg"},{"bike_id":"5b31d00e-6cb8-489e-bf0b-4c7c92c08679","system_id":"levelo_inurba_marseille","lat":43.31686,"lon":5.40467,"is_reserved":false,"is_disabled":false,"rental_uris":{"android":"levelo://app?vid=5b31d00e-6cb8-489e-bf0b-4c7c92c08679","ios":"levelo://app?vid=5b31d00e-6cb8-489e-bf0b-4c7c92c08679"},"vehicle_type_id":"4","last_reported":1731006399,"current_range_meters":19200,"station_id":"ce4bh012rcd13ifvqd00","pricing_plan_id":"cebpf4jnsgd1na2vs0mg"},{"bike_id":"228a45be-9f13-42f7-aaaf-a5c481dd09de","system_id":"levelo_inurba_marseille","lat":43.29259,"lon":5.40911,"is_reserved":false,"is_disabled":false,"rental_uris":{"android":"levelo://app?vid=228a45be-9f13-42f7-aaaf-a5c481dd09de","ios":"levelo://app?vid=228a45be-9f13-42f7-aaaf-a5c481dd09de"},"vehicle_type_id":"4","last_reported":1731006399,"current_range_meters":6800,"station_id":"ce4bh192rcd13ifvqdc0","pricing_plan_id":"cebpf4jnsgd1na2vs0mg"},{"bike_id":"c929586b-2c81-4dc1-ab6b-0154037f2a45","system_id":"levelo_inurba_marseille","lat":43.29199,"lon":5.39326,"is_reserved":false,"is_disabled":false,"rental_uris":{"android":"levelo://app?vid=c929586b-2c81-4dc1-ab6b-0154037f2a45","ios":"levelo://app?vid=c929586b-2c81-4dc1-ab6b-0154037f2a45"},"vehicle_type_id":"4","last_reported":1731006399,"current_range_meters":35200,"station_id":"ce4bh192rcd13ifvqdd0","pricing_plan_id":"cebpf4jnsgd1na2vs0mg"},{"bike_id":"bcf5dad1-721a-4f4e-82b2-15a9cc44926f","system_id":"levelo_inurba_marseille","lat":43.33776,"lon":5.37438,"is_reserved":false,"is_disabled":false,"rental_uris":{"android":"levelo://app?vid=bcf5dad1-721a-4f4e-82b2-15a9cc44926f","ios":"levelo://app?vid=bcf5dad1-721a-4f4e-82b2-15a9cc44926f"},"vehicle_type_id":"4","last_reported":1731006399,"current_range_meters":34800,"station_id":"","pricing_plan_id":"cebpf4jnsgd1na2vs0mg"},{"bike_id":"dc54e26e-dfae-4e0e-aabd-9885b9832ce1","system_id":"levelo_inurba_marseille","lat":43.29417,"lon":5.3862,"is_reserved":false,"is_disabled":false,"rental_uris":{"android":"levelo://app?vid=dc54e26e-dfae-4e0e-aabd-9885b9832ce1","ios":"levelo://app?vid=dc54e26e-dfae-4e0e-aabd-9885b9832ce1"},"vehicle_type_id":"4","last_reported":1731006399,"current_range_meters":38800,"station_id":"ce4bh2h2rcd13ifvqdh0","pricing_plan_id":"cebpf4jnsgd1na2vs0mg"},{"bike_id":"c72752eb-51e9-47cf-b2f9-99b08b6a9d48","system_id":"levelo_inurba_marseille","lat":43.29198,"lon":5.35812,"is_reserved":false,"is_disabled":false,"rental_uris":{"android":"levelo://app?vid=c72752eb-51e9-47cf-b2f9-99b08b6a9d48","ios":"levelo://app?vid=c72752eb-51e9-47cf-b2f9-99b08b6a9d48"},"vehicle_type_id":"4","last_reported":1731006399,"current_range_meters":13600,"station_id":"ce4bhb12rcd13ifvqel0","pricing_plan_id":"cebpf4jnsgd1na2vs0mg"},{"bike_id":"50df4800-213f-4faf-8df7-23477624ac32","system_id":"levelo_inurba_marseille","lat":43.27904,"lon":5.38009,"is_reserved":false,"is_disabled":false,"rental_uris":{"android":"levelo://app?vid=50df4800-213f-4faf-8df7-23477624ac32","ios":"levelo://app?vid=50df4800-213f-4faf-8df7-23477624ac32"},"vehicle_type_id":"4","last_reported":1731006399,"current_range_meters":38800,"station_id":"ce4bhf92rcd13ifvqf50","pricing_plan_id":"cebpf4jnsgd1na2vs0mg"},{"bike_id":"f00b8b7a-20f1-40a7-8dce-634caae61508","system_id":"levelo_inurba_marseille","lat":43.30355,"lon":5.41882,"is_reserved":false,"is_disabled":false,"rental_uris":{"android":"levelo://app?vid=f00b8b7a-20f1-40a7-8dce-634caae61508","ios":"levelo://app?vid=f00b8b7a-20f1-40a7-8dce-634caae61508"},"vehicle_type_id":"4","last_reported":1731006399,"current_range_meters":25600,"station_id":"ce4bhop2rcd13ifvqh7g","pricing_plan_id":"cebpf4jnsgd1na2vs0mg"},{"bike_id":"123f6207-e5f7-4a86-815d-3aa76283c5cb","system_id":"levelo_inurba_marseille","lat":43.28007,"lon":5.44226,"is_reserved":false,"is_disabled":false,"rental_uris":{"android":"levelo://app?vid=123f6207-e5f7-4a86-815d-3aa76283c5cb","ios":"levelo://app?vid=123f6207-e5f7-4a86-815d-3aa76283c5cb"},"vehicle_type_id":"4","last_reported":1731006399,"current_range_meters":12000,"station_id":"","pricing_plan_id":"cebpf4jnsgd1na2vs0mg"},{"bike_id":"12d05085-e4aa-4a0c-b506-435ffebed217","system_id":"levelo_inurba_marseille","lat":43.28009,"lon":5.39997,"is_reserved":false,"is_disabled":false,"rental_uris":{"android":"levelo://app?vid=12d05085-e4aa-4a0c-b506-435ffebed217","ios":"levelo://app?vid=12d05085-e4aa-4a0c-b506-435ffebed217"},"vehicle_type_id":"4","last_reported":1731006399,"current_range_meters":4800,"station_id":"ce4bho92rcd13ifvqh4g","pricing_plan_id":"cebpf4jnsgd1na2vs0mg"},{"bike_id":"47f93f7b-028b-4621-9ba3-de394d427042","system_id":"levelo_inurba_marseille","lat":43.2942,"lon":5.38613,"is_reserved":false,"is_disabled":false,"rental_uris":{"android":"levelo://app?vid=47f93f7b-028b-4621-9ba3-de394d427042","ios":"levelo://app?vid=47f93f7b-028b-4621-9ba3-de394d427042"},"vehicle_type_id":"4","last_reported":1731006399,"current_range_meters":38800,"station_id":"ce4bh2h2rcd13ifvqdh0","pricing_plan_id":"cebpf4jnsgd1na2vs0mg"},{"bike_id":"4654c5d8-752f-4f4b-bf52-6ada77a502e7","system_id":"levelo_inurba_marseille","lat":43.24748,"lon":5.38142,"is_reserved":false,"is_disabled":false,"rental_uris":{"android":"levelo://app?vid=4654c5d8-752f-4f4b-bf52-6ada77a502e7","ios":"levelo://app?vid=4654c5d8-752f-4f4b-bf52-6ada77a502e7"},"vehicle_type_id":"4","last_reported":1731006399,"current_range_meters":28000,"station_id":"ce4bhlp2rcd13ifvqgjg","pricing_plan_id":"cebpf4jnsgd1na2vs0mg"},{"bike_id":"8ef54072-d451-4945-9b21-bbabd2d02b38","system_id":"levelo_inurba_marseille","lat":43.30951,"lon":5.39031,"is_reserved":false,"is_disabled":false,"rental_uris":{"android":"levelo://app?vid=8ef54072-d451-4945-9b21-bbabd2d02b38","ios":"levelo://app?vid=8ef54072-d451-4945-9b21-bbabd2d02b38"},"vehicle_type_id":"4","last_reported":1731006399,"current_range_meters":38800,"station_id":"ce4bgup2rcd13ifvqco0","pricing_plan_id":"cebpf4jnsgd1na2vs0mg"},{"bike_id":"ff3d86de-5c8f-44df-8c76-d883f8fa9ba1","system_id":"levelo_inurba_marseille","lat":43.23183,"lon":5.39986,"is_reserved":false,"is_disabled":false,"rental_uris":{"android":"levelo://app?vid=ff3d86de-5c8f-44df-8c76-d883f8fa9ba1","ios":"levelo://app?vid=ff3d86de-5c8f-44df-8c76-d883f8fa9ba1"},"vehicle_type_id":"4","last_reported":1731006399,"current_range_meters":20000,"station_id":"ce4bhn12rcd13ifvqgqg","pricing_plan_id":"cebpf4jnsgd1na2vs0mg"},{"bike_id":"3232343b-b00a-47b1-9de8-95cc6580cbfa","system_id":"levelo_inurba_marseille","lat":43.2293,"lon":5.35376,"is_reserved":false,"is_disabled":false,"rental_uris":{"android":"levelo://app?vid=3232343b-b00a-47b1-9de8-95cc6580cbfa","ios":"levelo://app?vid=3232343b-b00a-47b1-9de8-95cc6580cbfa"},"vehicle_type_id":"4","last_reported":1731006399,"current_range_meters":30400,"station_id":"cpo3532slgdg3j2ikp40","pricing_plan_id":"cebpf4jnsgd1na2vs0mg"},{"bike_id":"2df0db0b-3a0d-4800-a1da-4dfb00c5d39f","system_id":"levelo_inurba_marseille","lat":43.29255,"lon":5.40912,"is_reserved":false,"is_disabled":false,"rental_uris":{"android":"levelo://app?vid=2df0db0b-3a0d-4800-a1da-4dfb00c5d39f","ios":"levelo://app?vid=2df0db0b-3a0d-4800-a1da-4dfb00c5d39f"},"vehicle_type_id":"4","last_reported":1731006399,"current_range_meters":7200,"station_id":"ce4bh192rcd13ifvqdc0","pricing_plan_id":"cebpf4jnsgd1na2vs0mg"},{"bike_id":"30c122d9-3c8b-4500-b013-ed517a07df34","system_id":"levelo_inurba_marseille","lat":43.27916,"lon":5.39579,"is_reserved":false,"is_disabled":false,"rental_uris":{"android":"levelo://app?vid=30c122d9-3c8b-4500-b013-ed517a07df34","ios":"levelo://app?vid=30c122d9-3c8b-4500-b013-ed517a07df34"},"vehicle_type_id":"4","last_reported":1731006399,"current_range_meters":30000,"station_id":"ce4bhf92rcd13ifvqf40","pricing_plan_id":"cebpf4jnsgd1na2vs0mg"},{"bike_id":"72c658b7-e9b5-48f3-8a85-0c044f096792","system_id":"levelo_inurba_marseille","lat":43.29579,"lon":5.36732,"is_reserved":false,"is_disabled":false,"rental_uris":{"android":"levelo://app?vid=72c658b7-e9b5-48f3-8a85-0c044f096792","ios":"levelo://app?vid=72c658b7-e9b5-48f3-8a85-0c044f096792"},"vehicle_type_id":"4","last_reported":1731006399,"current_range_meters":16800,"station_id":"ce4bgph2rcd13ifvqc2g","pricing_plan_id":"cebpf4jnsgd1na2vs0mg"},{"bike_id":"d46fc949-017c-4337-a007-b5f9f19a0bfa","system_id":"levelo_inurba_marseille","lat":43.337444,"lon":5.374475,"is_reserved":false,"is_disabled":false,"rental_uris":{"android":"levelo://app?vid=d46fc949-017c-4337-a007-b5f9f19a0bfa","ios":"levelo://app?vid=d46fc949-017c-4337-a007-b5f9f19a0bfa"},"vehicle_type_id":"4","last_reported":1731006399,"current_range_meters":33200,"station_id":"","pricing_plan_id":"cebpf4jnsgd1na2vs0mg"},{"bike_id":"b856fee3-5c8e-425e-8bbb-320e2cda8238","system_id":"levelo_inurba_marseille","lat":43.31319,"lon":5.39729,"is_reserved":false,"is_disabled":false,"rental_uris":{"android":"levelo://app?vid=b856fee3-5c8e-425e-8bbb-320e2cda8238","ios":"levelo://app?vid=b856fee3-5c8e-425e-8bbb-320e2cda8238"},"vehicle_type_id":"4","last_reported":1731006399,"current_range_meters":38800,"station_id":"ce4bgvp2rcd13ifvqcu0","pricing_plan_id":"cebpf4jnsgd1na2vs0mg"},{"bike_id":"055ee07f-9744-4502-8bb1-b6708cfbb0cd","system_id":"levelo_inurba_marseille","lat":43.28711,"lon":5.37929,"is_reserved":false,"is_disabled":false,"rental_uris":{"android":"levelo://app?vid=055ee07f-9744-4502-8bb1-b6708cfbb0cd","ios":"levelo://app?vid=055ee07f-9744-4502-8bb1-b6708cfbb0cd"},"vehicle_type_id":"4","last_reported":1731006399,"current_range_meters":7200,"station_id":"ce4bh9p2rcd13ifvqec0","pricing_plan_id":"cebpf4jnsgd1na2vs0mg"},{"bike_id":"23947e82-9890-4dfc-aa4e-33b073f60419","system_id":"levelo_inurba_marseille","lat":43.29538,"lon":5.39403,"is_reserved":false,"is_disabled":false,"rental_uris":{"android":"levelo://app?vid=23947e82-9890-4dfc-aa4e-33b073f60419","ios":"levelo://app?vid=23947e82-9890-4dfc-aa4e-33b073f60419"},"vehicle_type_id":"4","last_reported":1731006399,"current_range_meters":22800,"station_id":"ce4bh292rcd13ifvqdf0","pricing_plan_id":"cebpf4jnsgd1na2vs0mg"},{"bike_id":"7feae80f-14fc-4d7f-8d58-76f4309c7e1f","system_id":"levelo_inurba_marseille","lat":43.29581,"lon":5.39942,"is_reserved":false,"is_disabled":false,"rental_uris":{"android":"levelo://app?vid=7feae80f-14fc-4d7f-8d58-76f4309c7e1f","ios":"levelo://app?vid=7feae80f-14fc-4d7f-8d58-76f4309c7e1f"},"vehicle_type_id":"4","last_reported":1731006399,"current_range_meters":38800,"station_id":"ce4bh312rcd13ifvqdj0","pricing_plan_id":"cebpf4jnsgd1na2vs0mg"},{"bike_id":"fb9a4917-24cd-45ae-967d-97aed9b41d4d","system_id":"levelo_inurba_marseille","lat":43.31995,"lon":5.38153,"is_reserved":false,"is_disabled":false,"rental_uris":{"android":"levelo://app?vid=fb9a4917-24cd-45ae-967d-97aed9b41d4d","ios":"levelo://app?vid=fb9a4917-24cd-45ae-967d-97aed9b41d4d"},"vehicle_type_id":"4","last_reported":1731006399,"current_range_meters":30000,"station_id":"ce4bhr12rcd13ifvqhpg","pricing_plan_id":"cebpf4jnsgd1na2vs0mg"},{"bike_id":"9b96d1a7-1bb0-4837-8ce5-5f6325109a7b","system_id":"levelo_inurba_marseille","lat":43.2318,"lon":5.39987,"is_reserved":false,"is_disabled":false,"rental_uris":{"android":"levelo://app?vid=9b96d1a7-1bb0-4837-8ce5-5f6325109a7b","ios":"levelo://app?vid=9b96d1a7-1bb0-4837-8ce5-5f6325109a7b"},"vehicle_type_id":"4","last_reported":1731006399,"current_range_meters":9600,"station_id":"ce4bhn12rcd13ifvqgqg","pricing_plan_id":"cebpf4jnsgd1na2vs0mg"},{"bike_id":"7148e5a3-e345-4df8-9602-6c428d6f2779","system_id":"levelo_inurba_marseille","lat":43.2667,"lon":5.40289,"is_reserved":false,"is_disabled":false,"rental_uris":{"android":"levelo://app?vid=7148e5a3-e345-4df8-9602-6c428d6f2779","ios":"levelo://app?vid=7148e5a3-e345-4df8-9602-6c428d6f2779"},"vehicle_type_id":"4","last_reported":1731006399,"current_range_meters":14800,"station_id":"","pricing_plan_id":"cebpf4jnsgd1na2vs0mg"},{"bike_id":"3c5eb033-d4c8-4599-9cb2-3cbc11befe15","system_id":"levelo_inurba_marseille","lat":43.27872,"lon":5.38036,"is_reserved":false,"is_disabled":false,"rental_uris":{"android":"levelo://app?vid=3c5eb033-d4c8-4599-9cb2-3cbc11befe15","ios":"levelo://app?vid=3c5eb033-d4c8-4599-9cb2-3cbc11befe15"},"vehicle_type_id":"4","last_reported":1731006399,"current_range_meters":3200,"station_id":"ce4bhf92rcd13ifvqf50","pricing_plan_id":"cebpf4jnsgd1na2vs0mg"},{"bike_id":"14a66910-2e94-4fbc-860a-5889a2a2ac9a","system_id":"levelo_inurba_marseille","lat":43.27177,"lon":5.40985,"is_reserved":false,"is_disabled":false,"rental_uris":{"android":"levelo://app?vid=14a66910-2e94-4fbc-860a-5889a2a2ac9a","ios":"levelo://app?vid=14a66910-2e94-4fbc-860a-5889a2a2ac9a"},"vehicle_type_id":"4","last_reported":1731006399,"current_range_meters":27600,"station_id":"ce4bhl12rcd13ifvqgf0","pricing_plan_id":"cebpf4jnsgd1na2vs0mg"},{"bike_id":"3237c08b-3f60-4397-9ce5-5832cbf0e8f9","system_id":"levelo_inurba_marseille","lat":43.33016,"lon":5.3902,"is_reserved":false,"is_disabled":false,"rental_uris":{"android":"levelo://app?vid=3237c08b-3f60-4397-9ce5-5832cbf0e8f9","ios":"levelo://app?vid=3237c08b-3f60-4397-9ce5-5832cbf0e8f9"},"vehicle_type_id":"4","last_reported":1731006399,"current_range_meters":18000,"station_id":"ce4bhr92rcd13ifvqhrg","pricing_plan_id":"cebpf4jnsgd1na2vs0mg"},{"bike_id":"de07c4a3-b2d7-41ca-81cd-912b8ec4830c","system_id":"levelo_inurba_marseille","lat":43.25728,"lon":5.411,"is_reserved":false,"is_disabled":false,"rental_uris":{"android":"levelo://app?vid=de07c4a3-b2d7-41ca-81cd-912b8ec4830c","ios":"levelo://app?vid=de07c4a3-b2d7-41ca-81cd-912b8ec4830c"},"vehicle_type_id":"4","last_reported":1731006399,"current_range_meters":17200,"station_id":"ce4bhkp2rcd13ifvqgd0","pricing_plan_id":"cebpf4jnsgd1na2vs0mg"},{"bike_id":"42758877-c4e6-4f54-b67e-2527e84c4894","system_id":"levelo_inurba_marseille","lat":43.23184,"lon":5.39985,"is_reserved":false,"is_disabled":false,"rental_uris":{"android":"levelo://app?vid=42758877-c4e6-4f54-b67e-2527e84c4894","ios":"levelo://app?vid=42758877-c4e6-4f54-b67e-2527e84c4894"},"vehicle_type_id":"4","last_reported":1731006399,"current_range_meters":21600,"station_id":"ce4bhn12rcd13ifvqgqg","pricing_plan_id":"cebpf4jnsgd1na2vs0mg"},{"bike_id":"cf966fef-29be-45d0-abc2-ceb371a6d872","system_id":"levelo_inurba_marseille","lat":43.28444,"lon":5.39182,"is_reserved":false,"is_disabled":false,"rental_uris":{"android":"levelo://app?vid=cf966fef-29be-45d0-abc2-ceb371a6d872","ios":"levelo://app?vid=cf966fef-29be-45d0-abc2-ceb371a6d872"},"vehicle_type_id":"4","last_reported":1731006399,"current_range_meters":2800,"station_id":"ce4bhoh2rcd13ifvqh5g","pricing_plan_id":"cebpf4jnsgd1na2vs0mg"},{"bike_id":"718c0fcc-1ae7-4826-8f75-9fa963daf9d7","system_id":"levelo_inurba_marseille","lat":43.27813,"lon":5.40709,"is_reserved":false,"is_disabled":false,"rental_uris":{"android":"levelo://app?vid=718c0fcc-1ae7-4826-8f75-9fa963daf9d7","ios":"levelo://app?vid=718c0fcc-1ae7-4826-8f75-9fa963daf9d7"},"vehicle_type_id":"4","last_reported":1731006399,"current_range_meters":3600,"station_id":"ce4bhnh2rcd13ifvqgtg","pricing_plan_id":"cebpf4jnsgd1na2vs0mg"},{"bike_id":"d4d5c039-1142-4413-a3f4-c97fbd90d38b","system_id":"levelo_inurba_marseille","lat":43.31712,"lon":5.43705,"is_reserved":false,"is_disabled":false,"rental_uris":{"android":"levelo://app?vid=d4d5c039-1142-4413-a3f4-c97fbd90d38b","ios":"levelo://app?vid=d4d5c039-1142-4413-a3f4-c97fbd90d38b"},"vehicle_type_id":"4","last_reported":1731006399,"current_range_meters":8800,"station_id":"ce4bhp92rcd13ifvqhcg","pricing_plan_id":"cebpf4jnsgd1na2vs0mg"},{"bike_id":"96af24a7-9c6e-4e43-9718-e21c9845789c","system_id":"levelo_inurba_marseille","lat":43.28428,"lon":5.37513,"is_reserved":false,"is_disabled":false,"rental_uris":{"android":"levelo://app?vid=96af24a7-9c6e-4e43-9718-e21c9845789c","ios":"levelo://app?vid=96af24a7-9c6e-4e43-9718-e21c9845789c"},"vehicle_type_id":"4","last_reported":1731006399,"current_range_meters":2800,"station_id":"ce4bh412rcd13ifvqds0","pricing_plan_id":"cebpf4jnsgd1na2vs0mg"},{"bike_id":"527dcbb0-38da-412c-ab9b-4d380daf1da0","system_id":"levelo_inurba_marseille","lat":43.2742,"lon":5.39403,"is_reserved":false,"is_disabled":false,"rental_uris":{"android":"levelo://app?vid=527dcbb0-38da-412c-ab9b-4d380daf1da0","ios":"levelo://app?vid=527dcbb0-38da-412c-ab9b-4d380daf1da0"},"vehicle_type_id":"4","last_reported":1731006399,"current_range_meters":36800,"station_id":"ce4bhdp2rcd13ifvqf20","pricing_plan_id":"cebpf4jnsgd1na2vs0mg"},{"bike_id":"207ed067-29d8-4a8f-b9f3-0849ce579f81","system_id":"levelo_inurba_marseille","lat":43.3302,"lon":5.39044,"is_reserved":false,"is_disabled":false,"rental_uris":{"android":"levelo://app?vid=207ed067-29d8-4a8f-b9f3-0849ce579f81","ios":"levelo://app?vid=207ed067-29d8-4a8f-b9f3-0849ce579f81"},"vehicle_type_id":"4","last_reported":1731006399,"current_range_meters":38800,"station_id":"ce4bhr92rcd13ifvqhrg","pricing_plan_id":"cebpf4jnsgd1na2vs0mg"},{"bike_id":"6ee84fef-bc76-4b47-88f3-3c4344293f4b","system_id":"levelo_inurba_marseille","lat":43.31325,"lon":5.39695,"is_reserved":false,"is_disabled":false,"rental_uris":{"android":"levelo://app?vid=6ee84fef-bc76-4b47-88f3-3c4344293f4b","ios":"levelo://app?vid=6ee84fef-bc76-4b47-88f3-3c4344293f4b"},"vehicle_type_id":"4","last_reported":1731006399,"current_range_meters":22400,"station_id":"ce4bgvp2rcd13ifvqcu0","pricing_plan_id":"cebpf4jnsgd1na2vs0mg"},{"bike_id":"c54d8938-bd66-4746-8397-6468d0e45158","system_id":"levelo_inurba_marseille","lat":43.30798,"lon":5.43521,"is_reserved":false,"is_disabled":false,"rental_uris":{"android":"levelo://app?vid=c54d8938-bd66-4746-8397-6468d0e45158","ios":"levelo://app?vid=c54d8938-bd66-4746-8397-6468d0e45158"},"vehicle_type_id":"4","last_reported":1731006399,"current_range_meters":38000,"station_id":"ce4bhph2rcd13ifvqheg","pricing_plan_id":"cebpf4jnsgd1na2vs0mg"},{"bike_id":"95ac8b55-d461-4c79-bf07-3deece0b5544","system_id":"levelo_inurba_marseille","lat":43.337444,"lon":5.374475,"is_reserved":false,"is_disabled":false,"rental_uris":{"android":"levelo://app?vid=95ac8b55-d461-4c79-bf07-3deece0b5544","ios":"levelo://app?vid=95ac8b55-d461-4c79-bf07-3deece0b5544"},"vehicle_type_id":"4","last_reported":1731006399,"current_range_meters":36000,"station_id":"","pricing_plan_id":"cebpf4jnsgd1na2vs0mg"},{"bike_id":"42a83b40-e464-4aaf-9944-066f9f20f8ed","system_id":"levelo_inurba_marseille","lat":43.26567,"lon":5.39002,"is_reserved":false,"is_disabled":false,"rental_uris":{"android":"levelo://app?vid=42a83b40-e464-4aaf-9944-066f9f20f8ed","ios":"levelo://app?vid=42a83b40-e464-4aaf-9944-066f9f20f8ed"},"vehicle_type_id":"4","last_reported":1731006399,"current_range_meters":3600,"station_id":"ce4bhe12rcd13ifvqf30","pricing_plan_id":"cebpf4jnsgd1na2vs0mg"},{"bike_id":"498e45fc-d415-4206-9fc9-d05db95061f4","system_id":"levelo_inurba_marseille","lat":43.3095,"lon":5.39032,"is_reserved":false,"is_disabled":false,"rental_uris":{"android":"levelo://app?vid=498e45fc-d415-4206-9fc9-d05db95061f4","ios":"levelo://app?vid=498e45fc-d415-4206-9fc9-d05db95061f4"},"vehicle_type_id":"4","last_reported":1731006399,"current_range_meters":38400,"station_id":"ce4bgup2rcd13ifvqco0","pricing_plan_id":"cebpf4jnsgd1na2vs0mg"},{"bike_id":"2e20f2a1-b564-48ea-877a-8fba77b4c953","system_id":"levelo_inurba_marseille","lat":43.22926,"lon":5.35376,"is_reserved":false,"is_disabled":false,"rental_uris":{"android":"levelo://app?vid=2e20f2a1-b564-48ea-877a-8fba77b4c953","ios":"levelo://app?vid=2e20f2a1-b564-48ea-877a-8fba77b4c953"},"vehicle_type_id":"4","last_reported":1731006399,"current_range_meters":35600,"station_id":"cpo3532slgdg3j2ikp40","pricing_plan_id":"cebpf4jnsgd1na2vs0mg"},{"bike_id":"6863c962-b387-40c5-af79-c7c73c685811","system_id":"levelo_inurba_marseille","lat":43.33024,"lon":5.39036,"is_reserved":false,"is_disabled":false,"rental_uris":{"android":"levelo://app?vid=6863c962-b387-40c5-af79-c7c73c685811","ios":"levelo://app?vid=6863c962-b387-40c5-af79-c7c73c685811"},"vehicle_type_id":"4","last_reported":1731006399,"current_range_meters":18800,"station_id":"ce4bhr92rcd13ifvqhrg","pricing_plan_id":"cebpf4jnsgd1na2vs0mg"},{"bike_id":"72686a3f-1955-4717-ac05-99616bdaf481","system_id":"levelo_inurba_marseille","lat":43.29259,"lon":5.38446,"is_reserved":false,"is_disabled":false,"rental_uris":{"android":"levelo://app?vid=72686a3f-1955-4717-ac05-99616bdaf481","ios":"levelo://app?vid=72686a3f-1955-4717-ac05-99616bdaf481"},"vehicle_type_id":"4","last_reported":1731006399,"current_range_meters":38800,"station_id":"ce4bh692rcd13ifvqea0","pricing_plan_id":"cebpf4jnsgd1na2vs0mg"},{"bike_id":"a33de4ee-a3bf-4089-85aa-47e730f8c2c0","system_id":"levelo_inurba_marseille","lat":43.28276,"lon":5.35059,"is_reserved":false,"is_disabled":false,"rental_uris":{"android":"levelo://app?vid=a33de4ee-a3bf-4089-85aa-47e730f8c2c0","ios":"levelo://app?vid=a33de4ee-a3bf-4089-85aa-47e730f8c2c0"},"vehicle_type_id":"4","last_reported":1731006399,"current_range_meters":16000,"station_id":"ce4bhbp2rcd13ifvqerg","pricing_plan_id":"cebpf4jnsgd1na2vs0mg"},{"bike_id":"3f01bbad-5e39-486b-b83f-2cb09cd5f811","system_id":"levelo_inurba_marseille","lat":43.30951,"lon":5.3903,"is_reserved":false,"is_disabled":false,"rental_uris":{"android":"levelo://app?vid=3f01bbad-5e39-486b-b83f-2cb09cd5f811","ios":"levelo://app?vid=3f01bbad-5e39-486b-b83f-2cb09cd5f811"},"vehicle_type_id":"4","last_reported":1731006399,"current_range_meters":7200,"station_id":"ce4bgup2rcd13ifvqco0","pricing_plan_id":"cebpf4jnsgd1na2vs0mg"},{"bike_id":"a5317aa5-9b24-4e08-b792-49a9aabb2f94","system_id":"levelo_inurba_marseille","lat":43.28436,"lon":5.39181,"is_reserved":false,"is_disabled":false,"rental_uris":{"android":"levelo://app?vid=a5317aa5-9b24-4e08-b792-49a9aabb2f94","ios":"levelo://app?vid=a5317aa5-9b24-4e08-b792-49a9aabb2f94"},"vehicle_type_id":"4","last_reported":1731006399,"current_range_meters":12000,"station_id":"ce4bhoh2rcd13ifvqh5g","pricing_plan_id":"cebpf4jnsgd1na2vs0mg"},{"bike_id":"f139c0b7-52a7-4153-bf41-ccb9fdb0faad","system_id":"levelo_inurba_marseille","lat":43.28731,"lon":5.36079,"is_reserved":false,"is_disabled":false,"rental_uris":{"android":"levelo://app?vid=f139c0b7-52a7-4153-bf41-ccb9fdb0faad","ios":"levelo://app?vid=f139c0b7-52a7-4153-bf41-ccb9fdb0faad"},"vehicle_type_id":"4","last_reported":1731006399,"current_range_meters":38800,"station_id":"cki0cbj6b192h4jlfktg","pricing_plan_id":"cebpf4jnsgd1na2vs0mg"},{"bike_id":"dcd37895-9a35-4154-a612-24fe444ed053","system_id":"levelo_inurba_marseille","lat":43.29261,"lon":5.38444,"is_reserved":false,"is_disabled":false,"rental_uris":{"android":"levelo://app?vid=dcd37895-9a35-4154-a612-24fe444ed053","ios":"levelo://app?vid=dcd37895-9a35-4154-a612-24fe444ed053"},"vehicle_type_id":"4","last_reported":1731006399,"current_range_meters":8800,"station_id":"ce4bh692rcd13ifvqea0","pricing_plan_id":"cebpf4jnsgd1na2vs0mg"},{"bike_id":"4ab5195d-86f1-45bb-a318-b19c0f6fdf4a","system_id":"levelo_inurba_marseille","lat":43.27072,"lon":5.42283,"is_reserved":false,"is_disabled":false,"rental_uris":{"android":"levelo://app?vid=4ab5195d-86f1-45bb-a318-b19c0f6fdf4a","ios":"levelo://app?vid=4ab5195d-86f1-45bb-a318-b19c0f6fdf4a"},"vehicle_type_id":"4","last_reported":1731006399,"current_range_meters":30800,"station_id":"ce4bhk92rcd13ifvqgb0","pricing_plan_id":"cebpf4jnsgd1na2vs0mg"},{"bike_id":"0acba3aa-d268-4ac7-831e-709a8ecc8570","system_id":"levelo_inurba_marseille","lat":43.30642,"lon":5.40088,"is_reserved":false,"is_disabled":false,"rental_uris":{"android":"levelo://app?vid=0acba3aa-d268-4ac7-831e-709a8ecc8570","ios":"levelo://app?vid=0acba3aa-d268-4ac7-831e-709a8ecc8570"},"vehicle_type_id":"4","last_reported":1731006399,"current_range_meters":4000,"station_id":"ce4bh112rcd13ifvqda0","pricing_plan_id":"cebpf4jnsgd1na2vs0mg"},{"bike_id":"2632bc37-ed29-4f51-bbdf-160f0c2fc534","system_id":"levelo_inurba_marseille","lat":43.28925,"lon":5.36626,"is_reserved":false,"is_disabled":false,"rental_uris":{"android":"levelo://app?vid=2632bc37-ed29-4f51-bbdf-160f0c2fc534","ios":"levelo://app?vid=2632bc37-ed29-4f51-bbdf-160f0c2fc534"},"vehicle_type_id":"4","last_reported":1731006399,"current_range_meters":38800,"station_id":"ce4bhap2rcd13ifvqek0","pricing_plan_id":"cebpf4jnsgd1na2vs0mg"},{"bike_id":"03aac47a-870f-474f-98b2-53c038d2acf5","system_id":"levelo_inurba_marseille","lat":43.31763,"lon":5.39014,"is_reserved":false,"is_disabled":false,"rental_uris":{"android":"levelo://app?vid=03aac47a-870f-474f-98b2-53c038d2acf5","ios":"levelo://app?vid=03aac47a-870f-474f-98b2-53c038d2acf5"},"vehicle_type_id":"4","last_reported":1731006399,"current_range_meters":16000,"station_id":"ce4bhqp2rcd13ifvqhng","pricing_plan_id":"cebpf4jnsgd1na2vs0mg"},{"bike_id":"746f8df5-cd38-4c92-9c55-a49257706bc6","system_id":"levelo_inurba_marseille","lat":43.31325,"lon":5.39694,"is_reserved":false,"is_disabled":false,"rental_uris":{"android":"levelo://app?vid=746f8df5-cd38-4c92-9c55-a49257706bc6","ios":"levelo://app?vid=746f8df5-cd38-4c92-9c55-a49257706bc6"},"vehicle_type_id":"4","last_reported":1731006399,"current_range_meters":39200,"station_id":"ce4bgvp2rcd13ifvqcu0","pricing_plan_id":"cebpf4jnsgd1na2vs0mg"},{"bike_id":"74484fca-5aa5-46c6-b494-f224d6b0db71","system_id":"levelo_inurba_marseille","lat":43.2827,"lon":5.35063,"is_reserved":false,"is_disabled":false,"rental_uris":{"android":"levelo://app?vid=74484fca-5aa5-46c6-b494-f224d6b0db71","ios":"levelo://app?vid=74484fca-5aa5-46c6-b494-f224d6b0db71"},"vehicle_type_id":"4","last_reported":1731006399,"current_range_meters":38800,"station_id":"ce4bhbp2rcd13ifvqerg","pricing_plan_id":"cebpf4jnsgd1na2vs0mg"},{"bike_id":"4f7e9fdf-3a01-4906-928a-97595341c2ac","system_id":"levelo_inurba_marseille","lat":43.28464,"lon":5.35881,"is_reserved":false,"is_disabled":false,"rental_uris":{"android":"levelo://app?vid=4f7e9fdf-3a01-4906-928a-97595341c2ac","ios":"levelo://app?vid=4f7e9fdf-3a01-4906-928a-97595341c2ac"},"vehicle_type_id":"4","last_reported":1731006399,"current_range_meters":33600,"station_id":"ce4bhah2rcd13ifvqei0","pricing_plan_id":"cebpf4jnsgd1na2vs0mg"},{"bike_id":"80d5c89e-745d-46d6-9ab9-4f5ea40b6def","system_id":"levelo_inurba_marseille","lat":43.27177,"lon":5.40992,"is_reserved":false,"is_disabled":false,"rental_uris":{"android":"levelo://app?vid=80d5c89e-745d-46d6-9ab9-4f5ea40b6def","ios":"levelo://app?vid=80d5c89e-745d-46d6-9ab9-4f5ea40b6def"},"vehicle_type_id":"4","last_reported":1731006399,"current_range_meters":14400,"station_id":"ce4bhl12rcd13ifvqgf0","pricing_plan_id":"cebpf4jnsgd1na2vs0mg"},{"bike_id":"7edf48a5-86b0-440d-9f42-94cf46ce791e","system_id":"levelo_inurba_marseille","lat":43.31715,"lon":5.42404,"is_reserved":false,"is_disabled":false,"rental_uris":{"android":"levelo://app?vid=7edf48a5-86b0-440d-9f42-94cf46ce791e","ios":"levelo://app?vid=7edf48a5-86b0-440d-9f42-94cf46ce791e"},"vehicle_type_id":"4","last_reported":1731006399,"current_range_meters":2800,"station_id":"ce4bhp92rcd13ifvqhbg","pricing_plan_id":"cebpf4jnsgd1na2vs0mg"},{"bike_id":"ef288286-229d-4b9a-a189-8d61840dcffb","system_id":"levelo_inurba_marseille","lat":43.2319,"lon":5.35544,"is_reserved":false,"is_disabled":false,"rental_uris":{"android":"levelo://app?vid=ef288286-229d-4b9a-a189-8d61840dcffb","ios":"levelo://app?vid=ef288286-229d-4b9a-a189-8d61840dcffb"},"vehicle_type_id":"4","last_reported":1731006399,"current_range_meters":8800,"station_id":"ce4bhu92rcd13ifvqi70","pricing_plan_id":"cebpf4jnsgd1na2vs0mg"},{"bike_id":"a3668331-5409-4614-a2fc-79ffd0aed4c8","system_id":"levelo_inurba_marseille","lat":43.2987,"lon":5.39742,"is_reserved":false,"is_disabled":false,"rental_uris":{"android":"levelo://app?vid=a3668331-5409-4614-a2fc-79ffd0aed4c8","ios":"levelo://app?vid=a3668331-5409-4614-a2fc-79ffd0aed4c8"},"vehicle_type_id":"4","last_reported":1731006399,"current_range_meters":30800,"station_id":"ce4bh0h2rcd13ifvqd50","pricing_plan_id":"cebpf4jnsgd1na2vs0mg"},{"bike_id":"9044ed43-de46-4645-b2ad-5e136647239a","system_id":"levelo_inurba_marseille","lat":43.337444,"lon":5.374475,"is_reserved":false,"is_disabled":false,"rental_uris":{"android":"levelo://app?vid=9044ed43-de46-4645-b2ad-5e136647239a","ios":"levelo://app?vid=9044ed43-de46-4645-b2ad-5e136647239a"},"vehicle_type_id":"4","last_reported":1731006399,"current_range_meters":36000,"station_id":"","pricing_plan_id":"cebpf4jnsgd1na2vs0mg"},{"bike_id":"0e2b7fe2-e116-40cc-a675-ef2c386223b4","system_id":"levelo_inurba_marseille","lat":43.26805,"lon":5.4026,"is_reserved":false,"is_disabled":false,"rental_uris":{"android":"levelo://app?vid=0e2b7fe2-e116-40cc-a675-ef2c386223b4","ios":"levelo://app?vid=0e2b7fe2-e116-40cc-a675-ef2c386223b4"},"vehicle_type_id":"4","last_reported":1731006399,"current_range_meters":9200,"station_id":"ce501612rcd8frsf0b60","pricing_plan_id":"cebpf4jnsgd1na2vs0mg"},{"bike_id":"cde33d01-4fdf-4588-9993-50576e545d63","system_id":"levelo_inurba_marseille","lat":43.29899,"lon":5.4365,"is_reserved":false,"is_disabled":false,"rental_uris":{"android":"levelo://app?vid=cde33d01-4fdf-4588-9993-50576e545d63","ios":"levelo://app?vid=cde33d01-4fdf-4588-9993-50576e545d63"},"vehicle_type_id":"4","last_reported":1731006399,"current_range_meters":32400,"station_id":"ce4bhpp2rcd13ifvqhfg","pricing_plan_id":"cebpf4jnsgd1na2vs0mg"},{"bike_id":"b4c52ca2-a0b3-468a-8831-acdb1b623697","system_id":"levelo_inurba_marseille","lat":43.2761,"lon":5.3613,"is_reserved":false,"is_disabled":false,"rental_uris":{"android":"levelo://app?vid=b4c52ca2-a0b3-468a-8831-acdb1b623697","ios":"levelo://app?vid=b4c52ca2-a0b3-468a-8831-acdb1b623697"},"vehicle_type_id":"4","last_reported":1731006399,"current_range_meters":8400,"station_id":"ce4bgj92rcd13ifvqbe0","pricing_plan_id":"cebpf4jnsgd1na2vs0mg"},{"bike_id":"84d60574-e97d-416a-bb69-40e9fb469182","system_id":"levelo_inurba_marseille","lat":43.22928,"lon":5.35377,"is_reserved":false,"is_disabled":false,"rental_uris":{"android":"levelo://app?vid=84d60574-e97d-416a-bb69-40e9fb469182","ios":"levelo://app?vid=84d60574-e97d-416a-bb69-40e9fb469182"},"vehicle_type_id":"4","last_reported":1731006399,"current_range_meters":39200,"station_id":"cpo3532slgdg3j2ikp40","pricing_plan_id":"cebpf4jnsgd1na2vs0mg"},{"bike_id":"e750ec6a-35ea-4a06-8aef-a297ca2e3454","system_id":"levelo_inurba_marseille","lat":43.25866,"lon":5.39902,"is_reserved":false,"is_disabled":false,"rental_uris":{"android":"levelo://app?vid=e750ec6a-35ea-4a06-8aef-a297ca2e3454","ios":"levelo://app?vid=e750ec6a-35ea-4a06-8aef-a297ca2e3454"},"vehicle_type_id":"4","last_reported":1731006399,"current_range_meters":38400,"station_id":"ce4bhl92rcd13ifvqghg","pricing_plan_id":"cebpf4jnsgd1na2vs0mg"},{"bike_id":"5859d9bc-3304-437c-a3fa-efa72fb9e4cd","system_id":"levelo_inurba_marseille","lat":43.28421,"lon":5.34975,"is_reserved":false,"is_disabled":false,"rental_uris":{"android":"levelo://app?vid=5859d9bc-3304-437c-a3fa-efa72fb9e4cd","ios":"levelo://app?vid=5859d9bc-3304-437c-a3fa-efa72fb9e4cd"},"vehicle_type_id":"4","last_reported":1731006399,"current_range_meters":28000,"station_id":"ce4bhbh2rcd13ifvqepg","pricing_plan_id":"cebpf4jnsgd1na2vs0mg"},{"bike_id":"75612ab5-5016-4768-a25a-5abc0c707b99","system_id":"levelo_inurba_marseille","lat":43.29574,"lon":5.37514,"is_reserved":false,"is_disabled":false,"rental_uris":{"android":"levelo://app?vid=75612ab5-5016-4768-a25a-5abc0c707b99","ios":"levelo://app?vid=75612ab5-5016-4768-a25a-5abc0c707b99"},"vehicle_type_id":"4","last_reported":1731006399,"current_range_meters":24000,"station_id":"ce4bgh92rcd13ifvqb50","pricing_plan_id":"cebpf4jnsgd1na2vs0mg"},{"bike_id":"5914ef9f-d2f7-420a-861c-9a2ed9edd7dc","system_id":"levelo_inurba_marseille","lat":43.30953,"lon":5.39031,"is_reserved":false,"is_disabled":false,"rental_uris":{"android":"levelo://app?vid=5914ef9f-d2f7-420a-861c-9a2ed9edd7dc","ios":"levelo://app?vid=5914ef9f-d2f7-420a-861c-9a2ed9edd7dc"},"vehicle_type_id":"4","last_reported":1731006399,"current_range_meters":3200,"station_id":"ce4bgup2rcd13ifvqco0","pricing_plan_id":"cebpf4jnsgd1na2vs0mg"},{"bike_id":"38c9c563-2dc8-4ec3-94f6-fd20caf6397c","system_id":"levelo_inurba_marseille","lat":43.2858,"lon":5.39492,"is_reserved":false,"is_disabled":false,"rental_uris":{"android":"levelo://app?vid=38c9c563-2dc8-4ec3-94f6-fd20caf6397c","ios":"levelo://app?vid=38c9c563-2dc8-4ec3-94f6-fd20caf6397c"},"vehicle_type_id":"4","last_reported":1731006399,"current_range_meters":38800,"station_id":"ce4bh292rcd13ifvqdg0","pricing_plan_id":"cebpf4jnsgd1na2vs0mg"},{"bike_id":"1610283b-747f-434d-ba01-a7c27ceb4c0b","system_id":"levelo_inurba_marseille","lat":43.28724,"lon":5.37937,"is_reserved":false,"is_disabled":false,"rental_uris":{"android":"levelo://app?vid=1610283b-747f-434d-ba01-a7c27ceb4c0b","ios":"levelo://app?vid=1610283b-747f-434d-ba01-a7c27ceb4c0b"},"vehicle_type_id":"4","last_reported":1731006399,"current_range_meters":32000,"station_id":"ce4bh9p2rcd13ifvqec0","pricing_plan_id":"cebpf4jnsgd1na2vs0mg"},{"bike_id":"b744f178-d2db-4532-a609-ccb3faaf0ffd","system_id":"levelo_inurba_marseille","lat":43.24071,"lon":5.37756,"is_reserved":false,"is_disabled":false,"rental_uris":{"android":"levelo://app?vid=b744f178-d2db-4532-a609-ccb3faaf0ffd","ios":"levelo://app?vid=b744f178-d2db-4532-a609-ccb3faaf0ffd"},"vehicle_type_id":"4","last_reported":1731006399,"current_range_meters":30400,"station_id":"ce4bhnp2rcd13ifvqgvg","pricing_plan_id":"cebpf4jnsgd1na2vs0mg"},{"bike_id":"e7cd005d-d362-4c36-a955-3c59f122a64d","system_id":"levelo_inurba_marseille","lat":43.28152,"lon":5.42639,"is_reserved":false,"is_disabled":false,"rental_uris":{"android":"levelo://app?vid=e7cd005d-d362-4c36-a955-3c59f122a64d","ios":"levelo://app?vid=e7cd005d-d362-4c36-a955-3c59f122a64d"},"vehicle_type_id":"4","last_reported":1731006399,"current_range_meters":27200,"station_id":"ce4bhnh2rcd13ifvqgug","pricing_plan_id":"cebpf4jnsgd1na2vs0mg"},{"bike_id":"2e76dd59-ec63-4649-ad46-78b9285259df","system_id":"levelo_inurba_marseille","lat":43.30268,"lon":5.37685,"is_reserved":false,"is_disabled":false,"rental_uris":{"android":"levelo://app?vid=2e76dd59-ec63-4649-ad46-78b9285259df","ios":"levelo://app?vid=2e76dd59-ec63-4649-ad46-78b9285259df"},"vehicle_type_id":"4","last_reported":1731006399,"current_range_meters":4400,"station_id":"ce4bguh2rcd13ifvqcj0","pricing_plan_id":"cebpf4jnsgd1na2vs0mg"},{"bike_id":"86df6946-1e8b-4481-962b-4975b4baf575","system_id":"levelo_inurba_marseille","lat":43.2792,"lon":5.39577,"is_reserved":false,"is_disabled":false,"rental_uris":{"android":"levelo://app?vid=86df6946-1e8b-4481-962b-4975b4baf575","ios":"levelo://app?vid=86df6946-1e8b-4481-962b-4975b4baf575"},"vehicle_type_id":"4","last_reported":1731006399,"current_range_meters":27600,"station_id":"ce4bhf92rcd13ifvqf40","pricing_plan_id":"cebpf4jnsgd1na2vs0mg"},{"bike_id":"b11a758f-18f2-4e8e-b79b-e49bde3de7bd","system_id":"levelo_inurba_marseille","lat":43.279001,"lon":5.395751,"is_reserved":false,"is_disabled":false,"rental_uris":{"android":"levelo://app?vid=b11a758f-18f2-4e8e-b79b-e49bde3de7bd","ios":"levelo://app?vid=b11a758f-18f2-4e8e-b79b-e49bde3de7bd"},"vehicle_type_id":"4","last_reported":1731006399,"current_range_meters":18800,"station_id":"ce4bhh92rcd13ifvqfj0","pricing_plan_id":"cebpf4jnsgd1na2vs0mg"},{"bike_id":"0b9e700d-9258-4472-8882-d6ad40d66901","system_id":"levelo_inurba_marseille","lat":43.26061,"lon":5.39395,"is_reserved":false,"is_disabled":false,"rental_uris":{"android":"levelo://app?vid=0b9e700d-9258-4472-8882-d6ad40d66901","ios":"levelo://app?vid=0b9e700d-9258-4472-8882-d6ad40d66901"},"vehicle_type_id":"4","last_reported":1731006399,"current_range_meters":38800,"station_id":"ce4bhh92rcd13ifvqfj0","pricing_plan_id":"cebpf4jnsgd1na2vs0mg"},{"bike_id":"5f5fed70-1a16-4a51-9daa-ef868c6df0d0","system_id":"levelo_inurba_marseille","lat":43.23979,"lon":5.36616,"is_reserved":false,"is_disabled":false,"rental_uris":{"android":"levelo://app?vid=5f5fed70-1a16-4a51-9daa-ef868c6df0d0","ios":"levelo://app?vid=5f5fed70-1a16-4a51-9daa-ef868c6df0d0"},"vehicle_type_id":"4","last_reported":1731006399,"current_range_meters":18000,"station_id":"ce4bhi12rcd13ifvqfp0","pricing_plan_id":"cebpf4jnsgd1na2vs0mg"},{"bike_id":"67678471-8900-40c3-b5bb-806b24feb686","system_id":"levelo_inurba_marseille","lat":43.31333,"lon":5.39696,"is_reserved":false,"is_disabled":false,"rental_uris":{"android":"levelo://app?vid=67678471-8900-40c3-b5bb-806b24feb686","ios":"levelo://app?vid=67678471-8900-40c3-b5bb-806b24feb686"},"vehicle_type_id":"4","last_reported":1731006399,"current_range_meters":27200,"station_id":"ce4bgvp2rcd13ifvqcu0","pricing_plan_id":"cebpf4jnsgd1na2vs0mg"},{"bike_id":"5fc31563-65b1-4a20-aec5-2cae637d1774","system_id":"levelo_inurba_marseille","lat":43.2942,"lon":5.3862,"is_reserved":false,"is_disabled":false,"rental_uris":{"android":"levelo://app?vid=5fc31563-65b1-4a20-aec5-2cae637d1774","ios":"levelo://app?vid=5fc31563-65b1-4a20-aec5-2cae637d1774"},"vehicle_type_id":"4","last_reported":1731006399,"current_range_meters":11200,"station_id":"ce4bh2h2rcd13ifvqdh0","pricing_plan_id":"cebpf4jnsgd1na2vs0mg"},{"bike_id":"65eea0cd-2ca5-4855-b964-b026702e1d71","system_id":"levelo_inurba_marseille","lat":43.27922,"lon":5.39583,"is_reserved":false,"is_disabled":false,"rental_uris":{"android":"levelo://app?vid=65eea0cd-2ca5-4855-b964-b026702e1d71","ios":"levelo://app?vid=65eea0cd-2ca5-4855-b964-b026702e1d71"},"vehicle_type_id":"4","last_reported":1731006399,"current_range_meters":22800,"station_id":"ce4bhf92rcd13ifvqf40","pricing_plan_id":"cebpf4jnsgd1na2vs0mg"},{"bike_id":"543afa15-d496-41e7-8907-f8db45558c2e","system_id":"levelo_inurba_marseille","lat":43.29556,"lon":5.39973,"is_reserved":false,"is_disabled":false,"rental_uris":{"android":"levelo://app?vid=543afa15-d496-41e7-8907-f8db45558c2e","ios":"levelo://app?vid=543afa15-d496-41e7-8907-f8db45558c2e"},"vehicle_type_id":"4","last_reported":1731006399,"current_range_meters":13600,"station_id":"chh1huq6cuj3fo74tm60","pricing_plan_id":"cebpf4jnsgd1na2vs0mg"},{"bike_id":"c70f3a51-3c77-47f4-afdc-c467e625745f","system_id":"levelo_inurba_marseille","lat":43.2812,"lon":5.38204,"is_reserved":false,"is_disabled":false,"rental_uris":{"android":"levelo://app?vid=c70f3a51-3c77-47f4-afdc-c467e625745f","ios":"levelo://app?vid=c70f3a51-3c77-47f4-afdc-c467e625745f"},"vehicle_type_id":"4","last_reported":1731006399,"current_range_meters":26800,"station_id":"","pricing_plan_id":"cebpf4jnsgd1na2vs0mg"},{"bike_id":"d6fdae69-642e-4d84-a8fd-edeb75ed0ef4","system_id":"levelo_inurba_marseille","lat":43.22934,"lon":5.35378,"is_reserved":false,"is_disabled":false,"rental_uris":{"android":"levelo://app?vid=d6fdae69-642e-4d84-a8fd-edeb75ed0ef4","ios":"levelo://app?vid=d6fdae69-642e-4d84-a8fd-edeb75ed0ef4"},"vehicle_type_id":"4","last_reported":1731006399,"current_range_meters":27200,"station_id":"cpo3532slgdg3j2ikp40","pricing_plan_id":"cebpf4jnsgd1na2vs0mg"},{"bike_id":"750e93d0-01f1-496d-93b1-920137237eef","system_id":"levelo_inurba_marseille","lat":43.31173,"lon":5.38712,"is_reserved":false,"is_disabled":false,"rental_uris":{"android":"levelo://app?vid=750e93d0-01f1-496d-93b1-920137237eef","ios":"levelo://app?vid=750e93d0-01f1-496d-93b1-920137237eef"},"vehicle_type_id":"4","last_reported":1731006399,"current_range_meters":38800,"station_id":"ce4bgv12rcd13ifvqcp0","pricing_plan_id":"cebpf4jnsgd1na2vs0mg"},{"bike_id":"1d000d19-b846-435e-9b64-d6b7e272d701","system_id":"levelo_inurba_marseille","lat":43.26486,"lon":5.39543,"is_reserved":false,"is_disabled":false,"rental_uris":{"android":"levelo://app?vid=1d000d19-b846-435e-9b64-d6b7e272d701","ios":"levelo://app?vid=1d000d19-b846-435e-9b64-d6b7e272d701"},"vehicle_type_id":"4","last_reported":1731006399,"current_range_meters":21600,"station_id":"ce4bhi12rcd13ifvqfq0","pricing_plan_id":"cebpf4jnsgd1na2vs0mg"},{"bike_id":"b6f0aee3-ea07-4a39-96df-0eabe4095941","system_id":"levelo_inurba_marseille","lat":43.3135,"lon":5.36786,"is_reserved":false,"is_disabled":false,"rental_uris":{"android":"levelo://app?vid=b6f0aee3-ea07-4a39-96df-0eabe4095941","ios":"levelo://app?vid=b6f0aee3-ea07-4a39-96df-0eabe4095941"},"vehicle_type_id":"4","last_reported":1731006399,"current_range_meters":26000,"station_id":"ce4bgl92rcd13ifvqbq0","pricing_plan_id":"cebpf4jnsgd1na2vs0mg"},{"bike_id":"001b7c42-40a7-47a9-927f-6c03197892aa","system_id":"levelo_inurba_marseille","lat":43.33722,"lon":5.3918,"is_reserved":false,"is_disabled":false,"rental_uris":{"android":"levelo://app?vid=001b7c42-40a7-47a9-927f-6c03197892aa","ios":"levelo://app?vid=001b7c42-40a7-47a9-927f-6c03197892aa"},"vehicle_type_id":"4","last_reported":1731006399,"current_range_meters":39200,"station_id":"ce4bhr92rcd13ifvqhsg","pricing_plan_id":"cebpf4jnsgd1na2vs0mg"},{"bike_id":"547f12eb-aa1d-49b8-a889-205e4a70ef78","system_id":"levelo_inurba_marseille","lat":43.27938,"lon":5.41045,"is_reserved":false,"is_disabled":false,"rental_uris":{"android":"levelo://app?vid=547f12eb-aa1d-49b8-a889-205e4a70ef78","ios":"levelo://app?vid=547f12eb-aa1d-49b8-a889-205e4a70ef78"},"vehicle_type_id":"4","last_reported":1731006399,"current_range_meters":38800,"station_id":"ce4bhnp2rcd13ifvqh0g","pricing_plan_id":"cebpf4jnsgd1na2vs0mg"},{"bike_id":"d45628f9-b0bb-4e9b-addd-9b627203addd","system_id":"levelo_inurba_marseille","lat":43.28439,"lon":5.3918,"is_reserved":false,"is_disabled":false,"rental_uris":{"android":"levelo://app?vid=d45628f9-b0bb-4e9b-addd-9b627203addd","ios":"levelo://app?vid=d45628f9-b0bb-4e9b-addd-9b627203addd"},"vehicle_type_id":"4","last_reported":1731006399,"current_range_meters":17600,"station_id":"ce4bhoh2rcd13ifvqh5g","pricing_plan_id":"cebpf4jnsgd1na2vs0mg"},{"bike_id":"eccdd5c8-f864-4bc2-be8a-220467fc6b6d","system_id":"levelo_inurba_marseille","lat":43.30903,"lon":5.36833,"is_reserved":false,"is_disabled":false,"rental_uris":{"android":"levelo://app?vid=eccdd5c8-f864-4bc2-be8a-220467fc6b6d","ios":"levelo://app?vid=eccdd5c8-f864-4bc2-be8a-220467fc6b6d"},"vehicle_type_id":"4","last_reported":1731006399,"current_range_meters":30000,"station_id":"ce4bgn92rcd13ifvqbvg","pricing_plan_id":"cebpf4jnsgd1na2vs0mg"},{"bike_id":"198dc43d-2219-4334-8071-ad1fd126b287","system_id":"levelo_inurba_marseille","lat":43.31529,"lon":5.38035,"is_reserved":false,"is_disabled":false,"rental_uris":{"android":"levelo://app?vid=198dc43d-2219-4334-8071-ad1fd126b287","ios":"levelo://app?vid=198dc43d-2219-4334-8071-ad1fd126b287"},"vehicle_type_id":"4","last_reported":1731006399,"current_range_meters":28000,"station_id":"ce4bhsp2rcd13ifvqi50","pricing_plan_id":"cebpf4jnsgd1na2vs0mg"},{"bike_id":"9178d598-d5de-4d5c-85ae-0efa9377149a","system_id":"levelo_inurba_marseille","lat":43.23188,"lon":5.3998,"is_reserved":false,"is_disabled":false,"rental_uris":{"android":"levelo://app?vid=9178d598-d5de-4d5c-85ae-0efa9377149a","ios":"levelo://app?vid=9178d598-d5de-4d5c-85ae-0efa9377149a"},"vehicle_type_id":"4","last_reported":1731006399,"current_range_meters":20000,"station_id":"ce4bhn12rcd13ifvqgqg","pricing_plan_id":"cebpf4jnsgd1na2vs0mg"},{"bike_id":"0312fdf7-061b-4f39-b45e-d6f9af858f5e","system_id":"levelo_inurba_marseille","lat":43.30777,"lon":5.376489,"is_reserved":false,"is_disabled":false,"rental_uris":{"android":"levelo://app?vid=0312fdf7-061b-4f39-b45e-d6f9af858f5e","ios":"levelo://app?vid=0312fdf7-061b-4f39-b45e-d6f9af858f5e"},"vehicle_type_id":"4","last_reported":1731006399,"current_range_meters":36400,"station_id":"ce4bgv92rcd13ifvqcq0","pricing_plan_id":"cebpf4jnsgd1na2vs0mg"},{"bike_id":"0f6720d0-0074-4d75-8954-368ef2125385","system_id":"levelo_inurba_marseille","lat":43.31725,"lon":5.37742,"is_reserved":false,"is_disabled":false,"rental_uris":{"android":"levelo://app?vid=0f6720d0-0074-4d75-8954-368ef2125385","ios":"levelo://app?vid=0f6720d0-0074-4d75-8954-368ef2125385"},"vehicle_type_id":"4","last_reported":1731006399,"current_range_meters":34800,"station_id":"ce4bgth2rcd13ifvqch0","pricing_plan_id":"cebpf4jnsgd1na2vs0mg"},{"bike_id":"53f46b84-45b7-4411-be62-aa0c41917550","system_id":"levelo_inurba_marseille","lat":43.30804,"lon":5.43523,"is_reserved":false,"is_disabled":false,"rental_uris":{"android":"levelo://app?vid=53f46b84-45b7-4411-be62-aa0c41917550","ios":"levelo://app?vid=53f46b84-45b7-4411-be62-aa0c41917550"},"vehicle_type_id":"4","last_reported":1731006399,"current_range_meters":19600,"station_id":"ce4bhph2rcd13ifvqheg","pricing_plan_id":"cebpf4jnsgd1na2vs0mg"},{"bike_id":"fdf26527-6c0f-4b2a-b565-d41399ed3242","system_id":"levelo_inurba_marseille","lat":43.31537,"lon":5.3804,"is_reserved":false,"is_disabled":false,"rental_uris":{"android":"levelo://app?vid=fdf26527-6c0f-4b2a-b565-d41399ed3242","ios":"levelo://app?vid=fdf26527-6c0f-4b2a-b565-d41399ed3242"},"vehicle_type_id":"4","last_reported":1731006399,"current_range_meters":4400,"station_id":"ce4bhsp2rcd13ifvqi50","pricing_plan_id":"cebpf4jnsgd1na2vs0mg"},{"bike_id":"0d6fd0c4-c1ea-494c-8ca1-cf1730b804a2","system_id":"levelo_inurba_marseille","lat":43.27498,"lon":5.42456,"is_reserved":false,"is_disabled":false,"rental_uris":{"android":"levelo://app?vid=0d6fd0c4-c1ea-494c-8ca1-cf1730b804a2","ios":"levelo://app?vid=0d6fd0c4-c1ea-494c-8ca1-cf1730b804a2"},"vehicle_type_id":"4","last_reported":1731006399,"current_range_meters":32400,"station_id":"ce4bhn92rcd13ifvqgrg","pricing_plan_id":"cebpf4jnsgd1na2vs0mg"},{"bike_id":"61c2e5eb-d7cc-46d2-bd4f-f803061d8cb6","system_id":"levelo_inurba_marseille","lat":43.30885,"lon":5.39629,"is_reserved":false,"is_disabled":false,"rental_uris":{"android":"levelo://app?vid=61c2e5eb-d7cc-46d2-bd4f-f803061d8cb6","ios":"levelo://app?vid=61c2e5eb-d7cc-46d2-bd4f-f803061d8cb6"},"vehicle_type_id":"4","last_reported":1731006399,"current_range_meters":24400,"station_id":"ce4bh012rcd13ifvqcv0","pricing_plan_id":"cebpf4jnsgd1na2vs0mg"},{"bike_id":"c9e13d95-f398-4116-bddd-1e4a516b34dd","system_id":"levelo_inurba_marseille","lat":43.29,"lon":5.35602,"is_reserved":false,"is_disabled":false,"rental_uris":{"android":"levelo://app?vid=c9e13d95-f398-4116-bddd-1e4a516b34dd","ios":"levelo://app?vid=c9e13d95-f398-4116-bddd-1e4a516b34dd"},"vehicle_type_id":"4","last_reported":1731006399,"current_range_meters":3600,"station_id":"ce4bhb92rcd13ifvqen0","pricing_plan_id":"cebpf4jnsgd1na2vs0mg"},{"bike_id":"0993ae53-b33b-4ec0-8420-6942bdb9eb84","system_id":"levelo_inurba_marseille","lat":43.30796,"lon":5.43521,"is_reserved":false,"is_disabled":false,"rental_uris":{"android":"levelo://app?vid=0993ae53-b33b-4ec0-8420-6942bdb9eb84","ios":"levelo://app?vid=0993ae53-b33b-4ec0-8420-6942bdb9eb84"},"vehicle_type_id":"4","last_reported":1731006399,"current_range_meters":39200,"station_id":"ce4bhph2rcd13ifvqheg","pricing_plan_id":"cebpf4jnsgd1na2vs0mg"},{"bike_id":"8a24a852-75d3-4716-883d-d8f9c79f0cd1","system_id":"levelo_inurba_marseille","lat":43.279343,"lon":5.410439,"is_reserved":false,"is_disabled":false,"rental_uris":{"android":"levelo://app?vid=8a24a852-75d3-4716-883d-d8f9c79f0cd1","ios":"levelo://app?vid=8a24a852-75d3-4716-883d-d8f9c79f0cd1"},"vehicle_type_id":"4","last_reported":1731006399,"current_range_meters":38800,"station_id":"ce4bhnp2rcd13ifvqh0g","pricing_plan_id":"cebpf4jnsgd1na2vs0mg"},{"bike_id":"f4675348-4353-44d2-9731-5d9ce4545678","system_id":"levelo_inurba_marseille","lat":43.30952,"lon":5.390317,"is_reserved":false,"is_disabled":false,"rental_uris":{"android":"levelo://app?vid=f4675348-4353-44d2-9731-5d9ce4545678","ios":"levelo://app?vid=f4675348-4353-44d2-9731-5d9ce4545678"},"vehicle_type_id":"4","last_reported":1731006399,"current_range_meters":4800,"station_id":"ce4bgup2rcd13ifvqco0","pricing_plan_id":"cebpf4jnsgd1na2vs0mg"},{"bike_id":"fb02ac8c-7e83-437b-9987-0aa22546cfee","system_id":"levelo_inurba_marseille","lat":43.33026,"lon":5.39041,"is_reserved":false,"is_disabled":false,"rental_uris":{"android":"levelo://app?vid=fb02ac8c-7e83-437b-9987-0aa22546cfee","ios":"levelo://app?vid=fb02ac8c-7e83-437b-9987-0aa22546cfee"},"vehicle_type_id":"4","last_reported":1731006399,"current_range_meters":8000,"station_id":"ce4bhr92rcd13ifvqhrg","pricing_plan_id":"cebpf4jnsgd1na2vs0mg"},{"bike_id":"e8d920af-9627-4c1d-a947-7e0cc1f85fe6","system_id":"levelo_inurba_marseille","lat":43.284084,"lon":5.375036,"is_reserved":false,"is_disabled":false,"rental_uris":{"android":"levelo://app?vid=e8d920af-9627-4c1d-a947-7e0cc1f85fe6","ios":"levelo://app?vid=e8d920af-9627-4c1d-a947-7e0cc1f85fe6"},"vehicle_type_id":"4","last_reported":1731006399,"current_range_meters":38800,"station_id":"ce4bh612rcd13ifvqe6g","pricing_plan_id":"cebpf4jnsgd1na2vs0mg"},{"bike_id":"dd9bc1b1-2d19-4a59-b2ac-66fd4da3d7dd","system_id":"levelo_inurba_marseille","lat":43.29536,"lon":5.39398,"is_reserved":false,"is_disabled":false,"rental_uris":{"android":"levelo://app?vid=dd9bc1b1-2d19-4a59-b2ac-66fd4da3d7dd","ios":"levelo://app?vid=dd9bc1b1-2d19-4a59-b2ac-66fd4da3d7dd"},"vehicle_type_id":"4","last_reported":1731006399,"current_range_meters":9200,"station_id":"ce4bh292rcd13ifvqdf0","pricing_plan_id":"cebpf4jnsgd1na2vs0mg"},{"bike_id":"650f5835-bc4e-42c7-b5d8-20d584cdd8af","system_id":"levelo_inurba_marseille","lat":43.32492,"lon":5.36565,"is_reserved":false,"is_disabled":false,"rental_uris":{"android":"levelo://app?vid=650f5835-bc4e-42c7-b5d8-20d584cdd8af","ios":"levelo://app?vid=650f5835-bc4e-42c7-b5d8-20d584cdd8af"},"vehicle_type_id":"4","last_reported":1731006399,"current_range_meters":27600,"station_id":"ce4bhs12rcd13ifvqhvg","pricing_plan_id":"cebpf4jnsgd1na2vs0mg"},{"bike_id":"f2272917-66e4-42ae-84cc-f15f7f5dbf3b","system_id":"levelo_inurba_marseille","lat":43.31174,"lon":5.38712,"is_reserved":false,"is_disabled":false,"rental_uris":{"android":"levelo://app?vid=f2272917-66e4-42ae-84cc-f15f7f5dbf3b","ios":"levelo://app?vid=f2272917-66e4-42ae-84cc-f15f7f5dbf3b"},"vehicle_type_id":"4","last_reported":1731006399,"current_range_meters":14800,"station_id":"ce4bgv12rcd13ifvqcp0","pricing_plan_id":"cebpf4jnsgd1na2vs0mg"},{"bike_id":"f8ce9711-a10e-405b-b641-b7a116b5e0c6","system_id":"levelo_inurba_marseille","lat":43.31228,"lon":5.36859,"is_reserved":false,"is_disabled":false,"rental_uris":{"android":"levelo://app?vid=f8ce9711-a10e-405b-b641-b7a116b5e0c6","ios":"levelo://app?vid=f8ce9711-a10e-405b-b641-b7a116b5e0c6"},"vehicle_type_id":"4","last_reported":1731006399,"current_range_meters":35600,"station_id":"ce4bgl92rcd13ifvqbq0","pricing_plan_id":"cebpf4jnsgd1na2vs0mg"},{"bike_id":"e6ba2667-3bb8-424d-b11b-d268eda843ea","system_id":"levelo_inurba_marseille","lat":43.29307,"lon":5.37162,"is_reserved":false,"is_disabled":false,"rental_uris":{"android":"levelo://app?vid=e6ba2667-3bb8-424d-b11b-d268eda843ea","ios":"levelo://app?vid=e6ba2667-3bb8-424d-b11b-d268eda843ea"},"vehicle_type_id":"4","last_reported":1731006399,"current_range_meters":30800,"station_id":"ce4bgh92rcd13ifvqb40","pricing_plan_id":"cebpf4jnsgd1na2vs0mg"},{"bike_id":"e3bd5f31-9755-48f4-88c2-d5a45a160811","system_id":"levelo_inurba_marseille","lat":43.30531,"lon":5.36703,"is_reserved":false,"is_disabled":false,"rental_uris":{"android":"levelo://app?vid=e3bd5f31-9755-48f4-88c2-d5a45a160811","ios":"levelo://app?vid=e3bd5f31-9755-48f4-88c2-d5a45a160811"},"vehicle_type_id":"4","last_reported":1731006399,"current_range_meters":4800,"station_id":"ce4bgrp2rcd13ifvqc9g","pricing_plan_id":"cebpf4jnsgd1na2vs0mg"},{"bike_id":"92bbe5af-b5d9-48fc-afb8-3b15fc8d3190","system_id":"levelo_inurba_marseille","lat":43.31718,"lon":5.42401,"is_reserved":false,"is_disabled":false,"rental_uris":{"android":"levelo://app?vid=92bbe5af-b5d9-48fc-afb8-3b15fc8d3190","ios":"levelo://app?vid=92bbe5af-b5d9-48fc-afb8-3b15fc8d3190"},"vehicle_type_id":"4","last_reported":1731006399,"current_range_meters":32800,"station_id":"ce4bhp92rcd13ifvqhbg","pricing_plan_id":"cebpf4jnsgd1na2vs0mg"},{"bike_id":"b89da140-c3b6-426f-a346-4fa42ea03fdf","system_id":"levelo_inurba_marseille","lat":43.28573,"lon":5.3949,"is_reserved":false,"is_disabled":false,"rental_uris":{"android":"levelo://app?vid=b89da140-c3b6-426f-a346-4fa42ea03fdf","ios":"levelo://app?vid=b89da140-c3b6-426f-a346-4fa42ea03fdf"},"vehicle_type_id":"4","last_reported":1731006399,"current_range_meters":38000,"station_id":"ce4bh292rcd13ifvqdg0","pricing_plan_id":"cebpf4jnsgd1na2vs0mg"},{"bike_id":"087c12e0-51d1-40d3-8796-641de37d21e4","system_id":"levelo_inurba_marseille","lat":43.2829,"lon":5.35066,"is_reserved":false,"is_disabled":false,"rental_uris":{"android":"levelo://app?vid=087c12e0-51d1-40d3-8796-641de37d21e4","ios":"levelo://app?vid=087c12e0-51d1-40d3-8796-641de37d21e4"},"vehicle_type_id":"4","last_reported":1731006399,"current_range_meters":38800,"station_id":"ce4bhbp2rcd13ifvqerg","pricing_plan_id":"cebpf4jnsgd1na2vs0mg"},{"bike_id":"6b793bbd-5954-4f81-bfef-fd4d8b2129e3","system_id":"levelo_inurba_marseille","lat":43.33724,"lon":5.39175,"is_reserved":false,"is_disabled":false,"rental_uris":{"android":"levelo://app?vid=6b793bbd-5954-4f81-bfef-fd4d8b2129e3","ios":"levelo://app?vid=6b793bbd-5954-4f81-bfef-fd4d8b2129e3"},"vehicle_type_id":"4","last_reported":1731006399,"current_range_meters":36800,"station_id":"ce4bhr92rcd13ifvqhsg","pricing_plan_id":"cebpf4jnsgd1na2vs0mg"},{"bike_id":"0366bdb5-16ac-4a75-93d2-d1f7e545a0e7","system_id":"levelo_inurba_marseille","lat":43.24668,"lon":5.38171,"is_reserved":false,"is_disabled":false,"rental_uris":{"android":"levelo://app?vid=0366bdb5-16ac-4a75-93d2-d1f7e545a0e7","ios":"levelo://app?vid=0366bdb5-16ac-4a75-93d2-d1f7e545a0e7"},"vehicle_type_id":"4","last_reported":1731006399,"current_range_meters":19200,"station_id":"ce4bhih2rcd13ifvqfr0","pricing_plan_id":"cebpf4jnsgd1na2vs0mg"},{"bike_id":"82249930-49fa-479f-bef4-f6fa9c7557f9","system_id":"levelo_inurba_marseille","lat":43.28004,"lon":5.40008,"is_reserved":false,"is_disabled":false,"rental_uris":{"android":"levelo://app?vid=82249930-49fa-479f-bef4-f6fa9c7557f9","ios":"levelo://app?vid=82249930-49fa-479f-bef4-f6fa9c7557f9"},"vehicle_type_id":"4","last_reported":1731006399,"current_range_meters":16800,"station_id":"ce4bho92rcd13ifvqh4g","pricing_plan_id":"cebpf4jnsgd1na2vs0mg"},{"bike_id":"6e6e001a-2d4b-4e63-8f57-413c2cf4540c","system_id":"levelo_inurba_marseille","lat":43.27915,"lon":5.39577,"is_reserved":false,"is_disabled":false,"rental_uris":{"android":"levelo://app?vid=6e6e001a-2d4b-4e63-8f57-413c2cf4540c","ios":"levelo://app?vid=6e6e001a-2d4b-4e63-8f57-413c2cf4540c"},"vehicle_type_id":"4","last_reported":1731006399,"current_range_meters":29600,"station_id":"ce4bhf92rcd13ifvqf40","pricing_plan_id":"cebpf4jnsgd1na2vs0mg"},{"bike_id":"399025e6-7f35-4342-9d98-3c2224090b18","system_id":"levelo_inurba_marseille","lat":43.285781,"lon":5.394919,"is_reserved":false,"is_disabled":false,"rental_uris":{"android":"levelo://app?vid=399025e6-7f35-4342-9d98-3c2224090b18","ios":"levelo://app?vid=399025e6-7f35-4342-9d98-3c2224090b18"},"vehicle_type_id":"4","last_reported":1731006399,"current_range_meters":38800,"station_id":"ce4bh292rcd13ifvqdg0","pricing_plan_id":"cebpf4jnsgd1na2vs0mg"},{"bike_id":"26ee007d-c521-4271-a726-fe0c9aeca07e","system_id":"levelo_inurba_marseille","lat":43.33121,"lon":5.38213,"is_reserved":false,"is_disabled":false,"rental_uris":{"android":"levelo://app?vid=26ee007d-c521-4271-a726-fe0c9aeca07e","ios":"levelo://app?vid=26ee007d-c521-4271-a726-fe0c9aeca07e"},"vehicle_type_id":"4","last_reported":1731006399,"current_range_meters":7200,"station_id":"","pricing_plan_id":"cebpf4jnsgd1na2vs0mg"},{"bike_id":"55832718-3048-4754-b6c7-735f796a1db1","system_id":"levelo_inurba_marseille","lat":43.2481,"lon":5.37454,"is_reserved":false,"is_disabled":false,"rental_uris":{"android":"levelo://app?vid=55832718-3048-4754-b6c7-735f796a1db1","ios":"levelo://app?vid=55832718-3048-4754-b6c7-735f796a1db1"},"vehicle_type_id":"4","last_reported":1731006399,"current_range_meters":14400,"station_id":"ce4bhgh2rcd13ifvqfb0","pricing_plan_id":"cebpf4jnsgd1na2vs0mg"},{"bike_id":"7e02be68-6753-41d9-adcd-443fd738b253","system_id":"levelo_inurba_marseille","lat":43.24662,"lon":5.38164,"is_reserved":false,"is_disabled":false,"rental_uris":{"android":"levelo://app?vid=7e02be68-6753-41d9-adcd-443fd738b253","ios":"levelo://app?vid=7e02be68-6753-41d9-adcd-443fd738b253"},"vehicle_type_id":"4","last_reported":1731006399,"current_range_meters":31200,"station_id":"ce4bhih2rcd13ifvqfr0","pricing_plan_id":"cebpf4jnsgd1na2vs0mg"},{"bike_id":"d96ca85f-f606-4f50-a819-f2aa1dae02d3","system_id":"levelo_inurba_marseille","lat":43.28572,"lon":5.39497,"is_reserved":false,"is_disabled":false,"rental_uris":{"android":"levelo://app?vid=d96ca85f-f606-4f50-a819-f2aa1dae02d3","ios":"levelo://app?vid=d96ca85f-f606-4f50-a819-f2aa1dae02d3"},"vehicle_type_id":"4","last_reported":1731006399,"current_range_meters":2000,"station_id":"ce4bh292rcd13ifvqdg0","pricing_plan_id":"cebpf4jnsgd1na2vs0mg"},{"bike_id":"c3cb839e-e4a8-4cfc-b49c-7459fa8083e9","system_id":"levelo_inurba_marseille","lat":43.31226,"lon":5.36854,"is_reserved":false,"is_disabled":false,"rental_uris":{"android":"levelo://app?vid=c3cb839e-e4a8-4cfc-b49c-7459fa8083e9","ios":"levelo://app?vid=c3cb839e-e4a8-4cfc-b49c-7459fa8083e9"},"vehicle_type_id":"4","last_reported":1731006399,"current_range_meters":8000,"station_id":"ce4bgl92rcd13ifvqbq0","pricing_plan_id":"cebpf4jnsgd1na2vs0mg"},{"bike_id":"69cad115-e4cb-4174-b543-7ff10ff12c7f","system_id":"levelo_inurba_marseille","lat":43.32492,"lon":5.3656,"is_reserved":false,"is_disabled":false,"rental_uris":{"android":"levelo://app?vid=69cad115-e4cb-4174-b543-7ff10ff12c7f","ios":"levelo://app?vid=69cad115-e4cb-4174-b543-7ff10ff12c7f"},"vehicle_type_id":"4","last_reported":1731006399,"current_range_meters":26800,"station_id":"ce4bhs12rcd13ifvqhvg","pricing_plan_id":"cebpf4jnsgd1na2vs0mg"},{"bike_id":"ed1950b8-ad71-419c-86f1-823759e2f846","system_id":"levelo_inurba_marseille","lat":43.30949,"lon":5.39016,"is_reserved":false,"is_disabled":false,"rental_uris":{"android":"levelo://app?vid=ed1950b8-ad71-419c-86f1-823759e2f846","ios":"levelo://app?vid=ed1950b8-ad71-419c-86f1-823759e2f846"},"vehicle_type_id":"4","last_reported":1731006399,"current_range_meters":20000,"station_id":"ce4bgup2rcd13ifvqco0","pricing_plan_id":"cebpf4jnsgd1na2vs0mg"},{"bike_id":"44920fc7-55ea-4743-b22e-91089f8fa416","system_id":"levelo_inurba_marseille","lat":43.30887,"lon":5.37192,"is_reserved":false,"is_disabled":false,"rental_uris":{"android":"levelo://app?vid=44920fc7-55ea-4743-b22e-91089f8fa416","ios":"levelo://app?vid=44920fc7-55ea-4743-b22e-91089f8fa416"},"vehicle_type_id":"4","last_reported":1731006399,"current_range_meters":6800,"station_id":"ce4bguh2rcd13ifvqckg","pricing_plan_id":"cebpf4jnsgd1na2vs0mg"},{"bike_id":"dfcf3015-64e1-4c73-9065-23a58d1a316f","system_id":"levelo_inurba_marseille","lat":43.337444,"lon":5.374475,"is_reserved":false,"is_disabled":false,"rental_uris":{"android":"levelo://app?vid=dfcf3015-64e1-4c73-9065-23a58d1a316f","ios":"levelo://app?vid=dfcf3015-64e1-4c73-9065-23a58d1a316f"},"vehicle_type_id":"4","last_reported":1731006399,"current_range_meters":33600,"station_id":"","pricing_plan_id":"cebpf4jnsgd1na2vs0mg"},{"bike_id":"1e803bdd-3770-48c7-9e72-71ce7c6ba7a7","system_id":"levelo_inurba_marseille","lat":43.24664,"lon":5.38157,"is_reserved":false,"is_disabled":false,"rental_uris":{"android":"levelo://app?vid=1e803bdd-3770-48c7-9e72-71ce7c6ba7a7","ios":"levelo://app?vid=1e803bdd-3770-48c7-9e72-71ce7c6ba7a7"},"vehicle_type_id":"4","last_reported":1731006399,"current_range_meters":20000,"station_id":"ce4bhih2rcd13ifvqfr0","pricing_plan_id":"cebpf4jnsgd1na2vs0mg"},{"bike_id":"1a4da3d4-5f38-4038-87f3-4fe4d4322da2","system_id":"levelo_inurba_marseille","lat":43.28274,"lon":5.35069,"is_reserved":false,"is_disabled":false,"rental_uris":{"android":"levelo://app?vid=1a4da3d4-5f38-4038-87f3-4fe4d4322da2","ios":"levelo://app?vid=1a4da3d4-5f38-4038-87f3-4fe4d4322da2"},"vehicle_type_id":"4","last_reported":1731006399,"current_range_meters":8800,"station_id":"ce4bhbp2rcd13ifvqerg","pricing_plan_id":"cebpf4jnsgd1na2vs0mg"},{"bike_id":"ddedc5e3-265f-42ee-8eae-f6e64ec71e7a","system_id":"levelo_inurba_marseille","lat":43.29957,"lon":5.41323,"is_reserved":false,"is_disabled":false,"rental_uris":{"android":"levelo://app?vid=ddedc5e3-265f-42ee-8eae-f6e64ec71e7a","ios":"levelo://app?vid=ddedc5e3-265f-42ee-8eae-f6e64ec71e7a"},"vehicle_type_id":"4","last_reported":1731006399,"current_range_meters":30800,"station_id":"ce4bhp12rcd13ifvqh9g","pricing_plan_id":"cebpf4jnsgd1na2vs0mg"},{"bike_id":"74fd6152-e3be-45fe-8d9b-0e9706c1b1e2","system_id":"levelo_inurba_marseille","lat":43.30887,"lon":5.39641,"is_reserved":false,"is_disabled":false,"rental_uris":{"android":"levelo://app?vid=74fd6152-e3be-45fe-8d9b-0e9706c1b1e2","ios":"levelo://app?vid=74fd6152-e3be-45fe-8d9b-0e9706c1b1e2"},"vehicle_type_id":"4","last_reported":1731006399,"current_range_meters":6000,"station_id":"ce4bh012rcd13ifvqcv0","pricing_plan_id":"cebpf4jnsgd1na2vs0mg"},{"bike_id":"595b5542-527c-401a-aa84-a350467429ed","system_id":"levelo_inurba_marseille","lat":43.28726,"lon":5.36071,"is_reserved":false,"is_disabled":false,"rental_uris":{"android":"levelo://app?vid=595b5542-527c-401a-aa84-a350467429ed","ios":"levelo://app?vid=595b5542-527c-401a-aa84-a350467429ed"},"vehicle_type_id":"4","last_reported":1731006399,"current_range_meters":37600,"station_id":"cki0cbj6b192h4jlfktg","pricing_plan_id":"cebpf4jnsgd1na2vs0mg"},{"bike_id":"97a1107a-44a4-4111-b216-cbe56af1b8d7","system_id":"levelo_inurba_marseille","lat":43.29269,"lon":5.38448,"is_reserved":false,"is_disabled":false,"rental_uris":{"android":"levelo://app?vid=97a1107a-44a4-4111-b216-cbe56af1b8d7","ios":"levelo://app?vid=97a1107a-44a4-4111-b216-cbe56af1b8d7"},"vehicle_type_id":"4","last_reported":1731006399,"current_range_meters":26800,"station_id":"ce4bh692rcd13ifvqea0","pricing_plan_id":"cebpf4jnsgd1na2vs0mg"},{"bike_id":"e9c8a630-2d73-4117-9bf7-aca5570a0743","system_id":"levelo_inurba_marseille","lat":43.23188,"lon":5.39985,"is_reserved":false,"is_disabled":false,"rental_uris":{"android":"levelo://app?vid=e9c8a630-2d73-4117-9bf7-aca5570a0743","ios":"levelo://app?vid=e9c8a630-2d73-4117-9bf7-aca5570a0743"},"vehicle_type_id":"4","last_reported":1731006399,"current_range_meters":38800,"station_id":"ce4bhn12rcd13ifvqgqg","pricing_plan_id":"cebpf4jnsgd1na2vs0mg"},{"bike_id":"f24105d9-ae0c-4434-b8b9-2eeb31afa2b6","system_id":"levelo_inurba_marseille","lat":43.3095,"lon":5.39034,"is_reserved":false,"is_disabled":false,"rental_uris":{"android":"levelo://app?vid=f24105d9-ae0c-4434-b8b9-2eeb31afa2b6","ios":"levelo://app?vid=f24105d9-ae0c-4434-b8b9-2eeb31afa2b6"},"vehicle_type_id":"4","last_reported":1731006399,"current_range_meters":11600,"station_id":"ce4bgup2rcd13ifvqco0","pricing_plan_id":"cebpf4jnsgd1na2vs0mg"},{"bike_id":"ff58b15d-8525-4fbb-8f5c-c9819aec9b24","system_id":"levelo_inurba_marseille","lat":43.28936,"lon":5.36402,"is_reserved":false,"is_disabled":false,"rental_uris":{"android":"levelo://app?vid=ff58b15d-8525-4fbb-8f5c-c9819aec9b24","ios":"levelo://app?vid=ff58b15d-8525-4fbb-8f5c-c9819aec9b24"},"vehicle_type_id":"4","last_reported":1731006399,"current_range_meters":9200,"station_id":"ce4bhc92rcd13ifvqetg","pricing_plan_id":"cebpf4jnsgd1na2vs0mg"},{"bike_id":"d70c724b-606e-4064-9ab0-ed855cd00270","system_id":"levelo_inurba_marseille","lat":43.29526,"lon":5.39399,"is_reserved":false,"is_disabled":false,"rental_uris":{"android":"levelo://app?vid=d70c724b-606e-4064-9ab0-ed855cd00270","ios":"levelo://app?vid=d70c724b-606e-4064-9ab0-ed855cd00270"},"vehicle_type_id":"4","last_reported":1731006399,"current_range_meters":4000,"station_id":"ce4bh292rcd13ifvqdf0","pricing_plan_id":"cebpf4jnsgd1na2vs0mg"},{"bike_id":"e6d0ad3c-ae92-456e-a412-f5ce46062196","system_id":"levelo_inurba_marseille","lat":43.25085,"lon":5.39517,"is_reserved":false,"is_disabled":false,"rental_uris":{"android":"levelo://app?vid=e6d0ad3c-ae92-456e-a412-f5ce46062196","ios":"levelo://app?vid=e6d0ad3c-ae92-456e-a412-f5ce46062196"},"vehicle_type_id":"4","last_reported":1731006399,"current_range_meters":24000,"station_id":"ce4bhm12rcd13ifvqgkg","pricing_plan_id":"cebpf4jnsgd1na2vs0mg"},{"bike_id":"d268f9ca-10ca-4885-b2c9-3af50927f032","system_id":"levelo_inurba_marseille","lat":43.31711,"lon":5.43706,"is_reserved":false,"is_disabled":false,"rental_uris":{"android":"levelo://app?vid=d268f9ca-10ca-4885-b2c9-3af50927f032","ios":"levelo://app?vid=d268f9ca-10ca-4885-b2c9-3af50927f032"},"vehicle_type_id":"4","last_reported":1731006399,"current_range_meters":9200,"station_id":"ce4bhp92rcd13ifvqhcg","pricing_plan_id":"cebpf4jnsgd1na2vs0mg"},{"bike_id":"774826ea-966a-460a-aece-e791a5be5038","system_id":"levelo_inurba_marseille","lat":43.25586,"lon":5.38228,"is_reserved":false,"is_disabled":false,"rental_uris":{"android":"levelo://app?vid=774826ea-966a-460a-aece-e791a5be5038","ios":"levelo://app?vid=774826ea-966a-460a-aece-e791a5be5038"},"vehicle_type_id":"4","last_reported":1731006399,"current_range_meters":13600,"station_id":"ce4bhih2rcd13ifvqfs0","pricing_plan_id":"cebpf4jnsgd1na2vs0mg"},{"bike_id":"4b1c9734-9fdf-47e7-983b-a8f79d5d21b3","system_id":"levelo_inurba_marseille","lat":43.31229,"lon":5.36853,"is_reserved":false,"is_disabled":false,"rental_uris":{"android":"levelo://app?vid=4b1c9734-9fdf-47e7-983b-a8f79d5d21b3","ios":"levelo://app?vid=4b1c9734-9fdf-47e7-983b-a8f79d5d21b3"},"vehicle_type_id":"4","last_reported":1731006399,"current_range_meters":32000,"station_id":"ce4bgl92rcd13ifvqbq0","pricing_plan_id":"cebpf4jnsgd1na2vs0mg"},{"bike_id":"79d52c0f-d1cd-4104-b7b0-1077bd5bf860","system_id":"levelo_inurba_marseille","lat":43.28166,"lon":5.42652,"is_reserved":false,"is_disabled":false,"rental_uris":{"android":"levelo://app?vid=79d52c0f-d1cd-4104-b7b0-1077bd5bf860","ios":"levelo://app?vid=79d52c0f-d1cd-4104-b7b0-1077bd5bf860"},"vehicle_type_id":"4","last_reported":1731006399,"current_range_meters":38800,"station_id":"ce4bhnh2rcd13ifvqgug","pricing_plan_id":"cebpf4jnsgd1na2vs0mg"},{"bike_id":"ae005bb8-395e-4213-a2de-e2aa309c7f81","system_id":"levelo_inurba_marseille","lat":43.27938,"lon":5.41035,"is_reserved":false,"is_disabled":false,"rental_uris":{"android":"levelo://app?vid=ae005bb8-395e-4213-a2de-e2aa309c7f81","ios":"levelo://app?vid=ae005bb8-395e-4213-a2de-e2aa309c7f81"},"vehicle_type_id":"4","last_reported":1731006399,"current_range_meters":38800,"station_id":"ce4bhnp2rcd13ifvqh0g","pricing_plan_id":"cebpf4jnsgd1na2vs0mg"},{"bike_id":"875b5b0b-c19d-4dd8-878c-ff683684389c","system_id":"levelo_inurba_marseille","lat":43.27955,"lon":5.39181,"is_reserved":false,"is_disabled":false,"rental_uris":{"android":"levelo://app?vid=875b5b0b-c19d-4dd8-878c-ff683684389c","ios":"levelo://app?vid=875b5b0b-c19d-4dd8-878c-ff683684389c"},"vehicle_type_id":"4","last_reported":1731006399,"current_range_meters":25200,"station_id":"ce4bhf92rcd13ifvqf40","pricing_plan_id":"cebpf4jnsgd1na2vs0mg"},{"bike_id":"0e65a751-1254-4d73-ba68-a3930f19cf5e","system_id":"levelo_inurba_marseille","lat":43.33028,"lon":5.39043,"is_reserved":false,"is_disabled":false,"rental_uris":{"android":"levelo://app?vid=0e65a751-1254-4d73-ba68-a3930f19cf5e","ios":"levelo://app?vid=0e65a751-1254-4d73-ba68-a3930f19cf5e"},"vehicle_type_id":"4","last_reported":1731006399,"current_range_meters":38800,"station_id":"ce4bhr92rcd13ifvqhrg","pricing_plan_id":"cebpf4jnsgd1na2vs0mg"},{"bike_id":"cb3bbfe8-eb15-4cf2-b9b1-50cc4da0eb6a","system_id":"levelo_inurba_marseille","lat":43.26808,"lon":5.40266,"is_reserved":false,"is_disabled":false,"rental_uris":{"android":"levelo://app?vid=cb3bbfe8-eb15-4cf2-b9b1-50cc4da0eb6a","ios":"levelo://app?vid=cb3bbfe8-eb15-4cf2-b9b1-50cc4da0eb6a"},"vehicle_type_id":"4","last_reported":1731006399,"current_range_meters":2800,"station_id":"ce501612rcd8frsf0b60","pricing_plan_id":"cebpf4jnsgd1na2vs0mg"},{"bike_id":"a5ded893-c055-4cbc-abe4-41ea6ff73dec","system_id":"levelo_inurba_marseille","lat":43.283681,"lon":5.355421,"is_reserved":false,"is_disabled":false,"rental_uris":{"android":"levelo://app?vid=a5ded893-c055-4cbc-abe4-41ea6ff73dec","ios":"levelo://app?vid=a5ded893-c055-4cbc-abe4-41ea6ff73dec"},"vehicle_type_id":"4","last_reported":1731006399,"current_range_meters":28800,"station_id":"","pricing_plan_id":"cebpf4jnsgd1na2vs0mg"},{"bike_id":"be16878b-2944-4903-b0da-8d02aded3ffb","system_id":"levelo_inurba_marseille","lat":43.24546,"lon":5.39526,"is_reserved":false,"is_disabled":false,"rental_uris":{"android":"levelo://app?vid=be16878b-2944-4903-b0da-8d02aded3ffb","ios":"levelo://app?vid=be16878b-2944-4903-b0da-8d02aded3ffb"},"vehicle_type_id":"4","last_reported":1731006399,"current_range_meters":24800,"station_id":"ce4bhlp2rcd13ifvqgjg","pricing_plan_id":"cebpf4jnsgd1na2vs0mg"},{"bike_id":"25a74856-3a6d-4391-aaa7-12afd90c3294","system_id":"levelo_inurba_marseille","lat":43.24998,"lon":5.3893,"is_reserved":false,"is_disabled":false,"rental_uris":{"android":"levelo://app?vid=25a74856-3a6d-4391-aaa7-12afd90c3294","ios":"levelo://app?vid=25a74856-3a6d-4391-aaa7-12afd90c3294"},"vehicle_type_id":"4","last_reported":1731006399,"current_range_meters":38000,"station_id":"ce4bhgp2rcd13ifvqfd0","pricing_plan_id":"cebpf4jnsgd1na2vs0mg"},{"bike_id":"2a99cadc-e566-461e-b399-e00ac0e9f094","system_id":"levelo_inurba_marseille","lat":43.25585,"lon":5.38233,"is_reserved":false,"is_disabled":false,"rental_uris":{"android":"levelo://app?vid=2a99cadc-e566-461e-b399-e00ac0e9f094","ios":"levelo://app?vid=2a99cadc-e566-461e-b399-e00ac0e9f094"},"vehicle_type_id":"4","last_reported":1731006399,"current_range_meters":38800,"station_id":"ce4bhih2rcd13ifvqfs0","pricing_plan_id":"cebpf4jnsgd1na2vs0mg"},{"bike_id":"2601a4a5-f7a6-43c0-9d1f-9261f8a0f7a5","system_id":"levelo_inurba_marseille","lat":43.27915,"lon":5.39581,"is_reserved":false,"is_disabled":false,"rental_uris":{"android":"levelo://app?vid=2601a4a5-f7a6-43c0-9d1f-9261f8a0f7a5","ios":"levelo://app?vid=2601a4a5-f7a6-43c0-9d1f-9261f8a0f7a5"},"vehicle_type_id":"4","last_reported":1731006399,"current_range_meters":8400,"station_id":"ce4bhf92rcd13ifvqf40","pricing_plan_id":"cebpf4jnsgd1na2vs0mg"},{"bike_id":"4ed0d265-3f75-4975-aae3-fa3386aa6e83","system_id":"levelo_inurba_marseille","lat":43.27072,"lon":5.42278,"is_reserved":false,"is_disabled":false,"rental_uris":{"android":"levelo://app?vid=4ed0d265-3f75-4975-aae3-fa3386aa6e83","ios":"levelo://app?vid=4ed0d265-3f75-4975-aae3-fa3386aa6e83"},"vehicle_type_id":"4","last_reported":1731006399,"current_range_meters":12800,"station_id":"ce4bhk92rcd13ifvqgb0","pricing_plan_id":"cebpf4jnsgd1na2vs0mg"},{"bike_id":"2a941a5e-af72-412c-a0c9-ca1913dc4558","system_id":"levelo_inurba_marseille","lat":43.30097,"lon":5.39078,"is_reserved":false,"is_disabled":false,"rental_uris":{"android":"levelo://app?vid=2a941a5e-af72-412c-a0c9-ca1913dc4558","ios":"levelo://app?vid=2a941a5e-af72-412c-a0c9-ca1913dc4558"},"vehicle_type_id":"4","last_reported":1731006399,"current_range_meters":6000,"station_id":"ce4bh192rcd13ifvqdb0","pricing_plan_id":"cebpf4jnsgd1na2vs0mg"},{"bike_id":"31c780e0-87de-4878-b279-05ae02ba59b1","system_id":"levelo_inurba_marseille","lat":43.28736,"lon":5.3608,"is_reserved":false,"is_disabled":false,"rental_uris":{"android":"levelo://app?vid=31c780e0-87de-4878-b279-05ae02ba59b1","ios":"levelo://app?vid=31c780e0-87de-4878-b279-05ae02ba59b1"},"vehicle_type_id":"4","last_reported":1731006399,"current_range_meters":34800,"station_id":"cki0cbj6b192h4jlfktg","pricing_plan_id":"cebpf4jnsgd1na2vs0mg"},{"bike_id":"7aa89ab7-bfe4-4c30-8344-300c7d69ac3f","system_id":"levelo_inurba_marseille","lat":43.29042,"lon":5.35892,"is_reserved":false,"is_disabled":false,"rental_uris":{"android":"levelo://app?vid=7aa89ab7-bfe4-4c30-8344-300c7d69ac3f","ios":"levelo://app?vid=7aa89ab7-bfe4-4c30-8344-300c7d69ac3f"},"vehicle_type_id":"4","last_reported":1731006399,"current_range_meters":16000,"station_id":"ce4bhc92rcd13ifvqetg","pricing_plan_id":"cebpf4jnsgd1na2vs0mg"},{"bike_id":"d3e54780-ddfb-432e-bfd3-55d19e8c43c8","system_id":"levelo_inurba_marseille","lat":43.31757,"lon":5.39021,"is_reserved":false,"is_disabled":false,"rental_uris":{"android":"levelo://app?vid=d3e54780-ddfb-432e-bfd3-55d19e8c43c8","ios":"levelo://app?vid=d3e54780-ddfb-432e-bfd3-55d19e8c43c8"},"vehicle_type_id":"4","last_reported":1731006399,"current_range_meters":30000,"station_id":"ce4bhqp2rcd13ifvqhng","pricing_plan_id":"cebpf4jnsgd1na2vs0mg"},{"bike_id":"f6240ba0-900a-4bbb-b767-16165ed8fd4d","system_id":"levelo_inurba_marseille","lat":43.31328,"lon":5.3969,"is_reserved":false,"is_disabled":false,"rental_uris":{"android":"levelo://app?vid=f6240ba0-900a-4bbb-b767-16165ed8fd4d","ios":"levelo://app?vid=f6240ba0-900a-4bbb-b767-16165ed8fd4d"},"vehicle_type_id":"4","last_reported":1731006399,"current_range_meters":16400,"station_id":"ce4bgvp2rcd13ifvqcu0","pricing_plan_id":"cebpf4jnsgd1na2vs0mg"},{"bike_id":"82b97aae-830e-4430-ae99-7cef8ad2c993","system_id":"levelo_inurba_marseille","lat":43.337444,"lon":5.374475,"is_reserved":false,"is_disabled":false,"rental_uris":{"android":"levelo://app?vid=82b97aae-830e-4430-ae99-7cef8ad2c993","ios":"levelo://app?vid=82b97aae-830e-4430-ae99-7cef8ad2c993"},"vehicle_type_id":"4","last_reported":1731006399,"current_range_meters":35600,"station_id":"","pricing_plan_id":"cebpf4jnsgd1na2vs0mg"},{"bike_id":"3971fa10-e036-45be-b0a3-d36e00cbd28b","system_id":"levelo_inurba_marseille","lat":43.31064,"lon":5.38349,"is_reserved":false,"is_disabled":false,"rental_uris":{"android":"levelo://app?vid=3971fa10-e036-45be-b0a3-d36e00cbd28b","ios":"levelo://app?vid=3971fa10-e036-45be-b0a3-d36e00cbd28b"},"vehicle_type_id":"4","last_reported":1731006399,"current_range_meters":28000,"station_id":"ce4bgv92rcd13ifvqcr0","pricing_plan_id":"cebpf4jnsgd1na2vs0mg"},{"bike_id":"e11f2957-c866-431f-b50b-d0178644b09f","system_id":"levelo_inurba_marseille","lat":43.2319,"lon":5.39983,"is_reserved":false,"is_disabled":false,"rental_uris":{"android":"levelo://app?vid=e11f2957-c866-431f-b50b-d0178644b09f","ios":"levelo://app?vid=e11f2957-c866-431f-b50b-d0178644b09f"},"vehicle_type_id":"4","last_reported":1731006399,"current_range_meters":39200,"station_id":"ce4bhn12rcd13ifvqgqg","pricing_plan_id":"cebpf4jnsgd1na2vs0mg"},{"bike_id":"16ead66c-6467-4329-aa08-b6c3668377d5","system_id":"levelo_inurba_marseille","lat":43.279973,"lon":5.400101,"is_reserved":false,"is_disabled":false,"rental_uris":{"android":"levelo://app?vid=16ead66c-6467-4329-aa08-b6c3668377d5","ios":"levelo://app?vid=16ead66c-6467-4329-aa08-b6c3668377d5"},"vehicle_type_id":"4","last_reported":1731006399,"current_range_meters":38800,"station_id":"ce4bho92rcd13ifvqh4g","pricing_plan_id":"cebpf4jnsgd1na2vs0mg"},{"bike_id":"0bf699f9-38bf-4d40-af81-72f11d621e50","system_id":"levelo_inurba_marseille","lat":43.3169,"lon":5.40462,"is_reserved":false,"is_disabled":false,"rental_uris":{"android":"levelo://app?vid=0bf699f9-38bf-4d40-af81-72f11d621e50","ios":"levelo://app?vid=0bf699f9-38bf-4d40-af81-72f11d621e50"},"vehicle_type_id":"4","last_reported":1731006399,"current_range_meters":3200,"station_id":"ce4bh012rcd13ifvqd00","pricing_plan_id":"cebpf4jnsgd1na2vs0mg"},{"bike_id":"385b7719-b7a4-458e-8072-9101a48bb88a","system_id":"levelo_inurba_marseille","lat":43.312877,"lon":5.401687,"is_reserved":false,"is_disabled":false,"rental_uris":{"android":"levelo://app?vid=385b7719-b7a4-458e-8072-9101a48bb88a","ios":"levelo://app?vid=385b7719-b7a4-458e-8072-9101a48bb88a"},"vehicle_type_id":"4","last_reported":1731006399,"current_range_meters":6400,"station_id":"ce4bh092rcd13ifvqd30","pricing_plan_id":"cebpf4jnsgd1na2vs0mg"},{"bike_id":"8befa393-3872-493a-9a5d-6005d6827670","system_id":"levelo_inurba_marseille","lat":43.33717,"lon":5.39176,"is_reserved":false,"is_disabled":false,"rental_uris":{"android":"levelo://app?vid=8befa393-3872-493a-9a5d-6005d6827670","ios":"levelo://app?vid=8befa393-3872-493a-9a5d-6005d6827670"},"vehicle_type_id":"4","last_reported":1731006399,"current_range_meters":39200,"station_id":"ce4bhr92rcd13ifvqhsg","pricing_plan_id":"cebpf4jnsgd1na2vs0mg"},{"bike_id":"0d0ff24e-86ec-4f53-a53e-729084bc5fd4","system_id":"levelo_inurba_marseille","lat":43.28418,"lon":5.37518,"is_reserved":false,"is_disabled":false,"rental_uris":{"android":"levelo://app?vid=0d0ff24e-86ec-4f53-a53e-729084bc5fd4","ios":"levelo://app?vid=0d0ff24e-86ec-4f53-a53e-729084bc5fd4"},"vehicle_type_id":"4","last_reported":1731006399,"current_range_meters":11600,"station_id":"ce4bh412rcd13ifvqds0","pricing_plan_id":"cebpf4jnsgd1na2vs0mg"},{"bike_id":"75b94260-785a-4b7b-b7ac-a6131b897a7e","system_id":"levelo_inurba_marseille","lat":43.24075,"lon":5.37762,"is_reserved":false,"is_disabled":false,"rental_uris":{"android":"levelo://app?vid=75b94260-785a-4b7b-b7ac-a6131b897a7e","ios":"levelo://app?vid=75b94260-785a-4b7b-b7ac-a6131b897a7e"},"vehicle_type_id":"4","last_reported":1731006399,"current_range_meters":22400,"station_id":"ce4bhnp2rcd13ifvqgvg","pricing_plan_id":"cebpf4jnsgd1na2vs0mg"},{"bike_id":"1091512b-cc24-4f27-b66a-2fbb7eb345e3","system_id":"levelo_inurba_marseille","lat":43.286978,"lon":5.399752,"is_reserved":false,"is_disabled":false,"rental_uris":{"android":"levelo://app?vid=1091512b-cc24-4f27-b66a-2fbb7eb345e3","ios":"levelo://app?vid=1091512b-cc24-4f27-b66a-2fbb7eb345e3"},"vehicle_type_id":"4","last_reported":1731006399,"current_range_meters":4000,"station_id":"ce4bho92rcd13ifvqh3g","pricing_plan_id":"cebpf4jnsgd1na2vs0mg"},{"bike_id":"a139ad76-ca7f-458e-a30e-a008b671ca8b","system_id":"levelo_inurba_marseille","lat":43.30932,"lon":5.40145,"is_reserved":false,"is_disabled":false,"rental_uris":{"android":"levelo://app?vid=a139ad76-ca7f-458e-a30e-a008b671ca8b","ios":"levelo://app?vid=a139ad76-ca7f-458e-a30e-a008b671ca8b"},"vehicle_type_id":"4","last_reported":1731006399,"current_range_meters":8800,"station_id":"ce4bgvp2rcd13ifvqct0","pricing_plan_id":"cebpf4jnsgd1na2vs0mg"},{"bike_id":"c11dcc2f-2a15-4349-9a07-037ad2cda36c","system_id":"levelo_inurba_marseille","lat":43.31175,"lon":5.38705,"is_reserved":false,"is_disabled":false,"rental_uris":{"android":"levelo://app?vid=c11dcc2f-2a15-4349-9a07-037ad2cda36c","ios":"levelo://app?vid=c11dcc2f-2a15-4349-9a07-037ad2cda36c"},"vehicle_type_id":"4","last_reported":1731006399,"current_range_meters":24400,"station_id":"ce4bgv12rcd13ifvqcp0","pricing_plan_id":"cebpf4jnsgd1na2vs0mg"},{"bike_id":"b6266192-08f0-40d4-ae5f-17e35d6f50dd","system_id":"levelo_inurba_marseille","lat":43.30956,"lon":5.39031,"is_reserved":false,"is_disabled":false,"rental_uris":{"android":"levelo://app?vid=b6266192-08f0-40d4-ae5f-17e35d6f50dd","ios":"levelo://app?vid=b6266192-08f0-40d4-ae5f-17e35d6f50dd"},"vehicle_type_id":"4","last_reported":1731006399,"current_range_meters":33200,"station_id":"ce4bgup2rcd13ifvqco0","pricing_plan_id":"cebpf4jnsgd1na2vs0mg"},{"bike_id":"9f845d93-6bd2-4f0f-a836-9ddf5aa70670","system_id":"levelo_inurba_marseille","lat":43.30954,"lon":5.39045,"is_reserved":false,"is_disabled":false,"rental_uris":{"android":"levelo://app?vid=9f845d93-6bd2-4f0f-a836-9ddf5aa70670","ios":"levelo://app?vid=9f845d93-6bd2-4f0f-a836-9ddf5aa70670"},"vehicle_type_id":"4","last_reported":1731006399,"current_range_meters":30000,"station_id":"ce4bgup2rcd13ifvqco0","pricing_plan_id":"cebpf4jnsgd1na2vs0mg"},{"bike_id":"fae6de39-25a9-4f29-8e49-aed07633bda9","system_id":"levelo_inurba_marseille","lat":43.29698,"lon":5.36597,"is_reserved":false,"is_disabled":false,"rental_uris":{"android":"levelo://app?vid=fae6de39-25a9-4f29-8e49-aed07633bda9","ios":"levelo://app?vid=fae6de39-25a9-4f29-8e49-aed07633bda9"},"vehicle_type_id":"4","last_reported":1731006399,"current_range_meters":38800,"station_id":"ce4bgn12rcd13ifvqbt0","pricing_plan_id":"cebpf4jnsgd1na2vs0mg"},{"bike_id":"b6a03e6a-423e-4889-9041-d62822c0a610","system_id":"levelo_inurba_marseille","lat":43.29248,"lon":5.3845,"is_reserved":false,"is_disabled":false,"rental_uris":{"android":"levelo://app?vid=b6a03e6a-423e-4889-9041-d62822c0a610","ios":"levelo://app?vid=b6a03e6a-423e-4889-9041-d62822c0a610"},"vehicle_type_id":"4","last_reported":1731006399,"current_range_meters":38800,"station_id":"ce4bh692rcd13ifvqea0","pricing_plan_id":"cebpf4jnsgd1na2vs0mg"},{"bike_id":"fe7e3579-a119-400b-8f17-3c2acef46518","system_id":"levelo_inurba_marseille","lat":43.24813,"lon":5.37459,"is_reserved":false,"is_disabled":false,"rental_uris":{"android":"levelo://app?vid=fe7e3579-a119-400b-8f17-3c2acef46518","ios":"levelo://app?vid=fe7e3579-a119-400b-8f17-3c2acef46518"},"vehicle_type_id":"4","last_reported":1731006399,"current_range_meters":18800,"station_id":"ce4bhgh2rcd13ifvqfb0","pricing_plan_id":"cebpf4jnsgd1na2vs0mg"},{"bike_id":"bc469091-c8da-4cc1-b953-ff1695968e64","system_id":"levelo_inurba_marseille","lat":43.2925,"lon":5.3843,"is_reserved":false,"is_disabled":false,"rental_uris":{"android":"levelo://app?vid=bc469091-c8da-4cc1-b953-ff1695968e64","ios":"levelo://app?vid=bc469091-c8da-4cc1-b953-ff1695968e64"},"vehicle_type_id":"4","last_reported":1731006399,"current_range_meters":38800,"station_id":"ce4bh692rcd13ifvqea0","pricing_plan_id":"cebpf4jnsgd1na2vs0mg"},{"bike_id":"7839cce5-8c65-4ab5-b9fe-a8ce58e40fdb","system_id":"levelo_inurba_marseille","lat":43.28561,"lon":5.38135,"is_reserved":false,"is_disabled":false,"rental_uris":{"android":"levelo://app?vid=7839cce5-8c65-4ab5-b9fe-a8ce58e40fdb","ios":"levelo://app?vid=7839cce5-8c65-4ab5-b9fe-a8ce58e40fdb"},"vehicle_type_id":"4","last_reported":1731006399,"current_range_meters":11600,"station_id":"ce4bha92rcd13ifvqeh0","pricing_plan_id":"cebpf4jnsgd1na2vs0mg"},{"bike_id":"8f81d04f-0cbb-4276-9a50-e5da464ca0dd","system_id":"levelo_inurba_marseille","lat":43.25088,"lon":5.39519,"is_reserved":false,"is_disabled":false,"rental_uris":{"android":"levelo://app?vid=8f81d04f-0cbb-4276-9a50-e5da464ca0dd","ios":"levelo://app?vid=8f81d04f-0cbb-4276-9a50-e5da464ca0dd"},"vehicle_type_id":"4","last_reported":1731006399,"current_range_meters":38800,"station_id":"ce4bhm12rcd13ifvqgkg","pricing_plan_id":"cebpf4jnsgd1na2vs0mg"},{"bike_id":"ff90f044-b67a-4b64-a278-2703b27d5b23","system_id":"levelo_inurba_marseille","lat":43.28542,"lon":5.37782,"is_reserved":false,"is_disabled":false,"rental_uris":{"android":"levelo://app?vid=ff90f044-b67a-4b64-a278-2703b27d5b23","ios":"levelo://app?vid=ff90f044-b67a-4b64-a278-2703b27d5b23"},"vehicle_type_id":"4","last_reported":1731006399,"current_range_meters":24800,"station_id":"","pricing_plan_id":"cebpf4jnsgd1na2vs0mg"},{"bike_id":"ec24739e-df65-49dc-b5e1-7684510f1352","system_id":"levelo_inurba_marseille","lat":43.25582,"lon":5.38226,"is_reserved":false,"is_disabled":false,"rental_uris":{"android":"levelo://app?vid=ec24739e-df65-49dc-b5e1-7684510f1352","ios":"levelo://app?vid=ec24739e-df65-49dc-b5e1-7684510f1352"},"vehicle_type_id":"4","last_reported":1731006399,"current_range_meters":28000,"station_id":"ce4bhih2rcd13ifvqfs0","pricing_plan_id":"cebpf4jnsgd1na2vs0mg"},{"bike_id":"f849f296-21e1-4e88-a8c4-f20b6e2b275f","system_id":"levelo_inurba_marseille","lat":43.2559,"lon":5.38239,"is_reserved":false,"is_disabled":false,"rental_uris":{"android":"levelo://app?vid=f849f296-21e1-4e88-a8c4-f20b6e2b275f","ios":"levelo://app?vid=f849f296-21e1-4e88-a8c4-f20b6e2b275f"},"vehicle_type_id":"4","last_reported":1731006399,"current_range_meters":6800,"station_id":"ce4bhih2rcd13ifvqfs0","pricing_plan_id":"cebpf4jnsgd1na2vs0mg"},{"bike_id":"7578cb8a-9f8a-42f1-ba29-46791ff41c2b","system_id":"levelo_inurba_marseille","lat":43.2439,"lon":5.37056,"is_reserved":false,"is_disabled":false,"rental_uris":{"android":"levelo://app?vid=7578cb8a-9f8a-42f1-ba29-46791ff41c2b","ios":"levelo://app?vid=7578cb8a-9f8a-42f1-ba29-46791ff41c2b"},"vehicle_type_id":"4","last_reported":1731006399,"current_range_meters":34000,"station_id":"ce4bhhh2rcd13ifvqfk0","pricing_plan_id":"cebpf4jnsgd1na2vs0mg"},{"bike_id":"90a71ddb-86ba-434f-ba86-f0410ca34fe9","system_id":"levelo_inurba_marseille","lat":43.3133,"lon":5.39689,"is_reserved":false,"is_disabled":false,"rental_uris":{"android":"levelo://app?vid=90a71ddb-86ba-434f-ba86-f0410ca34fe9","ios":"levelo://app?vid=90a71ddb-86ba-434f-ba86-f0410ca34fe9"},"vehicle_type_id":"4","last_reported":1731006399,"current_range_meters":38800,"station_id":"ce4bgvp2rcd13ifvqcu0","pricing_plan_id":"cebpf4jnsgd1na2vs0mg"},{"bike_id":"ec67057f-1c2d-40dc-865b-632a725a55be","system_id":"levelo_inurba_marseille","lat":43.29524,"lon":5.39059,"is_reserved":false,"is_disabled":false,"rental_uris":{"android":"levelo://app?vid=ec67057f-1c2d-40dc-865b-632a725a55be","ios":"levelo://app?vid=ec67057f-1c2d-40dc-865b-632a725a55be"},"vehicle_type_id":"4","last_reported":1731006399,"current_range_meters":21600,"station_id":"ce4bh3p2rcd13ifvqdp0","pricing_plan_id":"cebpf4jnsgd1na2vs0mg"},{"bike_id":"87e526b4-e654-4460-90fb-672ca8d17612","system_id":"levelo_inurba_marseille","lat":43.29192,"lon":5.39316,"is_reserved":false,"is_disabled":false,"rental_uris":{"android":"levelo://app?vid=87e526b4-e654-4460-90fb-672ca8d17612","ios":"levelo://app?vid=87e526b4-e654-4460-90fb-672ca8d17612"},"vehicle_type_id":"4","last_reported":1731006399,"current_range_meters":11200,"station_id":"ce4bh192rcd13ifvqdd0","pricing_plan_id":"cebpf4jnsgd1na2vs0mg"},{"bike_id":"74a57a09-403d-48eb-be12-7bdece1e2a42","system_id":"levelo_inurba_marseille","lat":43.31716,"lon":5.42394,"is_reserved":false,"is_disabled":false,"rental_uris":{"android":"levelo://app?vid=74a57a09-403d-48eb-be12-7bdece1e2a42","ios":"levelo://app?vid=74a57a09-403d-48eb-be12-7bdece1e2a42"},"vehicle_type_id":"4","last_reported":1731006399,"current_range_meters":6000,"station_id":"ce4bhp92rcd13ifvqhbg","pricing_plan_id":"cebpf4jnsgd1na2vs0mg"},{"bike_id":"7cb37c0c-d9ad-439f-9960-82ef3da545fa","system_id":"levelo_inurba_marseille","lat":43.2903,"lon":5.37555,"is_reserved":false,"is_disabled":false,"rental_uris":{"android":"levelo://app?vid=7cb37c0c-d9ad-439f-9960-82ef3da545fa","ios":"levelo://app?vid=7cb37c0c-d9ad-439f-9960-82ef3da545fa"},"vehicle_type_id":"4","last_reported":1731006399,"current_range_meters":25600,"station_id":"ce4bh692rcd13ifvqe90","pricing_plan_id":"cebpf4jnsgd1na2vs0mg"},{"bike_id":"45836ad7-2e92-4f2f-9fe7-fb3e6b64650d","system_id":"levelo_inurba_marseille","lat":43.28723,"lon":5.36101,"is_reserved":false,"is_disabled":false,"rental_uris":{"android":"levelo://app?vid=45836ad7-2e92-4f2f-9fe7-fb3e6b64650d","ios":"levelo://app?vid=45836ad7-2e92-4f2f-9fe7-fb3e6b64650d"},"vehicle_type_id":"4","last_reported":1731006399,"current_range_meters":38800,"station_id":"cki0cbj6b192h4jlfktg","pricing_plan_id":"cebpf4jnsgd1na2vs0mg"},{"bike_id":"ad7dd926-67aa-4c5f-abd1-35020f337e23","system_id":"levelo_inurba_marseille","lat":43.29258,"lon":5.40903,"is_reserved":false,"is_disabled":false,"rental_uris":{"android":"levelo://app?vid=ad7dd926-67aa-4c5f-abd1-35020f337e23","ios":"levelo://app?vid=ad7dd926-67aa-4c5f-abd1-35020f337e23"},"vehicle_type_id":"4","last_reported":1731006399,"current_range_meters":30400,"station_id":"ce4bh192rcd13ifvqdc0","pricing_plan_id":"cebpf4jnsgd1na2vs0mg"},{"bike_id":"5283bb35-b1b7-49fc-b18f-0852ae57da61","system_id":"levelo_inurba_marseille","lat":43.30427,"lon":5.39735,"is_reserved":false,"is_disabled":false,"rental_uris":{"android":"levelo://app?vid=5283bb35-b1b7-49fc-b18f-0852ae57da61","ios":"levelo://app?vid=5283bb35-b1b7-49fc-b18f-0852ae57da61"},"vehicle_type_id":"4","last_reported":1731006399,"current_range_meters":38400,"station_id":"ce4bh092rcd13ifvqd20","pricing_plan_id":"cebpf4jnsgd1na2vs0mg"},{"bike_id":"f91e9cf2-bb33-4a18-9f90-15778f297ed9","system_id":"levelo_inurba_marseille","lat":43.279381,"lon":5.410467,"is_reserved":false,"is_disabled":false,"rental_uris":{"android":"levelo://app?vid=f91e9cf2-bb33-4a18-9f90-15778f297ed9","ios":"levelo://app?vid=f91e9cf2-bb33-4a18-9f90-15778f297ed9"},"vehicle_type_id":"4","last_reported":1731006399,"current_range_meters":38800,"station_id":"ce4bhnp2rcd13ifvqh0g","pricing_plan_id":"cebpf4jnsgd1na2vs0mg"},{"bike_id":"5b3b4202-5abc-4b67-9cd0-f08d9124df40","system_id":"levelo_inurba_marseille","lat":43.337444,"lon":5.374475,"is_reserved":false,"is_disabled":false,"rental_uris":{"android":"levelo://app?vid=5b3b4202-5abc-4b67-9cd0-f08d9124df40","ios":"levelo://app?vid=5b3b4202-5abc-4b67-9cd0-f08d9124df40"},"vehicle_type_id":"4","last_reported":1731006399,"current_range_meters":37600,"station_id":"","pricing_plan_id":"cebpf4jnsgd1na2vs0mg"},{"bike_id":"54b7f1f6-7341-4bb2-bbd6-8766f023bcaf","system_id":"levelo_inurba_marseille","lat":43.30327,"lon":5.40434,"is_reserved":false,"is_disabled":false,"rental_uris":{"android":"levelo://app?vid=54b7f1f6-7341-4bb2-bbd6-8766f023bcaf","ios":"levelo://app?vid=54b7f1f6-7341-4bb2-bbd6-8766f023bcaf"},"vehicle_type_id":"4","last_reported":1731006399,"current_range_meters":19600,"station_id":"ce4bh012rcd13ifvqd10","pricing_plan_id":"cebpf4jnsgd1na2vs0mg"},{"bike_id":"53c2d71b-a41e-4e06-bcc8-cc5ff84cece4","system_id":"levelo_inurba_marseille","lat":43.33025,"lon":5.39045,"is_reserved":false,"is_disabled":false,"rental_uris":{"android":"levelo://app?vid=53c2d71b-a41e-4e06-bcc8-cc5ff84cece4","ios":"levelo://app?vid=53c2d71b-a41e-4e06-bcc8-cc5ff84cece4"},"vehicle_type_id":"4","last_reported":1731006399,"current_range_meters":28800,"station_id":"ce4bhr92rcd13ifvqhrg","pricing_plan_id":"cebpf4jnsgd1na2vs0mg"},{"bike_id":"f3588e1e-fbb3-40a6-b38a-0dc3fe7727f7","system_id":"levelo_inurba_marseille","lat":43.31172,"lon":5.38713,"is_reserved":false,"is_disabled":false,"rental_uris":{"android":"levelo://app?vid=f3588e1e-fbb3-40a6-b38a-0dc3fe7727f7","ios":"levelo://app?vid=f3588e1e-fbb3-40a6-b38a-0dc3fe7727f7"},"vehicle_type_id":"4","last_reported":1731006399,"current_range_meters":38400,"station_id":"ce4bgv12rcd13ifvqcp0","pricing_plan_id":"cebpf4jnsgd1na2vs0mg"},{"bike_id":"ed7e367d-c5af-41cd-95a8-a414ea0e86a6","system_id":"levelo_inurba_marseille","lat":43.27383,"lon":5.36254,"is_reserved":false,"is_disabled":false,"rental_uris":{"android":"levelo://app?vid=ed7e367d-c5af-41cd-95a8-a414ea0e86a6","ios":"levelo://app?vid=ed7e367d-c5af-41cd-95a8-a414ea0e86a6"},"vehicle_type_id":"4","last_reported":1731006399,"current_range_meters":23200,"station_id":"ce4bhbh2rcd13ifvqeo0","pricing_plan_id":"cebpf4jnsgd1na2vs0mg"},{"bike_id":"2411966c-b5f8-440f-a162-c90da0f33a25","system_id":"levelo_inurba_marseille","lat":43.28713,"lon":5.37916,"is_reserved":false,"is_disabled":false,"rental_uris":{"android":"levelo://app?vid=2411966c-b5f8-440f-a162-c90da0f33a25","ios":"levelo://app?vid=2411966c-b5f8-440f-a162-c90da0f33a25"},"vehicle_type_id":"4","last_reported":1731006399,"current_range_meters":37600,"station_id":"ce4bh9p2rcd13ifvqec0","pricing_plan_id":"cebpf4jnsgd1na2vs0mg"},{"bike_id":"5e85c3d0-6c00-472c-8e0c-339c98c44ed2","system_id":"levelo_inurba_marseille","lat":43.254761,"lon":5.376506,"is_reserved":false,"is_disabled":false,"rental_uris":{"android":"levelo://app?vid=5e85c3d0-6c00-472c-8e0c-339c98c44ed2","ios":"levelo://app?vid=5e85c3d0-6c00-472c-8e0c-339c98c44ed2"},"vehicle_type_id":"4","last_reported":1731006399,"current_range_meters":9600,"station_id":"ce4bhh12rcd13ifvqff0","pricing_plan_id":"cebpf4jnsgd1na2vs0mg"},{"bike_id":"c598bba8-f360-4ccc-9806-6cc9665deb5d","system_id":"levelo_inurba_marseille","lat":43.29892,"lon":5.43658,"is_reserved":false,"is_disabled":false,"rental_uris":{"android":"levelo://app?vid=c598bba8-f360-4ccc-9806-6cc9665deb5d","ios":"levelo://app?vid=c598bba8-f360-4ccc-9806-6cc9665deb5d"},"vehicle_type_id":"4","last_reported":1731006399,"current_range_meters":37600,"station_id":"ce4bhpp2rcd13ifvqhfg","pricing_plan_id":"cebpf4jnsgd1na2vs0mg"},{"bike_id":"9f4a1336-50f2-4c60-9fc9-5ed56515e270","system_id":"levelo_inurba_marseille","lat":43.32368,"lon":5.38892,"is_reserved":false,"is_disabled":false,"rental_uris":{"android":"levelo://app?vid=9f4a1336-50f2-4c60-9fc9-5ed56515e270","ios":"levelo://app?vid=9f4a1336-50f2-4c60-9fc9-5ed56515e270"},"vehicle_type_id":"4","last_reported":1731006399,"current_range_meters":38800,"station_id":"ce4bhqp2rcd13ifvqhog","pricing_plan_id":"cebpf4jnsgd1na2vs0mg"},{"bike_id":"1180e15d-c0da-4379-bac0-253fc9495905","system_id":"levelo_inurba_marseille","lat":43.28458,"lon":5.35896,"is_reserved":false,"is_disabled":false,"rental_uris":{"android":"levelo://app?vid=1180e15d-c0da-4379-bac0-253fc9495905","ios":"levelo://app?vid=1180e15d-c0da-4379-bac0-253fc9495905"},"vehicle_type_id":"4","last_reported":1731006399,"current_range_meters":38800,"station_id":"ce4bhah2rcd13ifvqei0","pricing_plan_id":"cebpf4jnsgd1na2vs0mg"},{"bike_id":"af801b28-c363-43fd-a1b7-d5236d43e80c","system_id":"levelo_inurba_marseille","lat":43.25084,"lon":5.39522,"is_reserved":false,"is_disabled":false,"rental_uris":{"android":"levelo://app?vid=af801b28-c363-43fd-a1b7-d5236d43e80c","ios":"levelo://app?vid=af801b28-c363-43fd-a1b7-d5236d43e80c"},"vehicle_type_id":"4","last_reported":1731006399,"current_range_meters":39200,"station_id":"ce4bhm12rcd13ifvqgkg","pricing_plan_id":"cebpf4jnsgd1na2vs0mg"},{"bike_id":"8e8448ab-0e1c-422d-80bd-f41fa2cbe6ec","system_id":"levelo_inurba_marseille","lat":43.25581,"lon":5.38234,"is_reserved":false,"is_disabled":false,"rental_uris":{"android":"levelo://app?vid=8e8448ab-0e1c-422d-80bd-f41fa2cbe6ec","ios":"levelo://app?vid=8e8448ab-0e1c-422d-80bd-f41fa2cbe6ec"},"vehicle_type_id":"4","last_reported":1731006399,"current_range_meters":32800,"station_id":"ce4bhih2rcd13ifvqfs0","pricing_plan_id":"cebpf4jnsgd1na2vs0mg"},{"bike_id":"7bb6f646-cbb5-4abd-9031-b1549186f7d8","system_id":"levelo_inurba_marseille","lat":43.30591,"lon":5.39359,"is_reserved":false,"is_disabled":false,"rental_uris":{"android":"levelo://app?vid=7bb6f646-cbb5-4abd-9031-b1549186f7d8","ios":"levelo://app?vid=7bb6f646-cbb5-4abd-9031-b1549186f7d8"},"vehicle_type_id":"4","last_reported":1731006399,"current_range_meters":27600,"station_id":"ce4bh0p2rcd13ifvqd80","pricing_plan_id":"cebpf4jnsgd1na2vs0mg"},{"bike_id":"f2a3f290-263e-43ef-9798-a64bb4e80ae3","system_id":"levelo_inurba_marseille","lat":43.28922,"lon":5.38392,"is_reserved":false,"is_disabled":false,"rental_uris":{"android":"levelo://app?vid=f2a3f290-263e-43ef-9798-a64bb4e80ae3","ios":"levelo://app?vid=f2a3f290-263e-43ef-9798-a64bb4e80ae3"},"vehicle_type_id":"4","last_reported":1731006399,"current_range_meters":6000,"station_id":"ce4bh612rcd13ifvqe6g","pricing_plan_id":"cebpf4jnsgd1na2vs0mg"},{"bike_id":"a7adeb9c-fefc-4216-b643-dd90f0435621","system_id":"levelo_inurba_marseille","lat":43.232513,"lon":5.356227,"is_reserved":false,"is_disabled":false,"rental_uris":{"android":"levelo://app?vid=a7adeb9c-fefc-4216-b643-dd90f0435621","ios":"levelo://app?vid=a7adeb9c-fefc-4216-b643-dd90f0435621"},"vehicle_type_id":"4","last_reported":1731006399,"current_range_meters":12000,"station_id":"ce4bhu92rcd13ifvqi70","pricing_plan_id":"cebpf4jnsgd1na2vs0mg"},