{"last_updated":1743596379,"ttl":60,"version":"2.2","data":{"bikes":[{"bike_id":"a70a367a-572f-4fec-8642-081497c2042d","system_id":"levelo_inurba_marseille","lat":43.25935,"lon":5.40912,"is_reserved":false,"is_disabled":false,"rental_uris":{"android":"levelo://app?vid=a70a367a-572f-4fec-8642-081497c2042d","ios":"levelo://app?vid=a70a367a-572f-4fec-8642-081497c2042d"},"vehicle_type_id":"4","last_reported":1743596379,"current_range_meters":2800,"station_id":"ce4bhm92rcd13ifvqglg","pricing_plan_id":"cebpf4jnsgd1na2vs0mg"},{"bike_id":"d2b142b9-e27b-4286-907f-e82964e16dd0","system_id":"levelo_inurba_marseille","lat":43.239688,"lon":5.366286,"is_reserved":false,"is_disabled":false,"rental_uris":{"android":"levelo://app?vid=d2b142b9-e27b-4286-907f-e82964e16dd0","ios":"levelo://app?vid=d2b142b9-e27b-4286-907f-e82964e16dd0"},"vehicle_type_id":"4","last_reported":1743596379,"current_range_meters":3200,"station_id":"ce4bhi12rcd13ifvqfp0","pricing_plan_id":"cebpf4jnsgd1na2vs0mg"},{"bike_id":"cff210f6-6d71-40b1-b9ea-b6e0d26bd87c","system_id":"levelo_inurba_marseille","lat":43.292017,"lon":5.358062,"is_reserved":false,"is_disabled":false,"rental_uris":{"android":"levelo://app?vid=cff210f6-6d71-40b1-b9ea-b6e0d26bd87c","ios":"levelo://app?vid=cff210f6-6d71-40b1-b9ea-b6e0d26bd87c"},"vehicle_type_id":"4","last_reported":1743596379,"current_range_meters":3200,"station_id":"ce4bhb12rcd13ifvqel0","pricing_plan_id":"cebpf4jnsgd1na2vs0mg"},{"bike_id":"b32b6d1d-b8b2-4db3-93b8-dc497ec2291c","system_id":"levelo_inurba_marseille","lat":43.30214,"lon":5.39459,"is_reserved":false,"is_disabled":true,"rental_uris":{"android":"levelo://app?vid=b32b6d1d-b8b2-4db3-93b8-dc497ec2291c","ios":"levelo://app?vid=b32b6d1d-b8b2-4db3-93b8-dc497ec2291c"},"vehicle_type_id":"4","last_reported":1743596379,"current_range_meters":3200,"station_id":"ce4bh0p2rcd13ifvqd70","pricing_plan_id":"cebpf4jnsgd1na2vs0mg"},{"bike_id":"f924149a-59ef-4186-b980-0165f1b0d086","system_id":"levelo_inurba_marseille","lat":43.2904,"lon":5.38133,"is_reserved":false,"is_disabled":false,"rental_uris":{"android":"levelo://app?vid=f924149a-59ef-4186-b980-0165f1b0d086","ios":"levelo://app?vid=f924149a-59ef-4186-b980-0165f1b0d086"},"vehicle_type_id":"4","last_reported":1743596379,"current_range_meters":3600,"station_id":"ce4bh4p2rcd13ifvqe1g","pricing_plan_id":"cebpf4jnsgd1na2vs0mg"},{"bike_id":"7018c222-b3c9-40cc-b215-7f60e9031f8b","system_id":"levelo_inurba_marseille","lat":43.23149,"lon":5.43703,"is_reserved":false,"is_disabled":false,"rental_uris":{"android":"levelo://app?vid=7018c222-b3c9-40cc-b215-7f60e9031f8b","ios":"levelo://app?vid=7018c222-b3c9-40cc-b215-7f60e9031f8b"},"vehicle_type_id":"4","last_reported":1743596379,"current_range_meters":3600,"station_id":"ce4bhmp2rcd13ifvqgog","pricing_plan_id":"cebpf4jnsgd1na2vs0mg"},{"bike_id":"aed31ba7-15da-42b2-abfd-4630dd34bd83","system_id":"levelo_inurba_marseille","lat":43.30472,"lon":5.3791,"is_reserved":false,"is_disabled":false,"rental_uris":{"android":"levelo://app?vid=aed31ba7-15da-42b2-abfd-4630dd34bd83","ios":"levelo://app?vid=aed31ba7-15da-42b2-abfd-4630dd34bd83"},"vehicle_type_id":"4","last_reported":1743596379,"current_range_meters":3600,"station_id":"ce4bgup2rcd13ifvqcn0","pricing_plan_id":"cebpf4jnsgd1na2vs0mg"},{"bike_id":"4ad73676-975d-4eb4-8ab0-34916f3a4594","system_id":"levelo_inurba_marseille","lat":43.30682,"lon":5.37147,"is_reserved":false,"is_disabled":false,"rental_uris":{"android":"levelo://app?vid=4ad73676-975d-4eb4-8ab0-34916f3a4594","ios":"levelo://app?vid=4ad73676-975d-4eb4-8ab0-34916f3a4594"},"vehicle_type_id":"4","last_reported":1743596379,"current_range_meters":3600,"station_id":"","pricing_plan_id":"cebpf4jnsgd1na2vs0mg"},{"bike_id":"415ce412-e9ad-4298-9d2a-ad0a33043512","system_id":"levelo_inurba_marseille","lat":43.25584,"lon":5.38239,"is_reserved":false,"is_disabled":false,"rental_uris":{"android":"levelo://app?vid=415ce412-e9ad-4298-9d2a-ad0a33043512","ios":"levelo://app?vid=415ce412-e9ad-4298-9d2a-ad0a33043512"},"vehicle_type_id":"4","last_reported":1743596379,"current_range_meters":3600,"station_id":"ce4bhih2rcd13ifvqfs0","pricing_plan_id":"cebpf4jnsgd1na2vs0mg"},{"bike_id":"d662608d-504d-43ae-8d4a-6ba237d6c000","system_id":"levelo_inurba_marseille","lat":43.27852,"lon":5.38502,"is_reserved":false,"is_disabled":false,"rental_uris":{"android":"levelo://app?vid=d662608d-504d-43ae-8d4a-6ba237d6c000","ios":"levelo://app?vid=d662608d-504d-43ae-8d4a-6ba237d6c000"},"vehicle_type_id":"4","last_reported":1743596379,"current_range_meters":3600,"station_id":"","pricing_plan_id":"cebpf4jnsgd1na2vs0mg"},{"bike_id":"2facbabb-36eb-4876-a816-0a3ced7e12fb","system_id":"levelo_inurba_marseille","lat":43.296299,"lon":5.377177,"is_reserved":false,"is_disabled":false,"rental_uris":{"android":"levelo://app?vid=2facbabb-36eb-4876-a816-0a3ced7e12fb","ios":"levelo://app?vid=2facbabb-36eb-4876-a816-0a3ced7e12fb"},"vehicle_type_id":"4","last_reported":1743596379,"current_range_meters":3200,"station_id":"ce4bgi92rcd13ifvqb90","pricing_plan_id":"cebpf4jnsgd1na2vs0mg"},{"bike_id":"c91a4dd2-3f9a-412b-8b44-835adfe663e0","system_id":"levelo_inurba_marseille","lat":43.268,"lon":5.39412,"is_reserved":false,"is_disabled":false,"rental_uris":{"android":"levelo://app?vid=c91a4dd2-3f9a-412b-8b44-835adfe663e0","ios":"levelo://app?vid=c91a4dd2-3f9a-412b-8b44-835adfe663e0"},"vehicle_type_id":"4","last_reported":1743596379,"current_range_meters":3600,"station_id":"ce4bhh12rcd13ifvqfg0","pricing_plan_id":"cebpf4jnsgd1na2vs0mg"},{"bike_id":"5f443e97-5288-4af4-8fb2-9ffc8ca651d1","system_id":"levelo_inurba_marseille","lat":43.30321,"lon":5.36898,"is_reserved":false,"is_disabled":false,"rental_uris":{"android":"levelo://app?vid=5f443e97-5288-4af4-8fb2-9ffc8ca651d1","ios":"levelo://app?vid=5f443e97-5288-4af4-8fb2-9ffc8ca651d1"},"vehicle_type_id":"4","last_reported":1743596379,"current_range_meters":4400,"station_id":"ce4bgqh2rcd13ifvqc5g","pricing_plan_id":"cebpf4jnsgd1na2vs0mg"},{"bike_id":"62080af5-f75b-4b9a-8632-eb87a91e2f39","system_id":"levelo_inurba_marseille","lat":43.27183,"lon":5.40998,"is_reserved":false,"is_disabled":false,"rental_uris":{"android":"levelo://app?vid=62080af5-f75b-4b9a-8632-eb87a91e2f39","ios":"levelo://app?vid=62080af5-f75b-4b9a-8632-eb87a91e2f39"},"vehicle_type_id":"4","last_reported":1743596379,"current_range_meters":4400,"station_id":"ce4bhl12rcd13ifvqgf0","pricing_plan_id":"cebpf4jnsgd1na2vs0mg"},{"bike_id":"fa97e65a-ec94-470a-b138-493c927d763b","system_id":"levelo_inurba_marseille","lat":43.30179,"lon":5.38076,"is_reserved":false,"is_disabled":false,"rental_uris":{"android":"levelo://app?vid=fa97e65a-ec94-470a-b138-493c927d763b","ios":"levelo://app?vid=fa97e65a-ec94-470a-b138-493c927d763b"},"vehicle_type_id":"4","last_reported":1743596379,"current_range_meters":4400,"station_id":"ce4bgjp2rcd13ifvqbh0","pricing_plan_id":"cebpf4jnsgd1na2vs0mg"},{"bike_id":"cdb10a65-a9d2-455d-9cdb-5bb3cac95292","system_id":"levelo_inurba_marseille","lat":43.341366,"lon":5.409075,"is_reserved":false,"is_disabled":false,"rental_uris":{"android":"levelo://app?vid=cdb10a65-a9d2-455d-9cdb-5bb3cac95292","ios":"levelo://app?vid=cdb10a65-a9d2-455d-9cdb-5bb3cac95292"},"vehicle_type_id":"4","last_reported":1743596379,"current_range_meters":4400,"station_id":"ce4bgih2rcd13ifvqba0","pricing_plan_id":"cebpf4jnsgd1na2vs0mg"},{"bike_id":"c04ec2c8-8f50-4ee8-8a69-122203b15c48","system_id":"levelo_inurba_marseille","lat":43.28613,"lon":5.37078,"is_reserved":false,"is_disabled":false,"rental_uris":{"android":"levelo://app?vid=c04ec2c8-8f50-4ee8-8a69-122203b15c48","ios":"levelo://app?vid=c04ec2c8-8f50-4ee8-8a69-122203b15c48"},"vehicle_type_id":"4","last_reported":1743596379,"current_range_meters":4800,"station_id":"ce4bht12rcd13ifvqi60","pricing_plan_id":"cebpf4jnsgd1na2vs0mg"},{"bike_id":"411298ec-a402-4b56-b14e-31031fee2d24","system_id":"levelo_inurba_marseille","lat":43.28667,"lon":5.3635,"is_reserved":false,"is_disabled":false,"rental_uris":{"android":"levelo://app?vid=411298ec-a402-4b56-b14e-31031fee2d24","ios":"levelo://app?vid=411298ec-a402-4b56-b14e-31031fee2d24"},"vehicle_type_id":"4","last_reported":1743596379,"current_range_meters":4800,"station_id":"ce4bhah2rcd13ifvqej0","pricing_plan_id":"cebpf4jnsgd1na2vs0mg"},{"bike_id":"5832e744-4317-4ac4-b49c-bb881c7938eb","system_id":"levelo_inurba_marseille","lat":43.24556,"lon":5.39535,"is_reserved":false,"is_disabled":false,"rental_uris":{"android":"levelo://app?vid=5832e744-4317-4ac4-b49c-bb881c7938eb","ios":"levelo://app?vid=5832e744-4317-4ac4-b49c-bb881c7938eb"},"vehicle_type_id":"4","last_reported":1743596379,"current_range_meters":4800,"station_id":"ce4bhlp2rcd13ifvqgjg","pricing_plan_id":"cebpf4jnsgd1na2vs0mg"},{"bike_id":"e72967af-6b08-4c57-835e-72e327201e4b","system_id":"levelo_inurba_marseille","lat":43.23204,"lon":5.39967,"is_reserved":false,"is_disabled":false,"rental_uris":{"android":"levelo://app?vid=e72967af-6b08-4c57-835e-72e327201e4b","ios":"levelo://app?vid=e72967af-6b08-4c57-835e-72e327201e4b"},"vehicle_type_id":"4","last_reported":1743596379,"current_range_meters":5600,"station_id":"","pricing_plan_id":"cebpf4jnsgd1na2vs0mg"},{"bike_id":"d10bd936-2fca-4607-82d0-6e154162cbfd","system_id":"levelo_inurba_marseille","lat":43.30904,"lon":5.39645,"is_reserved":false,"is_disabled":true,"rental_uris":{"android":"levelo://app?vid=d10bd936-2fca-4607-82d0-6e154162cbfd","ios":"levelo://app?vid=d10bd936-2fca-4607-82d0-6e154162cbfd"},"vehicle_type_id":"4","last_reported":1743596379,"current_range_meters":5600,"station_id":"ce4bh012rcd13ifvqcv0","pricing_plan_id":"cebpf4jnsgd1na2vs0mg"},{"bike_id":"451030bc-a120-4bc0-b298-f6f6d4bb0c50","system_id":"levelo_inurba_marseille","lat":43.301832,"lon":5.39861,"is_reserved":false,"is_disabled":false,"rental_uris":{"android":"levelo://app?vid=451030bc-a120-4bc0-b298-f6f6d4bb0c50","ios":"levelo://app?vid=451030bc-a120-4bc0-b298-f6f6d4bb0c50"},"vehicle_type_id":"4","last_reported":1743596379,"current_range_meters":8800,"station_id":"ce4bh0h2rcd13ifvqd40","pricing_plan_id":"cebpf4jnsgd1na2vs0mg"},{"bike_id":"fcda974e-edb5-4494-9b57-0d0bca2e998f","system_id":"levelo_inurba_marseille","lat":43.29878,"lon":5.39738,"is_reserved":false,"is_disabled":false,"rental_uris":{"android":"levelo://app?vid=fcda974e-edb5-4494-9b57-0d0bca2e998f","ios":"levelo://app?vid=fcda974e-edb5-4494-9b57-0d0bca2e998f"},"vehicle_type_id":"4","last_reported":1743596379,"current_range_meters":5600,"station_id":"ce4bh0h2rcd13ifvqd50","pricing_plan_id":"cebpf4jnsgd1na2vs0mg"},{"bike_id":"7ed94b94-3fc1-4492-9478-fe195d47778b","system_id":"levelo_inurba_marseille","lat":43.25569,"lon":5.38246,"is_reserved":false,"is_disabled":false,"rental_uris":{"android":"levelo://app?vid=7ed94b94-3fc1-4492-9478-fe195d47778b","ios":"levelo://app?vid=7ed94b94-3fc1-4492-9478-fe195d47778b"},"vehicle_type_id":"4","last_reported":1743596379,"current_range_meters":6000,"station_id":"ce4bhih2rcd13ifvqfs0","pricing_plan_id":"cebpf4jnsgd1na2vs0mg"},{"bike_id":"85b7488a-274e-4a57-a545-cd9b422c92bb","system_id":"levelo_inurba_marseille","lat":43.25907,"lon":5.40892,"is_reserved":false,"is_disabled":false,"rental_uris":{"android":"levelo://app?vid=85b7488a-274e-4a57-a545-cd9b422c92bb","ios":"levelo://app?vid=85b7488a-274e-4a57-a545-cd9b422c92bb"},"vehicle_type_id":"4","last_reported":1743596379,"current_range_meters":6000,"station_id":"ce4bhm92rcd13ifvqglg","pricing_plan_id":"cebpf4jnsgd1na2vs0mg"},{"bike_id":"577b084d-71c0-4e6e-b3d2-57cb9bf5c9c2","system_id":"levelo_inurba_marseille","lat":43.25926,"lon":5.40878,"is_reserved":false,"is_disabled":false,"rental_uris":{"android":"levelo://app?vid=577b084d-71c0-4e6e-b3d2-57cb9bf5c9c2","ios":"levelo://app?vid=577b084d-71c0-4e6e-b3d2-57cb9bf5c9c2"},"vehicle_type_id":"4","last_reported":1743596379,"current_range_meters":6000,"station_id":"ce4bhm92rcd13ifvqglg","pricing_plan_id":"cebpf4jnsgd1na2vs0mg"},{"bike_id":"7549bd43-15b2-4001-a4c7-d590c7fffdef","system_id":"levelo_inurba_marseille","lat":43.32117,"lon":5.3677,"is_reserved":false,"is_disabled":false,"rental_uris":{"android":"levelo://app?vid=7549bd43-15b2-4001-a4c7-d590c7fffdef","ios":"levelo://app?vid=7549bd43-15b2-4001-a4c7-d590c7fffdef"},"vehicle_type_id":"4","last_reported":1743596379,"current_range_meters":6000,"station_id":"ce4bhrh2rcd13ifvqhug","pricing_plan_id":"cebpf4jnsgd1na2vs0mg"},{"bike_id":"1167d76f-0701-42ca-9566-e6b8288b4501","system_id":"levelo_inurba_marseille","lat":43.28285,"lon":5.37863,"is_reserved":false,"is_disabled":false,"rental_uris":{"android":"levelo://app?vid=1167d76f-0701-42ca-9566-e6b8288b4501","ios":"levelo://app?vid=1167d76f-0701-42ca-9566-e6b8288b4501"},"vehicle_type_id":"4","last_reported":1743596379,"current_range_meters":6400,"station_id":"","pricing_plan_id":"cebpf4jnsgd1na2vs0mg"},{"bike_id":"d34e6e7a-3121-4e38-89a2-29940d0db5c0","system_id":"levelo_inurba_marseille","lat":43.31755,"lon":5.40358,"is_reserved":false,"is_disabled":false,"rental_uris":{"android":"levelo://app?vid=d34e6e7a-3121-4e38-89a2-29940d0db5c0","ios":"levelo://app?vid=d34e6e7a-3121-4e38-89a2-29940d0db5c0"},"vehicle_type_id":"4","last_reported":1743596379,"current_range_meters":6400,"station_id":"ce4bh012rcd13ifvqd00","pricing_plan_id":"cebpf4jnsgd1na2vs0mg"},{"bike_id":"6d2c1124-f4d2-445b-b75d-1e7e2a92ac19","system_id":"levelo_inurba_marseille","lat":43.30148,"lon":5.38077,"is_reserved":false,"is_disabled":false,"rental_uris":{"android":"levelo://app?vid=6d2c1124-f4d2-445b-b75d-1e7e2a92ac19","ios":"levelo://app?vid=6d2c1124-f4d2-445b-b75d-1e7e2a92ac19"},"vehicle_type_id":"4","last_reported":1743596379,"current_range_meters":6400,"station_id":"ce4bgjp2rcd13ifvqbh0","pricing_plan_id":"cebpf4jnsgd1na2vs0mg"},{"bike_id":"6c891623-36be-451a-b27e-57f695d07180","system_id":"levelo_inurba_marseille","lat":43.24077,"lon":5.37761,"is_reserved":false,"is_disabled":false,"rental_uris":{"android":"levelo://app?vid=6c891623-36be-451a-b27e-57f695d07180","ios":"levelo://app?vid=6c891623-36be-451a-b27e-57f695d07180"},"vehicle_type_id":"4","last_reported":1743596379,"current_range_meters":6400,"station_id":"ce4bhnp2rcd13ifvqgvg","pricing_plan_id":"cebpf4jnsgd1na2vs0mg"},{"bike_id":"c6c438e8-d3ab-4770-968b-7a1a93e8a8c6","system_id":"levelo_inurba_marseille","lat":43.28924,"lon":5.45865,"is_reserved":false,"is_disabled":false,"rental_uris":{"android":"levelo://app?vid=c6c438e8-d3ab-4770-968b-7a1a93e8a8c6","ios":"levelo://app?vid=c6c438e8-d3ab-4770-968b-7a1a93e8a8c6"},"vehicle_type_id":"4","last_reported":1743596379,"current_range_meters":6400,"station_id":"","pricing_plan_id":"cebpf4jnsgd1na2vs0mg"},{"bike_id":"8ddd8924-c83c-4916-99be-cd3339b6293a","system_id":"levelo_inurba_marseille","lat":43.27678,"lon":5.38884,"is_reserved":false,"is_disabled":false,"rental_uris":{"android":"levelo://app?vid=8ddd8924-c83c-4916-99be-cd3339b6293a","ios":"levelo://app?vid=8ddd8924-c83c-4916-99be-cd3339b6293a"},"vehicle_type_id":"4","last_reported":1743596379,"current_range_meters":6800,"station_id":"ce4bhi12rcd13ifvqfo0","pricing_plan_id":"cebpf4jnsgd1na2vs0mg"},{"bike_id":"988df17c-04e0-4f7d-9290-fa486f7f4991","system_id":"levelo_inurba_marseille","lat":43.30469,"lon":5.37912,"is_reserved":false,"is_disabled":false,"rental_uris":{"android":"levelo://app?vid=988df17c-04e0-4f7d-9290-fa486f7f4991","ios":"levelo://app?vid=988df17c-04e0-4f7d-9290-fa486f7f4991"},"vehicle_type_id":"4","last_reported":1743596379,"current_range_meters":6800,"station_id":"ce4bgup2rcd13ifvqcn0","pricing_plan_id":"cebpf4jnsgd1na2vs0mg"},{"bike_id":"dc48c563-12d4-4553-9bde-5c77c8dc941a","system_id":"levelo_inurba_marseille","lat":43.30138,"lon":5.37428,"is_reserved":false,"is_disabled":false,"rental_uris":{"android":"levelo://app?vid=dc48c563-12d4-4553-9bde-5c77c8dc941a","ios":"levelo://app?vid=dc48c563-12d4-4553-9bde-5c77c8dc941a"},"vehicle_type_id":"4","last_reported":1743596379,"current_range_meters":6800,"station_id":"ce4bgs92rcd13ifvqcc0","pricing_plan_id":"cebpf4jnsgd1na2vs0mg"},{"bike_id":"aa298551-446e-4836-8db2-5372ca4683f7","system_id":"levelo_inurba_marseille","lat":43.29038,"lon":5.38666,"is_reserved":false,"is_disabled":false,"rental_uris":{"android":"levelo://app?vid=aa298551-446e-4836-8db2-5372ca4683f7","ios":"levelo://app?vid=aa298551-446e-4836-8db2-5372ca4683f7"},"vehicle_type_id":"4","last_reported":1743596379,"current_range_meters":6800,"station_id":"ce4bh4p2rcd13ifvqe0g","pricing_plan_id":"cebpf4jnsgd1na2vs0mg"},{"bike_id":"0a8d07dd-db7d-4bd3-9059-559cb936ec18","system_id":"levelo_inurba_marseille","lat":43.33127,"lon":5.39244,"is_reserved":false,"is_disabled":false,"rental_uris":{"android":"levelo://app?vid=0a8d07dd-db7d-4bd3-9059-559cb936ec18","ios":"levelo://app?vid=0a8d07dd-db7d-4bd3-9059-559cb936ec18"},"vehicle_type_id":"4","last_reported":1743596379,"current_range_meters":6800,"station_id":"","pricing_plan_id":"cebpf4jnsgd1na2vs0mg"},{"bike_id":"f77e3ca5-e3a2-40e2-9021-467d4c545e00","system_id":"levelo_inurba_marseille","lat":43.31362,"lon":5.38498,"is_reserved":false,"is_disabled":false,"rental_uris":{"android":"levelo://app?vid=f77e3ca5-e3a2-40e2-9021-467d4c545e00","ios":"levelo://app?vid=f77e3ca5-e3a2-40e2-9021-467d4c545e00"},"vehicle_type_id":"4","last_reported":1743596379,"current_range_meters":6800,"station_id":"ce4bgt92rcd13ifvqcf0","pricing_plan_id":"cebpf4jnsgd1na2vs0mg"},{"bike_id":"46e5321f-1f0e-476d-9557-3a470246f9d4","system_id":"levelo_inurba_marseille","lat":43.23159,"lon":5.43709,"is_reserved":false,"is_disabled":false,"rental_uris":{"android":"levelo://app?vid=46e5321f-1f0e-476d-9557-3a470246f9d4","ios":"levelo://app?vid=46e5321f-1f0e-476d-9557-3a470246f9d4"},"vehicle_type_id":"4","last_reported":1743596379,"current_range_meters":6800,"station_id":"ce4bhmp2rcd13ifvqgog","pricing_plan_id":"cebpf4jnsgd1na2vs0mg"},{"bike_id":"e95eecce-1718-4f97-8361-45feee56c642","system_id":"levelo_inurba_marseille","lat":43.24079,"lon":5.37767,"is_reserved":false,"is_disabled":false,"rental_uris":{"android":"levelo://app?vid=e95eecce-1718-4f97-8361-45feee56c642","ios":"levelo://app?vid=e95eecce-1718-4f97-8361-45feee56c642"},"vehicle_type_id":"4","last_reported":1743596379,"current_range_meters":6800,"station_id":"ce4bhnp2rcd13ifvqgvg","pricing_plan_id":"cebpf4jnsgd1na2vs0mg"},{"bike_id":"b38354c6-3385-48dd-a8f5-eaa23d385568","system_id":"levelo_inurba_marseille","lat":43.305359,"lon":5.365671,"is_reserved":false,"is_disabled":false,"rental_uris":{"android":"levelo://app?vid=b38354c6-3385-48dd-a8f5-eaa23d385568","ios":"levelo://app?vid=b38354c6-3385-48dd-a8f5-eaa23d385568"},"vehicle_type_id":"4","last_reported":1743596379,"current_range_meters":6800,"station_id":"ce4bgs12rcd13ifvqcag","pricing_plan_id":"cebpf4jnsgd1na2vs0mg"},{"bike_id":"e507ce4f-2c6e-41d3-8f7c-90d8d5ce0657","system_id":"levelo_inurba_marseille","lat":43.30422,"lon":5.41278,"is_reserved":false,"is_disabled":false,"rental_uris":{"android":"levelo://app?vid=e507ce4f-2c6e-41d3-8f7c-90d8d5ce0657","ios":"levelo://app?vid=e507ce4f-2c6e-41d3-8f7c-90d8d5ce0657"},"vehicle_type_id":"4","last_reported":1743596379,"current_range_meters":9600,"station_id":"ce4bhop2rcd13ifvqh8g","pricing_plan_id":"cebpf4jnsgd1na2vs0mg"},{"bike_id":"66a6759f-f104-404f-ba35-7dd5d87e6d0b","system_id":"levelo_inurba_marseille","lat":43.30161,"lon":5.37667,"is_reserved":false,"is_disabled":false,"rental_uris":{"android":"levelo://app?vid=66a6759f-f104-404f-ba35-7dd5d87e6d0b","ios":"levelo://app?vid=66a6759f-f104-404f-ba35-7dd5d87e6d0b"},"vehicle_type_id":"4","last_reported":1743596379,"current_range_meters":6800,"station_id":"","pricing_plan_id":"cebpf4jnsgd1na2vs0mg"},{"bike_id":"4ee7756c-05ce-46a9-99e2-04518a0d16b9","system_id":"levelo_inurba_marseille","lat":43.30321,"lon":5.36896,"is_reserved":false,"is_disabled":false,"rental_uris":{"android":"levelo://app?vid=4ee7756c-05ce-46a9-99e2-04518a0d16b9","ios":"levelo://app?vid=4ee7756c-05ce-46a9-99e2-04518a0d16b9"},"vehicle_type_id":"4","last_reported":1743596379,"current_range_meters":6800,"station_id":"ce4bgqh2rcd13ifvqc5g","pricing_plan_id":"cebpf4jnsgd1na2vs0mg"},{"bike_id":"f6ec9a55-d833-4454-99e7-fa661aebfdae","system_id":"levelo_inurba_marseille","lat":43.30545,"lon":5.36563,"is_reserved":false,"is_disabled":false,"rental_uris":{"android":"levelo://app?vid=f6ec9a55-d833-4454-99e7-fa661aebfdae","ios":"levelo://app?vid=f6ec9a55-d833-4454-99e7-fa661aebfdae"},"vehicle_type_id":"4","last_reported":1743596379,"current_range_meters":7200,"station_id":"ce4bgs12rcd13ifvqcag","pricing_plan_id":"cebpf4jnsgd1na2vs0mg"},{"bike_id":"98c8f935-7a5c-4572-a478-49acf29d487d","system_id":"levelo_inurba_marseille","lat":43.26445,"lon":5.3785,"is_reserved":false,"is_disabled":false,"rental_uris":{"android":"levelo://app?vid=98c8f935-7a5c-4572-a478-49acf29d487d","ios":"levelo://app?vid=98c8f935-7a5c-4572-a478-49acf29d487d"},"vehicle_type_id":"4","last_reported":1743596379,"current_range_meters":7200,"station_id":"ce4bhhh2rcd13ifvqfk0","pricing_plan_id":"cebpf4jnsgd1na2vs0mg"},{"bike_id":"5ef6b633-cf2f-42de-995a-43dea0a55a29","system_id":"levelo_inurba_marseille","lat":43.321153,"lon":5.367725,"is_reserved":false,"is_disabled":false,"rental_uris":{"android":"levelo://app?vid=5ef6b633-cf2f-42de-995a-43dea0a55a29","ios":"levelo://app?vid=5ef6b633-cf2f-42de-995a-43dea0a55a29"},"vehicle_type_id":"4","last_reported":1743596379,"current_range_meters":7200,"station_id":"ce4bhrh2rcd13ifvqhug","pricing_plan_id":"cebpf4jnsgd1na2vs0mg"},{"bike_id":"4f1fb305-fdac-49af-98f8-e5ebaa4429a4","system_id":"levelo_inurba_marseille","lat":43.22945,"lon":5.35371,"is_reserved":false,"is_disabled":false,"rental_uris":{"android":"levelo://app?vid=4f1fb305-fdac-49af-98f8-e5ebaa4429a4","ios":"levelo://app?vid=4f1fb305-fdac-49af-98f8-e5ebaa4429a4"},"vehicle_type_id":"4","last_reported":1743596379,"current_range_meters":7200,"station_id":"cpo3532slgdg3j2ikp40","pricing_plan_id":"cebpf4jnsgd1na2vs0mg"},{"bike_id":"e47bc61d-df2d-41b3-b26b-dd94e6e5e301","system_id":"levelo_inurba_marseille","lat":43.26248,"lon":5.42132,"is_reserved":false,"is_disabled":false,"rental_uris":{"android":"levelo://app?vid=e47bc61d-df2d-41b3-b26b-dd94e6e5e301","ios":"levelo://app?vid=e47bc61d-df2d-41b3-b26b-dd94e6e5e301"},"vehicle_type_id":"4","last_reported":1743596379,"current_range_meters":7200,"station_id":"","pricing_plan_id":"cebpf4jnsgd1na2vs0mg"},{"bike_id":"7bdf0d60-3026-4723-ac07-ebb25b9cf79f","system_id":"levelo_inurba_marseille","lat":43.288,"lon":5.38657,"is_reserved":false,"is_disabled":false,"rental_uris":{"android":"levelo://app?vid=7bdf0d60-3026-4723-ac07-ebb25b9cf79f","ios":"levelo://app?vid=7bdf0d60-3026-4723-ac07-ebb25b9cf79f"},"vehicle_type_id":"4","last_reported":1743596379,"current_range_meters":7200,"station_id":"","pricing_plan_id":"cebpf4jnsgd1na2vs0mg"},{"bike_id":"28e316f3-abb6-4626-b570-87eba644931e","system_id":"levelo_inurba_marseille","lat":43.27079,"lon":5.4228,"is_reserved":false,"is_disabled":false,"rental_uris":{"android":"levelo://app?vid=28e316f3-abb6-4626-b570-87eba644931e","ios":"levelo://app?vid=28e316f3-abb6-4626-b570-87eba644931e"},"vehicle_type_id":"4","last_reported":1743596379,"current_range_meters":7200,"station_id":"ce4bhk92rcd13ifvqgb0","pricing_plan_id":"cebpf4jnsgd1na2vs0mg"},{"bike_id":"7060d1aa-4572-441f-bd0a-18838cce46de","system_id":"levelo_inurba_marseille","lat":43.29106,"lon":5.38128,"is_reserved":false,"is_disabled":false,"rental_uris":{"android":"levelo://app?vid=7060d1aa-4572-441f-bd0a-18838cce46de","ios":"levelo://app?vid=7060d1aa-4572-441f-bd0a-18838cce46de"},"vehicle_type_id":"4","last_reported":1743596379,"current_range_meters":7200,"station_id":"ce4bh512rcd13ifvqe2g","pricing_plan_id":"cebpf4jnsgd1na2vs0mg"},{"bike_id":"3bf274c3-fe5c-4854-94fe-e5816e84bf97","system_id":"levelo_inurba_marseille","lat":43.24546,"lon":5.3953,"is_reserved":false,"is_disabled":false,"rental_uris":{"android":"levelo://app?vid=3bf274c3-fe5c-4854-94fe-e5816e84bf97","ios":"levelo://app?vid=3bf274c3-fe5c-4854-94fe-e5816e84bf97"},"vehicle_type_id":"4","last_reported":1743596379,"current_range_meters":7200,"station_id":"ce4bhlp2rcd13ifvqgjg","pricing_plan_id":"cebpf4jnsgd1na2vs0mg"},{"bike_id":"0df55652-f264-4ef4-b9f4-ccadd0b763fe","system_id":"levelo_inurba_marseille","lat":43.30561,"lon":5.36537,"is_reserved":false,"is_disabled":false,"rental_uris":{"android":"levelo://app?vid=0df55652-f264-4ef4-b9f4-ccadd0b763fe","ios":"levelo://app?vid=0df55652-f264-4ef4-b9f4-ccadd0b763fe"},"vehicle_type_id":"4","last_reported":1743596379,"current_range_meters":7200,"station_id":"ce4bgs12rcd13ifvqcag","pricing_plan_id":"cebpf4jnsgd1na2vs0mg"},{"bike_id":"1b5d2d9f-18ae-4e2a-a865-60342f35401d","system_id":"levelo_inurba_marseille","lat":43.29869,"lon":5.39736,"is_reserved":false,"is_disabled":false,"rental_uris":{"android":"levelo://app?vid=1b5d2d9f-18ae-4e2a-a865-60342f35401d","ios":"levelo://app?vid=1b5d2d9f-18ae-4e2a-a865-60342f35401d"},"vehicle_type_id":"4","last_reported":1743596379,"current_range_meters":7200,"station_id":"ce4bh0h2rcd13ifvqd50","pricing_plan_id":"cebpf4jnsgd1na2vs0mg"},{"bike_id":"1d1fcf5b-c1ba-42a5-a64a-efa6d25fc73d","system_id":"levelo_inurba_marseille","lat":43.23163,"lon":5.437,"is_reserved":false,"is_disabled":false,"rental_uris":{"android":"levelo://app?vid=1d1fcf5b-c1ba-42a5-a64a-efa6d25fc73d","ios":"levelo://app?vid=1d1fcf5b-c1ba-42a5-a64a-efa6d25fc73d"},"vehicle_type_id":"4","last_reported":1743596379,"current_range_meters":7200,"station_id":"ce4bhmp2rcd13ifvqgog","pricing_plan_id":"cebpf4jnsgd1na2vs0mg"},{"bike_id":"3e6243d1-ba41-49a7-8891-b09296288717","system_id":"levelo_inurba_marseille","lat":43.24161,"lon":5.39717,"is_reserved":false,"is_disabled":false,"rental_uris":{"android":"levelo://app?vid=3e6243d1-ba41-49a7-8891-b09296288717","ios":"levelo://app?vid=3e6243d1-ba41-49a7-8891-b09296288717"},"vehicle_type_id":"4","last_reported":1743596379,"current_range_meters":7200,"station_id":"ce4bhn12rcd13ifvqgpg","pricing_plan_id":"cebpf4jnsgd1na2vs0mg"},{"bike_id":"312ed70b-1ac3-481a-88c0-b0159fcd0caf","system_id":"levelo_inurba_marseille","lat":43.23158,"lon":5.43703,"is_reserved":false,"is_disabled":false,"rental_uris":{"android":"levelo://app?vid=312ed70b-1ac3-481a-88c0-b0159fcd0caf","ios":"levelo://app?vid=312ed70b-1ac3-481a-88c0-b0159fcd0caf"},"vehicle_type_id":"4","last_reported":1743596379,"current_range_meters":7200,"station_id":"ce4bhmp2rcd13ifvqgog","pricing_plan_id":"cebpf4jnsgd1na2vs0mg"},{"bike_id":"0ddaa973-7c5e-4905-8687-12fc2a8f2fe5","system_id":"levelo_inurba_marseille","lat":43.304593,"lon":5.379063,"is_reserved":false,"is_disabled":false,"rental_uris":{"android":"levelo://app?vid=0ddaa973-7c5e-4905-8687-12fc2a8f2fe5","ios":"levelo://app?vid=0ddaa973-7c5e-4905-8687-12fc2a8f2fe5"},"vehicle_type_id":"4","last_reported":1743596379,"current_range_meters":9600,"station_id":"ce4bgt12rcd13ifvqcd0","pricing_plan_id":"cebpf4jnsgd1na2vs0mg"},{"bike_id":"93eb57be-6e76-46e4-a5ce-bf21001073ab","system_id":"levelo_inurba_marseille","lat":43.2315,"lon":5.4371,"is_reserved":false,"is_disabled":false,"rental_uris":{"android":"levelo://app?vid=93eb57be-6e76-46e4-a5ce-bf21001073ab","ios":"levelo://app?vid=93eb57be-6e76-46e4-a5ce-bf21001073ab"},"vehicle_type_id":"4","last_reported":1743596379,"current_range_meters":8000,"station_id":"ce4bhmp2rcd13ifvqgog","pricing_plan_id":"cebpf4jnsgd1na2vs0mg"},{"bike_id":"704967b0-4590-4a5b-82d4-792e195a481a","system_id":"levelo_inurba_marseille","lat":43.26791,"lon":5.39418,"is_reserved":false,"is_disabled":false,"rental_uris":{"android":"levelo://app?vid=704967b0-4590-4a5b-82d4-792e195a481a","ios":"levelo://app?vid=704967b0-4590-4a5b-82d4-792e195a481a"},"vehicle_type_id":"4","last_reported":1743596379,"current_range_meters":8000,"station_id":"ce4bhh12rcd13ifvqfg0","pricing_plan_id":"cebpf4jnsgd1na2vs0mg"},{"bike_id":"7ce7cad8-c206-46ae-a002-72e377480765","system_id":"levelo_inurba_marseille","lat":43.26801,"lon":5.39413,"is_reserved":false,"is_disabled":false,"rental_uris":{"android":"levelo://app?vid=7ce7cad8-c206-46ae-a002-72e377480765","ios":"levelo://app?vid=7ce7cad8-c206-46ae-a002-72e377480765"},"vehicle_type_id":"4","last_reported":1743596379,"current_range_meters":8000,"station_id":"ce4bhh12rcd13ifvqfg0","pricing_plan_id":"cebpf4jnsgd1na2vs0mg"},{"bike_id":"1c036ce6-10c2-4222-9649-81fcda9e7bc3","system_id":"levelo_inurba_marseille","lat":43.31088,"lon":5.42433,"is_reserved":false,"is_disabled":false,"rental_uris":{"android":"levelo://app?vid=1c036ce6-10c2-4222-9649-81fcda9e7bc3","ios":"levelo://app?vid=1c036ce6-10c2-4222-9649-81fcda9e7bc3"},"vehicle_type_id":"4","last_reported":1743596379,"current_range_meters":8000,"station_id":"ce4bhp92rcd13ifvqhag","pricing_plan_id":"cebpf4jnsgd1na2vs0mg"},{"bike_id":"a37fcda5-769f-4c4d-8d34-4c4ef6458ece","system_id":"levelo_inurba_marseille","lat":43.23157,"lon":5.43709,"is_reserved":false,"is_disabled":false,"rental_uris":{"android":"levelo://app?vid=a37fcda5-769f-4c4d-8d34-4c4ef6458ece","ios":"levelo://app?vid=a37fcda5-769f-4c4d-8d34-4c4ef6458ece"},"vehicle_type_id":"4","last_reported":1743596379,"current_range_meters":8000,"station_id":"ce4bhmp2rcd13ifvqgog","pricing_plan_id":"cebpf4jnsgd1na2vs0mg"},{"bike_id":"989c1df8-9be9-4c87-b26f-c2fc125e2db0","system_id":"levelo_inurba_marseille","lat":43.29802,"lon":5.38114,"is_reserved":false,"is_disabled":false,"rental_uris":{"android":"levelo://app?vid=989c1df8-9be9-4c87-b26f-c2fc125e2db0","ios":"levelo://app?vid=989c1df8-9be9-4c87-b26f-c2fc125e2db0"},"vehicle_type_id":"4","last_reported":1743596379,"current_range_meters":9200,"station_id":"ce4bgip2rcd13ifvqbb0","pricing_plan_id":"cebpf4jnsgd1na2vs0mg"},{"bike_id":"0b8a01ea-b4ac-4743-b0a7-a5aff81bf844","system_id":"levelo_inurba_marseille","lat":43.26779,"lon":5.39421,"is_reserved":false,"is_disabled":false,"rental_uris":{"android":"levelo://app?vid=0b8a01ea-b4ac-4743-b0a7-a5aff81bf844","ios":"levelo://app?vid=0b8a01ea-b4ac-4743-b0a7-a5aff81bf844"},"vehicle_type_id":"4","last_reported":1743596379,"current_range_meters":8000,"station_id":"ce4bhh12rcd13ifvqfg0","pricing_plan_id":"cebpf4jnsgd1na2vs0mg"},{"bike_id":"f06067fe-c409-49ce-b995-b28658dd37fb","system_id":"levelo_inurba_marseille","lat":43.28692,"lon":5.37392,"is_reserved":false,"is_disabled":true,"rental_uris":{"android":"levelo://app?vid=f06067fe-c409-49ce-b995-b28658dd37fb","ios":"levelo://app?vid=f06067fe-c409-49ce-b995-b28658dd37fb"},"vehicle_type_id":"4","last_reported":1743596379,"current_range_meters":8400,"station_id":"ce4bh3p2rcd13ifvqdq0","pricing_plan_id":"cebpf4jnsgd1na2vs0mg"},{"bike_id":"7427de40-9a13-46d7-b06e-2868cebe5e6c","system_id":"levelo_inurba_marseille","lat":43.27957,"lon":5.38723,"is_reserved":false,"is_disabled":false,"rental_uris":{"android":"levelo://app?vid=7427de40-9a13-46d7-b06e-2868cebe5e6c","ios":"levelo://app?vid=7427de40-9a13-46d7-b06e-2868cebe5e6c"},"vehicle_type_id":"4","last_reported":1743596379,"current_range_meters":8400,"station_id":"ce4bhg12rcd13ifvqf80","pricing_plan_id":"cebpf4jnsgd1na2vs0mg"},{"bike_id":"60129d40-45b0-48c5-8fe5-8766c358d773","system_id":"levelo_inurba_marseille","lat":43.25089,"lon":5.39519,"is_reserved":false,"is_disabled":false,"rental_uris":{"android":"levelo://app?vid=60129d40-45b0-48c5-8fe5-8766c358d773","ios":"levelo://app?vid=60129d40-45b0-48c5-8fe5-8766c358d773"},"vehicle_type_id":"4","last_reported":1743596379,"current_range_meters":8400,"station_id":"ce4bhm12rcd13ifvqgkg","pricing_plan_id":"cebpf4jnsgd1na2vs0mg"},{"bike_id":"25c9da1a-b5c2-481b-a59e-5c1900e213f6","system_id":"levelo_inurba_marseille","lat":43.25586,"lon":5.38241,"is_reserved":false,"is_disabled":false,"rental_uris":{"android":"levelo://app?vid=25c9da1a-b5c2-481b-a59e-5c1900e213f6","ios":"levelo://app?vid=25c9da1a-b5c2-481b-a59e-5c1900e213f6"},"vehicle_type_id":"4","last_reported":1743596379,"current_range_meters":8400,"station_id":"ce4bhih2rcd13ifvqfs0","pricing_plan_id":"cebpf4jnsgd1na2vs0mg"},{"bike_id":"3e5329f3-c0cd-422c-afb1-2f46242590da","system_id":"levelo_inurba_marseille","lat":43.31925,"lon":5.37554,"is_reserved":false,"is_disabled":false,"rental_uris":{"android":"levelo://app?vid=3e5329f3-c0cd-422c-afb1-2f46242590da","ios":"levelo://app?vid=3e5329f3-c0cd-422c-afb1-2f46242590da"},"vehicle_type_id":"4","last_reported":1743596379,"current_range_meters":8400,"station_id":"","pricing_plan_id":"cebpf4jnsgd1na2vs0mg"},{"bike_id":"5ac00bb8-ceaa-4327-8b40-5ecd6d340223","system_id":"levelo_inurba_marseille","lat":43.285491,"lon":5.398821,"is_reserved":false,"is_disabled":false,"rental_uris":{"android":"levelo://app?vid=5ac00bb8-ceaa-4327-8b40-5ecd6d340223","ios":"levelo://app?vid=5ac00bb8-ceaa-4327-8b40-5ecd6d340223"},"vehicle_type_id":"4","last_reported":1743596379,"current_range_meters":8400,"station_id":"ce4bhnh2rcd13ifvqgtg","pricing_plan_id":"cebpf4jnsgd1na2vs0mg"},{"bike_id":"9182dd0d-8f83-4259-8a4c-2cc8e5b5fabe","system_id":"levelo_inurba_marseille","lat":43.29571,"lon":5.39966,"is_reserved":false,"is_disabled":false,"rental_uris":{"android":"levelo://app?vid=9182dd0d-8f83-4259-8a4c-2cc8e5b5fabe","ios":"levelo://app?vid=9182dd0d-8f83-4259-8a4c-2cc8e5b5fabe"},"vehicle_type_id":"4","last_reported":1743596379,"current_range_meters":8400,"station_id":"ce4bh312rcd13ifvqdj0","pricing_plan_id":"cebpf4jnsgd1na2vs0mg"},{"bike_id":"b2976302-5b37-4943-ad85-e02ed699afc5","system_id":"levelo_inurba_marseille","lat":43.30929,"lon":5.40146,"is_reserved":false,"is_disabled":false,"rental_uris":{"android":"levelo://app?vid=b2976302-5b37-4943-ad85-e02ed699afc5","ios":"levelo://app?vid=b2976302-5b37-4943-ad85-e02ed699afc5"},"vehicle_type_id":"4","last_reported":1743596379,"current_range_meters":8800,"station_id":"ce4bgvp2rcd13ifvqct0","pricing_plan_id":"cebpf4jnsgd1na2vs0mg"},{"bike_id":"a67a15e0-b2a5-428a-a384-b8143edf2b07","system_id":"levelo_inurba_marseille","lat":43.29706,"lon":5.36607,"is_reserved":false,"is_disabled":false,"rental_uris":{"android":"levelo://app?vid=a67a15e0-b2a5-428a-a384-b8143edf2b07","ios":"levelo://app?vid=a67a15e0-b2a5-428a-a384-b8143edf2b07"},"vehicle_type_id":"4","last_reported":1743596379,"current_range_meters":8800,"station_id":"ce4bgn12rcd13ifvqbt0","pricing_plan_id":"cebpf4jnsgd1na2vs0mg"},{"bike_id":"dd57aabe-70ab-468e-b57c-859ef160a8e2","system_id":"levelo_inurba_marseille","lat":43.25918,"lon":5.40872,"is_reserved":false,"is_disabled":false,"rental_uris":{"android":"levelo://app?vid=dd57aabe-70ab-468e-b57c-859ef160a8e2","ios":"levelo://app?vid=dd57aabe-70ab-468e-b57c-859ef160a8e2"},"vehicle_type_id":"4","last_reported":1743596379,"current_range_meters":8800,"station_id":"ce4bhm92rcd13ifvqglg","pricing_plan_id":"cebpf4jnsgd1na2vs0mg"},{"bike_id":"7053197a-c7da-4673-82c9-ad845f4e5e87","system_id":"levelo_inurba_marseille","lat":43.28003,"lon":5.40005,"is_reserved":false,"is_disabled":false,"rental_uris":{"android":"levelo://app?vid=7053197a-c7da-4673-82c9-ad845f4e5e87","ios":"levelo://app?vid=7053197a-c7da-4673-82c9-ad845f4e5e87"},"vehicle_type_id":"4","last_reported":1743596379,"current_range_meters":8800,"station_id":"ce4bho92rcd13ifvqh4g","pricing_plan_id":"cebpf4jnsgd1na2vs0mg"},{"bike_id":"2d5b05ab-3fbf-4245-a566-4ad78ee6292a","system_id":"levelo_inurba_marseille","lat":43.25015,"lon":5.38908,"is_reserved":false,"is_disabled":false,"rental_uris":{"android":"levelo://app?vid=2d5b05ab-3fbf-4245-a566-4ad78ee6292a","ios":"levelo://app?vid=2d5b05ab-3fbf-4245-a566-4ad78ee6292a"},"vehicle_type_id":"4","last_reported":1743596379,"current_range_meters":8800,"station_id":"ce4bhgp2rcd13ifvqfd0","pricing_plan_id":"cebpf4jnsgd1na2vs0mg"},{"bike_id":"eecac15a-1ee8-4682-a4d9-e94bf58da012","system_id":"levelo_inurba_marseille","lat":43.27181,"lon":5.40997,"is_reserved":false,"is_disabled":false,"rental_uris":{"android":"levelo://app?vid=eecac15a-1ee8-4682-a4d9-e94bf58da012","ios":"levelo://app?vid=eecac15a-1ee8-4682-a4d9-e94bf58da012"},"vehicle_type_id":"4","last_reported":1743596379,"current_range_meters":8800,"station_id":"ce4bhl12rcd13ifvqgf0","pricing_plan_id":"cebpf4jnsgd1na2vs0mg"},{"bike_id":"3ba6ccff-1eda-46d4-acbd-01dbdd65bb76","system_id":"levelo_inurba_marseille","lat":43.29894,"lon":5.4368,"is_reserved":false,"is_disabled":false,"rental_uris":{"android":"levelo://app?vid=3ba6ccff-1eda-46d4-acbd-01dbdd65bb76","ios":"levelo://app?vid=3ba6ccff-1eda-46d4-acbd-01dbdd65bb76"},"vehicle_type_id":"4","last_reported":1743596379,"current_range_meters":8800,"station_id":"ce4bhpp2rcd13ifvqhfg","pricing_plan_id":"cebpf4jnsgd1na2vs0mg"},{"bike_id":"16c82eca-3981-400e-991f-2adb3a8e456e","system_id":"levelo_inurba_marseille","lat":43.30611,"lon":5.36628,"is_reserved":false,"is_disabled":false,"rental_uris":{"android":"levelo://app?vid=16c82eca-3981-400e-991f-2adb3a8e456e","ios":"levelo://app?vid=16c82eca-3981-400e-991f-2adb3a8e456e"},"vehicle_type_id":"4","last_reported":1743596379,"current_range_meters":9200,"station_id":"ce4bgrp2rcd13ifvqc9g","pricing_plan_id":"cebpf4jnsgd1na2vs0mg"},{"bike_id":"e3d01a26-5542-45dc-8373-1b19a6bf2880","system_id":"levelo_inurba_marseille","lat":43.231613,"lon":5.437013,"is_reserved":false,"is_disabled":true,"rental_uris":{"android":"levelo://app?vid=e3d01a26-5542-45dc-8373-1b19a6bf2880","ios":"levelo://app?vid=e3d01a26-5542-45dc-8373-1b19a6bf2880"},"vehicle_type_id":"4","last_reported":1743596379,"current_range_meters":9200,"station_id":"ce4bhmp2rcd13ifvqgog","pricing_plan_id":"cebpf4jnsgd1na2vs0mg"},{"bike_id":"7aa08c36-ee27-4e8e-996a-fcb4923ecbbb","system_id":"levelo_inurba_marseille","lat":43.28273,"lon":5.35067,"is_reserved":false,"is_disabled":true,"rental_uris":{"android":"levelo://app?vid=7aa08c36-ee27-4e8e-996a-fcb4923ecbbb","ios":"levelo://app?vid=7aa08c36-ee27-4e8e-996a-fcb4923ecbbb"},"vehicle_type_id":"4","last_reported":1743596379,"current_range_meters":9200,"station_id":"ce4bhbp2rcd13ifvqerg","pricing_plan_id":"cebpf4jnsgd1na2vs0mg"},{"bike_id":"ffc53036-d059-4465-b88a-5b4b3e7aeb5e","system_id":"levelo_inurba_marseille","lat":43.22939,"lon":5.35374,"is_reserved":false,"is_disabled":false,"rental_uris":{"android":"levelo://app?vid=ffc53036-d059-4465-b88a-5b4b3e7aeb5e","ios":"levelo://app?vid=ffc53036-d059-4465-b88a-5b4b3e7aeb5e"},"vehicle_type_id":"4","last_reported":1743596379,"current_range_meters":9200,"station_id":"cpo3532slgdg3j2ikp40","pricing_plan_id":"cebpf4jnsgd1na2vs0mg"},{"bike_id":"c05ea898-9b73-4ac7-a114-d869d4e9a852","system_id":"levelo_inurba_marseille","lat":43.26212,"lon":5.37435,"is_reserved":false,"is_disabled":false,"rental_uris":{"android":"levelo://app?vid=c05ea898-9b73-4ac7-a114-d869d4e9a852","ios":"levelo://app?vid=c05ea898-9b73-4ac7-a114-d869d4e9a852"},"vehicle_type_id":"4","last_reported":1743596379,"current_range_meters":9200,"station_id":"ce4bhgp2rcd13ifvqfc0","pricing_plan_id":"cebpf4jnsgd1na2vs0mg"},{"bike_id":"3e0a573f-f975-4c57-9866-f351986cc5b7","system_id":"levelo_inurba_marseille","lat":43.27831,"lon":5.40705,"is_reserved":false,"is_disabled":false,"rental_uris":{"android":"levelo://app?vid=3e0a573f-f975-4c57-9866-f351986cc5b7","ios":"levelo://app?vid=3e0a573f-f975-4c57-9866-f351986cc5b7"},"vehicle_type_id":"4","last_reported":1743596379,"current_range_meters":9200,"station_id":"ce4bhnh2rcd13ifvqgtg","pricing_plan_id":"cebpf4jnsgd1na2vs0mg"},{"bike_id":"caa1d968-9a52-4e47-9513-22435964bd05","system_id":"levelo_inurba_marseille","lat":43.31332,"lon":5.39692,"is_reserved":false,"is_disabled":false,"rental_uris":{"android":"levelo://app?vid=caa1d968-9a52-4e47-9513-22435964bd05","ios":"levelo://app?vid=caa1d968-9a52-4e47-9513-22435964bd05"},"vehicle_type_id":"4","last_reported":1743596379,"current_range_meters":9200,"station_id":"ce4bgvp2rcd13ifvqcu0","pricing_plan_id":"cebpf4jnsgd1na2vs0mg"},{"bike_id":"c02cd1c7-a91e-4cc3-89ea-13d876fd0408","system_id":"levelo_inurba_marseille","lat":43.30538,"lon":5.36693,"is_reserved":false,"is_disabled":false,"rental_uris":{"android":"levelo://app?vid=c02cd1c7-a91e-4cc3-89ea-13d876fd0408","ios":"levelo://app?vid=c02cd1c7-a91e-4cc3-89ea-13d876fd0408"},"vehicle_type_id":"4","last_reported":1743596379,"current_range_meters":9200,"station_id":"ce4bgrp2rcd13ifvqc9g","pricing_plan_id":"cebpf4jnsgd1na2vs0mg"},{"bike_id":"d120d6b8-7c34-45a1-bfdf-2a5356fa3a50","system_id":"levelo_inurba_marseille","lat":43.262191,"lon":5.374462,"is_reserved":false,"is_disabled":false,"rental_uris":{"android":"levelo://app?vid=d120d6b8-7c34-45a1-bfdf-2a5356fa3a50","ios":"levelo://app?vid=d120d6b8-7c34-45a1-bfdf-2a5356fa3a50"},"vehicle_type_id":"4","last_reported":1743596379,"current_range_meters":9200,"station_id":"ce4bhgp2rcd13ifvqfc0","pricing_plan_id":"cebpf4jnsgd1na2vs0mg"},{"bike_id":"40ed94f4-ce82-432b-ae28-0a4f7639bf95","system_id":"levelo_inurba_marseille","lat":43.29987,"lon":5.38487,"is_reserved":false,"is_disabled":false,"rental_uris":{"android":"levelo://app?vid=40ed94f4-ce82-432b-ae28-0a4f7639bf95","ios":"levelo://app?vid=40ed94f4-ce82-432b-ae28-0a4f7639bf95"},"vehicle_type_id":"4","last_reported":1743596379,"current_range_meters":9200,"station_id":"ce4bgj92rcd13ifvqbd0","pricing_plan_id":"cebpf4jnsgd1na2vs0mg"},{"bike_id":"c9b6df3f-92c4-4acd-8a61-30843442f23f","system_id":"levelo_inurba_marseille","lat":43.31077,"lon":5.424,"is_reserved":false,"is_disabled":false,"rental_uris":{"android":"levelo://app?vid=c9b6df3f-92c4-4acd-8a61-30843442f23f","ios":"levelo://app?vid=c9b6df3f-92c4-4acd-8a61-30843442f23f"},"vehicle_type_id":"4","last_reported":1743596379,"current_range_meters":9600,"station_id":"ce4bhp92rcd13ifvqhag","pricing_plan_id":"cebpf4jnsgd1na2vs0mg"},{"bike_id":"156b61ff-bc4f-42b8-b87c-dbd1ae23923e","system_id":"levelo_inurba_marseille","lat":43.29898,"lon":5.43671,"is_reserved":false,"is_disabled":false,"rental_uris":{"android":"levelo://app?vid=156b61ff-bc4f-42b8-b87c-dbd1ae23923e","ios":"levelo://app?vid=156b61ff-bc4f-42b8-b87c-dbd1ae23923e"},"vehicle_type_id":"4","last_reported":1743596379,"current_range_meters":9600,"station_id":"ce4bhpp2rcd13ifvqhfg","pricing_plan_id":"cebpf4jnsgd1na2vs0mg"},{"bike_id":"d1b5d6c6-563b-4dc0-99fd-5e93b8acdd06","system_id":"levelo_inurba_marseille","lat":43.23152,"lon":5.43713,"is_reserved":false,"is_disabled":false,"rental_uris":{"android":"levelo://app?vid=d1b5d6c6-563b-4dc0-99fd-5e93b8acdd06","ios":"levelo://app?vid=d1b5d6c6-563b-4dc0-99fd-5e93b8acdd06"},"vehicle_type_id":"4","last_reported":1743596379,"current_range_meters":9600,"station_id":"ce4bhmp2rcd13ifvqgog","pricing_plan_id":"cebpf4jnsgd1na2vs0mg"},{"bike_id":"6ea5b4a7-5faf-43e5-a2a8-7c55644f6a75","system_id":"levelo_inurba_marseille","lat":43.31249,"lon":5.36859,"is_reserved":false,"is_disabled":false,"rental_uris":{"android":"levelo://app?vid=6ea5b4a7-5faf-43e5-a2a8-7c55644f6a75","ios":"levelo://app?vid=6ea5b4a7-5faf-43e5-a2a8-7c55644f6a75"},"vehicle_type_id":"4","last_reported":1743596379,"current_range_meters":9600,"station_id":"ce4bgl92rcd13ifvqbq0","pricing_plan_id":"cebpf4jnsgd1na2vs0mg"},{"bike_id":"e291c482-09d3-4678-bce1-04333ffa4fb4","system_id":"levelo_inurba_marseille","lat":43.30321,"lon":5.369,"is_reserved":false,"is_disabled":false,"rental_uris":{"android":"levelo://app?vid=e291c482-09d3-4678-bce1-04333ffa4fb4","ios":"levelo://app?vid=e291c482-09d3-4678-bce1-04333ffa4fb4"},"vehicle_type_id":"4","last_reported":1743596379,"current_range_meters":9600,"station_id":"ce4bgqh2rcd13ifvqc5g","pricing_plan_id":"cebpf4jnsgd1na2vs0mg"},{"bike_id":"975747b7-7f2c-416a-a73b-009266193c94","system_id":"levelo_inurba_marseille","lat":43.25747,"lon":5.4111,"is_reserved":false,"is_disabled":false,"rental_uris":{"android":"levelo://app?vid=975747b7-7f2c-416a-a73b-009266193c94","ios":"levelo://app?vid=975747b7-7f2c-416a-a73b-009266193c94"},"vehicle_type_id":"4","last_reported":1743596379,"current_range_meters":10000,"station_id":"ce4bhkp2rcd13ifvqgd0","pricing_plan_id":"cebpf4jnsgd1na2vs0mg"},{"bike_id":"b80ee275-2592-4659-b2e9-175feb839700","system_id":"levelo_inurba_marseille","lat":43.2321,"lon":5.35555,"is_reserved":false,"is_disabled":false,"rental_uris":{"android":"levelo://app?vid=b80ee275-2592-4659-b2e9-175feb839700","ios":"levelo://app?vid=b80ee275-2592-4659-b2e9-175feb839700"},"vehicle_type_id":"4","last_reported":1743596379,"current_range_meters":10000,"station_id":"ce4bhu92rcd13ifvqi70","pricing_plan_id":"cebpf4jnsgd1na2vs0mg"},{"bike_id":"08fa120d-1b7b-45e2-8662-4ad042922a84","system_id":"levelo_inurba_marseille","lat":43.25586,"lon":5.38238,"is_reserved":false,"is_disabled":false,"rental_uris":{"android":"levelo://app?vid=08fa120d-1b7b-45e2-8662-4ad042922a84","ios":"levelo://app?vid=08fa120d-1b7b-45e2-8662-4ad042922a84"},"vehicle_type_id":"4","last_reported":1743596379,"current_range_meters":10000,"station_id":"ce4bhih2rcd13ifvqfs0","pricing_plan_id":"cebpf4jnsgd1na2vs0mg"},{"bike_id":"6e6a66e5-58ca-4db1-9695-b46ed5c28827","system_id":"levelo_inurba_marseille","lat":43.31677,"lon":5.36407,"is_reserved":false,"is_disabled":false,"rental_uris":{"android":"levelo://app?vid=6e6a66e5-58ca-4db1-9695-b46ed5c28827","ios":"levelo://app?vid=6e6a66e5-58ca-4db1-9695-b46ed5c28827"},"vehicle_type_id":"4","last_reported":1743596379,"current_range_meters":10000,"station_id":"","pricing_plan_id":"cebpf4jnsgd1na2vs0mg"},{"bike_id":"f55695a6-b65f-4a30-99ab-94b2bfa63268","system_id":"levelo_inurba_marseille","lat":43.23205,"lon":5.35552,"is_reserved":false,"is_disabled":false,"rental_uris":{"android":"levelo://app?vid=f55695a6-b65f-4a30-99ab-94b2bfa63268","ios":"levelo://app?vid=f55695a6-b65f-4a30-99ab-94b2bfa63268"},"vehicle_type_id":"4","last_reported":1743596379,"current_range_meters":10000,"station_id":"ce4bhu92rcd13ifvqi70","pricing_plan_id":"cebpf4jnsgd1na2vs0mg"},{"bike_id":"9b3838b9-73e2-41bd-af2e-2f900c143e41","system_id":"levelo_inurba_marseille","lat":43.28373,"lon":5.38632,"is_reserved":false,"is_disabled":false,"rental_uris":{"android":"levelo://app?vid=9b3838b9-73e2-41bd-af2e-2f900c143e41","ios":"levelo://app?vid=9b3838b9-73e2-41bd-af2e-2f900c143e41"},"vehicle_type_id":"4","last_reported":1743596379,"current_range_meters":10000,"station_id":"ce4bh492rcd13ifvqdvg","pricing_plan_id":"cebpf4jnsgd1na2vs0mg"},{"bike_id":"154642c7-eb24-41a0-b701-db99f08a17cf","system_id":"levelo_inurba_marseille","lat":43.30216,"lon":5.39453,"is_reserved":false,"is_disabled":true,"rental_uris":{"android":"levelo://app?vid=154642c7-eb24-41a0-b701-db99f08a17cf","ios":"levelo://app?vid=154642c7-eb24-41a0-b701-db99f08a17cf"},"vehicle_type_id":"4","last_reported":1743596379,"current_range_meters":10000,"station_id":"ce4bh0p2rcd13ifvqd70","pricing_plan_id":"cebpf4jnsgd1na2vs0mg"},{"bike_id":"5b630435-1eaa-4394-9406-62396704b621","system_id":"levelo_inurba_marseille","lat":43.28368,"lon":5.38648,"is_reserved":false,"is_disabled":false,"rental_uris":{"android":"levelo://app?vid=5b630435-1eaa-4394-9406-62396704b621","ios":"levelo://app?vid=5b630435-1eaa-4394-9406-62396704b621"},"vehicle_type_id":"4","last_reported":1743596379,"current_range_meters":10800,"station_id":"ce4bh492rcd13ifvqdvg","pricing_plan_id":"cebpf4jnsgd1na2vs0mg"},{"bike_id":"7b869cea-1d61-42d2-b04b-29df5bd7497f","system_id":"levelo_inurba_marseille","lat":43.32083,"lon":5.36783,"is_reserved":false,"is_disabled":false,"rental_uris":{"android":"levelo://app?vid=7b869cea-1d61-42d2-b04b-29df5bd7497f","ios":"levelo://app?vid=7b869cea-1d61-42d2-b04b-29df5bd7497f"},"vehicle_type_id":"4","last_reported":1743596379,"current_range_meters":10800,"station_id":"ce4bhrh2rcd13ifvqhug","pricing_plan_id":"cebpf4jnsgd1na2vs0mg"},{"bike_id":"fc3640cc-9381-4673-beca-985fad96c21c","system_id":"levelo_inurba_marseille","lat":43.31231,"lon":5.36846,"is_reserved":false,"is_disabled":true,"rental_uris":{"android":"levelo://app?vid=fc3640cc-9381-4673-beca-985fad96c21c","ios":"levelo://app?vid=fc3640cc-9381-4673-beca-985fad96c21c"},"vehicle_type_id":"4","last_reported":1743596379,"current_range_meters":10800,"station_id":"ce4bgl92rcd13ifvqbq0","pricing_plan_id":"cebpf4jnsgd1na2vs0mg"},{"bike_id":"f87e996c-206a-47d9-8697-84a2d463fdc3","system_id":"levelo_inurba_marseille","lat":43.23208,"lon":5.35539,"is_reserved":false,"is_disabled":false,"rental_uris":{"android":"levelo://app?vid=f87e996c-206a-47d9-8697-84a2d463fdc3","ios":"levelo://app?vid=f87e996c-206a-47d9-8697-84a2d463fdc3"},"vehicle_type_id":"4","last_reported":1743596379,"current_range_meters":10800,"station_id":"ce4bhu92rcd13ifvqi70","pricing_plan_id":"cebpf4jnsgd1na2vs0mg"},{"bike_id":"77fd553e-4cc7-4ee1-b6bc-281f17ec491f","system_id":"levelo_inurba_marseille","lat":43.23151,"lon":5.43707,"is_reserved":false,"is_disabled":false,"rental_uris":{"android":"levelo://app?vid=77fd553e-4cc7-4ee1-b6bc-281f17ec491f","ios":"levelo://app?vid=77fd553e-4cc7-4ee1-b6bc-281f17ec491f"},"vehicle_type_id":"4","last_reported":1743596379,"current_range_meters":10800,"station_id":"ce4bhmp2rcd13ifvqgog","pricing_plan_id":"cebpf4jnsgd1na2vs0mg"},{"bike_id":"dd3db03f-0f43-4986-9ec8-2a76818fb28c","system_id":"levelo_inurba_marseille","lat":43.23209,"lon":5.35544,"is_reserved":false,"is_disabled":false,"rental_uris":{"android":"levelo://app?vid=dd3db03f-0f43-4986-9ec8-2a76818fb28c","ios":"levelo://app?vid=dd3db03f-0f43-4986-9ec8-2a76818fb28c"},"vehicle_type_id":"4","last_reported":1743596379,"current_range_meters":10800,"station_id":"ce4bhu92rcd13ifvqi70","pricing_plan_id":"cebpf4jnsgd1na2vs0mg"},{"bike_id":"c3d811f8-c2e8-4c0b-a3f2-42f68cf8f94c","system_id":"levelo_inurba_marseille","lat":43.23147,"lon":5.4372,"is_reserved":false,"is_disabled":false,"rental_uris":{"android":"levelo://app?vid=c3d811f8-c2e8-4c0b-a3f2-42f68cf8f94c","ios":"levelo://app?vid=c3d811f8-c2e8-4c0b-a3f2-42f68cf8f94c"},"vehicle_type_id":"4","last_reported":1743596379,"current_range_meters":10800,"station_id":"ce4bhmp2rcd13ifvqgog","pricing_plan_id":"cebpf4jnsgd1na2vs0mg"},{"bike_id":"a6d25717-0db4-4a18-b77c-e49dc99dee91","system_id":"levelo_inurba_marseille","lat":43.2573,"lon":5.41093,"is_reserved":false,"is_disabled":false,"rental_uris":{"android":"levelo://app?vid=a6d25717-0db4-4a18-b77c-e49dc99dee91","ios":"levelo://app?vid=a6d25717-0db4-4a18-b77c-e49dc99dee91"},"vehicle_type_id":"4","last_reported":1743596379,"current_range_meters":10800,"station_id":"ce4bhkp2rcd13ifvqgd0","pricing_plan_id":"cebpf4jnsgd1na2vs0mg"},{"bike_id":"d8a1595a-9afa-4c5b-a8ee-e7e465b947db","system_id":"levelo_inurba_marseille","lat":43.31312,"lon":5.37336,"is_reserved":false,"is_disabled":false,"rental_uris":{"android":"levelo://app?vid=d8a1595a-9afa-4c5b-a8ee-e7e465b947db","ios":"levelo://app?vid=d8a1595a-9afa-4c5b-a8ee-e7e465b947db"},"vehicle_type_id":"4","last_reported":1743596379,"current_range_meters":10800,"station_id":"","pricing_plan_id":"cebpf4jnsgd1na2vs0mg"},{"bike_id":"63366cf1-77a4-45e4-9416-4c71a5ea282e","system_id":"levelo_inurba_marseille","lat":43.2318,"lon":5.40008,"is_reserved":false,"is_disabled":false,"rental_uris":{"android":"levelo://app?vid=63366cf1-77a4-45e4-9416-4c71a5ea282e","ios":"levelo://app?vid=63366cf1-77a4-45e4-9416-4c71a5ea282e"},"vehicle_type_id":"4","last_reported":1743596379,"current_range_meters":10800,"station_id":"","pricing_plan_id":"cebpf4jnsgd1na2vs0mg"},{"bike_id":"49428efe-bbd8-4963-9aaf-ed822fd5c61b","system_id":"levelo_inurba_marseille","lat":43.29218,"lon":5.44369,"is_reserved":false,"is_disabled":false,"rental_uris":{"android":"levelo://app?vid=49428efe-bbd8-4963-9aaf-ed822fd5c61b","ios":"levelo://app?vid=49428efe-bbd8-4963-9aaf-ed822fd5c61b"},"vehicle_type_id":"4","last_reported":1743596379,"current_range_meters":10800,"station_id":"","pricing_plan_id":"cebpf4jnsgd1na2vs0mg"},{"bike_id":"a2fe2217-cbee-4b94-a5ca-4693c6d37d46","system_id":"levelo_inurba_marseille","lat":43.30291,"lon":5.3769,"is_reserved":false,"is_disabled":false,"rental_uris":{"android":"levelo://app?vid=a2fe2217-cbee-4b94-a5ca-4693c6d37d46","ios":"levelo://app?vid=a2fe2217-cbee-4b94-a5ca-4693c6d37d46"},"vehicle_type_id":"4","last_reported":1743596379,"current_range_meters":10800,"station_id":"ce4bguh2rcd13ifvqcj0","pricing_plan_id":"cebpf4jnsgd1na2vs0mg"},{"bike_id":"98d5872b-5c0b-460c-a72d-5036aa283740","system_id":"levelo_inurba_marseille","lat":43.33729,"lon":5.39194,"is_reserved":false,"is_disabled":false,"rental_uris":{"android":"levelo://app?vid=98d5872b-5c0b-460c-a72d-5036aa283740","ios":"levelo://app?vid=98d5872b-5c0b-460c-a72d-5036aa283740"},"vehicle_type_id":"4","last_reported":1743596379,"current_range_meters":11200,"station_id":"ce4bhr92rcd13ifvqhsg","pricing_plan_id":"cebpf4jnsgd1na2vs0mg"},{"bike_id":"77810ae6-912c-4244-a36d-790b12062fb5","system_id":"levelo_inurba_marseille","lat":43.29627,"lon":5.37729,"is_reserved":false,"is_disabled":false,"rental_uris":{"android":"levelo://app?vid=77810ae6-912c-4244-a36d-790b12062fb5","ios":"levelo://app?vid=77810ae6-912c-4244-a36d-790b12062fb5"},"vehicle_type_id":"4","last_reported":1743596379,"current_range_meters":11200,"station_id":"ce4bgi92rcd13ifvqb90","pricing_plan_id":"cebpf4jnsgd1na2vs0mg"},{"bike_id":"d157a8ac-f1ea-480a-a1ee-9ac00962bb01","system_id":"levelo_inurba_marseille","lat":43.29545,"lon":5.42283,"is_reserved":false,"is_disabled":false,"rental_uris":{"android":"levelo://app?vid=d157a8ac-f1ea-480a-a1ee-9ac00962bb01","ios":"levelo://app?vid=d157a8ac-f1ea-480a-a1ee-9ac00962bb01"},"vehicle_type_id":"4","last_reported":1743596379,"current_range_meters":11200,"station_id":"ce4bhph2rcd13ifvqhdg","pricing_plan_id":"cebpf4jnsgd1na2vs0mg"},{"bike_id":"a42e13ed-44d2-4c34-b324-9b63cc2cba60","system_id":"levelo_inurba_marseille","lat":43.2317,"lon":5.43679,"is_reserved":false,"is_disabled":false,"rental_uris":{"android":"levelo://app?vid=a42e13ed-44d2-4c34-b324-9b63cc2cba60","ios":"levelo://app?vid=a42e13ed-44d2-4c34-b324-9b63cc2cba60"},"vehicle_type_id":"4","last_reported":1743596379,"current_range_meters":11200,"station_id":"ce4bhmp2rcd13ifvqgog","pricing_plan_id":"cebpf4jnsgd1na2vs0mg"},{"bike_id":"e8db9947-5ac0-4177-8798-1af9cdb816ad","system_id":"levelo_inurba_marseille","lat":43.24168,"lon":5.39723,"is_reserved":false,"is_disabled":false,"rental_uris":{"android":"levelo://app?vid=e8db9947-5ac0-4177-8798-1af9cdb816ad","ios":"levelo://app?vid=e8db9947-5ac0-4177-8798-1af9cdb816ad"},"vehicle_type_id":"4","last_reported":1743596379,"current_range_meters":11200,"station_id":"ce4bhn12rcd13ifvqgpg","pricing_plan_id":"cebpf4jnsgd1na2vs0mg"},{"bike_id":"cc8122ef-2473-4678-812a-18b43f6e35e6","system_id":"levelo_inurba_marseille","lat":43.3118,"lon":5.3872,"is_reserved":false,"is_disabled":false,"rental_uris":{"android":"levelo://app?vid=cc8122ef-2473-4678-812a-18b43f6e35e6","ios":"levelo://app?vid=cc8122ef-2473-4678-812a-18b43f6e35e6"},"vehicle_type_id":"4","last_reported":1743596379,"current_range_meters":11200,"station_id":"ce4bgv12rcd13ifvqcp0","pricing_plan_id":"cebpf4jnsgd1na2vs0mg"},{"bike_id":"8bc6827b-b28a-40b1-8892-73e8698e4d41","system_id":"levelo_inurba_marseille","lat":43.24177,"lon":5.39705,"is_reserved":false,"is_disabled":false,"rental_uris":{"android":"levelo://app?vid=8bc6827b-b28a-40b1-8892-73e8698e4d41","ios":"levelo://app?vid=8bc6827b-b28a-40b1-8892-73e8698e4d41"},"vehicle_type_id":"4","last_reported":1743596379,"current_range_meters":11200,"station_id":"ce4bhn12rcd13ifvqgpg","pricing_plan_id":"cebpf4jnsgd1na2vs0mg"},{"bike_id":"c1e09bd1-135e-46c4-a253-43b9efe61c0f","system_id":"levelo_inurba_marseille","lat":43.30301,"lon":5.36907,"is_reserved":false,"is_disabled":false,"rental_uris":{"android":"levelo://app?vid=c1e09bd1-135e-46c4-a253-43b9efe61c0f","ios":"levelo://app?vid=c1e09bd1-135e-46c4-a253-43b9efe61c0f"},"vehicle_type_id":"4","last_reported":1743596379,"current_range_meters":11200,"station_id":"ce4bgqh2rcd13ifvqc5g","pricing_plan_id":"cebpf4jnsgd1na2vs0mg"},{"bike_id":"8d912e3c-2e17-4943-b6d9-3ba26335220d","system_id":"levelo_inurba_marseille","lat":43.25825,"lon":5.39431,"is_reserved":false,"is_disabled":false,"rental_uris":{"android":"levelo://app?vid=8d912e3c-2e17-4943-b6d9-3ba26335220d","ios":"levelo://app?vid=8d912e3c-2e17-4943-b6d9-3ba26335220d"},"vehicle_type_id":"4","last_reported":1743596379,"current_range_meters":11200,"station_id":"ce4bhip2rcd13ifvqft0","pricing_plan_id":"cebpf4jnsgd1na2vs0mg"},{"bike_id":"75dae32f-059a-4b5b-a5e8-963c6eda2f66","system_id":"levelo_inurba_marseille","lat":43.27547,"lon":5.40977,"is_reserved":false,"is_disabled":false,"rental_uris":{"android":"levelo://app?vid=75dae32f-059a-4b5b-a5e8-963c6eda2f66","ios":"levelo://app?vid=75dae32f-059a-4b5b-a5e8-963c6eda2f66"},"vehicle_type_id":"4","last_reported":1743596379,"current_range_meters":11200,"station_id":"","pricing_plan_id":"cebpf4jnsgd1na2vs0mg"},{"bike_id":"4c5af6eb-9f3a-429a-a9a5-908f23088311","system_id":"levelo_inurba_marseille","lat":43.2319,"lon":5.4,"is_reserved":false,"is_disabled":false,"rental_uris":{"android":"levelo://app?vid=4c5af6eb-9f3a-429a-a9a5-908f23088311","ios":"levelo://app?vid=4c5af6eb-9f3a-429a-a9a5-908f23088311"},"vehicle_type_id":"4","last_reported":1743596379,"current_range_meters":11600,"station_id":"","pricing_plan_id":"cebpf4jnsgd1na2vs0mg"},{"bike_id":"71744192-c8ee-4ca5-a7d2-2b29d6ebc94c","system_id":"levelo_inurba_marseille","lat":43.31263,"lon":5.36836,"is_reserved":false,"is_disabled":false,"rental_uris":{"android":"levelo://app?vid=71744192-c8ee-4ca5-a7d2-2b29d6ebc94c","ios":"levelo://app?vid=71744192-c8ee-4ca5-a7d2-2b29d6ebc94c"},"vehicle_type_id":"4","last_reported":1743596379,"current_range_meters":11600,"station_id":"ce4bgl92rcd13ifvqbq0","pricing_plan_id":"cebpf4jnsgd1na2vs0mg"},{"bike_id":"2d48cd09-9ee2-4630-8cab-be4140a04965","system_id":"levelo_inurba_marseille","lat":43.23198,"lon":5.35569,"is_reserved":false,"is_disabled":false,"rental_uris":{"android":"levelo://app?vid=2d48cd09-9ee2-4630-8cab-be4140a04965","ios":"levelo://app?vid=2d48cd09-9ee2-4630-8cab-be4140a04965"},"vehicle_type_id":"4","last_reported":1743596379,"current_range_meters":11600,"station_id":"ce4bhu92rcd13ifvqi70","pricing_plan_id":"cebpf4jnsgd1na2vs0mg"},{"bike_id":"8ec70021-00f5-422a-928c-5a833c315b05","system_id":"levelo_inurba_marseille","lat":43.23155,"lon":5.43716,"is_reserved":false,"is_disabled":false,"rental_uris":{"android":"levelo://app?vid=8ec70021-00f5-422a-928c-5a833c315b05","ios":"levelo://app?vid=8ec70021-00f5-422a-928c-5a833c315b05"},"vehicle_type_id":"4","last_reported":1743596379,"current_range_meters":11600,"station_id":"ce4bhmp2rcd13ifvqgog","pricing_plan_id":"cebpf4jnsgd1na2vs0mg"},{"bike_id":"0cac5ddd-0fae-4471-b7ff-ab1d35978c69","system_id":"levelo_inurba_marseille","lat":43.301427,"lon":5.38107,"is_reserved":false,"is_disabled":false,"rental_uris":{"android":"levelo://app?vid=0cac5ddd-0fae-4471-b7ff-ab1d35978c69","ios":"levelo://app?vid=0cac5ddd-0fae-4471-b7ff-ab1d35978c69"},"vehicle_type_id":"4","last_reported":1743596379,"current_range_meters":11600,"station_id":"ce4bh412rcd13ifvqdr0","pricing_plan_id":"cebpf4jnsgd1na2vs0mg"},{"bike_id":"ecc56d8f-e786-41dd-97e1-df72dd3e9662","system_id":"levelo_inurba_marseille","lat":43.27319,"lon":5.39077,"is_reserved":false,"is_disabled":false,"rental_uris":{"android":"levelo://app?vid=ecc56d8f-e786-41dd-97e1-df72dd3e9662","ios":"levelo://app?vid=ecc56d8f-e786-41dd-97e1-df72dd3e9662"},"vehicle_type_id":"4","last_reported":1743596379,"current_range_meters":11600,"station_id":"ce4bhgp2rcd13ifvqfe0","pricing_plan_id":"cebpf4jnsgd1na2vs0mg"},{"bike_id":"f3d562b8-a376-44d3-9db4-02ada7b73f76","system_id":"levelo_inurba_marseille","lat":43.30464,"lon":5.379,"is_reserved":false,"is_disabled":false,"rental_uris":{"android":"levelo://app?vid=f3d562b8-a376-44d3-9db4-02ada7b73f76","ios":"levelo://app?vid=f3d562b8-a376-44d3-9db4-02ada7b73f76"},"vehicle_type_id":"4","last_reported":1743596379,"current_range_meters":11600,"station_id":"ce4bgup2rcd13ifvqcn0","pricing_plan_id":"cebpf4jnsgd1na2vs0mg"},{"bike_id":"b6144d09-6dd1-4ca4-97f5-4ec37918d3dd","system_id":"levelo_inurba_marseille","lat":43.26697,"lon":5.38255,"is_reserved":false,"is_disabled":false,"rental_uris":{"android":"levelo://app?vid=b6144d09-6dd1-4ca4-97f5-4ec37918d3dd","ios":"levelo://app?vid=b6144d09-6dd1-4ca4-97f5-4ec37918d3dd"},"vehicle_type_id":"4","last_reported":1743596379,"current_range_meters":11600,"station_id":"ce4bhg92rcd13ifvqf90","pricing_plan_id":"cebpf4jnsgd1na2vs0mg"},{"bike_id":"51db78ca-4e6c-4d6b-8a72-72189c57d1da","system_id":"levelo_inurba_marseille","lat":43.24162,"lon":5.3972,"is_reserved":false,"is_disabled":false,"rental_uris":{"android":"levelo://app?vid=51db78ca-4e6c-4d6b-8a72-72189c57d1da","ios":"levelo://app?vid=51db78ca-4e6c-4d6b-8a72-72189c57d1da"},"vehicle_type_id":"4","last_reported":1743596379,"current_range_meters":12000,"station_id":"ce4bhn12rcd13ifvqgpg","pricing_plan_id":"cebpf4jnsgd1na2vs0mg"},{"bike_id":"f2633860-c0a8-4a91-be4b-c1cbfa13574a","system_id":"levelo_inurba_marseille","lat":43.286155,"lon":5.370657,"is_reserved":false,"is_disabled":false,"rental_uris":{"android":"levelo://app?vid=f2633860-c0a8-4a91-be4b-c1cbfa13574a","ios":"levelo://app?vid=f2633860-c0a8-4a91-be4b-c1cbfa13574a"},"vehicle_type_id":"4","last_reported":1743596379,"current_range_meters":12000,"station_id":"ce4bht12rcd13ifvqi60","pricing_plan_id":"cebpf4jnsgd1na2vs0mg"},{"bike_id":"f7869d81-28d5-409f-8512-6285337aff75","system_id":"levelo_inurba_marseille","lat":43.31691,"lon":5.40479,"is_reserved":false,"is_disabled":false,"rental_uris":{"android":"levelo://app?vid=f7869d81-28d5-409f-8512-6285337aff75","ios":"levelo://app?vid=f7869d81-28d5-409f-8512-6285337aff75"},"vehicle_type_id":"4","last_reported":1743596379,"current_range_meters":12000,"station_id":"ce4bh012rcd13ifvqd00","pricing_plan_id":"cebpf4jnsgd1na2vs0mg"},{"bike_id":"c45fa877-934c-49fb-bbfe-a09a9f9856b5","system_id":"levelo_inurba_marseille","lat":43.29308,"lon":5.37183,"is_reserved":false,"is_disabled":false,"rental_uris":{"android":"levelo://app?vid=c45fa877-934c-49fb-bbfe-a09a9f9856b5","ios":"levelo://app?vid=c45fa877-934c-49fb-bbfe-a09a9f9856b5"},"vehicle_type_id":"4","last_reported":1743596379,"current_range_meters":12800,"station_id":"ce4bgh92rcd13ifvqb40","pricing_plan_id":"cebpf4jnsgd1na2vs0mg"},{"bike_id":"9093f0a4-a8b4-4f2b-a0c6-03d8c2366f42","system_id":"levelo_inurba_marseille","lat":43.284108,"lon":5.430156,"is_reserved":false,"is_disabled":false,"rental_uris":{"android":"levelo://app?vid=9093f0a4-a8b4-4f2b-a0c6-03d8c2366f42","ios":"levelo://app?vid=9093f0a4-a8b4-4f2b-a0c6-03d8c2366f42"},"vehicle_type_id":"4","last_reported":1743596379,"current_range_meters":12000,"station_id":"ce4bhnh2rcd13ifvqgug","pricing_plan_id":"cebpf4jnsgd1na2vs0mg"},{"bike_id":"0fd1d522-45d4-487f-9d01-b2cfc5d671ec","system_id":"levelo_inurba_marseille","lat":43.30507,"lon":5.39105,"is_reserved":false,"is_disabled":false,"rental_uris":{"android":"levelo://app?vid=0fd1d522-45d4-487f-9d01-b2cfc5d671ec","ios":"levelo://app?vid=0fd1d522-45d4-487f-9d01-b2cfc5d671ec"},"vehicle_type_id":"4","last_reported":1743596379,"current_range_meters":12000,"station_id":"","pricing_plan_id":"cebpf4jnsgd1na2vs0mg"},{"bike_id":"6e8019c4-8b00-4f90-a092-9709644b7601","system_id":"levelo_inurba_marseille","lat":43.26215,"lon":5.37447,"is_reserved":false,"is_disabled":false,"rental_uris":{"android":"levelo://app?vid=6e8019c4-8b00-4f90-a092-9709644b7601","ios":"levelo://app?vid=6e8019c4-8b00-4f90-a092-9709644b7601"},"vehicle_type_id":"4","last_reported":1743596379,"current_range_meters":12000,"station_id":"ce4bhgp2rcd13ifvqfc0","pricing_plan_id":"cebpf4jnsgd1na2vs0mg"},{"bike_id":"c2e6881a-04a3-4a38-9cc0-75cacf165e78","system_id":"levelo_inurba_marseille","lat":43.28832,"lon":5.364645,"is_reserved":false,"is_disabled":false,"rental_uris":{"android":"levelo://app?vid=c2e6881a-04a3-4a38-9cc0-75cacf165e78","ios":"levelo://app?vid=c2e6881a-04a3-4a38-9cc0-75cacf165e78"},"vehicle_type_id":"4","last_reported":1743596379,"current_range_meters":12400,"station_id":"","pricing_plan_id":"cebpf4jnsgd1na2vs0mg"},{"bike_id":"7ba67d0a-4dd2-434e-9233-c217be617343","system_id":"levelo_inurba_marseille","lat":43.33809,"lon":5.37427,"is_reserved":false,"is_disabled":false,"rental_uris":{"android":"levelo://app?vid=7ba67d0a-4dd2-434e-9233-c217be617343","ios":"levelo://app?vid=7ba67d0a-4dd2-434e-9233-c217be617343"},"vehicle_type_id":"4","last_reported":1743596379,"current_range_meters":12400,"station_id":"","pricing_plan_id":"cebpf4jnsgd1na2vs0mg"},{"bike_id":"13596237-04e1-4911-ab6a-3bb608633d19","system_id":"levelo_inurba_marseille","lat":43.30553,"lon":5.3653,"is_reserved":false,"is_disabled":false,"rental_uris":{"android":"levelo://app?vid=13596237-04e1-4911-ab6a-3bb608633d19","ios":"levelo://app?vid=13596237-04e1-4911-ab6a-3bb608633d19"},"vehicle_type_id":"4","last_reported":1743596379,"current_range_meters":12400,"station_id":"ce4bgs12rcd13ifvqcag","pricing_plan_id":"cebpf4jnsgd1na2vs0mg"},{"bike_id":"a9c7fdca-b712-459a-9cdb-1a2cf23a1bc4","system_id":"levelo_inurba_marseille","lat":43.30959,"lon":5.39052,"is_reserved":false,"is_disabled":false,"rental_uris":{"android":"levelo://app?vid=a9c7fdca-b712-459a-9cdb-1a2cf23a1bc4","ios":"levelo://app?vid=a9c7fdca-b712-459a-9cdb-1a2cf23a1bc4"},"vehicle_type_id":"4","last_reported":1743596379,"current_range_meters":12400,"station_id":"ce4bgup2rcd13ifvqco0","pricing_plan_id":"cebpf4jnsgd1na2vs0mg"},{"bike_id":"8914be66-bf00-406b-b611-829db1b0c6d8","system_id":"levelo_inurba_marseille","lat":43.28935,"lon":5.39622,"is_reserved":false,"is_disabled":false,"rental_uris":{"android":"levelo://app?vid=8914be66-bf00-406b-b611-829db1b0c6d8","ios":"levelo://app?vid=8914be66-bf00-406b-b611-829db1b0c6d8"},"vehicle_type_id":"4","last_reported":1743596379,"current_range_meters":14400,"station_id":"ce4bh3h2rcd13ifvqdn0","pricing_plan_id":"cebpf4jnsgd1na2vs0mg"},{"bike_id":"b6c83da9-b3c4-4843-9a1d-36871e12515b","system_id":"levelo_inurba_marseille","lat":43.261126,"lon":5.41462,"is_reserved":false,"is_disabled":false,"rental_uris":{"android":"levelo://app?vid=b6c83da9-b3c4-4843-9a1d-36871e12515b","ios":"levelo://app?vid=b6c83da9-b3c4-4843-9a1d-36871e12515b"},"vehicle_type_id":"4","last_reported":1743596379,"current_range_meters":12400,"station_id":"","pricing_plan_id":"cebpf4jnsgd1na2vs0mg"},{"bike_id":"83bfde50-82cf-4c42-8d9d-325a87deb55c","system_id":"levelo_inurba_marseille","lat":43.31209,"lon":5.36902,"is_reserved":false,"is_disabled":false,"rental_uris":{"android":"levelo://app?vid=83bfde50-82cf-4c42-8d9d-325a87deb55c","ios":"levelo://app?vid=83bfde50-82cf-4c42-8d9d-325a87deb55c"},"vehicle_type_id":"4","last_reported":1743596379,"current_range_meters":12800,"station_id":"ce4bgl92rcd13ifvqbq0","pricing_plan_id":"cebpf4jnsgd1na2vs0mg"},{"bike_id":"53a0a473-35e9-404a-99b9-c3c758bd35cc","system_id":"levelo_inurba_marseille","lat":43.295861,"lon":5.367369,"is_reserved":false,"is_disabled":false,"rental_uris":{"android":"levelo://app?vid=53a0a473-35e9-404a-99b9-c3c758bd35cc","ios":"levelo://app?vid=53a0a473-35e9-404a-99b9-c3c758bd35cc"},"vehicle_type_id":"4","last_reported":1743596379,"current_range_meters":12800,"station_id":"ce4bgph2rcd13ifvqc2g","pricing_plan_id":"cebpf4jnsgd1na2vs0mg"},{"bike_id":"84554551-6a42-488e-8a3a-e31132de9d2c","system_id":"levelo_inurba_marseille","lat":43.231557,"lon":5.437137,"is_reserved":false,"is_disabled":false,"rental_uris":{"android":"levelo://app?vid=84554551-6a42-488e-8a3a-e31132de9d2c","ios":"levelo://app?vid=84554551-6a42-488e-8a3a-e31132de9d2c"},"vehicle_type_id":"4","last_reported":1743596379,"current_range_meters":12800,"station_id":"ce4bhmp2rcd13ifvqgog","pricing_plan_id":"cebpf4jnsgd1na2vs0mg"},{"bike_id":"bd114158-5388-4f2b-a90b-d93bc2e17122","system_id":"levelo_inurba_marseille","lat":43.23187,"lon":5.40014,"is_reserved":false,"is_disabled":false,"rental_uris":{"android":"levelo://app?vid=bd114158-5388-4f2b-a90b-d93bc2e17122","ios":"levelo://app?vid=bd114158-5388-4f2b-a90b-d93bc2e17122"},"vehicle_type_id":"4","last_reported":1743596379,"current_range_meters":12800,"station_id":"","pricing_plan_id":"cebpf4jnsgd1na2vs0mg"},{"bike_id":"adb099cf-52ed-409b-a796-c724fb1ce34d","system_id":"levelo_inurba_marseille","lat":43.23148,"lon":5.43705,"is_reserved":false,"is_disabled":false,"rental_uris":{"android":"levelo://app?vid=adb099cf-52ed-409b-a796-c724fb1ce34d","ios":"levelo://app?vid=adb099cf-52ed-409b-a796-c724fb1ce34d"},"vehicle_type_id":"4","last_reported":1743596379,"current_range_meters":12800,"station_id":"ce4bhmp2rcd13ifvqgog","pricing_plan_id":"cebpf4jnsgd1na2vs0mg"},{"bike_id":"03ce2363-532b-44ea-98b0-547332e3c6ab","system_id":"levelo_inurba_marseille","lat":43.25588,"lon":5.38225,"is_reserved":false,"is_disabled":false,"rental_uris":{"android":"levelo://app?vid=03ce2363-532b-44ea-98b0-547332e3c6ab","ios":"levelo://app?vid=03ce2363-532b-44ea-98b0-547332e3c6ab"},"vehicle_type_id":"4","last_reported":1743596379,"current_range_meters":12800,"station_id":"ce4bhih2rcd13ifvqfs0","pricing_plan_id":"cebpf4jnsgd1na2vs0mg"},{"bike_id":"7d49898d-4c6e-4131-9fdb-37de62f2c79c","system_id":"levelo_inurba_marseille","lat":43.28909,"lon":5.37123,"is_reserved":false,"is_disabled":false,"rental_uris":{"android":"levelo://app?vid=7d49898d-4c6e-4131-9fdb-37de62f2c79c","ios":"levelo://app?vid=7d49898d-4c6e-4131-9fdb-37de62f2c79c"},"vehicle_type_id":"4","last_reported":1743596379,"current_range_meters":12800,"station_id":"","pricing_plan_id":"cebpf4jnsgd1na2vs0mg"},{"bike_id":"56b1388d-df21-42c5-a05f-a94891698454","system_id":"levelo_inurba_marseille","lat":43.24074,"lon":5.37764,"is_reserved":false,"is_disabled":false,"rental_uris":{"android":"levelo://app?vid=56b1388d-df21-42c5-a05f-a94891698454","ios":"levelo://app?vid=56b1388d-df21-42c5-a05f-a94891698454"},"vehicle_type_id":"4","last_reported":1743596379,"current_range_meters":12400,"station_id":"ce4bhnp2rcd13ifvqgvg","pricing_plan_id":"cebpf4jnsgd1na2vs0mg"},{"bike_id":"46572bb1-7848-4cef-adb2-eaf522c7f416","system_id":"levelo_inurba_marseille","lat":43.25955,"lon":5.40887,"is_reserved":false,"is_disabled":false,"rental_uris":{"android":"levelo://app?vid=46572bb1-7848-4cef-adb2-eaf522c7f416","ios":"levelo://app?vid=46572bb1-7848-4cef-adb2-eaf522c7f416"},"vehicle_type_id":"4","last_reported":1743596379,"current_range_meters":12800,"station_id":"ce4bhm92rcd13ifvqglg","pricing_plan_id":"cebpf4jnsgd1na2vs0mg"},{"bike_id":"1d901708-f2b0-4298-b219-881ba909d64b","system_id":"levelo_inurba_marseille","lat":43.30624,"lon":5.37226,"is_reserved":false,"is_disabled":false,"rental_uris":{"android":"levelo://app?vid=1d901708-f2b0-4298-b219-881ba909d64b","ios":"levelo://app?vid=1d901708-f2b0-4298-b219-881ba909d64b"},"vehicle_type_id":"4","last_reported":1743596379,"current_range_meters":12800,"station_id":"ce4bgqh2rcd13ifvqc4g","pricing_plan_id":"cebpf4jnsgd1na2vs0mg"},{"bike_id":"70e5b39f-29e3-4ea9-aa83-5a60a8eec6f8","system_id":"levelo_inurba_marseille","lat":43.25051,"lon":5.41695,"is_reserved":false,"is_disabled":false,"rental_uris":{"android":"levelo://app?vid=70e5b39f-29e3-4ea9-aa83-5a60a8eec6f8","ios":"levelo://app?vid=70e5b39f-29e3-4ea9-aa83-5a60a8eec6f8"},"vehicle_type_id":"4","last_reported":1743596379,"current_range_meters":12800,"station_id":"","pricing_plan_id":"cebpf4jnsgd1na2vs0mg"},{"bike_id":"1f8f36ac-0472-4627-9d4c-f4ea00951f66","system_id":"levelo_inurba_marseille","lat":43.23192,"lon":5.40013,"is_reserved":false,"is_disabled":false,"rental_uris":{"android":"levelo://app?vid=1f8f36ac-0472-4627-9d4c-f4ea00951f66","ios":"levelo://app?vid=1f8f36ac-0472-4627-9d4c-f4ea00951f66"},"vehicle_type_id":"4","last_reported":1743596379,"current_range_meters":12800,"station_id":"","pricing_plan_id":"cebpf4jnsgd1na2vs0mg"},{"bike_id":"e1b03b21-5eb0-483c-b4ac-ea8a29304382","system_id":"levelo_inurba_marseille","lat":43.230622,"lon":5.354948,"is_reserved":false,"is_disabled":false,"rental_uris":{"android":"levelo://app?vid=e1b03b21-5eb0-483c-b4ac-ea8a29304382","ios":"levelo://app?vid=e1b03b21-5eb0-483c-b4ac-ea8a29304382"},"vehicle_type_id":"4","last_reported":1743596379,"current_range_meters":13600,"station_id":"cpo3342slgdg3j2ifvpg","pricing_plan_id":"cebpf4jnsgd1na2vs0mg"},{"bike_id":"0cadffe9-cfd5-4589-82c9-c8914f1c2cba","system_id":"levelo_inurba_marseille","lat":43.28665,"lon":5.3635,"is_reserved":false,"is_disabled":false,"rental_uris":{"android":"levelo://app?vid=0cadffe9-cfd5-4589-82c9-c8914f1c2cba","ios":"levelo://app?vid=0cadffe9-cfd5-4589-82c9-c8914f1c2cba"},"vehicle_type_id":"4","last_reported":1743596379,"current_range_meters":13600,"station_id":"ce4bhah2rcd13ifvqej0","pricing_plan_id":"cebpf4jnsgd1na2vs0mg"},{"bike_id":"e246cce4-a5c4-4c03-9790-9415410759ce","system_id":"levelo_inurba_marseille","lat":43.292669,"lon":5.376193,"is_reserved":false,"is_disabled":false,"rental_uris":{"android":"levelo://app?vid=e246cce4-a5c4-4c03-9790-9415410759ce","ios":"levelo://app?vid=e246cce4-a5c4-4c03-9790-9415410759ce"},"vehicle_type_id":"4","last_reported":1743596379,"current_range_meters":13600,"station_id":"ce4bgi12rcd13ifvqb80","pricing_plan_id":"cebpf4jnsgd1na2vs0mg"},{"bike_id":"4a4d12d3-e1f3-436e-be06-d71ad405ee6c","system_id":"levelo_inurba_marseille","lat":43.22927,"lon":5.35375,"is_reserved":false,"is_disabled":false,"rental_uris":{"android":"levelo://app?vid=4a4d12d3-e1f3-436e-be06-d71ad405ee6c","ios":"levelo://app?vid=4a4d12d3-e1f3-436e-be06-d71ad405ee6c"},"vehicle_type_id":"4","last_reported":1743596379,"current_range_meters":13600,"station_id":"cpo3532slgdg3j2ikp40","pricing_plan_id":"cebpf4jnsgd1na2vs0mg"},{"bike_id":"d4c76052-f524-492d-9d28-fd1fc0ba5322","system_id":"levelo_inurba_marseille","lat":43.25935,"lon":5.40912,"is_reserved":false,"is_disabled":false,"rental_uris":{"android":"levelo://app?vid=d4c76052-f524-492d-9d28-fd1fc0ba5322","ios":"levelo://app?vid=d4c76052-f524-492d-9d28-fd1fc0ba5322"},"vehicle_type_id":"4","last_reported":1743596379,"current_range_meters":13600,"station_id":"ce4bhm92rcd13ifvqglg","pricing_plan_id":"cebpf4jnsgd1na2vs0mg"},{"bike_id":"97362498-3b16-4b29-b111-2702a908202e","system_id":"levelo_inurba_marseille","lat":43.25567,"lon":5.3824,"is_reserved":false,"is_disabled":false,"rental_uris":{"android":"levelo://app?vid=97362498-3b16-4b29-b111-2702a908202e","ios":"levelo://app?vid=97362498-3b16-4b29-b111-2702a908202e"},"vehicle_type_id":"4","last_reported":1743596379,"current_range_meters":13600,"station_id":"ce4bhih2rcd13ifvqfs0","pricing_plan_id":"cebpf4jnsgd1na2vs0mg"},{"bike_id":"6908aebe-f05a-45f8-bbee-6804d2cea038","system_id":"levelo_inurba_marseille","lat":43.27209,"lon":5.3919,"is_reserved":false,"is_disabled":false,"rental_uris":{"android":"levelo://app?vid=6908aebe-f05a-45f8-bbee-6804d2cea038","ios":"levelo://app?vid=6908aebe-f05a-45f8-bbee-6804d2cea038"},"vehicle_type_id":"4","last_reported":1743596379,"current_range_meters":13600,"station_id":"ce4bhhp2rcd13ifvqfm0","pricing_plan_id":"cebpf4jnsgd1na2vs0mg"},{"bike_id":"775d0ce1-435a-48b4-8d35-88dec7789e8b","system_id":"levelo_inurba_marseille","lat":43.28618,"lon":5.35104,"is_reserved":false,"is_disabled":false,"rental_uris":{"android":"levelo://app?vid=775d0ce1-435a-48b4-8d35-88dec7789e8b","ios":"levelo://app?vid=775d0ce1-435a-48b4-8d35-88dec7789e8b"},"vehicle_type_id":"4","last_reported":1743596379,"current_range_meters":14000,"station_id":"ce4bhch2rcd13ifvqeug","pricing_plan_id":"cebpf4jnsgd1na2vs0mg"},{"bike_id":"6d707f1b-ffbb-4313-9ff5-19c6f63aad43","system_id":"levelo_inurba_marseille","lat":43.24661,"lon":5.38899,"is_reserved":false,"is_disabled":false,"rental_uris":{"android":"levelo://app?vid=6d707f1b-ffbb-4313-9ff5-19c6f63aad43","ios":"levelo://app?vid=6d707f1b-ffbb-4313-9ff5-19c6f63aad43"},"vehicle_type_id":"4","last_reported":1743596379,"current_range_meters":14000,"station_id":"ce4bhg12rcd13ifvqf60","pricing_plan_id":"cebpf4jnsgd1na2vs0mg"},{"bike_id":"1925d2eb-79cc-4495-ac55-0d86108c91ee","system_id":"levelo_inurba_marseille","lat":43.2319,"lon":5.40012,"is_reserved":false,"is_disabled":false,"rental_uris":{"android":"levelo://app?vid=1925d2eb-79cc-4495-ac55-0d86108c91ee","ios":"levelo://app?vid=1925d2eb-79cc-4495-ac55-0d86108c91ee"},"vehicle_type_id":"4","last_reported":1743596379,"current_range_meters":14000,"station_id":"","pricing_plan_id":"cebpf4jnsgd1na2vs0mg"},{"bike_id":"ddf4f7bc-b429-4ca6-98cc-3ac180d0ed5f","system_id":"levelo_inurba_marseille","lat":43.232,"lon":5.35557,"is_reserved":false,"is_disabled":false,"rental_uris":{"android":"levelo://app?vid=ddf4f7bc-b429-4ca6-98cc-3ac180d0ed5f","ios":"levelo://app?vid=ddf4f7bc-b429-4ca6-98cc-3ac180d0ed5f"},"vehicle_type_id":"4","last_reported":1743596379,"current_range_meters":14000,"station_id":"ce4bhu92rcd13ifvqi70","pricing_plan_id":"cebpf4jnsgd1na2vs0mg"},{"bike_id":"3026be77-df9c-4a4a-83d6-132b5a38a0dc","system_id":"levelo_inurba_marseille","lat":43.23196,"lon":5.39979,"is_reserved":false,"is_disabled":false,"rental_uris":{"android":"levelo://app?vid=3026be77-df9c-4a4a-83d6-132b5a38a0dc","ios":"levelo://app?vid=3026be77-df9c-4a4a-83d6-132b5a38a0dc"},"vehicle_type_id":"4","last_reported":1743596379,"current_range_meters":14000,"station_id":"ce4bhn12rcd13ifvqgqg","pricing_plan_id":"cebpf4jnsgd1na2vs0mg"},{"bike_id":"18b33a43-8113-4d0f-b40c-6a7201a04dd5","system_id":"levelo_inurba_marseille","lat":43.32359,"lon":5.36752,"is_reserved":false,"is_disabled":false,"rental_uris":{"android":"levelo://app?vid=18b33a43-8113-4d0f-b40c-6a7201a04dd5","ios":"levelo://app?vid=18b33a43-8113-4d0f-b40c-6a7201a04dd5"},"vehicle_type_id":"4","last_reported":1743596379,"current_range_meters":14000,"station_id":"ce4bhsh2rcd13ifvqi2g","pricing_plan_id":"cebpf4jnsgd1na2vs0mg"},{"bike_id":"4da195b6-f91d-4487-bc37-6d1550579fec","system_id":"levelo_inurba_marseille","lat":43.24078,"lon":5.37756,"is_reserved":false,"is_disabled":false,"rental_uris":{"android":"levelo://app?vid=4da195b6-f91d-4487-bc37-6d1550579fec","ios":"levelo://app?vid=4da195b6-f91d-4487-bc37-6d1550579fec"},"vehicle_type_id":"4","last_reported":1743596379,"current_range_meters":14400,"station_id":"ce4bhnp2rcd13ifvqgvg","pricing_plan_id":"cebpf4jnsgd1na2vs0mg"},{"bike_id":"cd83c8ac-ed09-4369-9279-b6f36f2bbd3c","system_id":"levelo_inurba_marseille","lat":43.30808,"lon":5.38241,"is_reserved":false,"is_disabled":false,"rental_uris":{"android":"levelo://app?vid=cd83c8ac-ed09-4369-9279-b6f36f2bbd3c","ios":"levelo://app?vid=cd83c8ac-ed09-4369-9279-b6f36f2bbd3c"},"vehicle_type_id":"4","last_reported":1743596379,"current_range_meters":14400,"station_id":"","pricing_plan_id":"cebpf4jnsgd1na2vs0mg"},{"bike_id":"bc69e15f-4cd0-4b0b-bf6b-1eb27952092c","system_id":"levelo_inurba_marseille","lat":43.25123,"lon":5.40319,"is_reserved":false,"is_disabled":false,"rental_uris":{"android":"levelo://app?vid=bc69e15f-4cd0-4b0b-bf6b-1eb27952092c","ios":"levelo://app?vid=bc69e15f-4cd0-4b0b-bf6b-1eb27952092c"},"vehicle_type_id":"4","last_reported":1743596379,"current_range_meters":14400,"station_id":"ce4bhlh2rcd13ifvqgig","pricing_plan_id":"cebpf4jnsgd1na2vs0mg"},{"bike_id":"c9da9027-84ab-4724-9cc4-908e1eb5f20a","system_id":"levelo_inurba_marseille","lat":43.2439,"lon":5.37055,"is_reserved":false,"is_disabled":false,"rental_uris":{"android":"levelo://app?vid=c9da9027-84ab-4724-9cc4-908e1eb5f20a","ios":"levelo://app?vid=c9da9027-84ab-4724-9cc4-908e1eb5f20a"},"vehicle_type_id":"4","last_reported":1743596379,"current_range_meters":14400,"station_id":"ce4bhhh2rcd13ifvqfk0","pricing_plan_id":"cebpf4jnsgd1na2vs0mg"},{"bike_id":"1a592dd4-05f6-451a-a281-45bcd19f68ca","system_id":"levelo_inurba_marseille","lat":43.23182,"lon":5.39982,"is_reserved":false,"is_disabled":false,"rental_uris":{"android":"levelo://app?vid=1a592dd4-05f6-451a-a281-45bcd19f68ca","ios":"levelo://app?vid=1a592dd4-05f6-451a-a281-45bcd19f68ca"},"vehicle_type_id":"4","last_reported":1743596379,"current_range_meters":14400,"station_id":"ce4bhn12rcd13ifvqgqg","pricing_plan_id":"cebpf4jnsgd1na2vs0mg"},{"bike_id":"013edb40-69ae-46d8-826d-9be01c1ca616","system_id":"levelo_inurba_marseille","lat":43.28371,"lon":5.38633,"is_reserved":false,"is_disabled":false,"rental_uris":{"android":"levelo://app?vid=013edb40-69ae-46d8-826d-9be01c1ca616","ios":"levelo://app?vid=013edb40-69ae-46d8-826d-9be01c1ca616"},"vehicle_type_id":"4","last_reported":1743596379,"current_range_meters":14400,"station_id":"ce4bh492rcd13ifvqdvg","pricing_plan_id":"cebpf4jnsgd1na2vs0mg"},{"bike_id":"eca000f3-7adb-462c-b7ed-61fb5b2098fc","system_id":"levelo_inurba_marseille","lat":43.22935,"lon":5.35376,"is_reserved":false,"is_disabled":false,"rental_uris":{"android":"levelo://app?vid=eca000f3-7adb-462c-b7ed-61fb5b2098fc","ios":"levelo://app?vid=eca000f3-7adb-462c-b7ed-61fb5b2098fc"},"vehicle_type_id":"4","last_reported":1743596379,"current_range_meters":14400,"station_id":"cpo3532slgdg3j2ikp40","pricing_plan_id":"cebpf4jnsgd1na2vs0mg"},{"bike_id":"9f62f29e-b083-4314-9e82-a49e79ecd17d","system_id":"levelo_inurba_marseille","lat":43.22944,"lon":5.35369,"is_reserved":false,"is_disabled":false,"rental_uris":{"android":"levelo://app?vid=9f62f29e-b083-4314-9e82-a49e79ecd17d","ios":"levelo://app?vid=9f62f29e-b083-4314-9e82-a49e79ecd17d"},"vehicle_type_id":"4","last_reported":1743596379,"current_range_meters":14400,"station_id":"cpo3532slgdg3j2ikp40","pricing_plan_id":"cebpf4jnsgd1na2vs0mg"},{"bike_id":"6e05811e-06e7-4304-8ce9-6c25e6bc01dd","system_id":"levelo_inurba_marseille","lat":43.32115,"lon":5.36773,"is_reserved":false,"is_disabled":false,"rental_uris":{"android":"levelo://app?vid=6e05811e-06e7-4304-8ce9-6c25e6bc01dd","ios":"levelo://app?vid=6e05811e-06e7-4304-8ce9-6c25e6bc01dd"},"vehicle_type_id":"4","last_reported":1743596379,"current_range_meters":14800,"station_id":"ce4bhrh2rcd13ifvqhug","pricing_plan_id":"cebpf4jnsgd1na2vs0mg"},{"bike_id":"374d9772-9e16-4409-9529-54d977d5cc65","system_id":"levelo_inurba_marseille","lat":43.27081,"lon":5.42282,"is_reserved":false,"is_disabled":false,"rental_uris":{"android":"levelo://app?vid=374d9772-9e16-4409-9529-54d977d5cc65","ios":"levelo://app?vid=374d9772-9e16-4409-9529-54d977d5cc65"},"vehicle_type_id":"4","last_reported":1743596379,"current_range_meters":14800,"station_id":"ce4bhk92rcd13ifvqgb0","pricing_plan_id":"cebpf4jnsgd1na2vs0mg"},{"bike_id":"2ac5d8d9-41a9-4671-994a-c82ab5800dc7","system_id":"levelo_inurba_marseille","lat":43.29265,"lon":5.37631,"is_reserved":false,"is_disabled":false,"rental_uris":{"android":"levelo://app?vid=2ac5d8d9-41a9-4671-994a-c82ab5800dc7","ios":"levelo://app?vid=2ac5d8d9-41a9-4671-994a-c82ab5800dc7"},"vehicle_type_id":"4","last_reported":1743596379,"current_range_meters":14800,"station_id":"ce4bgi12rcd13ifvqb80","pricing_plan_id":"cebpf4jnsgd1na2vs0mg"},{"bike_id":"dc82e7cc-fca9-407e-94b1-12a4b04232c9","system_id":"levelo_inurba_marseille","lat":43.2872,"lon":5.39991,"is_reserved":false,"is_disabled":true,"rental_uris":{"android":"levelo://app?vid=dc82e7cc-fca9-407e-94b1-12a4b04232c9","ios":"levelo://app?vid=dc82e7cc-fca9-407e-94b1-12a4b04232c9"},"vehicle_type_id":"4","last_reported":1743596379,"current_range_meters":14800,"station_id":"ce4bho92rcd13ifvqh3g","pricing_plan_id":"cebpf4jnsgd1na2vs0mg"},{"bike_id":"8fc17159-965b-4e64-917c-992cfcfc3f27","system_id":"levelo_inurba_marseille","lat":43.292529,"lon":5.408955,"is_reserved":false,"is_disabled":false,"rental_uris":{"android":"levelo://app?vid=8fc17159-965b-4e64-917c-992cfcfc3f27","ios":"levelo://app?vid=8fc17159-965b-4e64-917c-992cfcfc3f27"},"vehicle_type_id":"4","last_reported":1743596379,"current_range_meters":14800,"station_id":"ce4bgqh2rcd13ifvqc4g","pricing_plan_id":"cebpf4jnsgd1na2vs0mg"},{"bike_id":"7508031f-74f4-4d00-a73b-44ca4a4981a0","system_id":"levelo_inurba_marseille","lat":43.29939,"lon":5.36548,"is_reserved":false,"is_disabled":false,"rental_uris":{"android":"levelo://app?vid=7508031f-74f4-4d00-a73b-44ca4a4981a0","ios":"levelo://app?vid=7508031f-74f4-4d00-a73b-44ca4a4981a0"},"vehicle_type_id":"4","last_reported":1743596379,"current_range_meters":14800,"station_id":"ce4bgm92rcd13ifvqbr0","pricing_plan_id":"cebpf4jnsgd1na2vs0mg"},{"bike_id":"62a0631e-546d-40b2-a063-9ddec04e2276","system_id":"levelo_inurba_marseille","lat":43.32109,"lon":5.36793,"is_reserved":false,"is_disabled":false,"rental_uris":{"android":"levelo://app?vid=62a0631e-546d-40b2-a063-9ddec04e2276","ios":"levelo://app?vid=62a0631e-546d-40b2-a063-9ddec04e2276"},"vehicle_type_id":"4","last_reported":1743596379,"current_range_meters":15200,"station_id":"ce4bhrh2rcd13ifvqhug","pricing_plan_id":"cebpf4jnsgd1na2vs0mg"},{"bike_id":"c128a6f0-e70d-4235-8f2a-e7ba5ef44f16","system_id":"levelo_inurba_marseille","lat":43.25727,"lon":5.41108,"is_reserved":false,"is_disabled":false,"rental_uris":{"android":"levelo://app?vid=c128a6f0-e70d-4235-8f2a-e7ba5ef44f16","ios":"levelo://app?vid=c128a6f0-e70d-4235-8f2a-e7ba5ef44f16"},"vehicle_type_id":"4","last_reported":1743596379,"current_range_meters":15200,"station_id":"ce4bhkp2rcd13ifvqgd0","pricing_plan_id":"cebpf4jnsgd1na2vs0mg"},{"bike_id":"c0062b51-9ec6-4433-9342-4d5fb169bf0e","system_id":"levelo_inurba_marseille","lat":43.26953,"lon":5.38917,"is_reserved":false,"is_disabled":false,"rental_uris":{"android":"levelo://app?vid=c0062b51-9ec6-4433-9342-4d5fb169bf0e","ios":"levelo://app?vid=c0062b51-9ec6-4433-9342-4d5fb169bf0e"},"vehicle_type_id":"4","last_reported":1743596379,"current_range_meters":16000,"station_id":"ce4bhhh2rcd13ifvqfl0","pricing_plan_id":"cebpf4jnsgd1na2vs0mg"},{"bike_id":"bfc269fe-3274-4d91-a464-067949739cc5","system_id":"levelo_inurba_marseille","lat":43.29982,"lon":5.38484,"is_reserved":false,"is_disabled":false,"rental_uris":{"android":"levelo://app?vid=bfc269fe-3274-4d91-a464-067949739cc5","ios":"levelo://app?vid=bfc269fe-3274-4d91-a464-067949739cc5"},"vehicle_type_id":"4","last_reported":1743596379,"current_range_meters":16000,"station_id":"ce4bgj92rcd13ifvqbd0","pricing_plan_id":"cebpf4jnsgd1na2vs0mg"},{"bike_id":"1f192c50-bc22-41af-9032-c1e03cc5e381","system_id":"levelo_inurba_marseille","lat":43.30257,"lon":5.4007,"is_reserved":false,"is_disabled":false,"rental_uris":{"android":"levelo://app?vid=1f192c50-bc22-41af-9032-c1e03cc5e381","ios":"levelo://app?vid=1f192c50-bc22-41af-9032-c1e03cc5e381"},"vehicle_type_id":"4","last_reported":1743596379,"current_range_meters":12400,"station_id":"ce4bgvh2rcd13ifvqcs0","pricing_plan_id":"cebpf4jnsgd1na2vs0mg"},{"bike_id":"a1566f65-7974-4adb-bc5b-c64d03a44f23","system_id":"levelo_inurba_marseille","lat":43.250171,"lon":5.389259,"is_reserved":false,"is_disabled":false,"rental_uris":{"android":"levelo://app?vid=a1566f65-7974-4adb-bc5b-c64d03a44f23","ios":"levelo://app?vid=a1566f65-7974-4adb-bc5b-c64d03a44f23"},"vehicle_type_id":"4","last_reported":1743596379,"current_range_meters":16000,"station_id":"ce4bhgp2rcd13ifvqfd0","pricing_plan_id":"cebpf4jnsgd1na2vs0mg"},{"bike_id":"ff48e223-047f-4c7e-abf2-30c5f7371afb","system_id":"levelo_inurba_marseille","lat":43.28162,"lon":5.4265,"is_reserved":false,"is_disabled":false,"rental_uris":{"android":"levelo://app?vid=ff48e223-047f-4c7e-abf2-30c5f7371afb","ios":"levelo://app?vid=ff48e223-047f-4c7e-abf2-30c5f7371afb"},"vehicle_type_id":"4","last_reported":1743596379,"current_range_meters":16000,"station_id":"ce4bhnh2rcd13ifvqgug","pricing_plan_id":"cebpf4jnsgd1na2vs0mg"},{"bike_id":"f80ae1ad-12c7-4ff3-947f-bf5071733b90","system_id":"levelo_inurba_marseille","lat":43.24072,"lon":5.37763,"is_reserved":false,"is_disabled":false,"rental_uris":{"android":"levelo://app?vid=f80ae1ad-12c7-4ff3-947f-bf5071733b90","ios":"levelo://app?vid=f80ae1ad-12c7-4ff3-947f-bf5071733b90"},"vehicle_type_id":"4","last_reported":1743596379,"current_range_meters":16000,"station_id":"ce4bhnp2rcd13ifvqgvg","pricing_plan_id":"cebpf4jnsgd1na2vs0mg"},{"bike_id":"f73bc375-35a5-4781-b24d-31004efdb13c","system_id":"levelo_inurba_marseille","lat":43.29695,"lon":5.36613,"is_reserved":false,"is_disabled":false,"rental_uris":{"android":"levelo://app?vid=f73bc375-35a5-4781-b24d-31004efdb13c","ios":"levelo://app?vid=f73bc375-35a5-4781-b24d-31004efdb13c"},"vehicle_type_id":"4","last_reported":1743596379,"current_range_meters":16000,"station_id":"ce4bgn12rcd13ifvqbt0","pricing_plan_id":"cebpf4jnsgd1na2vs0mg"},{"bike_id":"22d47046-8bb1-41ae-9bb4-96eb088b2e63","system_id":"levelo_inurba_marseille","lat":43.32119,"lon":5.3676,"is_reserved":false,"is_disabled":false,"rental_uris":{"android":"levelo://app?vid=22d47046-8bb1-41ae-9bb4-96eb088b2e63","ios":"levelo://app?vid=22d47046-8bb1-41ae-9bb4-96eb088b2e63"},"vehicle_type_id":"4","last_reported":1743596379,"current_range_meters":16000,"station_id":"ce4bhrh2rcd13ifvqhug","pricing_plan_id":"cebpf4jnsgd1na2vs0mg"},{"bike_id":"af1eb195-7b62-49b6-8333-a22bc59eb988","system_id":"levelo_inurba_marseille","lat":43.30536,"lon":5.36538,"is_reserved":false,"is_disabled":false,"rental_uris":{"android":"levelo://app?vid=af1eb195-7b62-49b6-8333-a22bc59eb988","ios":"levelo://app?vid=af1eb195-7b62-49b6-8333-a22bc59eb988"},"vehicle_type_id":"4","last_reported":1743596379,"current_range_meters":16000,"station_id":"ce4bgs12rcd13ifvqcag","pricing_plan_id":"cebpf4jnsgd1na2vs0mg"},{"bike_id":"352e2f30-1c52-4033-a43a-dc92205d76f3","system_id":"levelo_inurba_marseille","lat":43.29979,"lon":5.41318,"is_reserved":false,"is_disabled":false,"rental_uris":{"android":"levelo://app?vid=352e2f30-1c52-4033-a43a-dc92205d76f3","ios":"levelo://app?vid=352e2f30-1c52-4033-a43a-dc92205d76f3"},"vehicle_type_id":"4","last_reported":1743596379,"current_range_meters":16000,"station_id":"ce4bhp12rcd13ifvqh9g","pricing_plan_id":"cebpf4jnsgd1na2vs0mg"},{"bike_id":"db4f2fea-dd78-4839-8016-eeab270922ec","system_id":"levelo_inurba_marseille","lat":43.23168,"lon":5.43703,"is_reserved":false,"is_disabled":true,"rental_uris":{"android":"levelo://app?vid=db4f2fea-dd78-4839-8016-eeab270922ec","ios":"levelo://app?vid=db4f2fea-dd78-4839-8016-eeab270922ec"},"vehicle_type_id":"4","last_reported":1743596379,"current_range_meters":16000,"station_id":"ce4bhmp2rcd13ifvqgog","pricing_plan_id":"cebpf4jnsgd1na2vs0mg"},{"bike_id":"b86b5b87-f029-48ac-aa00-3a50d7e2c1d2","system_id":"levelo_inurba_marseille","lat":43.32372,"lon":5.36749,"is_reserved":false,"is_disabled":true,"rental_uris":{"android":"levelo://app?vid=b86b5b87-f029-48ac-aa00-3a50d7e2c1d2","ios":"levelo://app?vid=b86b5b87-f029-48ac-aa00-3a50d7e2c1d2"},"vehicle_type_id":"4","last_reported":1743596379,"current_range_meters":16000,"station_id":"ce4bhsh2rcd13ifvqi2g","pricing_plan_id":"cebpf4jnsgd1na2vs0mg"},{"bike_id":"010ff397-c0d4-49b6-ae9d-c5c094fbc4c7","system_id":"levelo_inurba_marseille","lat":43.295227,"lon":5.385195,"is_reserved":false,"is_disabled":false,"rental_uris":{"android":"levelo://app?vid=010ff397-c0d4-49b6-ae9d-c5c094fbc4c7","ios":"levelo://app?vid=010ff397-c0d4-49b6-ae9d-c5c094fbc4c7"},"vehicle_type_id":"4","last_reported":1743596379,"current_range_meters":16000,"station_id":"","pricing_plan_id":"cebpf4jnsgd1na2vs0mg"},{"bike_id":"ece00bdf-4c9e-46d7-ae5d-71aaed99a2fc","system_id":"levelo_inurba_marseille","lat":43.32298,"lon":5.3828,"is_reserved":false,"is_disabled":false,"rental_uris":{"android":"levelo://app?vid=ece00bdf-4c9e-46d7-ae5d-71aaed99a2fc","ios":"levelo://app?vid=ece00bdf-4c9e-46d7-ae5d-71aaed99a2fc"},"vehicle_type_id":"4","last_reported":1743596379,"current_range_meters":16000,"station_id":"ce4bhr12rcd13ifvqhqg","pricing_plan_id":"cebpf4jnsgd1na2vs0mg"},{"bike_id":"d6c12e2f-939a-45f4-ad21-edd1ec485c05","system_id":"levelo_inurba_marseille","lat":43.29803,"lon":5.38092,"is_reserved":false,"is_disabled":false,"rental_uris":{"android":"levelo://app?vid=d6c12e2f-939a-45f4-ad21-edd1ec485c05","ios":"levelo://app?vid=d6c12e2f-939a-45f4-ad21-edd1ec485c05"},"vehicle_type_id":"4","last_reported":1743596379,"current_range_meters":16400,"station_id":"ce4bgip2rcd13ifvqbb0","pricing_plan_id":"cebpf4jnsgd1na2vs0mg"},{"bike_id":"6a3a34ed-b1b2-4378-a998-429a6d016b87","system_id":"levelo_inurba_marseille","lat":43.31234,"lon":5.36864,"is_reserved":false,"is_disabled":false,"rental_uris":{"android":"levelo://app?vid=6a3a34ed-b1b2-4378-a998-429a6d016b87","ios":"levelo://app?vid=6a3a34ed-b1b2-4378-a998-429a6d016b87"},"vehicle_type_id":"4","last_reported":1743596379,"current_range_meters":16000,"station_id":"ce4bgl92rcd13ifvqbq0","pricing_plan_id":"cebpf4jnsgd1na2vs0mg"},{"bike_id":"aa6eb6e5-54e5-4685-95e1-a7038d2da636","system_id":"levelo_inurba_marseille","lat":43.22937,"lon":5.35377,"is_reserved":false,"is_disabled":false,"rental_uris":{"android":"levelo://app?vid=aa6eb6e5-54e5-4685-95e1-a7038d2da636","ios":"levelo://app?vid=aa6eb6e5-54e5-4685-95e1-a7038d2da636"},"vehicle_type_id":"4","last_reported":1743596379,"current_range_meters":16000,"station_id":"cpo3532slgdg3j2ikp40","pricing_plan_id":"cebpf4jnsgd1na2vs0mg"},{"bike_id":"ee6938ef-1ac3-4914-bb15-0ea2ce21ec5d","system_id":"levelo_inurba_marseille","lat":43.302212,"lon":5.394567,"is_reserved":false,"is_disabled":false,"rental_uris":{"android":"levelo://app?vid=ee6938ef-1ac3-4914-bb15-0ea2ce21ec5d","ios":"levelo://app?vid=ee6938ef-1ac3-4914-bb15-0ea2ce21ec5d"},"vehicle_type_id":"4","last_reported":1743596379,"current_range_meters":16000,"station_id":"ce4bh9p2rcd13ifvqec0","pricing_plan_id":"cebpf4jnsgd1na2vs0mg"},{"bike_id":"94ce65fd-4b4a-4349-b21d-580fec8fa1c1","system_id":"levelo_inurba_marseille","lat":43.2592,"lon":5.40893,"is_reserved":false,"is_disabled":false,"rental_uris":{"android":"levelo://app?vid=94ce65fd-4b4a-4349-b21d-580fec8fa1c1","ios":"levelo://app?vid=94ce65fd-4b4a-4349-b21d-580fec8fa1c1"},"vehicle_type_id":"4","last_reported":1743596379,"current_range_meters":16400,"station_id":"ce4bhm92rcd13ifvqglg","pricing_plan_id":"cebpf4jnsgd1na2vs0mg"},{"bike_id":"2c5e1aec-a9e3-4e63-8ff7-dca44634c68b","system_id":"levelo_inurba_marseille","lat":43.27832,"lon":5.39206,"is_reserved":false,"is_disabled":false,"rental_uris":{"android":"levelo://app?vid=2c5e1aec-a9e3-4e63-8ff7-dca44634c68b","ios":"levelo://app?vid=2c5e1aec-a9e3-4e63-8ff7-dca44634c68b"},"vehicle_type_id":"4","last_reported":1743596379,"current_range_meters":17600,"station_id":"ce4bhjp2rcd13ifvqga0","pricing_plan_id":"cebpf4jnsgd1na2vs0mg"},{"bike_id":"449c480e-badf-4b95-8b7a-584409c09056","system_id":"levelo_inurba_marseille","lat":43.29803,"lon":5.38107,"is_reserved":false,"is_disabled":false,"rental_uris":{"android":"levelo://app?vid=449c480e-badf-4b95-8b7a-584409c09056","ios":"levelo://app?vid=449c480e-badf-4b95-8b7a-584409c09056"},"vehicle_type_id":"4","last_reported":1743596379,"current_range_meters":16400,"station_id":"ce4bgip2rcd13ifvqbb0","pricing_plan_id":"cebpf4jnsgd1na2vs0mg"},{"bike_id":"7ee17d77-6d4e-429f-83b9-92a219537fbb","system_id":"levelo_inurba_marseille","lat":43.24651,"lon":5.38888,"is_reserved":false,"is_disabled":false,"rental_uris":{"android":"levelo://app?vid=7ee17d77-6d4e-429f-83b9-92a219537fbb","ios":"levelo://app?vid=7ee17d77-6d4e-429f-83b9-92a219537fbb"},"vehicle_type_id":"4","last_reported":1743596379,"current_range_meters":16400,"station_id":"ce4bhg12rcd13ifvqf60","pricing_plan_id":"cebpf4jnsgd1na2vs0mg"},{"bike_id":"a4fae94b-5b43-4304-a3d0-ccdcba5e455f","system_id":"levelo_inurba_marseille","lat":43.30824,"lon":5.4354,"is_reserved":false,"is_disabled":false,"rental_uris":{"android":"levelo://app?vid=a4fae94b-5b43-4304-a3d0-ccdcba5e455f","ios":"levelo://app?vid=a4fae94b-5b43-4304-a3d0-ccdcba5e455f"},"vehicle_type_id":"4","last_reported":1743596379,"current_range_meters":16400,"station_id":"ce4bhph2rcd13ifvqheg","pricing_plan_id":"cebpf4jnsgd1na2vs0mg"},{"bike_id":"b2e1ab2e-4f74-40d1-86cb-e963de7dd53e","system_id":"levelo_inurba_marseille","lat":43.3036,"lon":5.41884,"is_reserved":false,"is_disabled":false,"rental_uris":{"android":"levelo://app?vid=b2e1ab2e-4f74-40d1-86cb-e963de7dd53e","ios":"levelo://app?vid=b2e1ab2e-4f74-40d1-86cb-e963de7dd53e"},"vehicle_type_id":"4","last_reported":1743596379,"current_range_meters":16400,"station_id":"ce4bhop2rcd13ifvqh7g","pricing_plan_id":"cebpf4jnsgd1na2vs0mg"},{"bike_id":"6fd15896-5697-470b-8f07-45b11106795c","system_id":"levelo_inurba_marseille","lat":43.320998,"lon":5.367736,"is_reserved":false,"is_disabled":false,"rental_uris":{"android":"levelo://app?vid=6fd15896-5697-470b-8f07-45b11106795c","ios":"levelo://app?vid=6fd15896-5697-470b-8f07-45b11106795c"},"vehicle_type_id":"4","last_reported":1743596379,"current_range_meters":16400,"station_id":"ce4bhrh2rcd13ifvqhug","pricing_plan_id":"cebpf4jnsgd1na2vs0mg"},{"bike_id":"97aa5e6f-e45b-4e21-a47e-52761ee9cdb1","system_id":"levelo_inurba_marseille","lat":43.32112,"lon":5.36771,"is_reserved":false,"is_disabled":false,"rental_uris":{"android":"levelo://app?vid=97aa5e6f-e45b-4e21-a47e-52761ee9cdb1","ios":"levelo://app?vid=97aa5e6f-e45b-4e21-a47e-52761ee9cdb1"},"vehicle_type_id":"4","last_reported":1743596379,"current_range_meters":16400,"station_id":"ce4bhrh2rcd13ifvqhug","pricing_plan_id":"cebpf4jnsgd1na2vs0mg"},{"bike_id":"78ca934a-98c9-4dbc-b5b6-c2ca906050d2","system_id":"levelo_inurba_marseille","lat":43.29764,"lon":5.38911,"is_reserved":false,"is_disabled":false,"rental_uris":{"android":"levelo://app?vid=78ca934a-98c9-4dbc-b5b6-c2ca906050d2","ios":"levelo://app?vid=78ca934a-98c9-4dbc-b5b6-c2ca906050d2"},"vehicle_type_id":"4","last_reported":1743596379,"current_range_meters":16400,"station_id":"","pricing_plan_id":"cebpf4jnsgd1na2vs0mg"},{"bike_id":"e6f02e74-383c-4bae-b8c4-037430863270","system_id":"levelo_inurba_marseille","lat":43.2306,"lon":5.35488,"is_reserved":false,"is_disabled":false,"rental_uris":{"android":"levelo://app?vid=e6f02e74-383c-4bae-b8c4-037430863270","ios":"levelo://app?vid=e6f02e74-383c-4bae-b8c4-037430863270"},"vehicle_type_id":"4","last_reported":1743596379,"current_range_meters":16400,"station_id":"cpo3342slgdg3j2ifvpg","pricing_plan_id":"cebpf4jnsgd1na2vs0mg"},{"bike_id":"614afade-77b2-442a-8bf5-091b29f6e90b","system_id":"levelo_inurba_marseille","lat":43.23154,"lon":5.43706,"is_reserved":false,"is_disabled":false,"rental_uris":{"android":"levelo://app?vid=614afade-77b2-442a-8bf5-091b29f6e90b","ios":"levelo://app?vid=614afade-77b2-442a-8bf5-091b29f6e90b"},"vehicle_type_id":"4","last_reported":1743596379,"current_range_meters":16400,"station_id":"ce4bhmp2rcd13ifvqgog","pricing_plan_id":"cebpf4jnsgd1na2vs0mg"},{"bike_id":"c1c63035-c83b-4419-8cbf-133778d95125","system_id":"levelo_inurba_marseille","lat":43.297917,"lon":5.393569,"is_reserved":false,"is_disabled":true,"rental_uris":{"android":"levelo://app?vid=c1c63035-c83b-4419-8cbf-133778d95125","ios":"levelo://app?vid=c1c63035-c83b-4419-8cbf-133778d95125"},"vehicle_type_id":"4","last_reported":1743596379,"current_range_meters":16400,"station_id":"chh1huq6cuj3fo74tm60","pricing_plan_id":"cebpf4jnsgd1na2vs0mg"},{"bike_id":"8ebadf90-5df7-447d-a431-b5acb703007c","system_id":"levelo_inurba_marseille","lat":43.3014,"lon":5.37409,"is_reserved":false,"is_disabled":false,"rental_uris":{"android":"levelo://app?vid=8ebadf90-5df7-447d-a431-b5acb703007c","ios":"levelo://app?vid=8ebadf90-5df7-447d-a431-b5acb703007c"},"vehicle_type_id":"4","last_reported":1743596379,"current_range_meters":16400,"station_id":"ce4bgs92rcd13ifvqcc0","pricing_plan_id":"cebpf4jnsgd1na2vs0mg"},{"bike_id":"419b0868-a7d9-4e77-ba52-7f597d688620","system_id":"levelo_inurba_marseille","lat":43.23192,"lon":5.39981,"is_reserved":false,"is_disabled":false,"rental_uris":{"android":"levelo://app?vid=419b0868-a7d9-4e77-ba52-7f597d688620","ios":"levelo://app?vid=419b0868-a7d9-4e77-ba52-7f597d688620"},"vehicle_type_id":"4","last_reported":1743596379,"current_range_meters":16800,"station_id":"ce4bhn12rcd13ifvqgqg","pricing_plan_id":"cebpf4jnsgd1na2vs0mg"},{"bike_id":"e3a29d38-a611-4b12-87ef-2fb8a21c41d5","system_id":"levelo_inurba_marseille","lat":43.22928,"lon":5.35369,"is_reserved":false,"is_disabled":false,"rental_uris":{"android":"levelo://app?vid=e3a29d38-a611-4b12-87ef-2fb8a21c41d5","ios":"levelo://app?vid=e3a29d38-a611-4b12-87ef-2fb8a21c41d5"},"vehicle_type_id":"4","last_reported":1743596379,"current_range_meters":16800,"station_id":"cpo3532slgdg3j2ikp40","pricing_plan_id":"cebpf4jnsgd1na2vs0mg"},{"bike_id":"71560b1b-cd12-4e98-86fd-efe82a2ea720","system_id":"levelo_inurba_marseille","lat":43.30145,"lon":5.3741,"is_reserved":false,"is_disabled":false,"rental_uris":{"android":"levelo://app?vid=71560b1b-cd12-4e98-86fd-efe82a2ea720","ios":"levelo://app?vid=71560b1b-cd12-4e98-86fd-efe82a2ea720"},"vehicle_type_id":"4","last_reported":1743596379,"current_range_meters":16800,"station_id":"ce4bgs92rcd13ifvqcc0","pricing_plan_id":"cebpf4jnsgd1na2vs0mg"},