{"last_updated":1738753669,"ttl":60,"version":"2.2","data":{"bikes":[{"bike_id":"5aa17bed-e19f-41ae-9fc6-0f4d961fb09b","system_id":"levelo_inurba_marseille","lat":43.30536,"lon":5.36716,"is_reserved":false,"is_disabled":false,"rental_uris":{"android":"levelo://app?vid=5aa17bed-e19f-41ae-9fc6-0f4d961fb09b","ios":"levelo://app?vid=5aa17bed-e19f-41ae-9fc6-0f4d961fb09b"},"vehicle_type_id":"4","last_reported":1738753669,"current_range_meters":36800,"station_id":"ce4bgrp2rcd13ifvqc9g","pricing_plan_id":"cebpf4jnsgd1na2vs0mg"},{"bike_id":"419c8c22-86a4-4ef5-91f4-a06b4c2e4bba","system_id":"levelo_inurba_marseille","lat":43.22925,"lon":5.354,"is_reserved":false,"is_disabled":false,"rental_uris":{"android":"levelo://app?vid=419c8c22-86a4-4ef5-91f4-a06b4c2e4bba","ios":"levelo://app?vid=419c8c22-86a4-4ef5-91f4-a06b4c2e4bba"},"vehicle_type_id":"4","last_reported":1738753669,"current_range_meters":27200,"station_id":"cpo3532slgdg3j2ikp40","pricing_plan_id":"cebpf4jnsgd1na2vs0mg"},{"bike_id":"9fa5934b-265d-4647-ad90-fd53fb1906bf","system_id":"levelo_inurba_marseille","lat":43.29539,"lon":5.37513,"is_reserved":false,"is_disabled":false,"rental_uris":{"android":"levelo://app?vid=9fa5934b-265d-4647-ad90-fd53fb1906bf","ios":"levelo://app?vid=9fa5934b-265d-4647-ad90-fd53fb1906bf"},"vehicle_type_id":"4","last_reported":1738753669,"current_range_meters":32000,"station_id":"ce4bgkp2rcd13ifvqbmg","pricing_plan_id":"cebpf4jnsgd1na2vs0mg"},{"bike_id":"ba05dbef-cf19-40fa-8248-bd31b49bcc49","system_id":"levelo_inurba_marseille","lat":43.25927,"lon":5.40903,"is_reserved":false,"is_disabled":false,"rental_uris":{"android":"levelo://app?vid=ba05dbef-cf19-40fa-8248-bd31b49bcc49","ios":"levelo://app?vid=ba05dbef-cf19-40fa-8248-bd31b49bcc49"},"vehicle_type_id":"4","last_reported":1738753669,"current_range_meters":38800,"station_id":"ce4bhm92rcd13ifvqglg","pricing_plan_id":"cebpf4jnsgd1na2vs0mg"},{"bike_id":"c6772c51-2c26-4b21-a7b8-bae9a8e291d6","system_id":"levelo_inurba_marseille","lat":43.29278,"lon":5.3684,"is_reserved":false,"is_disabled":false,"rental_uris":{"android":"levelo://app?vid=c6772c51-2c26-4b21-a7b8-bae9a8e291d6","ios":"levelo://app?vid=c6772c51-2c26-4b21-a7b8-bae9a8e291d6"},"vehicle_type_id":"4","last_reported":1738753669,"current_range_meters":37600,"station_id":"ce4bhbp2rcd13ifvqesg","pricing_plan_id":"cebpf4jnsgd1na2vs0mg"},{"bike_id":"a5c1c6e4-93b1-41f9-9cd6-2e43eca69d7b","system_id":"levelo_inurba_marseille","lat":43.30513,"lon":5.36702,"is_reserved":false,"is_disabled":false,"rental_uris":{"android":"levelo://app?vid=a5c1c6e4-93b1-41f9-9cd6-2e43eca69d7b","ios":"levelo://app?vid=a5c1c6e4-93b1-41f9-9cd6-2e43eca69d7b"},"vehicle_type_id":"4","last_reported":1738753669,"current_range_meters":12800,"station_id":"ce4bgrp2rcd13ifvqc9g","pricing_plan_id":"cebpf4jnsgd1na2vs0mg"},{"bike_id":"8a02c9a1-15e4-471d-ab6d-e972dacf97b1","system_id":"levelo_inurba_marseille","lat":43.30544,"lon":5.36542,"is_reserved":false,"is_disabled":false,"rental_uris":{"android":"levelo://app?vid=8a02c9a1-15e4-471d-ab6d-e972dacf97b1","ios":"levelo://app?vid=8a02c9a1-15e4-471d-ab6d-e972dacf97b1"},"vehicle_type_id":"4","last_reported":1738753669,"current_range_meters":36000,"station_id":"ce4bgs12rcd13ifvqcag","pricing_plan_id":"cebpf4jnsgd1na2vs0mg"},{"bike_id":"e88765a3-c01e-4915-9314-7b0a8b461ddd","system_id":"levelo_inurba_marseille","lat":43.28003,"lon":5.40011,"is_reserved":false,"is_disabled":false,"rental_uris":{"android":"levelo://app?vid=e88765a3-c01e-4915-9314-7b0a8b461ddd","ios":"levelo://app?vid=e88765a3-c01e-4915-9314-7b0a8b461ddd"},"vehicle_type_id":"4","last_reported":1738753669,"current_range_meters":33200,"station_id":"ce4bho92rcd13ifvqh4g","pricing_plan_id":"cebpf4jnsgd1na2vs0mg"},{"bike_id":"caf558c3-a9ad-4fe3-92b6-038f06ef09fe","system_id":"levelo_inurba_marseille","lat":43.23203,"lon":5.35564,"is_reserved":false,"is_disabled":false,"rental_uris":{"android":"levelo://app?vid=caf558c3-a9ad-4fe3-92b6-038f06ef09fe","ios":"levelo://app?vid=caf558c3-a9ad-4fe3-92b6-038f06ef09fe"},"vehicle_type_id":"4","last_reported":1738753669,"current_range_meters":12000,"station_id":"ce4bhu92rcd13ifvqi70","pricing_plan_id":"cebpf4jnsgd1na2vs0mg"},{"bike_id":"ca569277-7b06-46b6-8f6f-cd357d4d7164","system_id":"levelo_inurba_marseille","lat":43.24043,"lon":5.37753,"is_reserved":false,"is_disabled":false,"rental_uris":{"android":"levelo://app?vid=ca569277-7b06-46b6-8f6f-cd357d4d7164","ios":"levelo://app?vid=ca569277-7b06-46b6-8f6f-cd357d4d7164"},"vehicle_type_id":"4","last_reported":1738753669,"current_range_meters":34000,"station_id":"ce4bhnp2rcd13ifvqgvg","pricing_plan_id":"cebpf4jnsgd1na2vs0mg"},{"bike_id":"38e300b5-2cff-4a11-ad70-ffec8ee87fbb","system_id":"levelo_inurba_marseille","lat":43.29005,"lon":5.35616,"is_reserved":false,"is_disabled":false,"rental_uris":{"android":"levelo://app?vid=38e300b5-2cff-4a11-ad70-ffec8ee87fbb","ios":"levelo://app?vid=38e300b5-2cff-4a11-ad70-ffec8ee87fbb"},"vehicle_type_id":"4","last_reported":1738753669,"current_range_meters":22400,"station_id":"ce4bhb92rcd13ifvqen0","pricing_plan_id":"cebpf4jnsgd1na2vs0mg"},{"bike_id":"7e19e353-1331-446b-aa47-ecd228ac2406","system_id":"levelo_inurba_marseille","lat":43.30453,"lon":5.37924,"is_reserved":false,"is_disabled":false,"rental_uris":{"android":"levelo://app?vid=7e19e353-1331-446b-aa47-ecd228ac2406","ios":"levelo://app?vid=7e19e353-1331-446b-aa47-ecd228ac2406"},"vehicle_type_id":"4","last_reported":1738753669,"current_range_meters":37600,"station_id":"ce4bgup2rcd13ifvqcn0","pricing_plan_id":"cebpf4jnsgd1na2vs0mg"},{"bike_id":"3b3750dc-9cdb-41a8-a721-f3277ba575c5","system_id":"levelo_inurba_marseille","lat":43.29702,"lon":5.37295,"is_reserved":false,"is_disabled":false,"rental_uris":{"android":"levelo://app?vid=3b3750dc-9cdb-41a8-a721-f3277ba575c5","ios":"levelo://app?vid=3b3750dc-9cdb-41a8-a721-f3277ba575c5"},"vehicle_type_id":"4","last_reported":1738753669,"current_range_meters":18800,"station_id":"ce4bgk12rcd13ifvqbj0","pricing_plan_id":"cebpf4jnsgd1na2vs0mg"},{"bike_id":"27788668-d35d-4e3b-b85e-35c52733c3a9","system_id":"levelo_inurba_marseille","lat":43.24395,"lon":5.37062,"is_reserved":false,"is_disabled":false,"rental_uris":{"android":"levelo://app?vid=27788668-d35d-4e3b-b85e-35c52733c3a9","ios":"levelo://app?vid=27788668-d35d-4e3b-b85e-35c52733c3a9"},"vehicle_type_id":"4","last_reported":1738753669,"current_range_meters":6800,"station_id":"ce4bhhh2rcd13ifvqfk0","pricing_plan_id":"cebpf4jnsgd1na2vs0mg"},{"bike_id":"eb755d59-7afc-4519-b8a7-b1014a179d3c","system_id":"levelo_inurba_marseille","lat":43.27815,"lon":5.40716,"is_reserved":false,"is_disabled":false,"rental_uris":{"android":"levelo://app?vid=eb755d59-7afc-4519-b8a7-b1014a179d3c","ios":"levelo://app?vid=eb755d59-7afc-4519-b8a7-b1014a179d3c"},"vehicle_type_id":"4","last_reported":1738753669,"current_range_meters":39200,"station_id":"ce4bhnh2rcd13ifvqgtg","pricing_plan_id":"cebpf4jnsgd1na2vs0mg"},{"bike_id":"52ec9d16-8d16-4322-a5d9-68534ef66132","system_id":"levelo_inurba_marseille","lat":43.30542,"lon":5.36549,"is_reserved":false,"is_disabled":false,"rental_uris":{"android":"levelo://app?vid=52ec9d16-8d16-4322-a5d9-68534ef66132","ios":"levelo://app?vid=52ec9d16-8d16-4322-a5d9-68534ef66132"},"vehicle_type_id":"4","last_reported":1738753669,"current_range_meters":20800,"station_id":"ce4bgs12rcd13ifvqcag","pricing_plan_id":"cebpf4jnsgd1na2vs0mg"},{"bike_id":"9faedc02-9e18-48a4-bf32-ec0d86769a61","system_id":"levelo_inurba_marseille","lat":43.29291,"lon":5.37454,"is_reserved":false,"is_disabled":false,"rental_uris":{"android":"levelo://app?vid=9faedc02-9e18-48a4-bf32-ec0d86769a61","ios":"levelo://app?vid=9faedc02-9e18-48a4-bf32-ec0d86769a61"},"vehicle_type_id":"4","last_reported":1738753669,"current_range_meters":39200,"station_id":"ce4bgi12rcd13ifvqb70","pricing_plan_id":"cebpf4jnsgd1na2vs0mg"},{"bike_id":"d72f401d-7e85-4e85-abe3-8fc4222030a1","system_id":"levelo_inurba_marseille","lat":43.29969,"lon":5.37755,"is_reserved":false,"is_disabled":false,"rental_uris":{"android":"levelo://app?vid=d72f401d-7e85-4e85-abe3-8fc4222030a1","ios":"levelo://app?vid=d72f401d-7e85-4e85-abe3-8fc4222030a1"},"vehicle_type_id":"4","last_reported":1738753669,"current_range_meters":26000,"station_id":"","pricing_plan_id":"cebpf4jnsgd1na2vs0mg"},{"bike_id":"4bc35f31-c45b-4abe-9c0a-d55d0bfcb949","system_id":"levelo_inurba_marseille","lat":43.27939,"lon":5.41041,"is_reserved":false,"is_disabled":false,"rental_uris":{"android":"levelo://app?vid=4bc35f31-c45b-4abe-9c0a-d55d0bfcb949","ios":"levelo://app?vid=4bc35f31-c45b-4abe-9c0a-d55d0bfcb949"},"vehicle_type_id":"4","last_reported":1738753669,"current_range_meters":33200,"station_id":"ce4bhnp2rcd13ifvqh0g","pricing_plan_id":"cebpf4jnsgd1na2vs0mg"},{"bike_id":"7c0a5f50-0b9b-43cb-9fcc-ad7d2aace6dd","system_id":"levelo_inurba_marseille","lat":43.297622,"lon":5.376935,"is_reserved":false,"is_disabled":false,"rental_uris":{"android":"levelo://app?vid=7c0a5f50-0b9b-43cb-9fcc-ad7d2aace6dd","ios":"levelo://app?vid=7c0a5f50-0b9b-43cb-9fcc-ad7d2aace6dd"},"vehicle_type_id":"4","last_reported":1738753669,"current_range_meters":30000,"station_id":"","pricing_plan_id":"cebpf4jnsgd1na2vs0mg"},{"bike_id":"7fce3584-a536-4698-a62e-50e7ebe5cb40","system_id":"levelo_inurba_marseille","lat":43.2871,"lon":5.39992,"is_reserved":false,"is_disabled":false,"rental_uris":{"android":"levelo://app?vid=7fce3584-a536-4698-a62e-50e7ebe5cb40","ios":"levelo://app?vid=7fce3584-a536-4698-a62e-50e7ebe5cb40"},"vehicle_type_id":"4","last_reported":1738753669,"current_range_meters":25600,"station_id":"ce4bho92rcd13ifvqh3g","pricing_plan_id":"cebpf4jnsgd1na2vs0mg"},{"bike_id":"7eaacd34-10f9-4246-8aa1-4a22e07a7c06","system_id":"levelo_inurba_marseille","lat":43.31631,"lon":5.3739,"is_reserved":false,"is_disabled":false,"rental_uris":{"android":"levelo://app?vid=7eaacd34-10f9-4246-8aa1-4a22e07a7c06","ios":"levelo://app?vid=7eaacd34-10f9-4246-8aa1-4a22e07a7c06"},"vehicle_type_id":"4","last_reported":1738753669,"current_range_meters":26800,"station_id":"","pricing_plan_id":"cebpf4jnsgd1na2vs0mg"},{"bike_id":"44f755c4-e658-4722-a1fb-cde32921bef7","system_id":"levelo_inurba_marseille","lat":43.29794,"lon":5.37104,"is_reserved":false,"is_disabled":false,"rental_uris":{"android":"levelo://app?vid=44f755c4-e658-4722-a1fb-cde32921bef7","ios":"levelo://app?vid=44f755c4-e658-4722-a1fb-cde32921bef7"},"vehicle_type_id":"4","last_reported":1738753669,"current_range_meters":39200,"station_id":"ce4bgop2rcd13ifvqc1g","pricing_plan_id":"cebpf4jnsgd1na2vs0mg"},{"bike_id":"01c5c94f-a782-4469-a6a6-86f497f2a50c","system_id":"levelo_inurba_marseille","lat":43.33606,"lon":5.41025,"is_reserved":false,"is_disabled":false,"rental_uris":{"android":"levelo://app?vid=01c5c94f-a782-4469-a6a6-86f497f2a50c","ios":"levelo://app?vid=01c5c94f-a782-4469-a6a6-86f497f2a50c"},"vehicle_type_id":"4","last_reported":1738753669,"current_range_meters":22400,"station_id":"ce4bhqh2rcd13ifvqhmg","pricing_plan_id":"cebpf4jnsgd1na2vs0mg"},{"bike_id":"5f12060b-9ee7-4a7e-afd6-168eb1ba1fa0","system_id":"levelo_inurba_marseille","lat":43.2667,"lon":5.38268,"is_reserved":false,"is_disabled":false,"rental_uris":{"android":"levelo://app?vid=5f12060b-9ee7-4a7e-afd6-168eb1ba1fa0","ios":"levelo://app?vid=5f12060b-9ee7-4a7e-afd6-168eb1ba1fa0"},"vehicle_type_id":"4","last_reported":1738753669,"current_range_meters":29600,"station_id":"ce4bhg92rcd13ifvqf90","pricing_plan_id":"cebpf4jnsgd1na2vs0mg"},{"bike_id":"9d0de974-8143-4260-8c90-8e26cc33d946","system_id":"levelo_inurba_marseille","lat":43.26028,"lon":5.37577,"is_reserved":false,"is_disabled":false,"rental_uris":{"android":"levelo://app?vid=9d0de974-8143-4260-8c90-8e26cc33d946","ios":"levelo://app?vid=9d0de974-8143-4260-8c90-8e26cc33d946"},"vehicle_type_id":"4","last_reported":1738753669,"current_range_meters":39200,"station_id":"ce4bhgh2rcd13ifvqfa0","pricing_plan_id":"cebpf4jnsgd1na2vs0mg"},{"bike_id":"1a78f126-15bb-40e4-a379-1a33eae10b94","system_id":"levelo_inurba_marseille","lat":43.32107,"lon":5.36782,"is_reserved":false,"is_disabled":false,"rental_uris":{"android":"levelo://app?vid=1a78f126-15bb-40e4-a379-1a33eae10b94","ios":"levelo://app?vid=1a78f126-15bb-40e4-a379-1a33eae10b94"},"vehicle_type_id":"4","last_reported":1738753669,"current_range_meters":36400,"station_id":"ce4bhrh2rcd13ifvqhug","pricing_plan_id":"cebpf4jnsgd1na2vs0mg"},{"bike_id":"c0681d93-6529-4602-8f39-077bbbcffd59","system_id":"levelo_inurba_marseille","lat":43.30464,"lon":5.37911,"is_reserved":false,"is_disabled":false,"rental_uris":{"android":"levelo://app?vid=c0681d93-6529-4602-8f39-077bbbcffd59","ios":"levelo://app?vid=c0681d93-6529-4602-8f39-077bbbcffd59"},"vehicle_type_id":"4","last_reported":1738753669,"current_range_meters":32800,"station_id":"ce4bgup2rcd13ifvqcn0","pricing_plan_id":"cebpf4jnsgd1na2vs0mg"},{"bike_id":"f49db839-cde4-4b48-8e5e-2b64dac550bb","system_id":"levelo_inurba_marseille","lat":43.24174,"lon":5.39753,"is_reserved":false,"is_disabled":false,"rental_uris":{"android":"levelo://app?vid=f49db839-cde4-4b48-8e5e-2b64dac550bb","ios":"levelo://app?vid=f49db839-cde4-4b48-8e5e-2b64dac550bb"},"vehicle_type_id":"4","last_reported":1738753669,"current_range_meters":12400,"station_id":"ce4bhn12rcd13ifvqgpg","pricing_plan_id":"cebpf4jnsgd1na2vs0mg"},{"bike_id":"93e41a2f-2972-4521-9acb-9fed100efa33","system_id":"levelo_inurba_marseille","lat":43.29193,"lon":5.39326,"is_reserved":false,"is_disabled":false,"rental_uris":{"android":"levelo://app?vid=93e41a2f-2972-4521-9acb-9fed100efa33","ios":"levelo://app?vid=93e41a2f-2972-4521-9acb-9fed100efa33"},"vehicle_type_id":"4","last_reported":1738753669,"current_range_meters":38800,"station_id":"ce4bh192rcd13ifvqdd0","pricing_plan_id":"cebpf4jnsgd1na2vs0mg"},{"bike_id":"a31da492-d404-42a4-a173-3e8c75aeef5d","system_id":"levelo_inurba_marseille","lat":43.24387,"lon":5.37057,"is_reserved":false,"is_disabled":false,"rental_uris":{"android":"levelo://app?vid=a31da492-d404-42a4-a173-3e8c75aeef5d","ios":"levelo://app?vid=a31da492-d404-42a4-a173-3e8c75aeef5d"},"vehicle_type_id":"4","last_reported":1738753669,"current_range_meters":36800,"station_id":"ce4bhhh2rcd13ifvqfk0","pricing_plan_id":"cebpf4jnsgd1na2vs0mg"},{"bike_id":"4a89115a-e175-423b-94ae-4ae952e897cd","system_id":"levelo_inurba_marseille","lat":43.28486,"lon":5.3856,"is_reserved":false,"is_disabled":false,"rental_uris":{"android":"levelo://app?vid=4a89115a-e175-423b-94ae-4ae952e897cd","ios":"levelo://app?vid=4a89115a-e175-423b-94ae-4ae952e897cd"},"vehicle_type_id":"4","last_reported":1738753669,"current_range_meters":23200,"station_id":"ce4bh8p2rcd13ifvqeb0","pricing_plan_id":"cebpf4jnsgd1na2vs0mg"},{"bike_id":"a1a7079b-68b5-45ca-9af8-b6bc9f7cd559","system_id":"levelo_inurba_marseille","lat":43.2293,"lon":5.35381,"is_reserved":false,"is_disabled":false,"rental_uris":{"android":"levelo://app?vid=a1a7079b-68b5-45ca-9af8-b6bc9f7cd559","ios":"levelo://app?vid=a1a7079b-68b5-45ca-9af8-b6bc9f7cd559"},"vehicle_type_id":"4","last_reported":1738753669,"current_range_meters":38800,"station_id":"cpo3532slgdg3j2ikp40","pricing_plan_id":"cebpf4jnsgd1na2vs0mg"},{"bike_id":"4cff4c18-6936-40ba-b1b4-9d0ae4647e78","system_id":"levelo_inurba_marseille","lat":43.27555,"lon":5.38424,"is_reserved":false,"is_disabled":false,"rental_uris":{"android":"levelo://app?vid=4cff4c18-6936-40ba-b1b4-9d0ae4647e78","ios":"levelo://app?vid=4cff4c18-6936-40ba-b1b4-9d0ae4647e78"},"vehicle_type_id":"4","last_reported":1738753669,"current_range_meters":28800,"station_id":"ce4bhh92rcd13ifvqfi0","pricing_plan_id":"cebpf4jnsgd1na2vs0mg"},{"bike_id":"29805978-3f90-4e1f-a2f8-4f8391d994c3","system_id":"levelo_inurba_marseille","lat":43.24143,"lon":5.39697,"is_reserved":false,"is_disabled":false,"rental_uris":{"android":"levelo://app?vid=29805978-3f90-4e1f-a2f8-4f8391d994c3","ios":"levelo://app?vid=29805978-3f90-4e1f-a2f8-4f8391d994c3"},"vehicle_type_id":"4","last_reported":1738753669,"current_range_meters":18800,"station_id":"ce4bhn12rcd13ifvqgpg","pricing_plan_id":"cebpf4jnsgd1na2vs0mg"},{"bike_id":"e900f4fe-f287-4f7a-a111-e62d22c31fb5","system_id":"levelo_inurba_marseille","lat":43.25579,"lon":5.38224,"is_reserved":false,"is_disabled":false,"rental_uris":{"android":"levelo://app?vid=e900f4fe-f287-4f7a-a111-e62d22c31fb5","ios":"levelo://app?vid=e900f4fe-f287-4f7a-a111-e62d22c31fb5"},"vehicle_type_id":"4","last_reported":1738753669,"current_range_meters":28400,"station_id":"ce4bhih2rcd13ifvqfs0","pricing_plan_id":"cebpf4jnsgd1na2vs0mg"},{"bike_id":"9af744d4-adb2-4b6c-8957-83ebe47b8bf4","system_id":"levelo_inurba_marseille","lat":43.26233,"lon":5.40454,"is_reserved":false,"is_disabled":false,"rental_uris":{"android":"levelo://app?vid=9af744d4-adb2-4b6c-8957-83ebe47b8bf4","ios":"levelo://app?vid=9af744d4-adb2-4b6c-8957-83ebe47b8bf4"},"vehicle_type_id":"4","last_reported":1738753669,"current_range_meters":36000,"station_id":"ce4bhmh2rcd13ifvqgmg","pricing_plan_id":"cebpf4jnsgd1na2vs0mg"},{"bike_id":"3726dff5-00e4-45e5-9db7-c906f7e13ea9","system_id":"levelo_inurba_marseille","lat":43.27182,"lon":5.41004,"is_reserved":false,"is_disabled":false,"rental_uris":{"android":"levelo://app?vid=3726dff5-00e4-45e5-9db7-c906f7e13ea9","ios":"levelo://app?vid=3726dff5-00e4-45e5-9db7-c906f7e13ea9"},"vehicle_type_id":"4","last_reported":1738753669,"current_range_meters":34800,"station_id":"ce4bhl12rcd13ifvqgf0","pricing_plan_id":"cebpf4jnsgd1na2vs0mg"},{"bike_id":"75283e25-dc65-4401-868c-b7891e66653f","system_id":"levelo_inurba_marseille","lat":43.27678,"lon":5.38907,"is_reserved":false,"is_disabled":false,"rental_uris":{"android":"levelo://app?vid=75283e25-dc65-4401-868c-b7891e66653f","ios":"levelo://app?vid=75283e25-dc65-4401-868c-b7891e66653f"},"vehicle_type_id":"4","last_reported":1738753669,"current_range_meters":19200,"station_id":"ce4bhi12rcd13ifvqfo0","pricing_plan_id":"cebpf4jnsgd1na2vs0mg"},{"bike_id":"101a3db2-bd4e-4e61-bcd9-4cd3d1af1d3a","system_id":"levelo_inurba_marseille","lat":43.25915,"lon":5.40896,"is_reserved":false,"is_disabled":false,"rental_uris":{"android":"levelo://app?vid=101a3db2-bd4e-4e61-bcd9-4cd3d1af1d3a","ios":"levelo://app?vid=101a3db2-bd4e-4e61-bcd9-4cd3d1af1d3a"},"vehicle_type_id":"4","last_reported":1738753669,"current_range_meters":24800,"station_id":"ce4bhm92rcd13ifvqglg","pricing_plan_id":"cebpf4jnsgd1na2vs0mg"},{"bike_id":"ecfd8047-b75a-4e87-a298-ba28fe0083c2","system_id":"levelo_inurba_marseille","lat":43.29575,"lon":5.38085,"is_reserved":false,"is_disabled":true,"rental_uris":{"android":"levelo://app?vid=ecfd8047-b75a-4e87-a298-ba28fe0083c2","ios":"levelo://app?vid=ecfd8047-b75a-4e87-a298-ba28fe0083c2"},"vehicle_type_id":"4","last_reported":1738753669,"current_range_meters":0,"station_id":"ce4bgl12rcd13ifvqbo0","pricing_plan_id":"cebpf4jnsgd1na2vs0mg"},{"bike_id":"b23c2b06-e822-4c82-b15f-c5d5bce8aa42","system_id":"levelo_inurba_marseille","lat":43.3108,"lon":5.38363,"is_reserved":false,"is_disabled":false,"rental_uris":{"android":"levelo://app?vid=b23c2b06-e822-4c82-b15f-c5d5bce8aa42","ios":"levelo://app?vid=b23c2b06-e822-4c82-b15f-c5d5bce8aa42"},"vehicle_type_id":"4","last_reported":1738753669,"current_range_meters":36000,"station_id":"ce4bgv92rcd13ifvqcr0","pricing_plan_id":"cebpf4jnsgd1na2vs0mg"},{"bike_id":"4b2a8578-2196-4092-93b0-dd230b814241","system_id":"levelo_inurba_marseille","lat":43.28623,"lon":5.35109,"is_reserved":false,"is_disabled":false,"rental_uris":{"android":"levelo://app?vid=4b2a8578-2196-4092-93b0-dd230b814241","ios":"levelo://app?vid=4b2a8578-2196-4092-93b0-dd230b814241"},"vehicle_type_id":"4","last_reported":1738753669,"current_range_meters":18800,"station_id":"ce4bhch2rcd13ifvqeug","pricing_plan_id":"cebpf4jnsgd1na2vs0mg"},{"bike_id":"9a3d8afe-6430-4f53-aba8-27d653fab8bf","system_id":"levelo_inurba_marseille","lat":43.24993,"lon":5.38924,"is_reserved":false,"is_disabled":false,"rental_uris":{"android":"levelo://app?vid=9a3d8afe-6430-4f53-aba8-27d653fab8bf","ios":"levelo://app?vid=9a3d8afe-6430-4f53-aba8-27d653fab8bf"},"vehicle_type_id":"4","last_reported":1738753669,"current_range_meters":39200,"station_id":"ce4bhgp2rcd13ifvqfd0","pricing_plan_id":"cebpf4jnsgd1na2vs0mg"},{"bike_id":"272335b6-dc24-496f-b8c5-36817206bf50","system_id":"levelo_inurba_marseille","lat":43.29899,"lon":5.43675,"is_reserved":false,"is_disabled":false,"rental_uris":{"android":"levelo://app?vid=272335b6-dc24-496f-b8c5-36817206bf50","ios":"levelo://app?vid=272335b6-dc24-496f-b8c5-36817206bf50"},"vehicle_type_id":"4","last_reported":1738753669,"current_range_meters":38400,"station_id":"ce4bhpp2rcd13ifvqhfg","pricing_plan_id":"cebpf4jnsgd1na2vs0mg"},{"bike_id":"30ad2c1b-d91a-4c69-b941-7d3c940f9ac5","system_id":"levelo_inurba_marseille","lat":43.30512,"lon":5.36707,"is_reserved":false,"is_disabled":false,"rental_uris":{"android":"levelo://app?vid=30ad2c1b-d91a-4c69-b941-7d3c940f9ac5","ios":"levelo://app?vid=30ad2c1b-d91a-4c69-b941-7d3c940f9ac5"},"vehicle_type_id":"4","last_reported":1738753669,"current_range_meters":38800,"station_id":"ce4bgrp2rcd13ifvqc9g","pricing_plan_id":"cebpf4jnsgd1na2vs0mg"},{"bike_id":"17b1a83f-f008-47e8-9f74-209e6cf0cf56","system_id":"levelo_inurba_marseille","lat":43.31386,"lon":5.36702,"is_reserved":false,"is_disabled":false,"rental_uris":{"android":"levelo://app?vid=17b1a83f-f008-47e8-9f74-209e6cf0cf56","ios":"levelo://app?vid=17b1a83f-f008-47e8-9f74-209e6cf0cf56"},"vehicle_type_id":"4","last_reported":1738753669,"current_range_meters":39200,"station_id":"ce4bgr92rcd13ifvqc6g","pricing_plan_id":"cebpf4jnsgd1na2vs0mg"},{"bike_id":"a8dff2dd-71b2-4fcf-b51b-9c14c16d1deb","system_id":"levelo_inurba_marseille","lat":43.27999,"lon":5.41662,"is_reserved":false,"is_disabled":false,"rental_uris":{"android":"levelo://app?vid=a8dff2dd-71b2-4fcf-b51b-9c14c16d1deb","ios":"levelo://app?vid=a8dff2dd-71b2-4fcf-b51b-9c14c16d1deb"},"vehicle_type_id":"4","last_reported":1738753669,"current_range_meters":14800,"station_id":"ce4bho12rcd13ifvqh1g","pricing_plan_id":"cebpf4jnsgd1na2vs0mg"},{"bike_id":"f307f8ea-df8b-425d-97d7-c4f570c0ee32","system_id":"levelo_inurba_marseille","lat":43.23973,"lon":5.36622,"is_reserved":false,"is_disabled":false,"rental_uris":{"android":"levelo://app?vid=f307f8ea-df8b-425d-97d7-c4f570c0ee32","ios":"levelo://app?vid=f307f8ea-df8b-425d-97d7-c4f570c0ee32"},"vehicle_type_id":"4","last_reported":1738753669,"current_range_meters":22000,"station_id":"ce4bhi12rcd13ifvqfp0","pricing_plan_id":"cebpf4jnsgd1na2vs0mg"},{"bike_id":"cf0d534e-429a-4742-b2cb-4793faf704ac","system_id":"levelo_inurba_marseille","lat":43.24655,"lon":5.38898,"is_reserved":false,"is_disabled":false,"rental_uris":{"android":"levelo://app?vid=cf0d534e-429a-4742-b2cb-4793faf704ac","ios":"levelo://app?vid=cf0d534e-429a-4742-b2cb-4793faf704ac"},"vehicle_type_id":"4","last_reported":1738753669,"current_range_meters":39200,"station_id":"ce4bhg12rcd13ifvqf60","pricing_plan_id":"cebpf4jnsgd1na2vs0mg"},{"bike_id":"0ea366da-703f-42f0-96a5-ad4df6280b47","system_id":"levelo_inurba_marseille","lat":43.29077,"lon":5.37165,"is_reserved":false,"is_disabled":false,"rental_uris":{"android":"levelo://app?vid=0ea366da-703f-42f0-96a5-ad4df6280b47","ios":"levelo://app?vid=0ea366da-703f-42f0-96a5-ad4df6280b47"},"vehicle_type_id":"4","last_reported":1738753669,"current_range_meters":38800,"station_id":"ce4bh5p2rcd13ifvqe4g","pricing_plan_id":"cebpf4jnsgd1na2vs0mg"},{"bike_id":"91dfa30a-1516-4d61-92c2-a7d5e82b5985","system_id":"levelo_inurba_marseille","lat":43.29084,"lon":5.38141,"is_reserved":false,"is_disabled":false,"rental_uris":{"android":"levelo://app?vid=91dfa30a-1516-4d61-92c2-a7d5e82b5985","ios":"levelo://app?vid=91dfa30a-1516-4d61-92c2-a7d5e82b5985"},"vehicle_type_id":"4","last_reported":1738753669,"current_range_meters":38800,"station_id":"ce4bh512rcd13ifvqe2g","pricing_plan_id":"cebpf4jnsgd1na2vs0mg"},{"bike_id":"3a5aa9c9-bc8f-448e-aeb5-c9e98d56970c","system_id":"levelo_inurba_marseille","lat":43.33608,"lon":5.40997,"is_reserved":false,"is_disabled":false,"rental_uris":{"android":"levelo://app?vid=3a5aa9c9-bc8f-448e-aeb5-c9e98d56970c","ios":"levelo://app?vid=3a5aa9c9-bc8f-448e-aeb5-c9e98d56970c"},"vehicle_type_id":"4","last_reported":1738753669,"current_range_meters":38800,"station_id":"ce4bhqh2rcd13ifvqhmg","pricing_plan_id":"cebpf4jnsgd1na2vs0mg"},{"bike_id":"ca3721f7-080c-44bf-8f62-de54b11f91f0","system_id":"levelo_inurba_marseille","lat":43.3415,"lon":5.40905,"is_reserved":false,"is_disabled":false,"rental_uris":{"android":"levelo://app?vid=ca3721f7-080c-44bf-8f62-de54b11f91f0","ios":"levelo://app?vid=ca3721f7-080c-44bf-8f62-de54b11f91f0"},"vehicle_type_id":"4","last_reported":1738753669,"current_range_meters":38000,"station_id":"ce4bhqh2rcd13ifvqhlg","pricing_plan_id":"cebpf4jnsgd1na2vs0mg"},{"bike_id":"30d68ac6-7ba6-4749-8154-bf914e372a6a","system_id":"levelo_inurba_marseille","lat":43.32367,"lon":5.38898,"is_reserved":false,"is_disabled":false,"rental_uris":{"android":"levelo://app?vid=30d68ac6-7ba6-4749-8154-bf914e372a6a","ios":"levelo://app?vid=30d68ac6-7ba6-4749-8154-bf914e372a6a"},"vehicle_type_id":"4","last_reported":1738753669,"current_range_meters":34000,"station_id":"ce4bhqp2rcd13ifvqhog","pricing_plan_id":"cebpf4jnsgd1na2vs0mg"},{"bike_id":"a622a32c-b0d3-446f-9795-b808000ee454","system_id":"levelo_inurba_marseille","lat":43.26561,"lon":5.39,"is_reserved":false,"is_disabled":false,"rental_uris":{"android":"levelo://app?vid=a622a32c-b0d3-446f-9795-b808000ee454","ios":"levelo://app?vid=a622a32c-b0d3-446f-9795-b808000ee454"},"vehicle_type_id":"4","last_reported":1738753669,"current_range_meters":36400,"station_id":"ce4bhe12rcd13ifvqf30","pricing_plan_id":"cebpf4jnsgd1na2vs0mg"},{"bike_id":"f88b7b0e-e9a8-44ef-8e2b-1a0b4c96eed1","system_id":"levelo_inurba_marseille","lat":43.29618,"lon":5.37739,"is_reserved":false,"is_disabled":false,"rental_uris":{"android":"levelo://app?vid=f88b7b0e-e9a8-44ef-8e2b-1a0b4c96eed1","ios":"levelo://app?vid=f88b7b0e-e9a8-44ef-8e2b-1a0b4c96eed1"},"vehicle_type_id":"4","last_reported":1738753669,"current_range_meters":30800,"station_id":"ce4bgi92rcd13ifvqb90","pricing_plan_id":"cebpf4jnsgd1na2vs0mg"},{"bike_id":"d7612fe3-c24f-460a-978f-01663b32ea49","system_id":"levelo_inurba_marseille","lat":43.3053,"lon":5.36702,"is_reserved":false,"is_disabled":false,"rental_uris":{"android":"levelo://app?vid=d7612fe3-c24f-460a-978f-01663b32ea49","ios":"levelo://app?vid=d7612fe3-c24f-460a-978f-01663b32ea49"},"vehicle_type_id":"4","last_reported":1738753669,"current_range_meters":38800,"station_id":"ce4bgrp2rcd13ifvqc9g","pricing_plan_id":"cebpf4jnsgd1na2vs0mg"},{"bike_id":"2cd60774-c2f8-4e8f-9236-a6b0c03a1062","system_id":"levelo_inurba_marseille","lat":43.28086,"lon":5.39648,"is_reserved":false,"is_disabled":false,"rental_uris":{"android":"levelo://app?vid=2cd60774-c2f8-4e8f-9236-a6b0c03a1062","ios":"levelo://app?vid=2cd60774-c2f8-4e8f-9236-a6b0c03a1062"},"vehicle_type_id":"4","last_reported":1738753669,"current_range_meters":14400,"station_id":"ce4bho12rcd13ifvqh2g","pricing_plan_id":"cebpf4jnsgd1na2vs0mg"},{"bike_id":"2d961c25-b086-4cef-ae1f-326ac20105b9","system_id":"levelo_inurba_marseille","lat":43.309347,"lon":5.401567,"is_reserved":false,"is_disabled":false,"rental_uris":{"android":"levelo://app?vid=2d961c25-b086-4cef-ae1f-326ac20105b9","ios":"levelo://app?vid=2d961c25-b086-4cef-ae1f-326ac20105b9"},"vehicle_type_id":"4","last_reported":1738753669,"current_range_meters":24800,"station_id":"ce4bgvp2rcd13ifvqct0","pricing_plan_id":"cebpf4jnsgd1na2vs0mg"},{"bike_id":"9c2b73f7-e88f-44e3-8da5-03592ab0af2b","system_id":"levelo_inurba_marseille","lat":43.29534,"lon":5.3751,"is_reserved":false,"is_disabled":false,"rental_uris":{"android":"levelo://app?vid=9c2b73f7-e88f-44e3-8da5-03592ab0af2b","ios":"levelo://app?vid=9c2b73f7-e88f-44e3-8da5-03592ab0af2b"},"vehicle_type_id":"4","last_reported":1738753669,"current_range_meters":38800,"station_id":"ce4bgkp2rcd13ifvqbmg","pricing_plan_id":"cebpf4jnsgd1na2vs0mg"},{"bike_id":"e040da88-b421-4173-9ede-61ba1a6ca5b4","system_id":"levelo_inurba_marseille","lat":43.24158,"lon":5.39721,"is_reserved":false,"is_disabled":false,"rental_uris":{"android":"levelo://app?vid=e040da88-b421-4173-9ede-61ba1a6ca5b4","ios":"levelo://app?vid=e040da88-b421-4173-9ede-61ba1a6ca5b4"},"vehicle_type_id":"4","last_reported":1738753669,"current_range_meters":18000,"station_id":"ce4bhn12rcd13ifvqgpg","pricing_plan_id":"cebpf4jnsgd1na2vs0mg"},{"bike_id":"6712f04b-f35d-4e3a-a70d-c89aec85d9b2","system_id":"levelo_inurba_marseille","lat":43.22938,"lon":5.35414,"is_reserved":false,"is_disabled":false,"rental_uris":{"android":"levelo://app?vid=6712f04b-f35d-4e3a-a70d-c89aec85d9b2","ios":"levelo://app?vid=6712f04b-f35d-4e3a-a70d-c89aec85d9b2"},"vehicle_type_id":"4","last_reported":1738753669,"current_range_meters":39200,"station_id":"cpo3532slgdg3j2ikp40","pricing_plan_id":"cebpf4jnsgd1na2vs0mg"},{"bike_id":"bbd64154-5005-4cba-8533-1e321102e4c1","system_id":"levelo_inurba_marseille","lat":43.304656,"lon":5.379131,"is_reserved":false,"is_disabled":false,"rental_uris":{"android":"levelo://app?vid=bbd64154-5005-4cba-8533-1e321102e4c1","ios":"levelo://app?vid=bbd64154-5005-4cba-8533-1e321102e4c1"},"vehicle_type_id":"4","last_reported":1738753669,"current_range_meters":24800,"station_id":"ce4bgup2rcd13ifvqcn0","pricing_plan_id":"cebpf4jnsgd1na2vs0mg"},{"bike_id":"e9f6d61e-dd3d-409b-8bc1-863b9a9bde2b","system_id":"levelo_inurba_marseille","lat":43.31062,"lon":5.38364,"is_reserved":false,"is_disabled":false,"rental_uris":{"android":"levelo://app?vid=e9f6d61e-dd3d-409b-8bc1-863b9a9bde2b","ios":"levelo://app?vid=e9f6d61e-dd3d-409b-8bc1-863b9a9bde2b"},"vehicle_type_id":"4","last_reported":1738753669,"current_range_meters":24800,"station_id":"ce4bgv92rcd13ifvqcr0","pricing_plan_id":"cebpf4jnsgd1na2vs0mg"},{"bike_id":"5ea2a550-3391-42ff-9a63-a359ef251c82","system_id":"levelo_inurba_marseille","lat":43.29569,"lon":5.37515,"is_reserved":false,"is_disabled":false,"rental_uris":{"android":"levelo://app?vid=5ea2a550-3391-42ff-9a63-a359ef251c82","ios":"levelo://app?vid=5ea2a550-3391-42ff-9a63-a359ef251c82"},"vehicle_type_id":"4","last_reported":1738753669,"current_range_meters":30400,"station_id":"ce4bgh92rcd13ifvqb50","pricing_plan_id":"cebpf4jnsgd1na2vs0mg"},{"bike_id":"dc85626f-a12c-4e35-b6af-212ee66234cc","system_id":"levelo_inurba_marseille","lat":43.30549,"lon":5.36557,"is_reserved":false,"is_disabled":false,"rental_uris":{"android":"levelo://app?vid=dc85626f-a12c-4e35-b6af-212ee66234cc","ios":"levelo://app?vid=dc85626f-a12c-4e35-b6af-212ee66234cc"},"vehicle_type_id":"4","last_reported":1738753669,"current_range_meters":10800,"station_id":"ce4bgs12rcd13ifvqcag","pricing_plan_id":"cebpf4jnsgd1na2vs0mg"},{"bike_id":"738b5e3d-308a-4b8e-886a-cb4e15acdb88","system_id":"levelo_inurba_marseille","lat":43.2927,"lon":5.36842,"is_reserved":false,"is_disabled":false,"rental_uris":{"android":"levelo://app?vid=738b5e3d-308a-4b8e-886a-cb4e15acdb88","ios":"levelo://app?vid=738b5e3d-308a-4b8e-886a-cb4e15acdb88"},"vehicle_type_id":"4","last_reported":1738753669,"current_range_meters":36800,"station_id":"ce4bhbp2rcd13ifvqesg","pricing_plan_id":"cebpf4jnsgd1na2vs0mg"},{"bike_id":"01387558-154d-42a4-b95e-a5c1626f164d","system_id":"levelo_inurba_marseille","lat":43.2937,"lon":5.37299,"is_reserved":false,"is_disabled":false,"rental_uris":{"android":"levelo://app?vid=01387558-154d-42a4-b95e-a5c1626f164d","ios":"levelo://app?vid=01387558-154d-42a4-b95e-a5c1626f164d"},"vehicle_type_id":"4","last_reported":1738753669,"current_range_meters":38800,"station_id":"","pricing_plan_id":"cebpf4jnsgd1na2vs0mg"},{"bike_id":"4b197a1c-33eb-4967-965c-046d95290a0a","system_id":"levelo_inurba_marseille","lat":43.30528,"lon":5.36694,"is_reserved":false,"is_disabled":false,"rental_uris":{"android":"levelo://app?vid=4b197a1c-33eb-4967-965c-046d95290a0a","ios":"levelo://app?vid=4b197a1c-33eb-4967-965c-046d95290a0a"},"vehicle_type_id":"4","last_reported":1738753669,"current_range_meters":38400,"station_id":"ce4bgrp2rcd13ifvqc9g","pricing_plan_id":"cebpf4jnsgd1na2vs0mg"},{"bike_id":"5338e767-0f15-46c3-8070-a5ec71085959","system_id":"levelo_inurba_marseille","lat":43.31361,"lon":5.3849,"is_reserved":false,"is_disabled":false,"rental_uris":{"android":"levelo://app?vid=5338e767-0f15-46c3-8070-a5ec71085959","ios":"levelo://app?vid=5338e767-0f15-46c3-8070-a5ec71085959"},"vehicle_type_id":"4","last_reported":1738753669,"current_range_meters":30400,"station_id":"ce4bgt92rcd13ifvqcf0","pricing_plan_id":"cebpf4jnsgd1na2vs0mg"},{"bike_id":"4f711729-11db-4481-a558-983b7b381ab1","system_id":"levelo_inurba_marseille","lat":43.335986,"lon":5.410286,"is_reserved":false,"is_disabled":false,"rental_uris":{"android":"levelo://app?vid=4f711729-11db-4481-a558-983b7b381ab1","ios":"levelo://app?vid=4f711729-11db-4481-a558-983b7b381ab1"},"vehicle_type_id":"4","last_reported":1738753669,"current_range_meters":30400,"station_id":"ce4bhqh2rcd13ifvqhmg","pricing_plan_id":"cebpf4jnsgd1na2vs0mg"},{"bike_id":"8b50d5d6-3993-4367-b1cc-aee79b36e4de","system_id":"levelo_inurba_marseille","lat":43.29911,"lon":5.37501,"is_reserved":false,"is_disabled":false,"rental_uris":{"android":"levelo://app?vid=8b50d5d6-3993-4367-b1cc-aee79b36e4de","ios":"levelo://app?vid=8b50d5d6-3993-4367-b1cc-aee79b36e4de"},"vehicle_type_id":"4","last_reported":1738753669,"current_range_meters":38000,"station_id":"ce4bgjh2rcd13ifvqbg0","pricing_plan_id":"cebpf4jnsgd1na2vs0mg"},{"bike_id":"37f58142-e4da-4fa5-b6ac-f1f84075e5c0","system_id":"levelo_inurba_marseille","lat":43.29609,"lon":5.37186,"is_reserved":false,"is_disabled":true,"rental_uris":{"android":"levelo://app?vid=37f58142-e4da-4fa5-b6ac-f1f84075e5c0","ios":"levelo://app?vid=37f58142-e4da-4fa5-b6ac-f1f84075e5c0"},"vehicle_type_id":"4","last_reported":1738753669,"current_range_meters":37600,"station_id":"ce4bgnh2rcd13ifvqc0g","pricing_plan_id":"cebpf4jnsgd1na2vs0mg"},{"bike_id":"96474f12-834b-4dbe-a5e8-2cab0a9e4cc2","system_id":"levelo_inurba_marseille","lat":43.27673,"lon":5.3892,"is_reserved":false,"is_disabled":false,"rental_uris":{"android":"levelo://app?vid=96474f12-834b-4dbe-a5e8-2cab0a9e4cc2","ios":"levelo://app?vid=96474f12-834b-4dbe-a5e8-2cab0a9e4cc2"},"vehicle_type_id":"4","last_reported":1738753669,"current_range_meters":37600,"station_id":"ce4bhi12rcd13ifvqfo0","pricing_plan_id":"cebpf4jnsgd1na2vs0mg"},{"bike_id":"b9a69ebe-426a-46e1-bf48-930040e98c2c","system_id":"levelo_inurba_marseille","lat":43.29195,"lon":5.39325,"is_reserved":false,"is_disabled":false,"rental_uris":{"android":"levelo://app?vid=b9a69ebe-426a-46e1-bf48-930040e98c2c","ios":"levelo://app?vid=b9a69ebe-426a-46e1-bf48-930040e98c2c"},"vehicle_type_id":"4","last_reported":1738753669,"current_range_meters":30000,"station_id":"ce4bh192rcd13ifvqdd0","pricing_plan_id":"cebpf4jnsgd1na2vs0mg"},{"bike_id":"9fa6de76-e609-4c72-8e60-948046040770","system_id":"levelo_inurba_marseille","lat":43.26675,"lon":5.38266,"is_reserved":false,"is_disabled":false,"rental_uris":{"android":"levelo://app?vid=9fa6de76-e609-4c72-8e60-948046040770","ios":"levelo://app?vid=9fa6de76-e609-4c72-8e60-948046040770"},"vehicle_type_id":"4","last_reported":1738753669,"current_range_meters":38800,"station_id":"ce4bhg92rcd13ifvqf90","pricing_plan_id":"cebpf4jnsgd1na2vs0mg"},{"bike_id":"96db26f3-6182-45b1-98ca-6576a1e2e797","system_id":"levelo_inurba_marseille","lat":43.25491,"lon":5.37652,"is_reserved":false,"is_disabled":false,"rental_uris":{"android":"levelo://app?vid=96db26f3-6182-45b1-98ca-6576a1e2e797","ios":"levelo://app?vid=96db26f3-6182-45b1-98ca-6576a1e2e797"},"vehicle_type_id":"4","last_reported":1738753669,"current_range_meters":18800,"station_id":"ce4bhh12rcd13ifvqff0","pricing_plan_id":"cebpf4jnsgd1na2vs0mg"},{"bike_id":"cdd1ad2d-ffab-4414-9cbb-01867e2e84cd","system_id":"levelo_inurba_marseille","lat":43.28377,"lon":5.38633,"is_reserved":false,"is_disabled":false,"rental_uris":{"android":"levelo://app?vid=cdd1ad2d-ffab-4414-9cbb-01867e2e84cd","ios":"levelo://app?vid=cdd1ad2d-ffab-4414-9cbb-01867e2e84cd"},"vehicle_type_id":"4","last_reported":1738753669,"current_range_meters":33200,"station_id":"ce4bh492rcd13ifvqdvg","pricing_plan_id":"cebpf4jnsgd1na2vs0mg"},{"bike_id":"3ab0ceb6-cd89-477f-8038-1be761eb4bda","system_id":"levelo_inurba_marseille","lat":43.2952,"lon":5.37499,"is_reserved":false,"is_disabled":true,"rental_uris":{"android":"levelo://app?vid=3ab0ceb6-cd89-477f-8038-1be761eb4bda","ios":"levelo://app?vid=3ab0ceb6-cd89-477f-8038-1be761eb4bda"},"vehicle_type_id":"4","last_reported":1738753669,"current_range_meters":38800,"station_id":"ce4bgkp2rcd13ifvqbmg","pricing_plan_id":"cebpf4jnsgd1na2vs0mg"},{"bike_id":"496310f9-20d4-472f-8dcd-1fcbf1a417a3","system_id":"levelo_inurba_marseille","lat":43.24418,"lon":5.37084,"is_reserved":false,"is_disabled":false,"rental_uris":{"android":"levelo://app?vid=496310f9-20d4-472f-8dcd-1fcbf1a417a3","ios":"levelo://app?vid=496310f9-20d4-472f-8dcd-1fcbf1a417a3"},"vehicle_type_id":"4","last_reported":1738753669,"current_range_meters":34800,"station_id":"ce4bhhh2rcd13ifvqfk0","pricing_plan_id":"cebpf4jnsgd1na2vs0mg"},{"bike_id":"0e235496-05a0-4fa0-befc-7addf7354a57","system_id":"levelo_inurba_marseille","lat":43.26934,"lon":5.40266,"is_reserved":false,"is_disabled":false,"rental_uris":{"android":"levelo://app?vid=0e235496-05a0-4fa0-befc-7addf7354a57","ios":"levelo://app?vid=0e235496-05a0-4fa0-befc-7addf7354a57"},"vehicle_type_id":"4","last_reported":1738753669,"current_range_meters":27600,"station_id":"cjm6bp8fraef2m0cb0m0","pricing_plan_id":"cebpf4jnsgd1na2vs0mg"},{"bike_id":"c85a26e1-f53e-4ec1-b1ea-8b32d23f1f4d","system_id":"levelo_inurba_marseille","lat":43.23054,"lon":5.35502,"is_reserved":false,"is_disabled":false,"rental_uris":{"android":"levelo://app?vid=c85a26e1-f53e-4ec1-b1ea-8b32d23f1f4d","ios":"levelo://app?vid=c85a26e1-f53e-4ec1-b1ea-8b32d23f1f4d"},"vehicle_type_id":"4","last_reported":1738753669,"current_range_meters":22800,"station_id":"cpo3342slgdg3j2ifvpg","pricing_plan_id":"cebpf4jnsgd1na2vs0mg"},{"bike_id":"c0130e83-9433-4dfe-9d89-a20c09525330","system_id":"levelo_inurba_marseille","lat":43.29954,"lon":5.41322,"is_reserved":false,"is_disabled":false,"rental_uris":{"android":"levelo://app?vid=c0130e83-9433-4dfe-9d89-a20c09525330","ios":"levelo://app?vid=c0130e83-9433-4dfe-9d89-a20c09525330"},"vehicle_type_id":"4","last_reported":1738753669,"current_range_meters":39200,"station_id":"ce4bhp12rcd13ifvqh9g","pricing_plan_id":"cebpf4jnsgd1na2vs0mg"},{"bike_id":"512a3a23-b079-4568-bc04-d9235c65b5d3","system_id":"levelo_inurba_marseille","lat":43.23966,"lon":5.36631,"is_reserved":false,"is_disabled":false,"rental_uris":{"android":"levelo://app?vid=512a3a23-b079-4568-bc04-d9235c65b5d3","ios":"levelo://app?vid=512a3a23-b079-4568-bc04-d9235c65b5d3"},"vehicle_type_id":"4","last_reported":1738753669,"current_range_meters":12800,"station_id":"ce4bhi12rcd13ifvqfp0","pricing_plan_id":"cebpf4jnsgd1na2vs0mg"},{"bike_id":"bd2c8631-5885-47e9-a4c3-f8cf7762eef5","system_id":"levelo_inurba_marseille","lat":43.24169,"lon":5.39728,"is_reserved":false,"is_disabled":false,"rental_uris":{"android":"levelo://app?vid=bd2c8631-5885-47e9-a4c3-f8cf7762eef5","ios":"levelo://app?vid=bd2c8631-5885-47e9-a4c3-f8cf7762eef5"},"vehicle_type_id":"4","last_reported":1738753669,"current_range_meters":38800,"station_id":"ce4bhn12rcd13ifvqgpg","pricing_plan_id":"cebpf4jnsgd1na2vs0mg"},{"bike_id":"3a8e027c-0654-4850-bb93-ff1d8db3dc3e","system_id":"levelo_inurba_marseille","lat":43.31265,"lon":5.36845,"is_reserved":false,"is_disabled":false,"rental_uris":{"android":"levelo://app?vid=3a8e027c-0654-4850-bb93-ff1d8db3dc3e","ios":"levelo://app?vid=3a8e027c-0654-4850-bb93-ff1d8db3dc3e"},"vehicle_type_id":"4","last_reported":1738753669,"current_range_meters":38800,"station_id":"ce4bgl92rcd13ifvqbq0","pricing_plan_id":"cebpf4jnsgd1na2vs0mg"},{"bike_id":"10f65f88-bf3b-4c22-b65b-bc92d9c2c8d3","system_id":"levelo_inurba_marseille","lat":43.29366,"lon":5.37855,"is_reserved":false,"is_disabled":false,"rental_uris":{"android":"levelo://app?vid=10f65f88-bf3b-4c22-b65b-bc92d9c2c8d3","ios":"levelo://app?vid=10f65f88-bf3b-4c22-b65b-bc92d9c2c8d3"},"vehicle_type_id":"4","last_reported":1738753669,"current_range_meters":38800,"station_id":"ce4bgjh2rcd13ifvqbf0","pricing_plan_id":"cebpf4jnsgd1na2vs0mg"},{"bike_id":"83441fe5-28e1-42ab-a62e-66356de344ad","system_id":"levelo_inurba_marseille","lat":43.26204,"lon":5.37932,"is_reserved":false,"is_disabled":true,"rental_uris":{"android":"levelo://app?vid=83441fe5-28e1-42ab-a62e-66356de344ad","ios":"levelo://app?vid=83441fe5-28e1-42ab-a62e-66356de344ad"},"vehicle_type_id":"4","last_reported":1738753669,"current_range_meters":2000,"station_id":"ce4bhjp2rcd13ifvqg90","pricing_plan_id":"cebpf4jnsgd1na2vs0mg"},{"bike_id":"a601793f-2b5e-4f15-b76e-8c54ae0448f5","system_id":"levelo_inurba_marseille","lat":43.28979,"lon":5.37828,"is_reserved":false,"is_disabled":false,"rental_uris":{"android":"levelo://app?vid=a601793f-2b5e-4f15-b76e-8c54ae0448f5","ios":"levelo://app?vid=a601793f-2b5e-4f15-b76e-8c54ae0448f5"},"vehicle_type_id":"4","last_reported":1738753669,"current_range_meters":38800,"station_id":"ce4bh9p2rcd13ifvqed0","pricing_plan_id":"cebpf4jnsgd1na2vs0mg"},{"bike_id":"63c732f1-6e14-42c0-89fa-de14ad6b19d9","system_id":"levelo_inurba_marseille","lat":43.27057,"lon":5.40263,"is_reserved":false,"is_disabled":false,"rental_uris":{"android":"levelo://app?vid=63c732f1-6e14-42c0-89fa-de14ad6b19d9","ios":"levelo://app?vid=63c732f1-6e14-42c0-89fa-de14ad6b19d9"},"vehicle_type_id":"4","last_reported":1738753669,"current_range_meters":28400,"station_id":"ce4bhk92rcd13ifvqgc0","pricing_plan_id":"cebpf4jnsgd1na2vs0mg"},{"bike_id":"c644fe7c-e90b-45f3-8ac2-8bc5eae3a4cf","system_id":"levelo_inurba_marseille","lat":43.30468,"lon":5.3791,"is_reserved":false,"is_disabled":false,"rental_uris":{"android":"levelo://app?vid=c644fe7c-e90b-45f3-8ac2-8bc5eae3a4cf","ios":"levelo://app?vid=c644fe7c-e90b-45f3-8ac2-8bc5eae3a4cf"},"vehicle_type_id":"4","last_reported":1738753669,"current_range_meters":36800,"station_id":"ce4bgup2rcd13ifvqcn0","pricing_plan_id":"cebpf4jnsgd1na2vs0mg"},{"bike_id":"7bf1dd2a-42c4-4b8e-ad09-ace0d60f7028","system_id":"levelo_inurba_marseille","lat":43.30522,"lon":5.36564,"is_reserved":false,"is_disabled":false,"rental_uris":{"android":"levelo://app?vid=7bf1dd2a-42c4-4b8e-ad09-ace0d60f7028","ios":"levelo://app?vid=7bf1dd2a-42c4-4b8e-ad09-ace0d60f7028"},"vehicle_type_id":"4","last_reported":1738753669,"current_range_meters":38800,"station_id":"ce4bgs12rcd13ifvqcag","pricing_plan_id":"cebpf4jnsgd1na2vs0mg"},{"bike_id":"670607e9-4eb5-4e91-872c-faf711f77402","system_id":"levelo_inurba_marseille","lat":43.28972,"lon":5.37848,"is_reserved":false,"is_disabled":false,"rental_uris":{"android":"levelo://app?vid=670607e9-4eb5-4e91-872c-faf711f77402","ios":"levelo://app?vid=670607e9-4eb5-4e91-872c-faf711f77402"},"vehicle_type_id":"4","last_reported":1738753669,"current_range_meters":39200,"station_id":"ce4bh9p2rcd13ifvqed0","pricing_plan_id":"cebpf4jnsgd1na2vs0mg"},{"bike_id":"28d56fc1-26a3-4b1a-9e30-4ebde42ead0c","system_id":"levelo_inurba_marseille","lat":43.30964,"lon":5.39035,"is_reserved":false,"is_disabled":false,"rental_uris":{"android":"levelo://app?vid=28d56fc1-26a3-4b1a-9e30-4ebde42ead0c","ios":"levelo://app?vid=28d56fc1-26a3-4b1a-9e30-4ebde42ead0c"},"vehicle_type_id":"4","last_reported":1738753669,"current_range_meters":38000,"station_id":"ce4bgup2rcd13ifvqco0","pricing_plan_id":"cebpf4jnsgd1na2vs0mg"},{"bike_id":"013a082d-a56a-47f5-9763-af502ea1493e","system_id":"levelo_inurba_marseille","lat":43.32031,"lon":5.41571,"is_reserved":false,"is_disabled":false,"rental_uris":{"android":"levelo://app?vid=013a082d-a56a-47f5-9763-af502ea1493e","ios":"levelo://app?vid=013a082d-a56a-47f5-9763-af502ea1493e"},"vehicle_type_id":"4","last_reported":1738753669,"current_range_meters":34000,"station_id":"ce4bhq92rcd13ifvqhkg","pricing_plan_id":"cebpf4jnsgd1na2vs0mg"},{"bike_id":"2e1fd84a-93c0-4e60-908d-3675bdd34c0e","system_id":"levelo_inurba_marseille","lat":43.22942,"lon":5.35369,"is_reserved":false,"is_disabled":false,"rental_uris":{"android":"levelo://app?vid=2e1fd84a-93c0-4e60-908d-3675bdd34c0e","ios":"levelo://app?vid=2e1fd84a-93c0-4e60-908d-3675bdd34c0e"},"vehicle_type_id":"4","last_reported":1738753669,"current_range_meters":5600,"station_id":"cpo3532slgdg3j2ikp40","pricing_plan_id":"cebpf4jnsgd1na2vs0mg"},{"bike_id":"589a0d6a-3f59-4c10-b4aa-574eabb1c9aa","system_id":"levelo_inurba_marseille","lat":43.3046,"lon":5.379,"is_reserved":false,"is_disabled":false,"rental_uris":{"android":"levelo://app?vid=589a0d6a-3f59-4c10-b4aa-574eabb1c9aa","ios":"levelo://app?vid=589a0d6a-3f59-4c10-b4aa-574eabb1c9aa"},"vehicle_type_id":"4","last_reported":1738753669,"current_range_meters":10000,"station_id":"ce4bgup2rcd13ifvqcn0","pricing_plan_id":"cebpf4jnsgd1na2vs0mg"},{"bike_id":"962646f7-90d3-45dd-b3f9-254502912c1d","system_id":"levelo_inurba_marseille","lat":43.29288,"lon":5.374518,"is_reserved":false,"is_disabled":false,"rental_uris":{"android":"levelo://app?vid=962646f7-90d3-45dd-b3f9-254502912c1d","ios":"levelo://app?vid=962646f7-90d3-45dd-b3f9-254502912c1d"},"vehicle_type_id":"4","last_reported":1738753669,"current_range_meters":38800,"station_id":"ce4bgi12rcd13ifvqb70","pricing_plan_id":"cebpf4jnsgd1na2vs0mg"},{"bike_id":"19dd9c2e-cef0-4d2b-a66c-51d7760c52c3","system_id":"levelo_inurba_marseille","lat":43.30528,"lon":5.3655,"is_reserved":false,"is_disabled":false,"rental_uris":{"android":"levelo://app?vid=19dd9c2e-cef0-4d2b-a66c-51d7760c52c3","ios":"levelo://app?vid=19dd9c2e-cef0-4d2b-a66c-51d7760c52c3"},"vehicle_type_id":"4","last_reported":1738753669,"current_range_meters":35200,"station_id":"ce4bgs12rcd13ifvqcag","pricing_plan_id":"cebpf4jnsgd1na2vs0mg"},{"bike_id":"35b0fbe6-22db-46fb-a54a-76af362a8729","system_id":"levelo_inurba_marseille","lat":43.29963,"lon":5.4134,"is_reserved":false,"is_disabled":false,"rental_uris":{"android":"levelo://app?vid=35b0fbe6-22db-46fb-a54a-76af362a8729","ios":"levelo://app?vid=35b0fbe6-22db-46fb-a54a-76af362a8729"},"vehicle_type_id":"4","last_reported":1738753669,"current_range_meters":38400,"station_id":"ce4bhp12rcd13ifvqh9g","pricing_plan_id":"cebpf4jnsgd1na2vs0mg"},{"bike_id":"e0f7f9ed-22a0-47a7-b08f-334aecb96c7a","system_id":"levelo_inurba_marseille","lat":43.30306,"lon":5.36909,"is_reserved":false,"is_disabled":false,"rental_uris":{"android":"levelo://app?vid=e0f7f9ed-22a0-47a7-b08f-334aecb96c7a","ios":"levelo://app?vid=e0f7f9ed-22a0-47a7-b08f-334aecb96c7a"},"vehicle_type_id":"4","last_reported":1738753669,"current_range_meters":12000,"station_id":"ce4bgqh2rcd13ifvqc5g","pricing_plan_id":"cebpf4jnsgd1na2vs0mg"},{"bike_id":"857707e2-f97f-4393-895f-aef91c3932b1","system_id":"levelo_inurba_marseille","lat":43.29968,"lon":5.37198,"is_reserved":false,"is_disabled":false,"rental_uris":{"android":"levelo://app?vid=857707e2-f97f-4393-895f-aef91c3932b1","ios":"levelo://app?vid=857707e2-f97f-4393-895f-aef91c3932b1"},"vehicle_type_id":"4","last_reported":1738753669,"current_range_meters":38800,"station_id":"ce4bgr92rcd13ifvqc7g","pricing_plan_id":"cebpf4jnsgd1na2vs0mg"},{"bike_id":"57e8ce25-68ea-4e4c-8150-2cfca47e6f94","system_id":"levelo_inurba_marseille","lat":43.29779,"lon":5.38107,"is_reserved":false,"is_disabled":false,"rental_uris":{"android":"levelo://app?vid=57e8ce25-68ea-4e4c-8150-2cfca47e6f94","ios":"levelo://app?vid=57e8ce25-68ea-4e4c-8150-2cfca47e6f94"},"vehicle_type_id":"4","last_reported":1738753669,"current_range_meters":17200,"station_id":"ce4bgip2rcd13ifvqbb0","pricing_plan_id":"cebpf4jnsgd1na2vs0mg"},{"bike_id":"ea6909c8-24f9-4bcf-8882-99e672644073","system_id":"levelo_inurba_marseille","lat":43.2466,"lon":5.38166,"is_reserved":false,"is_disabled":false,"rental_uris":{"android":"levelo://app?vid=ea6909c8-24f9-4bcf-8882-99e672644073","ios":"levelo://app?vid=ea6909c8-24f9-4bcf-8882-99e672644073"},"vehicle_type_id":"4","last_reported":1738753669,"current_range_meters":26000,"station_id":"ce4bhih2rcd13ifvqfr0","pricing_plan_id":"cebpf4jnsgd1na2vs0mg"},{"bike_id":"500afed6-5d5b-4f21-bb8e-fb654b4db188","system_id":"levelo_inurba_marseille","lat":43.28162,"lon":5.42726,"is_reserved":false,"is_disabled":false,"rental_uris":{"android":"levelo://app?vid=500afed6-5d5b-4f21-bb8e-fb654b4db188","ios":"levelo://app?vid=500afed6-5d5b-4f21-bb8e-fb654b4db188"},"vehicle_type_id":"4","last_reported":1738753669,"current_range_meters":33200,"station_id":"","pricing_plan_id":"cebpf4jnsgd1na2vs0mg"},{"bike_id":"918cd003-67b8-472e-a6c6-83ef5c6b9293","system_id":"levelo_inurba_marseille","lat":43.29195,"lon":5.3581,"is_reserved":false,"is_disabled":false,"rental_uris":{"android":"levelo://app?vid=918cd003-67b8-472e-a6c6-83ef5c6b9293","ios":"levelo://app?vid=918cd003-67b8-472e-a6c6-83ef5c6b9293"},"vehicle_type_id":"4","last_reported":1738753669,"current_range_meters":39200,"station_id":"ce4bhb12rcd13ifvqel0","pricing_plan_id":"cebpf4jnsgd1na2vs0mg"},{"bike_id":"ff52f4b1-a06d-475c-b0fc-ce6749154097","system_id":"levelo_inurba_marseille","lat":43.27031,"lon":5.40271,"is_reserved":false,"is_disabled":false,"rental_uris":{"android":"levelo://app?vid=ff52f4b1-a06d-475c-b0fc-ce6749154097","ios":"levelo://app?vid=ff52f4b1-a06d-475c-b0fc-ce6749154097"},"vehicle_type_id":"4","last_reported":1738753669,"current_range_meters":8400,"station_id":"ce4bhk92rcd13ifvqgc0","pricing_plan_id":"cebpf4jnsgd1na2vs0mg"},{"bike_id":"5e72f43e-2f81-4888-b452-7d85fd4f2caf","system_id":"levelo_inurba_marseille","lat":43.30136,"lon":5.39852,"is_reserved":false,"is_disabled":false,"rental_uris":{"android":"levelo://app?vid=5e72f43e-2f81-4888-b452-7d85fd4f2caf","ios":"levelo://app?vid=5e72f43e-2f81-4888-b452-7d85fd4f2caf"},"vehicle_type_id":"4","last_reported":1738753669,"current_range_meters":19600,"station_id":"ce4bh0h2rcd13ifvqd40","pricing_plan_id":"cebpf4jnsgd1na2vs0mg"},{"bike_id":"7d5a071b-33d0-4a99-a7a2-905e423e155c","system_id":"levelo_inurba_marseille","lat":43.23965,"lon":5.36644,"is_reserved":false,"is_disabled":false,"rental_uris":{"android":"levelo://app?vid=7d5a071b-33d0-4a99-a7a2-905e423e155c","ios":"levelo://app?vid=7d5a071b-33d0-4a99-a7a2-905e423e155c"},"vehicle_type_id":"4","last_reported":1738753669,"current_range_meters":36400,"station_id":"ce4bhi12rcd13ifvqfp0","pricing_plan_id":"cebpf4jnsgd1na2vs0mg"},{"bike_id":"b8a5590f-b8dd-4723-9d52-7fe8076593b7","system_id":"levelo_inurba_marseille","lat":43.30174,"lon":5.38107,"is_reserved":false,"is_disabled":false,"rental_uris":{"android":"levelo://app?vid=b8a5590f-b8dd-4723-9d52-7fe8076593b7","ios":"levelo://app?vid=b8a5590f-b8dd-4723-9d52-7fe8076593b7"},"vehicle_type_id":"4","last_reported":1738753669,"current_range_meters":32000,"station_id":"ce4bgjp2rcd13ifvqbh0","pricing_plan_id":"cebpf4jnsgd1na2vs0mg"},{"bike_id":"931c3b97-cce1-4ebe-a291-6c50a6f2810e","system_id":"levelo_inurba_marseille","lat":43.31801,"lon":5.37433,"is_reserved":false,"is_disabled":false,"rental_uris":{"android":"levelo://app?vid=931c3b97-cce1-4ebe-a291-6c50a6f2810e","ios":"levelo://app?vid=931c3b97-cce1-4ebe-a291-6c50a6f2810e"},"vehicle_type_id":"4","last_reported":1738753669,"current_range_meters":6800,"station_id":"","pricing_plan_id":"cebpf4jnsgd1na2vs0mg"},{"bike_id":"d1d51ec2-e1ab-4b92-9a4b-f935b04ef436","system_id":"levelo_inurba_marseille","lat":43.25009,"lon":5.38916,"is_reserved":false,"is_disabled":false,"rental_uris":{"android":"levelo://app?vid=d1d51ec2-e1ab-4b92-9a4b-f935b04ef436","ios":"levelo://app?vid=d1d51ec2-e1ab-4b92-9a4b-f935b04ef436"},"vehicle_type_id":"4","last_reported":1738753669,"current_range_meters":19200,"station_id":"ce4bhgp2rcd13ifvqfd0","pricing_plan_id":"cebpf4jnsgd1na2vs0mg"},{"bike_id":"7d44cb31-d01e-4547-9973-dcd3966d8338","system_id":"levelo_inurba_marseille","lat":43.29376,"lon":5.3784,"is_reserved":false,"is_disabled":false,"rental_uris":{"android":"levelo://app?vid=7d44cb31-d01e-4547-9973-dcd3966d8338","ios":"levelo://app?vid=7d44cb31-d01e-4547-9973-dcd3966d8338"},"vehicle_type_id":"4","last_reported":1738753669,"current_range_meters":30400,"station_id":"ce4bgjh2rcd13ifvqbf0","pricing_plan_id":"cebpf4jnsgd1na2vs0mg"},{"bike_id":"7a2080c9-d44a-471c-9acd-526428e8e5dc","system_id":"levelo_inurba_marseille","lat":43.22941,"lon":5.35383,"is_reserved":false,"is_disabled":false,"rental_uris":{"android":"levelo://app?vid=7a2080c9-d44a-471c-9acd-526428e8e5dc","ios":"levelo://app?vid=7a2080c9-d44a-471c-9acd-526428e8e5dc"},"vehicle_type_id":"4","last_reported":1738753669,"current_range_meters":39200,"station_id":"cpo3532slgdg3j2ikp40","pricing_plan_id":"cebpf4jnsgd1na2vs0mg"},{"bike_id":"5e7872bf-6d44-4209-9e94-a728a908b09f","system_id":"levelo_inurba_marseille","lat":43.31327,"lon":5.3969,"is_reserved":false,"is_disabled":false,"rental_uris":{"android":"levelo://app?vid=5e7872bf-6d44-4209-9e94-a728a908b09f","ios":"levelo://app?vid=5e7872bf-6d44-4209-9e94-a728a908b09f"},"vehicle_type_id":"4","last_reported":1738753669,"current_range_meters":18000,"station_id":"ce4bgvp2rcd13ifvqcu0","pricing_plan_id":"cebpf4jnsgd1na2vs0mg"},{"bike_id":"3cffe561-5575-4d5f-9a3c-4ee740a5b122","system_id":"levelo_inurba_marseille","lat":43.27956,"lon":5.41055,"is_reserved":false,"is_disabled":false,"rental_uris":{"android":"levelo://app?vid=3cffe561-5575-4d5f-9a3c-4ee740a5b122","ios":"levelo://app?vid=3cffe561-5575-4d5f-9a3c-4ee740a5b122"},"vehicle_type_id":"4","last_reported":1738753669,"current_range_meters":24800,"station_id":"ce4bhnp2rcd13ifvqh0g","pricing_plan_id":"cebpf4jnsgd1na2vs0mg"},{"bike_id":"5a0240c7-c3ca-4775-ac37-3e98d6944550","system_id":"levelo_inurba_marseille","lat":43.31952,"lon":5.40824,"is_reserved":false,"is_disabled":false,"rental_uris":{"android":"levelo://app?vid=5a0240c7-c3ca-4775-ac37-3e98d6944550","ios":"levelo://app?vid=5a0240c7-c3ca-4775-ac37-3e98d6944550"},"vehicle_type_id":"4","last_reported":1738753669,"current_range_meters":38800,"station_id":"","pricing_plan_id":"cebpf4jnsgd1na2vs0mg"},{"bike_id":"f307dfc9-492f-427c-886b-0aebd0c4a217","system_id":"levelo_inurba_marseille","lat":43.2417,"lon":5.364,"is_reserved":false,"is_disabled":false,"rental_uris":{"android":"levelo://app?vid=f307dfc9-492f-427c-886b-0aebd0c4a217","ios":"levelo://app?vid=f307dfc9-492f-427c-886b-0aebd0c4a217"},"vehicle_type_id":"4","last_reported":1738753669,"current_range_meters":38800,"station_id":"cpo36qri1sfpv3e86is0","pricing_plan_id":"cebpf4jnsgd1na2vs0mg"},{"bike_id":"8f8ddb28-7047-4c37-b3a6-fb9d30a5cee7","system_id":"levelo_inurba_marseille","lat":43.28945,"lon":5.39652,"is_reserved":false,"is_disabled":false,"rental_uris":{"android":"levelo://app?vid=8f8ddb28-7047-4c37-b3a6-fb9d30a5cee7","ios":"levelo://app?vid=8f8ddb28-7047-4c37-b3a6-fb9d30a5cee7"},"vehicle_type_id":"4","last_reported":1738753669,"current_range_meters":38800,"station_id":"ce4bh3h2rcd13ifvqdn0","pricing_plan_id":"cebpf4jnsgd1na2vs0mg"},{"bike_id":"246926c2-4963-42b8-9129-7edcdb3dd594","system_id":"levelo_inurba_marseille","lat":43.24649,"lon":5.3817,"is_reserved":false,"is_disabled":false,"rental_uris":{"android":"levelo://app?vid=246926c2-4963-42b8-9129-7edcdb3dd594","ios":"levelo://app?vid=246926c2-4963-42b8-9129-7edcdb3dd594"},"vehicle_type_id":"4","last_reported":1738753669,"current_range_meters":22800,"station_id":"ce4bhih2rcd13ifvqfr0","pricing_plan_id":"cebpf4jnsgd1na2vs0mg"},{"bike_id":"fe16e7cb-f31e-4379-8c3d-58b07351d1b6","system_id":"levelo_inurba_marseille","lat":43.304161,"lon":5.397392,"is_reserved":false,"is_disabled":false,"rental_uris":{"android":"levelo://app?vid=fe16e7cb-f31e-4379-8c3d-58b07351d1b6","ios":"levelo://app?vid=fe16e7cb-f31e-4379-8c3d-58b07351d1b6"},"vehicle_type_id":"4","last_reported":1738753669,"current_range_meters":38400,"station_id":"ce4bh092rcd13ifvqd20","pricing_plan_id":"cebpf4jnsgd1na2vs0mg"},{"bike_id":"0aa5a2a9-70c0-4417-85c6-da8ce82b3540","system_id":"levelo_inurba_marseille","lat":43.29002,"lon":5.35615,"is_reserved":false,"is_disabled":false,"rental_uris":{"android":"levelo://app?vid=0aa5a2a9-70c0-4417-85c6-da8ce82b3540","ios":"levelo://app?vid=0aa5a2a9-70c0-4417-85c6-da8ce82b3540"},"vehicle_type_id":"4","last_reported":1738753669,"current_range_meters":24000,"station_id":"ce4bhb92rcd13ifvqen0","pricing_plan_id":"cebpf4jnsgd1na2vs0mg"},{"bike_id":"fc34d4a5-d155-4e65-9b57-5b5b88ec9869","system_id":"levelo_inurba_marseille","lat":43.27441,"lon":5.39406,"is_reserved":false,"is_disabled":false,"rental_uris":{"android":"levelo://app?vid=fc34d4a5-d155-4e65-9b57-5b5b88ec9869","ios":"levelo://app?vid=fc34d4a5-d155-4e65-9b57-5b5b88ec9869"},"vehicle_type_id":"4","last_reported":1738753669,"current_range_meters":38400,"station_id":"ce4bhdp2rcd13ifvqf20","pricing_plan_id":"cebpf4jnsgd1na2vs0mg"},{"bike_id":"448a689e-af6c-4f92-9f89-b02f7ed2ec01","system_id":"levelo_inurba_marseille","lat":43.28104,"lon":5.3784,"is_reserved":false,"is_disabled":true,"rental_uris":{"android":"levelo://app?vid=448a689e-af6c-4f92-9f89-b02f7ed2ec01","ios":"levelo://app?vid=448a689e-af6c-4f92-9f89-b02f7ed2ec01"},"vehicle_type_id":"4","last_reported":1738753669,"current_range_meters":12400,"station_id":"ce4bha12rcd13ifvqee0","pricing_plan_id":"cebpf4jnsgd1na2vs0mg"},{"bike_id":"8e0a0553-d4ce-4a58-bdf9-cddf2b79af95","system_id":"levelo_inurba_marseille","lat":43.27981,"lon":5.40102,"is_reserved":false,"is_disabled":false,"rental_uris":{"android":"levelo://app?vid=8e0a0553-d4ce-4a58-bdf9-cddf2b79af95","ios":"levelo://app?vid=8e0a0553-d4ce-4a58-bdf9-cddf2b79af95"},"vehicle_type_id":"4","last_reported":1738753669,"current_range_meters":38400,"station_id":"","pricing_plan_id":"cebpf4jnsgd1na2vs0mg"},{"bike_id":"abd07a97-530b-4fc0-93db-ff4b041bb8b9","system_id":"levelo_inurba_marseille","lat":43.30223,"lon":5.36627,"is_reserved":false,"is_disabled":false,"rental_uris":{"android":"levelo://app?vid=abd07a97-530b-4fc0-93db-ff4b041bb8b9","ios":"levelo://app?vid=abd07a97-530b-4fc0-93db-ff4b041bb8b9"},"vehicle_type_id":"4","last_reported":1738753669,"current_range_meters":30800,"station_id":"ce4bgrh2rcd13ifvqc8g","pricing_plan_id":"cebpf4jnsgd1na2vs0mg"},{"bike_id":"f1220f4e-b70d-4edc-947e-272ae3d4c0d7","system_id":"levelo_inurba_marseille","lat":43.336104,"lon":5.41032,"is_reserved":false,"is_disabled":false,"rental_uris":{"android":"levelo://app?vid=f1220f4e-b70d-4edc-947e-272ae3d4c0d7","ios":"levelo://app?vid=f1220f4e-b70d-4edc-947e-272ae3d4c0d7"},"vehicle_type_id":"4","last_reported":1738753669,"current_range_meters":19200,"station_id":"ce4bhqh2rcd13ifvqhmg","pricing_plan_id":"cebpf4jnsgd1na2vs0mg"},{"bike_id":"3ed2f346-3cdc-4051-b18a-2a05168e6e32","system_id":"levelo_inurba_marseille","lat":43.31053,"lon":5.40092,"is_reserved":false,"is_disabled":false,"rental_uris":{"android":"levelo://app?vid=3ed2f346-3cdc-4051-b18a-2a05168e6e32","ios":"levelo://app?vid=3ed2f346-3cdc-4051-b18a-2a05168e6e32"},"vehicle_type_id":"4","last_reported":1738753669,"current_range_meters":30800,"station_id":"","pricing_plan_id":"cebpf4jnsgd1na2vs0mg"},{"bike_id":"bc4186b3-1073-492b-ab95-0326a7b12d0e","system_id":"levelo_inurba_marseille","lat":43.28409,"lon":5.34998,"is_reserved":false,"is_disabled":false,"rental_uris":{"android":"levelo://app?vid=bc4186b3-1073-492b-ab95-0326a7b12d0e","ios":"levelo://app?vid=bc4186b3-1073-492b-ab95-0326a7b12d0e"},"vehicle_type_id":"4","last_reported":1738753669,"current_range_meters":36400,"station_id":"ce4bhbh2rcd13ifvqepg","pricing_plan_id":"cebpf4jnsgd1na2vs0mg"},{"bike_id":"fb1830e2-f6fc-4fde-afda-8615e8ed9c4a","system_id":"levelo_inurba_marseille","lat":43.26189,"lon":5.37498,"is_reserved":false,"is_disabled":false,"rental_uris":{"android":"levelo://app?vid=fb1830e2-f6fc-4fde-afda-8615e8ed9c4a","ios":"levelo://app?vid=fb1830e2-f6fc-4fde-afda-8615e8ed9c4a"},"vehicle_type_id":"4","last_reported":1738753669,"current_range_meters":38800,"station_id":"ce4bhgp2rcd13ifvqfc0","pricing_plan_id":"cebpf4jnsgd1na2vs0mg"},{"bike_id":"0389b0e3-bb7d-4743-89c2-0175efe92f67","system_id":"levelo_inurba_marseille","lat":43.32451,"lon":5.36567,"is_reserved":false,"is_disabled":false,"rental_uris":{"android":"levelo://app?vid=0389b0e3-bb7d-4743-89c2-0175efe92f67","ios":"levelo://app?vid=0389b0e3-bb7d-4743-89c2-0175efe92f67"},"vehicle_type_id":"4","last_reported":1738753669,"current_range_meters":27200,"station_id":"ce4bhs12rcd13ifvqhvg","pricing_plan_id":"cebpf4jnsgd1na2vs0mg"},{"bike_id":"0ba40ab8-9849-4ead-ad0d-88b309d7b65e","system_id":"levelo_inurba_marseille","lat":43.29857,"lon":5.36298,"is_reserved":false,"is_disabled":false,"rental_uris":{"android":"levelo://app?vid=0ba40ab8-9849-4ead-ad0d-88b309d7b65e","ios":"levelo://app?vid=0ba40ab8-9849-4ead-ad0d-88b309d7b65e"},"vehicle_type_id":"4","last_reported":1738753669,"current_range_meters":26800,"station_id":"ce4bgpp2rcd13ifvqc3g","pricing_plan_id":"cebpf4jnsgd1na2vs0mg"},{"bike_id":"995602d1-3bbf-49b9-bbf7-f2386d173ccc","system_id":"levelo_inurba_marseille","lat":43.29603,"lon":5.38109,"is_reserved":false,"is_disabled":false,"rental_uris":{"android":"levelo://app?vid=995602d1-3bbf-49b9-bbf7-f2386d173ccc","ios":"levelo://app?vid=995602d1-3bbf-49b9-bbf7-f2386d173ccc"},"vehicle_type_id":"4","last_reported":1738753669,"current_range_meters":6000,"station_id":"ce4bgl12rcd13ifvqbo0","pricing_plan_id":"cebpf4jnsgd1na2vs0mg"},{"bike_id":"2b52254f-933d-4903-ac07-21eb27a1e798","system_id":"levelo_inurba_marseille","lat":43.271782,"lon":5.410057,"is_reserved":false,"is_disabled":false,"rental_uris":{"android":"levelo://app?vid=2b52254f-933d-4903-ac07-21eb27a1e798","ios":"levelo://app?vid=2b52254f-933d-4903-ac07-21eb27a1e798"},"vehicle_type_id":"4","last_reported":1738753669,"current_range_meters":6400,"station_id":"ce4bhl12rcd13ifvqgf0","pricing_plan_id":"cebpf4jnsgd1na2vs0mg"},{"bike_id":"5b6b8ad3-d9d2-4f57-aad7-ae29c85c2423","system_id":"levelo_inurba_marseille","lat":43.29786,"lon":5.38103,"is_reserved":false,"is_disabled":false,"rental_uris":{"android":"levelo://app?vid=5b6b8ad3-d9d2-4f57-aad7-ae29c85c2423","ios":"levelo://app?vid=5b6b8ad3-d9d2-4f57-aad7-ae29c85c2423"},"vehicle_type_id":"4","last_reported":1738753669,"current_range_meters":16000,"station_id":"ce4bgip2rcd13ifvqbb0","pricing_plan_id":"cebpf4jnsgd1na2vs0mg"},{"bike_id":"5446a734-e212-4c3d-97c0-7e16b7a456b9","system_id":"levelo_inurba_marseille","lat":43.23137,"lon":5.43709,"is_reserved":false,"is_disabled":false,"rental_uris":{"android":"levelo://app?vid=5446a734-e212-4c3d-97c0-7e16b7a456b9","ios":"levelo://app?vid=5446a734-e212-4c3d-97c0-7e16b7a456b9"},"vehicle_type_id":"4","last_reported":1738753669,"current_range_meters":23200,"station_id":"ce4bhmp2rcd13ifvqgog","pricing_plan_id":"cebpf4jnsgd1na2vs0mg"},{"bike_id":"1ed7de5d-dac1-46be-94a3-d6d5f8043023","system_id":"levelo_inurba_marseille","lat":43.31199,"lon":5.36839,"is_reserved":false,"is_disabled":false,"rental_uris":{"android":"levelo://app?vid=1ed7de5d-dac1-46be-94a3-d6d5f8043023","ios":"levelo://app?vid=1ed7de5d-dac1-46be-94a3-d6d5f8043023"},"vehicle_type_id":"4","last_reported":1738753669,"current_range_meters":29600,"station_id":"ce4bgl92rcd13ifvqbq0","pricing_plan_id":"cebpf4jnsgd1na2vs0mg"},{"bike_id":"a69563ae-6703-48af-9682-6911b8b4b857","system_id":"levelo_inurba_marseille","lat":43.28485,"lon":5.38552,"is_reserved":false,"is_disabled":false,"rental_uris":{"android":"levelo://app?vid=a69563ae-6703-48af-9682-6911b8b4b857","ios":"levelo://app?vid=a69563ae-6703-48af-9682-6911b8b4b857"},"vehicle_type_id":"4","last_reported":1738753669,"current_range_meters":24400,"station_id":"ce4bh8p2rcd13ifvqeb0","pricing_plan_id":"cebpf4jnsgd1na2vs0mg"},{"bike_id":"66bf7aac-41ec-4d2e-8eb8-038c8047b83b","system_id":"levelo_inurba_marseille","lat":43.32043,"lon":5.41549,"is_reserved":false,"is_disabled":false,"rental_uris":{"android":"levelo://app?vid=66bf7aac-41ec-4d2e-8eb8-038c8047b83b","ios":"levelo://app?vid=66bf7aac-41ec-4d2e-8eb8-038c8047b83b"},"vehicle_type_id":"4","last_reported":1738753669,"current_range_meters":32800,"station_id":"ce4bhq92rcd13ifvqhkg","pricing_plan_id":"cebpf4jnsgd1na2vs0mg"},{"bike_id":"8d9378bc-2076-4b1a-94fe-3b5ea6a9894e","system_id":"levelo_inurba_marseille","lat":43.29011,"lon":5.38119,"is_reserved":false,"is_disabled":true,"rental_uris":{"android":"levelo://app?vid=8d9378bc-2076-4b1a-94fe-3b5ea6a9894e","ios":"levelo://app?vid=8d9378bc-2076-4b1a-94fe-3b5ea6a9894e"},"vehicle_type_id":"4","last_reported":1738753669,"current_range_meters":37600,"station_id":"ce4bh4p2rcd13ifvqe1g","pricing_plan_id":"cebpf4jnsgd1na2vs0mg"},{"bike_id":"cbc65456-707b-4ddd-b341-f003b676778a","system_id":"levelo_inurba_marseille","lat":43.27806,"lon":5.40713,"is_reserved":false,"is_disabled":false,"rental_uris":{"android":"levelo://app?vid=cbc65456-707b-4ddd-b341-f003b676778a","ios":"levelo://app?vid=cbc65456-707b-4ddd-b341-f003b676778a"},"vehicle_type_id":"4","last_reported":1738753669,"current_range_meters":30400,"station_id":"ce4bhnh2rcd13ifvqgtg","pricing_plan_id":"cebpf4jnsgd1na2vs0mg"},{"bike_id":"c44cd044-94ee-41e8-9d02-5cc414091c06","system_id":"levelo_inurba_marseille","lat":43.28693,"lon":5.37401,"is_reserved":false,"is_disabled":false,"rental_uris":{"android":"levelo://app?vid=c44cd044-94ee-41e8-9d02-5cc414091c06","ios":"levelo://app?vid=c44cd044-94ee-41e8-9d02-5cc414091c06"},"vehicle_type_id":"4","last_reported":1738753669,"current_range_meters":26000,"station_id":"ce4bh3p2rcd13ifvqdq0","pricing_plan_id":"cebpf4jnsgd1na2vs0mg"},{"bike_id":"46fe30cc-c6f1-4adf-b53a-00ddc5da1326","system_id":"levelo_inurba_marseille","lat":43.301313,"lon":5.387783,"is_reserved":false,"is_disabled":false,"rental_uris":{"android":"levelo://app?vid=46fe30cc-c6f1-4adf-b53a-00ddc5da1326","ios":"levelo://app?vid=46fe30cc-c6f1-4adf-b53a-00ddc5da1326"},"vehicle_type_id":"4","last_reported":1738753669,"current_range_meters":38800,"station_id":"ce4bhoh2rcd13ifvqh6g","pricing_plan_id":"cebpf4jnsgd1na2vs0mg"},{"bike_id":"26d397a9-61ee-400d-a6b0-dc8b026ea3e4","system_id":"levelo_inurba_marseille","lat":43.29638,"lon":5.37148,"is_reserved":false,"is_disabled":false,"rental_uris":{"android":"levelo://app?vid=26d397a9-61ee-400d-a6b0-dc8b026ea3e4","ios":"levelo://app?vid=26d397a9-61ee-400d-a6b0-dc8b026ea3e4"},"vehicle_type_id":"4","last_reported":1738753669,"current_range_meters":31200,"station_id":"ce4bgnh2rcd13ifvqc0g","pricing_plan_id":"cebpf4jnsgd1na2vs0mg"},{"bike_id":"cc332521-0e7d-4b33-9709-6b098d135cfc","system_id":"levelo_inurba_marseille","lat":43.30537,"lon":5.38432,"is_reserved":false,"is_disabled":false,"rental_uris":{"android":"levelo://app?vid=cc332521-0e7d-4b33-9709-6b098d135cfc","ios":"levelo://app?vid=cc332521-0e7d-4b33-9709-6b098d135cfc"},"vehicle_type_id":"4","last_reported":1738753669,"current_range_meters":38000,"station_id":"ce4bgg92rcd13ifvqb30","pricing_plan_id":"cebpf4jnsgd1na2vs0mg"},{"bike_id":"a9ee38d0-21e8-4d99-8e3f-cc643e32473e","system_id":"levelo_inurba_marseille","lat":43.27815,"lon":5.40717,"is_reserved":false,"is_disabled":false,"rental_uris":{"android":"levelo://app?vid=a9ee38d0-21e8-4d99-8e3f-cc643e32473e","ios":"levelo://app?vid=a9ee38d0-21e8-4d99-8e3f-cc643e32473e"},"vehicle_type_id":"4","last_reported":1738753669,"current_range_meters":38000,"station_id":"ce4bhnh2rcd13ifvqgtg","pricing_plan_id":"cebpf4jnsgd1na2vs0mg"},{"bike_id":"275abebb-de98-4d50-b780-e7bfae1098db","system_id":"levelo_inurba_marseille","lat":43.2848,"lon":5.3854,"is_reserved":false,"is_disabled":false,"rental_uris":{"android":"levelo://app?vid=275abebb-de98-4d50-b780-e7bfae1098db","ios":"levelo://app?vid=275abebb-de98-4d50-b780-e7bfae1098db"},"vehicle_type_id":"4","last_reported":1738753669,"current_range_meters":38800,"station_id":"ce4bh8p2rcd13ifvqeb0","pricing_plan_id":"cebpf4jnsgd1na2vs0mg"},{"bike_id":"630dd466-e4dd-4ada-8a39-01e92abf0818","system_id":"levelo_inurba_marseille","lat":43.26213,"lon":5.37481,"is_reserved":false,"is_disabled":false,"rental_uris":{"android":"levelo://app?vid=630dd466-e4dd-4ada-8a39-01e92abf0818","ios":"levelo://app?vid=630dd466-e4dd-4ada-8a39-01e92abf0818"},"vehicle_type_id":"4","last_reported":1738753669,"current_range_meters":29600,"station_id":"ce4bhgp2rcd13ifvqfc0","pricing_plan_id":"cebpf4jnsgd1na2vs0mg"},{"bike_id":"148ebf1c-0c4a-4bca-80d0-096264c9b011","system_id":"levelo_inurba_marseille","lat":43.31257,"lon":5.36875,"is_reserved":false,"is_disabled":false,"rental_uris":{"android":"levelo://app?vid=148ebf1c-0c4a-4bca-80d0-096264c9b011","ios":"levelo://app?vid=148ebf1c-0c4a-4bca-80d0-096264c9b011"},"vehicle_type_id":"4","last_reported":1738753669,"current_range_meters":38800,"station_id":"ce4bgl92rcd13ifvqbq0","pricing_plan_id":"cebpf4jnsgd1na2vs0mg"},{"bike_id":"a7d1b2eb-ec1d-462d-bb64-026e558c1dec","system_id":"levelo_inurba_marseille","lat":43.29525,"lon":5.39399,"is_reserved":false,"is_disabled":false,"rental_uris":{"android":"levelo://app?vid=a7d1b2eb-ec1d-462d-bb64-026e558c1dec","ios":"levelo://app?vid=a7d1b2eb-ec1d-462d-bb64-026e558c1dec"},"vehicle_type_id":"4","last_reported":1738753669,"current_range_meters":32800,"station_id":"ce4bh292rcd13ifvqdf0","pricing_plan_id":"cebpf4jnsgd1na2vs0mg"},{"bike_id":"164d0caf-4978-4f80-b0b9-9a8f2b0ab9d7","system_id":"levelo_inurba_marseille","lat":43.29634,"lon":5.40602,"is_reserved":false,"is_disabled":true,"rental_uris":{"android":"levelo://app?vid=164d0caf-4978-4f80-b0b9-9a8f2b0ab9d7","ios":"levelo://app?vid=164d0caf-4978-4f80-b0b9-9a8f2b0ab9d7"},"vehicle_type_id":"4","last_reported":1738753669,"current_range_meters":30000,"station_id":"ce4bh0h2rcd13ifvqd60","pricing_plan_id":"cebpf4jnsgd1na2vs0mg"},{"bike_id":"41ad3d36-51d8-4204-ae3d-d7c8884b6fab","system_id":"levelo_inurba_marseille","lat":43.25574,"lon":5.38232,"is_reserved":false,"is_disabled":false,"rental_uris":{"android":"levelo://app?vid=41ad3d36-51d8-4204-ae3d-d7c8884b6fab","ios":"levelo://app?vid=41ad3d36-51d8-4204-ae3d-d7c8884b6fab"},"vehicle_type_id":"4","last_reported":1738753669,"current_range_meters":36800,"station_id":"ce4bhih2rcd13ifvqfs0","pricing_plan_id":"cebpf4jnsgd1na2vs0mg"},{"bike_id":"1b9214f8-12f2-4278-99cc-87bfa0cd0c04","system_id":"levelo_inurba_marseille","lat":43.29699,"lon":5.37696,"is_reserved":false,"is_disabled":false,"rental_uris":{"android":"levelo://app?vid=1b9214f8-12f2-4278-99cc-87bfa0cd0c04","ios":"levelo://app?vid=1b9214f8-12f2-4278-99cc-87bfa0cd0c04"},"vehicle_type_id":"4","last_reported":1738753669,"current_range_meters":36800,"station_id":"ce4bgkh2rcd13ifvqbl0","pricing_plan_id":"cebpf4jnsgd1na2vs0mg"},{"bike_id":"a2ba7768-e6f8-4ccb-9b3a-ceb62a2b692a","system_id":"levelo_inurba_marseille","lat":43.28614,"lon":5.35095,"is_reserved":false,"is_disabled":true,"rental_uris":{"android":"levelo://app?vid=a2ba7768-e6f8-4ccb-9b3a-ceb62a2b692a","ios":"levelo://app?vid=a2ba7768-e6f8-4ccb-9b3a-ceb62a2b692a"},"vehicle_type_id":"4","last_reported":1738753669,"current_range_meters":400,"station_id":"ce4bhch2rcd13ifvqeug","pricing_plan_id":"cebpf4jnsgd1na2vs0mg"},{"bike_id":"e1fd63af-2ded-46aa-b95c-acb582af5c06","system_id":"levelo_inurba_marseille","lat":43.28697,"lon":5.3997,"is_reserved":false,"is_disabled":true,"rental_uris":{"android":"levelo://app?vid=e1fd63af-2ded-46aa-b95c-acb582af5c06","ios":"levelo://app?vid=e1fd63af-2ded-46aa-b95c-acb582af5c06"},"vehicle_type_id":"4","last_reported":1738753669,"current_range_meters":0,"station_id":"ce4bho92rcd13ifvqh3g","pricing_plan_id":"cebpf4jnsgd1na2vs0mg"},{"bike_id":"0b557b94-8edf-49bc-8c24-edbb5993edd9","system_id":"levelo_inurba_marseille","lat":43.335983,"lon":5.410175,"is_reserved":false,"is_disabled":false,"rental_uris":{"android":"levelo://app?vid=0b557b94-8edf-49bc-8c24-edbb5993edd9","ios":"levelo://app?vid=0b557b94-8edf-49bc-8c24-edbb5993edd9"},"vehicle_type_id":"4","last_reported":1738753669,"current_range_meters":29600,"station_id":"ce4bhqh2rcd13ifvqhmg","pricing_plan_id":"cebpf4jnsgd1na2vs0mg"},{"bike_id":"d374f9a3-8451-45a9-8785-4ba74538d9b0","system_id":"levelo_inurba_marseille","lat":43.28719,"lon":5.39991,"is_reserved":false,"is_disabled":false,"rental_uris":{"android":"levelo://app?vid=d374f9a3-8451-45a9-8785-4ba74538d9b0","ios":"levelo://app?vid=d374f9a3-8451-45a9-8785-4ba74538d9b0"},"vehicle_type_id":"4","last_reported":1738753669,"current_range_meters":34000,"station_id":"ce4bho92rcd13ifvqh3g","pricing_plan_id":"cebpf4jnsgd1na2vs0mg"},{"bike_id":"d9a60c91-dff2-440d-8b10-c7b78047f228","system_id":"levelo_inurba_marseille","lat":43.27294,"lon":5.39107,"is_reserved":false,"is_disabled":false,"rental_uris":{"android":"levelo://app?vid=d9a60c91-dff2-440d-8b10-c7b78047f228","ios":"levelo://app?vid=d9a60c91-dff2-440d-8b10-c7b78047f228"},"vehicle_type_id":"4","last_reported":1738753669,"current_range_meters":38800,"station_id":"ce4bhgp2rcd13ifvqfe0","pricing_plan_id":"cebpf4jnsgd1na2vs0mg"},{"bike_id":"2d0508df-c077-4cf4-b7ca-e7010620ecde","system_id":"levelo_inurba_marseille","lat":43.29096,"lon":5.38125,"is_reserved":false,"is_disabled":false,"rental_uris":{"android":"levelo://app?vid=2d0508df-c077-4cf4-b7ca-e7010620ecde","ios":"levelo://app?vid=2d0508df-c077-4cf4-b7ca-e7010620ecde"},"vehicle_type_id":"4","last_reported":1738753669,"current_range_meters":16000,"station_id":"ce4bh512rcd13ifvqe2g","pricing_plan_id":"cebpf4jnsgd1na2vs0mg"},{"bike_id":"3b0389c9-df3c-4d3a-88cc-4d3500b97409","system_id":"levelo_inurba_marseille","lat":43.27957,"lon":5.3871,"is_reserved":false,"is_disabled":false,"rental_uris":{"android":"levelo://app?vid=3b0389c9-df3c-4d3a-88cc-4d3500b97409","ios":"levelo://app?vid=3b0389c9-df3c-4d3a-88cc-4d3500b97409"},"vehicle_type_id":"4","last_reported":1738753669,"current_range_meters":38800,"station_id":"ce4bhg12rcd13ifvqf80","pricing_plan_id":"cebpf4jnsgd1na2vs0mg"},{"bike_id":"2055a81d-8e5e-4bf5-b5e1-2fc40f396b7c","system_id":"levelo_inurba_marseille","lat":43.30554,"lon":5.38442,"is_reserved":false,"is_disabled":false,"rental_uris":{"android":"levelo://app?vid=2055a81d-8e5e-4bf5-b5e1-2fc40f396b7c","ios":"levelo://app?vid=2055a81d-8e5e-4bf5-b5e1-2fc40f396b7c"},"vehicle_type_id":"4","last_reported":1738753669,"current_range_meters":37600,"station_id":"ce4bgg92rcd13ifvqb30","pricing_plan_id":"cebpf4jnsgd1na2vs0mg"},{"bike_id":"ee69606c-4c97-488d-8e98-0dc265462512","system_id":"levelo_inurba_marseille","lat":43.28674,"lon":5.38675,"is_reserved":false,"is_disabled":false,"rental_uris":{"android":"levelo://app?vid=ee69606c-4c97-488d-8e98-0dc265462512","ios":"levelo://app?vid=ee69606c-4c97-488d-8e98-0dc265462512"},"vehicle_type_id":"4","last_reported":1738753669,"current_range_meters":35200,"station_id":"ce4bh492rcd13ifvqdug","pricing_plan_id":"cebpf4jnsgd1na2vs0mg"},{"bike_id":"4d2202ac-e191-4e43-b8b7-39f3f3b286c4","system_id":"levelo_inurba_marseille","lat":43.29896,"lon":5.38133,"is_reserved":false,"is_disabled":false,"rental_uris":{"android":"levelo://app?vid=4d2202ac-e191-4e43-b8b7-39f3f3b286c4","ios":"levelo://app?vid=4d2202ac-e191-4e43-b8b7-39f3f3b286c4"},"vehicle_type_id":"4","last_reported":1738753669,"current_range_meters":11200,"station_id":"ce4bgj12rcd13ifvqbc0","pricing_plan_id":"cebpf4jnsgd1na2vs0mg"},{"bike_id":"6beb1215-840b-4217-8a9f-51976cc3c3c0","system_id":"levelo_inurba_marseille","lat":43.29186,"lon":5.39319,"is_reserved":false,"is_disabled":false,"rental_uris":{"android":"levelo://app?vid=6beb1215-840b-4217-8a9f-51976cc3c3c0","ios":"levelo://app?vid=6beb1215-840b-4217-8a9f-51976cc3c3c0"},"vehicle_type_id":"4","last_reported":1738753669,"current_range_meters":35200,"station_id":"ce4bh192rcd13ifvqdd0","pricing_plan_id":"cebpf4jnsgd1na2vs0mg"},{"bike_id":"d7e2bca6-9725-4ec8-bcc8-66171b31f8b4","system_id":"levelo_inurba_marseille","lat":43.28669,"lon":5.36363,"is_reserved":false,"is_disabled":false,"rental_uris":{"android":"levelo://app?vid=d7e2bca6-9725-4ec8-bcc8-66171b31f8b4","ios":"levelo://app?vid=d7e2bca6-9725-4ec8-bcc8-66171b31f8b4"},"vehicle_type_id":"4","last_reported":1738753669,"current_range_meters":19200,"station_id":"ce4bhah2rcd13ifvqej0","pricing_plan_id":"cebpf4jnsgd1na2vs0mg"},{"bike_id":"a33a1f02-de42-4d05-887b-933203e68017","system_id":"levelo_inurba_marseille","lat":43.28997,"lon":5.38618,"is_reserved":false,"is_disabled":true,"rental_uris":{"android":"levelo://app?vid=a33a1f02-de42-4d05-887b-933203e68017","ios":"levelo://app?vid=a33a1f02-de42-4d05-887b-933203e68017"},"vehicle_type_id":"4","last_reported":1738753669,"current_range_meters":36800,"station_id":"ce4bh4p2rcd13ifvqe0g","pricing_plan_id":"cebpf4jnsgd1na2vs0mg"},{"bike_id":"cd07e062-2af1-406e-bcb9-5f1ec4730937","system_id":"levelo_inurba_marseille","lat":43.23062,"lon":5.35493,"is_reserved":false,"is_disabled":false,"rental_uris":{"android":"levelo://app?vid=cd07e062-2af1-406e-bcb9-5f1ec4730937","ios":"levelo://app?vid=cd07e062-2af1-406e-bcb9-5f1ec4730937"},"vehicle_type_id":"4","last_reported":1738753669,"current_range_meters":38800,"station_id":"cpo3342slgdg3j2ifvpg","pricing_plan_id":"cebpf4jnsgd1na2vs0mg"},{"bike_id":"c3644d12-8427-4602-9945-9ef42c46feca","system_id":"levelo_inurba_marseille","lat":43.2417,"lon":5.36394,"is_reserved":false,"is_disabled":false,"rental_uris":{"android":"levelo://app?vid=c3644d12-8427-4602-9945-9ef42c46feca","ios":"levelo://app?vid=c3644d12-8427-4602-9945-9ef42c46feca"},"vehicle_type_id":"4","last_reported":1738753669,"current_range_meters":38800,"station_id":"cpo36qri1sfpv3e86is0","pricing_plan_id":"cebpf4jnsgd1na2vs0mg"},{"bike_id":"1dd25657-add0-419c-8210-ae2466bd11bb","system_id":"levelo_inurba_marseille","lat":43.28699,"lon":5.37393,"is_reserved":false,"is_disabled":false,"rental_uris":{"android":"levelo://app?vid=1dd25657-add0-419c-8210-ae2466bd11bb","ios":"levelo://app?vid=1dd25657-add0-419c-8210-ae2466bd11bb"},"vehicle_type_id":"4","last_reported":1738753669,"current_range_meters":20000,"station_id":"ce4bh3p2rcd13ifvqdq0","pricing_plan_id":"cebpf4jnsgd1na2vs0mg"},{"bike_id":"1e7bde43-ab8f-4755-b59a-acd0a53ae759","system_id":"levelo_inurba_marseille","lat":43.31725,"lon":5.42405,"is_reserved":false,"is_disabled":true,"rental_uris":{"android":"levelo://app?vid=1e7bde43-ab8f-4755-b59a-acd0a53ae759","ios":"levelo://app?vid=1e7bde43-ab8f-4755-b59a-acd0a53ae759"},"vehicle_type_id":"4","last_reported":1738753669,"current_range_meters":0,"station_id":"ce4bhp92rcd13ifvqhbg","pricing_plan_id":"cebpf4jnsgd1na2vs0mg"},{"bike_id":"144d5ef4-9c7a-41fb-b06b-1f4330eee933","system_id":"levelo_inurba_marseille","lat":43.29609,"lon":5.37741,"is_reserved":false,"is_disabled":false,"rental_uris":{"android":"levelo://app?vid=144d5ef4-9c7a-41fb-b06b-1f4330eee933","ios":"levelo://app?vid=144d5ef4-9c7a-41fb-b06b-1f4330eee933"},"vehicle_type_id":"4","last_reported":1738753669,"current_range_meters":39200,"station_id":"ce4bgi92rcd13ifvqb90","pricing_plan_id":"cebpf4jnsgd1na2vs0mg"},{"bike_id":"01e2f24c-572d-4729-bb25-c0cee3de21b4","system_id":"levelo_inurba_marseille","lat":43.30915,"lon":5.36873,"is_reserved":false,"is_disabled":false,"rental_uris":{"android":"levelo://app?vid=01e2f24c-572d-4729-bb25-c0cee3de21b4","ios":"levelo://app?vid=01e2f24c-572d-4729-bb25-c0cee3de21b4"},"vehicle_type_id":"4","last_reported":1738753669,"current_range_meters":38800,"station_id":"ce4bgn92rcd13ifvqbvg","pricing_plan_id":"cebpf4jnsgd1na2vs0mg"},{"bike_id":"7a87f98c-660b-48c4-852a-62e1af6e15a9","system_id":"levelo_inurba_marseille","lat":43.29907,"lon":5.38158,"is_reserved":false,"is_disabled":false,"rental_uris":{"android":"levelo://app?vid=7a87f98c-660b-48c4-852a-62e1af6e15a9","ios":"levelo://app?vid=7a87f98c-660b-48c4-852a-62e1af6e15a9"},"vehicle_type_id":"4","last_reported":1738753669,"current_range_meters":16800,"station_id":"ce4bgj12rcd13ifvqbc0","pricing_plan_id":"cebpf4jnsgd1na2vs0mg"},{"bike_id":"9b5cf9c0-472b-4969-b783-3fe18817307b","system_id":"levelo_inurba_marseille","lat":43.31077,"lon":5.38357,"is_reserved":false,"is_disabled":false,"rental_uris":{"android":"levelo://app?vid=9b5cf9c0-472b-4969-b783-3fe18817307b","ios":"levelo://app?vid=9b5cf9c0-472b-4969-b783-3fe18817307b"},"vehicle_type_id":"4","last_reported":1738753669,"current_range_meters":26000,"station_id":"ce4bgv92rcd13ifvqcr0","pricing_plan_id":"cebpf4jnsgd1na2vs0mg"},{"bike_id":"45a7daa2-2a2e-4454-90c3-1009aaecc5bd","system_id":"levelo_inurba_marseille","lat":43.232,"lon":5.35565,"is_reserved":false,"is_disabled":false,"rental_uris":{"android":"levelo://app?vid=45a7daa2-2a2e-4454-90c3-1009aaecc5bd","ios":"levelo://app?vid=45a7daa2-2a2e-4454-90c3-1009aaecc5bd"},"vehicle_type_id":"4","last_reported":1738753669,"current_range_meters":3200,"station_id":"ce4bhu92rcd13ifvqi70","pricing_plan_id":"cebpf4jnsgd1na2vs0mg"},{"bike_id":"aece1634-918f-4f68-8bc7-9a7b7abafc1f","system_id":"levelo_inurba_marseille","lat":43.2816,"lon":5.42687,"is_reserved":false,"is_disabled":true,"rental_uris":{"android":"levelo://app?vid=aece1634-918f-4f68-8bc7-9a7b7abafc1f","ios":"levelo://app?vid=aece1634-918f-4f68-8bc7-9a7b7abafc1f"},"vehicle_type_id":"4","last_reported":1738753669,"current_range_meters":30400,"station_id":"ce4bhnh2rcd13ifvqgug","pricing_plan_id":"cebpf4jnsgd1na2vs0mg"},{"bike_id":"f8a541f0-e4a8-4639-8d63-84a9a76b70b4","system_id":"levelo_inurba_marseille","lat":43.30296,"lon":5.377,"is_reserved":false,"is_disabled":false,"rental_uris":{"android":"levelo://app?vid=f8a541f0-e4a8-4639-8d63-84a9a76b70b4","ios":"levelo://app?vid=f8a541f0-e4a8-4639-8d63-84a9a76b70b4"},"vehicle_type_id":"4","last_reported":1738753669,"current_range_meters":38000,"station_id":"ce4bguh2rcd13ifvqcj0","pricing_plan_id":"cebpf4jnsgd1na2vs0mg"},{"bike_id":"3b1d5f28-8e2f-4cd2-84ee-32e60c8bc1d4","system_id":"levelo_inurba_marseille","lat":43.27953,"lon":5.38725,"is_reserved":false,"is_disabled":true,"rental_uris":{"android":"levelo://app?vid=3b1d5f28-8e2f-4cd2-84ee-32e60c8bc1d4","ios":"levelo://app?vid=3b1d5f28-8e2f-4cd2-84ee-32e60c8bc1d4"},"vehicle_type_id":"4","last_reported":1738753669,"current_range_meters":0,"station_id":"ce4bhg12rcd13ifvqf80","pricing_plan_id":"cebpf4jnsgd1na2vs0mg"},{"bike_id":"a21453e1-7dd1-439a-9411-5be2637f52a4","system_id":"levelo_inurba_marseille","lat":43.29799,"lon":5.38124,"is_reserved":false,"is_disabled":true,"rental_uris":{"android":"levelo://app?vid=a21453e1-7dd1-439a-9411-5be2637f52a4","ios":"levelo://app?vid=a21453e1-7dd1-439a-9411-5be2637f52a4"},"vehicle_type_id":"4","last_reported":1738753669,"current_range_meters":0,"station_id":"ce4bgip2rcd13ifvqbb0","pricing_plan_id":"cebpf4jnsgd1na2vs0mg"},{"bike_id":"3c7ddd8c-58ab-412f-86bc-9d7ee22195f7","system_id":"levelo_inurba_marseille","lat":43.27929,"lon":5.38021,"is_reserved":false,"is_disabled":false,"rental_uris":{"android":"levelo://app?vid=3c7ddd8c-58ab-412f-86bc-9d7ee22195f7","ios":"levelo://app?vid=3c7ddd8c-58ab-412f-86bc-9d7ee22195f7"},"vehicle_type_id":"4","last_reported":1738753669,"current_range_meters":37600,"station_id":"ce4bhf92rcd13ifvqf50","pricing_plan_id":"cebpf4jnsgd1na2vs0mg"},{"bike_id":"40340154-f160-4e0f-b053-866d4304c85a","system_id":"levelo_inurba_marseille","lat":43.30128,"lon":5.39859,"is_reserved":false,"is_disabled":false,"rental_uris":{"android":"levelo://app?vid=40340154-f160-4e0f-b053-866d4304c85a","ios":"levelo://app?vid=40340154-f160-4e0f-b053-866d4304c85a"},"vehicle_type_id":"4","last_reported":1738753669,"current_range_meters":37600,"station_id":"ce4bh0h2rcd13ifvqd40","pricing_plan_id":"cebpf4jnsgd1na2vs0mg"},{"bike_id":"8cab2123-bbb6-4b53-9911-ffbdf65c34b8","system_id":"levelo_inurba_marseille","lat":43.26959,"lon":5.38683,"is_reserved":false,"is_disabled":false,"rental_uris":{"android":"levelo://app?vid=8cab2123-bbb6-4b53-9911-ffbdf65c34b8","ios":"levelo://app?vid=8cab2123-bbb6-4b53-9911-ffbdf65c34b8"},"vehicle_type_id":"4","last_reported":1738753669,"current_range_meters":4800,"station_id":"ce4bhh92rcd13ifvqfh0","pricing_plan_id":"cebpf4jnsgd1na2vs0mg"},{"bike_id":"865c4778-4a7b-4fbe-8065-d6d03e0c3186","system_id":"levelo_inurba_marseille","lat":43.28273,"lon":5.35066,"is_reserved":false,"is_disabled":false,"rental_uris":{"android":"levelo://app?vid=865c4778-4a7b-4fbe-8065-d6d03e0c3186","ios":"levelo://app?vid=865c4778-4a7b-4fbe-8065-d6d03e0c3186"},"vehicle_type_id":"4","last_reported":1738753669,"current_range_meters":29600,"station_id":"ce4bhbp2rcd13ifvqerg","pricing_plan_id":"cebpf4jnsgd1na2vs0mg"},{"bike_id":"66114434-5885-44f9-831a-2dfe6ae87b57","system_id":"levelo_inurba_marseille","lat":43.30106,"lon":5.39074,"is_reserved":false,"is_disabled":false,"rental_uris":{"android":"levelo://app?vid=66114434-5885-44f9-831a-2dfe6ae87b57","ios":"levelo://app?vid=66114434-5885-44f9-831a-2dfe6ae87b57"},"vehicle_type_id":"4","last_reported":1738753669,"current_range_meters":25600,"station_id":"ce4bh192rcd13ifvqdb0","pricing_plan_id":"cebpf4jnsgd1na2vs0mg"},{"bike_id":"8dbe8a6e-72e2-42be-91e2-483b6f8206f0","system_id":"levelo_inurba_marseille","lat":43.25913,"lon":5.40867,"is_reserved":false,"is_disabled":false,"rental_uris":{"android":"levelo://app?vid=8dbe8a6e-72e2-42be-91e2-483b6f8206f0","ios":"levelo://app?vid=8dbe8a6e-72e2-42be-91e2-483b6f8206f0"},"vehicle_type_id":"4","last_reported":1738753669,"current_range_meters":26000,"station_id":"ce4bhm92rcd13ifvqglg","pricing_plan_id":"cebpf4jnsgd1na2vs0mg"},{"bike_id":"b77b023e-ffb4-44e2-85c3-e4e7b9daa6ce","system_id":"levelo_inurba_marseille","lat":43.29639,"lon":5.40598,"is_reserved":false,"is_disabled":false,"rental_uris":{"android":"levelo://app?vid=b77b023e-ffb4-44e2-85c3-e4e7b9daa6ce","ios":"levelo://app?vid=b77b023e-ffb4-44e2-85c3-e4e7b9daa6ce"},"vehicle_type_id":"4","last_reported":1738753669,"current_range_meters":39200,"station_id":"ce4bh0h2rcd13ifvqd60","pricing_plan_id":"cebpf4jnsgd1na2vs0mg"},{"bike_id":"d0c2a87f-6020-4a71-b9c4-402138655b6f","system_id":"levelo_inurba_marseille","lat":43.26763,"lon":5.39458,"is_reserved":false,"is_disabled":false,"rental_uris":{"android":"levelo://app?vid=d0c2a87f-6020-4a71-b9c4-402138655b6f","ios":"levelo://app?vid=d0c2a87f-6020-4a71-b9c4-402138655b6f"},"vehicle_type_id":"4","last_reported":1738753669,"current_range_meters":38800,"station_id":"ce4bhh12rcd13ifvqfg0","pricing_plan_id":"cebpf4jnsgd1na2vs0mg"},{"bike_id":"ecbc96f4-63dd-428e-a2ee-a6dfa2d8d6f1","system_id":"levelo_inurba_marseille","lat":43.29358,"lon":5.37861,"is_reserved":false,"is_disabled":false,"rental_uris":{"android":"levelo://app?vid=ecbc96f4-63dd-428e-a2ee-a6dfa2d8d6f1","ios":"levelo://app?vid=ecbc96f4-63dd-428e-a2ee-a6dfa2d8d6f1"},"vehicle_type_id":"4","last_reported":1738753669,"current_range_meters":37600,"station_id":"ce4bgjh2rcd13ifvqbf0","pricing_plan_id":"cebpf4jnsgd1na2vs0mg"},{"bike_id":"11ec51b1-32ec-4c3e-9190-28a87393b338","system_id":"levelo_inurba_marseille","lat":43.28487,"lon":5.38545,"is_reserved":false,"is_disabled":false,"rental_uris":{"android":"levelo://app?vid=11ec51b1-32ec-4c3e-9190-28a87393b338","ios":"levelo://app?vid=11ec51b1-32ec-4c3e-9190-28a87393b338"},"vehicle_type_id":"4","last_reported":1738753669,"current_range_meters":38000,"station_id":"ce4bh8p2rcd13ifvqeb0","pricing_plan_id":"cebpf4jnsgd1na2vs0mg"},{"bike_id":"7b2bab09-6da9-41c3-a8ef-a335724ee538","system_id":"levelo_inurba_marseille","lat":43.301603,"lon":5.380883,"is_reserved":false,"is_disabled":false,"rental_uris":{"android":"levelo://app?vid=7b2bab09-6da9-41c3-a8ef-a335724ee538","ios":"levelo://app?vid=7b2bab09-6da9-41c3-a8ef-a335724ee538"},"vehicle_type_id":"4","last_reported":1738753669,"current_range_meters":36400,"station_id":"ce4bgjp2rcd13ifvqbh0","pricing_plan_id":"cebpf4jnsgd1na2vs0mg"},{"bike_id":"6bb18b6b-35db-4080-8375-2a2e83c6fc4b","system_id":"levelo_inurba_marseille","lat":43.23169,"lon":5.43709,"is_reserved":false,"is_disabled":false,"rental_uris":{"android":"levelo://app?vid=6bb18b6b-35db-4080-8375-2a2e83c6fc4b","ios":"levelo://app?vid=6bb18b6b-35db-4080-8375-2a2e83c6fc4b"},"vehicle_type_id":"4","last_reported":1738753669,"current_range_meters":38800,"station_id":"ce4bhmp2rcd13ifvqgog","pricing_plan_id":"cebpf4jnsgd1na2vs0mg"},{"bike_id":"787b7837-f258-4886-bbf5-841ee39c0166","system_id":"levelo_inurba_marseille","lat":43.28278,"lon":5.3508,"is_reserved":false,"is_disabled":false,"rental_uris":{"android":"levelo://app?vid=787b7837-f258-4886-bbf5-841ee39c0166","ios":"levelo://app?vid=787b7837-f258-4886-bbf5-841ee39c0166"},"vehicle_type_id":"4","last_reported":1738753669,"current_range_meters":34000,"station_id":"ce4bhbp2rcd13ifvqerg","pricing_plan_id":"cebpf4jnsgd1na2vs0mg"},{"bike_id":"7e827b7a-e731-4daf-83c0-fa33ba87bdaf","system_id":"levelo_inurba_marseille","lat":43.30474,"lon":5.37905,"is_reserved":false,"is_disabled":false,"rental_uris":{"android":"levelo://app?vid=7e827b7a-e731-4daf-83c0-fa33ba87bdaf","ios":"levelo://app?vid=7e827b7a-e731-4daf-83c0-fa33ba87bdaf"},"vehicle_type_id":"4","last_reported":1738753669,"current_range_meters":38800,"station_id":"ce4bgup2rcd13ifvqcn0","pricing_plan_id":"cebpf4jnsgd1na2vs0mg"},{"bike_id":"f3bc084b-a715-4c9b-b29e-afa94226512f","system_id":"levelo_inurba_marseille","lat":43.2752,"lon":5.3841,"is_reserved":false,"is_disabled":false,"rental_uris":{"android":"levelo://app?vid=f3bc084b-a715-4c9b-b29e-afa94226512f","ios":"levelo://app?vid=f3bc084b-a715-4c9b-b29e-afa94226512f"},"vehicle_type_id":"4","last_reported":1738753669,"current_range_meters":34800,"station_id":"ce4bhh92rcd13ifvqfi0","pricing_plan_id":"cebpf4jnsgd1na2vs0mg"},{"bike_id":"a2f6c3ee-cde6-4fde-b78f-92cfd29c1bfd","system_id":"levelo_inurba_marseille","lat":43.25496,"lon":5.37659,"is_reserved":false,"is_disabled":false,"rental_uris":{"android":"levelo://app?vid=a2f6c3ee-cde6-4fde-b78f-92cfd29c1bfd","ios":"levelo://app?vid=a2f6c3ee-cde6-4fde-b78f-92cfd29c1bfd"},"vehicle_type_id":"4","last_reported":1738753669,"current_range_meters":38800,"station_id":"ce4bhh12rcd13ifvqff0","pricing_plan_id":"cebpf4jnsgd1na2vs0mg"},{"bike_id":"44a30f83-4304-4f9f-be85-a99271585cc5","system_id":"levelo_inurba_marseille","lat":43.241581,"lon":5.364024,"is_reserved":false,"is_disabled":false,"rental_uris":{"android":"levelo://app?vid=44a30f83-4304-4f9f-be85-a99271585cc5","ios":"levelo://app?vid=44a30f83-4304-4f9f-be85-a99271585cc5"},"vehicle_type_id":"4","last_reported":1738753669,"current_range_meters":16800,"station_id":"cpo36qri1sfpv3e86is0","pricing_plan_id":"cebpf4jnsgd1na2vs0mg"},{"bike_id":"eac8e106-76e0-4f1b-81af-4eaefecd2501","system_id":"levelo_inurba_marseille","lat":43.25005,"lon":5.38917,"is_reserved":false,"is_disabled":false,"rental_uris":{"android":"levelo://app?vid=eac8e106-76e0-4f1b-81af-4eaefecd2501","ios":"levelo://app?vid=eac8e106-76e0-4f1b-81af-4eaefecd2501"},"vehicle_type_id":"4","last_reported":1738753669,"current_range_meters":11600,"station_id":"ce4bhgp2rcd13ifvqfd0","pricing_plan_id":"cebpf4jnsgd1na2vs0mg"},{"bike_id":"3e06e735-9c4d-48d7-82e1-4b743711b119","system_id":"levelo_inurba_marseille","lat":43.29587,"lon":5.37503,"is_reserved":false,"is_disabled":true,"rental_uris":{"android":"levelo://app?vid=3e06e735-9c4d-48d7-82e1-4b743711b119","ios":"levelo://app?vid=3e06e735-9c4d-48d7-82e1-4b743711b119"},"vehicle_type_id":"4","last_reported":1738753669,"current_range_meters":35200,"station_id":"ce4bgh92rcd13ifvqb50","pricing_plan_id":"cebpf4jnsgd1na2vs0mg"},{"bike_id":"c05075ba-bfca-4e19-a525-fc3267285503","system_id":"levelo_inurba_marseille","lat":43.28627,"lon":5.35101,"is_reserved":false,"is_disabled":false,"rental_uris":{"android":"levelo://app?vid=c05075ba-bfca-4e19-a525-fc3267285503","ios":"levelo://app?vid=c05075ba-bfca-4e19-a525-fc3267285503"},"vehicle_type_id":"4","last_reported":1738753669,"current_range_meters":28000,"station_id":"ce4bhch2rcd13ifvqeug","pricing_plan_id":"cebpf4jnsgd1na2vs0mg"},{"bike_id":"802133ea-4fd0-4f9d-92e0-7888537319b5","system_id":"levelo_inurba_marseille","lat":43.28693,"lon":5.39985,"is_reserved":false,"is_disabled":false,"rental_uris":{"android":"levelo://app?vid=802133ea-4fd0-4f9d-92e0-7888537319b5","ios":"levelo://app?vid=802133ea-4fd0-4f9d-92e0-7888537319b5"},"vehicle_type_id":"4","last_reported":1738753669,"current_range_meters":28400,"station_id":"ce4bho92rcd13ifvqh3g","pricing_plan_id":"cebpf4jnsgd1na2vs0mg"},{"bike_id":"61ceb31b-03f6-4213-9b34-0374ee45b479","system_id":"levelo_inurba_marseille","lat":43.32101,"lon":5.36802,"is_reserved":false,"is_disabled":false,"rental_uris":{"android":"levelo://app?vid=61ceb31b-03f6-4213-9b34-0374ee45b479","ios":"levelo://app?vid=61ceb31b-03f6-4213-9b34-0374ee45b479"},"vehicle_type_id":"4","last_reported":1738753669,"current_range_meters":21600,"station_id":"ce4bhrh2rcd13ifvqhug","pricing_plan_id":"cebpf4jnsgd1na2vs0mg"},{"bike_id":"fd551425-c55e-4da7-8125-27ec35042390","system_id":"levelo_inurba_marseille","lat":43.30927,"lon":5.39053,"is_reserved":false,"is_disabled":false,"rental_uris":{"android":"levelo://app?vid=fd551425-c55e-4da7-8125-27ec35042390","ios":"levelo://app?vid=fd551425-c55e-4da7-8125-27ec35042390"},"vehicle_type_id":"4","last_reported":1738753669,"current_range_meters":38000,"station_id":"ce4bgup2rcd13ifvqco0","pricing_plan_id":"cebpf4jnsgd1na2vs0mg"},{"bike_id":"d69f8176-ae2f-4a4a-99d8-9594c80f6219","system_id":"levelo_inurba_marseille","lat":43.29575,"lon":5.39988,"is_reserved":false,"is_disabled":false,"rental_uris":{"android":"levelo://app?vid=d69f8176-ae2f-4a4a-99d8-9594c80f6219","ios":"levelo://app?vid=d69f8176-ae2f-4a4a-99d8-9594c80f6219"},"vehicle_type_id":"4","last_reported":1738753669,"current_range_meters":37600,"station_id":"ce4bh312rcd13ifvqdj0","pricing_plan_id":"cebpf4jnsgd1na2vs0mg"},{"bike_id":"255a221e-ab4c-46b9-9731-b644b404bf8b","system_id":"levelo_inurba_marseille","lat":43.24181,"lon":5.39738,"is_reserved":false,"is_disabled":false,"rental_uris":{"android":"levelo://app?vid=255a221e-ab4c-46b9-9731-b644b404bf8b","ios":"levelo://app?vid=255a221e-ab4c-46b9-9731-b644b404bf8b"},"vehicle_type_id":"4","last_reported":1738753669,"current_range_meters":8400,"station_id":"ce4bhn12rcd13ifvqgpg","pricing_plan_id":"cebpf4jnsgd1na2vs0mg"},{"bike_id":"026a031a-5002-4b1c-b9a8-d7862a2572eb","system_id":"levelo_inurba_marseille","lat":43.25115,"lon":5.40321,"is_reserved":false,"is_disabled":false,"rental_uris":{"android":"levelo://app?vid=026a031a-5002-4b1c-b9a8-d7862a2572eb","ios":"levelo://app?vid=026a031a-5002-4b1c-b9a8-d7862a2572eb"},"vehicle_type_id":"4","last_reported":1738753669,"current_range_meters":38400,"station_id":"ce4bhlh2rcd13ifvqgig","pricing_plan_id":"cebpf4jnsgd1na2vs0mg"},{"bike_id":"c322498b-971c-4774-a775-9df1558e42d2","system_id":"levelo_inurba_marseille","lat":43.29373,"lon":5.37866,"is_reserved":false,"is_disabled":false,"rental_uris":{"android":"levelo://app?vid=c322498b-971c-4774-a775-9df1558e42d2","ios":"levelo://app?vid=c322498b-971c-4774-a775-9df1558e42d2"},"vehicle_type_id":"4","last_reported":1738753669,"current_range_meters":27200,"station_id":"ce4bgjh2rcd13ifvqbf0","pricing_plan_id":"cebpf4jnsgd1na2vs0mg"},{"bike_id":"dd6d0735-a7d8-47bd-a58b-c2ac1cc0a2cb","system_id":"levelo_inurba_marseille","lat":43.3031,"lon":5.36894,"is_reserved":false,"is_disabled":false,"rental_uris":{"android":"levelo://app?vid=dd6d0735-a7d8-47bd-a58b-c2ac1cc0a2cb","ios":"levelo://app?vid=dd6d0735-a7d8-47bd-a58b-c2ac1cc0a2cb"},"vehicle_type_id":"4","last_reported":1738753669,"current_range_meters":28000,"station_id":"ce4bgqh2rcd13ifvqc5g","pricing_plan_id":"cebpf4jnsgd1na2vs0mg"},{"bike_id":"fec5c6d4-eb02-464f-99e5-b783b5e6b9a8","system_id":"levelo_inurba_marseille","lat":43.27853,"lon":5.41075,"is_reserved":false,"is_disabled":false,"rental_uris":{"android":"levelo://app?vid=fec5c6d4-eb02-464f-99e5-b783b5e6b9a8","ios":"levelo://app?vid=fec5c6d4-eb02-464f-99e5-b783b5e6b9a8"},"vehicle_type_id":"4","last_reported":1738753669,"current_range_meters":24000,"station_id":"","pricing_plan_id":"cebpf4jnsgd1na2vs0mg"},{"bike_id":"5aa435ab-51b5-4420-a514-8b4ccb95f297","system_id":"levelo_inurba_marseille","lat":43.26911,"lon":5.40243,"is_reserved":false,"is_disabled":false,"rental_uris":{"android":"levelo://app?vid=5aa435ab-51b5-4420-a514-8b4ccb95f297","ios":"levelo://app?vid=5aa435ab-51b5-4420-a514-8b4ccb95f297"},"vehicle_type_id":"4","last_reported":1738753669,"current_range_meters":39200,"station_id":"cjm6bp8fraef2m0cb0m0","pricing_plan_id":"cebpf4jnsgd1na2vs0mg"},{"bike_id":"674b1bd1-3eb3-4f4c-b114-1bd8abbf3295","system_id":"levelo_inurba_marseille","lat":43.29632,"lon":5.40599,"is_reserved":false,"is_disabled":false,"rental_uris":{"android":"levelo://app?vid=674b1bd1-3eb3-4f4c-b114-1bd8abbf3295","ios":"levelo://app?vid=674b1bd1-3eb3-4f4c-b114-1bd8abbf3295"},"vehicle_type_id":"4","last_reported":1738753669,"current_range_meters":38000,"station_id":"ce4bh0h2rcd13ifvqd60","pricing_plan_id":"cebpf4jnsgd1na2vs0mg"},{"bike_id":"e5f34f7c-c503-40c2-aeb7-a92c676b8443","system_id":"levelo_inurba_marseille","lat":43.28697,"lon":5.39991,"is_reserved":false,"is_disabled":true,"rental_uris":{"android":"levelo://app?vid=e5f34f7c-c503-40c2-aeb7-a92c676b8443","ios":"levelo://app?vid=e5f34f7c-c503-40c2-aeb7-a92c676b8443"},"vehicle_type_id":"4","last_reported":1738753669,"current_range_meters":0,"station_id":"ce4bho92rcd13ifvqh3g","pricing_plan_id":"cebpf4jnsgd1na2vs0mg"},{"bike_id":"9178e4cc-63f7-4ca9-9db9-334f136c40f7","system_id":"levelo_inurba_marseille","lat":43.29296,"lon":5.37179,"is_reserved":false,"is_disabled":false,"rental_uris":{"android":"levelo://app?vid=9178e4cc-63f7-4ca9-9db9-334f136c40f7","ios":"levelo://app?vid=9178e4cc-63f7-4ca9-9db9-334f136c40f7"},"vehicle_type_id":"4","last_reported":1738753669,"current_range_meters":31200,"station_id":"ce4bgh92rcd13ifvqb40","pricing_plan_id":"cebpf4jnsgd1na2vs0mg"},{"bike_id":"915c02a9-43eb-435e-93bf-81a431a741d0","system_id":"levelo_inurba_marseille","lat":43.30756,"lon":5.36789,"is_reserved":false,"is_disabled":false,"rental_uris":{"android":"levelo://app?vid=915c02a9-43eb-435e-93bf-81a431a741d0","ios":"levelo://app?vid=915c02a9-43eb-435e-93bf-81a431a741d0"},"vehicle_type_id":"4","last_reported":1738753669,"current_range_meters":35600,"station_id":"","pricing_plan_id":"cebpf4jnsgd1na2vs0mg"},{"bike_id":"58330ef1-cb04-494b-91e5-c2780bb002d9","system_id":"levelo_inurba_marseille","lat":43.29854,"lon":5.36279,"is_reserved":false,"is_disabled":false,"rental_uris":{"android":"levelo://app?vid=58330ef1-cb04-494b-91e5-c2780bb002d9","ios":"levelo://app?vid=58330ef1-cb04-494b-91e5-c2780bb002d9"},"vehicle_type_id":"4","last_reported":1738753669,"current_range_meters":37600,"station_id":"ce4bgpp2rcd13ifvqc3g","pricing_plan_id":"cebpf4jnsgd1na2vs0mg"},{"bike_id":"8e02ec85-2a74-4922-b20e-ea2b81a348c1","system_id":"levelo_inurba_marseille","lat":43.29725,"lon":5.3769,"is_reserved":false,"is_disabled":false,"rental_uris":{"android":"levelo://app?vid=8e02ec85-2a74-4922-b20e-ea2b81a348c1","ios":"levelo://app?vid=8e02ec85-2a74-4922-b20e-ea2b81a348c1"},"vehicle_type_id":"4","last_reported":1738753669,"current_range_meters":28400,"station_id":"ce4bgkh2rcd13ifvqbl0","pricing_plan_id":"cebpf4jnsgd1na2vs0mg"},{"bike_id":"f959e12c-7756-429d-ac8f-f51977963103","system_id":"levelo_inurba_marseille","lat":43.321,"lon":5.36769,"is_reserved":false,"is_disabled":false,"rental_uris":{"android":"levelo://app?vid=f959e12c-7756-429d-ac8f-f51977963103","ios":"levelo://app?vid=f959e12c-7756-429d-ac8f-f51977963103"},"vehicle_type_id":"4","last_reported":1738753669,"current_range_meters":26800,"station_id":"ce4bhrh2rcd13ifvqhug","pricing_plan_id":"cebpf4jnsgd1na2vs0mg"},{"bike_id":"691db9e3-4219-4d87-a399-2a33ed3587de","system_id":"levelo_inurba_marseille","lat":43.3014,"lon":5.37415,"is_reserved":false,"is_disabled":false,"rental_uris":{"android":"levelo://app?vid=691db9e3-4219-4d87-a399-2a33ed3587de","ios":"levelo://app?vid=691db9e3-4219-4d87-a399-2a33ed3587de"},"vehicle_type_id":"4","last_reported":1738753669,"current_range_meters":3200,"station_id":"ce4bgs92rcd13ifvqcc0","pricing_plan_id":"cebpf4jnsgd1na2vs0mg"},{"bike_id":"e95244ff-9c41-4150-b65e-9129e1098832","system_id":"levelo_inurba_marseille","lat":43.2872,"lon":5.37945,"is_reserved":false,"is_disabled":false,"rental_uris":{"android":"levelo://app?vid=e95244ff-9c41-4150-b65e-9129e1098832","ios":"levelo://app?vid=e95244ff-9c41-4150-b65e-9129e1098832"},"vehicle_type_id":"4","last_reported":1738753669,"current_range_meters":38400,"station_id":"ce4bh9p2rcd13ifvqec0","pricing_plan_id":"cebpf4jnsgd1na2vs0mg"},