{"last_updated":1751389792,"ttl":60,"version":"2.2","data":{"bikes":[{"bike_id":"3da29fb8-fc97-44c6-b9ac-31dd456b2fd4","system_id":"levelo_inurba_marseille","lat":43.33771,"lon":5.37424,"is_reserved":false,"is_disabled":true,"rental_uris":{"android":"levelo://app?vid=3da29fb8-fc97-44c6-b9ac-31dd456b2fd4","ios":"levelo://app?vid=3da29fb8-fc97-44c6-b9ac-31dd456b2fd4"},"vehicle_type_id":"4","last_reported":1751389792,"current_range_meters":0,"station_id":"","pricing_plan_id":"cebpf4jnsgd1na2vs0mg"},{"bike_id":"01861ad8-a8d7-4be6-816e-651927c87584","system_id":"levelo_inurba_marseille","lat":43.33751,"lon":5.37456,"is_reserved":false,"is_disabled":true,"rental_uris":{"android":"levelo://app?vid=01861ad8-a8d7-4be6-816e-651927c87584","ios":"levelo://app?vid=01861ad8-a8d7-4be6-816e-651927c87584"},"vehicle_type_id":"4","last_reported":1751389792,"current_range_meters":0,"station_id":"","pricing_plan_id":"cebpf4jnsgd1na2vs0mg"},{"bike_id":"aacf0286-b8b3-4dcc-99df-3c0d92efa356","system_id":"levelo_inurba_marseille","lat":43.32586,"lon":5.37508,"is_reserved":false,"is_disabled":true,"rental_uris":{"android":"levelo://app?vid=aacf0286-b8b3-4dcc-99df-3c0d92efa356","ios":"levelo://app?vid=aacf0286-b8b3-4dcc-99df-3c0d92efa356"},"vehicle_type_id":"4","last_reported":1751389792,"current_range_meters":0,"station_id":"","pricing_plan_id":"cebpf4jnsgd1na2vs0mg"},{"bike_id":"3168b9fb-97d2-4a0e-b7ee-673bb8cf7525","system_id":"levelo_inurba_marseille","lat":43.27768,"lon":5.35576,"is_reserved":false,"is_disabled":true,"rental_uris":{"android":"levelo://app?vid=3168b9fb-97d2-4a0e-b7ee-673bb8cf7525","ios":"levelo://app?vid=3168b9fb-97d2-4a0e-b7ee-673bb8cf7525"},"vehicle_type_id":"4","last_reported":1751389792,"current_range_meters":0,"station_id":"","pricing_plan_id":"cebpf4jnsgd1na2vs0mg"},{"bike_id":"1d934d30-6a85-4b30-9a35-9bb4ad4cb2ca","system_id":"levelo_inurba_marseille","lat":43.327215,"lon":5.423676,"is_reserved":false,"is_disabled":true,"rental_uris":{"android":"levelo://app?vid=1d934d30-6a85-4b30-9a35-9bb4ad4cb2ca","ios":"levelo://app?vid=1d934d30-6a85-4b30-9a35-9bb4ad4cb2ca"},"vehicle_type_id":"4","last_reported":1751389792,"current_range_meters":0,"station_id":"","pricing_plan_id":"cebpf4jnsgd1na2vs0mg"},{"bike_id":"3378c13c-e4e0-45be-9bfe-f3a4bc2c600e","system_id":"levelo_inurba_marseille","lat":43.29769,"lon":5.45994,"is_reserved":false,"is_disabled":true,"rental_uris":{"android":"levelo://app?vid=3378c13c-e4e0-45be-9bfe-f3a4bc2c600e","ios":"levelo://app?vid=3378c13c-e4e0-45be-9bfe-f3a4bc2c600e"},"vehicle_type_id":"4","last_reported":1751389792,"current_range_meters":0,"station_id":"","pricing_plan_id":"cebpf4jnsgd1na2vs0mg"},{"bike_id":"2ccccc82-c8a9-4c3b-909d-52c0bf697aa3","system_id":"levelo_inurba_marseille","lat":43.27608,"lon":5.35906,"is_reserved":false,"is_disabled":true,"rental_uris":{"android":"levelo://app?vid=2ccccc82-c8a9-4c3b-909d-52c0bf697aa3","ios":"levelo://app?vid=2ccccc82-c8a9-4c3b-909d-52c0bf697aa3"},"vehicle_type_id":"4","last_reported":1751389792,"current_range_meters":0,"station_id":"","pricing_plan_id":"cebpf4jnsgd1na2vs0mg"},{"bike_id":"c9700359-7f1e-4ea5-8eb5-d9c4ea1b8ef7","system_id":"levelo_inurba_marseille","lat":43.263214,"lon":5.373936,"is_reserved":false,"is_disabled":true,"rental_uris":{"android":"levelo://app?vid=c9700359-7f1e-4ea5-8eb5-d9c4ea1b8ef7","ios":"levelo://app?vid=c9700359-7f1e-4ea5-8eb5-d9c4ea1b8ef7"},"vehicle_type_id":"4","last_reported":1751389792,"current_range_meters":0,"station_id":"","pricing_plan_id":"cebpf4jnsgd1na2vs0mg"},{"bike_id":"3035be0e-7c3d-4f7d-a1cb-7a1af59e497b","system_id":"levelo_inurba_marseille","lat":43.29678,"lon":5.360065,"is_reserved":false,"is_disabled":true,"rental_uris":{"android":"levelo://app?vid=3035be0e-7c3d-4f7d-a1cb-7a1af59e497b","ios":"levelo://app?vid=3035be0e-7c3d-4f7d-a1cb-7a1af59e497b"},"vehicle_type_id":"4","last_reported":1751389792,"current_range_meters":0,"station_id":"","pricing_plan_id":"cebpf4jnsgd1na2vs0mg"},{"bike_id":"bfd55457-1e4d-4c14-b5a1-9b6fcd6d08e8","system_id":"levelo_inurba_marseille","lat":43.29583,"lon":5.36741,"is_reserved":false,"is_disabled":true,"rental_uris":{"android":"levelo://app?vid=bfd55457-1e4d-4c14-b5a1-9b6fcd6d08e8","ios":"levelo://app?vid=bfd55457-1e4d-4c14-b5a1-9b6fcd6d08e8"},"vehicle_type_id":"4","last_reported":1751389792,"current_range_meters":0,"station_id":"ce4bgph2rcd13ifvqc2g","pricing_plan_id":"cebpf4jnsgd1na2vs0mg"},{"bike_id":"b1e42a3f-0c10-485b-adb1-49a32a4f912a","system_id":"levelo_inurba_marseille","lat":43.30298,"lon":5.36862,"is_reserved":false,"is_disabled":true,"rental_uris":{"android":"levelo://app?vid=b1e42a3f-0c10-485b-adb1-49a32a4f912a","ios":"levelo://app?vid=b1e42a3f-0c10-485b-adb1-49a32a4f912a"},"vehicle_type_id":"4","last_reported":1751389792,"current_range_meters":0,"station_id":"ce4bgqh2rcd13ifvqc5g","pricing_plan_id":"cebpf4jnsgd1na2vs0mg"},{"bike_id":"fc922827-a560-40b3-a464-7d96a560fe74","system_id":"levelo_inurba_marseille","lat":43.31355,"lon":5.38496,"is_reserved":false,"is_disabled":true,"rental_uris":{"android":"levelo://app?vid=fc922827-a560-40b3-a464-7d96a560fe74","ios":"levelo://app?vid=fc922827-a560-40b3-a464-7d96a560fe74"},"vehicle_type_id":"4","last_reported":1751389792,"current_range_meters":0,"station_id":"ce4bgt92rcd13ifvqcf0","pricing_plan_id":"cebpf4jnsgd1na2vs0mg"},{"bike_id":"992e77b8-acdd-4b75-a838-766e3a8ef25c","system_id":"levelo_inurba_marseille","lat":43.294556,"lon":5.3868,"is_reserved":false,"is_disabled":true,"rental_uris":{"android":"levelo://app?vid=992e77b8-acdd-4b75-a838-766e3a8ef25c","ios":"levelo://app?vid=992e77b8-acdd-4b75-a838-766e3a8ef25c"},"vehicle_type_id":"4","last_reported":1751389792,"current_range_meters":0,"station_id":"ce4bgv92rcd13ifvqcr0","pricing_plan_id":"cebpf4jnsgd1na2vs0mg"},{"bike_id":"06ead579-8483-4fb5-889d-5c4db9dd6768","system_id":"levelo_inurba_marseille","lat":43.284765,"lon":5.385655,"is_reserved":false,"is_disabled":true,"rental_uris":{"android":"levelo://app?vid=06ead579-8483-4fb5-889d-5c4db9dd6768","ios":"levelo://app?vid=06ead579-8483-4fb5-889d-5c4db9dd6768"},"vehicle_type_id":"4","last_reported":1751389792,"current_range_meters":0,"station_id":"ce4bh8p2rcd13ifvqeb0","pricing_plan_id":"cebpf4jnsgd1na2vs0mg"},{"bike_id":"eaf1d89d-158b-4c51-a595-a72edd51d939","system_id":"levelo_inurba_marseille","lat":43.273744,"lon":5.36265,"is_reserved":false,"is_disabled":true,"rental_uris":{"android":"levelo://app?vid=eaf1d89d-158b-4c51-a595-a72edd51d939","ios":"levelo://app?vid=eaf1d89d-158b-4c51-a595-a72edd51d939"},"vehicle_type_id":"4","last_reported":1751389792,"current_range_meters":0,"station_id":"ce4bhbh2rcd13ifvqeo0","pricing_plan_id":"cebpf4jnsgd1na2vs0mg"},{"bike_id":"992edd51-59b4-4a43-8806-546a92f11c49","system_id":"levelo_inurba_marseille","lat":43.26553,"lon":5.37285,"is_reserved":false,"is_disabled":true,"rental_uris":{"android":"levelo://app?vid=992edd51-59b4-4a43-8806-546a92f11c49","ios":"levelo://app?vid=992edd51-59b4-4a43-8806-546a92f11c49"},"vehicle_type_id":"4","last_reported":1751389792,"current_range_meters":0,"station_id":"ce4bhg12rcd13ifvqf70","pricing_plan_id":"cebpf4jnsgd1na2vs0mg"},{"bike_id":"f35a46cc-5d24-452c-ab25-7a7bea93d771","system_id":"levelo_inurba_marseille","lat":43.27206,"lon":5.39182,"is_reserved":false,"is_disabled":true,"rental_uris":{"android":"levelo://app?vid=f35a46cc-5d24-452c-ab25-7a7bea93d771","ios":"levelo://app?vid=f35a46cc-5d24-452c-ab25-7a7bea93d771"},"vehicle_type_id":"4","last_reported":1751389792,"current_range_meters":0,"station_id":"ce4bhhp2rcd13ifvqfm0","pricing_plan_id":"cebpf4jnsgd1na2vs0mg"},{"bike_id":"288a6299-4408-447b-a982-c7ccacc11499","system_id":"levelo_inurba_marseille","lat":43.258697,"lon":5.398955,"is_reserved":false,"is_disabled":true,"rental_uris":{"android":"levelo://app?vid=288a6299-4408-447b-a982-c7ccacc11499","ios":"levelo://app?vid=288a6299-4408-447b-a982-c7ccacc11499"},"vehicle_type_id":"4","last_reported":1751389792,"current_range_meters":0,"station_id":"ce4bhl92rcd13ifvqghg","pricing_plan_id":"cebpf4jnsgd1na2vs0mg"},{"bike_id":"19e9a3f5-ca19-427a-b64f-2a662f532cc0","system_id":"levelo_inurba_marseille","lat":43.25941,"lon":5.40899,"is_reserved":false,"is_disabled":true,"rental_uris":{"android":"levelo://app?vid=19e9a3f5-ca19-427a-b64f-2a662f532cc0","ios":"levelo://app?vid=19e9a3f5-ca19-427a-b64f-2a662f532cc0"},"vehicle_type_id":"4","last_reported":1751389792,"current_range_meters":0,"station_id":"ce4bhm92rcd13ifvqglg","pricing_plan_id":"cebpf4jnsgd1na2vs0mg"},{"bike_id":"e1a382cd-f04b-4bf6-bb67-2ed3a181b292","system_id":"levelo_inurba_marseille","lat":43.304203,"lon":5.412763,"is_reserved":false,"is_disabled":true,"rental_uris":{"android":"levelo://app?vid=e1a382cd-f04b-4bf6-bb67-2ed3a181b292","ios":"levelo://app?vid=e1a382cd-f04b-4bf6-bb67-2ed3a181b292"},"vehicle_type_id":"4","last_reported":1751389792,"current_range_meters":0,"station_id":"ce4bhop2rcd13ifvqh8g","pricing_plan_id":"cebpf4jnsgd1na2vs0mg"},{"bike_id":"de1988bc-a9c8-4b00-9533-fbec8ecf6830","system_id":"levelo_inurba_marseille","lat":43.32103,"lon":5.36771,"is_reserved":false,"is_disabled":true,"rental_uris":{"android":"levelo://app?vid=de1988bc-a9c8-4b00-9533-fbec8ecf6830","ios":"levelo://app?vid=de1988bc-a9c8-4b00-9533-fbec8ecf6830"},"vehicle_type_id":"4","last_reported":1751389792,"current_range_meters":0,"station_id":"ce4bhrh2rcd13ifvqhug","pricing_plan_id":"cebpf4jnsgd1na2vs0mg"},{"bike_id":"9ea9b2f2-da6c-427c-b4f4-742ad87b4a40","system_id":"levelo_inurba_marseille","lat":43.323565,"lon":5.367568,"is_reserved":false,"is_disabled":true,"rental_uris":{"android":"levelo://app?vid=9ea9b2f2-da6c-427c-b4f4-742ad87b4a40","ios":"levelo://app?vid=9ea9b2f2-da6c-427c-b4f4-742ad87b4a40"},"vehicle_type_id":"4","last_reported":1751389792,"current_range_meters":0,"station_id":"ce4bhsh2rcd13ifvqi2g","pricing_plan_id":"cebpf4jnsgd1na2vs0mg"},{"bike_id":"f3bb54e5-5710-469b-95d1-519f2df26e28","system_id":"levelo_inurba_marseille","lat":43.302642,"lon":5.381914,"is_reserved":false,"is_disabled":true,"rental_uris":{"android":"levelo://app?vid=f3bb54e5-5710-469b-95d1-519f2df26e28","ios":"levelo://app?vid=f3bb54e5-5710-469b-95d1-519f2df26e28"},"vehicle_type_id":"4","last_reported":1751389792,"current_range_meters":400,"station_id":"","pricing_plan_id":"cebpf4jnsgd1na2vs0mg"},{"bike_id":"46ed2b9f-1912-466e-b039-bc4b03b9c281","system_id":"levelo_inurba_marseille","lat":43.23768,"lon":5.3617,"is_reserved":false,"is_disabled":true,"rental_uris":{"android":"levelo://app?vid=46ed2b9f-1912-466e-b039-bc4b03b9c281","ios":"levelo://app?vid=46ed2b9f-1912-466e-b039-bc4b03b9c281"},"vehicle_type_id":"4","last_reported":1751389792,"current_range_meters":400,"station_id":"","pricing_plan_id":"cebpf4jnsgd1na2vs0mg"},{"bike_id":"07b55397-c1a7-4ee0-bb9b-49daf9b0a098","system_id":"levelo_inurba_marseille","lat":43.27373,"lon":5.36254,"is_reserved":false,"is_disabled":true,"rental_uris":{"android":"levelo://app?vid=07b55397-c1a7-4ee0-bb9b-49daf9b0a098","ios":"levelo://app?vid=07b55397-c1a7-4ee0-bb9b-49daf9b0a098"},"vehicle_type_id":"4","last_reported":1751389792,"current_range_meters":400,"station_id":"ce4bhbh2rcd13ifvqeo0","pricing_plan_id":"cebpf4jnsgd1na2vs0mg"},{"bike_id":"82a480ee-914f-44e1-a94b-51aaa689e5b9","system_id":"levelo_inurba_marseille","lat":43.25111,"lon":5.40324,"is_reserved":false,"is_disabled":true,"rental_uris":{"android":"levelo://app?vid=82a480ee-914f-44e1-a94b-51aaa689e5b9","ios":"levelo://app?vid=82a480ee-914f-44e1-a94b-51aaa689e5b9"},"vehicle_type_id":"4","last_reported":1751389792,"current_range_meters":400,"station_id":"ce4bhlh2rcd13ifvqgig","pricing_plan_id":"cebpf4jnsgd1na2vs0mg"},{"bike_id":"88f922a8-256f-4b48-b122-7bc472446fb6","system_id":"levelo_inurba_marseille","lat":43.292,"lon":5.35809,"is_reserved":false,"is_disabled":true,"rental_uris":{"android":"levelo://app?vid=88f922a8-256f-4b48-b122-7bc472446fb6","ios":"levelo://app?vid=88f922a8-256f-4b48-b122-7bc472446fb6"},"vehicle_type_id":"4","last_reported":1751389792,"current_range_meters":800,"station_id":"ce4bhb12rcd13ifvqel0","pricing_plan_id":"cebpf4jnsgd1na2vs0mg"},{"bike_id":"02ef0993-02d2-4850-8181-c1a47b0ff6e1","system_id":"levelo_inurba_marseille","lat":43.28076,"lon":5.39651,"is_reserved":false,"is_disabled":true,"rental_uris":{"android":"levelo://app?vid=02ef0993-02d2-4850-8181-c1a47b0ff6e1","ios":"levelo://app?vid=02ef0993-02d2-4850-8181-c1a47b0ff6e1"},"vehicle_type_id":"4","last_reported":1751389792,"current_range_meters":800,"station_id":"ce4bho12rcd13ifvqh2g","pricing_plan_id":"cebpf4jnsgd1na2vs0mg"},{"bike_id":"f4e0bbdf-436e-4117-b20b-a7bc7c3e982d","system_id":"levelo_inurba_marseille","lat":43.32336,"lon":5.40622,"is_reserved":false,"is_disabled":true,"rental_uris":{"android":"levelo://app?vid=f4e0bbdf-436e-4117-b20b-a7bc7c3e982d","ios":"levelo://app?vid=f4e0bbdf-436e-4117-b20b-a7bc7c3e982d"},"vehicle_type_id":"4","last_reported":1751389792,"current_range_meters":800,"station_id":"ce4bhq92rcd13ifvqhjg","pricing_plan_id":"cebpf4jnsgd1na2vs0mg"},{"bike_id":"2bb9638c-e2ca-4ec9-9284-fbd7811a4123","system_id":"levelo_inurba_marseille","lat":43.33024,"lon":5.39037,"is_reserved":false,"is_disabled":true,"rental_uris":{"android":"levelo://app?vid=2bb9638c-e2ca-4ec9-9284-fbd7811a4123","ios":"levelo://app?vid=2bb9638c-e2ca-4ec9-9284-fbd7811a4123"},"vehicle_type_id":"4","last_reported":1751389792,"current_range_meters":800,"station_id":"ce4bhr92rcd13ifvqhrg","pricing_plan_id":"cebpf4jnsgd1na2vs0mg"},{"bike_id":"6346854d-967c-470e-9bcf-0ee9cbb31745","system_id":"levelo_inurba_marseille","lat":43.26919,"lon":5.42003,"is_reserved":false,"is_disabled":true,"rental_uris":{"android":"levelo://app?vid=6346854d-967c-470e-9bcf-0ee9cbb31745","ios":"levelo://app?vid=6346854d-967c-470e-9bcf-0ee9cbb31745"},"vehicle_type_id":"4","last_reported":1751389792,"current_range_meters":1200,"station_id":"","pricing_plan_id":"cebpf4jnsgd1na2vs0mg"},{"bike_id":"f3635e8a-cbee-4494-b9fc-f7761e0dd4d5","system_id":"levelo_inurba_marseille","lat":43.30795,"lon":5.38162,"is_reserved":false,"is_disabled":true,"rental_uris":{"android":"levelo://app?vid=f3635e8a-cbee-4494-b9fc-f7761e0dd4d5","ios":"levelo://app?vid=f3635e8a-cbee-4494-b9fc-f7761e0dd4d5"},"vehicle_type_id":"4","last_reported":1751389792,"current_range_meters":1200,"station_id":"ce4bgt12rcd13ifvqce0","pricing_plan_id":"cebpf4jnsgd1na2vs0mg"},{"bike_id":"93fd6cad-f099-4791-abaf-84970d51d553","system_id":"levelo_inurba_marseille","lat":43.27975,"lon":5.3874,"is_reserved":false,"is_disabled":true,"rental_uris":{"android":"levelo://app?vid=93fd6cad-f099-4791-abaf-84970d51d553","ios":"levelo://app?vid=93fd6cad-f099-4791-abaf-84970d51d553"},"vehicle_type_id":"4","last_reported":1751389792,"current_range_meters":1200,"station_id":"ce4bhg12rcd13ifvqf80","pricing_plan_id":"cebpf4jnsgd1na2vs0mg"},{"bike_id":"0137fde0-0d43-4d45-967b-1e7ecbc7c683","system_id":"levelo_inurba_marseille","lat":43.25574,"lon":5.38221,"is_reserved":false,"is_disabled":true,"rental_uris":{"android":"levelo://app?vid=0137fde0-0d43-4d45-967b-1e7ecbc7c683","ios":"levelo://app?vid=0137fde0-0d43-4d45-967b-1e7ecbc7c683"},"vehicle_type_id":"4","last_reported":1751389792,"current_range_meters":1200,"station_id":"ce4bhih2rcd13ifvqfs0","pricing_plan_id":"cebpf4jnsgd1na2vs0mg"},{"bike_id":"176584ac-9400-466a-b24f-4bbe2e0caad1","system_id":"levelo_inurba_marseille","lat":43.27175,"lon":5.40998,"is_reserved":false,"is_disabled":true,"rental_uris":{"android":"levelo://app?vid=176584ac-9400-466a-b24f-4bbe2e0caad1","ios":"levelo://app?vid=176584ac-9400-466a-b24f-4bbe2e0caad1"},"vehicle_type_id":"4","last_reported":1751389792,"current_range_meters":1200,"station_id":"ce4bhl12rcd13ifvqgf0","pricing_plan_id":"cebpf4jnsgd1na2vs0mg"},{"bike_id":"64551e82-9a04-47d7-a390-ad351a108462","system_id":"levelo_inurba_marseille","lat":43.2866,"lon":5.36348,"is_reserved":false,"is_disabled":true,"rental_uris":{"android":"levelo://app?vid=64551e82-9a04-47d7-a390-ad351a108462","ios":"levelo://app?vid=64551e82-9a04-47d7-a390-ad351a108462"},"vehicle_type_id":"4","last_reported":1751389792,"current_range_meters":1600,"station_id":"ce4bhah2rcd13ifvqej0","pricing_plan_id":"cebpf4jnsgd1na2vs0mg"},{"bike_id":"cad0e657-deb0-4076-b01e-a774ef7995a6","system_id":"levelo_inurba_marseille","lat":43.28159,"lon":5.42641,"is_reserved":false,"is_disabled":false,"rental_uris":{"android":"levelo://app?vid=cad0e657-deb0-4076-b01e-a774ef7995a6","ios":"levelo://app?vid=cad0e657-deb0-4076-b01e-a774ef7995a6"},"vehicle_type_id":"4","last_reported":1751389792,"current_range_meters":1600,"station_id":"ce4bhnh2rcd13ifvqgug","pricing_plan_id":"cebpf4jnsgd1na2vs0mg"},{"bike_id":"40cf7dc8-ba68-40b5-9e20-0b94abd019ae","system_id":"levelo_inurba_marseille","lat":43.28698,"lon":5.3739,"is_reserved":false,"is_disabled":true,"rental_uris":{"android":"levelo://app?vid=40cf7dc8-ba68-40b5-9e20-0b94abd019ae","ios":"levelo://app?vid=40cf7dc8-ba68-40b5-9e20-0b94abd019ae"},"vehicle_type_id":"4","last_reported":1751389792,"current_range_meters":2000,"station_id":"ce4bh3p2rcd13ifvqdq0","pricing_plan_id":"cebpf4jnsgd1na2vs0mg"},{"bike_id":"7e408e5f-8e5d-446e-8629-53a7d6066e7a","system_id":"levelo_inurba_marseille","lat":43.29204,"lon":5.35798,"is_reserved":false,"is_disabled":true,"rental_uris":{"android":"levelo://app?vid=7e408e5f-8e5d-446e-8629-53a7d6066e7a","ios":"levelo://app?vid=7e408e5f-8e5d-446e-8629-53a7d6066e7a"},"vehicle_type_id":"4","last_reported":1751389792,"current_range_meters":2000,"station_id":"ce4bhb12rcd13ifvqel0","pricing_plan_id":"cebpf4jnsgd1na2vs0mg"},{"bike_id":"b430e201-5f48-410c-b50b-dbcbfc542045","system_id":"levelo_inurba_marseille","lat":43.280777,"lon":5.396627,"is_reserved":false,"is_disabled":true,"rental_uris":{"android":"levelo://app?vid=b430e201-5f48-410c-b50b-dbcbfc542045","ios":"levelo://app?vid=b430e201-5f48-410c-b50b-dbcbfc542045"},"vehicle_type_id":"4","last_reported":1751389792,"current_range_meters":2000,"station_id":"ce4bho12rcd13ifvqh2g","pricing_plan_id":"cebpf4jnsgd1na2vs0mg"},{"bike_id":"bd9d37a6-b6fa-46b3-a1cf-a362321ef116","system_id":"levelo_inurba_marseille","lat":43.29874,"lon":5.37581,"is_reserved":false,"is_disabled":false,"rental_uris":{"android":"levelo://app?vid=bd9d37a6-b6fa-46b3-a1cf-a362321ef116","ios":"levelo://app?vid=bd9d37a6-b6fa-46b3-a1cf-a362321ef116"},"vehicle_type_id":"4","last_reported":1751389792,"current_range_meters":2800,"station_id":"","pricing_plan_id":"cebpf4jnsgd1na2vs0mg"},{"bike_id":"7547e1e4-2d85-4907-971d-6c8e5c4cb529","system_id":"levelo_inurba_marseille","lat":43.253652,"lon":5.375098,"is_reserved":false,"is_disabled":false,"rental_uris":{"android":"levelo://app?vid=7547e1e4-2d85-4907-971d-6c8e5c4cb529","ios":"levelo://app?vid=7547e1e4-2d85-4907-971d-6c8e5c4cb529"},"vehicle_type_id":"4","last_reported":1751389792,"current_range_meters":2800,"station_id":"","pricing_plan_id":"cebpf4jnsgd1na2vs0mg"},{"bike_id":"e5a91c12-a9d1-463a-8abe-d0dd37cf3197","system_id":"levelo_inurba_marseille","lat":43.297824,"lon":5.377598,"is_reserved":false,"is_disabled":false,"rental_uris":{"android":"levelo://app?vid=e5a91c12-a9d1-463a-8abe-d0dd37cf3197","ios":"levelo://app?vid=e5a91c12-a9d1-463a-8abe-d0dd37cf3197"},"vehicle_type_id":"4","last_reported":1751389792,"current_range_meters":2800,"station_id":"","pricing_plan_id":"cebpf4jnsgd1na2vs0mg"},{"bike_id":"df03e4f9-058d-41a3-b77a-93d9cd435f72","system_id":"levelo_inurba_marseille","lat":43.276196,"lon":5.361041,"is_reserved":false,"is_disabled":false,"rental_uris":{"android":"levelo://app?vid=df03e4f9-058d-41a3-b77a-93d9cd435f72","ios":"levelo://app?vid=df03e4f9-058d-41a3-b77a-93d9cd435f72"},"vehicle_type_id":"4","last_reported":1751389792,"current_range_meters":2800,"station_id":"ce4bgj92rcd13ifvqbe0","pricing_plan_id":"cebpf4jnsgd1na2vs0mg"},{"bike_id":"624947ed-d7a2-4f7e-b504-65b6514716a5","system_id":"levelo_inurba_marseille","lat":43.29012,"lon":5.35606,"is_reserved":false,"is_disabled":false,"rental_uris":{"android":"levelo://app?vid=624947ed-d7a2-4f7e-b504-65b6514716a5","ios":"levelo://app?vid=624947ed-d7a2-4f7e-b504-65b6514716a5"},"vehicle_type_id":"4","last_reported":1751389792,"current_range_meters":2800,"station_id":"ce4bhb92rcd13ifvqen0","pricing_plan_id":"cebpf4jnsgd1na2vs0mg"},{"bike_id":"853ac61d-5a7a-4e50-a4ac-e00cf487912f","system_id":"levelo_inurba_marseille","lat":43.27509,"lon":5.42462,"is_reserved":false,"is_disabled":false,"rental_uris":{"android":"levelo://app?vid=853ac61d-5a7a-4e50-a4ac-e00cf487912f","ios":"levelo://app?vid=853ac61d-5a7a-4e50-a4ac-e00cf487912f"},"vehicle_type_id":"4","last_reported":1751389792,"current_range_meters":2800,"station_id":"ce4bhn92rcd13ifvqgrg","pricing_plan_id":"cebpf4jnsgd1na2vs0mg"},{"bike_id":"498f6490-9298-47d6-aab7-c02f93a32669","system_id":"levelo_inurba_marseille","lat":43.281557,"lon":5.426408,"is_reserved":false,"is_disabled":false,"rental_uris":{"android":"levelo://app?vid=498f6490-9298-47d6-aab7-c02f93a32669","ios":"levelo://app?vid=498f6490-9298-47d6-aab7-c02f93a32669"},"vehicle_type_id":"4","last_reported":1751389792,"current_range_meters":2800,"station_id":"ce4bhnh2rcd13ifvqgug","pricing_plan_id":"cebpf4jnsgd1na2vs0mg"},{"bike_id":"5535b375-88a8-48f2-9bbe-c408367e409a","system_id":"levelo_inurba_marseille","lat":43.31363,"lon":5.38357,"is_reserved":false,"is_disabled":false,"rental_uris":{"android":"levelo://app?vid=5535b375-88a8-48f2-9bbe-c408367e409a","ios":"levelo://app?vid=5535b375-88a8-48f2-9bbe-c408367e409a"},"vehicle_type_id":"4","last_reported":1751389792,"current_range_meters":3200,"station_id":"","pricing_plan_id":"cebpf4jnsgd1na2vs0mg"},{"bike_id":"53f72683-1d4e-409c-8d7e-4e3fec3db643","system_id":"levelo_inurba_marseille","lat":43.27498,"lon":5.42449,"is_reserved":false,"is_disabled":false,"rental_uris":{"android":"levelo://app?vid=53f72683-1d4e-409c-8d7e-4e3fec3db643","ios":"levelo://app?vid=53f72683-1d4e-409c-8d7e-4e3fec3db643"},"vehicle_type_id":"4","last_reported":1751389792,"current_range_meters":3200,"station_id":"ce4bhn92rcd13ifvqgrg","pricing_plan_id":"cebpf4jnsgd1na2vs0mg"},{"bike_id":"a1901121-5f11-4e78-baf8-380c49a88fad","system_id":"levelo_inurba_marseille","lat":43.32282,"lon":5.38253,"is_reserved":false,"is_disabled":false,"rental_uris":{"android":"levelo://app?vid=a1901121-5f11-4e78-baf8-380c49a88fad","ios":"levelo://app?vid=a1901121-5f11-4e78-baf8-380c49a88fad"},"vehicle_type_id":"4","last_reported":1751389792,"current_range_meters":4000,"station_id":"ce4bhr12rcd13ifvqhqg","pricing_plan_id":"cebpf4jnsgd1na2vs0mg"},{"bike_id":"4fb5ef5d-c051-429c-ba1f-26b3489d9af5","system_id":"levelo_inurba_marseille","lat":43.27707,"lon":5.38378,"is_reserved":false,"is_disabled":false,"rental_uris":{"android":"levelo://app?vid=4fb5ef5d-c051-429c-ba1f-26b3489d9af5","ios":"levelo://app?vid=4fb5ef5d-c051-429c-ba1f-26b3489d9af5"},"vehicle_type_id":"4","last_reported":1751389792,"current_range_meters":4800,"station_id":"","pricing_plan_id":"cebpf4jnsgd1na2vs0mg"},{"bike_id":"4d1af5d2-24b1-4e0f-810c-6e0173eac142","system_id":"levelo_inurba_marseille","lat":43.30937,"lon":5.39014,"is_reserved":false,"is_disabled":false,"rental_uris":{"android":"levelo://app?vid=4d1af5d2-24b1-4e0f-810c-6e0173eac142","ios":"levelo://app?vid=4d1af5d2-24b1-4e0f-810c-6e0173eac142"},"vehicle_type_id":"4","last_reported":1751389792,"current_range_meters":4800,"station_id":"ce4bgup2rcd13ifvqco0","pricing_plan_id":"cebpf4jnsgd1na2vs0mg"},{"bike_id":"acf0c94b-65af-49c2-9318-8bf9ef33ec65","system_id":"levelo_inurba_marseille","lat":43.26213,"lon":5.37441,"is_reserved":false,"is_disabled":false,"rental_uris":{"android":"levelo://app?vid=acf0c94b-65af-49c2-9318-8bf9ef33ec65","ios":"levelo://app?vid=acf0c94b-65af-49c2-9318-8bf9ef33ec65"},"vehicle_type_id":"4","last_reported":1751389792,"current_range_meters":4800,"station_id":"ce4bhgp2rcd13ifvqfc0","pricing_plan_id":"cebpf4jnsgd1na2vs0mg"},{"bike_id":"162af4e6-d224-4240-aeac-6cb0ae06de53","system_id":"levelo_inurba_marseille","lat":43.299288,"lon":5.37831,"is_reserved":false,"is_disabled":false,"rental_uris":{"android":"levelo://app?vid=162af4e6-d224-4240-aeac-6cb0ae06de53","ios":"levelo://app?vid=162af4e6-d224-4240-aeac-6cb0ae06de53"},"vehicle_type_id":"4","last_reported":1751389792,"current_range_meters":5600,"station_id":"","pricing_plan_id":"cebpf4jnsgd1na2vs0mg"},{"bike_id":"c812648b-fb9b-4185-835c-e69313170382","system_id":"levelo_inurba_marseille","lat":43.27617,"lon":5.36104,"is_reserved":false,"is_disabled":false,"rental_uris":{"android":"levelo://app?vid=c812648b-fb9b-4185-835c-e69313170382","ios":"levelo://app?vid=c812648b-fb9b-4185-835c-e69313170382"},"vehicle_type_id":"4","last_reported":1751389792,"current_range_meters":5600,"station_id":"ce4bgj92rcd13ifvqbe0","pricing_plan_id":"cebpf4jnsgd1na2vs0mg"},{"bike_id":"f8bfde1a-db97-4d50-bc30-f3d56dc4cdd1","system_id":"levelo_inurba_marseille","lat":43.282654,"lon":5.350633,"is_reserved":false,"is_disabled":false,"rental_uris":{"android":"levelo://app?vid=f8bfde1a-db97-4d50-bc30-f3d56dc4cdd1","ios":"levelo://app?vid=f8bfde1a-db97-4d50-bc30-f3d56dc4cdd1"},"vehicle_type_id":"4","last_reported":1751389792,"current_range_meters":5600,"station_id":"ce4bhbp2rcd13ifvqerg","pricing_plan_id":"cebpf4jnsgd1na2vs0mg"},{"bike_id":"3896781a-ea10-4924-a883-8ba836370a02","system_id":"levelo_inurba_marseille","lat":43.29533,"lon":5.38546,"is_reserved":false,"is_disabled":false,"rental_uris":{"android":"levelo://app?vid=3896781a-ea10-4924-a883-8ba836370a02","ios":"levelo://app?vid=3896781a-ea10-4924-a883-8ba836370a02"},"vehicle_type_id":"4","last_reported":1751389792,"current_range_meters":6400,"station_id":"ce4bgih2rcd13ifvqba0","pricing_plan_id":"cebpf4jnsgd1na2vs0mg"},{"bike_id":"cfe23849-6ae3-4d03-939b-6490347920d2","system_id":"levelo_inurba_marseille","lat":43.28942,"lon":5.364,"is_reserved":false,"is_disabled":false,"rental_uris":{"android":"levelo://app?vid=cfe23849-6ae3-4d03-939b-6490347920d2","ios":"levelo://app?vid=cfe23849-6ae3-4d03-939b-6490347920d2"},"vehicle_type_id":"4","last_reported":1751389792,"current_range_meters":6400,"station_id":"ce4bhc92rcd13ifvqetg","pricing_plan_id":"cebpf4jnsgd1na2vs0mg"},{"bike_id":"eeca0981-6e6b-4cc4-992c-65a8b8bbec4c","system_id":"levelo_inurba_marseille","lat":43.22912,"lon":5.35384,"is_reserved":false,"is_disabled":false,"rental_uris":{"android":"levelo://app?vid=eeca0981-6e6b-4cc4-992c-65a8b8bbec4c","ios":"levelo://app?vid=eeca0981-6e6b-4cc4-992c-65a8b8bbec4c"},"vehicle_type_id":"4","last_reported":1751389792,"current_range_meters":6400,"station_id":"cpo3532slgdg3j2ikp40","pricing_plan_id":"cebpf4jnsgd1na2vs0mg"},{"bike_id":"dfd578c6-3028-47d8-bab5-a52655cbc8c2","system_id":"levelo_inurba_marseille","lat":43.21747,"lon":5.34604,"is_reserved":false,"is_disabled":false,"rental_uris":{"android":"levelo://app?vid=dfd578c6-3028-47d8-bab5-a52655cbc8c2","ios":"levelo://app?vid=dfd578c6-3028-47d8-bab5-a52655cbc8c2"},"vehicle_type_id":"4","last_reported":1751389792,"current_range_meters":6400,"station_id":"st_cvj6r9ubvosntc0bgbag","pricing_plan_id":"cebpf4jnsgd1na2vs0mg"},{"bike_id":"f5c16f07-bc6f-4121-91a7-5ad90eec4f34","system_id":"levelo_inurba_marseille","lat":43.3121,"lon":5.37343,"is_reserved":false,"is_disabled":false,"rental_uris":{"android":"levelo://app?vid=f5c16f07-bc6f-4121-91a7-5ad90eec4f34","ios":"levelo://app?vid=f5c16f07-bc6f-4121-91a7-5ad90eec4f34"},"vehicle_type_id":"4","last_reported":1751389792,"current_range_meters":6800,"station_id":"","pricing_plan_id":"cebpf4jnsgd1na2vs0mg"},{"bike_id":"4cf66938-2106-436a-81c8-37051349cf8d","system_id":"levelo_inurba_marseille","lat":43.27375,"lon":5.36248,"is_reserved":false,"is_disabled":false,"rental_uris":{"android":"levelo://app?vid=4cf66938-2106-436a-81c8-37051349cf8d","ios":"levelo://app?vid=4cf66938-2106-436a-81c8-37051349cf8d"},"vehicle_type_id":"4","last_reported":1751389792,"current_range_meters":6800,"station_id":"ce4bhbh2rcd13ifvqeo0","pricing_plan_id":"cebpf4jnsgd1na2vs0mg"},{"bike_id":"43fcb430-53f7-4349-b49c-62f8e6ea8db4","system_id":"levelo_inurba_marseille","lat":43.284566,"lon":5.436981,"is_reserved":false,"is_disabled":false,"rental_uris":{"android":"levelo://app?vid=43fcb430-53f7-4349-b49c-62f8e6ea8db4","ios":"levelo://app?vid=43fcb430-53f7-4349-b49c-62f8e6ea8db4"},"vehicle_type_id":"4","last_reported":1751389792,"current_range_meters":7200,"station_id":"","pricing_plan_id":"cebpf4jnsgd1na2vs0mg"},{"bike_id":"c57b1df6-fd17-4c9e-8046-9a1d20ecc2e3","system_id":"levelo_inurba_marseille","lat":43.30151,"lon":5.381111,"is_reserved":false,"is_disabled":false,"rental_uris":{"android":"levelo://app?vid=c57b1df6-fd17-4c9e-8046-9a1d20ecc2e3","ios":"levelo://app?vid=c57b1df6-fd17-4c9e-8046-9a1d20ecc2e3"},"vehicle_type_id":"4","last_reported":1751389792,"current_range_meters":7200,"station_id":"ce4bgjp2rcd13ifvqbh0","pricing_plan_id":"cebpf4jnsgd1na2vs0mg"},{"bike_id":"62bcac98-d7ae-4efb-a9b4-a10ab87ee0a1","system_id":"levelo_inurba_marseille","lat":43.30441,"lon":5.39744,"is_reserved":false,"is_disabled":false,"rental_uris":{"android":"levelo://app?vid=62bcac98-d7ae-4efb-a9b4-a10ab87ee0a1","ios":"levelo://app?vid=62bcac98-d7ae-4efb-a9b4-a10ab87ee0a1"},"vehicle_type_id":"4","last_reported":1751389792,"current_range_meters":7200,"station_id":"ce4bh092rcd13ifvqd20","pricing_plan_id":"cebpf4jnsgd1na2vs0mg"},{"bike_id":"878eab49-41ee-4e2a-8bec-83b9ff582433","system_id":"levelo_inurba_marseille","lat":43.27373,"lon":5.36258,"is_reserved":false,"is_disabled":false,"rental_uris":{"android":"levelo://app?vid=878eab49-41ee-4e2a-8bec-83b9ff582433","ios":"levelo://app?vid=878eab49-41ee-4e2a-8bec-83b9ff582433"},"vehicle_type_id":"4","last_reported":1751389792,"current_range_meters":7200,"station_id":"ce4bhbh2rcd13ifvqeo0","pricing_plan_id":"cebpf4jnsgd1na2vs0mg"},{"bike_id":"bf5facff-d909-4792-9f44-f3177c937059","system_id":"levelo_inurba_marseille","lat":43.250028,"lon":5.394364,"is_reserved":false,"is_disabled":false,"rental_uris":{"android":"levelo://app?vid=bf5facff-d909-4792-9f44-f3177c937059","ios":"levelo://app?vid=bf5facff-d909-4792-9f44-f3177c937059"},"vehicle_type_id":"4","last_reported":1751389792,"current_range_meters":7200,"station_id":"ce4bhh12rcd13ifvqff0","pricing_plan_id":"cebpf4jnsgd1na2vs0mg"},{"bike_id":"5cf4ba3a-9136-40a7-9083-41e98ddb7fd2","system_id":"levelo_inurba_marseille","lat":43.31533,"lon":5.38041,"is_reserved":false,"is_disabled":false,"rental_uris":{"android":"levelo://app?vid=5cf4ba3a-9136-40a7-9083-41e98ddb7fd2","ios":"levelo://app?vid=5cf4ba3a-9136-40a7-9083-41e98ddb7fd2"},"vehicle_type_id":"4","last_reported":1751389792,"current_range_meters":7200,"station_id":"ce4bhsp2rcd13ifvqi50","pricing_plan_id":"cebpf4jnsgd1na2vs0mg"},{"bike_id":"11590693-8f59-403f-8233-36266dcb0ddf","system_id":"levelo_inurba_marseille","lat":43.21776,"lon":5.34608,"is_reserved":false,"is_disabled":false,"rental_uris":{"android":"levelo://app?vid=11590693-8f59-403f-8233-36266dcb0ddf","ios":"levelo://app?vid=11590693-8f59-403f-8233-36266dcb0ddf"},"vehicle_type_id":"4","last_reported":1751389792,"current_range_meters":7200,"station_id":"st_cvj6r9ubvosntc0bgbag","pricing_plan_id":"cebpf4jnsgd1na2vs0mg"},{"bike_id":"676e2c0b-b242-4cb8-8f6f-0a84167bec3d","system_id":"levelo_inurba_marseille","lat":43.29515,"lon":5.39399,"is_reserved":false,"is_disabled":false,"rental_uris":{"android":"levelo://app?vid=676e2c0b-b242-4cb8-8f6f-0a84167bec3d","ios":"levelo://app?vid=676e2c0b-b242-4cb8-8f6f-0a84167bec3d"},"vehicle_type_id":"4","last_reported":1751389792,"current_range_meters":8000,"station_id":"ce4bh292rcd13ifvqdf0","pricing_plan_id":"cebpf4jnsgd1na2vs0mg"},{"bike_id":"a2017121-8342-439c-9853-789b6ff0806f","system_id":"levelo_inurba_marseille","lat":43.211885,"lon":5.3507,"is_reserved":false,"is_disabled":false,"rental_uris":{"android":"levelo://app?vid=a2017121-8342-439c-9853-789b6ff0806f","ios":"levelo://app?vid=a2017121-8342-439c-9853-789b6ff0806f"},"vehicle_type_id":"4","last_reported":1751389792,"current_range_meters":8000,"station_id":"st_cvj6sg6p6f1abm77japg","pricing_plan_id":"cebpf4jnsgd1na2vs0mg"},{"bike_id":"626a8662-393b-439a-97ef-d65e90429d1d","system_id":"levelo_inurba_marseille","lat":43.28614,"lon":5.35107,"is_reserved":false,"is_disabled":false,"rental_uris":{"android":"levelo://app?vid=626a8662-393b-439a-97ef-d65e90429d1d","ios":"levelo://app?vid=626a8662-393b-439a-97ef-d65e90429d1d"},"vehicle_type_id":"4","last_reported":1751389792,"current_range_meters":8400,"station_id":"ce4bhch2rcd13ifvqeug","pricing_plan_id":"cebpf4jnsgd1na2vs0mg"},{"bike_id":"860ecc02-a6d5-4fbe-ada6-b9197deada15","system_id":"levelo_inurba_marseille","lat":43.3255,"lon":5.38929,"is_reserved":false,"is_disabled":false,"rental_uris":{"android":"levelo://app?vid=860ecc02-a6d5-4fbe-ada6-b9197deada15","ios":"levelo://app?vid=860ecc02-a6d5-4fbe-ada6-b9197deada15"},"vehicle_type_id":"4","last_reported":1751389792,"current_range_meters":8800,"station_id":"","pricing_plan_id":"cebpf4jnsgd1na2vs0mg"},{"bike_id":"636da818-63e8-4c69-9ca4-b696e7dd6425","system_id":"levelo_inurba_marseille","lat":43.270663,"lon":5.422751,"is_reserved":false,"is_disabled":false,"rental_uris":{"android":"levelo://app?vid=636da818-63e8-4c69-9ca4-b696e7dd6425","ios":"levelo://app?vid=636da818-63e8-4c69-9ca4-b696e7dd6425"},"vehicle_type_id":"4","last_reported":1751389792,"current_range_meters":8800,"station_id":"ce4bhk92rcd13ifvqgb0","pricing_plan_id":"cebpf4jnsgd1na2vs0mg"},{"bike_id":"8252b44a-d048-4379-9209-2efa2e627825","system_id":"levelo_inurba_marseille","lat":43.29241,"lon":5.40575,"is_reserved":false,"is_disabled":false,"rental_uris":{"android":"levelo://app?vid=8252b44a-d048-4379-9209-2efa2e627825","ios":"levelo://app?vid=8252b44a-d048-4379-9209-2efa2e627825"},"vehicle_type_id":"4","last_reported":1751389792,"current_range_meters":9200,"station_id":"","pricing_plan_id":"cebpf4jnsgd1na2vs0mg"},{"bike_id":"ef271b93-86af-4e66-ab00-52e5a5530234","system_id":"levelo_inurba_marseille","lat":43.28494,"lon":5.38567,"is_reserved":false,"is_disabled":false,"rental_uris":{"android":"levelo://app?vid=ef271b93-86af-4e66-ab00-52e5a5530234","ios":"levelo://app?vid=ef271b93-86af-4e66-ab00-52e5a5530234"},"vehicle_type_id":"4","last_reported":1751389792,"current_range_meters":9200,"station_id":"ce4bh8p2rcd13ifvqeb0","pricing_plan_id":"cebpf4jnsgd1na2vs0mg"},{"bike_id":"d84ea0b3-0ada-4610-a0c3-5b2fcfcedd4b","system_id":"levelo_inurba_marseille","lat":43.29011,"lon":5.35606,"is_reserved":false,"is_disabled":false,"rental_uris":{"android":"levelo://app?vid=d84ea0b3-0ada-4610-a0c3-5b2fcfcedd4b","ios":"levelo://app?vid=d84ea0b3-0ada-4610-a0c3-5b2fcfcedd4b"},"vehicle_type_id":"4","last_reported":1751389792,"current_range_meters":9200,"station_id":"ce4bhb92rcd13ifvqen0","pricing_plan_id":"cebpf4jnsgd1na2vs0mg"},{"bike_id":"f55d53a4-0514-4c38-a9a5-35906640c118","system_id":"levelo_inurba_marseille","lat":43.28266,"lon":5.35054,"is_reserved":false,"is_disabled":false,"rental_uris":{"android":"levelo://app?vid=f55d53a4-0514-4c38-a9a5-35906640c118","ios":"levelo://app?vid=f55d53a4-0514-4c38-a9a5-35906640c118"},"vehicle_type_id":"4","last_reported":1751389792,"current_range_meters":9200,"station_id":"ce4bhbp2rcd13ifvqerg","pricing_plan_id":"cebpf4jnsgd1na2vs0mg"},{"bike_id":"6b04a8db-f012-4ea9-88f5-d59ff3f24fd9","system_id":"levelo_inurba_marseille","lat":43.299026,"lon":5.436513,"is_reserved":false,"is_disabled":false,"rental_uris":{"android":"levelo://app?vid=6b04a8db-f012-4ea9-88f5-d59ff3f24fd9","ios":"levelo://app?vid=6b04a8db-f012-4ea9-88f5-d59ff3f24fd9"},"vehicle_type_id":"4","last_reported":1751389792,"current_range_meters":9200,"station_id":"ce4bhpp2rcd13ifvqhfg","pricing_plan_id":"cebpf4jnsgd1na2vs0mg"},{"bike_id":"4155bb1a-1f68-46b7-8e1c-d98719f95df5","system_id":"levelo_inurba_marseille","lat":43.29194,"lon":5.35808,"is_reserved":false,"is_disabled":false,"rental_uris":{"android":"levelo://app?vid=4155bb1a-1f68-46b7-8e1c-d98719f95df5","ios":"levelo://app?vid=4155bb1a-1f68-46b7-8e1c-d98719f95df5"},"vehicle_type_id":"4","last_reported":1751389792,"current_range_meters":9600,"station_id":"ce4bhb12rcd13ifvqel0","pricing_plan_id":"cebpf4jnsgd1na2vs0mg"},{"bike_id":"5fba6177-aa78-4856-9366-e4781b44d7ab","system_id":"levelo_inurba_marseille","lat":43.23196,"lon":5.3555,"is_reserved":false,"is_disabled":false,"rental_uris":{"android":"levelo://app?vid=5fba6177-aa78-4856-9366-e4781b44d7ab","ios":"levelo://app?vid=5fba6177-aa78-4856-9366-e4781b44d7ab"},"vehicle_type_id":"4","last_reported":1751389792,"current_range_meters":9600,"station_id":"ce4bhu92rcd13ifvqi70","pricing_plan_id":"cebpf4jnsgd1na2vs0mg"},{"bike_id":"f7156d01-43e4-48ae-bb15-2249794b0b41","system_id":"levelo_inurba_marseille","lat":43.314862,"lon":5.373062,"is_reserved":false,"is_disabled":false,"rental_uris":{"android":"levelo://app?vid=f7156d01-43e4-48ae-bb15-2249794b0b41","ios":"levelo://app?vid=f7156d01-43e4-48ae-bb15-2249794b0b41"},"vehicle_type_id":"4","last_reported":1751389792,"current_range_meters":10000,"station_id":"ce4bgt12rcd13ifvqcd0","pricing_plan_id":"cebpf4jnsgd1na2vs0mg"},{"bike_id":"84574093-3b92-40bc-8e7a-b5709cecf778","system_id":"levelo_inurba_marseille","lat":43.2738,"lon":5.36259,"is_reserved":false,"is_disabled":false,"rental_uris":{"android":"levelo://app?vid=84574093-3b92-40bc-8e7a-b5709cecf778","ios":"levelo://app?vid=84574093-3b92-40bc-8e7a-b5709cecf778"},"vehicle_type_id":"4","last_reported":1751389792,"current_range_meters":10000,"station_id":"ce4bhbh2rcd13ifvqeo0","pricing_plan_id":"cebpf4jnsgd1na2vs0mg"},{"bike_id":"6e82cda6-ea66-4f37-a1c3-c3ffe25de8d0","system_id":"levelo_inurba_marseille","lat":43.28422,"lon":5.34999,"is_reserved":false,"is_disabled":false,"rental_uris":{"android":"levelo://app?vid=6e82cda6-ea66-4f37-a1c3-c3ffe25de8d0","ios":"levelo://app?vid=6e82cda6-ea66-4f37-a1c3-c3ffe25de8d0"},"vehicle_type_id":"4","last_reported":1751389792,"current_range_meters":10000,"station_id":"ce4bhbh2rcd13ifvqepg","pricing_plan_id":"cebpf4jnsgd1na2vs0mg"},{"bike_id":"b2ec7371-4e1a-4f7b-ae6c-60c5a54c237b","system_id":"levelo_inurba_marseille","lat":43.21205,"lon":5.35072,"is_reserved":false,"is_disabled":false,"rental_uris":{"android":"levelo://app?vid=b2ec7371-4e1a-4f7b-ae6c-60c5a54c237b","ios":"levelo://app?vid=b2ec7371-4e1a-4f7b-ae6c-60c5a54c237b"},"vehicle_type_id":"4","last_reported":1751389792,"current_range_meters":10000,"station_id":"st_cvj6sg6p6f1abm77japg","pricing_plan_id":"cebpf4jnsgd1na2vs0mg"},{"bike_id":"82f98311-6b9a-4562-955b-b127f9ce0f29","system_id":"levelo_inurba_marseille","lat":43.286093,"lon":5.35118,"is_reserved":false,"is_disabled":false,"rental_uris":{"android":"levelo://app?vid=82f98311-6b9a-4562-955b-b127f9ce0f29","ios":"levelo://app?vid=82f98311-6b9a-4562-955b-b127f9ce0f29"},"vehicle_type_id":"4","last_reported":1751389792,"current_range_meters":10800,"station_id":"ce4bhch2rcd13ifvqeug","pricing_plan_id":"cebpf4jnsgd1na2vs0mg"},{"bike_id":"03b22496-0c47-4bfb-a2c9-4e153605d4fd","system_id":"levelo_inurba_marseille","lat":43.27505,"lon":5.42434,"is_reserved":false,"is_disabled":false,"rental_uris":{"android":"levelo://app?vid=03b22496-0c47-4bfb-a2c9-4e153605d4fd","ios":"levelo://app?vid=03b22496-0c47-4bfb-a2c9-4e153605d4fd"},"vehicle_type_id":"4","last_reported":1751389792,"current_range_meters":10800,"station_id":"ce4bhn92rcd13ifvqgrg","pricing_plan_id":"cebpf4jnsgd1na2vs0mg"},{"bike_id":"82522992-39cd-4cc1-bf11-bf1394360248","system_id":"levelo_inurba_marseille","lat":43.31494,"lon":5.3783,"is_reserved":false,"is_disabled":false,"rental_uris":{"android":"levelo://app?vid=82522992-39cd-4cc1-bf11-bf1394360248","ios":"levelo://app?vid=82522992-39cd-4cc1-bf11-bf1394360248"},"vehicle_type_id":"4","last_reported":1751389792,"current_range_meters":11200,"station_id":"","pricing_plan_id":"cebpf4jnsgd1na2vs0mg"},{"bike_id":"dd5ca314-e848-4964-bcdd-fbabd82a9bf1","system_id":"levelo_inurba_marseille","lat":43.26198,"lon":5.37934,"is_reserved":false,"is_disabled":false,"rental_uris":{"android":"levelo://app?vid=dd5ca314-e848-4964-bcdd-fbabd82a9bf1","ios":"levelo://app?vid=dd5ca314-e848-4964-bcdd-fbabd82a9bf1"},"vehicle_type_id":"4","last_reported":1751389792,"current_range_meters":11200,"station_id":"ce4bhjp2rcd13ifvqg90","pricing_plan_id":"cebpf4jnsgd1na2vs0mg"},{"bike_id":"c2b72fe0-bae6-4c7b-ad48-9e771b203dc8","system_id":"levelo_inurba_marseille","lat":43.313546,"lon":5.384641,"is_reserved":false,"is_disabled":false,"rental_uris":{"android":"levelo://app?vid=c2b72fe0-bae6-4c7b-ad48-9e771b203dc8","ios":"levelo://app?vid=c2b72fe0-bae6-4c7b-ad48-9e771b203dc8"},"vehicle_type_id":"4","last_reported":1751389792,"current_range_meters":11600,"station_id":"ce4bgt92rcd13ifvqcf0","pricing_plan_id":"cebpf4jnsgd1na2vs0mg"},{"bike_id":"b28aa0a0-791c-4a08-9a16-c7bf6ea0ed5a","system_id":"levelo_inurba_marseille","lat":43.22505,"lon":5.34767,"is_reserved":false,"is_disabled":false,"rental_uris":{"android":"levelo://app?vid=b28aa0a0-791c-4a08-9a16-c7bf6ea0ed5a","ios":"levelo://app?vid=b28aa0a0-791c-4a08-9a16-c7bf6ea0ed5a"},"vehicle_type_id":"4","last_reported":1751389792,"current_range_meters":11600,"station_id":"st_cvj5dfep6f1abm77gieg","pricing_plan_id":"cebpf4jnsgd1na2vs0mg"},{"bike_id":"2b051b97-cd2b-4c4b-99f1-42c2f572b63e","system_id":"levelo_inurba_marseille","lat":43.27388,"lon":5.36277,"is_reserved":false,"is_disabled":false,"rental_uris":{"android":"levelo://app?vid=2b051b97-cd2b-4c4b-99f1-42c2f572b63e","ios":"levelo://app?vid=2b051b97-cd2b-4c4b-99f1-42c2f572b63e"},"vehicle_type_id":"4","last_reported":1751389792,"current_range_meters":12000,"station_id":"ce4bhbh2rcd13ifvqeo0","pricing_plan_id":"cebpf4jnsgd1na2vs0mg"},{"bike_id":"b58fcd9c-f51e-487c-9cf1-49362eb3ef58","system_id":"levelo_inurba_marseille","lat":43.2622,"lon":5.37436,"is_reserved":false,"is_disabled":false,"rental_uris":{"android":"levelo://app?vid=b58fcd9c-f51e-487c-9cf1-49362eb3ef58","ios":"levelo://app?vid=b58fcd9c-f51e-487c-9cf1-49362eb3ef58"},"vehicle_type_id":"4","last_reported":1751389792,"current_range_meters":12000,"station_id":"ce4bhgp2rcd13ifvqfc0","pricing_plan_id":"cebpf4jnsgd1na2vs0mg"},{"bike_id":"05323021-fac7-4fe8-bf8c-c07dba9fe872","system_id":"levelo_inurba_marseille","lat":43.299,"lon":5.43671,"is_reserved":false,"is_disabled":false,"rental_uris":{"android":"levelo://app?vid=05323021-fac7-4fe8-bf8c-c07dba9fe872","ios":"levelo://app?vid=05323021-fac7-4fe8-bf8c-c07dba9fe872"},"vehicle_type_id":"4","last_reported":1751389792,"current_range_meters":12000,"station_id":"ce4bhpp2rcd13ifvqhfg","pricing_plan_id":"cebpf4jnsgd1na2vs0mg"},{"bike_id":"5631c7ea-fb56-4ee9-8df0-6e0aa2f0ff30","system_id":"levelo_inurba_marseille","lat":43.24173,"lon":5.36415,"is_reserved":false,"is_disabled":false,"rental_uris":{"android":"levelo://app?vid=5631c7ea-fb56-4ee9-8df0-6e0aa2f0ff30","ios":"levelo://app?vid=5631c7ea-fb56-4ee9-8df0-6e0aa2f0ff30"},"vehicle_type_id":"4","last_reported":1751389792,"current_range_meters":12000,"station_id":"cpo36qri1sfpv3e86is0","pricing_plan_id":"cebpf4jnsgd1na2vs0mg"},{"bike_id":"9a0d6196-6b23-47d1-9657-4d2d62207231","system_id":"levelo_inurba_marseille","lat":43.29196,"lon":5.35802,"is_reserved":false,"is_disabled":false,"rental_uris":{"android":"levelo://app?vid=9a0d6196-6b23-47d1-9657-4d2d62207231","ios":"levelo://app?vid=9a0d6196-6b23-47d1-9657-4d2d62207231"},"vehicle_type_id":"4","last_reported":1751389792,"current_range_meters":12400,"station_id":"ce4bhb12rcd13ifvqel0","pricing_plan_id":"cebpf4jnsgd1na2vs0mg"},{"bike_id":"5c9dfbea-9ff9-4762-8d60-f8829845eef5","system_id":"levelo_inurba_marseille","lat":43.26212,"lon":5.37441,"is_reserved":false,"is_disabled":false,"rental_uris":{"android":"levelo://app?vid=5c9dfbea-9ff9-4762-8d60-f8829845eef5","ios":"levelo://app?vid=5c9dfbea-9ff9-4762-8d60-f8829845eef5"},"vehicle_type_id":"4","last_reported":1751389792,"current_range_meters":12400,"station_id":"ce4bhgp2rcd13ifvqfc0","pricing_plan_id":"cebpf4jnsgd1na2vs0mg"},{"bike_id":"34ef8d19-abd3-418b-af23-9942dadb071a","system_id":"levelo_inurba_marseille","lat":43.211907,"lon":5.35067,"is_reserved":false,"is_disabled":false,"rental_uris":{"android":"levelo://app?vid=34ef8d19-abd3-418b-af23-9942dadb071a","ios":"levelo://app?vid=34ef8d19-abd3-418b-af23-9942dadb071a"},"vehicle_type_id":"4","last_reported":1751389792,"current_range_meters":12400,"station_id":"st_cvj6sg6p6f1abm77japg","pricing_plan_id":"cebpf4jnsgd1na2vs0mg"},{"bike_id":"4f950d35-a68f-4553-86e8-2cf31ebed6ff","system_id":"levelo_inurba_marseille","lat":43.2842,"lon":5.34983,"is_reserved":false,"is_disabled":false,"rental_uris":{"android":"levelo://app?vid=4f950d35-a68f-4553-86e8-2cf31ebed6ff","ios":"levelo://app?vid=4f950d35-a68f-4553-86e8-2cf31ebed6ff"},"vehicle_type_id":"4","last_reported":1751389792,"current_range_meters":12800,"station_id":"ce4bhbh2rcd13ifvqepg","pricing_plan_id":"cebpf4jnsgd1na2vs0mg"},{"bike_id":"ea959782-4591-4525-a547-71aa5dc459bd","system_id":"levelo_inurba_marseille","lat":43.28622,"lon":5.35107,"is_reserved":false,"is_disabled":false,"rental_uris":{"android":"levelo://app?vid=ea959782-4591-4525-a547-71aa5dc459bd","ios":"levelo://app?vid=ea959782-4591-4525-a547-71aa5dc459bd"},"vehicle_type_id":"4","last_reported":1751389792,"current_range_meters":12800,"station_id":"ce4bhch2rcd13ifvqeug","pricing_plan_id":"cebpf4jnsgd1na2vs0mg"},{"bike_id":"df4497a6-5211-44f9-b40a-6baa3ffbdc6c","system_id":"levelo_inurba_marseille","lat":43.28621,"lon":5.35107,"is_reserved":false,"is_disabled":false,"rental_uris":{"android":"levelo://app?vid=df4497a6-5211-44f9-b40a-6baa3ffbdc6c","ios":"levelo://app?vid=df4497a6-5211-44f9-b40a-6baa3ffbdc6c"},"vehicle_type_id":"4","last_reported":1751389792,"current_range_meters":12800,"station_id":"ce4bhch2rcd13ifvqeug","pricing_plan_id":"cebpf4jnsgd1na2vs0mg"},{"bike_id":"26578b7e-f474-4eaf-9d8e-1f40b92a0f35","system_id":"levelo_inurba_marseille","lat":43.26204,"lon":5.37444,"is_reserved":false,"is_disabled":false,"rental_uris":{"android":"levelo://app?vid=26578b7e-f474-4eaf-9d8e-1f40b92a0f35","ios":"levelo://app?vid=26578b7e-f474-4eaf-9d8e-1f40b92a0f35"},"vehicle_type_id":"4","last_reported":1751389792,"current_range_meters":12800,"station_id":"ce4bhgp2rcd13ifvqfc0","pricing_plan_id":"cebpf4jnsgd1na2vs0mg"},{"bike_id":"7668ad4d-e875-45c5-8cfe-d22f11274d59","system_id":"levelo_inurba_marseille","lat":43.24174,"lon":5.36396,"is_reserved":false,"is_disabled":false,"rental_uris":{"android":"levelo://app?vid=7668ad4d-e875-45c5-8cfe-d22f11274d59","ios":"levelo://app?vid=7668ad4d-e875-45c5-8cfe-d22f11274d59"},"vehicle_type_id":"4","last_reported":1751389792,"current_range_meters":12800,"station_id":"cpo36qri1sfpv3e86is0","pricing_plan_id":"cebpf4jnsgd1na2vs0mg"},{"bike_id":"1be64540-eacc-4349-9e6c-bd26021fbc36","system_id":"levelo_inurba_marseille","lat":43.282919,"lon":5.350548,"is_reserved":false,"is_disabled":false,"rental_uris":{"android":"levelo://app?vid=1be64540-eacc-4349-9e6c-bd26021fbc36","ios":"levelo://app?vid=1be64540-eacc-4349-9e6c-bd26021fbc36"},"vehicle_type_id":"4","last_reported":1751389792,"current_range_meters":13600,"station_id":"ce4bhbp2rcd13ifvqerg","pricing_plan_id":"cebpf4jnsgd1na2vs0mg"},{"bike_id":"c8888005-1a11-4ff3-a914-5330d050040e","system_id":"levelo_inurba_marseille","lat":43.28615,"lon":5.35096,"is_reserved":false,"is_disabled":false,"rental_uris":{"android":"levelo://app?vid=c8888005-1a11-4ff3-a914-5330d050040e","ios":"levelo://app?vid=c8888005-1a11-4ff3-a914-5330d050040e"},"vehicle_type_id":"4","last_reported":1751389792,"current_range_meters":13600,"station_id":"ce4bhch2rcd13ifvqeug","pricing_plan_id":"cebpf4jnsgd1na2vs0mg"},{"bike_id":"2154cd0d-5d93-4558-91f2-c4caeeec0279","system_id":"levelo_inurba_marseille","lat":43.26563,"lon":5.37293,"is_reserved":false,"is_disabled":false,"rental_uris":{"android":"levelo://app?vid=2154cd0d-5d93-4558-91f2-c4caeeec0279","ios":"levelo://app?vid=2154cd0d-5d93-4558-91f2-c4caeeec0279"},"vehicle_type_id":"4","last_reported":1751389792,"current_range_meters":13600,"station_id":"ce4bhg12rcd13ifvqf70","pricing_plan_id":"cebpf4jnsgd1na2vs0mg"},{"bike_id":"c0228700-5312-4a39-89af-ec53a5d729c5","system_id":"levelo_inurba_marseille","lat":43.28303,"lon":5.43241,"is_reserved":false,"is_disabled":false,"rental_uris":{"android":"levelo://app?vid=c0228700-5312-4a39-89af-ec53a5d729c5","ios":"levelo://app?vid=c0228700-5312-4a39-89af-ec53a5d729c5"},"vehicle_type_id":"4","last_reported":1751389792,"current_range_meters":14000,"station_id":"","pricing_plan_id":"cebpf4jnsgd1na2vs0mg"},{"bike_id":"f2f4d984-5460-4e1e-a60d-14e2b345a288","system_id":"levelo_inurba_marseille","lat":43.27617,"lon":5.36107,"is_reserved":false,"is_disabled":false,"rental_uris":{"android":"levelo://app?vid=f2f4d984-5460-4e1e-a60d-14e2b345a288","ios":"levelo://app?vid=f2f4d984-5460-4e1e-a60d-14e2b345a288"},"vehicle_type_id":"4","last_reported":1751389792,"current_range_meters":14000,"station_id":"ce4bgj92rcd13ifvqbe0","pricing_plan_id":"cebpf4jnsgd1na2vs0mg"},{"bike_id":"4d0e4663-2894-4b6f-8d40-78cc0bf59593","system_id":"levelo_inurba_marseille","lat":43.31494,"lon":5.37312,"is_reserved":false,"is_disabled":false,"rental_uris":{"android":"levelo://app?vid=4d0e4663-2894-4b6f-8d40-78cc0bf59593","ios":"levelo://app?vid=4d0e4663-2894-4b6f-8d40-78cc0bf59593"},"vehicle_type_id":"4","last_reported":1751389792,"current_range_meters":14000,"station_id":"ce4bgt12rcd13ifvqcd0","pricing_plan_id":"cebpf4jnsgd1na2vs0mg"},{"bike_id":"81992fe8-b1ca-4291-86c6-3056f2675e75","system_id":"levelo_inurba_marseille","lat":43.28421,"lon":5.34998,"is_reserved":false,"is_disabled":false,"rental_uris":{"android":"levelo://app?vid=81992fe8-b1ca-4291-86c6-3056f2675e75","ios":"levelo://app?vid=81992fe8-b1ca-4291-86c6-3056f2675e75"},"vehicle_type_id":"4","last_reported":1751389792,"current_range_meters":14000,"station_id":"ce4bhbh2rcd13ifvqepg","pricing_plan_id":"cebpf4jnsgd1na2vs0mg"},{"bike_id":"c9c105f9-0237-44ff-ba3a-0e13e99086a3","system_id":"levelo_inurba_marseille","lat":43.2842,"lon":5.34982,"is_reserved":false,"is_disabled":false,"rental_uris":{"android":"levelo://app?vid=c9c105f9-0237-44ff-ba3a-0e13e99086a3","ios":"levelo://app?vid=c9c105f9-0237-44ff-ba3a-0e13e99086a3"},"vehicle_type_id":"4","last_reported":1751389792,"current_range_meters":14000,"station_id":"ce4bhbh2rcd13ifvqepg","pricing_plan_id":"cebpf4jnsgd1na2vs0mg"},{"bike_id":"574b1796-65fa-4484-afc0-58c37498601d","system_id":"levelo_inurba_marseille","lat":43.265647,"lon":5.39007,"is_reserved":false,"is_disabled":false,"rental_uris":{"android":"levelo://app?vid=574b1796-65fa-4484-afc0-58c37498601d","ios":"levelo://app?vid=574b1796-65fa-4484-afc0-58c37498601d"},"vehicle_type_id":"4","last_reported":1751389792,"current_range_meters":14000,"station_id":"ce4bhe12rcd13ifvqf30","pricing_plan_id":"cebpf4jnsgd1na2vs0mg"},{"bike_id":"e84e874b-b2ac-4cd9-97c2-7c9edc30776e","system_id":"levelo_inurba_marseille","lat":43.25499,"lon":5.37651,"is_reserved":false,"is_disabled":false,"rental_uris":{"android":"levelo://app?vid=e84e874b-b2ac-4cd9-97c2-7c9edc30776e","ios":"levelo://app?vid=e84e874b-b2ac-4cd9-97c2-7c9edc30776e"},"vehicle_type_id":"4","last_reported":1751389792,"current_range_meters":14000,"station_id":"ce4bhh12rcd13ifvqff0","pricing_plan_id":"cebpf4jnsgd1na2vs0mg"},{"bike_id":"93470bb7-c10a-47ec-9191-d5ece6c6229d","system_id":"levelo_inurba_marseille","lat":43.25719,"lon":5.41116,"is_reserved":false,"is_disabled":false,"rental_uris":{"android":"levelo://app?vid=93470bb7-c10a-47ec-9191-d5ece6c6229d","ios":"levelo://app?vid=93470bb7-c10a-47ec-9191-d5ece6c6229d"},"vehicle_type_id":"4","last_reported":1751389792,"current_range_meters":14000,"station_id":"ce4bhkp2rcd13ifvqgd0","pricing_plan_id":"cebpf4jnsgd1na2vs0mg"},{"bike_id":"2726f14f-8d32-4e17-9b3e-62cc809675e1","system_id":"levelo_inurba_marseille","lat":43.32101,"lon":5.36768,"is_reserved":false,"is_disabled":false,"rental_uris":{"android":"levelo://app?vid=2726f14f-8d32-4e17-9b3e-62cc809675e1","ios":"levelo://app?vid=2726f14f-8d32-4e17-9b3e-62cc809675e1"},"vehicle_type_id":"4","last_reported":1751389792,"current_range_meters":14000,"station_id":"ce4bhrh2rcd13ifvqhug","pricing_plan_id":"cebpf4jnsgd1na2vs0mg"},{"bike_id":"65945ded-d469-47d4-bf97-e782bb88d6cf","system_id":"levelo_inurba_marseille","lat":43.23197,"lon":5.35548,"is_reserved":false,"is_disabled":false,"rental_uris":{"android":"levelo://app?vid=65945ded-d469-47d4-bf97-e782bb88d6cf","ios":"levelo://app?vid=65945ded-d469-47d4-bf97-e782bb88d6cf"},"vehicle_type_id":"4","last_reported":1751389792,"current_range_meters":14000,"station_id":"ce4bhu92rcd13ifvqi70","pricing_plan_id":"cebpf4jnsgd1na2vs0mg"},{"bike_id":"859b6cf6-411c-4a6e-b2f1-d5866da46ff7","system_id":"levelo_inurba_marseille","lat":43.24176,"lon":5.36395,"is_reserved":false,"is_disabled":false,"rental_uris":{"android":"levelo://app?vid=859b6cf6-411c-4a6e-b2f1-d5866da46ff7","ios":"levelo://app?vid=859b6cf6-411c-4a6e-b2f1-d5866da46ff7"},"vehicle_type_id":"4","last_reported":1751389792,"current_range_meters":14000,"station_id":"cpo36qri1sfpv3e86is0","pricing_plan_id":"cebpf4jnsgd1na2vs0mg"},{"bike_id":"c61036a9-1a66-4480-8bd4-cd2fb585b287","system_id":"levelo_inurba_marseille","lat":43.26997,"lon":5.40581,"is_reserved":false,"is_disabled":false,"rental_uris":{"android":"levelo://app?vid=c61036a9-1a66-4480-8bd4-cd2fb585b287","ios":"levelo://app?vid=c61036a9-1a66-4480-8bd4-cd2fb585b287"},"vehicle_type_id":"4","last_reported":1751389792,"current_range_meters":14400,"station_id":"","pricing_plan_id":"cebpf4jnsgd1na2vs0mg"},{"bike_id":"aae11252-3d45-45e5-a32a-3cde8805070e","system_id":"levelo_inurba_marseille","lat":43.28408,"lon":5.3498,"is_reserved":false,"is_disabled":false,"rental_uris":{"android":"levelo://app?vid=aae11252-3d45-45e5-a32a-3cde8805070e","ios":"levelo://app?vid=aae11252-3d45-45e5-a32a-3cde8805070e"},"vehicle_type_id":"4","last_reported":1751389792,"current_range_meters":14400,"station_id":"ce4bhbh2rcd13ifvqepg","pricing_plan_id":"cebpf4jnsgd1na2vs0mg"},{"bike_id":"9592c5f4-0cf0-40ff-b665-563849cbe6ac","system_id":"levelo_inurba_marseille","lat":43.28267,"lon":5.35059,"is_reserved":false,"is_disabled":false,"rental_uris":{"android":"levelo://app?vid=9592c5f4-0cf0-40ff-b665-563849cbe6ac","ios":"levelo://app?vid=9592c5f4-0cf0-40ff-b665-563849cbe6ac"},"vehicle_type_id":"4","last_reported":1751389792,"current_range_meters":14400,"station_id":"ce4bhbp2rcd13ifvqerg","pricing_plan_id":"cebpf4jnsgd1na2vs0mg"},{"bike_id":"4f15de23-f963-434b-bbd2-14c547a70d0e","system_id":"levelo_inurba_marseille","lat":43.30358,"lon":5.41876,"is_reserved":false,"is_disabled":false,"rental_uris":{"android":"levelo://app?vid=4f15de23-f963-434b-bbd2-14c547a70d0e","ios":"levelo://app?vid=4f15de23-f963-434b-bbd2-14c547a70d0e"},"vehicle_type_id":"4","last_reported":1751389792,"current_range_meters":14400,"station_id":"ce4bhop2rcd13ifvqh7g","pricing_plan_id":"cebpf4jnsgd1na2vs0mg"},{"bike_id":"3bfd5dc0-cb64-4fbc-899f-7dfe803140ad","system_id":"levelo_inurba_marseille","lat":43.32291,"lon":5.38267,"is_reserved":false,"is_disabled":false,"rental_uris":{"android":"levelo://app?vid=3bfd5dc0-cb64-4fbc-899f-7dfe803140ad","ios":"levelo://app?vid=3bfd5dc0-cb64-4fbc-899f-7dfe803140ad"},"vehicle_type_id":"4","last_reported":1751389792,"current_range_meters":14400,"station_id":"ce4bhr12rcd13ifvqhqg","pricing_plan_id":"cebpf4jnsgd1na2vs0mg"},{"bike_id":"3d03fb95-8e3b-4596-876f-491b9dec2687","system_id":"levelo_inurba_marseille","lat":43.26217,"lon":5.37463,"is_reserved":false,"is_disabled":false,"rental_uris":{"android":"levelo://app?vid=3d03fb95-8e3b-4596-876f-491b9dec2687","ios":"levelo://app?vid=3d03fb95-8e3b-4596-876f-491b9dec2687"},"vehicle_type_id":"4","last_reported":1751389792,"current_range_meters":14800,"station_id":"ce4bhgp2rcd13ifvqfc0","pricing_plan_id":"cebpf4jnsgd1na2vs0mg"},{"bike_id":"65d3c258-ea27-465c-918d-0b338e8fd71b","system_id":"levelo_inurba_marseille","lat":43.26808,"lon":5.40266,"is_reserved":false,"is_disabled":false,"rental_uris":{"android":"levelo://app?vid=65d3c258-ea27-465c-918d-0b338e8fd71b","ios":"levelo://app?vid=65d3c258-ea27-465c-918d-0b338e8fd71b"},"vehicle_type_id":"4","last_reported":1751389792,"current_range_meters":14800,"station_id":"ce501612rcd8frsf0b60","pricing_plan_id":"cebpf4jnsgd1na2vs0mg"},{"bike_id":"6335e18e-9829-4571-82f7-23b6ce10fe5e","system_id":"levelo_inurba_marseille","lat":43.24174,"lon":5.36387,"is_reserved":false,"is_disabled":false,"rental_uris":{"android":"levelo://app?vid=6335e18e-9829-4571-82f7-23b6ce10fe5e","ios":"levelo://app?vid=6335e18e-9829-4571-82f7-23b6ce10fe5e"},"vehicle_type_id":"4","last_reported":1751389792,"current_range_meters":14800,"station_id":"cpo36qri1sfpv3e86is0","pricing_plan_id":"cebpf4jnsgd1na2vs0mg"},{"bike_id":"86fa6ce7-8cbe-47ff-b5d3-c2b4938fd05c","system_id":"levelo_inurba_marseille","lat":43.21201,"lon":5.35062,"is_reserved":false,"is_disabled":false,"rental_uris":{"android":"levelo://app?vid=86fa6ce7-8cbe-47ff-b5d3-c2b4938fd05c","ios":"levelo://app?vid=86fa6ce7-8cbe-47ff-b5d3-c2b4938fd05c"},"vehicle_type_id":"4","last_reported":1751389792,"current_range_meters":15200,"station_id":"","pricing_plan_id":"cebpf4jnsgd1na2vs0mg"},{"bike_id":"6f5b38b0-c8b7-42ab-a114-d904ae4095f5","system_id":"levelo_inurba_marseille","lat":43.27614,"lon":5.36107,"is_reserved":false,"is_disabled":false,"rental_uris":{"android":"levelo://app?vid=6f5b38b0-c8b7-42ab-a114-d904ae4095f5","ios":"levelo://app?vid=6f5b38b0-c8b7-42ab-a114-d904ae4095f5"},"vehicle_type_id":"4","last_reported":1751389792,"current_range_meters":15200,"station_id":"ce4bgj92rcd13ifvqbe0","pricing_plan_id":"cebpf4jnsgd1na2vs0mg"},{"bike_id":"83d7c8eb-2032-42a8-b615-a858b7ff3da6","system_id":"levelo_inurba_marseille","lat":43.28271,"lon":5.35053,"is_reserved":false,"is_disabled":false,"rental_uris":{"android":"levelo://app?vid=83d7c8eb-2032-42a8-b615-a858b7ff3da6","ios":"levelo://app?vid=83d7c8eb-2032-42a8-b615-a858b7ff3da6"},"vehicle_type_id":"4","last_reported":1751389792,"current_range_meters":15200,"station_id":"ce4bhbp2rcd13ifvqerg","pricing_plan_id":"cebpf4jnsgd1na2vs0mg"},{"bike_id":"fc3c9951-5b4a-493a-be1c-8fecdd75abf1","system_id":"levelo_inurba_marseille","lat":43.25126,"lon":5.40315,"is_reserved":false,"is_disabled":false,"rental_uris":{"android":"levelo://app?vid=fc3c9951-5b4a-493a-be1c-8fecdd75abf1","ios":"levelo://app?vid=fc3c9951-5b4a-493a-be1c-8fecdd75abf1"},"vehicle_type_id":"4","last_reported":1751389792,"current_range_meters":15200,"station_id":"ce4bhlh2rcd13ifvqgig","pricing_plan_id":"cebpf4jnsgd1na2vs0mg"},{"bike_id":"39b6888d-58e4-4d91-b73c-294945f07694","system_id":"levelo_inurba_marseille","lat":43.27614,"lon":5.36101,"is_reserved":false,"is_disabled":false,"rental_uris":{"android":"levelo://app?vid=39b6888d-58e4-4d91-b73c-294945f07694","ios":"levelo://app?vid=39b6888d-58e4-4d91-b73c-294945f07694"},"vehicle_type_id":"4","last_reported":1751389792,"current_range_meters":16000,"station_id":"ce4bgj92rcd13ifvqbe0","pricing_plan_id":"cebpf4jnsgd1na2vs0mg"},{"bike_id":"9c81bf64-8d9e-464f-b5f4-519507ba59ad","system_id":"levelo_inurba_marseille","lat":43.290237,"lon":5.381364,"is_reserved":false,"is_disabled":false,"rental_uris":{"android":"levelo://app?vid=9c81bf64-8d9e-464f-b5f4-519507ba59ad","ios":"levelo://app?vid=9c81bf64-8d9e-464f-b5f4-519507ba59ad"},"vehicle_type_id":"4","last_reported":1751389792,"current_range_meters":16000,"station_id":"ce4bh4p2rcd13ifvqe1g","pricing_plan_id":"cebpf4jnsgd1na2vs0mg"},{"bike_id":"1bd133a6-32c5-4068-8cff-ddbe80fd0c31","system_id":"levelo_inurba_marseille","lat":43.27375,"lon":5.36255,"is_reserved":false,"is_disabled":false,"rental_uris":{"android":"levelo://app?vid=1bd133a6-32c5-4068-8cff-ddbe80fd0c31","ios":"levelo://app?vid=1bd133a6-32c5-4068-8cff-ddbe80fd0c31"},"vehicle_type_id":"4","last_reported":1751389792,"current_range_meters":16000,"station_id":"ce4bhbh2rcd13ifvqeo0","pricing_plan_id":"cebpf4jnsgd1na2vs0mg"},{"bike_id":"0a73b022-83dd-4a9f-8587-01bdaee23cef","system_id":"levelo_inurba_marseille","lat":43.2621,"lon":5.37441,"is_reserved":false,"is_disabled":false,"rental_uris":{"android":"levelo://app?vid=0a73b022-83dd-4a9f-8587-01bdaee23cef","ios":"levelo://app?vid=0a73b022-83dd-4a9f-8587-01bdaee23cef"},"vehicle_type_id":"4","last_reported":1751389792,"current_range_meters":16000,"station_id":"ce4bhgp2rcd13ifvqfc0","pricing_plan_id":"cebpf4jnsgd1na2vs0mg"},{"bike_id":"4885ce13-1691-4ab1-8f84-23edfb3318ba","system_id":"levelo_inurba_marseille","lat":43.232195,"lon":5.355325,"is_reserved":false,"is_disabled":false,"rental_uris":{"android":"levelo://app?vid=4885ce13-1691-4ab1-8f84-23edfb3318ba","ios":"levelo://app?vid=4885ce13-1691-4ab1-8f84-23edfb3318ba"},"vehicle_type_id":"4","last_reported":1751389792,"current_range_meters":16000,"station_id":"ce4bhu92rcd13ifvqi70","pricing_plan_id":"cebpf4jnsgd1na2vs0mg"},{"bike_id":"539ed013-9e80-448a-999f-a7819f54786a","system_id":"levelo_inurba_marseille","lat":43.290309,"lon":5.375668,"is_reserved":false,"is_disabled":false,"rental_uris":{"android":"levelo://app?vid=539ed013-9e80-448a-999f-a7819f54786a","ios":"levelo://app?vid=539ed013-9e80-448a-999f-a7819f54786a"},"vehicle_type_id":"4","last_reported":1751389792,"current_range_meters":16400,"station_id":"","pricing_plan_id":"cebpf4jnsgd1na2vs0mg"},{"bike_id":"60aed5b4-04a7-4930-a9c4-5540cdbcfb8b","system_id":"levelo_inurba_marseille","lat":43.337633,"lon":5.374499,"is_reserved":false,"is_disabled":false,"rental_uris":{"android":"levelo://app?vid=60aed5b4-04a7-4930-a9c4-5540cdbcfb8b","ios":"levelo://app?vid=60aed5b4-04a7-4930-a9c4-5540cdbcfb8b"},"vehicle_type_id":"4","last_reported":1751389792,"current_range_meters":16400,"station_id":"","pricing_plan_id":"cebpf4jnsgd1na2vs0mg"},{"bike_id":"898b3885-0ea3-4b14-886e-d867f8d69646","system_id":"levelo_inurba_marseille","lat":43.295967,"lon":5.376236,"is_reserved":false,"is_disabled":false,"rental_uris":{"android":"levelo://app?vid=898b3885-0ea3-4b14-886e-d867f8d69646","ios":"levelo://app?vid=898b3885-0ea3-4b14-886e-d867f8d69646"},"vehicle_type_id":"4","last_reported":1751389792,"current_range_meters":16400,"station_id":"","pricing_plan_id":"cebpf4jnsgd1na2vs0mg"},{"bike_id":"a0cef316-ad95-4855-8f78-a31341a2b90e","system_id":"levelo_inurba_marseille","lat":43.312126,"lon":5.378508,"is_reserved":false,"is_disabled":false,"rental_uris":{"android":"levelo://app?vid=a0cef316-ad95-4855-8f78-a31341a2b90e","ios":"levelo://app?vid=a0cef316-ad95-4855-8f78-a31341a2b90e"},"vehicle_type_id":"4","last_reported":1751389792,"current_range_meters":16400,"station_id":"","pricing_plan_id":"cebpf4jnsgd1na2vs0mg"},{"bike_id":"ad60e878-798d-4a71-8661-f014c7990c7d","system_id":"levelo_inurba_marseille","lat":43.28256,"lon":5.35061,"is_reserved":false,"is_disabled":false,"rental_uris":{"android":"levelo://app?vid=ad60e878-798d-4a71-8661-f014c7990c7d","ios":"levelo://app?vid=ad60e878-798d-4a71-8661-f014c7990c7d"},"vehicle_type_id":"4","last_reported":1751389792,"current_range_meters":16400,"station_id":"ce4bhbp2rcd13ifvqerg","pricing_plan_id":"cebpf4jnsgd1na2vs0mg"},{"bike_id":"71d88de6-a58d-4b56-83a0-96c91fd2a357","system_id":"levelo_inurba_marseille","lat":43.28621,"lon":5.3509,"is_reserved":false,"is_disabled":false,"rental_uris":{"android":"levelo://app?vid=71d88de6-a58d-4b56-83a0-96c91fd2a357","ios":"levelo://app?vid=71d88de6-a58d-4b56-83a0-96c91fd2a357"},"vehicle_type_id":"4","last_reported":1751389792,"current_range_meters":16400,"station_id":"ce4bhch2rcd13ifvqeug","pricing_plan_id":"cebpf4jnsgd1na2vs0mg"},{"bike_id":"6c124b47-0683-47f1-b3b4-7281f296c87c","system_id":"levelo_inurba_marseille","lat":43.30731,"lon":5.42448,"is_reserved":false,"is_disabled":false,"rental_uris":{"android":"levelo://app?vid=6c124b47-0683-47f1-b3b4-7281f296c87c","ios":"levelo://app?vid=6c124b47-0683-47f1-b3b4-7281f296c87c"},"vehicle_type_id":"4","last_reported":1751389792,"current_range_meters":16400,"station_id":"st_cvj6ca6bvosntc0bfgr0","pricing_plan_id":"cebpf4jnsgd1na2vs0mg"},{"bike_id":"0c1b4f74-5294-4b59-932d-b742ce647d9e","system_id":"levelo_inurba_marseille","lat":43.21188,"lon":5.3508,"is_reserved":false,"is_disabled":false,"rental_uris":{"android":"levelo://app?vid=0c1b4f74-5294-4b59-932d-b742ce647d9e","ios":"levelo://app?vid=0c1b4f74-5294-4b59-932d-b742ce647d9e"},"vehicle_type_id":"4","last_reported":1751389792,"current_range_meters":16400,"station_id":"st_cvj6sg6p6f1abm77japg","pricing_plan_id":"cebpf4jnsgd1na2vs0mg"},{"bike_id":"5dd82d4e-16c0-4824-b120-8d21b6c58e8d","system_id":"levelo_inurba_marseille","lat":43.295515,"lon":5.374949,"is_reserved":false,"is_disabled":false,"rental_uris":{"android":"levelo://app?vid=5dd82d4e-16c0-4824-b120-8d21b6c58e8d","ios":"levelo://app?vid=5dd82d4e-16c0-4824-b120-8d21b6c58e8d"},"vehicle_type_id":"4","last_reported":1751389792,"current_range_meters":16800,"station_id":"ce4bgi92rcd13ifvqb90","pricing_plan_id":"cebpf4jnsgd1na2vs0mg"},{"bike_id":"6b8e65d2-1f82-4955-afba-0f8c67da74db","system_id":"levelo_inurba_marseille","lat":43.30465,"lon":5.37903,"is_reserved":false,"is_disabled":false,"rental_uris":{"android":"levelo://app?vid=6b8e65d2-1f82-4955-afba-0f8c67da74db","ios":"levelo://app?vid=6b8e65d2-1f82-4955-afba-0f8c67da74db"},"vehicle_type_id":"4","last_reported":1751389792,"current_range_meters":16800,"station_id":"ce4bgup2rcd13ifvqcn0","pricing_plan_id":"cebpf4jnsgd1na2vs0mg"},{"bike_id":"f1b465c2-858d-450f-8bb0-afe791425483","system_id":"levelo_inurba_marseille","lat":43.29198,"lon":5.35811,"is_reserved":false,"is_disabled":false,"rental_uris":{"android":"levelo://app?vid=f1b465c2-858d-450f-8bb0-afe791425483","ios":"levelo://app?vid=f1b465c2-858d-450f-8bb0-afe791425483"},"vehicle_type_id":"4","last_reported":1751389792,"current_range_meters":16800,"station_id":"ce4bhb12rcd13ifvqel0","pricing_plan_id":"cebpf4jnsgd1na2vs0mg"},{"bike_id":"7a2d4242-5f89-42d4-b81d-684b0a16e80d","system_id":"levelo_inurba_marseille","lat":43.29008,"lon":5.3561,"is_reserved":false,"is_disabled":false,"rental_uris":{"android":"levelo://app?vid=7a2d4242-5f89-42d4-b81d-684b0a16e80d","ios":"levelo://app?vid=7a2d4242-5f89-42d4-b81d-684b0a16e80d"},"vehicle_type_id":"4","last_reported":1751389792,"current_range_meters":16800,"station_id":"ce4bhb92rcd13ifvqen0","pricing_plan_id":"cebpf4jnsgd1na2vs0mg"},{"bike_id":"edd3f5ea-c0b4-44a7-96c4-f5251efb23ed","system_id":"levelo_inurba_marseille","lat":43.28404,"lon":5.34999,"is_reserved":false,"is_disabled":false,"rental_uris":{"android":"levelo://app?vid=edd3f5ea-c0b4-44a7-96c4-f5251efb23ed","ios":"levelo://app?vid=edd3f5ea-c0b4-44a7-96c4-f5251efb23ed"},"vehicle_type_id":"4","last_reported":1751389792,"current_range_meters":16800,"station_id":"ce4bhbh2rcd13ifvqepg","pricing_plan_id":"cebpf4jnsgd1na2vs0mg"},{"bike_id":"a34e6786-b006-48ad-94d8-bad1c2cc64ee","system_id":"levelo_inurba_marseille","lat":43.282655,"lon":5.350678,"is_reserved":false,"is_disabled":false,"rental_uris":{"android":"levelo://app?vid=a34e6786-b006-48ad-94d8-bad1c2cc64ee","ios":"levelo://app?vid=a34e6786-b006-48ad-94d8-bad1c2cc64ee"},"vehicle_type_id":"4","last_reported":1751389792,"current_range_meters":16800,"station_id":"ce4bhbp2rcd13ifvqerg","pricing_plan_id":"cebpf4jnsgd1na2vs0mg"},{"bike_id":"1b1d2a55-7937-4e4f-8e1d-0772a66cddb7","system_id":"levelo_inurba_marseille","lat":43.286207,"lon":5.350992,"is_reserved":false,"is_disabled":false,"rental_uris":{"android":"levelo://app?vid=1b1d2a55-7937-4e4f-8e1d-0772a66cddb7","ios":"levelo://app?vid=1b1d2a55-7937-4e4f-8e1d-0772a66cddb7"},"vehicle_type_id":"4","last_reported":1751389792,"current_range_meters":16800,"station_id":"ce4bhch2rcd13ifvqeug","pricing_plan_id":"cebpf4jnsgd1na2vs0mg"},{"bike_id":"c2cc3873-3136-4ba7-984d-6514f2a6bcc2","system_id":"levelo_inurba_marseille","lat":43.26692,"lon":5.3827,"is_reserved":false,"is_disabled":false,"rental_uris":{"android":"levelo://app?vid=c2cc3873-3136-4ba7-984d-6514f2a6bcc2","ios":"levelo://app?vid=c2cc3873-3136-4ba7-984d-6514f2a6bcc2"},"vehicle_type_id":"4","last_reported":1751389792,"current_range_meters":16800,"station_id":"ce4bhg92rcd13ifvqf90","pricing_plan_id":"cebpf4jnsgd1na2vs0mg"},{"bike_id":"8a74f5cd-9efa-4362-bea7-a32db4dcc85c","system_id":"levelo_inurba_marseille","lat":43.211867,"lon":5.350651,"is_reserved":false,"is_disabled":false,"rental_uris":{"android":"levelo://app?vid=8a74f5cd-9efa-4362-bea7-a32db4dcc85c","ios":"levelo://app?vid=8a74f5cd-9efa-4362-bea7-a32db4dcc85c"},"vehicle_type_id":"4","last_reported":1751389792,"current_range_meters":16800,"station_id":"st_cvj6sg6p6f1abm77japg","pricing_plan_id":"cebpf4jnsgd1na2vs0mg"},{"bike_id":"3e68e6b5-f7dd-4895-96d4-76eb7d1dfe2b","system_id":"levelo_inurba_marseille","lat":43.27373,"lon":5.36258,"is_reserved":false,"is_disabled":false,"rental_uris":{"android":"levelo://app?vid=3e68e6b5-f7dd-4895-96d4-76eb7d1dfe2b","ios":"levelo://app?vid=3e68e6b5-f7dd-4895-96d4-76eb7d1dfe2b"},"vehicle_type_id":"4","last_reported":1751389792,"current_range_meters":17200,"station_id":"ce4bhbh2rcd13ifvqeo0","pricing_plan_id":"cebpf4jnsgd1na2vs0mg"},{"bike_id":"628a2f20-5d49-454c-81f6-0eb8e4ac8a6b","system_id":"levelo_inurba_marseille","lat":43.28268,"lon":5.35054,"is_reserved":false,"is_disabled":false,"rental_uris":{"android":"levelo://app?vid=628a2f20-5d49-454c-81f6-0eb8e4ac8a6b","ios":"levelo://app?vid=628a2f20-5d49-454c-81f6-0eb8e4ac8a6b"},"vehicle_type_id":"4","last_reported":1751389792,"current_range_meters":17200,"station_id":"ce4bhbp2rcd13ifvqerg","pricing_plan_id":"cebpf4jnsgd1na2vs0mg"},{"bike_id":"33beb512-bac0-49d5-9355-0a8ae1874bcb","system_id":"levelo_inurba_marseille","lat":43.2604,"lon":5.37549,"is_reserved":false,"is_disabled":false,"rental_uris":{"android":"levelo://app?vid=33beb512-bac0-49d5-9355-0a8ae1874bcb","ios":"levelo://app?vid=33beb512-bac0-49d5-9355-0a8ae1874bcb"},"vehicle_type_id":"4","last_reported":1751389792,"current_range_meters":17200,"station_id":"ce4bhgh2rcd13ifvqfa0","pricing_plan_id":"cebpf4jnsgd1na2vs0mg"},{"bike_id":"ea414988-7a11-48d8-948a-8aaa9bbb2ef2","system_id":"levelo_inurba_marseille","lat":43.28262,"lon":5.39693,"is_reserved":false,"is_disabled":false,"rental_uris":{"android":"levelo://app?vid=ea414988-7a11-48d8-948a-8aaa9bbb2ef2","ios":"levelo://app?vid=ea414988-7a11-48d8-948a-8aaa9bbb2ef2"},"vehicle_type_id":"4","last_reported":1751389792,"current_range_meters":17200,"station_id":"ce4bho12rcd13ifvqh2g","pricing_plan_id":"cebpf4jnsgd1na2vs0mg"},{"bike_id":"32daead1-daa3-4ae4-8b01-d11f1755c035","system_id":"levelo_inurba_marseille","lat":43.28999,"lon":5.35616,"is_reserved":false,"is_disabled":false,"rental_uris":{"android":"levelo://app?vid=32daead1-daa3-4ae4-8b01-d11f1755c035","ios":"levelo://app?vid=32daead1-daa3-4ae4-8b01-d11f1755c035"},"vehicle_type_id":"4","last_reported":1751389792,"current_range_meters":17600,"station_id":"ce4bhb92rcd13ifvqen0","pricing_plan_id":"cebpf4jnsgd1na2vs0mg"},{"bike_id":"4f317cdb-8940-44ea-aeba-a2ae0cc9d3d6","system_id":"levelo_inurba_marseille","lat":43.27374,"lon":5.36257,"is_reserved":false,"is_disabled":false,"rental_uris":{"android":"levelo://app?vid=4f317cdb-8940-44ea-aeba-a2ae0cc9d3d6","ios":"levelo://app?vid=4f317cdb-8940-44ea-aeba-a2ae0cc9d3d6"},"vehicle_type_id":"4","last_reported":1751389792,"current_range_meters":17600,"station_id":"ce4bhbh2rcd13ifvqeo0","pricing_plan_id":"cebpf4jnsgd1na2vs0mg"},{"bike_id":"27ee8c69-20b9-425a-ae6a-518170670268","system_id":"levelo_inurba_marseille","lat":43.28437,"lon":5.34985,"is_reserved":false,"is_disabled":false,"rental_uris":{"android":"levelo://app?vid=27ee8c69-20b9-425a-ae6a-518170670268","ios":"levelo://app?vid=27ee8c69-20b9-425a-ae6a-518170670268"},"vehicle_type_id":"4","last_reported":1751389792,"current_range_meters":17600,"station_id":"ce4bhbh2rcd13ifvqepg","pricing_plan_id":"cebpf4jnsgd1na2vs0mg"},{"bike_id":"2213ee41-ba6c-4efc-8046-83aa00a32220","system_id":"levelo_inurba_marseille","lat":43.28413,"lon":5.34986,"is_reserved":false,"is_disabled":false,"rental_uris":{"android":"levelo://app?vid=2213ee41-ba6c-4efc-8046-83aa00a32220","ios":"levelo://app?vid=2213ee41-ba6c-4efc-8046-83aa00a32220"},"vehicle_type_id":"4","last_reported":1751389792,"current_range_meters":17600,"station_id":"ce4bhbh2rcd13ifvqepg","pricing_plan_id":"cebpf4jnsgd1na2vs0mg"},{"bike_id":"1e6b9f52-da41-4d6b-90e7-4aee7cbf4f90","system_id":"levelo_inurba_marseille","lat":43.28612,"lon":5.35146,"is_reserved":false,"is_disabled":false,"rental_uris":{"android":"levelo://app?vid=1e6b9f52-da41-4d6b-90e7-4aee7cbf4f90","ios":"levelo://app?vid=1e6b9f52-da41-4d6b-90e7-4aee7cbf4f90"},"vehicle_type_id":"4","last_reported":1751389792,"current_range_meters":17600,"station_id":"ce4bhch2rcd13ifvqeug","pricing_plan_id":"cebpf4jnsgd1na2vs0mg"},{"bike_id":"f9ac73cb-c290-4003-a7f7-aa7f292bdb78","system_id":"levelo_inurba_marseille","lat":43.26211,"lon":5.37439,"is_reserved":false,"is_disabled":false,"rental_uris":{"android":"levelo://app?vid=f9ac73cb-c290-4003-a7f7-aa7f292bdb78","ios":"levelo://app?vid=f9ac73cb-c290-4003-a7f7-aa7f292bdb78"},"vehicle_type_id":"4","last_reported":1751389792,"current_range_meters":17600,"station_id":"ce4bhgp2rcd13ifvqfc0","pricing_plan_id":"cebpf4jnsgd1na2vs0mg"},{"bike_id":"476efc27-5d02-4fde-b5d5-cb99d7f41823","system_id":"levelo_inurba_marseille","lat":43.24388,"lon":5.37059,"is_reserved":false,"is_disabled":false,"rental_uris":{"android":"levelo://app?vid=476efc27-5d02-4fde-b5d5-cb99d7f41823","ios":"levelo://app?vid=476efc27-5d02-4fde-b5d5-cb99d7f41823"},"vehicle_type_id":"4","last_reported":1751389792,"current_range_meters":17600,"station_id":"ce4bhhh2rcd13ifvqfk0","pricing_plan_id":"cebpf4jnsgd1na2vs0mg"},{"bike_id":"609561bc-a152-4515-8e4d-4b352aaf2d13","system_id":"levelo_inurba_marseille","lat":43.26508,"lon":5.39535,"is_reserved":false,"is_disabled":false,"rental_uris":{"android":"levelo://app?vid=609561bc-a152-4515-8e4d-4b352aaf2d13","ios":"levelo://app?vid=609561bc-a152-4515-8e4d-4b352aaf2d13"},"vehicle_type_id":"4","last_reported":1751389792,"current_range_meters":17600,"station_id":"ce4bhi12rcd13ifvqfq0","pricing_plan_id":"cebpf4jnsgd1na2vs0mg"},{"bike_id":"8575dff6-4a76-4c22-ae75-ada68c85402f","system_id":"levelo_inurba_marseille","lat":43.28156,"lon":5.42645,"is_reserved":false,"is_disabled":false,"rental_uris":{"android":"levelo://app?vid=8575dff6-4a76-4c22-ae75-ada68c85402f","ios":"levelo://app?vid=8575dff6-4a76-4c22-ae75-ada68c85402f"},"vehicle_type_id":"4","last_reported":1751389792,"current_range_meters":17600,"station_id":"ce4bhnh2rcd13ifvqgug","pricing_plan_id":"cebpf4jnsgd1na2vs0mg"},{"bike_id":"efd34b61-673b-4bb9-8bf3-c5e7edaabf11","system_id":"levelo_inurba_marseille","lat":43.24065,"lon":5.37724,"is_reserved":false,"is_disabled":false,"rental_uris":{"android":"levelo://app?vid=efd34b61-673b-4bb9-8bf3-c5e7edaabf11","ios":"levelo://app?vid=efd34b61-673b-4bb9-8bf3-c5e7edaabf11"},"vehicle_type_id":"4","last_reported":1751389792,"current_range_meters":17600,"station_id":"ce4bhnp2rcd13ifvqgvg","pricing_plan_id":"cebpf4jnsgd1na2vs0mg"},{"bike_id":"e7df4ada-5c20-406e-a611-a097123ae154","system_id":"levelo_inurba_marseille","lat":43.32046,"lon":5.4154,"is_reserved":false,"is_disabled":false,"rental_uris":{"android":"levelo://app?vid=e7df4ada-5c20-406e-a611-a097123ae154","ios":"levelo://app?vid=e7df4ada-5c20-406e-a611-a097123ae154"},"vehicle_type_id":"4","last_reported":1751389792,"current_range_meters":17600,"station_id":"ce4bhq92rcd13ifvqhkg","pricing_plan_id":"cebpf4jnsgd1na2vs0mg"},{"bike_id":"3c15a2f9-f59d-41ee-9df6-51132e0428e8","system_id":"levelo_inurba_marseille","lat":43.23199,"lon":5.35552,"is_reserved":false,"is_disabled":false,"rental_uris":{"android":"levelo://app?vid=3c15a2f9-f59d-41ee-9df6-51132e0428e8","ios":"levelo://app?vid=3c15a2f9-f59d-41ee-9df6-51132e0428e8"},"vehicle_type_id":"4","last_reported":1751389792,"current_range_meters":17600,"station_id":"ce4bhu92rcd13ifvqi70","pricing_plan_id":"cebpf4jnsgd1na2vs0mg"},{"bike_id":"fdcc33b3-b27b-4fd9-90cb-c9421efe9db6","system_id":"levelo_inurba_marseille","lat":43.278166,"lon":5.414469,"is_reserved":false,"is_disabled":false,"rental_uris":{"android":"levelo://app?vid=fdcc33b3-b27b-4fd9-90cb-c9421efe9db6","ios":"levelo://app?vid=fdcc33b3-b27b-4fd9-90cb-c9421efe9db6"},"vehicle_type_id":"4","last_reported":1751389792,"current_range_meters":18000,"station_id":"","pricing_plan_id":"cebpf4jnsgd1na2vs0mg"},{"bike_id":"f00e3044-9bd1-48b5-b342-151af21b34fa","system_id":"levelo_inurba_marseille","lat":43.29996,"lon":5.37409,"is_reserved":false,"is_disabled":false,"rental_uris":{"android":"levelo://app?vid=f00e3044-9bd1-48b5-b342-151af21b34fa","ios":"levelo://app?vid=f00e3044-9bd1-48b5-b342-151af21b34fa"},"vehicle_type_id":"4","last_reported":1751389792,"current_range_meters":18000,"station_id":"","pricing_plan_id":"cebpf4jnsgd1na2vs0mg"},{"bike_id":"039076a3-acc6-4673-8936-62a54a206dd5","system_id":"levelo_inurba_marseille","lat":43.30951,"lon":5.39035,"is_reserved":false,"is_disabled":false,"rental_uris":{"android":"levelo://app?vid=039076a3-acc6-4673-8936-62a54a206dd5","ios":"levelo://app?vid=039076a3-acc6-4673-8936-62a54a206dd5"},"vehicle_type_id":"4","last_reported":1751389792,"current_range_meters":18000,"station_id":"ce4bgup2rcd13ifvqco0","pricing_plan_id":"cebpf4jnsgd1na2vs0mg"},{"bike_id":"7602910a-4b6c-416a-9775-c22c923f55d8","system_id":"levelo_inurba_marseille","lat":43.28413,"lon":5.34981,"is_reserved":false,"is_disabled":false,"rental_uris":{"android":"levelo://app?vid=7602910a-4b6c-416a-9775-c22c923f55d8","ios":"levelo://app?vid=7602910a-4b6c-416a-9775-c22c923f55d8"},"vehicle_type_id":"4","last_reported":1751389792,"current_range_meters":18000,"station_id":"ce4bhbh2rcd13ifvqepg","pricing_plan_id":"cebpf4jnsgd1na2vs0mg"},{"bike_id":"336949c2-8153-44fd-9fba-b021979430ac","system_id":"levelo_inurba_marseille","lat":43.28427,"lon":5.34983,"is_reserved":false,"is_disabled":false,"rental_uris":{"android":"levelo://app?vid=336949c2-8153-44fd-9fba-b021979430ac","ios":"levelo://app?vid=336949c2-8153-44fd-9fba-b021979430ac"},"vehicle_type_id":"4","last_reported":1751389792,"current_range_meters":18000,"station_id":"ce4bhbh2rcd13ifvqepg","pricing_plan_id":"cebpf4jnsgd1na2vs0mg"},{"bike_id":"06582479-ddab-442b-aa48-7598470b3769","system_id":"levelo_inurba_marseille","lat":43.28433,"lon":5.34974,"is_reserved":false,"is_disabled":false,"rental_uris":{"android":"levelo://app?vid=06582479-ddab-442b-aa48-7598470b3769","ios":"levelo://app?vid=06582479-ddab-442b-aa48-7598470b3769"},"vehicle_type_id":"4","last_reported":1751389792,"current_range_meters":18000,"station_id":"ce4bhbh2rcd13ifvqepg","pricing_plan_id":"cebpf4jnsgd1na2vs0mg"},{"bike_id":"d8f4e68a-05c3-4caa-aa92-c12d8cb440f9","system_id":"levelo_inurba_marseille","lat":43.239672,"lon":5.366282,"is_reserved":false,"is_disabled":false,"rental_uris":{"android":"levelo://app?vid=d8f4e68a-05c3-4caa-aa92-c12d8cb440f9","ios":"levelo://app?vid=d8f4e68a-05c3-4caa-aa92-c12d8cb440f9"},"vehicle_type_id":"4","last_reported":1751389792,"current_range_meters":18000,"station_id":"ce4bhi12rcd13ifvqfp0","pricing_plan_id":"cebpf4jnsgd1na2vs0mg"},{"bike_id":"d0f90c24-dd03-411b-9731-55305f76b7c8","system_id":"levelo_inurba_marseille","lat":43.211921,"lon":5.35076,"is_reserved":false,"is_disabled":false,"rental_uris":{"android":"levelo://app?vid=d0f90c24-dd03-411b-9731-55305f76b7c8","ios":"levelo://app?vid=d0f90c24-dd03-411b-9731-55305f76b7c8"},"vehicle_type_id":"4","last_reported":1751389792,"current_range_meters":18000,"station_id":"st_cvj6sg6p6f1abm77japg","pricing_plan_id":"cebpf4jnsgd1na2vs0mg"},{"bike_id":"dbe6a7d8-6edc-4015-8658-f68eeb46a661","system_id":"levelo_inurba_marseille","lat":43.335763,"lon":5.398695,"is_reserved":false,"is_disabled":false,"rental_uris":{"android":"levelo://app?vid=dbe6a7d8-6edc-4015-8658-f68eeb46a661","ios":"levelo://app?vid=dbe6a7d8-6edc-4015-8658-f68eeb46a661"},"vehicle_type_id":"4","last_reported":1751389792,"current_range_meters":18800,"station_id":"","pricing_plan_id":"cebpf4jnsgd1na2vs0mg"},{"bike_id":"b69516a8-45a4-46a5-a77d-ec8bf6529d36","system_id":"levelo_inurba_marseille","lat":43.28853,"lon":5.3585,"is_reserved":false,"is_disabled":false,"rental_uris":{"android":"levelo://app?vid=b69516a8-45a4-46a5-a77d-ec8bf6529d36","ios":"levelo://app?vid=b69516a8-45a4-46a5-a77d-ec8bf6529d36"},"vehicle_type_id":"4","last_reported":1751389792,"current_range_meters":18800,"station_id":"ce4bhb12rcd13ifvqem0","pricing_plan_id":"cebpf4jnsgd1na2vs0mg"},{"bike_id":"186fb1c5-7b63-4c56-bd0c-d25199a9d131","system_id":"levelo_inurba_marseille","lat":43.28626,"lon":5.35108,"is_reserved":false,"is_disabled":false,"rental_uris":{"android":"levelo://app?vid=186fb1c5-7b63-4c56-bd0c-d25199a9d131","ios":"levelo://app?vid=186fb1c5-7b63-4c56-bd0c-d25199a9d131"},"vehicle_type_id":"4","last_reported":1751389792,"current_range_meters":18800,"station_id":"ce4bhch2rcd13ifvqeug","pricing_plan_id":"cebpf4jnsgd1na2vs0mg"},{"bike_id":"81c8180c-fbb4-475e-b542-ebaf0d473aaa","system_id":"levelo_inurba_marseille","lat":43.28618,"lon":5.35112,"is_reserved":false,"is_disabled":false,"rental_uris":{"android":"levelo://app?vid=81c8180c-fbb4-475e-b542-ebaf0d473aaa","ios":"levelo://app?vid=81c8180c-fbb4-475e-b542-ebaf0d473aaa"},"vehicle_type_id":"4","last_reported":1751389792,"current_range_meters":18800,"station_id":"ce4bhch2rcd13ifvqeug","pricing_plan_id":"cebpf4jnsgd1na2vs0mg"},{"bike_id":"a27ff6b4-e899-4c5e-8bea-60a658eb8afc","system_id":"levelo_inurba_marseille","lat":43.28616,"lon":5.35099,"is_reserved":false,"is_disabled":false,"rental_uris":{"android":"levelo://app?vid=a27ff6b4-e899-4c5e-8bea-60a658eb8afc","ios":"levelo://app?vid=a27ff6b4-e899-4c5e-8bea-60a658eb8afc"},"vehicle_type_id":"4","last_reported":1751389792,"current_range_meters":18800,"station_id":"ce4bhch2rcd13ifvqeug","pricing_plan_id":"cebpf4jnsgd1na2vs0mg"},{"bike_id":"d544b7d4-839b-4ad3-9e22-50cd2fd2fcff","system_id":"levelo_inurba_marseille","lat":43.24819,"lon":5.374674,"is_reserved":false,"is_disabled":false,"rental_uris":{"android":"levelo://app?vid=d544b7d4-839b-4ad3-9e22-50cd2fd2fcff","ios":"levelo://app?vid=d544b7d4-839b-4ad3-9e22-50cd2fd2fcff"},"vehicle_type_id":"4","last_reported":1751389792,"current_range_meters":18800,"station_id":"ce4bhgh2rcd13ifvqfb0","pricing_plan_id":"cebpf4jnsgd1na2vs0mg"},{"bike_id":"64e9eb71-b869-43d8-8109-182338e1e072","system_id":"levelo_inurba_marseille","lat":43.24388,"lon":5.37063,"is_reserved":false,"is_disabled":false,"rental_uris":{"android":"levelo://app?vid=64e9eb71-b869-43d8-8109-182338e1e072","ios":"levelo://app?vid=64e9eb71-b869-43d8-8109-182338e1e072"},"vehicle_type_id":"4","last_reported":1751389792,"current_range_meters":18800,"station_id":"ce4bhhh2rcd13ifvqfk0","pricing_plan_id":"cebpf4jnsgd1na2vs0mg"},{"bike_id":"81b9753f-aa28-4513-89a4-3ee72628d38d","system_id":"levelo_inurba_marseille","lat":43.32104,"lon":5.36763,"is_reserved":false,"is_disabled":false,"rental_uris":{"android":"levelo://app?vid=81b9753f-aa28-4513-89a4-3ee72628d38d","ios":"levelo://app?vid=81b9753f-aa28-4513-89a4-3ee72628d38d"},"vehicle_type_id":"4","last_reported":1751389792,"current_range_meters":18800,"station_id":"ce4bhrh2rcd13ifvqhug","pricing_plan_id":"cebpf4jnsgd1na2vs0mg"},{"bike_id":"cfc0aa67-590a-4038-b894-cb7b8f074cc7","system_id":"levelo_inurba_marseille","lat":43.217577,"lon":5.346053,"is_reserved":false,"is_disabled":false,"rental_uris":{"android":"levelo://app?vid=cfc0aa67-590a-4038-b894-cb7b8f074cc7","ios":"levelo://app?vid=cfc0aa67-590a-4038-b894-cb7b8f074cc7"},"vehicle_type_id":"4","last_reported":1751389792,"current_range_meters":18800,"station_id":"st_cvj6r9ubvosntc0bgbag","pricing_plan_id":"cebpf4jnsgd1na2vs0mg"},{"bike_id":"03a4dc57-50e1-47bd-8554-2b5e50f7ee26","system_id":"levelo_inurba_marseille","lat":43.211927,"lon":5.35067,"is_reserved":false,"is_disabled":false,"rental_uris":{"android":"levelo://app?vid=03a4dc57-50e1-47bd-8554-2b5e50f7ee26","ios":"levelo://app?vid=03a4dc57-50e1-47bd-8554-2b5e50f7ee26"},"vehicle_type_id":"4","last_reported":1751389792,"current_range_meters":18800,"station_id":"st_cvj6sg6p6f1abm77japg","pricing_plan_id":"cebpf4jnsgd1na2vs0mg"},{"bike_id":"7e62b058-a7ed-4634-80f1-04d3de596de7","system_id":"levelo_inurba_marseille","lat":43.29839,"lon":5.36797,"is_reserved":false,"is_disabled":false,"rental_uris":{"android":"levelo://app?vid=7e62b058-a7ed-4634-80f1-04d3de596de7","ios":"levelo://app?vid=7e62b058-a7ed-4634-80f1-04d3de596de7"},"vehicle_type_id":"4","last_reported":1751389792,"current_range_meters":19200,"station_id":"","pricing_plan_id":"cebpf4jnsgd1na2vs0mg"},{"bike_id":"32e95b8a-2368-4221-8e36-d2eb0c4c23b7","system_id":"levelo_inurba_marseille","lat":43.27377,"lon":5.36278,"is_reserved":false,"is_disabled":false,"rental_uris":{"android":"levelo://app?vid=32e95b8a-2368-4221-8e36-d2eb0c4c23b7","ios":"levelo://app?vid=32e95b8a-2368-4221-8e36-d2eb0c4c23b7"},"vehicle_type_id":"4","last_reported":1751389792,"current_range_meters":19200,"station_id":"ce4bhbh2rcd13ifvqeo0","pricing_plan_id":"cebpf4jnsgd1na2vs0mg"},{"bike_id":"cdf71ee8-826e-4ff2-95a9-25a3162f310d","system_id":"levelo_inurba_marseille","lat":43.2862,"lon":5.35106,"is_reserved":false,"is_disabled":false,"rental_uris":{"android":"levelo://app?vid=cdf71ee8-826e-4ff2-95a9-25a3162f310d","ios":"levelo://app?vid=cdf71ee8-826e-4ff2-95a9-25a3162f310d"},"vehicle_type_id":"4","last_reported":1751389792,"current_range_meters":19200,"station_id":"ce4bhch2rcd13ifvqeug","pricing_plan_id":"cebpf4jnsgd1na2vs0mg"},{"bike_id":"d94dd096-10fc-4e57-b3f9-d972629a418e","system_id":"levelo_inurba_marseille","lat":43.2583,"lon":5.39431,"is_reserved":false,"is_disabled":false,"rental_uris":{"android":"levelo://app?vid=d94dd096-10fc-4e57-b3f9-d972629a418e","ios":"levelo://app?vid=d94dd096-10fc-4e57-b3f9-d972629a418e"},"vehicle_type_id":"4","last_reported":1751389792,"current_range_meters":19200,"station_id":"ce4bhip2rcd13ifvqft0","pricing_plan_id":"cebpf4jnsgd1na2vs0mg"},{"bike_id":"dc4251f3-81b6-4e41-b5a5-62a769c36411","system_id":"levelo_inurba_marseille","lat":43.24171,"lon":5.36394,"is_reserved":false,"is_disabled":false,"rental_uris":{"android":"levelo://app?vid=dc4251f3-81b6-4e41-b5a5-62a769c36411","ios":"levelo://app?vid=dc4251f3-81b6-4e41-b5a5-62a769c36411"},"vehicle_type_id":"4","last_reported":1751389792,"current_range_meters":19200,"station_id":"cpo36qri1sfpv3e86is0","pricing_plan_id":"cebpf4jnsgd1na2vs0mg"},{"bike_id":"ae1c182d-0a5a-4871-b62e-0240f515d4fd","system_id":"levelo_inurba_marseille","lat":43.21749,"lon":5.346013,"is_reserved":false,"is_disabled":false,"rental_uris":{"android":"levelo://app?vid=ae1c182d-0a5a-4871-b62e-0240f515d4fd","ios":"levelo://app?vid=ae1c182d-0a5a-4871-b62e-0240f515d4fd"},"vehicle_type_id":"4","last_reported":1751389792,"current_range_meters":19200,"station_id":"st_cvj6r9ubvosntc0bgbag","pricing_plan_id":"cebpf4jnsgd1na2vs0mg"},{"bike_id":"e66f25d2-4332-41d6-8e8e-001ed6033981","system_id":"levelo_inurba_marseille","lat":43.27379,"lon":5.36256,"is_reserved":false,"is_disabled":false,"rental_uris":{"android":"levelo://app?vid=e66f25d2-4332-41d6-8e8e-001ed6033981","ios":"levelo://app?vid=e66f25d2-4332-41d6-8e8e-001ed6033981"},"vehicle_type_id":"4","last_reported":1751389792,"current_range_meters":19600,"station_id":"ce4bhbh2rcd13ifvqeo0","pricing_plan_id":"cebpf4jnsgd1na2vs0mg"},{"bike_id":"856d8a92-6543-4650-b58e-c6ccc494804c","system_id":"levelo_inurba_marseille","lat":43.28266,"lon":5.35065,"is_reserved":false,"is_disabled":false,"rental_uris":{"android":"levelo://app?vid=856d8a92-6543-4650-b58e-c6ccc494804c","ios":"levelo://app?vid=856d8a92-6543-4650-b58e-c6ccc494804c"},"vehicle_type_id":"4","last_reported":1751389792,"current_range_meters":19600,"station_id":"ce4bhbp2rcd13ifvqerg","pricing_plan_id":"cebpf4jnsgd1na2vs0mg"},{"bike_id":"50b82030-7151-4ba0-a981-9eb0853b7d5d","system_id":"levelo_inurba_marseille","lat":43.28609,"lon":5.35112,"is_reserved":false,"is_disabled":false,"rental_uris":{"android":"levelo://app?vid=50b82030-7151-4ba0-a981-9eb0853b7d5d","ios":"levelo://app?vid=50b82030-7151-4ba0-a981-9eb0853b7d5d"},"vehicle_type_id":"4","last_reported":1751389792,"current_range_meters":19600,"station_id":"ce4bhch2rcd13ifvqeug","pricing_plan_id":"cebpf4jnsgd1na2vs0mg"},{"bike_id":"f9c0cf1a-c3f9-40cf-9fe0-d04ea53f0b7b","system_id":"levelo_inurba_marseille","lat":43.28615,"lon":5.35103,"is_reserved":false,"is_disabled":false,"rental_uris":{"android":"levelo://app?vid=f9c0cf1a-c3f9-40cf-9fe0-d04ea53f0b7b","ios":"levelo://app?vid=f9c0cf1a-c3f9-40cf-9fe0-d04ea53f0b7b"},"vehicle_type_id":"4","last_reported":1751389792,"current_range_meters":19600,"station_id":"ce4bhch2rcd13ifvqeug","pricing_plan_id":"cebpf4jnsgd1na2vs0mg"},{"bike_id":"a592e71b-de16-4352-a9cf-bbfc6af2dac8","system_id":"levelo_inurba_marseille","lat":43.25502,"lon":5.3765,"is_reserved":false,"is_disabled":false,"rental_uris":{"android":"levelo://app?vid=a592e71b-de16-4352-a9cf-bbfc6af2dac8","ios":"levelo://app?vid=a592e71b-de16-4352-a9cf-bbfc6af2dac8"},"vehicle_type_id":"4","last_reported":1751389792,"current_range_meters":19600,"station_id":"ce4bhh12rcd13ifvqff0","pricing_plan_id":"cebpf4jnsgd1na2vs0mg"},{"bike_id":"09119cba-9db6-4a6a-99ed-cf2e28dca1f3","system_id":"levelo_inurba_marseille","lat":43.2439,"lon":5.37059,"is_reserved":false,"is_disabled":false,"rental_uris":{"android":"levelo://app?vid=09119cba-9db6-4a6a-99ed-cf2e28dca1f3","ios":"levelo://app?vid=09119cba-9db6-4a6a-99ed-cf2e28dca1f3"},"vehicle_type_id":"4","last_reported":1751389792,"current_range_meters":19600,"station_id":"ce4bhhh2rcd13ifvqfk0","pricing_plan_id":"cebpf4jnsgd1na2vs0mg"},{"bike_id":"121cc968-0180-43d4-9596-0fd313a59442","system_id":"levelo_inurba_marseille","lat":43.32658,"lon":5.40995,"is_reserved":false,"is_disabled":false,"rental_uris":{"android":"levelo://app?vid=121cc968-0180-43d4-9596-0fd313a59442","ios":"levelo://app?vid=121cc968-0180-43d4-9596-0fd313a59442"},"vehicle_type_id":"4","last_reported":1751389792,"current_range_meters":19600,"station_id":"ce4bhpp2rcd13ifvqhgg","pricing_plan_id":"cebpf4jnsgd1na2vs0mg"},{"bike_id":"fb80b3d9-e97e-4385-8d43-3a44a5ff8198","system_id":"levelo_inurba_marseille","lat":43.23064,"lon":5.35488,"is_reserved":false,"is_disabled":false,"rental_uris":{"android":"levelo://app?vid=fb80b3d9-e97e-4385-8d43-3a44a5ff8198","ios":"levelo://app?vid=fb80b3d9-e97e-4385-8d43-3a44a5ff8198"},"vehicle_type_id":"4","last_reported":1751389792,"current_range_meters":19600,"station_id":"cpo3342slgdg3j2ifvpg","pricing_plan_id":"cebpf4jnsgd1na2vs0mg"},{"bike_id":"bcfd0eda-b9ab-4bec-9ca3-3f2b86617415","system_id":"levelo_inurba_marseille","lat":43.211929,"lon":5.350735,"is_reserved":false,"is_disabled":false,"rental_uris":{"android":"levelo://app?vid=bcfd0eda-b9ab-4bec-9ca3-3f2b86617415","ios":"levelo://app?vid=bcfd0eda-b9ab-4bec-9ca3-3f2b86617415"},"vehicle_type_id":"4","last_reported":1751389792,"current_range_meters":19600,"station_id":"st_cvj6sg6p6f1abm77japg","pricing_plan_id":"cebpf4jnsgd1na2vs0mg"},{"bike_id":"16a8afe6-e43e-4d1b-a7bd-ed83d113735a","system_id":"levelo_inurba_marseille","lat":43.32436,"lon":5.41185,"is_reserved":false,"is_disabled":false,"rental_uris":{"android":"levelo://app?vid=16a8afe6-e43e-4d1b-a7bd-ed83d113735a","ios":"levelo://app?vid=16a8afe6-e43e-4d1b-a7bd-ed83d113735a"},"vehicle_type_id":"4","last_reported":1751389792,"current_range_meters":20000,"station_id":"","pricing_plan_id":"cebpf4jnsgd1na2vs0mg"},{"bike_id":"70e86ccf-9ce4-469c-bb23-0fa7747821d0","system_id":"levelo_inurba_marseille","lat":43.32608,"lon":5.41032,"is_reserved":false,"is_disabled":false,"rental_uris":{"android":"levelo://app?vid=70e86ccf-9ce4-469c-bb23-0fa7747821d0","ios":"levelo://app?vid=70e86ccf-9ce4-469c-bb23-0fa7747821d0"},"vehicle_type_id":"4","last_reported":1751389792,"current_range_meters":20000,"station_id":"","pricing_plan_id":"cebpf4jnsgd1na2vs0mg"},{"bike_id":"218fa6d1-1e97-4166-a65e-f7f93691c393","system_id":"levelo_inurba_marseille","lat":43.27373,"lon":5.36264,"is_reserved":false,"is_disabled":false,"rental_uris":{"android":"levelo://app?vid=218fa6d1-1e97-4166-a65e-f7f93691c393","ios":"levelo://app?vid=218fa6d1-1e97-4166-a65e-f7f93691c393"},"vehicle_type_id":"4","last_reported":1751389792,"current_range_meters":20000,"station_id":"ce4bhbh2rcd13ifvqeo0","pricing_plan_id":"cebpf4jnsgd1na2vs0mg"},{"bike_id":"d4fb4850-343f-4ba0-b38e-bff6d3d7ea5a","system_id":"levelo_inurba_marseille","lat":43.29217,"lon":5.36023,"is_reserved":false,"is_disabled":false,"rental_uris":{"android":"levelo://app?vid=d4fb4850-343f-4ba0-b38e-bff6d3d7ea5a","ios":"levelo://app?vid=d4fb4850-343f-4ba0-b38e-bff6d3d7ea5a"},"vehicle_type_id":"4","last_reported":1751389792,"current_range_meters":20000,"station_id":"ce4bhbh2rcd13ifvqeqg","pricing_plan_id":"cebpf4jnsgd1na2vs0mg"},{"bike_id":"bc69c05f-a63e-439a-ba08-264049294ff4","system_id":"levelo_inurba_marseille","lat":43.28279,"lon":5.35067,"is_reserved":false,"is_disabled":false,"rental_uris":{"android":"levelo://app?vid=bc69c05f-a63e-439a-ba08-264049294ff4","ios":"levelo://app?vid=bc69c05f-a63e-439a-ba08-264049294ff4"},"vehicle_type_id":"4","last_reported":1751389792,"current_range_meters":20000,"station_id":"ce4bhbp2rcd13ifvqerg","pricing_plan_id":"cebpf4jnsgd1na2vs0mg"},{"bike_id":"30a64fda-d503-4b51-bb71-dbe9bb7bd586","system_id":"levelo_inurba_marseille","lat":43.27679,"lon":5.38877,"is_reserved":false,"is_disabled":false,"rental_uris":{"android":"levelo://app?vid=30a64fda-d503-4b51-bb71-dbe9bb7bd586","ios":"levelo://app?vid=30a64fda-d503-4b51-bb71-dbe9bb7bd586"},"vehicle_type_id":"4","last_reported":1751389792,"current_range_meters":20000,"station_id":"ce4bhi12rcd13ifvqfo0","pricing_plan_id":"cebpf4jnsgd1na2vs0mg"},{"bike_id":"6254fb6f-29a7-4044-a90c-2c8d7f561940","system_id":"levelo_inurba_marseille","lat":43.23197,"lon":5.35554,"is_reserved":false,"is_disabled":false,"rental_uris":{"android":"levelo://app?vid=6254fb6f-29a7-4044-a90c-2c8d7f561940","ios":"levelo://app?vid=6254fb6f-29a7-4044-a90c-2c8d7f561940"},"vehicle_type_id":"4","last_reported":1751389792,"current_range_meters":20000,"station_id":"ce4bhu92rcd13ifvqi70","pricing_plan_id":"cebpf4jnsgd1na2vs0mg"},{"bike_id":"1565f935-d660-4539-8a6d-5ab1202fe9b7","system_id":"levelo_inurba_marseille","lat":43.217506,"lon":5.346035,"is_reserved":false,"is_disabled":false,"rental_uris":{"android":"levelo://app?vid=1565f935-d660-4539-8a6d-5ab1202fe9b7","ios":"levelo://app?vid=1565f935-d660-4539-8a6d-5ab1202fe9b7"},"vehicle_type_id":"4","last_reported":1751389792,"current_range_meters":20000,"station_id":"st_cvj6r9ubvosntc0bgbag","pricing_plan_id":"cebpf4jnsgd1na2vs0mg"},{"bike_id":"110be0f7-19b6-4419-935c-8afdb1f29359","system_id":"levelo_inurba_marseille","lat":43.211985,"lon":5.350719,"is_reserved":false,"is_disabled":false,"rental_uris":{"android":"levelo://app?vid=110be0f7-19b6-4419-935c-8afdb1f29359","ios":"levelo://app?vid=110be0f7-19b6-4419-935c-8afdb1f29359"},"vehicle_type_id":"4","last_reported":1751389792,"current_range_meters":20000,"station_id":"st_cvj6sg6p6f1abm77japg","pricing_plan_id":"cebpf4jnsgd1na2vs0mg"},{"bike_id":"09a94feb-8911-4d3d-9f22-a7f611710ea1","system_id":"levelo_inurba_marseille","lat":43.21193,"lon":5.35095,"is_reserved":false,"is_disabled":false,"rental_uris":{"android":"levelo://app?vid=09a94feb-8911-4d3d-9f22-a7f611710ea1","ios":"levelo://app?vid=09a94feb-8911-4d3d-9f22-a7f611710ea1"},"vehicle_type_id":"4","last_reported":1751389792,"current_range_meters":20000,"station_id":"st_cvj6sg6p6f1abm77japg","pricing_plan_id":"cebpf4jnsgd1na2vs0mg"},{"bike_id":"9e004f46-a20a-40ec-8953-1e403b7fac4d","system_id":"levelo_inurba_marseille","lat":43.28983,"lon":5.35621,"is_reserved":false,"is_disabled":false,"rental_uris":{"android":"levelo://app?vid=9e004f46-a20a-40ec-8953-1e403b7fac4d","ios":"levelo://app?vid=9e004f46-a20a-40ec-8953-1e403b7fac4d"},"vehicle_type_id":"4","last_reported":1751389792,"current_range_meters":20400,"station_id":"ce4bhb92rcd13ifvqen0","pricing_plan_id":"cebpf4jnsgd1na2vs0mg"},{"bike_id":"b5e8cbb7-73b5-4b67-8591-cb0ff1541e40","system_id":"levelo_inurba_marseille","lat":43.28413,"lon":5.35002,"is_reserved":false,"is_disabled":false,"rental_uris":{"android":"levelo://app?vid=b5e8cbb7-73b5-4b67-8591-cb0ff1541e40","ios":"levelo://app?vid=b5e8cbb7-73b5-4b67-8591-cb0ff1541e40"},"vehicle_type_id":"4","last_reported":1751389792,"current_range_meters":20400,"station_id":"ce4bhbh2rcd13ifvqepg","pricing_plan_id":"cebpf4jnsgd1na2vs0mg"},{"bike_id":"c85fb055-f29f-4d80-9f56-684258f9011e","system_id":"levelo_inurba_marseille","lat":43.28417,"lon":5.3499,"is_reserved":false,"is_disabled":false,"rental_uris":{"android":"levelo://app?vid=c85fb055-f29f-4d80-9f56-684258f9011e","ios":"levelo://app?vid=c85fb055-f29f-4d80-9f56-684258f9011e"},"vehicle_type_id":"4","last_reported":1751389792,"current_range_meters":20400,"station_id":"ce4bhbh2rcd13ifvqepg","pricing_plan_id":"cebpf4jnsgd1na2vs0mg"},{"bike_id":"b4eca355-3602-4b03-be38-741a640a316e","system_id":"levelo_inurba_marseille","lat":43.28269,"lon":5.35057,"is_reserved":false,"is_disabled":false,"rental_uris":{"android":"levelo://app?vid=b4eca355-3602-4b03-be38-741a640a316e","ios":"levelo://app?vid=b4eca355-3602-4b03-be38-741a640a316e"},"vehicle_type_id":"4","last_reported":1751389792,"current_range_meters":20400,"station_id":"ce4bhbp2rcd13ifvqerg","pricing_plan_id":"cebpf4jnsgd1na2vs0mg"},{"bike_id":"8bf0d992-d2a0-428e-940a-091ee9b7c2a4","system_id":"levelo_inurba_marseille","lat":43.2119,"lon":5.35078,"is_reserved":false,"is_disabled":false,"rental_uris":{"android":"levelo://app?vid=8bf0d992-d2a0-428e-940a-091ee9b7c2a4","ios":"levelo://app?vid=8bf0d992-d2a0-428e-940a-091ee9b7c2a4"},"vehicle_type_id":"4","last_reported":1751389792,"current_range_meters":20400,"station_id":"st_cvj6sg6p6f1abm77japg","pricing_plan_id":"cebpf4jnsgd1na2vs0mg"},{"bike_id":"959e6f20-8ed0-4d36-bc1d-3efb82d6190b","system_id":"levelo_inurba_marseille","lat":43.21205,"lon":5.35072,"is_reserved":false,"is_disabled":false,"rental_uris":{"android":"levelo://app?vid=959e6f20-8ed0-4d36-bc1d-3efb82d6190b","ios":"levelo://app?vid=959e6f20-8ed0-4d36-bc1d-3efb82d6190b"},"vehicle_type_id":"4","last_reported":1751389792,"current_range_meters":20400,"station_id":"st_cvj6sg6p6f1abm77japg","pricing_plan_id":"cebpf4jnsgd1na2vs0mg"},{"bike_id":"359a62cf-d7b2-4c0d-a169-0eea2204cf34","system_id":"levelo_inurba_marseille","lat":43.2528,"lon":5.42035,"is_reserved":false,"is_disabled":false,"rental_uris":{"android":"levelo://app?vid=359a62cf-d7b2-4c0d-a169-0eea2204cf34","ios":"levelo://app?vid=359a62cf-d7b2-4c0d-a169-0eea2204cf34"},"vehicle_type_id":"4","last_reported":1751389792,"current_range_meters":20800,"station_id":"","pricing_plan_id":"cebpf4jnsgd1na2vs0mg"},{"bike_id":"cb1fb38e-309c-4b0c-aec0-25282c90b63a","system_id":"levelo_inurba_marseille","lat":43.28267,"lon":5.35068,"is_reserved":false,"is_disabled":false,"rental_uris":{"android":"levelo://app?vid=cb1fb38e-309c-4b0c-aec0-25282c90b63a","ios":"levelo://app?vid=cb1fb38e-309c-4b0c-aec0-25282c90b63a"},"vehicle_type_id":"4","last_reported":1751389792,"current_range_meters":20800,"station_id":"ce4bhbp2rcd13ifvqerg","pricing_plan_id":"cebpf4jnsgd1na2vs0mg"},{"bike_id":"be6e912c-cb5c-421a-8bff-c8fea69fbfbc","system_id":"levelo_inurba_marseille","lat":43.23079,"lon":5.35477,"is_reserved":false,"is_disabled":false,"rental_uris":{"android":"levelo://app?vid=be6e912c-cb5c-421a-8bff-c8fea69fbfbc","ios":"levelo://app?vid=be6e912c-cb5c-421a-8bff-c8fea69fbfbc"},"vehicle_type_id":"4","last_reported":1751389792,"current_range_meters":20800,"station_id":"cpo3342slgdg3j2ifvpg","pricing_plan_id":"cebpf4jnsgd1na2vs0mg"},{"bike_id":"8e4147e3-1b40-4975-a726-63764f255202","system_id":"levelo_inurba_marseille","lat":43.27606,"lon":5.36094,"is_reserved":false,"is_disabled":false,"rental_uris":{"android":"levelo://app?vid=8e4147e3-1b40-4975-a726-63764f255202","ios":"levelo://app?vid=8e4147e3-1b40-4975-a726-63764f255202"},"vehicle_type_id":"4","last_reported":1751389792,"current_range_meters":21600,"station_id":"ce4bgj92rcd13ifvqbe0","pricing_plan_id":"cebpf4jnsgd1na2vs0mg"},