{"last_updated":1733814618,"ttl":60,"version":"2.2","data":{"bikes":[{"bike_id":"eb1054d3-7e56-4d51-add7-d792c02d4e1b","system_id":"levelo_inurba_marseille","lat":43.30593,"lon":5.39354,"is_reserved":false,"is_disabled":false,"rental_uris":{"android":"levelo://app?vid=eb1054d3-7e56-4d51-add7-d792c02d4e1b","ios":"levelo://app?vid=eb1054d3-7e56-4d51-add7-d792c02d4e1b"},"vehicle_type_id":"4","last_reported":1733814619,"current_range_meters":33200,"station_id":"ce4bh0p2rcd13ifvqd80","pricing_plan_id":"cebpf4jnsgd1na2vs0mg"},{"bike_id":"f23b8abc-c3d2-4caf-ae41-09355f4b342b","system_id":"levelo_inurba_marseille","lat":43.28344,"lon":5.38109,"is_reserved":false,"is_disabled":false,"rental_uris":{"android":"levelo://app?vid=f23b8abc-c3d2-4caf-ae41-09355f4b342b","ios":"levelo://app?vid=f23b8abc-c3d2-4caf-ae41-09355f4b342b"},"vehicle_type_id":"4","last_reported":1733814619,"current_range_meters":38400,"station_id":"ce4bh412rcd13ifvqdr0","pricing_plan_id":"cebpf4jnsgd1na2vs0mg"},{"bike_id":"8e029eaf-e104-4c5d-858d-6cd39de73d09","system_id":"levelo_inurba_marseille","lat":43.24164,"lon":5.36393,"is_reserved":false,"is_disabled":false,"rental_uris":{"android":"levelo://app?vid=8e029eaf-e104-4c5d-858d-6cd39de73d09","ios":"levelo://app?vid=8e029eaf-e104-4c5d-858d-6cd39de73d09"},"vehicle_type_id":"4","last_reported":1733814619,"current_range_meters":17600,"station_id":"cpo36qri1sfpv3e86is0","pricing_plan_id":"cebpf4jnsgd1na2vs0mg"},{"bike_id":"13cae269-f4b4-441c-afaf-fe77d6d91024","system_id":"levelo_inurba_marseille","lat":43.295093,"lon":5.374922,"is_reserved":false,"is_disabled":true,"rental_uris":{"android":"levelo://app?vid=13cae269-f4b4-441c-afaf-fe77d6d91024","ios":"levelo://app?vid=13cae269-f4b4-441c-afaf-fe77d6d91024"},"vehicle_type_id":"4","last_reported":1733814619,"current_range_meters":0,"station_id":"","pricing_plan_id":"cebpf4jnsgd1na2vs0mg"},{"bike_id":"5ee88fa2-ea43-4fcc-81b6-7c648141d8f2","system_id":"levelo_inurba_marseille","lat":43.27568,"lon":5.38421,"is_reserved":false,"is_disabled":false,"rental_uris":{"android":"levelo://app?vid=5ee88fa2-ea43-4fcc-81b6-7c648141d8f2","ios":"levelo://app?vid=5ee88fa2-ea43-4fcc-81b6-7c648141d8f2"},"vehicle_type_id":"4","last_reported":1733814619,"current_range_meters":39200,"station_id":"ce4bhh92rcd13ifvqfi0","pricing_plan_id":"cebpf4jnsgd1na2vs0mg"},{"bike_id":"e5e8c7a3-ca47-4dbb-a387-7e79718e6cd2","system_id":"levelo_inurba_marseille","lat":43.24078,"lon":5.37745,"is_reserved":false,"is_disabled":false,"rental_uris":{"android":"levelo://app?vid=e5e8c7a3-ca47-4dbb-a387-7e79718e6cd2","ios":"levelo://app?vid=e5e8c7a3-ca47-4dbb-a387-7e79718e6cd2"},"vehicle_type_id":"4","last_reported":1733814619,"current_range_meters":36800,"station_id":"ce4bhnp2rcd13ifvqgvg","pricing_plan_id":"cebpf4jnsgd1na2vs0mg"},{"bike_id":"4cdf2b49-e362-499a-9b60-50802e966565","system_id":"levelo_inurba_marseille","lat":43.30534,"lon":5.36712,"is_reserved":false,"is_disabled":false,"rental_uris":{"android":"levelo://app?vid=4cdf2b49-e362-499a-9b60-50802e966565","ios":"levelo://app?vid=4cdf2b49-e362-499a-9b60-50802e966565"},"vehicle_type_id":"4","last_reported":1733814619,"current_range_meters":25200,"station_id":"ce4bgrp2rcd13ifvqc9g","pricing_plan_id":"cebpf4jnsgd1na2vs0mg"},{"bike_id":"84088061-4e68-4ec0-976c-cc101f477c56","system_id":"levelo_inurba_marseille","lat":43.29966,"lon":5.38508,"is_reserved":false,"is_disabled":true,"rental_uris":{"android":"levelo://app?vid=84088061-4e68-4ec0-976c-cc101f477c56","ios":"levelo://app?vid=84088061-4e68-4ec0-976c-cc101f477c56"},"vehicle_type_id":"4","last_reported":1733814619,"current_range_meters":400,"station_id":"ce4bgj92rcd13ifvqbd0","pricing_plan_id":"cebpf4jnsgd1na2vs0mg"},{"bike_id":"76639e26-0196-4fcf-ac89-85e5961f29e7","system_id":"levelo_inurba_marseille","lat":43.28201,"lon":5.3906,"is_reserved":false,"is_disabled":false,"rental_uris":{"android":"levelo://app?vid=76639e26-0196-4fcf-ac89-85e5961f29e7","ios":"levelo://app?vid=76639e26-0196-4fcf-ac89-85e5961f29e7"},"vehicle_type_id":"4","last_reported":1733814619,"current_range_meters":30000,"station_id":"","pricing_plan_id":"cebpf4jnsgd1na2vs0mg"},{"bike_id":"d6516c65-9deb-4a2a-ac4c-a9dba00b1556","system_id":"levelo_inurba_marseille","lat":43.28157,"lon":5.42639,"is_reserved":false,"is_disabled":false,"rental_uris":{"android":"levelo://app?vid=d6516c65-9deb-4a2a-ac4c-a9dba00b1556","ios":"levelo://app?vid=d6516c65-9deb-4a2a-ac4c-a9dba00b1556"},"vehicle_type_id":"4","last_reported":1733814619,"current_range_meters":30800,"station_id":"ce4bhnh2rcd13ifvqgug","pricing_plan_id":"cebpf4jnsgd1na2vs0mg"},{"bike_id":"8bd642b2-0279-44c7-9ee2-fc3b57332c83","system_id":"levelo_inurba_marseille","lat":43.27455,"lon":5.40073,"is_reserved":false,"is_disabled":true,"rental_uris":{"android":"levelo://app?vid=8bd642b2-0279-44c7-9ee2-fc3b57332c83","ios":"levelo://app?vid=8bd642b2-0279-44c7-9ee2-fc3b57332c83"},"vehicle_type_id":"4","last_reported":1733814619,"current_range_meters":0,"station_id":"","pricing_plan_id":"cebpf4jnsgd1na2vs0mg"},{"bike_id":"8192084c-0bb8-4563-8bf2-f9ce1da11230","system_id":"levelo_inurba_marseille","lat":43.26951,"lon":5.38631,"is_reserved":false,"is_disabled":false,"rental_uris":{"android":"levelo://app?vid=8192084c-0bb8-4563-8bf2-f9ce1da11230","ios":"levelo://app?vid=8192084c-0bb8-4563-8bf2-f9ce1da11230"},"vehicle_type_id":"4","last_reported":1733814619,"current_range_meters":36800,"station_id":"ce4bhh92rcd13ifvqfh0","pricing_plan_id":"cebpf4jnsgd1na2vs0mg"},{"bike_id":"8bbcb1c3-3c13-458a-a8cd-359d4a2951b7","system_id":"levelo_inurba_marseille","lat":43.25856,"lon":5.39904,"is_reserved":false,"is_disabled":false,"rental_uris":{"android":"levelo://app?vid=8bbcb1c3-3c13-458a-a8cd-359d4a2951b7","ios":"levelo://app?vid=8bbcb1c3-3c13-458a-a8cd-359d4a2951b7"},"vehicle_type_id":"4","last_reported":1733814619,"current_range_meters":28800,"station_id":"ce4bhl92rcd13ifvqghg","pricing_plan_id":"cebpf4jnsgd1na2vs0mg"},{"bike_id":"73116fdf-1eda-4095-8735-77afbc02fb0a","system_id":"levelo_inurba_marseille","lat":43.29369,"lon":5.37839,"is_reserved":false,"is_disabled":false,"rental_uris":{"android":"levelo://app?vid=73116fdf-1eda-4095-8735-77afbc02fb0a","ios":"levelo://app?vid=73116fdf-1eda-4095-8735-77afbc02fb0a"},"vehicle_type_id":"4","last_reported":1733814619,"current_range_meters":36800,"station_id":"ce4bgjh2rcd13ifvqbf0","pricing_plan_id":"cebpf4jnsgd1na2vs0mg"},{"bike_id":"f09914a1-032a-4233-965f-c73f49a269ba","system_id":"levelo_inurba_marseille","lat":43.337444,"lon":5.374475,"is_reserved":false,"is_disabled":true,"rental_uris":{"android":"levelo://app?vid=f09914a1-032a-4233-965f-c73f49a269ba","ios":"levelo://app?vid=f09914a1-032a-4233-965f-c73f49a269ba"},"vehicle_type_id":"4","last_reported":1733814619,"current_range_meters":0,"station_id":"","pricing_plan_id":"cebpf4jnsgd1na2vs0mg"},{"bike_id":"88a4150c-c945-4c77-b494-3806bd64d2d1","system_id":"levelo_inurba_marseille","lat":43.32287,"lon":5.3827,"is_reserved":false,"is_disabled":false,"rental_uris":{"android":"levelo://app?vid=88a4150c-c945-4c77-b494-3806bd64d2d1","ios":"levelo://app?vid=88a4150c-c945-4c77-b494-3806bd64d2d1"},"vehicle_type_id":"4","last_reported":1733814619,"current_range_meters":29600,"station_id":"ce4bhr12rcd13ifvqhqg","pricing_plan_id":"cebpf4jnsgd1na2vs0mg"},{"bike_id":"f6ceca24-19af-4ed8-b20b-dad7699688ae","system_id":"levelo_inurba_marseille","lat":43.32484,"lon":5.36578,"is_reserved":false,"is_disabled":true,"rental_uris":{"android":"levelo://app?vid=f6ceca24-19af-4ed8-b20b-dad7699688ae","ios":"levelo://app?vid=f6ceca24-19af-4ed8-b20b-dad7699688ae"},"vehicle_type_id":"4","last_reported":1733814619,"current_range_meters":24800,"station_id":"ce4bhs12rcd13ifvqhvg","pricing_plan_id":"cebpf4jnsgd1na2vs0mg"},{"bike_id":"a955f565-33db-4fdc-bdbf-249121ea420f","system_id":"levelo_inurba_marseille","lat":43.29189,"lon":5.35796,"is_reserved":false,"is_disabled":true,"rental_uris":{"android":"levelo://app?vid=a955f565-33db-4fdc-bdbf-249121ea420f","ios":"levelo://app?vid=a955f565-33db-4fdc-bdbf-249121ea420f"},"vehicle_type_id":"4","last_reported":1733814619,"current_range_meters":28400,"station_id":"ce4bhb12rcd13ifvqel0","pricing_plan_id":"cebpf4jnsgd1na2vs0mg"},{"bike_id":"674feca6-33d9-4794-93cf-2ff1cdc58968","system_id":"levelo_inurba_marseille","lat":43.309235,"lon":5.390416,"is_reserved":false,"is_disabled":false,"rental_uris":{"android":"levelo://app?vid=674feca6-33d9-4794-93cf-2ff1cdc58968","ios":"levelo://app?vid=674feca6-33d9-4794-93cf-2ff1cdc58968"},"vehicle_type_id":"4","last_reported":1733814619,"current_range_meters":9200,"station_id":"ce4bgup2rcd13ifvqco0","pricing_plan_id":"cebpf4jnsgd1na2vs0mg"},{"bike_id":"1aa44ed9-e118-4ef3-bc76-ec2ddb64bcd0","system_id":"levelo_inurba_marseille","lat":43.27332,"lon":5.39089,"is_reserved":false,"is_disabled":true,"rental_uris":{"android":"levelo://app?vid=1aa44ed9-e118-4ef3-bc76-ec2ddb64bcd0","ios":"levelo://app?vid=1aa44ed9-e118-4ef3-bc76-ec2ddb64bcd0"},"vehicle_type_id":"4","last_reported":1733814619,"current_range_meters":12800,"station_id":"ce4bhgp2rcd13ifvqfe0","pricing_plan_id":"cebpf4jnsgd1na2vs0mg"},{"bike_id":"14c257dc-06bf-4a29-939b-9abb4cc4885a","system_id":"levelo_inurba_marseille","lat":43.28502,"lon":5.36812,"is_reserved":false,"is_disabled":false,"rental_uris":{"android":"levelo://app?vid=14c257dc-06bf-4a29-939b-9abb4cc4885a","ios":"levelo://app?vid=14c257dc-06bf-4a29-939b-9abb4cc4885a"},"vehicle_type_id":"4","last_reported":1733814619,"current_range_meters":3200,"station_id":"","pricing_plan_id":"cebpf4jnsgd1na2vs0mg"},{"bike_id":"79533f17-2510-4978-b3f7-d9e54ffe07ac","system_id":"levelo_inurba_marseille","lat":43.29627,"lon":5.40603,"is_reserved":false,"is_disabled":false,"rental_uris":{"android":"levelo://app?vid=79533f17-2510-4978-b3f7-d9e54ffe07ac","ios":"levelo://app?vid=79533f17-2510-4978-b3f7-d9e54ffe07ac"},"vehicle_type_id":"4","last_reported":1733814619,"current_range_meters":38000,"station_id":"ce4bh0h2rcd13ifvqd60","pricing_plan_id":"cebpf4jnsgd1na2vs0mg"},{"bike_id":"b4f7cb09-b1ee-47c9-bc9d-20e2b1f0abc0","system_id":"levelo_inurba_marseille","lat":43.27615,"lon":5.36106,"is_reserved":false,"is_disabled":false,"rental_uris":{"android":"levelo://app?vid=b4f7cb09-b1ee-47c9-bc9d-20e2b1f0abc0","ios":"levelo://app?vid=b4f7cb09-b1ee-47c9-bc9d-20e2b1f0abc0"},"vehicle_type_id":"4","last_reported":1733814619,"current_range_meters":24400,"station_id":"ce4bgj92rcd13ifvqbe0","pricing_plan_id":"cebpf4jnsgd1na2vs0mg"},{"bike_id":"6649269c-5c88-4f82-8516-469200adfc98","system_id":"levelo_inurba_marseille","lat":43.30155,"lon":5.38088,"is_reserved":false,"is_disabled":false,"rental_uris":{"android":"levelo://app?vid=6649269c-5c88-4f82-8516-469200adfc98","ios":"levelo://app?vid=6649269c-5c88-4f82-8516-469200adfc98"},"vehicle_type_id":"4","last_reported":1733814619,"current_range_meters":36800,"station_id":"ce4bgjp2rcd13ifvqbh0","pricing_plan_id":"cebpf4jnsgd1na2vs0mg"},{"bike_id":"162a8d9f-caa5-49b4-b205-1198a79adafa","system_id":"levelo_inurba_marseille","lat":43.30476,"lon":5.3791,"is_reserved":false,"is_disabled":false,"rental_uris":{"android":"levelo://app?vid=162a8d9f-caa5-49b4-b205-1198a79adafa","ios":"levelo://app?vid=162a8d9f-caa5-49b4-b205-1198a79adafa"},"vehicle_type_id":"4","last_reported":1733814619,"current_range_meters":28400,"station_id":"ce4bgup2rcd13ifvqcn0","pricing_plan_id":"cebpf4jnsgd1na2vs0mg"},{"bike_id":"e6550b39-6d6f-4de3-b7c0-2a7a2be3424b","system_id":"levelo_inurba_marseille","lat":43.28465,"lon":5.359,"is_reserved":false,"is_disabled":false,"rental_uris":{"android":"levelo://app?vid=e6550b39-6d6f-4de3-b7c0-2a7a2be3424b","ios":"levelo://app?vid=e6550b39-6d6f-4de3-b7c0-2a7a2be3424b"},"vehicle_type_id":"4","last_reported":1733814619,"current_range_meters":4800,"station_id":"ce4bhah2rcd13ifvqei0","pricing_plan_id":"cebpf4jnsgd1na2vs0mg"},{"bike_id":"5fa70455-851e-4685-9722-27ff5152f2ff","system_id":"levelo_inurba_marseille","lat":43.29905,"lon":5.38135,"is_reserved":false,"is_disabled":false,"rental_uris":{"android":"levelo://app?vid=5fa70455-851e-4685-9722-27ff5152f2ff","ios":"levelo://app?vid=5fa70455-851e-4685-9722-27ff5152f2ff"},"vehicle_type_id":"4","last_reported":1733814619,"current_range_meters":38800,"station_id":"ce4bgj12rcd13ifvqbc0","pricing_plan_id":"cebpf4jnsgd1na2vs0mg"},{"bike_id":"480f28a2-7fc0-4293-a84e-a1f8167b279b","system_id":"levelo_inurba_marseille","lat":43.25863,"lon":5.39899,"is_reserved":false,"is_disabled":false,"rental_uris":{"android":"levelo://app?vid=480f28a2-7fc0-4293-a84e-a1f8167b279b","ios":"levelo://app?vid=480f28a2-7fc0-4293-a84e-a1f8167b279b"},"vehicle_type_id":"4","last_reported":1733814619,"current_range_meters":37600,"station_id":"ce4bhl92rcd13ifvqghg","pricing_plan_id":"cebpf4jnsgd1na2vs0mg"},{"bike_id":"709d9fc2-65ce-4cbd-9d17-6edab39dfa41","system_id":"levelo_inurba_marseille","lat":43.29601,"lon":5.38106,"is_reserved":false,"is_disabled":false,"rental_uris":{"android":"levelo://app?vid=709d9fc2-65ce-4cbd-9d17-6edab39dfa41","ios":"levelo://app?vid=709d9fc2-65ce-4cbd-9d17-6edab39dfa41"},"vehicle_type_id":"4","last_reported":1733814619,"current_range_meters":32400,"station_id":"ce4bgl12rcd13ifvqbo0","pricing_plan_id":"cebpf4jnsgd1na2vs0mg"},{"bike_id":"938640b4-f78c-4def-9b16-e6205edb88bc","system_id":"levelo_inurba_marseille","lat":43.28154,"lon":5.42637,"is_reserved":false,"is_disabled":true,"rental_uris":{"android":"levelo://app?vid=938640b4-f78c-4def-9b16-e6205edb88bc","ios":"levelo://app?vid=938640b4-f78c-4def-9b16-e6205edb88bc"},"vehicle_type_id":"4","last_reported":1733814619,"current_range_meters":31200,"station_id":"ce4bhnh2rcd13ifvqgug","pricing_plan_id":"cebpf4jnsgd1na2vs0mg"},{"bike_id":"ea9d4249-69ee-4a2d-857e-bb5f7820465f","system_id":"levelo_inurba_marseille","lat":43.294376,"lon":5.397409,"is_reserved":false,"is_disabled":false,"rental_uris":{"android":"levelo://app?vid=ea9d4249-69ee-4a2d-857e-bb5f7820465f","ios":"levelo://app?vid=ea9d4249-69ee-4a2d-857e-bb5f7820465f"},"vehicle_type_id":"4","last_reported":1733814619,"current_range_meters":38800,"station_id":"ce4bh3h2rcd13ifvqdo0","pricing_plan_id":"cebpf4jnsgd1na2vs0mg"},{"bike_id":"cf55b169-9388-4819-bfa4-c55a8fa03873","system_id":"levelo_inurba_marseille","lat":43.27611,"lon":5.36111,"is_reserved":false,"is_disabled":true,"rental_uris":{"android":"levelo://app?vid=cf55b169-9388-4819-bfa4-c55a8fa03873","ios":"levelo://app?vid=cf55b169-9388-4819-bfa4-c55a8fa03873"},"vehicle_type_id":"4","last_reported":1733814619,"current_range_meters":26800,"station_id":"ce4bgj92rcd13ifvqbe0","pricing_plan_id":"cebpf4jnsgd1na2vs0mg"},{"bike_id":"2f3968e7-9336-4ee4-ba78-8e92c0a818cc","system_id":"levelo_inurba_marseille","lat":43.31322,"lon":5.36647,"is_reserved":false,"is_disabled":true,"rental_uris":{"android":"levelo://app?vid=2f3968e7-9336-4ee4-ba78-8e92c0a818cc","ios":"levelo://app?vid=2f3968e7-9336-4ee4-ba78-8e92c0a818cc"},"vehicle_type_id":"4","last_reported":1733814619,"current_range_meters":0,"station_id":"","pricing_plan_id":"cebpf4jnsgd1na2vs0mg"},{"bike_id":"73ea15a5-d302-4e86-8ee5-05c4cedf1cf1","system_id":"levelo_inurba_marseille","lat":43.27495,"lon":5.42455,"is_reserved":false,"is_disabled":false,"rental_uris":{"android":"levelo://app?vid=73ea15a5-d302-4e86-8ee5-05c4cedf1cf1","ios":"levelo://app?vid=73ea15a5-d302-4e86-8ee5-05c4cedf1cf1"},"vehicle_type_id":"4","last_reported":1733814619,"current_range_meters":36400,"station_id":"ce4bhn92rcd13ifvqgrg","pricing_plan_id":"cebpf4jnsgd1na2vs0mg"},{"bike_id":"16260d8f-6907-408a-bdf2-912a17440c66","system_id":"levelo_inurba_marseille","lat":43.29027,"lon":5.38122,"is_reserved":false,"is_disabled":false,"rental_uris":{"android":"levelo://app?vid=16260d8f-6907-408a-bdf2-912a17440c66","ios":"levelo://app?vid=16260d8f-6907-408a-bdf2-912a17440c66"},"vehicle_type_id":"4","last_reported":1733814619,"current_range_meters":17600,"station_id":"ce4bh4p2rcd13ifvqe1g","pricing_plan_id":"cebpf4jnsgd1na2vs0mg"},{"bike_id":"3f97c83b-16e4-4870-8d6c-597e60aa284b","system_id":"levelo_inurba_marseille","lat":43.28266,"lon":5.38429,"is_reserved":false,"is_disabled":false,"rental_uris":{"android":"levelo://app?vid=3f97c83b-16e4-4870-8d6c-597e60aa284b","ios":"levelo://app?vid=3f97c83b-16e4-4870-8d6c-597e60aa284b"},"vehicle_type_id":"4","last_reported":1733814619,"current_range_meters":25200,"station_id":"","pricing_plan_id":"cebpf4jnsgd1na2vs0mg"},{"bike_id":"d66e5731-6359-4f3c-baae-3ddf9d7e246b","system_id":"levelo_inurba_marseille","lat":43.32536,"lon":5.41426,"is_reserved":false,"is_disabled":false,"rental_uris":{"android":"levelo://app?vid=d66e5731-6359-4f3c-baae-3ddf9d7e246b","ios":"levelo://app?vid=d66e5731-6359-4f3c-baae-3ddf9d7e246b"},"vehicle_type_id":"4","last_reported":1733814619,"current_range_meters":27600,"station_id":"ce4bhq12rcd13ifvqhhg","pricing_plan_id":"cebpf4jnsgd1na2vs0mg"},{"bike_id":"33afcd88-0857-4b5d-8f95-a960d6eca619","system_id":"levelo_inurba_marseille","lat":43.25501,"lon":5.37652,"is_reserved":false,"is_disabled":false,"rental_uris":{"android":"levelo://app?vid=33afcd88-0857-4b5d-8f95-a960d6eca619","ios":"levelo://app?vid=33afcd88-0857-4b5d-8f95-a960d6eca619"},"vehicle_type_id":"4","last_reported":1733814619,"current_range_meters":21600,"station_id":"ce4bhh12rcd13ifvqff0","pricing_plan_id":"cebpf4jnsgd1na2vs0mg"},{"bike_id":"7f0b121b-7748-43bd-b861-318cbdf6fb69","system_id":"levelo_inurba_marseille","lat":43.284525,"lon":5.358868,"is_reserved":false,"is_disabled":true,"rental_uris":{"android":"levelo://app?vid=7f0b121b-7748-43bd-b861-318cbdf6fb69","ios":"levelo://app?vid=7f0b121b-7748-43bd-b861-318cbdf6fb69"},"vehicle_type_id":"4","last_reported":1733814619,"current_range_meters":38800,"station_id":"ce4bhah2rcd13ifvqei0","pricing_plan_id":"cebpf4jnsgd1na2vs0mg"},{"bike_id":"6583aefc-6815-4bd5-8f5c-a9c5d794f47e","system_id":"levelo_inurba_marseille","lat":43.36393,"lon":5.34183,"is_reserved":false,"is_disabled":false,"rental_uris":{"android":"levelo://app?vid=6583aefc-6815-4bd5-8f5c-a9c5d794f47e","ios":"levelo://app?vid=6583aefc-6815-4bd5-8f5c-a9c5d794f47e"},"vehicle_type_id":"4","last_reported":1733814619,"current_range_meters":9200,"station_id":"","pricing_plan_id":"cebpf4jnsgd1na2vs0mg"},{"bike_id":"44e61e76-e5f6-4bd6-8c75-f9c8ad6e00e6","system_id":"levelo_inurba_marseille","lat":43.27438,"lon":5.39417,"is_reserved":false,"is_disabled":false,"rental_uris":{"android":"levelo://app?vid=44e61e76-e5f6-4bd6-8c75-f9c8ad6e00e6","ios":"levelo://app?vid=44e61e76-e5f6-4bd6-8c75-f9c8ad6e00e6"},"vehicle_type_id":"4","last_reported":1733814619,"current_range_meters":38400,"station_id":"ce4bhdp2rcd13ifvqf20","pricing_plan_id":"cebpf4jnsgd1na2vs0mg"},{"bike_id":"a822604e-5a8f-4665-b875-586d39d61022","system_id":"levelo_inurba_marseille","lat":43.33002,"lon":5.39253,"is_reserved":false,"is_disabled":false,"rental_uris":{"android":"levelo://app?vid=a822604e-5a8f-4665-b875-586d39d61022","ios":"levelo://app?vid=a822604e-5a8f-4665-b875-586d39d61022"},"vehicle_type_id":"4","last_reported":1733814619,"current_range_meters":33600,"station_id":"ce4bhs12rcd13ifvqhvg","pricing_plan_id":"cebpf4jnsgd1na2vs0mg"},{"bike_id":"72a40c74-61ce-4e85-9c26-7501b1062d7a","system_id":"levelo_inurba_marseille","lat":43.3234,"lon":5.40618,"is_reserved":false,"is_disabled":false,"rental_uris":{"android":"levelo://app?vid=72a40c74-61ce-4e85-9c26-7501b1062d7a","ios":"levelo://app?vid=72a40c74-61ce-4e85-9c26-7501b1062d7a"},"vehicle_type_id":"4","last_reported":1733814619,"current_range_meters":12000,"station_id":"ce4bhq92rcd13ifvqhjg","pricing_plan_id":"cebpf4jnsgd1na2vs0mg"},{"bike_id":"b97d7574-49b3-4eea-b4a7-8d4ca9df8845","system_id":"levelo_inurba_marseille","lat":43.27185,"lon":5.40995,"is_reserved":false,"is_disabled":false,"rental_uris":{"android":"levelo://app?vid=b97d7574-49b3-4eea-b4a7-8d4ca9df8845","ios":"levelo://app?vid=b97d7574-49b3-4eea-b4a7-8d4ca9df8845"},"vehicle_type_id":"4","last_reported":1733814619,"current_range_meters":16800,"station_id":"ce4bhl12rcd13ifvqgf0","pricing_plan_id":"cebpf4jnsgd1na2vs0mg"},{"bike_id":"37f17ac2-36bc-48dc-93d3-0a6f6c3a599c","system_id":"levelo_inurba_marseille","lat":43.29779,"lon":5.38116,"is_reserved":false,"is_disabled":false,"rental_uris":{"android":"levelo://app?vid=37f17ac2-36bc-48dc-93d3-0a6f6c3a599c","ios":"levelo://app?vid=37f17ac2-36bc-48dc-93d3-0a6f6c3a599c"},"vehicle_type_id":"4","last_reported":1733814619,"current_range_meters":2800,"station_id":"ce4bgip2rcd13ifvqbb0","pricing_plan_id":"cebpf4jnsgd1na2vs0mg"},{"bike_id":"e6b36b28-f319-408a-8d73-d349f51c82ac","system_id":"levelo_inurba_marseille","lat":43.27492,"lon":5.42452,"is_reserved":false,"is_disabled":false,"rental_uris":{"android":"levelo://app?vid=e6b36b28-f319-408a-8d73-d349f51c82ac","ios":"levelo://app?vid=e6b36b28-f319-408a-8d73-d349f51c82ac"},"vehicle_type_id":"4","last_reported":1733814619,"current_range_meters":32000,"station_id":"ce4bhn92rcd13ifvqgrg","pricing_plan_id":"cebpf4jnsgd1na2vs0mg"},{"bike_id":"7f01ec26-bc2f-4194-a382-f362e5ee36ee","system_id":"levelo_inurba_marseille","lat":43.31182,"lon":5.38702,"is_reserved":false,"is_disabled":false,"rental_uris":{"android":"levelo://app?vid=7f01ec26-bc2f-4194-a382-f362e5ee36ee","ios":"levelo://app?vid=7f01ec26-bc2f-4194-a382-f362e5ee36ee"},"vehicle_type_id":"4","last_reported":1733814619,"current_range_meters":22000,"station_id":"ce4bgv12rcd13ifvqcp0","pricing_plan_id":"cebpf4jnsgd1na2vs0mg"},{"bike_id":"2c0234e5-d946-4eb3-9148-c7e8d36309cf","system_id":"levelo_inurba_marseille","lat":43.29801,"lon":5.38103,"is_reserved":false,"is_disabled":true,"rental_uris":{"android":"levelo://app?vid=2c0234e5-d946-4eb3-9148-c7e8d36309cf","ios":"levelo://app?vid=2c0234e5-d946-4eb3-9148-c7e8d36309cf"},"vehicle_type_id":"4","last_reported":1733814619,"current_range_meters":1600,"station_id":"ce4bgip2rcd13ifvqbb0","pricing_plan_id":"cebpf4jnsgd1na2vs0mg"},{"bike_id":"f10c5e90-601b-4bd4-87e7-4cbb6a13a4fb","system_id":"levelo_inurba_marseille","lat":43.26123,"lon":5.39268,"is_reserved":false,"is_disabled":true,"rental_uris":{"android":"levelo://app?vid=f10c5e90-601b-4bd4-87e7-4cbb6a13a4fb","ios":"levelo://app?vid=f10c5e90-601b-4bd4-87e7-4cbb6a13a4fb"},"vehicle_type_id":"4","last_reported":1733814619,"current_range_meters":0,"station_id":"","pricing_plan_id":"cebpf4jnsgd1na2vs0mg"},{"bike_id":"1bd12b71-d86e-4144-a2c1-ee16fdc6d21f","system_id":"levelo_inurba_marseille","lat":43.27495,"lon":5.4245,"is_reserved":false,"is_disabled":false,"rental_uris":{"android":"levelo://app?vid=1bd12b71-d86e-4144-a2c1-ee16fdc6d21f","ios":"levelo://app?vid=1bd12b71-d86e-4144-a2c1-ee16fdc6d21f"},"vehicle_type_id":"4","last_reported":1733814619,"current_range_meters":24400,"station_id":"ce4bhn92rcd13ifvqgrg","pricing_plan_id":"cebpf4jnsgd1na2vs0mg"},{"bike_id":"b4ac2d9f-0eae-4a71-bf6e-8cb91a1d2294","system_id":"levelo_inurba_marseille","lat":43.28362,"lon":5.38643,"is_reserved":false,"is_disabled":false,"rental_uris":{"android":"levelo://app?vid=b4ac2d9f-0eae-4a71-bf6e-8cb91a1d2294","ios":"levelo://app?vid=b4ac2d9f-0eae-4a71-bf6e-8cb91a1d2294"},"vehicle_type_id":"4","last_reported":1733814619,"current_range_meters":32800,"station_id":"ce4bh492rcd13ifvqdvg","pricing_plan_id":"cebpf4jnsgd1na2vs0mg"},{"bike_id":"7c3e6be1-0dd7-4dab-9452-641dfa900274","system_id":"levelo_inurba_marseille","lat":43.28733,"lon":5.37942,"is_reserved":false,"is_disabled":false,"rental_uris":{"android":"levelo://app?vid=7c3e6be1-0dd7-4dab-9452-641dfa900274","ios":"levelo://app?vid=7c3e6be1-0dd7-4dab-9452-641dfa900274"},"vehicle_type_id":"4","last_reported":1733814619,"current_range_meters":14000,"station_id":"ce4bh9p2rcd13ifvqec0","pricing_plan_id":"cebpf4jnsgd1na2vs0mg"},{"bike_id":"f5487562-29f2-47ac-957e-1ca55cf7ec84","system_id":"levelo_inurba_marseille","lat":43.30461,"lon":5.37904,"is_reserved":false,"is_disabled":false,"rental_uris":{"android":"levelo://app?vid=f5487562-29f2-47ac-957e-1ca55cf7ec84","ios":"levelo://app?vid=f5487562-29f2-47ac-957e-1ca55cf7ec84"},"vehicle_type_id":"4","last_reported":1733814619,"current_range_meters":38800,"station_id":"ce4bgup2rcd13ifvqcn0","pricing_plan_id":"cebpf4jnsgd1na2vs0mg"},{"bike_id":"c1af07c0-ed11-49c8-aa2e-1104638a28b7","system_id":"levelo_inurba_marseille","lat":43.23067,"lon":5.3549,"is_reserved":false,"is_disabled":false,"rental_uris":{"android":"levelo://app?vid=c1af07c0-ed11-49c8-aa2e-1104638a28b7","ios":"levelo://app?vid=c1af07c0-ed11-49c8-aa2e-1104638a28b7"},"vehicle_type_id":"4","last_reported":1733814619,"current_range_meters":21600,"station_id":"cpo3342slgdg3j2ifvpg","pricing_plan_id":"cebpf4jnsgd1na2vs0mg"},{"bike_id":"23de3b29-7d1a-4c81-ba50-57171fc89b09","system_id":"levelo_inurba_marseille","lat":43.30597,"lon":5.39365,"is_reserved":false,"is_disabled":false,"rental_uris":{"android":"levelo://app?vid=23de3b29-7d1a-4c81-ba50-57171fc89b09","ios":"levelo://app?vid=23de3b29-7d1a-4c81-ba50-57171fc89b09"},"vehicle_type_id":"4","last_reported":1733814619,"current_range_meters":37600,"station_id":"ce4bh0p2rcd13ifvqd80","pricing_plan_id":"cebpf4jnsgd1na2vs0mg"},{"bike_id":"cccc7c57-27b7-484c-ad83-84541e49eb57","system_id":"levelo_inurba_marseille","lat":43.30469,"lon":5.37919,"is_reserved":false,"is_disabled":false,"rental_uris":{"android":"levelo://app?vid=cccc7c57-27b7-484c-ad83-84541e49eb57","ios":"levelo://app?vid=cccc7c57-27b7-484c-ad83-84541e49eb57"},"vehicle_type_id":"4","last_reported":1733814619,"current_range_meters":14800,"station_id":"ce4bgup2rcd13ifvqcn0","pricing_plan_id":"cebpf4jnsgd1na2vs0mg"},{"bike_id":"0706adb5-0c61-4c6b-9d93-aada612b11f4","system_id":"levelo_inurba_marseille","lat":43.2963,"lon":5.40607,"is_reserved":false,"is_disabled":false,"rental_uris":{"android":"levelo://app?vid=0706adb5-0c61-4c6b-9d93-aada612b11f4","ios":"levelo://app?vid=0706adb5-0c61-4c6b-9d93-aada612b11f4"},"vehicle_type_id":"4","last_reported":1733814619,"current_range_meters":36400,"station_id":"ce4bh0h2rcd13ifvqd60","pricing_plan_id":"cebpf4jnsgd1na2vs0mg"},{"bike_id":"64860cb9-dc40-4f70-b3a9-9626d9c5e687","system_id":"levelo_inurba_marseille","lat":43.290481,"lon":5.399861,"is_reserved":false,"is_disabled":false,"rental_uris":{"android":"levelo://app?vid=64860cb9-dc40-4f70-b3a9-9626d9c5e687","ios":"levelo://app?vid=64860cb9-dc40-4f70-b3a9-9626d9c5e687"},"vehicle_type_id":"4","last_reported":1733814619,"current_range_meters":16400,"station_id":"ce4bh392rcd13ifvqdm0","pricing_plan_id":"cebpf4jnsgd1na2vs0mg"},{"bike_id":"6f5aafc4-06b9-4dba-b612-5d926167490b","system_id":"levelo_inurba_marseille","lat":43.32477,"lon":5.36582,"is_reserved":false,"is_disabled":true,"rental_uris":{"android":"levelo://app?vid=6f5aafc4-06b9-4dba-b612-5d926167490b","ios":"levelo://app?vid=6f5aafc4-06b9-4dba-b612-5d926167490b"},"vehicle_type_id":"4","last_reported":1733814619,"current_range_meters":0,"station_id":"ce4bhs12rcd13ifvqhvg","pricing_plan_id":"cebpf4jnsgd1na2vs0mg"},{"bike_id":"5fefcf9d-7cc1-41a7-8c5a-70f7639f379f","system_id":"levelo_inurba_marseille","lat":43.30801,"lon":5.43521,"is_reserved":false,"is_disabled":false,"rental_uris":{"android":"levelo://app?vid=5fefcf9d-7cc1-41a7-8c5a-70f7639f379f","ios":"levelo://app?vid=5fefcf9d-7cc1-41a7-8c5a-70f7639f379f"},"vehicle_type_id":"4","last_reported":1733814619,"current_range_meters":13600,"station_id":"ce4bhph2rcd13ifvqheg","pricing_plan_id":"cebpf4jnsgd1na2vs0mg"},{"bike_id":"b089d5a6-e8e6-4265-b578-f28e18d6c5ed","system_id":"levelo_inurba_marseille","lat":43.25502,"lon":5.37653,"is_reserved":false,"is_disabled":false,"rental_uris":{"android":"levelo://app?vid=b089d5a6-e8e6-4265-b578-f28e18d6c5ed","ios":"levelo://app?vid=b089d5a6-e8e6-4265-b578-f28e18d6c5ed"},"vehicle_type_id":"4","last_reported":1733814619,"current_range_meters":38400,"station_id":"ce4bhh12rcd13ifvqff0","pricing_plan_id":"cebpf4jnsgd1na2vs0mg"},{"bike_id":"74ddbdc3-b082-4f44-a075-38dfc2e6b2cd","system_id":"levelo_inurba_marseille","lat":43.24167,"lon":5.36387,"is_reserved":false,"is_disabled":false,"rental_uris":{"android":"levelo://app?vid=74ddbdc3-b082-4f44-a075-38dfc2e6b2cd","ios":"levelo://app?vid=74ddbdc3-b082-4f44-a075-38dfc2e6b2cd"},"vehicle_type_id":"4","last_reported":1733814619,"current_range_meters":24000,"station_id":"cpo36qri1sfpv3e86is0","pricing_plan_id":"cebpf4jnsgd1na2vs0mg"},{"bike_id":"bd5cf351-0ac5-4251-8c87-d57b89ea3995","system_id":"levelo_inurba_marseille","lat":43.2558,"lon":5.38228,"is_reserved":false,"is_disabled":false,"rental_uris":{"android":"levelo://app?vid=bd5cf351-0ac5-4251-8c87-d57b89ea3995","ios":"levelo://app?vid=bd5cf351-0ac5-4251-8c87-d57b89ea3995"},"vehicle_type_id":"4","last_reported":1733814619,"current_range_meters":17200,"station_id":"ce4bhih2rcd13ifvqfs0","pricing_plan_id":"cebpf4jnsgd1na2vs0mg"},{"bike_id":"778cfa67-5e48-43ac-bad2-c30d515ff32e","system_id":"levelo_inurba_marseille","lat":43.30795,"lon":5.43521,"is_reserved":false,"is_disabled":false,"rental_uris":{"android":"levelo://app?vid=778cfa67-5e48-43ac-bad2-c30d515ff32e","ios":"levelo://app?vid=778cfa67-5e48-43ac-bad2-c30d515ff32e"},"vehicle_type_id":"4","last_reported":1733814619,"current_range_meters":38000,"station_id":"ce4bhph2rcd13ifvqheg","pricing_plan_id":"cebpf4jnsgd1na2vs0mg"},{"bike_id":"f942e722-5039-4601-9971-0207b150598d","system_id":"levelo_inurba_marseille","lat":43.29849,"lon":5.36285,"is_reserved":false,"is_disabled":false,"rental_uris":{"android":"levelo://app?vid=f942e722-5039-4601-9971-0207b150598d","ios":"levelo://app?vid=f942e722-5039-4601-9971-0207b150598d"},"vehicle_type_id":"4","last_reported":1733814619,"current_range_meters":8800,"station_id":"ce4bgpp2rcd13ifvqc3g","pricing_plan_id":"cebpf4jnsgd1na2vs0mg"},{"bike_id":"9cd79aab-6f4c-4919-b570-803a9e8b35c5","system_id":"levelo_inurba_marseille","lat":43.304606,"lon":5.36722,"is_reserved":false,"is_disabled":true,"rental_uris":{"android":"levelo://app?vid=9cd79aab-6f4c-4919-b570-803a9e8b35c5","ios":"levelo://app?vid=9cd79aab-6f4c-4919-b570-803a9e8b35c5"},"vehicle_type_id":"4","last_reported":1733814619,"current_range_meters":24800,"station_id":"","pricing_plan_id":"cebpf4jnsgd1na2vs0mg"},{"bike_id":"8df8f00b-e591-46be-8d7e-1bd9c49b0816","system_id":"levelo_inurba_marseille","lat":43.28934,"lon":5.36631,"is_reserved":false,"is_disabled":false,"rental_uris":{"android":"levelo://app?vid=8df8f00b-e591-46be-8d7e-1bd9c49b0816","ios":"levelo://app?vid=8df8f00b-e591-46be-8d7e-1bd9c49b0816"},"vehicle_type_id":"4","last_reported":1733814619,"current_range_meters":32800,"station_id":"ce4bhap2rcd13ifvqek0","pricing_plan_id":"cebpf4jnsgd1na2vs0mg"},{"bike_id":"41f43266-666d-45e2-831d-7be4d0e06660","system_id":"levelo_inurba_marseille","lat":43.250775,"lon":5.395393,"is_reserved":false,"is_disabled":false,"rental_uris":{"android":"levelo://app?vid=41f43266-666d-45e2-831d-7be4d0e06660","ios":"levelo://app?vid=41f43266-666d-45e2-831d-7be4d0e06660"},"vehicle_type_id":"4","last_reported":1733814619,"current_range_meters":15200,"station_id":"","pricing_plan_id":"cebpf4jnsgd1na2vs0mg"},{"bike_id":"c4ed27d8-ea29-49fc-a6a8-71e1af9bdabf","system_id":"levelo_inurba_marseille","lat":43.3083,"lon":5.43493,"is_reserved":false,"is_disabled":false,"rental_uris":{"android":"levelo://app?vid=c4ed27d8-ea29-49fc-a6a8-71e1af9bdabf","ios":"levelo://app?vid=c4ed27d8-ea29-49fc-a6a8-71e1af9bdabf"},"vehicle_type_id":"4","last_reported":1733814619,"current_range_meters":38000,"station_id":"ce4bhph2rcd13ifvqheg","pricing_plan_id":"cebpf4jnsgd1na2vs0mg"},{"bike_id":"36ef4c16-0b8d-4e2a-9305-5ca4dd7683b2","system_id":"levelo_inurba_marseille","lat":43.28353,"lon":5.38106,"is_reserved":false,"is_disabled":false,"rental_uris":{"android":"levelo://app?vid=36ef4c16-0b8d-4e2a-9305-5ca4dd7683b2","ios":"levelo://app?vid=36ef4c16-0b8d-4e2a-9305-5ca4dd7683b2"},"vehicle_type_id":"4","last_reported":1733814619,"current_range_meters":28000,"station_id":"ce4bh412rcd13ifvqdr0","pricing_plan_id":"cebpf4jnsgd1na2vs0mg"},{"bike_id":"f97ddc52-5758-4192-8ca1-71254ad1a77e","system_id":"levelo_inurba_marseille","lat":43.26196,"lon":5.37452,"is_reserved":false,"is_disabled":false,"rental_uris":{"android":"levelo://app?vid=f97ddc52-5758-4192-8ca1-71254ad1a77e","ios":"levelo://app?vid=f97ddc52-5758-4192-8ca1-71254ad1a77e"},"vehicle_type_id":"4","last_reported":1733814619,"current_range_meters":38000,"station_id":"ce4bhgp2rcd13ifvqfc0","pricing_plan_id":"cebpf4jnsgd1na2vs0mg"},{"bike_id":"11e86528-eb6b-4391-86a5-9b1822d069a4","system_id":"levelo_inurba_marseille","lat":43.278805,"lon":5.388003,"is_reserved":false,"is_disabled":true,"rental_uris":{"android":"levelo://app?vid=11e86528-eb6b-4391-86a5-9b1822d069a4","ios":"levelo://app?vid=11e86528-eb6b-4391-86a5-9b1822d069a4"},"vehicle_type_id":"4","last_reported":1733814619,"current_range_meters":0,"station_id":"","pricing_plan_id":"cebpf4jnsgd1na2vs0mg"},{"bike_id":"6cc6805f-c0ca-4585-bdf1-b5a0339762b0","system_id":"levelo_inurba_marseille","lat":43.29027,"lon":5.42744,"is_reserved":false,"is_disabled":true,"rental_uris":{"android":"levelo://app?vid=6cc6805f-c0ca-4585-bdf1-b5a0339762b0","ios":"levelo://app?vid=6cc6805f-c0ca-4585-bdf1-b5a0339762b0"},"vehicle_type_id":"4","last_reported":1733814619,"current_range_meters":0,"station_id":"","pricing_plan_id":"cebpf4jnsgd1na2vs0mg"},{"bike_id":"45d0e926-ca3d-4f46-8cac-9527b775619c","system_id":"levelo_inurba_marseille","lat":43.262,"lon":5.37929,"is_reserved":false,"is_disabled":false,"rental_uris":{"android":"levelo://app?vid=45d0e926-ca3d-4f46-8cac-9527b775619c","ios":"levelo://app?vid=45d0e926-ca3d-4f46-8cac-9527b775619c"},"vehicle_type_id":"4","last_reported":1733814619,"current_range_meters":37600,"station_id":"ce4bhjp2rcd13ifvqg90","pricing_plan_id":"cebpf4jnsgd1na2vs0mg"},{"bike_id":"a478bcff-2af8-4db5-8351-cdbe6b849a6d","system_id":"levelo_inurba_marseille","lat":43.33421,"lon":5.36188,"is_reserved":false,"is_disabled":true,"rental_uris":{"android":"levelo://app?vid=a478bcff-2af8-4db5-8351-cdbe6b849a6d","ios":"levelo://app?vid=a478bcff-2af8-4db5-8351-cdbe6b849a6d"},"vehicle_type_id":"4","last_reported":1733814619,"current_range_meters":0,"station_id":"","pricing_plan_id":"cebpf4jnsgd1na2vs0mg"},{"bike_id":"473739a0-8b74-4c3b-8443-3246ca746382","system_id":"levelo_inurba_marseille","lat":43.31882,"lon":5.40737,"is_reserved":false,"is_disabled":false,"rental_uris":{"android":"levelo://app?vid=473739a0-8b74-4c3b-8443-3246ca746382","ios":"levelo://app?vid=473739a0-8b74-4c3b-8443-3246ca746382"},"vehicle_type_id":"4","last_reported":1733814619,"current_range_meters":23200,"station_id":"ce4bhq12rcd13ifvqhig","pricing_plan_id":"cebpf4jnsgd1na2vs0mg"},{"bike_id":"2901e193-293a-4417-9d3b-6569a9d79e7e","system_id":"levelo_inurba_marseille","lat":43.30948,"lon":5.39031,"is_reserved":false,"is_disabled":false,"rental_uris":{"android":"levelo://app?vid=2901e193-293a-4417-9d3b-6569a9d79e7e","ios":"levelo://app?vid=2901e193-293a-4417-9d3b-6569a9d79e7e"},"vehicle_type_id":"4","last_reported":1733814619,"current_range_meters":31200,"station_id":"ce4bgup2rcd13ifvqco0","pricing_plan_id":"cebpf4jnsgd1na2vs0mg"},{"bike_id":"9f03dca4-237a-49dc-8f4b-3b6a07909c99","system_id":"levelo_inurba_marseille","lat":43.23193,"lon":5.35554,"is_reserved":false,"is_disabled":false,"rental_uris":{"android":"levelo://app?vid=9f03dca4-237a-49dc-8f4b-3b6a07909c99","ios":"levelo://app?vid=9f03dca4-237a-49dc-8f4b-3b6a07909c99"},"vehicle_type_id":"4","last_reported":1733814619,"current_range_meters":38400,"station_id":"ce4bhu92rcd13ifvqi70","pricing_plan_id":"cebpf4jnsgd1na2vs0mg"},{"bike_id":"b6fcd388-ab74-408f-9e17-a2445b649a56","system_id":"levelo_inurba_marseille","lat":43.28454,"lon":5.35892,"is_reserved":false,"is_disabled":false,"rental_uris":{"android":"levelo://app?vid=b6fcd388-ab74-408f-9e17-a2445b649a56","ios":"levelo://app?vid=b6fcd388-ab74-408f-9e17-a2445b649a56"},"vehicle_type_id":"4","last_reported":1733814619,"current_range_meters":17200,"station_id":"ce4bhah2rcd13ifvqei0","pricing_plan_id":"cebpf4jnsgd1na2vs0mg"},{"bike_id":"b2a9d643-61a1-4960-badf-09242734ae0c","system_id":"levelo_inurba_marseille","lat":43.29372,"lon":5.37832,"is_reserved":false,"is_disabled":false,"rental_uris":{"android":"levelo://app?vid=b2a9d643-61a1-4960-badf-09242734ae0c","ios":"levelo://app?vid=b2a9d643-61a1-4960-badf-09242734ae0c"},"vehicle_type_id":"4","last_reported":1733814619,"current_range_meters":22800,"station_id":"ce4bgjh2rcd13ifvqbf0","pricing_plan_id":"cebpf4jnsgd1na2vs0mg"},{"bike_id":"eac91878-2b24-4ec3-b863-4b0e6bcc7f72","system_id":"levelo_inurba_marseille","lat":43.27497,"lon":5.42452,"is_reserved":false,"is_disabled":false,"rental_uris":{"android":"levelo://app?vid=eac91878-2b24-4ec3-b863-4b0e6bcc7f72","ios":"levelo://app?vid=eac91878-2b24-4ec3-b863-4b0e6bcc7f72"},"vehicle_type_id":"4","last_reported":1733814619,"current_range_meters":35600,"station_id":"ce4bhn92rcd13ifvqgrg","pricing_plan_id":"cebpf4jnsgd1na2vs0mg"},{"bike_id":"e04ac60e-d0b6-4518-b264-fc2f84db2e8c","system_id":"levelo_inurba_marseille","lat":43.27494,"lon":5.42451,"is_reserved":false,"is_disabled":false,"rental_uris":{"android":"levelo://app?vid=e04ac60e-d0b6-4518-b264-fc2f84db2e8c","ios":"levelo://app?vid=e04ac60e-d0b6-4518-b264-fc2f84db2e8c"},"vehicle_type_id":"4","last_reported":1733814619,"current_range_meters":27600,"station_id":"ce4bhn92rcd13ifvqgrg","pricing_plan_id":"cebpf4jnsgd1na2vs0mg"},{"bike_id":"3ec0a4b7-9409-4440-8a6a-f7eb6cd737cc","system_id":"levelo_inurba_marseille","lat":43.31999,"lon":5.38152,"is_reserved":false,"is_disabled":false,"rental_uris":{"android":"levelo://app?vid=3ec0a4b7-9409-4440-8a6a-f7eb6cd737cc","ios":"levelo://app?vid=3ec0a4b7-9409-4440-8a6a-f7eb6cd737cc"},"vehicle_type_id":"4","last_reported":1733814619,"current_range_meters":22000,"station_id":"ce4bhr12rcd13ifvqhpg","pricing_plan_id":"cebpf4jnsgd1na2vs0mg"},{"bike_id":"451e826c-7f87-402a-a367-9336464ab951","system_id":"levelo_inurba_marseille","lat":43.32538,"lon":5.41435,"is_reserved":false,"is_disabled":false,"rental_uris":{"android":"levelo://app?vid=451e826c-7f87-402a-a367-9336464ab951","ios":"levelo://app?vid=451e826c-7f87-402a-a367-9336464ab951"},"vehicle_type_id":"4","last_reported":1733814619,"current_range_meters":38800,"station_id":"ce4bhq12rcd13ifvqhhg","pricing_plan_id":"cebpf4jnsgd1na2vs0mg"},{"bike_id":"032b82aa-e666-4fc9-91f6-608471b8f9b3","system_id":"levelo_inurba_marseille","lat":43.33614,"lon":5.41028,"is_reserved":false,"is_disabled":false,"rental_uris":{"android":"levelo://app?vid=032b82aa-e666-4fc9-91f6-608471b8f9b3","ios":"levelo://app?vid=032b82aa-e666-4fc9-91f6-608471b8f9b3"},"vehicle_type_id":"4","last_reported":1733814619,"current_range_meters":15200,"station_id":"ce4bhqh2rcd13ifvqhmg","pricing_plan_id":"cebpf4jnsgd1na2vs0mg"},{"bike_id":"f8cb364f-bf70-4df6-8570-3590e72f2f97","system_id":"levelo_inurba_marseille","lat":43.27816,"lon":5.40712,"is_reserved":false,"is_disabled":false,"rental_uris":{"android":"levelo://app?vid=f8cb364f-bf70-4df6-8570-3590e72f2f97","ios":"levelo://app?vid=f8cb364f-bf70-4df6-8570-3590e72f2f97"},"vehicle_type_id":"4","last_reported":1733814619,"current_range_meters":35600,"station_id":"ce4bhnh2rcd13ifvqgtg","pricing_plan_id":"cebpf4jnsgd1na2vs0mg"},{"bike_id":"243c0fa9-fb27-4111-81f0-175e30eaaaed","system_id":"levelo_inurba_marseille","lat":43.29044,"lon":5.35924,"is_reserved":false,"is_disabled":true,"rental_uris":{"android":"levelo://app?vid=243c0fa9-fb27-4111-81f0-175e30eaaaed","ios":"levelo://app?vid=243c0fa9-fb27-4111-81f0-175e30eaaaed"},"vehicle_type_id":"4","last_reported":1733814619,"current_range_meters":37600,"station_id":"ce4bha92rcd13ifvqeg0","pricing_plan_id":"cebpf4jnsgd1na2vs0mg"},{"bike_id":"a873af9b-a353-4469-b239-adbb5bf5dc0d","system_id":"levelo_inurba_marseille","lat":43.25874,"lon":5.39898,"is_reserved":false,"is_disabled":false,"rental_uris":{"android":"levelo://app?vid=a873af9b-a353-4469-b239-adbb5bf5dc0d","ios":"levelo://app?vid=a873af9b-a353-4469-b239-adbb5bf5dc0d"},"vehicle_type_id":"4","last_reported":1733814619,"current_range_meters":38800,"station_id":"ce4bhl92rcd13ifvqghg","pricing_plan_id":"cebpf4jnsgd1na2vs0mg"},{"bike_id":"23223e0c-3479-4ebd-9cd6-014692862b52","system_id":"levelo_inurba_marseille","lat":43.30912,"lon":5.36846,"is_reserved":false,"is_disabled":false,"rental_uris":{"android":"levelo://app?vid=23223e0c-3479-4ebd-9cd6-014692862b52","ios":"levelo://app?vid=23223e0c-3479-4ebd-9cd6-014692862b52"},"vehicle_type_id":"4","last_reported":1733814619,"current_range_meters":4400,"station_id":"ce4bgn92rcd13ifvqbvg","pricing_plan_id":"cebpf4jnsgd1na2vs0mg"},{"bike_id":"5c49a342-a78f-4cc6-bd70-6bc448fb52bc","system_id":"levelo_inurba_marseille","lat":43.29589,"lon":5.38082,"is_reserved":false,"is_disabled":false,"rental_uris":{"android":"levelo://app?vid=5c49a342-a78f-4cc6-bd70-6bc448fb52bc","ios":"levelo://app?vid=5c49a342-a78f-4cc6-bd70-6bc448fb52bc"},"vehicle_type_id":"4","last_reported":1733814619,"current_range_meters":23200,"station_id":"ce4bgl12rcd13ifvqbo0","pricing_plan_id":"cebpf4jnsgd1na2vs0mg"},{"bike_id":"edf46200-044d-4c1f-ba77-f68ce3015511","system_id":"levelo_inurba_marseille","lat":43.30605,"lon":5.39371,"is_reserved":false,"is_disabled":false,"rental_uris":{"android":"levelo://app?vid=edf46200-044d-4c1f-ba77-f68ce3015511","ios":"levelo://app?vid=edf46200-044d-4c1f-ba77-f68ce3015511"},"vehicle_type_id":"4","last_reported":1733814619,"current_range_meters":14400,"station_id":"ce4bh0p2rcd13ifvqd80","pricing_plan_id":"cebpf4jnsgd1na2vs0mg"},{"bike_id":"0fc9d828-6bc6-43ec-ab1f-9015de8a1bc7","system_id":"levelo_inurba_marseille","lat":43.26957,"lon":5.3864,"is_reserved":false,"is_disabled":false,"rental_uris":{"android":"levelo://app?vid=0fc9d828-6bc6-43ec-ab1f-9015de8a1bc7","ios":"levelo://app?vid=0fc9d828-6bc6-43ec-ab1f-9015de8a1bc7"},"vehicle_type_id":"4","last_reported":1733814619,"current_range_meters":9600,"station_id":"ce4bhh92rcd13ifvqfh0","pricing_plan_id":"cebpf4jnsgd1na2vs0mg"},{"bike_id":"e75d322c-9936-4e61-ab26-7f79ccd5c34d","system_id":"levelo_inurba_marseille","lat":43.28495,"lon":5.39431,"is_reserved":false,"is_disabled":false,"rental_uris":{"android":"levelo://app?vid=e75d322c-9936-4e61-ab26-7f79ccd5c34d","ios":"levelo://app?vid=e75d322c-9936-4e61-ab26-7f79ccd5c34d"},"vehicle_type_id":"4","last_reported":1733814619,"current_range_meters":36000,"station_id":"ce4bhoh2rcd13ifvqh5g","pricing_plan_id":"cebpf4jnsgd1na2vs0mg"},{"bike_id":"1381d957-9c22-4679-9945-3cee5159e1e0","system_id":"levelo_inurba_marseille","lat":43.251129,"lon":5.403289,"is_reserved":false,"is_disabled":false,"rental_uris":{"android":"levelo://app?vid=1381d957-9c22-4679-9945-3cee5159e1e0","ios":"levelo://app?vid=1381d957-9c22-4679-9945-3cee5159e1e0"},"vehicle_type_id":"4","last_reported":1733814619,"current_range_meters":26000,"station_id":"ce4bhlh2rcd13ifvqgig","pricing_plan_id":"cebpf4jnsgd1na2vs0mg"},{"bike_id":"e4f22d54-a9cf-4748-9704-1cd3e3d12b7c","system_id":"levelo_inurba_marseille","lat":43.30268,"lon":5.38938,"is_reserved":false,"is_disabled":false,"rental_uris":{"android":"levelo://app?vid=e4f22d54-a9cf-4748-9704-1cd3e3d12b7c","ios":"levelo://app?vid=e4f22d54-a9cf-4748-9704-1cd3e3d12b7c"},"vehicle_type_id":"4","last_reported":1733814619,"current_range_meters":35600,"station_id":"","pricing_plan_id":"cebpf4jnsgd1na2vs0mg"},{"bike_id":"72369e3c-7a31-4199-a732-76fa73093ac4","system_id":"levelo_inurba_marseille","lat":43.31333,"lon":5.367,"is_reserved":false,"is_disabled":true,"rental_uris":{"android":"levelo://app?vid=72369e3c-7a31-4199-a732-76fa73093ac4","ios":"levelo://app?vid=72369e3c-7a31-4199-a732-76fa73093ac4"},"vehicle_type_id":"4","last_reported":1733814619,"current_range_meters":25200,"station_id":"ce4bgr92rcd13ifvqc6g","pricing_plan_id":"cebpf4jnsgd1na2vs0mg"},{"bike_id":"7b93179f-e34b-46a1-87c3-ded50bfbf04b","system_id":"levelo_inurba_marseille","lat":43.29033,"lon":5.3997,"is_reserved":false,"is_disabled":false,"rental_uris":{"android":"levelo://app?vid=7b93179f-e34b-46a1-87c3-ded50bfbf04b","ios":"levelo://app?vid=7b93179f-e34b-46a1-87c3-ded50bfbf04b"},"vehicle_type_id":"4","last_reported":1733814619,"current_range_meters":38000,"station_id":"ce4bh392rcd13ifvqdm0","pricing_plan_id":"cebpf4jnsgd1na2vs0mg"},{"bike_id":"8f24eb5e-1b98-49c3-8343-8ad94bfd10bc","system_id":"levelo_inurba_marseille","lat":43.28345,"lon":5.38111,"is_reserved":false,"is_disabled":false,"rental_uris":{"android":"levelo://app?vid=8f24eb5e-1b98-49c3-8343-8ad94bfd10bc","ios":"levelo://app?vid=8f24eb5e-1b98-49c3-8343-8ad94bfd10bc"},"vehicle_type_id":"4","last_reported":1733814619,"current_range_meters":38400,"station_id":"ce4bh412rcd13ifvqdr0","pricing_plan_id":"cebpf4jnsgd1na2vs0mg"},{"bike_id":"c9f53bde-3a72-462c-a449-ab3b318b8570","system_id":"levelo_inurba_marseille","lat":43.26556,"lon":5.39008,"is_reserved":false,"is_disabled":false,"rental_uris":{"android":"levelo://app?vid=c9f53bde-3a72-462c-a449-ab3b318b8570","ios":"levelo://app?vid=c9f53bde-3a72-462c-a449-ab3b318b8570"},"vehicle_type_id":"4","last_reported":1733814619,"current_range_meters":28000,"station_id":"ce4bhe12rcd13ifvqf30","pricing_plan_id":"cebpf4jnsgd1na2vs0mg"},{"bike_id":"067d4f8e-eded-4040-9b89-eb14aebc4852","system_id":"levelo_inurba_marseille","lat":43.299,"lon":5.43675,"is_reserved":false,"is_disabled":false,"rental_uris":{"android":"levelo://app?vid=067d4f8e-eded-4040-9b89-eb14aebc4852","ios":"levelo://app?vid=067d4f8e-eded-4040-9b89-eb14aebc4852"},"vehicle_type_id":"4","last_reported":1733814619,"current_range_meters":34800,"station_id":"ce4bhpp2rcd13ifvqhfg","pricing_plan_id":"cebpf4jnsgd1na2vs0mg"},{"bike_id":"23504e84-62de-4322-9c7d-5dbe7fb79461","system_id":"levelo_inurba_marseille","lat":43.286609,"lon":5.363592,"is_reserved":false,"is_disabled":false,"rental_uris":{"android":"levelo://app?vid=23504e84-62de-4322-9c7d-5dbe7fb79461","ios":"levelo://app?vid=23504e84-62de-4322-9c7d-5dbe7fb79461"},"vehicle_type_id":"4","last_reported":1733814619,"current_range_meters":38000,"station_id":"ce4bhah2rcd13ifvqej0","pricing_plan_id":"cebpf4jnsgd1na2vs0mg"},{"bike_id":"5296114b-8626-48f5-977d-e8d6150c1950","system_id":"levelo_inurba_marseille","lat":43.26031,"lon":5.37542,"is_reserved":false,"is_disabled":false,"rental_uris":{"android":"levelo://app?vid=5296114b-8626-48f5-977d-e8d6150c1950","ios":"levelo://app?vid=5296114b-8626-48f5-977d-e8d6150c1950"},"vehicle_type_id":"4","last_reported":1733814619,"current_range_meters":38800,"station_id":"ce4bhgh2rcd13ifvqfa0","pricing_plan_id":"cebpf4jnsgd1na2vs0mg"},{"bike_id":"9f3769a7-f392-475e-913a-8ad10d3e2daf","system_id":"levelo_inurba_marseille","lat":43.2417,"lon":5.36399,"is_reserved":false,"is_disabled":false,"rental_uris":{"android":"levelo://app?vid=9f3769a7-f392-475e-913a-8ad10d3e2daf","ios":"levelo://app?vid=9f3769a7-f392-475e-913a-8ad10d3e2daf"},"vehicle_type_id":"4","last_reported":1733814619,"current_range_meters":17200,"station_id":"cpo36qri1sfpv3e86is0","pricing_plan_id":"cebpf4jnsgd1na2vs0mg"},{"bike_id":"896d4ccf-3d83-4122-b2f2-1a77a517b0e7","system_id":"levelo_inurba_marseille","lat":43.23967,"lon":5.36628,"is_reserved":false,"is_disabled":false,"rental_uris":{"android":"levelo://app?vid=896d4ccf-3d83-4122-b2f2-1a77a517b0e7","ios":"levelo://app?vid=896d4ccf-3d83-4122-b2f2-1a77a517b0e7"},"vehicle_type_id":"4","last_reported":1733814619,"current_range_meters":38800,"station_id":"ce4bhi12rcd13ifvqfp0","pricing_plan_id":"cebpf4jnsgd1na2vs0mg"},{"bike_id":"78538ca3-c476-4016-a603-0265e1a2f841","system_id":"levelo_inurba_marseille","lat":43.329253,"lon":5.380088,"is_reserved":false,"is_disabled":false,"rental_uris":{"android":"levelo://app?vid=78538ca3-c476-4016-a603-0265e1a2f841","ios":"levelo://app?vid=78538ca3-c476-4016-a603-0265e1a2f841"},"vehicle_type_id":"4","last_reported":1733814619,"current_range_meters":36800,"station_id":"","pricing_plan_id":"cebpf4jnsgd1na2vs0mg"},{"bike_id":"068f3a77-c24d-4974-bfcb-4cf4b9b99ea9","system_id":"levelo_inurba_marseille","lat":43.30153,"lon":5.38088,"is_reserved":false,"is_disabled":false,"rental_uris":{"android":"levelo://app?vid=068f3a77-c24d-4974-bfcb-4cf4b9b99ea9","ios":"levelo://app?vid=068f3a77-c24d-4974-bfcb-4cf4b9b99ea9"},"vehicle_type_id":"4","last_reported":1733814619,"current_range_meters":37600,"station_id":"ce4bgjp2rcd13ifvqbh0","pricing_plan_id":"cebpf4jnsgd1na2vs0mg"},{"bike_id":"b2272b00-cac0-4e54-afb8-5fdacb91e697","system_id":"levelo_inurba_marseille","lat":43.28614,"lon":5.37057,"is_reserved":false,"is_disabled":false,"rental_uris":{"android":"levelo://app?vid=b2272b00-cac0-4e54-afb8-5fdacb91e697","ios":"levelo://app?vid=b2272b00-cac0-4e54-afb8-5fdacb91e697"},"vehicle_type_id":"4","last_reported":1733814619,"current_range_meters":20800,"station_id":"ce4bht12rcd13ifvqi60","pricing_plan_id":"cebpf4jnsgd1na2vs0mg"},{"bike_id":"c7ca6cbd-7b6c-46d5-942f-bc1012846904","system_id":"levelo_inurba_marseille","lat":43.30806,"lon":5.4353,"is_reserved":false,"is_disabled":false,"rental_uris":{"android":"levelo://app?vid=c7ca6cbd-7b6c-46d5-942f-bc1012846904","ios":"levelo://app?vid=c7ca6cbd-7b6c-46d5-942f-bc1012846904"},"vehicle_type_id":"4","last_reported":1733814619,"current_range_meters":34000,"station_id":"ce4bhph2rcd13ifvqheg","pricing_plan_id":"cebpf4jnsgd1na2vs0mg"},{"bike_id":"ed07bb23-be8c-483a-8a32-2e109661f6f0","system_id":"levelo_inurba_marseille","lat":43.25937,"lon":5.40903,"is_reserved":false,"is_disabled":false,"rental_uris":{"android":"levelo://app?vid=ed07bb23-be8c-483a-8a32-2e109661f6f0","ios":"levelo://app?vid=ed07bb23-be8c-483a-8a32-2e109661f6f0"},"vehicle_type_id":"4","last_reported":1733814619,"current_range_meters":36400,"station_id":"ce4bhm92rcd13ifvqglg","pricing_plan_id":"cebpf4jnsgd1na2vs0mg"},{"bike_id":"456ee3e2-7425-4120-bc59-2e964fa693a8","system_id":"levelo_inurba_marseille","lat":43.2439,"lon":5.37058,"is_reserved":false,"is_disabled":false,"rental_uris":{"android":"levelo://app?vid=456ee3e2-7425-4120-bc59-2e964fa693a8","ios":"levelo://app?vid=456ee3e2-7425-4120-bc59-2e964fa693a8"},"vehicle_type_id":"4","last_reported":1733814619,"current_range_meters":38000,"station_id":"ce4bhhh2rcd13ifvqfk0","pricing_plan_id":"cebpf4jnsgd1na2vs0mg"},{"bike_id":"3c2062af-ee33-42a5-bf68-d8b0edbf6fcf","system_id":"levelo_inurba_marseille","lat":43.31999,"lon":5.38152,"is_reserved":false,"is_disabled":false,"rental_uris":{"android":"levelo://app?vid=3c2062af-ee33-42a5-bf68-d8b0edbf6fcf","ios":"levelo://app?vid=3c2062af-ee33-42a5-bf68-d8b0edbf6fcf"},"vehicle_type_id":"4","last_reported":1733814619,"current_range_meters":38800,"station_id":"ce4bhr12rcd13ifvqhpg","pricing_plan_id":"cebpf4jnsgd1na2vs0mg"},{"bike_id":"7df7fb5f-bf4b-4b8b-853d-f3d4c98f69d2","system_id":"levelo_inurba_marseille","lat":43.26059,"lon":5.39398,"is_reserved":false,"is_disabled":false,"rental_uris":{"android":"levelo://app?vid=7df7fb5f-bf4b-4b8b-853d-f3d4c98f69d2","ios":"levelo://app?vid=7df7fb5f-bf4b-4b8b-853d-f3d4c98f69d2"},"vehicle_type_id":"4","last_reported":1733814619,"current_range_meters":39200,"station_id":"ce4bhh92rcd13ifvqfj0","pricing_plan_id":"cebpf4jnsgd1na2vs0mg"},{"bike_id":"91abf142-5d1e-49ce-8b38-e895624aa52d","system_id":"levelo_inurba_marseille","lat":43.27805,"lon":5.40709,"is_reserved":false,"is_disabled":false,"rental_uris":{"android":"levelo://app?vid=91abf142-5d1e-49ce-8b38-e895624aa52d","ios":"levelo://app?vid=91abf142-5d1e-49ce-8b38-e895624aa52d"},"vehicle_type_id":"4","last_reported":1733814619,"current_range_meters":33200,"station_id":"ce4bhnh2rcd13ifvqgtg","pricing_plan_id":"cebpf4jnsgd1na2vs0mg"},{"bike_id":"25a20b03-9830-4773-bc6b-d425633d2c5c","system_id":"levelo_inurba_marseille","lat":43.24766,"lon":5.40032,"is_reserved":false,"is_disabled":true,"rental_uris":{"android":"levelo://app?vid=25a20b03-9830-4773-bc6b-d425633d2c5c","ios":"levelo://app?vid=25a20b03-9830-4773-bc6b-d425633d2c5c"},"vehicle_type_id":"4","last_reported":1733814619,"current_range_meters":0,"station_id":"","pricing_plan_id":"cebpf4jnsgd1na2vs0mg"},{"bike_id":"c5206947-9ff0-4a39-90f1-3023bff062ae","system_id":"levelo_inurba_marseille","lat":43.2407,"lon":5.3776,"is_reserved":false,"is_disabled":false,"rental_uris":{"android":"levelo://app?vid=c5206947-9ff0-4a39-90f1-3023bff062ae","ios":"levelo://app?vid=c5206947-9ff0-4a39-90f1-3023bff062ae"},"vehicle_type_id":"4","last_reported":1733814619,"current_range_meters":38800,"station_id":"ce4bhnp2rcd13ifvqgvg","pricing_plan_id":"cebpf4jnsgd1na2vs0mg"},{"bike_id":"fbcd74d5-898a-490f-8e33-3e20933d1f4f","system_id":"levelo_inurba_marseille","lat":43.29628,"lon":5.40595,"is_reserved":false,"is_disabled":false,"rental_uris":{"android":"levelo://app?vid=fbcd74d5-898a-490f-8e33-3e20933d1f4f","ios":"levelo://app?vid=fbcd74d5-898a-490f-8e33-3e20933d1f4f"},"vehicle_type_id":"4","last_reported":1733814619,"current_range_meters":38400,"station_id":"ce4bh0h2rcd13ifvqd60","pricing_plan_id":"cebpf4jnsgd1na2vs0mg"},{"bike_id":"845a1e5f-8df3-4e13-a702-8b68ebdb22c7","system_id":"levelo_inurba_marseille","lat":43.31357,"lon":5.36722,"is_reserved":false,"is_disabled":false,"rental_uris":{"android":"levelo://app?vid=845a1e5f-8df3-4e13-a702-8b68ebdb22c7","ios":"levelo://app?vid=845a1e5f-8df3-4e13-a702-8b68ebdb22c7"},"vehicle_type_id":"4","last_reported":1733814619,"current_range_meters":35200,"station_id":"ce4bgr92rcd13ifvqc6g","pricing_plan_id":"cebpf4jnsgd1na2vs0mg"},{"bike_id":"0dcb7b56-1f69-457b-be60-5ff1c9c43b31","system_id":"levelo_inurba_marseille","lat":43.30594,"lon":5.37225,"is_reserved":false,"is_disabled":false,"rental_uris":{"android":"levelo://app?vid=0dcb7b56-1f69-457b-be60-5ff1c9c43b31","ios":"levelo://app?vid=0dcb7b56-1f69-457b-be60-5ff1c9c43b31"},"vehicle_type_id":"4","last_reported":1733814619,"current_range_meters":30800,"station_id":"ce4bgqh2rcd13ifvqc4g","pricing_plan_id":"cebpf4jnsgd1na2vs0mg"},{"bike_id":"de95a909-527e-4af5-ac3d-33a23ae452af","system_id":"levelo_inurba_marseille","lat":43.29131,"lon":5.39371,"is_reserved":false,"is_disabled":false,"rental_uris":{"android":"levelo://app?vid=de95a909-527e-4af5-ac3d-33a23ae452af","ios":"levelo://app?vid=de95a909-527e-4af5-ac3d-33a23ae452af"},"vehicle_type_id":"4","last_reported":1733814619,"current_range_meters":38800,"station_id":"ce4bh512rcd13ifvqe2g","pricing_plan_id":"cebpf4jnsgd1na2vs0mg"},{"bike_id":"a1041f63-e6d5-48ad-94ee-7e6e9ccd4fa8","system_id":"levelo_inurba_marseille","lat":43.29231,"lon":5.36057,"is_reserved":false,"is_disabled":false,"rental_uris":{"android":"levelo://app?vid=a1041f63-e6d5-48ad-94ee-7e6e9ccd4fa8","ios":"levelo://app?vid=a1041f63-e6d5-48ad-94ee-7e6e9ccd4fa8"},"vehicle_type_id":"4","last_reported":1733814619,"current_range_meters":38800,"station_id":"ce4bhbh2rcd13ifvqeqg","pricing_plan_id":"cebpf4jnsgd1na2vs0mg"},{"bike_id":"79eec760-3148-415c-9486-9ff642f00208","system_id":"levelo_inurba_marseille","lat":43.34664,"lon":5.34569,"is_reserved":false,"is_disabled":true,"rental_uris":{"android":"levelo://app?vid=79eec760-3148-415c-9486-9ff642f00208","ios":"levelo://app?vid=79eec760-3148-415c-9486-9ff642f00208"},"vehicle_type_id":"4","last_reported":1733814619,"current_range_meters":0,"station_id":"","pricing_plan_id":"cebpf4jnsgd1na2vs0mg"},{"bike_id":"90c268a2-699c-43ad-8238-a6b11d1de828","system_id":"levelo_inurba_marseille","lat":43.25942,"lon":5.4089,"is_reserved":false,"is_disabled":false,"rental_uris":{"android":"levelo://app?vid=90c268a2-699c-43ad-8238-a6b11d1de828","ios":"levelo://app?vid=90c268a2-699c-43ad-8238-a6b11d1de828"},"vehicle_type_id":"4","last_reported":1733814619,"current_range_meters":23200,"station_id":"ce4bhm92rcd13ifvqglg","pricing_plan_id":"cebpf4jnsgd1na2vs0mg"},{"bike_id":"9a8f466b-8790-45e8-9233-f61a1cfa1f24","system_id":"levelo_inurba_marseille","lat":43.28459,"lon":5.35891,"is_reserved":false,"is_disabled":false,"rental_uris":{"android":"levelo://app?vid=9a8f466b-8790-45e8-9233-f61a1cfa1f24","ios":"levelo://app?vid=9a8f466b-8790-45e8-9233-f61a1cfa1f24"},"vehicle_type_id":"4","last_reported":1733814619,"current_range_meters":16800,"station_id":"ce4bhah2rcd13ifvqei0","pricing_plan_id":"cebpf4jnsgd1na2vs0mg"},{"bike_id":"097d539c-2fb0-4695-9c7a-c109fd16c513","system_id":"levelo_inurba_marseille","lat":43.27071,"lon":5.42279,"is_reserved":false,"is_disabled":false,"rental_uris":{"android":"levelo://app?vid=097d539c-2fb0-4695-9c7a-c109fd16c513","ios":"levelo://app?vid=097d539c-2fb0-4695-9c7a-c109fd16c513"},"vehicle_type_id":"4","last_reported":1733814619,"current_range_meters":38800,"station_id":"ce4bhk92rcd13ifvqgb0","pricing_plan_id":"cebpf4jnsgd1na2vs0mg"},{"bike_id":"8a5e10b8-669f-492d-b077-ef1afa602b31","system_id":"levelo_inurba_marseille","lat":43.30468,"lon":5.37909,"is_reserved":false,"is_disabled":false,"rental_uris":{"android":"levelo://app?vid=8a5e10b8-669f-492d-b077-ef1afa602b31","ios":"levelo://app?vid=8a5e10b8-669f-492d-b077-ef1afa602b31"},"vehicle_type_id":"4","last_reported":1733814619,"current_range_meters":38800,"station_id":"ce4bgup2rcd13ifvqcn0","pricing_plan_id":"cebpf4jnsgd1na2vs0mg"},{"bike_id":"88a7ad66-e693-4411-a768-a5a47218de5e","system_id":"levelo_inurba_marseille","lat":43.27319,"lon":5.39091,"is_reserved":false,"is_disabled":false,"rental_uris":{"android":"levelo://app?vid=88a7ad66-e693-4411-a768-a5a47218de5e","ios":"levelo://app?vid=88a7ad66-e693-4411-a768-a5a47218de5e"},"vehicle_type_id":"4","last_reported":1733814619,"current_range_meters":38800,"station_id":"ce4bhgp2rcd13ifvqfe0","pricing_plan_id":"cebpf4jnsgd1na2vs0mg"},{"bike_id":"09e8f3a7-5e09-4c1d-acc9-e200de530ef1","system_id":"levelo_inurba_marseille","lat":43.23155,"lon":5.43701,"is_reserved":false,"is_disabled":false,"rental_uris":{"android":"levelo://app?vid=09e8f3a7-5e09-4c1d-acc9-e200de530ef1","ios":"levelo://app?vid=09e8f3a7-5e09-4c1d-acc9-e200de530ef1"},"vehicle_type_id":"4","last_reported":1733814619,"current_range_meters":37600,"station_id":"ce4bhmp2rcd13ifvqgog","pricing_plan_id":"cebpf4jnsgd1na2vs0mg"},{"bike_id":"7453962f-4322-4d2f-b1bd-dd4e0d9bb34e","system_id":"levelo_inurba_marseille","lat":43.28857,"lon":5.35866,"is_reserved":false,"is_disabled":false,"rental_uris":{"android":"levelo://app?vid=7453962f-4322-4d2f-b1bd-dd4e0d9bb34e","ios":"levelo://app?vid=7453962f-4322-4d2f-b1bd-dd4e0d9bb34e"},"vehicle_type_id":"4","last_reported":1733814619,"current_range_meters":26000,"station_id":"ce4bhb12rcd13ifvqem0","pricing_plan_id":"cebpf4jnsgd1na2vs0mg"},{"bike_id":"84c02044-e8b7-4caf-b8d8-a75f1c60eb03","system_id":"levelo_inurba_marseille","lat":43.27559,"lon":5.3842,"is_reserved":false,"is_disabled":false,"rental_uris":{"android":"levelo://app?vid=84c02044-e8b7-4caf-b8d8-a75f1c60eb03","ios":"levelo://app?vid=84c02044-e8b7-4caf-b8d8-a75f1c60eb03"},"vehicle_type_id":"4","last_reported":1733814619,"current_range_meters":36000,"station_id":"ce4bhh92rcd13ifvqfi0","pricing_plan_id":"cebpf4jnsgd1na2vs0mg"},{"bike_id":"e3650a39-7faf-4bef-874a-053482a93766","system_id":"levelo_inurba_marseille","lat":43.29727,"lon":5.37678,"is_reserved":false,"is_disabled":true,"rental_uris":{"android":"levelo://app?vid=e3650a39-7faf-4bef-874a-053482a93766","ios":"levelo://app?vid=e3650a39-7faf-4bef-874a-053482a93766"},"vehicle_type_id":"4","last_reported":1733814619,"current_range_meters":28000,"station_id":"ce4bgkh2rcd13ifvqbl0","pricing_plan_id":"cebpf4jnsgd1na2vs0mg"},{"bike_id":"552782d8-e5d7-4772-94a4-001461c0cb80","system_id":"levelo_inurba_marseille","lat":43.24069,"lon":5.37763,"is_reserved":false,"is_disabled":false,"rental_uris":{"android":"levelo://app?vid=552782d8-e5d7-4772-94a4-001461c0cb80","ios":"levelo://app?vid=552782d8-e5d7-4772-94a4-001461c0cb80"},"vehicle_type_id":"4","last_reported":1733814619,"current_range_meters":39200,"station_id":"ce4bhnp2rcd13ifvqgvg","pricing_plan_id":"cebpf4jnsgd1na2vs0mg"},{"bike_id":"e652bd0e-f25c-4f49-88d2-3023d62cd5aa","system_id":"levelo_inurba_marseille","lat":43.295892,"lon":5.37506,"is_reserved":false,"is_disabled":true,"rental_uris":{"android":"levelo://app?vid=e652bd0e-f25c-4f49-88d2-3023d62cd5aa","ios":"levelo://app?vid=e652bd0e-f25c-4f49-88d2-3023d62cd5aa"},"vehicle_type_id":"4","last_reported":1733814619,"current_range_meters":0,"station_id":"","pricing_plan_id":"cebpf4jnsgd1na2vs0mg"},{"bike_id":"fe5707ac-071f-4824-98b8-d6b028bc38f8","system_id":"levelo_inurba_marseille","lat":43.25861,"lon":5.39903,"is_reserved":false,"is_disabled":false,"rental_uris":{"android":"levelo://app?vid=fe5707ac-071f-4824-98b8-d6b028bc38f8","ios":"levelo://app?vid=fe5707ac-071f-4824-98b8-d6b028bc38f8"},"vehicle_type_id":"4","last_reported":1733814619,"current_range_meters":28000,"station_id":"ce4bhl92rcd13ifvqghg","pricing_plan_id":"cebpf4jnsgd1na2vs0mg"},{"bike_id":"50f52497-54ca-47ea-a19e-1fc86f8c6045","system_id":"levelo_inurba_marseille","lat":43.28231,"lon":5.42407,"is_reserved":false,"is_disabled":true,"rental_uris":{"android":"levelo://app?vid=50f52497-54ca-47ea-a19e-1fc86f8c6045","ios":"levelo://app?vid=50f52497-54ca-47ea-a19e-1fc86f8c6045"},"vehicle_type_id":"4","last_reported":1733814619,"current_range_meters":6000,"station_id":"","pricing_plan_id":"cebpf4jnsgd1na2vs0mg"},{"bike_id":"1b2d4db1-cec0-4376-9abf-f3b964e5dcb7","system_id":"levelo_inurba_marseille","lat":43.232,"lon":5.35548,"is_reserved":false,"is_disabled":false,"rental_uris":{"android":"levelo://app?vid=1b2d4db1-cec0-4376-9abf-f3b964e5dcb7","ios":"levelo://app?vid=1b2d4db1-cec0-4376-9abf-f3b964e5dcb7"},"vehicle_type_id":"4","last_reported":1733814619,"current_range_meters":38000,"station_id":"ce4bhu92rcd13ifvqi70","pricing_plan_id":"cebpf4jnsgd1na2vs0mg"},{"bike_id":"01daacb2-1ea0-4b66-a8d6-1921ffcbdd6b","system_id":"levelo_inurba_marseille","lat":43.24074,"lon":5.37762,"is_reserved":false,"is_disabled":false,"rental_uris":{"android":"levelo://app?vid=01daacb2-1ea0-4b66-a8d6-1921ffcbdd6b","ios":"levelo://app?vid=01daacb2-1ea0-4b66-a8d6-1921ffcbdd6b"},"vehicle_type_id":"4","last_reported":1733814619,"current_range_meters":6000,"station_id":"ce4bhnp2rcd13ifvqgvg","pricing_plan_id":"cebpf4jnsgd1na2vs0mg"},{"bike_id":"65a5d8de-101e-4549-82cc-0aa76cd0538b","system_id":"levelo_inurba_marseille","lat":43.30309,"lon":5.36898,"is_reserved":false,"is_disabled":true,"rental_uris":{"android":"levelo://app?vid=65a5d8de-101e-4549-82cc-0aa76cd0538b","ios":"levelo://app?vid=65a5d8de-101e-4549-82cc-0aa76cd0538b"},"vehicle_type_id":"4","last_reported":1733814619,"current_range_meters":0,"station_id":"ce4bgqh2rcd13ifvqc5g","pricing_plan_id":"cebpf4jnsgd1na2vs0mg"},{"bike_id":"33f1a526-a5a3-4261-b1e0-d90c46ff918d","system_id":"levelo_inurba_marseille","lat":43.28151,"lon":5.42643,"is_reserved":false,"is_disabled":true,"rental_uris":{"android":"levelo://app?vid=33f1a526-a5a3-4261-b1e0-d90c46ff918d","ios":"levelo://app?vid=33f1a526-a5a3-4261-b1e0-d90c46ff918d"},"vehicle_type_id":"4","last_reported":1733814619,"current_range_meters":16800,"station_id":"ce4bhnh2rcd13ifvqgug","pricing_plan_id":"cebpf4jnsgd1na2vs0mg"},{"bike_id":"3e9e2561-6f54-485e-84b2-cff5e0916c34","system_id":"levelo_inurba_marseille","lat":43.32345,"lon":5.40612,"is_reserved":false,"is_disabled":false,"rental_uris":{"android":"levelo://app?vid=3e9e2561-6f54-485e-84b2-cff5e0916c34","ios":"levelo://app?vid=3e9e2561-6f54-485e-84b2-cff5e0916c34"},"vehicle_type_id":"4","last_reported":1733814619,"current_range_meters":11600,"station_id":"ce4bhq92rcd13ifvqhjg","pricing_plan_id":"cebpf4jnsgd1na2vs0mg"},{"bike_id":"2bf8a75a-5758-4b6c-b900-5b9792635b73","system_id":"levelo_inurba_marseille","lat":43.27492,"lon":5.42453,"is_reserved":false,"is_disabled":false,"rental_uris":{"android":"levelo://app?vid=2bf8a75a-5758-4b6c-b900-5b9792635b73","ios":"levelo://app?vid=2bf8a75a-5758-4b6c-b900-5b9792635b73"},"vehicle_type_id":"4","last_reported":1733814619,"current_range_meters":24400,"station_id":"ce4bhn92rcd13ifvqgrg","pricing_plan_id":"cebpf4jnsgd1na2vs0mg"},{"bike_id":"76297273-a070-4aeb-9b97-514f5db3a44c","system_id":"levelo_inurba_marseille","lat":43.28282,"lon":5.35084,"is_reserved":false,"is_disabled":false,"rental_uris":{"android":"levelo://app?vid=76297273-a070-4aeb-9b97-514f5db3a44c","ios":"levelo://app?vid=76297273-a070-4aeb-9b97-514f5db3a44c"},"vehicle_type_id":"4","last_reported":1733814619,"current_range_meters":38800,"station_id":"ce4bhbp2rcd13ifvqerg","pricing_plan_id":"cebpf4jnsgd1na2vs0mg"},{"bike_id":"1c5491e3-5640-4dec-a041-cae84c60627c","system_id":"levelo_inurba_marseille","lat":43.29002,"lon":5.35613,"is_reserved":false,"is_disabled":true,"rental_uris":{"android":"levelo://app?vid=1c5491e3-5640-4dec-a041-cae84c60627c","ios":"levelo://app?vid=1c5491e3-5640-4dec-a041-cae84c60627c"},"vehicle_type_id":"4","last_reported":1733814619,"current_range_meters":22800,"station_id":"ce4bhb92rcd13ifvqen0","pricing_plan_id":"cebpf4jnsgd1na2vs0mg"},{"bike_id":"5d9d33ed-3cf9-4f40-bcf4-4fd075009d99","system_id":"levelo_inurba_marseille","lat":43.26938,"lon":5.40252,"is_reserved":false,"is_disabled":false,"rental_uris":{"android":"levelo://app?vid=5d9d33ed-3cf9-4f40-bcf4-4fd075009d99","ios":"levelo://app?vid=5d9d33ed-3cf9-4f40-bcf4-4fd075009d99"},"vehicle_type_id":"4","last_reported":1733814619,"current_range_meters":38800,"station_id":"cjm6bp8fraef2m0cb0m0","pricing_plan_id":"cebpf4jnsgd1na2vs0mg"},{"bike_id":"e2e5fff8-dab3-4021-a87d-3c7c833d47d1","system_id":"levelo_inurba_marseille","lat":43.2622,"lon":5.3744,"is_reserved":false,"is_disabled":false,"rental_uris":{"android":"levelo://app?vid=e2e5fff8-dab3-4021-a87d-3c7c833d47d1","ios":"levelo://app?vid=e2e5fff8-dab3-4021-a87d-3c7c833d47d1"},"vehicle_type_id":"4","last_reported":1733814619,"current_range_meters":9600,"station_id":"ce4bhgp2rcd13ifvqfc0","pricing_plan_id":"cebpf4jnsgd1na2vs0mg"},{"bike_id":"b8ec9b64-e348-44c1-9548-0544741a8e35","system_id":"levelo_inurba_marseille","lat":43.317567,"lon":5.390227,"is_reserved":false,"is_disabled":false,"rental_uris":{"android":"levelo://app?vid=b8ec9b64-e348-44c1-9548-0544741a8e35","ios":"levelo://app?vid=b8ec9b64-e348-44c1-9548-0544741a8e35"},"vehicle_type_id":"4","last_reported":1733814619,"current_range_meters":38400,"station_id":"ce4bhqp2rcd13ifvqhng","pricing_plan_id":"cebpf4jnsgd1na2vs0mg"},{"bike_id":"ba8b0a83-ed08-43e0-b065-5cd49db4c00f","system_id":"levelo_inurba_marseille","lat":43.2928,"lon":5.40128,"is_reserved":false,"is_disabled":false,"rental_uris":{"android":"levelo://app?vid=ba8b0a83-ed08-43e0-b065-5cd49db4c00f","ios":"levelo://app?vid=ba8b0a83-ed08-43e0-b065-5cd49db4c00f"},"vehicle_type_id":"4","last_reported":1733814619,"current_range_meters":29600,"station_id":"ce4bh312rcd13ifvqdk0","pricing_plan_id":"cebpf4jnsgd1na2vs0mg"},{"bike_id":"f44c4128-7be2-4a46-a438-dfb677b443d7","system_id":"levelo_inurba_marseille","lat":43.31328,"lon":5.39679,"is_reserved":false,"is_disabled":false,"rental_uris":{"android":"levelo://app?vid=f44c4128-7be2-4a46-a438-dfb677b443d7","ios":"levelo://app?vid=f44c4128-7be2-4a46-a438-dfb677b443d7"},"vehicle_type_id":"4","last_reported":1733814619,"current_range_meters":26000,"station_id":"ce4bgvp2rcd13ifvqcu0","pricing_plan_id":"cebpf4jnsgd1na2vs0mg"},{"bike_id":"2cdc68bc-783f-42f1-8a2a-30a830fd99d3","system_id":"levelo_inurba_marseille","lat":43.3014,"lon":5.37403,"is_reserved":false,"is_disabled":true,"rental_uris":{"android":"levelo://app?vid=2cdc68bc-783f-42f1-8a2a-30a830fd99d3","ios":"levelo://app?vid=2cdc68bc-783f-42f1-8a2a-30a830fd99d3"},"vehicle_type_id":"4","last_reported":1733814619,"current_range_meters":35600,"station_id":"ce4bgs92rcd13ifvqcc0","pricing_plan_id":"cebpf4jnsgd1na2vs0mg"},{"bike_id":"4018d084-9958-4047-90d2-c124b53a7f36","system_id":"levelo_inurba_marseille","lat":43.24386,"lon":5.37049,"is_reserved":false,"is_disabled":false,"rental_uris":{"android":"levelo://app?vid=4018d084-9958-4047-90d2-c124b53a7f36","ios":"levelo://app?vid=4018d084-9958-4047-90d2-c124b53a7f36"},"vehicle_type_id":"4","last_reported":1733814619,"current_range_meters":38000,"station_id":"ce4bhhh2rcd13ifvqfk0","pricing_plan_id":"cebpf4jnsgd1na2vs0mg"},{"bike_id":"76a8a14d-fb71-4acb-864b-2dd96e7bea98","system_id":"levelo_inurba_marseille","lat":43.29978,"lon":5.38488,"is_reserved":false,"is_disabled":true,"rental_uris":{"android":"levelo://app?vid=76a8a14d-fb71-4acb-864b-2dd96e7bea98","ios":"levelo://app?vid=76a8a14d-fb71-4acb-864b-2dd96e7bea98"},"vehicle_type_id":"4","last_reported":1733814619,"current_range_meters":0,"station_id":"ce4bgj92rcd13ifvqbd0","pricing_plan_id":"cebpf4jnsgd1na2vs0mg"},{"bike_id":"b77f54b8-0618-490b-9929-20052e5f0ec6","system_id":"levelo_inurba_marseille","lat":43.29306,"lon":5.3745,"is_reserved":false,"is_disabled":true,"rental_uris":{"android":"levelo://app?vid=b77f54b8-0618-490b-9929-20052e5f0ec6","ios":"levelo://app?vid=b77f54b8-0618-490b-9929-20052e5f0ec6"},"vehicle_type_id":"4","last_reported":1733814619,"current_range_meters":27200,"station_id":"ce4bgi12rcd13ifvqb70","pricing_plan_id":"cebpf4jnsgd1na2vs0mg"},{"bike_id":"4ee36442-e2e9-422f-9088-17c24d23db96","system_id":"levelo_inurba_marseille","lat":43.29606,"lon":5.38104,"is_reserved":false,"is_disabled":false,"rental_uris":{"android":"levelo://app?vid=4ee36442-e2e9-422f-9088-17c24d23db96","ios":"levelo://app?vid=4ee36442-e2e9-422f-9088-17c24d23db96"},"vehicle_type_id":"4","last_reported":1733814619,"current_range_meters":37600,"station_id":"ce4bgl12rcd13ifvqbo0","pricing_plan_id":"cebpf4jnsgd1na2vs0mg"},{"bike_id":"b7704992-265d-44ce-8e30-e3b1a140a380","system_id":"levelo_inurba_marseille","lat":43.29782,"lon":5.38109,"is_reserved":false,"is_disabled":true,"rental_uris":{"android":"levelo://app?vid=b7704992-265d-44ce-8e30-e3b1a140a380","ios":"levelo://app?vid=b7704992-265d-44ce-8e30-e3b1a140a380"},"vehicle_type_id":"4","last_reported":1733814619,"current_range_meters":36400,"station_id":"ce4bgip2rcd13ifvqbb0","pricing_plan_id":"cebpf4jnsgd1na2vs0mg"},{"bike_id":"bb6cc573-2914-414a-8c23-4552dababda6","system_id":"levelo_inurba_marseille","lat":43.29026,"lon":5.38135,"is_reserved":false,"is_disabled":false,"rental_uris":{"android":"levelo://app?vid=bb6cc573-2914-414a-8c23-4552dababda6","ios":"levelo://app?vid=bb6cc573-2914-414a-8c23-4552dababda6"},"vehicle_type_id":"4","last_reported":1733814619,"current_range_meters":36000,"station_id":"ce4bh4p2rcd13ifvqe1g","pricing_plan_id":"cebpf4jnsgd1na2vs0mg"},{"bike_id":"47d96dd7-272e-413e-994e-f5b3ccc1d412","system_id":"levelo_inurba_marseille","lat":43.30961,"lon":5.39051,"is_reserved":false,"is_disabled":false,"rental_uris":{"android":"levelo://app?vid=47d96dd7-272e-413e-994e-f5b3ccc1d412","ios":"levelo://app?vid=47d96dd7-272e-413e-994e-f5b3ccc1d412"},"vehicle_type_id":"4","last_reported":1733814619,"current_range_meters":33200,"station_id":"ce4bgup2rcd13ifvqco0","pricing_plan_id":"cebpf4jnsgd1na2vs0mg"},{"bike_id":"d43e5ea8-13b0-4ee3-b5ea-caee40935a00","system_id":"levelo_inurba_marseille","lat":43.27177,"lon":5.40987,"is_reserved":false,"is_disabled":false,"rental_uris":{"android":"levelo://app?vid=d43e5ea8-13b0-4ee3-b5ea-caee40935a00","ios":"levelo://app?vid=d43e5ea8-13b0-4ee3-b5ea-caee40935a00"},"vehicle_type_id":"4","last_reported":1733814619,"current_range_meters":3600,"station_id":"ce4bhl12rcd13ifvqgf0","pricing_plan_id":"cebpf4jnsgd1na2vs0mg"},{"bike_id":"8a5476f1-510e-4208-841f-dc655596a2d1","system_id":"levelo_inurba_marseille","lat":43.30463,"lon":5.379068,"is_reserved":false,"is_disabled":false,"rental_uris":{"android":"levelo://app?vid=8a5476f1-510e-4208-841f-dc655596a2d1","ios":"levelo://app?vid=8a5476f1-510e-4208-841f-dc655596a2d1"},"vehicle_type_id":"4","last_reported":1733814619,"current_range_meters":27600,"station_id":"ce4bgup2rcd13ifvqcn0","pricing_plan_id":"cebpf4jnsgd1na2vs0mg"},{"bike_id":"8ad1ff2d-2edd-4119-85f1-863449d93a37","system_id":"levelo_inurba_marseille","lat":43.24073,"lon":5.37763,"is_reserved":false,"is_disabled":true,"rental_uris":{"android":"levelo://app?vid=8ad1ff2d-2edd-4119-85f1-863449d93a37","ios":"levelo://app?vid=8ad1ff2d-2edd-4119-85f1-863449d93a37"},"vehicle_type_id":"4","last_reported":1733814619,"current_range_meters":26800,"station_id":"ce4bhnp2rcd13ifvqgvg","pricing_plan_id":"cebpf4jnsgd1na2vs0mg"},{"bike_id":"85ae9581-4a72-48d0-b14a-1d5f0b790f3a","system_id":"levelo_inurba_marseille","lat":43.28671,"lon":5.36366,"is_reserved":false,"is_disabled":false,"rental_uris":{"android":"levelo://app?vid=85ae9581-4a72-48d0-b14a-1d5f0b790f3a","ios":"levelo://app?vid=85ae9581-4a72-48d0-b14a-1d5f0b790f3a"},"vehicle_type_id":"4","last_reported":1733814619,"current_range_meters":8000,"station_id":"ce4bhah2rcd13ifvqej0","pricing_plan_id":"cebpf4jnsgd1na2vs0mg"},{"bike_id":"69a2726b-4c7b-4276-bc7b-f63452d45c65","system_id":"levelo_inurba_marseille","lat":43.27181,"lon":5.40994,"is_reserved":false,"is_disabled":false,"rental_uris":{"android":"levelo://app?vid=69a2726b-4c7b-4276-bc7b-f63452d45c65","ios":"levelo://app?vid=69a2726b-4c7b-4276-bc7b-f63452d45c65"},"vehicle_type_id":"4","last_reported":1733814619,"current_range_meters":10800,"station_id":"ce4bhl12rcd13ifvqgf0","pricing_plan_id":"cebpf4jnsgd1na2vs0mg"},{"bike_id":"eb4e32cd-a02d-4e92-a013-1fdc0dd71ccb","system_id":"levelo_inurba_marseille","lat":43.324799,"lon":5.365716,"is_reserved":false,"is_disabled":true,"rental_uris":{"android":"levelo://app?vid=eb4e32cd-a02d-4e92-a013-1fdc0dd71ccb","ios":"levelo://app?vid=eb4e32cd-a02d-4e92-a013-1fdc0dd71ccb"},"vehicle_type_id":"4","last_reported":1733814619,"current_range_meters":0,"station_id":"","pricing_plan_id":"cebpf4jnsgd1na2vs0mg"},{"bike_id":"ad24f16e-2206-4a3c-9b57-73b59ffe17ba","system_id":"levelo_inurba_marseille","lat":43.24161,"lon":5.36391,"is_reserved":false,"is_disabled":false,"rental_uris":{"android":"levelo://app?vid=ad24f16e-2206-4a3c-9b57-73b59ffe17ba","ios":"levelo://app?vid=ad24f16e-2206-4a3c-9b57-73b59ffe17ba"},"vehicle_type_id":"4","last_reported":1733814619,"current_range_meters":36400,"station_id":"cpo36qri1sfpv3e86is0","pricing_plan_id":"cebpf4jnsgd1na2vs0mg"},{"bike_id":"ef653d6d-5786-408a-bf06-0c12e68686c0","system_id":"levelo_inurba_marseille","lat":43.26566,"lon":5.3901,"is_reserved":false,"is_disabled":false,"rental_uris":{"android":"levelo://app?vid=ef653d6d-5786-408a-bf06-0c12e68686c0","ios":"levelo://app?vid=ef653d6d-5786-408a-bf06-0c12e68686c0"},"vehicle_type_id":"4","last_reported":1733814619,"current_range_meters":35200,"station_id":"ce4bhe12rcd13ifvqf30","pricing_plan_id":"cebpf4jnsgd1na2vs0mg"},{"bike_id":"fdccdfdc-9e02-42d3-bb31-3127ff0c6309","system_id":"levelo_inurba_marseille","lat":43.25941,"lon":5.40902,"is_reserved":false,"is_disabled":false,"rental_uris":{"android":"levelo://app?vid=fdccdfdc-9e02-42d3-bb31-3127ff0c6309","ios":"levelo://app?vid=fdccdfdc-9e02-42d3-bb31-3127ff0c6309"},"vehicle_type_id":"4","last_reported":1733814619,"current_range_meters":32800,"station_id":"ce4bhm92rcd13ifvqglg","pricing_plan_id":"cebpf4jnsgd1na2vs0mg"},{"bike_id":"0fdd6727-2bc3-47df-b102-b89c7db134be","system_id":"levelo_inurba_marseille","lat":43.29715,"lon":5.36614,"is_reserved":false,"is_disabled":true,"rental_uris":{"android":"levelo://app?vid=0fdd6727-2bc3-47df-b102-b89c7db134be","ios":"levelo://app?vid=0fdd6727-2bc3-47df-b102-b89c7db134be"},"vehicle_type_id":"4","last_reported":1733814619,"current_range_meters":35600,"station_id":"ce4bgn12rcd13ifvqbt0","pricing_plan_id":"cebpf4jnsgd1na2vs0mg"},{"bike_id":"26924fb9-4179-4abe-8b03-e0d47c141d92","system_id":"levelo_inurba_marseille","lat":43.27171,"lon":5.40991,"is_reserved":false,"is_disabled":false,"rental_uris":{"android":"levelo://app?vid=26924fb9-4179-4abe-8b03-e0d47c141d92","ios":"levelo://app?vid=26924fb9-4179-4abe-8b03-e0d47c141d92"},"vehicle_type_id":"4","last_reported":1733814619,"current_range_meters":28000,"station_id":"ce4bhl12rcd13ifvqgf0","pricing_plan_id":"cebpf4jnsgd1na2vs0mg"},{"bike_id":"2baa0bd7-84ae-47ca-8605-62b52488ff89","system_id":"levelo_inurba_marseille","lat":43.24084,"lon":5.37751,"is_reserved":false,"is_disabled":false,"rental_uris":{"android":"levelo://app?vid=2baa0bd7-84ae-47ca-8605-62b52488ff89","ios":"levelo://app?vid=2baa0bd7-84ae-47ca-8605-62b52488ff89"},"vehicle_type_id":"4","last_reported":1733814619,"current_range_meters":28400,"station_id":"ce4bhnp2rcd13ifvqgvg","pricing_plan_id":"cebpf4jnsgd1na2vs0mg"},{"bike_id":"db14e876-0fd6-46a7-8620-bb06967f83cc","system_id":"levelo_inurba_marseille","lat":43.31326,"lon":5.397052,"is_reserved":false,"is_disabled":true,"rental_uris":{"android":"levelo://app?vid=db14e876-0fd6-46a7-8620-bb06967f83cc","ios":"levelo://app?vid=db14e876-0fd6-46a7-8620-bb06967f83cc"},"vehicle_type_id":"4","last_reported":1733814619,"current_range_meters":29600,"station_id":"ce4bgvp2rcd13ifvqcu0","pricing_plan_id":"cebpf4jnsgd1na2vs0mg"},{"bike_id":"f9f3bd96-7b52-42a5-bea4-b500f85bc516","system_id":"levelo_inurba_marseille","lat":43.3266,"lon":5.40985,"is_reserved":false,"is_disabled":false,"rental_uris":{"android":"levelo://app?vid=f9f3bd96-7b52-42a5-bea4-b500f85bc516","ios":"levelo://app?vid=f9f3bd96-7b52-42a5-bea4-b500f85bc516"},"vehicle_type_id":"4","last_reported":1733814619,"current_range_meters":38800,"station_id":"ce4bhpp2rcd13ifvqhgg","pricing_plan_id":"cebpf4jnsgd1na2vs0mg"},{"bike_id":"c7a1c813-c856-416f-916b-f0b637f7dbad","system_id":"levelo_inurba_marseille","lat":43.28618,"lon":5.35105,"is_reserved":false,"is_disabled":false,"rental_uris":{"android":"levelo://app?vid=c7a1c813-c856-416f-916b-f0b637f7dbad","ios":"levelo://app?vid=c7a1c813-c856-416f-916b-f0b637f7dbad"},"vehicle_type_id":"4","last_reported":1733814619,"current_range_meters":38800,"station_id":"ce4bhch2rcd13ifvqeug","pricing_plan_id":"cebpf4jnsgd1na2vs0mg"},{"bike_id":"8f9a579b-015c-4473-b2c6-6ca500670130","system_id":"levelo_inurba_marseille","lat":43.27489,"lon":5.42456,"is_reserved":false,"is_disabled":false,"rental_uris":{"android":"levelo://app?vid=8f9a579b-015c-4473-b2c6-6ca500670130","ios":"levelo://app?vid=8f9a579b-015c-4473-b2c6-6ca500670130"},"vehicle_type_id":"4","last_reported":1733814619,"current_range_meters":34000,"station_id":"ce4bhn92rcd13ifvqgrg","pricing_plan_id":"cebpf4jnsgd1na2vs0mg"},{"bike_id":"1966c0d5-65e8-426f-982e-879491ff1c63","system_id":"levelo_inurba_marseille","lat":43.30532,"lon":5.36715,"is_reserved":false,"is_disabled":false,"rental_uris":{"android":"levelo://app?vid=1966c0d5-65e8-426f-982e-879491ff1c63","ios":"levelo://app?vid=1966c0d5-65e8-426f-982e-879491ff1c63"},"vehicle_type_id":"4","last_reported":1733814619,"current_range_meters":33200,"station_id":"ce4bgrp2rcd13ifvqc9g","pricing_plan_id":"cebpf4jnsgd1na2vs0mg"},{"bike_id":"e5e849ae-b66e-4ccd-a25e-8facf439c75b","system_id":"levelo_inurba_marseille","lat":43.2995,"lon":5.38473,"is_reserved":false,"is_disabled":true,"rental_uris":{"android":"levelo://app?vid=e5e849ae-b66e-4ccd-a25e-8facf439c75b","ios":"levelo://app?vid=e5e849ae-b66e-4ccd-a25e-8facf439c75b"},"vehicle_type_id":"4","last_reported":1733814619,"current_range_meters":38000,"station_id":"ce4bgj92rcd13ifvqbd0","pricing_plan_id":"cebpf4jnsgd1na2vs0mg"},{"bike_id":"5597e7ed-b846-4b75-a11c-5675c0697c84","system_id":"levelo_inurba_marseille","lat":43.2836,"lon":5.38103,"is_reserved":false,"is_disabled":false,"rental_uris":{"android":"levelo://app?vid=5597e7ed-b846-4b75-a11c-5675c0697c84","ios":"levelo://app?vid=5597e7ed-b846-4b75-a11c-5675c0697c84"},"vehicle_type_id":"4","last_reported":1733814619,"current_range_meters":32800,"station_id":"ce4bh412rcd13ifvqdr0","pricing_plan_id":"cebpf4jnsgd1na2vs0mg"},{"bike_id":"c901627f-e5d2-45af-ab18-d7a8310fd4f0","system_id":"levelo_inurba_marseille","lat":43.25107,"lon":5.40325,"is_reserved":false,"is_disabled":false,"rental_uris":{"android":"levelo://app?vid=c901627f-e5d2-45af-ab18-d7a8310fd4f0","ios":"levelo://app?vid=c901627f-e5d2-45af-ab18-d7a8310fd4f0"},"vehicle_type_id":"4","last_reported":1733814619,"current_range_meters":37600,"station_id":"ce4bhlh2rcd13ifvqgig","pricing_plan_id":"cebpf4jnsgd1na2vs0mg"},{"bike_id":"0ccd581d-9c76-4795-b702-2d923b116e9d","system_id":"levelo_inurba_marseille","lat":43.27176,"lon":5.40987,"is_reserved":false,"is_disabled":false,"rental_uris":{"android":"levelo://app?vid=0ccd581d-9c76-4795-b702-2d923b116e9d","ios":"levelo://app?vid=0ccd581d-9c76-4795-b702-2d923b116e9d"},"vehicle_type_id":"4","last_reported":1733814619,"current_range_meters":32800,"station_id":"ce4bhl12rcd13ifvqgf0","pricing_plan_id":"cebpf4jnsgd1na2vs0mg"},{"bike_id":"835aa459-9f57-457d-9fb1-77c3a096a6cb","system_id":"levelo_inurba_marseille","lat":43.26935,"lon":5.40257,"is_reserved":false,"is_disabled":false,"rental_uris":{"android":"levelo://app?vid=835aa459-9f57-457d-9fb1-77c3a096a6cb","ios":"levelo://app?vid=835aa459-9f57-457d-9fb1-77c3a096a6cb"},"vehicle_type_id":"4","last_reported":1733814619,"current_range_meters":35600,"station_id":"cjm6bp8fraef2m0cb0m0","pricing_plan_id":"cebpf4jnsgd1na2vs0mg"},{"bike_id":"fd8610ab-3fed-4c61-bebc-619f896f48b1","system_id":"levelo_inurba_marseille","lat":43.29906,"lon":5.38155,"is_reserved":false,"is_disabled":false,"rental_uris":{"android":"levelo://app?vid=fd8610ab-3fed-4c61-bebc-619f896f48b1","ios":"levelo://app?vid=fd8610ab-3fed-4c61-bebc-619f896f48b1"},"vehicle_type_id":"4","last_reported":1733814619,"current_range_meters":36000,"station_id":"ce4bgj12rcd13ifvqbc0","pricing_plan_id":"cebpf4jnsgd1na2vs0mg"},{"bike_id":"95d8628d-10b1-47e7-9a42-9b126ec315c6","system_id":"levelo_inurba_marseille","lat":43.23196,"lon":5.35561,"is_reserved":false,"is_disabled":false,"rental_uris":{"android":"levelo://app?vid=95d8628d-10b1-47e7-9a42-9b126ec315c6","ios":"levelo://app?vid=95d8628d-10b1-47e7-9a42-9b126ec315c6"},"vehicle_type_id":"4","last_reported":1733814619,"current_range_meters":25600,"station_id":"ce4bhu92rcd13ifvqi70","pricing_plan_id":"cebpf4jnsgd1na2vs0mg"},{"bike_id":"7b9f02a8-9597-42e4-98b0-e24b5c956db2","system_id":"levelo_inurba_marseille","lat":43.2735,"lon":5.39073,"is_reserved":false,"is_disabled":false,"rental_uris":{"android":"levelo://app?vid=7b9f02a8-9597-42e4-98b0-e24b5c956db2","ios":"levelo://app?vid=7b9f02a8-9597-42e4-98b0-e24b5c956db2"},"vehicle_type_id":"4","last_reported":1733814619,"current_range_meters":24400,"station_id":"ce4bhgp2rcd13ifvqfe0","pricing_plan_id":"cebpf4jnsgd1na2vs0mg"},{"bike_id":"58c7a0a7-2cec-4df4-b984-8aff6a48b359","system_id":"levelo_inurba_marseille","lat":43.24078,"lon":5.37761,"is_reserved":false,"is_disabled":false,"rental_uris":{"android":"levelo://app?vid=58c7a0a7-2cec-4df4-b984-8aff6a48b359","ios":"levelo://app?vid=58c7a0a7-2cec-4df4-b984-8aff6a48b359"},"vehicle_type_id":"4","last_reported":1733814619,"current_range_meters":8800,"station_id":"ce4bhnp2rcd13ifvqgvg","pricing_plan_id":"cebpf4jnsgd1na2vs0mg"},{"bike_id":"cbb22546-b293-4666-8142-6ea9c108ac61","system_id":"levelo_inurba_marseille","lat":43.28274,"lon":5.35072,"is_reserved":false,"is_disabled":false,"rental_uris":{"android":"levelo://app?vid=cbb22546-b293-4666-8142-6ea9c108ac61","ios":"levelo://app?vid=cbb22546-b293-4666-8142-6ea9c108ac61"},"vehicle_type_id":"4","last_reported":1733814619,"current_range_meters":38800,"station_id":"ce4bhbp2rcd13ifvqerg","pricing_plan_id":"cebpf4jnsgd1na2vs0mg"},{"bike_id":"95f09589-31b2-42ab-abe2-f206bd940489","system_id":"levelo_inurba_marseille","lat":43.30147,"lon":5.38093,"is_reserved":false,"is_disabled":false,"rental_uris":{"android":"levelo://app?vid=95f09589-31b2-42ab-abe2-f206bd940489","ios":"levelo://app?vid=95f09589-31b2-42ab-abe2-f206bd940489"},"vehicle_type_id":"4","last_reported":1733814619,"current_range_meters":34000,"station_id":"ce4bgjp2rcd13ifvqbh0","pricing_plan_id":"cebpf4jnsgd1na2vs0mg"},{"bike_id":"570bad79-da0a-4f0e-bd71-fcfb4fde31b3","system_id":"levelo_inurba_marseille","lat":43.23963,"lon":5.36631,"is_reserved":false,"is_disabled":false,"rental_uris":{"android":"levelo://app?vid=570bad79-da0a-4f0e-bd71-fcfb4fde31b3","ios":"levelo://app?vid=570bad79-da0a-4f0e-bd71-fcfb4fde31b3"},"vehicle_type_id":"4","last_reported":1733814619,"current_range_meters":34800,"station_id":"ce4bhi12rcd13ifvqfp0","pricing_plan_id":"cebpf4jnsgd1na2vs0mg"},{"bike_id":"0f20b602-7b45-4989-92b6-4d1c64ab5468","system_id":"levelo_inurba_marseille","lat":43.26553,"lon":5.37292,"is_reserved":false,"is_disabled":false,"rental_uris":{"android":"levelo://app?vid=0f20b602-7b45-4989-92b6-4d1c64ab5468","ios":"levelo://app?vid=0f20b602-7b45-4989-92b6-4d1c64ab5468"},"vehicle_type_id":"4","last_reported":1733814619,"current_range_meters":35200,"station_id":"ce4bhg12rcd13ifvqf70","pricing_plan_id":"cebpf4jnsgd1na2vs0mg"},{"bike_id":"a82d634a-a49c-4d39-abc7-6109fc7823f3","system_id":"levelo_inurba_marseille","lat":43.26944,"lon":5.4025,"is_reserved":false,"is_disabled":false,"rental_uris":{"android":"levelo://app?vid=a82d634a-a49c-4d39-abc7-6109fc7823f3","ios":"levelo://app?vid=a82d634a-a49c-4d39-abc7-6109fc7823f3"},"vehicle_type_id":"4","last_reported":1733814619,"current_range_meters":38800,"station_id":"cjm6bp8fraef2m0cb0m0","pricing_plan_id":"cebpf4jnsgd1na2vs0mg"},{"bike_id":"97268095-b81c-416d-83ee-09dde6b7d281","system_id":"levelo_inurba_marseille","lat":43.29032,"lon":5.39969,"is_reserved":false,"is_disabled":false,"rental_uris":{"android":"levelo://app?vid=97268095-b81c-416d-83ee-09dde6b7d281","ios":"levelo://app?vid=97268095-b81c-416d-83ee-09dde6b7d281"},"vehicle_type_id":"4","last_reported":1733814619,"current_range_meters":24800,"station_id":"ce4bh392rcd13ifvqdm0","pricing_plan_id":"cebpf4jnsgd1na2vs0mg"},{"bike_id":"e9998629-9fe8-440e-be19-c3031bfde802","system_id":"levelo_inurba_marseille","lat":43.24076,"lon":5.37759,"is_reserved":false,"is_disabled":false,"rental_uris":{"android":"levelo://app?vid=e9998629-9fe8-440e-be19-c3031bfde802","ios":"levelo://app?vid=e9998629-9fe8-440e-be19-c3031bfde802"},"vehicle_type_id":"4","last_reported":1733814619,"current_range_meters":32800,"station_id":"ce4bhnp2rcd13ifvqgvg","pricing_plan_id":"cebpf4jnsgd1na2vs0mg"},{"bike_id":"6f5c686b-f63b-4328-b0d7-ab1de9343cc5","system_id":"levelo_inurba_marseille","lat":43.31494,"lon":5.3731,"is_reserved":false,"is_disabled":false,"rental_uris":{"android":"levelo://app?vid=6f5c686b-f63b-4328-b0d7-ab1de9343cc5","ios":"levelo://app?vid=6f5c686b-f63b-4328-b0d7-ab1de9343cc5"},"vehicle_type_id":"4","last_reported":1733814619,"current_range_meters":38800,"station_id":"ce4bgt12rcd13ifvqcd0","pricing_plan_id":"cebpf4jnsgd1na2vs0mg"},{"bike_id":"e19bbcd4-547c-4c48-9d1e-941b58bfe99b","system_id":"levelo_inurba_marseille","lat":43.31339,"lon":5.3671,"is_reserved":false,"is_disabled":false,"rental_uris":{"android":"levelo://app?vid=e19bbcd4-547c-4c48-9d1e-941b58bfe99b","ios":"levelo://app?vid=e19bbcd4-547c-4c48-9d1e-941b58bfe99b"},"vehicle_type_id":"4","last_reported":1733814619,"current_range_meters":35200,"station_id":"ce4bgr92rcd13ifvqc6g","pricing_plan_id":"cebpf4jnsgd1na2vs0mg"},{"bike_id":"b8e7f883-5b9b-422d-81e9-d00c2442da3b","system_id":"levelo_inurba_marseille","lat":43.23055,"lon":5.35491,"is_reserved":false,"is_disabled":false,"rental_uris":{"android":"levelo://app?vid=b8e7f883-5b9b-422d-81e9-d00c2442da3b","ios":"levelo://app?vid=b8e7f883-5b9b-422d-81e9-d00c2442da3b"},"vehicle_type_id":"4","last_reported":1733814619,"current_range_meters":36800,"station_id":"cpo3342slgdg3j2ifvpg","pricing_plan_id":"cebpf4jnsgd1na2vs0mg"},{"bike_id":"bd8fb896-4629-4fdb-a7c3-d5e4c76b6b63","system_id":"levelo_inurba_marseille","lat":43.33603,"lon":5.41034,"is_reserved":false,"is_disabled":false,"rental_uris":{"android":"levelo://app?vid=bd8fb896-4629-4fdb-a7c3-d5e4c76b6b63","ios":"levelo://app?vid=bd8fb896-4629-4fdb-a7c3-d5e4c76b6b63"},"vehicle_type_id":"4","last_reported":1733814619,"current_range_meters":38800,"station_id":"ce4bhqh2rcd13ifvqhmg","pricing_plan_id":"cebpf4jnsgd1na2vs0mg"},{"bike_id":"c1598c12-4bef-4141-a99f-8dd71c41b81d","system_id":"levelo_inurba_marseille","lat":43.24176,"lon":5.3973,"is_reserved":false,"is_disabled":true,"rental_uris":{"android":"levelo://app?vid=c1598c12-4bef-4141-a99f-8dd71c41b81d","ios":"levelo://app?vid=c1598c12-4bef-4141-a99f-8dd71c41b81d"},"vehicle_type_id":"4","last_reported":1733814619,"current_range_meters":0,"station_id":"ce4bhn12rcd13ifvqgpg","pricing_plan_id":"cebpf4jnsgd1na2vs0mg"},{"bike_id":"c2913209-20b7-4e6b-bdc2-71b44f68b505","system_id":"levelo_inurba_marseille","lat":43.29901,"lon":5.43674,"is_reserved":false,"is_disabled":false,"rental_uris":{"android":"levelo://app?vid=c2913209-20b7-4e6b-bdc2-71b44f68b505","ios":"levelo://app?vid=c2913209-20b7-4e6b-bdc2-71b44f68b505"},"vehicle_type_id":"4","last_reported":1733814619,"current_range_meters":14800,"station_id":"ce4bhpp2rcd13ifvqhfg","pricing_plan_id":"cebpf4jnsgd1na2vs0mg"},{"bike_id":"5c71b81d-d519-4d06-a3c0-c735dbc007ad","system_id":"levelo_inurba_marseille","lat":43.2904,"lon":5.39968,"is_reserved":false,"is_disabled":false,"rental_uris":{"android":"levelo://app?vid=5c71b81d-d519-4d06-a3c0-c735dbc007ad","ios":"levelo://app?vid=5c71b81d-d519-4d06-a3c0-c735dbc007ad"},"vehicle_type_id":"4","last_reported":1733814619,"current_range_meters":36400,"station_id":"ce4bh392rcd13ifvqdm0","pricing_plan_id":"cebpf4jnsgd1na2vs0mg"},{"bike_id":"9aae423d-1068-43d1-bd80-b4b5dcc4cfa9","system_id":"levelo_inurba_marseille","lat":43.2668,"lon":5.38266,"is_reserved":false,"is_disabled":false,"rental_uris":{"android":"levelo://app?vid=9aae423d-1068-43d1-bd80-b4b5dcc4cfa9","ios":"levelo://app?vid=9aae423d-1068-43d1-bd80-b4b5dcc4cfa9"},"vehicle_type_id":"4","last_reported":1733814619,"current_range_meters":22800,"station_id":"ce4bhg92rcd13ifvqf90","pricing_plan_id":"cebpf4jnsgd1na2vs0mg"},{"bike_id":"a93ac60c-1cc7-40c5-952e-5e62a68cd202","system_id":"levelo_inurba_marseille","lat":43.27492,"lon":5.42455,"is_reserved":false,"is_disabled":false,"rental_uris":{"android":"levelo://app?vid=a93ac60c-1cc7-40c5-952e-5e62a68cd202","ios":"levelo://app?vid=a93ac60c-1cc7-40c5-952e-5e62a68cd202"},"vehicle_type_id":"4","last_reported":1733814619,"current_range_meters":32000,"station_id":"ce4bhn92rcd13ifvqgrg","pricing_plan_id":"cebpf4jnsgd1na2vs0mg"},{"bike_id":"a0b44e86-9121-4df3-b62a-0fc9a0d1110c","system_id":"levelo_inurba_marseille","lat":43.23062,"lon":5.3549,"is_reserved":false,"is_disabled":false,"rental_uris":{"android":"levelo://app?vid=a0b44e86-9121-4df3-b62a-0fc9a0d1110c","ios":"levelo://app?vid=a0b44e86-9121-4df3-b62a-0fc9a0d1110c"},"vehicle_type_id":"4","last_reported":1733814619,"current_range_meters":37600,"station_id":"cpo3342slgdg3j2ifvpg","pricing_plan_id":"cebpf4jnsgd1na2vs0mg"},{"bike_id":"a0c230af-183e-4db9-b10f-8c1a6d844ebf","system_id":"levelo_inurba_marseille","lat":43.30125,"lon":5.38789,"is_reserved":false,"is_disabled":true,"rental_uris":{"android":"levelo://app?vid=a0c230af-183e-4db9-b10f-8c1a6d844ebf","ios":"levelo://app?vid=a0c230af-183e-4db9-b10f-8c1a6d844ebf"},"vehicle_type_id":"4","last_reported":1733814619,"current_range_meters":0,"station_id":"ce4bghh2rcd13ifvqb60","pricing_plan_id":"cebpf4jnsgd1na2vs0mg"},{"bike_id":"f87cf9e6-dfc9-4626-bb94-2221a897c82e","system_id":"levelo_inurba_marseille","lat":43.25503,"lon":5.37652,"is_reserved":false,"is_disabled":false,"rental_uris":{"android":"levelo://app?vid=f87cf9e6-dfc9-4626-bb94-2221a897c82e","ios":"levelo://app?vid=f87cf9e6-dfc9-4626-bb94-2221a897c82e"},"vehicle_type_id":"4","last_reported":1733814619,"current_range_meters":39200,"station_id":"ce4bhh12rcd13ifvqff0","pricing_plan_id":"cebpf4jnsgd1na2vs0mg"},{"bike_id":"070c0357-8b3e-45e8-a76b-813be163db39","system_id":"levelo_inurba_marseille","lat":43.24666,"lon":5.38153,"is_reserved":false,"is_disabled":false,"rental_uris":{"android":"levelo://app?vid=070c0357-8b3e-45e8-a76b-813be163db39","ios":"levelo://app?vid=070c0357-8b3e-45e8-a76b-813be163db39"},"vehicle_type_id":"4","last_reported":1733814619,"current_range_meters":30000,"station_id":"ce4bhih2rcd13ifvqfr0","pricing_plan_id":"cebpf4jnsgd1na2vs0mg"},{"bike_id":"1c695faf-ac29-49f4-a0f9-a5e221c8fb1e","system_id":"levelo_inurba_marseille","lat":43.25012,"lon":5.38927,"is_reserved":false,"is_disabled":false,"rental_uris":{"android":"levelo://app?vid=1c695faf-ac29-49f4-a0f9-a5e221c8fb1e","ios":"levelo://app?vid=1c695faf-ac29-49f4-a0f9-a5e221c8fb1e"},"vehicle_type_id":"4","last_reported":1733814619,"current_range_meters":39200,"station_id":"ce4bhgp2rcd13ifvqfd0","pricing_plan_id":"cebpf4jnsgd1na2vs0mg"},{"bike_id":"4ae5fe7f-a755-40fe-9b35-59fbb2437146","system_id":"levelo_inurba_marseille","lat":43.24165,"lon":5.36404,"is_reserved":false,"is_disabled":false,"rental_uris":{"android":"levelo://app?vid=4ae5fe7f-a755-40fe-9b35-59fbb2437146","ios":"levelo://app?vid=4ae5fe7f-a755-40fe-9b35-59fbb2437146"},"vehicle_type_id":"4","last_reported":1733814619,"current_range_meters":18000,"station_id":"cpo36qri1sfpv3e86is0","pricing_plan_id":"cebpf4jnsgd1na2vs0mg"},{"bike_id":"eab7c24e-3533-4637-b397-5e46bc48ccfd","system_id":"levelo_inurba_marseille","lat":43.23142,"lon":5.43709,"is_reserved":false,"is_disabled":false,"rental_uris":{"android":"levelo://app?vid=eab7c24e-3533-4637-b397-5e46bc48ccfd","ios":"levelo://app?vid=eab7c24e-3533-4637-b397-5e46bc48ccfd"},"vehicle_type_id":"4","last_reported":1733814619,"current_range_meters":6400,"station_id":"ce4bhmp2rcd13ifvqgog","pricing_plan_id":"cebpf4jnsgd1na2vs0mg"},{"bike_id":"624d53d5-4532-4b3f-ae61-41f702b36811","system_id":"levelo_inurba_marseille","lat":43.28351,"lon":5.38106,"is_reserved":false,"is_disabled":false,"rental_uris":{"android":"levelo://app?vid=624d53d5-4532-4b3f-ae61-41f702b36811","ios":"levelo://app?vid=624d53d5-4532-4b3f-ae61-41f702b36811"},"vehicle_type_id":"4","last_reported":1733814619,"current_range_meters":32000,"station_id":"ce4bh412rcd13ifvqdr0","pricing_plan_id":"cebpf4jnsgd1na2vs0mg"},{"bike_id":"2006c761-336e-446b-9361-4cd1b79e5470","system_id":"levelo_inurba_marseille","lat":43.3041,"lon":5.41543,"is_reserved":false,"is_disabled":false,"rental_uris":{"android":"levelo://app?vid=2006c761-336e-446b-9361-4cd1b79e5470","ios":"levelo://app?vid=2006c761-336e-446b-9361-4cd1b79e5470"},"vehicle_type_id":"4","last_reported":1733814619,"current_range_meters":37600,"station_id":"ce4bgvh2rcd13ifvqcs0","pricing_plan_id":"cebpf4jnsgd1na2vs0mg"},{"bike_id":"41b109e1-7867-4eed-b84d-27444e7d34b9","system_id":"levelo_inurba_marseille","lat":43.29378,"lon":5.37863,"is_reserved":false,"is_disabled":true,"rental_uris":{"android":"levelo://app?vid=41b109e1-7867-4eed-b84d-27444e7d34b9","ios":"levelo://app?vid=41b109e1-7867-4eed-b84d-27444e7d34b9"},"vehicle_type_id":"4","last_reported":1733814619,"current_range_meters":24000,"station_id":"ce4bgjh2rcd13ifvqbf0","pricing_plan_id":"cebpf4jnsgd1na2vs0mg"},{"bike_id":"6a8c2bca-6d0a-466d-807f-fb08f8dadcee","system_id":"levelo_inurba_marseille","lat":43.27817,"lon":5.40713,"is_reserved":false,"is_disabled":false,"rental_uris":{"android":"levelo://app?vid=6a8c2bca-6d0a-466d-807f-fb08f8dadcee","ios":"levelo://app?vid=6a8c2bca-6d0a-466d-807f-fb08f8dadcee"},"vehicle_type_id":"4","last_reported":1733814619,"current_range_meters":37600,"station_id":"ce4bhnh2rcd13ifvqgtg","pricing_plan_id":"cebpf4jnsgd1na2vs0mg"},{"bike_id":"5bd6bd78-4585-4412-88b0-3de4a55947a6","system_id":"levelo_inurba_marseille","lat":43.32293,"lon":5.38265,"is_reserved":false,"is_disabled":false,"rental_uris":{"android":"levelo://app?vid=5bd6bd78-4585-4412-88b0-3de4a55947a6","ios":"levelo://app?vid=5bd6bd78-4585-4412-88b0-3de4a55947a6"},"vehicle_type_id":"4","last_reported":1733814619,"current_range_meters":38400,"station_id":"ce4bhr12rcd13ifvqhqg","pricing_plan_id":"cebpf4jnsgd1na2vs0mg"},{"bike_id":"ba5e4c54-9e0f-419d-acd3-894b4507a88b","system_id":"levelo_inurba_marseille","lat":43.23055,"lon":5.35487,"is_reserved":false,"is_disabled":false,"rental_uris":{"android":"levelo://app?vid=ba5e4c54-9e0f-419d-acd3-894b4507a88b","ios":"levelo://app?vid=ba5e4c54-9e0f-419d-acd3-894b4507a88b"},"vehicle_type_id":"4","last_reported":1733814619,"current_range_meters":27200,"station_id":"cpo3342slgdg3j2ifvpg","pricing_plan_id":"cebpf4jnsgd1na2vs0mg"},{"bike_id":"01546ad9-34e8-4576-ad9f-59067c503d28","system_id":"levelo_inurba_marseille","lat":43.3254,"lon":5.41426,"is_reserved":false,"is_disabled":false,"rental_uris":{"android":"levelo://app?vid=01546ad9-34e8-4576-ad9f-59067c503d28","ios":"levelo://app?vid=01546ad9-34e8-4576-ad9f-59067c503d28"},"vehicle_type_id":"4","last_reported":1733814619,"current_range_meters":36000,"station_id":"ce4bhq12rcd13ifvqhhg","pricing_plan_id":"cebpf4jnsgd1na2vs0mg"},{"bike_id":"e11e5398-2b26-4eb7-9ef7-831791928bde","system_id":"levelo_inurba_marseille","lat":43.25974,"lon":5.39405,"is_reserved":false,"is_disabled":false,"rental_uris":{"android":"levelo://app?vid=e11e5398-2b26-4eb7-9ef7-831791928bde","ios":"levelo://app?vid=e11e5398-2b26-4eb7-9ef7-831791928bde"},"vehicle_type_id":"4","last_reported":1733814619,"current_range_meters":33600,"station_id":"ce4bgr92rcd13ifvqc6g","pricing_plan_id":"cebpf4jnsgd1na2vs0mg"},{"bike_id":"ca5603ec-1ec7-45c9-a0a5-02beb369f864","system_id":"levelo_inurba_marseille","lat":43.29636,"lon":5.40598,"is_reserved":false,"is_disabled":false,"rental_uris":{"android":"levelo://app?vid=ca5603ec-1ec7-45c9-a0a5-02beb369f864","ios":"levelo://app?vid=ca5603ec-1ec7-45c9-a0a5-02beb369f864"},"vehicle_type_id":"4","last_reported":1733814619,"current_range_meters":38400,"station_id":"ce4bh0h2rcd13ifvqd60","pricing_plan_id":"cebpf4jnsgd1na2vs0mg"},{"bike_id":"c8784bc1-b0fc-48f2-8f17-4afdaa9e50e6","system_id":"levelo_inurba_marseille","lat":43.28469,"lon":5.38421,"is_reserved":false,"is_disabled":false,"rental_uris":{"android":"levelo://app?vid=c8784bc1-b0fc-48f2-8f17-4afdaa9e50e6","ios":"levelo://app?vid=c8784bc1-b0fc-48f2-8f17-4afdaa9e50e6"},"vehicle_type_id":"4","last_reported":1733814619,"current_range_meters":14000,"station_id":"ce4bh512rcd13ifvqe3g","pricing_plan_id":"cebpf4jnsgd1na2vs0mg"},{"bike_id":"155e4552-adf3-45a5-aa6c-6e25fcaf05e5","system_id":"levelo_inurba_marseille","lat":43.27176,"lon":5.40985,"is_reserved":false,"is_disabled":false,"rental_uris":{"android":"levelo://app?vid=155e4552-adf3-45a5-aa6c-6e25fcaf05e5","ios":"levelo://app?vid=155e4552-adf3-45a5-aa6c-6e25fcaf05e5"},"vehicle_type_id":"4","last_reported":1733814619,"current_range_meters":38400,"station_id":"ce4bhl12rcd13ifvqgf0","pricing_plan_id":"cebpf4jnsgd1na2vs0mg"},{"bike_id":"3933b701-ca82-4b18-a882-72a61c67a1e4","system_id":"levelo_inurba_marseille","lat":43.24389,"lon":5.37055,"is_reserved":false,"is_disabled":false,"rental_uris":{"android":"levelo://app?vid=3933b701-ca82-4b18-a882-72a61c67a1e4","ios":"levelo://app?vid=3933b701-ca82-4b18-a882-72a61c67a1e4"},"vehicle_type_id":"4","last_reported":1733814619,"current_range_meters":38000,"station_id":"ce4bhhh2rcd13ifvqfk0","pricing_plan_id":"cebpf4jnsgd1na2vs0mg"},{"bike_id":"9aa7fc00-9ade-4748-843a-6ed2d36fd8f7","system_id":"levelo_inurba_marseille","lat":43.28267,"lon":5.3507,"is_reserved":false,"is_disabled":false,"rental_uris":{"android":"levelo://app?vid=9aa7fc00-9ade-4748-843a-6ed2d36fd8f7","ios":"levelo://app?vid=9aa7fc00-9ade-4748-843a-6ed2d36fd8f7"},"vehicle_type_id":"4","last_reported":1733814619,"current_range_meters":12400,"station_id":"ce4bhbp2rcd13ifvqerg","pricing_plan_id":"cebpf4jnsgd1na2vs0mg"},{"bike_id":"bd45d4b8-a794-47d3-b71a-c238d420c3d9","system_id":"levelo_inurba_marseille","lat":43.28998,"lon":5.35615,"is_reserved":false,"is_disabled":true,"rental_uris":{"android":"levelo://app?vid=bd45d4b8-a794-47d3-b71a-c238d420c3d9","ios":"levelo://app?vid=bd45d4b8-a794-47d3-b71a-c238d420c3d9"},"vehicle_type_id":"4","last_reported":1733814619,"current_range_meters":27600,"station_id":"ce4bhb92rcd13ifvqen0","pricing_plan_id":"cebpf4jnsgd1na2vs0mg"},{"bike_id":"e3249e8f-024a-4420-b894-016bc3cbb804","system_id":"levelo_inurba_marseille","lat":43.3016,"lon":5.38085,"is_reserved":false,"is_disabled":false,"rental_uris":{"android":"levelo://app?vid=e3249e8f-024a-4420-b894-016bc3cbb804","ios":"levelo://app?vid=e3249e8f-024a-4420-b894-016bc3cbb804"},"vehicle_type_id":"4","last_reported":1733814619,"current_range_meters":36800,"station_id":"ce4bgjp2rcd13ifvqbh0","pricing_plan_id":"cebpf4jnsgd1na2vs0mg"},{"bike_id":"56e61e47-ad1e-4212-a1ae-0d42d857dbc8","system_id":"levelo_inurba_marseille","lat":43.291,"lon":5.3812,"is_reserved":false,"is_disabled":false,"rental_uris":{"android":"levelo://app?vid=56e61e47-ad1e-4212-a1ae-0d42d857dbc8","ios":"levelo://app?vid=56e61e47-ad1e-4212-a1ae-0d42d857dbc8"},