{"last_updated":1740226482,"ttl":60,"version":"2.2","data":{"bikes":[{"bike_id":"350202bf-5272-4b25-8012-1b5e3cc2c139","system_id":"levelo_inurba_marseille","lat":43.31194,"lon":5.37265,"is_reserved":false,"is_disabled":false,"rental_uris":{"android":"levelo://app?vid=350202bf-5272-4b25-8012-1b5e3cc2c139","ios":"levelo://app?vid=350202bf-5272-4b25-8012-1b5e3cc2c139"},"vehicle_type_id":"4","last_reported":1740226482,"current_range_meters":2800,"station_id":"","pricing_plan_id":"cebpf4jnsgd1na2vs0mg"},{"bike_id":"f5bf491c-3aee-4419-b2a0-03f612d98ad6","system_id":"levelo_inurba_marseille","lat":43.229345,"lon":5.35377,"is_reserved":false,"is_disabled":false,"rental_uris":{"android":"levelo://app?vid=f5bf491c-3aee-4419-b2a0-03f612d98ad6","ios":"levelo://app?vid=f5bf491c-3aee-4419-b2a0-03f612d98ad6"},"vehicle_type_id":"4","last_reported":1740226482,"current_range_meters":3600,"station_id":"cpo3532slgdg3j2ikp40","pricing_plan_id":"cebpf4jnsgd1na2vs0mg"},{"bike_id":"6dd056be-a548-4c87-8dbd-480300bb1292","system_id":"levelo_inurba_marseille","lat":43.29269,"lon":5.38439,"is_reserved":false,"is_disabled":false,"rental_uris":{"android":"levelo://app?vid=6dd056be-a548-4c87-8dbd-480300bb1292","ios":"levelo://app?vid=6dd056be-a548-4c87-8dbd-480300bb1292"},"vehicle_type_id":"4","last_reported":1740226482,"current_range_meters":4000,"station_id":"ce4bh692rcd13ifvqea0","pricing_plan_id":"cebpf4jnsgd1na2vs0mg"},{"bike_id":"5675a4bb-44b7-4af9-a7c9-a7d763b25532","system_id":"levelo_inurba_marseille","lat":43.28496,"lon":5.38572,"is_reserved":false,"is_disabled":false,"rental_uris":{"android":"levelo://app?vid=5675a4bb-44b7-4af9-a7c9-a7d763b25532","ios":"levelo://app?vid=5675a4bb-44b7-4af9-a7c9-a7d763b25532"},"vehicle_type_id":"4","last_reported":1740226482,"current_range_meters":4000,"station_id":"ce4bh8p2rcd13ifvqeb0","pricing_plan_id":"cebpf4jnsgd1na2vs0mg"},{"bike_id":"cbab97bb-5a3b-4b8c-953d-db42a6004ba1","system_id":"levelo_inurba_marseille","lat":43.232,"lon":5.35551,"is_reserved":false,"is_disabled":false,"rental_uris":{"android":"levelo://app?vid=cbab97bb-5a3b-4b8c-953d-db42a6004ba1","ios":"levelo://app?vid=cbab97bb-5a3b-4b8c-953d-db42a6004ba1"},"vehicle_type_id":"4","last_reported":1740226482,"current_range_meters":5600,"station_id":"ce4bhu92rcd13ifvqi70","pricing_plan_id":"cebpf4jnsgd1na2vs0mg"},{"bike_id":"c6a33ac1-a62f-47f6-86dd-f4b18bfd1b02","system_id":"levelo_inurba_marseille","lat":43.30418,"lon":5.41286,"is_reserved":false,"is_disabled":false,"rental_uris":{"android":"levelo://app?vid=c6a33ac1-a62f-47f6-86dd-f4b18bfd1b02","ios":"levelo://app?vid=c6a33ac1-a62f-47f6-86dd-f4b18bfd1b02"},"vehicle_type_id":"4","last_reported":1740226482,"current_range_meters":5600,"station_id":"ce4bhop2rcd13ifvqh8g","pricing_plan_id":"cebpf4jnsgd1na2vs0mg"},{"bike_id":"b45ab281-2ffb-4786-bbfb-31f4db8658f9","system_id":"levelo_inurba_marseille","lat":43.26549,"lon":5.39001,"is_reserved":false,"is_disabled":false,"rental_uris":{"android":"levelo://app?vid=b45ab281-2ffb-4786-bbfb-31f4db8658f9","ios":"levelo://app?vid=b45ab281-2ffb-4786-bbfb-31f4db8658f9"},"vehicle_type_id":"4","last_reported":1740226482,"current_range_meters":5600,"station_id":"ce4bhe12rcd13ifvqf30","pricing_plan_id":"cebpf4jnsgd1na2vs0mg"},{"bike_id":"0584e728-54f2-4eca-887e-fe95607e016b","system_id":"levelo_inurba_marseille","lat":43.28303,"lon":5.35053,"is_reserved":false,"is_disabled":false,"rental_uris":{"android":"levelo://app?vid=0584e728-54f2-4eca-887e-fe95607e016b","ios":"levelo://app?vid=0584e728-54f2-4eca-887e-fe95607e016b"},"vehicle_type_id":"4","last_reported":1740226482,"current_range_meters":5600,"station_id":"ce4bhbp2rcd13ifvqerg","pricing_plan_id":"cebpf4jnsgd1na2vs0mg"},{"bike_id":"7c5289cb-0b42-4bee-9961-0cc3ccb86bfe","system_id":"levelo_inurba_marseille","lat":43.240704,"lon":5.377573,"is_reserved":false,"is_disabled":false,"rental_uris":{"android":"levelo://app?vid=7c5289cb-0b42-4bee-9961-0cc3ccb86bfe","ios":"levelo://app?vid=7c5289cb-0b42-4bee-9961-0cc3ccb86bfe"},"vehicle_type_id":"4","last_reported":1740226482,"current_range_meters":5600,"station_id":"ce4bhnp2rcd13ifvqgvg","pricing_plan_id":"cebpf4jnsgd1na2vs0mg"},{"bike_id":"e2124d37-d1a5-4d4d-8c06-fda2ba0b4397","system_id":"levelo_inurba_marseille","lat":43.29192,"lon":5.42716,"is_reserved":false,"is_disabled":true,"rental_uris":{"android":"levelo://app?vid=e2124d37-d1a5-4d4d-8c06-fda2ba0b4397","ios":"levelo://app?vid=e2124d37-d1a5-4d4d-8c06-fda2ba0b4397"},"vehicle_type_id":"4","last_reported":1740226482,"current_range_meters":6000,"station_id":"","pricing_plan_id":"cebpf4jnsgd1na2vs0mg"},{"bike_id":"e65f8fb1-c572-49f4-a02e-108786e0efbe","system_id":"levelo_inurba_marseille","lat":43.24546,"lon":5.39521,"is_reserved":false,"is_disabled":false,"rental_uris":{"android":"levelo://app?vid=e65f8fb1-c572-49f4-a02e-108786e0efbe","ios":"levelo://app?vid=e65f8fb1-c572-49f4-a02e-108786e0efbe"},"vehicle_type_id":"4","last_reported":1740226482,"current_range_meters":6000,"station_id":"ce4bhlp2rcd13ifvqgjg","pricing_plan_id":"cebpf4jnsgd1na2vs0mg"},{"bike_id":"e54116c4-9d07-4ea9-811c-f941017b21c7","system_id":"levelo_inurba_marseille","lat":43.25609,"lon":5.402114,"is_reserved":false,"is_disabled":false,"rental_uris":{"android":"levelo://app?vid=e54116c4-9d07-4ea9-811c-f941017b21c7","ios":"levelo://app?vid=e54116c4-9d07-4ea9-811c-f941017b21c7"},"vehicle_type_id":"4","last_reported":1740226482,"current_range_meters":6000,"station_id":"ce4bhih2rcd13ifvqfs0","pricing_plan_id":"cebpf4jnsgd1na2vs0mg"},{"bike_id":"d6528653-78fc-4402-be42-b93da7e8564a","system_id":"levelo_inurba_marseille","lat":43.24812,"lon":5.37464,"is_reserved":false,"is_disabled":false,"rental_uris":{"android":"levelo://app?vid=d6528653-78fc-4402-be42-b93da7e8564a","ios":"levelo://app?vid=d6528653-78fc-4402-be42-b93da7e8564a"},"vehicle_type_id":"4","last_reported":1740226482,"current_range_meters":6000,"station_id":"ce4bhgh2rcd13ifvqfb0","pricing_plan_id":"cebpf4jnsgd1na2vs0mg"},{"bike_id":"47ca98e9-6142-4fff-9841-e2ef39dd3f91","system_id":"levelo_inurba_marseille","lat":43.283417,"lon":5.381186,"is_reserved":false,"is_disabled":false,"rental_uris":{"android":"levelo://app?vid=47ca98e9-6142-4fff-9841-e2ef39dd3f91","ios":"levelo://app?vid=47ca98e9-6142-4fff-9841-e2ef39dd3f91"},"vehicle_type_id":"4","last_reported":1740226482,"current_range_meters":6400,"station_id":"ce4bhah2rcd13ifvqei0","pricing_plan_id":"cebpf4jnsgd1na2vs0mg"},{"bike_id":"7c8f3d05-5401-4545-847e-9fcee9ea83d5","system_id":"levelo_inurba_marseille","lat":43.2657,"lon":5.39877,"is_reserved":false,"is_disabled":false,"rental_uris":{"android":"levelo://app?vid=7c8f3d05-5401-4545-847e-9fcee9ea83d5","ios":"levelo://app?vid=7c8f3d05-5401-4545-847e-9fcee9ea83d5"},"vehicle_type_id":"4","last_reported":1740226482,"current_range_meters":6400,"station_id":"","pricing_plan_id":"cebpf4jnsgd1na2vs0mg"},{"bike_id":"950ac920-be4e-4da0-a5e5-7f0327a4938c","system_id":"levelo_inurba_marseille","lat":43.29533,"lon":5.38551,"is_reserved":false,"is_disabled":false,"rental_uris":{"android":"levelo://app?vid=950ac920-be4e-4da0-a5e5-7f0327a4938c","ios":"levelo://app?vid=950ac920-be4e-4da0-a5e5-7f0327a4938c"},"vehicle_type_id":"4","last_reported":1740226482,"current_range_meters":6400,"station_id":"ce4bgih2rcd13ifvqba0","pricing_plan_id":"cebpf4jnsgd1na2vs0mg"},{"bike_id":"6b2f66f2-90ba-4295-b3d2-fd6a92ae3ac9","system_id":"levelo_inurba_marseille","lat":43.30334,"lon":5.40427,"is_reserved":false,"is_disabled":false,"rental_uris":{"android":"levelo://app?vid=6b2f66f2-90ba-4295-b3d2-fd6a92ae3ac9","ios":"levelo://app?vid=6b2f66f2-90ba-4295-b3d2-fd6a92ae3ac9"},"vehicle_type_id":"4","last_reported":1740226482,"current_range_meters":6400,"station_id":"ce4bh012rcd13ifvqd10","pricing_plan_id":"cebpf4jnsgd1na2vs0mg"},{"bike_id":"a2e4953e-b369-433b-8261-a64c88b8c43d","system_id":"levelo_inurba_marseille","lat":43.28252,"lon":5.42386,"is_reserved":false,"is_disabled":false,"rental_uris":{"android":"levelo://app?vid=a2e4953e-b369-433b-8261-a64c88b8c43d","ios":"levelo://app?vid=a2e4953e-b369-433b-8261-a64c88b8c43d"},"vehicle_type_id":"4","last_reported":1740226482,"current_range_meters":6800,"station_id":"","pricing_plan_id":"cebpf4jnsgd1na2vs0mg"},{"bike_id":"2074b46a-4462-434a-b913-d175d76b0c97","system_id":"levelo_inurba_marseille","lat":43.23971,"lon":5.36635,"is_reserved":false,"is_disabled":false,"rental_uris":{"android":"levelo://app?vid=2074b46a-4462-434a-b913-d175d76b0c97","ios":"levelo://app?vid=2074b46a-4462-434a-b913-d175d76b0c97"},"vehicle_type_id":"4","last_reported":1740226482,"current_range_meters":6800,"station_id":"ce4bhi12rcd13ifvqfp0","pricing_plan_id":"cebpf4jnsgd1na2vs0mg"},{"bike_id":"35c468ef-d3f7-45b9-a65a-fbe14644c18e","system_id":"levelo_inurba_marseille","lat":43.25582,"lon":5.3825,"is_reserved":false,"is_disabled":false,"rental_uris":{"android":"levelo://app?vid=35c468ef-d3f7-45b9-a65a-fbe14644c18e","ios":"levelo://app?vid=35c468ef-d3f7-45b9-a65a-fbe14644c18e"},"vehicle_type_id":"4","last_reported":1740226482,"current_range_meters":6800,"station_id":"ce4bhih2rcd13ifvqfs0","pricing_plan_id":"cebpf4jnsgd1na2vs0mg"},{"bike_id":"c0d6c131-aacf-4529-aad8-041fd8310aae","system_id":"levelo_inurba_marseille","lat":43.2913,"lon":5.37566,"is_reserved":false,"is_disabled":false,"rental_uris":{"android":"levelo://app?vid=c0d6c131-aacf-4529-aad8-041fd8310aae","ios":"levelo://app?vid=c0d6c131-aacf-4529-aad8-041fd8310aae"},"vehicle_type_id":"4","last_reported":1740226482,"current_range_meters":6800,"station_id":"","pricing_plan_id":"cebpf4jnsgd1na2vs0mg"},{"bike_id":"646b5cae-2afa-416c-8287-2abe42f0a681","system_id":"levelo_inurba_marseille","lat":43.30416,"lon":5.41299,"is_reserved":false,"is_disabled":false,"rental_uris":{"android":"levelo://app?vid=646b5cae-2afa-416c-8287-2abe42f0a681","ios":"levelo://app?vid=646b5cae-2afa-416c-8287-2abe42f0a681"},"vehicle_type_id":"4","last_reported":1740226482,"current_range_meters":7200,"station_id":"ce4bhop2rcd13ifvqh8g","pricing_plan_id":"cebpf4jnsgd1na2vs0mg"},{"bike_id":"8dec4fb6-e03c-4e80-83ff-f17990fdb4a2","system_id":"levelo_inurba_marseille","lat":43.24542,"lon":5.39504,"is_reserved":false,"is_disabled":false,"rental_uris":{"android":"levelo://app?vid=8dec4fb6-e03c-4e80-83ff-f17990fdb4a2","ios":"levelo://app?vid=8dec4fb6-e03c-4e80-83ff-f17990fdb4a2"},"vehicle_type_id":"4","last_reported":1740226482,"current_range_meters":7200,"station_id":"ce4bhlp2rcd13ifvqgjg","pricing_plan_id":"cebpf4jnsgd1na2vs0mg"},{"bike_id":"d0109f8e-c695-44b8-83b5-050518c2c6c9","system_id":"levelo_inurba_marseille","lat":43.23063,"lon":5.35492,"is_reserved":false,"is_disabled":false,"rental_uris":{"android":"levelo://app?vid=d0109f8e-c695-44b8-83b5-050518c2c6c9","ios":"levelo://app?vid=d0109f8e-c695-44b8-83b5-050518c2c6c9"},"vehicle_type_id":"4","last_reported":1740226482,"current_range_meters":7200,"station_id":"cpo3342slgdg3j2ifvpg","pricing_plan_id":"cebpf4jnsgd1na2vs0mg"},{"bike_id":"1e63d9ab-d1fb-4617-9ee0-edc946d6cfa4","system_id":"levelo_inurba_marseille","lat":43.24174,"lon":5.39719,"is_reserved":false,"is_disabled":false,"rental_uris":{"android":"levelo://app?vid=1e63d9ab-d1fb-4617-9ee0-edc946d6cfa4","ios":"levelo://app?vid=1e63d9ab-d1fb-4617-9ee0-edc946d6cfa4"},"vehicle_type_id":"4","last_reported":1740226482,"current_range_meters":7200,"station_id":"ce4bhn12rcd13ifvqgpg","pricing_plan_id":"cebpf4jnsgd1na2vs0mg"},{"bike_id":"def726d5-4740-459b-8a4d-4b3858095065","system_id":"levelo_inurba_marseille","lat":43.24816,"lon":5.37455,"is_reserved":false,"is_disabled":false,"rental_uris":{"android":"levelo://app?vid=def726d5-4740-459b-8a4d-4b3858095065","ios":"levelo://app?vid=def726d5-4740-459b-8a4d-4b3858095065"},"vehicle_type_id":"4","last_reported":1740226482,"current_range_meters":7200,"station_id":"ce4bhgh2rcd13ifvqfb0","pricing_plan_id":"cebpf4jnsgd1na2vs0mg"},{"bike_id":"2c5430a7-3583-4ae1-abd7-31976bb7717c","system_id":"levelo_inurba_marseille","lat":43.30356,"lon":5.41881,"is_reserved":false,"is_disabled":false,"rental_uris":{"android":"levelo://app?vid=2c5430a7-3583-4ae1-abd7-31976bb7717c","ios":"levelo://app?vid=2c5430a7-3583-4ae1-abd7-31976bb7717c"},"vehicle_type_id":"4","last_reported":1740226482,"current_range_meters":7200,"station_id":"ce4bhop2rcd13ifvqh7g","pricing_plan_id":"cebpf4jnsgd1na2vs0mg"},{"bike_id":"f3feea2e-5bf7-41f6-a6d2-c494ec11d6a2","system_id":"levelo_inurba_marseille","lat":43.230658,"lon":5.354909,"is_reserved":false,"is_disabled":false,"rental_uris":{"android":"levelo://app?vid=f3feea2e-5bf7-41f6-a6d2-c494ec11d6a2","ios":"levelo://app?vid=f3feea2e-5bf7-41f6-a6d2-c494ec11d6a2"},"vehicle_type_id":"4","last_reported":1740226482,"current_range_meters":7200,"station_id":"cpo3342slgdg3j2ifvpg","pricing_plan_id":"cebpf4jnsgd1na2vs0mg"},{"bike_id":"6ab8a01c-7bef-40ea-8145-03ce6712ad35","system_id":"levelo_inurba_marseille","lat":43.3031,"lon":5.39202,"is_reserved":false,"is_disabled":false,"rental_uris":{"android":"levelo://app?vid=6ab8a01c-7bef-40ea-8145-03ce6712ad35","ios":"levelo://app?vid=6ab8a01c-7bef-40ea-8145-03ce6712ad35"},"vehicle_type_id":"4","last_reported":1740226482,"current_range_meters":7200,"station_id":"ce4bgkh2rcd13ifvqbk0","pricing_plan_id":"cebpf4jnsgd1na2vs0mg"},{"bike_id":"2afb22c7-7048-4615-a3b7-71b0be04e579","system_id":"levelo_inurba_marseille","lat":43.23211,"lon":5.35551,"is_reserved":false,"is_disabled":false,"rental_uris":{"android":"levelo://app?vid=2afb22c7-7048-4615-a3b7-71b0be04e579","ios":"levelo://app?vid=2afb22c7-7048-4615-a3b7-71b0be04e579"},"vehicle_type_id":"4","last_reported":1740226482,"current_range_meters":8000,"station_id":"ce4bhu92rcd13ifvqi70","pricing_plan_id":"cebpf4jnsgd1na2vs0mg"},{"bike_id":"2b8d73ad-5137-4320-bf7a-9fcaea6cd84f","system_id":"levelo_inurba_marseille","lat":43.27992,"lon":5.4001,"is_reserved":false,"is_disabled":false,"rental_uris":{"android":"levelo://app?vid=2b8d73ad-5137-4320-bf7a-9fcaea6cd84f","ios":"levelo://app?vid=2b8d73ad-5137-4320-bf7a-9fcaea6cd84f"},"vehicle_type_id":"4","last_reported":1740226482,"current_range_meters":8000,"station_id":"ce4bho92rcd13ifvqh4g","pricing_plan_id":"cebpf4jnsgd1na2vs0mg"},{"bike_id":"d414c500-f227-4efb-aabd-f7246cca81bc","system_id":"levelo_inurba_marseille","lat":43.23057,"lon":5.35474,"is_reserved":false,"is_disabled":false,"rental_uris":{"android":"levelo://app?vid=d414c500-f227-4efb-aabd-f7246cca81bc","ios":"levelo://app?vid=d414c500-f227-4efb-aabd-f7246cca81bc"},"vehicle_type_id":"4","last_reported":1740226482,"current_range_meters":8000,"station_id":"cpo3342slgdg3j2ifvpg","pricing_plan_id":"cebpf4jnsgd1na2vs0mg"},{"bike_id":"df1db48a-1398-45e7-b182-2264485216fa","system_id":"levelo_inurba_marseille","lat":43.2454,"lon":5.39514,"is_reserved":false,"is_disabled":false,"rental_uris":{"android":"levelo://app?vid=df1db48a-1398-45e7-b182-2264485216fa","ios":"levelo://app?vid=df1db48a-1398-45e7-b182-2264485216fa"},"vehicle_type_id":"4","last_reported":1740226482,"current_range_meters":8000,"station_id":"ce4bhlp2rcd13ifvqgjg","pricing_plan_id":"cebpf4jnsgd1na2vs0mg"},{"bike_id":"742bc5a2-3444-4e4e-844a-5248e8280f90","system_id":"levelo_inurba_marseille","lat":43.25087,"lon":5.39516,"is_reserved":false,"is_disabled":false,"rental_uris":{"android":"levelo://app?vid=742bc5a2-3444-4e4e-844a-5248e8280f90","ios":"levelo://app?vid=742bc5a2-3444-4e4e-844a-5248e8280f90"},"vehicle_type_id":"4","last_reported":1740226482,"current_range_meters":8000,"station_id":"ce4bhm12rcd13ifvqgkg","pricing_plan_id":"cebpf4jnsgd1na2vs0mg"},{"bike_id":"6aafab1c-b1fd-4bbd-a318-89366250d32c","system_id":"levelo_inurba_marseille","lat":43.30354,"lon":5.41828,"is_reserved":false,"is_disabled":false,"rental_uris":{"android":"levelo://app?vid=6aafab1c-b1fd-4bbd-a318-89366250d32c","ios":"levelo://app?vid=6aafab1c-b1fd-4bbd-a318-89366250d32c"},"vehicle_type_id":"4","last_reported":1740226482,"current_range_meters":8400,"station_id":"ce4bhop2rcd13ifvqh7g","pricing_plan_id":"cebpf4jnsgd1na2vs0mg"},{"bike_id":"825e916a-abfb-4565-83f9-25cf570e6f88","system_id":"levelo_inurba_marseille","lat":43.29053,"lon":5.38637,"is_reserved":false,"is_disabled":false,"rental_uris":{"android":"levelo://app?vid=825e916a-abfb-4565-83f9-25cf570e6f88","ios":"levelo://app?vid=825e916a-abfb-4565-83f9-25cf570e6f88"},"vehicle_type_id":"4","last_reported":1740226482,"current_range_meters":8400,"station_id":"ce4bh4p2rcd13ifvqe0g","pricing_plan_id":"cebpf4jnsgd1na2vs0mg"},{"bike_id":"7195e16d-3552-41a0-a438-b790dc48cb5a","system_id":"levelo_inurba_marseille","lat":43.337444,"lon":5.374475,"is_reserved":false,"is_disabled":true,"rental_uris":{"android":"levelo://app?vid=7195e16d-3552-41a0-a438-b790dc48cb5a","ios":"levelo://app?vid=7195e16d-3552-41a0-a438-b790dc48cb5a"},"vehicle_type_id":"4","last_reported":1740226482,"current_range_meters":8400,"station_id":"","pricing_plan_id":"cebpf4jnsgd1na2vs0mg"},{"bike_id":"943382b3-3ac2-40b7-baae-7ca1aec3b930","system_id":"levelo_inurba_marseille","lat":43.28163,"lon":5.42649,"is_reserved":false,"is_disabled":false,"rental_uris":{"android":"levelo://app?vid=943382b3-3ac2-40b7-baae-7ca1aec3b930","ios":"levelo://app?vid=943382b3-3ac2-40b7-baae-7ca1aec3b930"},"vehicle_type_id":"4","last_reported":1740226482,"current_range_meters":8400,"station_id":"ce4bhnh2rcd13ifvqgug","pricing_plan_id":"cebpf4jnsgd1na2vs0mg"},{"bike_id":"89563a26-7881-4a62-8f9e-a7769f24651b","system_id":"levelo_inurba_marseille","lat":43.23163,"lon":5.43706,"is_reserved":false,"is_disabled":false,"rental_uris":{"android":"levelo://app?vid=89563a26-7881-4a62-8f9e-a7769f24651b","ios":"levelo://app?vid=89563a26-7881-4a62-8f9e-a7769f24651b"},"vehicle_type_id":"4","last_reported":1740226482,"current_range_meters":8400,"station_id":"ce4bhmp2rcd13ifvqgog","pricing_plan_id":"cebpf4jnsgd1na2vs0mg"},{"bike_id":"e501be99-a171-4e91-9e5b-ac547e4c06f2","system_id":"levelo_inurba_marseille","lat":43.23193,"lon":5.35551,"is_reserved":false,"is_disabled":false,"rental_uris":{"android":"levelo://app?vid=e501be99-a171-4e91-9e5b-ac547e4c06f2","ios":"levelo://app?vid=e501be99-a171-4e91-9e5b-ac547e4c06f2"},"vehicle_type_id":"4","last_reported":1740226482,"current_range_meters":8400,"station_id":"ce4bhu92rcd13ifvqi70","pricing_plan_id":"cebpf4jnsgd1na2vs0mg"},{"bike_id":"74ac813a-1522-49ee-b2f5-57ec4a354290","system_id":"levelo_inurba_marseille","lat":43.2929,"lon":5.40135,"is_reserved":false,"is_disabled":false,"rental_uris":{"android":"levelo://app?vid=74ac813a-1522-49ee-b2f5-57ec4a354290","ios":"levelo://app?vid=74ac813a-1522-49ee-b2f5-57ec4a354290"},"vehicle_type_id":"4","last_reported":1740226482,"current_range_meters":8400,"station_id":"ce4bh312rcd13ifvqdk0","pricing_plan_id":"cebpf4jnsgd1na2vs0mg"},{"bike_id":"35700690-ccd3-438b-8dec-89a1ece1d462","system_id":"levelo_inurba_marseille","lat":43.23142,"lon":5.43721,"is_reserved":false,"is_disabled":false,"rental_uris":{"android":"levelo://app?vid=35700690-ccd3-438b-8dec-89a1ece1d462","ios":"levelo://app?vid=35700690-ccd3-438b-8dec-89a1ece1d462"},"vehicle_type_id":"4","last_reported":1740226482,"current_range_meters":8800,"station_id":"ce4bhmp2rcd13ifvqgog","pricing_plan_id":"cebpf4jnsgd1na2vs0mg"},{"bike_id":"72e1ae88-f29c-4889-a9db-86ca91311767","system_id":"levelo_inurba_marseille","lat":43.29536,"lon":5.3904,"is_reserved":false,"is_disabled":false,"rental_uris":{"android":"levelo://app?vid=72e1ae88-f29c-4889-a9db-86ca91311767","ios":"levelo://app?vid=72e1ae88-f29c-4889-a9db-86ca91311767"},"vehicle_type_id":"4","last_reported":1740226482,"current_range_meters":8800,"station_id":"ce4bh3p2rcd13ifvqdp0","pricing_plan_id":"cebpf4jnsgd1na2vs0mg"},{"bike_id":"1417e4e7-43a7-4fc8-9a0e-c9a7fa3ebfb7","system_id":"levelo_inurba_marseille","lat":43.30124,"lon":5.398619,"is_reserved":false,"is_disabled":false,"rental_uris":{"android":"levelo://app?vid=1417e4e7-43a7-4fc8-9a0e-c9a7fa3ebfb7","ios":"levelo://app?vid=1417e4e7-43a7-4fc8-9a0e-c9a7fa3ebfb7"},"vehicle_type_id":"4","last_reported":1740226482,"current_range_meters":8800,"station_id":"ce4bh4p2rcd13ifvqe0g","pricing_plan_id":"cebpf4jnsgd1na2vs0mg"},{"bike_id":"ab46b189-6bae-4129-a7fd-10b3ccd5a48e","system_id":"levelo_inurba_marseille","lat":43.27201,"lon":5.4002,"is_reserved":false,"is_disabled":false,"rental_uris":{"android":"levelo://app?vid=ab46b189-6bae-4129-a7fd-10b3ccd5a48e","ios":"levelo://app?vid=ab46b189-6bae-4129-a7fd-10b3ccd5a48e"},"vehicle_type_id":"4","last_reported":1740226482,"current_range_meters":8800,"station_id":"","pricing_plan_id":"cebpf4jnsgd1na2vs0mg"},{"bike_id":"9449bcb1-c4f9-46f2-b7b5-a95c2f3f4182","system_id":"levelo_inurba_marseille","lat":43.29537,"lon":5.38542,"is_reserved":false,"is_disabled":false,"rental_uris":{"android":"levelo://app?vid=9449bcb1-c4f9-46f2-b7b5-a95c2f3f4182","ios":"levelo://app?vid=9449bcb1-c4f9-46f2-b7b5-a95c2f3f4182"},"vehicle_type_id":"4","last_reported":1740226482,"current_range_meters":7200,"station_id":"ce4bgih2rcd13ifvqba0","pricing_plan_id":"cebpf4jnsgd1na2vs0mg"},{"bike_id":"32cb548e-3f9c-45c3-8ca4-71e2dff11160","system_id":"levelo_inurba_marseille","lat":43.26554,"lon":5.39032,"is_reserved":false,"is_disabled":false,"rental_uris":{"android":"levelo://app?vid=32cb548e-3f9c-45c3-8ca4-71e2dff11160","ios":"levelo://app?vid=32cb548e-3f9c-45c3-8ca4-71e2dff11160"},"vehicle_type_id":"4","last_reported":1740226482,"current_range_meters":8800,"station_id":"ce4bhe12rcd13ifvqf30","pricing_plan_id":"cebpf4jnsgd1na2vs0mg"},{"bike_id":"827ec7e5-1ae5-45b8-890e-b6822ea9bc11","system_id":"levelo_inurba_marseille","lat":43.23963,"lon":5.36632,"is_reserved":false,"is_disabled":false,"rental_uris":{"android":"levelo://app?vid=827ec7e5-1ae5-45b8-890e-b6822ea9bc11","ios":"levelo://app?vid=827ec7e5-1ae5-45b8-890e-b6822ea9bc11"},"vehicle_type_id":"4","last_reported":1740226482,"current_range_meters":8800,"station_id":"ce4bhi12rcd13ifvqfp0","pricing_plan_id":"cebpf4jnsgd1na2vs0mg"},{"bike_id":"78b97302-9c59-42d1-a13f-5e8c85841d45","system_id":"levelo_inurba_marseille","lat":43.2656,"lon":5.39028,"is_reserved":false,"is_disabled":false,"rental_uris":{"android":"levelo://app?vid=78b97302-9c59-42d1-a13f-5e8c85841d45","ios":"levelo://app?vid=78b97302-9c59-42d1-a13f-5e8c85841d45"},"vehicle_type_id":"4","last_reported":1740226482,"current_range_meters":8800,"station_id":"ce4bhe12rcd13ifvqf30","pricing_plan_id":"cebpf4jnsgd1na2vs0mg"},{"bike_id":"16cf26f5-6982-409e-9a44-cb4127560494","system_id":"levelo_inurba_marseille","lat":43.29042,"lon":5.39958,"is_reserved":false,"is_disabled":false,"rental_uris":{"android":"levelo://app?vid=16cf26f5-6982-409e-9a44-cb4127560494","ios":"levelo://app?vid=16cf26f5-6982-409e-9a44-cb4127560494"},"vehicle_type_id":"4","last_reported":1740226482,"current_range_meters":8800,"station_id":"ce4bh392rcd13ifvqdm0","pricing_plan_id":"cebpf4jnsgd1na2vs0mg"},{"bike_id":"d0f03354-bf33-4e65-b531-a271b4c0d5aa","system_id":"levelo_inurba_marseille","lat":43.29983,"lon":5.37181,"is_reserved":false,"is_disabled":false,"rental_uris":{"android":"levelo://app?vid=d0f03354-bf33-4e65-b531-a271b4c0d5aa","ios":"levelo://app?vid=d0f03354-bf33-4e65-b531-a271b4c0d5aa"},"vehicle_type_id":"4","last_reported":1740226482,"current_range_meters":9200,"station_id":"ce4bgr92rcd13ifvqc7g","pricing_plan_id":"cebpf4jnsgd1na2vs0mg"},{"bike_id":"2d1d29e6-6d6c-445f-8ab4-f0d2224f7c35","system_id":"levelo_inurba_marseille","lat":43.28156,"lon":5.42637,"is_reserved":false,"is_disabled":false,"rental_uris":{"android":"levelo://app?vid=2d1d29e6-6d6c-445f-8ab4-f0d2224f7c35","ios":"levelo://app?vid=2d1d29e6-6d6c-445f-8ab4-f0d2224f7c35"},"vehicle_type_id":"4","last_reported":1740226482,"current_range_meters":9200,"station_id":"ce4bhnh2rcd13ifvqgug","pricing_plan_id":"cebpf4jnsgd1na2vs0mg"},{"bike_id":"a404738f-d592-4923-bb7f-8cad6bf8fec4","system_id":"levelo_inurba_marseille","lat":43.27969,"lon":5.38514,"is_reserved":false,"is_disabled":false,"rental_uris":{"android":"levelo://app?vid=a404738f-d592-4923-bb7f-8cad6bf8fec4","ios":"levelo://app?vid=a404738f-d592-4923-bb7f-8cad6bf8fec4"},"vehicle_type_id":"4","last_reported":1740226482,"current_range_meters":9600,"station_id":"","pricing_plan_id":"cebpf4jnsgd1na2vs0mg"},{"bike_id":"6b04f75f-fb5c-42fe-a63b-5e82daec1ece","system_id":"levelo_inurba_marseille","lat":43.25573,"lon":5.38245,"is_reserved":false,"is_disabled":false,"rental_uris":{"android":"levelo://app?vid=6b04f75f-fb5c-42fe-a63b-5e82daec1ece","ios":"levelo://app?vid=6b04f75f-fb5c-42fe-a63b-5e82daec1ece"},"vehicle_type_id":"4","last_reported":1740226482,"current_range_meters":9200,"station_id":"ce4bhih2rcd13ifvqfs0","pricing_plan_id":"cebpf4jnsgd1na2vs0mg"},{"bike_id":"af1107fa-d68e-4f88-b9a9-b5e22ec9744f","system_id":"levelo_inurba_marseille","lat":43.23035,"lon":5.35572,"is_reserved":false,"is_disabled":false,"rental_uris":{"android":"levelo://app?vid=af1107fa-d68e-4f88-b9a9-b5e22ec9744f","ios":"levelo://app?vid=af1107fa-d68e-4f88-b9a9-b5e22ec9744f"},"vehicle_type_id":"4","last_reported":1740226482,"current_range_meters":9200,"station_id":"cpo3342slgdg3j2ifvpg","pricing_plan_id":"cebpf4jnsgd1na2vs0mg"},{"bike_id":"f32fe46d-1120-4c2c-97c5-cdbf2de4ccec","system_id":"levelo_inurba_marseille","lat":43.25939,"lon":5.4088,"is_reserved":false,"is_disabled":false,"rental_uris":{"android":"levelo://app?vid=f32fe46d-1120-4c2c-97c5-cdbf2de4ccec","ios":"levelo://app?vid=f32fe46d-1120-4c2c-97c5-cdbf2de4ccec"},"vehicle_type_id":"4","last_reported":1740226482,"current_range_meters":9600,"station_id":"ce4bhm92rcd13ifvqglg","pricing_plan_id":"cebpf4jnsgd1na2vs0mg"},{"bike_id":"9cbaafc4-f361-40a8-b117-163a763fa2c0","system_id":"levelo_inurba_marseille","lat":43.29522,"lon":5.39069,"is_reserved":false,"is_disabled":false,"rental_uris":{"android":"levelo://app?vid=9cbaafc4-f361-40a8-b117-163a763fa2c0","ios":"levelo://app?vid=9cbaafc4-f361-40a8-b117-163a763fa2c0"},"vehicle_type_id":"4","last_reported":1740226482,"current_range_meters":12400,"station_id":"ce4bh3p2rcd13ifvqdp0","pricing_plan_id":"cebpf4jnsgd1na2vs0mg"},{"bike_id":"228d0504-52c7-4dc2-9a99-1f3504f4214c","system_id":"levelo_inurba_marseille","lat":43.30311,"lon":5.36892,"is_reserved":false,"is_disabled":false,"rental_uris":{"android":"levelo://app?vid=228d0504-52c7-4dc2-9a99-1f3504f4214c","ios":"levelo://app?vid=228d0504-52c7-4dc2-9a99-1f3504f4214c"},"vehicle_type_id":"4","last_reported":1740226482,"current_range_meters":9600,"station_id":"ce4bgqh2rcd13ifvqc5g","pricing_plan_id":"cebpf4jnsgd1na2vs0mg"},{"bike_id":"e0a27bbe-1017-4673-a93c-ffab63167e8c","system_id":"levelo_inurba_marseille","lat":43.2457,"lon":5.39524,"is_reserved":false,"is_disabled":false,"rental_uris":{"android":"levelo://app?vid=e0a27bbe-1017-4673-a93c-ffab63167e8c","ios":"levelo://app?vid=e0a27bbe-1017-4673-a93c-ffab63167e8c"},"vehicle_type_id":"4","last_reported":1740226482,"current_range_meters":9600,"station_id":"ce4bhlp2rcd13ifvqgjg","pricing_plan_id":"cebpf4jnsgd1na2vs0mg"},{"bike_id":"22684c0d-1642-4ad7-bf7c-d737c6475bc5","system_id":"levelo_inurba_marseille","lat":43.2587,"lon":5.39895,"is_reserved":false,"is_disabled":false,"rental_uris":{"android":"levelo://app?vid=22684c0d-1642-4ad7-bf7c-d737c6475bc5","ios":"levelo://app?vid=22684c0d-1642-4ad7-bf7c-d737c6475bc5"},"vehicle_type_id":"4","last_reported":1740226482,"current_range_meters":9600,"station_id":"ce4bhl92rcd13ifvqghg","pricing_plan_id":"cebpf4jnsgd1na2vs0mg"},{"bike_id":"9c837add-69f9-4c5a-9885-1a985fee68b1","system_id":"levelo_inurba_marseille","lat":43.29629,"lon":5.37717,"is_reserved":false,"is_disabled":false,"rental_uris":{"android":"levelo://app?vid=9c837add-69f9-4c5a-9885-1a985fee68b1","ios":"levelo://app?vid=9c837add-69f9-4c5a-9885-1a985fee68b1"},"vehicle_type_id":"4","last_reported":1740226482,"current_range_meters":9600,"station_id":"ce4bgi92rcd13ifvqb90","pricing_plan_id":"cebpf4jnsgd1na2vs0mg"},{"bike_id":"0a1ff220-1567-478f-8a1f-36ccb8c618e9","system_id":"levelo_inurba_marseille","lat":43.23144,"lon":5.43698,"is_reserved":false,"is_disabled":false,"rental_uris":{"android":"levelo://app?vid=0a1ff220-1567-478f-8a1f-36ccb8c618e9","ios":"levelo://app?vid=0a1ff220-1567-478f-8a1f-36ccb8c618e9"},"vehicle_type_id":"4","last_reported":1740226482,"current_range_meters":10000,"station_id":"ce4bhmp2rcd13ifvqgog","pricing_plan_id":"cebpf4jnsgd1na2vs0mg"},{"bike_id":"fba5f2b8-e923-4093-8bc9-d0df144f9996","system_id":"levelo_inurba_marseille","lat":43.3132,"lon":5.396995,"is_reserved":false,"is_disabled":false,"rental_uris":{"android":"levelo://app?vid=fba5f2b8-e923-4093-8bc9-d0df144f9996","ios":"levelo://app?vid=fba5f2b8-e923-4093-8bc9-d0df144f9996"},"vehicle_type_id":"4","last_reported":1740226482,"current_range_meters":10000,"station_id":"ce4bgvp2rcd13ifvqcu0","pricing_plan_id":"cebpf4jnsgd1na2vs0mg"},{"bike_id":"78ccc1b5-e05d-4c30-bc5b-473f9d97e2cd","system_id":"levelo_inurba_marseille","lat":43.30106,"lon":5.37796,"is_reserved":false,"is_disabled":false,"rental_uris":{"android":"levelo://app?vid=78ccc1b5-e05d-4c30-bc5b-473f9d97e2cd","ios":"levelo://app?vid=78ccc1b5-e05d-4c30-bc5b-473f9d97e2cd"},"vehicle_type_id":"4","last_reported":1740226482,"current_range_meters":10000,"station_id":"","pricing_plan_id":"cebpf4jnsgd1na2vs0mg"},{"bike_id":"812f52e5-c611-4ad3-9e33-9d66033c735c","system_id":"levelo_inurba_marseille","lat":43.23151,"lon":5.43712,"is_reserved":false,"is_disabled":false,"rental_uris":{"android":"levelo://app?vid=812f52e5-c611-4ad3-9e33-9d66033c735c","ios":"levelo://app?vid=812f52e5-c611-4ad3-9e33-9d66033c735c"},"vehicle_type_id":"4","last_reported":1740226482,"current_range_meters":10000,"station_id":"ce4bhmp2rcd13ifvqgog","pricing_plan_id":"cebpf4jnsgd1na2vs0mg"},{"bike_id":"5ef943db-98e7-4b7f-a3fb-1cc351efdb57","system_id":"levelo_inurba_marseille","lat":43.30166,"lon":5.38084,"is_reserved":false,"is_disabled":false,"rental_uris":{"android":"levelo://app?vid=5ef943db-98e7-4b7f-a3fb-1cc351efdb57","ios":"levelo://app?vid=5ef943db-98e7-4b7f-a3fb-1cc351efdb57"},"vehicle_type_id":"4","last_reported":1740226482,"current_range_meters":10000,"station_id":"ce4bgjp2rcd13ifvqbh0","pricing_plan_id":"cebpf4jnsgd1na2vs0mg"},{"bike_id":"14c02d89-ed08-4e01-b80b-1d90439696c8","system_id":"levelo_inurba_marseille","lat":43.23198,"lon":5.35558,"is_reserved":false,"is_disabled":false,"rental_uris":{"android":"levelo://app?vid=14c02d89-ed08-4e01-b80b-1d90439696c8","ios":"levelo://app?vid=14c02d89-ed08-4e01-b80b-1d90439696c8"},"vehicle_type_id":"4","last_reported":1740226482,"current_range_meters":10000,"station_id":"ce4bhu92rcd13ifvqi70","pricing_plan_id":"cebpf4jnsgd1na2vs0mg"},{"bike_id":"35331f57-b06c-41f1-8224-4eb3668702eb","system_id":"levelo_inurba_marseille","lat":43.23046,"lon":5.35501,"is_reserved":false,"is_disabled":false,"rental_uris":{"android":"levelo://app?vid=35331f57-b06c-41f1-8224-4eb3668702eb","ios":"levelo://app?vid=35331f57-b06c-41f1-8224-4eb3668702eb"},"vehicle_type_id":"4","last_reported":1740226482,"current_range_meters":10000,"station_id":"cpo3342slgdg3j2ifvpg","pricing_plan_id":"cebpf4jnsgd1na2vs0mg"},{"bike_id":"b985ad1f-1942-453b-b5eb-7462cafd1e31","system_id":"levelo_inurba_marseille","lat":43.23187,"lon":5.35549,"is_reserved":false,"is_disabled":false,"rental_uris":{"android":"levelo://app?vid=b985ad1f-1942-453b-b5eb-7462cafd1e31","ios":"levelo://app?vid=b985ad1f-1942-453b-b5eb-7462cafd1e31"},"vehicle_type_id":"4","last_reported":1740226482,"current_range_meters":10000,"station_id":"ce4bhu92rcd13ifvqi70","pricing_plan_id":"cebpf4jnsgd1na2vs0mg"},{"bike_id":"d312ce1d-aae9-4c62-a1e8-38c15d95735a","system_id":"levelo_inurba_marseille","lat":43.22946,"lon":5.35405,"is_reserved":false,"is_disabled":false,"rental_uris":{"android":"levelo://app?vid=d312ce1d-aae9-4c62-a1e8-38c15d95735a","ios":"levelo://app?vid=d312ce1d-aae9-4c62-a1e8-38c15d95735a"},"vehicle_type_id":"4","last_reported":1740226482,"current_range_meters":10800,"station_id":"cpo3532slgdg3j2ikp40","pricing_plan_id":"cebpf4jnsgd1na2vs0mg"},{"bike_id":"e3df1c8b-a73b-4db2-a942-72fc507a1536","system_id":"levelo_inurba_marseille","lat":43.30153,"lon":5.37425,"is_reserved":false,"is_disabled":false,"rental_uris":{"android":"levelo://app?vid=e3df1c8b-a73b-4db2-a942-72fc507a1536","ios":"levelo://app?vid=e3df1c8b-a73b-4db2-a942-72fc507a1536"},"vehicle_type_id":"4","last_reported":1740226482,"current_range_meters":10800,"station_id":"ce4bgs92rcd13ifvqcc0","pricing_plan_id":"cebpf4jnsgd1na2vs0mg"},{"bike_id":"6c2ab6e6-2d04-4225-b04d-1f709ec68055","system_id":"levelo_inurba_marseille","lat":43.22937,"lon":5.35349,"is_reserved":false,"is_disabled":false,"rental_uris":{"android":"levelo://app?vid=6c2ab6e6-2d04-4225-b04d-1f709ec68055","ios":"levelo://app?vid=6c2ab6e6-2d04-4225-b04d-1f709ec68055"},"vehicle_type_id":"4","last_reported":1740226482,"current_range_meters":10800,"station_id":"cpo3532slgdg3j2ikp40","pricing_plan_id":"cebpf4jnsgd1na2vs0mg"},{"bike_id":"6e274d9f-89d8-4a25-a4f3-c30449f9d08e","system_id":"levelo_inurba_marseille","lat":43.25728,"lon":5.41116,"is_reserved":false,"is_disabled":false,"rental_uris":{"android":"levelo://app?vid=6e274d9f-89d8-4a25-a4f3-c30449f9d08e","ios":"levelo://app?vid=6e274d9f-89d8-4a25-a4f3-c30449f9d08e"},"vehicle_type_id":"4","last_reported":1740226482,"current_range_meters":10800,"station_id":"ce4bhkp2rcd13ifvqgd0","pricing_plan_id":"cebpf4jnsgd1na2vs0mg"},{"bike_id":"a88b4534-cc43-4486-95b9-13918131b4b3","system_id":"levelo_inurba_marseille","lat":43.31756,"lon":5.39019,"is_reserved":false,"is_disabled":false,"rental_uris":{"android":"levelo://app?vid=a88b4534-cc43-4486-95b9-13918131b4b3","ios":"levelo://app?vid=a88b4534-cc43-4486-95b9-13918131b4b3"},"vehicle_type_id":"4","last_reported":1740226482,"current_range_meters":10800,"station_id":"ce4bhqp2rcd13ifvqhng","pricing_plan_id":"cebpf4jnsgd1na2vs0mg"},{"bike_id":"bebb1856-4413-4dea-8505-c90ab8a13984","system_id":"levelo_inurba_marseille","lat":43.2572,"lon":5.41112,"is_reserved":false,"is_disabled":false,"rental_uris":{"android":"levelo://app?vid=bebb1856-4413-4dea-8505-c90ab8a13984","ios":"levelo://app?vid=bebb1856-4413-4dea-8505-c90ab8a13984"},"vehicle_type_id":"4","last_reported":1740226482,"current_range_meters":10800,"station_id":"ce4bhkp2rcd13ifvqgd0","pricing_plan_id":"cebpf4jnsgd1na2vs0mg"},{"bike_id":"3c232bab-88ac-4592-9031-c21395fd8a78","system_id":"levelo_inurba_marseille","lat":43.32355,"lon":5.36731,"is_reserved":false,"is_disabled":false,"rental_uris":{"android":"levelo://app?vid=3c232bab-88ac-4592-9031-c21395fd8a78","ios":"levelo://app?vid=3c232bab-88ac-4592-9031-c21395fd8a78"},"vehicle_type_id":"4","last_reported":1740226482,"current_range_meters":11600,"station_id":"ce4bhsh2rcd13ifvqi2g","pricing_plan_id":"cebpf4jnsgd1na2vs0mg"},{"bike_id":"8f19abeb-97a3-4bbb-b62b-ea2f1d6c09f3","system_id":"levelo_inurba_marseille","lat":43.25108,"lon":5.40326,"is_reserved":false,"is_disabled":false,"rental_uris":{"android":"levelo://app?vid=8f19abeb-97a3-4bbb-b62b-ea2f1d6c09f3","ios":"levelo://app?vid=8f19abeb-97a3-4bbb-b62b-ea2f1d6c09f3"},"vehicle_type_id":"4","last_reported":1740226482,"current_range_meters":11600,"station_id":"ce4bhlh2rcd13ifvqgig","pricing_plan_id":"cebpf4jnsgd1na2vs0mg"},{"bike_id":"7e976ceb-5f58-4d17-9c3e-edf6b69d6e1a","system_id":"levelo_inurba_marseille","lat":43.24533,"lon":5.39526,"is_reserved":false,"is_disabled":false,"rental_uris":{"android":"levelo://app?vid=7e976ceb-5f58-4d17-9c3e-edf6b69d6e1a","ios":"levelo://app?vid=7e976ceb-5f58-4d17-9c3e-edf6b69d6e1a"},"vehicle_type_id":"4","last_reported":1740226482,"current_range_meters":11600,"station_id":"ce4bhlp2rcd13ifvqgjg","pricing_plan_id":"cebpf4jnsgd1na2vs0mg"},{"bike_id":"6a80a14f-f4ba-4b48-bc6a-0faaa52b3548","system_id":"levelo_inurba_marseille","lat":43.2848,"lon":5.35877,"is_reserved":false,"is_disabled":false,"rental_uris":{"android":"levelo://app?vid=6a80a14f-f4ba-4b48-bc6a-0faaa52b3548","ios":"levelo://app?vid=6a80a14f-f4ba-4b48-bc6a-0faaa52b3548"},"vehicle_type_id":"4","last_reported":1740226482,"current_range_meters":12000,"station_id":"ce4bhah2rcd13ifvqei0","pricing_plan_id":"cebpf4jnsgd1na2vs0mg"},{"bike_id":"2bf907de-ee23-4215-8e53-33484d515c99","system_id":"levelo_inurba_marseille","lat":43.29968,"lon":5.40097,"is_reserved":false,"is_disabled":false,"rental_uris":{"android":"levelo://app?vid=2bf907de-ee23-4215-8e53-33484d515c99","ios":"levelo://app?vid=2bf907de-ee23-4215-8e53-33484d515c99"},"vehicle_type_id":"4","last_reported":1740226482,"current_range_meters":12000,"station_id":"ce4bh0h2rcd13ifvqd40","pricing_plan_id":"cebpf4jnsgd1na2vs0mg"},{"bike_id":"d1097f6e-462a-4f6c-b2ed-5ea292051a9c","system_id":"levelo_inurba_marseille","lat":43.2903,"lon":5.38627,"is_reserved":false,"is_disabled":false,"rental_uris":{"android":"levelo://app?vid=d1097f6e-462a-4f6c-b2ed-5ea292051a9c","ios":"levelo://app?vid=d1097f6e-462a-4f6c-b2ed-5ea292051a9c"},"vehicle_type_id":"4","last_reported":1740226482,"current_range_meters":12000,"station_id":"ce4bh4p2rcd13ifvqe0g","pricing_plan_id":"cebpf4jnsgd1na2vs0mg"},{"bike_id":"06616ef2-399b-440b-97c3-c03a16ffe436","system_id":"levelo_inurba_marseille","lat":43.29539,"lon":5.39046,"is_reserved":false,"is_disabled":true,"rental_uris":{"android":"levelo://app?vid=06616ef2-399b-440b-97c3-c03a16ffe436","ios":"levelo://app?vid=06616ef2-399b-440b-97c3-c03a16ffe436"},"vehicle_type_id":"4","last_reported":1740226482,"current_range_meters":12000,"station_id":"ce4bh3p2rcd13ifvqdp0","pricing_plan_id":"cebpf4jnsgd1na2vs0mg"},{"bike_id":"4d1abb98-f4a9-49cc-b1b0-aace543e06c0","system_id":"levelo_inurba_marseille","lat":43.24646,"lon":5.38939,"is_reserved":false,"is_disabled":false,"rental_uris":{"android":"levelo://app?vid=4d1abb98-f4a9-49cc-b1b0-aace543e06c0","ios":"levelo://app?vid=4d1abb98-f4a9-49cc-b1b0-aace543e06c0"},"vehicle_type_id":"4","last_reported":1740226482,"current_range_meters":12000,"station_id":"ce4bhg12rcd13ifvqf60","pricing_plan_id":"cebpf4jnsgd1na2vs0mg"},{"bike_id":"fc719a48-4f02-4ff0-a0b0-5867ff99caf1","system_id":"levelo_inurba_marseille","lat":43.30423,"lon":5.41265,"is_reserved":false,"is_disabled":false,"rental_uris":{"android":"levelo://app?vid=fc719a48-4f02-4ff0-a0b0-5867ff99caf1","ios":"levelo://app?vid=fc719a48-4f02-4ff0-a0b0-5867ff99caf1"},"vehicle_type_id":"4","last_reported":1740226482,"current_range_meters":12400,"station_id":"ce4bhop2rcd13ifvqh8g","pricing_plan_id":"cebpf4jnsgd1na2vs0mg"},{"bike_id":"e95cb89f-0fcd-4c47-8a11-4ed18aff8aa7","system_id":"levelo_inurba_marseille","lat":43.24183,"lon":5.39724,"is_reserved":false,"is_disabled":false,"rental_uris":{"android":"levelo://app?vid=e95cb89f-0fcd-4c47-8a11-4ed18aff8aa7","ios":"levelo://app?vid=e95cb89f-0fcd-4c47-8a11-4ed18aff8aa7"},"vehicle_type_id":"4","last_reported":1740226482,"current_range_meters":9600,"station_id":"ce4bhn12rcd13ifvqgpg","pricing_plan_id":"cebpf4jnsgd1na2vs0mg"},{"bike_id":"6c49a40f-3792-4048-873d-fb2685080d3d","system_id":"levelo_inurba_marseille","lat":43.27488,"lon":5.42462,"is_reserved":false,"is_disabled":false,"rental_uris":{"android":"levelo://app?vid=6c49a40f-3792-4048-873d-fb2685080d3d","ios":"levelo://app?vid=6c49a40f-3792-4048-873d-fb2685080d3d"},"vehicle_type_id":"4","last_reported":1740226482,"current_range_meters":12400,"station_id":"ce4bhn92rcd13ifvqgrg","pricing_plan_id":"cebpf4jnsgd1na2vs0mg"},{"bike_id":"b720df93-ac31-493b-8e16-f9e266f23268","system_id":"levelo_inurba_marseille","lat":43.292695,"lon":5.401435,"is_reserved":false,"is_disabled":false,"rental_uris":{"android":"levelo://app?vid=b720df93-ac31-493b-8e16-f9e266f23268","ios":"levelo://app?vid=b720df93-ac31-493b-8e16-f9e266f23268"},"vehicle_type_id":"4","last_reported":1740226482,"current_range_meters":12400,"station_id":"ce4bh312rcd13ifvqdk0","pricing_plan_id":"cebpf4jnsgd1na2vs0mg"},{"bike_id":"7cbaade2-cbc7-4b50-8b01-c77f893939b7","system_id":"levelo_inurba_marseille","lat":43.3063,"lon":5.37204,"is_reserved":false,"is_disabled":false,"rental_uris":{"android":"levelo://app?vid=7cbaade2-cbc7-4b50-8b01-c77f893939b7","ios":"levelo://app?vid=7cbaade2-cbc7-4b50-8b01-c77f893939b7"},"vehicle_type_id":"4","last_reported":1740226482,"current_range_meters":12400,"station_id":"ce4bgqh2rcd13ifvqc4g","pricing_plan_id":"cebpf4jnsgd1na2vs0mg"},{"bike_id":"e8aa9107-fad9-4a62-b20f-9589c0228e4a","system_id":"levelo_inurba_marseille","lat":43.28675,"lon":5.3636,"is_reserved":false,"is_disabled":false,"rental_uris":{"android":"levelo://app?vid=e8aa9107-fad9-4a62-b20f-9589c0228e4a","ios":"levelo://app?vid=e8aa9107-fad9-4a62-b20f-9589c0228e4a"},"vehicle_type_id":"4","last_reported":1740226482,"current_range_meters":12800,"station_id":"ce4bhah2rcd13ifvqej0","pricing_plan_id":"cebpf4jnsgd1na2vs0mg"},{"bike_id":"1951b280-e8ac-4fa5-a3ef-806580107c2a","system_id":"levelo_inurba_marseille","lat":43.28156,"lon":5.4265,"is_reserved":false,"is_disabled":false,"rental_uris":{"android":"levelo://app?vid=1951b280-e8ac-4fa5-a3ef-806580107c2a","ios":"levelo://app?vid=1951b280-e8ac-4fa5-a3ef-806580107c2a"},"vehicle_type_id":"4","last_reported":1740226482,"current_range_meters":12800,"station_id":"ce4bhnh2rcd13ifvqgug","pricing_plan_id":"cebpf4jnsgd1na2vs0mg"},{"bike_id":"9e34ff94-4206-4d85-a9da-dab3dd759910","system_id":"levelo_inurba_marseille","lat":43.30421,"lon":5.41272,"is_reserved":false,"is_disabled":false,"rental_uris":{"android":"levelo://app?vid=9e34ff94-4206-4d85-a9da-dab3dd759910","ios":"levelo://app?vid=9e34ff94-4206-4d85-a9da-dab3dd759910"},"vehicle_type_id":"4","last_reported":1740226482,"current_range_meters":12800,"station_id":"ce4bhop2rcd13ifvqh8g","pricing_plan_id":"cebpf4jnsgd1na2vs0mg"},{"bike_id":"0b35ef10-1d1d-4e8a-949e-c3122c5e3874","system_id":"levelo_inurba_marseille","lat":43.23956,"lon":5.36635,"is_reserved":false,"is_disabled":false,"rental_uris":{"android":"levelo://app?vid=0b35ef10-1d1d-4e8a-949e-c3122c5e3874","ios":"levelo://app?vid=0b35ef10-1d1d-4e8a-949e-c3122c5e3874"},"vehicle_type_id":"4","last_reported":1740226482,"current_range_meters":12800,"station_id":"ce4bhi12rcd13ifvqfp0","pricing_plan_id":"cebpf4jnsgd1na2vs0mg"},{"bike_id":"fcababa2-c0eb-4157-98ef-ebc5d47a2977","system_id":"levelo_inurba_marseille","lat":43.23187,"lon":5.39985,"is_reserved":false,"is_disabled":false,"rental_uris":{"android":"levelo://app?vid=fcababa2-c0eb-4157-98ef-ebc5d47a2977","ios":"levelo://app?vid=fcababa2-c0eb-4157-98ef-ebc5d47a2977"},"vehicle_type_id":"4","last_reported":1740226482,"current_range_meters":12800,"station_id":"ce4bhn12rcd13ifvqgqg","pricing_plan_id":"cebpf4jnsgd1na2vs0mg"},{"bike_id":"519c0d90-c598-4074-9c80-d5e1565ff705","system_id":"levelo_inurba_marseille","lat":43.23065,"lon":5.35495,"is_reserved":false,"is_disabled":false,"rental_uris":{"android":"levelo://app?vid=519c0d90-c598-4074-9c80-d5e1565ff705","ios":"levelo://app?vid=519c0d90-c598-4074-9c80-d5e1565ff705"},"vehicle_type_id":"4","last_reported":1740226482,"current_range_meters":13600,"station_id":"cpo3342slgdg3j2ifvpg","pricing_plan_id":"cebpf4jnsgd1na2vs0mg"},{"bike_id":"d172db66-1492-4d6f-8c12-37d1a7c284eb","system_id":"levelo_inurba_marseille","lat":43.28422,"lon":5.34982,"is_reserved":false,"is_disabled":false,"rental_uris":{"android":"levelo://app?vid=d172db66-1492-4d6f-8c12-37d1a7c284eb","ios":"levelo://app?vid=d172db66-1492-4d6f-8c12-37d1a7c284eb"},"vehicle_type_id":"4","last_reported":1740226482,"current_range_meters":13600,"station_id":"ce4bhbh2rcd13ifvqepg","pricing_plan_id":"cebpf4jnsgd1na2vs0mg"},{"bike_id":"76e0b02d-227d-4a90-ab54-ff2e4217ec66","system_id":"levelo_inurba_marseille","lat":43.27064,"lon":5.40258,"is_reserved":false,"is_disabled":false,"rental_uris":{"android":"levelo://app?vid=76e0b02d-227d-4a90-ab54-ff2e4217ec66","ios":"levelo://app?vid=76e0b02d-227d-4a90-ab54-ff2e4217ec66"},"vehicle_type_id":"4","last_reported":1740226482,"current_range_meters":13600,"station_id":"ce4bhk92rcd13ifvqgc0","pricing_plan_id":"cebpf4jnsgd1na2vs0mg"},{"bike_id":"bcf1ae6e-4e1b-444e-9697-b12913b82e8f","system_id":"levelo_inurba_marseille","lat":43.26065,"lon":5.39395,"is_reserved":false,"is_disabled":false,"rental_uris":{"android":"levelo://app?vid=bcf1ae6e-4e1b-444e-9697-b12913b82e8f","ios":"levelo://app?vid=bcf1ae6e-4e1b-444e-9697-b12913b82e8f"},"vehicle_type_id":"4","last_reported":1740226482,"current_range_meters":14000,"station_id":"ce4bhh92rcd13ifvqfj0","pricing_plan_id":"cebpf4jnsgd1na2vs0mg"},{"bike_id":"eea04ce7-a1f1-4de3-a354-17ecdf02c9cb","system_id":"levelo_inurba_marseille","lat":43.26962,"lon":5.3862,"is_reserved":false,"is_disabled":false,"rental_uris":{"android":"levelo://app?vid=eea04ce7-a1f1-4de3-a354-17ecdf02c9cb","ios":"levelo://app?vid=eea04ce7-a1f1-4de3-a354-17ecdf02c9cb"},"vehicle_type_id":"4","last_reported":1740226482,"current_range_meters":14000,"station_id":"ce4bhh92rcd13ifvqfh0","pricing_plan_id":"cebpf4jnsgd1na2vs0mg"},{"bike_id":"5762e0fb-9adc-429a-8277-88ae5e2dd4be","system_id":"levelo_inurba_marseille","lat":43.30549,"lon":5.36553,"is_reserved":false,"is_disabled":false,"rental_uris":{"android":"levelo://app?vid=5762e0fb-9adc-429a-8277-88ae5e2dd4be","ios":"levelo://app?vid=5762e0fb-9adc-429a-8277-88ae5e2dd4be"},"vehicle_type_id":"4","last_reported":1740226482,"current_range_meters":14000,"station_id":"ce4bgs12rcd13ifvqcag","pricing_plan_id":"cebpf4jnsgd1na2vs0mg"},{"bike_id":"1b5b87c8-f96f-4740-8b60-bcc62c6e3f59","system_id":"levelo_inurba_marseille","lat":43.31419,"lon":5.38465,"is_reserved":false,"is_disabled":false,"rental_uris":{"android":"levelo://app?vid=1b5b87c8-f96f-4740-8b60-bcc62c6e3f59","ios":"levelo://app?vid=1b5b87c8-f96f-4740-8b60-bcc62c6e3f59"},"vehicle_type_id":"4","last_reported":1740226482,"current_range_meters":14000,"station_id":"","pricing_plan_id":"cebpf4jnsgd1na2vs0mg"},{"bike_id":"1b0d6542-f74d-4dd5-b78b-1cd1115ff80b","system_id":"levelo_inurba_marseille","lat":43.30627,"lon":5.37391,"is_reserved":false,"is_disabled":false,"rental_uris":{"android":"levelo://app?vid=1b0d6542-f74d-4dd5-b78b-1cd1115ff80b","ios":"levelo://app?vid=1b0d6542-f74d-4dd5-b78b-1cd1115ff80b"},"vehicle_type_id":"4","last_reported":1740226482,"current_range_meters":14400,"station_id":"","pricing_plan_id":"cebpf4jnsgd1na2vs0mg"},{"bike_id":"ecb792ba-e590-4d62-97cc-1e9b429064df","system_id":"levelo_inurba_marseille","lat":43.25012,"lon":5.38917,"is_reserved":false,"is_disabled":false,"rental_uris":{"android":"levelo://app?vid=ecb792ba-e590-4d62-97cc-1e9b429064df","ios":"levelo://app?vid=ecb792ba-e590-4d62-97cc-1e9b429064df"},"vehicle_type_id":"4","last_reported":1740226482,"current_range_meters":14400,"station_id":"ce4bhgp2rcd13ifvqfd0","pricing_plan_id":"cebpf4jnsgd1na2vs0mg"},{"bike_id":"1465a4f7-c5b6-4253-8fa1-ba53adc07b99","system_id":"levelo_inurba_marseille","lat":43.30527,"lon":5.36543,"is_reserved":false,"is_disabled":false,"rental_uris":{"android":"levelo://app?vid=1465a4f7-c5b6-4253-8fa1-ba53adc07b99","ios":"levelo://app?vid=1465a4f7-c5b6-4253-8fa1-ba53adc07b99"},"vehicle_type_id":"4","last_reported":1740226482,"current_range_meters":14400,"station_id":"ce4bgs12rcd13ifvqcag","pricing_plan_id":"cebpf4jnsgd1na2vs0mg"},{"bike_id":"5c103469-8c80-484d-acbb-ff16a8802bb7","system_id":"levelo_inurba_marseille","lat":43.27908,"lon":5.38012,"is_reserved":false,"is_disabled":false,"rental_uris":{"android":"levelo://app?vid=5c103469-8c80-484d-acbb-ff16a8802bb7","ios":"levelo://app?vid=5c103469-8c80-484d-acbb-ff16a8802bb7"},"vehicle_type_id":"4","last_reported":1740226482,"current_range_meters":14400,"station_id":"ce4bhf92rcd13ifvqf50","pricing_plan_id":"cebpf4jnsgd1na2vs0mg"},{"bike_id":"005e5eb8-39b1-40fe-bf10-36f6bd3cba88","system_id":"levelo_inurba_marseille","lat":43.28386,"lon":5.3863,"is_reserved":false,"is_disabled":false,"rental_uris":{"android":"levelo://app?vid=005e5eb8-39b1-40fe-bf10-36f6bd3cba88","ios":"levelo://app?vid=005e5eb8-39b1-40fe-bf10-36f6bd3cba88"},"vehicle_type_id":"4","last_reported":1740226482,"current_range_meters":14400,"station_id":"ce4bh492rcd13ifvqdvg","pricing_plan_id":"cebpf4jnsgd1na2vs0mg"},{"bike_id":"dab960d9-1ede-46dd-ade3-a5360c9021cf","system_id":"levelo_inurba_marseille","lat":43.23188,"lon":5.3555,"is_reserved":false,"is_disabled":false,"rental_uris":{"android":"levelo://app?vid=dab960d9-1ede-46dd-ade3-a5360c9021cf","ios":"levelo://app?vid=dab960d9-1ede-46dd-ade3-a5360c9021cf"},"vehicle_type_id":"4","last_reported":1740226482,"current_range_meters":14400,"station_id":"ce4bhu92rcd13ifvqi70","pricing_plan_id":"cebpf4jnsgd1na2vs0mg"},{"bike_id":"d88699b9-7a50-415c-9cdb-a35fdc00ed80","system_id":"levelo_inurba_marseille","lat":43.29934,"lon":5.37193,"is_reserved":false,"is_disabled":false,"rental_uris":{"android":"levelo://app?vid=d88699b9-7a50-415c-9cdb-a35fdc00ed80","ios":"levelo://app?vid=d88699b9-7a50-415c-9cdb-a35fdc00ed80"},"vehicle_type_id":"4","last_reported":1740226482,"current_range_meters":14400,"station_id":"","pricing_plan_id":"cebpf4jnsgd1na2vs0mg"},{"bike_id":"4d2709b6-cc23-4ab3-ae1c-e537c7d44f50","system_id":"levelo_inurba_marseille","lat":43.30465,"lon":5.37921,"is_reserved":false,"is_disabled":false,"rental_uris":{"android":"levelo://app?vid=4d2709b6-cc23-4ab3-ae1c-e537c7d44f50","ios":"levelo://app?vid=4d2709b6-cc23-4ab3-ae1c-e537c7d44f50"},"vehicle_type_id":"4","last_reported":1740226482,"current_range_meters":14000,"station_id":"ce4bgup2rcd13ifvqcn0","pricing_plan_id":"cebpf4jnsgd1na2vs0mg"},{"bike_id":"26bfe8f1-76dc-483e-ab4f-705ed1f7931c","system_id":"levelo_inurba_marseille","lat":43.29377,"lon":5.37844,"is_reserved":false,"is_disabled":true,"rental_uris":{"android":"levelo://app?vid=26bfe8f1-76dc-483e-ab4f-705ed1f7931c","ios":"levelo://app?vid=26bfe8f1-76dc-483e-ab4f-705ed1f7931c"},"vehicle_type_id":"4","last_reported":1740226482,"current_range_meters":14400,"station_id":"ce4bgjh2rcd13ifvqbf0","pricing_plan_id":"cebpf4jnsgd1na2vs0mg"},{"bike_id":"c3c1d469-a1b4-4abb-9974-701b7d97ca20","system_id":"levelo_inurba_marseille","lat":43.25581,"lon":5.38243,"is_reserved":false,"is_disabled":false,"rental_uris":{"android":"levelo://app?vid=c3c1d469-a1b4-4abb-9974-701b7d97ca20","ios":"levelo://app?vid=c3c1d469-a1b4-4abb-9974-701b7d97ca20"},"vehicle_type_id":"4","last_reported":1740226482,"current_range_meters":14400,"station_id":"ce4bhih2rcd13ifvqfs0","pricing_plan_id":"cebpf4jnsgd1na2vs0mg"},{"bike_id":"f5592fe8-7cfa-44ac-a7cd-ec1d59f7c7a5","system_id":"levelo_inurba_marseille","lat":43.29523,"lon":5.37501,"is_reserved":false,"is_disabled":false,"rental_uris":{"android":"levelo://app?vid=f5592fe8-7cfa-44ac-a7cd-ec1d59f7c7a5","ios":"levelo://app?vid=f5592fe8-7cfa-44ac-a7cd-ec1d59f7c7a5"},"vehicle_type_id":"4","last_reported":1740226482,"current_range_meters":14400,"station_id":"ce4bgkp2rcd13ifvqbmg","pricing_plan_id":"cebpf4jnsgd1na2vs0mg"},{"bike_id":"d5f86000-25e6-41fb-a0c5-4e4e0440556c","system_id":"levelo_inurba_marseille","lat":43.29616,"lon":5.37738,"is_reserved":false,"is_disabled":false,"rental_uris":{"android":"levelo://app?vid=d5f86000-25e6-41fb-a0c5-4e4e0440556c","ios":"levelo://app?vid=d5f86000-25e6-41fb-a0c5-4e4e0440556c"},"vehicle_type_id":"4","last_reported":1740226482,"current_range_meters":14800,"station_id":"ce4bgi92rcd13ifvqb90","pricing_plan_id":"cebpf4jnsgd1na2vs0mg"},{"bike_id":"ab8e4fa1-a748-4b68-9f46-2fdc2afb052f","system_id":"levelo_inurba_marseille","lat":43.25814,"lon":5.39407,"is_reserved":false,"is_disabled":false,"rental_uris":{"android":"levelo://app?vid=ab8e4fa1-a748-4b68-9f46-2fdc2afb052f","ios":"levelo://app?vid=ab8e4fa1-a748-4b68-9f46-2fdc2afb052f"},"vehicle_type_id":"4","last_reported":1740226482,"current_range_meters":14800,"station_id":"ce4bhip2rcd13ifvqft0","pricing_plan_id":"cebpf4jnsgd1na2vs0mg"},{"bike_id":"d5566d2e-78e8-488f-b3e7-c9c338cd491f","system_id":"levelo_inurba_marseille","lat":43.27497,"lon":5.42449,"is_reserved":false,"is_disabled":false,"rental_uris":{"android":"levelo://app?vid=d5566d2e-78e8-488f-b3e7-c9c338cd491f","ios":"levelo://app?vid=d5566d2e-78e8-488f-b3e7-c9c338cd491f"},"vehicle_type_id":"4","last_reported":1740226482,"current_range_meters":14800,"station_id":"ce4bhn92rcd13ifvqgrg","pricing_plan_id":"cebpf4jnsgd1na2vs0mg"},{"bike_id":"21bd2232-f4b5-4e20-b1ea-83e08ce72a6b","system_id":"levelo_inurba_marseille","lat":43.29309,"lon":5.37432,"is_reserved":false,"is_disabled":false,"rental_uris":{"android":"levelo://app?vid=21bd2232-f4b5-4e20-b1ea-83e08ce72a6b","ios":"levelo://app?vid=21bd2232-f4b5-4e20-b1ea-83e08ce72a6b"},"vehicle_type_id":"4","last_reported":1740226482,"current_range_meters":14800,"station_id":"ce4bgi12rcd13ifvqb70","pricing_plan_id":"cebpf4jnsgd1na2vs0mg"},{"bike_id":"02a649cd-5ac9-459e-815b-a5dea0d7cbd3","system_id":"levelo_inurba_marseille","lat":43.23195,"lon":5.35555,"is_reserved":false,"is_disabled":false,"rental_uris":{"android":"levelo://app?vid=02a649cd-5ac9-459e-815b-a5dea0d7cbd3","ios":"levelo://app?vid=02a649cd-5ac9-459e-815b-a5dea0d7cbd3"},"vehicle_type_id":"4","last_reported":1740226482,"current_range_meters":14800,"station_id":"ce4bhu92rcd13ifvqi70","pricing_plan_id":"cebpf4jnsgd1na2vs0mg"},{"bike_id":"88c1265a-d227-42d6-b325-ca073e5c1268","system_id":"levelo_inurba_marseille","lat":43.28408,"lon":5.37516,"is_reserved":false,"is_disabled":false,"rental_uris":{"android":"levelo://app?vid=88c1265a-d227-42d6-b325-ca073e5c1268","ios":"levelo://app?vid=88c1265a-d227-42d6-b325-ca073e5c1268"},"vehicle_type_id":"4","last_reported":1740226482,"current_range_meters":14800,"station_id":"ce4bh412rcd13ifvqds0","pricing_plan_id":"cebpf4jnsgd1na2vs0mg"},{"bike_id":"3b50d86c-2115-4dfa-a0ef-b70b70d2f2c0","system_id":"levelo_inurba_marseille","lat":43.279395,"lon":5.410395,"is_reserved":false,"is_disabled":false,"rental_uris":{"android":"levelo://app?vid=3b50d86c-2115-4dfa-a0ef-b70b70d2f2c0","ios":"levelo://app?vid=3b50d86c-2115-4dfa-a0ef-b70b70d2f2c0"},"vehicle_type_id":"4","last_reported":1740226482,"current_range_meters":14800,"station_id":"ce4bhnp2rcd13ifvqh0g","pricing_plan_id":"cebpf4jnsgd1na2vs0mg"},{"bike_id":"1f7411cd-9379-4bab-a8bc-411b928d8602","system_id":"levelo_inurba_marseille","lat":43.27528,"lon":5.42496,"is_reserved":false,"is_disabled":false,"rental_uris":{"android":"levelo://app?vid=1f7411cd-9379-4bab-a8bc-411b928d8602","ios":"levelo://app?vid=1f7411cd-9379-4bab-a8bc-411b928d8602"},"vehicle_type_id":"4","last_reported":1740226482,"current_range_meters":15200,"station_id":"ce4bhn92rcd13ifvqgrg","pricing_plan_id":"cebpf4jnsgd1na2vs0mg"},{"bike_id":"02445705-b28e-4bad-a8c7-119716b51b7b","system_id":"levelo_inurba_marseille","lat":43.30332,"lon":5.40431,"is_reserved":false,"is_disabled":false,"rental_uris":{"android":"levelo://app?vid=02445705-b28e-4bad-a8c7-119716b51b7b","ios":"levelo://app?vid=02445705-b28e-4bad-a8c7-119716b51b7b"},"vehicle_type_id":"4","last_reported":1740226482,"current_range_meters":15200,"station_id":"ce4bh012rcd13ifvqd10","pricing_plan_id":"cebpf4jnsgd1na2vs0mg"},{"bike_id":"39fafa72-92ff-4019-8970-a7828bc9d7b6","system_id":"levelo_inurba_marseille","lat":43.27809,"lon":5.40704,"is_reserved":false,"is_disabled":false,"rental_uris":{"android":"levelo://app?vid=39fafa72-92ff-4019-8970-a7828bc9d7b6","ios":"levelo://app?vid=39fafa72-92ff-4019-8970-a7828bc9d7b6"},"vehicle_type_id":"4","last_reported":1740226482,"current_range_meters":15200,"station_id":"ce4bhnh2rcd13ifvqgtg","pricing_plan_id":"cebpf4jnsgd1na2vs0mg"},{"bike_id":"f75b7c43-b1e9-419b-9e88-97af31d30220","system_id":"levelo_inurba_marseille","lat":43.23954,"lon":5.3665,"is_reserved":false,"is_disabled":false,"rental_uris":{"android":"levelo://app?vid=f75b7c43-b1e9-419b-9e88-97af31d30220","ios":"levelo://app?vid=f75b7c43-b1e9-419b-9e88-97af31d30220"},"vehicle_type_id":"4","last_reported":1740226482,"current_range_meters":15200,"station_id":"ce4bhi12rcd13ifvqfp0","pricing_plan_id":"cebpf4jnsgd1na2vs0mg"},{"bike_id":"81912218-3100-45be-9fbb-7837ba1bf9d1","system_id":"levelo_inurba_marseille","lat":43.29963,"lon":5.38488,"is_reserved":false,"is_disabled":false,"rental_uris":{"android":"levelo://app?vid=81912218-3100-45be-9fbb-7837ba1bf9d1","ios":"levelo://app?vid=81912218-3100-45be-9fbb-7837ba1bf9d1"},"vehicle_type_id":"4","last_reported":1740226482,"current_range_meters":15200,"station_id":"ce4bgj92rcd13ifvqbd0","pricing_plan_id":"cebpf4jnsgd1na2vs0mg"},{"bike_id":"cdf1a242-9251-48ae-8dec-f98d1728b34b","system_id":"levelo_inurba_marseille","lat":43.301923,"lon":5.366119,"is_reserved":false,"is_disabled":false,"rental_uris":{"android":"levelo://app?vid=cdf1a242-9251-48ae-8dec-f98d1728b34b","ios":"levelo://app?vid=cdf1a242-9251-48ae-8dec-f98d1728b34b"},"vehicle_type_id":"4","last_reported":1740226482,"current_range_meters":15200,"station_id":"ce4bhip2rcd13ifvqft0","pricing_plan_id":"cebpf4jnsgd1na2vs0mg"},{"bike_id":"60fee9d5-73c0-43e4-84ca-629643d08618","system_id":"levelo_inurba_marseille","lat":43.29601,"lon":5.37724,"is_reserved":false,"is_disabled":false,"rental_uris":{"android":"levelo://app?vid=60fee9d5-73c0-43e4-84ca-629643d08618","ios":"levelo://app?vid=60fee9d5-73c0-43e4-84ca-629643d08618"},"vehicle_type_id":"4","last_reported":1740226482,"current_range_meters":15200,"station_id":"ce4bgi92rcd13ifvqb90","pricing_plan_id":"cebpf4jnsgd1na2vs0mg"},{"bike_id":"02483a2e-913f-4381-83f5-138dd39aa8fe","system_id":"levelo_inurba_marseille","lat":43.28941,"lon":5.36645,"is_reserved":false,"is_disabled":false,"rental_uris":{"android":"levelo://app?vid=02483a2e-913f-4381-83f5-138dd39aa8fe","ios":"levelo://app?vid=02483a2e-913f-4381-83f5-138dd39aa8fe"},"vehicle_type_id":"4","last_reported":1740226482,"current_range_meters":16000,"station_id":"ce4bhap2rcd13ifvqek0","pricing_plan_id":"cebpf4jnsgd1na2vs0mg"},{"bike_id":"b106b69f-26ef-4e7e-b0a8-29024692aa71","system_id":"levelo_inurba_marseille","lat":43.28492,"lon":5.38545,"is_reserved":false,"is_disabled":false,"rental_uris":{"android":"levelo://app?vid=b106b69f-26ef-4e7e-b0a8-29024692aa71","ios":"levelo://app?vid=b106b69f-26ef-4e7e-b0a8-29024692aa71"},"vehicle_type_id":"4","last_reported":1740226482,"current_range_meters":16000,"station_id":"ce4bh8p2rcd13ifvqeb0","pricing_plan_id":"cebpf4jnsgd1na2vs0mg"},{"bike_id":"893db85a-5a83-4269-9ee6-e9d9e2059e92","system_id":"levelo_inurba_marseille","lat":43.29535,"lon":5.37513,"is_reserved":false,"is_disabled":false,"rental_uris":{"android":"levelo://app?vid=893db85a-5a83-4269-9ee6-e9d9e2059e92","ios":"levelo://app?vid=893db85a-5a83-4269-9ee6-e9d9e2059e92"},"vehicle_type_id":"4","last_reported":1740226482,"current_range_meters":16000,"station_id":"ce4bgh92rcd13ifvqb50","pricing_plan_id":"cebpf4jnsgd1na2vs0mg"},{"bike_id":"458572a4-668e-4ab7-b8df-d8d6bc37cf5a","system_id":"levelo_inurba_marseille","lat":43.30432,"lon":5.41275,"is_reserved":false,"is_disabled":false,"rental_uris":{"android":"levelo://app?vid=458572a4-668e-4ab7-b8df-d8d6bc37cf5a","ios":"levelo://app?vid=458572a4-668e-4ab7-b8df-d8d6bc37cf5a"},"vehicle_type_id":"4","last_reported":1740226482,"current_range_meters":16000,"station_id":"ce4bhop2rcd13ifvqh8g","pricing_plan_id":"cebpf4jnsgd1na2vs0mg"},{"bike_id":"e807d449-0aee-4df3-a3e0-bb4e9b0a094f","system_id":"levelo_inurba_marseille","lat":43.279694,"lon":5.387474,"is_reserved":false,"is_disabled":false,"rental_uris":{"android":"levelo://app?vid=e807d449-0aee-4df3-a3e0-bb4e9b0a094f","ios":"levelo://app?vid=e807d449-0aee-4df3-a3e0-bb4e9b0a094f"},"vehicle_type_id":"4","last_reported":1740226482,"current_range_meters":16000,"station_id":"ce4bhg12rcd13ifvqf80","pricing_plan_id":"cebpf4jnsgd1na2vs0mg"},{"bike_id":"ad5d970e-426b-4f89-94bd-e7196f45d370","system_id":"levelo_inurba_marseille","lat":43.32121,"lon":5.36782,"is_reserved":false,"is_disabled":false,"rental_uris":{"android":"levelo://app?vid=ad5d970e-426b-4f89-94bd-e7196f45d370","ios":"levelo://app?vid=ad5d970e-426b-4f89-94bd-e7196f45d370"},"vehicle_type_id":"4","last_reported":1740226482,"current_range_meters":16000,"station_id":"ce4bhrh2rcd13ifvqhug","pricing_plan_id":"cebpf4jnsgd1na2vs0mg"},{"bike_id":"aa2bc768-7edc-4fb5-bf43-d53dd5fac575","system_id":"levelo_inurba_marseille","lat":43.30173,"lon":5.38098,"is_reserved":false,"is_disabled":false,"rental_uris":{"android":"levelo://app?vid=aa2bc768-7edc-4fb5-bf43-d53dd5fac575","ios":"levelo://app?vid=aa2bc768-7edc-4fb5-bf43-d53dd5fac575"},"vehicle_type_id":"4","last_reported":1740226482,"current_range_meters":16400,"station_id":"ce4bgjp2rcd13ifvqbh0","pricing_plan_id":"cebpf4jnsgd1na2vs0mg"},{"bike_id":"3fd2a98c-7939-498c-8625-9658300a849b","system_id":"levelo_inurba_marseille","lat":43.25935,"lon":5.40903,"is_reserved":false,"is_disabled":false,"rental_uris":{"android":"levelo://app?vid=3fd2a98c-7939-498c-8625-9658300a849b","ios":"levelo://app?vid=3fd2a98c-7939-498c-8625-9658300a849b"},"vehicle_type_id":"4","last_reported":1740226482,"current_range_meters":16400,"station_id":"ce4bhm92rcd13ifvqglg","pricing_plan_id":"cebpf4jnsgd1na2vs0mg"},{"bike_id":"9ab1644d-0560-4db1-85c8-a6364c33a391","system_id":"levelo_inurba_marseille","lat":43.27959,"lon":5.38709,"is_reserved":false,"is_disabled":false,"rental_uris":{"android":"levelo://app?vid=9ab1644d-0560-4db1-85c8-a6364c33a391","ios":"levelo://app?vid=9ab1644d-0560-4db1-85c8-a6364c33a391"},"vehicle_type_id":"4","last_reported":1740226482,"current_range_meters":16400,"station_id":"ce4bhg12rcd13ifvqf80","pricing_plan_id":"cebpf4jnsgd1na2vs0mg"},{"bike_id":"0c33f1f1-9de2-4635-88dd-5b3b6f2bb3a3","system_id":"levelo_inurba_marseille","lat":43.30154,"lon":5.3811,"is_reserved":false,"is_disabled":false,"rental_uris":{"android":"levelo://app?vid=0c33f1f1-9de2-4635-88dd-5b3b6f2bb3a3","ios":"levelo://app?vid=0c33f1f1-9de2-4635-88dd-5b3b6f2bb3a3"},"vehicle_type_id":"4","last_reported":1740226482,"current_range_meters":16400,"station_id":"ce4bgjp2rcd13ifvqbh0","pricing_plan_id":"cebpf4jnsgd1na2vs0mg"},{"bike_id":"b4fb9aac-d8b1-4c48-ac4a-21084f6fda76","system_id":"levelo_inurba_marseille","lat":43.29602,"lon":5.38102,"is_reserved":false,"is_disabled":false,"rental_uris":{"android":"levelo://app?vid=b4fb9aac-d8b1-4c48-ac4a-21084f6fda76","ios":"levelo://app?vid=b4fb9aac-d8b1-4c48-ac4a-21084f6fda76"},"vehicle_type_id":"4","last_reported":1740226482,"current_range_meters":16400,"station_id":"ce4bgl12rcd13ifvqbo0","pricing_plan_id":"cebpf4jnsgd1na2vs0mg"},{"bike_id":"8e403f8a-b998-4fb1-bb90-54bf70e024a5","system_id":"levelo_inurba_marseille","lat":43.26935,"lon":5.389166,"is_reserved":false,"is_disabled":false,"rental_uris":{"android":"levelo://app?vid=8e403f8a-b998-4fb1-bb90-54bf70e024a5","ios":"levelo://app?vid=8e403f8a-b998-4fb1-bb90-54bf70e024a5"},"vehicle_type_id":"4","last_reported":1740226482,"current_range_meters":16400,"station_id":"ce4bhhh2rcd13ifvqfl0","pricing_plan_id":"cebpf4jnsgd1na2vs0mg"},{"bike_id":"baad0ec7-fd56-45bf-a297-b5bfb5a4a062","system_id":"levelo_inurba_marseille","lat":43.295319,"lon":5.385447,"is_reserved":false,"is_disabled":false,"rental_uris":{"android":"levelo://app?vid=baad0ec7-fd56-45bf-a297-b5bfb5a4a062","ios":"levelo://app?vid=baad0ec7-fd56-45bf-a297-b5bfb5a4a062"},"vehicle_type_id":"4","last_reported":1740226482,"current_range_meters":16400,"station_id":"ce4bh392rcd13ifvqdl0","pricing_plan_id":"cebpf4jnsgd1na2vs0mg"},{"bike_id":"d48729f3-7776-48ad-bcc1-2422920cbff2","system_id":"levelo_inurba_marseille","lat":43.29262,"lon":5.38441,"is_reserved":false,"is_disabled":false,"rental_uris":{"android":"levelo://app?vid=d48729f3-7776-48ad-bcc1-2422920cbff2","ios":"levelo://app?vid=d48729f3-7776-48ad-bcc1-2422920cbff2"},"vehicle_type_id":"4","last_reported":1740226482,"current_range_meters":16800,"station_id":"ce4bh692rcd13ifvqea0","pricing_plan_id":"cebpf4jnsgd1na2vs0mg"},{"bike_id":"4ecc2f43-8b9a-4596-9cf8-a379d7864702","system_id":"levelo_inurba_marseille","lat":43.258661,"lon":5.398949,"is_reserved":false,"is_disabled":false,"rental_uris":{"android":"levelo://app?vid=4ecc2f43-8b9a-4596-9cf8-a379d7864702","ios":"levelo://app?vid=4ecc2f43-8b9a-4596-9cf8-a379d7864702"},"vehicle_type_id":"4","last_reported":1740226482,"current_range_meters":16800,"station_id":"ce4bhl92rcd13ifvqghg","pricing_plan_id":"cebpf4jnsgd1na2vs0mg"},{"bike_id":"d43e6f29-e8c1-4c87-b14e-fad0fbf39b6d","system_id":"levelo_inurba_marseille","lat":43.22934,"lon":5.35382,"is_reserved":false,"is_disabled":false,"rental_uris":{"android":"levelo://app?vid=d43e6f29-e8c1-4c87-b14e-fad0fbf39b6d","ios":"levelo://app?vid=d43e6f29-e8c1-4c87-b14e-fad0fbf39b6d"},"vehicle_type_id":"4","last_reported":1740226482,"current_range_meters":16800,"station_id":"cpo3532slgdg3j2ikp40","pricing_plan_id":"cebpf4jnsgd1na2vs0mg"},{"bike_id":"103e9348-f7e0-498e-964e-66bc80e78be0","system_id":"levelo_inurba_marseille","lat":43.28457,"lon":5.39195,"is_reserved":false,"is_disabled":false,"rental_uris":{"android":"levelo://app?vid=103e9348-f7e0-498e-964e-66bc80e78be0","ios":"levelo://app?vid=103e9348-f7e0-498e-964e-66bc80e78be0"},"vehicle_type_id":"4","last_reported":1740226482,"current_range_meters":17200,"station_id":"ce4bhoh2rcd13ifvqh5g","pricing_plan_id":"cebpf4jnsgd1na2vs0mg"},{"bike_id":"b71e06e2-6d45-4fac-9ef3-0d6eaa80bc65","system_id":"levelo_inurba_marseille","lat":43.28421,"lon":5.34988,"is_reserved":false,"is_disabled":false,"rental_uris":{"android":"levelo://app?vid=b71e06e2-6d45-4fac-9ef3-0d6eaa80bc65","ios":"levelo://app?vid=b71e06e2-6d45-4fac-9ef3-0d6eaa80bc65"},"vehicle_type_id":"4","last_reported":1740226482,"current_range_meters":17200,"station_id":"ce4bhbh2rcd13ifvqepg","pricing_plan_id":"cebpf4jnsgd1na2vs0mg"},{"bike_id":"210f48b2-3181-4eaa-a6f3-a6dae08b3d9c","system_id":"levelo_inurba_marseille","lat":43.2957,"lon":5.37522,"is_reserved":false,"is_disabled":false,"rental_uris":{"android":"levelo://app?vid=210f48b2-3181-4eaa-a6f3-a6dae08b3d9c","ios":"levelo://app?vid=210f48b2-3181-4eaa-a6f3-a6dae08b3d9c"},"vehicle_type_id":"4","last_reported":1740226482,"current_range_meters":17200,"station_id":"ce4bgh92rcd13ifvqb50","pricing_plan_id":"cebpf4jnsgd1na2vs0mg"},{"bike_id":"1c92ac20-fe8b-42f9-a781-1404dc393d02","system_id":"levelo_inurba_marseille","lat":43.26067,"lon":5.39396,"is_reserved":false,"is_disabled":false,"rental_uris":{"android":"levelo://app?vid=1c92ac20-fe8b-42f9-a781-1404dc393d02","ios":"levelo://app?vid=1c92ac20-fe8b-42f9-a781-1404dc393d02"},"vehicle_type_id":"4","last_reported":1740226482,"current_range_meters":17200,"station_id":"ce4bhh92rcd13ifvqfj0","pricing_plan_id":"cebpf4jnsgd1na2vs0mg"},{"bike_id":"b7677faf-e488-4b34-88f0-5ea19fe12a28","system_id":"levelo_inurba_marseille","lat":43.28664,"lon":5.36352,"is_reserved":false,"is_disabled":false,"rental_uris":{"android":"levelo://app?vid=b7677faf-e488-4b34-88f0-5ea19fe12a28","ios":"levelo://app?vid=b7677faf-e488-4b34-88f0-5ea19fe12a28"},"vehicle_type_id":"4","last_reported":1740226482,"current_range_meters":17200,"station_id":"ce4bhah2rcd13ifvqej0","pricing_plan_id":"cebpf4jnsgd1na2vs0mg"},{"bike_id":"299ff637-8f42-4bc6-8403-f99119dc6441","system_id":"levelo_inurba_marseille","lat":43.28416,"lon":5.34971,"is_reserved":false,"is_disabled":false,"rental_uris":{"android":"levelo://app?vid=299ff637-8f42-4bc6-8403-f99119dc6441","ios":"levelo://app?vid=299ff637-8f42-4bc6-8403-f99119dc6441"},"vehicle_type_id":"4","last_reported":1740226482,"current_range_meters":17200,"station_id":"ce4bhbh2rcd13ifvqepg","pricing_plan_id":"cebpf4jnsgd1na2vs0mg"},{"bike_id":"875bcdcc-7147-44c1-8694-d73dd04acd31","system_id":"levelo_inurba_marseille","lat":43.28436,"lon":5.39186,"is_reserved":false,"is_disabled":false,"rental_uris":{"android":"levelo://app?vid=875bcdcc-7147-44c1-8694-d73dd04acd31","ios":"levelo://app?vid=875bcdcc-7147-44c1-8694-d73dd04acd31"},"vehicle_type_id":"4","last_reported":1740226482,"current_range_meters":17200,"station_id":"ce4bhoh2rcd13ifvqh5g","pricing_plan_id":"cebpf4jnsgd1na2vs0mg"},{"bike_id":"dd530281-d520-4eb5-9c4b-013971ddc5ed","system_id":"levelo_inurba_marseille","lat":43.27833,"lon":5.39203,"is_reserved":false,"is_disabled":false,"rental_uris":{"android":"levelo://app?vid=dd530281-d520-4eb5-9c4b-013971ddc5ed","ios":"levelo://app?vid=dd530281-d520-4eb5-9c4b-013971ddc5ed"},"vehicle_type_id":"4","last_reported":1740226482,"current_range_meters":17200,"station_id":"ce4bhjp2rcd13ifvqga0","pricing_plan_id":"cebpf4jnsgd1na2vs0mg"},{"bike_id":"fa3aa5a5-4e00-466e-8b65-149b2e48f46f","system_id":"levelo_inurba_marseille","lat":43.30258,"lon":5.40081,"is_reserved":false,"is_disabled":false,"rental_uris":{"android":"levelo://app?vid=fa3aa5a5-4e00-466e-8b65-149b2e48f46f","ios":"levelo://app?vid=fa3aa5a5-4e00-466e-8b65-149b2e48f46f"},"vehicle_type_id":"4","last_reported":1740226482,"current_range_meters":17600,"station_id":"ce4bgvh2rcd13ifvqcs0","pricing_plan_id":"cebpf4jnsgd1na2vs0mg"},{"bike_id":"f368ba6d-57b2-4d5c-bc5c-ada2ec051b6e","system_id":"levelo_inurba_marseille","lat":43.2868,"lon":5.36355,"is_reserved":false,"is_disabled":false,"rental_uris":{"android":"levelo://app?vid=f368ba6d-57b2-4d5c-bc5c-ada2ec051b6e","ios":"levelo://app?vid=f368ba6d-57b2-4d5c-bc5c-ada2ec051b6e"},"vehicle_type_id":"4","last_reported":1740226482,"current_range_meters":17600,"station_id":"ce4bhah2rcd13ifvqej0","pricing_plan_id":"cebpf4jnsgd1na2vs0mg"},{"bike_id":"33cc0fcb-f6e1-44bc-9328-d3f75a5791c5","system_id":"levelo_inurba_marseille","lat":43.23202,"lon":5.35552,"is_reserved":false,"is_disabled":false,"rental_uris":{"android":"levelo://app?vid=33cc0fcb-f6e1-44bc-9328-d3f75a5791c5","ios":"levelo://app?vid=33cc0fcb-f6e1-44bc-9328-d3f75a5791c5"},"vehicle_type_id":"4","last_reported":1740226482,"current_range_meters":17600,"station_id":"ce4bhu92rcd13ifvqi70","pricing_plan_id":"cebpf4jnsgd1na2vs0mg"},{"bike_id":"e114ce83-08ec-4256-8ea3-9926c87ba10a","system_id":"levelo_inurba_marseille","lat":43.29972,"lon":5.41323,"is_reserved":false,"is_disabled":false,"rental_uris":{"android":"levelo://app?vid=e114ce83-08ec-4256-8ea3-9926c87ba10a","ios":"levelo://app?vid=e114ce83-08ec-4256-8ea3-9926c87ba10a"},"vehicle_type_id":"4","last_reported":1740226482,"current_range_meters":18000,"station_id":"ce4bhp12rcd13ifvqh9g","pricing_plan_id":"cebpf4jnsgd1na2vs0mg"},{"bike_id":"8ade6215-7ead-4242-83fc-f514e1a9fb1e","system_id":"levelo_inurba_marseille","lat":43.29523,"lon":5.3939,"is_reserved":false,"is_disabled":false,"rental_uris":{"android":"levelo://app?vid=8ade6215-7ead-4242-83fc-f514e1a9fb1e","ios":"levelo://app?vid=8ade6215-7ead-4242-83fc-f514e1a9fb1e"},"vehicle_type_id":"4","last_reported":1740226482,"current_range_meters":17600,"station_id":"ce4bh292rcd13ifvqdf0","pricing_plan_id":"cebpf4jnsgd1na2vs0mg"},{"bike_id":"e636832d-d31d-492b-9bcd-b899a106503d","system_id":"levelo_inurba_marseille","lat":43.2417,"lon":5.3639,"is_reserved":false,"is_disabled":false,"rental_uris":{"android":"levelo://app?vid=e636832d-d31d-492b-9bcd-b899a106503d","ios":"levelo://app?vid=e636832d-d31d-492b-9bcd-b899a106503d"},"vehicle_type_id":"4","last_reported":1740226482,"current_range_meters":18000,"station_id":"cpo36qri1sfpv3e86is0","pricing_plan_id":"cebpf4jnsgd1na2vs0mg"},{"bike_id":"128c6057-1ebc-4217-8117-8b714dc4e863","system_id":"levelo_inurba_marseille","lat":43.298554,"lon":5.362852,"is_reserved":false,"is_disabled":false,"rental_uris":{"android":"levelo://app?vid=128c6057-1ebc-4217-8117-8b714dc4e863","ios":"levelo://app?vid=128c6057-1ebc-4217-8117-8b714dc4e863"},"vehicle_type_id":"4","last_reported":1740226482,"current_range_meters":17600,"station_id":"ce4bha92rcd13ifvqeg0","pricing_plan_id":"cebpf4jnsgd1na2vs0mg"},{"bike_id":"48695f42-0643-4422-9917-1a1a3b0193d1","system_id":"levelo_inurba_marseille","lat":43.31508,"lon":5.37294,"is_reserved":false,"is_disabled":false,"rental_uris":{"android":"levelo://app?vid=48695f42-0643-4422-9917-1a1a3b0193d1","ios":"levelo://app?vid=48695f42-0643-4422-9917-1a1a3b0193d1"},"vehicle_type_id":"4","last_reported":1740226482,"current_range_meters":18000,"station_id":"ce4bgt12rcd13ifvqcd0","pricing_plan_id":"cebpf4jnsgd1na2vs0mg"},{"bike_id":"b85c74ea-b684-4e82-a9c1-08876c5e7eb6","system_id":"levelo_inurba_marseille","lat":43.297374,"lon":5.381226,"is_reserved":false,"is_disabled":false,"rental_uris":{"android":"levelo://app?vid=b85c74ea-b684-4e82-a9c1-08876c5e7eb6","ios":"levelo://app?vid=b85c74ea-b684-4e82-a9c1-08876c5e7eb6"},"vehicle_type_id":"4","last_reported":1740226482,"current_range_meters":18000,"station_id":"ce4bgt92rcd13ifvqcg0","pricing_plan_id":"cebpf4jnsgd1na2vs0mg"},{"bike_id":"6d1fe5cc-eb13-4e45-ad44-a4a9ee13a439","system_id":"levelo_inurba_marseille","lat":43.296303,"lon":5.377221,"is_reserved":false,"is_disabled":false,"rental_uris":{"android":"levelo://app?vid=6d1fe5cc-eb13-4e45-ad44-a4a9ee13a439","ios":"levelo://app?vid=6d1fe5cc-eb13-4e45-ad44-a4a9ee13a439"},"vehicle_type_id":"4","last_reported":1740226482,"current_range_meters":18000,"station_id":"ce4bgi92rcd13ifvqb90","pricing_plan_id":"cebpf4jnsgd1na2vs0mg"},{"bike_id":"82a81b60-4df9-4683-86e6-c63188a8356a","system_id":"levelo_inurba_marseille","lat":43.29809,"lon":5.40401,"is_reserved":false,"is_disabled":false,"rental_uris":{"android":"levelo://app?vid=82a81b60-4df9-4683-86e6-c63188a8356a","ios":"levelo://app?vid=82a81b60-4df9-4683-86e6-c63188a8356a"},"vehicle_type_id":"4","last_reported":1740226482,"current_range_meters":18000,"station_id":"ce4bh112rcd13ifvqd90","pricing_plan_id":"cebpf4jnsgd1na2vs0mg"},{"bike_id":"fbde6ffd-3b00-4c26-827b-a68b498607ae","system_id":"levelo_inurba_marseille","lat":43.27377,"lon":5.36252,"is_reserved":false,"is_disabled":false,"rental_uris":{"android":"levelo://app?vid=fbde6ffd-3b00-4c26-827b-a68b498607ae","ios":"levelo://app?vid=fbde6ffd-3b00-4c26-827b-a68b498607ae"},"vehicle_type_id":"4","last_reported":1740226482,"current_range_meters":18000,"station_id":"ce4bhbh2rcd13ifvqeo0","pricing_plan_id":"cebpf4jnsgd1na2vs0mg"},{"bike_id":"7d4b257a-c60d-48e8-85d7-7dc3f985241e","system_id":"levelo_inurba_marseille","lat":43.29629,"lon":5.38562,"is_reserved":false,"is_disabled":false,"rental_uris":{"android":"levelo://app?vid=7d4b257a-c60d-48e8-85d7-7dc3f985241e","ios":"levelo://app?vid=7d4b257a-c60d-48e8-85d7-7dc3f985241e"},"vehicle_type_id":"4","last_reported":1740226482,"current_range_meters":18000,"station_id":"","pricing_plan_id":"cebpf4jnsgd1na2vs0mg"},{"bike_id":"82fa585a-b41f-4a88-b6f5-59532bb22334","system_id":"levelo_inurba_marseille","lat":43.2922,"lon":5.36071,"is_reserved":false,"is_disabled":false,"rental_uris":{"android":"levelo://app?vid=82fa585a-b41f-4a88-b6f5-59532bb22334","ios":"levelo://app?vid=82fa585a-b41f-4a88-b6f5-59532bb22334"},"vehicle_type_id":"4","last_reported":1740226482,"current_range_meters":18000,"station_id":"ce4bhbh2rcd13ifvqeqg","pricing_plan_id":"cebpf4jnsgd1na2vs0mg"},{"bike_id":"96cfbdec-50c4-4bd1-8af8-a0fcbb8c4fd0","system_id":"levelo_inurba_marseille","lat":43.28108,"lon":5.37841,"is_reserved":false,"is_disabled":false,"rental_uris":{"android":"levelo://app?vid=96cfbdec-50c4-4bd1-8af8-a0fcbb8c4fd0","ios":"levelo://app?vid=96cfbdec-50c4-4bd1-8af8-a0fcbb8c4fd0"},"vehicle_type_id":"4","last_reported":1740226482,"current_range_meters":18000,"station_id":"ce4bha12rcd13ifvqee0","pricing_plan_id":"cebpf4jnsgd1na2vs0mg"},{"bike_id":"2b5bd5b0-9c76-44c4-b7c6-e5a46b44435a","system_id":"levelo_inurba_marseille","lat":43.24407,"lon":5.37044,"is_reserved":false,"is_disabled":false,"rental_uris":{"android":"levelo://app?vid=2b5bd5b0-9c76-44c4-b7c6-e5a46b44435a","ios":"levelo://app?vid=2b5bd5b0-9c76-44c4-b7c6-e5a46b44435a"},"vehicle_type_id":"4","last_reported":1740226482,"current_range_meters":18800,"station_id":"ce4bhhh2rcd13ifvqfk0","pricing_plan_id":"cebpf4jnsgd1na2vs0mg"},{"bike_id":"63a3343c-910e-4904-b1a7-a75ac1dcabd3","system_id":"levelo_inurba_marseille","lat":43.23158,"lon":5.43709,"is_reserved":false,"is_disabled":false,"rental_uris":{"android":"levelo://app?vid=63a3343c-910e-4904-b1a7-a75ac1dcabd3","ios":"levelo://app?vid=63a3343c-910e-4904-b1a7-a75ac1dcabd3"},"vehicle_type_id":"4","last_reported":1740226482,"current_range_meters":18800,"station_id":"ce4bhmp2rcd13ifvqgog","pricing_plan_id":"cebpf4jnsgd1na2vs0mg"},{"bike_id":"e9881abb-8c73-43fb-958c-c9a14669644d","system_id":"levelo_inurba_marseille","lat":43.26916,"lon":5.40308,"is_reserved":false,"is_disabled":false,"rental_uris":{"android":"levelo://app?vid=e9881abb-8c73-43fb-958c-c9a14669644d","ios":"levelo://app?vid=e9881abb-8c73-43fb-958c-c9a14669644d"},"vehicle_type_id":"4","last_reported":1740226482,"current_range_meters":18800,"station_id":"","pricing_plan_id":"cebpf4jnsgd1na2vs0mg"},{"bike_id":"f7c75ade-c904-4207-817e-de678473a83e","system_id":"levelo_inurba_marseille","lat":43.31695,"lon":5.40469,"is_reserved":false,"is_disabled":false,"rental_uris":{"android":"levelo://app?vid=f7c75ade-c904-4207-817e-de678473a83e","ios":"levelo://app?vid=f7c75ade-c904-4207-817e-de678473a83e"},"vehicle_type_id":"4","last_reported":1740226482,"current_range_meters":18800,"station_id":"ce4bh012rcd13ifvqd00","pricing_plan_id":"cebpf4jnsgd1na2vs0mg"},{"bike_id":"9ccb67ea-e201-4936-8148-5397b45cf300","system_id":"levelo_inurba_marseille","lat":43.28392,"lon":5.37511,"is_reserved":false,"is_disabled":false,"rental_uris":{"android":"levelo://app?vid=9ccb67ea-e201-4936-8148-5397b45cf300","ios":"levelo://app?vid=9ccb67ea-e201-4936-8148-5397b45cf300"},"vehicle_type_id":"4","last_reported":1740226482,"current_range_meters":18800,"station_id":"ce4bh412rcd13ifvqds0","pricing_plan_id":"cebpf4jnsgd1na2vs0mg"},{"bike_id":"3b22b0b6-62b2-43fb-bb51-304da9cfa64b","system_id":"levelo_inurba_marseille","lat":43.292771,"lon":5.384317,"is_reserved":false,"is_disabled":false,"rental_uris":{"android":"levelo://app?vid=3b22b0b6-62b2-43fb-bb51-304da9cfa64b","ios":"levelo://app?vid=3b22b0b6-62b2-43fb-bb51-304da9cfa64b"},"vehicle_type_id":"4","last_reported":1740226482,"current_range_meters":19200,"station_id":"ce4bh692rcd13ifvqea0","pricing_plan_id":"cebpf4jnsgd1na2vs0mg"},{"bike_id":"247a66e5-d316-4043-b5ae-428490805f60","system_id":"levelo_inurba_marseille","lat":43.26527,"lon":5.3906,"is_reserved":false,"is_disabled":false,"rental_uris":{"android":"levelo://app?vid=247a66e5-d316-4043-b5ae-428490805f60","ios":"levelo://app?vid=247a66e5-d316-4043-b5ae-428490805f60"},"vehicle_type_id":"4","last_reported":1740226482,"current_range_meters":19200,"station_id":"ce4bhe12rcd13ifvqf30","pricing_plan_id":"cebpf4jnsgd1na2vs0mg"},{"bike_id":"662c73fa-1cf8-42de-a60a-b465c2c3adb6","system_id":"levelo_inurba_marseille","lat":43.27206,"lon":5.39136,"is_reserved":false,"is_disabled":false,"rental_uris":{"android":"levelo://app?vid=662c73fa-1cf8-42de-a60a-b465c2c3adb6","ios":"levelo://app?vid=662c73fa-1cf8-42de-a60a-b465c2c3adb6"},"vehicle_type_id":"4","last_reported":1740226482,"current_range_meters":19200,"station_id":"ce4bhhp2rcd13ifvqfm0","pricing_plan_id":"cebpf4jnsgd1na2vs0mg"},{"bike_id":"f48935bd-c987-4ce3-8ae0-fb0f35e41379","system_id":"levelo_inurba_marseille","lat":43.29036,"lon":5.3757,"is_reserved":false,"is_disabled":false,"rental_uris":{"android":"levelo://app?vid=f48935bd-c987-4ce3-8ae0-fb0f35e41379","ios":"levelo://app?vid=f48935bd-c987-4ce3-8ae0-fb0f35e41379"},"vehicle_type_id":"4","last_reported":1740226482,"current_range_meters":19200,"station_id":"ce4bh692rcd13ifvqe90","pricing_plan_id":"cebpf4jnsgd1na2vs0mg"},{"bike_id":"c4a3f5dd-b8d8-4d73-8a8f-ea8b0e26e290","system_id":"levelo_inurba_marseille","lat":43.29976,"lon":5.41317,"is_reserved":false,"is_disabled":false,"rental_uris":{"android":"levelo://app?vid=c4a3f5dd-b8d8-4d73-8a8f-ea8b0e26e290","ios":"levelo://app?vid=c4a3f5dd-b8d8-4d73-8a8f-ea8b0e26e290"},"vehicle_type_id":"4","last_reported":1740226482,"current_range_meters":19200,"station_id":"ce4bhp12rcd13ifvqh9g","pricing_plan_id":"cebpf4jnsgd1na2vs0mg"},{"bike_id":"1720b3f4-1795-4773-8c89-8c50ac5a7ef5","system_id":"levelo_inurba_marseille","lat":43.30296,"lon":5.367127,"is_reserved":false,"is_disabled":false,"rental_uris":{"android":"levelo://app?vid=1720b3f4-1795-4773-8c89-8c50ac5a7ef5","ios":"levelo://app?vid=1720b3f4-1795-4773-8c89-8c50ac5a7ef5"},"vehicle_type_id":"4","last_reported":1740226482,"current_range_meters":19200,"station_id":"","pricing_plan_id":"cebpf4jnsgd1na2vs0mg"},{"bike_id":"77a275cf-5297-4cbd-91d8-eb49bf537e98","system_id":"levelo_inurba_marseille","lat":43.2861,"lon":5.37062,"is_reserved":false,"is_disabled":false,"rental_uris":{"android":"levelo://app?vid=77a275cf-5297-4cbd-91d8-eb49bf537e98","ios":"levelo://app?vid=77a275cf-5297-4cbd-91d8-eb49bf537e98"},"vehicle_type_id":"4","last_reported":1740226482,"current_range_meters":19200,"station_id":"ce4bht12rcd13ifvqi60","pricing_plan_id":"cebpf4jnsgd1na2vs0mg"},{"bike_id":"d73dd11d-748f-4db5-a9af-fd8da26ac7ea","system_id":"levelo_inurba_marseille","lat":43.30527,"lon":5.3653,"is_reserved":false,"is_disabled":false,"rental_uris":{"android":"levelo://app?vid=d73dd11d-748f-4db5-a9af-fd8da26ac7ea","ios":"levelo://app?vid=d73dd11d-748f-4db5-a9af-fd8da26ac7ea"},"vehicle_type_id":"4","last_reported":1740226482,"current_range_meters":19600,"station_id":"ce4bgs12rcd13ifvqcag","pricing_plan_id":"cebpf4jnsgd1na2vs0mg"},{"bike_id":"80e30e07-59ff-4807-b06b-c6dc1a9e08e2","system_id":"levelo_inurba_marseille","lat":43.3361,"lon":5.41011,"is_reserved":false,"is_disabled":true,"rental_uris":{"android":"levelo://app?vid=80e30e07-59ff-4807-b06b-c6dc1a9e08e2","ios":"levelo://app?vid=80e30e07-59ff-4807-b06b-c6dc1a9e08e2"},"vehicle_type_id":"4","last_reported":1740226482,"current_range_meters":19600,"station_id":"ce4bhqh2rcd13ifvqhmg","pricing_plan_id":"cebpf4jnsgd1na2vs0mg"},{"bike_id":"8b6a98b1-b494-4060-b000-20a7e9c0b8cf","system_id":"levelo_inurba_marseille","lat":43.22941,"lon":5.35373,"is_reserved":false,"is_disabled":false,"rental_uris":{"android":"levelo://app?vid=8b6a98b1-b494-4060-b000-20a7e9c0b8cf","ios":"levelo://app?vid=8b6a98b1-b494-4060-b000-20a7e9c0b8cf"},"vehicle_type_id":"4","last_reported":1740226482,"current_range_meters":19600,"station_id":"cpo3532slgdg3j2ikp40","pricing_plan_id":"cebpf4jnsgd1na2vs0mg"},{"bike_id":"0346110d-694d-42b6-b62e-3b63b864fa0d","system_id":"levelo_inurba_marseille","lat":43.30146,"lon":5.38063,"is_reserved":false,"is_disabled":false,"rental_uris":{"android":"levelo://app?vid=0346110d-694d-42b6-b62e-3b63b864fa0d","ios":"levelo://app?vid=0346110d-694d-42b6-b62e-3b63b864fa0d"},"vehicle_type_id":"4","last_reported":1740226482,"current_range_meters":19600,"station_id":"ce4bgjp2rcd13ifvqbh0","pricing_plan_id":"cebpf4jnsgd1na2vs0mg"},{"bike_id":"0f40208a-8450-4edd-8c30-fc698c9dd8e1","system_id":"levelo_inurba_marseille","lat":43.29612,"lon":5.38093,"is_reserved":false,"is_disabled":true,"rental_uris":{"android":"levelo://app?vid=0f40208a-8450-4edd-8c30-fc698c9dd8e1","ios":"levelo://app?vid=0f40208a-8450-4edd-8c30-fc698c9dd8e1"},"vehicle_type_id":"4","last_reported":1740226482,"current_range_meters":19600,"station_id":"ce4bgl12rcd13ifvqbo0","pricing_plan_id":"cebpf4jnsgd1na2vs0mg"},{"bike_id":"9faf844a-413f-419f-bdea-64830f7f2bfb","system_id":"levelo_inurba_marseille","lat":43.29902,"lon":5.37918,"is_reserved":false,"is_disabled":false,"rental_uris":{"android":"levelo://app?vid=9faf844a-413f-419f-bdea-64830f7f2bfb","ios":"levelo://app?vid=9faf844a-413f-419f-bdea-64830f7f2bfb"},"vehicle_type_id":"4","last_reported":1740226482,"current_range_meters":19600,"station_id":"","pricing_plan_id":"cebpf4jnsgd1na2vs0mg"},{"bike_id":"2d659bf2-dcf9-4974-bf98-70f3575568a6","system_id":"levelo_inurba_marseille","lat":43.30139,"lon":5.38781,"is_reserved":false,"is_disabled":false,"rental_uris":{"android":"levelo://app?vid=2d659bf2-dcf9-4974-bf98-70f3575568a6","ios":"levelo://app?vid=2d659bf2-dcf9-4974-bf98-70f3575568a6"},"vehicle_type_id":"4","last_reported":1740226482,"current_range_meters":20000,"station_id":"ce4bghh2rcd13ifvqb60","pricing_plan_id":"cebpf4jnsgd1na2vs0mg"},{"bike_id":"47c58b1f-0f04-4a95-ba73-4d794abee5f2","system_id":"levelo_inurba_marseille","lat":43.3047,"lon":5.38897,"is_reserved":false,"is_disabled":true,"rental_uris":{"android":"levelo://app?vid=47c58b1f-0f04-4a95-ba73-4d794abee5f2","ios":"levelo://app?vid=47c58b1f-0f04-4a95-ba73-4d794abee5f2"},"vehicle_type_id":"4","last_reported":1740226482,"current_range_meters":20000,"station_id":"ce4bgk12rcd13ifvqbi0","pricing_plan_id":"cebpf4jnsgd1na2vs0mg"},{"bike_id":"abd86540-d237-46dd-b4da-11f1eb29b529","system_id":"levelo_inurba_marseille","lat":43.30174,"lon":5.38077,"is_reserved":false,"is_disabled":false,"rental_uris":{"android":"levelo://app?vid=abd86540-d237-46dd-b4da-11f1eb29b529","ios":"levelo://app?vid=abd86540-d237-46dd-b4da-11f1eb29b529"},"vehicle_type_id":"4","last_reported":1740226482,"current_range_meters":20000,"station_id":"ce4bgjp2rcd13ifvqbh0","pricing_plan_id":"cebpf4jnsgd1na2vs0mg"},{"bike_id":"8814187a-467f-4d17-9736-fc6d62a15fc6","system_id":"levelo_inurba_marseille","lat":43.29186,"lon":5.39304,"is_reserved":false,"is_disabled":false,"rental_uris":{"android":"levelo://app?vid=8814187a-467f-4d17-9736-fc6d62a15fc6","ios":"levelo://app?vid=8814187a-467f-4d17-9736-fc6d62a15fc6"},"vehicle_type_id":"4","last_reported":1740226482,"current_range_meters":20000,"station_id":"ce4bh192rcd13ifvqdd0","pricing_plan_id":"cebpf4jnsgd1na2vs0mg"},{"bike_id":"59c12208-8115-4139-9856-170426cb0f95","system_id":"levelo_inurba_marseille","lat":43.23196,"lon":5.35554,"is_reserved":false,"is_disabled":false,"rental_uris":{"android":"levelo://app?vid=59c12208-8115-4139-9856-170426cb0f95","ios":"levelo://app?vid=59c12208-8115-4139-9856-170426cb0f95"},"vehicle_type_id":"4","last_reported":1740226482,"current_range_meters":20000,"station_id":"ce4bhu92rcd13ifvqi70","pricing_plan_id":"cebpf4jnsgd1na2vs0mg"},{"bike_id":"ebd9fe44-86f3-42b1-abac-5e6005a4d501","system_id":"levelo_inurba_marseille","lat":43.31085,"lon":5.38339,"is_reserved":false,"is_disabled":false,"rental_uris":{"android":"levelo://app?vid=ebd9fe44-86f3-42b1-abac-5e6005a4d501","ios":"levelo://app?vid=ebd9fe44-86f3-42b1-abac-5e6005a4d501"},"vehicle_type_id":"4","last_reported":1740226482,"current_range_meters":20000,"station_id":"","pricing_plan_id":"cebpf4jnsgd1na2vs0mg"},{"bike_id":"a2d00e6b-821e-4369-9208-6d3116d9afab","system_id":"levelo_inurba_marseille","lat":43.30568,"lon":5.36608,"is_reserved":false,"is_disabled":false,"rental_uris":{"android":"levelo://app?vid=a2d00e6b-821e-4369-9208-6d3116d9afab","ios":"levelo://app?vid=a2d00e6b-821e-4369-9208-6d3116d9afab"},"vehicle_type_id":"4","last_reported":1740226482,"current_range_meters":20000,"station_id":"ce4bgs12rcd13ifvqcag","pricing_plan_id":"cebpf4jnsgd1na2vs0mg"},{"bike_id":"2283e167-e56e-4515-a858-63a0c7033879","system_id":"levelo_inurba_marseille","lat":43.28622,"lon":5.37072,"is_reserved":false,"is_disabled":false,"rental_uris":{"android":"levelo://app?vid=2283e167-e56e-4515-a858-63a0c7033879","ios":"levelo://app?vid=2283e167-e56e-4515-a858-63a0c7033879"},"vehicle_type_id":"4","last_reported":1740226482,"current_range_meters":20000,"station_id":"ce4bht12rcd13ifvqi60","pricing_plan_id":"cebpf4jnsgd1na2vs0mg"},{"bike_id":"42856ae3-fafa-4e5e-b473-7e2c10c17d86","system_id":"levelo_inurba_marseille","lat":43.298,"lon":5.40401,"is_reserved":false,"is_disabled":false,"rental_uris":{"android":"levelo://app?vid=42856ae3-fafa-4e5e-b473-7e2c10c17d86","ios":"levelo://app?vid=42856ae3-fafa-4e5e-b473-7e2c10c17d86"},"vehicle_type_id":"4","last_reported":1740226482,"current_range_meters":20000,"station_id":"ce4bh112rcd13ifvqd90","pricing_plan_id":"cebpf4jnsgd1na2vs0mg"},{"bike_id":"3ea7785c-0624-4988-9e76-b78d9de52808","system_id":"levelo_inurba_marseille","lat":43.30148,"lon":5.39868,"is_reserved":false,"is_disabled":false,"rental_uris":{"android":"levelo://app?vid=3ea7785c-0624-4988-9e76-b78d9de52808","ios":"levelo://app?vid=3ea7785c-0624-4988-9e76-b78d9de52808"},"vehicle_type_id":"4","last_reported":1740226482,"current_range_meters":20000,"station_id":"ce4bh0h2rcd13ifvqd40","pricing_plan_id":"cebpf4jnsgd1na2vs0mg"},{"bike_id":"c1448b16-d4a2-42d0-b06a-1e3589551b20","system_id":"levelo_inurba_marseille","lat":43.29023,"lon":5.38641,"is_reserved":false,"is_disabled":false,"rental_uris":{"android":"levelo://app?vid=c1448b16-d4a2-42d0-b06a-1e3589551b20","ios":"levelo://app?vid=c1448b16-d4a2-42d0-b06a-1e3589551b20"},"vehicle_type_id":"4","last_reported":1740226482,"current_range_meters":20000,"station_id":"ce4bh4p2rcd13ifvqe0g","pricing_plan_id":"cebpf4jnsgd1na2vs0mg"},{"bike_id":"7edad6f1-bb02-4747-8467-5494540e990b","system_id":"levelo_inurba_marseille","lat":43.25001,"lon":5.38906,"is_reserved":false,"is_disabled":false,"rental_uris":{"android":"levelo://app?vid=7edad6f1-bb02-4747-8467-5494540e990b","ios":"levelo://app?vid=7edad6f1-bb02-4747-8467-5494540e990b"},"vehicle_type_id":"4","last_reported":1740226482,"current_range_meters":20000,"station_id":"ce4bhgp2rcd13ifvqfd0","pricing_plan_id":"cebpf4jnsgd1na2vs0mg"},{"bike_id":"96db459e-6b1d-49e0-a6b2-6087c2f32855","system_id":"levelo_inurba_marseille","lat":43.30176,"lon":5.38072,"is_reserved":false,"is_disabled":false,"rental_uris":{"android":"levelo://app?vid=96db459e-6b1d-49e0-a6b2-6087c2f32855","ios":"levelo://app?vid=96db459e-6b1d-49e0-a6b2-6087c2f32855"},"vehicle_type_id":"4","last_reported":1740226482,"current_range_meters":20400,"station_id":"ce4bgjp2rcd13ifvqbh0","pricing_plan_id":"cebpf4jnsgd1na2vs0mg"},{"bike_id":"7fe0996e-2e24-4a3a-b975-03a2a20f6506","system_id":"levelo_inurba_marseille","lat":43.32366,"lon":5.36748,"is_reserved":false,"is_disabled":false,"rental_uris":{"android":"levelo://app?vid=7fe0996e-2e24-4a3a-b975-03a2a20f6506","ios":"levelo://app?vid=7fe0996e-2e24-4a3a-b975-03a2a20f6506"},"vehicle_type_id":"4","last_reported":1740226482,"current_range_meters":20400,"station_id":"ce4bhsh2rcd13ifvqi2g","pricing_plan_id":"cebpf4jnsgd1na2vs0mg"},{"bike_id":"48a25272-842c-4e4f-b72a-72e6d311f530","system_id":"levelo_inurba_marseille","lat":43.23149,"lon":5.43711,"is_reserved":false,"is_disabled":false,"rental_uris":{"android":"levelo://app?vid=48a25272-842c-4e4f-b72a-72e6d311f530","ios":"levelo://app?vid=48a25272-842c-4e4f-b72a-72e6d311f530"},"vehicle_type_id":"4","last_reported":1740226482,"current_range_meters":20400,"station_id":"ce4bhmp2rcd13ifvqgog","pricing_plan_id":"cebpf4jnsgd1na2vs0mg"},{"bike_id":"889f0e54-d8cf-4e60-9e63-c577fdecc511","system_id":"levelo_inurba_marseille","lat":43.283783,"lon":5.349929,"is_reserved":false,"is_disabled":false,"rental_uris":{"android":"levelo://app?vid=889f0e54-d8cf-4e60-9e63-c577fdecc511","ios":"levelo://app?vid=889f0e54-d8cf-4e60-9e63-c577fdecc511"},"vehicle_type_id":"4","last_reported":1740226482,"current_range_meters":20400,"station_id":"ce4bh512rcd13ifvqe2g","pricing_plan_id":"cebpf4jnsgd1na2vs0mg"},{"bike_id":"4983e26b-86f1-41a7-89f0-af14c12f469e","system_id":"levelo_inurba_marseille","lat":43.23966,"lon":5.36634,"is_reserved":false,"is_disabled":false,"rental_uris":{"android":"levelo://app?vid=4983e26b-86f1-41a7-89f0-af14c12f469e","ios":"levelo://app?vid=4983e26b-86f1-41a7-89f0-af14c12f469e"},"vehicle_type_id":"4","last_reported":1740226482,"current_range_meters":20400,"station_id":"ce4bhi12rcd13ifvqfp0","pricing_plan_id":"cebpf4jnsgd1na2vs0mg"},{"bike_id":"2518ac95-7b90-4e9a-9509-47ac93718180","system_id":"levelo_inurba_marseille","lat":43.29539,"lon":5.39403,"is_reserved":false,"is_disabled":false,"rental_uris":{"android":"levelo://app?vid=2518ac95-7b90-4e9a-9509-47ac93718180","ios":"levelo://app?vid=2518ac95-7b90-4e9a-9509-47ac93718180"},"vehicle_type_id":"4","last_reported":1740226482,"current_range_meters":20800,"station_id":"ce4bh292rcd13ifvqdf0","pricing_plan_id":"cebpf4jnsgd1na2vs0mg"},{"bike_id":"6d6a30a8-2614-4fb4-aeda-2b697d6d1406","system_id":"levelo_inurba_marseille","lat":43.23147,"lon":5.43706,"is_reserved":false,"is_disabled":false,"rental_uris":{"android":"levelo://app?vid=6d6a30a8-2614-4fb4-aeda-2b697d6d1406","ios":"levelo://app?vid=6d6a30a8-2614-4fb4-aeda-2b697d6d1406"},"vehicle_type_id":"4","last_reported":1740226482,"current_range_meters":20800,"station_id":"ce4bhmp2rcd13ifvqgog","pricing_plan_id":"cebpf4jnsgd1na2vs0mg"},{"bike_id":"5c474d37-cbf4-4a6a-a1d4-b0b516eb3419","system_id":"levelo_inurba_marseille","lat":43.28271,"lon":5.35067,"is_reserved":false,"is_disabled":false,"rental_uris":{"android":"levelo://app?vid=5c474d37-cbf4-4a6a-a1d4-b0b516eb3419","ios":"levelo://app?vid=5c474d37-cbf4-4a6a-a1d4-b0b516eb3419"},"vehicle_type_id":"4","last_reported":1740226482,"current_range_meters":20800,"station_id":"ce4bhbp2rcd13ifvqerg","pricing_plan_id":"cebpf4jnsgd1na2vs0mg"},{"bike_id":"32fa3d90-5c3b-41f1-9e6d-619f7704d141","system_id":"levelo_inurba_marseille","lat":43.30655,"lon":5.40081,"is_reserved":false,"is_disabled":false,"rental_uris":{"android":"levelo://app?vid=32fa3d90-5c3b-41f1-9e6d-619f7704d141","ios":"levelo://app?vid=32fa3d90-5c3b-41f1-9e6d-619f7704d141"},"vehicle_type_id":"4","last_reported":1740226482,"current_range_meters":20800,"station_id":"ce4bh112rcd13ifvqda0","pricing_plan_id":"cebpf4jnsgd1na2vs0mg"},{"bike_id":"7f6a49ad-1e87-43e4-8833-09174604d668","system_id":"levelo_inurba_marseille","lat":43.27059,"lon":5.4226,"is_reserved":false,"is_disabled":false,"rental_uris":{"android":"levelo://app?vid=7f6a49ad-1e87-43e4-8833-09174604d668","ios":"levelo://app?vid=7f6a49ad-1e87-43e4-8833-09174604d668"},"vehicle_type_id":"4","last_reported":1740226482,"current_range_meters":20800,"station_id":"ce4bhk92rcd13ifvqgb0","pricing_plan_id":"cebpf4jnsgd1na2vs0mg"},{"bike_id":"65154743-8f6b-4842-a2d9-8ab662f1509b","system_id":"levelo_inurba_marseille","lat":43.31327,"lon":5.397,"is_reserved":false,"is_disabled":false,"rental_uris":{"android":"levelo://app?vid=65154743-8f6b-4842-a2d9-8ab662f1509b","ios":"levelo://app?vid=65154743-8f6b-4842-a2d9-8ab662f1509b"},"vehicle_type_id":"4","last_reported":1740226482,"current_range_meters":20400,"station_id":"ce4bgvp2rcd13ifvqcu0","pricing_plan_id":"cebpf4jnsgd1na2vs0mg"},{"bike_id":"127a22bf-07c9-4aa0-9afd-e09bcafeaa9b","system_id":"levelo_inurba_marseille","lat":43.2836,"lon":5.38126,"is_reserved":false,"is_disabled":false,"rental_uris":{"android":"levelo://app?vid=127a22bf-07c9-4aa0-9afd-e09bcafeaa9b","ios":"levelo://app?vid=127a22bf-07c9-4aa0-9afd-e09bcafeaa9b"},"vehicle_type_id":"4","last_reported":1740226482,"current_range_meters":20800,"station_id":"ce4bh412rcd13ifvqdr0","pricing_plan_id":"cebpf4jnsgd1na2vs0mg"},{"bike_id":"a70694c5-1e52-413b-b2aa-7ab24f5ce06a","system_id":"levelo_inurba_marseille","lat":43.23197,"lon":5.35555,"is_reserved":false,"is_disabled":false,"rental_uris":{"android":"levelo://app?vid=a70694c5-1e52-413b-b2aa-7ab24f5ce06a","ios":"levelo://app?vid=a70694c5-1e52-413b-b2aa-7ab24f5ce06a"},"vehicle_type_id":"4","last_reported":1740226482,"current_range_meters":20800,"station_id":"ce4bhu92rcd13ifvqi70","pricing_plan_id":"cebpf4jnsgd1na2vs0mg"},{"bike_id":"07946dcb-4151-41c8-ad99-9adc1bb41b8d","system_id":"levelo_inurba_marseille","lat":43.28661,"lon":5.36348,"is_reserved":false,"is_disabled":false,"rental_uris":{"android":"levelo://app?vid=07946dcb-4151-41c8-ad99-9adc1bb41b8d","ios":"levelo://app?vid=07946dcb-4151-41c8-ad99-9adc1bb41b8d"},"vehicle_type_id":"4","last_reported":1740226482,"current_range_meters":21600,"station_id":"ce4bhah2rcd13ifvqej0","pricing_plan_id":"cebpf4jnsgd1na2vs0mg"},{"bike_id":"e11532a9-da6a-4fd8-8e46-8d8bbf69feda","system_id":"levelo_inurba_marseille","lat":43.24807,"lon":5.3746,"is_reserved":false,"is_disabled":false,"rental_uris":{"android":"levelo://app?vid=e11532a9-da6a-4fd8-8e46-8d8bbf69feda","ios":"levelo://app?vid=e11532a9-da6a-4fd8-8e46-8d8bbf69feda"},"vehicle_type_id":"4","last_reported":1740226482,"current_range_meters":21600,"station_id":"ce4bhgh2rcd13ifvqfb0","pricing_plan_id":"cebpf4jnsgd1na2vs0mg"},{"bike_id":"a377187c-a270-4bbf-96cc-ea6c01c772e1","system_id":"levelo_inurba_marseille","lat":43.281747,"lon":5.426357,"is_reserved":false,"is_disabled":false,"rental_uris":{"android":"levelo://app?vid=a377187c-a270-4bbf-96cc-ea6c01c772e1","ios":"levelo://app?vid=a377187c-a270-4bbf-96cc-ea6c01c772e1"},"vehicle_type_id":"4","last_reported":1740226482,"current_range_meters":22000,"station_id":"ce4bhnh2rcd13ifvqgug","pricing_plan_id":"cebpf4jnsgd1na2vs0mg"},{"bike_id":"8cc65820-fa41-480a-9aeb-af0edf40c548","system_id":"levelo_inurba_marseille","lat":43.28489,"lon":5.38565,"is_reserved":false,"is_disabled":false,"rental_uris":{"android":"levelo://app?vid=8cc65820-fa41-480a-9aeb-af0edf40c548","ios":"levelo://app?vid=8cc65820-fa41-480a-9aeb-af0edf40c548"},"vehicle_type_id":"4","last_reported":1740226482,"current_range_meters":22000,"station_id":"ce4bh8p2rcd13ifvqeb0","pricing_plan_id":"cebpf4jnsgd1na2vs0mg"},{"bike_id":"0ab8f8c4-7aa8-4128-a2cd-ff233900785f","system_id":"levelo_inurba_marseille","lat":43.30549,"lon":5.37155,"is_reserved":false,"is_disabled":false,"rental_uris":{"android":"levelo://app?vid=0ab8f8c4-7aa8-4128-a2cd-ff233900785f","ios":"levelo://app?vid=0ab8f8c4-7aa8-4128-a2cd-ff233900785f"},"vehicle_type_id":"4","last_reported":1740226482,"current_range_meters":22000,"station_id":"ce4bgqh2rcd13ifvqc4g","pricing_plan_id":"cebpf4jnsgd1na2vs0mg"},{"bike_id":"878eeab7-85f8-4b35-af45-e333465941cd","system_id":"levelo_inurba_marseille","lat":43.27239,"lon":5.39174,"is_reserved":false,"is_disabled":false,"rental_uris":{"android":"levelo://app?vid=878eeab7-85f8-4b35-af45-e333465941cd","ios":"levelo://app?vid=878eeab7-85f8-4b35-af45-e333465941cd"},"vehicle_type_id":"4","last_reported":1740226482,"current_range_meters":22000,"station_id":"ce4bhhp2rcd13ifvqfm0","pricing_plan_id":"cebpf4jnsgd1na2vs0mg"},{"bike_id":"dd2b812c-d097-4160-9e2b-c53526e2d0cd","system_id":"levelo_inurba_marseille","lat":43.24652,"lon":5.38891,"is_reserved":false,"is_disabled":false,"rental_uris":{"android":"levelo://app?vid=dd2b812c-d097-4160-9e2b-c53526e2d0cd","ios":"levelo://app?vid=dd2b812c-d097-4160-9e2b-c53526e2d0cd"},"vehicle_type_id":"4","last_reported":1740226482,"current_range_meters":19600,"station_id":"ce4bhg12rcd13ifvqf60","pricing_plan_id":"cebpf4jnsgd1na2vs0mg"},{"bike_id":"27d812ca-258f-4023-8e7a-e287d89d3d63","system_id":"levelo_inurba_marseille","lat":43.27377,"lon":5.36261,"is_reserved":false,"is_disabled":false,"rental_uris":{"android":"levelo://app?vid=27d812ca-258f-4023-8e7a-e287d89d3d63","ios":"levelo://app?vid=27d812ca-258f-4023-8e7a-e287d89d3d63"},"vehicle_type_id":"4","last_reported":1740226482,"current_range_meters":22000,"station_id":"ce4bhbh2rcd13ifvqeo0","pricing_plan_id":"cebpf4jnsgd1na2vs0mg"},{"bike_id":"8e5d8ee8-3ab6-431c-8183-aaf067d6c91b","system_id":"levelo_inurba_marseille","lat":43.25006,"lon":5.38903,"is_reserved":false,"is_disabled":false,"rental_uris":{"android":"levelo://app?vid=8e5d8ee8-3ab6-431c-8183-aaf067d6c91b","ios":"levelo://app?vid=8e5d8ee8-3ab6-431c-8183-aaf067d6c91b"},"vehicle_type_id":"4","last_reported":1740226482,"current_range_meters":22000,"station_id":"ce4bhgp2rcd13ifvqfd0","pricing_plan_id":"cebpf4jnsgd1na2vs0mg"},{"bike_id":"87c93845-143c-4613-9a0d-08836448a26d","system_id":"levelo_inurba_marseille","lat":43.23954,"lon":5.36622,"is_reserved":false,"is_disabled":false,"rental_uris":{"android":"levelo://app?vid=87c93845-143c-4613-9a0d-08836448a26d","ios":"levelo://app?vid=87c93845-143c-4613-9a0d-08836448a26d"},"vehicle_type_id":"4","last_reported":1740226482,"current_range_meters":22000,"station_id":"ce4bhi12rcd13ifvqfp0","pricing_plan_id":"cebpf4jnsgd1na2vs0mg"},{"bike_id":"24b6ebec-a4c5-458d-9f2f-386f945b7688","system_id":"levelo_inurba_marseille","lat":43.28373,"lon":5.3862,"is_reserved":false,"is_disabled":false,"rental_uris":{"android":"levelo://app?vid=24b6ebec-a4c5-458d-9f2f-386f945b7688","ios":"levelo://app?vid=24b6ebec-a4c5-458d-9f2f-386f945b7688"},"vehicle_type_id":"4","last_reported":1740226482,"current_range_meters":21600,"station_id":"ce4bh492rcd13ifvqdvg","pricing_plan_id":"cebpf4jnsgd1na2vs0mg"},{"bike_id":"073518a5-4dc0-447e-9477-a67f73b2a5a2","system_id":"levelo_inurba_marseille","lat":43.32381,"lon":5.36797,"is_reserved":false,"is_disabled":false,"rental_uris":{"android":"levelo://app?vid=073518a5-4dc0-447e-9477-a67f73b2a5a2","ios":"levelo://app?vid=073518a5-4dc0-447e-9477-a67f73b2a5a2"},"vehicle_type_id":"4","last_reported":1740226482,"current_range_meters":22000,"station_id":"ce4bhsh2rcd13ifvqi2g","pricing_plan_id":"cebpf4jnsgd1na2vs0mg"},