{"last_updated":1692518850,"ttl":30,"version":"2.2","data":{"bikes":[{"bike_id":"08022e2c-294c-4ebf-8452-32bcb1cb8509","system_id":"levelo_inurba_marseille","lat":43.31341,"lon":5.367098,"is_reserved":false,"is_disabled":false,"rental_uris":{"android":"levelo://app?vid=08022e2c-294c-4ebf-8452-32bcb1cb8509","ios":"levelo://app?vid=08022e2c-294c-4ebf-8452-32bcb1cb8509"},"vehicle_type_id":"4","last_reported":1692518851,"current_range_meters":31200,"station_id":"ce4bgr92rcd13ifvqc6g","pricing_plan_id":"free"},{"bike_id":"3e2a3767-1681-4b47-809a-9b2797cf3886","system_id":"levelo_inurba_marseille","lat":43.31341,"lon":5.367098,"is_reserved":false,"is_disabled":false,"rental_uris":{"android":"levelo://app?vid=3e2a3767-1681-4b47-809a-9b2797cf3886","ios":"levelo://app?vid=3e2a3767-1681-4b47-809a-9b2797cf3886"},"vehicle_type_id":"4","last_reported":1692518851,"current_range_meters":8400,"station_id":"ce4bgr92rcd13ifvqc6g","pricing_plan_id":"free"},{"bike_id":"f22ca441-4e4e-4660-b824-b2f46943e54d","system_id":"levelo_inurba_marseille","lat":43.312239,"lon":5.368562,"is_reserved":false,"is_disabled":false,"rental_uris":{"android":"levelo://app?vid=f22ca441-4e4e-4660-b824-b2f46943e54d","ios":"levelo://app?vid=f22ca441-4e4e-4660-b824-b2f46943e54d"},"vehicle_type_id":"4","last_reported":1692518851,"current_range_meters":31200,"station_id":"ce4bgl92rcd13ifvqbq0","pricing_plan_id":"free"},{"bike_id":"0f5837dc-f4e0-4b99-b093-6e2d534281b6","system_id":"levelo_inurba_marseille","lat":43.312239,"lon":5.368562,"is_reserved":false,"is_disabled":false,"rental_uris":{"android":"levelo://app?vid=0f5837dc-f4e0-4b99-b093-6e2d534281b6","ios":"levelo://app?vid=0f5837dc-f4e0-4b99-b093-6e2d534281b6"},"vehicle_type_id":"4","last_reported":1692518851,"current_range_meters":11600,"station_id":"ce4bgl92rcd13ifvqbq0","pricing_plan_id":"free"},{"bike_id":"078b8839-5dca-482c-b506-bd068d73c26e","system_id":"levelo_inurba_marseille","lat":43.314811,"lon":5.373103,"is_reserved":false,"is_disabled":false,"rental_uris":{"android":"levelo://app?vid=078b8839-5dca-482c-b506-bd068d73c26e","ios":"levelo://app?vid=078b8839-5dca-482c-b506-bd068d73c26e"},"vehicle_type_id":"4","last_reported":1692518851,"current_range_meters":31200,"station_id":"ce4bgt12rcd13ifvqcd0","pricing_plan_id":"free"},{"bike_id":"63f2097b-7805-4f57-a26f-3109039a56f8","system_id":"levelo_inurba_marseille","lat":43.314811,"lon":5.373103,"is_reserved":false,"is_disabled":false,"rental_uris":{"android":"levelo://app?vid=63f2097b-7805-4f57-a26f-3109039a56f8","ios":"levelo://app?vid=63f2097b-7805-4f57-a26f-3109039a56f8"},"vehicle_type_id":"4","last_reported":1692518851,"current_range_meters":31200,"station_id":"ce4bgt12rcd13ifvqcd0","pricing_plan_id":"free"},{"bike_id":"fcf8ac9e-2d00-47dc-ab8c-d1a8324e56c1","system_id":"levelo_inurba_marseille","lat":43.314811,"lon":5.373103,"is_reserved":false,"is_disabled":false,"rental_uris":{"android":"levelo://app?vid=fcf8ac9e-2d00-47dc-ab8c-d1a8324e56c1","ios":"levelo://app?vid=fcf8ac9e-2d00-47dc-ab8c-d1a8324e56c1"},"vehicle_type_id":"4","last_reported":1692518851,"current_range_meters":4800,"station_id":"ce4bgt12rcd13ifvqcd0","pricing_plan_id":"free"},{"bike_id":"1ec1fc95-3051-4b9e-a138-6c62ea4f1d70","system_id":"levelo_inurba_marseille","lat":43.31511,"lon":5.37296,"is_reserved":false,"is_disabled":false,"rental_uris":{"android":"levelo://app?vid=1ec1fc95-3051-4b9e-a138-6c62ea4f1d70","ios":"levelo://app?vid=1ec1fc95-3051-4b9e-a138-6c62ea4f1d70"},"vehicle_type_id":"4","last_reported":1692518851,"current_range_meters":18000,"station_id":"ce4bgt12rcd13ifvqcd0","pricing_plan_id":"free"},{"bike_id":"584821c3-9d83-4da6-9d8d-6944e17221d7","system_id":"levelo_inurba_marseille","lat":43.309039,"lon":5.371797,"is_reserved":false,"is_disabled":false,"rental_uris":{"android":"levelo://app?vid=584821c3-9d83-4da6-9d8d-6944e17221d7","ios":"levelo://app?vid=584821c3-9d83-4da6-9d8d-6944e17221d7"},"vehicle_type_id":"4","last_reported":1692518851,"current_range_meters":30000,"station_id":"ce4bguh2rcd13ifvqckg","pricing_plan_id":"free"},{"bike_id":"3717e9dc-e1e7-4cca-9a60-f0977001ab0b","system_id":"levelo_inurba_marseille","lat":43.30559,"lon":5.36703,"is_reserved":false,"is_disabled":false,"rental_uris":{"android":"levelo://app?vid=3717e9dc-e1e7-4cca-9a60-f0977001ab0b","ios":"levelo://app?vid=3717e9dc-e1e7-4cca-9a60-f0977001ab0b"},"vehicle_type_id":"4","last_reported":1692518851,"current_range_meters":7200,"station_id":"ce4bgrp2rcd13ifvqc9g","pricing_plan_id":"free"},{"bike_id":"386ed8e3-b71e-4f68-86af-202c5b76503e","system_id":"levelo_inurba_marseille","lat":43.30535,"lon":5.36712,"is_reserved":false,"is_disabled":false,"rental_uris":{"android":"levelo://app?vid=386ed8e3-b71e-4f68-86af-202c5b76503e","ios":"levelo://app?vid=386ed8e3-b71e-4f68-86af-202c5b76503e"},"vehicle_type_id":"4","last_reported":1692518851,"current_range_meters":21200,"station_id":"ce4bgrp2rcd13ifvqc9g","pricing_plan_id":"free"},{"bike_id":"9fbe6e18-d192-44c2-98b5-cafb68b41aa4","system_id":"levelo_inurba_marseille","lat":43.30535,"lon":5.36542,"is_reserved":false,"is_disabled":false,"rental_uris":{"android":"levelo://app?vid=9fbe6e18-d192-44c2-98b5-cafb68b41aa4","ios":"levelo://app?vid=9fbe6e18-d192-44c2-98b5-cafb68b41aa4"},"vehicle_type_id":"4","last_reported":1692518851,"current_range_meters":7600,"station_id":"ce4bgs12rcd13ifvqcag","pricing_plan_id":"free"},{"bike_id":"23fa1577-981b-4b36-b415-bec8d7f47377","system_id":"levelo_inurba_marseille","lat":43.31122,"lon":5.37756,"is_reserved":false,"is_disabled":false,"rental_uris":{"android":"levelo://app?vid=23fa1577-981b-4b36-b415-bec8d7f47377","ios":"levelo://app?vid=23fa1577-981b-4b36-b415-bec8d7f47377"},"vehicle_type_id":"4","last_reported":1692518851,"current_range_meters":30000,"station_id":"ce4bgt92rcd13ifvqcg0","pricing_plan_id":"free"},{"bike_id":"41bb4d70-f899-4935-8aa9-7f43cb3abe20","system_id":"levelo_inurba_marseille","lat":43.311131,"lon":5.377651,"is_reserved":false,"is_disabled":false,"rental_uris":{"android":"levelo://app?vid=41bb4d70-f899-4935-8aa9-7f43cb3abe20","ios":"levelo://app?vid=41bb4d70-f899-4935-8aa9-7f43cb3abe20"},"vehicle_type_id":"4","last_reported":1692518851,"current_range_meters":0,"station_id":"ce4bgt92rcd13ifvqcg0","pricing_plan_id":"free"},{"bike_id":"1b2c21f1-76d6-4ea7-b906-a83d2ad7ad2e","system_id":"levelo_inurba_marseille","lat":43.30783,"lon":5.37654,"is_reserved":false,"is_disabled":false,"rental_uris":{"android":"levelo://app?vid=1b2c21f1-76d6-4ea7-b906-a83d2ad7ad2e","ios":"levelo://app?vid=1b2c21f1-76d6-4ea7-b906-a83d2ad7ad2e"},"vehicle_type_id":"4","last_reported":1692518851,"current_range_meters":15600,"station_id":"ce4bgv92rcd13ifvqcq0","pricing_plan_id":"free"},{"bike_id":"414d4b2f-3369-440d-a0e7-70d3732151fb","system_id":"levelo_inurba_marseille","lat":43.307945,"lon":5.376487,"is_reserved":false,"is_disabled":false,"rental_uris":{"android":"levelo://app?vid=414d4b2f-3369-440d-a0e7-70d3732151fb","ios":"levelo://app?vid=414d4b2f-3369-440d-a0e7-70d3732151fb"},"vehicle_type_id":"4","last_reported":1692518851,"current_range_meters":31200,"station_id":"ce4bgv92rcd13ifvqcq0","pricing_plan_id":"free"},{"bike_id":"2030aa77-4544-426d-b6be-e6f407d98134","system_id":"levelo_inurba_marseille","lat":43.30776,"lon":5.37653,"is_reserved":false,"is_disabled":false,"rental_uris":{"android":"levelo://app?vid=2030aa77-4544-426d-b6be-e6f407d98134","ios":"levelo://app?vid=2030aa77-4544-426d-b6be-e6f407d98134"},"vehicle_type_id":"4","last_reported":1692518851,"current_range_meters":20400,"station_id":"ce4bgv92rcd13ifvqcq0","pricing_plan_id":"free"},{"bike_id":"1f18cbaf-dbf3-4748-b1af-0097256116f3","system_id":"levelo_inurba_marseille","lat":43.307945,"lon":5.376487,"is_reserved":false,"is_disabled":false,"rental_uris":{"android":"levelo://app?vid=1f18cbaf-dbf3-4748-b1af-0097256116f3","ios":"levelo://app?vid=1f18cbaf-dbf3-4748-b1af-0097256116f3"},"vehicle_type_id":"4","last_reported":1692518851,"current_range_meters":31200,"station_id":"ce4bgv92rcd13ifvqcq0","pricing_plan_id":"free"},{"bike_id":"3891919a-0e41-44e0-8bd0-d7ef18d2ea87","system_id":"levelo_inurba_marseille","lat":43.307945,"lon":5.376487,"is_reserved":false,"is_disabled":false,"rental_uris":{"android":"levelo://app?vid=3891919a-0e41-44e0-8bd0-d7ef18d2ea87","ios":"levelo://app?vid=3891919a-0e41-44e0-8bd0-d7ef18d2ea87"},"vehicle_type_id":"4","last_reported":1692518851,"current_range_meters":8400,"station_id":"ce4bgv92rcd13ifvqcq0","pricing_plan_id":"free"},{"bike_id":"e92c44c6-bfb0-45fa-b2fe-a367fd139d46","system_id":"levelo_inurba_marseille","lat":43.31699,"lon":5.37726,"is_reserved":false,"is_disabled":false,"rental_uris":{"android":"levelo://app?vid=e92c44c6-bfb0-45fa-b2fe-a367fd139d46","ios":"levelo://app?vid=e92c44c6-bfb0-45fa-b2fe-a367fd139d46"},"vehicle_type_id":"4","last_reported":1692518851,"current_range_meters":17600,"station_id":"ce4bgth2rcd13ifvqch0","pricing_plan_id":"free"},{"bike_id":"91c504ff-f6db-44c1-afd9-0c67db5a9221","system_id":"levelo_inurba_marseille","lat":43.31714,"lon":5.37748,"is_reserved":false,"is_disabled":false,"rental_uris":{"android":"levelo://app?vid=91c504ff-f6db-44c1-afd9-0c67db5a9221","ios":"levelo://app?vid=91c504ff-f6db-44c1-afd9-0c67db5a9221"},"vehicle_type_id":"4","last_reported":1692518851,"current_range_meters":4400,"station_id":"ce4bgth2rcd13ifvqch0","pricing_plan_id":"free"},{"bike_id":"6f05d353-e58d-42a8-bb11-de42bb2da5c3","system_id":"levelo_inurba_marseille","lat":43.30296,"lon":5.36868,"is_reserved":false,"is_disabled":false,"rental_uris":{"android":"levelo://app?vid=6f05d353-e58d-42a8-bb11-de42bb2da5c3","ios":"levelo://app?vid=6f05d353-e58d-42a8-bb11-de42bb2da5c3"},"vehicle_type_id":"4","last_reported":1692518851,"current_range_meters":30000,"station_id":"ce4bgqh2rcd13ifvqc5g","pricing_plan_id":"free"},{"bike_id":"0871042d-4c98-4a0d-a09d-36eb6b88fae9","system_id":"levelo_inurba_marseille","lat":43.31532,"lon":5.3802,"is_reserved":false,"is_disabled":false,"rental_uris":{"android":"levelo://app?vid=0871042d-4c98-4a0d-a09d-36eb6b88fae9","ios":"levelo://app?vid=0871042d-4c98-4a0d-a09d-36eb6b88fae9"},"vehicle_type_id":"4","last_reported":1692518851,"current_range_meters":21200,"station_id":"ce4bhsp2rcd13ifvqi50","pricing_plan_id":"free"},{"bike_id":"d25633c2-027a-4b2b-98ca-7f8554f64ae3","system_id":"levelo_inurba_marseille","lat":43.31536,"lon":5.38035,"is_reserved":false,"is_disabled":false,"rental_uris":{"android":"levelo://app?vid=d25633c2-027a-4b2b-98ca-7f8554f64ae3","ios":"levelo://app?vid=d25633c2-027a-4b2b-98ca-7f8554f64ae3"},"vehicle_type_id":"4","last_reported":1692518851,"current_range_meters":19600,"station_id":"ce4bhsp2rcd13ifvqi50","pricing_plan_id":"free"},{"bike_id":"6de875c8-90dd-45b2-8509-94e93f8acc93","system_id":"levelo_inurba_marseille","lat":43.30187,"lon":5.36616,"is_reserved":false,"is_disabled":false,"rental_uris":{"android":"levelo://app?vid=6de875c8-90dd-45b2-8509-94e93f8acc93","ios":"levelo://app?vid=6de875c8-90dd-45b2-8509-94e93f8acc93"},"vehicle_type_id":"4","last_reported":1692518851,"current_range_meters":8800,"station_id":"ce4bgrh2rcd13ifvqc8g","pricing_plan_id":"free"},{"bike_id":"feb86a2a-e754-4a29-965d-bf72cef6f7e9","system_id":"levelo_inurba_marseille","lat":43.308027,"lon":5.381499,"is_reserved":false,"is_disabled":false,"rental_uris":{"android":"levelo://app?vid=feb86a2a-e754-4a29-965d-bf72cef6f7e9","ios":"levelo://app?vid=feb86a2a-e754-4a29-965d-bf72cef6f7e9"},"vehicle_type_id":"4","last_reported":1692518851,"current_range_meters":5600,"station_id":"ce4bgt12rcd13ifvqce0","pricing_plan_id":"free"},{"bike_id":"085bc78f-a00d-40ea-bdb2-3c59b5e756bf","system_id":"levelo_inurba_marseille","lat":43.30801,"lon":5.38157,"is_reserved":false,"is_disabled":false,"rental_uris":{"android":"levelo://app?vid=085bc78f-a00d-40ea-bdb2-3c59b5e756bf","ios":"levelo://app?vid=085bc78f-a00d-40ea-bdb2-3c59b5e756bf"},"vehicle_type_id":"4","last_reported":1692518851,"current_range_meters":21600,"station_id":"ce4bgt12rcd13ifvqce0","pricing_plan_id":"free"},{"bike_id":"efd111e0-9ade-48c9-85af-dfb29e03d611","system_id":"levelo_inurba_marseille","lat":43.304606,"lon":5.379026,"is_reserved":false,"is_disabled":false,"rental_uris":{"android":"levelo://app?vid=efd111e0-9ade-48c9-85af-dfb29e03d611","ios":"levelo://app?vid=efd111e0-9ade-48c9-85af-dfb29e03d611"},"vehicle_type_id":"4","last_reported":1692518851,"current_range_meters":24800,"station_id":"ce4bgup2rcd13ifvqcn0","pricing_plan_id":"free"},{"bike_id":"e266b0e4-77aa-43db-b148-e02273af7bbd","system_id":"levelo_inurba_marseille","lat":43.304606,"lon":5.379026,"is_reserved":false,"is_disabled":false,"rental_uris":{"android":"levelo://app?vid=e266b0e4-77aa-43db-b148-e02273af7bbd","ios":"levelo://app?vid=e266b0e4-77aa-43db-b148-e02273af7bbd"},"vehicle_type_id":"4","last_reported":1692518851,"current_range_meters":24400,"station_id":"ce4bgup2rcd13ifvqcn0","pricing_plan_id":"free"},{"bike_id":"ec878933-4bfe-45a5-8941-9c1f9e4b177a","system_id":"levelo_inurba_marseille","lat":43.304606,"lon":5.379026,"is_reserved":false,"is_disabled":false,"rental_uris":{"android":"levelo://app?vid=ec878933-4bfe-45a5-8941-9c1f9e4b177a","ios":"levelo://app?vid=ec878933-4bfe-45a5-8941-9c1f9e4b177a"},"vehicle_type_id":"4","last_reported":1692518851,"current_range_meters":18800,"station_id":"ce4bgup2rcd13ifvqcn0","pricing_plan_id":"free"},{"bike_id":"43ba346e-2d93-4223-a640-4fa28ba45abd","system_id":"levelo_inurba_marseille","lat":43.304606,"lon":5.379026,"is_reserved":false,"is_disabled":false,"rental_uris":{"android":"levelo://app?vid=43ba346e-2d93-4223-a640-4fa28ba45abd","ios":"levelo://app?vid=43ba346e-2d93-4223-a640-4fa28ba45abd"},"vehicle_type_id":"4","last_reported":1692518851,"current_range_meters":16400,"station_id":"ce4bgup2rcd13ifvqcn0","pricing_plan_id":"free"},{"bike_id":"22bd445f-be4d-410e-ad2e-296fe0c38f3b","system_id":"levelo_inurba_marseille","lat":43.304606,"lon":5.379026,"is_reserved":false,"is_disabled":false,"rental_uris":{"android":"levelo://app?vid=22bd445f-be4d-410e-ad2e-296fe0c38f3b","ios":"levelo://app?vid=22bd445f-be4d-410e-ad2e-296fe0c38f3b"},"vehicle_type_id":"4","last_reported":1692518851,"current_range_meters":31200,"station_id":"ce4bgup2rcd13ifvqcn0","pricing_plan_id":"free"},{"bike_id":"6d7980ec-9b32-4d24-8c38-592109fb843d","system_id":"levelo_inurba_marseille","lat":43.304606,"lon":5.379026,"is_reserved":false,"is_disabled":false,"rental_uris":{"android":"levelo://app?vid=6d7980ec-9b32-4d24-8c38-592109fb843d","ios":"levelo://app?vid=6d7980ec-9b32-4d24-8c38-592109fb843d"},"vehicle_type_id":"4","last_reported":1692518851,"current_range_meters":31200,"station_id":"ce4bgup2rcd13ifvqcn0","pricing_plan_id":"free"},{"bike_id":"2cd28c41-5992-4acd-9d0b-2816fd9f18fc","system_id":"levelo_inurba_marseille","lat":43.304606,"lon":5.379026,"is_reserved":false,"is_disabled":false,"rental_uris":{"android":"levelo://app?vid=2cd28c41-5992-4acd-9d0b-2816fd9f18fc","ios":"levelo://app?vid=2cd28c41-5992-4acd-9d0b-2816fd9f18fc"},"vehicle_type_id":"4","last_reported":1692518851,"current_range_meters":31200,"station_id":"ce4bgup2rcd13ifvqcn0","pricing_plan_id":"free"},{"bike_id":"4412493a-11c6-47c2-ac93-a8ba471abb2c","system_id":"levelo_inurba_marseille","lat":43.304606,"lon":5.379026,"is_reserved":false,"is_disabled":false,"rental_uris":{"android":"levelo://app?vid=4412493a-11c6-47c2-ac93-a8ba471abb2c","ios":"levelo://app?vid=4412493a-11c6-47c2-ac93-a8ba471abb2c"},"vehicle_type_id":"4","last_reported":1692518851,"current_range_meters":18800,"station_id":"ce4bgup2rcd13ifvqcn0","pricing_plan_id":"free"},{"bike_id":"9d7257a9-e3f6-4616-9b15-d63fe00e235e","system_id":"levelo_inurba_marseille","lat":43.30147,"lon":5.37413,"is_reserved":false,"is_disabled":false,"rental_uris":{"android":"levelo://app?vid=9d7257a9-e3f6-4616-9b15-d63fe00e235e","ios":"levelo://app?vid=9d7257a9-e3f6-4616-9b15-d63fe00e235e"},"vehicle_type_id":"4","last_reported":1692518851,"current_range_meters":15200,"station_id":"ce4bgs92rcd13ifvqcc0","pricing_plan_id":"free"},{"bike_id":"a03b0b7a-20ba-4b5b-a1ae-bad03aafb010","system_id":"levelo_inurba_marseille","lat":43.30142,"lon":5.37415,"is_reserved":false,"is_disabled":false,"rental_uris":{"android":"levelo://app?vid=a03b0b7a-20ba-4b5b-a1ae-bad03aafb010","ios":"levelo://app?vid=a03b0b7a-20ba-4b5b-a1ae-bad03aafb010"},"vehicle_type_id":"4","last_reported":1692518851,"current_range_meters":18000,"station_id":"ce4bgs92rcd13ifvqcc0","pricing_plan_id":"free"},{"bike_id":"43be714e-25e4-4341-bcb5-3847ac10a620","system_id":"levelo_inurba_marseille","lat":43.30143,"lon":5.3742,"is_reserved":false,"is_disabled":false,"rental_uris":{"android":"levelo://app?vid=43be714e-25e4-4341-bcb5-3847ac10a620","ios":"levelo://app?vid=43be714e-25e4-4341-bcb5-3847ac10a620"},"vehicle_type_id":"4","last_reported":1692518851,"current_range_meters":800,"station_id":"ce4bgs92rcd13ifvqcc0","pricing_plan_id":"free"},{"bike_id":"2853069c-edb4-47a8-8b6a-798f5cd95477","system_id":"levelo_inurba_marseille","lat":43.32001,"lon":5.38154,"is_reserved":false,"is_disabled":false,"rental_uris":{"android":"levelo://app?vid=2853069c-edb4-47a8-8b6a-798f5cd95477","ios":"levelo://app?vid=2853069c-edb4-47a8-8b6a-798f5cd95477"},"vehicle_type_id":"4","last_reported":1692518851,"current_range_meters":0,"station_id":"ce4bhr12rcd13ifvqhpg","pricing_plan_id":"free"},{"bike_id":"ba377119-03a1-4af7-918a-915d516a96e7","system_id":"levelo_inurba_marseille","lat":43.313571,"lon":5.384829,"is_reserved":false,"is_disabled":false,"rental_uris":{"android":"levelo://app?vid=ba377119-03a1-4af7-918a-915d516a96e7","ios":"levelo://app?vid=ba377119-03a1-4af7-918a-915d516a96e7"},"vehicle_type_id":"4","last_reported":1692518851,"current_range_meters":30000,"station_id":"ce4bgt92rcd13ifvqcf0","pricing_plan_id":"free"},{"bike_id":"a6346084-6168-4c19-8617-8d87c066e38e","system_id":"levelo_inurba_marseille","lat":43.29853,"lon":5.36288,"is_reserved":false,"is_disabled":false,"rental_uris":{"android":"levelo://app?vid=a6346084-6168-4c19-8617-8d87c066e38e","ios":"levelo://app?vid=a6346084-6168-4c19-8617-8d87c066e38e"},"vehicle_type_id":"4","last_reported":1692518851,"current_range_meters":4800,"station_id":"ce4bgpp2rcd13ifvqc3g","pricing_plan_id":"free"},{"bike_id":"779b0bc6-dbb4-4b52-a916-a3fe3269bec3","system_id":"levelo_inurba_marseille","lat":43.298433,"lon":5.362774,"is_reserved":false,"is_disabled":false,"rental_uris":{"android":"levelo://app?vid=779b0bc6-dbb4-4b52-a916-a3fe3269bec3","ios":"levelo://app?vid=779b0bc6-dbb4-4b52-a916-a3fe3269bec3"},"vehicle_type_id":"4","last_reported":1692518851,"current_range_meters":10400,"station_id":"ce4bgpp2rcd13ifvqc3g","pricing_plan_id":"free"},{"bike_id":"f151a372-c38d-4e54-b396-d25d9ce3ddc5","system_id":"levelo_inurba_marseille","lat":43.298433,"lon":5.362774,"is_reserved":false,"is_disabled":false,"rental_uris":{"android":"levelo://app?vid=f151a372-c38d-4e54-b396-d25d9ce3ddc5","ios":"levelo://app?vid=f151a372-c38d-4e54-b396-d25d9ce3ddc5"},"vehicle_type_id":"4","last_reported":1692518851,"current_range_meters":16800,"station_id":"ce4bgpp2rcd13ifvqc3g","pricing_plan_id":"free"},{"bike_id":"dffca9b9-7dca-4c9f-87cc-916579c157ae","system_id":"levelo_inurba_marseille","lat":43.305364,"lon":5.384119,"is_reserved":false,"is_disabled":false,"rental_uris":{"android":"levelo://app?vid=dffca9b9-7dca-4c9f-87cc-916579c157ae","ios":"levelo://app?vid=dffca9b9-7dca-4c9f-87cc-916579c157ae"},"vehicle_type_id":"4","last_reported":1692518851,"current_range_meters":14000,"station_id":"ce4bgg92rcd13ifvqb30","pricing_plan_id":"free"},{"bike_id":"1b6dc66f-c2f3-4533-ba1d-be7f61dc1aec","system_id":"levelo_inurba_marseille","lat":43.298433,"lon":5.362774,"is_reserved":false,"is_disabled":false,"rental_uris":{"android":"levelo://app?vid=1b6dc66f-c2f3-4533-ba1d-be7f61dc1aec","ios":"levelo://app?vid=1b6dc66f-c2f3-4533-ba1d-be7f61dc1aec"},"vehicle_type_id":"4","last_reported":1692518851,"current_range_meters":26800,"station_id":"ce4bgpp2rcd13ifvqc3g","pricing_plan_id":"free"},{"bike_id":"ee68da55-7e34-4abe-ac81-a751499383a9","system_id":"levelo_inurba_marseille","lat":43.298433,"lon":5.362774,"is_reserved":false,"is_disabled":false,"rental_uris":{"android":"levelo://app?vid=ee68da55-7e34-4abe-ac81-a751499383a9","ios":"levelo://app?vid=ee68da55-7e34-4abe-ac81-a751499383a9"},"vehicle_type_id":"4","last_reported":1692518851,"current_range_meters":7200,"station_id":"ce4bgpp2rcd13ifvqc3g","pricing_plan_id":"free"},{"bike_id":"f2d3f1cb-af47-47f8-b7fa-cebe5aae4bb1","system_id":"levelo_inurba_marseille","lat":43.30539,"lon":5.38433,"is_reserved":false,"is_disabled":false,"rental_uris":{"android":"levelo://app?vid=f2d3f1cb-af47-47f8-b7fa-cebe5aae4bb1","ios":"levelo://app?vid=f2d3f1cb-af47-47f8-b7fa-cebe5aae4bb1"},"vehicle_type_id":"4","last_reported":1692518851,"current_range_meters":24000,"station_id":"ce4bgg92rcd13ifvqb30","pricing_plan_id":"free"},{"bike_id":"cfa9286b-8f63-4ef0-b244-828dd87c7213","system_id":"levelo_inurba_marseille","lat":43.3053,"lon":5.38428,"is_reserved":false,"is_disabled":false,"rental_uris":{"android":"levelo://app?vid=cfa9286b-8f63-4ef0-b244-828dd87c7213","ios":"levelo://app?vid=cfa9286b-8f63-4ef0-b244-828dd87c7213"},"vehicle_type_id":"4","last_reported":1692518851,"current_range_meters":13200,"station_id":"ce4bgg92rcd13ifvqb30","pricing_plan_id":"free"},{"bike_id":"10b59d93-04c8-4d2d-8663-1f76d0e8a456","system_id":"levelo_inurba_marseille","lat":43.29841,"lon":5.36265,"is_reserved":false,"is_disabled":false,"rental_uris":{"android":"levelo://app?vid=10b59d93-04c8-4d2d-8663-1f76d0e8a456","ios":"levelo://app?vid=10b59d93-04c8-4d2d-8663-1f76d0e8a456"},"vehicle_type_id":"4","last_reported":1692518851,"current_range_meters":16400,"station_id":"","pricing_plan_id":"free"},{"bike_id":"bc55a5b4-469a-4297-a160-1f086c94b166","system_id":"levelo_inurba_marseille","lat":43.298433,"lon":5.362774,"is_reserved":false,"is_disabled":false,"rental_uris":{"android":"levelo://app?vid=bc55a5b4-469a-4297-a160-1f086c94b166","ios":"levelo://app?vid=bc55a5b4-469a-4297-a160-1f086c94b166"},"vehicle_type_id":"4","last_reported":1692518851,"current_range_meters":26800,"station_id":"ce4bgpp2rcd13ifvqc3g","pricing_plan_id":"free"},{"bike_id":"094438da-1ff7-4bd2-a7a4-cf6435b46584","system_id":"levelo_inurba_marseille","lat":43.299243,"lon":5.37481,"is_reserved":false,"is_disabled":false,"rental_uris":{"android":"levelo://app?vid=094438da-1ff7-4bd2-a7a4-cf6435b46584","ios":"levelo://app?vid=094438da-1ff7-4bd2-a7a4-cf6435b46584"},"vehicle_type_id":"4","last_reported":1692518851,"current_range_meters":26400,"station_id":"ce4bgjh2rcd13ifvqbg0","pricing_plan_id":"free"},{"bike_id":"5b85dc91-18f9-4b0d-947f-8fdd25de6d15","system_id":"levelo_inurba_marseille","lat":43.29907,"lon":5.37456,"is_reserved":false,"is_disabled":false,"rental_uris":{"android":"levelo://app?vid=5b85dc91-18f9-4b0d-947f-8fdd25de6d15","ios":"levelo://app?vid=5b85dc91-18f9-4b0d-947f-8fdd25de6d15"},"vehicle_type_id":"4","last_reported":1692518851,"current_range_meters":24000,"station_id":"ce4bgjh2rcd13ifvqbg0","pricing_plan_id":"free"},{"bike_id":"b885f463-e8c5-42cc-902f-7152167ce1c7","system_id":"levelo_inurba_marseille","lat":43.299243,"lon":5.374807,"is_reserved":false,"is_disabled":false,"rental_uris":{"android":"levelo://app?vid=b885f463-e8c5-42cc-902f-7152167ce1c7","ios":"levelo://app?vid=b885f463-e8c5-42cc-902f-7152167ce1c7"},"vehicle_type_id":"4","last_reported":1692518851,"current_range_meters":31200,"station_id":"ce4bgjh2rcd13ifvqbg0","pricing_plan_id":"free"},{"bike_id":"b815ce0f-8c6d-460d-8747-b98d1251b4b3","system_id":"levelo_inurba_marseille","lat":43.322872,"lon":5.382756,"is_reserved":false,"is_disabled":false,"rental_uris":{"android":"levelo://app?vid=b815ce0f-8c6d-460d-8747-b98d1251b4b3","ios":"levelo://app?vid=b815ce0f-8c6d-460d-8747-b98d1251b4b3"},"vehicle_type_id":"4","last_reported":1692518851,"current_range_meters":12400,"station_id":"ce4bhr12rcd13ifvqhqg","pricing_plan_id":"free"},{"bike_id":"5b5c8cae-b425-4976-9ba8-5ae205664d6b","system_id":"levelo_inurba_marseille","lat":43.322872,"lon":5.382756,"is_reserved":false,"is_disabled":false,"rental_uris":{"android":"levelo://app?vid=5b5c8cae-b425-4976-9ba8-5ae205664d6b","ios":"levelo://app?vid=5b5c8cae-b425-4976-9ba8-5ae205664d6b"},"vehicle_type_id":"4","last_reported":1692518851,"current_range_meters":15200,"station_id":"ce4bhr12rcd13ifvqhqg","pricing_plan_id":"free"},{"bike_id":"110bd150-ae2d-4085-890c-a8f4481980e0","system_id":"levelo_inurba_marseille","lat":43.32287,"lon":5.38269,"is_reserved":false,"is_disabled":false,"rental_uris":{"android":"levelo://app?vid=110bd150-ae2d-4085-890c-a8f4481980e0","ios":"levelo://app?vid=110bd150-ae2d-4085-890c-a8f4481980e0"},"vehicle_type_id":"4","last_reported":1692518851,"current_range_meters":26800,"station_id":"ce4bhr12rcd13ifvqhqg","pricing_plan_id":"free"},{"bike_id":"b9784bc4-a1f4-4e7b-a996-3746dcc4c656","system_id":"levelo_inurba_marseille","lat":43.32285,"lon":5.38279,"is_reserved":false,"is_disabled":false,"rental_uris":{"android":"levelo://app?vid=b9784bc4-a1f4-4e7b-a996-3746dcc4c656","ios":"levelo://app?vid=b9784bc4-a1f4-4e7b-a996-3746dcc4c656"},"vehicle_type_id":"4","last_reported":1692518851,"current_range_meters":6800,"station_id":"ce4bhr12rcd13ifvqhqg","pricing_plan_id":"free"},{"bike_id":"a1f7b084-f437-4e0c-8b20-334f54c48d59","system_id":"levelo_inurba_marseille","lat":43.32288,"lon":5.3828,"is_reserved":false,"is_disabled":false,"rental_uris":{"android":"levelo://app?vid=a1f7b084-f437-4e0c-8b20-334f54c48d59","ios":"levelo://app?vid=a1f7b084-f437-4e0c-8b20-334f54c48d59"},"vehicle_type_id":"4","last_reported":1692518851,"current_range_meters":15600,"station_id":"ce4bhr12rcd13ifvqhqg","pricing_plan_id":"free"},{"bike_id":"2ab2c619-9cfb-4da7-9f78-cfb4995f9eec","system_id":"levelo_inurba_marseille","lat":43.32824,"lon":5.3668,"is_reserved":false,"is_disabled":false,"rental_uris":{"android":"levelo://app?vid=2ab2c619-9cfb-4da7-9f78-cfb4995f9eec","ios":"levelo://app?vid=2ab2c619-9cfb-4da7-9f78-cfb4995f9eec"},"vehicle_type_id":"4","last_reported":1692518851,"current_range_meters":4400,"station_id":"ce4bhs92rcd13ifvqi0g","pricing_plan_id":"free"},{"bike_id":"0f135836-946e-4e91-9b15-72b385cbdf04","system_id":"levelo_inurba_marseille","lat":43.328371,"lon":5.366909,"is_reserved":false,"is_disabled":false,"rental_uris":{"android":"levelo://app?vid=0f135836-946e-4e91-9b15-72b385cbdf04","ios":"levelo://app?vid=0f135836-946e-4e91-9b15-72b385cbdf04"},"vehicle_type_id":"4","last_reported":1692518851,"current_range_meters":29600,"station_id":"ce4bhs92rcd13ifvqi0g","pricing_plan_id":"free"},{"bike_id":"dd789220-e7b5-42c1-b9dc-dc4243148021","system_id":"levelo_inurba_marseille","lat":43.297163,"lon":5.365866,"is_reserved":false,"is_disabled":false,"rental_uris":{"android":"levelo://app?vid=dd789220-e7b5-42c1-b9dc-dc4243148021","ios":"levelo://app?vid=dd789220-e7b5-42c1-b9dc-dc4243148021"},"vehicle_type_id":"4","last_reported":1692518851,"current_range_meters":31600,"station_id":"ce4bgn12rcd13ifvqbt0","pricing_plan_id":"free"},{"bike_id":"17bd0f22-6938-44b6-897b-6a7c689c5ebc","system_id":"levelo_inurba_marseille","lat":43.297163,"lon":5.365866,"is_reserved":false,"is_disabled":false,"rental_uris":{"android":"levelo://app?vid=17bd0f22-6938-44b6-897b-6a7c689c5ebc","ios":"levelo://app?vid=17bd0f22-6938-44b6-897b-6a7c689c5ebc"},"vehicle_type_id":"4","last_reported":1692518851,"current_range_meters":30000,"station_id":"ce4bgn12rcd13ifvqbt0","pricing_plan_id":"free"},{"bike_id":"0555597d-dbda-46bc-8ba1-741e5e7a8862","system_id":"levelo_inurba_marseille","lat":43.297163,"lon":5.365866,"is_reserved":false,"is_disabled":false,"rental_uris":{"android":"levelo://app?vid=0555597d-dbda-46bc-8ba1-741e5e7a8862","ios":"levelo://app?vid=0555597d-dbda-46bc-8ba1-741e5e7a8862"},"vehicle_type_id":"4","last_reported":1692518851,"current_range_meters":22800,"station_id":"ce4bgn12rcd13ifvqbt0","pricing_plan_id":"free"},{"bike_id":"a4d2b9cb-6d80-4e7b-9b68-89d73bcb1f63","system_id":"levelo_inurba_marseille","lat":43.29573,"lon":5.367355,"is_reserved":false,"is_disabled":false,"rental_uris":{"android":"levelo://app?vid=a4d2b9cb-6d80-4e7b-9b68-89d73bcb1f63","ios":"levelo://app?vid=a4d2b9cb-6d80-4e7b-9b68-89d73bcb1f63"},"vehicle_type_id":"4","last_reported":1692518851,"current_range_meters":28400,"station_id":"ce4bgph2rcd13ifvqc2g","pricing_plan_id":"free"},{"bike_id":"bb155e93-116e-494a-9911-2df351c7dae8","system_id":"levelo_inurba_marseille","lat":43.296131,"lon":5.370773,"is_reserved":false,"is_disabled":false,"rental_uris":{"android":"levelo://app?vid=bb155e93-116e-494a-9911-2df351c7dae8","ios":"levelo://app?vid=bb155e93-116e-494a-9911-2df351c7dae8"},"vehicle_type_id":"4","last_reported":1692518851,"current_range_meters":27600,"station_id":"ce4bgnh2rcd13ifvqc0g","pricing_plan_id":"free"},{"bike_id":"8b1dc445-3f8b-44d3-bd44-0919468962d0","system_id":"levelo_inurba_marseille","lat":43.29573,"lon":5.367355,"is_reserved":false,"is_disabled":false,"rental_uris":{"android":"levelo://app?vid=8b1dc445-3f8b-44d3-bd44-0919468962d0","ios":"levelo://app?vid=8b1dc445-3f8b-44d3-bd44-0919468962d0"},"vehicle_type_id":"4","last_reported":1692518851,"current_range_meters":31200,"station_id":"ce4bgph2rcd13ifvqc2g","pricing_plan_id":"free"},{"bike_id":"30e22507-05ca-4f40-8dab-7cc66353b92a","system_id":"levelo_inurba_marseille","lat":43.29573,"lon":5.367355,"is_reserved":false,"is_disabled":false,"rental_uris":{"android":"levelo://app?vid=30e22507-05ca-4f40-8dab-7cc66353b92a","ios":"levelo://app?vid=30e22507-05ca-4f40-8dab-7cc66353b92a"},"vehicle_type_id":"4","last_reported":1692518851,"current_range_meters":18800,"station_id":"ce4bgph2rcd13ifvqc2g","pricing_plan_id":"free"},{"bike_id":"2046ab76-b90a-4409-bca3-bf621061c688","system_id":"levelo_inurba_marseille","lat":43.29573,"lon":5.367355,"is_reserved":false,"is_disabled":false,"rental_uris":{"android":"levelo://app?vid=2046ab76-b90a-4409-bca3-bf621061c688","ios":"levelo://app?vid=2046ab76-b90a-4409-bca3-bf621061c688"},"vehicle_type_id":"4","last_reported":1692518851,"current_range_meters":29200,"station_id":"ce4bgph2rcd13ifvqc2g","pricing_plan_id":"free"},{"bike_id":"cbd80046-0bf1-4fa5-9c4b-4504f427b478","system_id":"levelo_inurba_marseille","lat":43.296921,"lon":5.376579,"is_reserved":false,"is_disabled":false,"rental_uris":{"android":"levelo://app?vid=cbd80046-0bf1-4fa5-9c4b-4504f427b478","ios":"levelo://app?vid=cbd80046-0bf1-4fa5-9c4b-4504f427b478"},"vehicle_type_id":"4","last_reported":1692518851,"current_range_meters":30000,"station_id":"ce4bgkh2rcd13ifvqbl0","pricing_plan_id":"free"},{"bike_id":"e0eefc6e-efae-4317-ae1f-3d684f408c90","system_id":"levelo_inurba_marseille","lat":43.29573,"lon":5.367355,"is_reserved":false,"is_disabled":false,"rental_uris":{"android":"levelo://app?vid=e0eefc6e-efae-4317-ae1f-3d684f408c90","ios":"levelo://app?vid=e0eefc6e-efae-4317-ae1f-3d684f408c90"},"vehicle_type_id":"4","last_reported":1692518851,"current_range_meters":31200,"station_id":"ce4bgph2rcd13ifvqc2g","pricing_plan_id":"free"},{"bike_id":"d097f605-5e29-429a-a82f-ad6c3875e957","system_id":"levelo_inurba_marseille","lat":43.29573,"lon":5.367355,"is_reserved":false,"is_disabled":false,"rental_uris":{"android":"levelo://app?vid=d097f605-5e29-429a-a82f-ad6c3875e957","ios":"levelo://app?vid=d097f605-5e29-429a-a82f-ad6c3875e957"},"vehicle_type_id":"4","last_reported":1692518851,"current_range_meters":21600,"station_id":"ce4bgph2rcd13ifvqc2g","pricing_plan_id":"free"},{"bike_id":"05f2e128-9f52-4587-919b-eb5a74119d9d","system_id":"levelo_inurba_marseille","lat":43.29573,"lon":5.367355,"is_reserved":false,"is_disabled":false,"rental_uris":{"android":"levelo://app?vid=05f2e128-9f52-4587-919b-eb5a74119d9d","ios":"levelo://app?vid=05f2e128-9f52-4587-919b-eb5a74119d9d"},"vehicle_type_id":"4","last_reported":1692518851,"current_range_meters":26400,"station_id":"ce4bgph2rcd13ifvqc2g","pricing_plan_id":"free"},{"bike_id":"d3139180-8ba9-4c91-b6e4-8baae3c22113","system_id":"levelo_inurba_marseille","lat":43.29615,"lon":5.37189,"is_reserved":false,"is_disabled":false,"rental_uris":{"android":"levelo://app?vid=d3139180-8ba9-4c91-b6e4-8baae3c22113","ios":"levelo://app?vid=d3139180-8ba9-4c91-b6e4-8baae3c22113"},"vehicle_type_id":"4","last_reported":1692518851,"current_range_meters":30400,"station_id":"","pricing_plan_id":"free"},{"bike_id":"690fd256-b938-4333-a8a8-d1b715312c77","system_id":"levelo_inurba_marseille","lat":43.296921,"lon":5.376579,"is_reserved":false,"is_disabled":false,"rental_uris":{"android":"levelo://app?vid=690fd256-b938-4333-a8a8-d1b715312c77","ios":"levelo://app?vid=690fd256-b938-4333-a8a8-d1b715312c77"},"vehicle_type_id":"4","last_reported":1692518851,"current_range_meters":27200,"station_id":"ce4bgkh2rcd13ifvqbl0","pricing_plan_id":"free"},{"bike_id":"a4df99ce-0488-49dd-a888-94686f562e88","system_id":"levelo_inurba_marseille","lat":43.295748,"lon":5.37522,"is_reserved":false,"is_disabled":false,"rental_uris":{"android":"levelo://app?vid=a4df99ce-0488-49dd-a888-94686f562e88","ios":"levelo://app?vid=a4df99ce-0488-49dd-a888-94686f562e88"},"vehicle_type_id":"4","last_reported":1692518851,"current_range_meters":29200,"station_id":"ce4bgh92rcd13ifvqb50","pricing_plan_id":"free"},{"bike_id":"9c217422-46c0-4f10-bf1a-aca164d00601","system_id":"levelo_inurba_marseille","lat":43.29784,"lon":5.38103,"is_reserved":false,"is_disabled":false,"rental_uris":{"android":"levelo://app?vid=9c217422-46c0-4f10-bf1a-aca164d00601","ios":"levelo://app?vid=9c217422-46c0-4f10-bf1a-aca164d00601"},"vehicle_type_id":"4","last_reported":1692518851,"current_range_meters":26000,"station_id":"ce4bgip2rcd13ifvqbb0","pricing_plan_id":"free"},{"bike_id":"20a40878-3e97-490e-923d-1e6714496ba3","system_id":"levelo_inurba_marseille","lat":43.29605,"lon":5.37721,"is_reserved":false,"is_disabled":false,"rental_uris":{"android":"levelo://app?vid=20a40878-3e97-490e-923d-1e6714496ba3","ios":"levelo://app?vid=20a40878-3e97-490e-923d-1e6714496ba3"},"vehicle_type_id":"4","last_reported":1692518851,"current_range_meters":0,"station_id":"ce4bgi92rcd13ifvqb90","pricing_plan_id":"free"},{"bike_id":"174c99cc-f433-43d7-9b2d-48ed843fabda","system_id":"levelo_inurba_marseille","lat":43.295279,"lon":5.375048,"is_reserved":false,"is_disabled":false,"rental_uris":{"android":"levelo://app?vid=174c99cc-f433-43d7-9b2d-48ed843fabda","ios":"levelo://app?vid=174c99cc-f433-43d7-9b2d-48ed843fabda"},"vehicle_type_id":"4","last_reported":1692518851,"current_range_meters":30000,"station_id":"ce4bgkp2rcd13ifvqbmg","pricing_plan_id":"free"},{"bike_id":"a2e5fcc4-0e71-4eae-b34f-489a27484832","system_id":"levelo_inurba_marseille","lat":43.295279,"lon":5.375048,"is_reserved":false,"is_disabled":false,"rental_uris":{"android":"levelo://app?vid=a2e5fcc4-0e71-4eae-b34f-489a27484832","ios":"levelo://app?vid=a2e5fcc4-0e71-4eae-b34f-489a27484832"},"vehicle_type_id":"4","last_reported":1692518851,"current_range_meters":30000,"station_id":"ce4bgkp2rcd13ifvqbmg","pricing_plan_id":"free"},{"bike_id":"c15667a7-0d26-4e64-a5af-00dd0233c23a","system_id":"levelo_inurba_marseille","lat":43.299724,"lon":5.384848,"is_reserved":false,"is_disabled":false,"rental_uris":{"android":"levelo://app?vid=c15667a7-0d26-4e64-a5af-00dd0233c23a","ios":"levelo://app?vid=c15667a7-0d26-4e64-a5af-00dd0233c23a"},"vehicle_type_id":"4","last_reported":1692518851,"current_range_meters":23200,"station_id":"ce4bgj92rcd13ifvqbd0","pricing_plan_id":"free"},{"bike_id":"23d61178-fcaa-4ba4-aee4-746c25e5b4bf","system_id":"levelo_inurba_marseille","lat":43.33083,"lon":5.37468,"is_reserved":false,"is_disabled":false,"rental_uris":{"android":"levelo://app?vid=23d61178-fcaa-4ba4-aee4-746c25e5b4bf","ios":"levelo://app?vid=23d61178-fcaa-4ba4-aee4-746c25e5b4bf"},"vehicle_type_id":"4","last_reported":1692518851,"current_range_meters":26800,"station_id":"","pricing_plan_id":"free"},{"bike_id":"21fcea45-e491-4a85-bcbf-bf5cd0b62ccf","system_id":"levelo_inurba_marseille","lat":43.3236,"lon":5.3887,"is_reserved":false,"is_disabled":false,"rental_uris":{"android":"levelo://app?vid=21fcea45-e491-4a85-bcbf-bf5cd0b62ccf","ios":"levelo://app?vid=21fcea45-e491-4a85-bcbf-bf5cd0b62ccf"},"vehicle_type_id":"4","last_reported":1692518851,"current_range_meters":29200,"station_id":"ce4bhqp2rcd13ifvqhog","pricing_plan_id":"free"},{"bike_id":"a97f77a2-1520-4bfc-9df0-0f9c62851caa","system_id":"levelo_inurba_marseille","lat":43.32366,"lon":5.38881,"is_reserved":false,"is_disabled":false,"rental_uris":{"android":"levelo://app?vid=a97f77a2-1520-4bfc-9df0-0f9c62851caa","ios":"levelo://app?vid=a97f77a2-1520-4bfc-9df0-0f9c62851caa"},"vehicle_type_id":"4","last_reported":1692518851,"current_range_meters":25200,"station_id":"ce4bhqp2rcd13ifvqhog","pricing_plan_id":"free"},{"bike_id":"6b6cba89-d2b8-44bb-8454-5df08cf65f67","system_id":"levelo_inurba_marseille","lat":43.32367,"lon":5.38882,"is_reserved":false,"is_disabled":false,"rental_uris":{"android":"levelo://app?vid=6b6cba89-d2b8-44bb-8454-5df08cf65f67","ios":"levelo://app?vid=6b6cba89-d2b8-44bb-8454-5df08cf65f67"},"vehicle_type_id":"4","last_reported":1692518851,"current_range_meters":9600,"station_id":"ce4bhqp2rcd13ifvqhog","pricing_plan_id":"free"},{"bike_id":"c6869838-3633-43a2-aadb-b40b43502548","system_id":"levelo_inurba_marseille","lat":43.32367,"lon":5.388822,"is_reserved":false,"is_disabled":false,"rental_uris":{"android":"levelo://app?vid=c6869838-3633-43a2-aadb-b40b43502548","ios":"levelo://app?vid=c6869838-3633-43a2-aadb-b40b43502548"},"vehicle_type_id":"4","last_reported":1692518851,"current_range_meters":17200,"station_id":"","pricing_plan_id":"free"},{"bike_id":"0126f869-77bb-4690-a14f-53e2dd9d4689","system_id":"levelo_inurba_marseille","lat":43.3237,"lon":5.38888,"is_reserved":false,"is_disabled":false,"rental_uris":{"android":"levelo://app?vid=0126f869-77bb-4690-a14f-53e2dd9d4689","ios":"levelo://app?vid=0126f869-77bb-4690-a14f-53e2dd9d4689"},"vehicle_type_id":"4","last_reported":1692518851,"current_range_meters":22400,"station_id":"ce4bhqp2rcd13ifvqhog","pricing_plan_id":"free"},{"bike_id":"c0cf74f6-0382-4ead-99db-4219d80e561a","system_id":"levelo_inurba_marseille","lat":43.29602,"lon":5.381084,"is_reserved":false,"is_disabled":false,"rental_uris":{"android":"levelo://app?vid=c0cf74f6-0382-4ead-99db-4219d80e561a","ios":"levelo://app?vid=c0cf74f6-0382-4ead-99db-4219d80e561a"},"vehicle_type_id":"4","last_reported":1692518851,"current_range_meters":26800,"station_id":"ce4bgl12rcd13ifvqbo0","pricing_plan_id":"free"},{"bike_id":"e4599d0c-5641-4bde-92e4-28a45222171d","system_id":"levelo_inurba_marseille","lat":43.2931,"lon":5.37188,"is_reserved":false,"is_disabled":false,"rental_uris":{"android":"levelo://app?vid=e4599d0c-5641-4bde-92e4-28a45222171d","ios":"levelo://app?vid=e4599d0c-5641-4bde-92e4-28a45222171d"},"vehicle_type_id":"4","last_reported":1692518851,"current_range_meters":0,"station_id":"ce4bgh92rcd13ifvqb40","pricing_plan_id":"free"},{"bike_id":"17488dce-5a76-4992-8e06-fc75a674499c","system_id":"levelo_inurba_marseille","lat":43.29275,"lon":5.3685,"is_reserved":false,"is_disabled":false,"rental_uris":{"android":"levelo://app?vid=17488dce-5a76-4992-8e06-fc75a674499c","ios":"levelo://app?vid=17488dce-5a76-4992-8e06-fc75a674499c"},"vehicle_type_id":"4","last_reported":1692518851,"current_range_meters":30400,"station_id":"ce4bhbp2rcd13ifvqesg","pricing_plan_id":"free"},{"bike_id":"c85002fe-92c2-473f-abf7-fe946a543948","system_id":"levelo_inurba_marseille","lat":43.292749,"lon":5.368402,"is_reserved":false,"is_disabled":false,"rental_uris":{"android":"levelo://app?vid=c85002fe-92c2-473f-abf7-fe946a543948","ios":"levelo://app?vid=c85002fe-92c2-473f-abf7-fe946a543948"},"vehicle_type_id":"4","last_reported":1692518851,"current_range_meters":24000,"station_id":"ce4bhbp2rcd13ifvqesg","pricing_plan_id":"free"},{"bike_id":"38fef587-7cc5-4800-b069-87b8f296a10a","system_id":"levelo_inurba_marseille","lat":43.29313,"lon":5.37453,"is_reserved":false,"is_disabled":false,"rental_uris":{"android":"levelo://app?vid=38fef587-7cc5-4800-b069-87b8f296a10a","ios":"levelo://app?vid=38fef587-7cc5-4800-b069-87b8f296a10a"},"vehicle_type_id":"4","last_reported":1692518851,"current_range_meters":30800,"station_id":"ce4bgi12rcd13ifvqb70","pricing_plan_id":"free"},{"bike_id":"147ac3aa-bb07-4dfb-bc98-a594818a4f0c","system_id":"levelo_inurba_marseille","lat":43.30318,"lon":5.39193,"is_reserved":false,"is_disabled":false,"rental_uris":{"android":"levelo://app?vid=147ac3aa-bb07-4dfb-bc98-a594818a4f0c","ios":"levelo://app?vid=147ac3aa-bb07-4dfb-bc98-a594818a4f0c"},"vehicle_type_id":"4","last_reported":1692518851,"current_range_meters":25200,"station_id":"ce4bgkh2rcd13ifvqbk0","pricing_plan_id":"free"},{"bike_id":"0724f352-a262-45b7-9b71-9a09ff17d945","system_id":"levelo_inurba_marseille","lat":43.30298,"lon":5.39215,"is_reserved":false,"is_disabled":false,"rental_uris":{"android":"levelo://app?vid=0724f352-a262-45b7-9b71-9a09ff17d945","ios":"levelo://app?vid=0724f352-a262-45b7-9b71-9a09ff17d945"},"vehicle_type_id":"4","last_reported":1692518851,"current_range_meters":21200,"station_id":"ce4bgkh2rcd13ifvqbk0","pricing_plan_id":"free"},{"bike_id":"82db1d67-7718-4bf5-a816-7fcf9cd657c9","system_id":"levelo_inurba_marseille","lat":43.292311,"lon":5.360731,"is_reserved":false,"is_disabled":false,"rental_uris":{"android":"levelo://app?vid=82db1d67-7718-4bf5-a816-7fcf9cd657c9","ios":"levelo://app?vid=82db1d67-7718-4bf5-a816-7fcf9cd657c9"},"vehicle_type_id":"4","last_reported":1692518851,"current_range_meters":26400,"station_id":"ce4bhbh2rcd13ifvqeqg","pricing_plan_id":"free"},{"bike_id":"443913ce-27ca-4f4d-81fd-0606640137a5","system_id":"levelo_inurba_marseille","lat":43.292311,"lon":5.360731,"is_reserved":false,"is_disabled":false,"rental_uris":{"android":"levelo://app?vid=443913ce-27ca-4f4d-81fd-0606640137a5","ios":"levelo://app?vid=443913ce-27ca-4f4d-81fd-0606640137a5"},"vehicle_type_id":"4","last_reported":1692518851,"current_range_meters":31200,"station_id":"ce4bhbh2rcd13ifvqeqg","pricing_plan_id":"free"},{"bike_id":"580f7ace-680c-4e93-a8a1-a2df793bbefa","system_id":"levelo_inurba_marseille","lat":43.29229,"lon":5.36059,"is_reserved":false,"is_disabled":false,"rental_uris":{"android":"levelo://app?vid=580f7ace-680c-4e93-a8a1-a2df793bbefa","ios":"levelo://app?vid=580f7ace-680c-4e93-a8a1-a2df793bbefa"},"vehicle_type_id":"4","last_reported":1692518851,"current_range_meters":23600,"station_id":"ce4bhbh2rcd13ifvqeqg","pricing_plan_id":"free"},{"bike_id":"1f91d566-77f1-4f34-9fd0-29742c78d311","system_id":"levelo_inurba_marseille","lat":43.29228,"lon":5.36059,"is_reserved":false,"is_disabled":false,"rental_uris":{"android":"levelo://app?vid=1f91d566-77f1-4f34-9fd0-29742c78d311","ios":"levelo://app?vid=1f91d566-77f1-4f34-9fd0-29742c78d311"},"vehicle_type_id":"4","last_reported":1692518851,"current_range_meters":15600,"station_id":"ce4bhbh2rcd13ifvqeqg","pricing_plan_id":"free"},{"bike_id":"e36a340c-cf00-499f-8e3d-2f5406e34d3b","system_id":"levelo_inurba_marseille","lat":43.29227,"lon":5.36049,"is_reserved":false,"is_disabled":false,"rental_uris":{"android":"levelo://app?vid=e36a340c-cf00-499f-8e3d-2f5406e34d3b","ios":"levelo://app?vid=e36a340c-cf00-499f-8e3d-2f5406e34d3b"},"vehicle_type_id":"4","last_reported":1692518851,"current_range_meters":15600,"station_id":"ce4bhbh2rcd13ifvqeqg","pricing_plan_id":"free"},{"bike_id":"5ea359cd-3103-4941-8a4d-4fd179a2fc61","system_id":"levelo_inurba_marseille","lat":43.291994,"lon":5.357886,"is_reserved":false,"is_disabled":false,"rental_uris":{"android":"levelo://app?vid=5ea359cd-3103-4941-8a4d-4fd179a2fc61","ios":"levelo://app?vid=5ea359cd-3103-4941-8a4d-4fd179a2fc61"},"vehicle_type_id":"4","last_reported":1692518851,"current_range_meters":31200,"station_id":"ce4bhb12rcd13ifvqel0","pricing_plan_id":"free"},{"bike_id":"bbb707ae-cb54-4645-bafb-fe4a1b86da86","system_id":"levelo_inurba_marseille","lat":43.29191,"lon":5.35795,"is_reserved":false,"is_disabled":false,"rental_uris":{"android":"levelo://app?vid=bbb707ae-cb54-4645-bafb-fe4a1b86da86","ios":"levelo://app?vid=bbb707ae-cb54-4645-bafb-fe4a1b86da86"},"vehicle_type_id":"4","last_reported":1692518851,"current_range_meters":20800,"station_id":"ce4bhb12rcd13ifvqel0","pricing_plan_id":"free"},{"bike_id":"2121d877-5d48-40bf-9243-433d31ceed22","system_id":"levelo_inurba_marseille","lat":43.29189,"lon":5.35796,"is_reserved":false,"is_disabled":false,"rental_uris":{"android":"levelo://app?vid=2121d877-5d48-40bf-9243-433d31ceed22","ios":"levelo://app?vid=2121d877-5d48-40bf-9243-433d31ceed22"},"vehicle_type_id":"4","last_reported":1692518851,"current_range_meters":19200,"station_id":"ce4bhb12rcd13ifvqel0","pricing_plan_id":"free"},{"bike_id":"553f2c0b-014d-4fea-adc9-66f0b276080c","system_id":"levelo_inurba_marseille","lat":43.291994,"lon":5.357886,"is_reserved":false,"is_disabled":false,"rental_uris":{"android":"levelo://app?vid=553f2c0b-014d-4fea-adc9-66f0b276080c","ios":"levelo://app?vid=553f2c0b-014d-4fea-adc9-66f0b276080c"},"vehicle_type_id":"4","last_reported":1692518851,"current_range_meters":18400,"station_id":"ce4bhb12rcd13ifvqel0","pricing_plan_id":"free"},{"bike_id":"7d0b8870-f244-4411-9e6d-d3eda93ea80a","system_id":"levelo_inurba_marseille","lat":43.29189,"lon":5.35791,"is_reserved":false,"is_disabled":false,"rental_uris":{"android":"levelo://app?vid=7d0b8870-f244-4411-9e6d-d3eda93ea80a","ios":"levelo://app?vid=7d0b8870-f244-4411-9e6d-d3eda93ea80a"},"vehicle_type_id":"4","last_reported":1692518851,"current_range_meters":31200,"station_id":"ce4bhb12rcd13ifvqel0","pricing_plan_id":"free"},{"bike_id":"42356be1-f4af-41fa-b4f5-f5f9cebe4ee0","system_id":"levelo_inurba_marseille","lat":43.29187,"lon":5.35795,"is_reserved":false,"is_disabled":false,"rental_uris":{"android":"levelo://app?vid=42356be1-f4af-41fa-b4f5-f5f9cebe4ee0","ios":"levelo://app?vid=42356be1-f4af-41fa-b4f5-f5f9cebe4ee0"},"vehicle_type_id":"4","last_reported":1692518851,"current_range_meters":28800,"station_id":"ce4bhb12rcd13ifvqel0","pricing_plan_id":"free"},{"bike_id":"d47a48cb-076d-4c41-ad94-a02ea1c5dcc4","system_id":"levelo_inurba_marseille","lat":43.29187,"lon":5.35795,"is_reserved":false,"is_disabled":false,"rental_uris":{"android":"levelo://app?vid=d47a48cb-076d-4c41-ad94-a02ea1c5dcc4","ios":"levelo://app?vid=d47a48cb-076d-4c41-ad94-a02ea1c5dcc4"},"vehicle_type_id":"4","last_reported":1692518851,"current_range_meters":31200,"station_id":"ce4bhb12rcd13ifvqel0","pricing_plan_id":"free"},{"bike_id":"edfa3421-d1e6-4196-be9f-9070d7da58db","system_id":"levelo_inurba_marseille","lat":43.3133,"lon":5.39699,"is_reserved":false,"is_disabled":false,"rental_uris":{"android":"levelo://app?vid=edfa3421-d1e6-4196-be9f-9070d7da58db","ios":"levelo://app?vid=edfa3421-d1e6-4196-be9f-9070d7da58db"},"vehicle_type_id":"4","last_reported":1692518851,"current_range_meters":29600,"station_id":"ce4bgvp2rcd13ifvqcu0","pricing_plan_id":"free"},{"bike_id":"42d54801-0ea7-43c5-a048-1d52171037c8","system_id":"levelo_inurba_marseille","lat":43.29529,"lon":5.385581,"is_reserved":false,"is_disabled":false,"rental_uris":{"android":"levelo://app?vid=42d54801-0ea7-43c5-a048-1d52171037c8","ios":"levelo://app?vid=42d54801-0ea7-43c5-a048-1d52171037c8"},"vehicle_type_id":"4","last_reported":1692518851,"current_range_meters":29200,"station_id":"ce4bgih2rcd13ifvqba0","pricing_plan_id":"free"},{"bike_id":"9fda5524-14da-4b28-96f7-aeb91a7bb3e6","system_id":"levelo_inurba_marseille","lat":43.30207,"lon":5.39465,"is_reserved":false,"is_disabled":false,"rental_uris":{"android":"levelo://app?vid=9fda5524-14da-4b28-96f7-aeb91a7bb3e6","ios":"levelo://app?vid=9fda5524-14da-4b28-96f7-aeb91a7bb3e6"},"vehicle_type_id":"4","last_reported":1692518851,"current_range_meters":19600,"station_id":"ce4bh0p2rcd13ifvqd70","pricing_plan_id":"free"},{"bike_id":"ad2b6311-7cb2-42c6-88ef-0c706bdfa59a","system_id":"levelo_inurba_marseille","lat":43.294153,"lon":5.386305,"is_reserved":false,"is_disabled":false,"rental_uris":{"android":"levelo://app?vid=ad2b6311-7cb2-42c6-88ef-0c706bdfa59a","ios":"levelo://app?vid=ad2b6311-7cb2-42c6-88ef-0c706bdfa59a"},"vehicle_type_id":"4","last_reported":1692518851,"current_range_meters":23600,"station_id":"ce4bh2h2rcd13ifvqdh0","pricing_plan_id":"free"},{"bike_id":"b3b0fd35-fe1c-490e-a2b7-db5cda36e836","system_id":"levelo_inurba_marseille","lat":43.29033,"lon":5.37564,"is_reserved":false,"is_disabled":false,"rental_uris":{"android":"levelo://app?vid=b3b0fd35-fe1c-490e-a2b7-db5cda36e836","ios":"levelo://app?vid=b3b0fd35-fe1c-490e-a2b7-db5cda36e836"},"vehicle_type_id":"4","last_reported":1692518851,"current_range_meters":0,"station_id":"ce4bh692rcd13ifvqe90","pricing_plan_id":"free"},{"bike_id":"462a6e17-0036-4d0c-90b7-736159bac677","system_id":"levelo_inurba_marseille","lat":43.289468,"lon":5.363719,"is_reserved":false,"is_disabled":false,"rental_uris":{"android":"levelo://app?vid=462a6e17-0036-4d0c-90b7-736159bac677","ios":"levelo://app?vid=462a6e17-0036-4d0c-90b7-736159bac677"},"vehicle_type_id":"4","last_reported":1692518851,"current_range_meters":30400,"station_id":"ce4bhc92rcd13ifvqetg","pricing_plan_id":"free"},{"bike_id":"8a029137-e05c-4ad8-a1ba-a0354aed8ff3","system_id":"levelo_inurba_marseille","lat":43.290327,"lon":5.375711,"is_reserved":false,"is_disabled":false,"rental_uris":{"android":"levelo://app?vid=8a029137-e05c-4ad8-a1ba-a0354aed8ff3","ios":"levelo://app?vid=8a029137-e05c-4ad8-a1ba-a0354aed8ff3"},"vehicle_type_id":"4","last_reported":1692518851,"current_range_meters":28800,"station_id":"ce4bh692rcd13ifvqe90","pricing_plan_id":"free"},{"bike_id":"3b0bec83-7cf7-42e6-980f-2caa87213064","system_id":"levelo_inurba_marseille","lat":43.289184,"lon":5.366408,"is_reserved":false,"is_disabled":false,"rental_uris":{"android":"levelo://app?vid=3b0bec83-7cf7-42e6-980f-2caa87213064","ios":"levelo://app?vid=3b0bec83-7cf7-42e6-980f-2caa87213064"},"vehicle_type_id":"4","last_reported":1692518851,"current_range_meters":31200,"station_id":"ce4bhap2rcd13ifvqek0","pricing_plan_id":"free"},{"bike_id":"c1f0e84c-6f6b-4923-93af-385fb10d423b","system_id":"levelo_inurba_marseille","lat":43.292642,"lon":5.384254,"is_reserved":false,"is_disabled":false,"rental_uris":{"android":"levelo://app?vid=c1f0e84c-6f6b-4923-93af-385fb10d423b","ios":"levelo://app?vid=c1f0e84c-6f6b-4923-93af-385fb10d423b"},"vehicle_type_id":"4","last_reported":1692518851,"current_range_meters":2000,"station_id":"ce4bh692rcd13ifvqea0","pricing_plan_id":"free"},{"bike_id":"79488ae4-4c0a-4f44-98f9-5b1857bb2c7e","system_id":"levelo_inurba_marseille","lat":43.304274,"lon":5.397513,"is_reserved":false,"is_disabled":false,"rental_uris":{"android":"levelo://app?vid=79488ae4-4c0a-4f44-98f9-5b1857bb2c7e","ios":"levelo://app?vid=79488ae4-4c0a-4f44-98f9-5b1857bb2c7e"},"vehicle_type_id":"4","last_reported":1692518851,"current_range_meters":31200,"station_id":"ce4bh092rcd13ifvqd20","pricing_plan_id":"free"},{"bike_id":"ca45b625-53b0-49ac-b454-7c76b046a85e","system_id":"levelo_inurba_marseille","lat":43.299028,"lon":5.381509,"is_reserved":false,"is_disabled":false,"rental_uris":{"android":"levelo://app?vid=ca45b625-53b0-49ac-b454-7c76b046a85e","ios":"levelo://app?vid=ca45b625-53b0-49ac-b454-7c76b046a85e"},"vehicle_type_id":"4","last_reported":1692518851,"current_range_meters":23200,"station_id":"ce4bgj12rcd13ifvqbc0","pricing_plan_id":"free"},{"bike_id":"e9183941-6594-4086-af9a-dcea4442d4f5","system_id":"levelo_inurba_marseille","lat":43.290104,"lon":5.356111,"is_reserved":false,"is_disabled":false,"rental_uris":{"android":"levelo://app?vid=e9183941-6594-4086-af9a-dcea4442d4f5","ios":"levelo://app?vid=e9183941-6594-4086-af9a-dcea4442d4f5"},"vehicle_type_id":"4","last_reported":1692518851,"current_range_meters":23200,"station_id":"ce4bhb92rcd13ifvqen0","pricing_plan_id":"free"},{"bike_id":"5036c72a-6252-47f4-a9fb-50fd514d506a","system_id":"levelo_inurba_marseille","lat":43.33039,"lon":5.38918,"is_reserved":false,"is_disabled":false,"rental_uris":{"android":"levelo://app?vid=5036c72a-6252-47f4-a9fb-50fd514d506a","ios":"levelo://app?vid=5036c72a-6252-47f4-a9fb-50fd514d506a"},"vehicle_type_id":"4","last_reported":1692518851,"current_range_meters":20800,"station_id":"ce4bhr92rcd13ifvqhrg","pricing_plan_id":"free"},{"bike_id":"331b6e0a-8cfc-4305-9eef-0266cde03da7","system_id":"levelo_inurba_marseille","lat":43.3304,"lon":5.38921,"is_reserved":false,"is_disabled":false,"rental_uris":{"android":"levelo://app?vid=331b6e0a-8cfc-4305-9eef-0266cde03da7","ios":"levelo://app?vid=331b6e0a-8cfc-4305-9eef-0266cde03da7"},"vehicle_type_id":"4","last_reported":1692518851,"current_range_meters":14000,"station_id":"ce4bhr92rcd13ifvqhrg","pricing_plan_id":"free"},{"bike_id":"aa5970aa-4eb4-4d7f-bdde-1410f0c5026b","system_id":"levelo_inurba_marseille","lat":43.29011,"lon":5.35605,"is_reserved":false,"is_disabled":false,"rental_uris":{"android":"levelo://app?vid=aa5970aa-4eb4-4d7f-bdde-1410f0c5026b","ios":"levelo://app?vid=aa5970aa-4eb4-4d7f-bdde-1410f0c5026b"},"vehicle_type_id":"4","last_reported":1692518851,"current_range_meters":26800,"station_id":"ce4bhb92rcd13ifvqen0","pricing_plan_id":"free"},{"bike_id":"16105e4d-cb4a-4aae-91bb-2ecd41a7406b","system_id":"levelo_inurba_marseille","lat":43.33037,"lon":5.38926,"is_reserved":false,"is_disabled":false,"rental_uris":{"android":"levelo://app?vid=16105e4d-cb4a-4aae-91bb-2ecd41a7406b","ios":"levelo://app?vid=16105e4d-cb4a-4aae-91bb-2ecd41a7406b"},"vehicle_type_id":"4","last_reported":1692518851,"current_range_meters":20800,"station_id":"ce4bhr92rcd13ifvqhrg","pricing_plan_id":"free"},{"bike_id":"de450cac-4370-4660-9455-3e94463307a2","system_id":"levelo_inurba_marseille","lat":43.3304,"lon":5.38922,"is_reserved":false,"is_disabled":false,"rental_uris":{"android":"levelo://app?vid=de450cac-4370-4660-9455-3e94463307a2","ios":"levelo://app?vid=de450cac-4370-4660-9455-3e94463307a2"},"vehicle_type_id":"4","last_reported":1692518851,"current_range_meters":16000,"station_id":"ce4bhr92rcd13ifvqhrg","pricing_plan_id":"free"},{"bike_id":"09fc32b9-9cad-4093-8a8b-6f7361f23b6f","system_id":"levelo_inurba_marseille","lat":43.2901,"lon":5.35606,"is_reserved":false,"is_disabled":false,"rental_uris":{"android":"levelo://app?vid=09fc32b9-9cad-4093-8a8b-6f7361f23b6f","ios":"levelo://app?vid=09fc32b9-9cad-4093-8a8b-6f7361f23b6f"},"vehicle_type_id":"4","last_reported":1692518851,"current_range_meters":25200,"station_id":"ce4bhb92rcd13ifvqen0","pricing_plan_id":"free"},{"bike_id":"a5d7998c-4c76-4390-bbcf-8c2a2abd7eba","system_id":"levelo_inurba_marseille","lat":43.3304,"lon":5.38923,"is_reserved":false,"is_disabled":false,"rental_uris":{"android":"levelo://app?vid=a5d7998c-4c76-4390-bbcf-8c2a2abd7eba","ios":"levelo://app?vid=a5d7998c-4c76-4390-bbcf-8c2a2abd7eba"},"vehicle_type_id":"4","last_reported":1692518851,"current_range_meters":30000,"station_id":"ce4bhr92rcd13ifvqhrg","pricing_plan_id":"free"},{"bike_id":"c8619c93-5f6a-45f4-8e07-c81fcc1e21be","system_id":"levelo_inurba_marseille","lat":43.33044,"lon":5.38919,"is_reserved":false,"is_disabled":false,"rental_uris":{"android":"levelo://app?vid=c8619c93-5f6a-45f4-8e07-c81fcc1e21be","ios":"levelo://app?vid=c8619c93-5f6a-45f4-8e07-c81fcc1e21be"},"vehicle_type_id":"4","last_reported":1692518851,"current_range_meters":25600,"station_id":"ce4bhr92rcd13ifvqhrg","pricing_plan_id":"free"},{"bike_id":"86eac789-1e56-496d-abfa-705e29d378c7","system_id":"levelo_inurba_marseille","lat":43.33043,"lon":5.38921,"is_reserved":false,"is_disabled":false,"rental_uris":{"android":"levelo://app?vid=86eac789-1e56-496d-abfa-705e29d378c7","ios":"levelo://app?vid=86eac789-1e56-496d-abfa-705e29d378c7"},"vehicle_type_id":"4","last_reported":1692518851,"current_range_meters":28400,"station_id":"ce4bhr92rcd13ifvqhrg","pricing_plan_id":"free"},{"bike_id":"9e24a65c-fe1e-45dc-88b9-dd0cad85064c","system_id":"levelo_inurba_marseille","lat":43.33046,"lon":5.38917,"is_reserved":false,"is_disabled":false,"rental_uris":{"android":"levelo://app?vid=9e24a65c-fe1e-45dc-88b9-dd0cad85064c","ios":"levelo://app?vid=9e24a65c-fe1e-45dc-88b9-dd0cad85064c"},"vehicle_type_id":"4","last_reported":1692518851,"current_range_meters":28000,"station_id":"ce4bhr92rcd13ifvqhrg","pricing_plan_id":"free"},{"bike_id":"164fe53d-02cd-44dd-a82b-8d88650d4840","system_id":"levelo_inurba_marseille","lat":43.290103,"lon":5.356114,"is_reserved":false,"is_disabled":false,"rental_uris":{"android":"levelo://app?vid=164fe53d-02cd-44dd-a82b-8d88650d4840","ios":"levelo://app?vid=164fe53d-02cd-44dd-a82b-8d88650d4840"},"vehicle_type_id":"4","last_reported":1692518851,"current_range_meters":28800,"station_id":"ce4bhb92rcd13ifvqen0","pricing_plan_id":"free"},{"bike_id":"3b3e7c42-cded-4bde-b175-99650afa4f17","system_id":"levelo_inurba_marseille","lat":43.33046,"lon":5.38918,"is_reserved":false,"is_disabled":false,"rental_uris":{"android":"levelo://app?vid=3b3e7c42-cded-4bde-b175-99650afa4f17","ios":"levelo://app?vid=3b3e7c42-cded-4bde-b175-99650afa4f17"},"vehicle_type_id":"4","last_reported":1692518851,"current_range_meters":22800,"station_id":"ce4bhr92rcd13ifvqhrg","pricing_plan_id":"free"},{"bike_id":"708f7f21-b221-4c14-94b6-b5d8e3289350","system_id":"levelo_inurba_marseille","lat":43.33045,"lon":5.3892,"is_reserved":false,"is_disabled":false,"rental_uris":{"android":"levelo://app?vid=708f7f21-b221-4c14-94b6-b5d8e3289350","ios":"levelo://app?vid=708f7f21-b221-4c14-94b6-b5d8e3289350"},"vehicle_type_id":"4","last_reported":1692518851,"current_range_meters":19200,"station_id":"ce4bhr92rcd13ifvqhrg","pricing_plan_id":"free"},{"bike_id":"20d816b3-f28e-43cb-8799-88d52aa25eea","system_id":"levelo_inurba_marseille","lat":43.290104,"lon":5.356111,"is_reserved":false,"is_disabled":false,"rental_uris":{"android":"levelo://app?vid=20d816b3-f28e-43cb-8799-88d52aa25eea","ios":"levelo://app?vid=20d816b3-f28e-43cb-8799-88d52aa25eea"},"vehicle_type_id":"4","last_reported":1692518851,"current_range_meters":28400,"station_id":"ce4bhb92rcd13ifvqen0","pricing_plan_id":"free"},{"bike_id":"86535332-25ae-4735-984f-2b7a7387a6af","system_id":"levelo_inurba_marseille","lat":43.33044,"lon":5.38922,"is_reserved":false,"is_disabled":false,"rental_uris":{"android":"levelo://app?vid=86535332-25ae-4735-984f-2b7a7387a6af","ios":"levelo://app?vid=86535332-25ae-4735-984f-2b7a7387a6af"},"vehicle_type_id":"4","last_reported":1692518851,"current_range_meters":28400,"station_id":"ce4bhr92rcd13ifvqhrg","pricing_plan_id":"free"},{"bike_id":"70576a93-fbdb-4696-908e-c08c0f1995f8","system_id":"levelo_inurba_marseille","lat":43.33046,"lon":5.3892,"is_reserved":false,"is_disabled":false,"rental_uris":{"android":"levelo://app?vid=70576a93-fbdb-4696-908e-c08c0f1995f8","ios":"levelo://app?vid=70576a93-fbdb-4696-908e-c08c0f1995f8"},"vehicle_type_id":"4","last_reported":1692518851,"current_range_meters":24000,"station_id":"ce4bhr92rcd13ifvqhrg","pricing_plan_id":"free"},{"bike_id":"f17acd32-c2a1-4444-8559-db4569973945","system_id":"levelo_inurba_marseille","lat":43.29006,"lon":5.35607,"is_reserved":false,"is_disabled":false,"rental_uris":{"android":"levelo://app?vid=f17acd32-c2a1-4444-8559-db4569973945","ios":"levelo://app?vid=f17acd32-c2a1-4444-8559-db4569973945"},"vehicle_type_id":"4","last_reported":1692518851,"current_range_meters":25600,"station_id":"","pricing_plan_id":"free"},{"bike_id":"4acef044-58d4-4046-9f8b-3557af517e74","system_id":"levelo_inurba_marseille","lat":43.33045,"lon":5.38923,"is_reserved":false,"is_disabled":false,"rental_uris":{"android":"levelo://app?vid=4acef044-58d4-4046-9f8b-3557af517e74","ios":"levelo://app?vid=4acef044-58d4-4046-9f8b-3557af517e74"},"vehicle_type_id":"4","last_reported":1692518851,"current_range_meters":10800,"station_id":"ce4bhr92rcd13ifvqhrg","pricing_plan_id":"free"},{"bike_id":"d2b15eb2-4474-4e56-aace-fe335ab0092e","system_id":"levelo_inurba_marseille","lat":43.33047,"lon":5.3892,"is_reserved":false,"is_disabled":false,"rental_uris":{"android":"levelo://app?vid=d2b15eb2-4474-4e56-aace-fe335ab0092e","ios":"levelo://app?vid=d2b15eb2-4474-4e56-aace-fe335ab0092e"},"vehicle_type_id":"4","last_reported":1692518851,"current_range_meters":13200,"station_id":"ce4bhr92rcd13ifvqhrg","pricing_plan_id":"free"},{"bike_id":"024f4d94-1555-4991-925c-5e7448051bbb","system_id":"levelo_inurba_marseille","lat":43.33046,"lon":5.38922,"is_reserved":false,"is_disabled":false,"rental_uris":{"android":"levelo://app?vid=024f4d94-1555-4991-925c-5e7448051bbb","ios":"levelo://app?vid=024f4d94-1555-4991-925c-5e7448051bbb"},"vehicle_type_id":"4","last_reported":1692518851,"current_range_meters":27200,"station_id":"ce4bhr92rcd13ifvqhrg","pricing_plan_id":"free"},{"bike_id":"9ec93851-2c12-4e8a-b52c-89084ec976ac","system_id":"levelo_inurba_marseille","lat":43.33046,"lon":5.38922,"is_reserved":false,"is_disabled":false,"rental_uris":{"android":"levelo://app?vid=9ec93851-2c12-4e8a-b52c-89084ec976ac","ios":"levelo://app?vid=9ec93851-2c12-4e8a-b52c-89084ec976ac"},"vehicle_type_id":"4","last_reported":1692518851,"current_range_meters":800,"station_id":"ce4bhr92rcd13ifvqhrg","pricing_plan_id":"free"},{"bike_id":"5c8c244a-8618-42d9-abf2-521b07f6577d","system_id":"levelo_inurba_marseille","lat":43.33044,"lon":5.38925,"is_reserved":false,"is_disabled":false,"rental_uris":{"android":"levelo://app?vid=5c8c244a-8618-42d9-abf2-521b07f6577d","ios":"levelo://app?vid=5c8c244a-8618-42d9-abf2-521b07f6577d"},"vehicle_type_id":"4","last_reported":1692518851,"current_range_meters":26000,"station_id":"ce4bhr92rcd13ifvqhrg","pricing_plan_id":"free"},{"bike_id":"eb950724-6c95-4fb2-915f-35b08a8cfd23","system_id":"levelo_inurba_marseille","lat":43.33048,"lon":5.38919,"is_reserved":false,"is_disabled":false,"rental_uris":{"android":"levelo://app?vid=eb950724-6c95-4fb2-915f-35b08a8cfd23","ios":"levelo://app?vid=eb950724-6c95-4fb2-915f-35b08a8cfd23"},"vehicle_type_id":"4","last_reported":1692518851,"current_range_meters":18000,"station_id":"ce4bhr92rcd13ifvqhrg","pricing_plan_id":"free"},{"bike_id":"52662068-d06a-40c1-bfee-ce6664dc3a83","system_id":"levelo_inurba_marseille","lat":43.33048,"lon":5.3892,"is_reserved":false,"is_disabled":false,"rental_uris":{"android":"levelo://app?vid=52662068-d06a-40c1-bfee-ce6664dc3a83","ios":"levelo://app?vid=52662068-d06a-40c1-bfee-ce6664dc3a83"},"vehicle_type_id":"4","last_reported":1692518851,"current_range_meters":1600,"station_id":"ce4bhr92rcd13ifvqhrg","pricing_plan_id":"free"},{"bike_id":"7dee72c8-a3a4-4116-95b0-bd960299542c","system_id":"levelo_inurba_marseille","lat":43.290104,"lon":5.356111,"is_reserved":false,"is_disabled":false,"rental_uris":{"android":"levelo://app?vid=7dee72c8-a3a4-4116-95b0-bd960299542c","ios":"levelo://app?vid=7dee72c8-a3a4-4116-95b0-bd960299542c"},"vehicle_type_id":"4","last_reported":1692518851,"current_range_meters":29600,"station_id":"ce4bhb92rcd13ifvqen0","pricing_plan_id":"free"},{"bike_id":"fd294525-4438-40f9-a6c7-be2a15ddc66f","system_id":"levelo_inurba_marseille","lat":43.29005,"lon":5.35604,"is_reserved":false,"is_disabled":false,"rental_uris":{"android":"levelo://app?vid=fd294525-4438-40f9-a6c7-be2a15ddc66f","ios":"levelo://app?vid=fd294525-4438-40f9-a6c7-be2a15ddc66f"},"vehicle_type_id":"4","last_reported":1692518851,"current_range_meters":28400,"station_id":"ce4bhb92rcd13ifvqen0","pricing_plan_id":"free"},{"bike_id":"a949fd01-3483-42f9-9716-f3bdd91d7978","system_id":"levelo_inurba_marseille","lat":43.290104,"lon":5.356111,"is_reserved":false,"is_disabled":false,"rental_uris":{"android":"levelo://app?vid=a949fd01-3483-42f9-9716-f3bdd91d7978","ios":"levelo://app?vid=a949fd01-3483-42f9-9716-f3bdd91d7978"},"vehicle_type_id":"4","last_reported":1692518851,"current_range_meters":17200,"station_id":"ce4bhb92rcd13ifvqen0","pricing_plan_id":"free"},{"bike_id":"a3c1b0d6-f869-47ff-a49f-88656b63506a","system_id":"levelo_inurba_marseille","lat":43.290104,"lon":5.356111,"is_reserved":false,"is_disabled":false,"rental_uris":{"android":"levelo://app?vid=a3c1b0d6-f869-47ff-a49f-88656b63506a","ios":"levelo://app?vid=a3c1b0d6-f869-47ff-a49f-88656b63506a"},"vehicle_type_id":"4","last_reported":1692518851,"current_range_meters":29600,"station_id":"ce4bhb92rcd13ifvqen0","pricing_plan_id":"free"},{"bike_id":"d6553020-5423-4eef-a1ad-6fdd14bbcc9d","system_id":"levelo_inurba_marseille","lat":43.290103,"lon":5.356114,"is_reserved":false,"is_disabled":false,"rental_uris":{"android":"levelo://app?vid=d6553020-5423-4eef-a1ad-6fdd14bbcc9d","ios":"levelo://app?vid=d6553020-5423-4eef-a1ad-6fdd14bbcc9d"},"vehicle_type_id":"4","last_reported":1692518851,"current_range_meters":31200,"station_id":"ce4bhb92rcd13ifvqen0","pricing_plan_id":"free"},{"bike_id":"7d19a255-9f7a-4d0e-beba-2bfebb3c7b5e","system_id":"levelo_inurba_marseille","lat":43.3305,"lon":5.3892,"is_reserved":false,"is_disabled":false,"rental_uris":{"android":"levelo://app?vid=7d19a255-9f7a-4d0e-beba-2bfebb3c7b5e","ios":"levelo://app?vid=7d19a255-9f7a-4d0e-beba-2bfebb3c7b5e"},"vehicle_type_id":"4","last_reported":1692518851,"current_range_meters":20800,"station_id":"ce4bhr92rcd13ifvqhrg","pricing_plan_id":"free"},{"bike_id":"2a14eeb5-d600-41a5-a8fc-8b292666d311","system_id":"levelo_inurba_marseille","lat":43.29003,"lon":5.35605,"is_reserved":false,"is_disabled":false,"rental_uris":{"android":"levelo://app?vid=2a14eeb5-d600-41a5-a8fc-8b292666d311","ios":"levelo://app?vid=2a14eeb5-d600-41a5-a8fc-8b292666d311"},"vehicle_type_id":"4","last_reported":1692518851,"current_range_meters":29600,"station_id":"ce4bhb92rcd13ifvqen0","pricing_plan_id":"free"},{"bike_id":"ac4d5439-e326-499c-a8a2-58d7b01dbaff","system_id":"levelo_inurba_marseille","lat":43.290104,"lon":5.356111,"is_reserved":false,"is_disabled":false,"rental_uris":{"android":"levelo://app?vid=ac4d5439-e326-499c-a8a2-58d7b01dbaff","ios":"levelo://app?vid=ac4d5439-e326-499c-a8a2-58d7b01dbaff"},"vehicle_type_id":"4","last_reported":1692518851,"current_range_meters":27600,"station_id":"ce4bhb92rcd13ifvqen0","pricing_plan_id":"free"},{"bike_id":"77f043ad-7f29-44a2-b9a6-5ff7f69df16e","system_id":"levelo_inurba_marseille","lat":43.28979,"lon":5.37824,"is_reserved":false,"is_disabled":false,"rental_uris":{"android":"levelo://app?vid=77f043ad-7f29-44a2-b9a6-5ff7f69df16e","ios":"levelo://app?vid=77f043ad-7f29-44a2-b9a6-5ff7f69df16e"},"vehicle_type_id":"4","last_reported":1692518851,"current_range_meters":30400,"station_id":"ce4bh9p2rcd13ifvqed0","pricing_plan_id":"free"},{"bike_id":"a120350d-2e00-4f7d-84da-c371e499b11a","system_id":"levelo_inurba_marseille","lat":43.28849,"lon":5.35838,"is_reserved":false,"is_disabled":false,"rental_uris":{"android":"levelo://app?vid=a120350d-2e00-4f7d-84da-c371e499b11a","ios":"levelo://app?vid=a120350d-2e00-4f7d-84da-c371e499b11a"},"vehicle_type_id":"4","last_reported":1692518851,"current_range_meters":10800,"station_id":"ce4bhb12rcd13ifvqem0","pricing_plan_id":"free"},{"bike_id":"a39594cb-feef-4e88-b68a-b6ca976c5339","system_id":"levelo_inurba_marseille","lat":43.31275,"lon":5.40162,"is_reserved":false,"is_disabled":false,"rental_uris":{"android":"levelo://app?vid=a39594cb-feef-4e88-b68a-b6ca976c5339","ios":"levelo://app?vid=a39594cb-feef-4e88-b68a-b6ca976c5339"},"vehicle_type_id":"4","last_reported":1692518851,"current_range_meters":31200,"station_id":"ce4bh092rcd13ifvqd30","pricing_plan_id":"free"},{"bike_id":"bf964fc1-de32-44d5-b1c1-b70ea222973b","system_id":"levelo_inurba_marseille","lat":43.31269,"lon":5.40165,"is_reserved":false,"is_disabled":false,"rental_uris":{"android":"levelo://app?vid=bf964fc1-de32-44d5-b1c1-b70ea222973b","ios":"levelo://app?vid=bf964fc1-de32-44d5-b1c1-b70ea222973b"},"vehicle_type_id":"4","last_reported":1692518851,"current_range_meters":31200,"station_id":"ce4bh092rcd13ifvqd30","pricing_plan_id":"free"},{"bike_id":"fdba5af8-2355-4f92-b9b1-7abebb728036","system_id":"levelo_inurba_marseille","lat":43.30934,"lon":5.4014,"is_reserved":false,"is_disabled":false,"rental_uris":{"android":"levelo://app?vid=fdba5af8-2355-4f92-b9b1-7abebb728036","ios":"levelo://app?vid=fdba5af8-2355-4f92-b9b1-7abebb728036"},"vehicle_type_id":"4","last_reported":1692518851,"current_range_meters":31200,"station_id":"ce4bgvp2rcd13ifvqct0","pricing_plan_id":"free"},{"bike_id":"38cd9f63-a18d-4f06-91c5-b8e14018bad3","system_id":"levelo_inurba_marseille","lat":43.309371,"lon":5.401449,"is_reserved":false,"is_disabled":false,"rental_uris":{"android":"levelo://app?vid=38cd9f63-a18d-4f06-91c5-b8e14018bad3","ios":"levelo://app?vid=38cd9f63-a18d-4f06-91c5-b8e14018bad3"},"vehicle_type_id":"4","last_reported":1692518851,"current_range_meters":30800,"station_id":"ce4bgvp2rcd13ifvqct0","pricing_plan_id":"free"},{"bike_id":"9209b11c-3887-43dd-b2c0-44ee22a88beb","system_id":"levelo_inurba_marseille","lat":43.309371,"lon":5.401449,"is_reserved":false,"is_disabled":false,"rental_uris":{"android":"levelo://app?vid=9209b11c-3887-43dd-b2c0-44ee22a88beb","ios":"levelo://app?vid=9209b11c-3887-43dd-b2c0-44ee22a88beb"},"vehicle_type_id":"4","last_reported":1692518851,"current_range_meters":6400,"station_id":"ce4bgvp2rcd13ifvqct0","pricing_plan_id":"free"},{"bike_id":"f73fbd3c-1819-46cd-85b9-75a990ede307","system_id":"levelo_inurba_marseille","lat":43.309371,"lon":5.401449,"is_reserved":false,"is_disabled":false,"rental_uris":{"android":"levelo://app?vid=f73fbd3c-1819-46cd-85b9-75a990ede307","ios":"levelo://app?vid=f73fbd3c-1819-46cd-85b9-75a990ede307"},"vehicle_type_id":"4","last_reported":1692518851,"current_range_meters":27600,"station_id":"ce4bgvp2rcd13ifvqct0","pricing_plan_id":"free"},{"bike_id":"87a887d0-c650-447b-89ea-af13ab0c6a81","system_id":"levelo_inurba_marseille","lat":43.3066,"lon":5.40087,"is_reserved":false,"is_disabled":false,"rental_uris":{"android":"levelo://app?vid=87a887d0-c650-447b-89ea-af13ab0c6a81","ios":"levelo://app?vid=87a887d0-c650-447b-89ea-af13ab0c6a81"},"vehicle_type_id":"4","last_reported":1692518851,"current_range_meters":0,"station_id":"ce4bh112rcd13ifvqda0","pricing_plan_id":"free"},{"bike_id":"23542ef4-3ab2-45de-b0be-af3f2110fe9d","system_id":"levelo_inurba_marseille","lat":43.304188,"lon":5.412904,"is_reserved":false,"is_disabled":false,"rental_uris":{"android":"levelo://app?vid=23542ef4-3ab2-45de-b0be-af3f2110fe9d","ios":"levelo://app?vid=23542ef4-3ab2-45de-b0be-af3f2110fe9d"},"vehicle_type_id":"4","last_reported":1692518851,"current_range_meters":26400,"station_id":"ce4bhop2rcd13ifvqh8g","pricing_plan_id":"free"},{"bike_id":"75199276-b705-4ad7-b6a9-49aeaa84628a","system_id":"levelo_inurba_marseille","lat":43.286591,"lon":5.363346,"is_reserved":false,"is_disabled":false,"rental_uris":{"android":"levelo://app?vid=75199276-b705-4ad7-b6a9-49aeaa84628a","ios":"levelo://app?vid=75199276-b705-4ad7-b6a9-49aeaa84628a"},"vehicle_type_id":"4","last_reported":1692518851,"current_range_meters":30000,"station_id":"ce4bhah2rcd13ifvqej0","pricing_plan_id":"free"},{"bike_id":"719a8639-b385-49c6-8b3e-a7d57880cb6a","system_id":"levelo_inurba_marseille","lat":43.286591,"lon":5.363346,"is_reserved":false,"is_disabled":false,"rental_uris":{"android":"levelo://app?vid=719a8639-b385-49c6-8b3e-a7d57880cb6a","ios":"levelo://app?vid=719a8639-b385-49c6-8b3e-a7d57880cb6a"},"vehicle_type_id":"4","last_reported":1692518851,"current_range_meters":20000,"station_id":"ce4bhah2rcd13ifvqej0","pricing_plan_id":"free"},{"bike_id":"da316603-6749-4d6b-a024-9aa160c64611","system_id":"levelo_inurba_marseille","lat":43.302759,"lon":5.400793,"is_reserved":false,"is_disabled":false,"rental_uris":{"android":"levelo://app?vid=da316603-6749-4d6b-a024-9aa160c64611","ios":"levelo://app?vid=da316603-6749-4d6b-a024-9aa160c64611"},"vehicle_type_id":"4","last_reported":1692518851,"current_range_meters":31600,"station_id":"ce4bgvh2rcd13ifvqcs0","pricing_plan_id":"free"},{"bike_id":"c6dd3d83-8bde-435a-b895-ee66de9b2197","system_id":"levelo_inurba_marseille","lat":43.302759,"lon":5.400793,"is_reserved":false,"is_disabled":false,"rental_uris":{"android":"levelo://app?vid=c6dd3d83-8bde-435a-b895-ee66de9b2197","ios":"levelo://app?vid=c6dd3d83-8bde-435a-b895-ee66de9b2197"},"vehicle_type_id":"4","last_reported":1692518851,"current_range_meters":31600,"station_id":"ce4bgvh2rcd13ifvqcs0","pricing_plan_id":"free"},{"bike_id":"24a32764-9cfa-445a-8cc5-9478fca2ecbf","system_id":"levelo_inurba_marseille","lat":43.302759,"lon":5.400793,"is_reserved":false,"is_disabled":false,"rental_uris":{"android":"levelo://app?vid=24a32764-9cfa-445a-8cc5-9478fca2ecbf","ios":"levelo://app?vid=24a32764-9cfa-445a-8cc5-9478fca2ecbf"},"vehicle_type_id":"4","last_reported":1692518851,"current_range_meters":31200,"station_id":"ce4bgvh2rcd13ifvqcs0","pricing_plan_id":"free"},{"bike_id":"4ae00035-f661-4343-8548-c6a621612092","system_id":"levelo_inurba_marseille","lat":43.302759,"lon":5.400793,"is_reserved":false,"is_disabled":false,"rental_uris":{"android":"levelo://app?vid=4ae00035-f661-4343-8548-c6a621612092","ios":"levelo://app?vid=4ae00035-f661-4343-8548-c6a621612092"},"vehicle_type_id":"4","last_reported":1692518851,"current_range_meters":31600,"station_id":"ce4bgvh2rcd13ifvqcs0","pricing_plan_id":"free"},{"bike_id":"247cac79-8ca0-414d-8f23-3dde42f93a50","system_id":"levelo_inurba_marseille","lat":43.302759,"lon":5.400793,"is_reserved":false,"is_disabled":false,"rental_uris":{"android":"levelo://app?vid=247cac79-8ca0-414d-8f23-3dde42f93a50","ios":"levelo://app?vid=247cac79-8ca0-414d-8f23-3dde42f93a50"},"vehicle_type_id":"4","last_reported":1692518851,"current_range_meters":23600,"station_id":"ce4bgvh2rcd13ifvqcs0","pricing_plan_id":"free"},{"bike_id":"02076c38-02f2-454a-a923-24f3ba4cf21a","system_id":"levelo_inurba_marseille","lat":43.302759,"lon":5.400793,"is_reserved":false,"is_disabled":false,"rental_uris":{"android":"levelo://app?vid=02076c38-02f2-454a-a923-24f3ba4cf21a","ios":"levelo://app?vid=02076c38-02f2-454a-a923-24f3ba4cf21a"},"vehicle_type_id":"4","last_reported":1692518851,"current_range_meters":31600,"station_id":"ce4bgvh2rcd13ifvqcs0","pricing_plan_id":"free"},{"bike_id":"7da9e437-1e79-4b5f-9ab0-65254ac17dd7","system_id":"levelo_inurba_marseille","lat":43.31645,"lon":5.40433,"is_reserved":false,"is_disabled":false,"rental_uris":{"android":"levelo://app?vid=7da9e437-1e79-4b5f-9ab0-65254ac17dd7","ios":"levelo://app?vid=7da9e437-1e79-4b5f-9ab0-65254ac17dd7"},"vehicle_type_id":"4","last_reported":1692518851,"current_range_meters":22400,"station_id":"ce4bh012rcd13ifvqd00","pricing_plan_id":"free"},{"bike_id":"77f690d2-59aa-4836-8abb-a03fd6b57c3c","system_id":"levelo_inurba_marseille","lat":43.31643,"lon":5.40434,"is_reserved":false,"is_disabled":false,"rental_uris":{"android":"levelo://app?vid=77f690d2-59aa-4836-8abb-a03fd6b57c3c","ios":"levelo://app?vid=77f690d2-59aa-4836-8abb-a03fd6b57c3c"},"vehicle_type_id":"4","last_reported":1692518851,"current_range_meters":30000,"station_id":"ce4bh012rcd13ifvqd00","pricing_plan_id":"free"},{"bike_id":"9884d10a-f71f-46d9-a317-89f19dcdaf89","system_id":"levelo_inurba_marseille","lat":43.31642,"lon":5.40435,"is_reserved":false,"is_disabled":false,"rental_uris":{"android":"levelo://app?vid=9884d10a-f71f-46d9-a317-89f19dcdaf89","ios":"levelo://app?vid=9884d10a-f71f-46d9-a317-89f19dcdaf89"},"vehicle_type_id":"4","last_reported":1692518851,"current_range_meters":7200,"station_id":"ce4bh012rcd13ifvqd00","pricing_plan_id":"free"},{"bike_id":"6a13e00c-5c02-4bf2-a000-3257752288a2","system_id":"levelo_inurba_marseille","lat":43.31645,"lon":5.40437,"is_reserved":false,"is_disabled":false,"rental_uris":{"android":"levelo://app?vid=6a13e00c-5c02-4bf2-a000-3257752288a2","ios":"levelo://app?vid=6a13e00c-5c02-4bf2-a000-3257752288a2"},"vehicle_type_id":"4","last_reported":1692518851,"current_range_meters":10800,"station_id":"ce4bh012rcd13ifvqd00","pricing_plan_id":"free"},{"bike_id":"bb05d5de-a596-4577-ba70-a59463fa439c","system_id":"levelo_inurba_marseille","lat":43.31645,"lon":5.40439,"is_reserved":false,"is_disabled":false,"rental_uris":{"android":"levelo://app?vid=bb05d5de-a596-4577-ba70-a59463fa439c","ios":"levelo://app?vid=bb05d5de-a596-4577-ba70-a59463fa439c"},"vehicle_type_id":"4","last_reported":1692518851,"current_range_meters":30800,"station_id":"ce4bh012rcd13ifvqd00","pricing_plan_id":"free"},{"bike_id":"ede3cb35-ef45-47b7-8e45-bfa997cf1250","system_id":"levelo_inurba_marseille","lat":43.31646,"lon":5.40439,"is_reserved":false,"is_disabled":false,"rental_uris":{"android":"levelo://app?vid=ede3cb35-ef45-47b7-8e45-bfa997cf1250","ios":"levelo://app?vid=ede3cb35-ef45-47b7-8e45-bfa997cf1250"},"vehicle_type_id":"4","last_reported":1692518851,"current_range_meters":30000,"station_id":"ce4bh012rcd13ifvqd00","pricing_plan_id":"free"},{"bike_id":"ef6b7f8a-9c62-47ba-b968-c1cbe7e38855","system_id":"levelo_inurba_marseille","lat":43.29203,"lon":5.3932,"is_reserved":false,"is_disabled":false,"rental_uris":{"android":"levelo://app?vid=ef6b7f8a-9c62-47ba-b968-c1cbe7e38855","ios":"levelo://app?vid=ef6b7f8a-9c62-47ba-b968-c1cbe7e38855"},"vehicle_type_id":"4","last_reported":1692518851,"current_range_meters":16800,"station_id":"ce4bh192rcd13ifvqdd0","pricing_plan_id":"free"},{"bike_id":"4939d6ba-4452-430e-9c37-dc63a1ac2d44","system_id":"levelo_inurba_marseille","lat":43.291994,"lon":5.392907,"is_reserved":false,"is_disabled":false,"rental_uris":{"android":"levelo://app?vid=4939d6ba-4452-430e-9c37-dc63a1ac2d44","ios":"levelo://app?vid=4939d6ba-4452-430e-9c37-dc63a1ac2d44"},"vehicle_type_id":"4","last_reported":1692518851,"current_range_meters":24000,"station_id":"ce4bh192rcd13ifvqdd0","pricing_plan_id":"free"},{"bike_id":"75bf11c5-641f-469a-a939-e15e8ea98bf8","system_id":"levelo_inurba_marseille","lat":43.284538,"lon":5.358657,"is_reserved":false,"is_disabled":false,"rental_uris":{"android":"levelo://app?vid=75bf11c5-641f-469a-a939-e15e8ea98bf8","ios":"levelo://app?vid=75bf11c5-641f-469a-a939-e15e8ea98bf8"},"vehicle_type_id":"4","last_reported":1692518851,"current_range_meters":29200,"station_id":"ce4bhah2rcd13ifvqei0","pricing_plan_id":"free"},{"bike_id":"863352c1-a89f-4cfd-bade-b09f3c5f6ecb","system_id":"levelo_inurba_marseille","lat":43.284538,"lon":5.358657,"is_reserved":false,"is_disabled":false,"rental_uris":{"android":"levelo://app?vid=863352c1-a89f-4cfd-bade-b09f3c5f6ecb","ios":"levelo://app?vid=863352c1-a89f-4cfd-bade-b09f3c5f6ecb"},"vehicle_type_id":"4","last_reported":1692518851,"current_range_meters":31200,"station_id":"ce4bhah2rcd13ifvqei0","pricing_plan_id":"free"},{"bike_id":"be38e6c3-f21a-479a-9d74-608c7b78930f","system_id":"levelo_inurba_marseille","lat":43.28619,"lon":5.35104,"is_reserved":false,"is_disabled":false,"rental_uris":{"android":"levelo://app?vid=be38e6c3-f21a-479a-9d74-608c7b78930f","ios":"levelo://app?vid=be38e6c3-f21a-479a-9d74-608c7b78930f"},"vehicle_type_id":"4","last_reported":1692518851,"current_range_meters":25200,"station_id":"ce4bhch2rcd13ifvqeug","pricing_plan_id":"free"},{"bike_id":"b073666a-3b1e-4ef4-820f-bccd3f9e8a82","system_id":"levelo_inurba_marseille","lat":43.285848,"lon":5.350787,"is_reserved":false,"is_disabled":false,"rental_uris":{"android":"levelo://app?vid=b073666a-3b1e-4ef4-820f-bccd3f9e8a82","ios":"levelo://app?vid=b073666a-3b1e-4ef4-820f-bccd3f9e8a82"},"vehicle_type_id":"4","last_reported":1692518851,"current_range_meters":28800,"station_id":"ce4bhch2rcd13ifvqeug","pricing_plan_id":"free"},{"bike_id":"6d117b20-a359-4e6c-bb95-50ba21cd4319","system_id":"levelo_inurba_marseille","lat":43.28615,"lon":5.35104,"is_reserved":false,"is_disabled":false,"rental_uris":{"android":"levelo://app?vid=6d117b20-a359-4e6c-bb95-50ba21cd4319","ios":"levelo://app?vid=6d117b20-a359-4e6c-bb95-50ba21cd4319"},"vehicle_type_id":"4","last_reported":1692518851,"current_range_meters":30800,"station_id":"ce4bhch2rcd13ifvqeug","pricing_plan_id":"free"},{"bike_id":"35eec3a1-aa54-4990-8eb4-78e6c0dd24d0","system_id":"levelo_inurba_marseille","lat":43.285856,"lon":5.350771,"is_reserved":false,"is_disabled":false,"rental_uris":{"android":"levelo://app?vid=35eec3a1-aa54-4990-8eb4-78e6c0dd24d0","ios":"levelo://app?vid=35eec3a1-aa54-4990-8eb4-78e6c0dd24d0"},"vehicle_type_id":"4","last_reported":1692518851,"current_range_meters":30400,"station_id":"ce4bhch2rcd13ifvqeug","pricing_plan_id":"free"},{"bike_id":"9ba3aefb-36df-409b-b008-9f86555ed039","system_id":"levelo_inurba_marseille","lat":43.286052,"lon":5.351035,"is_reserved":false,"is_disabled":false,"rental_uris":{"android":"levelo://app?vid=9ba3aefb-36df-409b-b008-9f86555ed039","ios":"levelo://app?vid=9ba3aefb-36df-409b-b008-9f86555ed039"},"vehicle_type_id":"4","last_reported":1692518851,"current_range_meters":28000,"station_id":"ce4bhch2rcd13ifvqeug","pricing_plan_id":"free"},{"bike_id":"9eaea9fa-1be3-4ed7-9bd1-c7753fb144d0","system_id":"levelo_inurba_marseille","lat":43.28411,"lon":5.3749,"is_reserved":false,"is_disabled":false,"rental_uris":{"android":"levelo://app?vid=9eaea9fa-1be3-4ed7-9bd1-c7753fb144d0","ios":"levelo://app?vid=9eaea9fa-1be3-4ed7-9bd1-c7753fb144d0"},"vehicle_type_id":"4","last_reported":1692518851,"current_range_meters":28000,"station_id":"ce4bh412rcd13ifvqds0","pricing_plan_id":"free"},{"bike_id":"2363d3b5-6c15-401a-a59c-ee80bd4af927","system_id":"levelo_inurba_marseille","lat":43.28415,"lon":5.37522,"is_reserved":false,"is_disabled":false,"rental_uris":{"android":"levelo://app?vid=2363d3b5-6c15-401a-a59c-ee80bd4af927","ios":"levelo://app?vid=2363d3b5-6c15-401a-a59c-ee80bd4af927"},"vehicle_type_id":"4","last_reported":1692518851,"current_range_meters":17600,"station_id":"ce4bh412rcd13ifvqds0","pricing_plan_id":"free"},{"bike_id":"a13d0d68-42f7-4194-931c-32cf032356ac","system_id":"levelo_inurba_marseille","lat":43.28409,"lon":5.37504,"is_reserved":false,"is_disabled":false,"rental_uris":{"android":"levelo://app?vid=a13d0d68-42f7-4194-931c-32cf032356ac","ios":"levelo://app?vid=a13d0d68-42f7-4194-931c-32cf032356ac"},"vehicle_type_id":"4","last_reported":1692518851,"current_range_meters":31200,"station_id":"ce4bh412rcd13ifvqds0","pricing_plan_id":"free"},{"bike_id":"e99fae9f-d2c4-45fb-8e24-e8a4df68ac7f","system_id":"levelo_inurba_marseille","lat":43.295713,"lon":5.399639,"is_reserved":false,"is_disabled":false,"rental_uris":{"android":"levelo://app?vid=e99fae9f-d2c4-45fb-8e24-e8a4df68ac7f","ios":"levelo://app?vid=e99fae9f-d2c4-45fb-8e24-e8a4df68ac7f"},"vehicle_type_id":"4","last_reported":1692518851,"current_range_meters":6800,"station_id":"ce4bh312rcd13ifvqdj0","pricing_plan_id":"free"},{"bike_id":"cc6dae32-e0d2-48d3-9f0c-3d9504ca8f76","system_id":"levelo_inurba_marseille","lat":43.286595,"lon":5.386795,"is_reserved":false,"is_disabled":false,"rental_uris":{"android":"levelo://app?vid=cc6dae32-e0d2-48d3-9f0c-3d9504ca8f76","ios":"levelo://app?vid=cc6dae32-e0d2-48d3-9f0c-3d9504ca8f76"},"vehicle_type_id":"4","last_reported":1692518851,"current_range_meters":23600,"station_id":"ce4bh492rcd13ifvqdug","pricing_plan_id":"free"},{"bike_id":"1c90deac-08fc-47ae-adc2-77163223a025","system_id":"levelo_inurba_marseille","lat":43.286595,"lon":5.386795,"is_reserved":false,"is_disabled":false,"rental_uris":{"android":"levelo://app?vid=1c90deac-08fc-47ae-adc2-77163223a025","ios":"levelo://app?vid=1c90deac-08fc-47ae-adc2-77163223a025"},"vehicle_type_id":"4","last_reported":1692518851,"current_range_meters":20400,"station_id":"ce4bh492rcd13ifvqdug","pricing_plan_id":"free"},{"bike_id":"bdc3f47b-e1d1-4a3a-b0c1-e8a91d4b0833","system_id":"levelo_inurba_marseille","lat":43.31888,"lon":5.40724,"is_reserved":false,"is_disabled":false,"rental_uris":{"android":"levelo://app?vid=bdc3f47b-e1d1-4a3a-b0c1-e8a91d4b0833","ios":"levelo://app?vid=bdc3f47b-e1d1-4a3a-b0c1-e8a91d4b0833"},"vehicle_type_id":"4","last_reported":1692518851,"current_range_meters":18000,"station_id":"","pricing_plan_id":"free"},{"bike_id":"1b87b56f-4215-463a-b1c5-b340fcd8ac67","system_id":"levelo_inurba_marseille","lat":43.319179,"lon":5.407725,"is_reserved":false,"is_disabled":false,"rental_uris":{"android":"levelo://app?vid=1b87b56f-4215-463a-b1c5-b340fcd8ac67","ios":"levelo://app?vid=1b87b56f-4215-463a-b1c5-b340fcd8ac67"},"vehicle_type_id":"4","last_reported":1692518851,"current_range_meters":2000,"station_id":"ce4bhq12rcd13ifvqhig","pricing_plan_id":"free"},{"bike_id":"e63a24e9-4d9d-4b90-829e-bb9789271d21","system_id":"levelo_inurba_marseille","lat":43.319179,"lon":5.407725,"is_reserved":false,"is_disabled":false,"rental_uris":{"android":"levelo://app?vid=e63a24e9-4d9d-4b90-829e-bb9789271d21","ios":"levelo://app?vid=e63a24e9-4d9d-4b90-829e-bb9789271d21"},"vehicle_type_id":"4","last_reported":1692518851,"current_range_meters":23600,"station_id":"ce4bhq12rcd13ifvqhig","pricing_plan_id":"free"},{"bike_id":"f13d5e3e-fdf4-4bdd-8a95-6e8a1ceb27f9","system_id":"levelo_inurba_marseille","lat":43.319179,"lon":5.407725,"is_reserved":false,"is_disabled":false,"rental_uris":{"android":"levelo://app?vid=f13d5e3e-fdf4-4bdd-8a95-6e8a1ceb27f9","ios":"levelo://app?vid=f13d5e3e-fdf4-4bdd-8a95-6e8a1ceb27f9"},"vehicle_type_id":"4","last_reported":1692518851,"current_range_meters":30800,"station_id":"ce4bhq12rcd13ifvqhig","pricing_plan_id":"free"},{"bike_id":"877a0b6d-e768-4923-8ce1-6527d0d0cdf6","system_id":"levelo_inurba_marseille","lat":43.319179,"lon":5.407725,"is_reserved":false,"is_disabled":false,"rental_uris":{"android":"levelo://app?vid=877a0b6d-e768-4923-8ce1-6527d0d0cdf6","ios":"levelo://app?vid=877a0b6d-e768-4923-8ce1-6527d0d0cdf6"},"vehicle_type_id":"4","last_reported":1692518851,"current_range_meters":26400,"station_id":"ce4bhq12rcd13ifvqhig","pricing_plan_id":"free"},{"bike_id":"17105054-6fd8-493b-b0be-1ed88688055c","system_id":"levelo_inurba_marseille","lat":43.33719,"lon":5.39175,"is_reserved":false,"is_disabled":false,"rental_uris":{"android":"levelo://app?vid=17105054-6fd8-493b-b0be-1ed88688055c","ios":"levelo://app?vid=17105054-6fd8-493b-b0be-1ed88688055c"},"vehicle_type_id":"4","last_reported":1692518851,"current_range_meters":27200,"station_id":"ce4bhr92rcd13ifvqhsg","pricing_plan_id":"free"},{"bike_id":"efe8b264-ad35-4139-b98d-40041f267f16","system_id":"levelo_inurba_marseille","lat":43.337168,"lon":5.391825,"is_reserved":false,"is_disabled":false,"rental_uris":{"android":"levelo://app?vid=efe8b264-ad35-4139-b98d-40041f267f16","ios":"levelo://app?vid=efe8b264-ad35-4139-b98d-40041f267f16"},"vehicle_type_id":"4","last_reported":1692518851,"current_range_meters":24400,"station_id":"ce4bhr92rcd13ifvqhsg","pricing_plan_id":"free"},{"bike_id":"72fc020d-a1d4-460a-a3d1-6187a1ea65d2","system_id":"levelo_inurba_marseille","lat":43.33721,"lon":5.39183,"is_reserved":false,"is_disabled":false,"rental_uris":{"android":"levelo://app?vid=72fc020d-a1d4-460a-a3d1-6187a1ea65d2","ios":"levelo://app?vid=72fc020d-a1d4-460a-a3d1-6187a1ea65d2"},"vehicle_type_id":"4","last_reported":1692518851,"current_range_meters":24000,"station_id":"ce4bhr92rcd13ifvqhsg","pricing_plan_id":"free"},{"bike_id":"2b3f06e0-8f2d-4133-9563-f19f57fe46e5","system_id":"levelo_inurba_marseille","lat":43.337168,"lon":5.391825,"is_reserved":false,"is_disabled":false,"rental_uris":{"android":"levelo://app?vid=2b3f06e0-8f2d-4133-9563-f19f57fe46e5","ios":"levelo://app?vid=2b3f06e0-8f2d-4133-9563-f19f57fe46e5"},"vehicle_type_id":"4","last_reported":1692518851,"current_range_meters":7600,"station_id":"ce4bhr92rcd13ifvqhsg","pricing_plan_id":"free"},{"bike_id":"db0a8054-293b-4caa-b72d-316d0557cd0c","system_id":"levelo_inurba_marseille","lat":43.323464,"lon":5.406297,"is_reserved":false,"is_disabled":false,"rental_uris":{"android":"levelo://app?vid=db0a8054-293b-4caa-b72d-316d0557cd0c","ios":"levelo://app?vid=db0a8054-293b-4caa-b72d-316d0557cd0c"},"vehicle_type_id":"4","last_reported":1692518851,"current_range_meters":28800,"station_id":"ce4bhq92rcd13ifvqhjg","pricing_plan_id":"free"},{"bike_id":"12c0f407-4ac2-49d3-b1e8-783bd26a8644","system_id":"levelo_inurba_marseille","lat":43.3372,"lon":5.39191,"is_reserved":false,"is_disabled":false,"rental_uris":{"android":"levelo://app?vid=12c0f407-4ac2-49d3-b1e8-783bd26a8644","ios":"levelo://app?vid=12c0f407-4ac2-49d3-b1e8-783bd26a8644"},"vehicle_type_id":"4","last_reported":1692518851,"current_range_meters":26800,"station_id":"ce4bhr92rcd13ifvqhsg","pricing_plan_id":"free"},{"bike_id":"afec74e1-dc2b-42ed-af0f-94d00f5fc581","system_id":"levelo_inurba_marseille","lat":43.32337,"lon":5.40618,"is_reserved":false,"is_disabled":false,"rental_uris":{"android":"levelo://app?vid=afec74e1-dc2b-42ed-af0f-94d00f5fc581","ios":"levelo://app?vid=afec74e1-dc2b-42ed-af0f-94d00f5fc581"},"vehicle_type_id":"4","last_reported":1692518851,"current_range_meters":31200,"station_id":"ce4bhq92rcd13ifvqhjg","pricing_plan_id":"free"},{"bike_id":"0dda2562-498f-4f90-abfb-f3c666db2d2e","system_id":"levelo_inurba_marseille","lat":43.33725,"lon":5.39183,"is_reserved":false,"is_disabled":false,"rental_uris":{"android":"levelo://app?vid=0dda2562-498f-4f90-abfb-f3c666db2d2e","ios":"levelo://app?vid=0dda2562-498f-4f90-abfb-f3c666db2d2e"},"vehicle_type_id":"4","last_reported":1692518851,"current_range_meters":20800,"station_id":"ce4bhr92rcd13ifvqhsg","pricing_plan_id":"free"},{"bike_id":"baef72cb-b22b-4d30-82e9-ac3a300140d7","system_id":"levelo_inurba_marseille","lat":43.323464,"lon":5.406297,"is_reserved":false,"is_disabled":false,"rental_uris":{"android":"levelo://app?vid=baef72cb-b22b-4d30-82e9-ac3a300140d7","ios":"levelo://app?vid=baef72cb-b22b-4d30-82e9-ac3a300140d7"},"vehicle_type_id":"4","last_reported":1692518851,"current_range_meters":29600,"station_id":"ce4bhq92rcd13ifvqhjg","pricing_plan_id":"free"},{"bike_id":"7d2969ab-a065-4a23-b19e-667095d799c9","system_id":"levelo_inurba_marseille","lat":43.33727,"lon":5.39187,"is_reserved":false,"is_disabled":false,"rental_uris":{"android":"levelo://app?vid=7d2969ab-a065-4a23-b19e-667095d799c9","ios":"levelo://app?vid=7d2969ab-a065-4a23-b19e-667095d799c9"},"vehicle_type_id":"4","last_reported":1692518851,"current_range_meters":7200,"station_id":"ce4bhr92rcd13ifvqhsg","pricing_plan_id":"free"},{"bike_id":"d3b7ca63-e616-456b-9e2d-d17ed72c8be4","system_id":"levelo_inurba_marseille","lat":43.323464,"lon":5.406297,"is_reserved":false,"is_disabled":false,"rental_uris":{"android":"levelo://app?vid=d3b7ca63-e616-456b-9e2d-d17ed72c8be4","ios":"levelo://app?vid=d3b7ca63-e616-456b-9e2d-d17ed72c8be4"},"vehicle_type_id":"4","last_reported":1692518851,"current_range_meters":30000,"station_id":"ce4bhq92rcd13ifvqhjg","pricing_plan_id":"free"},{"bike_id":"02f29c2d-847e-4148-9200-bdb4c19acc46","system_id":"levelo_inurba_marseille","lat":43.3373,"lon":5.39184,"is_reserved":false,"is_disabled":false,"rental_uris":{"android":"levelo://app?vid=02f29c2d-847e-4148-9200-bdb4c19acc46","ios":"levelo://app?vid=02f29c2d-847e-4148-9200-bdb4c19acc46"},"vehicle_type_id":"4","last_reported":1692518851,"current_range_meters":27200,"station_id":"ce4bhr92rcd13ifvqhsg","pricing_plan_id":"free"},{"bike_id":"186ddf38-a5ca-44a9-9dd3-9bfe2a53544b","system_id":"levelo_inurba_marseille","lat":43.33727,"lon":5.3919,"is_reserved":false,"is_disabled":false,"rental_uris":{"android":"levelo://app?vid=186ddf38-a5ca-44a9-9dd3-9bfe2a53544b","ios":"levelo://app?vid=186ddf38-a5ca-44a9-9dd3-9bfe2a53544b"},"vehicle_type_id":"4","last_reported":1692518851,"current_range_meters":26000,"station_id":"ce4bhr92rcd13ifvqhsg","pricing_plan_id":"free"},{"bike_id":"c24cecf2-0503-470c-b3d3-fc37f377f710","system_id":"levelo_inurba_marseille","lat":43.33729,"lon":5.39187,"is_reserved":false,"is_disabled":false,"rental_uris":{"android":"levelo://app?vid=c24cecf2-0503-470c-b3d3-fc37f377f710","ios":"levelo://app?vid=c24cecf2-0503-470c-b3d3-fc37f377f710"},"vehicle_type_id":"4","last_reported":1692518851,"current_range_meters":26400,"station_id":"ce4bhr92rcd13ifvqhsg","pricing_plan_id":"free"},{"bike_id":"e45012d8-673a-4bd6-93d3-a427f767a00d","system_id":"levelo_inurba_marseille","lat":43.33729,"lon":5.39188,"is_reserved":false,"is_disabled":false,"rental_uris":{"android":"levelo://app?vid=e45012d8-673a-4bd6-93d3-a427f767a00d","ios":"levelo://app?vid=e45012d8-673a-4bd6-93d3-a427f767a00d"},"vehicle_type_id":"4","last_reported":1692518851,"current_range_meters":24800,"station_id":"ce4bhr92rcd13ifvqhsg","pricing_plan_id":"free"},{"bike_id":"01f563c5-7ac0-4d44-b1b3-0549f3b949f3","system_id":"levelo_inurba_marseille","lat":43.33727,"lon":5.39192,"is_reserved":false,"is_disabled":false,"rental_uris":{"android":"levelo://app?vid=01f563c5-7ac0-4d44-b1b3-0549f3b949f3","ios":"levelo://app?vid=01f563c5-7ac0-4d44-b1b3-0549f3b949f3"},"vehicle_type_id":"4","last_reported":1692518851,"current_range_meters":27200,"station_id":"ce4bhr92rcd13ifvqhsg","pricing_plan_id":"free"},{"bike_id":"8bd09c71-02ae-4371-8b55-ce1e7e2bf2df","system_id":"levelo_inurba_marseille","lat":43.33731,"lon":5.39188,"is_reserved":false,"is_disabled":false,"rental_uris":{"android":"levelo://app?vid=8bd09c71-02ae-4371-8b55-ce1e7e2bf2df","ios":"levelo://app?vid=8bd09c71-02ae-4371-8b55-ce1e7e2bf2df"},"vehicle_type_id":"4","last_reported":1692518851,"current_range_meters":27600,"station_id":"ce4bhr92rcd13ifvqhsg","pricing_plan_id":"free"},{"bike_id":"44f9bb63-411f-4a88-9cf3-679d917ad37c","system_id":"levelo_inurba_marseille","lat":43.29797,"lon":5.40394,"is_reserved":false,"is_disabled":false,"rental_uris":{"android":"levelo://app?vid=44f9bb63-411f-4a88-9cf3-679d917ad37c","ios":"levelo://app?vid=44f9bb63-411f-4a88-9cf3-679d917ad37c"},"vehicle_type_id":"4","last_reported":1692518851,"current_range_meters":22000,"station_id":"ce4bh112rcd13ifvqd90","pricing_plan_id":"free"},{"bike_id":"86d66351-89fd-4d44-89ed-1f1dd3a164d0","system_id":"levelo_inurba_marseille","lat":43.284787,"lon":5.384116,"is_reserved":false,"is_disabled":false,"rental_uris":{"android":"levelo://app?vid=86d66351-89fd-4d44-89ed-1f1dd3a164d0","ios":"levelo://app?vid=86d66351-89fd-4d44-89ed-1f1dd3a164d0"},"vehicle_type_id":"4","last_reported":1692518851,"current_range_meters":27600,"station_id":"ce4bh512rcd13ifvqe3g","pricing_plan_id":"free"},{"bike_id":"bd7badb3-5d9e-460f-983e-21a382a4e73f","system_id":"levelo_inurba_marseille","lat":43.297946,"lon":5.404063,"is_reserved":false,"is_disabled":false,"rental_uris":{"android":"levelo://app?vid=bd7badb3-5d9e-460f-983e-21a382a4e73f","ios":"levelo://app?vid=bd7badb3-5d9e-460f-983e-21a382a4e73f"},"vehicle_type_id":"4","last_reported":1692518851,"current_range_meters":15200,"station_id":"ce4bh112rcd13ifvqd90","pricing_plan_id":"free"},{"bike_id":"38a01892-bcce-4a8c-b5ef-b19163c7da55","system_id":"levelo_inurba_marseille","lat":43.29798,"lon":5.40402,"is_reserved":false,"is_disabled":false,"rental_uris":{"android":"levelo://app?vid=38a01892-bcce-4a8c-b5ef-b19163c7da55","ios":"levelo://app?vid=38a01892-bcce-4a8c-b5ef-b19163c7da55"},"vehicle_type_id":"4","last_reported":1692518851,"current_range_meters":20000,"station_id":"ce4bh112rcd13ifvqd90","pricing_plan_id":"free"},{"bike_id":"f6e758f5-f464-46fa-895c-6f0a640e54c0","system_id":"levelo_inurba_marseille","lat":43.29797,"lon":5.40405,"is_reserved":false,"is_disabled":false,"rental_uris":{"android":"levelo://app?vid=f6e758f5-f464-46fa-895c-6f0a640e54c0","ios":"levelo://app?vid=f6e758f5-f464-46fa-895c-6f0a640e54c0"},"vehicle_type_id":"4","last_reported":1692518851,"current_range_meters":30800,"station_id":"ce4bh112rcd13ifvqd90","pricing_plan_id":"free"},{"bike_id":"cbe7df89-b56d-409e-afb5-9eb600a8a0ba","system_id":"levelo_inurba_marseille","lat":43.29793,"lon":5.40405,"is_reserved":false,"is_disabled":false,"rental_uris":{"android":"levelo://app?vid=cbe7df89-b56d-409e-afb5-9eb600a8a0ba","ios":"levelo://app?vid=cbe7df89-b56d-409e-afb5-9eb600a8a0ba"},"vehicle_type_id":"4","last_reported":1692518851,"current_range_meters":24400,"station_id":"ce4bh112rcd13ifvqd90","pricing_plan_id":"free"},{"bike_id":"5334cee5-c9ac-46f5-9b83-1487973bf88b","system_id":"levelo_inurba_marseille","lat":43.298,"lon":5.40414,"is_reserved":false,"is_disabled":false,"rental_uris":{"android":"levelo://app?vid=5334cee5-c9ac-46f5-9b83-1487973bf88b","ios":"levelo://app?vid=5334cee5-c9ac-46f5-9b83-1487973bf88b"},"vehicle_type_id":"4","last_reported":1692518851,"current_range_meters":31200,"station_id":"ce4bh112rcd13ifvqd90","pricing_plan_id":"free"},{"bike_id":"e8815cb7-cdb0-40b7-8b37-291ba5527b4e","system_id":"levelo_inurba_marseille","lat":43.288501,"lon":5.393087,"is_reserved":false,"is_disabled":false,"rental_uris":{"android":"levelo://app?vid=e8815cb7-cdb0-40b7-8b37-291ba5527b4e","ios":"levelo://app?vid=e8815cb7-cdb0-40b7-8b37-291ba5527b4e"},"vehicle_type_id":"4","last_reported":1692518851,"current_range_meters":27200,"station_id":"ce4bh2p2rcd13ifvqdi0","pricing_plan_id":"free"},{"bike_id":"9601bc0b-7cec-44d4-afd1-7f02a22af5c2","system_id":"levelo_inurba_marseille","lat":43.29794,"lon":5.40415,"is_reserved":false,"is_disabled":false,"rental_uris":{"android":"levelo://app?vid=9601bc0b-7cec-44d4-afd1-7f02a22af5c2","ios":"levelo://app?vid=9601bc0b-7cec-44d4-afd1-7f02a22af5c2"},"vehicle_type_id":"4","last_reported":1692518851,"current_range_meters":31200,"station_id":"ce4bh112rcd13ifvqd90","pricing_plan_id":"free"},{"bike_id":"710e09d6-72e8-45ab-8e7c-6ded2af2238f","system_id":"levelo_inurba_marseille","lat":43.283494,"lon":5.380945,"is_reserved":false,"is_disabled":false,"rental_uris":{"android":"levelo://app?vid=710e09d6-72e8-45ab-8e7c-6ded2af2238f","ios":"levelo://app?vid=710e09d6-72e8-45ab-8e7c-6ded2af2238f"},"vehicle_type_id":"4","last_reported":1692518851,"current_range_meters":28800,"station_id":"ce4bh412rcd13ifvqdr0","pricing_plan_id":"free"},{"bike_id":"e44d1e31-fb7d-4d45-b4eb-c060512db9cb","system_id":"levelo_inurba_marseille","lat":43.28423,"lon":5.34985,"is_reserved":false,"is_disabled":false,"rental_uris":{"android":"levelo://app?vid=e44d1e31-fb7d-4d45-b4eb-c060512db9cb","ios":"levelo://app?vid=e44d1e31-fb7d-4d45-b4eb-c060512db9cb"},"vehicle_type_id":"4","last_reported":1692518851,"current_range_meters":30800,"station_id":"ce4bhbh2rcd13ifvqepg","pricing_plan_id":"free"},{"bike_id":"66139586-765e-4df4-852b-17d508c1991d","system_id":"levelo_inurba_marseille","lat":43.28422,"lon":5.34977,"is_reserved":false,"is_disabled":false,"rental_uris":{"android":"levelo://app?vid=66139586-765e-4df4-852b-17d508c1991d","ios":"levelo://app?vid=66139586-765e-4df4-852b-17d508c1991d"},"vehicle_type_id":"4","last_reported":1692518851,"current_range_meters":14000,"station_id":"ce4bhbh2rcd13ifvqepg","pricing_plan_id":"free"},{"bike_id":"3a78b823-185c-439d-af78-03f7e0b4a6ce","system_id":"levelo_inurba_marseille","lat":43.28421,"lon":5.3497,"is_reserved":false,"is_disabled":false,"rental_uris":{"android":"levelo://app?vid=3a78b823-185c-439d-af78-03f7e0b4a6ce","ios":"levelo://app?vid=3a78b823-185c-439d-af78-03f7e0b4a6ce"},"vehicle_type_id":"4","last_reported":1692518851,"current_range_meters":27600,"station_id":"ce4bhbh2rcd13ifvqepg","pricing_plan_id":"free"},{"bike_id":"f50aca5f-cf5b-4020-925f-826a2e34874f","system_id":"levelo_inurba_marseille","lat":43.289363,"lon":5.396322,"is_reserved":false,"is_disabled":false,"rental_uris":{"android":"levelo://app?vid=f50aca5f-cf5b-4020-925f-826a2e34874f","ios":"levelo://app?vid=f50aca5f-cf5b-4020-925f-826a2e34874f"},"vehicle_type_id":"4","last_reported":1692518851,"current_range_meters":30800,"station_id":"ce4bh3h2rcd13ifvqdn0","pricing_plan_id":"free"},{"bike_id":"5cec26ac-344f-432b-af34-450b75305b9b","system_id":"levelo_inurba_marseille","lat":43.29281,"lon":5.40122,"is_reserved":false,"is_disabled":false,"rental_uris":{"android":"levelo://app?vid=5cec26ac-344f-432b-af34-450b75305b9b","ios":"levelo://app?vid=5cec26ac-344f-432b-af34-450b75305b9b"},"vehicle_type_id":"4","last_reported":1692518851,"current_range_meters":31200,"station_id":"ce4bh312rcd13ifvqdk0","pricing_plan_id":"free"},{"bike_id":"a328a892-409c-468d-be85-b591f045c0d3","system_id":"levelo_inurba_marseille","lat":43.282754,"lon":5.350519,"is_reserved":false,"is_disabled":false,"rental_uris":{"android":"levelo://app?vid=a328a892-409c-468d-be85-b591f045c0d3","ios":"levelo://app?vid=a328a892-409c-468d-be85-b591f045c0d3"},"vehicle_type_id":"4","last_reported":1692518851,"current_range_meters":31200,"station_id":"ce4bhbp2rcd13ifvqerg","pricing_plan_id":"free"},